Time,Robot Mode,Loop Time,Error Status,Error Code,Error Source,Left Motor Output,Left Motor Encoder,Right Motor Output,Right Motor Encoder,Is Level,Is Stalled,Ball Detector Photoeye,Vision Enabled,Vision Teleop Control,Vision Auto Control,Vision Current State,Vision X Output,Vision NavX Error,Vision NavX Target,NavX Connection Status,NavX Displacement X,NavX Displacement Y,NavX Displacement Z,NavX Velocity X,NavX Velocity Y,NavX Velocity Z,NavX Acceleration X,NavX Acceleration Y,NavX Acceleration Z,NavX Pitch,NavX Yaw,NavX Roll,Gyro Angle,Roller Arm State,Roller Arm Actual,Roller Arm Desired,Shooter Arm State,Shooter Arm Actual,Shooter Arm Desired,Shooter State,Actual RPM Left,Desired RPM Left,Control Mode Left,Actual RPM Right,Desired RPM Right,Control Mode Right,Ball Shooter Cylinder,Ball Halo Cylinder,Scaler Motor Output,Scaler Solenoid Fire,Auto To Run,Auto Current File,Auto File Status,Auto Current Command,Auto Trimmed Command
09:12:13.490 PM 03/24/2016,Autonomous Enabled,9,TRUE,-44003,<LOCATION>WPI_CameraIssue HTTP Request with Authentication.vi<CALLSTACK>WPI_CameraIssue HTTP Request with Authentication.vi< <WPI_CameraIssue Get.vi< <WPI_CameraSet Image Appearance Property.vi< <WPI_CameraSet Image Size.vi< <Vision Processing.vi< <Robot Main.vi,0.000000,0.000000,0.000000,0.000000,TRUE,FALSE,TRUE,FALSE,FALSE,FALSE,Disabled,0.000000,0.000000,0.000000,TRUE,0.000000,0.000000,0.000000,0.000000,0.000000,0.000000,0.000000,0.002000,0.006000,-2.390000,-0.090000,1.540000,-27.481360,ResetBack,-0.023438,-0.000049,ResetBack,0.000000,-0.150000,LowGoal,0.000000,-1454.545455,Speed,0.000000,-1454.545455,Speed,Off,Off,0.000000,FALSE,13,Read: /home/lvuser/scripts/auto_13.bee,File good!,WAIT 1500,WAIT
09:12:13.591 PM 03/24/2016,Autonomous Enabled,10,TRUE,7,Read from Text File in DoesScriptNumberContainNull.vi->Disabled.vi->Robot Main.vi<APPEND> /home/lvuser/scripts/auto_12.bee,0.000000,0.000000,0.000000,0.000000,TRUE,FALSE,TRUE,FALSE,FALSE,FALSE,Disabled,0.000000,0.000000,0.000000,TRUE,-0.001373,0.000519,0.000000,-0.063843,0.022125,0.000000,-0.030000,0.002000,0.016000,-2.390000,-0.230000,1.530000,-27.495860,ResetBack,-1.397705,-0.000049,ResetBack,0.000000,-0.150000,LowGoal,52.500000,-1454.545455,Speed,30.000000,-1454.545455,Speed,Off,Off,0.000000,FALSE,13,Read: /home/lvuser/scripts/auto_13.bee,File good!,WAIT 1500,WAIT
09:12:13.691 PM 03/24/2016,Autonomous Enabled,9,TRUE,7,Read from Text File in DoesScriptNumberContainNull.vi->Disabled.vi->Robot Main.vi<APPEND> /home/lvuser/scripts/auto_12.bee,0.000000,0.000000,0.000000,0.000000,TRUE,FALSE,TRUE,FALSE,FALSE,FALSE,Disabled,0.000000,0.000000,0.000000,TRUE,-0.005508,0.001495,0.000000,-0.086960,0.009811,0.000000,0.007000,0.030000,0.028000,-2.380000,-0.260000,1.520000,-27.512267,ResetBack,-2.042236,-0.000049,ResetBack,313.000000,-0.150000,LowGoal,577.500000,-1454.545455,Speed,577.500000,-1454.545455,Speed,Off,Off,0.000000,FALSE,13,Read: /home/lvuser/scripts/auto_13.bee,File good!,WAIT 1500,WAIT
09:12:13.791 PM 03/24/2016,Autonomous Enabled,9,TRUE,7,Read from Text File in DoesScriptNumberContainNull.vi->Disabled.vi->Robot Main.vi<APPEND> /home/lvuser/scripts/auto_12.bee,0.000000,0.000000,0.000000,0.000000,TRUE,FALSE,TRUE,FALSE,FALSE,FALSE,Disabled,0.000000,0.000000,0.000000,TRUE,-0.009155,0.001663,0.000000,-0.066589,-0.010605,0.000000,-0.084000,0.066000,-0.018000,-2.390000,-0.280000,1.530000,-27.531043,Reset,-2.096680,0.000000,ResetBack,343.000000,-0.150000,LowGoal,1162.500000,-1454.545455,Speed,1237.500000,-1454.545455,Speed,Off,Off,0.000000,FALSE,13,Read: /home/lvuser/scripts/auto_13.bee,File good!,WAIT 1500,WAIT
09:12:13.892 PM 03/24/2016,Autonomous Enabled,10,TRUE,7,Read from Text File in DoesScriptNumberContainNull.vi->Disabled.vi->Robot Main.vi<APPEND> /home/lvuser/scripts/auto_12.bee,0.000000,0.000000,0.000000,0.000000,TRUE,FALSE,TRUE,FALSE,FALSE,FALSE,Disabled,0.000000,0.000000,0.000000,TRUE,-0.014694,0.001648,0.000000,-0.092194,-0.000427,0.000000,0.008000,-0.019000,0.010000,-2.380000,-0.270000,1.490000,-27.525269,Hold,-0.070068,0.000000,ResetBack,366.000000,-0.150000,LowGoal,1462.500000,-1454.545455,Speed,1560.000000,-1454.545455,Speed,Off,Off,0.000000,FALSE,13,Read: /home/lvuser/scripts/auto_13.bee,File good!,WAIT 1500,WAIT
09:12:13.993 PM 03/24/2016,Autonomous Enabled,10,TRUE,7,Read from Text File in DoesScriptNumberContainNull.vi->Disabled.vi->Robot Main.vi<APPEND> /home/lvuser/scripts/auto_12.bee,0.000000,0.000000,0.000000,0.000000,TRUE,FALSE,TRUE,FALSE,FALSE,FALSE,Disabled,0.000000,0.000000,0.000000,TRUE,-0.018021,0.001495,0.000000,-0.077301,-0.011093,0.000000,0.000000,0.014000,-0.034000,-2.380000,-0.280000,1.470000,-27.521527,Hold,-0.070068,0.000000,ResetBack,672.000000,-0.150000,LowGoal,1500.000000,-1454.545455,Speed,1485.000000,-1454.545455,Speed,Off,Off,0.000000,FALSE,13,Read: /home/lvuser/scripts/auto_13.bee,File good!,WAIT 1500,WAIT
09:12:14.093 PM 03/24/2016,Autonomous Enabled,11,TRUE,7,Read from Text File in DoesScriptNumberContainNull.vi->Disabled.vi->Robot Main.vi<APPEND> /home/lvuser/scripts/auto_12.bee,0.000000,0.000000,0.000000,0.000000,TRUE,FALSE,TRUE,FALSE,FALSE,FALSE,Disabled,0.000000,0.000000,0.000000,TRUE,-0.021530,0.000839,0.000000,-0.057129,-0.008011,0.000000,-0.030000,-0.029000,0.002000,-2.380000,-0.230000,1.450000,-27.528640,Hold,-0.070068,0.000000,ResetBack,1492.000000,-0.150000,LowGoal,1387.500000,-1454.545455,Speed,1402.500000,-1454.545455,Speed,Off,Off,0.000000,FALSE,13,Read: /home/lvuser/scripts/auto_13.bee,File good!,WAIT 1500,WAIT
09:12:14.193 PM 03/24/2016,Autonomous Enabled,8,TRUE,7,Read from Text File in DoesScriptNumberContainNull.vi->Disabled.vi->Robot Main.vi<APPEND> /home/lvuser/scripts/auto_12.bee,0.000000,0.000000,0.000000,0.000000,TRUE,FALSE,TRUE,FALSE,FALSE,FALSE,Disabled,0.000000,0.000000,0.000000,TRUE,-0.024048,0.000595,0.000000,-0.033096,-0.011047,0.000000,0.024000,0.027000,0.033000,-2.380000,-0.190000,1.460000,-27.559272,Hold,-0.070068,0.000000,ResetBack,2336.000000,-0.150000,LowGoal,1350.000000,-1454.545455,Speed,1380.000000,-1454.545455,Speed,Off,Off,0.000000,FALSE,13,Read: /home/lvuser/scripts/auto_13.bee,File good!,WAIT 1500,WAIT
09:12:14.294 PM 03/24/2016,Autonomous Enabled,11,TRUE,7,Read from Text File in DoesScriptNumberContainNull.vi->Disabled.vi->Robot Main.vi<APPEND> /home/lvuser/scripts/auto_12.bee,0.000000,0.000000,0.000000,0.000000,TRUE,FALSE,TRUE,FALSE,FALSE,FALSE,Disabled,0.000000,0.000000,0.000000,TRUE,-0.025589,0.000305,0.000000,-0.025299,0.000000,0.000000,0.024000,0.027000,0.033000,-2.390000,-0.120000,1.470000,-27.565730,Hold,-0.070068,0.000000,ResetBack,2336.000000,-0.150000,LowGoal,1380.000000,-1454.545455,Speed,1387.500000,-1454.545455,Speed,Off,Off,0.000000,FALSE,13,Read: /home/lvuser/scripts/auto_13.bee,File good!,WAIT 1500,WAIT
09:12:14.395 PM 03/24/2016,Autonomous Enabled,9,TRUE,7,Read from Text File in DoesScriptNumberContainNull.vi->Disabled.vi->Robot Main.vi<APPEND> /home/lvuser/scripts/auto_12.bee,0.000000,0.000000,0.000000,0.000000,TRUE,FALSE,TRUE,FALSE,FALSE,FALSE,Disabled,0.000000,0.000000,0.000000,TRUE,-0.027802,0.001343,0.000000,-0.052048,0.036057,0.000000,0.055000,0.005000,-0.022000,-2.380000,-0.210000,1.460000,-27.586602,Hold,-0.070068,0.000000,ResetBack,3271.000000,-0.150000,LowGoal,1395.000000,-1454.545455,Speed,1402.500000,-1454.545455,Speed,Off,Off,0.000000,FALSE,13,Read: /home/lvuser/scripts/auto_13.bee,File good!,WAIT 1500,WAIT
09:12:14.495 PM 03/24/2016,Autonomous Enabled,11,TRUE,7,Read from Text File in DoesScriptNumberContainNull.vi->Disabled.vi->Robot Main.vi<APPEND> /home/lvuser/scripts/auto_12.bee,0.000000,0.000000,0.000000,0.000000,TRUE,FALSE,TRUE,FALSE,FALSE,FALSE,Disabled,0.000000,0.000000,0.000000,TRUE,-0.029495,0.003036,0.000000,-0.026230,0.027557,0.000000,0.055000,0.005000,-0.022000,-2.390000,-0.150000,1.480000,-27.609622,Hold,-0.070068,0.000000,ResetBack,4313.000000,-0.150000,LowGoal,1387.500000,-1454.545455,Speed,1402.500000,-1454.545455,Speed,Off,Off,0.000000,FALSE,13,Read: /home/lvuser/scripts/auto_13.bee,File good!,WAIT 1500,WAIT
09:12:14.597 PM 03/24/2016,Autonomous Enabled,10,TRUE,7,Read from Text File in DoesScriptNumberContainNull.vi->Disabled.vi->Robot Main.vi<APPEND> /home/lvuser/scripts/auto_12.bee,0.000000,0.000000,0.000000,0.000000,TRUE,FALSE,TRUE,FALSE,FALSE,FALSE,Disabled,0.000000,0.000000,0.000000,TRUE,-0.030457,0.003799,0.000000,0.000000,0.000000,0.000000,-0.041000,0.023000,-0.002000,-2.390000,-0.090000,1.420000,-27.621974,Hold,-0.070068,0.000000,ResetBack,5615.000000,-0.150000,LowGoal,1380.000000,-1454.545455,Speed,1395.000000,-1454.545455,Speed,Off,Off,0.000000,FALSE,13,Read: /home/lvuser/scripts/auto_13.bee,File good!,WAIT 1500,WAIT
09:12:14.697 PM 03/24/2016,Autonomous Enabled,9,TRUE,7,Read from Text File in DoesScriptNumberContainNull.vi->Disabled.vi->Robot Main.vi<APPEND> /home/lvuser/scripts/auto_12.bee,0.000000,0.000000,0.000000,0.000000,TRUE,FALSE,TRUE,FALSE,FALSE,FALSE,Disabled,0.000000,0.000000,0.000000,TRUE,-0.030792,0.003754,0.000000,0.005707,0.006409,0.000000,0.068000,-0.026000,0.014000,-2.380000,-0.190000,1.450000,-27.626147,Hold,-0.070068,0.000000,Reset,6877.000000,2.000000,LowGoal,1387.500000,-1454.545455,Speed,1402.500000,-1454.545455,Speed,Off,Off,0.000000,FALSE,13,Read: /home/lvuser/scripts/auto_13.bee,File good!,WAIT 1500,WAIT
09:12:14.798 PM 03/24/2016,Autonomous Enabled,9,TRUE,7,Read from Text File in DoesScriptNumberContainNull.vi->Disabled.vi->Robot Main.vi<APPEND> /home/lvuser/scripts/auto_12.bee,0.000000,0.000000,0.000000,0.000000,TRUE,FALSE,TRUE,FALSE,FALSE,FALSE,Disabled,0.000000,0.000000,0.000000,TRUE,-0.029877,0.003723,0.000000,-0.002274,-0.012497,0.000000,0.068000,-0.026000,0.014000,-2.390000,-0.090000,1.420000,-27.629038,Hold,-0.070068,0.000000,Hold,-84.000000,2.000000,LowGoal,1380.000000,-1454.545455,Speed,1410.000000,-1454.545455,Speed,Off,Off,0.000000,FALSE,13,Read: /home/lvuser/scripts/auto_13.bee,File good!,WAIT 1500,WAIT
09:12:14.898 PM 03/24/2016,Autonomous Enabled,9,TRUE,7,Read from Text File in DoesScriptNumberContainNull.vi->Disabled.vi->Robot Main.vi<APPEND> /home/lvuser/scripts/auto_12.bee,0.000000,0.000000,0.000000,0.000000,TRUE,FALSE,TRUE,FALSE,FALSE,FALSE,Disabled,0.000000,0.000000,0.000000,TRUE,-0.030029,0.003632,0.000000,0.012222,-0.004929,0.000000,-0.032000,0.031000,0.022000,-2.390000,-0.030000,1.400000,-27.636209,Hold,-0.070068,0.000000,Hold,-83.000000,2.000000,LowGoal,1372.500000,-1454.545455,Speed,1402.500000,-1454.545455,Speed,Off,Off,0.000000,FALSE,13,Read: /home/lvuser/scripts/auto_13.bee,File good!,WAIT 1500,WAIT
09:12:14.998 PM 03/24/2016,Autonomous Enabled,10,TRUE,7,Read from Text File in DoesScriptNumberContainNull.vi->Disabled.vi->Robot Main.vi<APPEND> /home/lvuser/scripts/auto_12.bee,0.000000,0.000000,0.000000,0.000000,TRUE,FALSE,TRUE,FALSE,FALSE,FALSE,Disabled,0.000000,0.000000,0.000000,TRUE,-0.030807,0.004028,0.000000,0.000000,0.015030,0.000000,-0.009000,0.050000,0.046000,-2.390000,-0.160000,1.460000,-27.635493,Hold,-0.070068,0.000000,Hold,-83.000000,2.000000,LowGoal,1380.000000,-1454.545455,Speed,1402.500000,-1454.545455,Speed,Off,Off,0.000000,FALSE,13,Read: /home/lvuser/scripts/auto_13.bee,File good!,WAIT 1500,WAIT
09:12:15.099 PM 03/24/2016,Autonomous Enabled,9,TRUE,7,Read from Text File in DoesScriptNumberContainNull.vi->Disabled.vi->Robot Main.vi<APPEND> /home/lvuser/scripts/auto_12.bee,0.000000,0.000000,0.000000,0.000000,TRUE,FALSE,TRUE,FALSE,FALSE,FALSE,Disabled,0.000000,0.000000,0.000000,TRUE,-0.028763,0.003891,0.000000,0.070801,-0.017792,0.000000,-0.074000,0.091000,0.035000,0.000000,-0.020000,1.430000,0.007784,Hold,-0.070068,58.000000,Hold,-83.000000,151552.000000,LowGoal,1387.500000,-1454.545455,Speed,1402.500000,-1454.545455,Speed,Off,Off,0.000000,FALSE,13,Read: /home/lvuser/scripts/auto_13.bee,File good!,WAIT 750,WAIT
09:12:15.198 PM 03/24/2016,Autonomous Enabled,8,TRUE,7,Read from Text File in DoesScriptNumberContainNull.vi->Disabled.vi->Robot Main.vi<APPEND> /home/lvuser/scripts/auto_12.bee,0.000000,0.000000,0.000000,0.000000,TRUE,FALSE,TRUE,FALSE,FALSE,FALSE,Disabled,0.000000,0.000000,0.000000,TRUE,-0.026535,0.003784,0.000000,0.014832,0.006607,0.000000,-0.074000,0.091000,0.035000,0.000000,-0.070000,1.470000,-0.000575,Hold,2.927246,58.000000,Hold,-1195.000000,151552.000000,LowGoal,1395.000000,-1454.545455,Speed,1410.000000,-1454.545455,Speed,Off,Off,0.000000,FALSE,13,Read: /home/lvuser/scripts/auto_13.bee,File good!,WAIT 750,WAIT
09:12:15.299 PM 03/24/2016,Autonomous Enabled,10,TRUE,7,Read from Text File in DoesScriptNumberContainNull.vi->Disabled.vi->Robot Main.vi<APPEND> /home/lvuser/scripts/auto_12.bee,0.000000,0.000000,0.000000,0.000000,TRUE,FALSE,TRUE,FALSE,FALSE,FALSE,Disabled,0.000000,0.000000,0.000000,TRUE,-0.026993,0.003250,0.000000,-0.023270,-0.028687,0.000000,-0.007000,-0.072000,-0.140000,0.000000,-0.070000,1.470000,-0.001652,Hold,5.333008,58.000000,Hold,-10855.000000,151552.000000,LowGoal,1387.500000,-1454.545455,Speed,1402.500000,-1454.545455,Speed,Off,Off,0.000000,FALSE,13,Read: /home/lvuser/scripts/auto_13.bee,File good!,WAIT 750,WAIT
09:12:15.399 PM 03/24/2016,Autonomous Enabled,10,TRUE,7,Read from Text File in DoesScriptNumberContainNull.vi->Disabled.vi->Robot Main.vi<APPEND> /home/lvuser/scripts/auto_12.bee,0.000000,0.000000,0.000000,0.000000,TRUE,FALSE,TRUE,FALSE,FALSE,FALSE,Disabled,0.000000,0.000000,0.000000,TRUE,-0.027130,0.001984,0.000000,-0.002411,-0.024689,0.000000,-0.034000,-0.012000,-0.038000,0.000000,-0.020000,1.450000,-0.020098,Hold,8.104004,58.000000,Hold,-22397.000000,151552.000000,LowGoal,1380.000000,-1454.545455,Speed,1402.500000,-1454.545455,Speed,Off,Off,0.000000,FALSE,13,Read: /home/lvuser/scripts/auto_13.bee,File good!,WAIT 750,WAIT
09:12:15.499 PM 03/24/2016,Autonomous Enabled,10,TRUE,7,Read from Text File in DoesScriptNumberContainNull.vi->Disabled.vi->Robot Main.vi<APPEND> /home/lvuser/scripts/auto_12.bee,0.000000,0.000000,0.000000,0.000000,TRUE,FALSE,TRUE,FALSE,FALSE,FALSE,Disabled,0.000000,0.000000,0.000000,TRUE,-0.027054,0.001038,0.000000,0.025391,-0.028595,0.000000,-0.034000,-0.012000,-0.038000,0.000000,-0.020000,1.490000,-0.026821,Hold,12.169678,58.000000,Hold,-34575.000000,151552.000000,LowGoal,1380.000000,-1454.545455,Speed,1395.000000,-1454.545455,Speed,Off,Off,0.000000,FALSE,13,Read: /home/lvuser/scripts/auto_13.bee,File good!,WAIT 750,WAIT
09:12:15.600 PM 03/24/2016,Autonomous Enabled,10,TRUE,7,Read from Text File in DoesScriptNumberContainNull.vi->Disabled.vi->Robot Main.vi<APPEND> /home/lvuser/scripts/auto_12.bee,0.000000,0.000000,0.000000,0.000000,TRUE,FALSE,TRUE,FALSE,FALSE,FALSE,Disabled,0.000000,0.000000,0.000000,TRUE,-0.027374,-0.001175,0.000000,-0.004639,-0.038574,0.000000,-0.008000,-0.104000,-0.135000,-0.010000,-0.290000,1.500000,-0.034976,Hold,16.829834,58.000000,Hold,-34575.000000,151552.000000,LowGoal,1387.500000,-1454.545455,Speed,1402.500000,-1454.545455,Speed,Off,Off,0.000000,FALSE,13,Read: /home/lvuser/scripts/auto_13.bee,File good!,WAIT 750,WAIT
09:12:15.700 PM 03/24/2016,Autonomous Enabled,11,TRUE,7,Read from Text File in DoesScriptNumberContainNull.vi->Disabled.vi->Robot Main.vi<APPEND> /home/lvuser/scripts/auto_12.bee,0.000000,0.000000,0.000000,0.000000,TRUE,FALSE,TRUE,FALSE,FALSE,FALSE,Disabled,0.000000,0.000000,0.000000,TRUE,-0.026794,-0.001740,0.000000,0.006577,-0.010727,0.000000,0.123000,-0.006000,-0.049000,-0.010000,-0.290000,1.500000,-0.008796,Hold,22.600586,58.000000,Hold,-49909.000000,151552.000000,LowGoal,1387.500000,-1454.545455,Speed,1395.000000,-1454.545455,Speed,Off,Off,0.000000,FALSE,13,Read: /home/lvuser/scripts/auto_13.bee,File good!,WAIT 750,WAIT
09:12:15.803 PM 03/24/2016,Autonomous Enabled,11,FALSE,0,NO ERROR,0.000000,0.000000,0.000000,0.000000,TRUE,FALSE,TRUE,FALSE,FALSE,FALSE,Disabled,0.000000,0.000000,0.000000,TRUE,-0.025803,-0.002319,0.000000,0.048508,0.000000,0.000000,-0.061000,0.001000,-0.027000,0.000000,-0.230000,1.520000,-0.053897,Hold,29.291992,58.000000,Hold,-66103.000000,151552.000000,LowGoal,1387.500000,-1454.545455,Speed,1402.500000,-1454.545455,Speed,Off,Off,0.000000,FALSE,13,Read: /home/lvuser/scripts/auto_13.bee,File good!,WAIT 750,WAIT
09:12:15.904 PM 03/24/2016,Autonomous Enabled,9,FALSE,0,NO ERROR,0.000000,0.000000,0.000000,0.000000,TRUE,FALSE,TRUE,FALSE,FALSE,FALSE,Disabled,0.000000,0.000000,0.000000,TRUE,-0.024353,-0.001877,0.000000,0.050949,0.000000,0.000000,-0.116000,-0.015000,0.068000,0.000000,-0.230000,1.520000,-0.075857,Hold,36.702637,58.000000,Hold,-83352.000000,151552.000000,LowGoal,1387.500000,-1454.545455,Speed,1410.000000,-1454.545455,Speed,Off,Off,0.000000,FALSE,13,Read: /home/lvuser/scripts/auto_13.bee,File good!,DRIVE_STRAIGHT_TARGET 206 1000 10000 75,DRIVE_STRAIGHT_TARGET
09:12:16.005 PM 03/24/2016,Autonomous Enabled,8,FALSE,0,NO ERROR,0.000000,-1.193497,0.000000,1.398830,TRUE,FALSE,TRUE,FALSE,FALSE,FALSE,Disabled,0.000000,0.000000,0.000000,TRUE,-0.015305,-0.001495,0.000000,0.403458,0.061234,0.000000,0.024000,0.011000,-0.026000,-0.020000,-0.140000,1.560000,-0.176614,Hold,36.702637,58.000000,Hold,-101000.000000,151552.000000,LowGoal,1387.500000,-1454.545455,Speed,1395.000000,-1454.545455,Speed,Off,Off,0.000000,FALSE,13,Read: /home/lvuser/scripts/auto_13.bee,File good!,DRIVE_STRAIGHT_TARGET 206 1000 10000 75,DRIVE_STRAIGHT_TARGET
09:12:16.106 PM 03/24/2016,Autonomous Enabled,8,FALSE,0,NO ERROR,0.000000,-3.849991,0.000000,4.164407,TRUE,FALSE,TRUE,FALSE,FALSE,FALSE,Disabled,0.000000,0.000000,0.000000,TRUE,0.014496,0.004623,0.000000,0.697510,0.106644,0.000000,0.325000,0.134000,0.338000,-0.150000,1.580000,1.490000,-0.473217,Hold,54.644775,58.000000,Hold,-118029.000000,151552.000000,LowGoal,1365.000000,-1454.545455,Speed,1372.500000,-1454.545455,Speed,Off,Off,0.000000,FALSE,13,Read: /home/lvuser/scripts/auto_13.bee,File good!,DRIVE_STRAIGHT_TARGET 206 1000 10000 75,DRIVE_STRAIGHT_TARGET
09:12:16.206 PM 03/24/2016,Autonomous Enabled,10,FALSE,0,NO ERROR,0.000000,-7.237983,0.000000,7.783398,TRUE,FALSE,TRUE,FALSE,FALSE,FALSE,Disabled,0.000000,0.000000,0.000000,TRUE,0.053284,0.010696,0.000000,0.822830,0.134811,0.000000,0.155000,0.074000,-0.100000,-0.830000,2.590000,1.620000,-0.957754,Hold,54.644775,58.000000,Hold,-130806.000000,151552.000000,LowGoal,1350.000000,-1454.545455,Speed,1372.500000,-1454.545455,Speed,Off,Off,0.000000,FALSE,13,Read: /home/lvuser/scripts/auto_13.bee,File good!,DRIVE_STRAIGHT_TARGET 206 1000 10000 75,DRIVE_STRAIGHT_TARGET
09:12:16.307 PM 03/24/2016,Autonomous Enabled,10,FALSE,0,NO ERROR,0.000000,-10.985308,0.000000,11.530723,TRUE,FALSE,TRUE,FALSE,FALSE,FALSE,Disabled,0.000000,0.000000,0.000000,TRUE,0.096909,0.014984,0.000000,0.828491,0.072083,0.000000,0.304000,-0.175000,-0.278000,-1.010000,2.570000,1.710000,-1.075975,Hold,61.672363,58.000000,Hold,-130806.000000,151552.000000,LowGoal,525.000000,-1454.545455,Speed,1387.500000,-1454.545455,Speed,Off,Off,0.000000,FALSE,13,Read: /home/lvuser/scripts/auto_13.bee,File good!,DRIVE_STRAIGHT_TARGET 206 1000 10000 75,DRIVE_STRAIGHT_TARGET
09:12:16.407 PM 03/24/2016,Autonomous Enabled,11,FALSE,0,NO ERROR,0.000000,-14.610716,0.000000,15.053465,TRUE,FALSE,TRUE,FALSE,FALSE,FALSE,Disabled,0.000000,0.000000,0.000000,TRUE,0.134735,0.018280,0.000000,0.753769,0.051056,0.000000,-0.186000,0.126000,-0.104000,-1.010000,2.570000,1.710000,-1.111960,Hold,62.068115,58.000000,Hold,-138814.000000,151552.000000,LowGoal,7.500000,-1454.545455,Speed,1357.500000,-1454.545455,Speed,Off,Off,0.000000,FALSE,13,Read: /home/lvuser/scripts/auto_13.bee,File good!,DRIVE_STRAIGHT_TARGET 206 1000 10000 75,DRIVE_STRAIGHT_TARGET
09:12:16.508 PM 03/24/2016,Autonomous Enabled,10,FALSE,0,NO ERROR,0.000000,-18.236124,0.000000,18.556957,TRUE,FALSE,TRUE,FALSE,FALSE,FALSE,Disabled,0.000000,0.000000,0.000000,TRUE,0.170471,0.021454,0.000000,0.674408,0.072388,0.000000,-0.178000,0.050000,0.151000,-1.050000,2.070000,1.690000,-0.891061,Hold,62.156982,58.000000,Hold,-141596.000000,151552.000000,LowGoal,0.000000,-1454.545455,Speed,1327.500000,-1454.545455,Speed,Off,Off,0.000000,FALSE,13,Read: /home/lvuser/scripts/auto_13.bee,File good!,DRIVE_STRAIGHT_TARGET 206 1000 10000 75,DRIVE_STRAIGHT_TARGET
09:12:16.609 PM 03/24/2016,Autonomous Enabled,12,FALSE,0,NO ERROR,0.000000,-21.810199,0.000000,21.970615,TRUE,FALSE,TRUE,FALSE,FALSE,FALSE,Disabled,0.000000,0.000000,0.000000,TRUE,0.200974,0.024521,0.000000,0.586853,0.050095,0.000000,-0.123000,-0.023000,0.198000,-0.800000,2.050000,1.770000,-0.529293,Hold,62.156982,58.000000,Hold,-142599.000000,151552.000000,LowGoal,0.000000,-1454.545455,Speed,1327.500000,-1454.545455,Speed,Off,Off,0.000000,FALSE,13,Read: /home/lvuser/scripts/auto_13.bee,File good!,DRIVE_STRAIGHT_TARGET 206 1000 10000 75,DRIVE_STRAIGHT_TARGET
09:12:16.711 PM 03/24/2016,Autonomous Enabled,10,FALSE,0,NO ERROR,0.000000,-25.332941,0.000000,25.422774,TRUE,FALSE,TRUE,FALSE,FALSE,FALSE,Disabled,0.000000,0.000000,0.000000,TRUE,0.229156,0.026306,0.000000,0.550812,0.025543,0.000000,-0.033000,-0.032000,-0.193000,-0.440000,1.820000,1.680000,-0.251438,Hold,62.156982,58.000000,Hold,-142758.000000,151552.000000,LowGoal,0.000000,-1454.545455,Speed,1335.000000,-1454.545455,Speed,Off,Off,0.000000,FALSE,13,Read: /home/lvuser/scripts/auto_13.bee,File good!,DRIVE_STRAIGHT_TARGET 206 1000 10000 75,DRIVE_STRAIGHT_TARGET
09:12:16.812 PM 03/24/2016,Autonomous Enabled,9,FALSE,0,NO ERROR,0.000000,-28.894182,0.000000,28.900599,TRUE,TRUE,TRUE,FALSE,FALSE,FALSE,Disabled,0.000000,0.000000,0.000000,TRUE,0.229156,0.026306,0.000000,0.550812,0.025543,0.000000,-0.163000,-0.037000,-0.053000,-0.170000,1.590000,1.630000,-0.131819,Hold,62.156982,58.000000,Hold,-142758.000000,151552.000000,LowGoal,0.000000,-1454.545455,Speed,1342.500000,-1454.545455,Speed,Off,Off,0.000000,FALSE,13,Read: /home/lvuser/scripts/auto_13.bee,File good!,DRIVE_STRAIGHT_TARGET 206 1000 10000 75,DRIVE_STRAIGHT_TARGET
09:12:16.912 PM 03/24/2016,Autonomous Enabled,10,FALSE,0,NO ERROR,0.000000,-32.352758,0.000000,32.365591,TRUE,TRUE,TRUE,FALSE,FALSE,FALSE,Disabled,0.000000,0.000000,0.000000,TRUE,0.279037,0.026855,0.000000,0.477386,0.001892,0.000000,0.090000,0.018000,0.053000,0.010000,1.470000,1.570000,-0.090016,Hold,62.156982,58.000000,Hold,-143357.000000,151552.000000,LowGoal,0.000000,-1454.545455,Speed,1350.000000,-1454.545455,Speed,Off,Off,0.000000,FALSE,13,Read: /home/lvuser/scripts/auto_13.bee,File good!,DRIVE_STRAIGHT_TARGET 206 1000 10000 75,DRIVE_STRAIGHT_TARGET
09:12:17.013 PM 03/24/2016,Autonomous Enabled,13,FALSE,0,NO ERROR,0.000000,-36.048749,0.000000,36.067999,TRUE,FALSE,TRUE,FALSE,FALSE,FALSE,Disabled,0.000000,0.000000,0.000000,TRUE,0.279449,0.026428,0.000000,0.019623,-0.010712,0.000000,0.000000,0.000000,-0.014000,0.040000,1.420000,1.510000,-0.079244,Hold,62.156982,58.000000,Hold,-143357.000000,151552.000000,LowGoal,0.000000,0.000000,Speed,1335.000000,0.000000,Speed,Off,Off,0.000000,FALSE,13,Read: /home/lvuser/scripts/auto_13.bee,File good!,DRIVE_STRAIGHT_TARGET 206 1000 10000 75,DRIVE_STRAIGHT_TARGET
09:12:17.115 PM 03/24/2016,Autonomous Enabled,8,FALSE,0,NO ERROR,0.000000,-39.853823,0.000000,39.892323,TRUE,FALSE,TRUE,FALSE,FALSE,FALSE,Disabled,0.000000,0.000000,0.000000,TRUE,0.279785,0.026108,0.000000,0.012878,0.000000,0.000000,-0.074000,0.032000,-0.041000,0.040000,1.420000,1.510000,-0.101053,Hold,62.156982,58.000000,Hold,-143680.000000,151552.000000,LowGoal,-7.500000,0.000000,Speed,1252.500000,0.000000,Speed,Off,Off,0.000000,FALSE,13,Read: /home/lvuser/scripts/auto_13.bee,File good!,DRIVE_STRAIGHT_TARGET 206 1000 10000 75,DRIVE_STRAIGHT_TARGET
09:12:17.216 PM 03/24/2016,Autonomous Enabled,11,FALSE,0,NO ERROR,0.000000,-43.658898,0.000000,43.690981,FALSE,FALSE,TRUE,FALSE,FALSE,FALSE,Disabled,0.000000,0.000000,0.000000,TRUE,0.280884,0.025787,0.000000,0.002243,0.006012,0.000000,0.011000,-0.044000,-0.079000,0.060000,3.280000,1.430000,-0.018917,Hold,62.156982,58.000000,Hold,-145795.000000,151552.000000,LowGoal,0.000000,-1454.545455,Speed,1185.000000,-1454.545455,Speed,Off,Off,0.000000,FALSE,13,Read: /home/lvuser/scripts/auto_13.bee,File good!,DRIVE_STRAIGHT_TARGET 206 1000 10000 75,DRIVE_STRAIGHT_TARGET
09:12:17.318 PM 03/24/2016,Autonomous Enabled,11,FALSE,0,NO ERROR,0.000000,-46.706807,0.000000,46.726057,FALSE,FALSE,TRUE,FALSE,FALSE,FALSE,Disabled,0.000000,0.000000,0.000000,TRUE,0.288376,0.030777,0.000000,0.276093,0.194443,0.000000,-0.191000,-0.040000,0.120000,0.480000,3.610000,1.260000,0.366340,Hold,62.154297,58.000000,Hold,-145795.000000,151552.000000,LowGoal,262.500000,-1454.545455,Speed,1297.500000,-1454.545455,Speed,Off,Off,0.000000,FALSE,13,Read: /home/lvuser/scripts/auto_13.bee,File good!,DRIVE_STRAIGHT_TARGET 206 1000 10000 75,DRIVE_STRAIGHT_TARGET
09:12:17.419 PM 03/24/2016,Autonomous Enabled,10,FALSE,0,NO ERROR,0.000000,-49.382551,0.000000,49.408218,FALSE,FALSE,TRUE,FALSE,FALSE,FALSE,Disabled,0.000000,0.000000,0.000000,TRUE,0.288376,0.030777,0.000000,0.276093,0.194443,0.000000,0.140000,0.205000,0.911000,0.480000,3.610000,1.260000,0.560951,Hold,62.069824,58.000000,Hold,-145795.000000,151552.000000,LowGoal,195.000000,-1454.545455,Speed,1297.500000,-1454.545455,Speed,Off,Off,0.000000,FALSE,13,Read: /home/lvuser/scripts/auto_13.bee,File good!,DRIVE_STRAIGHT_TARGET 206 1000 10000 75,DRIVE_STRAIGHT_TARGET
09:12:17.520 PM 03/24/2016,Autonomous Enabled,10,FALSE,0,NO ERROR,0.000000,-52.205878,0.000000,52.366294,FALSE,FALSE,TRUE,FALSE,FALSE,FALSE,Disabled,0.000000,0.000000,0.000000,TRUE,0.321594,0.062836,0.000000,0.400070,0.352554,0.000000,0.028000,0.102000,-0.164000,0.780000,5.060000,1.420000,0.393584,Hold,62.064209,58.000000,Hold,-145795.000000,151552.000000,LowGoal,90.000000,-1454.545455,Speed,1380.000000,-1454.545455,Speed,Off,Off,0.000000,FALSE,13,Read: /home/lvuser/scripts/auto_13.bee,File good!,DRIVE_STRAIGHT_TARGET 206 1000 10000 75,DRIVE_STRAIGHT_TARGET
09:12:17.622 PM 03/24/2016,Autonomous Enabled,10,FALSE,0,NO ERROR,0.000000,-55.459120,0.000000,55.625953,FALSE,FALSE,TRUE,FALSE,FALSE,FALSE,Disabled,0.000000,0.000000,0.000000,TRUE,0.321594,0.062836,0.000000,0.400070,0.352554,0.000000,0.082000,-0.077000,-0.060000,0.590000,5.380000,1.590000,0.261342,Hold,62.033691,58.000000,Hold,-145796.000000,151552.000000,LowGoal,37.500000,-1454.545455,Speed,1372.500000,-1454.545455,Speed,Off,Off,0.000000,FALSE,13,Read: /home/lvuser/scripts/auto_13.bee,File good!,DRIVE_STRAIGHT_TARGET 206 1000 10000 75,DRIVE_STRAIGHT_TARGET
09:12:17.723 PM 03/24/2016,Autonomous Enabled,10,FALSE,0,NO ERROR,0.000000,-58.507030,0.000000,58.725196,FALSE,FALSE,TRUE,FALSE,FALSE,FALSE,Disabled,0.000000,0.000000,0.000000,TRUE,0.362335,0.071152,0.000000,0.350952,0.060318,0.000000,-0.135000,-0.079000,0.269000,0.480000,7.010000,1.650000,0.403719,Hold,62.033691,58.000000,Hold,-145796.000000,151552.000000,LowGoal,37.500000,-1454.545455,Speed,1350.000000,-1454.545455,Speed,Off,Off,0.000000,FALSE,13,Read: /home/lvuser/scripts/auto_13.bee,File good!,DRIVE_STRAIGHT_TARGET 206 1000 10000 75,DRIVE_STRAIGHT_TARGET
09:12:17.824 PM 03/24/2016,Autonomous Enabled,9,FALSE,0,NO ERROR,0.000000,-61.291857,0.000000,61.657606,FALSE,FALSE,TRUE,FALSE,FALSE,FALSE,Disabled,0.000000,0.000000,0.000000,TRUE,0.380157,0.072174,0.000000,0.395248,-0.011139,0.000000,0.092000,-0.026000,0.027000,0.730000,8.740000,1.300000,0.231991,Hold,62.028564,58.000000,Hold,-147172.000000,151552.000000,LowGoal,0.000000,-1454.545455,Speed,1342.500000,-1454.545455,Speed,Off,Off,0.000000,FALSE,13,Read: /home/lvuser/scripts/auto_13.bee,File good!,DRIVE_STRAIGHT_TARGET 206 1000 10000 75,DRIVE_STRAIGHT_TARGET
09:12:17.926 PM 03/24/2016,Autonomous Enabled,10,FALSE,0,NO ERROR,0.000000,-64.448849,0.000000,64.904432,FALSE,FALSE,TRUE,FALSE,FALSE,FALSE,Disabled,0.000000,0.000000,0.000000,TRUE,0.395645,0.072250,0.000000,0.254608,0.012314,0.000000,-0.261000,0.064000,0.283000,0.560000,10.060000,1.060000,-0.003143,Hold,61.929932,58.000000,Hold,-152118.000000,151552.000000,LowGoal,315.000000,-1454.545455,Speed,1350.000000,-1454.545455,Speed,Off,Off,0.000000,FALSE,13,Read: /home/lvuser/scripts/auto_13.bee,File good!,DRIVE_STRAIGHT_TARGET 206 1000 10000 75,DRIVE_STRAIGHT_TARGET
09:12:18.028 PM 03/24/2016,Autonomous Enabled,9,FALSE,0,NO ERROR,0.000000,-67.560925,0.000000,68.176924,FALSE,FALSE,TRUE,FALSE,FALSE,FALSE,Disabled,0.000000,0.000000,0.000000,TRUE,0.406876,0.073166,0.000000,0.183868,0.018829,0.000000,-0.047000,0.001000,0.192000,0.210000,10.110000,1.520000,-0.489377,Hold,62.190674,58.000000,Hold,-151458.000000,151552.000000,LowGoal,975.000000,-1454.545455,Speed,1350.000000,-1454.545455,Speed,Off,Off,0.000000,FALSE,13,Read: /home/lvuser/scripts/auto_13.bee,File good!,DRIVE_STRAIGHT_TARGET 206 1000 10000 75,DRIVE_STRAIGHT_TARGET
09:12:18.128 PM 03/24/2016,Autonomous Enabled,9,FALSE,0,NO ERROR,0.000000,-70.737168,0.000000,71.205583,FALSE,FALSE,TRUE,FALSE,FALSE,FALSE,Disabled,0.000000,0.000000,0.000000,TRUE,0.414886,0.077759,0.000000,0.189056,0.101837,0.000000,-0.319000,0.141000,0.261000,-0.180000,11.650000,1.740000,0.187943,Hold,62.194092,58.000000,Hold,-151561.000000,151552.000000,LowGoal,1440.000000,-1454.545455,Speed,1357.500000,-1454.545455,Speed,Off,Off,0.000000,FALSE,13,Read: /home/lvuser/scripts/auto_13.bee,File good!,DRIVE_STRAIGHT_TARGET 206 1000 10000 75,DRIVE_STRAIGHT_TARGET
09:12:18.229 PM 03/24/2016,Autonomous Enabled,9,FALSE,0,NO ERROR,0.000000,-73.842827,0.000000,74.632075,FALSE,FALSE,TRUE,FALSE,FALSE,FALSE,Disabled,0.000000,0.000000,0.000000,TRUE,0.429108,0.078003,0.000000,0.276245,-0.068863,0.000000,0.233000,-0.142000,-0.264000,0.940000,13.110000,0.730000,-0.028232,Hold,62.194092,58.000000,Hold,-151561.000000,151552.000000,LowGoal,1485.000000,-1454.545455,Speed,1387.500000,-1454.545455,Speed,Off,Off,0.000000,FALSE,13,Read: /home/lvuser/scripts/auto_13.bee,File good!,DRIVE_STRAIGHT_TARGET 206 1000 10000 75,DRIVE_STRAIGHT_TARGET
09:12:18.331 PM 03/24/2016,Autonomous Enabled,10,FALSE,0,NO ERROR,0.000000,-76.852237,0.000000,77.981568,FALSE,FALSE,TRUE,FALSE,FALSE,FALSE,Disabled,0.000000,0.000000,0.000000,TRUE,0.445236,0.078949,0.000000,0.411362,0.075500,0.000000,0.018000,0.191000,0.515000,0.360000,13.310000,0.990000,-0.827470,Hold,62.179932,58.000000,Hold,-151561.000000,151552.000000,LowGoal,1395.000000,-1454.545455,Speed,1395.000000,-1454.545455,Speed,Off,Off,0.000000,FALSE,13,Read: /home/lvuser/scripts/auto_13.bee,File good!,DRIVE_STRAIGHT_TARGET 206 1000 10000 75,DRIVE_STRAIGHT_TARGET
09:12:18.432 PM 03/24/2016,Autonomous Enabled,12,FALSE,0,NO ERROR,0.000000,-80.464812,0.000000,81.805892,FALSE,FALSE,TRUE,FALSE,FALSE,FALSE,Disabled,0.000000,0.000000,0.000000,TRUE,0.470703,0.080963,0.000000,0.550415,-0.016891,0.000000,0.130000,-0.010000,0.265000,-0.390000,7.470000,1.080000,-1.418916,Hold,62.161621,58.000000,Hold,-151561.000000,151552.000000,LowGoal,1342.500000,-1454.545455,Speed,1395.000000,-1454.545455,Speed,Off,Off,0.000000,FALSE,13,Read: /home/lvuser/scripts/auto_13.bee,File good!,DRIVE_STRAIGHT_TARGET 206 1000 10000 75,DRIVE_STRAIGHT_TARGET
09:12:18.533 PM 03/24/2016,Autonomous Enabled,10,FALSE,0,NO ERROR,0.000000,-84.853802,0.000000,86.143549,TRUE,FALSE,TRUE,FALSE,FALSE,FALSE,Disabled,0.000000,0.000000,0.000000,TRUE,0.470703,0.080963,0.000000,0.550415,-0.016891,0.000000,0.326000,-0.036000,-0.311000,-1.080000,0.510000,0.930000,-1.395197,Hold,62.164062,58.000000,Hold,-151561.000000,151552.000000,LowGoal,1312.500000,-1454.545455,Speed,1387.500000,-1454.545455,Speed,Off,Off,0.000000,FALSE,13,Read: /home/lvuser/scripts/auto_13.bee,File good!,DRIVE_STRAIGHT_TARGET 206 1000 10000 75,DRIVE_STRAIGHT_TARGET
09:12:18.633 PM 03/24/2016,Autonomous Enabled,11,FALSE,0,NO ERROR,0.000000,-89.473791,0.000000,90.583872,TRUE,FALSE,TRUE,FALSE,FALSE,FALSE,Disabled,0.000000,0.000000,0.000000,TRUE,0.505508,0.074417,0.000000,0.571167,-0.124435,0.000000,0.259000,-0.014000,0.201000,-1.060000,0.150000,1.220000,-1.224848,Hold,62.138672,58.000000,Hold,-151490.000000,151552.000000,LowGoal,1057.500000,-1454.545455,Speed,1387.500000,-1454.545455,Speed,Off,Off,0.000000,FALSE,13,Read: /home/lvuser/scripts/auto_13.bee,File good!,DRIVE_STRAIGHT_TARGET 206 1000 10000 75,DRIVE_STRAIGHT_TARGET
09:12:18.733 PM 03/24/2016,Autonomous Enabled,10,FALSE,0,NO ERROR,0.000000,-93.830697,0.000000,94.972861,TRUE,FALSE,TRUE,FALSE,FALSE,FALSE,Disabled,0.000000,0.000000,0.000000,TRUE,0.529037,0.067490,0.000000,0.399597,-0.143448,0.000000,-0.040000,-0.198000,-0.856000,-0.860000,0.510000,1.090000,-1.197119,Hold,62.196289,58.000000,Hold,-151493.000000,151552.000000,LowGoal,1380.000000,-1454.545455,Speed,1387.500000,-1454.545455,Speed,Off,Off,0.000000,FALSE,13,Read: /home/lvuser/scripts/auto_13.bee,File good!,DRIVE_STRAIGHT_TARGET 206 1000 10000 75,DRIVE_STRAIGHT_TARGET
09:12:18.833 PM 03/24/2016,Autonomous Enabled,11,FALSE,0,NO ERROR,0.000000,-98.283854,0.000000,99.207851,TRUE,FALSE,TRUE,FALSE,FALSE,FALSE,Disabled,0.000000,0.000000,0.000000,TRUE,0.548981,0.057999,0.000000,0.393402,-0.187195,0.000000,-0.001000,0.066000,0.316000,-0.870000,0.460000,1.700000,-1.197119,Hold,62.196289,58.000000,Hold,-151495.000000,151552.000000,LowGoal,1462.500000,-1454.545455,Speed,1380.000000,-1454.545455,Speed,Off,Off,0.000000,FALSE,13,Read: /home/lvuser/scripts/auto_13.bee,File good!,DRIVE_STRAIGHT_TARGET 206 1000 10000 75,DRIVE_STRAIGHT_TARGET
09:12:18.935 PM 03/24/2016,Autonomous Enabled,9,FALSE,0,NO ERROR,0.000000,-102.704926,0.000000,99.207851,FALSE,FALSE,TRUE,FALSE,FALSE,FALSE,Disabled,0.000000,0.000000,0.000000,TRUE,0.570389,0.049744,0.000000,0.417404,-0.162399,0.000000,-0.323000,-0.220000,0.007000,-0.540000,-3.430000,1.760000,-0.891216,Hold,61.931641,58.000000,Hold,-151374.000000,151552.000000,LowGoal,1387.500000,-1454.545455,Speed,1402.500000,-1454.545455,Speed,Off,Off,0.000000,FALSE,13,Read: /home/lvuser/scripts/auto_13.bee,File good!,DRIVE_STRAIGHT_TARGET 206 1000 10000 75,DRIVE_STRAIGHT_TARGET
09:12:19.036 PM 03/24/2016,Autonomous Enabled,10,FALSE,0,NO ERROR,0.000000,-107.119583,0.000000,103.635341,FALSE,FALSE,TRUE,FALSE,FALSE,FALSE,Disabled,0.000000,0.000000,0.000000,TRUE,0.587265,0.035355,0.000000,0.267258,-0.332977,0.000000,-0.297000,0.036000,0.397000,-0.420000,-6.220000,1.820000,-0.667694,Hold,61.660156,58.000000,Hold,-151198.000000,151552.000000,LowGoal,1162.500000,-1454.545455,Speed,1410.000000,-1454.545455,Speed,Off,Off,0.000000,FALSE,13,Read: /home/lvuser/scripts/auto_13.bee,File good!,DRIVE_STRAIGHT_TARGET 206 1000 10000 75,DRIVE_STRAIGHT_TARGET
09:12:19.136 PM 03/24/2016,Autonomous Enabled,8,FALSE,0,NO ERROR,0.000000,-107.119583,0.000000,108.069247,TRUE,FALSE,TRUE,FALSE,FALSE,FALSE,Disabled,0.000000,0.000000,0.000000,TRUE,0.598694,0.016083,0.000000,0.211349,-0.431488,0.000000,-0.248000,-0.060000,0.099000,-0.380000,-2.270000,2.360000,-0.672366,Hold,61.594238,58.000000,Hold,-151198.000000,151552.000000,LowGoal,652.500000,-1454.545455,Speed,1395.000000,-1454.545455,Speed,Off,Off,0.000000,FALSE,13,Read: /home/lvuser/scripts/auto_13.bee,File good!,DRIVE_STRAIGHT_TARGET 206 1000 10000 75,DRIVE_STRAIGHT_TARGET
09:12:19.236 PM 03/24/2016,Autonomous Enabled,10,FALSE,0,NO ERROR,0.000000,-111.354573,0.000000,112.278571,TRUE,FALSE,TRUE,FALSE,FALSE,FALSE,Disabled,0.000000,0.000000,0.000000,TRUE,0.607468,-0.005493,0.000000,0.186737,-0.409180,0.000000,-0.145000,0.042000,0.152000,-0.130000,-1.900000,1.750000,-0.481524,Hold,61.399170,58.000000,Hold,-151198.000000,151552.000000,LowGoal,1005.000000,-1454.545455,Speed,1387.500000,-1454.545455,Speed,Off,Off,0.000000,FALSE,13,Read: /home/lvuser/scripts/auto_13.bee,File good!,DRIVE_STRAIGHT_TARGET 206 1000 10000 75,DRIVE_STRAIGHT_TARGET
09:12:19.337 PM 03/24/2016,Autonomous Enabled,11,FALSE,0,NO ERROR,0.000000,-115.737146,0.000000,116.558477,TRUE,FALSE,TRUE,FALSE,FALSE,FALSE,Disabled,0.000000,0.000000,0.000000,TRUE,0.613251,-0.027206,0.000000,0.089035,-0.450394,0.000000,-0.041000,0.100000,0.278000,-0.160000,0.310000,1.620000,-0.470216,Hold,61.692627,58.000000,Hold,-151199.000000,151552.000000,LowGoal,1320.000000,-1454.545455,Speed,1395.000000,-1454.545455,Speed,Off,Off,0.000000,FALSE,13,Read: /home/lvuser/scripts/auto_13.bee,File good!,DRIVE_STRAIGHT_TARGET 206 1000 10000 75,DRIVE_STRAIGHT_TARGET
09:12:19.438 PM 03/24/2016,Autonomous Enabled,13,FALSE,0,NO ERROR,0.000000,-120.029886,0.000000,120.864051,TRUE,FALSE,TRUE,FALSE,FALSE,FALSE,Disabled,0.000000,0.000000,0.000000,TRUE,0.615875,-0.048431,0.000000,0.038300,-0.427643,0.000000,0.168000,-0.022000,0.023000,-0.120000,1.800000,1.500000,-0.448548,Hold,61.421143,58.000000,Hold,-151352.000000,151552.000000,LowGoal,930.000000,-1454.545455,Speed,1402.500000,-1454.545455,Speed,Off,Off,0.000000,FALSE,13,Read: /home/lvuser/scripts/auto_13.bee,File good!,DRIVE_STRAIGHT_TARGET 206 1000 10000 75,DRIVE_STRAIGHT_TARGET
09:12:19.538 PM 03/24/2016,Autonomous Enabled,10,FALSE,0,NO ERROR,0.000000,-123.828544,0.000000,124.746125,TRUE,FALSE,TRUE,FALSE,FALSE,FALSE,Disabled,0.000000,0.000000,0.000000,TRUE,0.618149,-0.061478,0.000000,0.012131,-0.003479,0.000000,0.016000,0.071000,0.388000,-0.350000,1.080000,1.500000,-0.678542,Hold,61.422119,58.000000,Hold,-151388.000000,151552.000000,LowGoal,922.500000,-1454.545455,Speed,1395.000000,-1454.545455,Speed,Off,Off,0.000000,FALSE,13,Read: /home/lvuser/scripts/auto_13.bee,File good!,DRIVE_STRAIGHT_TARGET 206 1000 10000 75,DRIVE_STRAIGHT_TARGET
09:12:19.639 PM 03/24/2016,Autonomous Enabled,10,FALSE,0,NO ERROR,0.000000,-127.710618,0.000000,128.692366,TRUE,FALSE,TRUE,FALSE,FALSE,FALSE,Disabled,0.000000,0.000000,0.000000,TRUE,0.618652,-0.061554,0.000000,-0.004868,-0.001434,0.000000,-0.021000,0.047000,0.098000,-0.560000,1.420000,1.470000,-0.909011,Hold,61.422119,58.000000,Hold,-151388.000000,151552.000000,LowGoal,922.500000,-1454.545455,Speed,1372.500000,-1454.545455,Speed,Off,Off,0.000000,FALSE,13,Read: /home/lvuser/scripts/auto_13.bee,File good!,DRIVE_STRAIGHT_TARGET 206 1000 10000 75,DRIVE_STRAIGHT_TARGET
09:12:19.739 PM 03/24/2016,Autonomous Enabled,8,FALSE,0,NO ERROR,0.000000,-131.432276,0.000000,132.401190,TRUE,FALSE,TRUE,FALSE,FALSE,FALSE,Disabled,0.000000,0.000000,0.000000,TRUE,0.617752,-0.060623,0.000000,-0.025787,0.026199,0.000000,-0.070000,0.072000,-0.188000,-0.560000,1.260000,1.520000,-0.960997,Hold,61.422119,58.000000,Hold,-151388.000000,151552.000000,LowGoal,855.000000,-1454.545455,Speed,1372.500000,-1454.545455,Speed,Off,Off,0.000000,FALSE,13,Read: /home/lvuser/scripts/auto_13.bee,File good!,DRIVE_STRAIGHT_TARGET 206 1000 10000 75,DRIVE_STRAIGHT_TARGET
09:12:19.840 PM 03/24/2016,Autonomous Enabled,9,FALSE,0,NO ERROR,0.000000,-135.263017,0.000000,136.174182,TRUE,FALSE,TRUE,FALSE,FALSE,FALSE,Disabled,0.000000,0.000000,0.000000,TRUE,0.615463,-0.059174,0.000000,-0.053680,0.027725,0.000000,0.079000,-0.044000,-0.007000,-0.540000,1.310000,1.490000,-0.948859,Hold,61.422119,58.000000,Hold,-151388.000000,151552.000000,LowGoal,877.500000,-1454.545455,Speed,1372.500000,-1454.545455,Speed,Off,Off,0.000000,FALSE,13,Read: /home/lvuser/scripts/auto_13.bee,File good!,DRIVE_STRAIGHT_TARGET 206 1000 10000 75,DRIVE_STRAIGHT_TARGET
09:12:19.940 PM 03/24/2016,Autonomous Enabled,10,FALSE,0,NO ERROR,0.000000,-139.093758,0.000000,140.017756,TRUE,FALSE,TRUE,FALSE,FALSE,FALSE,Disabled,0.000000,0.000000,0.000000,TRUE,0.612976,-0.057999,0.000000,-0.045685,0.008194,0.000000,0.119000,0.015000,-0.002000,-0.530000,1.250000,1.520000,-0.966116,Hold,61.422119,58.000000,Hold,-151388.000000,151552.000000,LowGoal,922.500000,-1454.545455,Speed,1380.000000,-1454.545455,Speed,Off,Off,0.000000,FALSE,13,Read: /home/lvuser/scripts/auto_13.bee,File good!,DRIVE_STRAIGHT_TARGET 206 1000 10000 75,DRIVE_STRAIGHT_TARGET
09:12:20.040 PM 03/24/2016,Autonomous Enabled,10,FALSE,0,NO ERROR,0.000000,-142.828249,0.000000,143.758664,TRUE,FALSE,TRUE,FALSE,FALSE,FALSE,Disabled,0.000000,0.000000,0.000000,TRUE,0.611908,-0.057632,0.000000,-0.007492,0.006851,0.000000,-0.039000,-0.070000,-0.253000,-0.630000,1.530000,1.510000,-1.043278,Hold,61.422119,58.000000,Hold,-151388.000000,151552.000000,LowGoal,885.000000,-1454.545455,Speed,1372.500000,-1454.545455,Speed,Off,Off,0.000000,FALSE,13,Read: /home/lvuser/scripts/auto_13.bee,File good!,DRIVE_STRAIGHT_TARGET 206 1000 10000 75,DRIVE_STRAIGHT_TARGET
09:12:20.141 PM 03/24/2016,Autonomous Enabled,11,FALSE,0,NO ERROR,0.000000,-146.562741,0.000000,147.480322,TRUE,FALSE,TRUE,FALSE,FALSE,FALSE,Disabled,0.000000,0.000000,0.000000,TRUE,0.611176,-0.057648,0.000000,-0.022339,-0.001251,0.000000,-0.082000,0.025000,0.069000,-0.720000,1.290000,1.590000,-1.143229,Hold,61.422119,58.000000,Hold,-151388.000000,151552.000000,LowGoal,840.000000,-1454.545455,Speed,1372.500000,-1454.545455,Speed,Off,Off,0.000000,FALSE,13,Read: /home/lvuser/scripts/auto_13.bee,File good!,DRIVE_STRAIGHT_TARGET 206 1000 10000 75,DRIVE_STRAIGHT_TARGET
09:12:20.243 PM 03/24/2016,Autonomous Enabled,9,FALSE,0,NO ERROR,0.000000,-150.213815,0.000000,151.157063,TRUE,FALSE,TRUE,FALSE,FALSE,FALSE,Disabled,0.000000,0.000000,0.000000,TRUE,0.609879,-0.057220,0.000000,-0.017517,0.015106,0.000000,0.085000,0.026000,0.152000,-0.780000,1.360000,1.580000,-1.232226,Hold,61.422119,58.000000,Hold,-151388.000000,151552.000000,LowGoal,855.000000,-1454.545455,Speed,1372.500000,-1454.545455,Speed,Off,Off,0.000000,FALSE,13,Read: /home/lvuser/scripts/auto_13.bee,File good!,DRIVE_STRAIGHT_TARGET 206 1000 10000 75,DRIVE_STRAIGHT_TARGET
09:12:20.344 PM 03/24/2016,Autonomous Enabled,11,FALSE,0,NO ERROR,0.000000,-154.025306,0.000000,154.859471,TRUE,FALSE,TRUE,FALSE,FALSE,FALSE,Disabled,0.000000,0.000000,0.000000,TRUE,0.609192,-0.056519,0.000000,0.004684,-0.006714,0.000000,-0.190000,-0.008000,0.085000,-0.710000,1.310000,1.580000,-1.217154,Hold,61.422119,58.000000,Hold,-151388.000000,151552.000000,LowGoal,757.500000,-1454.545455,Speed,1372.500000,-1454.545455,Speed,Off,Off,0.000000,FALSE,13,Read: /home/lvuser/scripts/auto_13.bee,File good!,DRIVE_STRAIGHT_TARGET 206 1000 10000 75,DRIVE_STRAIGHT_TARGET
09:12:20.444 PM 03/24/2016,Autonomous Enabled,9,FALSE,0,NO ERROR,0.000000,-157.631465,0.000000,158.446379,TRUE,FALSE,TRUE,FALSE,FALSE,FALSE,Disabled,0.000000,0.000000,0.000000,TRUE,0.607651,-0.057693,0.000000,-0.055588,-0.033096,0.000000,-0.140000,-0.018000,0.009000,-0.560000,1.180000,1.540000,-1.049867,Hold,61.422119,58.000000,Hold,-151388.000000,151552.000000,LowGoal,727.500000,-1454.545455,Speed,1365.000000,-1454.545455,Speed,Off,Off,0.000000,FALSE,13,Read: /home/lvuser/scripts/auto_13.bee,File good!,DRIVE_STRAIGHT_TARGET 206 1000 10000 75,DRIVE_STRAIGHT_TARGET
09:12:20.545 PM 03/24/2016,Autonomous Enabled,10,FALSE,0,NO ERROR,0.000000,-161.263290,0.000000,162.065371,TRUE,FALSE,TRUE,FALSE,FALSE,FALSE,Disabled,0.000000,0.000000,0.000000,TRUE,0.603516,-0.059052,0.000000,-0.089798,-0.026260,0.000000,0.098000,0.064000,-0.038000,-0.570000,1.250000,1.520000,-1.002525,Hold,61.422119,58.000000,Hold,-151388.000000,151552.000000,LowGoal,705.000000,-1454.545455,Speed,1357.500000,-1454.545455,Speed,Off,Off,0.000000,FALSE,13,Read: /home/lvuser/scripts/auto_13.bee,File good!,DRIVE_STRAIGHT_TARGET 206 1000 10000 75,DRIVE_STRAIGHT_TARGET
09:12:20.645 PM 03/24/2016,Autonomous Enabled,9,FALSE,0,NO ERROR,0.000000,-164.818115,0.000000,165.703613,TRUE,FALSE,TRUE,FALSE,FALSE,FALSE,Disabled,0.000000,0.000000,0.000000,TRUE,0.599472,-0.059341,0.000000,-0.069763,0.001587,0.000000,-0.057000,-0.046000,-0.114000,-0.660000,1.350000,1.560000,-1.083242,Hold,61.422119,58.000000,Hold,-151388.000000,151552.000000,LowGoal,735.000000,-1454.545455,Speed,1350.000000,-1454.545455,Speed,Off,Off,0.000000,FALSE,13,Read: /home/lvuser/scripts/auto_13.bee,File good!,DRIVE_STRAIGHT_TARGET 206 1000 10000 75,DRIVE_STRAIGHT_TARGET
09:12:20.746 PM 03/24/2016,Autonomous Enabled,10,FALSE,0,NO ERROR,0.000000,-168.424273,0.000000,169.348271,TRUE,FALSE,TRUE,FALSE,FALSE,FALSE,Disabled,0.000000,0.000000,0.000000,TRUE,0.595612,-0.059830,0.000000,-0.086853,-0.004181,0.000000,-0.133000,0.013000,-0.103000,-0.810000,0.930000,1.570000,-1.238519,Hold,61.422119,58.000000,Hold,-151388.000000,151552.000000,LowGoal,877.500000,-1454.545455,Speed,1357.500000,-1454.545455,Speed,Off,Off,0.000000,FALSE,13,Read: /home/lvuser/scripts/auto_13.bee,File good!,DRIVE_STRAIGHT_TARGET 206 1000 10000 75,DRIVE_STRAIGHT_TARGET
09:12:20.847 PM 03/24/2016,Autonomous Enabled,9,FALSE,0,NO ERROR,0.000000,-172.165181,0.000000,173.159762,TRUE,FALSE,TRUE,FALSE,FALSE,FALSE,Disabled,0.000000,0.000000,0.000000,TRUE,0.590012,-0.060394,0.000000,-0.122269,-0.012939,0.000000,0.145000,0.022000,0.058000,-0.980000,1.000000,1.630000,-1.484348,Hold,61.422119,58.000000,Hold,-151388.000000,151552.000000,LowGoal,900.000000,-1454.545455,Speed,1365.000000,-1454.545455,Speed,Off,Off,0.000000,FALSE,13,Read: /home/lvuser/scripts/auto_13.bee,File good!,DRIVE_STRAIGHT_TARGET 206 1000 10000 75,DRIVE_STRAIGHT_TARGET
09:12:20.948 PM 03/24/2016,Autonomous Enabled,10,FALSE,0,NO ERROR,0.000000,-175.906089,0.000000,176.862170,TRUE,FALSE,TRUE,FALSE,FALSE,FALSE,Disabled,0.000000,0.000000,0.000000,TRUE,0.585312,-0.060608,0.000000,-0.108749,-0.001480,0.000000,0.260000,-0.027000,-0.168000,-0.950000,0.850000,1.650000,-1.464148,Hold,61.422119,58.000000,Hold,-151388.000000,151552.000000,LowGoal,877.500000,-1454.545455,Speed,1365.000000,-1454.545455,Speed,Off,Off,0.000000,FALSE,13,Read: /home/lvuser/scripts/auto_13.bee,File good!,DRIVE_STRAIGHT_TARGET 206 1000 10000 75,DRIVE_STRAIGHT_TARGET
09:12:21.048 PM 03/24/2016,Autonomous Enabled,9,FALSE,0,NO ERROR,0.000000,-179.666247,0.000000,180.519661,TRUE,FALSE,TRUE,FALSE,FALSE,FALSE,Disabled,0.000000,0.000000,0.000000,TRUE,0.581238,-0.060928,0.000000,-0.105743,0.004242,0.000000,0.081000,-0.048000,-0.276000,-0.800000,1.190000,1.630000,-1.343448,Hold,61.422119,58.000000,Hold,-151388.000000,151552.000000,LowGoal,870.000000,-1454.545455,Speed,1372.500000,-1454.545455,Speed,Off,Off,0.000000,FALSE,13,Read: /home/lvuser/scripts/auto_13.bee,File good!,DRIVE_STRAIGHT_TARGET 206 1000 10000 75,DRIVE_STRAIGHT_TARGET
09:12:21.148 PM 03/24/2016,Autonomous Enabled,10,FALSE,0,NO ERROR,0.000000,-183.336571,0.000000,184.189986,TRUE,FALSE,TRUE,FALSE,FALSE,FALSE,Disabled,0.000000,0.000000,0.000000,TRUE,0.580215,-0.060684,0.000000,0.037247,0.003616,0.000000,-0.051000,0.029000,-0.050000,-0.700000,1.230000,1.670000,-1.219457,Hold,61.422119,58.000000,Hold,-151388.000000,151552.000000,LowGoal,945.000000,-1454.545455,Speed,1365.000000,-1454.545455,Speed,Off,Off,0.000000,FALSE,13,Read: /home/lvuser/scripts/auto_13.bee,File good!,DRIVE_STRAIGHT_TARGET 206 1000 10000 75,DRIVE_STRAIGHT_TARGET
09:12:21.248 PM 03/24/2016,Autonomous Enabled,9,FALSE,0,NO ERROR,0.000000,-187.205812,0.000000,187.995060,TRUE,FALSE,TRUE,FALSE,FALSE,FALSE,Disabled,0.000000,0.000000,0.000000,TRUE,0.581070,-0.059952,0.000000,-0.001724,0.032425,0.000000,-0.154000,0.062000,0.007000,-0.660000,1.210000,1.610000,-1.171086,Hold,61.422119,58.000000,Hold,-151388.000000,151552.000000,LowGoal,1072.500000,-1454.545455,Speed,1365.000000,-1454.545455,Speed,Off,Off,0.000000,FALSE,13,Read: /home/lvuser/scripts/auto_13.bee,File good!,DRIVE_STRAIGHT_TARGET 206 1000 10000 75,DRIVE_STRAIGHT_TARGET
09:12:21.349 PM 03/24/2016,Autonomous Enabled,9,FALSE,0,NO ERROR,0.000000,-190.972387,0.000000,191.806551,TRUE,FALSE,TRUE,FALSE,FALSE,FALSE,Disabled,0.000000,0.000000,0.000000,TRUE,0.582474,-0.057449,0.000000,0.047287,0.063400,0.000000,0.025000,0.067000,0.029000,-0.750000,1.370000,1.670000,-1.261009,Hold,61.422119,58.000000,Hold,-151388.000000,151552.000000,LowGoal,990.000000,-1454.545455,Speed,1380.000000,-1454.545455,Speed,Off,Off,0.000000,FALSE,13,Read: /home/lvuser/scripts/auto_13.bee,File good!,DRIVE_STRAIGHT_TARGET 206 1000 10000 75,DRIVE_STRAIGHT_TARGET
09:12:21.449 PM 03/24/2016,Autonomous Enabled,11,FALSE,0,NO ERROR,0.000000,-194.796711,0.000000,195.650126,TRUE,FALSE,TRUE,FALSE,FALSE,FALSE,Disabled,0.000000,0.000000,0.000000,TRUE,0.585419,-0.055176,0.000000,0.070129,0.002823,0.000000,-0.175000,0.083000,0.143000,-0.850000,1.200000,1.690000,-1.344911,Hold,61.422119,58.000000,Hold,-151388.000000,151552.000000,LowGoal,1080.000000,-1454.545455,Speed,1387.500000,-1454.545455,Speed,Off,Off,0.000000,FALSE,13,Read: /home/lvuser/scripts/auto_13.bee,File good!,DRIVE_STRAIGHT_TARGET 206 1000 10000 75,DRIVE_STRAIGHT_TARGET
09:12:21.549 PM 03/24/2016,Autonomous Enabled,11,FALSE,0,NO ERROR,0.000000,-198.665952,0.000000,199.538617,TRUE,FALSE,TRUE,FALSE,FALSE,FALSE,Disabled,0.000000,0.000000,0.000000,TRUE,0.587860,-0.053375,0.000000,0.068680,0.052353,0.000000,-0.082000,-0.024000,0.021000,-0.900000,1.160000,1.710000,-1.432479,Hold,61.422119,58.000000,Hold,-151388.000000,151552.000000,LowGoal,945.000000,-1454.545455,Speed,1387.500000,-1454.545455,Speed,Off,Off,0.000000,FALSE,13,Read: /home/lvuser/scripts/auto_13.bee,File good!,DRIVE_STRAIGHT_TARGET 206 1000 10000 75,DRIVE_STRAIGHT_TARGET
09:12:21.651 PM 03/24/2016,Autonomous Enabled,9,FALSE,0,NO ERROR,0.000000,-202.580110,0.000000,203.401441,TRUE,FALSE,TRUE,FALSE,FALSE,FALSE,Disabled,0.000000,0.000000,0.000000,TRUE,0.589890,-0.050003,0.000000,0.051498,0.088150,0.000000,-0.037000,-0.068000,-0.225000,-0.760000,1.160000,1.710000,-1.347187,Hold,61.422119,58.000000,Hold,-151388.000000,151552.000000,LowGoal,945.000000,-1454.545455,Speed,1380.000000,-1454.545455,Speed,Off,Off,0.000000,FALSE,13,Read: /home/lvuser/scripts/auto_13.bee,File good!,DRIVE_STRAIGHT_TARGET 206 1000 10000 75,DRIVE_STRAIGHT_TARGET
09:12:21.751 PM 03/24/2016,Autonomous Enabled,9,FALSE,0,NO ERROR,0.000000,-206.487850,0.000000,207.161599,TRUE,FALSE,TRUE,FALSE,FALSE,FALSE,Disabled,0.000000,0.000000,0.000000,TRUE,0.591644,-0.046906,0.000000,0.040207,0.055237,0.000000,-0.092000,0.089000,0.085000,-0.690000,1.170000,1.710000,-1.232212,Hold,61.422119,2.000000,Hold,-151388.000000,126976.000000,LowGoal,982.500000,-1454.545455,Speed,1372.500000,-1454.545455,Speed,Off,Off,0.000000,FALSE,13,Read: /home/lvuser/scripts/auto_13.bee,File good!,SET_HEADING 59 50,SET_HEADING
09:12:21.851 PM 03/24/2016,Autonomous Enabled,9,FALSE,0,NO ERROR,0.000000,-209.080178,0.000000,207.918764,TRUE,FALSE,TRUE,FALSE,FALSE,FALSE,Disabled,0.000000,0.000000,0.000000,TRUE,0.582748,-0.038071,0.000000,-0.380966,0.296753,0.000000,-0.306000,0.085000,-0.249000,0.920000,-2.850000,2.560000,0.147737,Hold,57.608154,2.000000,Hold,-151388.000000,126976.000000,LowGoal,1125.000000,-1454.545455,Speed,1380.000000,-1454.545455,Speed,Off,Off,0.000000,FALSE,13,Read: /home/lvuser/scripts/auto_13.bee,File good!,SET_HEADING 59 50,SET_HEADING
09:12:21.951 PM 03/24/2016,Autonomous Enabled,9,FALSE,0,NO ERROR,0.000000,-210.941007,0.000000,207.841764,FALSE,FALSE,TRUE,FALSE,FALSE,FALSE,Disabled,0.000000,0.000000,0.000000,TRUE,0.556442,-0.021652,0.000000,-0.594910,0.290176,0.000000,-0.322000,-0.353000,0.015000,5.170000,-4.130000,2.400000,4.559926,Hold,48.500000,2.000000,Hold,-140563.000000,126976.000000,LowGoal,1372.500000,-1454.545455,Speed,1380.000000,-1454.545455,Speed,Off,Off,0.000000,FALSE,13,Read: /home/lvuser/scripts/auto_13.bee,File good!,SET_HEADING 59 50,SET_HEADING
09:12:22.051 PM 03/24/2016,Autonomous Enabled,9,FALSE,0,NO ERROR,0.000000,-212.006171,0.000000,207.450348,FALSE,FALSE,TRUE,FALSE,FALSE,FALSE,Disabled,0.000000,0.000000,0.000000,TRUE,0.521652,-0.016296,0.000000,-0.679062,0.017303,0.000000,0.135000,0.303000,-0.261000,8.450000,-3.130000,0.880000,7.388752,Hold,35.329834,2.000000,Hold,-128014.000000,126976.000000,LowGoal,1447.500000,-1454.545455,Speed,1380.000000,-1454.545455,Speed,Off,Off,0.000000,FALSE,13,Read: /home/lvuser/scripts/auto_13.bee,File good!,SET_HEADING 59 50,SET_HEADING
09:12:22.151 PM 03/24/2016,Autonomous Enabled,9,FALSE,0,NO ERROR,0.000000,-213.000752,0.000000,206.815100,TRUE,FALSE,TRUE,FALSE,FALSE,FALSE,Disabled,0.000000,0.000000,0.000000,TRUE,0.491959,-0.006073,0.000000,-0.554535,0.312744,0.000000,-0.079000,-0.363000,-0.156000,11.680000,-2.650000,1.630000,10.711785,Hold,21.088135,2.000000,Hold,-127071.000000,126976.000000,LowGoal,1395.000000,-1454.545455,Speed,1395.000000,-1454.545455,Speed,Off,Off,0.000000,FALSE,13,Read: /home/lvuser/scripts/auto_13.bee,File good!,SET_HEADING 59 50,SET_HEADING
09:12:22.251 PM 03/24/2016,Autonomous Enabled,9,FALSE,0,NO ERROR,0.000000,-213.777167,0.000000,206.128518,TRUE,FALSE,TRUE,FALSE,FALSE,FALSE,Disabled,0.000000,0.000000,0.000000,TRUE,0.462906,0.000946,0.000000,-0.593857,0.066055,0.000000,0.136000,0.204000,0.117000,14.560000,-2.720000,0.840000,13.800327,Hold,9.408936,2.000000,Hold,-126953.000000,126976.000000,LowGoal,1372.500000,-1454.545455,Speed,1402.500000,-1454.545455,Speed,Off,Off,0.000000,FALSE,13,Read: /home/lvuser/scripts/auto_13.bee,File good!,SET_HEADING 59 50,SET_HEADING
09:12:22.352 PM 03/24/2016,Autonomous Enabled,9,FALSE,0,NO ERROR,0.000000,-214.463748,0.000000,205.339270,TRUE,FALSE,TRUE,FALSE,FALSE,FALSE,Disabled,0.000000,0.000000,0.000000,TRUE,0.435089,0.008636,0.000000,-0.560440,0.189651,0.000000,-0.155000,0.364000,-0.028000,17.450000,-2.330000,0.950000,16.877217,Hold,1.613525,2.000000,Hold,-126951.000000,126976.000000,LowGoal,1395.000000,-1454.545455,Speed,1402.500000,-1454.545455,Speed,Off,Off,0.000000,FALSE,13,Read: /home/lvuser/scripts/auto_13.bee,File good!,SET_HEADING 59 50,SET_HEADING
09:12:22.453 PM 03/24/2016,Autonomous Enabled,9,FALSE,0,NO ERROR,0.000000,-214.752498,0.000000,204.562855,TRUE,FALSE,TRUE,FALSE,FALSE,FALSE,Disabled,0.000000,0.000000,0.000000,TRUE,0.406921,0.023621,0.000000,-0.479568,0.367798,0.000000,0.209000,0.091000,0.022000,19.480000,-2.520000,1.260000,19.175558,Hold,0.284424,2.000000,Hold,-126951.000000,126976.000000,LowGoal,1410.000000,-1454.545455,Speed,1402.500000,-1454.545455,Speed,Off,Off,0.000000,FALSE,13,Read: /home/lvuser/scripts/auto_13.bee,File good!,SET_HEADING 59 50,SET_HEADING
09:12:22.554 PM 03/24/2016,Autonomous Enabled,9,FALSE,0,NO ERROR,0.000000,-215.381330,0.000000,203.901940,TRUE,FALSE,TRUE,FALSE,FALSE,FALSE,Disabled,0.000000,0.000000,0.000000,TRUE,0.381378,0.046249,0.000000,-0.437927,0.288559,0.000000,-0.040000,-0.358000,0.150000,21.990000,-2.100000,0.500000,22.227410,Hold,0.699951,2.000000,Hold,-126951.000000,126976.000000,LowGoal,1395.000000,-1454.545455,Speed,1395.000000,-1454.545455,Speed,Off,Off,0.000000,FALSE,13,Read: /home/lvuser/scripts/auto_13.bee,File good!,SET_HEADING 59 50,SET_HEADING
09:12:22.656 PM 03/24/2016,Autonomous Enabled,11,FALSE,0,NO ERROR,0.000000,-215.888245,0.000000,203.266691,TRUE,FALSE,TRUE,FALSE,FALSE,FALSE,Disabled,0.000000,0.000000,0.000000,TRUE,0.364868,0.056137,0.000000,-0.369965,0.283539,0.000000,0.168000,0.132000,-0.082000,24.260000,-1.950000,0.910000,24.626501,Hold,0.864746,2.000000,Hold,-126951.000000,126976.000000,LowGoal,1387.500000,-1454.545455,Speed,1402.500000,-1454.545455,Speed,Off,Off,0.000000,FALSE,13,Read: /home/lvuser/scripts/auto_13.bee,File good!,SET_HEADING 59 50,SET_HEADING
09:12:22.756 PM 03/24/2016,Autonomous Enabled,10,FALSE,0,NO ERROR,0.000000,-216.433661,0.000000,202.702026,TRUE,FALSE,TRUE,FALSE,FALSE,FALSE,Disabled,0.000000,0.000000,0.000000,TRUE,0.349472,0.071671,0.000000,-0.290787,0.271408,0.000000,0.015000,-0.028000,-0.025000,26.390000,-1.610000,0.530000,26.872664,Hold,0.865234,2.000000,Hold,-126951.000000,126976.000000,LowGoal,1395.000000,-1454.545455,Speed,1410.000000,-1454.545455,Speed,Off,Off,0.000000,FALSE,13,Read: /home/lvuser/scripts/auto_13.bee,File good!,SET_HEADING 59 50,SET_HEADING
09:12:22.856 PM 03/24/2016,Autonomous Enabled,10,FALSE,0,NO ERROR,0.000000,-216.940576,0.000000,202.182277,TRUE,FALSE,TRUE,FALSE,FALSE,FALSE,Disabled,0.000000,0.000000,0.000000,TRUE,0.346100,0.084854,0.000000,-0.028915,0.289734,0.000000,0.103000,0.041000,-0.014000,28.440000,-1.540000,0.700000,29.021681,Hold,0.865479,2.000000,Hold,-126951.000000,126976.000000,LowGoal,1402.500000,-1454.545455,Speed,1410.000000,-1454.545455,Speed,Off,Off,0.000000,FALSE,13,Read: /home/lvuser/scripts/auto_13.bee,File good!,SET_HEADING 59 50,SET_HEADING
09:12:22.956 PM 03/24/2016,Autonomous Enabled,11,FALSE,0,NO ERROR,0.000000,-217.447492,0.000000,201.668945,TRUE,FALSE,TRUE,FALSE,FALSE,FALSE,Disabled,0.000000,0.000000,0.000000,TRUE,0.347198,0.090652,0.000000,0.052475,-0.022812,0.000000,0.020000,-0.063000,0.029000,30.430000,-1.350000,0.650000,31.112749,Hold,0.865723,2.000000,Hold,-126951.000000,126976.000000,LowGoal,1410.000000,-1454.545455,Speed,1402.500000,-1454.545455,Speed,Off,Off,0.000000,FALSE,13,Read: /home/lvuser/scripts/auto_13.bee,File good!,SET_HEADING 59 50,SET_HEADING
09:12:23.056 PM 03/24/2016,Autonomous Enabled,9,FALSE,0,NO ERROR,0.000000,-217.941574,0.000000,201.162030,TRUE,FALSE,TRUE,FALSE,FALSE,FALSE,Disabled,0.000000,0.000000,0.000000,TRUE,0.350510,0.089050,0.000000,0.083893,-0.002090,0.000000,0.140000,-0.026000,-0.066000,32.380000,-1.300000,0.630000,33.147294,Hold,0.865967,2.000000,Hold,-126951.000000,126976.000000,LowGoal,1402.500000,-1454.545455,Speed,1402.500000,-1454.545455,Speed,Off,Off,0.000000,FALSE,13,Read: /home/lvuser/scripts/auto_13.bee,File good!,SET_HEADING 59 50,SET_HEADING
09:12:23.156 PM 03/24/2016,Autonomous Enabled,8,FALSE,0,NO ERROR,0.000000,-218.435656,0.000000,200.629448,TRUE,FALSE,TRUE,FALSE,FALSE,FALSE,Disabled,0.000000,0.000000,0.000000,TRUE,0.357239,0.089432,0.000000,0.132980,0.000000,0.000000,-0.002000,-0.043000,-0.044000,34.410000,-1.290000,0.640000,35.263933,Hold,0.866455,2.000000,Hold,-126951.000000,126976.000000,LowGoal,1402.500000,-1454.545455,Speed,1402.500000,-1454.545455,Speed,Off,Off,0.000000,FALSE,13,Read: /home/lvuser/scripts/auto_13.bee,File good!,SET_HEADING 59 50,SET_HEADING
09:12:23.257 PM 03/24/2016,Autonomous Enabled,10,FALSE,0,NO ERROR,0.000000,-218.948988,0.000000,200.103282,TRUE,FALSE,TRUE,FALSE,FALSE,FALSE,Disabled,0.000000,0.000000,0.000000,TRUE,0.366653,0.086349,0.000000,0.188873,-0.090561,0.000000,-0.057000,0.078000,-0.011000,36.370000,-0.960000,0.620000,37.319781,Hold,0.866699,2.000000,Hold,-126951.000000,126976.000000,LowGoal,1395.000000,-1454.545455,Speed,1402.500000,-1454.545455,Speed,Off,Off,0.000000,FALSE,13,Read: /home/lvuser/scripts/auto_13.bee,File good!,SET_HEADING 59 50,SET_HEADING
09:12:23.357 PM 03/24/2016,Autonomous Enabled,10,FALSE,0,NO ERROR,0.000000,-219.449487,0.000000,199.615617,TRUE,FALSE,TRUE,FALSE,FALSE,FALSE,Disabled,0.000000,0.000000,0.000000,TRUE,0.375122,0.084229,0.000000,0.183212,-0.025391,0.000000,0.123000,-0.079000,0.007000,38.320000,-0.990000,0.750000,39.366285,Hold,0.867188,2.000000,Hold,-126951.000000,126976.000000,LowGoal,1402.500000,-1454.545455,Speed,1410.000000,-1454.545455,Speed,Off,Off,0.000000,FALSE,13,Read: /home/lvuser/scripts/auto_13.bee,File good!,SET_HEADING 59 50,SET_HEADING
09:12:23.456 PM 03/24/2016,Autonomous Enabled,11,FALSE,0,NO ERROR,0.000000,-219.975652,0.000000,199.121534,TRUE,FALSE,TRUE,FALSE,FALSE,FALSE,Disabled,0.000000,0.000000,0.000000,TRUE,0.385208,0.083389,0.000000,0.193008,-0.005905,0.000000,0.032000,0.047000,0.008000,40.330000,-0.860000,0.610000,41.488478,Hold,0.868164,2.000000,Hold,-126951.000000,126976.000000,LowGoal,1402.500000,-1454.545455,Speed,1410.000000,-1454.545455,Speed,Off,Off,0.000000,FALSE,13,Read: /home/lvuser/scripts/auto_13.bee,File good!,SET_HEADING 59 50,SET_HEADING
09:12:23.556 PM 03/24/2016,Autonomous Enabled,11,FALSE,0,NO ERROR,0.000000,-220.514651,0.000000,198.608202,TRUE,FALSE,TRUE,FALSE,FALSE,FALSE,Disabled,0.000000,0.000000,0.000000,TRUE,0.395813,0.083969,0.000000,0.244797,0.007233,0.000000,0.065000,-0.012000,-0.044000,42.780000,-0.770000,0.740000,43.606680,Hold,0.869873,2.000000,Hold,-126951.000000,126976.000000,LowGoal,1402.500000,-1454.545455,Speed,1410.000000,-1454.545455,Speed,Off,Off,0.000000,FALSE,13,Read: /home/lvuser/scripts/auto_13.bee,File good!,SET_HEADING 59 50,SET_HEADING
09:12:23.657 PM 03/24/2016,Autonomous Enabled,11,FALSE,0,NO ERROR,0.000000,-221.015150,0.000000,198.094870,TRUE,FALSE,TRUE,FALSE,FALSE,FALSE,Disabled,0.000000,0.000000,0.000000,TRUE,0.408615,0.084229,0.000000,0.251541,0.008072,0.000000,0.131000,-0.077000,-0.062000,44.840000,-0.820000,0.740000,45.758224,Hold,0.871338,2.000000,Hold,-126951.000000,126976.000000,LowGoal,1410.000000,-1454.545455,Speed,1402.500000,-1454.545455,Speed,Off,Off,0.000000,FALSE,13,Read: /home/lvuser/scripts/auto_13.bee,File good!,SET_HEADING 59 50,SET_HEADING
