Time,Robot Mode,Loop Time,Error Status,Error Code,Error Source,Left Motor Output,Left Motor Encoder,Right Motor Output,Right Motor Encoder,Is Level,Is Stalled,Ball Detector Photoeye,Vision Enabled,Vision Teleop Control,Vision Auto Control,Vision Current State,Vision X Output,Vision NavX Error,Vision NavX Target,NavX Connection Status,NavX Displacement X,NavX Displacement Y,NavX Displacement Z,NavX Velocity X,NavX Velocity Y,NavX Velocity Z,NavX Acceleration X,NavX Acceleration Y,NavX Acceleration Z,NavX Pitch,NavX Yaw,NavX Roll,Gyro Angle,Roller Arm State,Roller Arm Actual,Roller Arm Desired,Shooter Arm State,Shooter Arm Actual,Shooter Arm Desired,Shooter State,Actual RPM Left,Desired RPM Left,Control Mode Left,Actual RPM Right,Desired RPM Right,Control Mode Right,Ball Shooter Cylinder,Ball Halo Cylinder,Scaler Motor Output,Scaler Solenoid Fire,Auto To Run,Auto Current File,Auto File Status,Auto Current Command,Auto Trimmed Command
11:43:01.272 AM 03/25/2016,Teleop Enabled,11,TRUE,-44003,<LOCATION>WPI_CameraIssue HTTP Request with Authentication.vi<CALLSTACK>WPI_CameraIssue HTTP Request with Authentication.vi< <WPI_CameraIssue Get.vi< <WPI_CameraSet Image Appearance Property.vi< <WPI_CameraSet Image Size.vi< <Vision Processing.vi< <Robot Main.vi,-0.000000,0.064167,0.000000,0.000000,TRUE,FALSE,FALSE,FALSE,FALSE,FALSE,Disabled,0.000000,0.000000,0.000000,TRUE,-0.079346,-0.048828,0.000000,0.000000,0.000000,0.000000,0.000000,0.004000,0.003000,0.230000,-0.270000,2.300000,-5.126747,ResetBack,0.395508,-0.000049,ResetBack,24316.000000,-0.250000,Suck,0.000000,0.000000,Speed,0.000000,0.000000,Speed,Off,On,0.000000,FALSE,10,,,,
11:43:01.373 AM 03/25/2016,Teleop Enabled,10,FALSE,0,NO ERROR,-0.000000,0.064167,0.000000,-0.006417,TRUE,FALSE,FALSE,FALSE,FALSE,FALSE,Disabled,0.000000,0.000000,0.000000,TRUE,-0.079590,-0.048752,0.000000,-0.022415,0.008575,0.000000,-0.187000,0.088000,0.185000,0.210000,-0.340000,2.350000,-5.155603,ResetBack,0.140869,-0.000049,ResetBack,24316.000000,-0.250000,Suck,0.000000,2400.000000,Speed,0.000000,2400.000000,Speed,Off,On,0.000000,FALSE,10,,,,
11:43:01.474 AM 03/25/2016,Teleop Enabled,11,FALSE,0,NO ERROR,-0.000000,0.064167,0.000000,-0.019250,TRUE,FALSE,FALSE,FALSE,FALSE,FALSE,Disabled,0.000000,0.000000,0.000000,TRUE,-0.080887,-0.048309,0.000000,-0.014465,0.013992,0.000000,-0.044000,-0.010000,-0.049000,0.220000,-0.310000,2.350000,-5.153981,ResetBack,0.127441,-0.000049,ResetBack,25517.000000,-0.250000,Suck,-82.500000,2400.000000,Speed,-67.500000,2400.000000,Speed,Off,On,0.000000,FALSE,10,,,,
11:43:01.575 AM 03/25/2016,Teleop Enabled,11,FALSE,0,NO ERROR,0.000000,0.064167,-0.000000,-0.019250,TRUE,FALSE,FALSE,TRUE,TRUE,FALSE,Disabled,0.000000,0.000000,0.000000,TRUE,-0.083145,-0.048279,0.000000,-0.050812,-0.004623,0.000000,0.006000,0.044000,0.203000,0.220000,-0.400000,2.390000,-5.146356,ResetBack,0.126465,-0.000049,ResetBack,27853.000000,-0.250000,Suck,-577.500000,2400.000000,Speed,-675.000000,2400.000000,Speed,Off,On,0.000000,TRUE,10,,,,
11:43:01.675 AM 03/25/2016,Teleop Enabled,11,FALSE,0,NO ERROR,0.000000,0.064167,-0.000000,-0.019250,TRUE,FALSE,FALSE,TRUE,TRUE,FALSE,Disabled,0.000000,0.000000,0.000000,TRUE,-0.082336,-0.048523,0.000000,0.028778,0.000000,0.000000,-0.061000,0.007000,-0.033000,0.220000,-0.380000,2.400000,-5.157978,Reset,0.125000,0.000000,ResetBack,30552.000000,-0.250000,Suck,-1275.000000,2400.000000,Speed,-1222.500000,2400.000000,Speed,Off,On,0.000000,TRUE,10,,,,
11:43:01.775 AM 03/25/2016,Teleop Enabled,11,FALSE,0,NO ERROR,0.000000,0.064167,-0.000000,-0.019250,TRUE,FALSE,FALSE,TRUE,TRUE,FALSE,Disabled,0.000000,0.000000,0.000000,TRUE,-0.080765,-0.048660,0.000000,0.032928,-0.014175,0.000000,-0.064000,-0.053000,0.093000,0.220000,-0.480000,2.440000,-5.098360,Hold,0.016113,0.000000,ResetBack,33489.000000,-0.250000,Suck,-1852.500000,2400.000000,Speed,-1747.500000,2400.000000,Speed,Off,On,0.000000,TRUE,10,,,,
11:43:01.875 AM 03/25/2016,Teleop Enabled,10,FALSE,0,NO ERROR,0.000000,0.064167,-0.000000,-0.019250,TRUE,FALSE,FALSE,TRUE,TRUE,FALSE,Disabled,0.000000,0.000000,0.000000,TRUE,-0.080750,-0.052902,0.000000,0.003372,-0.142334,0.000000,0.061000,-0.220000,-0.074000,0.230000,-0.550000,2.510000,-5.092528,Hold,0.016357,0.000000,ResetBack,37240.000000,-0.250000,Suck,-2310.000000,2400.000000,Speed,-1972.500000,2400.000000,Speed,Off,On,0.000000,TRUE,10,,,,
11:43:01.974 AM 03/25/2016,Teleop Enabled,9,FALSE,0,NO ERROR,0.000000,0.064167,-0.000000,-0.019250,TRUE,FALSE,FALSE,TRUE,TRUE,FALSE,Disabled,0.000000,0.000000,0.000000,TRUE,-0.080170,-0.060532,0.000000,0.008896,-0.082214,0.000000,0.123000,-0.005000,0.076000,0.230000,-0.430000,2.440000,-5.093943,Hold,0.016602,0.000000,ResetBack,37240.000000,-0.250000,Suck,-2475.000000,2400.000000,Speed,-2100.000000,2400.000000,Speed,Off,On,0.000000,TRUE,10,,,,
11:43:02.074 AM 03/25/2016,Teleop Enabled,10,FALSE,0,NO ERROR,0.000000,0.064167,-0.000000,-0.019250,TRUE,FALSE,FALSE,TRUE,TRUE,FALSE,Disabled,0.000000,0.000000,0.000000,TRUE,-0.078308,-0.061050,0.000000,0.052582,0.032272,0.000000,0.017000,0.295000,-0.132000,0.230000,-0.420000,2.330000,-5.091165,Hold,0.016602,0.000000,ResetBack,46874.000000,-0.250000,Suck,-2430.000000,2400.000000,Speed,-2092.500000,2400.000000,Speed,Off,On,0.000000,TRUE,10,,,,
11:43:02.175 AM 03/25/2016,Teleop Enabled,10,FALSE,0,NO ERROR,0.000000,0.064167,-0.000000,-0.019250,TRUE,FALSE,FALSE,TRUE,TRUE,FALSE,Disabled,0.000000,0.000000,0.000000,TRUE,-0.076462,-0.055115,0.000000,0.008163,0.000000,0.000000,0.066000,-0.195000,-0.015000,0.230000,-0.520000,2.380000,-5.105066,Hold,0.016846,0.000000,ResetBack,46874.000000,-0.250000,Suck,-2377.500000,2400.000000,Speed,-2010.000000,2400.000000,Speed,Off,On,0.000000,TRUE,10,,,,
11:43:02.275 AM 03/25/2016,Teleop Enabled,11,FALSE,0,NO ERROR,0.000000,0.064167,-0.000000,-0.019250,TRUE,FALSE,FALSE,TRUE,TRUE,FALSE,Disabled,0.000000,0.000000,0.000000,TRUE,-0.074554,-0.059540,0.000000,0.068512,-0.150589,0.000000,0.020000,0.124000,-0.076000,0.220000,-0.430000,2.320000,-5.113583,Hold,0.016846,0.000000,ResetBack,52562.000000,-0.250000,Suck,-2370.000000,2400.000000,Speed,-1942.500000,2400.000000,Speed,Off,On,0.000000,TRUE,10,,,,
11:43:02.376 AM 03/25/2016,Teleop Enabled,11,FALSE,0,NO ERROR,0.000000,0.064167,-0.000000,-0.019250,TRUE,FALSE,FALSE,TRUE,TRUE,FALSE,Disabled,0.000000,0.000000,0.000000,TRUE,-0.071762,-0.062561,0.000000,0.034500,-0.000061,0.000000,-0.199000,-0.109000,-0.037000,0.230000,-0.440000,2.260000,-5.110088,Hold,0.016846,0.000000,ResetBack,58307.000000,-0.250000,Suck,-2370.000000,2400.000000,Speed,-1905.000000,2400.000000,Speed,Off,On,0.000000,TRUE,10,,,,
11:43:02.476 AM 03/25/2016,Teleop Enabled,11,FALSE,0,NO ERROR,0.000000,0.064167,-0.000000,-0.019250,TRUE,FALSE,FALSE,TRUE,TRUE,FALSE,Disabled,0.000000,0.000000,0.000000,TRUE,-0.072449,-0.066544,0.000000,-0.003479,-0.125839,0.000000,0.046000,-0.202000,0.048000,0.220000,-0.460000,2.340000,-5.109314,Hold,0.016846,0.000000,ResetBack,64094.000000,-0.250000,Suck,-2377.500000,2400.000000,Speed,-1897.500000,2400.000000,Speed,Off,On,0.000000,TRUE,10,,,,
11:43:02.576 AM 03/25/2016,Teleop Enabled,11,FALSE,0,NO ERROR,0.000000,0.064167,-0.000000,-0.019250,TRUE,FALSE,FALSE,TRUE,TRUE,FALSE,Disabled,0.000000,0.000000,0.000000,TRUE,-0.072250,-0.073151,0.000000,0.023209,-0.089218,0.000000,0.047000,0.099000,-0.001000,0.220000,-0.470000,2.310000,-5.122341,Hold,0.016846,0.000000,Reset,69956.000000,2.000000,Suck,-2370.000000,2400.000000,Speed,-1867.500000,2400.000000,Speed,Off,On,0.000000,TRUE,10,,,,
11:43:02.676 AM 03/25/2016,Teleop Enabled,11,FALSE,0,NO ERROR,0.000000,0.064167,-0.000000,-0.019250,TRUE,FALSE,FALSE,TRUE,TRUE,FALSE,Disabled,0.000000,0.000000,0.000000,TRUE,-0.071289,-0.078369,0.000000,0.035904,-0.146133,0.000000,0.073000,-0.186000,0.136000,0.210000,-0.370000,2.330000,-5.144724,Hold,0.016846,0.000000,Hold,53.000000,2.000000,Suck,-2362.500000,2400.000000,Speed,-1830.000000,2400.000000,Speed,Off,On,0.000000,TRUE,10,,,,
11:43:02.777 AM 03/25/2016,Teleop Enabled,11,FALSE,0,NO ERROR,0.000000,0.064167,-0.000000,-0.019250,TRUE,FALSE,FALSE,TRUE,TRUE,FALSE,Disabled,0.000000,0.000000,0.000000,TRUE,-0.067032,-0.086884,0.000000,0.096237,-0.110489,0.000000,-0.049000,0.020000,-0.001000,0.210000,-0.280000,2.380000,-5.149351,Hold,0.017090,0.000000,Hold,53.000000,2.000000,Suck,-2362.500000,2400.000000,Speed,-1770.000000,2400.000000,Speed,Off,On,0.000000,TRUE,10,,,,
11:43:02.878 AM 03/25/2016,Teleop Enabled,9,FALSE,0,NO ERROR,0.000000,0.064167,-0.000000,-0.019250,TRUE,FALSE,FALSE,TRUE,TRUE,FALSE,Disabled,0.000000,0.000000,0.000000,TRUE,-0.064606,-0.090149,0.000000,0.042068,-0.076782,0.000000,0.094000,-0.134000,-0.128000,0.200000,-0.320000,2.420000,-5.178943,Hold,0.017090,0.000000,Hold,1.000000,2.000000,Suck,-2362.500000,2400.000000,Speed,-1725.000000,2400.000000,Speed,Off,On,0.000000,TRUE,10,,,,
11:43:02.980 AM 03/25/2016,Teleop Enabled,9,FALSE,0,NO ERROR,0.000000,0.064167,-0.000000,-0.019250,TRUE,FALSE,FALSE,TRUE,TRUE,FALSE,Disabled,0.000000,0.000000,0.000000,TRUE,-0.060516,-0.097900,0.000000,0.088699,-0.186707,0.000000,0.072000,0.140000,0.023000,0.220000,-0.240000,2.290000,-5.152029,Hold,0.017090,0.000000,Hold,0.000000,2.000000,Suck,-2370.000000,2400.000000,Speed,-1657.500000,2400.000000,Speed,Off,On,0.000000,TRUE,10,,,,
11:43:03.082 AM 03/25/2016,Teleop Enabled,11,FALSE,0,NO ERROR,0.000000,0.064167,-0.000000,-0.019250,TRUE,FALSE,FALSE,TRUE,TRUE,FALSE,Disabled,0.000000,0.000000,0.000000,TRUE,-0.058670,-0.104355,0.000000,0.001999,-0.118591,0.000000,0.059000,-0.037000,-0.040000,0.210000,-0.340000,2.300000,-5.167135,Hold,0.017090,0.000000,Hold,0.000000,2.000000,Suck,-2362.500000,2400.000000,Speed,-1582.500000,2400.000000,Speed,Off,On,0.000000,TRUE,10,,,,
11:43:03.182 AM 03/25/2016,Teleop Enabled,11,FALSE,0,NO ERROR,0.000000,0.064167,-0.000000,-0.019250,TRUE,FALSE,FALSE,TRUE,TRUE,FALSE,Disabled,0.000000,0.000000,0.000000,TRUE,-0.057480,-0.112015,0.000000,0.045959,-0.206192,0.000000,-0.022000,0.052000,-0.020000,0.210000,-0.350000,2.380000,-5.170450,Hold,0.017090,0.000000,Hold,0.000000,2.000000,Suck,-2362.500000,2400.000000,Speed,-1545.000000,2400.000000,Speed,Off,On,0.000000,TRUE,10,,,,
11:43:03.283 AM 03/25/2016,Teleop Enabled,9,FALSE,0,NO ERROR,0.000000,0.064167,-0.000000,-0.019250,TRUE,FALSE,FALSE,TRUE,TRUE,FALSE,Disabled,0.000000,0.000000,0.000000,TRUE,-0.053497,-0.122284,0.000000,0.053040,-0.157516,0.000000,-0.112000,-0.063000,0.027000,0.220000,-0.250000,2.350000,-5.166526,Hold,0.017090,0.000000,Hold,0.000000,2.000000,Suck,-2370.000000,2400.000000,Speed,-1507.500000,2400.000000,Speed,Off,On,0.000000,TRUE,10,,,,
11:43:03.383 AM 03/25/2016,Teleop Enabled,10,FALSE,0,NO ERROR,0.000000,0.064167,-0.000000,-0.019250,TRUE,FALSE,FALSE,TRUE,TRUE,FALSE,Disabled,0.000000,0.000000,0.000000,TRUE,-0.051163,-0.133011,0.000000,0.053925,-0.259064,0.000000,-0.038000,-0.096000,-0.019000,0.180000,-0.290000,2.420000,-5.210560,Hold,0.017090,0.000000,Hold,0.000000,2.000000,Suck,-2362.500000,2400.000000,Speed,-1455.000000,2400.000000,Speed,Off,On,0.000000,TRUE,10,,,,
11:43:03.483 AM 03/25/2016,Teleop Enabled,10,FALSE,0,NO ERROR,0.000000,0.064167,-0.000000,-0.019250,TRUE,FALSE,FALSE,TRUE,TRUE,FALSE,Disabled,0.000000,0.000000,0.000000,TRUE,-0.049377,-0.142380,0.000000,0.042480,-0.180237,0.000000,-0.052000,-0.065000,0.106000,0.210000,-0.220000,2.420000,-5.178141,Hold,0.017090,0.000000,Hold,0.000000,2.000000,Suck,-2362.500000,2400.000000,Speed,-1425.000000,2400.000000,Speed,Off,On,0.000000,TRUE,10,,,,
11:43:03.583 AM 03/25/2016,Teleop Enabled,9,FALSE,0,NO ERROR,0.000000,0.064167,-0.000000,-0.019250,TRUE,FALSE,FALSE,TRUE,TRUE,FALSE,Disabled,0.000000,0.000000,0.000000,TRUE,-0.047638,-0.152481,0.000000,0.044846,-0.186020,0.000000,0.049000,-0.151000,0.062000,0.180000,-0.280000,2.410000,-5.210832,Hold,0.017090,0.000000,Hold,0.000000,2.000000,Suck,-2362.500000,2400.000000,Speed,-1410.000000,2400.000000,Speed,Off,On,0.000000,TRUE,10,,,,
11:43:03.684 AM 03/25/2016,Teleop Enabled,10,FALSE,0,NO ERROR,0.000000,0.064167,-0.000000,-0.019250,TRUE,FALSE,FALSE,TRUE,TRUE,FALSE,Disabled,0.000000,0.000000,0.000000,TRUE,-0.045120,-0.162979,0.000000,0.031952,-0.159683,0.000000,-0.104000,0.277000,0.083000,0.190000,-0.320000,2.380000,-5.219169,Hold,0.017090,0.000000,Hold,0.000000,2.000000,Suck,-2362.500000,2400.000000,Speed,-1387.500000,2400.000000,Speed,Off,On,0.000000,TRUE,10,,,,
11:43:03.785 AM 03/25/2016,Teleop Enabled,10,FALSE,0,NO ERROR,0.000000,0.064167,-0.000000,-0.019250,TRUE,FALSE,FALSE,TRUE,TRUE,FALSE,Disabled,0.000000,0.000000,0.000000,TRUE,-0.045532,-0.166809,0.000000,-0.024185,-0.089417,0.000000,0.068000,-0.003000,0.051000,0.200000,-0.400000,2.440000,-5.219493,Hold,0.017090,0.000000,Hold,0.000000,2.000000,Suck,-2362.500000,2400.000000,Speed,-1357.500000,2400.000000,Speed,Off,On,0.000000,TRUE,10,,,,
11:43:03.885 AM 03/25/2016,Teleop Enabled,10,FALSE,0,NO ERROR,0.000000,0.064167,-0.000000,-0.019250,TRUE,FALSE,FALSE,TRUE,TRUE,FALSE,Disabled,0.000000,0.000000,0.000000,TRUE,-0.045319,-0.173843,0.000000,0.013947,-0.192307,0.000000,-0.034000,-0.103000,0.050000,0.190000,-0.380000,2.370000,-5.226901,Hold,0.017090,0.000000,Hold,0.000000,2.000000,Suck,-2355.000000,2400.000000,Speed,-1342.500000,2400.000000,Speed,Off,On,0.000000,TRUE,10,,,,
11:43:03.987 AM 03/25/2016,Teleop Enabled,10,FALSE,0,NO ERROR,0.000000,0.064167,-0.000000,-0.019250,TRUE,FALSE,FALSE,TRUE,TRUE,FALSE,Disabled,0.000000,0.000000,0.000000,TRUE,-0.045090,-0.178299,0.000000,0.012482,-0.044220,0.000000,0.028000,-0.081000,0.018000,0.200000,-0.300000,2.370000,-5.213021,Hold,0.017090,0.000000,Hold,0.000000,2.000000,Suck,-2355.000000,2400.000000,Speed,-1297.500000,2400.000000,Speed,Off,On,0.000000,TRUE,10,,,,
11:43:04.086 AM 03/25/2016,Teleop Enabled,10,FALSE,0,NO ERROR,0.000000,0.064167,-0.000000,-0.019250,TRUE,FALSE,FALSE,TRUE,TRUE,FALSE,Disabled,0.000000,0.000000,0.000000,TRUE,-0.042404,-0.184387,0.000000,0.073517,-0.153671,0.000000,0.049000,-0.235000,-0.058000,0.190000,-0.270000,2.240000,-5.229019,Hold,0.017090,0.000000,Hold,0.000000,2.000000,Suck,-2355.000000,2400.000000,Speed,-1260.000000,2400.000000,Speed,Off,On,0.000000,TRUE,10,,,,
11:43:04.188 AM 03/25/2016,Teleop Enabled,10,FALSE,0,NO ERROR,0.000000,0.064167,-0.000000,-0.019250,TRUE,FALSE,FALSE,TRUE,TRUE,FALSE,Disabled,0.000000,0.000000,0.000000,TRUE,-0.037582,-0.194229,0.000000,0.101807,-0.141861,0.000000,-0.078000,0.122000,-0.082000,0.190000,-0.350000,2.340000,-5.224832,Hold,0.017090,0.000000,Hold,0.000000,2.000000,Suck,-2355.000000,2400.000000,Speed,-1230.000000,2400.000000,Speed,Off,On,0.000000,TRUE,10,,,,
11:43:04.288 AM 03/25/2016,Teleop Enabled,9,FALSE,0,NO ERROR,0.000000,0.064167,-0.000000,-0.019250,TRUE,FALSE,FALSE,TRUE,TRUE,FALSE,Disabled,0.000000,0.000000,0.000000,TRUE,-0.034317,-0.199707,0.000000,0.063370,-0.135452,0.000000,0.028000,-0.007000,-0.057000,0.180000,-0.260000,2.360000,-5.244152,Hold,0.017090,0.000000,Hold,0.000000,2.000000,Suck,-2362.500000,2400.000000,Speed,-1207.500000,2400.000000,Speed,Off,On,0.000000,TRUE,10,,,,
11:43:04.389 AM 03/25/2016,Teleop Enabled,10,FALSE,0,NO ERROR,0.000000,0.064167,-0.000000,-0.019250,TRUE,FALSE,FALSE,TRUE,TRUE,FALSE,Disabled,0.000000,0.000000,0.000000,TRUE,-0.031662,-0.212524,0.000000,0.007599,-0.216431,0.000000,0.062000,0.216000,0.006000,0.180000,-0.210000,2.170000,-5.249467,Hold,0.017090,0.000000,Hold,0.000000,2.000000,Suck,-2355.000000,2400.000000,Speed,-1207.500000,2400.000000,Speed,Off,On,0.000000,TRUE,10,,,,
11:43:04.490 AM 03/25/2016,Teleop Enabled,11,FALSE,0,NO ERROR,0.000000,0.064167,-0.000000,-0.019250,TRUE,FALSE,FALSE,TRUE,TRUE,FALSE,Disabled,0.000000,0.000000,0.000000,TRUE,-0.032455,-0.219269,0.000000,-0.039078,-0.140182,0.000000,-0.032000,-0.030000,0.024000,0.180000,-0.240000,2.240000,-5.266573,Hold,0.017334,0.000000,Hold,0.000000,2.000000,Suck,-2355.000000,2400.000000,Speed,-1185.000000,2400.000000,Speed,Off,On,0.000000,TRUE,10,,,,
11:43:04.590 AM 03/25/2016,Teleop Enabled,10,FALSE,0,NO ERROR,0.000000,0.064167,-0.000000,-0.019250,TRUE,FALSE,FALSE,TRUE,TRUE,FALSE,Disabled,0.000000,0.000000,0.000000,TRUE,-0.032455,-0.228058,0.000000,0.019608,-0.210632,0.000000,-0.011000,0.108000,0.134000,0.170000,-0.260000,2.230000,-5.293288,Hold,0.017334,0.000000,Hold,0.000000,2.000000,Suck,-2355.000000,2400.000000,Speed,-1177.500000,2400.000000,Speed,Off,On,0.000000,TRUE,10,,,,
11:43:04.692 AM 03/25/2016,Teleop Enabled,10,FALSE,0,NO ERROR,0.000000,0.064167,-0.000000,-0.019250,TRUE,FALSE,FALSE,TRUE,TRUE,FALSE,Disabled,0.000000,0.000000,0.000000,TRUE,-0.032043,-0.234940,0.000000,0.000000,-0.092300,0.000000,-0.130000,-0.050000,0.047000,0.170000,-0.190000,2.240000,-5.280726,Hold,0.017334,0.000000,Hold,0.000000,2.000000,Suck,-2355.000000,2400.000000,Speed,-1155.000000,2400.000000,Speed,Off,On,0.000000,TRUE,10,,,,
11:43:04.789 AM 03/25/2016,Teleop Enabled,11,FALSE,0,NO ERROR,0.000000,0.064167,-0.000000,-0.019250,TRUE,FALSE,FALSE,TRUE,TRUE,FALSE,Disabled,0.000000,0.000000,0.000000,TRUE,-0.032440,-0.241577,0.000000,0.027267,-0.160934,0.000000,0.033000,-0.223000,-0.140000,0.170000,-0.220000,2.290000,-5.301292,Hold,0.017334,0.000000,Hold,0.000000,2.000000,Suck,-2362.500000,2400.000000,Speed,-1140.000000,2400.000000,Speed,Off,On,0.000000,TRUE,10,,,,
11:43:04.889 AM 03/25/2016,Teleop Enabled,10,FALSE,0,NO ERROR,0.000000,0.064167,-0.000000,-0.019250,TRUE,FALSE,FALSE,TRUE,TRUE,FALSE,Disabled,0.000000,0.000000,0.000000,TRUE,-0.030685,-0.251282,0.000000,0.025238,-0.144775,0.000000,-0.112000,0.175000,-0.064000,0.170000,-0.220000,2.400000,-5.304724,Hold,0.017334,0.000000,Hold,0.000000,2.000000,Suck,-2355.000000,2400.000000,Speed,-1102.500000,2400.000000,Speed,Off,On,0.000000,TRUE,10,,,,
11:43:04.990 AM 03/25/2016,Teleop Enabled,10,FALSE,0,NO ERROR,0.000000,0.064167,-0.000000,-0.019250,TRUE,FALSE,FALSE,TRUE,TRUE,FALSE,Disabled,0.000000,0.000000,0.000000,TRUE,-0.031418,-0.256958,0.000000,-0.021515,-0.139969,0.000000,0.046000,0.006000,-0.073000,0.180000,-0.200000,2.400000,-5.290121,Hold,0.017334,0.000000,Hold,0.000000,2.000000,Suck,-2355.000000,2400.000000,Speed,-1065.000000,2400.000000,Speed,Off,On,0.000000,TRUE,10,,,,
11:43:05.090 AM 03/25/2016,Teleop Enabled,11,FALSE,0,NO ERROR,0.000000,0.064167,-0.000000,-0.019250,TRUE,FALSE,FALSE,TRUE,TRUE,FALSE,Disabled,0.000000,0.000000,0.000000,TRUE,-0.032150,-0.266769,0.000000,-0.023987,-0.239883,0.000000,0.049000,0.231000,-0.106000,0.180000,-0.180000,2.250000,-5.315754,Hold,0.017334,0.000000,Hold,0.000000,2.000000,Suck,-2355.000000,2400.000000,Speed,-1042.500000,2400.000000,Speed,Off,On,0.000000,TRUE,10,,,,
11:43:05.190 AM 03/25/2016,Teleop Enabled,10,FALSE,0,NO ERROR,0.000000,0.064167,-0.000000,-0.019250,TRUE,FALSE,FALSE,TRUE,TRUE,FALSE,Disabled,0.000000,0.000000,0.000000,TRUE,-0.033890,-0.274002,0.000000,-0.046539,-0.090469,0.000000,-0.076000,-0.033000,0.051000,0.160000,-0.150000,2.270000,-5.316725,Hold,0.017334,0.000000,Hold,0.000000,2.000000,Suck,-2355.000000,2400.000000,Speed,-1020.000000,2400.000000,Speed,Off,On,0.000000,TRUE,10,,,,
11:43:05.290 AM 03/25/2016,Teleop Enabled,9,FALSE,0,NO ERROR,0.000000,0.064167,-0.000000,-0.019250,TRUE,FALSE,FALSE,TRUE,TRUE,FALSE,Disabled,0.000000,0.000000,0.000000,TRUE,-0.035294,-0.280365,0.000000,-0.014359,-0.167450,0.000000,-0.020000,-0.011000,0.024000,0.150000,-0.170000,2.240000,-5.321634,Hold,0.017334,0.000000,Hold,0.000000,2.000000,Suck,-2355.000000,2400.000000,Speed,-982.500000,2400.000000,Speed,Off,On,0.000000,TRUE,10,,,,
11:43:05.390 AM 03/25/2016,Teleop Enabled,9,FALSE,0,NO ERROR,0.000000,0.064167,-0.000000,-0.019250,TRUE,FALSE,FALSE,TRUE,TRUE,FALSE,Disabled,0.000000,0.000000,0.000000,TRUE,-0.036102,-0.285950,0.000000,-0.025925,-0.064301,0.000000,-0.073000,0.282000,0.024000,0.160000,-0.200000,2.200000,-5.318900,Hold,0.017334,0.000000,Hold,0.000000,2.000000,Suck,-2347.500000,2400.000000,Speed,-982.500000,2400.000000,Speed,Off,On,0.000000,TRUE,10,,,,
11:43:05.491 AM 03/25/2016,Teleop Enabled,11,FALSE,0,NO ERROR,0.000000,0.064167,-0.000000,-0.019250,TRUE,FALSE,FALSE,TRUE,TRUE,FALSE,Disabled,0.000000,0.000000,0.000000,TRUE,-0.036575,-0.289413,0.000000,0.006531,-0.108841,0.000000,-0.009000,0.000000,0.000000,0.160000,-0.230000,2.220000,-5.326563,Hold,0.017334,0.000000,Hold,0.000000,2.000000,Suck,-2355.000000,2400.000000,Speed,-967.500000,2400.000000,Speed,Off,On,0.000000,TRUE,10,,,,
11:43:05.592 AM 03/25/2016,Teleop Enabled,10,FALSE,0,NO ERROR,0.000000,0.064167,-0.000000,-0.019250,TRUE,FALSE,FALSE,TRUE,TRUE,FALSE,Disabled,0.000000,0.000000,0.000000,TRUE,-0.036118,-0.296509,0.000000,0.007660,-0.137192,0.000000,-0.105000,0.282000,0.034000,0.160000,-0.260000,2.230000,-5.341081,Hold,0.017334,0.000000,Hold,0.000000,2.000000,Suck,-2355.000000,2400.000000,Speed,-930.000000,2400.000000,Speed,Off,On,0.000000,TRUE,10,,,,
11:43:05.693 AM 03/25/2016,Teleop Enabled,9,FALSE,0,NO ERROR,0.000000,0.064167,-0.000000,-0.019250,TRUE,FALSE,FALSE,TRUE,TRUE,FALSE,Disabled,0.000000,0.000000,0.000000,TRUE,-0.036835,-0.299561,0.000000,-0.022614,-0.061066,0.000000,0.102000,-0.088000,0.019000,0.160000,-0.350000,2.230000,-5.352517,Hold,0.017334,0.000000,Hold,0.000000,2.000000,Suck,-2355.000000,2400.000000,Speed,-930.000000,2400.000000,Speed,Off,On,0.000000,TRUE,10,,,,
11:43:05.793 AM 03/25/2016,Teleop Enabled,11,FALSE,0,NO ERROR,0.000000,0.064167,-0.000000,-0.019250,TRUE,FALSE,FALSE,TRUE,TRUE,FALSE,Disabled,0.000000,0.000000,0.000000,TRUE,-0.035431,-0.306427,0.000000,0.045853,-0.150787,0.000000,0.102000,-0.088000,0.019000,0.150000,-0.270000,2.160000,-5.380711,Hold,0.017334,0.000000,Hold,0.000000,2.000000,Suck,-2355.000000,2400.000000,Speed,-907.500000,2400.000000,Speed,Off,On,0.000000,TRUE,10,,,,
11:43:05.894 AM 03/25/2016,Teleop Enabled,9,FALSE,0,NO ERROR,0.000000,0.064167,-0.000000,-0.019250,TRUE,FALSE,FALSE,TRUE,TRUE,FALSE,Disabled,0.000000,0.000000,0.000000,TRUE,-0.033569,-0.309570,0.000000,0.043274,-0.046951,0.000000,-0.058000,0.076000,0.021000,0.150000,-0.270000,2.160000,-5.388801,Hold,0.017334,0.000000,Hold,0.000000,2.000000,Suck,-2355.000000,2400.000000,Speed,-885.000000,2400.000000,Speed,Off,On,0.000000,TRUE,10,,,,
11:43:05.995 AM 03/25/2016,Teleop Enabled,13,FALSE,0,NO ERROR,0.000000,0.064167,-0.000000,-0.019250,TRUE,FALSE,FALSE,TRUE,TRUE,FALSE,Disabled,0.000000,0.000000,0.000000,TRUE,-0.030365,-0.312302,0.000000,0.081406,-0.019028,0.000000,0.017000,-0.086000,-0.057000,0.160000,-0.260000,2.160000,-5.388653,Hold,0.017334,0.000000,Hold,0.000000,2.000000,Suck,-2355.000000,2400.000000,Speed,-862.500000,2400.000000,Speed,Off,On,0.000000,TRUE,10,,,,
11:43:06.095 AM 03/25/2016,Teleop Enabled,10,FALSE,0,NO ERROR,0.000000,0.064167,-0.000000,-0.019250,TRUE,FALSE,FALSE,TRUE,TRUE,FALSE,Disabled,0.000000,0.000000,0.000000,TRUE,-0.027267,-0.313721,0.000000,0.035660,0.050201,0.000000,-0.114000,0.331000,0.046000,0.160000,-0.300000,2.200000,-5.393879,Hold,0.017334,0.000000,Hold,0.000000,2.000000,Suck,-2355.000000,2400.000000,Speed,-832.500000,2400.000000,Speed,Off,On,0.000000,TRUE,10,,,,
11:43:06.197 AM 03/25/2016,Teleop Enabled,10,FALSE,0,NO ERROR,0.000000,0.064167,-0.000000,-0.019250,TRUE,FALSE,FALSE,TRUE,TRUE,FALSE,Disabled,0.000000,0.000000,0.000000,TRUE,-0.026138,-0.309494,0.000000,0.026672,0.063232,0.000000,-0.114000,0.331000,0.046000,0.160000,-0.390000,2.210000,-5.378739,Hold,0.017334,0.000000,Hold,0.000000,2.000000,Suck,-2355.000000,2400.000000,Speed,-795.000000,2400.000000,Speed,Off,On,0.000000,TRUE,10,,,,
11:43:06.297 AM 03/25/2016,Teleop Enabled,10,FALSE,0,NO ERROR,0.000000,0.064167,-0.000000,-0.019250,TRUE,FALSE,FALSE,TRUE,TRUE,FALSE,Disabled,0.000000,0.000000,0.000000,TRUE,-0.026138,-0.309494,0.000000,0.026672,0.063232,0.000000,0.078000,-0.001000,0.096000,0.170000,-0.320000,2.170000,-5.382316,Hold,0.017334,0.000000,Hold,0.000000,2.000000,Suck,-2355.000000,2400.000000,Speed,-750.000000,2400.000000,Speed,Off,On,0.000000,TRUE,10,,,,
11:43:06.398 AM 03/25/2016,Teleop Enabled,11,FALSE,0,NO ERROR,0.000000,0.064167,-0.000000,-0.019250,TRUE,FALSE,FALSE,TRUE,TRUE,FALSE,Disabled,0.000000,0.000000,0.000000,TRUE,-0.019547,-0.305527,0.000000,0.085846,0.109940,0.000000,-0.103000,0.314000,0.011000,0.170000,-0.270000,2.130000,-5.393762,Hold,0.017334,0.000000,Hold,0.000000,2.000000,Suck,-2355.000000,2400.000000,Speed,-682.500000,2400.000000,Speed,Off,On,0.000000,TRUE,10,,,,
11:43:06.499 AM 03/25/2016,Teleop Enabled,11,FALSE,0,NO ERROR,0.000000,0.064167,-0.000000,-0.019250,TRUE,FALSE,FALSE,TRUE,TRUE,FALSE,Disabled,0.000000,0.000000,0.000000,TRUE,-0.019547,-0.305527,0.000000,0.085846,0.109940,0.000000,-0.094000,-0.084000,-0.071000,0.160000,-0.290000,2.150000,-5.401584,Hold,0.017334,0.000000,Hold,0.000000,2.000000,Suck,-2355.000000,2400.000000,Speed,-652.500000,2400.000000,Speed,Off,On,0.000000,TRUE,10,,,,
11:43:06.599 AM 03/25/2016,Teleop Enabled,10,FALSE,0,NO ERROR,0.000000,0.064167,-0.000000,-0.019250,TRUE,FALSE,FALSE,TRUE,TRUE,FALSE,Disabled,0.000000,0.000000,0.000000,TRUE,-0.011093,-0.302429,0.000000,0.093979,0.090271,0.000000,-0.015000,0.078000,0.103000,0.170000,-0.290000,2.110000,-5.398916,Hold,0.017334,0.000000,Hold,0.000000,2.000000,Suck,-2355.000000,2400.000000,Speed,-630.000000,2400.000000,Speed,Off,On,0.000000,TRUE,10,,,,
11:43:06.700 AM 03/25/2016,Teleop Enabled,10,FALSE,0,NO ERROR,0.000000,0.064167,-0.000000,-0.019250,TRUE,FALSE,FALSE,TRUE,TRUE,FALSE,Disabled,0.000000,0.000000,0.000000,TRUE,-0.007721,-0.296799,0.000000,0.059311,0.088379,0.000000,-0.024000,0.034000,0.064000,0.170000,-0.310000,2.220000,-5.398348,Hold,0.017334,0.000000,Hold,0.000000,2.000000,Suck,-2347.500000,2400.000000,Speed,-615.000000,2400.000000,Speed,Off,On,0.000000,TRUE,10,,,,
11:43:06.799 AM 03/25/2016,Teleop Enabled,10,FALSE,0,NO ERROR,0.000000,0.064167,-0.000000,-0.019250,TRUE,FALSE,FALSE,TRUE,TRUE,FALSE,Disabled,0.000000,0.000000,0.000000,TRUE,-0.007721,-0.296799,0.000000,0.059311,0.088379,0.000000,0.020000,-0.046000,0.065000,0.170000,-0.290000,2.210000,-5.411842,Hold,0.017334,0.000000,Hold,0.000000,2.000000,Suck,-2355.000000,2400.000000,Speed,-577.500000,2400.000000,Speed,Off,On,0.000000,TRUE,10,,,,
11:43:06.901 AM 03/25/2016,Teleop Enabled,10,FALSE,0,NO ERROR,0.000000,0.064167,-0.000000,-0.019250,TRUE,FALSE,FALSE,TRUE,TRUE,FALSE,Disabled,0.000000,0.000000,0.000000,TRUE,-0.002655,-0.295090,0.000000,0.080597,0.034805,0.000000,-0.038000,0.307000,0.082000,0.160000,-0.280000,2.230000,-5.408066,Hold,0.017334,0.000000,Hold,0.000000,2.000000,Suck,-2355.000000,2400.000000,Speed,-510.000000,2400.000000,Speed,Off,On,0.000000,TRUE,10,,,,
11:43:07.004 AM 03/25/2016,Teleop Enabled,11,FALSE,0,NO ERROR,0.000000,0.064167,-0.000000,-0.019250,TRUE,FALSE,FALSE,TRUE,TRUE,FALSE,Disabled,0.000000,0.000000,0.000000,TRUE,0.000748,-0.289139,0.000000,0.054337,0.114746,0.000000,-0.042000,-0.086000,0.093000,0.160000,-0.310000,2.290000,-5.408066,Hold,0.017334,0.000000,Hold,0.000000,2.000000,Suck,-2355.000000,2400.000000,Speed,-480.000000,2400.000000,Speed,Off,On,0.000000,TRUE,10,,,,
11:43:07.104 AM 03/25/2016,Teleop Enabled,9,FALSE,0,NO ERROR,0.000000,0.064167,-0.000000,-0.019250,TRUE,FALSE,FALSE,TRUE,TRUE,FALSE,Disabled,0.000000,0.000000,0.000000,TRUE,0.002792,-0.285141,0.000000,0.003754,0.024673,0.000000,0.052000,0.178000,0.032000,0.160000,-0.280000,2.300000,-5.410455,Hold,0.017334,0.000000,Hold,0.000000,2.000000,Suck,-2355.000000,2400.000000,Speed,-442.500000,2400.000000,Speed,Off,On,0.000000,TRUE,10,,,,
11:43:07.204 AM 03/25/2016,Teleop Enabled,10,FALSE,0,NO ERROR,0.000000,0.064167,-0.000000,-0.019250,TRUE,FALSE,FALSE,TRUE,TRUE,FALSE,Disabled,0.000000,0.000000,0.000000,TRUE,0.003159,-0.280655,0.000000,0.002762,0.171799,0.000000,-0.037000,-0.105000,0.143000,0.160000,-0.250000,2.310000,-5.400751,Hold,0.017334,0.000000,Hold,0.000000,2.000000,Suck,-2347.500000,2400.000000,Speed,-412.500000,2400.000000,Speed,Off,On,0.000000,TRUE,10,,,,
11:43:07.304 AM 03/25/2016,Teleop Enabled,10,FALSE,0,NO ERROR,0.000000,0.064167,-0.000000,-0.019250,TRUE,FALSE,FALSE,TRUE,TRUE,FALSE,Disabled,0.000000,0.000000,0.000000,TRUE,0.002609,-0.272430,0.000000,0.003693,0.060654,0.000000,0.021000,-0.239000,-0.040000,0.160000,-0.250000,2.330000,-5.406031,Hold,0.017334,0.000000,Hold,0.000000,2.000000,Suck,-2347.500000,2400.000000,Speed,-442.500000,2400.000000,Speed,Off,On,0.000000,TRUE,10,,,,
11:43:07.404 AM 03/25/2016,Teleop Enabled,11,FALSE,0,NO ERROR,0.000000,0.064167,-0.000000,-0.019250,TRUE,FALSE,FALSE,TRUE,TRUE,FALSE,Disabled,0.000000,0.000000,0.000000,TRUE,0.002167,-0.270767,0.000000,-0.025513,0.080063,0.000000,-0.040000,0.248000,-0.001000,0.150000,-0.180000,2.250000,-5.415433,Hold,0.017334,0.000000,Hold,0.000000,2.000000,Suck,-2347.500000,2400.000000,Speed,-480.000000,2400.000000,Speed,Off,On,0.000000,TRUE,10,,,,
11:43:07.504 AM 03/25/2016,Teleop Enabled,10,FALSE,0,NO ERROR,0.000000,0.064167,-0.000000,-0.019250,TRUE,FALSE,FALSE,TRUE,TRUE,FALSE,Disabled,0.000000,0.000000,0.000000,TRUE,0.000320,-0.263504,0.000000,-0.049988,0.136032,0.000000,0.088000,-0.062000,-0.009000,0.150000,-0.210000,2.320000,-5.426195,Hold,0.017334,0.000000,Hold,0.000000,2.000000,Suck,-2355.000000,2400.000000,Speed,-487.500000,2400.000000,Speed,Off,On,0.000000,TRUE,10,,,,
11:43:07.604 AM 03/25/2016,Teleop Enabled,11,FALSE,0,NO ERROR,0.000000,0.064167,-0.000000,-0.019250,TRUE,FALSE,FALSE,TRUE,TRUE,FALSE,Disabled,0.000000,0.000000,0.000000,TRUE,-0.001297,-0.259094,0.000000,-0.025146,0.039948,0.000000,0.000000,0.076000,-0.042000,0.160000,-0.210000,2.290000,-5.425458,Hold,0.017334,0.000000,Hold,0.000000,2.000000,Suck,-2355.000000,2400.000000,Speed,-472.500000,2400.000000,Speed,Off,On,0.000000,TRUE,10,,,,
11:43:07.704 AM 03/25/2016,Teleop Enabled,10,FALSE,0,NO ERROR,0.000000,0.064167,-0.000000,-0.019250,TRUE,FALSE,FALSE,TRUE,TRUE,FALSE,Disabled,0.000000,0.000000,0.000000,TRUE,-0.003021,-0.251297,0.000000,-0.050583,0.172379,0.000000,-0.153000,-0.133000,0.117000,0.150000,-0.140000,2.340000,-5.436006,Hold,0.017334,0.000000,Hold,0.000000,2.000000,Suck,-2355.000000,2400.000000,Speed,-487.500000,2400.000000,Speed,Off,On,0.000000,TRUE,10,,,,
11:43:07.804 AM 03/25/2016,Teleop Enabled,11,FALSE,0,NO ERROR,0.000000,0.064167,-0.000000,-0.019250,TRUE,FALSE,FALSE,TRUE,TRUE,FALSE,Disabled,0.000000,0.000000,0.000000,TRUE,-0.005524,-0.245728,0.000000,-0.052063,0.132248,0.000000,-0.015000,-0.144000,0.101000,0.150000,-0.150000,2.330000,-5.434577,Hold,0.017334,0.000000,Hold,0.000000,2.000000,Suck,-2347.500000,2400.000000,Speed,-510.000000,2400.000000,Speed,Off,On,0.000000,TRUE,10,,,,
11:43:07.905 AM 03/25/2016,Teleop Enabled,10,FALSE,0,NO ERROR,0.000000,0.064167,-0.000000,-0.019250,TRUE,FALSE,FALSE,TRUE,TRUE,FALSE,Disabled,0.000000,0.000000,0.000000,TRUE,-0.006561,-0.242157,0.000000,-0.009583,0.095200,0.000000,-0.013000,0.270000,-0.047000,0.160000,-0.190000,2.320000,-5.452423,Hold,0.017334,0.000000,Hold,0.000000,2.000000,Suck,-2355.000000,2400.000000,Speed,-517.500000,2400.000000,Speed,Off,On,0.000000,TRUE,10,,,,
11:43:08.006 AM 03/25/2016,Teleop Enabled,11,FALSE,0,NO ERROR,0.000000,0.064167,-0.000000,-0.019250,TRUE,FALSE,FALSE,TRUE,TRUE,FALSE,Disabled,0.000000,0.000000,0.000000,TRUE,-0.008743,-0.228165,0.000000,-0.047791,0.179810,0.000000,-0.003000,-0.042000,0.062000,0.150000,-0.230000,2.320000,-5.461904,Hold,0.017334,0.000000,Hold,0.000000,2.000000,Suck,-2355.000000,2400.000000,Speed,-510.000000,2400.000000,Speed,Off,On,0.000000,TRUE,10,,,,
11:43:08.106 AM 03/25/2016,Teleop Enabled,11,FALSE,0,NO ERROR,0.000000,0.064167,-0.000000,-0.019250,TRUE,FALSE,FALSE,TRUE,TRUE,FALSE,Disabled,0.000000,0.000000,0.000000,TRUE,-0.010101,-0.222076,0.000000,-0.008423,0.102844,0.000000,0.011000,0.181000,0.076000,0.160000,-0.220000,2.340000,-5.467068,Hold,0.017334,0.000000,Hold,0.000000,2.000000,Suck,-2355.000000,2400.000000,Speed,-502.500000,2400.000000,Speed,Off,On,0.000000,TRUE,10,,,,
11:43:08.206 AM 03/25/2016,Teleop Enabled,11,FALSE,0,NO ERROR,0.000000,0.064167,-0.000000,-0.019250,TRUE,FALSE,FALSE,TRUE,TRUE,FALSE,Disabled,0.000000,0.000000,0.000000,TRUE,-0.012085,-0.210815,0.000000,-0.053482,0.241486,0.000000,-0.072000,-0.135000,0.157000,0.150000,-0.170000,2.400000,-5.472201,Hold,0.017334,0.000000,Hold,0.000000,2.000000,Suck,-2355.000000,2400.000000,Speed,-487.500000,2400.000000,Speed,Off,On,0.000000,TRUE,10,,,,
11:43:08.306 AM 03/25/2016,Teleop Enabled,10,FALSE,0,NO ERROR,0.000000,0.064167,-0.000000,-0.019250,TRUE,FALSE,FALSE,TRUE,TRUE,FALSE,Disabled,0.000000,0.000000,0.000000,TRUE,-0.013077,-0.202133,0.000000,0.011826,0.136566,0.000000,0.078000,-0.221000,-0.058000,0.150000,-0.160000,2.350000,-5.481833,Hold,0.017334,0.000000,Hold,0.000000,2.000000,Suck,-2355.000000,2400.000000,Speed,-480.000000,2400.000000,Speed,Off,On,0.000000,TRUE,10,,,,
11:43:08.407 AM 03/25/2016,Teleop Enabled,10,FALSE,0,NO ERROR,0.000000,0.064167,-0.000000,-0.019250,TRUE,FALSE,FALSE,TRUE,TRUE,FALSE,Disabled,0.000000,0.000000,0.000000,TRUE,-0.012741,-0.198669,0.000000,0.007339,0.133591,0.000000,-0.001000,0.157000,-0.026000,0.160000,-0.240000,2.350000,-5.487455,Hold,0.017334,0.000000,Hold,0.000000,2.000000,Suck,-2355.000000,2400.000000,Speed,-427.500000,2400.000000,Speed,Off,On,0.000000,TRUE,10,,,,
11:43:08.508 AM 03/25/2016,Teleop Enabled,11,FALSE,0,NO ERROR,0.000000,0.064167,-0.000000,-0.019250,TRUE,FALSE,FALSE,TRUE,TRUE,FALSE,Disabled,0.000000,0.000000,0.000000,TRUE,-0.012756,-0.184448,0.000000,0.006149,0.164719,0.000000,0.060000,-0.049000,-0.011000,0.150000,-0.220000,2.340000,-5.506609,Hold,0.017334,0.000000,Hold,0.000000,2.000000,Suck,-2355.000000,2400.000000,Speed,-397.500000,2400.000000,Speed,Off,On,0.000000,TRUE,10,,,,
11:43:08.609 AM 03/25/2016,Teleop Enabled,10,FALSE,0,NO ERROR,0.000000,0.064167,-0.000000,-0.019250,TRUE,FALSE,FALSE,TRUE,TRUE,FALSE,Disabled,0.000000,0.000000,0.000000,TRUE,-0.011627,-0.178268,0.000000,0.027374,0.109482,0.000000,0.035000,0.041000,0.001000,0.150000,-0.180000,2.300000,-5.500347,Hold,0.017334,0.000000,Hold,0.000000,2.000000,Suck,-2347.500000,2400.000000,Speed,-330.000000,2400.000000,Speed,Off,On,0.000000,TRUE,10,,,,
11:43:08.710 AM 03/25/2016,Teleop Enabled,10,FALSE,0,NO ERROR,0.000000,0.064167,-0.000000,-0.019250,TRUE,FALSE,FALSE,TRUE,TRUE,FALSE,Disabled,0.000000,0.000000,0.000000,TRUE,-0.010956,-0.172485,0.000000,0.014725,0.235123,0.000000,-0.103000,-0.005000,0.035000,0.150000,-0.180000,2.330000,-5.508892,Hold,0.017334,0.000000,Hold,0.000000,2.000000,Suck,-2347.500000,2400.000000,Speed,-315.000000,2400.000000,Speed,Off,On,0.000000,TRUE,10,,,,
11:43:08.810 AM 03/25/2016,Teleop Enabled,10,FALSE,0,NO ERROR,0.000000,0.064167,-0.000000,-0.019250,TRUE,FALSE,FALSE,TRUE,TRUE,FALSE,Disabled,0.000000,0.000000,0.000000,TRUE,-0.011230,-0.159027,0.000000,0.017441,0.140671,0.000000,0.087000,-0.187000,-0.035000,0.160000,-0.200000,2.360000,-5.513009,Hold,0.017334,0.000000,Hold,0.000000,2.000000,Suck,-2347.500000,2400.000000,Speed,-322.500000,2400.000000,Speed,Off,On,0.000000,TRUE,10,,,,
11:43:08.911 AM 03/25/2016,Teleop Enabled,11,FALSE,0,NO ERROR,0.000000,0.064167,-0.000000,-0.019250,TRUE,FALSE,FALSE,TRUE,TRUE,FALSE,Disabled,0.000000,0.000000,0.000000,TRUE,-0.011322,-0.151245,0.000000,-0.020645,0.235107,0.000000,0.045000,-0.025000,0.104000,0.150000,-0.150000,2.330000,-5.529075,Hold,0.017334,0.000000,Hold,0.000000,2.000000,Suck,-2347.500000,2400.000000,Speed,-352.500000,2400.000000,Speed,Off,On,0.000000,TRUE,10,,,,
11:43:09.011 AM 03/25/2016,Teleop Enabled,11,FALSE,0,NO ERROR,0.000000,0.064167,-0.000000,-0.019250,TRUE,FALSE,FALSE,TRUE,TRUE,FALSE,Disabled,0.000000,0.000000,0.000000,TRUE,-0.012543,-0.140320,0.000000,-0.015518,0.174973,0.000000,0.120000,-0.058000,0.068000,0.150000,-0.170000,2.270000,-5.544680,Hold,0.017334,0.000000,Hold,0.000000,2.000000,Suck,-2355.000000,2400.000000,Speed,-322.500000,2400.000000,Speed,Off,On,0.000000,TRUE,10,,,,
11:43:09.112 AM 03/25/2016,Teleop Enabled,11,FALSE,0,NO ERROR,0.000000,0.064167,-0.000000,-0.019250,TRUE,FALSE,FALSE,TRUE,TRUE,FALSE,Disabled,0.000000,0.000000,0.000000,TRUE,-0.011856,-0.134277,0.000000,0.010147,0.093140,0.000000,-0.020000,0.089000,-0.058000,0.150000,-0.140000,2.260000,-5.559669,Hold,0.017334,0.000000,Hold,0.000000,2.000000,Suck,-2347.500000,2400.000000,Speed,-277.500000,2400.000000,Speed,Off,On,0.000000,TRUE,10,,,,
11:43:09.212 AM 03/25/2016,Teleop Enabled,10,FALSE,0,NO ERROR,0.000000,0.064167,-0.000000,-0.019250,TRUE,FALSE,FALSE,TRUE,TRUE,FALSE,Disabled,0.000000,0.000000,0.000000,TRUE,-0.011963,-0.127167,0.000000,-0.002563,0.207748,0.000000,-0.034000,-0.062000,0.045000,0.150000,-0.170000,2.320000,-5.568376,Hold,0.017334,0.000000,Hold,0.000000,2.000000,Suck,-2355.000000,2400.000000,Speed,-307.500000,2400.000000,Speed,Off,On,0.000000,TRUE,10,,,,
11:43:09.313 AM 03/25/2016,Teleop Enabled,8,FALSE,0,NO ERROR,0.000000,0.064167,-0.000000,-0.019250,TRUE,FALSE,FALSE,TRUE,TRUE,FALSE,Disabled,0.000000,0.000000,0.000000,TRUE,-0.012878,-0.118042,0.000000,0.006454,0.111832,0.000000,0.091000,-0.149000,0.023000,0.150000,-0.130000,2.300000,-5.579974,Hold,0.017334,0.000000,Hold,0.000000,2.000000,Suck,-2347.500000,2400.000000,Speed,-345.000000,2400.000000,Speed,Off,On,0.000000,TRUE,10,,,,
11:43:09.413 AM 03/25/2016,Teleop Enabled,9,FALSE,0,NO ERROR,0.000000,0.064167,-0.000000,-0.019250,TRUE,FALSE,FALSE,TRUE,TRUE,FALSE,Disabled,0.000000,0.000000,0.000000,TRUE,-0.011871,-0.112366,0.000000,0.002930,0.188553,0.000000,-0.023000,0.014000,-0.038000,0.150000,-0.170000,2.340000,-5.600336,Hold,0.017334,0.000000,Hold,0.000000,2.000000,Suck,-2355.000000,2400.000000,Speed,-330.000000,2400.000000,Speed,Off,On,0.000000,TRUE,10,,,,
11:43:09.513 AM 03/25/2016,Teleop Enabled,9,FALSE,0,NO ERROR,0.000000,0.064167,-0.000000,-0.019250,TRUE,FALSE,FALSE,TRUE,TRUE,FALSE,Disabled,0.000000,0.000000,0.000000,TRUE,-0.012711,-0.102234,0.000000,-0.003906,0.171387,0.000000,0.090000,0.000000,0.028000,0.150000,-0.190000,2.340000,-5.619522,Hold,0.017334,0.000000,Hold,0.000000,2.000000,Suck,-2355.000000,2400.000000,Speed,-330.000000,2400.000000,Speed,Off,On,0.000000,TRUE,10,,,,
11:43:09.613 AM 03/25/2016,Teleop Enabled,9,FALSE,0,NO ERROR,0.000000,0.064167,-0.000000,-0.019250,TRUE,FALSE,FALSE,TRUE,TRUE,FALSE,Disabled,0.000000,0.000000,0.000000,TRUE,-0.011566,-0.097092,0.000000,0.000000,0.093063,0.000000,0.010000,0.238000,-0.026000,0.150000,-0.120000,2.320000,-5.632917,Hold,0.017334,0.000000,Hold,0.000000,2.000000,Suck,-2355.000000,2400.000000,Speed,-315.000000,2400.000000,Speed,Off,On,0.000000,TRUE,10,,,,
11:43:09.713 AM 03/25/2016,Teleop Enabled,9,FALSE,0,NO ERROR,0.000000,0.064167,-0.000000,-0.019250,TRUE,FALSE,FALSE,TRUE,TRUE,FALSE,Disabled,0.000000,0.000000,0.000000,TRUE,-0.013229,-0.083221,0.000000,-0.043854,0.215286,0.000000,-0.078000,-0.170000,-0.004000,0.150000,-0.150000,2.430000,-5.622510,Hold,0.017334,0.000000,Hold,0.000000,2.000000,Suck,-2355.000000,2400.000000,Speed,-367.500000,2400.000000,Speed,Off,On,0.000000,TRUE,10,,,,
11:43:09.813 AM 03/25/2016,Teleop Enabled,10,FALSE,0,NO ERROR,0.000000,0.064167,-0.000000,-0.019250,TRUE,FALSE,FALSE,TRUE,TRUE,FALSE,Disabled,0.000000,0.000000,0.000000,TRUE,-0.015076,-0.076569,0.000000,-0.042419,0.136673,0.000000,0.041000,-0.101000,-0.080000,0.150000,-0.150000,2.340000,-5.617787,Hold,0.017334,0.000000,Hold,0.000000,2.000000,Suck,-2355.000000,2400.000000,Speed,-397.500000,2400.000000,Speed,Off,On,0.000000,TRUE,10,,,,
11:43:09.913 AM 03/25/2016,Teleop Enabled,9,FALSE,0,NO ERROR,0.000000,0.064167,-0.000000,-0.019250,TRUE,FALSE,FALSE,TRUE,TRUE,FALSE,Disabled,0.000000,0.000000,0.000000,TRUE,-0.016174,-0.069824,0.000000,-0.008774,0.205490,0.000000,-0.117000,-0.037000,0.102000,0.150000,-0.110000,2.370000,-5.628548,Hold,0.017334,0.000000,Hold,0.000000,2.000000,Suck,-2355.000000,2400.000000,Speed,-405.000000,2400.000000,Speed,Off,On,0.000000,TRUE,10,,,,
11:43:10.013 AM 03/25/2016,Teleop Enabled,9,FALSE,0,NO ERROR,0.000000,0.064167,-0.000000,-0.019250,TRUE,FALSE,FALSE,TRUE,TRUE,FALSE,Disabled,0.000000,0.000000,0.000000,TRUE,-0.017746,-0.059479,0.000000,-0.041138,0.164276,0.000000,0.072000,-0.072000,0.077000,0.150000,-0.100000,2.360000,-5.631096,Hold,0.017334,0.000000,Hold,0.000000,2.000000,Suck,-2347.500000,2400.000000,Speed,-412.500000,2400.000000,Speed,Off,On,0.000000,TRUE,10,,,,
11:43:10.113 AM 03/25/2016,Teleop Enabled,10,FALSE,0,NO ERROR,0.000000,0.064167,-0.000000,-0.019250,TRUE,FALSE,FALSE,TRUE,TRUE,FALSE,Disabled,0.000000,0.000000,0.000000,TRUE,-0.017288,-0.053116,0.000000,0.029678,0.108337,0.000000,-0.088000,0.351000,0.016000,0.150000,-0.080000,2.260000,-5.636211,Hold,0.017334,0.000000,Hold,0.000000,2.000000,Suck,-2355.000000,2400.000000,Speed,-435.000000,2400.000000,Speed,Off,On,0.000000,TRUE,10,,,,
11:43:10.214 AM 03/25/2016,Teleop Enabled,9,FALSE,0,NO ERROR,0.000000,0.064167,-0.000000,-0.019250,TRUE,FALSE,FALSE,TRUE,TRUE,FALSE,Disabled,0.000000,0.000000,0.000000,TRUE,-0.017380,-0.043304,0.000000,-0.023865,0.173737,0.000000,-0.002000,-0.203000,-0.072000,0.150000,-0.120000,2.280000,-5.646332,Hold,0.017334,0.000000,Hold,0.000000,2.000000,Suck,-2355.000000,2400.000000,Speed,-435.000000,2400.000000,Speed,Off,On,0.000000,TRUE,10,,,,
11:43:10.314 AM 03/25/2016,Teleop Enabled,9,FALSE,0,NO ERROR,0.000000,0.064167,-0.000000,-0.019250,TRUE,FALSE,FALSE,TRUE,TRUE,FALSE,Disabled,0.000000,0.000000,0.000000,TRUE,-0.017532,-0.038849,0.000000,0.003448,0.076172,0.000000,-0.058000,0.127000,0.056000,0.150000,-0.120000,2.270000,-5.641203,Hold,0.017334,0.000000,Hold,0.000000,2.000000,Suck,-2355.000000,2400.000000,Speed,-420.000000,2400.000000,Speed,Off,On,0.000000,TRUE,10,,,,
11:43:10.414 AM 03/25/2016,Teleop Enabled,9,FALSE,0,NO ERROR,0.000000,0.064167,-0.000000,-0.019250,TRUE,FALSE,FALSE,TRUE,TRUE,FALSE,Disabled,0.000000,0.000000,0.000000,TRUE,-0.018158,-0.033325,0.000000,-0.023529,0.209320,0.000000,-0.039000,-0.075000,0.183000,0.140000,-0.090000,2.360000,-5.641616,Hold,0.017334,0.000000,Hold,0.000000,2.000000,Suck,-2355.000000,2400.000000,Speed,-367.500000,2400.000000,Speed,Off,On,0.000000,TRUE,10,,,,
11:43:10.515 AM 03/25/2016,Teleop Enabled,9,FALSE,0,NO ERROR,0.000000,0.064167,-0.000000,-0.019250,TRUE,FALSE,FALSE,TRUE,TRUE,FALSE,Disabled,0.000000,0.000000,0.000000,TRUE,-0.018829,-0.023041,0.000000,0.003784,0.163055,0.000000,0.074000,-0.135000,-0.041000,0.130000,-0.090000,2.320000,-5.646122,Hold,0.017334,0.000000,Hold,0.000000,2.000000,Suck,-2347.500000,2400.000000,Speed,-307.500000,2400.000000,Speed,Off,On,0.000000,TRUE,10,,,,
11:43:10.615 AM 03/25/2016,Teleop Enabled,10,FALSE,0,NO ERROR,0.000000,0.064167,-0.000000,-0.019250,TRUE,FALSE,FALSE,TRUE,TRUE,FALSE,Disabled,0.000000,0.000000,0.000000,TRUE,-0.017334,-0.015549,0.000000,0.010712,0.125214,0.000000,-0.001000,0.301000,-0.017000,0.140000,-0.050000,2.250000,-5.634263,Hold,0.017334,0.000000,Hold,0.000000,2.000000,Suck,-2347.500000,2400.000000,Speed,-292.500000,2400.000000,Speed,Off,On,0.000000,TRUE,10,,,,
11:43:10.715 AM 03/25/2016,Teleop Enabled,12,FALSE,0,NO ERROR,0.000000,0.064167,-0.000000,-0.019250,TRUE,FALSE,FALSE,TRUE,TRUE,FALSE,Disabled,0.000000,0.000000,0.000000,TRUE,-0.016571,-0.003647,0.000000,0.014755,0.178543,0.000000,0.081000,-0.103000,-0.079000,0.130000,-0.050000,2.270000,-5.637523,Hold,0.017334,0.000000,Hold,0.000000,2.000000,Suck,-2355.000000,2400.000000,Speed,-337.500000,2400.000000,Speed,Off,On,0.000000,TRUE,10,,,,
11:43:10.816 AM 03/25/2016,Teleop Enabled,8,FALSE,0,NO ERROR,0.000000,0.064167,-0.000000,-0.019250,TRUE,FALSE,FALSE,TRUE,TRUE,FALSE,Disabled,0.000000,0.000000,0.000000,TRUE,-0.014542,0.002625,0.000000,0.068680,0.113724,0.000000,0.030000,-0.243000,0.003000,0.130000,0.010000,2.270000,-5.658040,Hold,0.017334,0.000000,Hold,0.000000,2.000000,Suck,-2355.000000,2400.000000,Speed,-330.000000,2400.000000,Speed,Off,On,0.000000,TRUE,10,,,,
11:43:10.917 AM 03/25/2016,Teleop Enabled,10,FALSE,0,NO ERROR,0.000000,0.064167,-0.000000,-0.019250,TRUE,FALSE,FALSE,TRUE,TRUE,FALSE,Disabled,0.000000,0.000000,0.000000,TRUE,-0.012695,0.009277,0.000000,0.020401,0.199326,0.000000,-0.067000,-0.078000,0.052000,0.130000,-0.050000,2.280000,-5.661593,Hold,0.017334,0.000000,Hold,0.000000,2.000000,Suck,-2355.000000,2400.000000,Speed,-345.000000,2400.000000,Speed,Off,On,0.000000,TRUE,10,,,,
11:43:11.017 AM 03/25/2016,Teleop Enabled,9,FALSE,0,NO ERROR,0.000000,0.064167,-0.000000,-0.019250,TRUE,FALSE,FALSE,TRUE,TRUE,FALSE,Disabled,0.000000,0.000000,0.000000,TRUE,-0.012558,0.017914,0.000000,0.007187,0.100159,0.000000,-0.004000,-0.128000,0.005000,0.130000,-0.070000,2.290000,-5.667356,Hold,0.017334,0.000000,Hold,0.000000,2.000000,Suck,-2355.000000,2400.000000,Speed,-262.500000,2400.000000,Speed,Off,On,0.000000,TRUE,10,,,,
11:43:11.117 AM 03/25/2016,Teleop Enabled,10,FALSE,0,NO ERROR,0.000000,0.064167,-0.000000,-0.019250,TRUE,FALSE,FALSE,TRUE,TRUE,FALSE,Disabled,0.000000,0.000000,0.000000,TRUE,-0.012177,0.020844,0.000000,0.000000,0.110489,0.000000,-0.034000,0.349000,0.055000,0.130000,-0.010000,2.250000,-5.678988,Hold,0.017334,0.000000,Hold,0.000000,2.000000,Suck,-2355.000000,2400.000000,Speed,-277.500000,2400.000000,Speed,Off,On,0.000000,TRUE,10,,,,
11:43:11.217 AM 03/25/2016,Teleop Enabled,10,FALSE,0,NO ERROR,0.000000,0.064167,-0.000000,-0.019250,TRUE,FALSE,FALSE,TRUE,TRUE,FALSE,Disabled,0.000000,0.000000,0.000000,TRUE,-0.012054,0.031723,0.000000,0.006607,0.134354,0.000000,0.077000,-0.134000,-0.114000,0.120000,-0.020000,2.260000,-5.687092,Hold,0.017334,0.000000,Hold,0.000000,2.000000,Suck,-2355.000000,2400.000000,Speed,-157.500000,2400.000000,Speed,Off,On,0.000000,TRUE,10,,,,
11:43:11.317 AM 03/25/2016,Teleop Enabled,10,FALSE,0,NO ERROR,0.000000,0.064167,-0.000000,-0.019250,TRUE,FALSE,FALSE,TRUE,TRUE,FALSE,Disabled,0.000000,0.000000,0.000000,TRUE,-0.011841,0.035309,0.000000,0.005463,0.044662,0.000000,-0.054000,0.159000,-0.049000,0.130000,-0.010000,2.270000,-5.690635,Hold,0.017334,0.000000,Hold,0.000000,2.000000,Suck,-2347.500000,2400.000000,Speed,-225.000000,2400.000000,Speed,Off,On,0.000000,TRUE,10,,,,
11:43:11.417 AM 03/25/2016,Teleop Enabled,12,FALSE,0,NO ERROR,0.000000,0.064167,-0.000000,-0.019250,TRUE,FALSE,FALSE,TRUE,TRUE,FALSE,Disabled,0.000000,0.000000,0.000000,TRUE,-0.012482,0.041565,0.000000,-0.015717,0.162140,0.000000,-0.079000,-0.078000,0.115000,0.120000,-0.010000,2.330000,-5.699448,Hold,0.017334,0.000000,Hold,0.000000,2.000000,Suck,-2355.000000,2400.000000,Speed,-225.000000,2400.000000,Speed,Off,On,0.000000,TRUE,10,,,,
11:43:11.517 AM 03/25/2016,Teleop Enabled,10,FALSE,0,NO ERROR,0.000000,0.064167,-0.000000,-0.019250,TRUE,FALSE,FALSE,TRUE,TRUE,FALSE,Disabled,0.000000,0.000000,0.000000,TRUE,-0.013733,0.047348,0.000000,-0.007202,0.088013,0.000000,0.067000,-0.159000,0.017000,0.120000,-0.040000,2.320000,-5.689051,Hold,0.017334,0.000000,Hold,0.000000,2.000000,Suck,-2355.000000,2400.000000,Speed,0.000000,2400.000000,Speed,Off,On,0.000000,TRUE,10,,,,
11:43:11.617 AM 03/25/2016,Teleop Enabled,9,FALSE,0,NO ERROR,0.000000,0.064167,-0.000000,-0.019250,TRUE,FALSE,FALSE,TRUE,TRUE,FALSE,Disabled,0.000000,0.000000,0.000000,TRUE,-0.013519,0.050705,0.000000,-0.009583,0.133865,0.000000,-0.080000,0.347000,-0.012000,0.130000,-0.080000,2.310000,-5.697327,Hold,0.017334,0.000000,Hold,0.000000,2.000000,Suck,-2355.000000,2400.000000,Speed,0.000000,2400.000000,Speed,Off,On,0.000000,TRUE,10,,,,
11:43:11.718 AM 03/25/2016,Teleop Enabled,10,FALSE,0,NO ERROR,0.000000,0.064167,-0.000000,-0.019250,TRUE,FALSE,FALSE,TRUE,TRUE,FALSE,Disabled,0.000000,0.000000,0.000000,TRUE,-0.014618,0.056915,0.000000,-0.041809,0.128159,0.000000,0.030000,-0.023000,0.000000,0.130000,-0.120000,2.280000,-5.715018,Hold,0.017334,0.000000,Hold,0.000000,2.000000,Suck,-2355.000000,2400.000000,Speed,0.000000,2400.000000,Speed,Off,On,0.000000,TRUE,10,,,,
11:43:11.818 AM 03/25/2016,Teleop Enabled,10,FALSE,0,NO ERROR,0.000000,0.064167,-0.000000,-0.019250,TRUE,FALSE,FALSE,TRUE,TRUE,FALSE,Disabled,0.000000,0.000000,0.000000,TRUE,-0.015030,0.060608,0.000000,-0.001541,0.035049,0.000000,-0.043000,0.101000,0.149000,0.130000,-0.130000,2.330000,-5.723335,Hold,0.017334,0.000000,Hold,0.000000,2.000000,Suck,-2355.000000,2400.000000,Speed,0.000000,2400.000000,Speed,Off,On,0.000000,TRUE,10,,,,
11:43:11.919 AM 03/25/2016,Teleop Enabled,10,FALSE,0,NO ERROR,0.000000,0.064167,-0.000000,-0.019250,TRUE,TRUE,FALSE,TRUE,TRUE,FALSE,Disabled,0.000000,0.000000,0.000000,TRUE,-0.015442,0.068039,0.000000,-0.021729,0.187866,0.000000,-0.043000,0.101000,0.149000,0.120000,-0.090000,2.330000,-5.739557,Hold,0.017334,0.000000,Hold,0.000000,2.000000,Suck,-2355.000000,2400.000000,Speed,0.000000,2400.000000,Speed,Off,On,0.000000,TRUE,10,,,,
11:43:12.019 AM 03/25/2016,Teleop Enabled,9,FALSE,0,NO ERROR,0.000000,0.064167,-0.000000,-0.019250,TRUE,TRUE,FALSE,TRUE,TRUE,FALSE,Disabled,0.000000,0.000000,0.000000,TRUE,-0.017303,0.074036,0.000000,-0.024490,0.081329,0.000000,-0.092000,-0.143000,-0.005000,0.130000,-0.190000,2.290000,-5.733756,Hold,0.017334,0.000000,Hold,0.000000,2.000000,Suck,-2347.500000,0.000000,Speed,0.000000,0.000000,Speed,Off,On,0.000000,TRUE,10,,,,
11:43:12.119 AM 03/25/2016,Teleop Enabled,11,FALSE,0,NO ERROR,0.000000,0.064167,-0.000000,-0.019250,TRUE,FALSE,FALSE,TRUE,TRUE,FALSE,Disabled,0.000000,0.000000,0.000000,TRUE,-0.017715,0.075958,0.000000,0.002151,0.071762,0.000000,-0.021000,-0.073000,0.017000,0.130000,-0.160000,2.310000,-5.738686,Hold,0.017334,0.000000,Hold,0.000000,2.000000,Suck,-2332.500000,0.000000,Speed,0.000000,0.000000,Speed,Off,On,0.000000,TRUE,10,,,,
11:43:12.219 AM 03/25/2016,Teleop Enabled,9,FALSE,0,NO ERROR,0.000000,0.064167,-0.000000,-0.019250,TRUE,FALSE,FALSE,TRUE,TRUE,FALSE,Disabled,0.000000,0.000000,0.000000,TRUE,-0.020523,0.088394,0.000000,-0.070877,0.299911,0.000000,-0.113000,0.209000,0.009000,0.130000,-0.170000,2.090000,-5.753991,Hold,0.017334,0.000000,Hold,0.000000,2.000000,Suck,-2265.000000,2400.000000,Speed,0.000000,2400.000000,Speed,Off,On,0.000000,TRUE,10,,,,
11:43:12.320 AM 03/25/2016,Teleop Enabled,11,FALSE,0,NO ERROR,0.000000,0.064167,-0.000000,-0.019250,TRUE,FALSE,FALSE,TRUE,TRUE,FALSE,Disabled,0.000000,0.000000,0.000000,TRUE,-0.024597,0.104584,0.000000,-0.123947,0.476761,0.000000,-0.051000,0.197000,-0.075000,0.130000,-0.170000,2.090000,-5.744208,Hold,0.017334,0.000000,Hold,0.000000,2.000000,Suck,-2197.500000,2400.000000,Speed,0.000000,2400.000000,Speed,Off,On,0.000000,TRUE,10,,,,
11:43:12.419 AM 03/25/2016,Teleop Enabled,9,FALSE,0,NO ERROR,0.000000,0.064167,-0.000000,-0.019250,TRUE,FALSE,FALSE,TRUE,TRUE,FALSE,Disabled,0.000000,0.000000,0.000000,TRUE,-0.031586,0.129105,0.000000,-0.148315,0.444702,0.000000,0.025000,0.100000,-0.069000,0.130000,-0.190000,2.110000,-5.752487,Hold,0.017334,0.000000,Hold,0.000000,2.000000,Suck,-2280.000000,2400.000000,Speed,0.000000,2400.000000,Speed,Off,On,0.000000,TRUE,10,,,,
11:43:12.520 AM 03/25/2016,Teleop Enabled,11,FALSE,0,NO ERROR,0.000000,0.064167,-0.000000,-0.019250,TRUE,FALSE,FALSE,TRUE,TRUE,FALSE,Disabled,0.000000,0.000000,0.000000,TRUE,-0.031586,0.129105,0.000000,-0.148315,0.444702,0.000000,-0.051000,-0.008000,0.070000,0.130000,-0.100000,2.090000,-5.762439,Hold,0.017334,0.000000,Hold,0.000000,2.000000,Suck,-2355.000000,2400.000000,Speed,0.000000,2400.000000,Speed,Off,On,0.000000,TRUE,10,,,,
11:43:12.620 AM 03/25/2016,Teleop Enabled,9,FALSE,0,NO ERROR,0.000000,0.064167,-0.000000,-0.019250,TRUE,FALSE,FALSE,TRUE,TRUE,FALSE,Disabled,0.000000,0.000000,0.000000,TRUE,-0.037354,0.171951,0.000000,-0.021637,0.466370,0.000000,-0.014000,0.239000,-0.037000,0.130000,-0.100000,2.090000,-5.794524,Hold,0.017334,0.000000,Hold,0.000000,2.000000,Suck,-2377.500000,2400.000000,Speed,0.000000,2400.000000,Speed,Off,On,0.000000,TRUE,10,,,,
11:43:12.720 AM 03/25/2016,Teleop Enabled,10,FALSE,0,NO ERROR,0.000000,0.064167,-0.000000,-0.019250,TRUE,TRUE,FALSE,TRUE,TRUE,FALSE,Disabled,0.000000,0.000000,0.000000,TRUE,-0.037537,0.191605,0.000000,0.014648,0.344391,0.000000,0.096000,-0.068000,-0.055000,0.130000,-0.090000,2.110000,-5.819393,Hold,0.017334,0.000000,Hold,0.000000,2.000000,Suck,-2355.000000,2400.000000,Speed,0.000000,2400.000000,Speed,Off,On,0.000000,TRUE,10,,,,
11:43:12.820 AM 03/25/2016,Teleop Enabled,9,FALSE,0,NO ERROR,0.000000,0.064167,-0.000000,-0.019250,TRUE,TRUE,FALSE,TRUE,TRUE,FALSE,Disabled,0.000000,0.000000,0.000000,TRUE,-0.037643,0.210312,0.000000,-0.030548,0.466599,0.000000,-0.020000,-0.052000,0.026000,0.130000,-0.080000,2.130000,-5.828079,Hold,0.017334,0.000000,Hold,0.000000,2.000000,Suck,-2347.500000,0.000000,Speed,0.000000,0.000000,Speed,Off,On,0.000000,TRUE,10,,,,
11:43:12.921 AM 03/25/2016,Teleop Enabled,9,FALSE,0,NO ERROR,0.000000,0.064167,-0.000000,-0.019250,TRUE,FALSE,FALSE,TRUE,TRUE,FALSE,Disabled,0.000000,0.000000,0.000000,TRUE,-0.040359,0.232925,0.000000,-0.065262,0.416748,0.000000,-0.095000,-0.034000,0.114000,0.120000,-0.050000,2.120000,-5.842107,Hold,0.017334,0.000000,Hold,0.000000,2.000000,Suck,-2332.500000,0.000000,Speed,7.500000,0.000000,Speed,Off,On,0.000000,TRUE,10,,,,
11:43:13.022 AM 03/25/2016,Teleop Enabled,11,FALSE,0,NO ERROR,0.000000,0.064167,-0.000000,-0.019250,TRUE,FALSE,FALSE,TRUE,TRUE,FALSE,Disabled,0.000000,0.000000,0.000000,TRUE,-0.042099,0.257401,0.000000,0.029755,0.317413,0.000000,0.027000,-0.129000,-0.033000,0.120000,-0.080000,2.090000,-5.855165,Hold,0.017334,0.000000,Hold,0.000000,2.000000,Suck,-2265.000000,2400.000000,Speed,0.000000,2400.000000,Speed,Off,On,0.000000,TRUE,10,,,,
11:43:13.122 AM 03/25/2016,Teleop Enabled,10,FALSE,0,NO ERROR,0.000000,0.064167,-0.000000,-0.019250,TRUE,FALSE,FALSE,TRUE,TRUE,FALSE,Disabled,0.000000,0.000000,0.000000,TRUE,-0.042099,0.257401,0.000000,0.029755,0.317413,0.000000,0.169000,-0.097000,-0.110000,0.110000,0.040000,2.100000,-5.874684,Hold,0.017334,0.000000,Hold,0.000000,2.000000,Suck,-2145.000000,2400.000000,Speed,-7.500000,2400.000000,Speed,Off,On,0.000000,TRUE,10,,,,
11:43:13.223 AM 03/25/2016,Teleop Enabled,11,FALSE,0,NO ERROR,0.000000,0.064167,-0.000000,-0.019250,TRUE,FALSE,FALSE,TRUE,TRUE,FALSE,Disabled,0.000000,0.000000,0.000000,TRUE,-0.041382,0.268982,0.000000,-0.014465,0.279892,0.000000,0.085000,-0.138000,-0.036000,0.110000,-0.120000,2.170000,-5.878433,Hold,0.017334,0.000000,Hold,0.000000,2.000000,Suck,-2152.500000,2400.000000,Speed,0.000000,2400.000000,Speed,Off,On,0.000000,TRUE,10,,,,
11:43:13.324 AM 03/25/2016,Teleop Enabled,9,FALSE,0,NO ERROR,0.000000,0.064167,-0.000000,-0.019250,TRUE,FALSE,FALSE,TRUE,TRUE,FALSE,Disabled,0.000000,0.000000,0.000000,TRUE,-0.041397,0.280197,0.000000,0.022598,0.195602,0.000000,0.088000,-0.089000,-0.072000,0.110000,-0.240000,2.140000,-5.885483,Hold,0.017334,0.000000,Hold,0.000000,2.000000,Suck,-2340.000000,2400.000000,Speed,0.000000,2400.000000,Speed,Off,On,0.000000,TRUE,10,,,,
11:43:13.424 AM 03/25/2016,Teleop Enabled,10,FALSE,0,NO ERROR,0.000000,0.064167,-0.000000,-0.019250,TRUE,FALSE,FALSE,TRUE,TRUE,FALSE,Disabled,0.000000,0.000000,0.000000,TRUE,-0.038666,0.290894,0.000000,0.054001,0.284058,0.000000,-0.068000,-0.027000,0.190000,0.120000,-0.230000,2.150000,-5.907316,Hold,0.017334,0.000000,Hold,0.000000,2.000000,Suck,-2392.500000,2400.000000,Speed,0.000000,2400.000000,Speed,Off,On,0.000000,TRUE,10,,,,
11:43:13.525 AM 03/25/2016,Teleop Enabled,10,FALSE,0,NO ERROR,0.000000,0.064167,-0.000000,-0.019250,TRUE,TRUE,FALSE,TRUE,TRUE,FALSE,Disabled,0.000000,0.000000,0.000000,TRUE,-0.035583,0.303940,0.000000,0.090652,0.240585,0.000000,0.108000,-0.095000,0.037000,0.110000,-0.250000,2.180000,-5.907316,Hold,0.017334,0.000000,Hold,0.000000,2.000000,Suck,-2370.000000,2400.000000,Speed,0.000000,2400.000000,Speed,Off,On,0.000000,TRUE,10,,,,
11:43:13.626 AM 03/25/2016,Teleop Enabled,10,FALSE,0,NO ERROR,0.000000,0.064167,-0.000000,-0.019250,TRUE,TRUE,FALSE,TRUE,TRUE,FALSE,Disabled,0.000000,0.000000,0.000000,TRUE,-0.030701,0.314667,0.000000,0.078751,0.261307,0.000000,0.060000,-0.060000,-0.007000,0.110000,-0.240000,2.220000,-5.910428,Hold,0.017334,0.000000,Hold,0.000000,2.000000,Suck,-2347.500000,0.000000,Speed,0.000000,0.000000,Speed,Off,On,0.000000,TRUE,10,,,,
11:43:13.726 AM 03/25/2016,Teleop Enabled,10,FALSE,0,NO ERROR,0.000000,0.064167,-0.000000,-0.019250,TRUE,FALSE,FALSE,TRUE,TRUE,FALSE,Disabled,0.000000,0.000000,0.000000,TRUE,-0.027283,0.329117,0.000000,0.056137,0.248032,0.000000,-0.065000,-0.075000,0.023000,0.110000,-0.230000,2.190000,-5.903078,Hold,0.017334,0.000000,Hold,0.000000,2.000000,Suck,-2325.000000,0.000000,Speed,0.000000,0.000000,Speed,Off,On,0.000000,TRUE,10,,,,
11:43:13.826 AM 03/25/2016,Teleop Enabled,9,FALSE,0,NO ERROR,0.000000,0.064167,-0.000000,-0.019250,TRUE,FALSE,FALSE,TRUE,TRUE,FALSE,Disabled,0.000000,0.000000,0.000000,TRUE,-0.024414,0.339310,0.000000,0.069504,0.165451,0.000000,0.000000,-0.056000,-0.108000,0.110000,-0.260000,2.160000,-5.928333,Hold,0.017334,0.000000,Hold,0.000000,2.000000,Suck,-2272.500000,2400.000000,Speed,0.000000,2400.000000,Speed,Off,On,0.000000,TRUE,10,,,,
11:43:13.926 AM 03/25/2016,Teleop Enabled,10,FALSE,0,NO ERROR,0.000000,0.064167,-0.000000,-0.019250,TRUE,FALSE,FALSE,TRUE,TRUE,FALSE,Disabled,0.000000,0.000000,0.000000,TRUE,-0.024216,0.347031,0.000000,0.028946,0.139694,0.000000,0.055000,0.118000,0.061000,0.110000,-0.240000,2.150000,-5.933242,Hold,0.017334,0.000000,Hold,0.000000,2.000000,Suck,-2197.500000,2400.000000,Speed,0.000000,2400.000000,Speed,Off,On,0.000000,TRUE,10,,,,
11:43:14.026 AM 03/25/2016,Teleop Enabled,9,FALSE,0,NO ERROR,0.000000,0.064167,-0.000000,-0.019250,TRUE,FALSE,FALSE,TRUE,TRUE,FALSE,Disabled,0.000000,0.000000,0.000000,TRUE,-0.021225,0.354187,0.000000,0.098251,0.201080,0.000000,0.044000,0.191000,0.026000,0.100000,-0.100000,2.280000,-5.953746,Hold,0.017334,0.000000,Hold,0.000000,2.000000,Suck,-2265.000000,2400.000000,Speed,0.000000,2400.000000,Speed,Off,On,0.000000,TRUE,10,,,,
11:43:14.126 AM 03/25/2016,Teleop Enabled,9,FALSE,0,NO ERROR,0.000000,0.064167,-0.000000,-0.019250,TRUE,FALSE,FALSE,TRUE,TRUE,FALSE,Disabled,0.000000,0.000000,0.000000,TRUE,-0.015244,0.374664,0.000000,0.093811,0.389450,0.000000,-0.032000,-0.102000,0.172000,0.100000,-0.070000,2.280000,-5.970243,Hold,0.017334,0.000000,Hold,0.000000,2.000000,Suck,-2362.500000,2400.000000,Speed,0.000000,2400.000000,Speed,Off,On,0.000000,TRUE,10,,,,
11:43:14.226 AM 03/25/2016,Teleop Enabled,9,FALSE,0,NO ERROR,0.000000,0.064167,-0.000000,-0.019250,TRUE,FALSE,FALSE,TRUE,TRUE,FALSE,Disabled,0.000000,0.000000,0.000000,TRUE,-0.010056,0.390717,0.000000,0.115158,0.270340,0.000000,0.007000,-0.178000,-0.046000,0.100000,-0.110000,2.290000,-5.982398,Hold,0.017334,0.000000,Hold,0.000000,2.000000,Suck,-2377.500000,2400.000000,Speed,0.000000,2400.000000,Speed,Off,On,0.000000,TRUE,10,,,,
11:43:14.326 AM 03/25/2016,Teleop Enabled,10,FALSE,0,NO ERROR,0.000000,0.064167,-0.000000,-0.019250,TRUE,TRUE,FALSE,TRUE,TRUE,FALSE,Disabled,0.000000,0.000000,0.000000,TRUE,-0.009949,0.407242,0.000000,0.000000,0.396942,0.000000,-0.115000,-0.079000,0.119000,0.100000,-0.150000,2.340000,-5.986695,Hold,0.017334,0.000000,Hold,0.000000,2.000000,Suck,-2355.000000,2400.000000,Speed,0.000000,2400.000000,Speed,Off,On,0.000000,TRUE,10,,,,
11:43:14.426 AM 03/25/2016,Teleop Enabled,10,FALSE,0,NO ERROR,0.000000,0.064167,-0.000000,-0.019250,TRUE,TRUE,FALSE,TRUE,TRUE,FALSE,Disabled,0.000000,0.000000,0.000000,TRUE,-0.010986,0.424835,0.000000,-0.000137,0.323135,0.000000,0.028000,-0.177000,-0.021000,0.100000,-0.080000,2.280000,-6.006982,Hold,0.017334,0.000000,Hold,0.000000,2.000000,Suck,-2347.500000,0.000000,Speed,0.000000,0.000000,Speed,Off,On,0.000000,TRUE,10,,,,
11:43:14.526 AM 03/25/2016,Teleop Enabled,10,FALSE,0,NO ERROR,0.000000,0.064167,-0.000000,-0.019250,TRUE,FALSE,FALSE,TRUE,TRUE,FALSE,Disabled,0.000000,0.000000,0.000000,TRUE,-0.009903,0.437973,0.000000,0.008652,0.267273,0.000000,-0.126000,0.305000,-0.076000,0.110000,-0.110000,2.250000,-6.012879,Hold,0.017334,0.000000,Hold,0.000000,2.000000,Suck,-2332.500000,0.000000,Speed,0.000000,0.000000,Speed,Off,On,0.000000,TRUE,10,,,,
11:43:14.627 AM 03/25/2016,Teleop Enabled,10,FALSE,0,NO ERROR,0.000000,0.064167,-0.000000,-0.019250,TRUE,FALSE,FALSE,TRUE,TRUE,FALSE,Disabled,0.000000,0.000000,0.000000,TRUE,-0.010757,0.456253,0.000000,-0.003677,0.369980,0.000000,-0.026000,-0.142000,0.027000,0.100000,-0.140000,2.290000,-6.023836,Hold,0.017334,0.000000,Hold,0.000000,2.000000,Suck,-2265.000000,2400.000000,Speed,0.000000,2400.000000,Speed,Off,On,0.000000,TRUE,10,,,,
