Time,Robot Mode,Loop Time,Error Status,Error Code,Error Source,Left Motor Output,Left Motor Encoder,Right Motor Output,Right Motor Encoder,Is Level,Is Stalled,Ball Detector Photoeye,Vision Enabled,Vision Teleop Control,Vision Auto Control,Vision Current State,Vision X Output,Vision NavX Error,Vision NavX Target,NavX Connection Status,NavX Displacement X,NavX Displacement Y,NavX Displacement Z,NavX Velocity X,NavX Velocity Y,NavX Velocity Z,NavX Acceleration X,NavX Acceleration Y,NavX Acceleration Z,NavX Pitch,NavX Yaw,NavX Roll,Gyro Angle,Roller Arm State,Roller Arm Actual,Roller Arm Desired,Shooter Arm State,Shooter Arm Actual,Shooter Arm Desired,Shooter State,Actual RPM Left,Desired RPM Left,Control Mode Left,Actual RPM Right,Desired RPM Right,Control Mode Right,Ball Shooter Cylinder,Ball Halo Cylinder,Scaler Motor Output,Scaler Solenoid Fire,Auto To Run,Auto Current File,Auto File Status,Auto Current Command,Auto Trimmed Command
07:32:57.285 PM 03/23/2016,Teleop Enabled,10,FALSE,0,NO ERROR,0.000000,0.000000,0.000000,0.000000,TRUE,TRUE,FALSE,FALSE,FALSE,FALSE,Disabled,0.000000,0.000000,0.000000,FALSE,0.000000,0.000000,0.000000,0.000000,0.000000,0.000000,0.000000,0.000000,0.000000,0.000000,0.000000,0.000000,-0.015760,ResetBack,-51.951416,-0.000049,ResetBack,137808.000000,-0.300000,Suck,0.000000,0.000000,Speed,0.000000,0.000000,Speed,Off,On,0.000000,FALSE,0,,,,
07:32:57.385 PM 03/23/2016,Teleop Enabled,11,FALSE,0,NO ERROR,-0.000000,0.000000,0.000000,0.000000,TRUE,FALSE,FALSE,FALSE,FALSE,FALSE,Disabled,0.000000,0.000000,0.000000,FALSE,0.000000,0.000000,0.000000,0.000000,0.000000,0.000000,0.000000,0.000000,0.000000,0.000000,0.000000,0.000000,0.000578,ResetBack,-52.256104,-0.000049,ResetBack,137808.000000,-0.300000,Suck,0.000000,0.000000,Speed,0.000000,0.000000,Speed,Off,On,0.000000,FALSE,0,,,,
07:32:57.486 PM 03/23/2016,Teleop Enabled,9,FALSE,0,NO ERROR,-0.000000,0.000000,0.000000,-0.025667,TRUE,FALSE,FALSE,FALSE,FALSE,FALSE,Disabled,0.000000,0.000000,0.000000,FALSE,0.000000,0.000000,0.000000,0.000000,0.000000,0.000000,0.000000,0.000000,0.000000,0.000000,0.000000,0.000000,0.009374,ResetBack,-54.331543,-0.000049,ResetBack,143627.000000,-0.300000,Suck,0.000000,2181.818182,Speed,0.000000,2181.818182,Speed,Off,On,0.000000,FALSE,0,,,,
07:32:57.586 PM 03/23/2016,Teleop Enabled,10,FALSE,0,NO ERROR,-0.000000,0.000000,0.000000,-0.070583,TRUE,FALSE,FALSE,FALSE,FALSE,FALSE,Disabled,0.000000,0.000000,0.000000,FALSE,0.000000,0.000000,0.000000,0.000000,0.000000,0.000000,0.000000,0.000000,0.000000,0.000000,0.000000,0.000000,0.020600,ResetBack,-54.509033,-0.000049,ResetBack,151070.000000,-0.300000,Suck,-60.000000,2181.818182,Speed,-142.500000,2181.818182,Speed,Off,On,0.000000,FALSE,0,,,,
07:32:57.687 PM 03/23/2016,Teleop Enabled,9,FALSE,0,NO ERROR,-0.000000,0.000000,0.000000,-0.077000,TRUE,FALSE,FALSE,FALSE,FALSE,FALSE,Disabled,0.000000,0.000000,0.000000,FALSE,0.000000,0.000000,0.000000,0.000000,0.000000,0.000000,0.000000,0.000000,0.000000,0.000000,0.000000,0.000000,0.023654,Reset,-54.511475,0.000000,ResetBack,151926.000000,-0.300000,Suck,-645.000000,2181.818182,Speed,-757.500000,2181.818182,Speed,Off,On,0.000000,FALSE,0,,,,
07:32:57.786 PM 03/23/2016,Teleop Enabled,11,FALSE,0,NO ERROR,-0.000000,0.000000,0.000000,-0.077000,TRUE,FALSE,FALSE,FALSE,FALSE,FALSE,Disabled,0.000000,0.000000,0.000000,FALSE,0.000000,0.000000,0.000000,0.000000,0.000000,0.000000,0.000000,0.000000,0.000000,0.000000,0.000000,0.000000,0.035575,Hold,0.165527,0.000000,ResetBack,152589.000000,-0.300000,Suck,-1215.000000,2181.818182,Speed,-1545.000000,2181.818182,Speed,Off,On,0.000000,FALSE,0,,,,
07:32:57.888 PM 03/23/2016,Teleop Enabled,7,FALSE,0,NO ERROR,-0.000000,0.000000,0.000000,-0.083416,TRUE,FALSE,FALSE,FALSE,FALSE,FALSE,Disabled,0.000000,0.000000,0.000000,FALSE,0.000000,0.000000,0.000000,0.000000,0.000000,0.000000,0.000000,0.000000,0.000000,0.000000,0.000000,0.000000,0.021492,Hold,0.165527,0.000000,ResetBack,152589.000000,-0.300000,Suck,-1710.000000,2181.818182,Speed,-2145.000000,2181.818182,Speed,Off,On,0.000000,FALSE,0,,,,
07:32:57.988 PM 03/23/2016,Teleop Enabled,9,FALSE,0,NO ERROR,-0.000000,0.000000,0.000000,-0.083416,TRUE,FALSE,FALSE,FALSE,FALSE,FALSE,Disabled,0.000000,0.000000,0.000000,FALSE,0.000000,0.000000,0.000000,0.000000,0.000000,0.000000,0.000000,0.000000,0.000000,0.000000,0.000000,0.000000,0.020108,Hold,0.165527,0.000000,ResetBack,152622.000000,-0.300000,Suck,-2122.500000,2181.818182,Speed,-2310.000000,2181.818182,Speed,Off,On,0.000000,FALSE,0,,,,
07:32:58.088 PM 03/23/2016,Teleop Enabled,9,FALSE,0,NO ERROR,-0.000000,0.000000,0.000000,-0.089833,TRUE,FALSE,FALSE,FALSE,FALSE,FALSE,Disabled,0.000000,0.000000,0.000000,FALSE,0.000000,0.000000,0.000000,0.000000,0.000000,0.000000,0.000000,0.000000,0.000000,0.000000,0.000000,0.000000,0.025048,Hold,0.165527,0.000000,ResetBack,154134.000000,-0.300000,Suck,-2205.000000,2181.818182,Speed,-2190.000000,2181.818182,Speed,Off,On,0.000000,FALSE,0,,,,
07:32:58.189 PM 03/23/2016,Teleop Enabled,6,FALSE,0,NO ERROR,-0.716535,0.000000,0.716535,-0.089833,TRUE,FALSE,FALSE,FALSE,FALSE,FALSE,Disabled,0.000000,0.000000,0.000000,FALSE,0.000000,0.000000,0.000000,0.000000,0.000000,0.000000,0.000000,0.000000,0.000000,0.000000,0.000000,0.000000,0.030298,Hold,0.165527,0.000000,ResetBack,154257.000000,-0.300000,Suck,-2062.500000,2181.818182,Speed,-2122.500000,2181.818182,Speed,Off,On,0.000000,FALSE,0,,,,
07:32:58.291 PM 03/23/2016,Teleop Enabled,11,FALSE,0,NO ERROR,-0.448819,-0.904748,0.448819,-0.795665,TRUE,FALSE,FALSE,FALSE,FALSE,FALSE,Disabled,0.000000,0.000000,0.000000,FALSE,0.000000,0.000000,0.000000,0.000000,0.000000,0.000000,-0.068000,0.398000,-0.303000,1.300000,0.500000,1.990000,1.424637,Hold,0.167969,0.000000,ResetBack,154252.000000,-0.300000,Suck,-1995.000000,2181.818182,Speed,-2130.000000,2181.818182,Speed,Off,On,0.000000,FALSE,0,,,,
07:32:58.391 PM 03/23/2016,Teleop Enabled,11,FALSE,0,NO ERROR,-0.000000,-2.945243,0.000000,-2.816910,FALSE,FALSE,FALSE,FALSE,FALSE,FALSE,Disabled,0.000000,0.000000,0.000000,TRUE,0.031021,0.037857,0.000000,0.356857,0.149612,0.000000,-0.129000,-0.596000,-0.091000,7.380000,0.440000,3.050000,9.740963,Hold,0.172363,0.000000,ResetBack,154232.000000,-0.300000,Suck,-1965.000000,2181.818182,Speed,-2070.000000,2181.818182,Speed,Off,On,0.000000,FALSE,0,,,,
07:32:58.491 PM 03/23/2016,Teleop Enabled,8,FALSE,0,NO ERROR,-0.000000,-3.894908,0.000000,-4.183657,TRUE,FALSE,FALSE,FALSE,FALSE,FALSE,Disabled,0.000000,0.000000,0.000000,TRUE,0.047058,0.033661,0.000000,0.178711,-0.138382,0.000000,-0.107000,0.135000,0.115000,16.340000,-0.200000,1.820000,17.130148,Hold,0.172363,0.000000,ResetBack,154232.000000,-0.300000,Suck,-2010.000000,2181.818182,Speed,-2070.000000,2181.818182,Speed,Off,On,0.000000,FALSE,0,,,,
07:32:58.592 PM 03/23/2016,Teleop Enabled,10,FALSE,0,NO ERROR,-0.000000,-4.048907,0.000000,-4.363323,TRUE,FALSE,FALSE,FALSE,FALSE,FALSE,Disabled,0.000000,0.000000,0.000000,TRUE,0.051361,0.028610,0.000000,0.068466,-0.170532,0.000000,-0.007000,-0.268000,0.208000,17.070000,-0.610000,1.360000,17.930598,Hold,0.172363,0.000000,Reset,154250.000000,2.000000,Suck,-2077.500000,2181.818182,Speed,-2160.000000,2181.818182,Speed,Off,On,0.000000,FALSE,0,,,,
07:32:58.692 PM 03/23/2016,Teleop Enabled,10,FALSE,0,NO ERROR,0.811024,-3.997574,-0.811024,-4.286323,TRUE,FALSE,FALSE,FALSE,FALSE,FALSE,Disabled,0.000000,0.000000,0.000000,TRUE,0.054993,0.011765,0.000000,0.098007,-0.297272,0.000000,0.008000,0.010000,0.096000,16.080000,-0.430000,1.460000,16.916379,Hold,0.172363,0.000000,Hold,-260.000000,2.000000,Suck,-2085.000000,2181.818182,Speed,-2167.500000,2181.818182,Speed,Off,On,0.000000,FALSE,0,,,,
07:32:58.794 PM 03/23/2016,Teleop Enabled,10,FALSE,0,NO ERROR,0.472441,-3.054326,-0.472441,-3.240409,TRUE,FALSE,FALSE,FALSE,FALSE,FALSE,Disabled,0.000000,0.000000,0.000000,TRUE,0.059555,-0.006668,0.000000,0.029312,-0.446793,0.000000,0.076000,-0.229000,0.129000,14.740000,-0.600000,1.220000,15.459114,Hold,0.172363,0.000000,Hold,-239.000000,2.000000,Suck,-2055.000000,2181.818182,Speed,-2130.000000,2181.818182,Speed,Off,On,0.000000,FALSE,0,,,,
07:32:58.895 PM 03/23/2016,Teleop Enabled,11,FALSE,0,NO ERROR,-0.000000,-1.270497,0.000000,-1.174247,TRUE,FALSE,FALSE,FALSE,FALSE,FALSE,Disabled,0.000000,0.000000,0.000000,TRUE,0.059021,-0.036545,0.000000,-0.014038,-0.684647,0.000000,0.119000,0.160000,-0.015000,7.240000,-1.020000,0.670000,7.628182,Hold,0.172363,0.000000,Hold,-242.000000,2.000000,Suck,-1980.000000,2181.818182,Speed,-2047.500000,2181.818182,Speed,Off,On,0.000000,FALSE,0,,,,
07:32:58.996 PM 03/23/2016,Teleop Enabled,9,FALSE,0,NO ERROR,-0.000000,-0.519749,0.000000,-0.019250,TRUE,FALSE,FALSE,FALSE,FALSE,FALSE,Disabled,0.000000,0.000000,0.000000,TRUE,0.063721,-0.065750,0.000000,0.158585,-0.477875,0.000000,0.061000,0.320000,-0.112000,0.580000,-0.340000,1.370000,0.735651,Hold,0.172363,0.000000,Hold,-242.000000,2.000000,Suck,-2002.500000,2181.818182,Speed,-2062.500000,2181.818182,Speed,Off,On,0.000000,FALSE,0,,,,
07:32:59.096 PM 03/23/2016,Teleop Enabled,11,FALSE,0,NO ERROR,0.298791,-0.545415,0.457115,0.186083,TRUE,FALSE,FALSE,FALSE,FALSE,FALSE,Disabled,0.000000,0.000000,0.000000,TRUE,0.072281,-0.081482,0.000000,0.000000,-0.233932,0.000000,-0.051000,0.122000,-0.137000,-0.240000,0.180000,1.820000,-0.073375,Hold,0.172607,0.000000,Hold,-241.000000,2.000000,Suck,-2092.500000,2181.818182,Speed,-2175.000000,2181.818182,Speed,Off,On,0.000000,FALSE,0,,,,
07:32:59.197 PM 03/23/2016,Teleop Enabled,11,FALSE,0,NO ERROR,0.278108,-0.397832,0.603782,-0.314416,TRUE,FALSE,FALSE,FALSE,FALSE,FALSE,Disabled,0.000000,0.000000,0.000000,TRUE,0.069214,-0.088760,0.000000,-0.177063,-0.067062,0.000000,-0.231000,0.175000,-0.020000,0.790000,-1.200000,2.090000,0.827384,Hold,0.172607,0.000000,Hold,-241.000000,2.000000,Suck,-2107.500000,2181.818182,Speed,-2197.500000,2181.818182,Speed,Off,On,0.000000,FALSE,0,,,,
07:32:59.297 PM 03/23/2016,Teleop Enabled,10,FALSE,0,NO ERROR,0.278108,0.417082,0.603782,-1.957079,TRUE,FALSE,FALSE,FALSE,FALSE,FALSE,Disabled,0.000000,0.000000,0.000000,TRUE,0.052719,-0.085953,0.000000,-0.424271,0.138657,0.000000,-0.184000,0.143000,0.115000,1.870000,-2.070000,2.130000,2.107889,Hold,0.172607,0.000000,Hold,-241.000000,2.000000,Suck,-2047.500000,2181.818182,Speed,-2137.500000,2181.818182,Speed,Off,On,0.000000,FALSE,0,,,,
07:32:59.397 PM 03/23/2016,Teleop Enabled,11,FALSE,0,NO ERROR,0.319425,2.123912,0.562465,-4.767572,FALSE,FALSE,FALSE,FALSE,FALSE,FALSE,Disabled,0.000000,0.000000,0.000000,TRUE,0.026001,-0.075592,0.000000,-0.607437,0.234314,0.000000,-0.003000,0.099000,-0.017000,4.420000,-3.560000,2.190000,4.341572,Hold,0.172607,0.000000,Hold,-241.000000,2.000000,Suck,-1995.000000,2181.818182,Speed,-2092.500000,2181.818182,Speed,Off,On,0.000000,FALSE,0,,,,
07:32:59.498 PM 03/23/2016,Teleop Enabled,9,FALSE,0,NO ERROR,0.440945,4.722656,0.440945,-7.680732,FALSE,FALSE,FALSE,FALSE,FALSE,FALSE,Disabled,0.000000,0.000000,0.000000,TRUE,-0.005814,-0.061584,0.000000,-0.664719,0.286545,0.000000,0.001000,-0.161000,0.286000,4.990000,-4.950000,2.480000,5.253488,Hold,0.172607,0.000000,Hold,-241.000000,2.000000,Suck,-2010.000000,2181.818182,Speed,-2092.500000,2181.818182,Speed,Off,On,0.000000,FALSE,0,,,,
07:32:59.598 PM 03/23/2016,Teleop Enabled,9,FALSE,0,NO ERROR,0.440945,7.732065,0.440945,-10.760725,FALSE,FALSE,FALSE,FALSE,FALSE,FALSE,Disabled,0.000000,0.000000,0.000000,TRUE,-0.038544,-0.050156,0.000000,-0.633682,0.206482,0.000000,0.124000,-0.104000,0.225000,5.310000,-6.420000,3.090000,5.524369,Hold,0.172607,0.000000,Hold,-241.000000,2.000000,Suck,-2032.500000,2181.818182,Speed,-2107.500000,2181.818182,Speed,Off,On,0.000000,FALSE,0,,,,
07:32:59.700 PM 03/23/2016,Teleop Enabled,11,FALSE,0,NO ERROR,0.343729,10.754308,0.538161,-13.821468,FALSE,FALSE,FALSE,FALSE,FALSE,FALSE,Disabled,0.000000,0.000000,0.000000,TRUE,-0.073441,-0.040421,0.000000,-0.544037,0.129547,0.000000,0.084000,-0.131000,0.100000,5.470000,-6.980000,3.890000,5.582142,Hold,0.172607,0.000000,Hold,-241.000000,2.000000,Suck,-2040.000000,2181.818182,Speed,-2107.500000,2181.818182,Speed,Off,On,0.000000,FALSE,0,,,,
07:32:59.801 PM 03/23/2016,Teleop Enabled,7,FALSE,0,NO ERROR,0.268386,13.898467,0.613504,-17.273626,FALSE,FALSE,FALSE,FALSE,FALSE,FALSE,Disabled,0.000000,0.000000,0.000000,TRUE,-0.094864,-0.034775,0.000000,0.000000,0.166290,0.000000,0.006000,0.187000,-0.335000,5.890000,-8.870000,4.010000,6.106843,Hold,0.172607,0.000000,Hold,-241.000000,2.000000,Suck,-2032.500000,2181.818182,Speed,-2115.000000,2181.818182,Speed,Off,On,0.000000,FALSE,0,,,,
07:32:59.902 PM 03/23/2016,Teleop Enabled,9,FALSE,0,NO ERROR,0.287557,17.247960,0.657325,-21.001701,FALSE,FALSE,FALSE,FALSE,FALSE,FALSE,Disabled,0.000000,0.000000,0.000000,TRUE,-0.099319,-0.021042,0.000000,-0.113892,0.345596,0.000000,0.071000,-0.177000,-0.056000,6.350000,-10.910000,2.760000,6.625740,Hold,0.172607,0.000000,Hold,-241.000000,2.000000,Suck,-2032.500000,2181.818182,Speed,-2137.500000,2181.818182,Speed,Off,On,0.000000,FALSE,0,,,,
07:33:00.003 PM 03/23/2016,Teleop Enabled,9,FALSE,0,NO ERROR,0.383905,20.629535,0.560977,-25.557524,FALSE,FALSE,FALSE,FALSE,FALSE,FALSE,Disabled,0.000000,0.000000,0.000000,TRUE,-0.102463,-0.008881,0.000000,-0.085648,0.338333,0.000000,0.094000,0.120000,-0.223000,7.700000,-11.660000,3.610000,8.028524,Hold,0.174561,0.000000,Hold,-241.000000,2.000000,Suck,-2032.500000,2181.818182,Speed,-2107.500000,2181.818182,Speed,Off,On,0.000000,FALSE,0,,,,
07:33:00.104 PM 03/23/2016,Teleop Enabled,8,FALSE,0,NO ERROR,0.274537,23.715945,0.670345,-29.612847,FALSE,FALSE,FALSE,FALSE,FALSE,FALSE,Disabled,0.000000,0.000000,0.000000,TRUE,-0.102829,0.015564,0.000000,0.083801,0.469482,0.000000,0.027000,0.065000,0.000000,9.760000,-9.540000,3.930000,10.198310,Hold,0.193359,0.000000,Hold,-241.000000,2.000000,Suck,-2025.000000,2181.818182,Speed,-2115.000000,2181.818182,Speed,Off,On,0.000000,FALSE,0,,,,
07:33:00.205 PM 03/23/2016,Teleop Enabled,9,FALSE,0,NO ERROR,0.258913,26.629104,0.685969,-34.078837,FALSE,FALSE,FALSE,FALSE,FALSE,FALSE,Disabled,0.000000,0.000000,0.000000,TRUE,-0.098022,0.039520,0.000000,0.077286,0.482712,0.000000,-0.050000,0.216000,0.121000,12.740000,-7.620000,2.120000,12.894026,Hold,0.193359,0.000000,Hold,-241.000000,2.000000,Suck,-2025.000000,2181.818182,Speed,-2137.500000,2181.818182,Speed,Off,On,0.000000,FALSE,0,,,,
07:33:00.306 PM 03/23/2016,Teleop Enabled,9,FALSE,0,NO ERROR,0.253705,29.837430,0.691177,-39.956490,FALSE,FALSE,FALSE,FALSE,FALSE,FALSE,Disabled,0.000000,0.000000,0.000000,TRUE,-0.096176,0.067017,0.000000,0.011581,0.491348,0.000000,0.190000,-0.129000,0.484000,16.260000,-8.450000,2.910000,17.276223,Hold,0.193359,0.000000,Hold,-241.000000,2.000000,Suck,-2032.500000,2181.818182,Speed,-2115.000000,2181.818182,Speed,Off,On,0.000000,FALSE,0,,,,
07:33:00.408 PM 03/23/2016,Teleop Enabled,10,FALSE,0,NO ERROR,0.472441,32.968756,0.472441,-46.533558,FALSE,FALSE,FALSE,FALSE,FALSE,FALSE,Disabled,0.000000,0.000000,0.000000,TRUE,-0.092300,0.090790,0.000000,0.000000,0.513382,0.000000,-0.008000,0.014000,-0.693000,20.870000,-5.350000,2.340000,22.124622,Hold,0.193359,0.000000,Hold,-241.000000,2.000000,Suck,-2040.000000,2181.818182,Speed,-2107.500000,2181.818182,Speed,Off,On,0.000000,FALSE,0,,,,
07:33:00.508 PM 03/23/2016,Teleop Enabled,11,FALSE,0,NO ERROR,0.472441,37.030497,0.472441,-53.052876,FALSE,FALSE,FALSE,FALSE,FALSE,FALSE,Disabled,0.000000,0.000000,0.000000,TRUE,-0.098740,0.089157,0.000000,-0.269730,-0.107010,0.000000,0.164000,0.345000,-0.524000,25.620000,-3.840000,1.830000,26.405977,Hold,0.269531,0.000000,Hold,-241.000000,2.000000,Suck,-2047.500000,2181.818182,Speed,-2122.500000,2181.818182,Speed,Off,On,0.000000,FALSE,0,,,,
07:33:00.609 PM 03/23/2016,Teleop Enabled,11,FALSE,0,NO ERROR,0.472441,42.632234,0.472441,-59.001112,FALSE,FALSE,FALSE,FALSE,FALSE,FALSE,Disabled,0.000000,0.000000,0.000000,TRUE,-0.113724,0.093155,0.000000,-0.207870,0.176956,0.000000,-0.042000,0.113000,-0.183000,26.980000,-6.130000,2.550000,28.166456,Hold,0.308838,0.000000,Hold,-241.000000,2.000000,Suck,-2062.500000,2181.818182,Speed,-2137.500000,2181.818182,Speed,Off,On,0.000000,FALSE,0,,,,
07:33:00.710 PM 03/23/2016,Teleop Enabled,11,FALSE,0,NO ERROR,0.472441,47.893888,0.472441,-64.243516,TRUE,FALSE,FALSE,FALSE,FALSE,FALSE,Disabled,0.000000,0.000000,0.000000,TRUE,-0.123474,0.101715,0.000000,-0.253906,0.224808,0.000000,-0.005000,0.192000,0.047000,26.560000,-0.080000,1.920000,27.758272,Hold,0.309082,0.000000,Hold,-241.000000,2.000000,Suck,-2062.500000,2181.818182,Speed,-2130.000000,2181.818182,Speed,Off,On,0.000000,FALSE,0,,,,
07:33:00.812 PM 03/23/2016,Teleop Enabled,11,FALSE,0,NO ERROR,0.352657,53.854957,0.592225,-70.589585,FALSE,FALSE,FALSE,FALSE,FALSE,FALSE,Disabled,0.000000,0.000000,0.000000,TRUE,-0.139069,0.105515,0.000000,-0.321594,-0.082169,0.000000,-0.275000,-0.261000,0.278000,27.820000,5.280000,4.870000,28.896334,Hold,0.309326,0.000000,Hold,-241.000000,2.000000,Suck,-2055.000000,2181.818182,Speed,-2107.500000,2181.818182,Speed,Off,On,0.000000,FALSE,0,,,,
07:33:00.913 PM 03/23/2016,Teleop Enabled,10,FALSE,0,NO ERROR,0.269329,60.444859,0.675553,-78.988982,FALSE,FALSE,FALSE,FALSE,FALSE,FALSE,Disabled,0.000000,0.000000,0.000000,TRUE,-0.153320,0.108566,0.000000,-0.283829,0.257782,0.000000,-0.261000,-0.407000,-0.163000,30.720000,2.080000,3.500000,31.539189,Hold,0.309326,0.000000,Hold,-241.000000,2.000000,Suck,-2047.500000,2181.818182,Speed,-2122.500000,2181.818182,Speed,Off,On,0.000000,FALSE,0,,,,
07:33:01.013 PM 03/23/2016,Teleop Enabled,11,FALSE,0,NO ERROR,0.258913,67.875341,0.685969,-87.747711,FALSE,FALSE,FALSE,FALSE,FALSE,FALSE,Disabled,0.000000,0.000000,0.000000,TRUE,-0.175537,0.112946,0.000000,-0.406845,0.006485,0.000000,-0.008000,0.080000,-0.878000,31.960000,-2.020000,3.140000,33.355892,Hold,0.334473,0.000000,Hold,-241.000000,2.000000,Suck,-2062.500000,2181.818182,Speed,-2130.000000,2181.818182,Speed,Off,On,0.000000,FALSE,0,,,,
07:33:01.112 PM 03/23/2016,Teleop Enabled,10,FALSE,0,NO ERROR,0.258913,75.248074,0.685969,-95.845526,FALSE,FALSE,FALSE,FALSE,FALSE,FALSE,Disabled,0.000000,0.000000,0.000000,TRUE,-0.189087,0.115601,0.000000,-0.117264,0.135849,0.000000,0.348000,0.515000,0.930000,32.510000,-4.280000,2.690000,34.028282,Hold,0.366211,0.000000,Hold,-240.000000,2.000000,Suck,-2055.000000,2181.818182,Speed,-2122.500000,2181.818182,Speed,Off,On,0.000000,FALSE,0,,,,
07:33:01.213 PM 03/23/2016,Teleop Enabled,14,FALSE,0,NO ERROR,0.264121,82.466807,0.680761,-104.148673,FALSE,FALSE,FALSE,FALSE,FALSE,FALSE,Disabled,0.000000,0.000000,0.000000,TRUE,-0.192551,0.118774,0.000000,-0.055054,-0.020447,0.000000,0.369000,0.075000,0.247000,33.700000,-3.970000,2.220000,35.490671,Hold,0.366211,0.000000,Hold,-241.000000,2.000000,Suck,-2055.000000,2181.818182,Speed,-2115.000000,2181.818182,Speed,Off,On,0.000000,FALSE,0,,,,
07:33:01.313 PM 03/23/2016,Teleop Enabled,12,FALSE,0,NO ERROR,0.235476,89.088792,0.709405,-112.657153,FALSE,FALSE,FALSE,FALSE,FALSE,FALSE,Disabled,0.000000,0.000000,0.000000,TRUE,-0.188354,0.120255,0.000000,0.148560,0.079865,0.000000,0.187000,0.095000,-0.329000,37.680000,-3.320000,2.740000,38.994647,Hold,0.366211,0.000000,Hold,-241.000000,2.000000,Suck,-2055.000000,2181.818182,Speed,-2130.000000,2181.818182,Speed,Off,On,0.000000,FALSE,0,,,,
07:33:01.415 PM 03/23/2016,Teleop Enabled,11,FALSE,0,NO ERROR,0.230268,95.588860,0.714613,-121.903548,FALSE,FALSE,FALSE,FALSE,FALSE,FALSE,Disabled,0.000000,0.000000,0.000000,TRUE,-0.178955,0.126770,0.000000,0.207504,0.193207,0.000000,0.275000,0.181000,-0.246000,41.580000,-3.490000,2.920000,44.119463,Hold,0.366211,0.000000,Hold,-241.000000,2.000000,Suck,-2062.500000,2181.818182,Speed,-2160.000000,2181.818182,Speed,Off,On,0.000000,FALSE,0,,,,
07:33:01.516 PM 03/23/2016,Teleop Enabled,11,FALSE,0,NO ERROR,0.214644,101.703929,0.730237,-131.124277,FALSE,FALSE,FALSE,FALSE,FALSE,FALSE,Disabled,0.000000,0.000000,0.000000,TRUE,-0.160858,0.140854,0.000000,0.464676,0.341522,0.000000,0.213000,0.211000,0.167000,47.380000,-3.170000,3.100000,50.291908,Hold,0.366211,0.000000,Hold,-241.000000,2.000000,Suck,-2070.000000,2181.818182,Speed,-2152.500000,2181.818182,Speed,Off,On,0.000000,FALSE,0,,,,
07:33:01.616 PM 03/23/2016,Teleop Enabled,11,FALSE,0,NO ERROR,0.214644,107.761248,0.730237,-140.640171,FALSE,FALSE,FALSE,FALSE,FALSE,FALSE,Disabled,0.000000,0.000000,0.000000,TRUE,-0.129257,0.164352,0.000000,0.790985,0.543060,0.000000,0.416000,0.035000,-0.096000,54.910000,-3.370000,3.670000,56.979435,Hold,0.366211,0.000000,Hold,-241.000000,2.000000,Suck,-2062.500000,2181.818182,Speed,-2145.000000,2181.818182,Speed,Off,On,0.000000,FALSE,0,,,,
07:33:01.717 PM 03/23/2016,Teleop Enabled,11,FALSE,0,NO ERROR,0.153829,113.638901,0.523337,-150.335732,FALSE,FALSE,FALSE,FALSE,FALSE,FALSE,Disabled,0.000000,0.000000,0.000000,TRUE,-0.080002,0.193756,0.000000,1.067337,0.597275,0.000000,0.121000,-0.032000,-0.082000,61.780000,-2.760000,3.810000,64.162085,Hold,0.366211,0.000000,Hold,-241.000000,2.000000,Suck,-2055.000000,2181.818182,Speed,-2145.000000,2181.818182,Speed,Off,On,0.000000,FALSE,0,,,,
07:33:01.818 PM 03/23/2016,Teleop Enabled,10,FALSE,0,NO ERROR,-0.716535,118.220390,0.716535,-159.659127,FALSE,FALSE,FALSE,FALSE,FALSE,FALSE,Disabled,0.000000,0.000000,0.000000,TRUE,-0.020676,0.224518,0.000000,1.310165,0.624832,0.000000,0.782000,-0.882000,-0.183000,68.530000,-2.010000,4.320000,71.339364,Hold,0.366211,0.000000,Hold,-241.000000,2.000000,Suck,-2055.000000,2181.818182,Speed,-2145.000000,2181.818182,Speed,Off,On,0.000000,FALSE,0,,,,
07:33:01.921 PM 03/23/2016,Teleop Enabled,10,FALSE,0,NO ERROR,-0.748031,119.612804,0.748031,-168.546189,FALSE,FALSE,FALSE,FALSE,FALSE,FALSE,Disabled,0.000000,0.000000,0.000000,TRUE,0.071121,0.227936,0.000000,1.501694,-0.330566,0.000000,0.012000,-0.579000,0.021000,80.890000,3.040000,3.060000,86.512862,Hold,0.366211,0.000000,Hold,-241.000000,2.000000,Suck,-2017.500000,2181.818182,Speed,-2085.000000,2181.818182,Speed,Off,On,0.000000,FALSE,0,,,,
07:33:02.021 PM 03/23/2016,Teleop Enabled,11,FALSE,0,NO ERROR,-0.937008,118.457806,0.937008,-176.483587,FALSE,FALSE,FALSE,FALSE,FALSE,FALSE,Disabled,0.000000,0.000000,0.000000,TRUE,0.148987,0.198334,0.000000,1.735657,-0.703415,0.000000,0.891000,-0.660000,0.068000,97.860000,1.240000,4.970000,104.647917,Hold,0.366211,0.000000,Hold,-241.000000,2.000000,Suck,-1957.500000,2181.818182,Speed,-2085.000000,2181.818182,Speed,Off,On,0.000000,FALSE,0,,,,
07:33:02.124 PM 03/23/2016,Teleop Enabled,10,FALSE,0,NO ERROR,-0.937008,113.593984,0.937008,-183.099155,FALSE,FALSE,FALSE,FALSE,FALSE,FALSE,Disabled,0.000000,0.000000,0.000000,TRUE,0.255508,0.151566,0.000000,2.167191,-1.050888,0.000000,-0.621000,0.548000,0.846000,118.210000,2.010000,6.730000,122.008270,Hold,0.366455,0.000000,Hold,-241.000000,2.000000,Suck,-1957.500000,2181.818182,Speed,-2040.000000,2181.818182,Speed,Off,On,0.000000,FALSE,0,,,,
07:33:02.224 PM 03/23/2016,Teleop Enabled,10,FALSE,0,NO ERROR,-0.937008,110.918241,0.937008,-190.048389,FALSE,FALSE,FALSE,FALSE,FALSE,FALSE,Disabled,0.000000,0.000000,0.000000,TRUE,0.347595,0.103378,0.000000,1.735596,-0.985977,0.000000,-0.243000,-0.940000,0.019000,132.140000,-1.290000,6.640000,140.571958,Hold,0.366455,0.000000,Hold,-257.000000,2.000000,Suck,-1920.000000,2181.818182,Speed,-2017.500000,2181.818182,Speed,Off,On,0.000000,FALSE,0,,,,
07:33:02.325 PM 03/23/2016,Teleop Enabled,9,FALSE,0,NO ERROR,-0.937008,107.440415,0.937008,-196.227624,FALSE,FALSE,FALSE,FALSE,FALSE,FALSE,Disabled,0.000000,0.000000,0.000000,TRUE,0.430344,0.043213,0.000000,1.524780,-1.137100,0.000000,-0.344000,0.805000,0.462000,150.050000,-0.270000,5.650000,159.559260,Hold,0.366455,0.000000,Hold,-257.000000,2.000000,Suck,-1912.500000,2181.818182,Speed,-2017.500000,2181.818182,Speed,Off,On,0.000000,FALSE,0,,,,
07:33:02.427 PM 03/23/2016,Teleop Enabled,9,FALSE,0,NO ERROR,-0.858268,103.603258,0.858268,-202.535193,FALSE,FALSE,FALSE,FALSE,FALSE,FALSE,Disabled,0.000000,0.000000,0.000000,TRUE,0.502182,-0.012207,0.000000,1.320786,-1.276550,0.000000,-0.058000,-0.586000,-0.123000,172.350000,-2.120000,5.430000,179.134754,Hold,0.368408,0.000000,Hold,-258.000000,2.000000,Suck,-1905.000000,2181.818182,Speed,-2025.000000,2181.818182,Speed,Off,On,0.000000,FALSE,0,,,,
07:33:02.528 PM 03/23/2016,Teleop Enabled,10,FALSE,0,NO ERROR,-0.000000,99.701934,0.000000,-208.849178,FALSE,FALSE,FALSE,FALSE,FALSE,FALSE,Disabled,0.000000,0.000000,0.000000,TRUE,0.561813,-0.079819,0.000000,1.098984,-1.205322,0.000000,-0.042000,0.034000,-0.224000,-171.040000,-1.840000,3.740000,-159.154778,Hold,0.368652,0.000000,Hold,-258.000000,2.000000,Suck,-1912.500000,2181.818182,Speed,-2032.500000,2181.818182,Speed,Off,On,0.000000,FALSE,0,,,,
07:33:02.629 PM 03/23/2016,Teleop Enabled,11,FALSE,0,NO ERROR,0.181102,97.642188,-0.181102,-213.084168,TRUE,FALSE,FALSE,FALSE,FALSE,FALSE,Disabled,0.000000,0.000000,0.000000,TRUE,0.616730,-0.135483,0.000000,1.184906,-0.981110,0.000000,0.297000,0.206000,0.357000,-150.640000,-2.720000,1.770000,-141.442276,Hold,0.368652,0.000000,Hold,-258.000000,2.000000,Suck,-1927.500000,2181.818182,Speed,-2062.500000,2181.818182,Speed,Off,On,0.000000,FALSE,0,,,,
07:33:02.731 PM 03/23/2016,Teleop Enabled,11,FALSE,0,NO ERROR,0.629921,97.680688,-0.629921,-214.386749,FALSE,FALSE,FALSE,FALSE,FALSE,FALSE,Disabled,0.000000,0.000000,0.000000,TRUE,0.684052,-0.176620,0.000000,1.453842,-0.710983,0.000000,0.161000,0.296000,0.405000,-146.300000,-3.100000,0.400000,-135.989443,Hold,0.368652,0.000000,Hold,-258.000000,2.000000,Suck,-2055.000000,2181.818182,Speed,-2167.500000,2181.818182,Speed,Off,On,0.000000,FALSE,0,,,,
07:33:02.831 PM 03/23/2016,Teleop Enabled,11,FALSE,0,NO ERROR,0.629921,99.990683,-0.629921,-213.020002,FALSE,FALSE,FALSE,FALSE,FALSE,FALSE,Disabled,0.000000,0.000000,0.000000,TRUE,0.764511,-0.205673,0.000000,1.718094,-0.514984,0.000000,-0.094000,0.265000,0.363000,-152.910000,-3.560000,0.160000,-142.377581,Hold,0.368652,0.000000,Hold,-258.000000,2.000000,Suck,-2122.500000,2181.818182,Speed,-2205.000000,2181.818182,Speed,Off,On,0.000000,FALSE,0,,,,
07:33:02.931 PM 03/23/2016,Teleop Enabled,11,FALSE,0,NO ERROR,0.637795,102.987259,-0.637795,-210.292925,FALSE,FALSE,FALSE,FALSE,FALSE,FALSE,Disabled,0.000000,0.000000,0.000000,TRUE,0.864731,-0.223038,0.000000,1.632889,-0.117294,0.000000,-0.202000,-0.056000,0.032000,-163.750000,-3.210000,-0.190000,-153.483752,Hold,0.368652,0.000000,Hold,-258.000000,2.000000,Suck,-2047.500000,2181.818182,Speed,-2115.000000,2181.818182,Speed,Off,On,0.000000,FALSE,0,,,,
07:33:03.031 PM 03/23/2016,Teleop Enabled,11,FALSE,0,NO ERROR,-0.210608,106.542084,-0.403565,-206.725267,TRUE,FALSE,FALSE,FALSE,FALSE,FALSE,Disabled,0.000000,0.000000,0.000000,TRUE,0.942551,-0.230453,0.000000,1.518219,-0.156540,0.000000,-0.202000,-0.056000,0.032000,-177.810000,-2.610000,0.530000,-168.055749,Hold,0.368652,0.000000,Hold,-258.000000,2.000000,Suck,-1965.000000,2181.818182,Speed,-2070.000000,2181.818182,Speed,Off,On,0.000000,FALSE,0,,,,
07:33:03.130 PM 03/23/2016,Teleop Enabled,10,FALSE,0,NO ERROR,-0.307087,107.664998,-0.307087,-203.362941,TRUE,FALSE,FALSE,FALSE,FALSE,FALSE,Disabled,0.000000,0.000000,0.000000,TRUE,1.004517,-0.243652,0.000000,1.016983,-0.410202,0.000000,-0.287000,-0.146000,-0.198000,170.130000,0.230000,1.590000,178.942136,Hold,0.368652,0.000000,Hold,-258.000000,2.000000,Suck,-1980.000000,2181.818182,Speed,-2077.500000,2181.818182,Speed,Off,On,0.000000,FALSE,0,,,,
07:33:03.231 PM 03/23/2016,Teleop Enabled,9,FALSE,0,NO ERROR,-0.322835,106.503584,-0.322835,-201.354529,TRUE,FALSE,FALSE,FALSE,FALSE,FALSE,Disabled,0.000000,0.000000,0.000000,TRUE,1.045700,-0.273071,0.000000,0.746170,-0.612213,0.000000,-0.405000,-0.405000,-0.047000,167.600000,1.740000,2.120000,175.892996,Hold,0.368652,0.000000,Hold,-257.000000,2.000000,Suck,-2047.500000,2181.818182,Speed,-2107.500000,2181.818182,Speed,Off,On,0.000000,FALSE,0,,,,
07:33:03.332 PM 03/23/2016,Teleop Enabled,9,FALSE,0,NO ERROR,-0.411805,103.936924,-0.233864,-199.269117,TRUE,FALSE,FALSE,FALSE,FALSE,FALSE,Disabled,0.000000,0.000000,0.000000,TRUE,1.077820,-0.300125,0.000000,0.575287,-0.526093,0.000000,-0.185000,-0.128000,-0.189000,168.180000,1.610000,2.250000,176.508901,Hold,0.368652,0.000000,Hold,-256.000000,2.000000,Suck,-2092.500000,2181.818182,Speed,-2152.500000,2181.818182,Speed,Off,On,0.000000,FALSE,0,,,,
07:33:03.432 PM 03/23/2016,Teleop Enabled,10,FALSE,0,NO ERROR,-0.406969,100.760681,-0.222952,-196.959123,TRUE,FALSE,FALSE,FALSE,FALSE,FALSE,Disabled,0.000000,0.000000,0.000000,TRUE,1.107224,-0.327850,0.000000,0.608887,-0.509216,0.000000,0.004000,0.131000,0.064000,169.650000,2.390000,2.180000,178.321157,Hold,0.368652,0.000000,Hold,-244.000000,2.000000,Suck,-2077.500000,2181.818182,Speed,-2167.500000,2181.818182,Speed,Off,On,0.000000,FALSE,0,,,,
07:33:03.532 PM 03/23/2016,Teleop Enabled,10,FALSE,0,NO ERROR,-0.450369,97.295689,-0.179552,-194.398879,TRUE,FALSE,FALSE,FALSE,FALSE,FALSE,Disabled,0.000000,0.000000,0.000000,TRUE,1.136169,-0.350266,0.000000,0.529556,-0.409119,0.000000,-0.099000,0.221000,-0.011000,171.300000,2.010000,2.360000,-179.936647,Hold,0.368652,0.000000,Hold,-244.000000,2.000000,Suck,-2062.500000,2181.818182,Speed,-2152.500000,2181.818182,Speed,Off,On,0.000000,FALSE,0,,,,
07:33:03.631 PM 03/23/2016,Teleop Enabled,10,FALSE,0,NO ERROR,-0.457313,93.497031,-0.172608,-191.594802,TRUE,FALSE,FALSE,FALSE,FALSE,FALSE,Disabled,0.000000,0.000000,0.000000,TRUE,1.161240,-0.365845,0.000000,0.489212,-0.251328,0.000000,-0.099000,0.221000,-0.011000,171.300000,2.010000,2.360000,-178.085966,Hold,0.368652,0.000000,Hold,-244.000000,2.000000,Suck,-2070.000000,2181.818182,Speed,-2152.500000,2181.818182,Speed,Off,On,0.000000,FALSE,0,,,,
07:33:03.732 PM 03/23/2016,Teleop Enabled,10,FALSE,0,NO ERROR,-0.488319,89.287708,-0.157350,-188.585392,TRUE,FALSE,FALSE,FALSE,FALSE,FALSE,Disabled,0.000000,0.000000,0.000000,TRUE,1.181305,-0.376007,0.000000,0.308212,-0.162399,0.000000,-0.085000,0.103000,0.081000,173.390000,2.070000,2.200000,-176.301643,Hold,0.368652,0.000000,Hold,-244.000000,2.000000,Suck,-2085.000000,2181.818182,Speed,-2160.000000,2181.818182,Speed,Off,On,0.000000,FALSE,0,,,,
07:33:03.832 PM 03/23/2016,Teleop Enabled,10,FALSE,0,NO ERROR,-0.504185,84.751135,-0.125736,-185.235900,TRUE,FALSE,FALSE,FALSE,FALSE,FALSE,Disabled,0.000000,0.000000,0.000000,TRUE,1.194443,-0.379395,0.000000,0.212418,-0.038300,0.000000,-0.311000,0.228000,0.145000,176.640000,2.980000,2.090000,-174.127919,Hold,0.368652,0.000000,Hold,-244.000000,2.000000,Suck,-2077.500000,2181.818182,Speed,-2145.000000,2181.818182,Speed,Off,On,0.000000,FALSE,0,,,,
07:33:03.931 PM 03/23/2016,Teleop Enabled,10,FALSE,0,NO ERROR,-0.504185,79.797480,-0.125736,-181.950575,TRUE,FALSE,FALSE,FALSE,FALSE,FALSE,Disabled,0.000000,0.000000,0.000000,TRUE,1.202881,-0.379669,0.000000,0.228149,0.023911,0.000000,-0.156000,-0.058000,0.175000,176.640000,2.980000,2.090000,-170.810928,Hold,0.368652,0.000000,Hold,-244.000000,2.000000,Suck,-2070.000000,2181.818182,Speed,-2152.500000,2181.818182,Speed,Off,On,0.000000,FALSE,0,,,,
07:33:04.032 PM 03/23/2016,Teleop Enabled,10,FALSE,0,NO ERROR,-0.858268,74.683409,0.858268,-178.575416,FALSE,FALSE,FALSE,FALSE,FALSE,FALSE,Disabled,0.000000,0.000000,0.000000,TRUE,1.208069,-0.373001,0.000000,0.048996,0.152481,0.000000,-0.074000,0.105000,0.100000,-179.650000,3.070000,2.090000,-167.283680,Hold,0.368652,0.000000,Hold,-244.000000,2.000000,Suck,-2077.500000,2181.818182,Speed,-2167.500000,2181.818182,Speed,Off,On,0.000000,FALSE,0,,,,
07:33:04.132 PM 03/23/2016,Teleop Enabled,11,FALSE,0,NO ERROR,-0.858268,69.293421,0.858268,-177.414002,TRUE,FALSE,FALSE,FALSE,FALSE,FALSE,Disabled,0.000000,0.000000,0.000000,TRUE,1.212219,-0.369522,0.000000,0.128571,0.019135,0.000000,0.062000,-0.021000,0.276000,-176.260000,2.770000,1.950000,-161.236238,Hold,0.368652,0.000000,Hold,-244.000000,2.000000,Suck,-2077.500000,2181.818182,Speed,-2160.000000,2181.818182,Speed,Off,On,0.000000,FALSE,0,,,,
07:33:04.234 PM 03/23/2016,Teleop Enabled,9,FALSE,0,NO ERROR,-0.700787,63.409352,0.700787,-178.665249,FALSE,FALSE,FALSE,FALSE,FALSE,FALSE,Disabled,0.000000,0.000000,0.000000,TRUE,1.212219,-0.369522,0.000000,0.128571,0.019135,0.000000,0.099000,-0.106000,-0.250000,-170.350000,0.990000,3.400000,-148.048655,Hold,0.368652,0.000000,Hold,-251.000000,2.000000,Suck,-2017.500000,2181.818182,Speed,-2092.500000,2181.818182,Speed,Off,On,0.000000,FALSE,0,,,,
07:33:04.332 PM 03/23/2016,Teleop Enabled,10,FALSE,0,NO ERROR,-0.000000,59.373278,0.000000,-179.974246,TRUE,FALSE,FALSE,FALSE,FALSE,FALSE,Disabled,0.000000,0.000000,0.000000,TRUE,1.250580,-0.350021,0.000000,0.633987,0.356567,0.000000,0.581000,0.540000,0.238000,-154.570000,0.840000,1.800000,-133.097839,Hold,0.368652,0.000000,Hold,-251.000000,2.000000,Suck,-1912.500000,2181.818182,Speed,-2025.000000,2181.818182,Speed,Off,On,0.000000,FALSE,0,,,,
07:33:04.432 PM 03/23/2016,Teleop Enabled,11,FALSE,0,NO ERROR,-0.000000,57.185200,0.000000,-180.019162,TRUE,FALSE,FALSE,FALSE,FALSE,FALSE,Disabled,0.000000,0.000000,0.000000,TRUE,1.300049,-0.327652,0.000000,1.228439,0.525742,0.000000,0.605000,-0.004000,-0.186000,-143.330000,-0.060000,1.800000,-126.712324,Hold,0.368652,0.000000,Hold,-251.000000,2.000000,Suck,-1980.000000,2181.818182,Speed,-2077.500000,2181.818182,Speed,Off,On,0.000000,FALSE,0,,,,
07:33:04.532 PM 03/23/2016,Teleop Enabled,11,FALSE,0,NO ERROR,-0.000000,56.774534,0.000000,-179.383914,TRUE,FALSE,FALSE,FALSE,FALSE,FALSE,Disabled,0.000000,0.000000,0.000000,TRUE,1.300049,-0.327652,0.000000,1.228439,0.525742,0.000000,0.485000,0.107000,0.106000,-137.350000,-1.430000,-0.380000,-127.267185,Hold,0.368652,0.000000,Hold,-237.000000,2.000000,Suck,-2115.000000,2181.818182,Speed,-2205.000000,2181.818182,Speed,Off,On,0.000000,FALSE,0,,,,
07:33:04.632 PM 03/23/2016,Teleop Enabled,11,FALSE,0,NO ERROR,-0.000000,56.774534,0.000000,-179.383914,TRUE,FALSE,FALSE,FALSE,FALSE,FALSE,Disabled,0.000000,0.000000,0.000000,TRUE,1.367096,-0.301575,0.000000,1.392258,0.543655,0.000000,0.163000,0.210000,0.094000,-137.940000,-2.060000,-0.090000,-127.267185,Hold,0.368652,0.000000,Hold,-237.000000,2.000000,Suck,-2152.500000,2181.818182,Speed,-2197.500000,2181.818182,Speed,Off,On,0.000000,FALSE,0,,,,
07:33:04.732 PM 03/23/2016,Teleop Enabled,11,FALSE,0,NO ERROR,-0.488189,56.659034,0.488189,-179.146498,TRUE,FALSE,FALSE,FALSE,FALSE,FALSE,Disabled,0.000000,0.000000,0.000000,TRUE,1.439636,-0.270859,0.000000,1.459137,0.619064,0.000000,0.056000,-0.079000,0.179000,-138.390000,-2.160000,0.080000,-127.744626,Hold,0.368652,0.000000,Hold,-237.000000,2.000000,Suck,-2092.500000,2181.818182,Speed,-2152.500000,2181.818182,Speed,Off,On,0.000000,FALSE,0,,,,
07:33:04.832 PM 03/23/2016,Teleop Enabled,10,FALSE,0,NO ERROR,-0.637795,56.447285,0.637795,-179.428830,TRUE,FALSE,FALSE,FALSE,FALSE,FALSE,Disabled,0.000000,0.000000,0.000000,TRUE,1.483948,-0.239075,0.000000,-0.006302,0.671310,0.000000,-0.052000,0.125000,0.050000,-138.150000,-2.100000,0.130000,-127.491815,Hold,0.368652,0.000000,Hold,-237.000000,2.000000,Suck,-2077.500000,2181.818182,Speed,-2145.000000,2181.818182,Speed,Off,On,0.000000,FALSE,0,,,,
07:33:04.932 PM 03/23/2016,Teleop Enabled,11,FALSE,0,NO ERROR,-0.000000,55.561787,0.000000,-180.526078,TRUE,FALSE,FALSE,FALSE,FALSE,FALSE,Disabled,0.000000,0.000000,0.000000,TRUE,1.477386,-0.204498,0.000000,-0.215179,0.683517,0.000000,0.060000,-0.122000,0.060000,-135.870000,-1.740000,0.650000,-125.077353,Hold,0.368652,0.000000,Hold,-237.000000,2.000000,Suck,-2047.500000,2181.818182,Speed,-2122.500000,2181.818182,Speed,Off,On,0.000000,FALSE,0,,,,
07:33:05.031 PM 03/23/2016,Teleop Enabled,11,FALSE,0,NO ERROR,-0.000000,54.849538,0.000000,-182.213657,TRUE,FALSE,FALSE,FALSE,FALSE,FALSE,Disabled,0.000000,0.000000,0.000000,TRUE,1.465927,-0.169708,0.000000,-0.247818,0.719513,0.000000,0.419000,-0.029000,-0.050000,-129.590000,-1.690000,0.580000,-119.608450,Hold,0.368652,0.000000,Hold,-237.000000,2.000000,Suck,-2010.000000,2181.818182,Speed,-2092.500000,2181.818182,Speed,Off,On,0.000000,FALSE,0,,,,
07:33:05.131 PM 03/23/2016,Teleop Enabled,11,FALSE,0,NO ERROR,-0.000000,54.907288,0.000000,-182.592240,TRUE,FALSE,FALSE,FALSE,FALSE,FALSE,Disabled,0.000000,0.000000,0.000000,TRUE,1.460083,-0.134048,0.000000,-0.040298,0.704727,0.000000,0.005000,-0.020000,-0.025000,-127.970000,-1.980000,-0.090000,-116.879645,Hold,0.368652,0.000000,Hold,-237.000000,2.000000,Suck,-2070.000000,2181.818182,Speed,-2152.500000,2181.818182,Speed,Off,On,0.000000,FALSE,0,,,,
07:33:05.231 PM 03/23/2016,Teleop Enabled,10,FALSE,0,NO ERROR,-0.000000,55.253787,0.000000,-182.598656,TRUE,FALSE,FALSE,FALSE,FALSE,FALSE,Disabled,0.000000,0.000000,0.000000,TRUE,1.453461,-0.101425,0.000000,-0.216492,0.635757,0.000000,-0.112000,-0.003000,-0.094000,-128.910000,-1.600000,0.060000,-117.719746,Hold,0.368652,0.000000,Hold,-237.000000,2.000000,Suck,-2130.000000,2181.818182,Speed,-2190.000000,2181.818182,Speed,Off,On,0.000000,FALSE,0,,,,
07:33:05.331 PM 03/23/2016,Teleop Enabled,11,FALSE,0,NO ERROR,-0.000000,55.260204,0.000000,-182.598656,TRUE,FALSE,FALSE,FALSE,FALSE,FALSE,Disabled,0.000000,0.000000,0.000000,TRUE,1.438736,-0.071320,0.000000,-0.358597,0.543854,0.000000,-0.243000,-0.102000,-0.082000,-128.820000,-1.530000,0.210000,-117.730821,Hold,0.368652,0.000000,Hold,-237.000000,2.000000,Suck,-2122.500000,2181.818182,Speed,-2175.000000,2181.818182,Speed,Off,On,0.000000,FALSE,0,,,,
07:33:05.432 PM 03/23/2016,Teleop Enabled,11,FALSE,0,NO ERROR,-0.000000,55.260204,0.000000,-182.598656,TRUE,FALSE,FALSE,FALSE,FALSE,FALSE,Disabled,0.000000,0.000000,0.000000,TRUE,1.411255,-0.044052,0.000000,-0.505325,0.387833,0.000000,-0.182000,-0.088000,0.098000,-128.910000,-1.460000,0.270000,-117.813449,Hold,0.368652,0.000000,Hold,-237.000000,2.000000,Suck,-2085.000000,2181.818182,Speed,-2160.000000,2181.818182,Speed,Off,On,0.000000,FALSE,0,,,,
07:33:05.532 PM 03/23/2016,Teleop Enabled,11,FALSE,0,NO ERROR,-0.000000,55.260204,0.000000,-182.598656,TRUE,FALSE,FALSE,FALSE,FALSE,FALSE,Disabled,0.000000,0.000000,0.000000,TRUE,1.387726,-0.030701,0.000000,-0.637527,0.308044,0.000000,-0.133000,-0.012000,-0.166000,-128.900000,-1.340000,0.360000,-117.798009,Hold,0.368652,0.000000,Hold,-237.000000,2.000000,Suck,-2092.500000,2181.818182,Speed,-2167.500000,2181.818182,Speed,Off,On,0.000000,FALSE,0,,,,
07:33:05.631 PM 03/23/2016,Teleop Enabled,8,FALSE,0,NO ERROR,-0.000000,55.260204,0.000000,-182.598656,TRUE,FALSE,FALSE,FALSE,FALSE,FALSE,Disabled,0.000000,0.000000,0.000000,TRUE,1.344116,-0.015656,0.000000,-0.805115,0.186584,0.000000,-0.133000,-0.139000,-0.106000,-128.910000,-1.200000,0.400000,-117.811734,Hold,0.368652,0.000000,Hold,-237.000000,2.000000,Suck,-2107.500000,2181.818182,Speed,-2152.500000,2181.818182,Speed,Off,On,0.000000,FALSE,0,,,,
07:33:05.731 PM 03/23/2016,Teleop Enabled,8,FALSE,0,NO ERROR,-0.000000,55.260204,0.000000,-182.598656,TRUE,FALSE,FALSE,FALSE,FALSE,FALSE,Disabled,0.000000,0.000000,0.000000,TRUE,1.299286,-0.009384,0.000000,-0.961151,0.089233,0.000000,-0.079000,-0.187000,-0.063000,-128.920000,-1.030000,0.580000,-117.816430,Hold,0.368652,0.000000,Hold,-237.000000,2.000000,Suck,-2107.500000,2181.818182,Speed,-2145.000000,2181.818182,Speed,Off,On,0.000000,FALSE,0,,,,
07:33:05.831 PM 03/23/2016,Teleop Enabled,10,FALSE,0,NO ERROR,-0.000000,55.260204,0.000000,-182.598656,TRUE,FALSE,FALSE,FALSE,FALSE,FALSE,Disabled,0.000000,0.000000,0.000000,TRUE,1.247437,-0.009018,0.000000,-1.075394,-0.039886,0.000000,-0.050000,-0.103000,-0.006000,-128.920000,-1.040000,0.670000,-117.821398,Hold,0.368652,0.000000,Hold,-237.000000,2.000000,Suck,-2100.000000,2181.818182,Speed,-2167.500000,2181.818182,Speed,Off,On,0.000000,FALSE,0,,,,
07:33:05.932 PM 03/23/2016,Teleop Enabled,10,FALSE,0,NO ERROR,-0.000000,55.260204,0.000000,-182.598656,TRUE,FALSE,FALSE,FALSE,FALSE,FALSE,Disabled,0.000000,0.000000,0.000000,TRUE,1.192535,-0.013275,0.000000,-1.104706,-0.106934,0.000000,0.008000,-0.049000,-0.092000,-128.920000,-1.080000,0.750000,-117.835646,Hold,0.368652,0.000000,Hold,-237.000000,2.000000,Suck,-2107.500000,2181.818182,Speed,-2182.500000,2181.818182,Speed,Off,On,0.000000,FALSE,0,,,,
07:33:06.031 PM 03/23/2016,Teleop Enabled,11,FALSE,0,NO ERROR,-0.000000,55.260204,0.000000,-182.598656,TRUE,FALSE,FALSE,FALSE,FALSE,FALSE,Disabled,0.000000,0.000000,0.000000,TRUE,1.192368,-0.019424,0.000000,0.000000,-0.125443,0.000000,-0.041000,0.006000,-0.028000,-128.940000,-1.090000,0.800000,-117.852002,Hold,0.368652,0.000000,Hold,-237.000000,2.000000,Suck,-2107.500000,2181.818182,Speed,-2160.000000,2181.818182,Speed,Off,On,0.000000,FALSE,0,,,,
07:33:06.132 PM 03/23/2016,Teleop Enabled,11,FALSE,0,NO ERROR,-0.000000,55.260204,0.000000,-182.598656,TRUE,FALSE,FALSE,FALSE,FALSE,FALSE,Disabled,0.000000,0.000000,0.000000,TRUE,1.191528,-0.024811,0.000000,-0.021072,-0.081909,0.000000,0.065000,0.032000,0.020000,-128.950000,-0.910000,0.880000,-117.849661,Hold,0.368652,0.000000,Hold,-237.000000,2.000000,Suck,-2100.000000,2181.818182,Speed,-2145.000000,2181.818182,Speed,Off,On,0.000000,FALSE,0,,,,
07:33:06.232 PM 03/23/2016,Teleop Enabled,11,FALSE,0,NO ERROR,-0.000000,55.260204,0.000000,-182.598656,TRUE,FALSE,FALSE,FALSE,FALSE,FALSE,Disabled,0.000000,0.000000,0.000000,TRUE,1.191742,-0.028900,0.000000,0.018829,-0.078796,0.000000,-0.034000,0.024000,0.018000,-128.950000,-0.790000,0.950000,-117.857169,Hold,0.368652,0.000000,Hold,-237.000000,2.000000,Suck,-2100.000000,2181.818182,Speed,-2145.000000,2181.818182,Speed,Off,On,0.000000,FALSE,0,,,,
07:33:06.333 PM 03/23/2016,Teleop Enabled,9,FALSE,0,NO ERROR,-0.000000,55.260204,0.000000,-182.598656,TRUE,FALSE,FALSE,FALSE,FALSE,FALSE,Disabled,0.000000,0.000000,0.000000,TRUE,1.191940,-0.030334,0.000000,0.016815,0.051758,0.000000,0.079000,0.122000,-0.137000,-128.950000,-0.750000,1.020000,-117.869256,Hold,0.368652,0.000000,Hold,-237.000000,2.000000,Suck,-2107.500000,2181.818182,Speed,-2160.000000,2181.818182,Speed,Off,On,0.000000,FALSE,0,,,,
07:33:06.434 PM 03/23/2016,Teleop Enabled,10,FALSE,0,NO ERROR,-0.000000,55.260204,0.000000,-182.598656,TRUE,FALSE,FALSE,FALSE,FALSE,FALSE,Disabled,0.000000,0.000000,0.000000,TRUE,1.193161,-0.027405,0.000000,0.050873,0.121170,0.000000,0.037000,0.099000,0.034000,-128.950000,-0.740000,1.040000,-117.873029,Hold,0.368652,0.000000,Hold,-237.000000,2.000000,Suck,-2107.500000,2181.818182,Speed,-2160.000000,2181.818182,Speed,Off,On,0.000000,FALSE,0,,,,
07:33:06.534 PM 03/23/2016,Teleop Enabled,11,FALSE,0,NO ERROR,-0.000000,55.260204,0.000000,-182.598656,TRUE,FALSE,FALSE,FALSE,FALSE,FALSE,Disabled,0.000000,0.000000,0.000000,TRUE,1.197037,-0.018372,0.000000,0.096909,0.215164,0.000000,0.026000,0.091000,0.112000,-128.960000,-0.680000,1.070000,-117.886486,Hold,0.368652,0.000000,Hold,-237.000000,2.000000,Suck,-2100.000000,2181.818182,Speed,-2160.000000,2181.818182,Speed,Off,On,0.000000,FALSE,0,,,,
07:33:06.634 PM 03/23/2016,Teleop Enabled,11,FALSE,0,NO ERROR,-0.000000,55.260204,0.000000,-182.598656,TRUE,FALSE,FALSE,FALSE,FALSE,FALSE,Disabled,0.000000,0.000000,0.000000,TRUE,1.205078,0.000519,0.000000,0.148026,0.385666,0.000000,-0.026000,0.124000,0.080000,-128.970000,-0.630000,1.090000,-117.897960,Hold,0.368652,0.000000,Hold,-237.000000,2.000000,Suck,-2107.500000,2181.818182,Speed,-2167.500000,2181.818182,Speed,Off,On,0.000000,FALSE,0,,,,
07:33:06.734 PM 03/23/2016,Teleop Enabled,11,FALSE,0,NO ERROR,-0.000000,55.260204,0.000000,-182.598656,TRUE,FALSE,FALSE,FALSE,FALSE,FALSE,Disabled,0.000000,0.000000,0.000000,TRUE,1.213699,0.024033,0.000000,0.188187,0.513672,0.000000,0.095000,0.105000,0.084000,-128.970000,-0.580000,1.090000,-117.908629,Hold,0.368652,0.000000,Hold,-237.000000,2.000000,Suck,-2107.500000,2181.818182,Speed,-2175.000000,2181.818182,Speed,Off,On,0.000000,FALSE,0,,,,
07:33:06.834 PM 03/23/2016,Teleop Enabled,10,FALSE,0,NO ERROR,-0.000000,55.260204,0.000000,-182.598656,TRUE,FALSE,FALSE,FALSE,FALSE,FALSE,Disabled,0.000000,0.000000,0.000000,TRUE,1.224747,0.053528,0.000000,0.237595,0.642487,0.000000,-0.004000,0.052000,0.044000,-128.970000,-0.560000,1.120000,-117.909365,Hold,0.368652,0.000000,Hold,-237.000000,2.000000,Suck,-2107.500000,2181.818182,Speed,-2175.000000,2181.818182,Speed,Off,On,0.000000,FALSE,0,,,,
07:33:06.934 PM 03/23/2016,Teleop Enabled,9,FALSE,0,NO ERROR,-0.000000,55.260204,0.000000,-182.598656,TRUE,FALSE,FALSE,FALSE,FALSE,FALSE,Disabled,0.000000,0.000000,0.000000,TRUE,1.234009,0.081512,0.000000,0.237473,0.740158,0.000000,-0.035000,0.052000,0.146000,-128.980000,-0.360000,1.160000,-117.918202,Hold,0.368652,0.000000,Hold,-237.000000,2.000000,Suck,-2107.500000,2181.818182,Speed,-2175.000000,2181.818182,Speed,Off,On,0.000000,FALSE,0,,,,
07:33:07.034 PM 03/23/2016,Teleop Enabled,11,FALSE,0,NO ERROR,-0.000000,55.260204,0.000000,-182.598656,TRUE,FALSE,FALSE,FALSE,FALSE,FALSE,Disabled,0.000000,0.000000,0.000000,TRUE,1.247116,0.129578,0.000000,0.212601,0.853271,0.000000,-0.008000,0.141000,0.160000,-128.990000,-0.230000,1.240000,-117.928096,Hold,0.368652,0.000000,Hold,-237.000000,2.000000,Suck,-2107.500000,2181.818182,Speed,-2152.500000,2181.818182,Speed,Off,On,0.000000,FALSE,0,,,,
07:33:07.135 PM 03/23/2016,Teleop Enabled,11,FALSE,0,NO ERROR,-0.000000,55.260204,0.000000,-182.598656,TRUE,FALSE,FALSE,FALSE,FALSE,FALSE,Disabled,0.000000,0.000000,0.000000,TRUE,1.259476,0.174942,0.000000,0.272232,0.932587,0.000000,0.056000,0.108000,0.123000,-128.990000,-0.150000,1.270000,-117.930269,Hold,0.368652,0.000000,Hold,-237.000000,2.000000,Suck,-2107.500000,2181.818182,Speed,-2160.000000,2181.818182,Speed,Off,On,0.000000,FALSE,0,,,,
07:33:07.235 PM 03/23/2016,Teleop Enabled,11,FALSE,0,NO ERROR,-0.000000,55.260204,0.000000,-182.598656,TRUE,FALSE,FALSE,FALSE,FALSE,FALSE,Disabled,0.000000,0.000000,0.000000,TRUE,1.274750,0.222778,0.000000,0.327454,0.957809,0.000000,0.012000,0.122000,0.037000,-129.000000,-0.250000,1.350000,-117.936090,Hold,0.368652,0.000000,Hold,-237.000000,2.000000,Suck,-2107.500000,2181.818182,Speed,-2182.500000,2181.818182,Speed,Off,On,0.000000,FALSE,0,,,,
07:33:07.335 PM 03/23/2016,Teleop Enabled,11,FALSE,0,NO ERROR,-0.000000,55.260204,0.000000,-182.598656,TRUE,FALSE,FALSE,FALSE,FALSE,FALSE,Disabled,0.000000,0.000000,0.000000,TRUE,1.278427,0.273605,0.000000,0.018417,1.053146,0.000000,0.043000,0.089000,0.159000,-129.000000,-0.260000,1.360000,-117.932520,Hold,0.368652,0.000000,Hold,-237.000000,2.000000,Suck,-2107.500000,2181.818182,Speed,-2190.000000,2181.818182,Speed,Off,On,0.000000,FALSE,0,,,,
07:33:07.435 PM 03/23/2016,Teleop Enabled,11,FALSE,0,NO ERROR,-0.000000,55.260204,0.000000,-182.598656,TRUE,FALSE,FALSE,FALSE,FALSE,FALSE,Disabled,0.000000,0.000000,0.000000,TRUE,1.280853,0.330292,0.000000,0.066513,1.202560,0.000000,0.002000,0.135000,0.134000,-129.010000,-0.210000,1.400000,-117.955668,Hold,0.368652,0.000000,Hold,-237.000000,2.000000,Suck,-2115.000000,2181.818182,Speed,-2175.000000,2181.818182,Speed,Off,On,0.000000,FALSE,0,,,,
07:33:07.535 PM 03/23/2016,Teleop Enabled,11,FALSE,0,NO ERROR,-0.000000,55.260204,0.000000,-182.598656,TRUE,FALSE,FALSE,FALSE,FALSE,FALSE,Disabled,0.000000,0.000000,0.000000,TRUE,1.282471,0.405960,0.000000,0.041748,1.292953,0.000000,0.008000,0.082000,0.079000,-129.010000,-0.160000,1.490000,-117.968529,Hold,0.368652,0.000000,Hold,-237.000000,2.000000,Suck,-2107.500000,2181.818182,Speed,-2160.000000,2181.818182,Speed,Off,On,0.000000,FALSE,0,,,,
07:33:07.636 PM 03/23/2016,Teleop Enabled,10,FALSE,0,NO ERROR,-0.000000,55.260204,0.000000,-182.598656,TRUE,FALSE,FALSE,FALSE,FALSE,FALSE,Disabled,0.000000,0.000000,0.000000,TRUE,1.284958,0.458801,0.000000,0.077957,1.328476,0.000000,0.060000,0.035000,0.124000,-129.010000,-0.170000,1.530000,-117.977549,Hold,0.368652,0.000000,Hold,-228.000000,2.000000,Suck,-2100.000000,2181.818182,Speed,-2160.000000,2181.818182,Speed,Off,On,0.000000,FALSE,0,,,,
07:33:07.735 PM 03/23/2016,Teleop Enabled,11,FALSE,0,NO ERROR,-0.000000,55.260204,0.000000,-182.598656,TRUE,FALSE,FALSE,FALSE,FALSE,FALSE,Disabled,0.000000,0.000000,0.000000,TRUE,1.290436,0.526642,0.000000,0.140900,1.375641,0.000000,0.003000,0.001000,0.042000,-129.010000,-0.250000,1.570000,-117.979094,Hold,0.368652,0.000000,Hold,-228.000000,151552.000000,Suck,-2107.500000,2181.818182,Speed,-2167.500000,2181.818182,Speed,Off,On,0.000000,FALSE,0,,,,
07:33:07.836 PM 03/23/2016,Teleop Enabled,10,FALSE,0,NO ERROR,-0.000000,55.260204,0.000000,-182.598656,TRUE,FALSE,FALSE,FALSE,FALSE,FALSE,Disabled,0.000000,0.000000,0.000000,TRUE,1.293625,0.582184,0.000000,0.010635,1.396088,0.000000,0.095000,0.059000,0.021000,-129.020000,-0.200000,1.590000,-117.966818,Hold,0.368652,58.000000,Hold,-5969.000000,151552.000000,Suck,-2115.000000,2181.818182,Speed,-2175.000000,2181.818182,Speed,Off,On,0.000000,FALSE,0,,,,
07:33:07.936 PM 03/23/2016,Teleop Enabled,10,FALSE,0,NO ERROR,-0.000000,55.260204,0.000000,-182.598656,TRUE,FALSE,FALSE,FALSE,FALSE,FALSE,Disabled,0.000000,0.000000,0.000000,TRUE,1.293503,0.666733,0.000000,-0.039368,1.390305,0.000000,-0.021000,-0.025000,-0.161000,-129.020000,-0.090000,1.600000,-117.985109,Hold,3.031006,58.000000,Hold,-5969.000000,151552.000000,Suck,-2115.000000,2181.818182,Speed,-2167.500000,2181.818182,Speed,Off,On,0.000000,FALSE,0,,,,
07:33:08.036 PM 03/23/2016,Teleop Enabled,10,FALSE,0,NO ERROR,-0.000000,55.260204,0.000000,-182.598656,TRUE,FALSE,FALSE,FALSE,FALSE,FALSE,Disabled,0.000000,0.000000,0.000000,TRUE,1.290131,0.720520,0.000000,-0.081284,0.000000,0.000000,0.000000,0.013000,-0.056000,-129.020000,-0.090000,1.620000,-117.995020,Hold,5.343506,58.000000,Hold,-20735.000000,151552.000000,Suck,-2115.000000,2181.818182,Speed,-2167.500000,2181.818182,Speed,Off,On,0.000000,FALSE,0,,,,
07:33:08.136 PM 03/23/2016,Teleop Enabled,11,FALSE,0,NO ERROR,-0.000000,55.260204,0.000000,-182.598656,TRUE,FALSE,FALSE,FALSE,FALSE,FALSE,Disabled,0.000000,0.000000,0.000000,TRUE,1.285233,0.720825,0.000000,-0.114075,0.007431,0.000000,0.063000,0.095000,-0.035000,-128.980000,0.080000,1.680000,-117.961458,Hold,8.566895,58.000000,Hold,-33765.000000,151552.000000,Suck,-2115.000000,2181.818182,Speed,-2160.000000,2181.818182,Speed,Off,On,0.000000,FALSE,0,,,,
07:33:08.237 PM 03/23/2016,Teleop Enabled,11,FALSE,0,NO ERROR,-0.000000,55.260204,0.000000,-182.598656,TRUE,FALSE,FALSE,FALSE,FALSE,FALSE,Disabled,0.000000,0.000000,0.000000,TRUE,1.281998,0.722565,0.000000,-0.003922,0.026672,0.000000,0.001000,-0.104000,-0.147000,-129.060000,0.080000,1.650000,-118.038998,Hold,12.331543,58.000000,Hold,-33765.000000,151552.000000,Suck,-2107.500000,2181.818182,Speed,-2160.000000,2181.818182,Speed,Off,On,0.000000,FALSE,0,,,,
07:33:08.337 PM 03/23/2016,Teleop Enabled,11,FALSE,0,NO ERROR,-0.000000,55.260204,0.000000,-182.598656,TRUE,FALSE,FALSE,FALSE,FALSE,FALSE,Disabled,0.000000,0.000000,0.000000,TRUE,1.282410,0.721054,0.000000,0.012863,-0.055191,0.000000,-0.052000,-0.028000,-0.142000,-129.030000,-0.080000,1.630000,-118.003809,Hold,16.731934,58.000000,Hold,-45785.000000,151552.000000,Suck,-2107.500000,2181.818182,Speed,-2167.500000,2181.818182,Speed,Off,On,0.000000,FALSE,0,,,,
07:33:08.437 PM 03/23/2016,Teleop Enabled,10,FALSE,0,NO ERROR,-0.000000,55.260204,0.000000,-182.598656,TRUE,FALSE,FALSE,FALSE,FALSE,FALSE,Disabled,0.000000,0.000000,0.000000,TRUE,1.279465,0.714493,0.000000,-0.096512,-0.181107,0.000000,0.046000,0.005000,-0.144000,-129.000000,-0.010000,1.620000,-117.964009,Hold,20.930176,58.000000,Hold,-59858.000000,151552.000000,Suck,-2107.500000,2181.818182,Speed,-2160.000000,2181.818182,Speed,Off,On,0.000000,FALSE,0,,,,
07:33:08.537 PM 03/23/2016,Teleop Enabled,11,FALSE,0,NO ERROR,-0.000000,55.260204,0.000000,-182.598656,TRUE,FALSE,FALSE,FALSE,FALSE,FALSE,Disabled,0.000000,0.000000,0.000000,TRUE,1.275330,0.706543,0.000000,-0.123474,-0.210052,0.000000,-0.233000,-0.141000,-0.096000,-129.040000,-0.150000,1.530000,-117.981060,Hold,26.986084,58.000000,Hold,-74350.000000,151552.000000,Suck,-2115.000000,2181.818182,Speed,-2160.000000,2181.818182,Speed,Off,On,0.000000,FALSE,0,,,,
07:33:08.636 PM 03/23/2016,Teleop Enabled,10,FALSE,0,NO ERROR,-0.000000,55.260204,0.000000,-182.515240,TRUE,FALSE,FALSE,FALSE,FALSE,FALSE,Disabled,0.000000,0.000000,0.000000,TRUE,1.262100,0.687561,0.000000,-0.254089,-0.413284,0.000000,-0.075000,-0.144000,-0.047000,-129.150000,-0.250000,1.520000,-118.107991,Hold,33.720459,58.000000,Hold,-92897.000000,151552.000000,Suck,-2107.500000,2181.818182,Speed,-2167.500000,2181.818182,Speed,Off,On,0.000000,FALSE,0,,,,
07:33:08.736 PM 03/23/2016,Teleop Enabled,11,FALSE,0,NO ERROR,0.425197,55.305121,0.425197,-182.682073,TRUE,FALSE,FALSE,FALSE,FALSE,FALSE,Disabled,0.000000,0.000000,0.000000,TRUE,1.244614,0.664215,0.000000,-0.413010,-0.504776,0.000000,0.140000,-0.136000,-0.131000,-129.140000,-0.360000,1.580000,-118.057113,Hold,42.718262,58.000000,Hold,-112175.000000,151552.000000,Suck,-2115.000000,2181.818182,Speed,-2190.000000,2181.818182,Speed,Off,On,0.000000,FALSE,0,,,,
07:33:08.836 PM 03/23/2016,Teleop Enabled,11,FALSE,0,NO ERROR,0.626920,56.222702,0.443946,-183.631737,FALSE,FALSE,FALSE,FALSE,FALSE,FALSE,Disabled,0.000000,0.000000,0.000000,TRUE,1.226105,0.632767,0.000000,-0.357132,-0.732635,0.000000,0.083000,-0.383000,-0.145000,-128.880000,-3.000000,1.640000,-117.832558,Hold,53.320312,58.000000,Hold,-112175.000000,151552.000000,Suck,-2122.500000,2181.818182,Speed,-2197.500000,2181.818182,Speed,Off,On,0.000000,FALSE,0,,,,
07:33:08.937 PM 03/23/2016,Teleop Enabled,11,FALSE,0,NO ERROR,0.711005,58.218281,0.375609,-185.492566,FALSE,FALSE,FALSE,FALSE,FALSE,FALSE,Disabled,0.000000,0.000000,0.000000,TRUE,1.211578,0.589874,0.000000,-0.176865,-0.924393,0.000000,0.083000,-0.383000,-0.145000,-128.890000,-3.950000,1.500000,-117.791052,Hold,59.855469,58.000000,Hold,-132679.000000,151552.000000,Suck,-2092.500000,2181.818182,Speed,-2167.500000,2181.818182,Speed,Off,On,0.000000,FALSE,0,,,,
07:33:09.037 PM 03/23/2016,Teleop Enabled,11,FALSE,0,NO ERROR,0.708010,61.587023,0.378604,-188.084894,FALSE,FALSE,FALSE,FALSE,FALSE,FALSE,Disabled,0.000000,0.000000,0.000000,TRUE,1.206299,0.535904,0.000000,-0.053818,-1.192917,0.000000,0.037000,-0.041000,0.228000,-130.180000,-3.750000,1.430000,-119.135374,Hold,62.400635,58.000000,Hold,-152672.000000,151552.000000,Suck,-2010.000000,2181.818182,Speed,-2115.000000,2181.818182,Speed,Off,On,0.000000,FALSE,0,,,,
07:33:09.137 PM 03/23/2016,Teleop Enabled,11,FALSE,0,NO ERROR,0.725978,66.264762,0.360636,-191.620469,FALSE,FALSE,FALSE,FALSE,FALSE,FALSE,Disabled,0.000000,0.000000,0.000000,TRUE,1.206741,0.475357,0.000000,0.046600,-1.196320,0.000000,0.037000,-0.041000,0.228000,-132.200000,-5.000000,1.260000,-121.248206,Hold,61.952393,58.000000,Hold,-152175.000000,151552.000000,Suck,-1170.000000,2181.818182,Speed,-2092.500000,2181.818182,Speed,Off,On,0.000000,FALSE,0,,,,
07:33:09.237 PM 03/23/2016,Teleop Enabled,10,FALSE,0,NO ERROR,0.724310,71.596999,0.346556,-195.374210,FALSE,FALSE,FALSE,FALSE,FALSE,FALSE,Disabled,0.000000,0.000000,0.000000,TRUE,1.211014,0.415039,0.000000,0.111099,-1.231949,0.000000,0.058000,0.020000,-0.102000,-134.800000,-4.850000,1.230000,-123.952125,Hold,61.937012,58.000000,Hold,-151490.000000,151552.000000,Suck,-1440.000000,2181.818182,Speed,-2077.500000,2181.818182,Speed,Off,On,0.000000,FALSE,0,,,,
07:33:09.336 PM 03/23/2016,Teleop Enabled,11,FALSE,0,NO ERROR,0.591531,77.564485,0.463587,-199.808116,FALSE,FALSE,FALSE,FALSE,FALSE,FALSE,Disabled,0.000000,0.000000,0.000000,TRUE,1.221054,0.342010,0.000000,0.212906,-1.175079,0.000000,0.058000,0.020000,-0.102000,-137.940000,-4.840000,1.320000,-127.208748,Hold,61.937012,58.000000,Hold,-151653.000000,151552.000000,Suck,-1815.000000,2181.818182,Speed,-2100.000000,2181.818182,Speed,Off,On,0.000000,FALSE,0,,,,
07:33:09.437 PM 03/23/2016,Teleop Enabled,9,FALSE,0,NO ERROR,0.614793,84.058137,0.440325,-204.896521,FALSE,FALSE,FALSE,FALSE,FALSE,FALSE,Disabled,0.000000,0.000000,0.000000,TRUE,1.232010,0.297058,0.000000,0.300812,-1.091446,0.000000,-0.034000,-0.055000,-0.089000,-137.940000,-4.840000,1.320000,-130.098135,Hold,61.908691,58.000000,Hold,-151651.000000,151552.000000,Suck,-2017.500000,2181.818182,Speed,-2115.000000,2181.818182,Speed,Off,On,0.000000,FALSE,0,,,,
07:33:09.537 PM 03/23/2016,Teleop Enabled,9,FALSE,0,NO ERROR,0.646779,90.923954,0.408339,-210.742091,FALSE,FALSE,FALSE,FALSE,FALSE,FALSE,Disabled,0.000000,0.000000,0.000000,TRUE,1.249725,0.233124,0.000000,0.284836,-1.047272,0.000000,-0.034000,-0.055000,-0.089000,-140.640000,-5.030000,1.160000,-132.412061,Hold,61.857178,58.000000,Hold,-151651.000000,151552.000000,Suck,-2115.000000,2181.818182,Speed,-2130.000000,2181.818182,Speed,Off,On,0.000000,FALSE,0,,,,
07:33:09.637 PM 03/23/2016,Teleop Enabled,11,FALSE,0,NO ERROR,0.646779,98.418603,0.408339,-216.638993,FALSE,FALSE,FALSE,FALSE,FALSE,FALSE,Disabled,0.000000,0.000000,0.000000,TRUE,1.264252,0.180344,0.000000,0.276367,-1.069626,0.000000,0.079000,-0.021000,-0.096000,-142.860000,-4.990000,1.230000,-135.185423,Hold,61.857178,58.000000,Hold,-151644.000000,151552.000000,Suck,-2100.000000,2181.818182,Speed,-2145.000000,2181.818182,Speed,Off,On,0.000000,FALSE,0,,,,
07:33:09.737 PM 03/23/2016,Teleop Enabled,11,FALSE,0,NO ERROR,0.527559,105.983835,0.527559,-222.747646,FALSE,FALSE,FALSE,FALSE,FALSE,FALSE,Disabled,0.000000,0.000000,0.000000,TRUE,1.267593,0.127899,0.000000,0.026154,-1.044296,0.000000,0.013000,-0.021000,-0.164000,-145.520000,-5.220000,0.900000,-138.311008,Hold,61.856934,58.000000,Hold,-151644.000000,151552.000000,Suck,-2047.500000,2181.818182,Speed,-2145.000000,2181.818182,Speed,Off,On,0.000000,FALSE,0,,,,
07:33:09.837 PM 03/23/2016,Teleop Enabled,11,FALSE,0,NO ERROR,0.527559,113.709484,0.527559,-229.395297,FALSE,FALSE,FALSE,FALSE,FALSE,FALSE,Disabled,0.000000,0.000000,0.000000,TRUE,1.265533,0.074280,0.000000,-0.046356,-1.084717,0.000000,-0.255000,-0.005000,0.054000,-148.510000,-4.860000,0.910000,-140.783756,Hold,61.856934,58.000000,Hold,-151644.000000,151552.000000,Suck,-2062.500000,2181.818182,Speed,-2137.500000,2181.818182,Speed,Off,On,0.000000,FALSE,0,,,,
07:33:09.937 PM 03/23/2016,Teleop Enabled,10,FALSE,0,NO ERROR,0.527559,121.428716,0.527559,-236.575530,FALSE,FALSE,FALSE,FALSE,FALSE,FALSE,Disabled,0.000000,0.000000,0.000000,TRUE,1.265533,0.074280,0.000000,-0.046356,-1.084717,0.000000,0.042000,0.040000,-0.006000,-150.880000,-4.350000,0.890000,-142.233861,Hold,61.856934,58.000000,Hold,-151644.000000,151552.000000,Suck,-2092.500000,2181.818182,Speed,-2137.500000,2181.818182,Speed,Off,On,0.000000,FALSE,0,,,,
07:33:10.037 PM 03/23/2016,Teleop Enabled,10,FALSE,0,NO ERROR,0.407973,129.250614,0.631397,-244.012429,FALSE,FALSE,FALSE,FALSE,FALSE,FALSE,Disabled,0.000000,0.000000,0.000000,TRUE,1.262619,0.021576,0.000000,-0.077499,-1.049164,0.000000,-0.070000,-0.060000,-0.051000,-152.240000,-4.410000,0.970000,-143.124757,Hold,61.856934,58.000000,Hold,-151644.000000,151552.000000,Suck,-2055.000000,2181.818182,Speed,-2167.500000,2181.818182,Speed,Off,On,0.000000,FALSE,0,,,,
07:33:10.137 PM 03/23/2016,Teleop Enabled,10,FALSE,0,NO ERROR,0.331267,136.655430,0.692355,-252.058911,FALSE,FALSE,FALSE,FALSE,FALSE,FALSE,Disabled,0.000000,0.000000,0.000000,TRUE,1.258301,-0.031540,0.000000,-0.078766,-1.047272,0.000000,0.076000,0.023000,0.239000,-153.220000,-3.990000,0.900000,-143.194459,Hold,61.856934,58.000000,Hold,-151644.000000,151552.000000,Suck,-2017.500000,2181.818182,Speed,-2175.000000,2181.818182,Speed,Off,On,0.000000,FALSE,0,,,,
07:33:10.237 PM 03/23/2016,Teleop Enabled,11,FALSE,0,NO ERROR,0.356656,136.655430,0.666966,-252.058911,FALSE,FALSE,FALSE,FALSE,FALSE,FALSE,Disabled,0.000000,0.000000,0.000000,TRUE,1.255188,-0.085587,0.000000,-0.086395,-1.115799,0.000000,-0.140000,-0.048000,-0.047000,-153.160000,-4.310000,1.060000,-143.194459,Hold,61.866211,58.000000,Hold,-151644.000000,151552.000000,Suck,-2085.000000,2181.818182,Speed,-2167.500000,2181.818182,Speed,Off,On,0.000000,FALSE,0,,,,
07:33:10.337 PM 03/23/2016,Teleop Enabled,11,FALSE,0,NO ERROR,0.407434,144.034580,0.616188,-260.670057,FALSE,FALSE,FALSE,FALSE,FALSE,FALSE,Disabled,0.000000,0.000000,0.000000,TRUE,1.247589,-0.119736,0.000000,-0.197052,-0.004272,0.000000,-0.169000,-0.039000,-0.043000,-150.830000,-3.490000,1.340000,-141.337567,Hold,61.849609,58.000000,Hold,-151644.000000,151552.000000,Suck,-1897.500000,2181.818182,Speed,-2160.000000,2181.818182,Speed,Off,On,0.000000,FALSE,0,,,,
