Time,Robot Mode,Loop Time,Error Status,Error Code,Error Source,Left Motor Output,Left Motor Encoder,Right Motor Output,Right Motor Encoder,Is Level,Is Stalled,Ball Detector Photoeye,Vision Enabled,Vision Teleop Control,Vision Auto Control,Vision Current State,Vision X Output,Vision NavX Error,Vision NavX Target,NavX Connection Status,NavX Displacement X,NavX Displacement Y,NavX Displacement Z,NavX Velocity X,NavX Velocity Y,NavX Velocity Z,NavX Acceleration X,NavX Acceleration Y,NavX Acceleration Z,NavX Pitch,NavX Yaw,NavX Roll,Gyro Angle,Roller Arm State,Roller Arm Actual,Roller Arm Desired,Shooter Arm State,Shooter Arm Actual,Shooter Arm Desired,Shooter State,Actual RPM Left,Desired RPM Left,Control Mode Left,Actual RPM Right,Desired RPM Right,Control Mode Right,Ball Shooter Cylinder,Ball Halo Cylinder,Scaler Motor Output,Scaler Solenoid Fire,Auto To Run,Auto Current File,Auto File Status,Auto Current Command,Auto Trimmed Command
09:43:46.507 AM 03/25/2016,Teleop Enabled,10,TRUE,-44003,<LOCATION>WPI_CameraIssue HTTP Request with Authentication.vi<CALLSTACK>WPI_CameraIssue HTTP Request with Authentication.vi< <WPI_CameraIssue Get.vi< <WPI_CameraSet Image Appearance Property.vi< <WPI_CameraSet Image Size.vi< <Vision Processing.vi< <Robot Main.vi,-0.000000,-0.019250,0.000000,-0.012833,TRUE,FALSE,FALSE,FALSE,FALSE,FALSE,Disabled,0.000000,0.000000,0.000000,TRUE,-5.126770,0.919556,0.000000,0.000000,0.000000,0.000000,0.000000,0.000000,0.006000,-0.410000,0.250000,1.160000,-0.070889,ResetBack,0.161133,-0.000049,ResetBack,-24743.000000,-0.250000,Suck,0.000000,2400.000000,Speed,0.000000,2400.000000,Speed,Off,On,0.000000,FALSE,0,,,,
09:43:46.608 AM 03/25/2016,Teleop Enabled,10,FALSE,0,NO ERROR,-0.000000,-0.019250,0.000000,-0.006417,TRUE,FALSE,FALSE,FALSE,FALSE,FALSE,Disabled,0.000000,0.000000,0.000000,TRUE,-5.126678,0.919632,0.000000,0.007278,0.007172,0.000000,0.013000,0.066000,0.105000,-0.410000,0.330000,1.160000,-0.045552,ResetBack,0.037842,-0.000049,ResetBack,-24557.000000,-0.250000,Suck,-60.000000,2400.000000,Speed,-135.000000,2400.000000,Speed,Off,On,0.000000,FALSE,0,,,,
09:43:46.709 AM 03/25/2016,Teleop Enabled,10,FALSE,0,NO ERROR,-0.000000,-0.019250,0.000000,-0.006417,TRUE,FALSE,FALSE,FALSE,FALSE,FALSE,Disabled,0.000000,0.000000,0.000000,TRUE,-5.126862,0.921021,0.000000,-0.002731,0.033432,0.000000,-0.045000,-0.091000,0.022000,-0.410000,0.290000,1.180000,-0.049618,ResetBack,-0.505859,-0.000049,ResetBack,-24557.000000,-0.250000,Suck,-405.000000,2400.000000,Speed,-855.000000,2400.000000,Speed,Off,On,0.000000,FALSE,0,,,,
09:43:46.811 AM 03/25/2016,Teleop Enabled,10,FALSE,0,NO ERROR,-0.000000,-0.019250,0.000000,-0.006417,TRUE,FALSE,FALSE,FALSE,FALSE,FALSE,Disabled,0.000000,0.000000,0.000000,TRUE,-5.127304,0.921661,0.000000,-0.005783,-0.003662,0.000000,-0.050000,0.040000,0.007000,-0.410000,0.310000,1.180000,-0.052909,Reset,-0.516846,-0.000049,ResetBack,-21403.000000,-0.250000,Suck,-997.500000,2400.000000,Speed,-1432.500000,2400.000000,Speed,Off,On,0.000000,FALSE,0,,,,
09:43:46.910 AM 03/25/2016,Teleop Enabled,10,FALSE,0,NO ERROR,-0.000000,-0.019250,0.000000,-0.006417,TRUE,FALSE,FALSE,FALSE,FALSE,FALSE,Disabled,0.000000,0.000000,0.000000,TRUE,-5.127808,0.921753,0.000000,0.000000,0.008743,0.000000,0.007000,-0.028000,-0.071000,-0.410000,0.330000,1.110000,-0.069378,Hold,-0.570068,0.000000,ResetBack,-16446.000000,-0.250000,Suck,-1552.500000,2400.000000,Speed,-1432.500000,2400.000000,Speed,Off,On,0.000000,FALSE,0,,,,
09:43:47.010 AM 03/25/2016,Teleop Enabled,10,FALSE,0,NO ERROR,-0.000000,-0.019250,0.000000,-0.006417,TRUE,FALSE,FALSE,FALSE,FALSE,FALSE,Disabled,0.000000,0.000000,0.000000,TRUE,-5.129578,0.923401,0.000000,-0.061157,0.049225,0.000000,-0.094000,0.021000,-0.051000,-0.410000,0.380000,1.120000,-0.057752,Hold,0.407959,0.000000,ResetBack,-10731.000000,-0.250000,Suck,-2025.000000,2400.000000,Speed,-2047.500000,2400.000000,Speed,Off,On,0.000000,FALSE,0,,,,
09:43:47.111 AM 03/25/2016,Teleop Enabled,10,FALSE,0,NO ERROR,-0.000000,-0.019250,0.000000,-0.006417,TRUE,FALSE,FALSE,FALSE,FALSE,FALSE,Disabled,0.000000,0.000000,0.000000,TRUE,-5.131180,0.923706,0.000000,-0.003616,-0.017609,0.000000,-0.014000,-0.052000,0.058000,-0.400000,0.380000,1.070000,-0.061081,Hold,0.407959,0.000000,ResetBack,-10731.000000,-0.250000,Suck,-2025.000000,2400.000000,Speed,-2475.000000,2400.000000,Speed,Off,On,0.000000,FALSE,0,,,,
09:43:47.212 AM 03/25/2016,Teleop Enabled,9,FALSE,0,NO ERROR,-0.000000,-0.019250,0.000000,-0.006417,TRUE,FALSE,FALSE,FALSE,FALSE,FALSE,Disabled,0.000000,0.000000,0.000000,TRUE,-5.131058,0.921814,0.000000,-0.009842,0.006744,0.000000,-0.010000,-0.198000,-0.134000,-0.410000,0.390000,0.990000,-0.056492,Hold,0.407959,0.000000,ResetBack,-5797.000000,-0.250000,Suck,-2407.500000,2400.000000,Speed,-2505.000000,2400.000000,Speed,Off,On,0.000000,FALSE,0,,,,
09:43:47.313 AM 03/25/2016,Teleop Enabled,10,FALSE,0,NO ERROR,-0.173228,-0.019250,0.173228,-0.006417,TRUE,FALSE,FALSE,FALSE,FALSE,FALSE,Disabled,0.000000,0.000000,0.000000,TRUE,-5.130981,0.921570,0.000000,0.012833,0.004364,0.000000,-0.089000,0.055000,-0.048000,-0.410000,0.350000,1.020000,-0.061667,Hold,0.407959,0.000000,ResetBack,-1958.000000,-0.250000,Suck,-2482.500000,2400.000000,Speed,-2422.500000,2400.000000,Speed,Off,On,0.000000,FALSE,0,,,,
09:43:47.414 AM 03/25/2016,Teleop Enabled,10,FALSE,0,NO ERROR,-0.346457,-0.301583,0.346457,-0.083416,TRUE,FALSE,FALSE,FALSE,FALSE,FALSE,Disabled,0.000000,0.000000,0.000000,TRUE,-5.130386,0.924011,0.000000,0.031769,0.087891,0.000000,0.171000,0.137000,0.057000,-0.410000,0.380000,1.090000,-0.016080,Hold,0.407959,0.000000,ResetBack,711.000000,-0.250000,Suck,-2362.500000,2400.000000,Speed,-2400.000000,2400.000000,Speed,Off,On,-0.072441,FALSE,0,,,,
09:43:47.514 AM 03/25/2016,Teleop Enabled,10,FALSE,0,NO ERROR,-0.000000,-0.930414,0.000000,-0.699415,TRUE,FALSE,FALSE,FALSE,FALSE,FALSE,Disabled,0.000000,0.000000,0.000000,TRUE,-5.126648,0.928986,0.000000,0.103226,0.067352,0.000000,0.105000,0.026000,0.431000,1.670000,0.490000,1.530000,1.847624,Hold,0.407959,0.000000,ResetBack,2023.000000,-0.250000,Suck,-2287.500000,2400.000000,Speed,-2415.000000,2400.000000,Speed,Off,On,-0.200000,FALSE,0,,,,
09:43:47.614 AM 03/25/2016,Teleop Enabled,10,FALSE,0,NO ERROR,-0.000000,-1.283330,0.000000,-0.898331,TRUE,FALSE,FALSE,FALSE,FALSE,FALSE,Disabled,0.000000,0.000000,0.000000,TRUE,-5.119797,0.929459,0.000000,0.105560,-0.058289,0.000000,-0.261000,-0.103000,-0.063000,3.560000,0.250000,0.730000,4.102218,Hold,0.408203,0.000000,ResetBack,2266.000000,-0.250000,Suck,-2287.500000,2400.000000,Speed,-2407.500000,2400.000000,Speed,Off,On,-0.200000,FALSE,0,,,,
09:43:47.714 AM 03/25/2016,Teleop Enabled,10,FALSE,0,NO ERROR,-0.000000,-1.129331,0.000000,-0.699415,TRUE,FALSE,FALSE,FALSE,FALSE,FALSE,Disabled,0.000000,0.000000,0.000000,TRUE,-5.119370,0.929276,0.000000,0.035095,0.000000,0.000000,-0.036000,0.010000,0.074000,2.530000,0.360000,1.240000,3.081406,Hold,0.408203,0.000000,ResetBack,2873.000000,-0.250000,Suck,-2265.000000,2400.000000,Speed,-2407.500000,2400.000000,Speed,Off,On,-0.192126,FALSE,0,,,,
09:43:47.816 AM 03/25/2016,Teleop Enabled,9,FALSE,0,NO ERROR,-0.000000,-1.116497,0.000000,-0.692998,TRUE,FALSE,FALSE,FALSE,FALSE,FALSE,Disabled,0.000000,0.000000,0.000000,TRUE,-5.119492,0.929871,0.000000,-0.028885,0.049881,0.000000,-0.152000,0.176000,0.003000,2.500000,0.350000,1.080000,2.976295,Hold,0.408203,0.000000,Reset,2873.000000,2.000000,Suck,-2272.500000,2400.000000,Speed,-2415.000000,2400.000000,Speed,Off,On,0.000000,FALSE,0,,,,
09:43:47.916 AM 03/25/2016,Teleop Enabled,10,FALSE,0,NO ERROR,-0.000000,-1.116497,0.000000,-0.692998,TRUE,FALSE,FALSE,FALSE,FALSE,FALSE,Disabled,0.000000,0.000000,0.000000,TRUE,-5.123489,0.931122,0.000000,-0.044724,-0.093719,0.000000,-0.092000,0.087000,0.172000,2.470000,0.370000,1.050000,2.946279,Hold,0.408203,0.000000,Hold,-57.000000,2.000000,Suck,-2302.500000,2400.000000,Speed,-2415.000000,2400.000000,Speed,Off,On,0.000000,FALSE,0,,,,
09:43:48.016 AM 03/25/2016,Teleop Enabled,10,FALSE,0,NO ERROR,-0.000000,-1.116497,0.000000,-0.692998,TRUE,FALSE,FALSE,FALSE,FALSE,FALSE,Disabled,0.000000,0.000000,0.000000,TRUE,-5.124939,0.927414,0.000000,-0.006790,-0.051987,0.000000,0.069000,-0.061000,-0.258000,2.490000,0.350000,1.090000,2.970996,Hold,0.408203,0.000000,Hold,-147.000000,2.000000,Suck,-2265.000000,2400.000000,Speed,-2415.000000,2400.000000,Speed,Off,On,0.000000,FALSE,0,,,,
09:43:48.115 AM 03/25/2016,Teleop Enabled,11,FALSE,0,NO ERROR,-0.000000,-1.116497,0.000000,-0.692998,TRUE,FALSE,FALSE,FALSE,FALSE,FALSE,Disabled,0.000000,0.000000,0.000000,TRUE,-5.125412,0.923416,0.000000,-0.010620,-0.075104,0.000000,0.120000,0.071000,-0.419000,2.490000,0.320000,1.080000,2.987961,Hold,0.408203,0.000000,Hold,-147.000000,2.000000,Suck,-2257.500000,2400.000000,Speed,-2407.500000,2400.000000,Speed,Off,On,0.000000,FALSE,0,,,,
09:43:48.216 AM 03/25/2016,Teleop Enabled,11,FALSE,0,NO ERROR,-0.000000,-1.116497,0.000000,-0.692998,TRUE,FALSE,FALSE,FALSE,FALSE,FALSE,Disabled,0.000000,0.000000,0.000000,TRUE,-5.126633,0.923035,0.000000,-0.057739,0.047516,0.000000,0.039000,0.207000,0.005000,2.480000,0.210000,1.120000,2.970766,Hold,0.408203,50.000000,Hold,-147.000000,139264.000000,Suck,-2287.500000,2400.000000,Speed,-2415.000000,2400.000000,Speed,Off,On,0.000000,FALSE,0,,,,
09:43:48.317 AM 03/25/2016,Teleop Enabled,9,FALSE,0,NO ERROR,-0.000000,-1.116497,0.000000,-0.692998,TRUE,FALSE,FALSE,FALSE,FALSE,FALSE,Disabled,0.000000,0.000000,0.000000,TRUE,-5.129227,0.926163,0.000000,-0.070831,0.076416,0.000000,-0.085000,0.190000,0.329000,2.490000,0.360000,1.110000,2.964122,Hold,3.319824,50.000000,Hold,-6105.000000,139264.000000,Suck,-2265.000000,2400.000000,Speed,-2415.000000,2400.000000,Speed,Off,On,0.000000,FALSE,0,,,,
09:43:48.417 AM 03/25/2016,Teleop Enabled,9,FALSE,0,NO ERROR,-0.000000,-1.116497,0.000000,-0.692998,TRUE,FALSE,FALSE,FALSE,FALSE,FALSE,Disabled,0.000000,0.000000,0.000000,TRUE,-5.133530,0.930496,0.000000,-0.095261,0.075821,0.000000,-0.034000,-0.188000,0.068000,2.500000,0.270000,1.160000,2.982419,Hold,5.832520,50.000000,Hold,-18546.000000,139264.000000,Suck,-2242.500000,2400.000000,Speed,-2415.000000,2400.000000,Speed,Off,On,0.000000,FALSE,0,,,,
09:43:48.517 AM 03/25/2016,Teleop Enabled,8,FALSE,0,NO ERROR,-0.000000,-1.116497,0.000000,-0.692998,TRUE,FALSE,FALSE,FALSE,FALSE,FALSE,Disabled,0.000000,0.000000,0.000000,TRUE,-5.138596,0.931213,0.000000,-0.073929,-0.017654,0.000000,0.043000,-0.117000,0.178000,2.480000,0.130000,1.190000,2.960535,Hold,9.572998,50.000000,Hold,-18546.000000,139264.000000,Suck,-2242.500000,2400.000000,Speed,-2400.000000,2400.000000,Speed,Off,On,0.000000,FALSE,0,,,,
09:43:48.617 AM 03/25/2016,Teleop Enabled,10,FALSE,0,NO ERROR,-0.000000,-1.110081,0.000000,-0.692998,TRUE,FALSE,FALSE,FALSE,FALSE,FALSE,Disabled,0.000000,0.000000,0.000000,TRUE,-5.139648,0.928848,0.000000,0.017288,-0.058777,0.000000,0.008000,-0.017000,-0.029000,2.530000,0.180000,1.170000,3.018111,Hold,13.097168,50.000000,Hold,-30545.000000,139264.000000,Suck,-2250.000000,2400.000000,Speed,-2385.000000,2400.000000,Speed,Off,On,0.000000,FALSE,0,,,,
09:43:48.717 AM 03/25/2016,Teleop Enabled,10,FALSE,0,NO ERROR,-0.000000,-1.110081,0.000000,-0.692998,TRUE,FALSE,FALSE,FALSE,FALSE,FALSE,Disabled,0.000000,0.000000,0.000000,TRUE,-5.138931,0.923126,0.000000,-0.008087,-0.110352,0.000000,-0.022000,0.029000,-0.123000,2.490000,0.160000,1.240000,2.985369,Hold,18.056396,50.000000,Hold,-40797.000000,139264.000000,Suck,-2212.500000,2400.000000,Speed,-2385.000000,2400.000000,Speed,Off,On,0.000000,FALSE,0,,,,
09:43:48.817 AM 03/25/2016,Teleop Enabled,10,FALSE,0,NO ERROR,-0.000000,-1.110081,0.000000,-0.692998,TRUE,FALSE,FALSE,FALSE,FALSE,FALSE,Disabled,0.000000,0.000000,0.000000,TRUE,-5.140854,0.917786,0.000000,-0.045029,-0.108093,0.000000,-0.046000,0.040000,-0.279000,2.520000,0.220000,1.240000,3.012455,Hold,23.993652,50.000000,Hold,-52839.000000,139264.000000,Suck,-2235.000000,2400.000000,Speed,-2377.500000,2400.000000,Speed,Off,On,0.000000,FALSE,0,,,,
09:43:48.917 AM 03/25/2016,Teleop Enabled,10,FALSE,0,NO ERROR,-0.000000,-1.103664,0.000000,-0.667332,TRUE,FALSE,FALSE,FALSE,FALSE,FALSE,Disabled,0.000000,0.000000,0.000000,TRUE,-5.141708,0.913010,0.000000,-0.019058,-0.065048,0.000000,-0.232000,0.320000,-0.327000,2.480000,-0.030000,1.120000,2.973086,Hold,30.888184,50.000000,Hold,-65819.000000,139264.000000,Suck,-2235.000000,2400.000000,Speed,-2392.500000,2400.000000,Speed,Off,On,0.000000,FALSE,0,,,,
09:43:49.017 AM 03/25/2016,Teleop Enabled,10,FALSE,0,NO ERROR,-0.000000,-1.103664,0.000000,-0.551832,TRUE,FALSE,FALSE,FALSE,FALSE,FALSE,Disabled,0.000000,0.000000,0.000000,TRUE,-5.145645,0.914856,0.000000,-0.106354,0.055984,0.000000,0.044000,0.041000,0.036000,2.350000,-0.080000,1.150000,2.841680,Hold,38.545898,50.000000,Hold,-83579.000000,139264.000000,Suck,-2272.500000,2400.000000,Speed,-2400.000000,2400.000000,Speed,Off,On,0.000000,FALSE,0,,,,
09:43:49.117 AM 03/25/2016,Teleop Enabled,10,FALSE,0,NO ERROR,-0.000000,-1.103664,0.000000,-0.545415,TRUE,FALSE,FALSE,FALSE,FALSE,FALSE,Disabled,0.000000,0.000000,0.000000,TRUE,-5.148254,0.915573,0.000000,-0.029968,0.021271,0.000000,-0.144000,0.036000,-0.026000,2.350000,-0.380000,1.140000,2.840317,Hold,48.652100,50.000000,Hold,-83579.000000,139264.000000,Suck,-2467.500000,2400.000000,Speed,-2400.000000,2400.000000,Speed,Off,On,0.000000,FALSE,0,,,,
09:43:49.217 AM 03/25/2016,Teleop Enabled,9,FALSE,0,NO ERROR,-0.000000,-1.103664,0.000000,-0.519749,TRUE,FALSE,FALSE,FALSE,FALSE,FALSE,Disabled,0.000000,0.000000,0.000000,TRUE,-5.152115,0.917053,0.000000,-0.071640,0.014084,0.000000,-0.144000,0.036000,-0.026000,2.340000,-0.570000,1.230000,2.811324,Hold,54.441406,50.000000,Hold,-100133.000000,139264.000000,Suck,-2475.000000,2400.000000,Speed,-2407.500000,2400.000000,Speed,Off,On,0.000000,FALSE,0,,,,
09:43:49.317 AM 03/25/2016,Teleop Enabled,9,FALSE,0,NO ERROR,-0.000000,-1.103664,0.000000,-0.519749,TRUE,FALSE,FALSE,FALSE,FALSE,FALSE,Disabled,0.000000,0.000000,0.000000,TRUE,-5.156372,0.918152,0.000000,-0.090652,-0.007111,0.000000,-0.038000,-0.027000,-0.162000,2.310000,-0.270000,1.220000,2.784117,Hold,54.828857,50.000000,Hold,-118778.000000,139264.000000,Suck,-2415.000000,2400.000000,Speed,-2407.500000,2400.000000,Speed,Off,On,0.000000,FALSE,0,,,,
09:43:49.418 AM 03/25/2016,Teleop Enabled,10,FALSE,0,NO ERROR,-0.000000,-1.103664,0.000000,-0.519749,TRUE,FALSE,FALSE,FALSE,FALSE,FALSE,Disabled,0.000000,0.000000,0.000000,TRUE,-5.157715,0.914139,0.000000,-0.029526,-0.104034,0.000000,0.293000,-0.272000,0.261000,2.310000,-0.130000,1.150000,2.754308,Hold,54.745361,50.000000,Hold,-137913.000000,139264.000000,Suck,-2400.000000,2400.000000,Speed,-2400.000000,2400.000000,Speed,Off,On,0.000000,FALSE,0,,,,
09:43:49.518 AM 03/25/2016,Teleop Enabled,10,FALSE,0,NO ERROR,-0.000000,-1.103664,0.000000,-0.519749,TRUE,FALSE,FALSE,FALSE,FALSE,FALSE,Disabled,0.000000,0.000000,0.000000,TRUE,-5.158981,0.909775,0.000000,-0.047562,-0.064072,0.000000,0.255000,-0.081000,-0.106000,2.300000,-0.070000,1.140000,2.747881,Hold,54.745361,50.000000,Hold,-139843.000000,139264.000000,Suck,-2400.000000,2400.000000,Speed,-2407.500000,2400.000000,Speed,Off,On,0.000000,FALSE,0,,,,
09:43:49.619 AM 03/25/2016,Teleop Enabled,10,FALSE,0,NO ERROR,-0.000000,-1.103664,0.000000,-0.519749,TRUE,FALSE,FALSE,FALSE,FALSE,FALSE,Disabled,0.000000,0.000000,0.000000,TRUE,-5.160004,0.904358,0.000000,-0.020859,-0.118317,0.000000,0.255000,-0.081000,-0.106000,2.300000,-0.070000,1.070000,2.755554,Hold,54.745117,50.000000,Hold,-139456.000000,139264.000000,Suck,-2415.000000,2400.000000,Speed,-2415.000000,2400.000000,Speed,Off,On,0.000000,FALSE,0,,,,
09:43:49.720 AM 03/25/2016,Teleop Enabled,11,FALSE,0,NO ERROR,-0.000000,-1.103664,0.000000,-0.519749,TRUE,FALSE,FALSE,FALSE,FALSE,FALSE,Disabled,0.000000,0.000000,0.000000,TRUE,-5.161499,0.900497,0.000000,-0.039703,-0.077576,0.000000,0.244000,0.042000,0.252000,2.290000,0.000000,1.080000,2.746765,Hold,54.745117,50.000000,Hold,-139306.000000,139264.000000,Suck,-2430.000000,2400.000000,Speed,-2400.000000,2400.000000,Speed,Off,On,0.000000,FALSE,0,,,,
09:43:49.819 AM 03/25/2016,Teleop Enabled,8,FALSE,0,NO ERROR,-0.188976,-1.103664,0.188976,-0.519749,TRUE,FALSE,FALSE,FALSE,FALSE,FALSE,Disabled,0.000000,0.000000,0.000000,TRUE,-5.163879,0.898438,0.000000,-0.058731,-0.011307,0.000000,0.244000,0.042000,0.252000,2.290000,0.020000,1.100000,2.755544,Hold,54.745117,50.000000,Hold,-139306.000000,139264.000000,Suck,-2422.500000,2400.000000,Speed,-2385.000000,2400.000000,Speed,Off,On,0.000000,FALSE,0,,,,
09:43:49.919 AM 03/25/2016,Teleop Enabled,10,FALSE,0,NO ERROR,-0.244094,-1.244830,0.244094,-0.776415,TRUE,FALSE,FALSE,FALSE,FALSE,FALSE,Disabled,0.000000,0.000000,0.000000,TRUE,-5.166092,0.897537,0.000000,-0.021118,-0.010971,0.000000,-0.019000,-0.129000,0.111000,2.560000,0.000000,1.250000,3.279398,Hold,54.745117,50.000000,Hold,-139308.000000,139264.000000,Suck,-2422.500000,2400.000000,Speed,-2385.000000,2400.000000,Speed,Off,On,0.000000,FALSE,0,,,,
09:43:50.019 AM 03/25/2016,Teleop Enabled,10,FALSE,0,NO ERROR,-0.000000,-1.347497,0.000000,-0.904748,TRUE,FALSE,FALSE,FALSE,FALSE,FALSE,Disabled,0.000000,0.000000,0.000000,TRUE,-5.166580,0.896896,0.000000,-0.023148,-0.034439,0.000000,0.017000,0.000000,-0.073000,2.560000,0.000000,1.250000,3.978375,Hold,54.745117,50.000000,Hold,-139308.000000,139264.000000,Suck,-2422.500000,2400.000000,Speed,-2385.000000,2400.000000,Speed,Off,On,0.000000,FALSE,0,,,,
09:43:50.119 AM 03/25/2016,Teleop Enabled,9,FALSE,0,NO ERROR,-0.000000,-1.167831,0.000000,-0.789248,TRUE,FALSE,FALSE,FALSE,FALSE,FALSE,Disabled,0.000000,0.000000,0.000000,TRUE,-5.169113,0.892365,0.000000,-0.032440,-0.103210,0.000000,-0.180000,-0.133000,0.191000,3.460000,-0.080000,1.070000,3.234359,Hold,54.745117,50.000000,Hold,-139308.000000,139264.000000,Suck,-2407.500000,2400.000000,Speed,-2377.500000,2400.000000,Speed,Off,On,0.000000,FALSE,0,,,,
09:43:50.220 AM 03/25/2016,Teleop Enabled,10,FALSE,0,NO ERROR,-0.000000,-1.161414,0.000000,-0.782832,TRUE,FALSE,FALSE,FALSE,FALSE,FALSE,Disabled,0.000000,0.000000,0.000000,TRUE,-5.170486,0.889587,0.000000,-0.035095,-0.026031,0.000000,0.216000,0.065000,-0.160000,2.740000,-0.120000,1.070000,3.309383,Hold,54.745117,50.000000,Hold,-139309.000000,139264.000000,Suck,-2415.000000,2400.000000,Speed,-2400.000000,2400.000000,Speed,Off,On,0.000000,FALSE,0,,,,
09:43:50.319 AM 03/25/2016,Teleop Enabled,10,FALSE,0,NO ERROR,-0.000000,-1.161414,0.000000,-0.782832,TRUE,FALSE,FALSE,FALSE,FALSE,FALSE,Disabled,0.000000,0.000000,0.000000,TRUE,-5.171036,0.885864,0.000000,0.016724,-0.023193,0.000000,0.079000,-0.197000,0.158000,2.800000,0.060000,1.180000,3.261752,Hold,54.730225,50.000000,Hold,-139311.000000,139264.000000,Suck,-2415.000000,2400.000000,Speed,-2415.000000,2400.000000,Speed,Off,On,0.000000,FALSE,0,,,,
09:43:50.420 AM 03/25/2016,Teleop Enabled,10,FALSE,0,NO ERROR,-0.000000,-1.161414,0.000000,-0.782832,TRUE,FALSE,FALSE,FALSE,FALSE,FALSE,Disabled,0.000000,0.000000,0.000000,TRUE,-5.170807,0.885010,0.000000,0.000122,-0.061386,0.000000,-0.036000,0.111000,-0.371000,2.740000,0.030000,1.090000,3.292642,Hold,54.729980,50.000000,Hold,-139311.000000,139264.000000,Suck,-2415.000000,2400.000000,Speed,-2422.500000,2400.000000,Speed,Off,On,0.000000,FALSE,0,,,,
09:43:50.520 AM 03/25/2016,Teleop Enabled,10,FALSE,0,NO ERROR,-0.000000,-1.161414,0.000000,-0.782832,TRUE,FALSE,FALSE,FALSE,FALSE,FALSE,Disabled,0.000000,0.000000,0.000000,TRUE,-5.170807,0.885010,0.000000,0.000122,-0.061386,0.000000,0.036000,-0.110000,0.457000,2.760000,0.000000,1.110000,3.288311,Hold,54.729980,50.000000,Hold,-139311.000000,139264.000000,Suck,-2422.500000,2400.000000,Speed,-2407.500000,2400.000000,Speed,Off,On,0.000000,FALSE,0,,,,
09:43:50.621 AM 03/25/2016,Teleop Enabled,10,FALSE,0,NO ERROR,-0.000000,-1.154997,0.000000,-0.782832,TRUE,FALSE,FALSE,FALSE,FALSE,FALSE,Disabled,0.000000,0.000000,0.000000,TRUE,-5.170517,0.880829,0.000000,-0.018448,-0.015549,0.000000,-0.245000,0.188000,-0.332000,2.750000,0.000000,1.080000,3.307210,Hold,54.729980,50.000000,Hold,-139312.000000,139264.000000,Suck,-2422.500000,2400.000000,Speed,-2407.500000,2400.000000,Speed,Off,On,0.000000,FALSE,0,,,,
09:43:50.721 AM 03/25/2016,Teleop Enabled,9,FALSE,0,NO ERROR,-0.000000,-1.103664,0.000000,-0.782832,TRUE,FALSE,FALSE,FALSE,FALSE,FALSE,Disabled,0.000000,0.000000,0.000000,TRUE,-5.171310,0.879425,0.000000,0.013687,-0.040573,0.000000,0.114000,0.068000,0.085000,2.770000,-0.020000,1.120000,3.353702,Hold,54.205811,50.000000,Hold,-139312.000000,139264.000000,Suck,-2415.000000,2400.000000,Speed,-2407.500000,2400.000000,Speed,Off,On,0.000000,FALSE,0,,,,
09:43:50.822 AM 03/25/2016,Teleop Enabled,10,FALSE,0,NO ERROR,-0.000000,-1.103664,0.000000,-0.782832,TRUE,FALSE,FALSE,FALSE,FALSE,FALSE,Disabled,0.000000,0.000000,0.000000,TRUE,-5.169540,0.880615,0.000000,0.022812,0.071732,0.000000,0.050000,-0.141000,0.022000,2.790000,0.070000,1.110000,3.224152,Hold,53.589600,50.000000,Hold,-139313.000000,139264.000000,Suck,-2407.500000,2400.000000,Speed,-2407.500000,2400.000000,Speed,Off,On,0.000000,FALSE,0,,,,
09:43:50.922 AM 03/25/2016,Teleop Enabled,10,FALSE,0,NO ERROR,-0.000000,-1.103664,0.000000,-0.776415,TRUE,FALSE,TRUE,FALSE,FALSE,FALSE,Disabled,0.000000,0.000000,0.000000,TRUE,-5.167770,0.879532,0.000000,0.060654,-0.083069,0.000000,0.137000,0.026000,0.004000,2.710000,0.000000,1.100000,3.209772,Hold,52.771484,50.000000,Hold,-139314.000000,139264.000000,Suck,-2212.500000,2400.000000,Speed,-2092.500000,2400.000000,Speed,Off,Off,0.000000,FALSE,0,,,,
09:43:51.022 AM 03/25/2016,Teleop Enabled,9,FALSE,0,NO ERROR,-0.000000,-1.103664,0.000000,-0.776415,TRUE,FALSE,TRUE,FALSE,FALSE,FALSE,Disabled,0.000000,0.000000,0.000000,TRUE,-5.160492,0.876633,0.000000,0.171783,-0.057251,0.000000,-0.174000,0.014000,-0.016000,2.680000,-0.010000,1.060000,3.209772,Hold,53.173828,50.000000,Hold,-139314.000000,139264.000000,Suck,-1020.000000,2400.000000,Speed,-1020.000000,2400.000000,Speed,Off,Off,0.000000,FALSE,0,,,,
09:43:51.124 AM 03/25/2016,Teleop Enabled,10,FALSE,0,NO ERROR,-0.000000,-1.103664,0.000000,-0.776415,TRUE,FALSE,TRUE,FALSE,FALSE,FALSE,Disabled,0.000000,0.000000,0.000000,TRUE,-5.154221,0.874100,0.000000,0.103500,-0.040359,0.000000,-0.002000,0.059000,-0.010000,2.680000,-0.220000,1.090000,3.196257,Hold,53.286621,50.000000,Hold,-139314.000000,139264.000000,Suck,-1560.000000,2400.000000,Speed,-1650.000000,2400.000000,Speed,Off,Off,0.000000,FALSE,0,,,,
09:43:51.224 AM 03/25/2016,Teleop Enabled,10,FALSE,0,NO ERROR,-0.000000,-1.103664,0.000000,-0.776415,TRUE,FALSE,TRUE,FALSE,FALSE,FALSE,Disabled,0.000000,0.000000,0.000000,TRUE,-5.151794,0.873672,0.000000,0.013947,-0.002289,0.000000,-0.104000,-0.007000,0.093000,2.670000,-0.310000,1.160000,3.193169,Hold,53.286865,50.000000,Hold,-139314.000000,139264.000000,Suck,-1987.500000,2400.000000,Speed,-2227.500000,2400.000000,Speed,Off,Off,0.000000,FALSE,0,,,,
09:43:51.324 AM 03/25/2016,Teleop Enabled,10,FALSE,0,NO ERROR,-0.000000,-1.103664,0.000000,-0.776415,TRUE,FALSE,TRUE,FALSE,FALSE,FALSE,Disabled,0.000000,0.000000,0.000000,TRUE,-5.153549,0.873611,0.000000,-0.065659,0.003632,0.000000,0.031000,-0.076000,0.196000,2.670000,-0.320000,1.140000,3.191121,Hold,53.286865,50.000000,Hold,-139314.000000,139264.000000,Suck,-2407.500000,2400.000000,Speed,-2520.000000,2400.000000,Speed,Off,Off,0.000000,FALSE,0,,,,
09:43:51.424 AM 03/25/2016,Teleop Enabled,10,FALSE,0,NO ERROR,-0.000000,-1.103664,0.000000,-0.776415,TRUE,FALSE,TRUE,FALSE,FALSE,FALSE,Disabled,0.000000,0.000000,0.000000,TRUE,-5.156509,0.873734,0.000000,-0.039566,-0.004669,0.000000,-0.142000,0.136000,-0.067000,2.670000,-0.260000,1.110000,3.187888,Hold,53.286865,50.000000,Hold,-139315.000000,139264.000000,Suck,-2520.000000,2400.000000,Speed,-2505.000000,2400.000000,Speed,Off,Off,0.000000,FALSE,0,,,,
09:43:51.524 AM 03/25/2016,Teleop Enabled,9,FALSE,0,NO ERROR,-0.000000,-1.103664,0.000000,-0.776415,TRUE,FALSE,TRUE,FALSE,FALSE,FALSE,Disabled,0.000000,0.000000,0.000000,TRUE,-5.157379,0.873947,0.000000,0.005112,-0.014740,0.000000,0.066000,0.086000,0.138000,2.660000,0.000000,1.090000,3.190336,Hold,53.286865,50.000000,Hold,-139315.000000,139264.000000,Suck,-2437.500000,2400.000000,Speed,-2415.000000,2400.000000,Speed,Off,Off,0.000000,FALSE,0,,,,
09:43:51.624 AM 03/25/2016,Teleop Enabled,10,FALSE,0,NO ERROR,-0.000000,-1.103664,0.000000,-0.776415,TRUE,FALSE,TRUE,FALSE,FALSE,FALSE,Disabled,0.000000,0.000000,0.000000,TRUE,-5.156738,0.874557,0.000000,0.011444,0.038147,0.000000,-0.082000,-0.089000,0.030000,2.660000,0.000000,1.080000,3.207538,Hold,53.286865,50.000000,Hold,-139315.000000,139264.000000,Suck,-2392.500000,2400.000000,Speed,-2400.000000,2400.000000,Speed,Off,Off,0.000000,FALSE,0,,,,
09:43:51.725 AM 03/25/2016,Teleop Enabled,10,FALSE,0,NO ERROR,-0.000000,-1.103664,0.000000,-0.776415,TRUE,FALSE,TRUE,FALSE,FALSE,FALSE,Disabled,0.000000,0.000000,0.000000,TRUE,-5.155838,0.875061,0.000000,0.023911,0.000671,0.000000,-0.167000,0.089000,0.001000,2.660000,-0.080000,1.160000,3.213311,Hold,53.286865,50.000000,Hold,-139315.000000,139264.000000,Suck,-2407.500000,2400.000000,Speed,-2422.500000,2400.000000,Speed,Off,Off,0.000000,FALSE,0,,,,
09:43:51.825 AM 03/25/2016,Teleop Enabled,11,FALSE,0,NO ERROR,-0.000000,-1.103664,0.000000,-0.776415,TRUE,FALSE,TRUE,FALSE,FALSE,FALSE,Disabled,0.000000,0.000000,0.000000,TRUE,-5.155579,0.875916,0.000000,-0.001617,0.045044,0.000000,-0.224000,-0.114000,-0.063000,2.660000,-0.150000,1.140000,3.219002,Hold,53.286865,50.000000,Hold,-139315.000000,139264.000000,Suck,-2422.500000,2400.000000,Speed,-2437.500000,2400.000000,Speed,Off,Off,0.000000,FALSE,0,,,,
09:43:51.924 AM 03/25/2016,Teleop Enabled,10,FALSE,0,NO ERROR,-0.000000,-1.103664,0.000000,-0.776415,TRUE,FALSE,TRUE,FALSE,FALSE,FALSE,Disabled,0.000000,0.000000,0.000000,TRUE,-5.155807,0.877090,0.000000,0.016861,0.000717,0.000000,0.213000,-0.020000,-0.194000,2.660000,-0.120000,1.120000,3.220365,Hold,53.286865,50.000000,Hold,-139315.000000,139264.000000,Suck,-2422.500000,2400.000000,Speed,-2430.000000,2400.000000,Speed,Off,Off,0.000000,FALSE,0,,,,
09:43:52.024 AM 03/25/2016,Teleop Enabled,10,FALSE,0,NO ERROR,-0.000000,-1.103664,0.000000,-0.776415,TRUE,FALSE,TRUE,FALSE,FALSE,FALSE,Disabled,0.000000,0.000000,0.000000,TRUE,-5.155334,0.878693,0.000000,-0.012711,0.043396,0.000000,0.108000,-0.140000,0.209000,2.660000,0.030000,1.140000,3.221191,Hold,53.286865,50.000000,Hold,-139315.000000,139264.000000,Suck,-2422.500000,2400.000000,Speed,-2415.000000,2400.000000,Speed,Off,Off,0.000000,FALSE,0,,,,
09:43:52.124 AM 03/25/2016,Teleop Enabled,9,FALSE,0,NO ERROR,-0.000000,-1.103664,0.000000,-0.776415,TRUE,FALSE,TRUE,FALSE,FALSE,FALSE,Disabled,0.000000,0.000000,0.000000,TRUE,-5.155029,0.879028,0.000000,0.009125,0.003952,0.000000,-0.149000,0.136000,-0.019000,2.660000,-0.050000,1.120000,3.236738,Hold,53.286865,50.000000,Hold,-139316.000000,139264.000000,Hold,-2415.000000,0.000000,Speed,-2422.500000,0.000000,Speed,Off,Off,0.000000,FALSE,0,,,,
09:43:52.224 AM 03/25/2016,Teleop Enabled,10,FALSE,0,NO ERROR,-0.000000,-1.103664,0.000000,-0.776415,TRUE,FALSE,TRUE,FALSE,FALSE,FALSE,Disabled,0.000000,0.000000,0.000000,TRUE,-5.154770,0.880936,0.000000,0.012802,0.030884,0.000000,-0.093000,-0.025000,0.230000,2.660000,0.040000,1.150000,3.229119,Hold,53.286865,50.000000,Hold,-139316.000000,139264.000000,Hold,-2392.500000,0.000000,Speed,-2407.500000,0.000000,Speed,Off,Off,0.000000,FALSE,0,,,,
09:43:52.324 AM 03/25/2016,Teleop Enabled,10,FALSE,0,NO ERROR,-0.000000,-1.103664,0.000000,-0.776415,TRUE,FALSE,TRUE,FALSE,FALSE,FALSE,Disabled,0.000000,0.000000,0.000000,TRUE,-5.153275,0.881256,0.000000,0.011963,0.017151,0.000000,-0.087000,0.060000,-0.166000,2.660000,0.040000,1.100000,3.234077,Hold,53.286865,50.000000,Hold,-139316.000000,139264.000000,Hold,-2325.000000,0.000000,Speed,-2340.000000,0.000000,Speed,Off,Off,0.000000,FALSE,0,,,,
09:43:52.424 AM 03/25/2016,Teleop Enabled,10,FALSE,0,NO ERROR,-0.000000,-1.103664,0.000000,-0.776415,TRUE,FALSE,TRUE,FALSE,FALSE,FALSE,Disabled,0.000000,0.000000,0.000000,TRUE,-5.153870,0.882843,0.000000,-0.023453,0.066544,0.000000,-0.032000,0.197000,-0.031000,2.660000,0.020000,1.070000,3.238235,Hold,53.286865,50.000000,Hold,-139316.000000,139264.000000,Hold,-2205.000000,0.000000,Speed,-2197.500000,0.000000,Speed,Off,Off,0.000000,FALSE,0,,,,
09:43:52.524 AM 03/25/2016,Teleop Enabled,9,FALSE,0,NO ERROR,-0.000000,-1.103664,0.000000,-0.776415,TRUE,FALSE,TRUE,FALSE,FALSE,FALSE,Disabled,0.000000,0.000000,0.000000,TRUE,-5.153244,0.892761,0.000000,0.020798,0.175415,0.000000,0.102000,0.054000,-0.033000,2.660000,0.090000,1.040000,3.250759,Hold,53.286865,50.000000,Hold,-139316.000000,139264.000000,Hold,-2062.500000,0.000000,Speed,-2107.500000,0.000000,Speed,Off,Off,0.000000,FALSE,0,,,,
09:43:52.624 AM 03/25/2016,Teleop Enabled,11,FALSE,0,NO ERROR,-0.000000,-1.103664,0.000000,-0.776415,TRUE,FALSE,TRUE,FALSE,FALSE,FALSE,Disabled,0.000000,0.000000,0.000000,TRUE,-5.152328,0.902985,0.000000,0.012772,0.222549,0.000000,-0.180000,-0.024000,0.132000,2.660000,0.070000,1.090000,3.247114,Hold,53.286865,50.000000,Hold,-139316.000000,139264.000000,Hold,-1972.500000,0.000000,Speed,-1972.500000,0.000000,Speed,Off,Off,0.000000,FALSE,0,,,,
09:43:52.725 AM 03/25/2016,Teleop Enabled,10,FALSE,0,NO ERROR,-0.000000,-1.103664,0.000000,-0.776415,TRUE,FALSE,TRUE,FALSE,FALSE,FALSE,Disabled,0.000000,0.000000,0.000000,TRUE,-5.152466,0.913727,0.000000,0.016022,0.210556,0.000000,0.082000,0.027000,0.117000,2.660000,0.000000,1.080000,3.252460,Hold,53.286865,50.000000,Hold,-139316.000000,139264.000000,Hold,-1860.000000,0.000000,Speed,-1860.000000,0.000000,Speed,Off,Off,0.000000,FALSE,0,,,,
09:43:52.825 AM 03/25/2016,Teleop Enabled,10,FALSE,0,NO ERROR,-0.000000,-1.103664,0.000000,-0.776415,TRUE,FALSE,TRUE,FALSE,FALSE,FALSE,Disabled,0.000000,0.000000,0.000000,TRUE,-5.152084,0.925003,0.000000,0.000000,0.230774,0.000000,-0.174000,0.001000,0.130000,2.660000,-0.010000,1.170000,3.244126,Hold,53.286865,50.000000,Hold,-139316.000000,139264.000000,Hold,-1747.500000,0.000000,Speed,-1770.000000,0.000000,Speed,Off,Off,0.000000,FALSE,0,,,,
09:43:52.925 AM 03/25/2016,Teleop Enabled,10,FALSE,0,NO ERROR,-0.000000,-1.103664,0.000000,-0.776415,TRUE,FALSE,TRUE,FALSE,FALSE,FALSE,Disabled,0.000000,0.000000,0.000000,TRUE,-5.153671,0.937271,0.000000,-0.013138,0.241974,0.000000,0.049000,-0.029000,-0.096000,2.660000,0.050000,1.190000,3.236046,Hold,53.286865,50.000000,Hold,-139316.000000,139264.000000,Hold,-1627.500000,0.000000,Speed,-1672.500000,0.000000,Speed,Off,Off,0.000000,FALSE,0,,,,
09:43:53.027 AM 03/25/2016,Teleop Enabled,10,FALSE,0,NO ERROR,-0.000000,-1.103664,0.000000,-0.776415,TRUE,FALSE,TRUE,FALSE,FALSE,FALSE,Disabled,0.000000,0.000000,0.000000,TRUE,-5.154541,0.949356,0.000000,-0.040482,0.253815,0.000000,-0.058000,0.004000,-0.020000,2.660000,0.020000,1.170000,3.235440,Hold,53.286865,50.000000,Hold,-139316.000000,139264.000000,Hold,-1552.500000,0.000000,Speed,-1567.500000,0.000000,Speed,Off,Off,0.000000,FALSE,0,,,,
09:43:53.127 AM 03/25/2016,Teleop Enabled,10,FALSE,0,NO ERROR,-0.000000,-1.103664,0.000000,-0.776415,TRUE,FALSE,TRUE,FALSE,FALSE,FALSE,Disabled,0.000000,0.000000,0.000000,TRUE,-5.156601,0.951370,0.000000,-0.018631,-0.025986,0.000000,0.047000,0.011000,-0.017000,2.660000,0.190000,1.130000,3.240814,Hold,53.286865,50.000000,Hold,-139316.000000,139264.000000,Hold,-1425.000000,0.000000,Speed,-1462.500000,0.000000,Speed,Off,Off,0.000000,FALSE,0,,,,
09:43:53.227 AM 03/25/2016,Teleop Enabled,10,FALSE,0,NO ERROR,-0.000000,-1.103664,0.000000,-0.776415,TRUE,FALSE,TRUE,FALSE,FALSE,FALSE,Disabled,0.000000,0.000000,0.000000,TRUE,-5.157059,0.949371,0.000000,-0.012253,-0.036652,0.000000,0.012000,0.030000,-0.123000,2.650000,0.200000,1.080000,3.243131,Hold,53.286865,50.000000,Hold,-139316.000000,139264.000000,Hold,-1200.000000,0.000000,Speed,-1350.000000,0.000000,Speed,Off,Off,0.000000,FALSE,0,,,,
09:43:53.330 AM 03/25/2016,Teleop Enabled,11,FALSE,0,NO ERROR,-0.000000,-1.103664,0.000000,-0.776415,TRUE,FALSE,TRUE,FALSE,FALSE,FALSE,Disabled,0.000000,0.000000,0.000000,TRUE,-5.156967,0.947968,0.000000,-0.016846,-0.029343,0.000000,-0.139000,-0.033000,0.011000,2.660000,0.110000,1.080000,3.233984,Hold,53.286865,50.000000,Hold,-139316.000000,139264.000000,LowGoal,-945.000000,-2181.818182,Speed,-1252.500000,-2181.818182,Speed,Off,Off,0.000000,FALSE,0,,,,
09:43:53.437 AM 03/25/2016,Teleop Enabled,14,FALSE,0,NO ERROR,-0.000000,-1.103664,0.000000,-0.776415,TRUE,FALSE,TRUE,FALSE,FALSE,FALSE,Disabled,0.000000,0.000000,0.000000,TRUE,-5.157715,0.946823,0.000000,-0.009644,-0.031113,0.000000,0.086000,0.004000,0.091000,2.660000,0.100000,1.100000,3.226806,Hold,53.286865,50.000000,Hold,-139316.000000,139264.000000,LowGoal,-682.500000,-2181.818182,Speed,-1095.000000,-2181.818182,Speed,Off,Off,0.000000,FALSE,0,,,,
09:43:53.534 AM 03/25/2016,Teleop Enabled,10,FALSE,0,NO ERROR,-0.000000,-1.103664,0.000000,-0.776415,TRUE,FALSE,TRUE,FALSE,FALSE,FALSE,Disabled,0.000000,0.000000,0.000000,TRUE,-5.158096,0.944000,0.000000,-0.011047,-0.049316,0.000000,-0.037000,0.004000,0.012000,2.650000,0.180000,1.070000,3.228655,Hold,53.286865,50.000000,Hold,-139316.000000,139264.000000,LowGoal,105.000000,-2181.818182,Speed,-180.000000,-2181.818182,Speed,Off,Off,0.000000,FALSE,0,,,,
09:43:53.634 AM 03/25/2016,Teleop Enabled,11,FALSE,0,NO ERROR,-0.000000,-1.103664,0.000000,-0.776415,TRUE,FALSE,TRUE,FALSE,FALSE,FALSE,Disabled,0.000000,0.000000,0.000000,TRUE,-5.158737,0.944504,0.000000,0.000000,0.006729,0.000000,-0.014000,-0.073000,0.006000,2.650000,0.220000,1.060000,3.220999,Hold,53.286865,50.000000,Hold,-139316.000000,139264.000000,LowGoal,645.000000,-2181.818182,Speed,-180.000000,-2181.818182,Speed,Off,Off,0.000000,FALSE,0,,,,
09:43:53.734 AM 03/25/2016,Teleop Enabled,10,FALSE,0,NO ERROR,-0.000000,-1.103664,0.000000,-0.776415,TRUE,FALSE,TRUE,FALSE,FALSE,FALSE,Disabled,0.000000,0.000000,0.000000,TRUE,-5.161163,0.945007,0.000000,-0.084488,0.019989,0.000000,-0.066000,-0.004000,-0.043000,2.650000,0.110000,1.090000,3.222964,Hold,53.286865,50.000000,Hold,-139316.000000,139264.000000,LowGoal,855.000000,-2181.818182,Speed,750.000000,-2181.818182,Speed,Off,Off,0.000000,FALSE,0,,,,
09:43:53.836 AM 03/25/2016,Teleop Enabled,10,FALSE,0,NO ERROR,-0.000000,-1.103664,0.000000,-0.776415,TRUE,FALSE,TRUE,FALSE,FALSE,FALSE,Disabled,0.000000,0.000000,0.000000,TRUE,-5.164307,0.945236,0.000000,-0.071548,0.000000,0.000000,-0.039000,0.072000,-0.052000,2.650000,0.190000,1.060000,3.226238,Hold,53.286865,50.000000,Hold,-139316.000000,139264.000000,LowGoal,855.000000,-2181.818182,Speed,1455.000000,-2181.818182,Speed,Off,Off,0.000000,FALSE,0,,,,
09:43:53.937 AM 03/25/2016,Teleop Enabled,10,FALSE,0,NO ERROR,-0.000000,-1.103664,0.000000,-0.776415,TRUE,FALSE,TRUE,FALSE,FALSE,FALSE,Disabled,0.000000,0.000000,0.000000,TRUE,-5.169464,0.946304,0.000000,-0.111816,0.034134,0.000000,0.090000,-0.177000,0.049000,2.640000,0.300000,1.130000,3.219666,Hold,53.286865,50.000000,Hold,-139316.000000,139264.000000,LowGoal,1065.000000,-2181.818182,Speed,2040.000000,-2181.818182,Speed,Off,Off,0.000000,FALSE,0,,,,
09:43:54.036 AM 03/25/2016,Teleop Enabled,10,FALSE,0,NO ERROR,-0.000000,-1.103664,0.000000,-0.776415,TRUE,FALSE,TRUE,FALSE,FALSE,FALSE,Disabled,0.000000,0.000000,0.000000,TRUE,-5.171936,0.945419,0.000000,0.010284,-0.027557,0.000000,0.080000,0.024000,-0.118000,2.640000,0.340000,1.100000,3.215187,Hold,53.286865,50.000000,Hold,-139316.000000,139264.000000,LowGoal,1350.000000,-2181.818182,Speed,2317.500000,-2181.818182,Speed,Off,Off,0.000000,FALSE,0,,,,
09:43:54.136 AM 03/25/2016,Teleop Enabled,11,FALSE,0,NO ERROR,-0.000000,-1.103664,0.000000,-0.776415,TRUE,FALSE,TRUE,FALSE,FALSE,FALSE,Disabled,0.000000,0.000000,0.000000,TRUE,-5.165985,0.943741,0.000000,0.180954,-0.041809,0.000000,0.132000,0.003000,0.117000,2.630000,0.730000,0.970000,3.210364,Hold,53.286865,50.000000,Hold,-139316.000000,139264.000000,LowGoal,1642.500000,-2181.818182,Speed,2227.500000,-2181.818182,Speed,Off,Off,0.000000,FALSE,0,,,,
09:43:54.236 AM 03/25/2016,Teleop Enabled,10,FALSE,0,NO ERROR,-0.000000,-1.103664,0.000000,-0.776415,TRUE,FALSE,TRUE,FALSE,FALSE,FALSE,Disabled,0.000000,0.000000,0.000000,TRUE,-5.158661,0.941589,0.000000,0.115707,-0.040512,0.000000,-0.032000,-0.033000,-0.001000,2.640000,0.520000,0.950000,3.207641,Hold,53.286865,50.000000,Hold,-139316.000000,139264.000000,LowGoal,1890.000000,-2181.818182,Speed,2145.000000,-2181.818182,Speed,Off,Off,0.000000,FALSE,0,,,,
09:43:54.336 AM 03/25/2016,Teleop Enabled,10,FALSE,0,NO ERROR,-0.000000,-1.103664,0.000000,-0.776415,TRUE,FALSE,TRUE,FALSE,FALSE,FALSE,Disabled,0.000000,0.000000,0.000000,TRUE,-5.156631,0.940750,0.000000,0.016174,-0.019928,0.000000,-0.166000,-0.060000,0.076000,2.650000,0.170000,1.000000,3.209872,Hold,53.286865,50.000000,Hold,-139316.000000,139264.000000,LowGoal,1987.500000,-2181.818182,Speed,2152.500000,-2181.818182,Speed,Off,Off,0.000000,FALSE,0,,,,
09:43:54.437 AM 03/25/2016,Teleop Enabled,10,FALSE,0,NO ERROR,-0.000000,-1.103664,0.000000,-0.776415,TRUE,FALSE,TRUE,FALSE,FALSE,FALSE,Disabled,0.000000,0.000000,0.000000,TRUE,-5.158798,0.938553,0.000000,-0.025146,-0.043549,0.000000,0.246000,-0.058000,0.056000,2.650000,-0.050000,0.990000,3.214489,Hold,53.286865,50.000000,Hold,-139316.000000,139264.000000,LowGoal,2025.000000,-2181.818182,Speed,2197.500000,-2181.818182,Speed,Off,Off,0.000000,FALSE,0,,,,
09:43:54.537 AM 03/25/2016,Teleop Enabled,10,FALSE,0,NO ERROR,-0.000000,-1.103664,0.000000,-0.776415,TRUE,FALSE,TRUE,FALSE,FALSE,FALSE,Disabled,0.000000,0.000000,0.000000,TRUE,-5.155960,0.936371,0.000000,0.139145,-0.056259,0.000000,0.307000,-0.098000,-0.093000,2.630000,0.470000,0.930000,3.220861,Hold,53.286865,50.000000,Hold,-139316.000000,139264.000000,LowGoal,1942.500000,-2181.818182,Speed,2205.000000,-2181.818182,Speed,Off,Off,0.000000,FALSE,0,,,,
09:43:54.637 AM 03/25/2016,Teleop Enabled,10,FALSE,0,NO ERROR,-0.000000,-1.103664,0.000000,-0.776415,TRUE,FALSE,TRUE,FALSE,FALSE,FALSE,Disabled,0.000000,0.000000,0.000000,TRUE,-5.143829,0.935532,0.000000,0.301590,-0.010101,0.000000,0.102000,-0.004000,0.023000,2.630000,1.010000,0.950000,3.211321,Hold,53.286865,50.000000,Hold,-139316.000000,139264.000000,LowGoal,1950.000000,-2181.818182,Speed,2190.000000,-2181.818182,Speed,Off,Off,0.000000,FALSE,0,,,,
09:43:54.737 AM 03/25/2016,Teleop Enabled,11,FALSE,0,NO ERROR,-0.000000,-1.103664,0.000000,-0.776415,TRUE,FALSE,TRUE,FALSE,FALSE,FALSE,Disabled,0.000000,0.000000,0.000000,TRUE,-5.125778,0.935181,0.000000,0.404251,-0.010315,0.000000,0.117000,-0.024000,0.007000,2.620000,1.280000,0.960000,3.205658,Hold,53.286865,50.000000,Hold,-139316.000000,139264.000000,LowGoal,1957.500000,-2181.818182,Speed,2182.500000,-2181.818182,Speed,Off,Off,0.000000,FALSE,0,,,,
09:43:54.837 AM 03/25/2016,Teleop Enabled,9,FALSE,0,NO ERROR,-0.000000,-1.103664,0.000000,-0.776415,TRUE,FALSE,TRUE,FALSE,FALSE,FALSE,Disabled,0.000000,0.000000,0.000000,TRUE,-5.105392,0.935089,0.000000,0.381088,0.022858,0.000000,-0.101000,0.017000,-0.198000,2.620000,1.220000,1.070000,3.210130,Hold,53.286865,50.000000,Hold,-139316.000000,139264.000000,LowGoal,1950.000000,-2181.818182,Speed,2190.000000,-2181.818182,Speed,Off,Off,0.000000,FALSE,0,,,,
09:43:54.938 AM 03/25/2016,Teleop Enabled,11,FALSE,0,NO ERROR,-0.000000,-1.103664,0.000000,-0.776415,TRUE,FALSE,TRUE,FALSE,FALSE,FALSE,Disabled,0.000000,0.000000,0.000000,TRUE,-5.089920,0.936951,0.000000,0.268585,0.022720,0.000000,-0.161000,0.009000,-0.184000,2.630000,0.790000,1.160000,3.191014,Hold,53.286865,50.000000,Hold,-139316.000000,139264.000000,LowGoal,1942.500000,-2181.818182,Speed,2190.000000,-2181.818182,Speed,Off,Off,0.000000,FALSE,0,,,,
09:43:55.037 AM 03/25/2016,Teleop Enabled,9,FALSE,0,NO ERROR,-0.000000,-1.103664,0.000000,-0.776415,TRUE,FALSE,TRUE,FALSE,FALSE,FALSE,Disabled,0.000000,0.000000,0.000000,TRUE,-5.082275,0.937958,0.000000,0.073929,0.035477,0.000000,-0.242000,0.047000,-0.095000,2.650000,0.000000,1.200000,3.206739,Hold,53.286865,50.000000,Hold,-139316.000000,139264.000000,LowGoal,1920.000000,-2181.818182,Speed,2190.000000,-2181.818182,Speed,Off,Off,0.000000,FALSE,0,,,,
09:43:55.137 AM 03/25/2016,Teleop Enabled,10,FALSE,0,NO ERROR,-0.000000,-1.103664,0.000000,-0.776415,TRUE,FALSE,TRUE,FALSE,FALSE,FALSE,Disabled,0.000000,0.000000,0.000000,TRUE,-5.084274,0.938995,0.000000,-0.110626,0.012131,0.000000,-0.099000,0.009000,-0.200000,2.660000,-0.450000,1.150000,3.196522,Hold,53.286865,50.000000,Hold,-139316.000000,139264.000000,LowGoal,1912.500000,-2181.818182,Speed,2190.000000,-2181.818182,Speed,Off,Off,0.000000,FALSE,0,,,,
09:43:55.238 AM 03/25/2016,Teleop Enabled,10,FALSE,0,NO ERROR,-0.000000,-1.103664,0.000000,-0.776415,TRUE,FALSE,TRUE,FALSE,FALSE,FALSE,Disabled,0.000000,0.000000,0.000000,TRUE,-5.093430,0.939484,0.000000,-0.221817,0.007507,0.000000,0.032000,-0.063000,-0.330000,2.660000,-0.610000,1.110000,3.190983,Hold,53.286865,50.000000,Hold,-139316.000000,139264.000000,LowGoal,1912.500000,-2181.818182,Speed,2190.000000,-2181.818182,Speed,Off,Off,0.000000,FALSE,0,,,,
09:43:55.338 AM 03/25/2016,Teleop Enabled,10,FALSE,0,NO ERROR,-0.000000,-1.103664,0.000000,-0.776415,TRUE,FALSE,TRUE,FALSE,FALSE,FALSE,Disabled,0.000000,0.000000,0.000000,TRUE,-5.108673,0.939926,0.000000,-0.270462,0.019638,0.000000,0.034000,-0.041000,-0.240000,2.660000,-0.680000,1.050000,3.204667,Hold,53.286865,50.000000,Hold,-139316.000000,139264.000000,LowGoal,1912.500000,-2181.818182,Speed,2190.000000,-2181.818182,Speed,Off,Off,0.000000,FALSE,0,,,,
09:43:55.437 AM 03/25/2016,Teleop Enabled,10,FALSE,0,NO ERROR,-0.000000,-1.103664,0.000000,-0.776415,TRUE,FALSE,TRUE,FALSE,FALSE,FALSE,Disabled,0.000000,0.000000,0.000000,TRUE,-5.118439,0.941101,0.000000,-0.208817,0.026581,0.000000,0.184000,0.033000,-0.062000,2.650000,-0.310000,0.980000,3.214296,Hold,53.286865,50.000000,Hold,-139316.000000,139264.000000,LowGoal,1935.000000,-2181.818182,Speed,2190.000000,-2181.818182,Speed,Off,Off,0.000000,FALSE,0,,,,
09:43:55.539 AM 03/25/2016,Teleop Enabled,10,FALSE,0,NO ERROR,-0.000000,-1.103664,0.000000,-0.776415,TRUE,FALSE,TRUE,FALSE,FALSE,FALSE,Disabled,0.000000,0.000000,0.000000,TRUE,-5.126266,0.943146,0.000000,-0.078735,0.043686,0.000000,-0.021000,0.098000,-0.070000,2.650000,0.080000,0.990000,3.204133,Hold,53.286865,0.000732,LowGoal,-139316.000000,102400.000000,LowGoal,1942.500000,-2181.818182,Speed,2190.000000,-2181.818182,Speed,Off,Off,0.000000,FALSE,0,,,,
09:43:55.639 AM 03/25/2016,Teleop Enabled,11,FALSE,0,NO ERROR,-0.000000,-1.090831,0.000000,-0.776415,TRUE,FALSE,TRUE,FALSE,FALSE,FALSE,Disabled,0.000000,0.000000,0.000000,TRUE,-5.125137,0.946777,0.000000,0.089386,0.084488,0.000000,0.095000,0.071000,-0.311000,2.650000,0.130000,0.990000,3.228359,Hold,48.124756,0.000732,Hold,-136251.000000,102400.000000,LowGoal,1920.000000,-2181.818182,Speed,2182.500000,-2181.818182,Speed,Off,Off,0.000000,FALSE,0,,,,
09:43:55.740 AM 03/25/2016,Teleop Enabled,10,FALSE,0,NO ERROR,-0.000000,-1.090831,0.000000,-0.622415,TRUE,FALSE,TRUE,FALSE,FALSE,FALSE,Disabled,0.000000,0.000000,0.000000,TRUE,-5.118423,0.952866,0.000000,0.165604,0.151718,0.000000,-0.008000,0.043000,-0.353000,2.570000,0.850000,0.940000,3.146243,Hold,39.231934,0.000732,Hold,-130952.000000,102400.000000,LowGoal,1882.500000,-2181.818182,Speed,2175.000000,-2181.818182,Speed,Off,Off,0.000000,FALSE,0,,,,
09:43:55.839 AM 03/25/2016,Teleop Enabled,10,FALSE,0,NO ERROR,-0.000000,-1.122914,0.000000,-0.571082,TRUE,FALSE,TRUE,FALSE,FALSE,FALSE,Disabled,0.000000,0.000000,0.000000,TRUE,-5.109680,0.962494,0.000000,0.182953,0.234879,0.000000,-0.008000,0.043000,-0.353000,2.590000,0.760000,1.000000,3.158382,Hold,25.053223,0.000732,Hold,-124712.000000,102400.000000,LowGoal,1875.000000,-2181.818182,Speed,2167.500000,-2181.818182,Speed,Off,Off,0.000000,FALSE,0,,,,
09:43:55.940 AM 03/25/2016,Teleop Enabled,10,FALSE,0,NO ERROR,-0.000000,-1.122914,0.000000,-0.577499,TRUE,FALSE,TRUE,FALSE,FALSE,FALSE,Disabled,0.000000,0.000000,0.000000,TRUE,-5.102081,0.975342,0.000000,0.124100,0.273773,0.000000,-0.011000,-0.010000,-0.267000,2.620000,0.780000,0.950000,3.184525,Hold,11.048584,0.000732,Hold,-124712.000000,102400.000000,LowGoal,1897.500000,-2181.818182,Speed,2167.500000,-2181.818182,Speed,Off,Off,0.000000,FALSE,0,,,,
09:43:56.040 AM 03/25/2016,Teleop Enabled,10,FALSE,0,NO ERROR,-0.000000,-0.949664,0.000000,-0.686582,TRUE,FALSE,TRUE,FALSE,FALSE,FALSE,Disabled,0.000000,0.000000,0.000000,TRUE,-5.099319,0.994232,0.000000,-0.002625,0.479645,0.000000,0.155000,0.005000,-0.674000,2.800000,0.520000,0.950000,3.368223,Hold,1.391113,0.000732,Hold,-118733.000000,102400.000000,LowGoal,1927.500000,-2181.818182,Speed,2182.500000,-2181.818182,Speed,Off,Off,0.000000,FALSE,0,,,,
09:43:56.141 AM 03/25/2016,Teleop Enabled,11,FALSE,0,NO ERROR,-0.000000,-0.718665,0.000000,-0.866248,TRUE,FALSE,TRUE,FALSE,FALSE,FALSE,Disabled,0.000000,0.000000,0.000000,TRUE,-5.097153,1.017105,0.000000,0.095062,0.465317,0.000000,0.087000,0.151000,-0.151000,2.540000,0.810000,1.080000,3.157318,Hold,0.937256,0.000732,Hold,-111998.000000,102400.000000,LowGoal,1942.500000,-2181.818182,Speed,2182.500000,-2181.818182,Speed,Off,Off,0.000000,FALSE,0,,,,
09:43:56.241 AM 03/25/2016,Teleop Enabled,10,FALSE,0,NO ERROR,-0.000000,-0.718665,0.000000,-0.866248,TRUE,FALSE,TRUE,FALSE,FALSE,FALSE,Disabled,0.000000,0.000000,0.000000,TRUE,-5.090591,1.041428,0.000000,0.111237,0.529785,0.000000,0.087000,0.151000,-0.151000,2.560000,1.080000,1.150000,3.123736,Hold,1.008057,0.000732,Hold,-104782.000000,102400.000000,LowGoal,1747.500000,-2181.818182,Speed,2175.000000,-2181.818182,Speed,Off,Off,0.000000,FALSE,0,,,,
09:43:56.341 AM 03/25/2016,Teleop Enabled,8,FALSE,0,NO ERROR,-0.000000,-0.718665,0.000000,-0.866248,TRUE,FALSE,TRUE,FALSE,FALSE,FALSE,Disabled,0.000000,0.000000,0.000000,TRUE,-5.086121,1.068176,0.000000,0.072922,0.505859,0.000000,-0.009000,-0.034000,0.085000,2.560000,1.080000,1.150000,3.097707,Hold,1.000977,0.000732,Hold,-102188.000000,102400.000000,LowGoal,1650.000000,-2181.818182,Speed,2160.000000,-2181.818182,Speed,Off,Off,0.000000,FALSE,0,,,,
09:43:56.441 AM 03/25/2016,Teleop Enabled,10,FALSE,0,NO ERROR,-0.000000,-0.718665,0.000000,-0.814915,TRUE,FALSE,TRUE,FALSE,FALSE,FALSE,Disabled,0.000000,0.000000,0.000000,TRUE,-5.083847,1.091461,0.000000,0.012436,0.472107,0.000000,-0.155000,-0.105000,-0.168000,2.530000,0.920000,1.040000,3.061019,Hold,0.999023,0.000732,Hold,-102521.000000,102400.000000,LowGoal,1725.000000,-2181.818182,Speed,2152.500000,-2181.818182,Speed,Off,Off,0.000000,FALSE,0,,,,
09:43:56.541 AM 03/25/2016,Teleop Enabled,10,FALSE,0,NO ERROR,-0.000000,-0.718665,0.000000,-0.814915,TRUE,FALSE,TRUE,FALSE,FALSE,FALSE,Disabled,0.000000,0.000000,0.000000,TRUE,-5.089035,1.119904,0.000000,-0.115295,0.447662,0.000000,-0.178000,0.039000,-0.116000,2.500000,0.710000,1.000000,3.116042,Hold,0.997070,0.000732,Hold,-102521.000000,102400.000000,LowGoal,1875.000000,-2181.818182,Speed,2160.000000,-2181.818182,Speed,Off,Off,0.000000,FALSE,0,,,,
09:43:56.641 AM 03/25/2016,Teleop Enabled,9,FALSE,0,NO ERROR,-0.000000,-0.718665,0.000000,-0.808498,TRUE,FALSE,TRUE,FALSE,FALSE,FALSE,Disabled,0.000000,0.000000,0.000000,TRUE,-5.096497,1.142929,0.000000,-0.154816,0.452072,0.000000,-0.197000,0.069000,0.090000,2.570000,0.370000,1.120000,3.063815,Hold,0.994873,0.000732,Hold,-102521.000000,102400.000000,LowGoal,1920.000000,-2181.818182,Speed,2182.500000,-2181.818182,Speed,Off,Off,0.000000,FALSE,0,,,,
09:43:56.742 AM 03/25/2016,Teleop Enabled,10,FALSE,0,NO ERROR,-0.000000,-0.718665,0.000000,-0.808498,TRUE,FALSE,TRUE,FALSE,FALSE,FALSE,Disabled,0.000000,0.000000,0.000000,TRUE,-5.105911,1.162140,0.000000,-0.225845,0.368576,0.000000,-0.086000,-0.065000,-0.145000,2.520000,0.160000,1.250000,3.077451,Hold,0.993164,0.000732,Hold,-102521.000000,102400.000000,LowGoal,1935.000000,-2181.818182,Speed,2182.500000,-2181.818182,Speed,Off,Off,0.000000,FALSE,0,,,,
09:43:56.842 AM 03/25/2016,Teleop Enabled,10,FALSE,0,NO ERROR,-0.000000,-0.718665,0.000000,-0.808498,TRUE,FALSE,TRUE,FALSE,FALSE,FALSE,Disabled,0.000000,0.000000,0.000000,TRUE,-5.117264,1.181625,0.000000,-0.224136,0.377747,0.000000,-0.113000,0.076000,-0.177000,2.550000,-0.110000,1.290000,3.084931,Hold,0.990479,0.000732,Hold,-102521.000000,102400.000000,LowGoal,1935.000000,-2181.818182,Speed,2175.000000,-2181.818182,Speed,Off,Off,0.000000,FALSE,0,,,,
09:43:56.943 AM 03/25/2016,Teleop Enabled,10,FALSE,0,NO ERROR,-0.000000,-0.718665,0.000000,-0.808498,TRUE,FALSE,TRUE,FALSE,FALSE,FALSE,Disabled,0.000000,0.000000,0.000000,TRUE,-5.130081,1.198349,0.000000,-0.287231,0.342102,0.000000,0.049000,-0.182000,-0.242000,2.550000,-0.130000,1.380000,3.097738,Hold,0.989014,0.000732,Hold,-102521.000000,102400.000000,LowGoal,1912.500000,-2181.818182,Speed,2182.500000,-2181.818182,Speed,Off,Off,0.000000,FALSE,0,,,,
09:43:57.044 AM 03/25/2016,Teleop Enabled,10,FALSE,0,NO ERROR,-0.000000,-0.718665,0.000000,-0.808498,TRUE,FALSE,TRUE,FALSE,FALSE,FALSE,Disabled,0.000000,0.000000,0.000000,TRUE,-5.130081,1.198349,0.000000,-0.287231,0.342102,0.000000,0.050000,-0.028000,-0.177000,2.550000,-0.270000,1.410000,3.088240,Hold,0.986816,0.000732,Hold,-102521.000000,102400.000000,LowGoal,1897.500000,-2181.818182,Speed,2182.500000,-2181.818182,Speed,Off,Off,0.000000,FALSE,0,,,,
09:43:57.144 AM 03/25/2016,Teleop Enabled,10,FALSE,0,NO ERROR,-0.000000,-0.718665,0.000000,-0.808498,TRUE,FALSE,TRUE,FALSE,FALSE,FALSE,Disabled,0.000000,0.000000,0.000000,TRUE,-5.145782,1.214020,0.000000,-0.327454,0.304382,0.000000,-0.036000,0.006000,-0.111000,2.560000,-0.410000,1.470000,3.077647,Hold,0.984375,0.000732,Hold,-102521.000000,102400.000000,LowGoal,1912.500000,-2181.818182,Speed,2175.000000,-2181.818182,Speed,Off,Off,0.000000,FALSE,0,,,,
09:43:57.244 AM 03/25/2016,Teleop Enabled,10,FALSE,0,NO ERROR,-0.000000,-0.718665,0.000000,-0.808498,TRUE,FALSE,TRUE,FALSE,FALSE,FALSE,Disabled,0.000000,0.000000,0.000000,TRUE,-5.163681,1.230881,0.000000,-0.362762,0.340118,0.000000,0.129000,-0.179000,-0.114000,2.560000,-0.630000,1.610000,3.090742,Hold,0.982178,0.000732,Hold,-102521.000000,102400.000000,Shoot,1927.500000,-2181.818182,Speed,2175.000000,-2181.818182,Speed,Off,On,0.000000,FALSE,0,,,,
09:43:57.344 AM 03/25/2016,Teleop Enabled,10,FALSE,0,NO ERROR,-0.000000,-0.718665,0.000000,-0.808498,TRUE,FALSE,TRUE,FALSE,FALSE,FALSE,Disabled,0.000000,0.000000,0.000000,TRUE,-5.180374,1.244553,0.000000,-0.337860,0.256836,0.000000,-0.129000,0.050000,-0.134000,2.560000,-0.550000,1.620000,3.050833,Hold,0.977783,0.000732,Hold,-102521.000000,102400.000000,Shoot,1927.500000,-2181.818182,Speed,2182.500000,-2181.818182,Speed,Off,On,0.000000,FALSE,0,,,,
09:43:57.444 AM 03/25/2016,Teleop Enabled,9,FALSE,0,NO ERROR,-0.000000,-0.718665,0.000000,-0.808498,TRUE,FALSE,TRUE,FALSE,FALSE,FALSE,Disabled,0.000000,0.000000,0.000000,TRUE,-5.199249,1.256287,0.000000,-0.394791,0.201553,0.000000,0.101000,-0.097000,-0.025000,2.550000,-0.550000,1.620000,3.050833,Hold,0.975098,0.000732,Hold,-102521.000000,102400.000000,Shoot,1890.000000,-2181.818182,Speed,2175.000000,-2181.818182,Speed,Off,On,0.000000,FALSE,0,,,,
09:43:57.544 AM 03/25/2016,Teleop Enabled,10,FALSE,0,NO ERROR,-0.000000,-0.718665,0.000000,-0.808498,TRUE,FALSE,TRUE,FALSE,FALSE,FALSE,Disabled,0.000000,0.000000,0.000000,TRUE,-5.220123,1.264175,0.000000,-0.442657,0.000000,0.000000,-0.057000,-0.044000,-0.172000,2.560000,-0.680000,1.710000,3.050265,Hold,0.974365,0.000732,Hold,-102521.000000,102400.000000,Shoot,1837.500000,-2181.818182,Speed,2175.000000,-2181.818182,Speed,On,On,0.000000,FALSE,0,,,,
09:43:57.645 AM 03/25/2016,Teleop Enabled,12,FALSE,0,NO ERROR,-0.000000,-0.718665,0.000000,-0.808498,TRUE,FALSE,FALSE,FALSE,FALSE,FALSE,Disabled,0.000000,0.000000,0.000000,TRUE,-5.242325,1.261993,0.000000,-0.421829,-0.064087,0.000000,-0.062000,-0.027000,-0.081000,2.560000,-0.540000,1.700000,3.035279,Hold,0.974121,0.000732,Hold,-102521.000000,102400.000000,Shoot,1770.000000,-2181.818182,Speed,2115.000000,-2181.818182,Speed,On,On,0.000000,FALSE,0,,,,
09:43:57.744 AM 03/25/2016,Teleop Enabled,11,FALSE,0,NO ERROR,-0.000000,-0.718665,0.000000,-0.808498,TRUE,FALSE,FALSE,FALSE,FALSE,FALSE,Disabled,0.000000,0.000000,0.000000,TRUE,-5.264297,1.258072,0.000000,-0.439743,-0.084854,0.000000,0.037000,-0.006000,-0.303000,2.540000,-0.400000,1.720000,3.019729,Hold,0.974121,0.000732,Hold,-102521.000000,102400.000000,Shoot,870.000000,-2181.818182,Speed,1297.500000,-2181.818182,Speed,On,On,0.000000,FALSE,0,,,,
09:43:57.845 AM 03/25/2016,Teleop Enabled,12,FALSE,0,NO ERROR,-0.000000,-0.718665,0.000000,-0.808498,TRUE,FALSE,FALSE,FALSE,FALSE,FALSE,Disabled,0.000000,0.000000,0.000000,TRUE,-5.285919,1.257553,0.000000,-0.458908,0.016571,0.000000,-0.061000,0.108000,0.012000,2.560000,-0.300000,1.680000,3.045094,Hold,0.973877,0.000732,Hold,-102521.000000,102400.000000,Shoot,780.000000,-2181.818182,Speed,1755.000000,-2181.818182,Speed,On,On,0.000000,FALSE,0,,,,
09:43:57.948 AM 03/25/2016,Teleop Enabled,10,FALSE,0,NO ERROR,-0.000000,-0.718665,0.000000,-0.808498,TRUE,FALSE,FALSE,FALSE,FALSE,FALSE,Disabled,0.000000,0.000000,0.000000,TRUE,-5.316727,1.258041,0.000000,-0.499588,-0.029556,0.000000,-0.049000,-0.055000,0.154000,2.550000,-0.330000,1.710000,3.008049,Hold,0.973877,0.000732,Hold,-102521.000000,102400.000000,Shoot,922.500000,-2181.818182,Speed,2227.500000,-2181.818182,Speed,On,On,0.000000,FALSE,0,,,,
09:43:58.048 AM 03/25/2016,Teleop Enabled,10,FALSE,0,NO ERROR,-0.000000,-0.718665,0.000000,-0.808498,TRUE,FALSE,FALSE,FALSE,FALSE,FALSE,Disabled,0.000000,0.000000,0.000000,TRUE,-5.341049,1.254684,0.000000,-0.457321,-0.111633,0.000000,0.083000,-0.163000,0.294000,2.540000,-0.220000,1.690000,2.990437,Hold,0.973389,0.000732,Hold,-102521.000000,102400.000000,Shoot,1095.000000,-2181.818182,Speed,2257.500000,-2181.818182,Speed,On,On,0.000000,FALSE,0,,,,
09:43:58.149 AM 03/25/2016,Teleop Enabled,11,FALSE,0,NO ERROR,-0.000000,-0.718665,0.000000,-0.808498,TRUE,FALSE,FALSE,FALSE,FALSE,FALSE,Disabled,0.000000,0.000000,0.000000,TRUE,-5.361908,1.249298,0.000000,-0.575378,-0.151321,0.000000,-0.172000,-0.027000,0.095000,2.550000,-0.530000,1.690000,2.983541,Hold,0.972656,0.000732,Hold,-102521.000000,102400.000000,Shoot,1290.000000,-2181.818182,Speed,2167.500000,-2181.818182,Speed,On,On,0.000000,FALSE,0,,,,
09:43:58.249 AM 03/25/2016,Teleop Enabled,10,FALSE,0,NO ERROR,-0.000000,-0.718665,0.000000,-0.808498,TRUE,FALSE,FALSE,FALSE,FALSE,FALSE,Disabled,0.000000,0.000000,0.000000,TRUE,-5.400192,1.239059,0.000000,-0.631653,-0.193771,0.000000,0.199000,-0.108000,-0.088000,2.560000,-0.740000,1.790000,2.972973,Hold,0.971924,0.000732,Hold,-102521.000000,102400.000000,Shoot,1500.000000,-2181.818182,Speed,2122.500000,-2181.818182,Speed,On,On,0.000000,FALSE,0,,,,
09:43:58.350 AM 03/25/2016,Teleop Enabled,10,FALSE,0,NO ERROR,-0.000000,-0.718665,0.000000,-0.808498,TRUE,FALSE,FALSE,FALSE,FALSE,FALSE,Disabled,0.000000,0.000000,0.000000,TRUE,-5.431122,1.227081,0.000000,-0.654007,-0.256577,0.000000,-0.095000,-0.064000,0.005000,2.570000,-0.830000,1.720000,2.978501,Hold,0.970703,0.000732,Hold,-102521.000000,102400.000000,Shoot,1635.000000,-2181.818182,Speed,2152.500000,-2181.818182,Speed,On,On,0.000000,FALSE,0,,,,
09:43:58.450 AM 03/25/2016,Teleop Enabled,10,FALSE,0,NO ERROR,-0.000000,-0.718665,0.000000,-0.808498,TRUE,FALSE,FALSE,FALSE,FALSE,FALSE,Disabled,0.000000,0.000000,0.000000,TRUE,-5.459671,1.212875,0.000000,0.000000,-0.302551,0.000000,-0.002000,-0.116000,0.250000,2.570000,-0.900000,1.830000,2.984467,Hold,0.969971,0.000732,Hold,-102521.000000,102400.000000,Shoot,1800.000000,-2181.818182,Speed,2175.000000,-2181.818182,Speed,On,On,0.000000,FALSE,0,,,,
09:43:58.552 AM 03/25/2016,Teleop Enabled,10,FALSE,0,NO ERROR,-0.000000,-0.718665,0.000000,-0.808498,TRUE,FALSE,FALSE,FALSE,FALSE,FALSE,Disabled,0.000000,0.000000,0.000000,TRUE,-5.463623,1.209091,0.000000,-0.130112,-0.046570,0.000000,-0.010000,0.071000,0.439000,2.590000,-1.270000,1.970000,2.986233,Hold,0.969727,0.000732,Hold,-102521.000000,102400.000000,Shoot,1897.500000,-2181.818182,Speed,2167.500000,-2181.818182,Speed,On,On,0.000000,FALSE,0,,,,
09:43:58.652 AM 03/25/2016,Teleop Enabled,11,FALSE,0,NO ERROR,-0.000000,-0.718665,0.000000,-0.808498,TRUE,FALSE,FALSE,FALSE,FALSE,FALSE,Disabled,0.000000,0.000000,0.000000,TRUE,-5.471954,1.205627,0.000000,-0.180267,-0.094406,0.000000,-0.012000,-0.061000,0.411000,2.590000,-1.430000,1.980000,2.979200,Hold,0.969238,0.000732,Hold,-102521.000000,102400.000000,Shoot,1897.500000,-2181.818182,Speed,2175.000000,-2181.818182,Speed,On,On,0.000000,FALSE,0,,,,
09:43:58.755 AM 03/25/2016,Teleop Enabled,10,FALSE,0,NO ERROR,-0.000000,-0.718665,0.000000,-0.808498,TRUE,FALSE,FALSE,FALSE,FALSE,FALSE,Disabled,0.000000,0.000000,0.000000,TRUE,-5.481506,1.198074,0.000000,-0.209030,-0.181976,0.000000,0.012000,-0.084000,0.276000,2.590000,-1.310000,2.000000,2.974670,Hold,0.969238,0.000732,Hold,-102521.000000,102400.000000,Shoot,1860.000000,-2181.818182,Speed,2175.000000,-2181.818182,Speed,On,On,0.000000,FALSE,0,,,,
09:43:58.854 AM 03/25/2016,Teleop Enabled,10,FALSE,0,NO ERROR,-0.000000,-0.718665,0.000000,-0.808498,TRUE,FALSE,FALSE,FALSE,FALSE,FALSE,Disabled,0.000000,0.000000,0.000000,TRUE,-5.492935,1.187210,0.000000,-0.230972,-0.257385,0.000000,-0.121000,-0.052000,0.460000,2.580000,-1.280000,2.070000,2.974491,Hold,0.968994,0.000732,Hold,-102521.000000,102400.000000,Dwell,1860.000000,-2181.818182,Speed,2175.000000,-2181.818182,Speed,On,Off,0.000000,FALSE,0,,,,
09:43:58.960 AM 03/25/2016,Teleop Enabled,11,FALSE,0,NO ERROR,-0.000000,-0.718665,0.000000,-0.808498,TRUE,FALSE,FALSE,FALSE,FALSE,FALSE,Disabled,0.000000,0.000000,0.000000,TRUE,-5.505554,1.172668,0.000000,-0.253357,-0.317169,0.000000,0.005000,-0.096000,0.341000,2.580000,-1.240000,2.120000,2.971929,Hold,0.968750,0.000732,Hold,-102521.000000,102400.000000,Dwell,1852.500000,-2181.818182,Speed,2167.500000,-2181.818182,Speed,Off,Off,0.000000,FALSE,0,,,,
09:43:59.063 AM 03/25/2016,Teleop Enabled,10,FALSE,0,NO ERROR,-0.000000,-0.718665,0.000000,-0.808498,TRUE,FALSE,FALSE,FALSE,FALSE,FALSE,Disabled,0.000000,0.000000,0.000000,TRUE,-5.518875,1.148560,0.000000,-0.202469,-0.470245,0.000000,0.176000,-0.144000,0.213000,2.570000,-0.900000,2.130000,2.948723,Hold,0.968506,0.000732,Hold,-102521.000000,102400.000000,Dwell,1867.500000,-2181.818182,Speed,2175.000000,-2181.818182,Speed,Off,Off,0.000000,FALSE,0,,,,
09:43:59.162 AM 03/25/2016,Teleop Enabled,11,FALSE,0,NO ERROR,-0.000000,-0.718665,0.000000,-0.808498,TRUE,FALSE,FALSE,FALSE,FALSE,FALSE,Disabled,0.000000,0.000000,0.000000,TRUE,-5.526093,1.120621,0.000000,-0.107712,-0.602402,0.000000,0.057000,-0.047000,0.203000,2.550000,-0.480000,2.070000,2.965093,Hold,0.968262,0.000732,Hold,-102521.000000,102400.000000,Dwell,1905.000000,-2181.818182,Speed,2190.000000,-2181.818182,Speed,Off,Off,0.000000,FALSE,0,,,,
09:43:59.264 AM 03/25/2016,Teleop Enabled,11,FALSE,0,NO ERROR,-0.000000,-0.718665,0.000000,-0.808498,TRUE,FALSE,FALSE,FALSE,FALSE,FALSE,Disabled,0.000000,0.000000,0.000000,TRUE,-5.529129,1.087601,0.000000,-0.033096,-0.719757,0.000000,-0.134000,-0.126000,0.459000,2.550000,-0.340000,2.110000,2.969547,Hold,0.968018,0.000732,Hold,-102521.000000,102400.000000,Dwell,1905.000000,-2181.818182,Speed,2197.500000,-2181.818182,Speed,Off,Off,0.000000,FALSE,0,,,,
09:43:59.365 AM 03/25/2016,Teleop Enabled,10,FALSE,0,NO ERROR,-0.000000,-0.718665,0.000000,-0.808498,TRUE,FALSE,FALSE,FALSE,FALSE,FALSE,Disabled,0.000000,0.000000,0.000000,TRUE,-5.533936,1.049469,0.000000,-0.147842,-0.804901,0.000000,-0.175000,-0.108000,0.332000,2.560000,-0.640000,2.120000,2.967268,Hold,0.967773,0.000732,Hold,-102521.000000,102400.000000,Dwell,1875.000000,-2181.818182,Speed,2197.500000,-2181.818182,Speed,Off,Off,0.000000,FALSE,0,,,,
09:43:59.466 AM 03/25/2016,Teleop Enabled,9,FALSE,0,NO ERROR,-0.000000,-0.718665,0.000000,-0.808498,TRUE,FALSE,FALSE,FALSE,FALSE,FALSE,Disabled,0.000000,0.000000,0.000000,TRUE,-5.544785,1.004333,0.000000,-0.268387,-0.951172,0.000000,-0.052000,-0.212000,0.121000,2.580000,-1.010000,1.950000,2.965781,Hold,0.967529,0.000732,Hold,-102521.000000,102400.000000,Dwell,1852.500000,-2181.818182,Speed,2197.500000,-2181.818182,Speed,Off,Off,0.000000,FALSE,0,,,,
