Time,Robot Mode,Loop Time,Error Status,Error Code,Error Source,Left Motor Output,Left Motor Encoder,Right Motor Output,Right Motor Encoder,Is Level,Is Stalled,Ball Detector Photoeye,Vision Enabled,Vision Teleop Control,Vision Auto Control,Vision Current State,Vision X Output,Vision NavX Error,Vision NavX Target,NavX Connection Status,NavX Displacement X,NavX Displacement Y,NavX Displacement Z,NavX Velocity X,NavX Velocity Y,NavX Velocity Z,NavX Acceleration X,NavX Acceleration Y,NavX Acceleration Z,NavX Pitch,NavX Yaw,NavX Roll,Gyro Angle,Roller Arm State,Roller Arm Actual,Roller Arm Desired,Shooter Arm State,Shooter Arm Actual,Shooter Arm Desired,Shooter State,Actual RPM Left,Desired RPM Left,Control Mode Left,Actual RPM Right,Desired RPM Right,Control Mode Right,Ball Shooter Cylinder,Ball Halo Cylinder,Scaler Motor Output,Scaler Solenoid Fire,Auto To Run,Auto Current File,Auto File Status,Auto Current Command,Auto Trimmed Command
08:32:58.365 PM 03/22/2016,Autonomous Enabled,11,TRUE,7,Read from Text File in DoesScriptNumberContainNull.vi->Disabled.vi->Robot Main.vi<APPEND> /home/lvuser/scripts/auto_43.bee,-0.000000,0.000000,0.000000,0.000000,TRUE,FALSE,TRUE,FALSE,FALSE,FALSE,Disabled,0.000000,5.381250,-4.021250,TRUE,-3.305954,-20.424545,0.000000,0.000000,0.000000,0.000000,0.000000,-0.001000,0.006000,-0.090000,0.130000,1.480000,0.025392,ResetBack,1.920898,-0.000049,ResetBack,-19474.000000,-0.300000,LowGoal,0.000000,-1454.545455,Speed,0.000000,-1454.545455,Speed,Off,Off,0.000000,FALSE,44,Read: /home/lvuser/scripts/auto_44.bee,File good!,STOP_ALL,STOP_ALL
08:32:58.466 PM 03/22/2016,Autonomous Enabled,9,TRUE,7,Read from Text File in DoesScriptNumberContainNull.vi->Disabled.vi->Robot Main.vi<APPEND> /home/lvuser/scripts/auto_43.bee,-0.000000,0.000000,0.000000,0.000000,TRUE,FALSE,TRUE,FALSE,FALSE,FALSE,Disabled,0.000000,5.381250,-4.021250,TRUE,-3.305954,-20.424591,0.000000,0.000000,-0.004730,0.000000,0.010000,0.031000,-0.079000,-0.090000,0.160000,1.440000,0.021754,ResetBack,0.158203,-0.000049,ResetBack,-16772.000000,-0.300000,LowGoal,22.500000,-1454.545455,Speed,30.000000,-1454.545455,Speed,Off,Off,0.000000,FALSE,44,Read: /home/lvuser/scripts/auto_44.bee,File good!,WAIT 1500,WAIT
08:32:58.566 PM 03/22/2016,Autonomous Enabled,9,TRUE,7,Read from Text File in DoesScriptNumberContainNull.vi->Disabled.vi->Robot Main.vi<APPEND> /home/lvuser/scripts/auto_43.bee,-0.000000,0.000000,0.000000,0.000000,TRUE,FALSE,TRUE,FALSE,FALSE,FALSE,Disabled,0.000000,5.381250,-4.021250,TRUE,-3.305725,-20.425125,0.000000,0.015457,-0.020111,0.000000,0.010000,-0.019000,0.024000,-0.090000,0.170000,1.490000,0.023048,ResetBack,-0.059326,-0.000049,ResetBack,-16772.000000,-0.300000,LowGoal,600.000000,-1454.545455,Speed,645.000000,-1454.545455,Speed,Off,Off,0.000000,FALSE,44,Read: /home/lvuser/scripts/auto_44.bee,File good!,WAIT 1500,WAIT
08:32:58.666 PM 03/22/2016,Autonomous Enabled,11,TRUE,7,Read from Text File in DoesScriptNumberContainNull.vi->Disabled.vi->Robot Main.vi<APPEND> /home/lvuser/scripts/auto_43.bee,-0.000000,0.000000,0.000000,0.000000,TRUE,FALSE,TRUE,FALSE,FALSE,FALSE,Disabled,0.000000,5.381250,-4.021250,TRUE,-3.305099,-20.426056,0.000000,0.002548,-0.003021,0.000000,0.030000,0.034000,0.075000,-0.080000,0.100000,1.500000,0.026687,ResetBack,-0.137939,-0.000049,ResetBack,-9125.000000,-0.300000,LowGoal,1215.000000,-1454.545455,Speed,1387.500000,-1454.545455,Speed,Off,Off,0.000000,FALSE,44,Read: /home/lvuser/scripts/auto_44.bee,File good!,WAIT 1500,WAIT
08:32:58.767 PM 03/22/2016,Autonomous Enabled,9,TRUE,7,Read from Text File in DoesScriptNumberContainNull.vi->Disabled.vi->Robot Main.vi<APPEND> /home/lvuser/scripts/auto_43.bee,-0.000000,0.000000,0.000000,0.000000,TRUE,FALSE,TRUE,FALSE,FALSE,FALSE,Disabled,0.000000,5.381250,-4.021250,TRUE,-3.304459,-20.424973,0.000000,0.020279,0.023148,0.000000,0.032000,0.056000,-0.059000,-0.090000,0.130000,1.560000,0.047490,Reset,-0.526611,0.000000,ResetBack,-3471.000000,-0.300000,LowGoal,1597.500000,-1454.545455,Speed,1590.000000,-1454.545455,Speed,Off,Off,0.000000,FALSE,44,Read: /home/lvuser/scripts/auto_44.bee,File good!,WAIT 1500,WAIT
08:32:58.868 PM 03/22/2016,Autonomous Enabled,10,TRUE,7,Read from Text File in DoesScriptNumberContainNull.vi->Disabled.vi->Robot Main.vi<APPEND> /home/lvuser/scripts/auto_43.bee,-0.000000,0.000000,0.000000,0.000000,TRUE,FALSE,TRUE,FALSE,FALSE,FALSE,Disabled,0.000000,5.381250,-4.021250,TRUE,-3.302872,-20.424286,0.000000,0.047836,-0.004486,0.000000,0.025000,0.064000,0.013000,-0.080000,0.270000,1.550000,0.046151,Hold,0.290771,0.000000,ResetBack,-706.000000,-0.300000,LowGoal,1432.500000,-1454.545455,Speed,1372.500000,-1454.545455,Speed,Off,Off,0.000000,FALSE,44,Read: /home/lvuser/scripts/auto_44.bee,File good!,WAIT 1500,WAIT
08:32:58.968 PM 03/22/2016,Autonomous Enabled,9,TRUE,7,Read from Text File in DoesScriptNumberContainNull.vi->Disabled.vi->Robot Main.vi<APPEND> /home/lvuser/scripts/auto_43.bee,-0.000000,0.000000,0.000000,0.000000,TRUE,FALSE,TRUE,FALSE,FALSE,FALSE,Disabled,0.000000,5.381250,-4.021250,TRUE,-3.300064,-20.424393,0.000000,0.051605,-0.003967,0.000000,0.013000,0.010000,0.068000,-0.080000,0.250000,1.550000,0.028436,Hold,0.290771,0.000000,ResetBack,30.000000,-0.300000,LowGoal,1305.000000,-1454.545455,Speed,1320.000000,-1454.545455,Speed,Off,Off,0.000000,FALSE,44,Read: /home/lvuser/scripts/auto_44.bee,File good!,WAIT 1500,WAIT
08:32:59.068 PM 03/22/2016,Autonomous Enabled,10,TRUE,7,Read from Text File in DoesScriptNumberContainNull.vi->Disabled.vi->Robot Main.vi<APPEND> /home/lvuser/scripts/auto_43.bee,-0.000000,0.000000,0.000000,0.000000,TRUE,FALSE,TRUE,FALSE,FALSE,FALSE,Disabled,0.000000,5.381250,-4.021250,TRUE,-3.297699,-20.424805,0.000000,0.044479,-0.006088,0.000000,-0.041000,0.070000,0.045000,-0.080000,0.230000,1.550000,0.027592,Hold,0.290771,0.000000,ResetBack,35.000000,-0.300000,LowGoal,1372.500000,-1454.545455,Speed,1410.000000,-1454.545455,Speed,Off,Off,0.000000,FALSE,44,Read: /home/lvuser/scripts/auto_44.bee,File good!,WAIT 1500,WAIT
08:32:59.169 PM 03/22/2016,Autonomous Enabled,10,TRUE,7,Read from Text File in DoesScriptNumberContainNull.vi->Disabled.vi->Robot Main.vi<APPEND> /home/lvuser/scripts/auto_43.bee,-0.000000,0.000000,0.000000,0.000000,TRUE,FALSE,TRUE,FALSE,FALSE,FALSE,Disabled,0.000000,5.381250,-4.021250,TRUE,-3.296188,-20.424698,0.000000,0.040192,-0.002487,0.000000,-0.016000,0.056000,0.033000,-0.080000,0.180000,1.520000,0.034147,Hold,0.290771,0.000000,ResetBack,36.000000,-0.300000,LowGoal,1417.500000,-1454.545455,Speed,1417.500000,-1454.545455,Speed,Off,Off,0.000000,FALSE,44,Read: /home/lvuser/scripts/auto_44.bee,File good!,WAIT 1500,WAIT
08:32:59.270 PM 03/22/2016,Autonomous Enabled,10,TRUE,7,Read from Text File in DoesScriptNumberContainNull.vi->Disabled.vi->Robot Main.vi<APPEND> /home/lvuser/scripts/auto_43.bee,-0.000000,0.000000,0.000000,0.000000,TRUE,FALSE,TRUE,FALSE,FALSE,FALSE,Disabled,0.000000,5.381250,-4.021250,TRUE,-3.294907,-20.424484,0.000000,0.013931,0.005829,0.000000,-0.012000,-0.004000,0.012000,-0.070000,0.110000,1.530000,0.022115,Hold,0.290771,0.000000,ResetBack,36.000000,-0.300000,LowGoal,1387.500000,-1454.545455,Speed,1387.500000,-1454.545455,Speed,Off,Off,0.000000,FALSE,44,Read: /home/lvuser/scripts/auto_44.bee,File good!,WAIT 1500,WAIT
08:32:59.370 PM 03/22/2016,Autonomous Enabled,9,TRUE,7,Read from Text File in DoesScriptNumberContainNull.vi->Disabled.vi->Robot Main.vi<APPEND> /home/lvuser/scripts/auto_43.bee,-0.000000,0.000000,0.000000,0.000000,TRUE,FALSE,TRUE,FALSE,FALSE,FALSE,Disabled,0.000000,5.381250,-4.021250,TRUE,-3.294861,-20.424866,0.000000,-0.005615,-0.003815,0.000000,0.036000,-0.034000,-0.033000,-0.070000,0.100000,1.500000,0.012562,Hold,0.290771,0.000000,ResetBack,37.000000,-0.300000,LowGoal,1372.500000,-1454.545455,Speed,1387.500000,-1454.545455,Speed,Off,Off,0.000000,FALSE,44,Read: /home/lvuser/scripts/auto_44.bee,File good!,WAIT 1500,WAIT
08:32:59.471 PM 03/22/2016,Autonomous Enabled,10,TRUE,7,Read from Text File in DoesScriptNumberContainNull.vi->Disabled.vi->Robot Main.vi<APPEND> /home/lvuser/scripts/auto_43.bee,-0.000000,0.000000,0.000000,0.000000,TRUE,FALSE,TRUE,FALSE,FALSE,FALSE,Disabled,0.000000,5.381250,-4.021250,TRUE,-3.294525,-20.425781,0.000000,0.016266,-0.022903,0.000000,0.049000,0.025000,0.009000,-0.070000,0.110000,1.480000,0.022170,Hold,0.290771,0.000000,ResetBack,38.000000,-0.300000,LowGoal,1387.500000,-1454.545455,Speed,1402.500000,-1454.545455,Speed,Off,Off,0.000000,FALSE,44,Read: /home/lvuser/scripts/auto_44.bee,File good!,WAIT 1500,WAIT
08:32:59.572 PM 03/22/2016,Autonomous Enabled,10,TRUE,7,Read from Text File in DoesScriptNumberContainNull.vi->Disabled.vi->Robot Main.vi<APPEND> /home/lvuser/scripts/auto_43.bee,-0.000000,0.000000,0.000000,0.000000,TRUE,FALSE,TRUE,FALSE,FALSE,FALSE,Disabled,0.000000,5.381250,-4.021250,TRUE,-3.293503,-20.427475,0.000000,0.000000,-0.033798,0.000000,0.008000,-0.034000,0.009000,-0.070000,0.090000,1.500000,0.018142,Hold,0.290771,0.000000,ResetBack,40.000000,-0.300000,LowGoal,1387.500000,-1454.545455,Speed,1402.500000,-1454.545455,Speed,Off,Off,0.000000,FALSE,44,Read: /home/lvuser/scripts/auto_44.bee,File good!,WAIT 1500,WAIT
08:32:59.672 PM 03/22/2016,Autonomous Enabled,9,TRUE,7,Read from Text File in DoesScriptNumberContainNull.vi->Disabled.vi->Robot Main.vi<APPEND> /home/lvuser/scripts/auto_43.bee,-0.000000,0.000000,0.000000,0.000000,TRUE,FALSE,TRUE,FALSE,FALSE,FALSE,Disabled,0.000000,5.381250,-4.021250,TRUE,-3.293472,-20.429626,0.000000,-0.013885,-0.044418,0.000000,-0.093000,0.021000,0.002000,-0.070000,0.030000,1.520000,0.023127,Hold,0.290771,0.000000,Reset,41.000000,2.000000,LowGoal,1387.500000,-1454.545455,Speed,1395.000000,-1454.545455,Speed,Off,Off,0.000000,FALSE,44,Read: /home/lvuser/scripts/auto_44.bee,File good!,WAIT 1500,WAIT
08:32:59.774 PM 03/22/2016,Autonomous Enabled,9,TRUE,7,Read from Text File in DoesScriptNumberContainNull.vi->Disabled.vi->Robot Main.vi<APPEND> /home/lvuser/scripts/auto_43.bee,-0.000000,0.000000,0.000000,0.000000,TRUE,FALSE,TRUE,FALSE,FALSE,FALSE,Disabled,0.000000,5.381250,-4.021250,TRUE,-3.295242,-20.431168,0.000000,-0.032364,-0.026779,0.000000,-0.019000,-0.030000,-0.005000,-0.070000,0.100000,1.460000,0.030422,Hold,0.290771,0.000000,Hold,-271.000000,2.000000,LowGoal,1387.500000,-1454.545455,Speed,1395.000000,-1454.545455,Speed,Off,Off,0.000000,FALSE,44,Read: /home/lvuser/scripts/auto_44.bee,File good!,WAIT 1500,WAIT
08:32:59.877 PM 03/22/2016,Autonomous Enabled,10,TRUE,7,Read from Text File in DoesScriptNumberContainNull.vi->Disabled.vi->Robot Main.vi<APPEND> /home/lvuser/scripts/auto_43.bee,-0.000000,0.000000,0.000000,0.000000,TRUE,FALSE,TRUE,FALSE,FALSE,FALSE,Disabled,0.000000,5.381250,-4.021250,TRUE,-3.296646,-20.432816,0.000000,-0.031418,-0.034500,0.000000,0.000000,0.098000,0.046000,-0.070000,0.120000,1.420000,0.033761,Hold,0.290771,0.000000,Hold,-271.000000,2.000000,LowGoal,1387.500000,-1454.545455,Speed,1402.500000,-1454.545455,Speed,Off,Off,0.000000,FALSE,44,Read: /home/lvuser/scripts/auto_44.bee,File good!,WAIT 1500,WAIT
08:32:59.977 PM 03/22/2016,Autonomous Enabled,10,TRUE,7,Read from Text File in DoesScriptNumberContainNull.vi->Disabled.vi->Robot Main.vi<APPEND> /home/lvuser/scripts/auto_43.bee,-0.000000,0.000000,0.000000,0.000000,TRUE,FALSE,TRUE,FALSE,FALSE,FALSE,Disabled,0.000000,5.381250,-4.021250,TRUE,-3.297821,-20.434387,0.000000,0.000000,-0.033752,0.000000,0.006000,-0.044000,0.027000,-0.080000,0.200000,1.410000,0.025313,Hold,0.290771,0.000000,Hold,-220.000000,2.000000,LowGoal,1387.500000,-1454.545455,Speed,1402.500000,-1454.545455,Speed,Off,Off,0.000000,FALSE,44,Read: /home/lvuser/scripts/auto_44.bee,File good!,NAVX_ZERO_YAW,NAVX_ZERO_YAW
08:33:00.078 PM 03/22/2016,Autonomous Enabled,10,TRUE,7,Read from Text File in DoesScriptNumberContainNull.vi->Disabled.vi->Robot Main.vi<APPEND> /home/lvuser/scripts/auto_43.bee,-0.000000,0.000000,0.000000,0.000000,TRUE,FALSE,TRUE,FALSE,FALSE,FALSE,Disabled,0.000000,5.381250,-4.021250,TRUE,-3.298141,-20.436325,0.000000,0.000000,-0.025208,0.000000,0.001000,0.006000,0.041000,0.000000,0.200000,1.440000,-0.001057,Hold,0.290771,0.000000,Hold,-220.000000,2.000000,LowGoal,1395.000000,-1454.545455,Speed,1402.500000,-1454.545455,Speed,Off,Off,0.000000,FALSE,44,Read: /home/lvuser/scripts/auto_44.bee,File good!,DRIVE_STRAIGHT_NAVX 200 5000,DRIVE_STRAIGHT_NAVX
08:33:00.179 PM 03/22/2016,Autonomous Enabled,11,TRUE,7,Read from Text File in DoesScriptNumberContainNull.vi->Disabled.vi->Robot Main.vi<APPEND> /home/lvuser/scripts/auto_43.bee,-0.000000,-1.366747,0.000000,1.559246,TRUE,FALSE,TRUE,FALSE,FALSE,FALSE,Disabled,0.000000,5.381250,-4.021250,TRUE,-3.293350,-20.438034,0.000000,0.329559,-0.061417,0.000000,-0.176000,-0.048000,0.661000,-0.540000,2.600000,1.340000,-0.612400,Hold,0.290771,0.000000,Hold,-267.000000,2.000000,LowGoal,1245.000000,2909.090909,Speed,1267.500000,2909.090909,Speed,Off,Off,0.000000,FALSE,44,Read: /home/lvuser/scripts/auto_44.bee,File good!,DRIVE_STRAIGHT_NAVX 200 5000,DRIVE_STRAIGHT_NAVX
08:33:00.281 PM 03/22/2016,Autonomous Enabled,10,TRUE,7,Read from Text File in DoesScriptNumberContainNull.vi->Disabled.vi->Robot Main.vi<APPEND> /home/lvuser/scripts/auto_43.bee,-0.000000,-3.407242,0.000000,3.657491,FALSE,FALSE,TRUE,FALSE,FALSE,FALSE,Disabled,0.000000,5.381250,-4.021250,TRUE,-3.273178,-20.441254,0.000000,0.446213,-0.104919,0.000000,-0.112000,0.000000,0.384000,-0.710000,3.150000,1.310000,-0.722910,Hold,0.291016,0.000000,Hold,-272.000000,2.000000,LowGoal,427.500000,2909.090909,Speed,187.500000,2909.090909,Speed,Off,Off,0.000000,FALSE,44,Read: /home/lvuser/scripts/auto_44.bee,File good!,DRIVE_STRAIGHT_NAVX 200 5000,DRIVE_STRAIGHT_NAVX
08:33:00.381 PM 03/22/2016,Autonomous Enabled,11,TRUE,7,Read from Text File in DoesScriptNumberContainNull.vi->Disabled.vi->Robot Main.vi<APPEND> /home/lvuser/scripts/auto_43.bee,-0.000000,-6.204902,0.000000,6.532151,TRUE,FALSE,TRUE,FALSE,FALSE,FALSE,Disabled,0.000000,5.381250,-4.021250,TRUE,-3.242844,-20.446075,0.000000,0.555191,0.003265,0.000000,0.034000,0.042000,-0.383000,-0.900000,2.510000,1.240000,-0.949258,Hold,0.291260,0.000000,Hold,-272.000000,2.000000,LowGoal,-615.000000,2909.090909,Speed,-847.500000,2909.090909,Speed,Off,Off,0.000000,FALSE,44,Read: /home/lvuser/scripts/auto_44.bee,File good!,DRIVE_STRAIGHT_NAVX 200 5000,DRIVE_STRAIGHT_NAVX
08:33:00.482 PM 03/22/2016,Autonomous Enabled,11,TRUE,7,Read from Text File in DoesScriptNumberContainNull.vi->Disabled.vi->Robot Main.vi<APPEND> /home/lvuser/scripts/auto_43.bee,-0.000000,-9.265645,0.000000,9.689144,FALSE,FALSE,TRUE,FALSE,FALSE,FALSE,Disabled,0.000000,5.381250,-4.021250,TRUE,-3.214417,-20.446533,0.000000,0.591476,-0.021713,0.000000,0.069000,0.013000,-0.529000,-1.170000,3.130000,1.220000,-1.232763,Hold,0.291260,0.000000,Hold,-272.000000,2.000000,LowGoal,-1350.000000,2909.090909,Speed,-1620.000000,2909.090909,Speed,Off,Off,0.000000,FALSE,44,Read: /home/lvuser/scripts/auto_44.bee,File good!,DRIVE_STRAIGHT_NAVX 200 5000,DRIVE_STRAIGHT_NAVX
08:33:00.582 PM 03/22/2016,Autonomous Enabled,10,TRUE,7,Read from Text File in DoesScriptNumberContainNull.vi->Disabled.vi->Robot Main.vi<APPEND> /home/lvuser/scripts/auto_43.bee,-0.000000,-12.544554,0.000000,13.115636,TRUE,FALSE,TRUE,FALSE,FALSE,FALSE,Disabled,0.000000,5.381250,-4.021250,TRUE,-3.184433,-20.447998,0.000000,0.599976,-0.019394,0.000000,0.074000,0.093000,-0.108000,-1.450000,2.790000,1.330000,-1.456274,Hold,0.291260,0.000000,Hold,-272.000000,2.000000,LowGoal,-1935.000000,2909.090909,Speed,-2227.500000,2909.090909,Speed,Off,Off,0.000000,FALSE,44,Read: /home/lvuser/scripts/auto_44.bee,File good!,DRIVE_STRAIGHT_NAVX 200 5000,DRIVE_STRAIGHT_NAVX
08:33:00.683 PM 03/22/2016,Autonomous Enabled,10,TRUE,7,Read from Text File in DoesScriptNumberContainNull.vi->Disabled.vi->Robot Main.vi<APPEND> /home/lvuser/scripts/auto_43.bee,-0.000000,-16.163546,0.000000,16.651211,TRUE,FALSE,TRUE,FALSE,FALSE,FALSE,Disabled,0.000000,5.381250,-4.021250,TRUE,-3.178772,-20.448029,0.000000,-0.020935,-0.016098,0.000000,-0.047000,0.034000,0.108000,-1.530000,2.900000,1.430000,-1.548414,Hold,0.291260,0.000000,Hold,-272.000000,2.000000,LowGoal,-2415.000000,2909.090909,Speed,-2610.000000,2909.090909,Speed,Off,Off,0.000000,FALSE,44,Read: /home/lvuser/scripts/auto_44.bee,File good!,DRIVE_STRAIGHT_NAVX 200 5000,DRIVE_STRAIGHT_NAVX
08:33:00.783 PM 03/22/2016,Autonomous Enabled,10,TRUE,7,Read from Text File in DoesScriptNumberContainNull.vi->Disabled.vi->Robot Main.vi<APPEND> /home/lvuser/scripts/auto_43.bee,-0.000000,-20.026370,0.000000,20.340786,TRUE,FALSE,TRUE,FALSE,FALSE,FALSE,Disabled,0.000000,5.381250,-4.021250,TRUE,-3.180008,-20.449127,0.000000,-0.012299,-0.027786,0.000000,0.103000,-0.079000,0.361000,-1.270000,2.790000,1.530000,-1.274704,Hold,0.291260,0.000000,Hold,-264.000000,2.000000,LowGoal,-2812.500000,2909.090909,Speed,-2610.000000,2909.090909,Speed,Off,Off,0.000000,FALSE,44,Read: /home/lvuser/scripts/auto_44.bee,File good!,DRIVE_STRAIGHT_NAVX 200 5000,DRIVE_STRAIGHT_NAVX
08:33:00.883 PM 03/22/2016,Autonomous Enabled,12,TRUE,7,Read from Text File in DoesScriptNumberContainNull.vi->Disabled.vi->Robot Main.vi<APPEND> /home/lvuser/scripts/auto_43.bee,-0.000000,-24.011111,0.000000,24.049610,FALSE,FALSE,TRUE,FALSE,FALSE,FALSE,Disabled,0.000000,5.381250,-4.021250,TRUE,-3.179871,-20.449341,0.000000,0.020309,0.009491,0.000000,-0.049000,-0.032000,0.052000,-0.830000,3.200000,1.510000,-0.847833,Hold,0.291260,0.000000,Hold,-262.000000,2.000000,LowGoal,-2985.000000,2909.090909,Speed,-2947.500000,2909.090909,Speed,Off,Off,0.000000,FALSE,44,Read: /home/lvuser/scripts/auto_44.bee,File good!,DRIVE_STRAIGHT_NAVX 200 5000,DRIVE_STRAIGHT_NAVX
08:33:00.983 PM 03/22/2016,Autonomous Enabled,11,TRUE,7,Read from Text File in DoesScriptNumberContainNull.vi->Disabled.vi->Robot Main.vi<APPEND> /home/lvuser/scripts/auto_43.bee,-0.000000,-28.194767,0.000000,27.944518,TRUE,FALSE,TRUE,FALSE,FALSE,FALSE,Disabled,0.000000,5.381250,-4.021250,TRUE,-3.179947,-20.449265,0.000000,-0.034332,-0.005371,0.000000,-0.254000,0.141000,0.119000,-0.390000,2.860000,1.500000,-0.395536,Hold,0.291260,0.000000,Hold,-259.000000,2.000000,LowGoal,-2985.000000,2909.090909,Speed,-2932.500000,2909.090909,Speed,Off,Off,0.000000,FALSE,44,Read: /home/lvuser/scripts/auto_44.bee,File good!,DRIVE_STRAIGHT_NAVX 200 5000,DRIVE_STRAIGHT_NAVX
08:33:01.083 PM 03/22/2016,Autonomous Enabled,11,TRUE,7,Read from Text File in DoesScriptNumberContainNull.vi->Disabled.vi->Robot Main.vi<APPEND> /home/lvuser/scripts/auto_43.bee,-0.000000,-32.346341,0.000000,31.987009,TRUE,FALSE,TRUE,FALSE,FALSE,FALSE,Disabled,0.000000,5.381250,-4.021250,TRUE,-3.184784,-20.448456,0.000000,-0.075653,0.000198,0.000000,0.059000,-0.185000,-0.059000,-0.050000,2.760000,1.560000,-0.074287,Hold,0.291260,0.000000,Hold,-259.000000,2.000000,LowGoal,-2895.000000,2909.090909,Speed,-2850.000000,2909.090909,Speed,Off,Off,0.000000,FALSE,44,Read: /home/lvuser/scripts/auto_44.bee,File good!,DRIVE_STRAIGHT_NAVX 200 5000,DRIVE_STRAIGHT_NAVX
08:33:01.183 PM 03/22/2016,Autonomous Enabled,11,FALSE,0,NO ERROR,-0.000000,-36.568498,0.000000,36.183499,FALSE,FALSE,TRUE,FALSE,FALSE,FALSE,Disabled,0.000000,5.381250,-4.021250,TRUE,-3.187866,-20.449478,0.000000,-0.050217,-0.044708,0.000000,-0.019000,-0.168000,0.030000,-0.060000,3.020000,1.380000,0.004406,Hold,0.291260,0.000000,Hold,-259.000000,2.000000,LowGoal,-2812.500000,2909.090909,Speed,-2865.000000,2909.090909,Speed,Off,Off,0.000000,FALSE,44,Read: /home/lvuser/scripts/auto_44.bee,File good!,DRIVE_STRAIGHT_NAVX 200 5000,DRIVE_STRAIGHT_NAVX
08:33:01.283 PM 03/22/2016,Autonomous Enabled,11,FALSE,0,NO ERROR,-0.000000,-40.764988,0.000000,40.469822,FALSE,FALSE,TRUE,FALSE,FALSE,FALSE,Disabled,0.000000,5.381250,-4.021250,TRUE,-3.190918,-20.451065,0.000000,-0.068161,-0.015198,0.000000,-0.048000,0.312000,-0.057000,-0.220000,4.050000,1.260000,-0.152657,Hold,0.291260,0.000000,Hold,-259.000000,2.000000,LowGoal,-2857.500000,2909.090909,Speed,-2917.500000,2909.090909,Speed,Off,Off,0.000000,FALSE,44,Read: /home/lvuser/scripts/auto_44.bee,File good!,DRIVE_STRAIGHT_NAVX 200 5000,DRIVE_STRAIGHT_NAVX
08:33:01.384 PM 03/22/2016,Autonomous Enabled,11,FALSE,0,NO ERROR,-0.000000,-45.089811,0.000000,44.845978,FALSE,FALSE,TRUE,FALSE,FALSE,FALSE,Disabled,0.000000,5.381250,-4.021250,TRUE,-3.197449,-20.450424,0.000000,-0.175247,0.032608,0.000000,0.247000,-0.175000,0.069000,-0.310000,6.730000,1.110000,-0.342676,Hold,0.291260,0.000000,Hold,-259.000000,2.000000,LowGoal,-2895.000000,2909.090909,Speed,-2910.000000,2909.090909,Speed,Off,Off,0.000000,FALSE,44,Read: /home/lvuser/scripts/auto_44.bee,File good!,DRIVE_STRAIGHT_NAVX 200 5000,DRIVE_STRAIGHT_NAVX
08:33:01.484 PM 03/22/2016,Autonomous Enabled,9,FALSE,0,NO ERROR,-0.000000,-49.055302,0.000000,48.792219,FALSE,FALSE,TRUE,FALSE,FALSE,FALSE,Disabled,0.000000,5.381250,-4.021250,TRUE,-3.203217,-20.451492,0.000000,-0.101837,-0.073868,0.000000,0.088000,0.022000,0.200000,-0.320000,9.490000,0.730000,-0.425290,Hold,0.291260,0.000000,Hold,-258.000000,2.000000,LowGoal,-2872.500000,2909.090909,Speed,-2910.000000,2909.090909,Speed,Off,Off,0.000000,FALSE,44,Read: /home/lvuser/scripts/auto_44.bee,File good!,DRIVE_STRAIGHT_NAVX 200 5000,DRIVE_STRAIGHT_NAVX
08:33:01.584 PM 03/22/2016,Autonomous Enabled,11,FALSE,0,NO ERROR,-0.000000,-52.930960,0.000000,52.648627,FALSE,FALSE,TRUE,FALSE,FALSE,FALSE,Disabled,0.000000,5.381250,-4.021250,TRUE,-3.205032,-20.455246,0.000000,0.000351,-0.077301,0.000000,0.144000,0.096000,-0.444000,-0.370000,11.870000,0.550000,-0.543731,Hold,0.291260,0.000000,Hold,-258.000000,2.000000,LowGoal,-2865.000000,2909.090909,Speed,-2902.500000,2909.090909,Speed,Off,Off,0.000000,FALSE,44,Read: /home/lvuser/scripts/auto_44.bee,File good!,DRIVE_STRAIGHT_NAVX 200 5000,DRIVE_STRAIGHT_NAVX
08:33:01.685 PM 03/22/2016,Autonomous Enabled,11,FALSE,0,NO ERROR,-0.000000,-56.588451,0.000000,56.389535,FALSE,FALSE,TRUE,FALSE,FALSE,FALSE,Disabled,0.000000,5.381250,-4.021250,TRUE,-3.202545,-20.459518,0.000000,0.079208,-0.080627,0.000000,-0.178000,-0.204000,0.742000,-0.520000,10.760000,0.770000,-0.655270,Hold,0.291260,0.000000,Hold,-258.000000,2.000000,LowGoal,-2865.000000,2909.090909,Speed,-2902.500000,2909.090909,Speed,Off,Off,0.000000,FALSE,44,Read: /home/lvuser/scripts/auto_44.bee,File good!,DRIVE_STRAIGHT_NAVX 200 5000,DRIVE_STRAIGHT_NAVX
08:33:01.785 PM 03/22/2016,Autonomous Enabled,10,FALSE,0,NO ERROR,-0.000000,-60.630942,0.000000,60.348609,FALSE,FALSE,TRUE,FALSE,FALSE,FALSE,Disabled,0.000000,5.381250,-4.021250,TRUE,-3.204208,-20.461426,0.000000,-0.076508,0.018173,0.000000,-0.045000,0.112000,-0.995000,0.560000,13.930000,0.590000,0.220720,Hold,0.291260,0.000000,Hold,-258.000000,2.000000,LowGoal,-2865.000000,2909.090909,Speed,-2872.500000,2909.090909,Speed,Off,Off,0.000000,FALSE,44,Read: /home/lvuser/scripts/auto_44.bee,File good!,DRIVE_STRAIGHT_NAVX 200 5000,DRIVE_STRAIGHT_NAVX
08:33:01.887 PM 03/22/2016,Autonomous Enabled,10,FALSE,0,NO ERROR,-0.000000,-63.999684,0.000000,63.877767,FALSE,FALSE,TRUE,FALSE,FALSE,FALSE,Disabled,0.000000,5.381250,-4.021250,TRUE,-3.209427,-20.462814,0.000000,-0.222534,-0.122772,0.000000,-0.131000,0.362000,0.116000,1.260000,17.720000,0.620000,1.023283,Hold,0.291260,0.000000,Hold,-258.000000,2.000000,LowGoal,-2865.000000,2909.090909,Speed,-2865.000000,2909.090909,Speed,Off,Off,0.000000,FALSE,44,Read: /home/lvuser/scripts/auto_44.bee,File good!,DRIVE_STRAIGHT_NAVX 200 5000,DRIVE_STRAIGHT_NAVX
08:33:01.987 PM 03/22/2016,Autonomous Enabled,9,FALSE,0,NO ERROR,-0.000000,-67.439009,0.000000,67.458259,FALSE,FALSE,TRUE,FALSE,FALSE,FALSE,Disabled,0.000000,5.381250,-4.021250,TRUE,-3.224777,-20.467850,0.000000,-0.171173,-0.134003,0.000000,0.477000,-0.088000,-0.061000,0.920000,15.220000,0.910000,0.823308,Hold,0.336182,0.000000,Hold,-258.000000,2.000000,LowGoal,-2865.000000,2909.090909,Speed,-2887.500000,2909.090909,Speed,Off,Off,0.000000,FALSE,44,Read: /home/lvuser/scripts/auto_44.bee,File good!,DRIVE_STRAIGHT_NAVX 200 5000,DRIVE_STRAIGHT_NAVX
08:33:02.088 PM 03/22/2016,Autonomous Enabled,9,FALSE,0,NO ERROR,-0.000000,-70.345752,0.000000,70.762835,FALSE,FALSE,TRUE,FALSE,FALSE,FALSE,Disabled,0.000000,5.381250,-4.021250,TRUE,-3.229797,-20.471558,0.000000,-0.072235,-0.238724,0.000000,0.226000,-0.260000,-0.525000,0.570000,12.060000,-0.860000,0.223036,Hold,0.616943,0.000000,Hold,-258.000000,2.000000,LowGoal,-2842.500000,2909.090909,Speed,-2857.500000,2909.090909,Speed,Off,Off,0.000000,FALSE,44,Read: /home/lvuser/scripts/auto_44.bee,File good!,DRIVE_STRAIGHT_NAVX 200 5000,DRIVE_STRAIGHT_NAVX
08:33:02.189 PM 03/22/2016,Autonomous Enabled,10,FALSE,0,NO ERROR,-0.000000,-73.618245,0.000000,74.099493,FALSE,FALSE,TRUE,FALSE,FALSE,FALSE,Disabled,0.000000,5.381250,-4.021250,TRUE,-3.236008,-20.480164,0.000000,-0.351120,-0.077072,0.000000,0.225000,-0.320000,-1.169000,0.570000,12.060000,-0.860000,-0.388417,Hold,0.623779,0.000000,Hold,-258.000000,2.000000,LowGoal,-2842.500000,2909.090909,Speed,-2865.000000,2909.090909,Speed,Off,Off,0.000000,FALSE,44,Read: /home/lvuser/scripts/auto_44.bee,File good!,DRIVE_STRAIGHT_NAVX 200 5000,DRIVE_STRAIGHT_NAVX
08:33:02.289 PM 03/22/2016,Autonomous Enabled,9,FALSE,0,NO ERROR,-0.000000,-76.698237,0.000000,77.833985,FALSE,FALSE,TRUE,FALSE,FALSE,FALSE,Disabled,0.000000,5.381250,-4.021250,TRUE,-3.251266,-20.487762,0.000000,-0.371567,-0.152679,0.000000,0.236000,-0.532000,0.023000,-0.500000,9.150000,-0.940000,-1.037277,Hold,0.624023,0.000000,Hold,-259.000000,2.000000,LowGoal,-2842.500000,2909.090909,Speed,-2857.500000,2909.090909,Speed,Off,Off,0.000000,FALSE,44,Read: /home/lvuser/scripts/auto_44.bee,File good!,DRIVE_STRAIGHT_NAVX 200 5000,DRIVE_STRAIGHT_NAVX
08:33:02.389 PM 03/22/2016,Autonomous Enabled,10,FALSE,0,NO ERROR,-0.000000,-79.880897,0.000000,80.971727,FALSE,FALSE,TRUE,FALSE,FALSE,FALSE,Disabled,0.000000,5.381250,-4.021250,TRUE,-3.266235,-20.497299,0.000000,-0.199677,-0.060562,0.000000,0.168000,0.360000,-0.598000,0.850000,7.320000,-3.490000,0.003553,Hold,0.624268,0.000000,Hold,-259.000000,2.000000,LowGoal,-2857.500000,2909.090909,Speed,-2842.500000,2909.090909,Speed,Off,Off,0.000000,FALSE,44,Read: /home/lvuser/scripts/auto_44.bee,File good!,DRIVE_STRAIGHT_NAVX 200 5000,DRIVE_STRAIGHT_NAVX
08:33:02.491 PM 03/22/2016,Autonomous Enabled,9,FALSE,0,NO ERROR,-0.000000,-83.551221,0.000000,84.892301,FALSE,FALSE,TRUE,FALSE,FALSE,FALSE,Disabled,0.000000,5.381250,-4.021250,TRUE,-3.274216,-20.503342,0.000000,-0.293777,-0.380569,0.000000,0.158000,-0.739000,0.809000,1.880000,5.400000,-3.240000,0.944018,Hold,0.624268,0.000000,Hold,-259.000000,2.000000,LowGoal,-2850.000000,2909.090909,Speed,-2865.000000,2909.090909,Speed,Off,Off,0.000000,FALSE,44,Read: /home/lvuser/scripts/auto_44.bee,File good!,DRIVE_STRAIGHT_NAVX 200 5000,DRIVE_STRAIGHT_NAVX
08:33:02.591 PM 03/22/2016,Autonomous Enabled,9,FALSE,0,NO ERROR,-0.000000,-86.772380,0.000000,88.851376,FALSE,FALSE,TRUE,FALSE,FALSE,FALSE,Disabled,0.000000,5.381250,-4.021250,TRUE,-3.288666,-20.531342,0.000000,-0.249283,-0.519592,0.000000,0.196000,0.325000,-0.544000,0.630000,2.750000,-3.980000,-0.465241,Hold,0.624268,0.000000,Hold,-259.000000,2.000000,LowGoal,-2865.000000,2909.090909,Speed,-2880.000000,2909.090909,Speed,Off,Off,0.000000,FALSE,44,Read: /home/lvuser/scripts/auto_44.bee,File good!,DRIVE_STRAIGHT_NAVX 200 5000,DRIVE_STRAIGHT_NAVX
08:33:02.693 PM 03/22/2016,Autonomous Enabled,9,FALSE,0,NO ERROR,-0.000000,-90.044873,0.000000,92.682117,FALSE,FALSE,TRUE,FALSE,FALSE,FALSE,Disabled,0.000000,5.381250,-4.021250,TRUE,-3.298782,-20.554382,0.000000,-0.220642,-0.506851,0.000000,0.039000,0.020000,1.003000,-0.230000,-3.860000,-2.790000,-1.302316,Hold,0.624268,0.000000,Hold,-259.000000,2.000000,LowGoal,-2857.500000,2909.090909,Speed,-2857.500000,2909.090909,Speed,Off,Off,0.000000,FALSE,44,Read: /home/lvuser/scripts/auto_44.bee,File good!,DRIVE_STRAIGHT_NAVX 200 5000,DRIVE_STRAIGHT_NAVX
08:33:02.792 PM 03/22/2016,Autonomous Enabled,9,FALSE,0,NO ERROR,-0.000000,-93.651031,0.000000,96.577024,FALSE,FALSE,TRUE,FALSE,FALSE,FALSE,Disabled,0.000000,5.381250,-4.021250,TRUE,-3.306320,-20.584869,0.000000,-0.014236,-0.762573,0.000000,0.322000,0.161000,-0.659000,-0.550000,-13.520000,0.970000,-2.068936,Hold,0.624756,0.000000,Hold,-259.000000,2.000000,LowGoal,-2850.000000,2909.090909,Speed,-2850.000000,2909.090909,Speed,Off,Off,0.000000,FALSE,44,Read: /home/lvuser/scripts/auto_44.bee,File good!,DRIVE_STRAIGHT_NAVX 200 5000,DRIVE_STRAIGHT_NAVX
08:33:02.893 PM 03/22/2016,Autonomous Enabled,9,FALSE,0,NO ERROR,-0.000000,-98.688103,0.000000,101.864345,FALSE,FALSE,TRUE,FALSE,FALSE,FALSE,Disabled,0.000000,5.381250,-4.021250,TRUE,-3.306046,-20.617630,0.000000,-0.095490,-0.569962,0.000000,-0.184000,0.189000,-1.197000,-2.090000,-11.930000,1.100000,-3.543704,Hold,0.929443,0.000000,Hold,-257.000000,2.000000,LowGoal,-2842.500000,2909.090909,Speed,-2887.500000,2909.090909,Speed,Off,Off,0.000000,FALSE,44,Read: /home/lvuser/scripts/auto_44.bee,File good!,DRIVE_STRAIGHT_NAVX 200 5000,DRIVE_STRAIGHT_NAVX
08:33:02.992 PM 03/22/2016,Autonomous Enabled,9,FALSE,0,NO ERROR,-0.000000,-104.142256,0.000000,107.440415,FALSE,FALSE,TRUE,FALSE,FALSE,FALSE,Disabled,0.000000,5.381250,-4.021250,TRUE,-3.314331,-20.645859,0.000000,-0.255890,-0.533020,0.000000,-0.168000,0.345000,1.032000,-2.090000,-11.930000,1.100000,-4.319288,Hold,1.280762,0.000000,Hold,-257.000000,2.000000,LowGoal,-2872.500000,2909.090909,Speed,-2932.500000,2909.090909,Speed,Off,Off,0.000000,FALSE,44,Read: /home/lvuser/scripts/auto_44.bee,File good!,DRIVE_STRAIGHT_NAVX 200 5000,DRIVE_STRAIGHT_NAVX
08:33:03.092 PM 03/22/2016,Autonomous Enabled,9,FALSE,0,NO ERROR,-0.000000,-109.050995,0.000000,111.880738,TRUE,FALSE,TRUE,FALSE,FALSE,FALSE,Disabled,0.000000,5.381250,-4.021250,TRUE,-3.328247,-20.664200,0.000000,-0.286957,-0.345856,0.000000,0.096000,-0.061000,0.049000,-1.890000,-2.250000,0.670000,-3.380740,Hold,1.246094,0.000000,Hold,-268.000000,2.000000,LowGoal,-2910.000000,2909.090909,Speed,-2932.500000,2909.090909,Speed,Off,Off,0.000000,FALSE,44,Read: /home/lvuser/scripts/auto_44.bee,File good!,DRIVE_STRAIGHT_NAVX 200 5000,DRIVE_STRAIGHT_NAVX
08:33:03.193 PM 03/22/2016,Autonomous Enabled,10,FALSE,0,NO ERROR,-0.000000,-114.229233,0.000000,116.706060,TRUE,FALSE,TRUE,FALSE,FALSE,FALSE,Disabled,0.000000,5.381250,-4.021250,TRUE,-3.347504,-20.686279,0.000000,-0.403229,-0.284851,0.000000,0.076000,0.437000,-0.943000,-1.410000,0.800000,0.940000,-2.900066,Hold,1.498047,0.000000,Hold,-224.000000,2.000000,LowGoal,-2880.000000,2909.090909,Speed,-2910.000000,2909.090909,Speed,Off,Off,0.000000,FALSE,44,Read: /home/lvuser/scripts/auto_44.bee,File good!,DRIVE_STRAIGHT_NAVX 200 5000,DRIVE_STRAIGHT_NAVX
08:33:03.292 PM 03/22/2016,Autonomous Enabled,8,FALSE,0,NO ERROR,-0.000000,-119.131555,0.000000,121.338883,TRUE,FALSE,TRUE,FALSE,FALSE,FALSE,Disabled,0.000000,5.381250,-4.021250,TRUE,-3.368042,-20.701614,0.000000,-0.431961,-0.372025,0.000000,0.752000,-1.160000,1.003000,-1.060000,2.420000,1.440000,-2.571068,Hold,1.484863,0.000000,Hold,-228.000000,2.000000,LowGoal,-2872.500000,2909.090909,Speed,-2910.000000,2909.090909,Speed,Off,Off,0.000000,FALSE,44,Read: /home/lvuser/scripts/auto_44.bee,File good!,DRIVE_STRAIGHT_NAVX 200 5000,DRIVE_STRAIGHT_NAVX
08:33:03.392 PM 03/22/2016,Autonomous Enabled,10,FALSE,0,NO ERROR,-0.000000,-123.064962,0.000000,124.021043,TRUE,FALSE,TRUE,FALSE,FALSE,FALSE,Disabled,0.000000,5.381250,-4.021250,TRUE,-3.384293,-20.726608,0.000000,-0.395538,-0.415710,0.000000,0.752000,-1.160000,1.003000,-0.570000,1.040000,1.350000,-1.863798,Hold,1.484375,0.000000,Hold,-227.000000,2.000000,LowGoal,-2887.500000,2909.090909,Speed,-2910.000000,2909.090909,Speed,Off,Off,0.000000,FALSE,44,Read: /home/lvuser/scripts/auto_44.bee,File good!,SET_HEADING 0,SET_HEADING
08:33:03.492 PM 03/22/2016,Autonomous Enabled,9,FALSE,0,NO ERROR,-0.000000,-125.772789,0.000000,124.560042,TRUE,FALSE,TRUE,TRUE,FALSE,TRUE,Disabled,0.000000,5.381250,-4.021250,TRUE,-3.426926,-20.733368,0.000000,-1.023132,-0.032730,0.000000,-0.509000,0.595000,1.005000,-0.570000,1.040000,1.350000,3.742973,Hold,1.479736,51.000000,Hold,-227.000000,77824.000000,LowGoal,-2887.500000,-3272.727273,Speed,-2910.000000,-3272.727273,Speed,Off,Off,0.000000,FALSE,44,Read: /home/lvuser/scripts/auto_44.bee,File good!,SEARCH_FOR_GOAL,SEARCH_FOR_GOAL
08:33:03.592 PM 03/22/2016,Autonomous Enabled,9,FALSE,0,NO ERROR,-0.000000,-126.735287,0.000000,124.874458,TRUE,FALSE,TRUE,TRUE,FALSE,TRUE,Disabled,0.000000,5.381250,-4.021250,TRUE,-3.490845,-20.746597,0.000000,-1.424088,-0.489807,0.000000,-0.138000,-0.312000,0.224000,7.140000,-2.620000,0.380000,5.906906,Hold,2.604248,51.000000,Hold,-1328.000000,77824.000000,LowGoal,-2797.500000,-3272.727273,Speed,-2797.500000,-3272.727273,Speed,Off,Off,0.000000,FALSE,44,Read: /home/lvuser/scripts/auto_44.bee,File good!,SEARCH_FOR_GOAL,SEARCH_FOR_GOAL
08:33:03.692 PM 03/22/2016,Autonomous Enabled,9,FALSE,0,NO ERROR,-0.000000,-126.748120,0.000000,124.771792,TRUE,FALSE,TRUE,TRUE,FALSE,TRUE,Disabled,0.000000,5.381250,-4.021250,TRUE,-3.562485,-20.765640,0.000000,-1.417542,-0.236664,0.000000,-0.138000,-0.312000,0.224000,7.140000,-2.620000,0.380000,6.881202,Hold,3.596680,51.000000,Hold,-13757.000000,77824.000000,LowGoal,-1642.500000,-3272.727273,Speed,-1582.500000,-3272.727273,Speed,Off,Off,0.000000,FALSE,44,Read: /home/lvuser/scripts/auto_44.bee,File good!,SEARCH_FOR_GOAL,SEARCH_FOR_GOAL
08:33:03.793 PM 03/22/2016,Autonomous Enabled,9,FALSE,0,NO ERROR,-0.000000,-126.748120,0.000000,124.771792,TRUE,FALSE,TRUE,TRUE,FALSE,TRUE,Disabled,0.000000,5.381250,-4.021250,TRUE,-3.632385,-20.780014,0.000000,-1.382141,-0.368057,0.000000,0.050000,-0.010000,0.179000,8.040000,-2.980000,1.680000,6.624910,Hold,4.759521,51.000000,Hold,-24466.000000,77824.000000,LowGoal,-232.500000,-3272.727273,Speed,-180.000000,-3272.727273,Speed,Off,Off,0.000000,FALSE,44,Read: /home/lvuser/scripts/auto_44.bee,File good!,SEARCH_FOR_GOAL,SEARCH_FOR_GOAL
08:33:03.895 PM 03/22/2016,Autonomous Enabled,9,FALSE,0,NO ERROR,-0.000000,-126.748120,0.000000,124.758958,TRUE,FALSE,TRUE,TRUE,FALSE,TRUE,Disabled,0.000000,5.381250,-4.021250,TRUE,-3.698639,-20.795746,0.000000,-1.296097,-0.266876,0.000000,0.094000,0.039000,0.069000,7.860000,-2.850000,0.850000,6.662785,Hold,6.434570,51.000000,Hold,-33569.000000,77824.000000,LowGoal,750.000000,-3272.727273,Speed,652.500000,-3272.727273,Speed,Off,Off,0.000000,FALSE,44,Read: /home/lvuser/scripts/auto_44.bee,File good!,SEARCH_FOR_GOAL,SEARCH_FOR_GOAL
08:33:03.995 PM 03/22/2016,Autonomous Enabled,11,FALSE,0,NO ERROR,-0.000000,-126.696787,0.000000,124.758958,TRUE,FALSE,TRUE,TRUE,FALSE,TRUE,Disabled,0.000000,5.381250,-4.021250,TRUE,-3.762695,-20.811005,0.000000,-1.263168,-0.300003,0.000000,0.019000,0.141000,-0.048000,7.860000,-2.300000,1.250000,6.406473,Hold,8.313477,51.000000,Hold,-42555.000000,77824.000000,LowGoal,1485.000000,-3272.727273,Speed,1447.500000,-3272.727273,Speed,Off,Off,0.000000,FALSE,44,Read: /home/lvuser/scripts/auto_44.bee,File good!,SEARCH_FOR_GOAL,SEARCH_FOR_GOAL
08:33:04.096 PM 03/22/2016,Autonomous Enabled,9,FALSE,0,NO ERROR,-0.000000,-126.696787,0.000000,124.758958,TRUE,FALSE,TRUE,TRUE,FALSE,TRUE,Disabled,0.000000,5.381250,-4.021250,TRUE,-3.826508,-20.825150,0.000000,-1.285751,-0.293976,0.000000,0.019000,0.141000,-0.048000,7.610000,-2.210000,1.370000,6.477373,Hold,10.786133,51.000000,Hold,-42555.000000,77824.000000,LowGoal,2055.000000,-3272.727273,Speed,2070.000000,-3272.727273,Speed,Off,Off,0.000000,FALSE,44,Read: /home/lvuser/scripts/auto_44.bee,File good!,SEARCH_FOR_GOAL,SEARCH_FOR_GOAL
08:33:04.196 PM 03/22/2016,Autonomous Enabled,9,FALSE,0,NO ERROR,-0.000000,-126.696787,0.000000,124.752542,TRUE,FALSE,TRUE,TRUE,FALSE,TRUE,Disabled,0.000000,5.381250,-4.021250,TRUE,-3.889511,-20.827805,0.000000,-1.229172,0.004166,0.000000,0.216000,-0.155000,-0.165000,7.670000,-2.210000,1.280000,6.466388,Hold,13.869873,51.000000,Hold,-53367.000000,77824.000000,LowGoal,2437.500000,-3272.727273,Speed,2587.500000,-3272.727273,Speed,Off,Off,0.000000,FALSE,44,Read: /home/lvuser/scripts/auto_44.bee,File good!,SEARCH_FOR_GOAL,SEARCH_FOR_GOAL
08:33:04.296 PM 03/22/2016,Autonomous Enabled,9,FALSE,0,NO ERROR,-0.000000,-126.696787,0.000000,124.752542,TRUE,FALSE,TRUE,TRUE,FALSE,TRUE,Disabled,0.000000,5.381250,-4.021250,TRUE,-3.949402,-20.828537,0.000000,-1.187698,-0.013107,0.000000,0.216000,-0.155000,-0.165000,7.660000,-1.830000,1.230000,6.467369,Hold,16.778809,51.000000,Hold,-65193.000000,77824.000000,LowGoal,2835.000000,-3272.727273,Speed,3000.000000,-3272.727273,Speed,Off,Off,0.000000,FALSE,44,Read: /home/lvuser/scripts/auto_44.bee,File good!,SEARCH_FOR_GOAL,SEARCH_FOR_GOAL
08:33:04.396 PM 03/22/2016,Autonomous Enabled,9,FALSE,0,NO ERROR,-0.000000,-126.696787,0.000000,124.758958,TRUE,FALSE,TRUE,TRUE,FALSE,TRUE,Disabled,0.000000,5.381250,-4.021250,TRUE,-4.007278,-20.829330,0.000000,-1.105789,-0.016556,0.000000,-0.096000,0.053000,0.024000,7.650000,-1.620000,1.310000,6.476137,Hold,21.074463,51.000000,Hold,-77968.000000,77824.000000,LowGoal,3157.500000,-3272.727273,Speed,3292.500000,-3272.727273,Speed,Off,Off,0.000000,FALSE,44,Read: /home/lvuser/scripts/auto_44.bee,File good!,SEARCH_FOR_GOAL,SEARCH_FOR_GOAL
08:33:04.497 PM 03/22/2016,Autonomous Enabled,11,FALSE,0,NO ERROR,-0.000000,-126.773787,0.000000,124.868041,TRUE,FALSE,TRUE,TRUE,FALSE,TRUE,Disabled,0.000000,5.381250,-4.021250,TRUE,-4.059616,-20.829849,0.000000,-1.038544,-0.000366,0.000000,0.128000,-0.055000,0.225000,7.660000,-2.040000,1.340000,6.268564,Hold,26.554688,51.000000,Hold,-77351.000000,77824.000000,LowGoal,3337.500000,-3272.727273,Speed,3345.000000,-3272.727273,Speed,Off,Off,0.000000,FALSE,44,Read: /home/lvuser/scripts/auto_44.bee,File good!,SEARCH_FOR_GOAL,SEARCH_FOR_GOAL
08:33:04.597 PM 03/22/2016,Autonomous Enabled,10,FALSE,0,NO ERROR,-0.000000,-126.741704,0.000000,124.829541,TRUE,FALSE,TRUE,TRUE,FALSE,TRUE,Disabled,0.000000,5.381250,-4.021250,TRUE,-4.114716,-20.827255,0.000000,-1.109131,0.086624,0.000000,-0.270000,0.084000,0.282000,7.510000,-1.540000,1.320000,6.171384,Hold,33.464355,51.000000,Hold,-77432.000000,77824.000000,LowGoal,3292.500000,-3272.727273,Speed,3270.000000,-3272.727273,Speed,Off,Off,0.000000,FALSE,44,Read: /home/lvuser/scripts/auto_44.bee,File good!,SEARCH_FOR_GOAL,SEARCH_FOR_GOAL
08:33:04.697 PM 03/22/2016,Autonomous Enabled,10,FALSE,0,NO ERROR,-0.000000,-126.709620,0.000000,124.758958,TRUE,FALSE,TRUE,TRUE,FALSE,TRUE,Disabled,0.000000,5.381250,-4.021250,TRUE,-4.114716,-20.827255,0.000000,-1.109131,0.086624,0.000000,0.043000,-0.027000,0.114000,7.380000,-1.670000,1.430000,6.194873,Hold,42.742432,51.000000,Hold,-77745.000000,77824.000000,LowGoal,3240.000000,-3272.727273,Speed,3255.000000,-3272.727273,Speed,Off,Off,0.000000,FALSE,44,Read: /home/lvuser/scripts/auto_44.bee,File good!,SEARCH_FOR_GOAL,SEARCH_FOR_GOAL
08:33:04.798 PM 03/22/2016,Autonomous Enabled,14,FALSE,0,NO ERROR,-0.000000,-126.709620,0.000000,124.791042,TRUE,FALSE,TRUE,TRUE,FALSE,TRUE,Disabled,0.000000,5.381250,-4.021250,TRUE,-4.176178,-20.822617,0.000000,-0.918228,0.087357,0.000000,0.215000,0.096000,-0.178000,7.360000,-1.700000,1.350000,6.136436,Hold,51.749512,51.000000,Hold,-77745.000000,77824.000000,LowGoal,3247.500000,-3272.727273,Speed,3285.000000,-3272.727273,Speed,Off,Off,0.000000,FALSE,44,Read: /home/lvuser/scripts/auto_44.bee,File good!,SEARCH_FOR_GOAL,SEARCH_FOR_GOAL
08:33:04.898 PM 03/22/2016,Autonomous Enabled,11,FALSE,0,NO ERROR,-0.000000,-126.709620,0.000000,124.803875,TRUE,FALSE,TRUE,TRUE,FALSE,TRUE,Enable,-0.271875,11.146875,-3.886875,TRUE,-4.221893,-20.817505,0.000000,-0.928574,0.119308,0.000000,-0.124000,0.167000,0.020000,7.320000,-1.490000,1.280000,6.127929,Hold,55.703125,51.000000,Hold,-77880.000000,77824.000000,LowGoal,3285.000000,-3272.727273,Speed,3292.500000,-3272.727273,Speed,Off,Off,0.000000,FALSE,44,Read: /home/lvuser/scripts/auto_44.bee,File good!,SEARCH_FOR_GOAL,SEARCH_FOR_GOAL
08:33:04.998 PM 03/22/2016,Autonomous Enabled,11,FALSE,0,NO ERROR,-0.000000,-126.709620,0.000000,124.803875,TRUE,FALSE,TRUE,TRUE,FALSE,TRUE,PID,-0.271875,11.146875,-3.886875,TRUE,-4.269257,-20.808899,0.000000,-0.936234,0.210464,0.000000,0.005000,0.083000,-0.088000,7.280000,-1.780000,1.450000,6.127929,Hold,55.812988,51.000000,Hold,-77916.000000,77824.000000,LowGoal,3277.500000,-3272.727273,Speed,3277.500000,-3272.727273,Speed,Off,Off,0.000000,FALSE,44,Read: /home/lvuser/scripts/auto_44.bee,File good!,SEARCH_FOR_GOAL,SEARCH_FOR_GOAL
08:33:05.098 PM 03/22/2016,Autonomous Enabled,11,FALSE,0,NO ERROR,-0.000000,-126.709620,0.000000,124.906541,TRUE,FALSE,TRUE,TRUE,FALSE,TRUE,PID,-0.271875,11.146875,-3.886875,TRUE,-4.268738,-20.797150,0.000000,0.013931,0.252441,0.000000,-0.109000,0.088000,0.255000,7.360000,-1.180000,1.430000,6.170458,Hold,55.812500,51.000000,Hold,-77900.000000,77824.000000,LowGoal,3262.500000,-3272.727273,Speed,3277.500000,-3272.727273,Speed,Off,Off,0.000000,FALSE,44,Read: /home/lvuser/scripts/auto_44.bee,File good!,SEARCH_FOR_GOAL,SEARCH_FOR_GOAL
08:33:05.199 PM 03/22/2016,Autonomous Enabled,10,FALSE,0,NO ERROR,-0.000000,-125.830539,0.000000,125.753539,TRUE,FALSE,TRUE,TRUE,FALSE,TRUE,PID,-0.271875,11.146875,-3.886875,TRUE,-4.271530,-20.786652,0.000000,-0.089142,0.153915,0.000000,0.027000,0.074000,0.033000,5.640000,-1.460000,0.890000,4.004604,Hold,55.812256,51.000000,Hold,-77899.000000,77824.000000,LowGoal,3255.000000,-3272.727273,Speed,3262.500000,-3272.727273,Speed,Off,Off,0.000000,FALSE,44,Read: /home/lvuser/scripts/auto_44.bee,File good!,SEARCH_FOR_GOAL,SEARCH_FOR_GOAL
08:33:05.299 PM 03/22/2016,Autonomous Enabled,10,FALSE,0,NO ERROR,-0.000000,-124.842375,0.000000,126.793037,TRUE,FALSE,TRUE,TRUE,FALSE,TRUE,PID,-0.271875,11.146875,-3.886875,TRUE,-4.275406,-20.777466,0.000000,-0.041916,0.185928,0.000000,0.167000,-0.042000,0.037000,0.680000,-1.410000,0.990000,-0.299492,Hold,55.812256,51.000000,Hold,-77899.000000,77824.000000,LowGoal,3255.000000,-3272.727273,Speed,3255.000000,-3272.727273,Speed,Off,Off,0.000000,FALSE,44,Read: /home/lvuser/scripts/auto_44.bee,File good!,SEARCH_FOR_GOAL,SEARCH_FOR_GOAL
08:33:05.399 PM 03/22/2016,Autonomous Enabled,11,FALSE,0,NO ERROR,-0.000000,-123.995377,0.000000,127.800451,TRUE,FALSE,TRUE,TRUE,FALSE,TRUE,PID,-0.271875,11.146875,-3.886875,TRUE,-4.275299,-20.765106,0.000000,0.014389,0.275299,0.000000,0.106000,-0.043000,-0.025000,-2.530000,-1.250000,1.250000,-4.520891,Hold,55.812012,51.000000,Hold,-77899.000000,77824.000000,LowGoal,3262.500000,-3272.727273,Speed,3262.500000,-3272.727273,Speed,Off,Off,0.000000,FALSE,44,Read: /home/lvuser/scripts/auto_44.bee,File good!,SEARCH_FOR_GOAL,SEARCH_FOR_GOAL
08:33:05.499 PM 03/22/2016,Autonomous Enabled,11,FALSE,0,NO ERROR,-0.000000,-123.411461,0.000000,128.384366,TRUE,FALSE,TRUE,TRUE,FALSE,TRUE,PID,-0.271875,11.146875,-3.886875,TRUE,-4.273834,-20.750198,0.000000,0.011337,0.318130,0.000000,0.109000,-0.112000,0.072000,-6.170000,-0.810000,1.370000,-7.681363,Hold,55.812012,51.000000,Hold,-77899.000000,77824.000000,LowGoal,3262.500000,-3272.727273,Speed,3270.000000,-3272.727273,Speed,Off,Off,0.000000,FALSE,44,Read: /home/lvuser/scripts/auto_44.bee,File good!,SEARCH_FOR_GOAL,SEARCH_FOR_GOAL
08:33:05.599 PM 03/22/2016,Autonomous Enabled,10,FALSE,0,NO ERROR,-0.000000,-123.899127,0.000000,127.922368,TRUE,FALSE,TRUE,TRUE,FALSE,TRUE,PID,-0.271875,11.146875,-3.886875,TRUE,-4.268311,-20.728745,0.000000,0.174057,0.536301,0.000000,0.004000,-0.086000,-0.107000,-5.720000,-0.230000,2.110000,-7.659103,Hold,55.812012,51.000000,Hold,-77899.000000,77824.000000,LowGoal,3255.000000,-3272.727273,Speed,3277.500000,-3272.727273,Speed,Off,Off,0.000000,FALSE,44,Read: /home/lvuser/scripts/auto_44.bee,File good!,SEARCH_FOR_GOAL,SEARCH_FOR_GOAL
08:33:05.699 PM 03/22/2016,Autonomous Enabled,11,FALSE,0,NO ERROR,-0.000000,-124.515125,0.000000,127.242202,TRUE,FALSE,TRUE,TRUE,FALSE,TRUE,PID,-0.271875,11.146875,-3.886875,TRUE,-4.257233,-20.696411,0.000000,0.175674,0.520050,0.000000,0.003000,0.041000,0.047000,-3.160000,-0.300000,1.790000,-4.947290,Hold,55.812012,51.000000,Hold,-77899.000000,77824.000000,LowGoal,3262.500000,-3272.727273,Speed,3270.000000,-3272.727273,Speed,Off,Off,0.000000,FALSE,44,Read: /home/lvuser/scripts/auto_44.bee,File good!,SEARCH_FOR_GOAL,SEARCH_FOR_GOAL
08:33:05.800 PM 03/22/2016,Autonomous Enabled,11,FALSE,0,NO ERROR,-0.000000,-124.714042,0.000000,127.062536,TRUE,FALSE,TRUE,TRUE,FALSE,TRUE,PID,-0.271875,11.146875,-3.886875,TRUE,-4.251007,-20.675858,0.000000,0.127060,0.503677,0.000000,-0.109000,-0.230000,-0.047000,-1.520000,-0.440000,1.560000,-3.016690,Hold,55.812012,51.000000,Hold,-77899.000000,77824.000000,LowGoal,3270.000000,-3272.727273,Speed,3270.000000,-3272.727273,Speed,Off,Off,0.000000,FALSE,44,Read: /home/lvuser/scripts/auto_44.bee,File good!,SEARCH_FOR_GOAL,SEARCH_FOR_GOAL
08:33:05.900 PM 03/22/2016,Autonomous Enabled,11,FALSE,0,NO ERROR,-0.000000,-124.021043,0.000000,127.761951,TRUE,FALSE,TRUE,TRUE,FALSE,TRUE,PID,-0.021875,11.146875,-3.886875,TRUE,-4.247162,-20.653412,0.000000,0.048889,0.420639,0.000000,0.016000,0.049000,0.002000,-3.130000,-0.700000,1.090000,-5.034094,Hold,55.812012,51.000000,Hold,-77899.000000,77824.000000,LowGoal,3262.500000,-3272.727273,Speed,3277.500000,-3272.727273,Speed,Off,Off,0.000000,FALSE,44,Read: /home/lvuser/scripts/auto_44.bee,File good!,SEARCH_FOR_GOAL,SEARCH_FOR_GOAL
08:33:06.000 PM 03/22/2016,Autonomous Enabled,11,FALSE,0,NO ERROR,-0.000000,-123.591128,0.000000,128.172617,TRUE,FALSE,TRUE,TRUE,FALSE,TRUE,Enable,-0.021875,0.896875,-6.836875,TRUE,-4.243134,-20.625610,0.000000,0.096985,0.505020,0.000000,0.132000,0.205000,0.015000,-5.610000,-0.590000,1.300000,-7.439485,Hold,55.812012,51.000000,Hold,-77899.000000,77824.000000,LowGoal,3262.500000,-3272.727273,Speed,3285.000000,-3272.727273,Speed,Off,Off,0.000000,FALSE,44,Read: /home/lvuser/scripts/auto_44.bee,File good!,SEARCH_FOR_GOAL,SEARCH_FOR_GOAL
08:33:06.100 PM 03/22/2016,Autonomous Enabled,9,FALSE,0,NO ERROR,-0.000000,-124.008210,0.000000,127.768368,TRUE,FALSE,TRUE,TRUE,FALSE,TRUE,Suspended,-0.021875,0.896875,-6.836875,TRUE,-4.236160,-20.594940,0.000000,0.160889,0.670700,0.000000,-0.154000,-0.165000,-0.021000,-4.460000,-0.080000,2.000000,-6.242208,Hold,55.812012,51.000000,Hold,-77899.000000,77824.000000,LowGoal,3262.500000,-3272.727273,Speed,3285.000000,-3272.727273,Speed,Off,Off,0.000000,FALSE,44,Read: /home/lvuser/scripts/auto_44.bee,File good!,SEARCH_FOR_GOAL,SEARCH_FOR_GOAL
08:33:06.200 PM 03/22/2016,Autonomous Enabled,10,FALSE,0,NO ERROR,-0.000000,-124.104460,0.000000,127.640035,TRUE,FALSE,TRUE,TRUE,FALSE,TRUE,Suspended,-0.021875,0.896875,-6.836875,TRUE,-4.229156,-20.566376,0.000000,0.124084,0.505966,0.000000,0.025000,-0.051000,0.036000,-3.450000,-0.420000,1.460000,-4.983970,Hold,55.812012,51.000000,Hold,-77899.000000,77824.000000,LowGoal,3277.500000,-3272.727273,Speed,3270.000000,-3272.727273,Speed,Off,Off,0.000000,FALSE,44,Read: /home/lvuser/scripts/auto_44.bee,File good!,SEARCH_FOR_GOAL,SEARCH_FOR_GOAL
08:33:06.300 PM 03/22/2016,Autonomous Enabled,11,FALSE,0,NO ERROR,-0.000000,-124.091626,0.000000,127.640035,TRUE,FALSE,TRUE,TRUE,FALSE,TRUE,Suspended,-0.021875,0.896875,-6.836875,TRUE,-4.223557,-20.542404,0.000000,0.115219,0.475677,0.000000,-0.081000,-0.040000,-0.090000,-3.990000,-0.410000,1.390000,-5.611859,Hold,55.812012,51.000000,Hold,-77899.000000,77824.000000,LowGoal,3277.500000,-3272.727273,Speed,3262.500000,-3272.727273,Speed,Off,Off,0.000000,FALSE,44,Read: /home/lvuser/scripts/auto_44.bee,File good!,SEARCH_FOR_GOAL,SEARCH_FOR_GOAL
08:33:06.400 PM 03/22/2016,Autonomous Enabled,10,FALSE,0,NO ERROR,-0.000000,-124.091626,0.000000,127.659285,TRUE,FALSE,TRUE,TRUE,FALSE,TRUE,Suspended,-0.021875,0.896875,-6.836875,TRUE,-4.216553,-20.518509,0.000000,0.147690,0.488235,0.000000,0.040000,0.017000,0.032000,-4.150000,-0.290000,1.580000,-5.724527,Hold,55.812012,51.000000,Hold,-77899.000000,77824.000000,LowGoal,3270.000000,-3272.727273,Speed,3277.500000,-3272.727273,Speed,Off,Off,0.000000,FALSE,44,Read: /home/lvuser/scripts/auto_44.bee,File good!,SEARCH_FOR_GOAL,SEARCH_FOR_GOAL
08:33:06.500 PM 03/22/2016,Autonomous Enabled,11,FALSE,0,NO ERROR,-0.000000,-124.091626,0.000000,127.659285,TRUE,FALSE,TRUE,TRUE,FALSE,TRUE,Suspended,-0.021875,0.896875,-6.836875,TRUE,-4.209457,-20.519333,0.000000,0.135849,-0.034760,0.000000,-0.027000,-0.084000,-0.024000,-4.070000,-0.320000,1.520000,-5.592646,Hold,55.812012,51.000000,Hold,-77899.000000,77824.000000,LowGoal,3270.000000,-3272.727273,Speed,3277.500000,-3272.727273,Speed,Off,Off,0.000000,FALSE,44,Read: /home/lvuser/scripts/auto_44.bee,File good!,SEARCH_FOR_GOAL,SEARCH_FOR_GOAL
08:33:06.600 PM 03/22/2016,Autonomous Enabled,10,FALSE,0,NO ERROR,-0.000000,-124.091626,0.000000,127.659285,TRUE,FALSE,TRUE,TRUE,FALSE,TRUE,Suspended,-0.021875,0.896875,-6.836875,TRUE,-4.202362,-20.522034,0.000000,0.142120,-0.068985,0.000000,0.074000,0.009000,0.046000,-4.130000,-0.260000,1.480000,-5.664932,Hold,55.812012,51.000000,Hold,-77899.000000,77824.000000,LowGoal,3277.500000,-3272.727273,Speed,3262.500000,-3272.727273,Speed,Off,Off,0.000000,FALSE,44,Read: /home/lvuser/scripts/auto_44.bee,File good!,SEARCH_FOR_GOAL,SEARCH_FOR_GOAL
08:33:06.700 PM 03/22/2016,Autonomous Enabled,10,FALSE,0,NO ERROR,-0.000000,-124.091626,0.000000,127.659285,TRUE,FALSE,TRUE,TRUE,FALSE,TRUE,Suspended,-0.021875,0.896875,-6.836875,TRUE,-4.193771,-20.527420,0.000000,0.141800,-0.106537,0.000000,-0.167000,-0.052000,-0.214000,-4.100000,-0.240000,1.460000,-5.629595,Hold,55.812012,51.000000,Hold,-77899.000000,77824.000000,LowGoal,3270.000000,-3272.727273,Speed,3262.500000,-3272.727273,Speed,Off,Off,0.000000,FALSE,44,Read: /home/lvuser/scripts/auto_44.bee,File good!,SEARCH_FOR_GOAL,SEARCH_FOR_GOAL
08:33:06.800 PM 03/22/2016,Autonomous Enabled,10,FALSE,0,NO ERROR,-0.000000,-124.091626,0.000000,127.659285,TRUE,FALSE,TRUE,TRUE,FALSE,TRUE,Suspended,-0.021875,0.896875,-6.836875,TRUE,-4.186691,-20.533707,0.000000,0.153519,-0.128250,0.000000,0.068000,0.061000,0.056000,-4.130000,-0.270000,1.440000,-5.646618,Hold,55.812012,51.000000,Hold,-77899.000000,77824.000000,LowGoal,3270.000000,-3272.727273,Speed,3262.500000,-3272.727273,Speed,Off,Off,0.000000,FALSE,44,Read: /home/lvuser/scripts/auto_44.bee,File good!,SEARCH_FOR_GOAL,SEARCH_FOR_GOAL
08:33:06.900 PM 03/22/2016,Autonomous Enabled,11,FALSE,0,NO ERROR,-0.000000,-124.091626,0.000000,127.659285,TRUE,FALSE,TRUE,TRUE,FALSE,TRUE,Suspended,0.015625,0.896875,-6.836875,TRUE,-4.178848,-20.540314,0.000000,0.164627,-0.125519,0.000000,0.034000,0.051000,-0.056000,-4.130000,-0.260000,1.430000,-5.637199,Hold,55.812012,51.000000,Hold,-77899.000000,77824.000000,LowGoal,3270.000000,-3272.727273,Speed,3262.500000,-3272.727273,Speed,Off,Off,0.000000,FALSE,44,Read: /home/lvuser/scripts/auto_44.bee,File good!,SEARCH_FOR_GOAL,SEARCH_FOR_GOAL
08:33:07.000 PM 03/22/2016,Autonomous Enabled,11,FALSE,0,NO ERROR,-0.000000,-124.091626,0.000000,127.659285,TRUE,FALSE,TRUE,TRUE,FALSE,TRUE,Suspended,0.015625,0.896875,-6.836875,TRUE,-4.171112,-20.546600,0.000000,0.153961,-0.131668,0.000000,0.049000,0.017000,0.063000,-4.130000,-0.270000,1.410000,-5.642091,Hold,55.812012,51.000000,Hold,-77899.000000,77824.000000,LowGoal,3270.000000,-3272.727273,Speed,3292.500000,-3272.727273,Speed,Off,Off,0.000000,FALSE,44,Read: /home/lvuser/scripts/auto_44.bee,File good!,SEARCH_FOR_GOAL,SEARCH_FOR_GOAL
08:33:07.100 PM 03/22/2016,Autonomous Enabled,11,FALSE,0,NO ERROR,-0.000000,-124.091626,0.000000,127.659285,TRUE,FALSE,TRUE,TRUE,FALSE,TRUE,Suspended,0.015625,0.896875,-6.836875,TRUE,-4.162964,-20.553299,0.000000,0.173645,-0.137070,0.000000,-0.016000,-0.002000,-0.080000,-4.130000,-0.220000,1.420000,-5.637595,Hold,55.812012,51.000000,Hold,-77899.000000,77824.000000,LowGoal,3277.500000,-3272.727273,Speed,3277.500000,-3272.727273,Speed,Off,Off,0.000000,FALSE,44,Read: /home/lvuser/scripts/auto_44.bee,File good!,SEARCH_FOR_GOAL,SEARCH_FOR_GOAL
08:33:07.201 PM 03/22/2016,Autonomous Enabled,10,FALSE,0,NO ERROR,-0.000000,-124.091626,0.000000,127.659285,TRUE,FALSE,TRUE,TRUE,FALSE,TRUE,Suspended,0.015625,0.896875,-6.836875,TRUE,-4.155655,-20.560379,0.000000,0.126511,-0.153687,0.000000,-0.076000,-0.041000,-0.035000,-4.140000,-0.250000,1.440000,-5.627481,Hold,55.812012,51.000000,Hold,-77899.000000,77824.000000,LowGoal,3270.000000,-3272.727273,Speed,3270.000000,-3272.727273,Speed,Off,Off,0.000000,FALSE,44,Read: /home/lvuser/scripts/auto_44.bee,File good!,SEARCH_FOR_GOAL,SEARCH_FOR_GOAL
08:33:07.302 PM 03/22/2016,Autonomous Enabled,11,FALSE,0,NO ERROR,-0.000000,-124.091626,0.000000,127.659285,TRUE,FALSE,TRUE,TRUE,FALSE,FALSE,Suspended,0.015625,0.896875,-6.836875,TRUE,-4.150726,-20.569275,0.000000,0.085342,-0.190475,0.000000,0.046000,0.014000,0.015000,-4.140000,-0.210000,1.380000,-5.619852,Hold,55.812012,51.000000,Hold,-77899.000000,77824.000000,LowGoal,3270.000000,-3272.727273,Speed,3270.000000,-3272.727273,Speed,Off,Off,0.000000,FALSE,44,Read: /home/lvuser/scripts/auto_44.bee,File good!,WAIT 500,WAIT
08:33:07.402 PM 03/22/2016,Autonomous Enabled,11,FALSE,0,NO ERROR,-0.000000,-124.091626,0.000000,127.659285,TRUE,FALSE,TRUE,TRUE,FALSE,FALSE,Suspended,0.015625,0.896875,-6.836875,TRUE,-4.147842,-20.578552,0.000000,0.031143,-0.180283,0.000000,-0.091000,-0.027000,0.011000,-4.150000,-0.250000,1.400000,-5.614967,Hold,55.812012,51.000000,Hold,-77899.000000,77824.000000,Shoot,3277.500000,-3272.727273,Speed,3277.500000,-3272.727273,Speed,Off,On,0.000000,FALSE,44,Read: /home/lvuser/scripts/auto_44.bee,File good!,WAIT 500,WAIT
08:33:07.502 PM 03/22/2016,Autonomous Enabled,10,FALSE,0,NO ERROR,-0.000000,-124.091626,0.000000,127.659285,TRUE,FALSE,TRUE,TRUE,FALSE,FALSE,Suspended,0.015625,0.896875,-6.836875,TRUE,-4.146530,-20.587479,0.000000,0.053848,-0.176865,0.000000,0.089000,0.017000,0.055000,-4.160000,-0.100000,1.440000,-5.609666,Hold,55.812012,51.000000,Hold,-77899.000000,77824.000000,Shoot,3277.500000,-3272.727273,Speed,3270.000000,-3272.727273,Speed,Off,On,0.000000,FALSE,44,Read: /home/lvuser/scripts/auto_44.bee,File good!,WAIT 500,WAIT
08:33:07.602 PM 03/22/2016,Autonomous Enabled,11,FALSE,0,NO ERROR,-0.000000,-124.091626,0.000000,127.659285,TRUE,FALSE,TRUE,TRUE,FALSE,FALSE,Disabled,0.015625,0.896875,-6.836875,TRUE,-4.143158,-20.595398,0.000000,0.075729,-0.137146,0.000000,-0.116000,0.082000,0.009000,-4.160000,-0.050000,1.430000,-5.605090,Hold,55.812012,51.000000,Hold,-77899.000000,77824.000000,Shoot,3270.000000,-3272.727273,Speed,3270.000000,-3272.727273,Speed,Off,On,0.000000,FALSE,44,Read: /home/lvuser/scripts/auto_44.bee,File good!,WAIT 500,WAIT
08:33:07.703 PM 03/22/2016,Autonomous Enabled,11,FALSE,0,NO ERROR,-0.000000,-124.091626,0.000000,127.659285,TRUE,FALSE,TRUE,TRUE,FALSE,FALSE,Disabled,0.015625,0.896875,-6.836875,TRUE,-4.139954,-20.601120,0.000000,0.067230,-0.105637,0.000000,0.013000,0.099000,0.006000,-4.160000,-0.090000,1.480000,-5.599410,Hold,55.812012,51.000000,Hold,-77899.000000,77824.000000,Shoot,3270.000000,-3272.727273,Speed,3277.500000,-3272.727273,Speed,Off,On,0.000000,FALSE,44,Read: /home/lvuser/scripts/auto_44.bee,File good!,WAIT 500,WAIT
08:33:07.803 PM 03/22/2016,Autonomous Enabled,9,FALSE,0,NO ERROR,-0.000000,-124.091626,0.000000,127.659285,TRUE,FALSE,TRUE,TRUE,FALSE,FALSE,Disabled,0.015625,0.896875,-6.836875,TRUE,-4.139465,-20.604706,0.000000,-0.003571,-0.053177,0.000000,-0.089000,0.023000,0.001000,-4.160000,-0.080000,1.490000,-5.618609,Hold,55.812012,51.000000,Hold,-77899.000000,77824.000000,Shoot,3270.000000,-3272.727273,Speed,3285.000000,-3272.727273,Speed,On,On,0.000000,FALSE,44,Read: /home/lvuser/scripts/auto_44.bee,File good!,STOP_ALL,STOP_ALL
08:33:07.903 PM 03/22/2016,Autonomous Enabled,10,FALSE,0,NO ERROR,-0.000000,-124.091626,0.000000,127.659285,TRUE,FALSE,FALSE,TRUE,FALSE,FALSE,Disabled,0.015625,0.896875,-6.836875,TRUE,-4.139465,-20.604706,0.000000,-0.003571,-0.053177,0.000000,-0.089000,0.023000,0.001000,-4.160000,-0.080000,1.490000,-5.616816,Hold,55.812012,51.000000,Hold,-77899.000000,77824.000000,Shoot,3180.000000,-3272.727273,Speed,3225.000000,-3272.727273,Speed,On,On,0.000000,FALSE,44,Read: /home/lvuser/scripts/auto_44.bee,File good!,STOP_ALL,STOP_ALL
08:33:08.004 PM 03/22/2016,Autonomous Enabled,10,FALSE,0,NO ERROR,-0.000000,-124.091626,0.000000,127.659285,TRUE,FALSE,FALSE,TRUE,FALSE,FALSE,Disabled,0.018750,0.896875,-6.836875,TRUE,-4.138992,-20.610382,0.000000,0.029938,-0.033005,0.000000,0.056000,0.026000,-0.135000,-4.170000,0.000000,1.430000,-5.626644,Hold,55.812012,51.000000,Hold,-77899.000000,77824.000000,Shoot,2310.000000,-3272.727273,Speed,2362.500000,-3272.727273,Speed,On,On,0.000000,FALSE,44,Read: /home/lvuser/scripts/auto_44.bee,File good!,STOP_ALL,STOP_ALL
08:33:08.104 PM 03/22/2016,Autonomous Enabled,11,FALSE,0,NO ERROR,-0.000000,-124.091626,0.000000,127.659285,TRUE,FALSE,FALSE,TRUE,FALSE,FALSE,Disabled,0.018750,0.896875,-6.836875,TRUE,-4.137451,-20.610703,0.000000,0.016083,0.009796,0.000000,-0.180000,0.100000,0.013000,-4.190000,0.000000,1.450000,-5.633653,Hold,55.812012,51.000000,Hold,-77899.000000,77824.000000,Shoot,2670.000000,-3272.727273,Speed,2677.500000,-3272.727273,Speed,On,On,0.000000,FALSE,44,Read: /home/lvuser/scripts/auto_44.bee,File good!,STOP_ALL,STOP_ALL
08:33:08.204 PM 03/22/2016,Autonomous Enabled,11,FALSE,0,NO ERROR,-0.000000,-124.091626,0.000000,127.659285,TRUE,FALSE,FALSE,TRUE,FALSE,FALSE,Disabled,0.018750,0.896875,-6.836875,TRUE,-4.138123,-20.609436,0.000000,-0.027191,0.029480,0.000000,0.100000,-0.099000,-0.098000,-4.210000,-0.090000,1.400000,-5.648673,Hold,55.812012,51.000000,Hold,-77899.000000,77824.000000,Shoot,3037.500000,-3272.727273,Speed,3052.500000,-3272.727273,Speed,On,On,0.000000,FALSE,44,Read: /home/lvuser/scripts/auto_44.bee,File good!,STOP_ALL,STOP_ALL
08:33:08.305 PM 03/22/2016,Autonomous Enabled,11,FALSE,0,NO ERROR,-0.000000,-124.091626,0.000000,127.659285,TRUE,FALSE,FALSE,TRUE,FALSE,FALSE,Disabled,0.018750,0.896875,-6.836875,TRUE,-4.141022,-20.608170,0.000000,-0.063751,0.000000,0.000000,-0.094000,-0.009000,-0.054000,-4.200000,-0.100000,1.440000,-5.638693,Hold,55.812012,51.000000,Hold,-77899.000000,77824.000000,Shoot,3262.500000,-3272.727273,Speed,3285.000000,-3272.727273,Speed,On,On,0.000000,FALSE,44,Read: /home/lvuser/scripts/auto_44.bee,File good!,STOP_ALL,STOP_ALL
08:33:08.407 PM 03/22/2016,Autonomous Enabled,9,FALSE,0,NO ERROR,-0.000000,-124.091626,0.000000,127.659285,TRUE,FALSE,FALSE,TRUE,FALSE,FALSE,Disabled,0.018750,0.896875,-6.836875,TRUE,-4.144775,-20.608841,0.000000,-0.072479,-0.031326,0.000000,0.014000,-0.045000,-0.076000,-4.210000,-0.090000,1.420000,-5.634252,Hold,55.812012,51.000000,Hold,-77899.000000,77824.000000,Shoot,3322.500000,-3272.727273,Speed,3285.000000,-3272.727273,Speed,On,On,0.000000,FALSE,44,Read: /home/lvuser/scripts/auto_44.bee,File good!,STOP_ALL,STOP_ALL
08:33:08.506 PM 03/22/2016,Autonomous Enabled,10,FALSE,0,NO ERROR,-0.000000,-124.091626,0.000000,127.659285,TRUE,FALSE,FALSE,TRUE,FALSE,FALSE,Disabled,0.018750,0.896875,-6.836875,TRUE,-4.148132,-20.611115,0.000000,-0.071106,-0.048431,0.000000,0.128000,0.106000,0.033000,-4.210000,-0.160000,1.420000,-5.640267,Hold,55.812012,51.000000,Hold,-77899.000000,77824.000000,Shoot,3262.500000,-3272.727273,Speed,3225.000000,-3272.727273,Speed,On,On,0.000000,FALSE,44,Read: /home/lvuser/scripts/auto_44.bee,File good!,STOP_ALL,STOP_ALL
08:33:08.607 PM 03/22/2016,Autonomous Enabled,11,FALSE,0,NO ERROR,-0.000000,-124.091626,0.000000,127.659285,TRUE,FALSE,FALSE,TRUE,FALSE,FALSE,Disabled,0.018750,0.896875,-6.836875,TRUE,-4.151321,-20.613388,0.000000,-0.067154,-0.045944,0.000000,0.023000,-0.088000,0.020000,-4.210000,-0.100000,1.460000,-5.648752,Hold,55.812012,51.000000,Hold,-77899.000000,77824.000000,Shoot,3247.500000,-3272.727273,Speed,3232.500000,-3272.727273,Speed,On,On,0.000000,FALSE,44,Read: /home/lvuser/scripts/auto_44.bee,File good!,STOP_ALL,STOP_ALL
