Time,Robot Mode,Loop Time,Error Status,Error Code,Error Source,Left Motor Output,Left Motor Encoder,Right Motor Output,Right Motor Encoder,Is Level,Is Stalled,Ball Detector Photoeye,Vision Enabled,Vision Teleop Control,Vision Auto Control,Vision Current State,Vision X Output,Vision NavX Error,Vision NavX Target,NavX Connection Status,NavX Displacement X,NavX Displacement Y,NavX Displacement Z,NavX Velocity X,NavX Velocity Y,NavX Velocity Z,NavX Acceleration X,NavX Acceleration Y,NavX Acceleration Z,NavX Pitch,NavX Yaw,NavX Roll,Gyro Angle,Roller Arm State,Roller Arm Actual,Roller Arm Desired,Shooter Arm State,Shooter Arm Actual,Shooter Arm Desired,Shooter State,Actual RPM Left,Desired RPM Left,Control Mode Left,Actual RPM Right,Desired RPM Right,Control Mode Right,Ball Shooter Cylinder,Ball Halo Cylinder,Scaler Motor Output,Scaler Solenoid Fire,Auto To Run,Auto Current File,Auto File Status,Auto Current Command,Auto Trimmed Command
07:13:51.779 PM 03/23/2016,Teleop Enabled,10,FALSE,0,NO ERROR,-0.000000,0.000000,0.000000,0.000000,TRUE,FALSE,TRUE,FALSE,FALSE,FALSE,Disabled,0.000000,0.000000,0.000000,TRUE,0.010544,-0.025528,0.000000,0.000000,0.000000,0.000000,0.002000,-0.001000,0.011000,0.040000,0.470000,1.390000,1.057636,ResetBack,-60.609619,-0.000049,ResetBack,126501.000000,-0.300000,LowGoal,0.000000,-1454.545455,Speed,0.000000,-1454.545455,Speed,Off,Off,0.000000,FALSE,0,,,,
07:13:51.880 PM 03/23/2016,Teleop Enabled,10,FALSE,0,NO ERROR,-0.000000,0.000000,0.000000,0.000000,TRUE,FALSE,TRUE,FALSE,FALSE,FALSE,Disabled,0.000000,0.000000,0.000000,TRUE,0.010544,-0.025528,0.000000,0.000000,0.000000,0.000000,0.018000,-0.003000,-0.022000,0.050000,0.470000,1.390000,1.096283,ResetBack,-61.735107,-0.000049,ResetBack,128213.000000,-0.300000,LowGoal,135.000000,-1454.545455,Speed,247.500000,-1454.545455,Speed,Off,Off,0.000000,FALSE,0,,,,
07:13:51.980 PM 03/23/2016,Teleop Enabled,10,FALSE,0,NO ERROR,-0.000000,0.000000,0.000000,0.000000,TRUE,FALSE,TRUE,FALSE,FALSE,FALSE,Disabled,0.000000,0.000000,0.000000,TRUE,0.010162,-0.025055,0.000000,-0.005890,0.000000,0.000000,0.024000,-0.050000,0.009000,0.040000,0.470000,1.390000,1.096283,ResetBack,-61.735107,-0.000049,ResetBack,137451.000000,-0.300000,LowGoal,742.500000,-1454.545455,Speed,1237.500000,-1454.545455,Speed,Off,Off,0.000000,FALSE,0,,,,
07:13:52.080 PM 03/23/2016,Teleop Enabled,12,FALSE,0,NO ERROR,-0.000000,0.000000,0.000000,0.000000,TRUE,FALSE,TRUE,FALSE,FALSE,FALSE,Disabled,0.000000,0.000000,0.000000,TRUE,0.009933,-0.025467,0.000000,-0.007111,-0.013718,0.000000,0.043000,0.069000,0.003000,0.040000,0.450000,1.370000,1.098744,Reset,-62.230225,-0.000049,ResetBack,146923.000000,-0.300000,LowGoal,1447.500000,-1454.545455,Speed,1620.000000,-1454.545455,Speed,Off,Off,0.000000,FALSE,0,,,,
07:13:52.180 PM 03/23/2016,Teleop Enabled,11,FALSE,0,NO ERROR,-0.000000,0.000000,0.000000,0.000000,TRUE,FALSE,TRUE,FALSE,FALSE,FALSE,Disabled,0.000000,0.000000,0.000000,TRUE,0.009766,-0.025345,0.000000,0.003830,0.000961,0.000000,0.016000,-0.020000,0.028000,0.040000,0.520000,1.410000,1.107347,Hold,-62.230225,0.000000,ResetBack,146923.000000,-0.300000,LowGoal,1597.500000,-1454.545455,Speed,1485.000000,-1454.545455,Speed,Off,Off,0.000000,FALSE,0,,,,
07:13:52.281 PM 03/23/2016,Teleop Enabled,10,FALSE,0,NO ERROR,-0.000000,0.000000,0.000000,0.000000,TRUE,FALSE,TRUE,FALSE,FALSE,FALSE,Disabled,0.000000,0.000000,0.000000,TRUE,0.010361,-0.025726,0.000000,0.000000,-0.002670,0.000000,0.014000,0.081000,0.042000,0.040000,0.550000,1.450000,1.109585,Hold,0.091553,0.000000,ResetBack,153013.000000,-0.300000,LowGoal,1372.500000,-1454.545455,Speed,1327.500000,-1454.545455,Speed,Off,Off,0.000000,FALSE,0,,,,
07:13:52.380 PM 03/23/2016,Teleop Enabled,11,FALSE,0,NO ERROR,-0.000000,0.000000,0.000000,0.000000,TRUE,FALSE,TRUE,FALSE,FALSE,FALSE,Disabled,0.000000,0.000000,0.000000,TRUE,0.010880,-0.026245,0.000000,0.018585,-0.018204,0.000000,-0.022000,-0.042000,-0.021000,0.040000,0.530000,1.460000,1.112377,Hold,0.091797,0.000000,ResetBack,155069.000000,-0.300000,LowGoal,1327.500000,-1454.545455,Speed,1372.500000,-1454.545455,Speed,Off,Off,0.000000,FALSE,0,,,,
07:13:52.482 PM 03/23/2016,Teleop Enabled,10,FALSE,0,NO ERROR,-0.000000,0.000000,0.000000,0.000000,TRUE,FALSE,TRUE,FALSE,FALSE,FALSE,Disabled,0.000000,0.000000,0.000000,TRUE,0.010910,-0.026611,0.000000,-0.010162,0.000000,0.000000,-0.018000,0.057000,0.038000,0.040000,0.500000,1.460000,1.114026,Hold,0.091797,0.000000,ResetBack,155069.000000,-0.300000,LowGoal,1410.000000,-1454.545455,Speed,1432.500000,-1454.545455,Speed,Off,Off,0.000000,FALSE,0,,,,
07:13:52.582 PM 03/23/2016,Teleop Enabled,9,FALSE,0,NO ERROR,-0.000000,0.000000,0.000000,0.000000,TRUE,FALSE,TRUE,FALSE,FALSE,FALSE,Disabled,0.000000,0.000000,0.000000,TRUE,0.010223,-0.026230,0.000000,0.000000,-0.003387,0.000000,-0.038000,-0.054000,-0.011000,0.040000,0.600000,1.440000,1.115795,Hold,0.091797,0.000000,ResetBack,155076.000000,-0.300000,LowGoal,1410.000000,-1454.545455,Speed,1432.500000,-1454.545455,Speed,Off,Off,0.000000,FALSE,0,,,,
07:13:52.682 PM 03/23/2016,Teleop Enabled,11,FALSE,0,NO ERROR,-0.000000,0.000000,0.000000,0.000000,TRUE,FALSE,TRUE,FALSE,FALSE,FALSE,Disabled,0.000000,0.000000,0.000000,TRUE,0.008926,-0.026474,0.000000,-0.037079,0.000443,0.000000,0.000000,0.000000,-0.009000,0.040000,0.550000,1.410000,1.130261,Hold,0.091797,0.000000,ResetBack,155096.000000,-0.300000,LowGoal,1417.500000,-1454.545455,Speed,1402.500000,-1454.545455,Speed,Off,Off,0.000000,FALSE,0,,,,
07:13:52.783 PM 03/23/2016,Teleop Enabled,10,FALSE,0,NO ERROR,-0.000000,0.000000,0.000000,0.000000,TRUE,FALSE,TRUE,FALSE,FALSE,FALSE,Disabled,0.000000,0.000000,0.000000,TRUE,0.006805,-0.025665,0.000000,-0.055771,0.023300,0.000000,-0.014000,-0.029000,0.097000,0.040000,0.600000,1.410000,1.141105,Hold,0.091797,0.000000,ResetBack,155110.000000,-0.300000,LowGoal,1387.500000,-1454.545455,Speed,1380.000000,-1454.545455,Speed,Off,Off,0.000000,FALSE,0,,,,
07:13:52.884 PM 03/23/2016,Teleop Enabled,10,FALSE,0,NO ERROR,-0.000000,0.000000,0.000000,0.000000,TRUE,FALSE,TRUE,FALSE,FALSE,FALSE,Disabled,0.000000,0.000000,0.000000,TRUE,0.004944,-0.025269,0.000000,0.000000,0.004135,0.000000,0.000000,-0.069000,-0.084000,0.040000,0.600000,1.420000,1.155460,Hold,0.091797,0.000000,ResetBack,155113.000000,-0.300000,LowGoal,1380.000000,-1454.545455,Speed,1395.000000,-1454.545455,Speed,Off,Off,0.000000,FALSE,0,,,,
07:13:52.984 PM 03/23/2016,Teleop Enabled,9,FALSE,0,NO ERROR,-0.000000,0.000000,0.000000,0.000000,TRUE,FALSE,TRUE,FALSE,FALSE,FALSE,Disabled,0.000000,0.000000,0.000000,TRUE,0.004745,-0.025452,0.000000,-0.013092,0.000000,0.000000,-0.011000,0.012000,-0.004000,0.040000,0.480000,1.530000,1.158696,Hold,0.091797,0.000000,Reset,155120.000000,-0.300000,LowGoal,1402.500000,-1454.545455,Speed,1402.500000,-1454.545455,Speed,Off,Off,0.000000,FALSE,0,,,,
07:13:53.085 PM 03/23/2016,Teleop Enabled,11,FALSE,0,NO ERROR,-0.000000,0.000000,0.000000,0.000000,TRUE,FALSE,TRUE,FALSE,FALSE,FALSE,Disabled,0.000000,0.000000,0.000000,TRUE,0.004135,-0.026184,0.000000,0.000824,-0.019867,0.000000,0.052000,0.016000,0.045000,0.040000,0.470000,1.440000,1.171251,Hold,0.091797,0.000000,Hold,155121.000000,2.000000,LowGoal,1402.500000,-1454.545455,Speed,1395.000000,-1454.545455,Speed,Off,Off,0.000000,FALSE,0,,,,
07:13:53.185 PM 03/23/2016,Teleop Enabled,10,FALSE,0,NO ERROR,-0.000000,0.000000,0.000000,0.000000,TRUE,FALSE,TRUE,FALSE,FALSE,FALSE,Disabled,0.000000,0.000000,0.000000,TRUE,0.005081,-0.026520,0.000000,0.032181,-0.010208,0.000000,0.034000,-0.011000,-0.002000,0.040000,0.620000,1.390000,1.173902,Hold,0.091797,0.000000,Hold,155121.000000,2.000000,LowGoal,1395.000000,-1454.545455,Speed,1387.500000,-1454.545455,Speed,Off,Off,0.000000,FALSE,0,,,,
07:13:53.285 PM 03/23/2016,Teleop Enabled,9,FALSE,0,NO ERROR,-0.000000,0.000000,0.000000,0.000000,TRUE,FALSE,TRUE,FALSE,FALSE,FALSE,Disabled,0.000000,0.000000,0.000000,TRUE,0.006683,-0.026291,0.000000,0.020447,0.000000,0.000000,0.015000,-0.030000,0.057000,0.030000,0.620000,1.350000,1.176384,Hold,0.091797,0.000000,Hold,-231.000000,2.000000,LowGoal,1395.000000,-1454.545455,Speed,1395.000000,-1454.545455,Speed,Off,Off,0.000000,FALSE,0,,,,
07:13:53.386 PM 03/23/2016,Teleop Enabled,9,FALSE,0,NO ERROR,-0.000000,0.000000,0.000000,0.000000,TRUE,FALSE,TRUE,FALSE,FALSE,FALSE,Disabled,0.000000,0.000000,0.000000,TRUE,0.006592,-0.025558,0.000000,-0.013336,0.039001,0.000000,-0.022000,0.044000,0.061000,0.040000,0.510000,1.400000,1.184777,Hold,0.091797,0.000000,Hold,-231.000000,2.000000,LowGoal,1402.500000,-1454.545455,Speed,1395.000000,-1454.545455,Speed,Off,Off,0.000000,FALSE,0,,,,
07:13:53.486 PM 03/23/2016,Teleop Enabled,9,FALSE,0,NO ERROR,-0.000000,0.000000,0.000000,0.000000,TRUE,FALSE,TRUE,FALSE,FALSE,FALSE,Disabled,0.000000,0.000000,0.000000,TRUE,0.005096,-0.023560,0.000000,-0.039139,0.049728,0.000000,0.004000,0.037000,-0.014000,0.040000,0.460000,1.390000,1.164290,Hold,0.091797,0.000000,Hold,-231.000000,2.000000,LowGoal,1395.000000,-1454.545455,Speed,1395.000000,-1454.545455,Speed,Off,Off,0.000000,FALSE,0,,,,
07:13:53.587 PM 03/23/2016,Teleop Enabled,9,FALSE,0,NO ERROR,-0.000000,0.000000,0.000000,0.000000,TRUE,FALSE,TRUE,FALSE,FALSE,FALSE,Disabled,0.000000,0.000000,0.000000,TRUE,0.005524,-0.022385,0.000000,0.009750,-0.005493,0.000000,-0.023000,-0.054000,-0.050000,0.040000,0.510000,1.400000,1.168005,Hold,0.091797,0.000000,Hold,-231.000000,2.000000,LowGoal,1402.500000,-1454.545455,Speed,1395.000000,-1454.545455,Speed,Off,Off,0.000000,FALSE,0,,,,
07:13:53.688 PM 03/23/2016,Teleop Enabled,9,FALSE,0,NO ERROR,-0.000000,0.000000,0.000000,0.000000,TRUE,FALSE,TRUE,FALSE,FALSE,FALSE,Disabled,0.000000,0.000000,0.000000,TRUE,0.005844,-0.023163,0.000000,0.019684,-0.020203,0.000000,-0.047000,-0.031000,0.047000,0.040000,0.550000,1.370000,1.181455,Hold,0.091797,0.000000,Hold,-231.000000,2.000000,LowGoal,1395.000000,-1454.545455,Speed,1402.500000,-1454.545455,Speed,Off,Off,0.000000,FALSE,0,,,,
07:13:53.788 PM 03/23/2016,Teleop Enabled,11,FALSE,0,NO ERROR,-0.000000,0.000000,0.000000,0.000000,TRUE,FALSE,TRUE,FALSE,FALSE,FALSE,Disabled,0.000000,0.000000,0.000000,TRUE,0.006485,-0.025162,0.000000,0.000000,-0.028717,0.000000,0.019000,0.012000,0.115000,0.040000,0.560000,1.320000,1.188323,Hold,0.091797,0.000000,Hold,-231.000000,2.000000,LowGoal,1402.500000,-1454.545455,Speed,1395.000000,-1454.545455,Speed,Off,Off,0.000000,FALSE,0,,,,
07:13:53.889 PM 03/23/2016,Teleop Enabled,9,FALSE,0,NO ERROR,-0.000000,0.000000,0.000000,0.000000,TRUE,FALSE,TRUE,FALSE,FALSE,FALSE,Disabled,0.000000,0.000000,0.000000,TRUE,0.006866,-0.026443,0.000000,0.020615,-0.052124,0.000000,0.067000,0.034000,0.001000,0.040000,0.550000,1.320000,1.190309,Hold,0.091797,0.000000,Hold,-231.000000,2.000000,LowGoal,1395.000000,-1454.545455,Speed,1402.500000,-1454.545455,Speed,Off,Off,0.000000,FALSE,0,,,,
07:13:53.990 PM 03/23/2016,Teleop Enabled,9,FALSE,0,NO ERROR,-0.000000,0.000000,0.000000,0.000000,TRUE,FALSE,TRUE,FALSE,FALSE,FALSE,Disabled,0.000000,0.000000,0.000000,TRUE,0.008652,-0.029465,0.000000,0.035980,-0.078186,0.000000,-0.001000,-0.129000,-0.055000,0.040000,0.530000,1.310000,1.192812,Hold,0.091797,0.000000,Hold,-231.000000,2.000000,LowGoal,1395.000000,-1454.545455,Speed,1395.000000,-1454.545455,Speed,Off,Off,0.000000,FALSE,0,,,,
07:13:54.091 PM 03/23/2016,Teleop Enabled,11,FALSE,0,NO ERROR,-0.000000,0.000000,0.000000,0.000000,TRUE,FALSE,TRUE,FALSE,FALSE,FALSE,Disabled,0.000000,0.000000,0.000000,TRUE,0.012054,-0.035599,0.000000,0.062729,-0.107986,0.000000,-0.070000,-0.038000,-0.044000,0.040000,0.540000,1.290000,1.198447,Hold,0.091797,0.000000,Hold,-231.000000,2.000000,LowGoal,1395.000000,-1454.545455,Speed,1402.500000,-1454.545455,Speed,Off,Off,0.000000,FALSE,0,,,,
07:13:54.192 PM 03/23/2016,Teleop Enabled,10,FALSE,0,NO ERROR,-0.000000,0.000000,0.000000,0.000000,TRUE,FALSE,TRUE,FALSE,FALSE,FALSE,Disabled,0.000000,0.000000,0.000000,TRUE,0.013077,-0.039810,0.000000,-0.005905,-0.099213,0.000000,0.067000,0.053000,-0.049000,0.040000,0.560000,1.300000,1.196891,Hold,0.091797,0.000000,Hold,-231.000000,2.000000,LowGoal,1402.500000,-1454.545455,Speed,1402.500000,-1454.545455,Speed,Off,Off,0.000000,FALSE,0,,,,
07:13:54.292 PM 03/23/2016,Teleop Enabled,9,FALSE,0,NO ERROR,-0.000000,0.000000,0.000000,0.000000,TRUE,FALSE,TRUE,FALSE,FALSE,FALSE,Disabled,0.000000,0.000000,0.000000,TRUE,0.013260,-0.044891,0.000000,0.007751,-0.071655,0.000000,0.029000,0.028000,0.020000,0.040000,0.550000,1.330000,1.194048,Hold,0.091797,60.000000,Hold,-231.000000,2.000000,LowGoal,1395.000000,-1454.545455,Speed,1402.500000,-1454.545455,Speed,Off,Off,0.000000,FALSE,0,,,,
07:13:54.392 PM 03/23/2016,Teleop Enabled,10,FALSE,0,NO ERROR,-0.000000,0.000000,0.000000,0.000000,TRUE,FALSE,TRUE,FALSE,FALSE,FALSE,Disabled,0.000000,0.000000,0.000000,TRUE,0.014008,-0.048447,0.000000,0.011551,-0.083328,0.000000,-0.085000,-0.077000,0.024000,0.040000,0.560000,1.310000,1.188746,Hold,2.502441,60.000000,Hold,-231.000000,2.000000,LowGoal,1402.500000,-1454.545455,Speed,1395.000000,-1454.545455,Speed,Off,Off,0.000000,FALSE,0,,,,
07:13:54.493 PM 03/23/2016,Teleop Enabled,9,FALSE,0,NO ERROR,-0.000000,0.000000,0.000000,0.000000,TRUE,FALSE,TRUE,FALSE,FALSE,FALSE,Disabled,0.000000,0.000000,0.000000,TRUE,0.013550,-0.052368,0.000000,-0.011139,-0.059280,0.000000,-0.043000,0.094000,0.025000,0.030000,0.550000,1.310000,1.165512,Hold,4.619873,60.000000,Hold,-231.000000,2.000000,LowGoal,1395.000000,-1454.545455,Speed,1402.500000,-1454.545455,Speed,Off,Off,0.000000,FALSE,0,,,,
07:13:54.593 PM 03/23/2016,Teleop Enabled,9,FALSE,0,NO ERROR,-0.000000,0.000000,0.000000,0.000000,TRUE,FALSE,TRUE,FALSE,FALSE,FALSE,Disabled,0.000000,0.000000,0.000000,TRUE,0.013443,-0.054428,0.000000,0.003479,-0.056000,0.000000,-0.015000,0.041000,0.101000,0.040000,0.530000,1.360000,1.183562,Hold,7.744629,60.000000,Hold,-231.000000,2.000000,LowGoal,1395.000000,-1454.545455,Speed,1402.500000,-1454.545455,Speed,Off,Off,0.000000,FALSE,0,,,,
07:13:54.693 PM 03/23/2016,Teleop Enabled,10,FALSE,0,NO ERROR,-0.000000,0.000000,0.000000,0.000000,TRUE,FALSE,TRUE,FALSE,FALSE,FALSE,Disabled,0.000000,0.000000,0.000000,TRUE,0.012955,-0.056259,0.000000,-0.024475,-0.026215,0.000000,-0.028000,0.041000,0.047000,0.040000,0.570000,1.370000,1.185369,Hold,11.457764,60.000000,Hold,-231.000000,2.000000,LowGoal,1395.000000,-1454.545455,Speed,1402.500000,-1454.545455,Speed,Off,Off,0.000000,FALSE,0,,,,
07:13:54.793 PM 03/23/2016,Teleop Enabled,10,FALSE,0,NO ERROR,-0.000000,0.000000,0.000000,0.000000,TRUE,FALSE,TRUE,FALSE,FALSE,FALSE,Disabled,0.000000,0.000000,0.000000,TRUE,0.011093,-0.056396,0.000000,-0.050049,-0.001999,0.000000,-0.021000,-0.066000,-0.004000,0.040000,0.500000,1.400000,1.198540,Hold,15.701904,60.000000,Hold,-231.000000,2.000000,LowGoal,1395.000000,-1454.545455,Speed,1395.000000,-1454.545455,Speed,Off,Off,0.000000,FALSE,0,,,,
07:13:54.893 PM 03/23/2016,Teleop Enabled,11,FALSE,0,NO ERROR,-0.000000,0.000000,0.000000,0.000000,TRUE,FALSE,TRUE,FALSE,FALSE,FALSE,Disabled,0.000000,0.000000,0.000000,TRUE,0.008530,-0.056656,0.000000,-0.051788,-0.009064,0.000000,-0.041000,-0.010000,0.074000,0.030000,0.480000,1.420000,1.186447,Hold,20.788086,60.000000,Hold,-231.000000,2.000000,LowGoal,1395.000000,-1454.545455,Speed,1402.500000,-1454.545455,Speed,Off,Off,0.000000,FALSE,0,,,,
07:13:54.995 PM 03/23/2016,Teleop Enabled,10,FALSE,0,NO ERROR,-0.000000,0.000000,0.000000,0.000000,TRUE,FALSE,TRUE,FALSE,FALSE,FALSE,Disabled,0.000000,0.000000,0.000000,TRUE,0.005936,-0.057343,0.000000,-0.037033,-0.009766,0.000000,0.009000,0.002000,0.027000,0.030000,0.530000,1.420000,1.181847,Hold,25.548828,60.000000,Hold,-231.000000,2.000000,LowGoal,1402.500000,-1454.545455,Speed,1402.500000,-1454.545455,Speed,Off,Off,0.000000,FALSE,0,,,,
07:13:55.096 PM 03/23/2016,Teleop Enabled,10,FALSE,0,NO ERROR,-0.000000,0.000000,0.000000,0.000000,TRUE,FALSE,TRUE,FALSE,FALSE,FALSE,Disabled,0.000000,0.000000,0.000000,TRUE,0.003906,-0.057602,0.000000,-0.041824,-0.013336,0.000000,0.075000,-0.003000,0.078000,0.040000,0.470000,1.440000,1.192075,Hold,33.741699,60.000000,Hold,-231.000000,2.000000,LowGoal,1395.000000,-1454.545455,Speed,1402.500000,-1454.545455,Speed,Off,Off,0.000000,FALSE,0,,,,
07:13:55.196 PM 03/23/2016,Teleop Enabled,11,FALSE,0,NO ERROR,-0.000000,0.000000,0.000000,0.000000,TRUE,FALSE,TRUE,FALSE,FALSE,FALSE,Disabled,0.000000,0.000000,0.000000,TRUE,0.002579,-0.058441,0.000000,-0.022064,-0.029922,0.000000,0.022000,0.117000,-0.028000,0.000000,0.430000,1.450000,1.182894,Hold,42.821289,60.000000,Hold,-231.000000,2.000000,LowGoal,1395.000000,-1454.545455,Speed,1402.500000,-1454.545455,Speed,Off,Off,0.000000,FALSE,0,,,,
07:13:55.296 PM 03/23/2016,Teleop Enabled,11,FALSE,0,NO ERROR,-0.000000,0.000000,0.000000,0.000000,TRUE,FALSE,TRUE,FALSE,FALSE,FALSE,Disabled,0.000000,0.000000,0.000000,TRUE,0.001846,-0.059158,0.000000,-0.018723,-0.035492,0.000000,-0.027000,0.033000,0.060000,0.050000,0.400000,1.430000,1.220363,Hold,51.750000,60.000000,Hold,-231.000000,2.000000,LowGoal,1395.000000,-1454.545455,Speed,1402.500000,-1454.545455,Speed,Off,Off,0.000000,FALSE,0,,,,
07:13:55.398 PM 03/23/2016,Teleop Enabled,10,FALSE,0,NO ERROR,-0.000000,0.000000,0.000000,0.000000,TRUE,FALSE,TRUE,FALSE,FALSE,FALSE,Disabled,0.000000,0.000000,0.000000,TRUE,-0.000153,-0.060928,0.000000,-0.052750,-0.018585,0.000000,-0.020000,0.020000,0.000000,0.050000,0.250000,1.500000,1.212858,Hold,61.424805,60.000000,Hold,-231.000000,2.000000,LowGoal,1402.500000,-1454.545455,Speed,1402.500000,-1454.545455,Speed,Off,Off,0.000000,FALSE,0,,,,
07:13:55.499 PM 03/23/2016,Teleop Enabled,9,FALSE,0,NO ERROR,-0.000000,0.000000,0.000000,-0.019250,TRUE,FALSE,TRUE,FALSE,FALSE,FALSE,Disabled,0.000000,0.000000,0.000000,TRUE,-0.003052,-0.059311,0.000000,-0.075562,0.109665,0.000000,-0.168000,0.315000,-0.439000,0.050000,0.310000,1.380000,1.235138,Hold,63.162354,60.000000,Hold,-231.000000,2.000000,LowGoal,1395.000000,-1454.545455,Speed,1402.500000,-1454.545455,Speed,Off,Off,0.000000,FALSE,0,,,,
07:13:55.598 PM 03/23/2016,Teleop Enabled,10,FALSE,0,NO ERROR,-0.000000,0.000000,0.000000,-0.070583,TRUE,FALSE,TRUE,FALSE,FALSE,FALSE,Disabled,0.000000,0.000000,0.000000,TRUE,-0.009369,-0.046463,0.000000,-0.093277,0.236481,0.000000,0.049000,0.025000,-0.306000,-0.010000,0.040000,1.510000,1.156613,Hold,62.878418,60.000000,Hold,-231.000000,2.000000,LowGoal,1387.500000,-1454.545455,Speed,1402.500000,-1454.545455,Speed,Off,Off,0.000000,FALSE,0,,,,
07:13:55.699 PM 03/23/2016,Teleop Enabled,8,FALSE,0,NO ERROR,-0.000000,0.000000,0.000000,-0.070583,TRUE,FALSE,TRUE,FALSE,FALSE,FALSE,Disabled,0.000000,0.000000,0.000000,TRUE,-0.012650,-0.039124,0.000000,-0.080353,0.000000,0.000000,0.020000,-0.057000,0.006000,0.040000,0.310000,1.410000,1.216387,Hold,62.782959,60.000000,Hold,-231.000000,2.000000,LowGoal,1402.500000,-1454.545455,Speed,1410.000000,-1454.545455,Speed,Off,Off,0.000000,FALSE,0,,,,
07:13:55.800 PM 03/23/2016,Teleop Enabled,10,FALSE,0,NO ERROR,-0.000000,0.000000,0.000000,-0.070583,TRUE,FALSE,TRUE,FALSE,FALSE,FALSE,Disabled,0.000000,0.000000,0.000000,TRUE,-0.016983,-0.038284,0.000000,-0.085297,0.022919,0.000000,-0.053000,0.041000,-0.047000,0.020000,0.300000,1.440000,1.194075,Hold,62.781982,60.000000,HighGoal,-231.000000,77414.400000,HighGoal,1395.000000,-3272.727273,Speed,1402.500000,-3272.727273,Speed,Off,Off,0.000000,FALSE,0,,,,
07:13:55.902 PM 03/23/2016,Teleop Enabled,10,FALSE,0,NO ERROR,-0.000000,0.000000,0.000000,-0.070583,TRUE,FALSE,TRUE,FALSE,FALSE,FALSE,Disabled,0.000000,0.000000,0.000000,TRUE,-0.023727,-0.034943,0.000000,-0.138672,0.074554,0.000000,-0.035000,0.040000,-0.020000,0.010000,0.160000,1.570000,1.192437,Hold,62.781982,60.000000,Hold,-231.000000,77414.400000,HighGoal,1387.500000,-3272.727273,Speed,1432.500000,-3272.727273,Speed,Off,Off,0.000000,FALSE,0,,,,
07:13:56.002 PM 03/23/2016,Teleop Enabled,10,FALSE,0,NO ERROR,-0.000000,0.000000,0.000000,-0.070583,TRUE,FALSE,TRUE,FALSE,FALSE,FALSE,Disabled,0.000000,0.000000,0.000000,TRUE,-0.025284,-0.030258,0.000000,-0.006821,0.100403,0.000000,-0.165000,0.003000,0.042000,0.020000,0.140000,1.590000,1.204651,Hold,62.781982,60.000000,Hold,-11773.000000,77414.400000,HighGoal,1687.500000,-3272.727273,Speed,1897.500000,-3272.727273,Speed,Off,Off,0.000000,FALSE,0,,,,
07:13:56.103 PM 03/23/2016,Teleop Enabled,11,FALSE,0,NO ERROR,-0.000000,0.000000,0.000000,-0.070583,TRUE,FALSE,TRUE,FALSE,FALSE,FALSE,Disabled,0.000000,0.000000,0.000000,TRUE,-0.026276,-0.025772,0.000000,-0.007675,0.083145,0.000000,-0.112000,0.128000,-0.180000,0.020000,0.190000,1.510000,1.199552,Hold,62.781982,60.000000,Hold,-25008.000000,77414.400000,HighGoal,2235.000000,-3272.727273,Speed,2467.500000,-3272.727273,Speed,Off,Off,0.000000,FALSE,0,,,,
07:13:56.203 PM 03/23/2016,Teleop Enabled,11,FALSE,0,NO ERROR,-0.000000,0.000000,0.000000,-0.083416,TRUE,FALSE,TRUE,FALSE,FALSE,FALSE,Disabled,0.000000,0.000000,0.000000,TRUE,-0.028458,-0.020020,0.000000,-0.064484,0.132141,0.000000,-0.147000,0.081000,-0.060000,0.000000,0.110000,1.520000,1.149666,Hold,62.781982,60.000000,Hold,-35672.000000,77414.400000,HighGoal,2610.000000,-3272.727273,Speed,2917.500000,-3272.727273,Speed,Off,Off,0.000000,FALSE,0,,,,
07:13:56.303 PM 03/23/2016,Teleop Enabled,9,FALSE,0,NO ERROR,-0.000000,0.000000,0.000000,-0.083416,TRUE,FALSE,TRUE,FALSE,FALSE,FALSE,Disabled,0.000000,0.000000,0.000000,TRUE,-0.030884,-0.013535,0.000000,-0.050079,0.120987,0.000000,0.014000,0.091000,0.136000,0.030000,0.080000,1.490000,1.200086,Hold,62.781982,60.000000,Hold,-47209.000000,77414.400000,HighGoal,3000.000000,-3272.727273,Speed,3210.000000,-3272.727273,Speed,Off,Off,0.000000,FALSE,0,,,,
07:13:56.403 PM 03/23/2016,Teleop Enabled,10,FALSE,0,NO ERROR,-0.000000,0.000000,0.000000,-0.083416,TRUE,FALSE,TRUE,FALSE,FALSE,FALSE,Disabled,0.000000,0.000000,0.000000,TRUE,-0.033646,-0.006073,0.000000,-0.076340,0.165237,0.000000,0.013000,0.030000,-0.074000,0.000000,0.020000,1.510000,1.187201,Hold,62.781738,60.000000,Hold,-60752.000000,77414.400000,HighGoal,3300.000000,-3272.727273,Speed,3360.000000,-3272.727273,Speed,Off,Off,0.000000,FALSE,0,,,,
07:13:56.503 PM 03/23/2016,Teleop Enabled,10,FALSE,0,NO ERROR,-0.000000,0.000000,0.000000,-0.083416,TRUE,FALSE,TRUE,FALSE,FALSE,FALSE,Disabled,0.000000,0.000000,0.000000,TRUE,-0.034103,0.002350,0.000000,-0.008560,0.165848,0.000000,-0.002000,-0.011000,-0.034000,0.000000,0.100000,1.470000,1.194609,Hold,62.781738,60.000000,Hold,-60752.000000,77414.400000,HighGoal,3352.500000,-3272.727273,Speed,3285.000000,-3272.727273,Speed,Off,Off,0.000000,FALSE,0,,,,
07:13:56.604 PM 03/23/2016,Teleop Enabled,11,FALSE,0,NO ERROR,-0.000000,0.000000,0.000000,-0.083416,TRUE,FALSE,TRUE,FALSE,FALSE,FALSE,Disabled,0.000000,0.000000,0.000000,TRUE,-0.034348,0.011520,0.000000,-0.009048,0.200562,0.000000,0.136000,0.088000,0.135000,0.020000,-0.100000,1.430000,1.219048,Hold,62.779053,60.000000,Hold,-75322.000000,77414.400000,HighGoal,3247.500000,-3272.727273,Speed,3247.500000,-3272.727273,Speed,Off,Off,0.000000,FALSE,0,,,,
07:13:56.704 PM 03/23/2016,Teleop Enabled,10,FALSE,0,NO ERROR,-0.000000,-0.230999,0.000000,0.089833,TRUE,FALSE,TRUE,FALSE,FALSE,FALSE,Disabled,0.000000,0.000000,0.000000,TRUE,-0.032715,0.021927,0.000000,0.036041,0.197250,0.000000,-0.258000,-0.034000,0.369000,0.070000,-0.040000,1.360000,1.286780,Hold,62.757812,60.000000,Hold,-77803.000000,77414.400000,HighGoal,3232.500000,-3272.727273,Speed,3270.000000,-3272.727273,Speed,Off,Off,0.000000,FALSE,0,,,,
07:13:56.805 PM 03/23/2016,Teleop Enabled,10,FALSE,0,NO ERROR,-0.000000,-0.275916,0.000000,0.121916,TRUE,FALSE,TRUE,FALSE,FALSE,FALSE,Disabled,0.000000,0.000000,0.000000,TRUE,-0.034897,0.031036,0.000000,-0.087982,0.192627,0.000000,-0.082000,0.047000,-0.249000,0.040000,-0.380000,1.460000,1.267794,Hold,62.725098,60.000000,Hold,-77626.000000,77414.400000,HighGoal,3277.500000,-3272.727273,Speed,3292.500000,-3272.727273,Speed,Off,Off,0.000000,FALSE,0,,,,
07:13:56.906 PM 03/23/2016,Teleop Enabled,10,FALSE,0,NO ERROR,-0.000000,-0.211750,0.000000,0.019250,TRUE,FALSE,TRUE,FALSE,FALSE,FALSE,Disabled,0.000000,0.000000,0.000000,TRUE,-0.041092,0.042999,0.000000,-0.100021,0.188110,0.000000,0.184000,-0.051000,-0.050000,0.030000,-0.180000,1.430000,1.252716,Hold,62.667969,60.000000,Hold,-77649.000000,77414.400000,HighGoal,3292.500000,-3272.727273,Speed,3285.000000,-3272.727273,Speed,Off,Off,0.000000,FALSE,0,,,,
07:13:57.007 PM 03/23/2016,Teleop Enabled,12,FALSE,0,NO ERROR,-0.000000,-0.198916,0.000000,0.000000,TRUE,FALSE,TRUE,FALSE,FALSE,FALSE,Disabled,0.000000,0.000000,0.000000,TRUE,-0.042709,0.050507,0.000000,-0.039642,0.188904,0.000000,-0.140000,-0.015000,-0.200000,0.080000,-0.110000,1.310000,1.313697,Hold,62.674316,60.000000,Hold,-77489.000000,77414.400000,HighGoal,3270.000000,-3272.727273,Speed,3285.000000,-3272.727273,Speed,Off,Off,0.000000,FALSE,0,,,,
07:13:57.106 PM 03/23/2016,Teleop Enabled,10,FALSE,0,NO ERROR,-0.000000,-0.198916,0.000000,-0.006417,TRUE,FALSE,TRUE,FALSE,FALSE,FALSE,Disabled,0.000000,0.000000,0.000000,TRUE,-0.047150,0.058121,0.000000,-0.120697,0.143387,0.000000,0.103000,-0.122000,-0.163000,0.070000,-0.250000,1.420000,1.321963,Hold,62.674316,60.000000,Hold,-77479.000000,77414.400000,HighGoal,3277.500000,-3272.727273,Speed,3285.000000,-3272.727273,Speed,Off,Off,0.000000,FALSE,0,,,,
07:13:57.206 PM 03/23/2016,Teleop Enabled,11,FALSE,0,NO ERROR,-0.000000,-0.186083,0.000000,-0.012833,TRUE,FALSE,TRUE,FALSE,FALSE,FALSE,Disabled,0.000000,0.000000,0.000000,TRUE,-0.053833,0.065384,0.000000,-0.119400,0.119598,0.000000,-0.006000,-0.126000,-0.033000,0.060000,-0.010000,1.430000,1.312950,Hold,62.674316,60.000000,Hold,-77479.000000,77414.400000,HighGoal,3277.500000,-3272.727273,Speed,3292.500000,-3272.727273,Speed,Off,Off,0.000000,FALSE,0,,,,
07:13:57.306 PM 03/23/2016,Teleop Enabled,9,FALSE,0,NO ERROR,-0.000000,-0.186083,0.000000,-0.012833,TRUE,FALSE,TRUE,FALSE,FALSE,FALSE,Disabled,0.000000,0.000000,0.000000,TRUE,-0.062103,0.070801,0.000000,-0.182434,0.074722,0.000000,0.006000,0.042000,0.036000,0.040000,-0.060000,1.370000,1.287641,Hold,62.674316,60.000000,Hold,-77496.000000,77414.400000,HighGoal,3277.500000,-3272.727273,Speed,3285.000000,-3272.727273,Speed,Off,Off,0.000000,FALSE,0,,,,
07:13:57.407 PM 03/23/2016,Teleop Enabled,9,FALSE,0,NO ERROR,-0.000000,-0.186083,0.000000,-0.012833,TRUE,FALSE,TRUE,FALSE,FALSE,FALSE,Disabled,0.000000,0.000000,0.000000,TRUE,-0.069870,0.072876,0.000000,-0.144302,0.023438,0.000000,-0.072000,0.101000,-0.095000,0.040000,0.080000,1.370000,1.305088,Hold,62.674316,60.000000,Hold,-77493.000000,77414.400000,HighGoal,3277.500000,-3272.727273,Speed,3285.000000,-3272.727273,Speed,Off,Off,0.000000,FALSE,0,,,,
07:13:57.506 PM 03/23/2016,Teleop Enabled,10,FALSE,0,NO ERROR,0.283465,-0.166833,0.283465,-0.012833,TRUE,FALSE,TRUE,FALSE,FALSE,FALSE,Disabled,0.000000,0.000000,0.000000,TRUE,-0.077957,0.074219,0.000000,-0.168594,0.031097,0.000000,0.118000,-0.129000,0.019000,0.040000,0.060000,1.380000,1.294970,Hold,62.674316,60.000000,Hold,-77493.000000,77414.400000,HighGoal,3277.500000,-3272.727273,Speed,3285.000000,-3272.727273,Speed,Off,Off,0.000000,FALSE,0,,,,
07:13:57.606 PM 03/23/2016,Teleop Enabled,11,FALSE,0,NO ERROR,0.251969,0.269499,0.251969,-0.468416,TRUE,FALSE,TRUE,FALSE,FALSE,FALSE,Disabled,0.000000,0.000000,0.000000,TRUE,-0.085144,0.075378,0.000000,-0.179855,-0.002777,0.000000,-0.015000,-0.196000,0.219000,0.030000,-0.060000,1.390000,1.232839,Hold,62.666992,60.000000,Hold,-77493.000000,77414.400000,HighGoal,3270.000000,-3272.727273,Speed,3285.000000,-3272.727273,Speed,Off,Off,0.000000,FALSE,0,,,,
07:13:57.706 PM 03/23/2016,Teleop Enabled,9,FALSE,0,NO ERROR,-0.000000,1.045914,0.000000,-1.238414,TRUE,FALSE,TRUE,FALSE,FALSE,FALSE,Disabled,0.000000,0.000000,0.000000,TRUE,-0.100586,0.073303,0.000000,-0.333191,-0.048859,0.000000,0.045000,0.207000,-0.055000,0.140000,-1.340000,1.330000,1.378342,Hold,62.666992,60.000000,Hold,-77524.000000,77414.400000,HighGoal,3262.500000,-3272.727273,Speed,3270.000000,-3272.727273,Speed,Off,Off,0.000000,FALSE,0,,,,
07:13:57.807 PM 03/23/2016,Teleop Enabled,10,FALSE,0,NO ERROR,-0.000000,1.443747,0.000000,-1.700413,TRUE,FALSE,TRUE,FALSE,FALSE,FALSE,Disabled,0.000000,0.000000,0.000000,TRUE,-0.114594,0.070877,0.000000,-0.234818,-0.052261,0.000000,0.140000,0.088000,0.027000,0.150000,-0.220000,1.390000,1.418041,Hold,62.665771,60.000000,Hold,-77477.000000,77414.400000,HighGoal,3262.500000,-3272.727273,Speed,3262.500000,-3272.727273,Speed,Off,Off,0.000000,FALSE,0,,,,
07:13:57.908 PM 03/23/2016,Teleop Enabled,9,FALSE,0,NO ERROR,-0.000000,1.899329,0.000000,-2.181662,TRUE,FALSE,TRUE,FALSE,FALSE,FALSE,Disabled,0.000000,0.000000,0.000000,TRUE,-0.122131,0.070099,0.000000,-0.106140,-0.006927,0.000000,0.066000,0.069000,0.204000,0.210000,-0.090000,1.460000,1.503475,Hold,62.665771,60.000000,Hold,-77477.000000,77414.400000,HighGoal,3285.000000,-3272.727273,Speed,3277.500000,-3272.727273,Speed,Off,Off,0.000000,FALSE,0,,,,
07:13:58.008 PM 03/23/2016,Teleop Enabled,9,FALSE,0,NO ERROR,-0.000000,1.995579,0.000000,-2.290745,TRUE,FALSE,TRUE,FALSE,FALSE,FALSE,Disabled,0.000000,0.000000,0.000000,TRUE,-0.123489,0.070038,0.000000,0.017090,0.019745,0.000000,0.121000,-0.053000,-0.093000,0.220000,0.110000,1.430000,1.525962,Hold,62.665771,60.000000,Hold,-77515.000000,77414.400000,HighGoal,3277.500000,-3272.727273,Speed,3277.500000,-3272.727273,Speed,Off,Off,0.000000,FALSE,0,,,,
07:13:58.107 PM 03/23/2016,Teleop Enabled,10,FALSE,0,NO ERROR,-0.000000,1.995579,0.000000,-2.284328,TRUE,FALSE,TRUE,FALSE,FALSE,FALSE,Disabled,0.000000,0.000000,0.000000,TRUE,-0.121582,0.072067,0.000000,0.035065,0.042923,0.000000,0.044000,-0.150000,-0.021000,0.180000,0.170000,1.390000,1.489705,Hold,62.665771,60.000000,Hold,-77495.000000,77414.400000,HighGoal,3270.000000,-3272.727273,Speed,3285.000000,-3272.727273,Speed,Off,Off,0.000000,FALSE,0,,,,
07:13:58.208 PM 03/23/2016,Teleop Enabled,9,FALSE,0,NO ERROR,-0.000000,1.995579,0.000000,-2.284328,TRUE,FALSE,TRUE,FALSE,FALSE,FALSE,Disabled,0.000000,0.000000,0.000000,TRUE,-0.118073,0.073898,0.000000,0.064285,0.031006,0.000000,-0.027000,0.000000,-0.040000,0.210000,0.270000,1.340000,1.530740,Hold,62.665771,60.000000,Hold,-77498.000000,77414.400000,HighGoal,3270.000000,-3272.727273,Speed,3292.500000,-3272.727273,Speed,Off,Off,0.000000,FALSE,0,,,,
07:13:58.309 PM 03/23/2016,Teleop Enabled,11,FALSE,0,NO ERROR,-0.000000,1.995579,0.000000,-2.284328,TRUE,FALSE,TRUE,FALSE,FALSE,FALSE,Disabled,0.000000,0.000000,0.000000,TRUE,-0.116089,0.075577,0.000000,0.000000,0.036026,0.000000,-0.023000,-0.019000,0.076000,0.200000,0.180000,1.370000,1.516815,Hold,62.665771,60.000000,Hold,-77498.000000,77414.400000,HighGoal,3285.000000,-3272.727273,Speed,3292.500000,-3272.727273,Speed,Off,Off,0.000000,FALSE,0,,,,
07:13:58.409 PM 03/23/2016,Teleop Enabled,9,FALSE,0,NO ERROR,-0.000000,1.995579,0.000000,-2.284328,TRUE,FALSE,TRUE,FALSE,FALSE,FALSE,Disabled,0.000000,0.000000,0.000000,TRUE,-0.115311,0.077316,0.000000,0.029663,0.035156,0.000000,-0.023000,-0.019000,0.076000,0.200000,0.270000,1.310000,1.524795,Hold,62.665771,60.000000,Hold,-77498.000000,77414.400000,HighGoal,3285.000000,-3272.727273,Speed,3300.000000,-3272.727273,Speed,Off,Off,0.000000,FALSE,0,,,,
07:13:58.510 PM 03/23/2016,Teleop Enabled,9,FALSE,0,NO ERROR,-0.000000,1.995579,0.000000,-2.284328,TRUE,FALSE,TRUE,FALSE,FALSE,FALSE,Disabled,0.000000,0.000000,0.000000,TRUE,-0.115768,0.079071,0.000000,-0.030121,0.032822,0.000000,0.017000,-0.052000,-0.100000,0.210000,0.210000,1.360000,1.561882,Hold,62.665771,60.000000,Hold,-77498.000000,77414.400000,HighGoal,3285.000000,-3272.727273,Speed,3300.000000,-3272.727273,Speed,Off,Off,0.000000,FALSE,0,,,,
07:13:58.611 PM 03/23/2016,Teleop Enabled,9,FALSE,0,NO ERROR,-0.000000,1.995579,0.000000,-2.284328,TRUE,FALSE,TRUE,FALSE,FALSE,FALSE,Disabled,0.000000,0.000000,0.000000,TRUE,-0.118195,0.080673,0.000000,-0.049881,0.030243,0.000000,-0.222000,0.136000,0.061000,0.200000,0.220000,1.330000,1.532296,Hold,62.665771,60.000000,Hold,-77498.000000,77414.400000,HighGoal,3277.500000,-3272.727273,Speed,3292.500000,-3272.727273,Speed,Off,Off,0.000000,FALSE,0,,,,
07:13:58.711 PM 03/23/2016,Teleop Enabled,10,FALSE,0,NO ERROR,0.425197,2.444744,-0.425197,-2.053329,TRUE,FALSE,TRUE,FALSE,FALSE,FALSE,Disabled,0.000000,0.000000,0.000000,TRUE,-0.120682,0.082291,0.000000,-0.062210,0.041595,0.000000,0.082000,-0.090000,0.010000,0.200000,0.150000,1.390000,1.547915,Hold,62.665771,60.000000,Hold,-77498.000000,77414.400000,HighGoal,3277.500000,-3272.727273,Speed,3292.500000,-3272.727273,Speed,Off,Off,0.000000,FALSE,0,,,,
07:13:58.812 PM 03/23/2016,Teleop Enabled,10,FALSE,0,NO ERROR,-0.000000,2.868243,0.000000,-1.520746,TRUE,FALSE,TRUE,FALSE,FALSE,FALSE,Disabled,0.000000,0.000000,0.000000,TRUE,-0.122818,0.081650,0.000000,-0.034271,-0.046860,0.000000,0.082000,-0.090000,0.010000,-1.420000,-0.140000,1.020000,-0.834669,Hold,62.665771,60.000000,Hold,-77498.000000,77414.400000,HighGoal,3270.000000,-3272.727273,Speed,3270.000000,-3272.727273,Speed,Off,Off,0.000000,FALSE,0,,,,
07:13:58.912 PM 03/23/2016,Teleop Enabled,9,FALSE,0,NO ERROR,-0.000000,2.913160,0.000000,-1.469413,TRUE,FALSE,TRUE,FALSE,FALSE,FALSE,Disabled,0.000000,0.000000,0.000000,TRUE,-0.120773,0.080658,0.000000,0.110977,0.040070,0.000000,0.042000,0.140000,0.136000,-3.320000,0.190000,1.460000,-1.948299,Hold,62.665771,60.000000,Hold,-77498.000000,77414.400000,HighGoal,3247.500000,-3272.727273,Speed,3255.000000,-3272.727273,Speed,Off,Off,0.000000,FALSE,0,,,,
07:13:59.013 PM 03/23/2016,Teleop Enabled,9,FALSE,0,NO ERROR,-0.000000,2.765577,0.000000,-1.514330,TRUE,FALSE,TRUE,FALSE,FALSE,FALSE,Disabled,0.000000,0.000000,0.000000,TRUE,-0.120773,0.080658,0.000000,0.110977,0.040070,0.000000,0.042000,0.140000,0.136000,-3.320000,0.190000,1.460000,-0.899086,Hold,62.665771,60.000000,Hold,-77498.000000,77414.400000,HighGoal,3270.000000,-3272.727273,Speed,3285.000000,-3272.727273,Speed,Off,Off,0.000000,FALSE,0,,,,
07:13:59.113 PM 03/23/2016,Teleop Enabled,10,FALSE,0,NO ERROR,-0.000000,2.765577,0.000000,-1.507913,TRUE,FALSE,TRUE,FALSE,FALSE,FALSE,Disabled,0.000000,0.000000,0.000000,TRUE,-0.111008,0.084503,0.000000,0.125702,0.022705,0.000000,-0.036000,-0.047000,0.049000,-2.120000,0.010000,1.400000,-1.099670,Hold,62.665771,60.000000,Hold,-77498.000000,77414.400000,HighGoal,3292.500000,-3272.727273,Speed,3300.000000,-3272.727273,Speed,Off,Off,0.000000,FALSE,0,,,,
07:13:59.213 PM 03/23/2016,Teleop Enabled,9,FALSE,0,NO ERROR,-0.346457,2.252245,0.346457,-2.008412,TRUE,FALSE,TRUE,FALSE,FALSE,FALSE,Disabled,0.000000,0.000000,0.000000,TRUE,-0.106659,0.090851,0.000000,0.026810,0.091721,0.000000,0.025000,0.051000,0.049000,-2.350000,0.000000,1.400000,-0.995285,Hold,62.665771,60.000000,Hold,-77498.000000,77414.400000,HighGoal,3292.500000,-3272.727273,Speed,3300.000000,-3272.727273,Speed,Off,Off,0.000000,FALSE,0,,,,
07:13:59.314 PM 03/23/2016,Teleop Enabled,10,FALSE,0,NO ERROR,-0.000000,1.969912,0.000000,-2.425494,TRUE,FALSE,TRUE,FALSE,FALSE,FALSE,Disabled,0.000000,0.000000,0.000000,TRUE,-0.106659,0.090851,0.000000,0.026810,0.091721,0.000000,0.012000,0.326000,0.151000,-0.220000,0.210000,1.830000,1.165636,Hold,62.665771,60.000000,Hold,-77498.000000,77414.400000,HighGoal,3255.000000,-3272.727273,Speed,3277.500000,-3272.727273,Speed,Off,Off,0.000000,FALSE,0,,,,
07:13:59.415 PM 03/23/2016,Teleop Enabled,11,FALSE,0,NO ERROR,-0.000000,1.969912,0.000000,-2.457578,TRUE,FALSE,TRUE,FALSE,FALSE,FALSE,Disabled,0.000000,0.000000,0.000000,TRUE,-0.105392,0.099442,0.000000,0.028732,0.203049,0.000000,-0.257000,-0.027000,-0.056000,-0.220000,0.210000,1.830000,1.684392,Hold,62.665771,60.000000,Hold,-77498.000000,77414.400000,HighGoal,3262.500000,-3272.727273,Speed,3262.500000,-3272.727273,Speed,Off,Off,0.000000,FALSE,0,,,,
07:13:59.516 PM 03/23/2016,Teleop Enabled,11,FALSE,0,NO ERROR,-0.000000,2.072578,0.000000,-2.361328,TRUE,FALSE,TRUE,FALSE,FALSE,FALSE,Disabled,0.000000,0.000000,0.000000,TRUE,-0.109344,0.108505,0.000000,-0.108078,0.125900,0.000000,0.020000,0.156000,0.055000,0.070000,-0.090000,1.110000,0.881574,Hold,62.665771,60.000000,Hold,-77498.000000,77414.400000,HighGoal,3292.500000,-3272.727273,Speed,3285.000000,-3272.727273,Speed,Off,Off,0.000000,FALSE,0,,,,
07:13:59.616 PM 03/23/2016,Teleop Enabled,10,FALSE,0,NO ERROR,-0.000000,2.072578,0.000000,-2.361328,TRUE,FALSE,TRUE,FALSE,FALSE,FALSE,Disabled,0.000000,0.000000,0.000000,TRUE,-0.114517,0.118301,0.000000,-0.083252,0.223984,0.000000,0.056000,0.006000,-0.004000,-0.460000,0.160000,1.360000,1.058428,Hold,62.665771,60.000000,Hold,-77498.000000,77414.400000,HighGoal,3292.500000,-3272.727273,Speed,3307.500000,-3272.727273,Speed,Off,Off,0.000000,FALSE,0,,,,
07:13:59.718 PM 03/23/2016,Teleop Enabled,11,FALSE,0,NO ERROR,-0.385827,1.783829,-0.385827,-1.732496,TRUE,FALSE,TRUE,FALSE,FALSE,FALSE,Disabled,0.000000,0.000000,0.000000,TRUE,-0.118942,0.129257,0.000000,-0.097733,0.217316,0.000000,-0.125000,0.047000,-0.070000,-0.270000,0.170000,1.330000,1.004914,Hold,62.665771,60.000000,Hold,-77498.000000,77414.400000,HighGoal,3277.500000,-3272.727273,Speed,3307.500000,-3272.727273,Speed,Off,Off,0.000000,FALSE,0,,,,
07:13:59.819 PM 03/23/2016,Teleop Enabled,11,FALSE,0,NO ERROR,-0.000000,0.789248,0.000000,-0.763582,TRUE,FALSE,TRUE,FALSE,FALSE,FALSE,Disabled,0.000000,0.000000,0.000000,TRUE,-0.123138,0.138321,0.000000,-0.010956,0.134537,0.000000,0.211000,-0.286000,0.075000,-0.340000,1.290000,1.360000,1.049904,Hold,62.665771,60.000000,Hold,-77498.000000,77414.400000,HighGoal,3277.500000,-3272.727273,Speed,3262.500000,-3272.727273,Speed,Off,Off,0.000000,FALSE,0,,,,
07:13:59.920 PM 03/23/2016,Teleop Enabled,12,FALSE,0,NO ERROR,-0.000000,-0.044917,0.000000,-0.032083,TRUE,FALSE,TRUE,FALSE,FALSE,FALSE,Disabled,0.000000,0.000000,0.000000,TRUE,-0.119019,0.142014,0.000000,0.159149,0.038681,0.000000,0.146000,-0.227000,-0.044000,-0.330000,1.750000,1.370000,1.190950,Hold,62.665771,60.000000,Hold,-77498.000000,77414.400000,HighGoal,3255.000000,-3272.727273,Speed,3262.500000,-3272.727273,Speed,Off,Off,0.000000,FALSE,0,,,,
07:14:00.022 PM 03/23/2016,Teleop Enabled,11,FALSE,0,NO ERROR,-0.000000,-0.782832,0.000000,0.699415,TRUE,FALSE,TRUE,FALSE,FALSE,FALSE,Disabled,0.000000,0.000000,0.000000,TRUE,-0.119507,0.142471,0.000000,-0.115280,0.001297,0.000000,-0.039000,-0.151000,-0.015000,-0.170000,0.800000,1.270000,1.269660,Hold,62.665771,60.000000,Hold,-77474.000000,77414.400000,HighGoal,3285.000000,-3272.727273,Speed,3262.500000,-3272.727273,Speed,Off,Off,0.000000,FALSE,0,,,,
07:14:00.123 PM 03/23/2016,Teleop Enabled,10,FALSE,0,NO ERROR,0.220472,-0.930414,-0.220472,1.334664,TRUE,FALSE,TRUE,FALSE,FALSE,FALSE,Disabled,0.000000,0.000000,0.000000,TRUE,-0.141876,0.140701,0.000000,-0.375397,-0.051041,0.000000,-0.059000,-0.060000,-0.040000,-0.080000,0.440000,1.260000,1.123035,Hold,62.665771,60.000000,Hold,-77545.000000,77414.400000,HighGoal,3292.500000,-3272.727273,Speed,3307.500000,-3272.727273,Speed,Off,Off,0.000000,FALSE,0,,,,
07:14:00.223 PM 03/23/2016,Teleop Enabled,10,FALSE,0,NO ERROR,-0.000000,-0.808498,0.000000,1.578496,TRUE,FALSE,TRUE,FALSE,FALSE,FALSE,Disabled,0.000000,0.000000,0.000000,TRUE,-0.162964,0.135818,0.000000,-0.435394,-0.111526,0.000000,-0.072000,-0.120000,-0.404000,-0.170000,-0.100000,1.220000,-0.189389,Hold,62.665771,60.000000,Hold,-77494.000000,77414.400000,HighGoal,3292.500000,-3272.727273,Speed,3300.000000,-3272.727273,Speed,Off,Off,0.000000,FALSE,0,,,,
07:14:00.324 PM 03/23/2016,Teleop Enabled,11,FALSE,0,NO ERROR,-0.000000,-0.808498,0.000000,1.450163,TRUE,FALSE,TRUE,FALSE,FALSE,FALSE,Disabled,0.000000,0.000000,0.000000,TRUE,-0.187271,0.131454,0.000000,-0.409271,-0.077637,0.000000,0.134000,0.069000,0.100000,-1.460000,-0.110000,1.120000,0.272282,Hold,62.665771,60.000000,Hold,-77505.000000,77414.400000,HighGoal,3277.500000,-3272.727273,Speed,3277.500000,-3272.727273,Speed,Off,Off,0.000000,FALSE,0,,,,
07:14:00.424 PM 03/23/2016,Teleop Enabled,11,FALSE,0,NO ERROR,-0.000000,-0.808498,0.000000,1.392413,TRUE,FALSE,TRUE,FALSE,FALSE,FALSE,Disabled,0.000000,0.000000,0.000000,TRUE,-0.187271,0.131454,0.000000,-0.409271,-0.077637,0.000000,-0.083000,-0.006000,0.049000,-0.970000,-0.090000,1.310000,0.327818,Hold,62.665771,60.000000,Hold,-77505.000000,77414.400000,HighGoal,3270.000000,-3272.727273,Speed,3285.000000,-3272.727273,Speed,Off,Off,0.000000,FALSE,0,,,,
07:14:00.526 PM 03/23/2016,Teleop Enabled,11,FALSE,0,NO ERROR,-0.000000,-0.808498,0.000000,1.385997,TRUE,FALSE,TRUE,FALSE,FALSE,FALSE,Disabled,0.000000,0.000000,0.000000,TRUE,-0.226562,0.121765,0.000000,-0.362793,-0.075958,0.000000,0.083000,-0.074000,-0.039000,-0.970000,-0.050000,1.200000,0.317359,Hold,62.665771,60.000000,Hold,-77505.000000,77414.400000,HighGoal,3285.000000,-3272.727273,Speed,3300.000000,-3272.727273,Speed,Off,Off,0.000000,FALSE,0,,,,
07:14:00.627 PM 03/23/2016,Teleop Enabled,11,FALSE,0,NO ERROR,-0.000000,-0.808498,0.000000,1.385997,TRUE,FALSE,TRUE,FALSE,FALSE,FALSE,Disabled,0.000000,0.000000,0.000000,TRUE,-0.226562,0.121765,0.000000,-0.362793,-0.075958,0.000000,0.049000,0.006000,0.047000,-0.990000,0.020000,1.260000,0.359255,Hold,62.665771,60.000000,Hold,-77505.000000,77414.400000,HighGoal,3292.500000,-3272.727273,Speed,3300.000000,-3272.727273,Speed,Off,Off,0.000000,FALSE,0,,,,
07:14:00.725 PM 03/23/2016,Teleop Enabled,10,FALSE,0,NO ERROR,-0.000000,-0.808498,0.000000,1.385997,TRUE,FALSE,TRUE,FALSE,FALSE,FALSE,Disabled,0.000000,0.000000,0.000000,TRUE,-0.243317,0.119125,0.000000,-0.316208,-0.044205,0.000000,0.041000,-0.148000,-0.071000,-0.960000,0.000000,1.240000,0.326365,Hold,62.665771,60.000000,Hold,-77503.000000,77414.400000,HighGoal,3285.000000,-3272.727273,Speed,3300.000000,-3272.727273,Speed,Off,Off,0.000000,FALSE,0,,,,
07:14:00.826 PM 03/23/2016,Teleop Enabled,10,FALSE,0,NO ERROR,-0.000000,-0.808498,0.000000,1.385997,TRUE,FALSE,TRUE,FALSE,FALSE,FALSE,Disabled,0.000000,0.000000,0.000000,TRUE,-0.259766,0.117615,0.000000,-0.337997,-0.008255,0.000000,-0.089000,0.215000,-0.046000,-1.000000,-0.030000,1.220000,0.351389,Hold,62.665771,60.000000,Hold,-77503.000000,77414.400000,HighGoal,3285.000000,-3272.727273,Speed,3292.500000,-3272.727273,Speed,Off,Off,0.000000,FALSE,0,,,,
07:14:00.926 PM 03/23/2016,Teleop Enabled,9,FALSE,0,NO ERROR,0.000000,-0.808498,-0.000000,1.360330,TRUE,FALSE,TRUE,TRUE,TRUE,FALSE,Disabled,0.000000,0.000000,0.000000,TRUE,-0.276611,0.118698,0.000000,-0.343506,0.036240,0.000000,-0.180000,0.197000,-0.020000,-0.970000,0.010000,1.250000,0.359689,Hold,62.665771,60.000000,Hold,-77503.000000,77414.400000,HighGoal,3285.000000,-3272.727273,Speed,3292.500000,-3272.727273,Speed,Off,Off,0.000000,FALSE,0,,,,
07:14:01.027 PM 03/23/2016,Teleop Enabled,11,FALSE,0,NO ERROR,0.000000,-0.808498,-0.000000,1.360330,TRUE,FALSE,TRUE,TRUE,TRUE,FALSE,Disabled,0.000000,0.000000,0.000000,TRUE,-0.299072,0.123108,0.000000,-0.380127,0.088974,0.000000,0.026000,0.120000,-0.101000,-0.980000,-0.050000,1.290000,0.359689,Hold,62.665771,60.000000,Hold,-77503.000000,77414.400000,HighGoal,3292.500000,-3272.727273,Speed,3285.000000,-3272.727273,Speed,Off,Off,0.000000,FALSE,0,,,,
07:14:01.127 PM 03/23/2016,Teleop Enabled,9,FALSE,0,NO ERROR,0.000000,-0.808498,-0.000000,1.360330,TRUE,FALSE,TRUE,TRUE,TRUE,FALSE,Disabled,0.000000,0.000000,0.000000,TRUE,-0.316833,0.128357,0.000000,-0.341553,0.127167,0.000000,-0.002000,0.104000,0.053000,-0.970000,-0.040000,1.290000,0.358845,Hold,62.665771,60.000000,Hold,-77503.000000,77414.400000,HighGoal,3285.000000,-3272.727273,Speed,3300.000000,-3272.727273,Speed,Off,Off,0.000000,FALSE,0,,,,
07:14:01.228 PM 03/23/2016,Teleop Enabled,9,FALSE,0,NO ERROR,0.000000,-0.808498,-0.000000,1.360330,TRUE,FALSE,TRUE,TRUE,TRUE,FALSE,Disabled,0.000000,0.000000,0.000000,TRUE,-0.330307,0.134186,0.000000,-0.339706,0.150009,0.000000,0.096000,0.078000,0.024000,-0.970000,0.030000,1.270000,0.363575,Hold,62.665771,60.000000,Hold,-77503.000000,77414.400000,HighGoal,3285.000000,-3272.727273,Speed,3300.000000,-3272.727273,Speed,Off,Off,0.000000,FALSE,0,,,,
07:14:01.328 PM 03/23/2016,Teleop Enabled,9,FALSE,0,NO ERROR,0.000000,-0.808498,-0.000000,1.360330,TRUE,FALSE,TRUE,TRUE,TRUE,FALSE,Disabled,0.000000,0.000000,0.000000,TRUE,-0.350418,0.145050,0.000000,-0.342117,0.205078,0.000000,0.032000,0.004000,-0.118000,-0.970000,0.020000,1.280000,0.385522,Hold,62.665771,60.000000,Hold,-77503.000000,77414.400000,HighGoal,3285.000000,-3272.727273,Speed,3300.000000,-3272.727273,Speed,Off,Off,0.000000,FALSE,0,,,,
07:14:01.428 PM 03/23/2016,Teleop Enabled,10,FALSE,0,NO ERROR,0.000000,-0.808498,-0.000000,1.360330,TRUE,FALSE,TRUE,TRUE,TRUE,FALSE,Enable,-0.018750,0.776782,-1.746782,TRUE,-0.367447,0.147095,0.000000,-0.336273,0.000320,0.000000,-0.076000,0.040000,0.001000,-0.970000,-0.020000,1.320000,0.396152,Hold,62.665771,60.000000,Hold,-77503.000000,77414.400000,HighGoal,3292.500000,-3272.727273,Speed,3300.000000,-3272.727273,Speed,Off,Off,0.000000,FALSE,0,,,,
07:14:01.528 PM 03/23/2016,Teleop Enabled,10,FALSE,0,NO ERROR,0.000000,-0.808498,-0.000000,1.360330,TRUE,FALSE,TRUE,TRUE,TRUE,FALSE,Suspended,-0.018750,0.776782,-1.746782,TRUE,-0.384979,0.146774,0.000000,-0.361389,-0.013290,0.000000,-0.155000,0.069000,0.028000,-0.970000,0.000000,1.290000,0.395801,Hold,62.665771,60.000000,Hold,-77503.000000,77414.400000,HighGoal,3285.000000,-3272.727273,Speed,3300.000000,-3272.727273,Speed,Off,Off,0.000000,FALSE,0,,,,
07:14:01.629 PM 03/23/2016,Teleop Enabled,9,FALSE,0,NO ERROR,0.000000,-0.808498,-0.000000,1.360330,TRUE,FALSE,TRUE,TRUE,TRUE,FALSE,Suspended,-0.018750,0.776782,-1.746782,TRUE,-0.404526,0.144684,0.000000,-0.405594,-0.056839,0.000000,-0.167000,0.126000,-0.010000,-0.970000,0.020000,1.280000,0.397791,Hold,62.665771,60.000000,Hold,-77503.000000,77414.400000,HighGoal,3292.500000,-3272.727273,Speed,3300.000000,-3272.727273,Speed,Off,Off,0.000000,FALSE,0,,,,
07:14:01.730 PM 03/23/2016,Teleop Enabled,10,FALSE,0,NO ERROR,-0.000000,-0.808498,0.000000,1.353914,TRUE,FALSE,TRUE,FALSE,FALSE,FALSE,Suspended,-0.018750,0.776782,-1.746782,TRUE,-0.425552,0.141632,0.000000,-0.428040,-0.060257,0.000000,0.083000,-0.170000,-0.053000,-0.970000,0.110000,1.230000,0.399072,Hold,62.665771,60.000000,Hold,-77503.000000,77414.400000,HighGoal,3292.500000,-3272.727273,Speed,3292.500000,-3272.727273,Speed,Off,Off,0.000000,FALSE,0,,,,
07:14:01.831 PM 03/23/2016,Teleop Enabled,10,FALSE,0,NO ERROR,-0.000000,-0.808498,0.000000,1.353914,TRUE,FALSE,TRUE,FALSE,FALSE,FALSE,Suspended,-0.018750,0.776782,-1.746782,TRUE,-0.450134,0.137512,0.000000,-0.388000,-0.078339,0.000000,0.037000,0.068000,0.025000,-0.960000,0.120000,1.210000,0.384844,Hold,62.665771,60.000000,Hold,-77503.000000,77414.400000,HighGoal,3285.000000,-3272.727273,Speed,3300.000000,-3272.727273,Speed,Off,Off,0.000000,FALSE,0,,,,
07:14:01.931 PM 03/23/2016,Teleop Enabled,9,FALSE,0,NO ERROR,-0.000000,-0.808498,0.000000,1.353914,TRUE,FALSE,TRUE,FALSE,FALSE,FALSE,Suspended,-0.018750,0.776782,-1.746782,TRUE,-0.457611,0.134857,0.000000,0.000000,-0.048340,0.000000,0.090000,-0.054000,0.009000,-0.970000,0.130000,1.220000,0.380320,Hold,62.665771,60.000000,Hold,-77503.000000,77414.400000,HighGoal,3285.000000,-3272.727273,Speed,3300.000000,-3272.727273,Speed,Off,Off,0.000000,FALSE,0,,,,
07:14:02.030 PM 03/23/2016,Teleop Enabled,10,FALSE,0,NO ERROR,-0.000000,-0.808498,0.000000,1.353914,TRUE,FALSE,TRUE,FALSE,FALSE,FALSE,Disabled,-0.018750,0.776782,-1.746782,TRUE,-0.456650,0.133575,0.000000,0.019241,-0.008896,0.000000,0.040000,-0.014000,0.185000,-0.970000,0.200000,1.180000,0.378127,Hold,62.665771,60.000000,Hold,-77503.000000,77414.400000,HighGoal,3292.500000,-3272.727273,Speed,3292.500000,-3272.727273,Speed,Off,Off,0.000000,FALSE,0,,,,
07:14:02.131 PM 03/23/2016,Teleop Enabled,9,FALSE,0,NO ERROR,-0.000000,-0.808498,0.000000,1.353914,TRUE,FALSE,TRUE,FALSE,FALSE,FALSE,Disabled,-0.018750,0.776782,-1.746782,TRUE,-0.455719,0.133789,0.000000,0.009232,0.011688,0.000000,0.058000,0.055000,0.039000,-0.970000,0.170000,1.200000,0.381398,Hold,62.665771,60.000000,Hold,-77503.000000,77414.400000,HighGoal,3285.000000,-3272.727273,Speed,3292.500000,-3272.727273,Speed,Off,Off,0.000000,FALSE,0,,,,
07:14:02.231 PM 03/23/2016,Teleop Enabled,9,FALSE,0,NO ERROR,-0.000000,-0.808498,0.000000,1.353914,TRUE,FALSE,TRUE,FALSE,FALSE,FALSE,Disabled,-0.018750,0.776782,-1.746782,TRUE,-0.455338,0.134781,0.000000,0.000488,0.008789,0.000000,-0.191000,0.121000,0.075000,-0.970000,0.140000,1.230000,0.403492,Hold,62.665771,60.000000,Hold,-77503.000000,77414.400000,HighGoal,3285.000000,-3272.727273,Speed,3300.000000,-3272.727273,Speed,Off,Off,0.000000,FALSE,0,,,,
07:14:02.331 PM 03/23/2016,Teleop Enabled,11,FALSE,0,NO ERROR,-0.000000,-0.808498,0.000000,1.353914,TRUE,FALSE,TRUE,FALSE,FALSE,FALSE,Disabled,-0.018750,0.776782,-1.746782,TRUE,-0.456085,0.134201,0.000000,-0.031326,-0.018036,0.000000,0.132000,-0.179000,-0.129000,-0.960000,0.140000,1.200000,0.413062,Hold,62.665771,60.000000,Hold,-77503.000000,77414.400000,HighGoal,3292.500000,-3272.727273,Speed,3300.000000,-3272.727273,Speed,Off,Off,0.000000,FALSE,0,,,,
07:14:02.432 PM 03/23/2016,Teleop Enabled,11,FALSE,0,NO ERROR,-0.000000,-0.808498,0.000000,1.353914,TRUE,FALSE,TRUE,FALSE,FALSE,FALSE,Disabled,-0.018750,0.776782,-1.746782,TRUE,-0.458817,0.131470,0.000000,-0.064072,-0.077454,0.000000,-0.054000,0.019000,0.008000,-0.960000,0.060000,1.300000,0.414326,Hold,62.665771,60.000000,Hold,-77503.000000,77414.400000,HighGoal,3292.500000,-3272.727273,Speed,3300.000000,-3272.727273,Speed,Off,Off,0.000000,FALSE,0,,,,
07:14:02.532 PM 03/23/2016,Teleop Enabled,11,FALSE,0,NO ERROR,-0.000000,-0.808498,0.000000,1.353914,TRUE,FALSE,TRUE,FALSE,FALSE,FALSE,Disabled,-0.018750,0.776782,-1.746782,TRUE,-0.461792,0.126312,0.000000,-0.056183,-0.115356,0.000000,0.021000,-0.076000,-0.034000,-0.960000,0.060000,1.290000,0.414167,Hold,62.665771,60.000000,Hold,-77503.000000,77414.400000,HighGoal,3285.000000,-3272.727273,Speed,3300.000000,-3272.727273,Speed,Off,Off,0.000000,FALSE,0,,,,
07:14:02.632 PM 03/23/2016,Teleop Enabled,10,FALSE,0,NO ERROR,-0.000000,-0.808498,0.000000,1.353914,TRUE,FALSE,TRUE,FALSE,FALSE,FALSE,Disabled,-0.018750,0.776782,-1.746782,TRUE,-0.463638,0.120941,0.000000,-0.043457,-0.143082,0.000000,0.044000,0.055000,0.133000,-0.960000,0.050000,1.320000,0.412942,Hold,62.665771,60.000000,Hold,-77503.000000,77414.400000,HighGoal,3292.500000,-3272.727273,Speed,3292.500000,-3272.727273,Speed,Off,Off,0.000000,FALSE,0,,,,
07:14:02.732 PM 03/23/2016,Teleop Enabled,9,FALSE,0,NO ERROR,-0.000000,-0.808498,0.000000,1.353914,TRUE,FALSE,TRUE,FALSE,FALSE,FALSE,Disabled,-0.018750,0.776782,-1.746782,TRUE,-0.465164,0.112381,0.000000,-0.021194,-0.138840,0.000000,0.017000,-0.046000,-0.052000,-0.960000,0.080000,1.310000,0.410587,Hold,62.665771,60.000000,Hold,-77503.000000,77414.400000,HighGoal,3285.000000,-3272.727273,Speed,3300.000000,-3272.727273,Speed,Off,Off,0.000000,FALSE,0,,,,
07:14:02.832 PM 03/23/2016,Teleop Enabled,10,FALSE,0,NO ERROR,-0.000000,-0.808498,0.000000,1.353914,TRUE,FALSE,TRUE,FALSE,FALSE,FALSE,Disabled,-0.018750,0.776782,-1.746782,TRUE,-0.464874,0.104309,0.000000,0.036026,-0.185928,0.000000,0.011000,-0.009000,0.051000,-0.960000,0.060000,1.340000,0.411186,Hold,62.665771,60.000000,Hold,-77503.000000,77414.400000,HighGoal,3285.000000,-3272.727273,Speed,3300.000000,-3272.727273,Speed,Off,Off,0.000000,FALSE,0,,,,
07:14:02.932 PM 03/23/2016,Teleop Enabled,10,FALSE,0,NO ERROR,-0.000000,-0.808498,0.000000,1.353914,TRUE,FALSE,TRUE,FALSE,FALSE,FALSE,Disabled,-0.018750,0.776782,-1.746782,TRUE,-0.463409,0.095551,0.000000,0.025040,-0.159241,0.000000,-0.108000,0.053000,0.057000,-0.960000,0.140000,1.310000,0.409265,Hold,62.665771,60.000000,Hold,-77503.000000,77414.400000,HighGoal,3292.500000,-3272.727273,Speed,3292.500000,-3272.727273,Speed,Off,Off,0.000000,FALSE,0,,,,
07:14:03.032 PM 03/23/2016,Teleop Enabled,11,FALSE,0,NO ERROR,-0.000000,-0.808498,0.000000,1.353914,TRUE,FALSE,TRUE,FALSE,FALSE,FALSE,Disabled,-0.018750,0.776782,-1.746782,TRUE,-0.461945,0.087372,0.000000,0.037964,-0.173706,0.000000,0.157000,-0.097000,-0.160000,-0.960000,0.210000,1.270000,0.429211,Hold,62.665771,60.000000,Hold,-77503.000000,77414.400000,HighGoal,3292.500000,-3272.727273,Speed,3292.500000,-3272.727273,Speed,Off,Off,0.000000,FALSE,0,,,,
07:14:03.132 PM 03/23/2016,Teleop Enabled,10,FALSE,0,NO ERROR,-0.000000,-0.808498,0.000000,1.353914,TRUE,FALSE,TRUE,FALSE,FALSE,FALSE,Disabled,-0.018750,0.776782,-1.746782,TRUE,-0.460602,0.080811,0.000000,0.027985,-0.157303,0.000000,-0.145000,0.090000,0.023000,-0.960000,0.190000,1.330000,0.458752,Hold,62.665771,60.000000,Hold,-77503.000000,77414.400000,HighGoal,3285.000000,-3272.727273,Speed,3300.000000,-3272.727273,Speed,Off,Off,0.000000,FALSE,0,,,,
07:14:03.232 PM 03/23/2016,Teleop Enabled,11,FALSE,0,NO ERROR,-0.000000,-0.808498,0.000000,1.353914,TRUE,FALSE,TRUE,FALSE,FALSE,FALSE,Disabled,-0.018750,0.776782,-1.746782,TRUE,-0.458435,0.071945,0.000000,0.046265,-0.132950,0.000000,0.044000,0.051000,0.036000,-0.960000,0.270000,1.310000,0.466491,Hold,62.665771,60.000000,Hold,-77503.000000,77414.400000,HighGoal,3292.500000,-3272.727273,Speed,3300.000000,-3272.727273,Speed,Off,Off,0.000000,FALSE,0,,,,
07:14:03.333 PM 03/23/2016,Teleop Enabled,10,FALSE,0,NO ERROR,-0.000000,-0.808498,0.000000,1.353914,TRUE,FALSE,TRUE,FALSE,FALSE,FALSE,Disabled,-0.018750,0.776782,-1.746782,TRUE,-0.454498,0.066544,0.000000,0.102722,-0.099091,0.000000,0.152000,-0.031000,0.058000,-0.970000,0.320000,1.280000,0.473741,Hold,62.665771,60.000000,Hold,-77503.000000,77414.400000,HighGoal,3292.500000,-3272.727273,Speed,3300.000000,-3272.727273,Speed,Off,Off,0.000000,FALSE,0,,,,
07:14:03.434 PM 03/23/2016,Teleop Enabled,9,FALSE,0,NO ERROR,-0.000000,-0.808498,0.000000,1.353914,TRUE,FALSE,TRUE,FALSE,FALSE,FALSE,Disabled,-0.018750,0.776782,-1.746782,TRUE,-0.451691,0.061737,0.000000,0.015686,-0.095840,0.000000,0.077000,-0.026000,0.095000,-0.970000,0.340000,1.250000,0.482908,Hold,62.665771,60.000000,Hold,-77503.000000,77414.400000,HighGoal,3285.000000,-3272.727273,Speed,3300.000000,-3272.727273,Speed,Off,Off,0.000000,FALSE,0,,,,
07:14:03.536 PM 03/23/2016,Teleop Enabled,11,FALSE,0,NO ERROR,-0.000000,-0.808498,0.000000,1.353914,TRUE,FALSE,TRUE,FALSE,FALSE,FALSE,Disabled,-0.018750,0.776782,-1.746782,TRUE,-0.450378,0.057907,0.000000,0.015839,-0.061401,0.000000,-0.124000,0.116000,0.107000,-0.970000,0.360000,1.250000,0.496403,Hold,62.665771,60.000000,Hold,-77503.000000,77414.400000,HighGoal,3292.500000,-3272.727273,Speed,3300.000000,-3272.727273,Speed,Off,Off,0.000000,FALSE,0,,,,
07:14:03.636 PM 03/23/2016,Teleop Enabled,11,FALSE,0,NO ERROR,-0.000000,-0.808498,0.000000,1.353914,TRUE,FALSE,TRUE,FALSE,FALSE,FALSE,Disabled,-0.018750,0.776782,-1.746782,TRUE,-0.449661,0.055725,0.000000,0.021439,-0.041992,0.000000,0.052000,-0.077000,-0.008000,-0.970000,0.390000,1.220000,0.502748,Hold,62.665771,60.000000,Hold,-77503.000000,77414.400000,HighGoal,3292.500000,-3272.727273,Speed,3300.000000,-3272.727273,Speed,Off,Off,0.000000,FALSE,0,,,,
07:14:03.737 PM 03/23/2016,Teleop Enabled,9,FALSE,0,NO ERROR,-0.000000,-0.808498,0.000000,1.353914,TRUE,FALSE,TRUE,FALSE,FALSE,FALSE,Disabled,-0.018750,0.776782,-1.746782,TRUE,-0.448456,0.053406,0.000000,0.018524,-0.040756,0.000000,-0.131000,0.131000,-0.027000,-0.970000,0.400000,1.190000,0.519723,Hold,62.665771,60.000000,Hold,-77503.000000,77414.400000,HighGoal,3285.000000,-3272.727273,Speed,3307.500000,-3272.727273,Speed,Off,Off,0.000000,FALSE,0,,,,
07:14:03.838 PM 03/23/2016,Teleop Enabled,10,FALSE,0,NO ERROR,-0.000000,-0.808498,0.000000,1.353914,TRUE,FALSE,TRUE,FALSE,FALSE,FALSE,Disabled,-0.018750,0.776782,-1.746782,TRUE,-0.448074,0.050873,0.000000,0.006042,-0.056198,0.000000,-0.007000,0.014000,0.051000,-0.970000,0.390000,1.170000,0.532295,Hold,62.665771,60.000000,Hold,-77503.000000,77414.400000,HighGoal,3292.500000,-3272.727273,Speed,3300.000000,-3272.727273,Speed,Off,Off,0.000000,FALSE,0,,,,
07:14:03.939 PM 03/23/2016,Teleop Enabled,9,FALSE,0,NO ERROR,-0.000000,-0.808498,0.000000,1.353914,TRUE,FALSE,TRUE,FALSE,FALSE,FALSE,Disabled,-0.018750,0.776782,-1.746782,TRUE,-0.447113,0.048157,0.000000,0.034042,-0.064590,0.000000,0.079000,-0.069000,-0.071000,-0.970000,0.420000,1.180000,0.539173,Hold,62.665771,60.000000,Hold,-77503.000000,77414.400000,HighGoal,3292.500000,-3272.727273,Speed,3300.000000,-3272.727273,Speed,Off,Off,0.000000,FALSE,0,,,,
07:14:04.040 PM 03/23/2016,Teleop Enabled,10,FALSE,0,NO ERROR,-0.000000,-0.808498,0.000000,1.353914,TRUE,FALSE,TRUE,FALSE,FALSE,FALSE,Disabled,-0.018750,0.776782,-1.746782,TRUE,-0.444077,0.045364,0.000000,0.067215,-0.038452,0.000000,-0.047000,0.132000,0.156000,-0.970000,0.390000,1.200000,0.545177,Hold,62.665771,60.000000,Hold,-77503.000000,77414.400000,HighGoal,3285.000000,-3272.727273,Speed,3307.500000,-3272.727273,Speed,Off,Off,0.000000,FALSE,0,,,,
07:14:04.141 PM 03/23/2016,Teleop Enabled,9,FALSE,0,NO ERROR,-0.000000,-0.808498,0.000000,1.353914,TRUE,FALSE,TRUE,FALSE,FALSE,FALSE,Disabled,-0.018750,0.776782,-1.746782,TRUE,-0.440872,0.046204,0.000000,0.074707,0.037933,0.000000,-0.014000,0.071000,0.078000,-0.960000,0.300000,1.220000,0.539077,Hold,62.665771,60.000000,Hold,-77503.000000,77414.400000,HighGoal,3285.000000,-3272.727273,Speed,3300.000000,-3272.727273,Speed,Off,Off,0.000000,FALSE,0,,,,
07:14:04.242 PM 03/23/2016,Teleop Enabled,10,FALSE,0,NO ERROR,-0.000000,-0.808498,0.000000,1.353914,TRUE,FALSE,TRUE,FALSE,FALSE,FALSE,Disabled,-0.018750,0.776782,-1.746782,TRUE,-0.440918,0.048492,0.000000,-0.000931,0.070831,0.000000,-0.026000,0.204000,0.038000,-0.970000,0.330000,1.210000,0.527211,Hold,62.665771,60.000000,Hold,-77503.000000,77414.400000,HighGoal,3292.500000,-3272.727273,Speed,3300.000000,-3272.727273,Speed,Off,Off,0.000000,FALSE,0,,,,
07:14:04.343 PM 03/23/2016,Teleop Enabled,9,FALSE,0,NO ERROR,-0.000000,-0.808498,0.000000,1.353914,TRUE,FALSE,TRUE,FALSE,FALSE,FALSE,Disabled,-0.018750,0.776782,-1.746782,TRUE,-0.441589,0.055145,0.000000,-0.030777,0.157166,0.000000,0.003000,-0.033000,0.013000,-0.960000,0.270000,1.260000,0.528763,Hold,62.665771,60.000000,Hold,-77503.000000,77414.400000,HighGoal,3292.500000,-3272.727273,Speed,3307.500000,-3272.727273,Speed,Off,Off,0.000000,FALSE,0,,,,
07:14:04.443 PM 03/23/2016,Teleop Enabled,10,FALSE,0,NO ERROR,-0.000000,-0.808498,0.000000,1.353914,TRUE,FALSE,TRUE,FALSE,FALSE,FALSE,Disabled,-0.018750,0.776782,-1.746782,TRUE,-0.443802,0.063644,0.000000,-0.036240,0.162811,0.000000,-0.085000,0.132000,-0.033000,-0.970000,0.330000,1.260000,0.527933,Hold,62.665771,60.000000,Hold,-77503.000000,77414.400000,HighGoal,3292.500000,-3272.727273,Speed,3300.000000,-3272.727273,Speed,Off,Off,0.000000,FALSE,0,,,,
07:14:04.543 PM 03/23/2016,Teleop Enabled,9,FALSE,0,NO ERROR,-0.000000,-0.808498,0.000000,1.353914,TRUE,FALSE,TRUE,FALSE,FALSE,FALSE,Disabled,-0.018750,0.776782,-1.746782,TRUE,-0.446655,0.072021,0.000000,-0.077682,0.163864,0.000000,-0.037000,-0.133000,-0.061000,-0.970000,0.310000,1.310000,0.535425,Hold,62.665771,60.000000,Hold,-77503.000000,77414.400000,HighGoal,3292.500000,-3272.727273,Speed,3292.500000,-3272.727273,Speed,Off,Off,0.000000,FALSE,0,,,,
07:14:04.644 PM 03/23/2016,Teleop Enabled,10,FALSE,0,NO ERROR,-0.000000,-0.808498,0.000000,1.353914,TRUE,FALSE,TRUE,FALSE,FALSE,FALSE,Disabled,-0.018750,0.776782,-1.746782,TRUE,-0.451706,0.078812,0.000000,-0.105377,0.124741,0.000000,-0.056000,0.017000,0.088000,-0.960000,0.280000,1.310000,0.544413,Hold,62.665771,60.000000,Hold,-77503.000000,77414.400000,HighGoal,3292.500000,-3272.727273,Speed,3300.000000,-3272.727273,Speed,Off,Off,0.000000,FALSE,0,,,,
07:14:04.744 PM 03/23/2016,Teleop Enabled,10,FALSE,0,NO ERROR,-0.000000,-0.808498,0.000000,1.353914,TRUE,FALSE,TRUE,FALSE,FALSE,FALSE,Disabled,-0.018750,0.776782,-1.746782,TRUE,-0.459000,0.087509,0.000000,-0.127136,0.157166,0.000000,0.061000,-0.078000,0.047000,-0.960000,0.250000,1.330000,0.544840,Hold,62.665771,60.000000,Hold,-77503.000000,77414.400000,HighGoal,3292.500000,-3272.727273,Speed,3300.000000,-3272.727273,Speed,Off,Off,0.000000,FALSE,0,,,,
