Time,Robot Mode,Loop Time,Error Status,Error Code,Error Source,Left Motor Output,Left Motor Encoder,Right Motor Output,Right Motor Encoder,Is Level,Is Stalled,Ball Detector Photoeye,Vision Enabled,Vision Teleop Control,Vision Auto Control,Vision Current State,Vision X Output,Vision NavX Error,Vision NavX Target,NavX Connection Status,NavX Displacement X,NavX Displacement Y,NavX Displacement Z,NavX Velocity X,NavX Velocity Y,NavX Velocity Z,NavX Acceleration X,NavX Acceleration Y,NavX Acceleration Z,NavX Pitch,NavX Yaw,NavX Roll,Gyro Angle,Roller Arm State,Roller Arm Actual,Roller Arm Desired,Shooter Arm State,Shooter Arm Actual,Shooter Arm Desired,Shooter State,Actual RPM Left,Desired RPM Left,Control Mode Left,Actual RPM Right,Desired RPM Right,Control Mode Right,Ball Shooter Cylinder,Ball Halo Cylinder,Scaler Motor Output,Scaler Solenoid Fire,Auto To Run,Auto Current File,Auto File Status,Auto Current Command,Auto Trimmed Command
08:20:52.472 AM 03/25/2016,Teleop Enabled,10,TRUE,-44003,<LOCATION>WPI_CameraIssue HTTP Request with Authentication.vi<CALLSTACK>WPI_CameraIssue HTTP Request with Authentication.vi< <WPI_CameraIssue Get.vi< <WPI_CameraSet Image Appearance Property.vi< <WPI_CameraSet Image Size.vi< <Vision Processing.vi< <Robot Main.vi,-0.000000,0.057750,0.000000,-0.282333,TRUE,FALSE,FALSE,FALSE,FALSE,FALSE,Disabled,0.000000,0.000000,0.000000,TRUE,0.513336,-4.521591,0.000000,0.000000,0.000000,0.000000,-0.002000,-0.006000,0.007000,0.000000,-0.070000,1.460000,-0.001002,ResetBack,1.741211,-0.000049,ResetBack,-201.000000,-0.250000,Empty,0.000000,0.000000,Speed,0.000000,0.000000,Speed,Off,On,0.000000,FALSE,0,,,,
08:20:52.573 AM 03/25/2016,Teleop Enabled,10,FALSE,0,NO ERROR,-0.000000,0.057750,0.000000,-0.282333,TRUE,FALSE,FALSE,FALSE,FALSE,FALSE,Disabled,0.000000,0.000000,0.000000,TRUE,0.513336,-4.521591,0.000000,0.000000,0.000000,0.000000,-0.003000,0.001000,0.000000,0.000000,-0.080000,1.450000,-0.019540,ResetBack,0.735352,-0.000049,ResetBack,-201.000000,-0.250000,Suck,0.000000,2400.000000,Speed,0.000000,2400.000000,Speed,Off,On,0.000000,FALSE,0,,,,
08:20:52.674 AM 03/25/2016,Teleop Enabled,12,FALSE,0,NO ERROR,-0.000000,0.057750,0.000000,-0.282333,TRUE,FALSE,FALSE,FALSE,FALSE,FALSE,Disabled,0.000000,0.000000,0.000000,TRUE,0.513016,-4.521515,0.000000,-0.016144,-0.003433,0.000000,0.090000,-0.147000,-0.045000,0.000000,-0.090000,1.550000,-0.029210,ResetBack,0.430664,-0.000049,ResetBack,-199.000000,-0.250000,Suck,-97.500000,2400.000000,Speed,-60.000000,2400.000000,Speed,Off,On,0.000000,FALSE,0,,,,
08:20:52.774 AM 03/25/2016,Teleop Enabled,10,FALSE,0,NO ERROR,-0.000000,0.057750,0.000000,-0.282333,TRUE,FALSE,FALSE,FALSE,FALSE,FALSE,Disabled,0.000000,0.000000,0.000000,TRUE,0.512787,-4.522766,0.000000,-0.003189,-0.018082,0.000000,-0.097000,0.059000,0.029000,0.000000,-0.100000,1.560000,-0.029282,Reset,0.430176,0.000000,ResetBack,-199.000000,-0.250000,Suck,-585.000000,2400.000000,Speed,-660.000000,2400.000000,Speed,Off,On,0.000000,FALSE,0,,,,
08:20:52.874 AM 03/25/2016,Teleop Enabled,9,FALSE,0,NO ERROR,-0.000000,0.057750,0.000000,-0.282333,TRUE,FALSE,FALSE,FALSE,FALSE,FALSE,Disabled,0.000000,0.000000,0.000000,TRUE,0.512497,-4.524094,0.000000,-0.005875,-0.029297,0.000000,-0.018000,0.104000,-0.019000,0.000000,-0.130000,1.550000,-0.023798,Hold,0.016846,0.000000,ResetBack,-199.000000,-0.250000,Suck,-1237.500000,2400.000000,Speed,-1335.000000,2400.000000,Speed,Off,On,0.000000,FALSE,0,,,,
08:20:52.974 AM 03/25/2016,Teleop Enabled,8,FALSE,0,NO ERROR,-0.000000,0.057750,0.000000,-0.282333,TRUE,FALSE,FALSE,FALSE,FALSE,FALSE,Disabled,0.000000,0.000000,0.000000,TRUE,0.511536,-4.524734,0.000000,-0.025085,-0.004959,0.000000,-0.017000,-0.016000,-0.080000,0.000000,-0.190000,1.530000,-0.025120,Hold,0.017090,0.000000,ResetBack,-199.000000,-0.250000,Suck,-1777.500000,2400.000000,Speed,-1800.000000,2400.000000,Speed,Off,On,0.000000,FALSE,0,,,,
08:20:53.075 AM 03/25/2016,Teleop Enabled,10,FALSE,0,NO ERROR,-0.000000,0.057750,0.000000,-0.282333,TRUE,FALSE,FALSE,FALSE,FALSE,FALSE,Disabled,0.000000,0.000000,0.000000,TRUE,0.508865,-4.525009,0.000000,-0.084335,0.004181,0.000000,-0.125000,0.068000,-0.050000,0.000000,-0.180000,1.410000,-0.030907,Hold,0.017090,0.000000,ResetBack,-199.000000,-0.250000,Suck,-2220.000000,2400.000000,Speed,-2355.000000,2400.000000,Speed,Off,On,0.000000,FALSE,0,,,,
08:20:53.176 AM 03/25/2016,Teleop Enabled,9,FALSE,0,NO ERROR,-0.000000,0.057750,0.000000,-0.282333,TRUE,FALSE,FALSE,FALSE,FALSE,FALSE,Disabled,0.000000,0.000000,0.000000,TRUE,0.503479,-4.525604,0.000000,-0.110519,-0.044693,0.000000,-0.086000,0.100000,-0.106000,0.000000,-0.220000,1.320000,-0.017626,Hold,0.017334,0.000000,ResetBack,-199.000000,-0.250000,Suck,-2475.000000,2400.000000,Speed,-2520.000000,2400.000000,Speed,Off,On,0.000000,FALSE,0,,,,
08:20:53.275 AM 03/25/2016,Teleop Enabled,9,FALSE,0,NO ERROR,-0.000000,0.057750,0.000000,-0.282333,TRUE,FALSE,FALSE,FALSE,FALSE,FALSE,Disabled,0.000000,0.000000,0.000000,TRUE,0.501450,-4.527222,0.000000,0.042053,-0.073822,0.000000,-0.027000,-0.097000,0.148000,0.000000,-0.230000,1.350000,-0.016135,Hold,0.017334,50.000000,ResetBack,-199.000000,-0.250000,Suck,-2460.000000,2400.000000,Speed,-2467.500000,2400.000000,Speed,Off,On,0.000000,FALSE,0,,,,
08:20:53.376 AM 03/25/2016,Teleop Enabled,11,FALSE,0,NO ERROR,-0.000000,0.057750,0.000000,-0.282333,TRUE,FALSE,FALSE,FALSE,FALSE,FALSE,Disabled,0.000000,0.000000,0.000000,TRUE,0.503220,-4.530136,0.000000,0.007034,-0.002945,0.000000,0.063000,-0.006000,-0.188000,0.000000,-0.200000,1.360000,-0.030305,Hold,3.066406,50.000000,ResetBack,-199.000000,-0.250000,Suck,-2400.000000,2400.000000,Speed,-2400.000000,2400.000000,Speed,Off,On,0.000000,FALSE,0,,,,
08:20:53.475 AM 03/25/2016,Teleop Enabled,9,FALSE,0,NO ERROR,-0.000000,0.057750,0.000000,-0.282333,TRUE,FALSE,FALSE,FALSE,FALSE,FALSE,Disabled,0.000000,0.000000,0.000000,TRUE,0.504822,-4.532837,0.000000,0.044739,-0.106216,0.000000,-0.012000,-0.083000,0.163000,0.000000,-0.220000,1.350000,-0.039772,Hold,4.603760,50.000000,ResetBack,-196.000000,-0.250000,Suck,-2377.500000,2400.000000,Speed,-2392.500000,2400.000000,Speed,Off,On,0.000000,FALSE,0,,,,
08:20:53.575 AM 03/25/2016,Teleop Enabled,11,FALSE,0,NO ERROR,-0.000000,0.057750,0.000000,-0.282333,TRUE,FALSE,FALSE,FALSE,FALSE,FALSE,Disabled,0.000000,0.000000,0.000000,TRUE,0.506393,-4.534760,0.000000,0.011139,0.015305,0.000000,0.039000,-0.040000,-0.179000,0.000000,-0.180000,1.390000,-0.035541,Hold,7.651367,50.000000,ResetBack,-141.000000,-0.250000,Suck,-2385.000000,2400.000000,Speed,-2407.500000,2400.000000,Speed,Off,On,0.000000,FALSE,0,,,,
08:20:53.675 AM 03/25/2016,Teleop Enabled,11,FALSE,0,NO ERROR,-0.000000,0.057750,0.000000,-0.282333,TRUE,FALSE,FALSE,FALSE,FALSE,FALSE,Disabled,0.000000,0.000000,0.000000,TRUE,0.508621,-4.538559,0.000000,0.067215,-0.148666,0.000000,-0.025000,0.253000,0.098000,0.000000,-0.240000,1.360000,-0.021805,Hold,11.315186,50.000000,Reset,-137.000000,2.000000,Suck,-2400.000000,2400.000000,Speed,-2422.500000,2400.000000,Speed,Off,On,0.000000,FALSE,0,,,,
08:20:53.775 AM 03/25/2016,Teleop Enabled,11,FALSE,0,NO ERROR,-0.000000,0.057750,0.000000,-0.282333,TRUE,FALSE,FALSE,FALSE,FALSE,FALSE,Disabled,0.000000,0.000000,0.000000,TRUE,0.510895,-4.541595,0.000000,0.042984,-0.028030,0.000000,0.065000,-0.032000,-0.027000,0.000000,-0.140000,1.350000,-0.027506,Hold,15.563232,50.000000,Hold,-225.000000,139264.000000,Suck,-2400.000000,2400.000000,Speed,-2415.000000,2400.000000,Speed,Off,On,0.000000,FALSE,0,,,,
08:20:53.875 AM 03/25/2016,Teleop Enabled,10,FALSE,0,NO ERROR,-0.000000,0.057750,0.000000,-0.282333,TRUE,FALSE,FALSE,FALSE,FALSE,FALSE,Disabled,0.000000,0.000000,0.000000,TRUE,0.515793,-4.548477,0.000000,0.113342,-0.194092,0.000000,-0.045000,0.240000,-0.165000,0.000000,-0.080000,1.290000,-0.034150,Hold,20.674805,50.000000,Hold,-7747.000000,139264.000000,Suck,-2400.000000,2400.000000,Speed,-2415.000000,2400.000000,Speed,Off,On,0.000000,FALSE,0,,,,
08:20:53.975 AM 03/25/2016,Teleop Enabled,11,FALSE,0,NO ERROR,-0.000000,0.057750,0.000000,-0.282333,TRUE,FALSE,FALSE,FALSE,FALSE,FALSE,Disabled,0.000000,0.000000,0.000000,TRUE,0.518478,-4.551895,0.000000,0.019470,-0.003067,0.000000,-0.024000,-0.044000,-0.053000,0.000000,-0.120000,1.380000,-0.047597,Hold,26.862061,50.000000,Hold,-7747.000000,139264.000000,Suck,-2400.000000,2400.000000,Speed,-2407.500000,2400.000000,Speed,Off,On,0.000000,FALSE,0,,,,
08:20:54.075 AM 03/25/2016,Teleop Enabled,11,FALSE,0,NO ERROR,-0.000000,0.057750,0.000000,-0.282333,TRUE,FALSE,FALSE,FALSE,FALSE,FALSE,Disabled,0.000000,0.000000,0.000000,TRUE,0.520767,-4.557007,0.000000,0.086685,-0.148193,0.000000,0.137000,0.049000,0.193000,0.000000,-0.100000,1.260000,-0.051549,Hold,32.368164,50.000000,Hold,-20380.000000,139264.000000,Suck,-2400.000000,2400.000000,Speed,-2407.500000,2400.000000,Speed,Off,On,0.000000,FALSE,0,,,,
08:20:54.177 AM 03/25/2016,Teleop Enabled,10,FALSE,0,NO ERROR,-0.000000,0.057750,0.000000,-0.282333,TRUE,FALSE,FALSE,FALSE,FALSE,FALSE,Disabled,0.000000,0.000000,0.000000,TRUE,0.525146,-4.560593,0.000000,0.089218,-0.008408,0.000000,0.029000,0.025000,-0.029000,-0.040000,-0.020000,1.360000,-0.107332,Hold,40.607178,50.000000,Hold,-33119.000000,139264.000000,Suck,-2400.000000,2400.000000,Speed,-2392.500000,2400.000000,Speed,Off,On,0.000000,FALSE,0,,,,
08:20:54.276 AM 03/25/2016,Teleop Enabled,10,FALSE,0,NO ERROR,-0.000000,0.057750,0.000000,-0.269499,TRUE,FALSE,FALSE,FALSE,FALSE,FALSE,Disabled,0.000000,0.000000,0.000000,TRUE,0.530472,-4.564087,0.000000,0.152893,-0.130707,0.000000,0.026000,0.090000,0.109000,-0.010000,-0.030000,1.360000,-0.083541,Hold,50.142090,50.000000,Hold,-45890.000000,139264.000000,Suck,-2400.000000,2400.000000,Speed,-2392.500000,2400.000000,Speed,Off,On,0.000000,FALSE,0,,,,
08:20:54.376 AM 03/25/2016,Teleop Enabled,10,FALSE,0,NO ERROR,-0.000000,0.057750,0.000000,-0.256666,TRUE,FALSE,FALSE,FALSE,FALSE,FALSE,Disabled,0.000000,0.000000,0.000000,TRUE,0.537186,-4.567612,0.000000,0.124207,-0.002411,0.000000,0.339000,-0.280000,0.264000,-0.050000,-0.190000,1.540000,-0.110117,Hold,54.656738,50.000000,Hold,-59775.000000,139264.000000,Suck,-2392.500000,2400.000000,Speed,-2392.500000,2400.000000,Speed,Off,On,0.000000,FALSE,0,,,,
08:20:54.476 AM 03/25/2016,Teleop Enabled,11,FALSE,0,NO ERROR,-0.000000,0.057750,0.000000,-0.211750,TRUE,FALSE,FALSE,FALSE,FALSE,FALSE,Disabled,0.000000,0.000000,0.000000,TRUE,0.550476,-4.575989,0.000000,0.204742,-0.184586,0.000000,-0.211000,0.120000,-0.065000,-0.010000,-0.160000,1.440000,-0.066669,Hold,54.979248,50.000000,Hold,-76390.000000,139264.000000,Suck,-2392.500000,2400.000000,Speed,-2392.500000,2400.000000,Speed,Off,On,0.000000,FALSE,0,,,,
08:20:54.576 AM 03/25/2016,Teleop Enabled,11,FALSE,0,NO ERROR,-0.000000,0.057750,0.000000,-0.218166,TRUE,FALSE,FALSE,FALSE,FALSE,FALSE,Disabled,0.000000,0.000000,0.000000,TRUE,0.553696,-4.579773,0.000000,-0.007034,-0.032455,0.000000,-0.044000,-0.183000,-0.069000,0.000000,-0.430000,1.460000,-0.071423,Hold,54.854004,50.000000,Hold,-76390.000000,139264.000000,Suck,-2392.500000,2400.000000,Speed,-2392.500000,2400.000000,Speed,Off,On,0.000000,FALSE,0,,,,
08:20:54.676 AM 03/25/2016,Teleop Enabled,12,FALSE,0,NO ERROR,-0.000000,0.057750,0.000000,-0.218166,TRUE,FALSE,FALSE,FALSE,FALSE,FALSE,Disabled,0.000000,0.000000,0.000000,TRUE,0.556717,-4.587494,0.000000,0.079483,-0.134964,0.000000,0.120000,0.300000,-0.269000,-0.050000,-0.350000,1.410000,-0.115790,Hold,54.854980,50.000000,Hold,-92324.000000,139264.000000,Suck,-2400.000000,2400.000000,Speed,-2392.500000,2400.000000,Speed,Off,On,0.000000,FALSE,0,,,,
08:20:54.776 AM 03/25/2016,Teleop Enabled,11,FALSE,0,NO ERROR,-0.000000,0.057750,0.000000,-0.218166,TRUE,FALSE,FALSE,FALSE,FALSE,FALSE,Disabled,0.000000,0.000000,0.000000,TRUE,0.560486,-4.587555,0.000000,0.060074,-0.007309,0.000000,0.151000,-0.248000,0.051000,0.000000,-0.330000,1.440000,-0.064476,Hold,54.854980,50.000000,Hold,-109372.000000,139264.000000,Suck,-2392.500000,2400.000000,Speed,-2385.000000,2400.000000,Speed,Off,On,0.000000,FALSE,0,,,,
08:20:54.877 AM 03/25/2016,Teleop Enabled,16,FALSE,0,NO ERROR,-0.000000,0.057750,0.000000,-0.218166,TRUE,FALSE,FALSE,FALSE,FALSE,FALSE,Disabled,0.000000,0.000000,0.000000,TRUE,0.566406,-4.594772,0.000000,0.117935,-0.122345,0.000000,-0.077000,0.446000,-0.302000,-0.030000,-0.260000,1.370000,-0.108052,Hold,54.854736,50.000000,Hold,-127056.000000,139264.000000,Suck,-2392.500000,2400.000000,Speed,-2392.500000,2400.000000,Speed,Off,On,0.000000,FALSE,0,,,,
08:20:54.978 AM 03/25/2016,Teleop Enabled,11,FALSE,0,NO ERROR,-0.000000,0.057750,0.000000,-0.218166,TRUE,FALSE,FALSE,FALSE,FALSE,FALSE,Disabled,0.000000,0.000000,0.000000,TRUE,0.572388,-4.594391,0.000000,0.186157,-0.059326,0.000000,0.136000,-0.017000,0.150000,-0.010000,-0.060000,1.530000,-0.094250,Hold,54.854736,50.000000,Hold,-140735.000000,139264.000000,Suck,-2385.000000,2400.000000,Speed,-2392.500000,2400.000000,Speed,Off,On,0.000000,FALSE,0,,,,
08:20:55.077 AM 03/25/2016,Teleop Enabled,11,FALSE,0,NO ERROR,-0.000000,0.057750,0.000000,-0.218166,TRUE,FALSE,FALSE,FALSE,FALSE,FALSE,Disabled,0.000000,0.000000,0.000000,TRUE,0.572388,-4.594391,0.000000,0.186157,-0.059326,0.000000,0.136000,-0.017000,0.150000,-0.010000,-0.060000,1.530000,-0.117901,Hold,54.854736,50.000000,Hold,-139394.000000,139264.000000,Suck,-2385.000000,2400.000000,Speed,-2392.500000,2400.000000,Speed,Off,On,0.000000,FALSE,0,,,,
08:20:55.178 AM 03/25/2016,Teleop Enabled,8,FALSE,0,NO ERROR,-0.000000,0.057750,0.000000,-0.218166,TRUE,FALSE,FALSE,FALSE,FALSE,FALSE,Disabled,0.000000,0.000000,0.000000,TRUE,0.591934,-4.603516,0.000000,0.177856,-0.069183,0.000000,0.046000,-0.114000,0.504000,-0.020000,-0.170000,1.500000,-0.098702,Hold,54.854736,50.000000,Hold,-139394.000000,139264.000000,Suck,-2385.000000,2400.000000,Speed,-2392.500000,2400.000000,Speed,Off,On,0.000000,FALSE,0,,,,
08:20:55.278 AM 03/25/2016,Teleop Enabled,10,FALSE,0,NO ERROR,-0.000000,0.057750,0.000000,-0.218166,TRUE,FALSE,FALSE,FALSE,FALSE,FALSE,Disabled,0.000000,0.000000,0.000000,TRUE,0.603729,-4.611115,0.000000,0.164185,-0.039673,0.000000,0.068000,0.036000,-0.174000,-0.020000,-0.250000,1.420000,-0.100371,Hold,54.854736,50.000000,Hold,-139370.000000,139264.000000,Suck,-2400.000000,2400.000000,Speed,-2400.000000,2400.000000,Speed,Off,On,0.000000,FALSE,0,,,,
08:20:55.379 AM 03/25/2016,Teleop Enabled,11,FALSE,0,NO ERROR,-0.000000,0.057750,0.000000,-0.218166,TRUE,FALSE,FALSE,FALSE,FALSE,FALSE,Disabled,0.000000,0.000000,0.000000,TRUE,0.612656,-4.613861,0.000000,0.177933,-0.104431,0.000000,0.062000,-0.027000,0.530000,-0.020000,-0.250000,1.490000,-0.105057,Hold,54.854736,50.000000,Hold,-139370.000000,139264.000000,Suck,-2400.000000,2400.000000,Speed,-2392.500000,2400.000000,Speed,Off,On,0.000000,FALSE,0,,,,
08:20:55.481 AM 03/25/2016,Teleop Enabled,9,FALSE,0,NO ERROR,-0.000000,0.057750,0.000000,-0.218166,TRUE,FALSE,FALSE,FALSE,FALSE,FALSE,Disabled,0.000000,0.000000,0.000000,TRUE,0.620560,-4.617630,0.000000,0.128189,-0.011139,0.000000,-0.021000,0.122000,-0.486000,-0.010000,-0.220000,1.490000,-0.113777,Hold,54.854736,50.000000,Hold,-139366.000000,139264.000000,Suck,-2400.000000,2400.000000,Speed,-2392.500000,2400.000000,Speed,Off,On,0.000000,FALSE,0,,,,
08:20:55.580 AM 03/25/2016,Teleop Enabled,10,FALSE,0,NO ERROR,-0.000000,0.057750,0.000000,-0.218166,TRUE,FALSE,FALSE,FALSE,FALSE,FALSE,Disabled,0.000000,0.000000,0.000000,TRUE,0.627075,-4.619125,0.000000,0.159439,-0.083221,0.000000,-0.021000,0.122000,-0.486000,-0.020000,-0.190000,1.490000,-0.115842,Hold,54.854736,50.000000,Hold,-139362.000000,139264.000000,Suck,-2400.000000,2400.000000,Speed,-2400.000000,2400.000000,Speed,Off,On,0.000000,FALSE,0,,,,
08:20:55.682 AM 03/25/2016,Teleop Enabled,9,FALSE,0,NO ERROR,-0.000000,0.057750,0.000000,-0.218166,TRUE,FALSE,FALSE,FALSE,FALSE,FALSE,Disabled,0.000000,0.000000,0.000000,TRUE,0.636353,-4.622894,0.000000,0.166183,-0.021744,0.000000,0.078000,-0.052000,0.373000,-0.020000,-0.190000,1.490000,-0.119866,Hold,54.854736,50.000000,Hold,-139360.000000,139264.000000,Suck,-2400.000000,2400.000000,Speed,-2392.500000,2400.000000,Speed,Off,On,0.000000,FALSE,0,,,,
08:20:55.782 AM 03/25/2016,Teleop Enabled,9,FALSE,0,NO ERROR,-0.000000,0.057750,0.000000,-0.218166,TRUE,FALSE,FALSE,FALSE,FALSE,FALSE,Disabled,0.000000,0.000000,0.000000,TRUE,0.644028,-4.624878,0.000000,0.154465,-0.077164,0.000000,0.020000,0.024000,-0.206000,-0.010000,-0.190000,1.440000,-0.116706,Hold,54.854736,50.000000,Hold,-139359.000000,139264.000000,Suck,-2400.000000,2400.000000,Speed,-2392.500000,2400.000000,Speed,Off,On,0.000000,FALSE,0,,,,
08:20:55.881 AM 03/25/2016,Teleop Enabled,11,FALSE,0,NO ERROR,-0.000000,0.057750,0.000000,-0.218166,TRUE,FALSE,FALSE,FALSE,FALSE,FALSE,Disabled,0.000000,0.000000,0.000000,TRUE,0.651321,-4.626953,0.000000,0.123871,0.014099,0.000000,0.032000,-0.038000,0.309000,-0.010000,-0.270000,1.490000,-0.108895,Hold,54.854736,50.000000,Hold,-139358.000000,139264.000000,Suck,-2400.000000,2400.000000,Speed,-2407.500000,2400.000000,Speed,Off,On,0.000000,FALSE,0,,,,
08:20:55.982 AM 03/25/2016,Teleop Enabled,9,FALSE,0,NO ERROR,-0.000000,0.057750,0.000000,-0.218166,TRUE,FALSE,FALSE,FALSE,FALSE,FALSE,Disabled,0.000000,0.000000,0.000000,TRUE,0.658371,-4.628662,0.000000,0.169464,-0.080719,0.000000,0.048000,0.052000,-0.085000,-0.020000,-0.270000,1.450000,-0.123171,Hold,54.854736,50.000000,Hold,-139358.000000,139264.000000,Suck,-2400.000000,2400.000000,Speed,-2407.500000,2400.000000,Speed,Off,On,0.000000,FALSE,0,,,,
08:20:56.083 AM 03/25/2016,Teleop Enabled,10,FALSE,0,NO ERROR,-0.000000,0.057750,0.000000,-0.218166,TRUE,FALSE,FALSE,FALSE,FALSE,FALSE,Disabled,0.000000,0.000000,0.000000,TRUE,0.665451,-4.630447,0.000000,0.108826,0.034790,0.000000,-0.034000,-0.100000,-0.176000,-0.020000,-0.270000,1.450000,-0.114031,Hold,54.854736,50.000000,Hold,-139358.000000,139264.000000,Suck,-2400.000000,2400.000000,Speed,-2407.500000,2400.000000,Speed,Off,On,0.000000,FALSE,0,,,,
08:20:56.185 AM 03/25/2016,Teleop Enabled,9,FALSE,0,NO ERROR,-0.000000,0.057750,0.000000,-0.218166,TRUE,FALSE,FALSE,FALSE,FALSE,FALSE,Disabled,0.000000,0.000000,0.000000,TRUE,0.671738,-4.632278,0.000000,0.124863,-0.069946,0.000000,-0.034000,-0.100000,-0.176000,-0.010000,-0.310000,1.470000,-0.121305,Hold,54.854736,50.000000,Hold,-139357.000000,139264.000000,Suck,-2400.000000,2400.000000,Speed,-2407.500000,2400.000000,Speed,Off,On,0.000000,FALSE,0,,,,
08:20:56.287 AM 03/25/2016,Teleop Enabled,9,FALSE,0,NO ERROR,-0.000000,0.057750,0.000000,-0.218166,TRUE,FALSE,FALSE,FALSE,FALSE,FALSE,Disabled,0.000000,0.000000,0.000000,TRUE,0.676407,-4.631424,0.000000,0.096252,0.058319,0.000000,0.077000,-0.006000,0.153000,-0.020000,-0.290000,1.460000,-0.115718,Hold,54.854736,50.000000,Hold,-139357.000000,139264.000000,Suck,-2400.000000,2400.000000,Speed,-2407.500000,2400.000000,Speed,Off,On,0.000000,FALSE,0,,,,
08:20:56.388 AM 03/25/2016,Teleop Enabled,10,FALSE,0,NO ERROR,-0.000000,0.057750,0.000000,-0.218166,TRUE,FALSE,FALSE,FALSE,FALSE,FALSE,Disabled,0.000000,0.000000,0.000000,TRUE,0.678528,-4.632462,0.000000,0.045212,-0.023651,0.000000,-0.016000,-0.241000,0.000000,-0.010000,-0.080000,1.490000,-0.120875,Hold,54.854736,50.000000,Hold,-139356.000000,139264.000000,Suck,-2400.000000,2400.000000,Speed,-2400.000000,2400.000000,Speed,Off,On,0.000000,FALSE,0,,,,
08:20:56.489 AM 03/25/2016,Teleop Enabled,10,FALSE,0,NO ERROR,-0.000000,0.057750,0.000000,-0.218166,TRUE,FALSE,FALSE,FALSE,FALSE,FALSE,Disabled,0.000000,0.000000,0.000000,TRUE,0.679276,-4.628815,0.000000,0.005005,0.113602,0.000000,0.000000,0.034000,0.114000,-0.010000,-0.080000,1.490000,-0.131279,Hold,54.437744,50.000000,Hold,-139355.000000,139264.000000,Suck,-2392.500000,2400.000000,Speed,-2400.000000,2400.000000,Speed,Off,On,0.000000,FALSE,0,,,,
08:20:56.590 AM 03/25/2016,Teleop Enabled,10,FALSE,0,NO ERROR,-0.000000,0.057750,0.000000,-0.218166,TRUE,FALSE,FALSE,FALSE,FALSE,FALSE,Disabled,0.000000,0.000000,0.000000,TRUE,0.679443,-4.627182,0.000000,0.019272,0.028656,0.000000,-0.152000,-0.265000,0.144000,-0.040000,-0.070000,1.470000,-0.063983,Hold,53.204590,50.000000,Hold,-139355.000000,139264.000000,Suck,-2400.000000,2400.000000,Speed,-2400.000000,2400.000000,Speed,Off,On,0.000000,FALSE,0,,,,
08:20:56.692 AM 03/25/2016,Teleop Enabled,10,FALSE,0,NO ERROR,-0.000000,0.057750,0.000000,-0.218166,TRUE,FALSE,TRUE,FALSE,FALSE,FALSE,Disabled,0.000000,0.000000,0.000000,TRUE,0.681900,-4.626526,0.000000,0.063934,0.009918,0.000000,-0.200000,0.037000,0.348000,0.030000,-0.030000,1.490000,-0.144846,Hold,52.531494,50.000000,Hold,-139355.000000,139264.000000,Suck,-1965.000000,2400.000000,Speed,-1852.500000,2400.000000,Speed,Off,Off,0.000000,FALSE,0,,,,
08:20:56.792 AM 03/25/2016,Teleop Enabled,10,FALSE,0,NO ERROR,-0.000000,0.057750,0.000000,-0.218166,TRUE,FALSE,TRUE,FALSE,FALSE,FALSE,Disabled,0.000000,0.000000,0.000000,TRUE,0.683151,-4.626572,0.000000,0.001831,-0.024521,0.000000,-0.081000,-0.031000,-0.099000,-0.040000,-0.110000,1.480000,-0.107184,Hold,53.942871,50.000000,Hold,-139355.000000,139264.000000,Suck,-735.000000,2400.000000,Speed,-330.000000,2400.000000,Speed,Off,Off,0.000000,FALSE,0,,,,
08:20:56.893 AM 03/25/2016,Teleop Enabled,10,FALSE,0,NO ERROR,-0.000000,0.057750,0.000000,-0.218166,TRUE,FALSE,TRUE,FALSE,FALSE,FALSE,Disabled,0.000000,0.000000,0.000000,TRUE,0.682617,-4.627213,0.000000,-0.023911,-0.004044,0.000000,-0.071000,0.060000,-0.039000,0.000000,-0.040000,1.390000,-0.120156,Hold,53.956543,50.000000,Hold,-139355.000000,139264.000000,Suck,-1117.500000,2400.000000,Speed,-937.500000,2400.000000,Speed,Off,Off,0.000000,FALSE,0,,,,
08:20:56.993 AM 03/25/2016,Teleop Enabled,11,FALSE,0,NO ERROR,-0.000000,0.057750,0.000000,-0.218166,TRUE,FALSE,TRUE,FALSE,FALSE,FALSE,Disabled,0.000000,0.000000,0.000000,TRUE,0.682617,-4.627213,0.000000,-0.023911,-0.004044,0.000000,0.018000,0.077000,-0.014000,0.000000,-0.090000,1.420000,-0.129192,Hold,53.956787,50.000000,Hold,-139355.000000,139264.000000,Suck,-1680.000000,2400.000000,Speed,-1575.000000,2400.000000,Speed,Off,Off,0.000000,FALSE,0,,,,
08:20:57.093 AM 03/25/2016,Teleop Enabled,10,FALSE,0,NO ERROR,-0.000000,0.057750,0.000000,-0.218166,TRUE,FALSE,TRUE,FALSE,FALSE,FALSE,Disabled,0.000000,0.000000,0.000000,TRUE,0.682480,-4.625687,0.000000,0.006973,0.030167,0.000000,-0.080000,-0.169000,0.160000,-0.020000,0.020000,1.460000,-0.146625,Hold,53.956787,50.000000,Hold,-139355.000000,139264.000000,Suck,-2152.500000,2400.000000,Speed,-2107.500000,2400.000000,Speed,Off,Off,0.000000,FALSE,0,,,,
08:20:57.194 AM 03/25/2016,Teleop Enabled,11,FALSE,0,NO ERROR,-0.000000,0.057750,0.000000,-0.218166,TRUE,FALSE,TRUE,FALSE,FALSE,FALSE,Disabled,0.000000,0.000000,0.000000,TRUE,0.681259,-4.625595,0.000000,-0.035522,0.031891,0.000000,-0.009000,-0.017000,-0.167000,0.000000,-0.110000,1.460000,-0.146563,Hold,53.956787,50.000000,Hold,-139355.000000,139264.000000,Suck,-2452.500000,2400.000000,Speed,-2475.000000,2400.000000,Speed,Off,Off,0.000000,FALSE,0,,,,
08:20:57.297 AM 03/25/2016,Teleop Enabled,9,FALSE,0,NO ERROR,-0.000000,0.057750,0.000000,-0.218166,TRUE,FALSE,TRUE,FALSE,FALSE,FALSE,Disabled,0.000000,0.000000,0.000000,TRUE,0.680878,-4.625015,0.000000,-0.013458,0.013351,0.000000,0.077000,0.048000,-0.079000,0.000000,-0.170000,1.460000,-0.152481,Hold,53.956787,50.000000,Hold,-139355.000000,139264.000000,Suck,-2467.500000,2400.000000,Speed,-2482.500000,2400.000000,Speed,Off,Off,0.000000,FALSE,0,,,,
08:20:57.399 AM 03/25/2016,Teleop Enabled,10,FALSE,0,NO ERROR,-0.000000,0.057750,0.000000,-0.218166,TRUE,FALSE,TRUE,FALSE,FALSE,FALSE,Disabled,0.000000,0.000000,0.000000,TRUE,0.681686,-4.623367,0.000000,0.026810,0.016037,0.000000,0.143000,0.005000,0.200000,-0.010000,-0.090000,1.460000,-0.160076,Hold,53.956787,50.000000,Hold,-139355.000000,139264.000000,Suck,-2407.500000,2400.000000,Speed,-2407.500000,2400.000000,Speed,Off,Off,0.000000,FALSE,0,,,,
08:20:57.500 AM 03/25/2016,Teleop Enabled,10,FALSE,0,NO ERROR,-0.000000,0.057750,0.000000,-0.218166,TRUE,FALSE,TRUE,FALSE,FALSE,FALSE,Disabled,0.000000,0.000000,0.000000,TRUE,0.683090,-4.622559,0.000000,-0.005295,0.026672,0.000000,-0.035000,0.083000,-0.113000,-0.010000,-0.050000,1.470000,-0.180597,Hold,53.956787,50.000000,Hold,-139355.000000,139264.000000,Suck,-2385.000000,2400.000000,Speed,-2385.000000,2400.000000,Speed,Off,Off,0.000000,FALSE,0,,,,
08:20:57.601 AM 03/25/2016,Teleop Enabled,10,FALSE,0,NO ERROR,-0.000000,0.057750,0.000000,-0.218166,TRUE,FALSE,TRUE,FALSE,FALSE,FALSE,Disabled,0.000000,0.000000,0.000000,TRUE,0.683975,-4.620132,0.000000,0.042221,0.043228,0.000000,0.050000,0.017000,0.078000,-0.020000,0.000000,1.490000,-0.174985,Hold,53.956787,50.000000,Hold,-139355.000000,139264.000000,Suck,-2400.000000,2400.000000,Speed,-2392.500000,2400.000000,Speed,Off,Off,0.000000,FALSE,0,,,,
08:20:57.701 AM 03/25/2016,Teleop Enabled,9,FALSE,0,NO ERROR,-0.000000,0.057750,0.000000,-0.218166,TRUE,FALSE,TRUE,FALSE,FALSE,FALSE,Disabled,0.000000,0.000000,0.000000,TRUE,0.686859,-4.618286,0.000000,0.058640,0.048096,0.000000,-0.019000,0.113000,0.018000,-0.010000,-0.060000,1.450000,-0.175732,Hold,53.956787,50.000000,Hold,-139355.000000,139264.000000,Suck,-2407.500000,2400.000000,Speed,-2400.000000,2400.000000,Speed,Off,Off,0.000000,FALSE,0,,,,
08:20:57.801 AM 03/25/2016,Teleop Enabled,10,FALSE,0,NO ERROR,-0.000000,0.057750,0.000000,-0.218166,TRUE,FALSE,TRUE,FALSE,FALSE,FALSE,Disabled,0.000000,0.000000,0.000000,TRUE,0.689529,-4.614944,0.000000,0.051407,0.057022,0.000000,0.099000,-0.089000,0.123000,-0.010000,-0.050000,1.480000,-0.166620,Hold,53.956787,50.000000,Hold,-139355.000000,139264.000000,Suck,-2407.500000,2400.000000,Speed,-2415.000000,2400.000000,Speed,Off,Off,0.000000,FALSE,0,,,,
08:20:57.902 AM 03/25/2016,Teleop Enabled,10,FALSE,0,NO ERROR,-0.000000,0.057750,0.000000,-0.218166,TRUE,FALSE,TRUE,FALSE,FALSE,FALSE,Disabled,0.000000,0.000000,0.000000,TRUE,0.692154,-4.612534,0.000000,0.049545,0.065018,0.000000,-0.007000,0.086000,-0.084000,-0.010000,-0.090000,1.450000,-0.162255,Hold,53.956787,50.000000,Hold,-139355.000000,139264.000000,Hold,-2400.000000,0.000000,Speed,-2407.500000,0.000000,Speed,Off,Off,0.000000,FALSE,0,,,,
08:20:58.003 AM 03/25/2016,Teleop Enabled,10,FALSE,0,NO ERROR,-0.000000,0.057750,0.000000,-0.218166,TRUE,FALSE,TRUE,FALSE,FALSE,FALSE,Disabled,0.000000,0.000000,0.000000,TRUE,0.695587,-4.608994,0.000000,0.082169,0.056320,0.000000,-0.025000,-0.023000,0.207000,-0.020000,-0.020000,1.500000,-0.150192,Hold,53.956787,50.000000,Hold,-139355.000000,139264.000000,Hold,-2370.000000,0.000000,Speed,-2385.000000,0.000000,Speed,Off,Off,0.000000,FALSE,0,,,,
08:20:58.107 AM 03/25/2016,Teleop Enabled,11,FALSE,0,NO ERROR,-0.000000,0.057750,0.000000,-0.218166,TRUE,FALSE,TRUE,FALSE,FALSE,FALSE,Disabled,0.000000,0.000000,0.000000,TRUE,0.700256,-4.606689,0.000000,0.098251,0.049622,0.000000,0.080000,0.110000,-0.019000,-0.010000,-0.010000,1.500000,-0.162172,Hold,53.956787,50.000000,Hold,-139355.000000,139264.000000,Hold,-2295.000000,0.000000,Speed,-2272.500000,0.000000,Speed,Off,Off,0.000000,FALSE,0,,,,
08:20:58.209 AM 03/25/2016,Teleop Enabled,9,FALSE,0,NO ERROR,-0.000000,0.057750,0.000000,-0.218166,TRUE,FALSE,TRUE,FALSE,FALSE,FALSE,Disabled,0.000000,0.000000,0.000000,TRUE,0.705673,-4.601959,0.000000,0.111816,0.124405,0.000000,0.067000,0.059000,-0.052000,-0.020000,-0.030000,1.480000,-0.170999,Hold,53.956787,50.000000,Hold,-139355.000000,139264.000000,Hold,-2160.000000,0.000000,Speed,-2122.500000,0.000000,Speed,Off,Off,0.000000,FALSE,0,,,,
08:20:58.311 AM 03/25/2016,Teleop Enabled,11,FALSE,0,NO ERROR,-0.000000,0.057750,0.000000,-0.218166,TRUE,FALSE,TRUE,FALSE,FALSE,FALSE,Disabled,0.000000,0.000000,0.000000,TRUE,0.711609,-4.595184,0.000000,0.000000,0.137589,0.000000,0.016000,-0.031000,0.026000,-0.020000,0.080000,1.540000,-0.169598,Hold,53.956787,50.000000,Hold,-139355.000000,139264.000000,Hold,-2032.500000,0.000000,Speed,-2017.500000,0.000000,Speed,Off,Off,0.000000,FALSE,0,,,,
08:20:58.411 AM 03/25/2016,Teleop Enabled,11,FALSE,0,NO ERROR,-0.000000,0.057750,0.000000,-0.218166,TRUE,FALSE,TRUE,FALSE,FALSE,FALSE,Disabled,0.000000,0.000000,0.000000,TRUE,0.711395,-4.588608,0.000000,-0.010651,0.134918,0.000000,-0.033000,-0.023000,-0.053000,-0.020000,0.180000,1.530000,-0.166819,Hold,53.956787,50.000000,Hold,-139355.000000,139264.000000,Hold,-1897.500000,0.000000,Speed,-1882.500000,0.000000,Speed,Off,Off,0.000000,FALSE,0,,,,
08:20:58.512 AM 03/25/2016,Teleop Enabled,10,FALSE,0,NO ERROR,-0.000000,0.057750,0.000000,-0.218166,TRUE,FALSE,TRUE,FALSE,FALSE,FALSE,Disabled,0.000000,0.000000,0.000000,TRUE,0.709320,-4.583359,0.000000,-0.047684,-0.008530,0.000000,0.062000,-0.070000,0.009000,-0.020000,0.190000,1.520000,-0.166819,Hold,53.956787,50.000000,Hold,-139355.000000,139264.000000,Hold,-1777.500000,0.000000,Speed,-1755.000000,0.000000,Speed,Off,Off,0.000000,FALSE,0,,,,
08:20:58.611 AM 03/25/2016,Teleop Enabled,10,FALSE,0,NO ERROR,-0.000000,0.057750,0.000000,-0.218166,TRUE,FALSE,TRUE,FALSE,FALSE,FALSE,Disabled,0.000000,0.000000,0.000000,TRUE,0.707367,-4.583984,0.000000,0.000000,-0.019073,0.000000,0.013000,-0.034000,-0.085000,-0.020000,0.050000,1.480000,-0.166554,Hold,53.956787,50.000000,Hold,-139355.000000,139264.000000,Hold,-1680.000000,0.000000,Speed,-1620.000000,0.000000,Speed,Off,Off,0.000000,FALSE,0,,,,
08:20:58.711 AM 03/25/2016,Teleop Enabled,10,FALSE,0,NO ERROR,-0.000000,0.057750,0.000000,-0.218166,TRUE,FALSE,TRUE,FALSE,FALSE,FALSE,Disabled,0.000000,0.000000,0.000000,TRUE,0.707321,-4.584183,0.000000,-0.001419,0.013306,0.000000,0.067000,-0.033000,-0.062000,-0.010000,0.050000,1.510000,-0.164871,Hold,53.956787,50.000000,Hold,-139355.000000,139264.000000,Hold,-1560.000000,0.000000,Speed,-1492.500000,0.000000,Speed,Off,Off,0.000000,FALSE,0,,,,
08:20:58.811 AM 03/25/2016,Teleop Enabled,11,FALSE,0,NO ERROR,-0.000000,0.057750,0.000000,-0.218166,TRUE,FALSE,TRUE,FALSE,FALSE,FALSE,Disabled,0.000000,0.000000,0.000000,TRUE,0.708023,-4.583618,0.000000,0.022079,0.021103,0.000000,-0.043000,-0.047000,0.042000,-0.020000,0.130000,1.500000,-0.172183,Hold,53.956787,50.000000,Hold,-139355.000000,139264.000000,Hold,-1447.500000,0.000000,Speed,-1387.500000,0.000000,Speed,Off,Off,0.000000,FALSE,0,,,,
08:20:58.911 AM 03/25/2016,Teleop Enabled,10,FALSE,0,NO ERROR,-0.000000,0.057750,0.000000,-0.218166,TRUE,FALSE,TRUE,FALSE,FALSE,FALSE,Disabled,0.000000,0.000000,0.000000,TRUE,0.708801,-4.583466,0.000000,0.012375,-0.007904,0.000000,0.050000,-0.026000,0.068000,-0.020000,0.090000,1.490000,-0.169828,Hold,53.956787,50.000000,Hold,-139355.000000,139264.000000,Hold,-1342.500000,0.000000,Speed,-1275.000000,0.000000,Speed,Off,Off,0.000000,FALSE,0,,,,
08:20:59.011 AM 03/25/2016,Teleop Enabled,11,FALSE,0,NO ERROR,-0.000000,0.057750,0.000000,-0.218166,TRUE,FALSE,TRUE,FALSE,FALSE,FALSE,Disabled,0.000000,0.000000,0.000000,TRUE,0.708801,-4.584045,0.000000,-0.019806,-0.012726,0.000000,0.013000,0.043000,-0.017000,-0.020000,-0.010000,1.500000,-0.164596,Hold,53.956787,50.000000,Hold,-139355.000000,139264.000000,Hold,-1237.500000,0.000000,Speed,-1170.000000,0.000000,Speed,Off,Off,0.000000,FALSE,0,,,,
08:20:59.111 AM 03/25/2016,Teleop Enabled,10,FALSE,0,NO ERROR,-0.000000,0.057750,0.000000,-0.218166,TRUE,FALSE,TRUE,FALSE,FALSE,FALSE,Disabled,0.000000,0.000000,0.000000,TRUE,0.708481,-4.584991,0.000000,0.009720,-0.018250,0.000000,0.043000,-0.033000,-0.007000,-0.020000,0.100000,1.480000,-0.165515,Hold,53.956787,50.000000,Hold,-139355.000000,139264.000000,LowGoal,-1132.500000,-2181.818182,Speed,-1072.500000,-2181.818182,Speed,Off,Off,0.000000,FALSE,0,,,,
08:20:59.211 AM 03/25/2016,Teleop Enabled,10,FALSE,0,NO ERROR,-0.000000,0.057750,0.000000,-0.218166,TRUE,FALSE,TRUE,FALSE,FALSE,FALSE,Disabled,0.000000,0.000000,0.000000,TRUE,0.711090,-4.586960,0.000000,0.096283,-0.050705,0.000000,-0.067000,-0.064000,0.046000,-0.020000,0.260000,1.520000,-0.162482,Hold,53.956787,50.000000,Hold,-139355.000000,139264.000000,LowGoal,-997.500000,-2181.818182,Speed,-900.000000,-2181.818182,Speed,Off,Off,0.000000,FALSE,0,,,,
08:20:59.311 AM 03/25/2016,Teleop Enabled,10,FALSE,0,NO ERROR,-0.000000,0.057750,0.000000,-0.218166,TRUE,FALSE,TRUE,FALSE,FALSE,FALSE,Disabled,0.000000,0.000000,0.000000,TRUE,0.716415,-4.588852,0.000000,0.094604,-0.004074,0.000000,-0.006000,-0.031000,-0.015000,-0.020000,0.150000,1.510000,-0.168403,Hold,53.956787,50.000000,Hold,-139355.000000,139264.000000,LowGoal,-240.000000,-2181.818182,Speed,-97.500000,-2181.818182,Speed,Off,Off,0.000000,FALSE,0,,,,
08:20:59.412 AM 03/25/2016,Teleop Enabled,10,FALSE,0,NO ERROR,-0.000000,0.057750,0.000000,-0.218166,TRUE,FALSE,TRUE,FALSE,FALSE,FALSE,Disabled,0.000000,0.000000,0.000000,TRUE,0.720520,-4.589188,0.000000,0.065292,0.000000,0.000000,-0.087000,0.047000,0.138000,-0.020000,0.050000,1.540000,-0.187351,Hold,53.956787,50.000000,Hold,-139355.000000,139264.000000,LowGoal,585.000000,-2181.818182,Speed,562.500000,-2181.818182,Speed,Off,Off,0.000000,FALSE,0,,,,
08:20:59.511 AM 03/25/2016,Teleop Enabled,11,FALSE,0,NO ERROR,-0.000000,0.057750,0.000000,-0.218166,TRUE,FALSE,TRUE,FALSE,FALSE,FALSE,Disabled,0.000000,0.000000,0.000000,TRUE,0.721832,-4.588715,0.000000,-0.000656,0.002106,0.000000,-0.021000,0.092000,0.192000,-0.030000,0.040000,1.560000,-0.189472,Hold,53.956787,50.000000,Hold,-139355.000000,139264.000000,LowGoal,1207.500000,-2181.818182,Speed,1245.000000,-2181.818182,Speed,Off,Off,0.000000,FALSE,0,,,,
08:20:59.612 AM 03/25/2016,Teleop Enabled,10,FALSE,0,NO ERROR,-0.000000,0.057750,0.000000,-0.218166,TRUE,FALSE,TRUE,FALSE,FALSE,FALSE,Disabled,0.000000,0.000000,0.000000,TRUE,0.721405,-4.587875,0.000000,-0.029892,0.019653,0.000000,-0.074000,-0.014000,0.028000,0.000000,-0.110000,1.590000,-0.190349,Hold,53.956787,50.000000,Hold,-139355.000000,139264.000000,LowGoal,1710.000000,-2181.818182,Speed,1912.500000,-2181.818182,Speed,Off,Off,0.000000,FALSE,0,,,,
08:20:59.712 AM 03/25/2016,Teleop Enabled,10,FALSE,0,NO ERROR,-0.000000,0.057750,0.000000,-0.218166,TRUE,FALSE,TRUE,FALSE,FALSE,FALSE,Disabled,0.000000,0.000000,0.000000,TRUE,0.718307,-4.587418,0.000000,-0.085754,0.010223,0.000000,0.019000,-0.025000,0.064000,-0.010000,-0.110000,1.700000,-0.185740,Hold,53.956787,50.000000,Hold,-139355.000000,139264.000000,LowGoal,2122.500000,-2181.818182,Speed,2220.000000,-2181.818182,Speed,Off,Off,0.000000,FALSE,0,,,,
08:20:59.813 AM 03/25/2016,Teleop Enabled,10,FALSE,0,NO ERROR,-0.000000,0.057750,0.000000,-0.218166,TRUE,FALSE,TRUE,FALSE,FALSE,FALSE,Disabled,0.000000,0.000000,0.000000,TRUE,0.712997,-4.586151,0.000000,-0.124435,0.041229,0.000000,-0.051000,0.012000,-0.155000,-0.010000,-0.180000,1.660000,-0.180356,Hold,53.956787,50.000000,Hold,-139355.000000,139264.000000,LowGoal,2257.500000,-2181.818182,Speed,2280.000000,-2181.818182,Speed,Off,Off,0.000000,FALSE,0,,,,
08:20:59.913 AM 03/25/2016,Teleop Enabled,10,FALSE,0,NO ERROR,-0.000000,0.057750,0.000000,-0.218166,TRUE,FALSE,TRUE,FALSE,FALSE,FALSE,Disabled,0.000000,0.000000,0.000000,TRUE,0.706604,-4.585892,0.000000,-0.124847,0.000000,0.000000,-0.014000,0.002000,-0.117000,-0.010000,-0.130000,1.710000,-0.188996,Hold,53.956787,50.000000,Hold,-139355.000000,139264.000000,LowGoal,2205.000000,-2181.818182,Speed,2190.000000,-2181.818182,Speed,Off,Off,0.000000,FALSE,0,,,,
08:21:00.013 AM 03/25/2016,Teleop Enabled,10,FALSE,0,NO ERROR,-0.000000,0.057750,0.000000,-0.218166,TRUE,FALSE,TRUE,FALSE,FALSE,FALSE,Disabled,0.000000,0.000000,0.000000,TRUE,0.705322,-4.585327,0.000000,0.002167,0.000000,0.000000,-0.033000,0.012000,0.039000,-0.020000,-0.030000,1.730000,-0.168747,Hold,53.956787,50.000000,Hold,-139355.000000,139264.000000,LowGoal,2137.500000,-2181.818182,Speed,2160.000000,-2181.818182,Speed,Off,Off,0.000000,FALSE,0,,,,
08:21:00.113 AM 03/25/2016,Teleop Enabled,10,FALSE,0,NO ERROR,-0.000000,0.057750,0.000000,-0.218166,TRUE,FALSE,TRUE,FALSE,FALSE,FALSE,Disabled,0.000000,0.000000,0.000000,TRUE,0.705078,-4.586777,0.000000,0.000946,-0.053452,0.000000,0.034000,-0.003000,-0.181000,0.000000,-0.340000,1.640000,-0.173395,Hold,53.956787,50.000000,Hold,-139355.000000,139264.000000,LowGoal,2137.500000,-2181.818182,Speed,2182.500000,-2181.818182,Speed,Off,Off,0.000000,FALSE,0,,,,
08:21:00.213 AM 03/25/2016,Teleop Enabled,11,FALSE,0,NO ERROR,-0.000000,0.057750,0.000000,-0.218166,TRUE,FALSE,TRUE,FALSE,FALSE,FALSE,Disabled,0.000000,0.000000,0.000000,TRUE,0.706726,-4.589966,0.000000,0.071564,-0.073227,0.000000,0.143000,0.033000,0.013000,-0.010000,-0.190000,1.570000,-0.173970,Hold,53.956787,50.000000,Hold,-139355.000000,139264.000000,LowGoal,2152.500000,-2181.818182,Speed,2190.000000,-2181.818182,Speed,Off,Off,0.000000,FALSE,0,,,,
08:21:00.313 AM 03/25/2016,Teleop Enabled,11,FALSE,0,NO ERROR,-0.000000,0.057750,0.000000,-0.218166,TRUE,FALSE,TRUE,FALSE,FALSE,FALSE,Disabled,0.000000,0.000000,0.000000,TRUE,0.712357,-4.594009,0.000000,0.146790,-0.087570,0.000000,0.000000,-0.077000,-0.058000,-0.010000,-0.100000,1.540000,-0.165973,Hold,53.956787,50.000000,Hold,-139355.000000,139264.000000,LowGoal,2145.000000,-2181.818182,Speed,2182.500000,-2181.818182,Speed,Off,Off,0.000000,FALSE,0,,,,
08:21:00.413 AM 03/25/2016,Teleop Enabled,11,FALSE,0,NO ERROR,-0.000000,0.057750,0.000000,-0.218166,TRUE,FALSE,TRUE,FALSE,FALSE,FALSE,Disabled,0.000000,0.000000,0.000000,TRUE,0.712616,-4.600433,0.000000,0.009811,-0.165192,0.000000,-0.042000,-0.025000,-0.005000,-0.010000,-0.170000,1.460000,-0.158340,Hold,53.956787,50.000000,Hold,-139355.000000,139264.000000,LowGoal,2130.000000,-2181.818182,Speed,2175.000000,-2181.818182,Speed,Off,Off,0.000000,FALSE,0,,,,
08:21:00.513 AM 03/25/2016,Teleop Enabled,11,FALSE,0,NO ERROR,-0.000000,0.057750,0.000000,-0.218166,TRUE,FALSE,TRUE,FALSE,FALSE,FALSE,Disabled,0.000000,0.000000,0.000000,TRUE,0.713715,-4.610870,0.000000,0.028244,-0.238068,0.000000,0.075000,-0.053000,-0.040000,-0.010000,-0.320000,1.420000,-0.154777,Hold,53.956787,50.000000,Hold,-139355.000000,139264.000000,LowGoal,2130.000000,-2181.818182,Speed,2160.000000,-2181.818182,Speed,Off,Off,0.000000,FALSE,0,,,,
08:21:00.614 AM 03/25/2016,Teleop Enabled,10,FALSE,0,NO ERROR,-0.000000,0.057750,0.000000,-0.218166,TRUE,FALSE,TRUE,FALSE,FALSE,FALSE,Disabled,0.000000,0.000000,0.000000,TRUE,0.715729,-4.624771,0.000000,0.044708,-0.300369,0.000000,0.038000,-0.113000,-0.008000,-0.010000,-0.340000,1.390000,-0.156271,Hold,53.956787,50.000000,Hold,-139354.000000,139264.000000,LowGoal,2137.500000,-2181.818182,Speed,2175.000000,-2181.818182,Speed,Off,Off,0.000000,FALSE,0,,,,
08:21:00.713 AM 03/25/2016,Teleop Enabled,9,FALSE,0,NO ERROR,-0.000000,0.057750,0.000000,-0.218166,TRUE,FALSE,TRUE,FALSE,FALSE,FALSE,Disabled,0.000000,0.000000,0.000000,TRUE,0.717911,-4.641418,0.000000,0.043442,-0.350708,0.000000,0.026000,0.013000,0.027000,0.000000,-0.500000,1.350000,-0.149090,Hold,53.956787,50.000000,Hold,-139354.000000,139264.000000,LowGoal,2137.500000,-2181.818182,Speed,2175.000000,-2181.818182,Speed,Off,Off,0.000000,FALSE,0,,,,
08:21:00.814 AM 03/25/2016,Teleop Enabled,11,FALSE,0,NO ERROR,-0.000000,0.057750,0.000000,-0.218166,TRUE,FALSE,TRUE,FALSE,FALSE,FALSE,Disabled,0.000000,0.000000,0.000000,TRUE,0.720383,-4.658493,0.000000,0.072067,-0.348007,0.000000,0.073000,-0.047000,0.063000,0.000000,-0.520000,1.410000,-0.156199,Hold,53.956787,50.000000,Hold,-139354.000000,139264.000000,LowGoal,2137.500000,-2181.818182,Speed,2160.000000,-2181.818182,Speed,Off,Off,0.000000,FALSE,0,,,,
08:21:00.913 AM 03/25/2016,Teleop Enabled,11,FALSE,0,NO ERROR,-0.000000,0.057750,0.000000,-0.218166,TRUE,FALSE,TRUE,FALSE,FALSE,FALSE,Disabled,0.000000,0.000000,0.000000,TRUE,0.725128,-4.676743,0.000000,0.105789,-0.375153,0.000000,-0.026000,0.019000,-0.010000,-0.020000,-0.480000,1.460000,-0.162630,Hold,53.956787,50.000000,Hold,-139354.000000,139264.000000,LowGoal,2152.500000,-2181.818182,Speed,2152.500000,-2181.818182,Speed,Off,Off,0.000000,FALSE,0,,,,
08:21:01.013 AM 03/25/2016,Teleop Enabled,11,FALSE,0,NO ERROR,-0.000000,0.057750,0.000000,-0.218166,TRUE,FALSE,TRUE,FALSE,FALSE,FALSE,Disabled,0.000000,0.000000,0.000000,TRUE,0.731186,-4.676392,0.000000,0.120880,0.016296,0.000000,-0.039000,0.020000,0.032000,-0.010000,-0.430000,1.440000,-0.169009,Hold,53.956787,50.000000,Hold,-139353.000000,139264.000000,LowGoal,2152.500000,-2181.818182,Speed,2160.000000,-2181.818182,Speed,Off,Off,0.000000,FALSE,0,,,,
08:21:01.113 AM 03/25/2016,Teleop Enabled,12,FALSE,0,NO ERROR,-0.000000,0.057750,0.000000,-0.218166,TRUE,FALSE,TRUE,FALSE,FALSE,FALSE,Disabled,0.000000,0.000000,0.000000,TRUE,0.737579,-4.674774,0.000000,0.127029,0.049164,0.000000,-0.020000,0.078000,0.000000,-0.030000,-0.360000,1.420000,-0.167542,Hold,53.956787,50.000000,Hold,-139353.000000,139264.000000,LowGoal,2152.500000,-2181.818182,Speed,2182.500000,-2181.818182,Speed,Off,Off,0.000000,FALSE,0,,,,
08:21:01.213 AM 03/25/2016,Teleop Enabled,10,FALSE,0,NO ERROR,-0.000000,0.057750,0.000000,-0.218166,TRUE,FALSE,TRUE,FALSE,FALSE,FALSE,Disabled,0.000000,0.000000,0.000000,TRUE,0.743027,-4.670044,0.000000,0.102859,0.121689,0.000000,-0.097000,0.045000,0.016000,-0.020000,-0.120000,1.510000,-0.157745,Hold,53.956787,50.000000,Hold,-139353.000000,139264.000000,LowGoal,2145.000000,-2181.818182,Speed,2167.500000,-2181.818182,Speed,Off,Off,0.000000,FALSE,0,,,,
08:21:01.313 AM 03/25/2016,Teleop Enabled,10,FALSE,0,NO ERROR,-0.000000,0.057750,0.000000,-0.218166,TRUE,FALSE,TRUE,FALSE,FALSE,FALSE,Disabled,0.000000,0.000000,0.000000,TRUE,0.747391,-4.658508,0.000000,0.061157,0.223862,0.000000,-0.042000,-0.014000,-0.111000,-0.020000,-0.120000,1.500000,-0.143544,Hold,53.956787,50.000000,Hold,-139353.000000,139264.000000,LowGoal,2152.500000,-2181.818182,Speed,2167.500000,-2181.818182,Speed,Off,Off,0.000000,FALSE,0,,,,
08:21:01.413 AM 03/25/2016,Teleop Enabled,9,FALSE,0,NO ERROR,-0.000000,0.057750,0.000000,-0.218166,TRUE,FALSE,TRUE,FALSE,FALSE,FALSE,Disabled,0.000000,0.000000,0.000000,TRUE,0.750366,-4.647430,0.000000,0.065765,0.212982,0.000000,0.013000,-0.019000,-0.059000,-0.030000,-0.010000,1.420000,-0.137633,Hold,53.956787,50.000000,Hold,-139352.000000,139264.000000,LowGoal,2152.500000,-2181.818182,Speed,2175.000000,-2181.818182,Speed,Off,Off,0.000000,FALSE,0,,,,
08:21:01.514 AM 03/25/2016,Teleop Enabled,10,FALSE,0,NO ERROR,-0.000000,0.057750,0.000000,-0.218166,TRUE,FALSE,TRUE,FALSE,FALSE,FALSE,Disabled,0.000000,0.000000,0.000000,TRUE,0.753067,-4.647095,0.000000,0.060425,0.021439,0.000000,0.085000,0.059000,0.068000,-0.030000,0.000000,1.450000,-0.153301,Hold,53.956787,50.000000,Hold,-139352.000000,139264.000000,LowGoal,2145.000000,-2181.818182,Speed,2175.000000,-2181.818182,Speed,Off,Off,0.000000,FALSE,0,,,,
08:21:01.614 AM 03/25/2016,Teleop Enabled,10,FALSE,0,NO ERROR,-0.000000,0.057750,0.000000,-0.218166,TRUE,FALSE,TRUE,FALSE,FALSE,FALSE,Disabled,0.000000,0.000000,0.000000,TRUE,0.758469,-4.644775,0.000000,0.135284,0.047882,0.000000,0.083000,-0.028000,0.022000,-0.030000,0.130000,1.490000,-0.165780,Hold,53.956787,50.000000,Hold,-139352.000000,139264.000000,LowGoal,2145.000000,-2181.818182,Speed,2175.000000,-2181.818182,Speed,Off,Off,0.000000,FALSE,0,,,,
08:21:01.713 AM 03/25/2016,Teleop Enabled,10,FALSE,0,NO ERROR,-0.000000,0.057750,0.000000,-0.218166,TRUE,FALSE,TRUE,FALSE,FALSE,FALSE,Disabled,0.000000,0.000000,0.000000,TRUE,0.764496,-4.643341,0.000000,0.112000,0.019302,0.000000,-0.092000,0.004000,0.085000,-0.030000,-0.040000,1.400000,-0.151159,Hold,53.956787,50.000000,Hold,-139352.000000,139264.000000,LowGoal,2152.500000,-2181.818182,Speed,2175.000000,-2181.818182,Speed,Off,Off,0.000000,FALSE,0,,,,
08:21:01.815 AM 03/25/2016,Teleop Enabled,9,FALSE,0,NO ERROR,-0.000000,0.057750,0.000000,-0.218166,TRUE,FALSE,TRUE,FALSE,FALSE,FALSE,Disabled,0.000000,0.000000,0.000000,TRUE,0.768860,-4.643250,0.000000,0.070328,-0.008911,0.000000,0.076000,-0.033000,-0.064000,-0.040000,-0.160000,1.280000,-0.116445,Hold,53.956787,50.000000,Hold,-139352.000000,139264.000000,LowGoal,2152.500000,-2181.818182,Speed,2167.500000,-2181.818182,Speed,Off,Off,0.000000,FALSE,0,,,,
08:21:01.915 AM 03/25/2016,Teleop Enabled,10,FALSE,0,NO ERROR,-0.000000,0.057750,0.000000,-0.218166,TRUE,FALSE,TRUE,FALSE,FALSE,FALSE,Disabled,0.000000,0.000000,0.000000,TRUE,0.772034,-4.644684,0.000000,0.075378,-0.041443,0.000000,0.013000,-0.001000,0.152000,-0.030000,-0.240000,1.240000,-0.133127,Hold,53.956787,50.000000,Hold,-139352.000000,139264.000000,LowGoal,2152.500000,-2181.818182,Speed,2167.500000,-2181.818182,Speed,Off,Off,0.000000,FALSE,0,,,,
08:21:02.015 AM 03/25/2016,Teleop Enabled,10,FALSE,0,NO ERROR,-0.000000,0.057750,0.000000,-0.218166,TRUE,FALSE,TRUE,FALSE,FALSE,FALSE,Disabled,0.000000,0.000000,0.000000,TRUE,0.775787,-4.646515,0.000000,0.048981,-0.002518,0.000000,-0.133000,-0.036000,0.005000,-0.030000,-0.270000,1.290000,-0.134015,Hold,53.956787,50.000000,Hold,-139351.000000,139264.000000,LowGoal,2145.000000,-2181.818182,Speed,2175.000000,-2181.818182,Speed,Off,Off,0.000000,FALSE,0,,,,
08:21:02.119 AM 03/25/2016,Teleop Enabled,11,FALSE,0,NO ERROR,-0.000000,0.057750,0.000000,-0.218166,TRUE,FALSE,TRUE,FALSE,FALSE,FALSE,Disabled,0.000000,0.000000,0.000000,TRUE,0.776077,-4.647110,0.000000,-0.006714,-0.024399,0.000000,-0.101000,-0.052000,-0.056000,-0.030000,-0.480000,1.190000,-0.157693,Hold,53.956787,50.000000,Hold,-139351.000000,139264.000000,LowGoal,2152.500000,-2181.818182,Speed,2175.000000,-2181.818182,Speed,Off,Off,0.000000,FALSE,0,,,,
08:21:02.220 AM 03/25/2016,Teleop Enabled,10,FALSE,0,NO ERROR,-0.000000,0.057750,0.000000,-0.218166,TRUE,FALSE,TRUE,FALSE,FALSE,FALSE,Disabled,0.000000,0.000000,0.000000,TRUE,0.775116,-4.650406,0.000000,-0.005356,-0.065964,0.000000,-0.067000,-0.015000,0.009000,-0.020000,-0.640000,1.150000,-0.163102,Hold,53.956787,50.000000,Hold,-139351.000000,139264.000000,LowGoal,2160.000000,-2181.818182,Speed,2175.000000,-2181.818182,Speed,Off,Off,0.000000,FALSE,0,,,,
08:21:02.321 AM 03/25/2016,Teleop Enabled,10,FALSE,0,NO ERROR,-0.000000,0.057750,0.000000,-0.218166,TRUE,FALSE,TRUE,FALSE,FALSE,FALSE,Disabled,0.000000,0.000000,0.000000,TRUE,0.772095,-4.652878,0.000000,-0.101471,0.000000,0.000000,-0.185000,0.018000,0.046000,-0.030000,-0.700000,1.120000,-0.156623,Hold,53.956787,50.000000,Hold,-139351.000000,139264.000000,LowGoal,2160.000000,-2181.818182,Speed,2167.500000,-2181.818182,Speed,Off,Off,0.000000,FALSE,0,,,,
08:21:02.423 AM 03/25/2016,Teleop Enabled,11,FALSE,0,NO ERROR,-0.000000,0.057750,0.000000,-0.218166,TRUE,FALSE,TRUE,FALSE,FALSE,FALSE,Disabled,0.000000,0.000000,0.000000,TRUE,0.765656,-4.652496,0.000000,-0.123749,0.004395,0.000000,-0.156000,-0.007000,0.142000,-0.030000,-0.610000,1.210000,-0.162117,Hold,53.956787,50.000000,Hold,-139351.000000,139264.000000,LowGoal,2152.500000,-2181.818182,Speed,2175.000000,-2181.818182,Speed,Off,Off,0.000000,FALSE,0,,,,
08:21:02.523 AM 03/25/2016,Teleop Enabled,11,FALSE,0,NO ERROR,-0.000000,0.057750,0.000000,-0.218166,TRUE,FALSE,TRUE,FALSE,FALSE,FALSE,Disabled,0.000000,0.000000,0.000000,TRUE,0.756500,-4.652695,0.000000,-0.219070,0.000000,0.000000,-0.104000,-0.026000,0.149000,-0.030000,-0.740000,1.200000,-0.175994,Hold,53.956787,50.000000,Hold,-139351.000000,139264.000000,LowGoal,2152.500000,-2181.818182,Speed,2175.000000,-2181.818182,Speed,Off,Off,0.000000,FALSE,0,,,,
08:21:02.624 AM 03/25/2016,Teleop Enabled,11,FALSE,0,NO ERROR,-0.000000,0.057750,0.000000,-0.218166,TRUE,FALSE,TRUE,FALSE,FALSE,FALSE,Disabled,0.000000,0.000000,0.000000,TRUE,0.743179,-4.652222,0.000000,-0.300934,0.016617,0.000000,-0.024000,0.054000,0.097000,-0.030000,-0.840000,1.210000,-0.189671,Hold,53.956787,50.000000,Hold,-139351.000000,139264.000000,LowGoal,2152.500000,-2181.818182,Speed,2175.000000,-2181.818182,Speed,Off,Off,0.000000,FALSE,0,,,,
08:21:02.725 AM 03/25/2016,Teleop Enabled,11,FALSE,0,NO ERROR,-0.000000,0.057750,0.000000,-0.218166,TRUE,FALSE,TRUE,FALSE,FALSE,FALSE,Disabled,0.000000,0.000000,0.000000,TRUE,0.725739,-4.650436,0.000000,-0.380508,0.047745,0.000000,-0.113000,0.043000,0.022000,-0.030000,-0.860000,1.300000,-0.193634,Hold,53.956787,50.000000,Hold,-139351.000000,139264.000000,LowGoal,2152.500000,-2181.818182,Speed,2182.500000,-2181.818182,Speed,Off,Off,0.000000,FALSE,0,,,,
08:21:02.827 AM 03/25/2016,Teleop Enabled,10,FALSE,0,NO ERROR,-0.000000,0.057750,0.000000,-0.218166,TRUE,FALSE,TRUE,FALSE,FALSE,FALSE,Disabled,0.000000,0.000000,0.000000,TRUE,0.704742,-4.647278,0.000000,-0.441147,0.070801,0.000000,-0.057000,0.049000,0.023000,-0.040000,-0.710000,1.420000,-0.183075,Hold,53.956787,50.000000,Hold,-139351.000000,139264.000000,LowGoal,2152.500000,-2181.818182,Speed,2182.500000,-2181.818182,Speed,Off,Off,0.000000,FALSE,0,,,,
08:21:02.926 AM 03/25/2016,Teleop Enabled,11,FALSE,0,NO ERROR,-0.000000,0.057750,0.000000,-0.218166,TRUE,FALSE,TRUE,FALSE,FALSE,FALSE,Disabled,0.000000,0.000000,0.000000,TRUE,0.680450,-4.642899,0.000000,-0.529053,0.096725,0.000000,-0.023000,0.031000,0.077000,-0.030000,-0.820000,1.450000,-0.169925,Hold,53.956787,50.000000,Hold,-139351.000000,139264.000000,LowGoal,2152.500000,-2181.818182,Speed,2182.500000,-2181.818182,Speed,Off,Off,0.000000,FALSE,0,,,,
08:21:03.029 AM 03/25/2016,Teleop Enabled,10,FALSE,0,NO ERROR,-0.000000,0.057750,0.000000,-0.218166,TRUE,FALSE,TRUE,FALSE,FALSE,FALSE,Disabled,0.000000,0.000000,0.000000,TRUE,0.645081,-4.635605,0.000000,-0.636414,0.122192,0.000000,-0.023000,0.031000,0.077000,-0.030000,-0.820000,1.450000,-0.181072,Hold,53.956787,50.000000,Hold,-139350.000000,139264.000000,LowGoal,2152.500000,-2181.818182,Speed,2175.000000,-2181.818182,Speed,Off,Off,0.000000,FALSE,0,,,,
08:21:03.130 AM 03/25/2016,Teleop Enabled,10,FALSE,0,NO ERROR,-0.000000,0.057750,0.000000,-0.218166,TRUE,FALSE,TRUE,FALSE,FALSE,FALSE,Disabled,0.000000,0.000000,0.000000,TRUE,0.611313,-4.629700,0.000000,-0.707245,0.106674,0.000000,-0.089000,0.013000,-0.105000,-0.030000,-1.070000,1.440000,-0.186291,Hold,53.956787,50.000000,Hold,-139350.000000,139264.000000,LowGoal,2152.500000,-2181.818182,Speed,2175.000000,-2181.818182,Speed,Off,Off,0.000000,FALSE,0,,,,
08:21:03.230 AM 03/25/2016,Teleop Enabled,10,FALSE,0,NO ERROR,-0.000000,0.057750,0.000000,-0.218166,TRUE,FALSE,TRUE,FALSE,FALSE,FALSE,Disabled,0.000000,0.000000,0.000000,TRUE,0.575119,-4.629776,0.000000,-0.727798,-0.008926,0.000000,0.021000,-0.050000,0.034000,-0.030000,-1.160000,1.490000,-0.211604,Hold,53.956787,50.000000,Hold,-139350.000000,139264.000000,LowGoal,2152.500000,-2181.818182,Speed,2182.500000,-2181.818182,Speed,Off,Off,0.000000,FALSE,0,,,,
08:21:03.331 AM 03/25/2016,Teleop Enabled,11,FALSE,0,NO ERROR,-0.000000,0.057750,0.000000,-0.218166,TRUE,FALSE,TRUE,FALSE,FALSE,FALSE,Disabled,0.000000,0.000000,0.000000,TRUE,0.539963,-4.630630,0.000000,-0.695114,-0.035721,0.000000,-0.085000,-0.070000,-0.016000,-0.040000,-1.060000,1.480000,-0.221184,Hold,53.956787,50.000000,Hold,-139350.000000,139264.000000,LowGoal,2145.000000,-2181.818182,Speed,2182.500000,-2181.818182,Speed,Off,Off,0.000000,FALSE,0,,,,
08:21:03.431 AM 03/25/2016,Teleop Enabled,10,FALSE,0,NO ERROR,-0.000000,0.057750,0.000000,-0.218166,TRUE,FALSE,TRUE,FALSE,FALSE,FALSE,Disabled,0.000000,0.000000,0.000000,TRUE,0.504150,-4.635040,0.000000,-0.730240,-0.111679,0.000000,-0.119000,-0.003000,-0.049000,-0.030000,-1.120000,1.390000,-0.219102,Hold,53.956787,50.000000,Hold,-139350.000000,139264.000000,LowGoal,2152.500000,-2181.818182,Speed,2182.500000,-2181.818182,Speed,Off,Off,0.000000,FALSE,0,,,,
08:21:03.534 AM 03/25/2016,Teleop Enabled,11,FALSE,0,NO ERROR,-0.000000,0.057750,0.000000,-0.218166,TRUE,FALSE,TRUE,FALSE,FALSE,FALSE,Disabled,0.000000,0.000000,0.000000,TRUE,0.465164,-4.639023,0.000000,-0.785080,0.000000,0.000000,-0.119000,-0.003000,-0.049000,-0.030000,-1.120000,1.390000,-0.224496,Hold,53.956787,50.000000,Hold,-139350.000000,139264.000000,LowGoal,2160.000000,-2181.818182,Speed,2182.500000,-2181.818182,Speed,Off,Off,0.000000,FALSE,0,,,,
08:21:03.634 AM 03/25/2016,Teleop Enabled,11,FALSE,0,NO ERROR,-0.000000,0.057750,0.000000,-0.218166,TRUE,FALSE,TRUE,FALSE,FALSE,FALSE,Disabled,0.000000,0.000000,0.000000,TRUE,0.426804,-4.640244,0.000000,-0.752701,-0.053574,0.000000,0.077000,-0.051000,0.155000,-0.030000,-1.110000,1.310000,-0.216255,Hold,53.956787,50.000000,Hold,-139350.000000,139264.000000,LowGoal,2152.500000,-2181.818182,Speed,2182.500000,-2181.818182,Speed,Off,Off,0.000000,FALSE,0,,,,
08:21:03.734 AM 03/25/2016,Teleop Enabled,11,FALSE,0,NO ERROR,-0.000000,0.057750,0.000000,-0.218166,TRUE,FALSE,TRUE,FALSE,FALSE,FALSE,Disabled,0.000000,0.000000,0.000000,TRUE,0.390488,-4.644043,0.000000,-0.701019,-0.083389,0.000000,0.116000,0.024000,0.086000,-0.040000,-0.930000,1.240000,-0.214695,Hold,53.956787,50.000000,Hold,-139350.000000,139264.000000,LowGoal,2145.000000,-2181.818182,Speed,2182.500000,-2181.818182,Speed,Off,Off,0.000000,FALSE,0,,,,
08:21:03.835 AM 03/25/2016,Teleop Enabled,11,FALSE,0,NO ERROR,-0.000000,0.057750,0.000000,-0.218166,TRUE,FALSE,TRUE,FALSE,FALSE,FALSE,Disabled,0.000000,0.000000,0.000000,TRUE,0.355789,-4.647964,0.000000,-0.693954,0.000000,0.000000,0.008000,-0.018000,-0.032000,-0.040000,-0.930000,1.240000,-0.214847,Hold,53.956787,50.000000,Hold,-139350.000000,139264.000000,LowGoal,2152.500000,-2181.818182,Speed,2182.500000,-2181.818182,Speed,Off,Off,0.000000,FALSE,0,,,,
08:21:03.936 AM 03/25/2016,Teleop Enabled,11,FALSE,0,NO ERROR,-0.000000,0.057750,0.000000,-0.218166,TRUE,FALSE,TRUE,FALSE,FALSE,FALSE,Disabled,0.000000,0.000000,0.000000,TRUE,0.321518,-4.648483,0.000000,-0.674042,-0.017288,0.000000,0.008000,-0.018000,-0.032000,-0.040000,-1.030000,1.160000,-0.200811,Hold,53.956787,50.000000,Hold,-139350.000000,139264.000000,LowGoal,2152.500000,-2181.818182,Speed,2175.000000,-2181.818182,Speed,Off,Off,0.000000,FALSE,0,,,,
08:21:04.036 AM 03/25/2016,Teleop Enabled,10,FALSE,0,NO ERROR,-0.000000,0.057750,0.000000,-0.218166,TRUE,FALSE,TRUE,FALSE,FALSE,FALSE,Disabled,0.000000,0.000000,0.000000,TRUE,0.289307,-4.650177,0.000000,-0.616119,-0.048477,0.000000,0.066000,0.013000,0.044000,-0.040000,-0.970000,1.140000,-0.197028,Hold,53.956787,50.000000,Hold,-139350.000000,139264.000000,LowGoal,2152.500000,-2181.818182,Speed,2182.500000,-2181.818182,Speed,Off,Off,0.000000,FALSE,0,,,,
08:21:04.137 AM 03/25/2016,Teleop Enabled,10,FALSE,0,NO ERROR,-0.000000,0.057750,0.000000,-0.218166,TRUE,FALSE,TRUE,FALSE,FALSE,FALSE,Disabled,0.000000,0.000000,0.000000,TRUE,0.255173,-4.655075,0.000000,-0.558060,-0.099960,0.000000,0.088000,-0.039000,-0.022000,-0.050000,-0.710000,1.120000,-0.192122,Hold,53.956787,50.000000,Hold,-139350.000000,139264.000000,LowGoal,2145.000000,-2181.818182,Speed,2182.500000,-2181.818182,Speed,Off,Off,0.000000,FALSE,0,,,,
08:21:04.237 AM 03/25/2016,Teleop Enabled,10,FALSE,0,NO ERROR,-0.000000,0.057750,0.000000,-0.218166,TRUE,FALSE,TRUE,FALSE,FALSE,FALSE,Disabled,0.000000,0.000000,0.000000,TRUE,0.226151,-4.660172,0.000000,-0.605728,-0.095734,0.000000,-0.091000,-0.042000,0.028000,-0.050000,-0.530000,1.150000,-0.205242,Hold,53.956787,50.000000,Hold,-139350.000000,139264.000000,LowGoal,2152.500000,-2181.818182,Speed,2175.000000,-2181.818182,Speed,Off,Off,0.000000,FALSE,0,,,,
08:21:04.337 AM 03/25/2016,Teleop Enabled,11,FALSE,0,NO ERROR,-0.000000,0.057750,0.000000,-0.218166,TRUE,FALSE,TRUE,FALSE,FALSE,FALSE,Disabled,0.000000,0.000000,0.000000,TRUE,0.193573,-4.661942,0.000000,-0.670624,0.009872,0.000000,-0.063000,-0.058000,0.008000,-0.060000,-0.660000,1.060000,-0.207084,Hold,53.956787,50.000000,Hold,-139350.000000,139264.000000,LowGoal,2160.000000,-2181.818182,Speed,2182.500000,-2181.818182,Speed,Off,Off,0.000000,FALSE,0,,,,
08:21:04.437 AM 03/25/2016,Teleop Enabled,10,FALSE,0,NO ERROR,-0.000000,0.057750,0.000000,-0.218166,TRUE,FALSE,TRUE,FALSE,FALSE,FALSE,Disabled,0.000000,0.000000,0.000000,TRUE,0.159729,-4.661774,0.000000,-0.675140,0.000000,0.000000,0.010000,0.051000,-0.038000,-0.060000,-0.780000,0.980000,-0.194577,Hold,53.956787,50.000000,Hold,-139350.000000,139264.000000,LowGoal,2160.000000,-2181.818182,Speed,2182.500000,-2181.818182,Speed,Off,Off,0.000000,FALSE,0,,,,
08:21:04.538 AM 03/25/2016,Teleop Enabled,10,FALSE,0,NO ERROR,-0.000000,0.057750,0.000000,-0.218166,TRUE,FALSE,TRUE,FALSE,FALSE,FALSE,Disabled,0.000000,0.000000,0.000000,TRUE,0.151962,-4.660660,0.000000,-0.052124,0.041946,0.000000,0.003000,0.019000,-0.012000,-0.060000,-0.670000,1.060000,-0.188212,Hold,53.956787,50.000000,Hold,-139350.000000,139264.000000,LowGoal,2145.000000,-2181.818182,Speed,2175.000000,-2181.818182,Speed,Off,Off,0.000000,FALSE,0,,,,
08:21:04.638 AM 03/25/2016,Teleop Enabled,11,FALSE,0,NO ERROR,-0.000000,0.057750,0.000000,-0.218166,TRUE,FALSE,TRUE,FALSE,FALSE,FALSE,Disabled,0.000000,0.000000,0.000000,TRUE,0.149216,-4.656982,0.000000,-0.044083,0.089584,0.000000,-0.041000,0.034000,-0.135000,-0.070000,-0.590000,1.010000,-0.184834,Hold,53.956787,50.000000,Hold,-139350.000000,139264.000000,LowGoal,2152.500000,-2181.818182,Speed,2182.500000,-2181.818182,Speed,Off,Off,0.000000,FALSE,0,,,,
08:21:04.738 AM 03/25/2016,Teleop Enabled,11,FALSE,0,NO ERROR,-0.000000,0.057750,0.000000,-0.218166,TRUE,FALSE,TRUE,FALSE,FALSE,FALSE,Disabled,0.000000,0.000000,0.000000,TRUE,0.147064,-4.652069,0.000000,-0.050171,0.104980,0.000000,0.038000,-0.034000,0.059000,-0.060000,-0.490000,1.040000,-0.184091,Hold,53.956787,50.000000,Hold,-139350.000000,139264.000000,LowGoal,2152.500000,-2181.818182,Speed,2182.500000,-2181.818182,Speed,Off,Off,0.000000,FALSE,0,,,,
08:21:04.838 AM 03/25/2016,Teleop Enabled,10,FALSE,0,NO ERROR,-0.000000,0.057750,0.000000,-0.218166,TRUE,FALSE,TRUE,FALSE,FALSE,FALSE,Disabled,0.000000,0.000000,0.000000,TRUE,0.143463,-4.646591,0.000000,-0.080948,0.118713,0.000000,-0.107000,0.000000,-0.196000,-0.070000,-0.570000,1.020000,-0.181925,Hold,53.956787,50.000000,Hold,-139350.000000,139264.000000,LowGoal,2152.500000,-2181.818182,Speed,2182.500000,-2181.818182,Speed,Off,Off,0.000000,FALSE,0,,,,
08:21:04.938 AM 03/25/2016,Teleop Enabled,10,FALSE,0,NO ERROR,-0.000000,0.057750,0.000000,-0.218166,TRUE,FALSE,TRUE,FALSE,FALSE,FALSE,Disabled,0.000000,0.000000,0.000000,TRUE,0.143463,-4.646591,0.000000,-0.080948,0.118713,0.000000,0.095000,0.058000,-0.097000,-0.070000,-0.470000,1.100000,-0.188769,Hold,53.956787,50.000000,Hold,-139350.000000,139264.000000,LowGoal,2152.500000,-2181.818182,Speed,2182.500000,-2181.818182,Speed,Off,Off,0.000000,FALSE,0,,,,
08:21:05.041 AM 03/25/2016,Teleop Enabled,11,FALSE,0,NO ERROR,-0.000000,0.057750,0.000000,-0.218166,TRUE,FALSE,TRUE,FALSE,FALSE,FALSE,Disabled,0.000000,0.000000,0.000000,TRUE,0.141449,-4.638840,0.000000,-0.010330,0.181656,0.000000,0.142000,-0.001000,0.051000,-0.070000,-0.300000,1.210000,-0.198839,Hold,53.956787,50.000000,HighGoal,-139350.000000,65126.400000,HighGoal,2145.000000,-3272.727273,Speed,2182.500000,-3272.727273,Speed,Off,Off,0.000000,FALSE,0,,,,
08:21:05.143 AM 03/25/2016,Teleop Enabled,10,FALSE,0,NO ERROR,-0.000000,0.057750,0.000000,-0.218166,TRUE,FALSE,TRUE,FALSE,FALSE,FALSE,Disabled,0.000000,0.000000,0.000000,TRUE,0.141876,-4.637573,0.000000,0.012634,-0.036423,0.000000,0.214000,-0.064000,-0.084000,-0.080000,-0.240000,1.290000,-0.198839,Hold,53.956787,50.000000,Hold,-138503.000000,65126.400000,HighGoal,2122.500000,-3272.727273,Speed,2220.000000,-3272.727273,Speed,Off,Off,0.000000,FALSE,0,,,,
08:21:05.243 AM 03/25/2016,Teleop Enabled,10,FALSE,0,NO ERROR,-0.000000,0.057750,0.000000,-0.218166,TRUE,FALSE,TRUE,FALSE,FALSE,FALSE,Disabled,0.000000,0.000000,0.000000,TRUE,0.147171,-4.639389,0.000000,0.111389,-0.044525,0.000000,-0.086000,-0.090000,-0.086000,-0.100000,-0.100000,1.500000,-0.211986,Hold,53.956787,50.000000,HighGoal,-133739.000000,65126.400000,HighGoal,2272.500000,-3272.727273,Speed,2535.000000,-3272.727273,Speed,Off,Off,0.000000,FALSE,0,,,,
08:21:05.344 AM 03/25/2016,Teleop Enabled,10,FALSE,0,NO ERROR,-0.000000,0.057750,0.000000,-0.218166,TRUE,FALSE,TRUE,FALSE,FALSE,FALSE,Disabled,0.000000,0.000000,0.000000,TRUE,0.153473,-4.642593,0.000000,0.121948,-0.080597,0.000000,-0.090000,0.086000,0.042000,-0.090000,-0.030000,1.440000,-0.193572,Hold,53.956787,50.000000,Hold,-129051.000000,65126.400000,HighGoal,2587.500000,-3272.727273,Speed,2827.500000,-3272.727273,Speed,Off,Off,0.000000,FALSE,0,,,,
