Time,Robot Mode,Loop Time,Error Status,Error Code,Error Source,Left Motor Output,Left Motor Encoder,Right Motor Output,Right Motor Encoder,Is Level,Is Stalled,Ball Detector Photoeye,Vision Enabled,Vision Teleop Control,Vision Auto Control,Vision Current State,Vision X Output,Vision NavX Error,Vision NavX Target,NavX Connection Status,NavX Displacement X,NavX Displacement Y,NavX Displacement Z,NavX Velocity X,NavX Velocity Y,NavX Velocity Z,NavX Acceleration X,NavX Acceleration Y,NavX Acceleration Z,NavX Pitch,NavX Yaw,NavX Roll,Gyro Angle,Roller Arm State,Roller Arm Actual,Roller Arm Desired,Shooter Arm State,Shooter Arm Actual,Shooter Arm Desired,Shooter State,Actual RPM Left,Desired RPM Left,Control Mode Left,Actual RPM Right,Desired RPM Right,Control Mode Right,Ball Shooter Cylinder,Ball Halo Cylinder,Scaler Motor Output,Scaler Solenoid Fire,Auto To Run,Auto Current File,Auto File Status,Auto Current Command,Auto Trimmed Command
08:05:06.963 AM 03/25/2016,Teleop Enabled,12,TRUE,-44003,<LOCATION>WPI_CameraIssue HTTP Request with Authentication.vi<CALLSTACK>WPI_CameraIssue HTTP Request with Authentication.vi< <WPI_CameraIssue Get.vi< <WPI_CameraSet Image Appearance Property.vi< <WPI_CameraSet Image Size.vi< <Vision Processing.vi< <Robot Main.vi,-0.000000,-0.070583,0.000000,0.006417,TRUE,FALSE,TRUE,FALSE,FALSE,FALSE,Disabled,0.000000,0.000000,0.000000,TRUE,-0.636765,0.682968,0.000000,0.000000,0.000000,0.000000,0.001000,-0.003000,0.010000,-0.350000,0.230000,1.290000,0.854618,ResetBack,0.370361,-0.000049,ResetBack,-3446.000000,-0.150000,LowGoal,0.000000,-2181.818182,Speed,0.000000,-2181.818182,Speed,Off,Off,0.000000,FALSE,0,,,,
08:05:07.066 AM 03/25/2016,Teleop Enabled,10,FALSE,0,NO ERROR,-0.000000,-0.134750,0.000000,0.006417,TRUE,FALSE,TRUE,FALSE,FALSE,FALSE,Disabled,0.000000,0.000000,0.000000,TRUE,-0.636673,0.682968,0.000000,0.009384,0.000000,0.000000,-0.027000,0.033000,0.029000,-0.350000,0.260000,1.330000,0.925091,ResetBack,0.370361,-0.000049,ResetBack,-3446.000000,-0.150000,LowGoal,247.500000,-2181.818182,Speed,210.000000,-2181.818182,Speed,Off,Off,0.000000,FALSE,0,,,,
08:05:07.165 AM 03/25/2016,Teleop Enabled,10,FALSE,0,NO ERROR,-0.000000,-0.141166,0.000000,0.006417,TRUE,FALSE,TRUE,FALSE,FALSE,FALSE,Disabled,0.000000,0.000000,0.000000,TRUE,-0.636002,0.682892,0.000000,0.009415,-0.010757,0.000000,0.020000,-0.023000,-0.031000,-0.340000,0.280000,1.280000,0.933123,ResetBack,0.062012,-0.000049,ResetBack,-3446.000000,-0.150000,LowGoal,982.500000,-2181.818182,Speed,210.000000,-2181.818182,Speed,Off,Off,0.000000,FALSE,0,,,,
08:05:07.266 AM 03/25/2016,Teleop Enabled,10,FALSE,0,NO ERROR,-0.000000,-0.141166,0.000000,0.006417,TRUE,FALSE,TRUE,FALSE,FALSE,FALSE,Disabled,0.000000,0.000000,0.000000,TRUE,-0.635681,0.682129,0.000000,0.000305,-0.021286,0.000000,0.025000,-0.002000,0.044000,-0.340000,0.270000,1.270000,0.930124,Reset,0.048584,-0.000049,ResetBack,-3368.000000,-0.150000,LowGoal,1590.000000,-2181.818182,Speed,975.000000,-2181.818182,Speed,Off,Off,0.000000,FALSE,0,,,,
08:05:07.367 AM 03/25/2016,Teleop Enabled,10,FALSE,0,NO ERROR,-0.000000,-0.141166,0.000000,0.006417,TRUE,FALSE,TRUE,FALSE,FALSE,FALSE,Disabled,0.000000,0.000000,0.000000,TRUE,-0.635986,0.681244,0.000000,-0.015182,-0.022278,0.000000,0.023000,-0.048000,0.071000,-0.340000,0.230000,1.270000,0.929549,Hold,0.024414,0.000000,ResetBack,-3321.000000,-0.150000,LowGoal,2062.500000,-2181.818182,Speed,1627.500000,-2181.818182,Speed,Off,Off,0.000000,FALSE,0,,,,
08:05:07.468 AM 03/25/2016,Teleop Enabled,10,FALSE,0,NO ERROR,-0.000000,-0.147583,0.000000,0.006417,TRUE,FALSE,TRUE,FALSE,FALSE,FALSE,Disabled,0.000000,0.000000,0.000000,TRUE,-0.636826,0.680496,0.000000,-0.016205,-0.018921,0.000000,-0.012000,-0.007000,0.186000,-0.340000,0.180000,1.330000,0.922427,Hold,0.359619,0.000000,ResetBack,-3114.000000,-0.150000,LowGoal,2235.000000,-2181.818182,Speed,2145.000000,-2181.818182,Speed,Off,Off,0.000000,FALSE,0,,,,
08:05:07.569 AM 03/25/2016,Teleop Enabled,10,FALSE,0,NO ERROR,-0.000000,-0.147583,0.000000,0.006417,TRUE,FALSE,TRUE,FALSE,FALSE,FALSE,Disabled,0.000000,0.000000,0.000000,TRUE,-0.637466,0.680298,0.000000,-0.015335,0.004715,0.000000,0.010000,0.113000,-0.162000,-0.330000,0.200000,1.280000,0.931969,Hold,0.367432,0.000000,ResetBack,-2538.000000,-0.150000,LowGoal,2235.000000,-2181.818182,Speed,2302.500000,-2181.818182,Speed,Off,Off,0.000000,FALSE,0,,,,
08:05:07.670 AM 03/25/2016,Teleop Enabled,10,FALSE,0,NO ERROR,-0.000000,-0.154000,0.000000,0.006417,TRUE,FALSE,TRUE,FALSE,FALSE,FALSE,Disabled,0.000000,0.000000,0.000000,TRUE,-0.637726,0.683273,0.000000,0.018661,0.102081,0.000000,0.158000,0.078000,-0.238000,-0.340000,0.570000,1.330000,0.938397,Hold,0.367432,0.000000,ResetBack,-2538.000000,-0.150000,LowGoal,2182.500000,-2181.818182,Speed,2227.500000,-2181.818182,Speed,Off,Off,0.000000,FALSE,0,,,,
08:05:07.771 AM 03/25/2016,Teleop Enabled,11,FALSE,0,NO ERROR,-0.000000,-0.154000,0.000000,0.006417,TRUE,FALSE,TRUE,FALSE,FALSE,FALSE,Disabled,0.000000,0.000000,0.000000,TRUE,-0.633667,0.688675,0.000000,0.084656,0.064880,0.000000,-0.014000,-0.152000,0.076000,-0.340000,0.470000,1.340000,0.936779,Hold,0.367432,0.000000,ResetBack,-1794.000000,-0.150000,LowGoal,2107.500000,-2181.818182,Speed,2152.500000,-2181.818182,Speed,Off,Off,0.000000,FALSE,0,,,,
08:05:07.872 AM 03/25/2016,Teleop Enabled,9,FALSE,0,NO ERROR,-0.000000,-0.154000,0.000000,0.006417,TRUE,FALSE,TRUE,FALSE,FALSE,FALSE,Disabled,0.000000,0.000000,0.000000,TRUE,-0.629150,0.686462,0.000000,0.107864,-0.118958,0.000000,0.086000,-0.191000,0.075000,-0.350000,0.570000,1.390000,0.930334,Hold,0.367432,0.000000,ResetBack,-844.000000,-0.150000,LowGoal,2115.000000,-2181.818182,Speed,2152.500000,-2181.818182,Speed,Off,Off,0.000000,FALSE,0,,,,
08:05:07.974 AM 03/25/2016,Teleop Enabled,9,FALSE,0,NO ERROR,-0.000000,-0.154000,0.000000,0.006417,TRUE,FALSE,TRUE,FALSE,FALSE,FALSE,Disabled,0.000000,0.000000,0.000000,TRUE,-0.622406,0.674576,0.000000,0.135178,-0.313324,0.000000,-0.003000,-0.196000,0.135000,-0.350000,0.800000,1.290000,0.925053,Hold,0.367432,0.000000,ResetBack,272.000000,-0.150000,LowGoal,2137.500000,-2181.818182,Speed,2175.000000,-2181.818182,Speed,Off,Off,0.000000,FALSE,0,,,,
08:05:08.074 AM 03/25/2016,Teleop Enabled,10,FALSE,0,NO ERROR,-0.000000,-0.160416,0.000000,0.006417,TRUE,FALSE,TRUE,FALSE,FALSE,FALSE,Disabled,0.000000,0.000000,0.000000,TRUE,-0.623657,0.653412,0.000000,-0.052689,-0.487259,0.000000,-0.028000,-0.132000,0.153000,-0.350000,0.760000,1.250000,0.937443,Hold,0.367432,0.000000,ResetBack,1598.000000,-0.150000,LowGoal,2137.500000,-2181.818182,Speed,2182.500000,-2181.818182,Speed,Off,Off,0.000000,FALSE,0,,,,
08:05:08.174 AM 03/25/2016,Teleop Enabled,10,FALSE,0,NO ERROR,-0.000000,-0.160416,0.000000,0.006417,TRUE,FALSE,TRUE,FALSE,FALSE,FALSE,Disabled,0.000000,0.000000,0.000000,TRUE,-0.628174,0.625900,0.000000,-0.120880,-0.590988,0.000000,0.007000,-0.073000,-0.092000,-0.350000,0.690000,1.180000,0.945633,Hold,0.367432,0.000000,ResetBack,2949.000000,-0.150000,LowGoal,2122.500000,-2181.818182,Speed,2175.000000,-2181.818182,Speed,Off,Off,0.000000,FALSE,0,,,,
08:05:08.275 AM 03/25/2016,Teleop Enabled,9,FALSE,0,NO ERROR,-0.000000,-0.160416,0.000000,0.006417,TRUE,FALSE,TRUE,FALSE,FALSE,FALSE,Disabled,0.000000,0.000000,0.000000,TRUE,-0.633530,0.594910,0.000000,0.000000,-0.617096,0.000000,-0.035000,-0.033000,-0.020000,-0.350000,0.680000,1.200000,0.924712,Hold,0.367432,0.000000,Reset,4421.000000,2.000000,LowGoal,2130.000000,-2181.818182,Speed,2175.000000,-2181.818182,Speed,Off,Off,0.000000,FALSE,0,,,,
08:05:08.375 AM 03/25/2016,Teleop Enabled,9,FALSE,0,NO ERROR,-0.000000,-0.160416,0.000000,0.006417,TRUE,FALSE,TRUE,FALSE,FALSE,FALSE,Disabled,0.000000,0.000000,0.000000,TRUE,-0.634842,0.556625,0.000000,-0.036835,-0.671326,0.000000,-0.019000,-0.109000,-0.072000,-0.330000,0.470000,1.240000,0.936025,Hold,0.367432,0.000000,Hold,4421.000000,2.000000,LowGoal,2130.000000,-2181.818182,Speed,2175.000000,-2181.818182,Speed,Off,Off,0.000000,FALSE,0,,,,
08:05:08.476 AM 03/25/2016,Teleop Enabled,10,FALSE,0,NO ERROR,-0.000000,-0.160416,0.000000,0.012833,TRUE,FALSE,TRUE,FALSE,FALSE,FALSE,Disabled,0.000000,0.000000,0.000000,TRUE,-0.636536,0.529800,0.000000,-0.033539,-0.660370,0.000000,-0.010000,0.054000,0.042000,-0.340000,0.480000,1.230000,0.913331,Hold,0.367432,0.000000,Hold,73.000000,2.000000,LowGoal,2130.000000,-2181.818182,Speed,2175.000000,-2181.818182,Speed,Off,Off,0.000000,FALSE,0,,,,
08:05:08.577 AM 03/25/2016,Teleop Enabled,10,FALSE,0,NO ERROR,-0.000000,-0.288749,0.000000,0.012833,TRUE,FALSE,TRUE,FALSE,FALSE,FALSE,Disabled,0.000000,0.000000,0.000000,TRUE,-0.637344,0.491882,0.000000,-0.004181,-0.645126,0.000000,0.072000,-0.184000,0.128000,-0.330000,0.170000,1.270000,0.931288,Hold,0.367432,0.000000,Hold,73.000000,2.000000,LowGoal,2130.000000,-2181.818182,Speed,2175.000000,-2181.818182,Speed,Off,Off,0.000000,FALSE,0,,,,
08:05:08.678 AM 03/25/2016,Teleop Enabled,10,FALSE,0,NO ERROR,-0.000000,-0.295166,0.000000,0.012833,TRUE,FALSE,TRUE,FALSE,FALSE,FALSE,Disabled,0.000000,0.000000,0.000000,TRUE,-0.637024,0.455399,0.000000,0.010910,-0.781677,0.000000,0.156000,-0.213000,0.306000,-0.330000,0.110000,1.380000,0.926847,Hold,0.367432,0.000000,Hold,73.000000,2.000000,LowGoal,2130.000000,-2181.818182,Speed,2167.500000,-2181.818182,Speed,Off,Off,0.000000,FALSE,0,,,,
08:05:08.778 AM 03/25/2016,Teleop Enabled,10,FALSE,0,NO ERROR,-0.000000,-0.295166,0.000000,0.012833,TRUE,FALSE,TRUE,FALSE,FALSE,FALSE,Disabled,0.000000,0.000000,0.000000,TRUE,-0.632782,0.410614,0.000000,0.117935,-0.961227,0.000000,0.011000,-0.289000,0.137000,-0.340000,0.560000,1.380000,0.931243,Hold,0.367432,0.000000,Hold,72.000000,2.000000,LowGoal,2122.500000,-2181.818182,Speed,2160.000000,-2181.818182,Speed,Off,Off,0.000000,FALSE,0,,,,
08:05:08.878 AM 03/25/2016,Teleop Enabled,10,FALSE,0,NO ERROR,-0.000000,-0.295166,0.000000,0.012833,TRUE,FALSE,TRUE,FALSE,FALSE,FALSE,Disabled,0.000000,0.000000,0.000000,TRUE,-0.627182,0.355118,0.000000,0.087708,-1.184967,0.000000,0.035000,-0.199000,0.276000,-0.330000,0.410000,1.330000,0.930671,Hold,0.367432,0.000000,Hold,72.000000,2.000000,LowGoal,2122.500000,-2181.818182,Speed,2145.000000,-2181.818182,Speed,Off,Off,0.000000,FALSE,0,,,,
08:05:08.978 AM 03/25/2016,Teleop Enabled,10,FALSE,0,NO ERROR,-0.000000,-0.295166,0.000000,0.012833,TRUE,FALSE,TRUE,FALSE,FALSE,FALSE,Disabled,0.000000,0.000000,0.000000,TRUE,-0.621811,0.288773,0.000000,0.129486,-1.424774,0.000000,0.056000,-0.233000,0.231000,-0.340000,0.590000,1.240000,0.932148,Hold,0.367432,0.000000,Hold,72.000000,2.000000,LowGoal,2122.500000,-2181.818182,Speed,2152.500000,-2181.818182,Speed,Off,Off,0.000000,FALSE,0,,,,
08:05:09.079 AM 03/25/2016,Teleop Enabled,9,FALSE,0,NO ERROR,-0.000000,-0.295166,0.000000,0.012833,TRUE,FALSE,TRUE,FALSE,FALSE,FALSE,Disabled,0.000000,0.000000,0.000000,TRUE,-0.613495,0.212311,0.000000,0.201492,-1.587296,0.000000,0.115000,-0.057000,0.124000,-0.330000,0.630000,1.260000,0.938996,Hold,0.367432,0.000000,Hold,72.000000,2.000000,LowGoal,2130.000000,-2181.818182,Speed,2167.500000,-2181.818182,Speed,Off,Off,0.000000,FALSE,0,,,,
08:05:09.179 AM 03/25/2016,Teleop Enabled,9,FALSE,0,NO ERROR,-0.000000,-0.295166,0.000000,0.012833,TRUE,FALSE,TRUE,FALSE,FALSE,FALSE,Disabled,0.000000,0.000000,0.000000,TRUE,-0.600723,0.131073,0.000000,0.281677,-1.641678,0.000000,-0.017000,-0.001000,0.098000,-0.330000,0.600000,1.320000,0.950229,Hold,0.367432,0.000000,Hold,72.000000,2.000000,LowGoal,2130.000000,-2181.818182,Speed,2182.500000,-2181.818182,Speed,Off,Off,0.000000,FALSE,0,,,,
08:05:09.280 AM 03/25/2016,Teleop Enabled,10,FALSE,0,NO ERROR,-0.000000,-0.295166,0.000000,0.012833,TRUE,FALSE,TRUE,FALSE,FALSE,FALSE,Disabled,0.000000,0.000000,0.000000,TRUE,-0.600922,0.047531,0.000000,-0.022034,-1.684280,0.000000,-0.064000,-0.003000,0.006000,-0.330000,0.530000,1.330000,0.951609,Hold,0.367432,0.000000,Hold,72.000000,2.000000,LowGoal,2130.000000,-2181.818182,Speed,2182.500000,-2181.818182,Speed,Off,Off,0.000000,FALSE,0,,,,
08:05:09.380 AM 03/25/2016,Teleop Enabled,10,FALSE,0,NO ERROR,-0.000000,-0.295166,0.000000,0.012833,TRUE,FALSE,TRUE,FALSE,FALSE,FALSE,Disabled,0.000000,0.000000,0.000000,TRUE,-0.603500,-0.019363,0.000000,-0.045776,0.004868,0.000000,-0.019000,0.042000,0.065000,-0.330000,0.520000,1.330000,0.939880,Hold,0.367432,0.000000,Hold,72.000000,2.000000,LowGoal,2130.000000,-2181.818182,Speed,2175.000000,-2181.818182,Speed,Off,Off,0.000000,FALSE,0,,,,
08:05:09.480 AM 03/25/2016,Teleop Enabled,10,FALSE,0,NO ERROR,-0.000000,-0.295166,0.000000,0.012833,TRUE,FALSE,TRUE,FALSE,FALSE,FALSE,Disabled,0.000000,0.000000,0.000000,TRUE,-0.605606,-0.019760,0.000000,-0.040787,-0.016144,0.000000,0.016000,-0.050000,0.193000,-0.330000,0.430000,1.330000,0.938775,Hold,0.367432,0.000000,Hold,72.000000,2.000000,LowGoal,2130.000000,-2181.818182,Speed,2182.500000,-2181.818182,Speed,Off,Off,0.000000,FALSE,0,,,,
08:05:09.580 AM 03/25/2016,Teleop Enabled,11,FALSE,0,NO ERROR,-0.000000,-0.295166,0.000000,0.012833,TRUE,FALSE,TRUE,FALSE,FALSE,FALSE,Disabled,0.000000,0.000000,0.000000,TRUE,-0.608200,-0.023758,0.000000,-0.071838,-0.136597,0.000000,-0.110000,-0.069000,0.111000,-0.330000,0.510000,1.260000,0.930985,Hold,0.367432,0.000000,Hold,72.000000,2.000000,LowGoal,2130.000000,-2181.818182,Speed,2182.500000,-2181.818182,Speed,Off,Off,0.000000,FALSE,0,,,,
08:05:09.681 AM 03/25/2016,Teleop Enabled,10,FALSE,0,NO ERROR,-0.000000,-0.301583,0.000000,0.012833,TRUE,FALSE,TRUE,FALSE,FALSE,FALSE,Disabled,0.000000,0.000000,0.000000,TRUE,-0.615799,-0.033020,0.000000,-0.216446,-0.211929,0.000000,-0.197000,-0.036000,0.225000,-0.320000,0.140000,1.180000,0.916423,Hold,0.367432,0.000000,Hold,72.000000,2.000000,LowGoal,2130.000000,-2181.818182,Speed,2182.500000,-2181.818182,Speed,Off,Off,0.000000,FALSE,0,,,,
08:05:09.780 AM 03/25/2016,Teleop Enabled,10,FALSE,0,NO ERROR,-0.000000,-0.301583,0.000000,0.012833,TRUE,FALSE,TRUE,FALSE,FALSE,FALSE,Disabled,0.000000,0.000000,0.000000,TRUE,-0.630447,-0.045578,0.000000,-0.328842,-0.284836,0.000000,0.025000,-0.175000,0.238000,-0.320000,-0.110000,1.260000,0.910870,Hold,0.367432,0.000000,Hold,72.000000,2.000000,LowGoal,2130.000000,-2181.818182,Speed,2175.000000,-2181.818182,Speed,Off,Off,0.000000,FALSE,0,,,,
08:05:09.880 AM 03/25/2016,Teleop Enabled,11,FALSE,0,NO ERROR,-0.000000,-0.301583,0.000000,0.012833,TRUE,FALSE,TRUE,FALSE,FALSE,FALSE,Disabled,0.000000,0.000000,0.000000,TRUE,-0.645370,-0.065582,0.000000,-0.267548,-0.486374,0.000000,0.051000,-0.190000,0.200000,-0.320000,0.150000,1.140000,0.901313,Hold,0.367432,0.000000,Hold,72.000000,2.000000,LowGoal,2130.000000,-2181.818182,Speed,2182.500000,-2181.818182,Speed,Off,Off,0.000000,FALSE,0,,,,
08:05:09.980 AM 03/25/2016,Teleop Enabled,10,FALSE,0,NO ERROR,-0.000000,-0.301583,0.000000,0.012833,TRUE,FALSE,TRUE,FALSE,FALSE,FALSE,Disabled,0.000000,0.000000,0.000000,TRUE,-0.655945,-0.096146,0.000000,-0.164566,-0.690262,0.000000,0.125000,-0.183000,0.164000,-0.320000,0.250000,1.060000,0.887664,Hold,0.367432,0.000000,Hold,72.000000,2.000000,LowGoal,2137.500000,-2181.818182,Speed,2182.500000,-2181.818182,Speed,Off,Off,0.000000,FALSE,0,,,,
08:05:10.080 AM 03/25/2016,Teleop Enabled,9,FALSE,0,NO ERROR,-0.000000,-0.301583,0.000000,0.012833,TRUE,FALSE,TRUE,FALSE,FALSE,FALSE,Disabled,0.000000,0.000000,0.000000,TRUE,-0.661316,-0.134689,0.000000,-0.088928,-0.801544,0.000000,0.078000,-0.134000,0.066000,-0.320000,0.280000,0.970000,0.887918,Hold,0.367432,0.000000,Hold,72.000000,2.000000,LowGoal,2137.500000,-2181.818182,Speed,2175.000000,-2181.818182,Speed,Off,Off,0.000000,FALSE,0,,,,
08:05:10.180 AM 03/25/2016,Teleop Enabled,10,FALSE,0,NO ERROR,-0.000000,-0.301583,0.000000,0.012833,TRUE,FALSE,TRUE,FALSE,FALSE,FALSE,Disabled,0.000000,0.000000,0.000000,TRUE,-0.664932,-0.187759,0.000000,-0.058777,-0.924973,0.000000,-0.045000,-0.028000,0.140000,-0.320000,0.270000,0.890000,0.884331,Hold,0.367432,0.000000,Hold,72.000000,2.000000,LowGoal,2130.000000,-2181.818182,Speed,2182.500000,-2181.818182,Speed,Off,Off,0.000000,FALSE,0,,,,
08:05:10.281 AM 03/25/2016,Teleop Enabled,10,FALSE,0,NO ERROR,-0.000000,-0.301583,0.000000,0.012833,TRUE,FALSE,TRUE,FALSE,FALSE,FALSE,Disabled,0.000000,0.000000,0.000000,TRUE,-0.667862,-0.235825,0.000000,-0.038910,-0.983154,0.000000,0.061000,-0.093000,0.032000,-0.330000,0.320000,0.860000,0.870261,Hold,0.367432,0.000000,Hold,72.000000,2.000000,LowGoal,2130.000000,-2181.818182,Speed,2182.500000,-2181.818182,Speed,Off,Off,0.000000,FALSE,0,,,,
08:05:10.381 AM 03/25/2016,Teleop Enabled,9,FALSE,0,NO ERROR,-0.000000,-0.301583,0.000000,0.012833,TRUE,FALSE,TRUE,FALSE,FALSE,FALSE,Disabled,0.000000,0.000000,0.000000,TRUE,-0.668350,-0.276703,0.000000,0.001801,-1.048767,0.000000,0.061000,-0.093000,0.032000,-0.330000,0.330000,0.800000,0.870310,Hold,0.367432,0.000000,Hold,72.000000,2.000000,LowGoal,2137.500000,-2181.818182,Speed,2182.500000,-2181.818182,Speed,Off,Off,0.000000,FALSE,0,,,,
08:05:10.481 AM 03/25/2016,Teleop Enabled,9,FALSE,0,NO ERROR,-0.000000,-0.301583,0.000000,0.012833,TRUE,FALSE,TRUE,FALSE,FALSE,FALSE,Disabled,0.000000,0.000000,0.000000,TRUE,-0.668121,-0.344070,0.000000,0.011902,-1.201706,0.000000,-0.032000,-0.182000,0.151000,-0.330000,0.430000,0.740000,0.854691,Hold,0.367432,0.000000,Hold,72.000000,2.000000,LowGoal,2137.500000,-2181.818182,Speed,2175.000000,-2181.818182,Speed,Off,Off,0.000000,FALSE,0,,,,
08:05:10.581 AM 03/25/2016,Teleop Enabled,11,FALSE,0,NO ERROR,-0.000000,-0.307999,0.000000,0.012833,TRUE,FALSE,TRUE,FALSE,FALSE,FALSE,Disabled,0.000000,0.000000,0.000000,TRUE,-0.668869,-0.408218,0.000000,-0.059814,-1.316238,0.000000,-0.201000,-0.057000,0.088000,-0.320000,0.400000,0.690000,0.842724,Hold,0.367432,0.000000,Hold,72.000000,2.000000,LowGoal,2130.000000,-2181.818182,Speed,2160.000000,-2181.818182,Speed,Off,Off,0.000000,FALSE,0,,,,
08:05:10.681 AM 03/25/2016,Teleop Enabled,8,FALSE,0,NO ERROR,-0.000000,-0.307999,0.000000,0.012833,TRUE,FALSE,TRUE,FALSE,FALSE,FALSE,Disabled,0.000000,0.000000,0.000000,TRUE,-0.675110,-0.475250,0.000000,-0.153290,-1.352631,0.000000,-0.201000,-0.057000,0.088000,-0.320000,0.400000,0.690000,0.840408,Hold,0.367432,0.000000,Hold,72.000000,2.000000,LowGoal,2137.500000,-2181.818182,Speed,2152.500000,-2181.818182,Speed,Off,Off,0.000000,FALSE,0,,,,
08:05:10.782 AM 03/25/2016,Teleop Enabled,9,FALSE,0,NO ERROR,-0.000000,-0.307999,0.000000,0.012833,TRUE,FALSE,TRUE,FALSE,FALSE,FALSE,Disabled,0.000000,0.000000,0.000000,TRUE,-0.679825,-0.549301,0.000000,-0.052719,-1.559097,0.000000,0.089000,-0.323000,0.194000,-0.320000,0.470000,0.820000,0.841055,Hold,0.367432,0.000000,Hold,71.000000,2.000000,LowGoal,2130.000000,-2181.818182,Speed,2175.000000,-2181.818182,Speed,Off,Off,0.000000,FALSE,0,,,,
08:05:10.882 AM 03/25/2016,Teleop Enabled,10,FALSE,0,NO ERROR,-0.000000,-0.307999,0.000000,0.012833,TRUE,FALSE,TRUE,FALSE,FALSE,FALSE,Disabled,0.000000,0.000000,0.000000,TRUE,-0.679794,-0.633957,0.000000,0.029083,-1.746094,0.000000,0.089000,-0.323000,0.194000,-0.320000,0.660000,0.740000,0.838463,Hold,0.367432,0.000000,Hold,71.000000,2.000000,LowGoal,2130.000000,-2181.818182,Speed,2182.500000,-2181.818182,Speed,Off,Off,0.000000,FALSE,0,,,,
08:05:10.982 AM 03/25/2016,Teleop Enabled,10,FALSE,0,NO ERROR,0.181102,-0.307999,-0.181102,0.012833,TRUE,FALSE,TRUE,FALSE,FALSE,FALSE,Disabled,0.000000,0.000000,0.000000,TRUE,-0.679092,-0.722458,0.000000,0.016098,-1.771042,0.000000,0.003000,-0.072000,0.103000,-0.320000,0.390000,0.890000,0.844525,Hold,0.367432,0.000000,Hold,70.000000,2.000000,LowGoal,2130.000000,-2181.818182,Speed,2167.500000,-2181.818182,Speed,Off,Off,0.000000,FALSE,0,,,,
08:05:11.082 AM 03/25/2016,Teleop Enabled,10,FALSE,0,NO ERROR,0.228346,0.109083,-0.228346,0.128333,TRUE,FALSE,TRUE,FALSE,FALSE,FALSE,Disabled,0.000000,0.000000,0.000000,TRUE,-0.679092,-0.722458,0.000000,0.016098,-1.771042,0.000000,0.011000,-0.022000,0.062000,-0.360000,0.070000,1.030000,0.746884,Hold,0.367432,0.000000,Hold,70.000000,2.000000,LowGoal,2130.000000,-2181.818182,Speed,2175.000000,-2181.818182,Speed,Off,Off,0.000000,FALSE,0,,,,
08:05:11.183 AM 03/25/2016,Teleop Enabled,10,FALSE,0,NO ERROR,0.236220,0.487666,-0.236220,0.423499,TRUE,FALSE,TRUE,FALSE,FALSE,FALSE,Disabled,0.000000,0.000000,0.000000,TRUE,-0.678101,-0.899460,0.000000,-0.004395,-1.758499,0.000000,0.118000,-0.002000,0.042000,-0.360000,0.070000,1.030000,-0.668152,Hold,0.367432,0.000000,Hold,70.000000,2.000000,LowGoal,2122.500000,-2181.818182,Speed,2175.000000,-2181.818182,Speed,Off,Off,0.000000,FALSE,0,,,,
08:05:11.284 AM 03/25/2016,Teleop Enabled,9,FALSE,0,NO ERROR,0.346457,0.603165,-0.346457,0.455582,TRUE,FALSE,TRUE,FALSE,FALSE,FALSE,Disabled,0.000000,0.000000,0.000000,TRUE,-0.677963,-0.984085,0.000000,0.016373,-1.683090,0.000000,0.079000,0.186000,0.035000,-2.060000,0.420000,1.080000,-0.972981,Hold,0.367432,0.000000,Hold,68.000000,2.000000,LowGoal,2122.500000,-2181.818182,Speed,2167.500000,-2181.818182,Speed,Off,Off,0.000000,FALSE,0,,,,
08:05:11.384 AM 03/25/2016,Teleop Enabled,9,FALSE,0,NO ERROR,0.346457,0.802081,-0.346457,0.583915,TRUE,FALSE,TRUE,FALSE,FALSE,FALSE,Disabled,0.000000,0.000000,0.000000,TRUE,-0.677963,-0.984085,0.000000,0.016373,-1.683090,0.000000,-0.028000,0.039000,0.163000,-2.060000,0.420000,1.080000,-1.526086,Hold,0.367432,0.000000,Hold,68.000000,2.000000,LowGoal,2115.000000,-2181.818182,Speed,2152.500000,-2181.818182,Speed,Off,Off,0.000000,FALSE,0,,,,
08:05:11.484 AM 03/25/2016,Teleop Enabled,10,FALSE,0,NO ERROR,0.346457,1.000998,-0.346457,0.744332,TRUE,FALSE,TRUE,FALSE,FALSE,FALSE,Disabled,0.000000,0.000000,0.000000,TRUE,-0.676682,-1.068558,0.000000,0.049469,-1.733231,0.000000,0.052000,-0.132000,0.019000,-3.110000,0.320000,0.960000,-2.233618,Hold,0.367432,0.000000,Hold,68.000000,2.000000,LowGoal,2107.500000,-2181.818182,Speed,2152.500000,-2181.818182,Speed,Off,Off,0.000000,FALSE,0,,,,
08:05:11.585 AM 03/25/2016,Teleop Enabled,11,FALSE,0,NO ERROR,-0.000000,0.975331,0.000000,0.622415,TRUE,FALSE,TRUE,FALSE,FALSE,FALSE,Disabled,0.000000,0.000000,0.000000,TRUE,-0.671494,-1.268707,0.000000,0.054169,-1.833359,0.000000,-0.011000,-0.064000,-0.065000,-3.630000,0.390000,1.080000,-2.294950,Hold,0.367432,0.000000,Hold,67.000000,2.000000,LowGoal,2107.500000,-2181.818182,Speed,2160.000000,-2181.818182,Speed,Off,Off,0.000000,FALSE,0,,,,
08:05:11.686 AM 03/25/2016,Teleop Enabled,10,FALSE,0,NO ERROR,-0.000000,0.853415,0.000000,0.494082,TRUE,FALSE,TRUE,FALSE,FALSE,FALSE,Disabled,0.000000,0.000000,0.000000,TRUE,-0.671494,-1.268707,0.000000,0.054169,-1.833359,0.000000,0.042000,0.083000,-0.023000,-3.630000,0.390000,1.080000,-1.631112,Hold,0.367432,0.000000,Hold,66.000000,2.000000,LowGoal,2122.500000,-2181.818182,Speed,2175.000000,-2181.818182,Speed,Off,Off,0.000000,FALSE,0,,,,
08:05:11.787 AM 03/25/2016,Teleop Enabled,11,FALSE,0,NO ERROR,-0.000000,0.853415,0.000000,0.500499,TRUE,FALSE,TRUE,FALSE,FALSE,FALSE,Disabled,0.000000,0.000000,0.000000,TRUE,-0.668793,-1.359131,0.000000,0.075974,-1.779373,0.000000,0.085000,0.210000,-0.042000,-2.800000,0.610000,0.990000,-1.738864,Hold,0.367432,0.000000,Hold,65.000000,2.000000,LowGoal,2145.000000,-2181.818182,Speed,2190.000000,-2181.818182,Speed,Off,Off,0.000000,FALSE,0,,,,
08:05:11.896 AM 03/25/2016,Teleop Enabled,15,FALSE,0,NO ERROR,-0.000000,0.853415,0.000000,0.500499,TRUE,FALSE,TRUE,FALSE,FALSE,FALSE,Disabled,0.000000,0.000000,0.000000,TRUE,-0.651672,-1.516174,0.000000,0.208649,-1.399551,0.000000,0.047000,0.180000,-0.147000,-2.790000,0.900000,0.900000,-1.723083,Hold,0.367432,0.000000,Hold,65.000000,2.000000,LowGoal,2137.500000,-2181.818182,Speed,2182.500000,-2181.818182,Speed,Off,Off,0.000000,FALSE,0,,,,
08:05:11.992 AM 03/25/2016,Teleop Enabled,12,FALSE,0,NO ERROR,-0.000000,0.853415,0.000000,0.500499,TRUE,FALSE,TRUE,FALSE,FALSE,FALSE,Disabled,0.000000,0.000000,0.000000,TRUE,-0.651672,-1.516174,0.000000,0.208649,-1.399551,0.000000,-0.039000,0.220000,-0.153000,-2.790000,0.900000,0.900000,-1.724949,Hold,0.367432,0.000000,Hold,65.000000,2.000000,LowGoal,2130.000000,-2181.818182,Speed,2182.500000,-2181.818182,Speed,Off,Off,0.000000,FALSE,0,,,,
08:05:12.094 AM 03/25/2016,Teleop Enabled,13,FALSE,0,NO ERROR,-0.000000,0.853415,0.000000,0.500499,TRUE,FALSE,TRUE,FALSE,FALSE,FALSE,Disabled,0.000000,0.000000,0.000000,TRUE,-0.644073,-1.579437,0.000000,0.084549,-1.162674,0.000000,-0.068000,0.299000,-0.258000,-2.800000,0.750000,0.850000,-1.727761,Hold,0.367432,0.000000,Hold,64.000000,2.000000,LowGoal,2137.500000,-2181.818182,Speed,2182.500000,-2181.818182,Speed,Off,Off,0.000000,FALSE,0,,,,
08:05:12.195 AM 03/25/2016,Teleop Enabled,14,FALSE,0,NO ERROR,-0.000000,0.853415,0.000000,0.500499,TRUE,FALSE,TRUE,FALSE,FALSE,FALSE,Disabled,0.000000,0.000000,0.000000,TRUE,-0.644455,-1.672119,0.000000,-0.031769,-0.794434,0.000000,-0.055000,0.196000,-0.124000,-2.790000,0.590000,0.940000,-1.734881,Hold,0.367432,0.000000,Hold,63.000000,2.000000,LowGoal,2145.000000,-2181.818182,Speed,2182.500000,-2181.818182,Speed,Off,Off,0.000000,FALSE,0,,,,
08:05:12.295 AM 03/25/2016,Teleop Enabled,9,FALSE,0,NO ERROR,-0.000000,0.853415,0.000000,0.500499,TRUE,FALSE,TRUE,FALSE,FALSE,FALSE,Disabled,0.000000,0.000000,0.000000,TRUE,-0.645050,-1.711166,0.000000,-0.004272,-0.786972,0.000000,0.047000,0.004000,0.006000,-2.790000,0.590000,0.940000,-1.722622,Hold,0.367432,0.000000,Hold,63.000000,2.000000,LowGoal,2145.000000,-2181.818182,Speed,2182.500000,-2181.818182,Speed,Off,Off,0.000000,FALSE,0,,,,
08:05:12.395 AM 03/25/2016,Teleop Enabled,11,FALSE,0,NO ERROR,-0.000000,0.853415,0.000000,0.500499,TRUE,FALSE,TRUE,FALSE,FALSE,FALSE,Disabled,0.000000,0.000000,0.000000,TRUE,-0.645050,-1.711166,0.000000,-0.004272,-0.786972,0.000000,-0.075000,-0.058000,-0.018000,-2.790000,0.490000,1.000000,-1.703653,Hold,0.367432,0.000000,Hold,63.000000,2.000000,LowGoal,2137.500000,-2181.818182,Speed,2182.500000,-2181.818182,Speed,Off,Off,0.000000,FALSE,0,,,,
08:05:12.495 AM 03/25/2016,Teleop Enabled,10,FALSE,0,NO ERROR,-0.000000,0.853415,0.000000,0.500499,TRUE,FALSE,TRUE,FALSE,FALSE,FALSE,Disabled,0.000000,0.000000,0.000000,TRUE,-0.647186,-1.735641,0.000000,-0.059418,-0.019897,0.000000,0.036000,-0.051000,0.094000,-2.790000,0.490000,1.000000,-1.709151,Hold,0.367432,0.000000,Hold,63.000000,2.000000,LowGoal,2145.000000,-2181.818182,Speed,2182.500000,-2181.818182,Speed,Off,Off,0.000000,FALSE,0,,,,
08:05:12.595 AM 03/25/2016,Teleop Enabled,9,FALSE,0,NO ERROR,-0.000000,0.853415,0.000000,0.500499,TRUE,FALSE,TRUE,FALSE,FALSE,FALSE,Disabled,0.000000,0.000000,0.000000,TRUE,-0.649887,-1.746979,0.000000,-0.000565,-0.232239,0.000000,0.108000,-0.121000,0.050000,-2.790000,0.490000,0.890000,-1.699777,Hold,0.367432,0.000000,Hold,63.000000,2.000000,LowGoal,2145.000000,-2181.818182,Speed,2182.500000,-2181.818182,Speed,Off,Off,0.000000,FALSE,0,,,,
08:05:12.698 AM 03/25/2016,Teleop Enabled,10,FALSE,0,NO ERROR,-0.000000,0.853415,0.000000,0.500499,TRUE,FALSE,TRUE,FALSE,FALSE,FALSE,Disabled,0.000000,0.000000,0.000000,TRUE,-0.649185,-1.761780,0.000000,-0.009186,-0.319153,0.000000,0.119000,-0.158000,0.030000,-2.790000,0.530000,0.850000,-1.689308,Hold,0.367432,0.000000,Hold,63.000000,2.000000,LowGoal,2137.500000,-2181.818182,Speed,2182.500000,-2181.818182,Speed,Off,Off,0.000000,FALSE,0,,,,
08:05:12.797 AM 03/25/2016,Teleop Enabled,11,FALSE,0,NO ERROR,-0.000000,0.853415,0.000000,0.500499,TRUE,FALSE,TRUE,FALSE,FALSE,FALSE,Disabled,0.000000,0.000000,0.000000,TRUE,-0.645966,-1.779053,0.000000,0.128403,-0.350693,0.000000,0.122000,-0.071000,0.027000,-2.780000,0.400000,0.810000,-1.674085,Hold,0.367432,0.000000,Hold,63.000000,2.000000,LowGoal,2145.000000,-2181.818182,Speed,2182.500000,-2181.818182,Speed,Off,Off,0.000000,FALSE,0,,,,
08:05:12.898 AM 03/25/2016,Teleop Enabled,10,FALSE,0,NO ERROR,-0.000000,0.853415,0.000000,0.500499,TRUE,FALSE,TRUE,FALSE,FALSE,FALSE,Disabled,0.000000,0.000000,0.000000,TRUE,-0.634064,-1.794128,0.000000,0.307053,-0.271667,0.000000,0.153000,0.154000,-0.038000,-2.780000,0.530000,0.680000,-1.677283,Hold,0.367432,0.000000,Hold,63.000000,2.000000,LowGoal,2145.000000,-2181.818182,Speed,2182.500000,-2181.818182,Speed,Off,Off,0.000000,FALSE,0,,,,
08:05:12.999 AM 03/25/2016,Teleop Enabled,10,FALSE,0,NO ERROR,-0.000000,0.853415,0.000000,0.500499,TRUE,FALSE,TRUE,FALSE,FALSE,FALSE,Disabled,0.000000,0.000000,0.000000,TRUE,-0.634064,-1.794128,0.000000,0.307053,-0.271667,0.000000,-0.063000,0.082000,-0.005000,-2.780000,0.800000,0.670000,-1.681091,Hold,0.367432,0.000000,Hold,63.000000,2.000000,LowGoal,2137.500000,-2181.818182,Speed,2182.500000,-2181.818182,Speed,Off,Off,0.000000,FALSE,0,,,,
08:05:13.102 AM 03/25/2016,Teleop Enabled,10,FALSE,0,NO ERROR,-0.000000,0.853415,0.000000,0.500499,TRUE,FALSE,TRUE,FALSE,FALSE,FALSE,Disabled,0.000000,0.000000,0.000000,TRUE,-0.608475,-1.812317,0.000000,0.209351,-0.127640,0.000000,-0.034000,0.032000,0.004000,-2.790000,0.610000,0.750000,-1.689683,Hold,0.367432,0.000000,Hold,63.000000,2.000000,LowGoal,2137.500000,-2181.818182,Speed,2182.500000,-2181.818182,Speed,Off,Off,0.000000,FALSE,0,,,,
08:05:13.203 AM 03/25/2016,Teleop Enabled,11,FALSE,0,NO ERROR,-0.000000,0.853415,0.000000,0.500499,TRUE,FALSE,TRUE,FALSE,FALSE,FALSE,Disabled,0.000000,0.000000,0.000000,TRUE,-0.594666,-1.815063,0.000000,0.227280,0.007446,0.000000,0.053000,0.136000,0.070000,-2.790000,0.630000,0.690000,-1.681858,Hold,0.367432,0.000000,Hold,63.000000,2.000000,LowGoal,2137.500000,-2181.818182,Speed,2182.500000,-2181.818182,Speed,Off,Off,0.000000,FALSE,0,,,,
08:05:13.303 AM 03/25/2016,Teleop Enabled,11,FALSE,0,NO ERROR,-0.000000,0.853415,0.000000,0.500499,TRUE,FALSE,TRUE,FALSE,FALSE,FALSE,Disabled,0.000000,0.000000,0.000000,TRUE,-0.594666,-1.815063,0.000000,0.227280,0.007446,0.000000,-0.036000,0.153000,-0.090000,-2.790000,0.610000,0.570000,-1.687941,Hold,0.367432,0.000000,Hold,63.000000,2.000000,LowGoal,2145.000000,-2181.818182,Speed,2182.500000,-2181.818182,Speed,Off,Off,0.000000,FALSE,0,,,,
08:05:13.404 AM 03/25/2016,Teleop Enabled,10,FALSE,0,NO ERROR,-0.000000,0.853415,0.000000,0.500499,TRUE,FALSE,TRUE,FALSE,FALSE,FALSE,Disabled,0.000000,0.000000,0.000000,TRUE,-0.583954,-1.813126,0.000000,0.223389,0.000000,0.000000,0.090000,-0.005000,0.063000,-2.790000,0.520000,0.490000,-1.708242,Hold,0.367432,0.000000,Hold,63.000000,2.000000,LowGoal,2145.000000,-2181.818182,Speed,2182.500000,-2181.818182,Speed,Off,Off,0.000000,FALSE,0,,,,
08:05:13.504 AM 03/25/2016,Teleop Enabled,10,FALSE,0,NO ERROR,-0.000000,0.846998,0.000000,0.500499,TRUE,FALSE,TRUE,FALSE,FALSE,FALSE,Disabled,0.000000,0.000000,0.000000,TRUE,-0.569305,-1.814117,0.000000,0.348862,-0.052414,0.000000,0.122000,-0.082000,0.139000,-2.800000,0.630000,0.540000,-1.748103,Hold,0.367432,0.000000,Hold,63.000000,2.000000,LowGoal,2137.500000,-2181.818182,Speed,2182.500000,-2181.818182,Speed,Off,Off,0.000000,FALSE,0,,,,
08:05:13.604 AM 03/25/2016,Teleop Enabled,11,FALSE,0,NO ERROR,-0.000000,0.846998,0.000000,0.500499,TRUE,FALSE,TRUE,FALSE,FALSE,FALSE,Disabled,0.000000,0.000000,0.000000,TRUE,-0.553131,-1.819778,0.000000,0.000000,-0.155472,0.000000,-0.024000,-0.090000,0.230000,-2.830000,0.650000,0.570000,-1.748103,Hold,0.367432,0.000000,Hold,-27.000000,2.000000,LowGoal,2137.500000,-2181.818182,Speed,2190.000000,-2181.818182,Speed,Off,Off,0.000000,FALSE,0,,,,
08:05:13.704 AM 03/25/2016,Teleop Enabled,10,FALSE,0,NO ERROR,-0.000000,0.846998,0.000000,0.500499,TRUE,FALSE,TRUE,FALSE,FALSE,FALSE,Disabled,0.000000,0.000000,0.000000,TRUE,-0.553284,-1.827881,0.000000,0.000000,0.000000,0.000000,0.051000,-0.145000,0.073000,-2.770000,0.680000,0.710000,-1.700682,Hold,0.367432,0.000000,Hold,-28.000000,2.000000,LowGoal,2145.000000,-2181.818182,Speed,2190.000000,-2181.818182,Speed,Off,Off,0.000000,FALSE,0,,,,
08:05:13.804 AM 03/25/2016,Teleop Enabled,10,FALSE,0,NO ERROR,-0.000000,0.846998,0.000000,0.500499,TRUE,FALSE,TRUE,FALSE,FALSE,FALSE,Disabled,0.000000,0.000000,0.000000,TRUE,-0.552536,-1.832062,0.000000,0.042343,-0.151855,0.000000,0.159000,-0.113000,0.278000,-2.800000,0.860000,0.700000,-1.727469,Hold,0.367432,0.000000,Hold,-28.000000,2.000000,LowGoal,2152.500000,-2181.818182,Speed,2182.500000,-2181.818182,Speed,Off,Off,0.000000,FALSE,0,,,,
08:05:13.904 AM 03/25/2016,Teleop Enabled,10,FALSE,0,NO ERROR,-0.000000,0.846998,0.000000,0.506915,TRUE,FALSE,TRUE,FALSE,FALSE,FALSE,Disabled,0.000000,0.000000,0.000000,TRUE,-0.546326,-1.843918,0.000000,0.181717,-0.286942,0.000000,0.147000,-0.070000,0.274000,-2.810000,1.180000,0.780000,-1.736788,Hold,0.367432,0.000000,Hold,-28.000000,2.000000,LowGoal,2145.000000,-2181.818182,Speed,2190.000000,-2181.818182,Speed,Off,Off,0.000000,FALSE,0,,,,
08:05:14.004 AM 03/25/2016,Teleop Enabled,10,FALSE,0,NO ERROR,-0.000000,0.846998,0.000000,0.500499,TRUE,FALSE,TRUE,FALSE,FALSE,FALSE,Disabled,0.000000,0.000000,0.000000,TRUE,-0.532639,-1.861801,0.000000,0.328232,-0.418060,0.000000,0.122000,-0.164000,0.176000,-2.800000,1.470000,0.780000,-1.724233,Hold,0.367432,0.000000,Hold,-28.000000,2.000000,LowGoal,2145.000000,-2181.818182,Speed,2190.000000,-2181.818182,Speed,Off,Off,0.000000,FALSE,0,,,,
08:05:14.104 AM 03/25/2016,Teleop Enabled,10,FALSE,0,NO ERROR,-0.000000,0.846998,0.000000,0.500499,TRUE,FALSE,TRUE,FALSE,FALSE,FALSE,Disabled,0.000000,0.000000,0.000000,TRUE,-0.513351,-1.886871,0.000000,0.414917,-0.552856,0.000000,0.100000,-0.117000,0.029000,-2.810000,1.510000,0.750000,-1.739349,Hold,0.367432,0.000000,Hold,-28.000000,2.000000,LowGoal,2145.000000,-2181.818182,Speed,2190.000000,-2181.818182,Speed,Off,Off,0.000000,FALSE,0,,,,
08:05:14.204 AM 03/25/2016,Teleop Enabled,10,FALSE,0,NO ERROR,-0.000000,0.846998,0.000000,0.500499,TRUE,FALSE,TRUE,FALSE,FALSE,FALSE,Disabled,0.000000,0.000000,0.000000,TRUE,-0.489807,-1.917648,0.000000,0.505447,-0.654648,0.000000,0.055000,-0.063000,0.129000,-2.810000,1.440000,0.800000,-1.738554,Hold,0.367432,0.000000,Hold,-28.000000,2.000000,LowGoal,2145.000000,-2181.818182,Speed,2190.000000,-2181.818182,Speed,Off,Off,0.000000,FALSE,0,,,,
08:05:14.304 AM 03/25/2016,Teleop Enabled,10,FALSE,0,NO ERROR,-0.000000,0.846998,0.000000,0.500499,TRUE,FALSE,TRUE,FALSE,FALSE,FALSE,Disabled,0.000000,0.000000,0.000000,TRUE,-0.469406,-1.951080,0.000000,0.000000,-0.680161,0.000000,-0.036000,-0.054000,0.131000,-2.810000,1.300000,0.810000,-1.738003,Hold,0.367432,0.000000,Hold,-28.000000,2.000000,LowGoal,2145.000000,-2181.818182,Speed,2190.000000,-2181.818182,Speed,Off,Off,0.000000,FALSE,0,,,,
08:05:14.404 AM 03/25/2016,Teleop Enabled,10,FALSE,0,NO ERROR,-0.000000,0.846998,0.000000,0.500499,TRUE,FALSE,TRUE,FALSE,FALSE,FALSE,Disabled,0.000000,0.000000,0.000000,TRUE,-0.469498,-1.995743,0.000000,-0.010666,-0.798981,0.000000,-0.039000,-0.133000,0.056000,-2.800000,1.210000,0.790000,-1.745046,Hold,0.367432,0.000000,Hold,-28.000000,2.000000,LowGoal,2145.000000,-2181.818182,Speed,2190.000000,-2181.818182,Speed,Off,Off,0.000000,FALSE,0,,,,
08:05:14.505 AM 03/25/2016,Teleop Enabled,11,FALSE,0,NO ERROR,-0.000000,0.846998,0.000000,0.500499,TRUE,FALSE,TRUE,FALSE,FALSE,FALSE,Disabled,0.000000,0.000000,0.000000,TRUE,-0.471527,-2.037750,0.000000,-0.070511,-0.858505,0.000000,-0.010000,-0.058000,0.017000,-2.810000,1.170000,0.790000,-1.734072,Hold,0.367432,0.000000,Hold,-28.000000,2.000000,LowGoal,2145.000000,-2181.818182,Speed,2190.000000,-2181.818182,Speed,Off,Off,0.000000,FALSE,0,,,,
08:05:14.605 AM 03/25/2016,Teleop Enabled,10,FALSE,0,NO ERROR,-0.000000,0.846998,0.000000,0.500499,TRUE,FALSE,TRUE,FALSE,FALSE,FALSE,Disabled,0.000000,0.000000,0.000000,TRUE,-0.475098,-2.082809,0.000000,-0.064453,-0.929932,0.000000,-0.054000,-0.055000,0.138000,-2.780000,1.200000,0.740000,-1.714384,Hold,0.367432,0.000000,Hold,-28.000000,2.000000,LowGoal,2145.000000,-2181.818182,Speed,2182.500000,-2181.818182,Speed,Off,Off,0.000000,FALSE,0,,,,
08:05:14.705 AM 03/25/2016,Teleop Enabled,10,FALSE,0,NO ERROR,-0.000000,0.846998,0.000000,0.500499,TRUE,FALSE,TRUE,FALSE,FALSE,FALSE,Disabled,0.000000,0.000000,0.000000,TRUE,-0.480423,-2.131195,0.000000,-0.139175,-1.012985,0.000000,0.119000,-0.226000,0.160000,-2.780000,0.880000,0.810000,-1.723785,Hold,0.367432,0.000000,Hold,-28.000000,2.000000,LowGoal,2145.000000,-2181.818182,Speed,2182.500000,-2181.818182,Speed,Off,Off,0.000000,FALSE,0,,,,
08:05:14.806 AM 03/25/2016,Teleop Enabled,10,FALSE,0,NO ERROR,-0.000000,0.846998,0.000000,0.429916,TRUE,FALSE,TRUE,FALSE,FALSE,FALSE,Disabled,0.000000,0.000000,0.000000,TRUE,-0.488663,-2.210800,0.000000,-0.104309,-1.208862,0.000000,-0.083000,-0.077000,0.179000,-2.770000,0.840000,0.920000,-1.729965,Hold,0.367432,0.000000,Hold,-28.000000,2.000000,LowGoal,2145.000000,-2181.818182,Speed,2190.000000,-2181.818182,Speed,Off,Off,0.000000,FALSE,0,,,,
08:05:14.905 AM 03/25/2016,Teleop Enabled,10,FALSE,0,NO ERROR,-0.000000,0.846998,0.000000,0.429916,TRUE,FALSE,TRUE,FALSE,FALSE,FALSE,Disabled,0.000000,0.000000,0.000000,TRUE,-0.494110,-2.259918,0.000000,-0.167755,-1.212891,0.000000,-0.082000,0.129000,0.269000,-2.770000,0.840000,0.980000,-1.730935,Hold,0.367432,0.000000,Hold,-28.000000,2.000000,LowGoal,2137.500000,-2181.818182,Speed,2182.500000,-2181.818182,Speed,Off,Off,0.000000,FALSE,0,,,,
08:05:15.005 AM 03/25/2016,Teleop Enabled,10,FALSE,0,NO ERROR,-0.000000,0.846998,0.000000,0.429916,TRUE,FALSE,TRUE,FALSE,FALSE,FALSE,Disabled,0.000000,0.000000,0.000000,TRUE,-0.504089,-2.318726,0.000000,-0.188507,-1.186066,0.000000,-0.096000,-0.046000,0.198000,-2.770000,0.720000,1.130000,-1.706851,Hold,0.367432,0.000000,Hold,-28.000000,2.000000,LowGoal,2137.500000,-2181.818182,Speed,2175.000000,-2181.818182,Speed,Off,Off,0.000000,FALSE,0,,,,
08:05:15.106 AM 03/25/2016,Teleop Enabled,11,FALSE,0,NO ERROR,-0.000000,0.846998,0.000000,0.429916,TRUE,FALSE,TRUE,FALSE,FALSE,FALSE,Disabled,0.000000,0.000000,0.000000,TRUE,-0.513290,-2.393143,0.000000,-0.112411,-1.274979,0.000000,0.095000,-0.001000,0.222000,-2.760000,0.700000,1.120000,-1.693250,Hold,0.367432,0.000000,Hold,-28.000000,2.000000,LowGoal,2145.000000,-2181.818182,Speed,2175.000000,-2181.818182,Speed,Off,Off,0.000000,FALSE,0,,,,
08:05:15.205 AM 03/25/2016,Teleop Enabled,11,FALSE,0,NO ERROR,-0.000000,0.846998,0.000000,0.429916,TRUE,FALSE,TRUE,FALSE,FALSE,FALSE,Disabled,0.000000,0.000000,0.000000,TRUE,-0.517471,-2.394394,0.000000,-0.082550,-0.053391,0.000000,-0.042000,-0.088000,0.275000,-2.780000,0.610000,1.160000,-1.705023,Hold,0.367432,0.000000,Hold,-38.000000,2.000000,LowGoal,2137.500000,-2181.818182,Speed,2175.000000,-2181.818182,Speed,Off,Off,0.000000,FALSE,0,,,,
08:05:15.305 AM 03/25/2016,Teleop Enabled,10,FALSE,0,NO ERROR,-0.000000,0.834165,0.000000,0.429916,TRUE,FALSE,TRUE,FALSE,FALSE,FALSE,Disabled,0.000000,0.000000,0.000000,TRUE,-0.520874,-2.397812,0.000000,-0.079849,-0.086761,0.000000,-0.001000,0.054000,0.026000,-2.810000,0.550000,1.270000,-1.758090,Hold,0.367432,0.000000,Hold,-38.000000,2.000000,LowGoal,2145.000000,-2181.818182,Speed,2182.500000,-2181.818182,Speed,Off,Off,0.000000,FALSE,0,,,,
08:05:15.405 AM 03/25/2016,Teleop Enabled,9,FALSE,0,NO ERROR,-0.000000,0.834165,0.000000,0.429916,TRUE,FALSE,TRUE,FALSE,FALSE,FALSE,Disabled,0.000000,0.000000,0.000000,TRUE,-0.519485,-2.403687,0.000000,0.054626,-0.131424,0.000000,-0.013000,-0.061000,0.025000,-2.740000,0.660000,1.440000,-1.689342,Hold,0.367432,0.000000,Hold,-38.000000,2.000000,LowGoal,2145.000000,-2181.818182,Speed,2175.000000,-2181.818182,Speed,Off,Off,0.000000,FALSE,0,,,,
08:05:15.505 AM 03/25/2016,Teleop Enabled,11,FALSE,0,NO ERROR,-0.000000,0.834165,0.000000,0.429916,TRUE,FALSE,TRUE,FALSE,FALSE,FALSE,Disabled,0.000000,0.000000,0.000000,TRUE,-0.516281,-2.410904,0.000000,0.101486,-0.204895,0.000000,0.011000,-0.113000,-0.023000,-2.760000,0.790000,1.420000,-1.705822,Hold,0.367432,0.000000,Hold,-38.000000,2.000000,LowGoal,2145.000000,-2181.818182,Speed,2167.500000,-2181.818182,Speed,Off,Off,0.000000,FALSE,0,,,,
08:05:15.606 AM 03/25/2016,Teleop Enabled,11,FALSE,0,NO ERROR,-0.000000,0.834165,0.000000,0.429916,TRUE,FALSE,TRUE,FALSE,FALSE,FALSE,Disabled,0.000000,0.000000,0.000000,TRUE,-0.509521,-2.427246,0.000000,0.093109,-0.323364,0.000000,-0.044000,-0.093000,0.027000,-2.790000,0.830000,1.330000,-1.728316,Hold,0.367432,0.000000,Hold,-38.000000,2.000000,LowGoal,2145.000000,-2181.818182,Speed,2167.500000,-2181.818182,Speed,Off,Off,0.000000,FALSE,0,,,,
08:05:15.705 AM 03/25/2016,Teleop Enabled,10,FALSE,0,NO ERROR,-0.000000,0.834165,0.000000,0.429916,TRUE,FALSE,TRUE,FALSE,FALSE,FALSE,Disabled,0.000000,0.000000,0.000000,TRUE,-0.505981,-2.445679,0.000000,0.058929,-0.388336,0.000000,0.062000,-0.114000,0.029000,-2.760000,0.860000,1.360000,-1.708359,Hold,0.367432,0.000000,Hold,-38.000000,2.000000,LowGoal,2145.000000,-2181.818182,Speed,2182.500000,-2181.818182,Speed,Off,Off,0.000000,FALSE,0,,,,
08:05:15.805 AM 03/25/2016,Teleop Enabled,10,FALSE,0,NO ERROR,-0.000000,0.834165,0.000000,0.429916,TRUE,FALSE,TRUE,FALSE,FALSE,FALSE,Disabled,0.000000,0.000000,0.000000,TRUE,-0.502167,-2.458069,0.000000,0.082077,0.000000,0.000000,-0.020000,-0.018000,0.031000,-2.780000,0.950000,1.320000,-1.721816,Hold,0.367432,0.000000,Hold,-38.000000,2.000000,LowGoal,2145.000000,-2181.818182,Speed,2182.500000,-2181.818182,Speed,Off,Off,0.000000,FALSE,0,,,,
08:05:15.905 AM 03/25/2016,Teleop Enabled,11,FALSE,0,NO ERROR,-0.000000,0.834165,0.000000,0.429916,TRUE,FALSE,TRUE,FALSE,FALSE,FALSE,Disabled,0.000000,0.000000,0.000000,TRUE,-0.497253,-2.459854,0.000000,0.117691,-0.058701,0.000000,0.034000,-0.117000,0.196000,-2.770000,0.900000,1.340000,-1.714590,Hold,0.367432,0.000000,Hold,-38.000000,2.000000,LowGoal,2145.000000,-2181.818182,Speed,2175.000000,-2181.818182,Speed,Off,Off,0.000000,FALSE,0,,,,
08:05:16.005 AM 03/25/2016,Teleop Enabled,9,FALSE,0,NO ERROR,-0.000000,0.834165,0.000000,0.429916,TRUE,FALSE,TRUE,FALSE,FALSE,FALSE,Disabled,0.000000,0.000000,0.000000,TRUE,-0.491592,-2.464676,0.000000,0.163010,-0.159363,0.000000,0.087000,-0.132000,0.112000,-2.770000,0.920000,1.400000,-1.710173,Hold,0.367432,0.000000,Hold,-38.000000,2.000000,LowGoal,2145.000000,-2181.818182,Speed,2182.500000,-2181.818182,Speed,Off,Off,0.000000,FALSE,0,,,,
08:05:16.105 AM 03/25/2016,Teleop Enabled,9,FALSE,0,NO ERROR,-0.000000,0.834165,0.000000,0.429916,TRUE,FALSE,TRUE,FALSE,FALSE,FALSE,Disabled,0.000000,0.000000,0.000000,TRUE,-0.479156,-2.481873,0.000000,0.234848,-0.406448,0.000000,-0.082000,-0.159000,0.255000,-2.780000,1.390000,1.300000,-1.718704,Hold,0.367432,0.000000,Hold,-38.000000,2.000000,LowGoal,2145.000000,-2181.818182,Speed,2175.000000,-2181.818182,Speed,Off,Off,0.000000,FALSE,0,,,,
08:05:16.206 AM 03/25/2016,Teleop Enabled,10,FALSE,0,NO ERROR,-0.000000,0.834165,0.000000,0.429916,TRUE,FALSE,TRUE,FALSE,FALSE,FALSE,Disabled,0.000000,0.000000,0.000000,TRUE,-0.468506,-2.513794,0.000000,0.126389,-0.610703,0.000000,-0.121000,-0.115000,0.163000,-2.780000,1.370000,1.230000,-1.730774,Hold,0.367432,0.000000,Hold,-38.000000,2.000000,LowGoal,2145.000000,-2181.818182,Speed,2175.000000,-2181.818182,Speed,Off,Off,0.000000,FALSE,0,,,,
08:05:16.306 AM 03/25/2016,Teleop Enabled,9,FALSE,0,NO ERROR,-0.000000,0.834165,0.000000,0.429916,TRUE,FALSE,TRUE,FALSE,FALSE,FALSE,Disabled,0.000000,0.000000,0.000000,TRUE,-0.465103,-2.540924,0.000000,0.066071,-0.708862,0.000000,-0.099000,-0.041000,0.291000,-2.780000,1.070000,1.240000,-1.741384,Hold,0.367432,0.000000,Hold,-38.000000,2.000000,LowGoal,2145.000000,-2181.818182,Speed,2175.000000,-2181.818182,Speed,Off,Off,0.000000,FALSE,0,,,,
08:05:16.407 AM 03/25/2016,Teleop Enabled,10,FALSE,0,NO ERROR,-0.000000,0.834165,0.000000,0.429916,TRUE,FALSE,TRUE,FALSE,FALSE,FALSE,Disabled,0.000000,0.000000,0.000000,TRUE,-0.463547,-2.570236,0.000000,0.016708,0.000000,0.000000,-0.008000,-0.069000,0.206000,-2.770000,0.840000,1.360000,-1.730450,Hold,0.367432,0.000000,Hold,-38.000000,2.000000,LowGoal,2145.000000,-2181.818182,Speed,2175.000000,-2181.818182,Speed,Off,Off,0.000000,FALSE,0,,,,
08:05:16.508 AM 03/25/2016,Teleop Enabled,8,FALSE,0,NO ERROR,-0.000000,0.834165,0.000000,0.429916,TRUE,FALSE,TRUE,FALSE,FALSE,FALSE,Disabled,0.000000,0.000000,0.000000,TRUE,-0.463440,-2.572098,0.000000,0.000351,-0.068954,0.000000,0.033000,-0.049000,0.256000,-2.760000,0.790000,1.300000,-1.739680,Hold,0.367432,0.000000,Hold,-38.000000,2.000000,LowGoal,2137.500000,-2181.818182,Speed,2175.000000,-2181.818182,Speed,Off,Off,0.000000,FALSE,0,,,,
08:05:16.609 AM 03/25/2016,Teleop Enabled,6,FALSE,0,NO ERROR,-0.000000,0.834165,0.000000,0.429916,TRUE,FALSE,TRUE,FALSE,FALSE,FALSE,Disabled,0.000000,0.000000,0.000000,TRUE,-0.460907,-2.577606,0.000000,0.078873,-0.135712,0.000000,0.057000,-0.063000,0.045000,-2.770000,0.870000,1.310000,-1.746458,Hold,0.367432,0.000000,Hold,-38.000000,2.000000,LowGoal,2145.000000,-2181.818182,Speed,2175.000000,-2181.818182,Speed,Off,Off,0.000000,FALSE,0,,,,
08:05:16.710 AM 03/25/2016,Teleop Enabled,9,FALSE,0,NO ERROR,-0.000000,0.834165,0.000000,0.429916,TRUE,FALSE,TRUE,FALSE,FALSE,FALSE,Disabled,0.000000,0.000000,0.000000,TRUE,-0.455154,-2.587189,0.000000,0.127151,-0.224823,0.000000,0.068000,-0.078000,0.103000,-2.770000,0.890000,1.310000,-1.742079,Hold,0.367432,0.000000,Hold,-38.000000,2.000000,LowGoal,2152.500000,-2181.818182,Speed,2182.500000,-2181.818182,Speed,Off,Off,0.000000,FALSE,0,,,,
08:05:16.809 AM 03/25/2016,Teleop Enabled,9,FALSE,0,NO ERROR,-0.000000,0.834165,0.000000,0.429916,TRUE,FALSE,TRUE,FALSE,FALSE,FALSE,Disabled,0.000000,0.000000,0.000000,TRUE,-0.446548,-2.604568,0.000000,0.151611,-0.347900,0.000000,-0.033000,-0.072000,0.021000,-2.770000,0.790000,1.330000,-1.745291,Hold,0.367432,0.000000,Hold,-38.000000,2.000000,LowGoal,2152.500000,-2181.818182,Speed,2182.500000,-2181.818182,Speed,Off,Off,0.000000,FALSE,0,,,,
08:05:16.911 AM 03/25/2016,Teleop Enabled,10,FALSE,0,NO ERROR,-0.000000,0.834165,0.000000,0.429916,TRUE,FALSE,TRUE,FALSE,FALSE,FALSE,Disabled,0.000000,0.000000,0.000000,TRUE,-0.440414,-2.624115,0.000000,0.090836,-0.405502,0.000000,-0.041000,-0.049000,0.024000,-2.760000,0.660000,1.380000,-1.746954,Hold,0.367432,0.000000,Hold,-38.000000,2.000000,LowGoal,2152.500000,-2181.818182,Speed,2182.500000,-2181.818182,Speed,Off,Off,0.000000,FALSE,0,,,,
08:05:17.010 AM 03/25/2016,Teleop Enabled,10,FALSE,0,NO ERROR,-0.000000,0.834165,0.000000,0.429916,TRUE,FALSE,TRUE,FALSE,FALSE,FALSE,Disabled,0.000000,0.000000,0.000000,TRUE,-0.438187,-2.644302,0.000000,0.000000,-0.383728,0.000000,0.018000,0.114000,0.058000,-2.760000,0.580000,1.540000,-1.749064,Hold,0.367432,0.000000,Hold,-38.000000,2.000000,LowGoal,2145.000000,-2181.818182,Speed,2175.000000,-2181.818182,Speed,Off,Off,0.000000,FALSE,0,,,,
08:05:17.111 AM 03/25/2016,Teleop Enabled,8,FALSE,0,NO ERROR,-0.000000,0.834165,0.000000,0.429916,TRUE,FALSE,TRUE,FALSE,FALSE,FALSE,Disabled,0.000000,0.000000,0.000000,TRUE,-0.437195,-2.648117,0.000000,0.051361,-0.005203,0.000000,0.178000,-0.038000,0.049000,-2.740000,0.620000,1.650000,-1.740392,Hold,0.367432,0.000000,Hold,-38.000000,2.000000,LowGoal,2152.500000,-2181.818182,Speed,2175.000000,-2181.818182,Speed,Off,Off,0.000000,FALSE,0,,,,
08:05:17.212 AM 03/25/2016,Teleop Enabled,9,FALSE,0,NO ERROR,-0.000000,0.834165,0.000000,0.429916,TRUE,FALSE,TRUE,FALSE,FALSE,FALSE,Disabled,0.000000,0.000000,0.000000,TRUE,-0.433075,-2.648575,0.000000,0.102875,0.000000,0.000000,0.059000,-0.062000,0.167000,-2.770000,0.780000,1.650000,-1.780994,Hold,0.367432,0.000000,Hold,-38.000000,2.000000,LowGoal,2152.500000,-2181.818182,Speed,2182.500000,-2181.818182,Speed,Off,Off,0.000000,FALSE,0,,,,
08:05:17.312 AM 03/25/2016,Teleop Enabled,12,FALSE,0,NO ERROR,-0.000000,0.834165,0.000000,0.429916,TRUE,FALSE,TRUE,FALSE,FALSE,FALSE,Disabled,0.000000,0.000000,0.000000,TRUE,-0.426743,-2.650467,0.000000,0.136856,-0.082535,0.000000,0.021000,-0.233000,0.074000,-2.730000,0.820000,1.690000,-1.744134,Hold,0.367432,0.000000,Hold,-38.000000,2.000000,LowGoal,2145.000000,-2181.818182,Speed,2182.500000,-2181.818182,Speed,Off,Off,0.000000,FALSE,0,,,,
08:05:17.412 AM 03/25/2016,Teleop Enabled,9,FALSE,0,NO ERROR,-0.000000,0.834165,0.000000,0.346499,TRUE,FALSE,TRUE,FALSE,FALSE,FALSE,Disabled,0.000000,0.000000,0.000000,TRUE,-0.419998,-2.659088,0.000000,0.139206,-0.212585,0.000000,0.021000,-0.233000,0.074000,-2.770000,0.860000,1.620000,-1.799022,Hold,0.367432,0.000000,Hold,-38.000000,2.000000,LowGoal,2145.000000,-2181.818182,Speed,2182.500000,-2181.818182,Speed,Off,Off,0.000000,FALSE,0,,,,
08:05:17.513 AM 03/25/2016,Teleop Enabled,8,FALSE,0,NO ERROR,-0.000000,0.834165,0.000000,0.352916,TRUE,FALSE,TRUE,FALSE,FALSE,FALSE,Disabled,0.000000,0.000000,0.000000,TRUE,-0.412262,-2.671555,0.000000,0.142242,-0.255310,0.000000,-0.012000,0.082000,0.264000,-2.780000,1.160000,1.710000,-1.800857,Hold,0.367432,0.000000,Hold,-38.000000,2.000000,LowGoal,2145.000000,-2181.818182,Speed,2182.500000,-2181.818182,Speed,Off,Off,0.000000,FALSE,0,,,,
08:05:17.613 AM 03/25/2016,Teleop Enabled,9,FALSE,0,NO ERROR,-0.000000,0.834165,0.000000,0.352916,TRUE,FALSE,TRUE,FALSE,FALSE,FALSE,Disabled,0.000000,0.000000,0.000000,TRUE,-0.406998,-2.681976,0.000000,0.074936,-0.178635,0.000000,-0.139000,0.070000,0.263000,-2.770000,0.920000,2.030000,-1.801597,Hold,0.367432,0.000000,Hold,-38.000000,2.000000,LowGoal,2145.000000,-2181.818182,Speed,2182.500000,-2181.818182,Speed,Off,Off,0.000000,FALSE,0,,,,
08:05:17.715 AM 03/25/2016,Teleop Enabled,9,FALSE,0,NO ERROR,-0.000000,0.834165,0.000000,0.352916,TRUE,FALSE,TRUE,FALSE,FALSE,FALSE,Disabled,0.000000,0.000000,0.000000,TRUE,-0.406342,-2.690430,0.000000,-0.015030,-0.131989,0.000000,-0.139000,0.070000,0.263000,-2.750000,0.740000,2.230000,-1.791982,Hold,0.367432,0.000000,Hold,-38.000000,2.000000,LowGoal,2145.000000,-2181.818182,Speed,2182.500000,-2181.818182,Speed,Off,Off,0.000000,FALSE,0,,,,
08:05:17.814 AM 03/25/2016,Teleop Enabled,9,FALSE,0,NO ERROR,-0.000000,0.834165,0.000000,0.352916,TRUE,FALSE,TRUE,FALSE,FALSE,FALSE,Disabled,0.000000,0.000000,0.000000,TRUE,-0.405960,-2.697754,0.000000,0.028198,-0.171921,0.000000,-0.040000,-0.024000,0.266000,-2.750000,0.700000,2.340000,-1.795456,Hold,0.367432,0.000000,Hold,-38.000000,2.000000,LowGoal,2145.000000,-2181.818182,Speed,2182.500000,-2181.818182,Speed,Off,Off,0.000000,FALSE,0,,,,
08:05:17.916 AM 03/25/2016,Teleop Enabled,9,FALSE,0,NO ERROR,-0.000000,0.834165,0.000000,0.359332,TRUE,FALSE,TRUE,FALSE,FALSE,FALSE,Disabled,0.000000,0.000000,0.000000,TRUE,-0.402344,-2.709259,0.000000,0.082977,-0.271301,0.000000,-0.016000,-0.114000,-0.015000,-2.750000,0.700000,2.340000,-1.811422,Hold,0.367432,0.000000,Hold,-41.000000,2.000000,LowGoal,2145.000000,-2181.818182,Speed,2182.500000,-2181.818182,Speed,Off,Off,0.000000,FALSE,0,,,,
08:05:18.016 AM 03/25/2016,Teleop Enabled,10,FALSE,0,NO ERROR,-0.000000,0.834165,0.000000,0.384999,TRUE,FALSE,TRUE,FALSE,FALSE,FALSE,Disabled,0.000000,0.000000,0.000000,TRUE,-0.402573,-2.725769,0.000000,-0.008636,-0.359833,0.000000,-0.016000,-0.114000,-0.015000,-2.760000,0.730000,2.330000,-1.825795,Hold,0.367432,0.000000,Hold,-41.000000,2.000000,LowGoal,2145.000000,-2181.818182,Speed,2182.500000,-2181.818182,Speed,Off,Off,0.000000,FALSE,0,,,,
08:05:18.117 AM 03/25/2016,Teleop Enabled,11,FALSE,0,NO ERROR,-0.000000,0.834165,0.000000,0.384999,TRUE,FALSE,TRUE,FALSE,FALSE,FALSE,Disabled,0.000000,0.000000,0.000000,TRUE,-0.402130,-2.744629,0.000000,0.024841,-0.371979,0.000000,0.036000,0.018000,-0.135000,-2.710000,0.560000,2.070000,-1.756552,Hold,0.367432,0.000000,Hold,-41.000000,2.000000,LowGoal,2152.500000,-2181.818182,Speed,2182.500000,-2181.818182,Speed,Off,Off,0.000000,FALSE,0,,,,
08:05:18.218 AM 03/25/2016,Teleop Enabled,9,FALSE,0,NO ERROR,-0.000000,0.834165,0.000000,0.384999,TRUE,FALSE,TRUE,FALSE,FALSE,FALSE,Disabled,0.000000,0.000000,0.000000,TRUE,-0.399918,-2.764664,0.000000,0.055664,-0.428299,0.000000,0.036000,0.018000,-0.135000,-2.710000,0.560000,2.070000,-1.782952,Hold,0.367432,0.000000,Hold,-42.000000,2.000000,LowGoal,2152.500000,-2181.818182,Speed,2175.000000,-2181.818182,Speed,Off,Off,0.000000,FALSE,0,,,,
08:05:18.318 AM 03/25/2016,Teleop Enabled,11,FALSE,0,NO ERROR,-0.000000,0.834165,0.000000,0.384999,TRUE,FALSE,TRUE,FALSE,FALSE,FALSE,Disabled,0.000000,0.000000,0.000000,TRUE,-0.396866,-2.787216,0.000000,0.069534,-0.448624,0.000000,-0.020000,-0.066000,-0.105000,-2.740000,0.520000,1.890000,-1.778642,Hold,0.367432,0.000000,Hold,-42.000000,2.000000,LowGoal,2145.000000,-2181.818182,Speed,2175.000000,-2181.818182,Speed,Off,Off,0.000000,FALSE,0,,,,
08:05:18.419 AM 03/25/2016,Teleop Enabled,9,FALSE,0,NO ERROR,-0.000000,0.834165,0.000000,0.384999,TRUE,FALSE,TRUE,FALSE,FALSE,FALSE,Disabled,0.000000,0.000000,0.000000,TRUE,-0.392654,-2.809616,0.000000,0.102585,-0.443909,0.000000,0.021000,0.018000,-0.001000,-2.740000,0.310000,1.850000,-1.765798,Hold,0.367432,0.000000,Hold,-42.000000,2.000000,LowGoal,2145.000000,-2181.818182,Speed,2175.000000,-2181.818182,Speed,Off,Off,0.000000,FALSE,0,,,,
08:05:18.520 AM 03/25/2016,Teleop Enabled,11,FALSE,0,NO ERROR,-0.000000,0.834165,0.000000,0.384999,TRUE,FALSE,TRUE,FALSE,FALSE,FALSE,Disabled,0.000000,0.000000,0.000000,TRUE,-0.385117,-2.829712,0.000000,0.191788,-0.387619,0.000000,0.069000,0.089000,-0.019000,-2.720000,0.360000,1.690000,-1.762555,Hold,0.367432,0.000000,Hold,-42.000000,2.000000,LowGoal,2145.000000,-2181.818182,Speed,2175.000000,-2181.818182,Speed,Off,Off,0.000000,FALSE,0,,,,
08:05:18.621 AM 03/25/2016,Teleop Enabled,10,FALSE,0,NO ERROR,-0.000000,0.834165,0.000000,0.384999,TRUE,FALSE,TRUE,FALSE,FALSE,FALSE,Disabled,0.000000,0.000000,0.000000,TRUE,-0.373718,-2.853455,0.000000,0.241913,-0.543854,0.000000,0.090000,-0.140000,-0.066000,-2.740000,0.400000,1.610000,-1.749649,Hold,0.367432,0.000000,Hold,-42.000000,2.000000,LowGoal,2152.500000,-2181.818182,Speed,2182.500000,-2181.818182,Speed,Off,Off,0.000000,FALSE,0,,,,
08:05:18.721 AM 03/25/2016,Teleop Enabled,12,FALSE,0,NO ERROR,-0.000000,0.834165,0.000000,0.384999,TRUE,FALSE,TRUE,FALSE,FALSE,FALSE,Disabled,0.000000,0.000000,0.000000,TRUE,-0.358765,-2.895325,0.000000,0.246964,-0.807434,0.000000,0.042000,-0.220000,0.000000,-2.730000,0.120000,1.460000,-1.750537,Hold,0.367432,0.000000,Hold,-42.000000,2.000000,LowGoal,2152.500000,-2181.818182,Speed,2182.500000,-2181.818182,Speed,Off,Off,0.000000,FALSE,0,,,,
08:05:18.821 AM 03/25/2016,Teleop Enabled,10,FALSE,0,NO ERROR,-0.000000,0.834165,0.000000,0.384999,TRUE,FALSE,TRUE,FALSE,FALSE,FALSE,Disabled,0.000000,0.000000,0.000000,TRUE,-0.358765,-2.895325,0.000000,0.246964,-0.807434,0.000000,0.044000,-0.231000,0.074000,-2.720000,-0.280000,1.450000,-1.750637,Hold,0.367432,0.000000,Hold,-42.000000,2.000000,LowGoal,2145.000000,-2181.818182,Speed,2190.000000,-2181.818182,Speed,Off,Off,0.000000,FALSE,0,,,,
08:05:18.921 AM 03/25/2016,Teleop Enabled,11,FALSE,0,NO ERROR,-0.000000,0.834165,0.000000,0.384999,TRUE,FALSE,TRUE,FALSE,FALSE,FALSE,Disabled,0.000000,0.000000,0.000000,TRUE,-0.345795,-2.943466,0.000000,0.282440,-1.073715,0.000000,0.069000,-0.283000,0.067000,-2.720000,-0.670000,1.600000,-1.737989,Hold,0.367432,0.000000,Hold,-42.000000,2.000000,LowGoal,2152.500000,-2181.818182,Speed,2182.500000,-2181.818182,Speed,Off,Off,0.000000,FALSE,0,,,,
08:05:19.022 AM 03/25/2016,Teleop Enabled,11,FALSE,0,NO ERROR,-0.000000,0.834165,0.000000,0.384999,TRUE,FALSE,TRUE,FALSE,FALSE,FALSE,Disabled,0.000000,0.000000,0.000000,TRUE,-0.329056,-3.005997,0.000000,0.369843,-1.357239,0.000000,0.112000,-0.243000,0.015000,-2.720000,-0.760000,1.640000,-1.733755,Hold,0.367432,0.000000,Hold,-42.000000,2.000000,LowGoal,2152.500000,-2181.818182,Speed,2182.500000,-2181.818182,Speed,Off,Off,0.000000,FALSE,0,,,,
08:05:19.123 AM 03/25/2016,Teleop Enabled,10,FALSE,0,NO ERROR,-0.000000,0.834165,0.000000,0.384999,TRUE,FALSE,TRUE,FALSE,FALSE,FALSE,Disabled,0.000000,0.000000,0.000000,TRUE,-0.308640,-3.079956,0.000000,0.416458,-1.543304,0.000000,-0.012000,-0.195000,0.040000,-2.710000,-0.740000,1.610000,-1.733755,Hold,0.367432,0.000000,Hold,-42.000000,2.000000,LowGoal,2152.500000,-2181.818182,Speed,2190.000000,-2181.818182,Speed,Off,Off,0.000000,FALSE,0,,,,
08:05:19.223 AM 03/25/2016,Teleop Enabled,10,FALSE,0,NO ERROR,-0.000000,0.834165,0.000000,0.384999,TRUE,FALSE,TRUE,FALSE,FALSE,FALSE,Disabled,0.000000,0.000000,0.000000,TRUE,-0.309021,-3.162750,0.000000,-0.009186,-1.723892,0.000000,-0.004000,-0.098000,-0.017000,-2.710000,-0.670000,1.550000,-1.737383,Hold,0.367432,0.000000,Hold,-42.000000,2.000000,LowGoal,2145.000000,-2181.818182,Speed,2190.000000,-2181.818182,Speed,Off,Off,0.000000,FALSE,0,,,,
08:05:19.323 AM 03/25/2016,Teleop Enabled,10,FALSE,0,NO ERROR,-0.000000,0.834165,0.000000,0.384999,TRUE,FALSE,TRUE,FALSE,FALSE,FALSE,Disabled,0.000000,0.000000,0.000000,TRUE,-0.308182,-3.252136,0.000000,0.050537,-1.818939,0.000000,0.112000,-0.057000,0.106000,-2.720000,-0.550000,1.630000,-1.734498,Hold,0.367432,0.000000,Hold,-42.000000,2.000000,LowGoal,2145.000000,-2181.818182,Speed,2182.500000,-2181.818182,Speed,Off,Off,0.000000,FALSE,0,,,,
08:05:19.423 AM 03/25/2016,Teleop Enabled,10,FALSE,0,NO ERROR,-0.000000,0.834165,0.000000,0.384999,TRUE,FALSE,TRUE,FALSE,FALSE,FALSE,Disabled,0.000000,0.000000,0.000000,TRUE,-0.303360,-3.343887,0.000000,0.115448,-1.843536,0.000000,-0.020000,-0.028000,0.000000,-2.710000,-0.510000,1.680000,-1.738760,Hold,0.367432,0.000000,Hold,-42.000000,2.000000,LowGoal,2152.500000,-2181.818182,Speed,2182.500000,-2181.818182,Speed,Off,Off,0.000000,FALSE,0,,,,
08:05:19.523 AM 03/25/2016,Teleop Enabled,10,FALSE,0,NO ERROR,-0.000000,0.834165,0.000000,0.384999,TRUE,FALSE,TRUE,FALSE,FALSE,FALSE,Disabled,0.000000,0.000000,0.000000,TRUE,-0.298141,-3.436478,0.000000,0.089325,-1.840118,0.000000,0.022000,-0.020000,-0.212000,-2.710000,-0.530000,1.710000,-1.742740,Hold,0.367432,0.000000,Hold,-42.000000,2.000000,LowGoal,2152.500000,-2181.818182,Speed,2190.000000,-2181.818182,Speed,Off,Off,0.000000,FALSE,0,,,,
08:05:19.623 AM 03/25/2016,Teleop Enabled,10,FALSE,0,NO ERROR,-0.000000,0.834165,0.000000,0.384999,TRUE,FALSE,TRUE,FALSE,FALSE,FALSE,Disabled,0.000000,0.000000,0.000000,TRUE,-0.295609,-3.526505,0.000000,0.000000,-1.753693,0.000000,-0.016000,0.137000,-0.168000,-2.710000,-0.560000,1.790000,-1.739821,Hold,0.367432,0.000000,Hold,-42.000000,2.000000,LowGoal,2145.000000,-2181.818182,Speed,2190.000000,-2181.818182,Speed,Off,Off,0.000000,FALSE,0,,,,
08:05:19.723 AM 03/25/2016,Teleop Enabled,10,FALSE,0,NO ERROR,-0.000000,0.834165,0.000000,0.384999,TRUE,FALSE,TRUE,FALSE,FALSE,FALSE,Disabled,0.000000,0.000000,0.000000,TRUE,-0.297455,-3.609589,0.000000,-0.067261,-1.593842,0.000000,-0.056000,0.212000,-0.253000,-2.710000,-0.540000,1.850000,-1.740182,Hold,0.367432,0.000000,Hold,-42.000000,2.000000,LowGoal,2152.500000,-2181.818182,Speed,2182.500000,-2181.818182,Speed,Off,Off,0.000000,FALSE,0,,,,
08:05:19.823 AM 03/25/2016,Teleop Enabled,10,FALSE,0,NO ERROR,-0.000000,0.834165,0.000000,0.384999,TRUE,FALSE,TRUE,FALSE,FALSE,FALSE,Disabled,0.000000,0.000000,0.000000,TRUE,-0.302826,-3.683975,0.000000,-0.142563,-1.426773,0.000000,-0.099000,0.174000,-0.283000,-2.710000,-0.570000,1.750000,-1.724584,Hold,0.367432,0.000000,Hold,-42.000000,2.000000,LowGoal,2152.500000,-2181.818182,Speed,2190.000000,-2181.818182,Speed,Off,Off,0.000000,FALSE,0,,,,
08:05:19.923 AM 03/25/2016,Teleop Enabled,10,FALSE,0,NO ERROR,-0.000000,0.834165,0.000000,0.384999,TRUE,FALSE,TRUE,FALSE,FALSE,FALSE,Disabled,0.000000,0.000000,0.000000,TRUE,-0.317230,-3.761902,0.000000,-0.312286,-1.186707,0.000000,-0.136000,0.250000,-0.291000,-2.690000,-1.010000,1.740000,-1.730502,Hold,0.367432,0.000000,Hold,-42.000000,2.000000,LowGoal,2145.000000,-2181.818182,Speed,2182.500000,-2181.818182,Speed,Off,Off,0.000000,FALSE,0,,,,
08:05:20.024 AM 03/25/2016,Teleop Enabled,10,FALSE,0,NO ERROR,-0.000000,0.834165,0.000000,0.384999,TRUE,FALSE,TRUE,FALSE,FALSE,FALSE,Disabled,0.000000,0.000000,0.000000,TRUE,-0.337234,-3.813812,0.000000,-0.470200,-0.940811,0.000000,-0.209000,0.245000,-0.336000,-2.690000,-1.260000,1.780000,-1.738000,Hold,0.367432,0.000000,Hold,-42.000000,2.000000,LowGoal,2145.000000,-2181.818182,Speed,2182.500000,-2181.818182,Speed,Off,Off,0.000000,FALSE,0,,,,
08:05:20.123 AM 03/25/2016,Teleop Enabled,9,FALSE,0,NO ERROR,-0.000000,0.834165,0.000000,0.384999,TRUE,FALSE,TRUE,FALSE,FALSE,FALSE,Disabled,0.000000,0.000000,0.000000,TRUE,-0.364395,-3.852234,0.000000,-0.571533,-0.659500,0.000000,-0.053000,0.223000,-0.365000,-2.690000,-1.220000,1.860000,-1.750682,Hold,0.367432,0.000000,Hold,-42.000000,2.000000,LowGoal,2152.500000,-2181.818182,Speed,2190.000000,-2181.818182,Speed,Off,Off,0.000000,FALSE,0,,,,
