Time,Robot Mode,Loop Time,Error Status,Error Code,Error Source,Left Motor Output,Left Motor Encoder,Right Motor Output,Right Motor Encoder,Is Level,Is Stalled,Ball Detector Photoeye,Vision Enabled,Vision Teleop Control,Vision Auto Control,Vision Current State,Vision X Output,Vision NavX Error,Vision NavX Target,NavX Connection Status,NavX Displacement X,NavX Displacement Y,NavX Displacement Z,NavX Velocity X,NavX Velocity Y,NavX Velocity Z,NavX Acceleration X,NavX Acceleration Y,NavX Acceleration Z,NavX Pitch,NavX Yaw,NavX Roll,Gyro Angle,Roller Arm State,Roller Arm Actual,Roller Arm Desired,Shooter Arm State,Shooter Arm Actual,Shooter Arm Desired,Shooter State,Actual RPM Left,Desired RPM Left,Control Mode Left,Actual RPM Right,Desired RPM Right,Control Mode Right,Ball Shooter Cylinder,Ball Halo Cylinder,Scaler Motor Output,Scaler Solenoid Fire,Auto To Run,Auto Current File,Auto File Status,Auto Current Command,Auto Trimmed Command
08:51:07.525 PM 03/24/2016,Teleop Enabled,9,TRUE,-44003,<LOCATION>WPI_CameraIssue HTTP Request with Authentication.vi<CALLSTACK>WPI_CameraIssue HTTP Request with Authentication.vi< <WPI_CameraIssue Get.vi< <WPI_CameraSet Image Appearance Property.vi< <WPI_CameraSet Image Size.vi< <Vision Processing.vi< <Robot Main.vi,-0.000000,0.019250,0.000000,0.141166,TRUE,FALSE,FALSE,FALSE,FALSE,FALSE,Disabled,0.000000,0.000000,0.000000,TRUE,-0.001617,0.003204,0.000000,-0.029037,0.011566,0.000000,-0.296000,0.123000,0.482000,-0.700000,-0.220000,1.610000,-3.422887,ResetBack,-62.132568,-0.000049,ResetBack,24072.000000,-0.150000,Suck,-22.500000,2400.000000,Speed,-22.500000,2400.000000,Speed,Off,On,0.000000,FALSE,0,,,,
08:51:07.626 PM 03/24/2016,Teleop Enabled,10,FALSE,0,NO ERROR,-0.000000,0.006417,0.000000,0.134750,TRUE,FALSE,FALSE,FALSE,FALSE,FALSE,Disabled,0.000000,0.000000,0.000000,TRUE,-0.003967,0.006516,0.000000,0.000000,0.075409,0.000000,-0.005000,-0.054000,0.013000,-0.700000,-0.260000,1.700000,-3.420488,ResetBack,-63.519043,-0.000049,ResetBack,24077.000000,-0.150000,Suck,-202.500000,2400.000000,Speed,-570.000000,2400.000000,Speed,Off,On,0.000000,FALSE,0,,,,
08:51:07.727 PM 03/24/2016,Teleop Enabled,10,FALSE,0,NO ERROR,-0.000000,0.006417,0.000000,0.134750,TRUE,FALSE,FALSE,FALSE,FALSE,FALSE,Disabled,0.000000,0.000000,0.000000,TRUE,-0.004150,0.009323,0.000000,-0.011932,0.050415,0.000000,-0.005000,-0.054000,0.013000,-0.710000,-0.350000,1.590000,-3.431559,ResetBack,-64.099854,-0.000049,ResetBack,24079.000000,-0.150000,Suck,-592.500000,2400.000000,Speed,-1275.000000,2400.000000,Speed,Off,On,0.000000,FALSE,0,,,,
08:51:07.829 PM 03/24/2016,Teleop Enabled,9,FALSE,0,NO ERROR,-0.000000,0.006417,0.000000,0.134750,TRUE,FALSE,FALSE,FALSE,FALSE,FALSE,Disabled,0.000000,0.000000,0.000000,TRUE,-0.008163,0.014069,0.000000,-0.101471,0.136536,0.000000,-0.181000,0.136000,-0.058000,-0.700000,-0.570000,1.640000,-3.412770,Reset,-64.099854,-0.000049,ResetBack,24083.000000,-0.150000,Suck,-960.000000,2400.000000,Speed,-1747.500000,2400.000000,Speed,Off,On,0.000000,FALSE,0,,,,
08:51:07.929 PM 03/24/2016,Teleop Enabled,8,FALSE,0,NO ERROR,-0.000000,0.006417,0.000000,0.134750,TRUE,FALSE,FALSE,FALSE,FALSE,FALSE,Disabled,0.000000,0.000000,0.000000,TRUE,-0.012970,0.019897,0.000000,-0.114792,0.115875,0.000000,-0.181000,0.136000,-0.058000,-0.690000,-0.710000,1.540000,-3.424967,Hold,-64.099854,0.000000,ResetBack,24083.000000,-0.150000,Suck,-1237.500000,2400.000000,Speed,-2212.500000,2400.000000,Speed,Off,On,0.000000,FALSE,0,,,,
08:51:08.030 PM 03/24/2016,Teleop Enabled,7,FALSE,0,NO ERROR,-0.000000,0.006417,0.000000,0.134750,TRUE,FALSE,FALSE,FALSE,FALSE,FALSE,Disabled,0.000000,0.000000,0.000000,TRUE,-0.020920,0.026382,0.000000,-0.168610,0.141525,0.000000,0.033000,-0.266000,0.305000,-0.700000,-0.820000,1.500000,-3.438475,Hold,0.000000,0.000000,ResetBack,24091.000000,-0.150000,Suck,-1515.000000,2400.000000,Speed,-2445.000000,2400.000000,Speed,Off,On,0.000000,FALSE,0,,,,
08:51:08.130 PM 03/24/2016,Teleop Enabled,5,FALSE,0,NO ERROR,-0.000000,0.006417,0.000000,0.134750,TRUE,FALSE,FALSE,FALSE,FALSE,FALSE,Disabled,0.000000,0.000000,0.000000,TRUE,-0.026138,0.031525,0.000000,0.000000,0.153214,0.000000,0.033000,-0.266000,0.305000,-0.700000,-0.760000,1.480000,-3.445402,Hold,0.000000,0.000000,ResetBack,24097.000000,-0.150000,Suck,-1777.500000,2400.000000,Speed,-2415.000000,2400.000000,Speed,Off,On,0.000000,FALSE,0,,,,
08:51:08.231 PM 03/24/2016,Teleop Enabled,9,FALSE,0,NO ERROR,-0.000000,0.006417,0.000000,0.134750,TRUE,FALSE,FALSE,FALSE,FALSE,FALSE,Disabled,0.000000,0.000000,0.000000,TRUE,-0.025558,0.045212,0.000000,0.023727,0.205765,0.000000,0.047000,-0.174000,0.257000,-0.700000,-0.670000,1.550000,-3.449306,Hold,0.000000,0.000000,ResetBack,24104.000000,-0.150000,Suck,-1995.000000,2400.000000,Speed,-2355.000000,2400.000000,Speed,Off,On,0.000000,FALSE,0,,,,
08:51:08.332 PM 03/24/2016,Teleop Enabled,9,FALSE,0,NO ERROR,-0.000000,0.006417,0.000000,0.134750,TRUE,FALSE,FALSE,FALSE,FALSE,FALSE,Disabled,0.000000,0.000000,0.000000,TRUE,-0.024719,0.053192,0.000000,0.018646,0.130157,0.000000,-0.006000,-0.066000,-0.149000,-0.700000,-0.860000,1.340000,-3.461644,Hold,0.000000,0.000000,ResetBack,24111.000000,-0.150000,Suck,-2197.500000,2400.000000,Speed,-2347.500000,2400.000000,Speed,Off,On,0.000000,FALSE,0,,,,
08:51:08.432 PM 03/24/2016,Teleop Enabled,10,FALSE,0,NO ERROR,-0.000000,0.006417,0.000000,0.134750,TRUE,FALSE,FALSE,FALSE,FALSE,FALSE,Disabled,0.000000,0.000000,0.000000,TRUE,-0.023712,0.060989,0.000000,0.049973,0.174057,0.000000,-0.006000,-0.066000,-0.149000,-0.710000,-0.770000,1.140000,-3.473923,Hold,0.000000,0.000000,ResetBack,24122.000000,-0.150000,Suck,-2190.000000,2400.000000,Speed,-2370.000000,2400.000000,Speed,Off,On,0.000000,FALSE,0,,,,
08:51:08.532 PM 03/24/2016,Teleop Enabled,11,FALSE,0,NO ERROR,-0.000000,0.006417,0.000000,0.134750,TRUE,FALSE,FALSE,FALSE,FALSE,FALSE,Disabled,0.000000,0.000000,0.000000,TRUE,-0.023712,0.060989,0.000000,0.049973,0.174057,0.000000,0.094000,-0.256000,-0.188000,-0.710000,-0.660000,1.080000,-3.464800,Hold,0.000000,0.000000,ResetBack,24122.000000,-0.150000,Suck,-2190.000000,2400.000000,Speed,-2385.000000,2400.000000,Speed,Off,On,0.000000,FALSE,0,,,,
08:51:08.635 PM 03/24/2016,Teleop Enabled,12,FALSE,0,NO ERROR,-0.000000,0.006417,0.000000,0.134750,TRUE,FALSE,FALSE,FALSE,FALSE,FALSE,Disabled,0.000000,0.000000,0.000000,TRUE,-0.011871,0.068298,0.000000,0.117294,0.161621,0.000000,0.072000,0.078000,-0.089000,-0.710000,-0.550000,1.210000,-3.461582,Hold,0.000000,0.000000,ResetBack,24187.000000,-0.150000,Suck,-2220.000000,2400.000000,Speed,-2362.500000,2400.000000,Speed,Off,On,0.000000,FALSE,0,,,,
08:51:08.736 PM 03/24/2016,Teleop Enabled,10,FALSE,0,NO ERROR,-0.000000,0.012833,0.000000,0.134750,TRUE,FALSE,FALSE,FALSE,FALSE,FALSE,Disabled,0.000000,0.000000,0.000000,TRUE,-0.011871,0.068298,0.000000,0.117294,0.161621,0.000000,0.026000,0.019000,-0.221000,-0.720000,-0.400000,1.290000,-3.453364,Hold,0.000000,0.000000,Reset,24187.000000,2.000000,Suck,-2272.500000,2400.000000,Speed,-2355.000000,2400.000000,Speed,Off,On,0.000000,FALSE,0,,,,
08:51:08.837 PM 03/24/2016,Teleop Enabled,11,FALSE,0,NO ERROR,-0.000000,0.012833,0.000000,0.134750,TRUE,FALSE,FALSE,FALSE,FALSE,FALSE,Disabled,0.000000,0.000000,0.000000,TRUE,0.004593,0.080643,0.000000,0.180527,0.119308,0.000000,0.014000,-0.050000,0.186000,-0.720000,-0.420000,1.240000,-3.463248,Hold,0.000000,0.000000,Hold,-3.000000,2.000000,Suck,-2287.500000,2400.000000,Speed,-2377.500000,2400.000000,Speed,Off,On,0.000000,FALSE,0,,,,
08:51:08.937 PM 03/24/2016,Teleop Enabled,11,FALSE,0,NO ERROR,-0.000000,0.012833,0.000000,0.134750,TRUE,FALSE,FALSE,FALSE,FALSE,FALSE,Disabled,0.000000,0.000000,0.000000,TRUE,0.014847,0.086914,0.000000,0.221741,0.088577,0.000000,0.075000,0.094000,-0.083000,-0.720000,-0.430000,1.270000,-3.458831,Hold,0.000000,0.000000,Hold,-3.000000,2.000000,Suck,-2257.500000,2400.000000,Speed,-2370.000000,2400.000000,Speed,Off,On,0.000000,FALSE,0,,,,
08:51:09.037 PM 03/24/2016,Teleop Enabled,10,FALSE,0,NO ERROR,-0.000000,0.012833,0.000000,0.134750,TRUE,FALSE,FALSE,FALSE,FALSE,FALSE,Disabled,0.000000,0.000000,0.000000,TRUE,0.014847,0.086914,0.000000,0.221741,0.088577,0.000000,-0.016000,-0.040000,0.219000,-0.720000,-0.520000,1.080000,-3.452476,Hold,0.000000,0.000000,Hold,-3.000000,2.000000,Suck,-2227.500000,2400.000000,Speed,-2362.500000,2400.000000,Speed,Off,On,0.000000,FALSE,0,,,,
08:51:09.138 PM 03/24/2016,Teleop Enabled,9,FALSE,0,NO ERROR,-0.000000,0.012833,0.000000,0.134750,TRUE,FALSE,FALSE,FALSE,FALSE,FALSE,Disabled,0.000000,0.000000,0.000000,TRUE,0.036911,0.095093,0.000000,0.241547,0.143158,0.000000,-0.086000,0.107000,-0.463000,-0.730000,-0.210000,1.350000,-3.440751,Hold,0.000000,0.000000,Hold,-4.000000,2.000000,Suck,-2197.500000,2400.000000,Speed,-2362.500000,2400.000000,Speed,Off,On,0.000000,FALSE,0,,,,
08:51:09.240 PM 03/24/2016,Teleop Enabled,10,FALSE,0,NO ERROR,-0.000000,0.012833,0.000000,0.134750,TRUE,FALSE,FALSE,FALSE,FALSE,FALSE,Disabled,0.000000,0.000000,0.000000,TRUE,0.049149,0.100525,0.000000,0.222702,0.071808,0.000000,0.012000,-0.025000,-0.081000,-0.730000,-0.310000,1.310000,-3.436902,Hold,0.000000,0.000000,Hold,-4.000000,2.000000,Suck,-2197.500000,2400.000000,Speed,-2355.000000,2400.000000,Speed,Off,On,0.000000,FALSE,0,,,,
08:51:09.340 PM 03/24/2016,Teleop Enabled,11,FALSE,0,NO ERROR,-0.000000,0.012833,0.000000,0.134750,TRUE,FALSE,FALSE,FALSE,FALSE,FALSE,Disabled,0.000000,0.000000,0.000000,TRUE,0.055664,0.104034,0.000000,0.092209,0.083374,0.000000,-0.123000,-0.048000,0.005000,-0.720000,-0.890000,0.990000,-3.427359,Hold,0.000000,0.000000,Hold,-4.000000,2.000000,Suck,-2175.000000,2400.000000,Speed,-2355.000000,2400.000000,Speed,Off,On,0.000000,FALSE,0,,,,
08:51:09.440 PM 03/24/2016,Teleop Enabled,11,FALSE,0,NO ERROR,-0.000000,0.012833,0.000000,0.134750,TRUE,FALSE,FALSE,FALSE,FALSE,FALSE,Disabled,0.000000,0.000000,0.000000,TRUE,0.055664,0.104034,0.000000,0.092209,0.083374,0.000000,-0.129000,-0.057000,-0.351000,-0.720000,-1.100000,0.970000,-3.440647,Hold,0.000000,0.000000,Hold,-5.000000,2.000000,Suck,-2175.000000,2400.000000,Speed,-2370.000000,2400.000000,Speed,Off,On,0.000000,FALSE,0,,,,
08:51:09.541 PM 03/24/2016,Teleop Enabled,9,FALSE,0,NO ERROR,-0.000000,0.012833,0.000000,0.134750,TRUE,FALSE,FALSE,FALSE,FALSE,FALSE,Disabled,0.000000,0.000000,0.000000,TRUE,0.060867,0.102615,0.000000,0.118286,-0.072784,0.000000,-0.045000,-0.006000,0.111000,-0.720000,-1.100000,0.970000,-3.423707,Hold,0.000000,0.000000,Hold,-5.000000,2.000000,Suck,-2175.000000,2400.000000,Speed,-2377.500000,2400.000000,Speed,Off,On,0.000000,FALSE,0,,,,
08:51:09.643 PM 03/24/2016,Teleop Enabled,10,FALSE,0,NO ERROR,-0.000000,0.012833,0.000000,0.134750,TRUE,FALSE,FALSE,FALSE,FALSE,FALSE,Disabled,0.000000,0.000000,0.000000,TRUE,0.064560,0.101624,0.000000,0.052322,0.021942,0.000000,-0.023000,0.155000,-0.317000,-0.720000,-1.270000,0.990000,-3.416587,Hold,0.000000,0.000000,Hold,-5.000000,2.000000,Suck,-2175.000000,2400.000000,Speed,-2362.500000,2400.000000,Speed,Off,On,0.000000,FALSE,0,,,,
08:51:09.743 PM 03/24/2016,Teleop Enabled,10,FALSE,0,NO ERROR,-0.000000,0.012833,0.000000,0.134750,TRUE,FALSE,FALSE,FALSE,FALSE,FALSE,Disabled,0.000000,0.000000,0.000000,TRUE,0.067520,0.101761,0.000000,0.084427,-0.057968,0.000000,0.058000,-0.155000,0.180000,-0.730000,-1.150000,1.030000,-3.416587,Hold,0.000000,0.000000,Hold,-5.000000,2.000000,Suck,-2250.000000,2400.000000,Speed,-2347.500000,2400.000000,Speed,Off,On,0.000000,FALSE,0,,,,
08:51:09.843 PM 03/24/2016,Teleop Enabled,9,FALSE,0,NO ERROR,-0.000000,0.012833,0.000000,0.134750,TRUE,FALSE,FALSE,FALSE,FALSE,FALSE,Disabled,0.000000,0.000000,0.000000,TRUE,0.070816,0.100128,0.000000,0.042358,0.011429,0.000000,-0.068000,0.230000,-0.194000,-0.730000,-1.040000,1.140000,-3.440265,Hold,0.000000,0.000000,Hold,-5.000000,2.000000,Suck,-2287.500000,2400.000000,Speed,-2362.500000,2400.000000,Speed,Off,On,0.000000,FALSE,0,,,,
08:51:09.944 PM 03/24/2016,Teleop Enabled,10,FALSE,0,NO ERROR,-0.000000,0.012833,0.000000,0.134750,TRUE,FALSE,FALSE,FALSE,FALSE,FALSE,Disabled,0.000000,0.000000,0.000000,TRUE,0.073227,0.104095,0.000000,0.059631,0.065765,0.000000,0.092000,-0.135000,0.337000,-0.740000,-0.870000,1.270000,-3.440265,Hold,0.000000,0.000000,Hold,-5.000000,2.000000,Suck,-2272.500000,2400.000000,Speed,-2370.000000,2400.000000,Speed,Off,On,0.000000,FALSE,0,,,,
08:51:10.046 PM 03/24/2016,Teleop Enabled,9,FALSE,0,NO ERROR,-0.000000,0.012833,0.000000,0.134750,TRUE,FALSE,FALSE,FALSE,FALSE,FALSE,Disabled,0.000000,0.000000,0.000000,TRUE,0.077652,0.104111,0.000000,0.109985,-0.024216,0.000000,0.043000,0.072000,-0.080000,-0.740000,-0.670000,1.200000,-3.431497,Hold,0.000000,0.000000,Hold,-5.000000,2.000000,Suck,-2220.000000,2400.000000,Speed,-2370.000000,2400.000000,Speed,Off,On,0.000000,FALSE,0,,,,
08:51:10.146 PM 03/24/2016,Teleop Enabled,11,FALSE,0,NO ERROR,-0.000000,0.012833,0.000000,0.134750,TRUE,FALSE,FALSE,FALSE,FALSE,FALSE,Disabled,0.000000,0.000000,0.000000,TRUE,0.086365,0.107040,0.000000,0.169037,0.081985,0.000000,-0.116000,-0.113000,-0.038000,-0.740000,-0.530000,1.380000,-3.425455,Hold,0.000000,0.000000,Hold,-5.000000,2.000000,Suck,-2235.000000,2400.000000,Speed,-2370.000000,2400.000000,Speed,Off,On,0.000000,FALSE,0,,,,
08:51:10.246 PM 03/24/2016,Teleop Enabled,11,FALSE,0,NO ERROR,-0.000000,0.012833,0.000000,0.134750,TRUE,FALSE,FALSE,FALSE,FALSE,FALSE,Disabled,0.000000,0.000000,0.000000,TRUE,0.094131,0.107239,0.000000,0.212463,-0.017273,0.000000,0.004000,0.089000,0.032000,-0.740000,-0.530000,1.300000,-3.442902,Hold,0.000000,0.000000,Hold,-5.000000,2.000000,Suck,-2272.500000,2400.000000,Speed,-2362.500000,2400.000000,Speed,Off,On,0.000000,FALSE,0,,,,
08:51:10.346 PM 03/24/2016,Teleop Enabled,10,FALSE,0,NO ERROR,-0.000000,0.012833,0.000000,0.134750,TRUE,FALSE,FALSE,FALSE,FALSE,FALSE,Disabled,0.000000,0.000000,0.000000,TRUE,0.104965,0.110596,0.000000,0.160904,0.151581,0.000000,0.009000,0.062000,-0.242000,-0.740000,-0.510000,1.310000,-3.449302,Hold,0.000000,0.000000,Hold,-5.000000,2.000000,Suck,-2287.500000,2400.000000,Speed,-2370.000000,2400.000000,Speed,Off,On,0.000000,FALSE,0,,,,
08:51:10.446 PM 03/24/2016,Teleop Enabled,10,FALSE,0,NO ERROR,-0.000000,0.012833,0.000000,0.134750,TRUE,FALSE,FALSE,FALSE,FALSE,FALSE,Disabled,0.000000,0.000000,0.000000,TRUE,0.113144,0.114975,0.000000,0.180527,0.046478,0.000000,0.061000,-0.107000,0.297000,-0.750000,-0.450000,1.310000,-3.444940,Hold,0.000000,0.000000,Hold,-5.000000,2.000000,Suck,-2257.500000,2400.000000,Speed,-2370.000000,2400.000000,Speed,Off,On,0.000000,FALSE,0,,,,
08:51:10.547 PM 03/24/2016,Teleop Enabled,10,FALSE,0,NO ERROR,-0.000000,0.012833,0.000000,0.134750,TRUE,FALSE,FALSE,FALSE,FALSE,FALSE,Disabled,0.000000,0.000000,0.000000,TRUE,0.122116,0.118057,0.000000,0.151474,0.096939,0.000000,0.015000,-0.015000,-0.182000,-0.750000,-0.430000,1.340000,-3.437246,Hold,0.000000,0.000000,Hold,-5.000000,2.000000,Suck,-2227.500000,2400.000000,Speed,-2370.000000,2400.000000,Speed,Off,On,0.000000,FALSE,0,,,,
08:51:10.649 PM 03/24/2016,Teleop Enabled,10,FALSE,0,NO ERROR,-0.000000,0.012833,0.000000,0.134750,TRUE,FALSE,FALSE,FALSE,FALSE,FALSE,Disabled,0.000000,0.000000,0.000000,TRUE,0.130173,0.120636,0.000000,0.195816,-0.003311,0.000000,0.060000,0.028000,0.307000,-0.760000,-0.340000,1.350000,-3.447739,Hold,0.000000,0.000000,Hold,-5.000000,2.000000,Suck,-2235.000000,2400.000000,Speed,-2362.500000,2400.000000,Speed,Off,On,0.000000,FALSE,0,,,,
08:51:10.749 PM 03/24/2016,Teleop Enabled,9,FALSE,0,NO ERROR,-0.000000,0.012833,0.000000,0.134750,TRUE,FALSE,FALSE,FALSE,FALSE,FALSE,Disabled,0.000000,0.000000,0.000000,TRUE,0.140564,0.121582,0.000000,0.173233,0.054230,0.000000,-0.032000,0.148000,-0.495000,-0.750000,-0.380000,1.310000,-3.448596,Hold,0.000000,0.000000,Hold,-5.000000,2.000000,Suck,-2235.000000,2400.000000,Speed,-2370.000000,2400.000000,Speed,Off,On,0.000000,FALSE,0,,,,
08:51:10.849 PM 03/24/2016,Teleop Enabled,8,FALSE,0,NO ERROR,-0.000000,0.012833,0.000000,0.134750,TRUE,FALSE,FALSE,FALSE,FALSE,FALSE,Disabled,0.000000,0.000000,0.000000,TRUE,0.148666,0.126144,0.000000,0.192078,0.050690,0.000000,0.032000,-0.074000,0.166000,-0.760000,-0.340000,1.310000,-3.458958,Hold,0.000000,0.000000,Hold,-5.000000,2.000000,Suck,-2235.000000,2400.000000,Speed,-2385.000000,2400.000000,Speed,Off,On,0.000000,FALSE,0,,,,
08:51:10.949 PM 03/24/2016,Teleop Enabled,8,FALSE,0,NO ERROR,-0.000000,0.012833,0.000000,0.134750,TRUE,FALSE,FALSE,FALSE,FALSE,FALSE,Disabled,0.000000,0.000000,0.000000,TRUE,0.158707,0.128220,0.000000,0.177109,0.066910,0.000000,-0.065000,0.151000,-0.360000,-0.760000,-0.250000,1.240000,-3.470102,Hold,0.000000,0.000000,Hold,-5.000000,2.000000,Suck,-2250.000000,2400.000000,Speed,-2377.500000,2400.000000,Speed,Off,On,0.000000,FALSE,0,,,,
08:51:11.048 PM 03/24/2016,Teleop Enabled,10,FALSE,0,NO ERROR,-0.000000,0.012833,0.000000,0.134750,TRUE,FALSE,FALSE,FALSE,FALSE,FALSE,Disabled,0.000000,0.000000,0.000000,TRUE,0.166626,0.135361,0.000000,0.159836,0.165207,0.000000,0.031000,-0.078000,0.241000,-0.770000,-0.120000,1.350000,-3.467131,Hold,0.000000,0.000000,Hold,-6.000000,2.000000,Suck,-2227.500000,2400.000000,Speed,-2370.000000,2400.000000,Speed,Off,On,0.000000,FALSE,0,,,,
08:51:11.151 PM 03/24/2016,Teleop Enabled,9,FALSE,0,NO ERROR,-0.000000,0.012833,0.000000,0.134750,TRUE,FALSE,FALSE,FALSE,FALSE,FALSE,Disabled,0.000000,0.000000,0.000000,TRUE,0.173904,0.142715,0.000000,0.132660,0.148132,0.000000,-0.074000,0.070000,0.093000,-0.760000,-0.220000,1.390000,-3.457929,Hold,0.000000,0.000000,Hold,-6.000000,2.000000,Suck,-2227.500000,2400.000000,Speed,-2362.500000,2400.000000,Speed,Off,On,0.000000,FALSE,0,,,,
08:51:11.251 PM 03/24/2016,Teleop Enabled,9,FALSE,0,NO ERROR,-0.000000,0.012833,0.000000,0.134750,TRUE,FALSE,FALSE,FALSE,FALSE,FALSE,Disabled,0.000000,0.000000,0.000000,TRUE,0.179550,0.151382,0.000000,0.114731,0.198181,0.000000,0.090000,-0.175000,0.231000,-0.770000,-0.130000,1.440000,-3.447150,Hold,0.000000,0.000000,Hold,-6.000000,2.000000,Suck,-2250.000000,2400.000000,Speed,-2362.500000,2400.000000,Speed,Off,On,0.000000,FALSE,0,,,,
08:51:11.353 PM 03/24/2016,Teleop Enabled,11,FALSE,0,NO ERROR,-0.000000,0.012833,0.000000,0.134750,TRUE,FALSE,FALSE,FALSE,FALSE,FALSE,Disabled,0.000000,0.000000,0.000000,TRUE,0.187057,0.157150,0.000000,0.174652,0.039642,0.000000,0.016000,-0.125000,-0.024000,-0.770000,-0.290000,1.230000,-3.446490,Hold,0.000000,0.000000,Hold,-6.000000,2.000000,Suck,-2227.500000,2400.000000,Speed,-2370.000000,2400.000000,Speed,Off,On,0.000000,FALSE,0,,,,
08:51:11.453 PM 03/24/2016,Teleop Enabled,10,FALSE,0,NO ERROR,-0.000000,0.012833,0.000000,0.134750,TRUE,FALSE,FALSE,FALSE,FALSE,FALSE,Disabled,0.000000,0.000000,0.000000,TRUE,0.188477,0.158722,0.000000,-0.017181,0.087845,0.000000,0.064000,0.125000,-0.287000,-0.770000,-0.260000,1.220000,-3.456655,Hold,0.000000,0.000000,Hold,-6.000000,2.000000,Suck,-2250.000000,2400.000000,Speed,-2377.500000,2400.000000,Speed,Off,On,0.000000,FALSE,0,,,,
08:51:11.554 PM 03/24/2016,Teleop Enabled,10,FALSE,0,NO ERROR,-0.000000,0.012833,0.000000,0.134750,TRUE,FALSE,FALSE,FALSE,FALSE,FALSE,Disabled,0.000000,0.000000,0.000000,TRUE,0.188232,0.163849,0.000000,0.005936,0.047760,0.000000,-0.075000,0.004000,0.202000,-0.770000,-0.290000,1.260000,-3.468608,Hold,0.000000,0.000000,Hold,-6.000000,2.000000,Suck,-2310.000000,2400.000000,Speed,-2362.500000,2400.000000,Speed,Off,On,0.000000,FALSE,0,,,,
08:51:11.656 PM 03/24/2016,Teleop Enabled,11,FALSE,0,NO ERROR,-0.000000,0.012833,0.000000,0.134750,TRUE,FALSE,FALSE,FALSE,FALSE,FALSE,Disabled,0.000000,0.000000,0.000000,TRUE,0.186768,0.167374,0.000000,-0.059326,0.125000,0.000000,-0.024000,0.230000,-0.186000,-0.770000,-0.420000,1.210000,-3.472030,Hold,0.000000,0.000000,Hold,-6.000000,2.000000,Suck,-2317.500000,2400.000000,Speed,-2370.000000,2400.000000,Speed,Off,On,0.000000,FALSE,0,,,,
08:51:11.756 PM 03/24/2016,Teleop Enabled,11,FALSE,0,NO ERROR,-0.000000,0.012833,0.000000,0.134750,TRUE,FALSE,FALSE,FALSE,FALSE,FALSE,Disabled,0.000000,0.000000,0.000000,TRUE,0.182281,0.176910,0.000000,-0.079178,0.094421,0.000000,0.142000,-0.102000,0.201000,-0.770000,-0.400000,1.360000,-3.472161,Hold,0.000000,0.000000,Hold,-6.000000,2.000000,Suck,-2295.000000,2400.000000,Speed,-2370.000000,2400.000000,Speed,Off,On,0.000000,FALSE,0,,,,
08:51:11.855 PM 03/24/2016,Teleop Enabled,9,FALSE,0,NO ERROR,-0.000000,0.012833,0.000000,0.134750,TRUE,FALSE,FALSE,FALSE,FALSE,FALSE,Disabled,0.000000,0.000000,0.000000,TRUE,0.181137,0.181580,0.000000,-0.019974,0.139374,0.000000,-0.184000,0.216000,-0.233000,-0.770000,-0.290000,1.400000,-3.457272,Hold,0.000000,0.000000,Hold,-6.000000,2.000000,Suck,-2302.500000,2400.000000,Speed,-2370.000000,2400.000000,Speed,Off,On,0.000000,FALSE,0,,,,
08:51:11.956 PM 03/24/2016,Teleop Enabled,9,FALSE,0,NO ERROR,-0.000000,0.012833,0.000000,0.134750,TRUE,FALSE,FALSE,FALSE,FALSE,FALSE,Disabled,0.000000,0.000000,0.000000,TRUE,0.178406,0.194458,0.000000,0.000000,0.258118,0.000000,0.149000,-0.201000,0.228000,-0.780000,-0.240000,1.600000,-3.461616,Hold,0.000000,0.000000,Hold,-6.000000,2.000000,Suck,-2295.000000,2400.000000,Speed,-2370.000000,2400.000000,Speed,Off,On,0.000000,FALSE,0,,,,
08:51:12.055 PM 03/24/2016,Teleop Enabled,10,FALSE,0,NO ERROR,-0.000000,0.012833,0.000000,0.134750,TRUE,FALSE,FALSE,FALSE,FALSE,FALSE,Disabled,0.000000,0.000000,0.000000,TRUE,0.180374,0.203293,0.000000,0.057114,0.171082,0.000000,0.017000,-0.009000,0.127000,-0.790000,-0.180000,1.540000,-3.454917,Hold,0.000000,0.000000,Hold,-6.000000,2.000000,Suck,-2295.000000,2400.000000,Speed,-2377.500000,2400.000000,Speed,Off,On,0.000000,FALSE,0,,,,
08:51:12.156 PM 03/24/2016,Teleop Enabled,11,FALSE,0,NO ERROR,-0.000000,0.012833,0.000000,0.134750,TRUE,FALSE,FALSE,FALSE,FALSE,FALSE,Disabled,0.000000,0.000000,0.000000,TRUE,0.178970,0.204422,0.000000,-0.020538,0.017105,0.000000,0.069000,-0.081000,0.018000,-0.790000,-0.260000,1.490000,-3.451010,Hold,0.000000,0.000000,Hold,-6.000000,2.000000,Suck,-2287.500000,2400.000000,Speed,-2370.000000,2400.000000,Speed,Off,On,0.000000,FALSE,0,,,,
08:51:12.255 PM 03/24/2016,Teleop Enabled,9,FALSE,0,NO ERROR,-0.000000,0.012833,0.000000,0.134750,TRUE,FALSE,FALSE,FALSE,FALSE,FALSE,Disabled,0.000000,0.000000,0.000000,TRUE,0.178680,0.203415,0.000000,-0.007980,-0.049057,0.000000,-0.041000,0.074000,-0.078000,-0.790000,-0.350000,1.480000,-3.438875,Hold,0.000000,0.000000,Hold,-6.000000,2.000000,Suck,-2250.000000,2400.000000,Speed,-2392.500000,2400.000000,Speed,Off,On,0.000000,FALSE,0,,,,
08:51:12.356 PM 03/24/2016,Teleop Enabled,11,FALSE,0,NO ERROR,-0.000000,0.012833,0.000000,0.134750,TRUE,FALSE,FALSE,FALSE,FALSE,FALSE,Disabled,0.000000,0.000000,0.000000,TRUE,0.176758,0.204514,0.000000,-0.062149,0.083176,0.000000,0.046000,-0.016000,-0.046000,-0.790000,-0.330000,1.470000,-3.443102,Hold,0.000000,0.000000,Hold,-6.000000,2.000000,Suck,-2242.500000,2400.000000,Speed,-2377.500000,2400.000000,Speed,Off,On,0.000000,FALSE,0,,,,
08:51:12.456 PM 03/24/2016,Teleop Enabled,11,FALSE,0,NO ERROR,-0.000000,0.012833,0.000000,0.134750,TRUE,FALSE,FALSE,FALSE,FALSE,FALSE,Disabled,0.000000,0.000000,0.000000,TRUE,0.174637,0.202255,0.000000,-0.023605,-0.084320,0.000000,0.075000,-0.014000,0.330000,-0.790000,-0.360000,1.540000,-3.441339,Hold,0.000000,0.000000,Hold,-6.000000,2.000000,Suck,-2265.000000,2400.000000,Speed,-2362.500000,2400.000000,Speed,Off,On,0.000000,FALSE,0,,,,
08:51:12.557 PM 03/24/2016,Teleop Enabled,11,FALSE,0,NO ERROR,-0.000000,0.012833,0.000000,0.134750,TRUE,FALSE,FALSE,FALSE,FALSE,FALSE,Disabled,0.000000,0.000000,0.000000,TRUE,0.173080,0.198883,0.000000,-0.044785,-0.046326,0.000000,0.144000,0.073000,-0.109000,-0.790000,-0.430000,1.520000,-3.427445,Hold,0.000000,0.000000,Hold,-6.000000,2.000000,Suck,-2250.000000,2400.000000,Speed,-2370.000000,2400.000000,Speed,Off,On,0.000000,FALSE,0,,,,
08:51:12.657 PM 03/24/2016,Teleop Enabled,9,FALSE,0,NO ERROR,-0.000000,0.012833,0.000000,0.134750,TRUE,FALSE,FALSE,FALSE,FALSE,FALSE,Disabled,0.000000,0.000000,0.000000,TRUE,0.173965,0.195816,0.000000,0.056900,-0.101151,0.000000,0.023000,-0.191000,0.125000,-0.790000,-0.290000,1.660000,-3.427721,Hold,0.000000,0.000000,Hold,-6.000000,2.000000,Suck,-2242.500000,2400.000000,Speed,-2400.000000,2400.000000,Speed,Off,On,0.000000,FALSE,0,,,,
08:51:12.758 PM 03/24/2016,Teleop Enabled,11,FALSE,0,NO ERROR,-0.000000,0.012833,0.000000,0.134750,TRUE,FALSE,FALSE,FALSE,FALSE,FALSE,Disabled,0.000000,0.000000,0.000000,TRUE,0.176788,0.189560,0.000000,0.041107,-0.081360,0.000000,0.027000,0.209000,-0.333000,-0.790000,-0.360000,1.520000,-3.438747,Hold,0.000000,0.000000,Hold,-6.000000,2.000000,Suck,-2295.000000,2400.000000,Speed,-2407.500000,2400.000000,Speed,Off,On,0.000000,FALSE,0,,,,
08:51:12.858 PM 03/24/2016,Teleop Enabled,10,FALSE,0,NO ERROR,-0.000000,0.012833,0.000000,0.134750,TRUE,FALSE,FALSE,FALSE,FALSE,FALSE,Disabled,0.000000,0.000000,0.000000,TRUE,0.179123,0.186157,0.000000,0.040024,-0.115692,0.000000,-0.055000,-0.014000,-0.096000,-0.790000,-0.370000,1.490000,-3.436134,Hold,0.000000,0.000000,Hold,-6.000000,2.000000,Suck,-2317.500000,2400.000000,Speed,-2392.500000,2400.000000,Speed,Off,On,0.000000,FALSE,0,,,,
08:51:12.957 PM 03/24/2016,Teleop Enabled,10,FALSE,0,NO ERROR,-0.000000,0.012833,0.000000,0.134750,TRUE,FALSE,FALSE,FALSE,FALSE,FALSE,Disabled,0.000000,0.000000,0.000000,TRUE,0.178635,0.188034,0.000000,-0.040253,0.072571,0.000000,0.042000,-0.037000,-0.045000,-0.790000,-0.400000,1.420000,-3.429404,Hold,0.000000,0.000000,Hold,-6.000000,2.000000,Suck,-2265.000000,2400.000000,Speed,-2377.500000,2400.000000,Speed,Off,On,0.000000,FALSE,0,,,,
08:51:13.058 PM 03/24/2016,Teleop Enabled,5,FALSE,0,NO ERROR,-0.000000,0.012833,0.000000,0.134750,TRUE,FALSE,FALSE,FALSE,FALSE,FALSE,Disabled,0.000000,0.000000,0.000000,TRUE,0.178986,0.189209,0.000000,0.053970,-0.007004,0.000000,0.204000,-0.079000,0.169000,-0.800000,-0.290000,1.340000,-3.446400,Hold,0.000000,0.000000,Hold,-6.000000,2.000000,Suck,-2227.500000,2400.000000,Speed,-2362.500000,2400.000000,Speed,Off,On,0.000000,FALSE,0,,,,
08:51:13.158 PM 03/24/2016,Teleop Enabled,9,FALSE,0,NO ERROR,-0.000000,0.012833,0.000000,0.134750,TRUE,FALSE,FALSE,FALSE,FALSE,FALSE,Disabled,0.000000,0.000000,0.000000,TRUE,0.184280,0.188095,0.000000,0.101013,-0.016953,0.000000,0.028000,0.136000,-0.352000,-0.800000,-0.160000,1.330000,-3.447474,Hold,0.000000,0.000000,Hold,-6.000000,2.000000,Suck,-2265.000000,2400.000000,Speed,-2362.500000,2400.000000,Speed,Off,On,0.000000,FALSE,0,,,,
08:51:13.258 PM 03/24/2016,Teleop Enabled,8,FALSE,0,NO ERROR,-0.000000,0.012833,0.000000,0.134750,TRUE,FALSE,FALSE,FALSE,FALSE,FALSE,Disabled,0.000000,0.000000,0.000000,TRUE,0.190125,0.187286,0.000000,0.124405,-0.068588,0.000000,-0.009000,-0.196000,0.296000,-0.800000,-0.200000,1.390000,-3.438947,Hold,0.000000,0.000000,Hold,-6.000000,2.000000,Suck,-2272.500000,2400.000000,Speed,-2370.000000,2400.000000,Speed,Off,On,0.000000,FALSE,0,,,,
08:51:13.359 PM 03/24/2016,Teleop Enabled,14,FALSE,0,NO ERROR,-0.000000,0.012833,0.000000,0.134750,TRUE,FALSE,FALSE,FALSE,FALSE,FALSE,Disabled,0.000000,0.000000,0.000000,TRUE,0.190063,0.182922,0.000000,-0.012833,-0.032288,0.000000,-0.127000,0.290000,-0.252000,-0.800000,-0.100000,1.350000,-3.451602,Hold,0.000000,0.000000,Hold,-6.000000,2.000000,Suck,-2250.000000,2400.000000,Speed,-2377.500000,2400.000000,Speed,Off,On,0.000000,FALSE,0,,,,
08:51:13.459 PM 03/24/2016,Teleop Enabled,13,FALSE,0,NO ERROR,-0.000000,0.012833,0.000000,0.134750,TRUE,FALSE,FALSE,FALSE,FALSE,FALSE,Disabled,0.000000,0.000000,0.000000,TRUE,0.186005,0.185486,0.000000,-0.120697,0.044052,0.000000,-0.005000,-0.090000,0.209000,-0.800000,-0.080000,1.390000,-3.446476,Hold,0.000000,0.000000,Hold,-6.000000,2.000000,Suck,-2227.500000,2400.000000,Speed,-2370.000000,2400.000000,Speed,Off,On,0.000000,FALSE,0,,,,
08:51:13.560 PM 03/24/2016,Teleop Enabled,11,FALSE,0,NO ERROR,-0.000000,0.012833,0.000000,0.134750,TRUE,FALSE,FALSE,FALSE,FALSE,FALSE,Disabled,0.000000,0.000000,0.000000,TRUE,0.180298,0.185547,0.000000,-0.104095,-0.000473,0.000000,-0.123000,0.077000,0.123000,-0.810000,0.010000,1.420000,-3.440620,Hold,0.000000,0.000000,Hold,-6.000000,2.000000,Suck,-2227.500000,2400.000000,Speed,-2362.500000,2400.000000,Speed,Off,On,0.000000,FALSE,0,,,,
08:51:13.659 PM 03/24/2016,Teleop Enabled,10,FALSE,0,NO ERROR,-0.000000,0.012833,0.000000,0.134750,TRUE,FALSE,FALSE,FALSE,FALSE,FALSE,Disabled,0.000000,0.000000,0.000000,TRUE,0.173019,0.187637,0.000000,-0.172745,0.063889,0.000000,0.095000,-0.109000,0.051000,-0.810000,-0.090000,1.310000,-3.461671,Hold,0.000000,0.000000,Hold,-6.000000,2.000000,Suck,-2242.500000,2400.000000,Speed,-2362.500000,2400.000000,Speed,Off,On,0.000000,FALSE,0,,,,
08:51:13.760 PM 03/24/2016,Teleop Enabled,11,FALSE,0,NO ERROR,-0.000000,0.012833,0.000000,0.134750,TRUE,FALSE,FALSE,FALSE,FALSE,FALSE,Disabled,0.000000,0.000000,0.000000,TRUE,0.167114,0.187195,0.000000,-0.039185,-0.055496,0.000000,0.123000,-0.052000,0.194000,-0.820000,-0.050000,1.340000,-3.478257,Hold,0.000000,0.000000,Hold,-6.000000,2.000000,Suck,-2235.000000,2400.000000,Speed,-2362.500000,2400.000000,Speed,Off,On,0.000000,FALSE,0,,,,
08:51:13.861 PM 03/24/2016,Teleop Enabled,11,FALSE,0,NO ERROR,-0.000000,0.012833,0.000000,0.134750,TRUE,FALSE,FALSE,FALSE,FALSE,FALSE,Disabled,0.000000,0.000000,0.000000,TRUE,0.165283,0.186432,0.000000,-0.070358,0.040283,0.000000,-0.020000,0.152000,-0.308000,-0.820000,-0.070000,1.340000,-3.493177,Hold,0.000000,0.000000,Hold,-6.000000,2.000000,Suck,-2257.500000,2400.000000,Speed,-2370.000000,2400.000000,Speed,Off,On,0.000000,FALSE,0,,,,
08:51:13.961 PM 03/24/2016,Teleop Enabled,11,FALSE,0,NO ERROR,-0.000000,0.012833,0.000000,0.134750,TRUE,FALSE,FALSE,FALSE,FALSE,FALSE,Disabled,0.000000,0.000000,0.000000,TRUE,0.160049,0.189941,0.000000,-0.099609,0.000610,0.000000,-0.090000,-0.020000,0.117000,-0.830000,-0.060000,1.280000,-3.495969,Hold,0.000000,0.000000,Hold,-6.000000,2.000000,Suck,-2272.500000,2400.000000,Speed,-2370.000000,2400.000000,Speed,Off,On,0.000000,FALSE,0,,,,
08:51:14.061 PM 03/24/2016,Teleop Enabled,13,FALSE,0,NO ERROR,-0.000000,0.012833,0.000000,0.134750,TRUE,FALSE,FALSE,FALSE,FALSE,FALSE,Disabled,0.000000,0.000000,0.000000,TRUE,0.153763,0.193222,0.000000,-0.147751,0.114624,0.000000,-0.071000,0.036000,-0.362000,-0.820000,-0.050000,1.250000,-3.500293,Hold,0.000000,0.000000,Hold,-6.000000,2.000000,Suck,-2257.500000,2400.000000,Speed,-2370.000000,2400.000000,Speed,Off,On,0.000000,FALSE,0,,,,
08:51:14.161 PM 03/24/2016,Teleop Enabled,12,FALSE,0,NO ERROR,-0.000000,0.012833,0.000000,0.134750,TRUE,FALSE,FALSE,FALSE,FALSE,FALSE,Disabled,0.000000,0.000000,0.000000,TRUE,0.148453,0.196869,0.000000,-0.067841,0.027527,0.000000,0.016000,0.039000,0.388000,-0.830000,-0.070000,1.350000,-3.501360,Hold,0.000000,0.000000,Hold,-6.000000,2.000000,Suck,-2242.500000,2400.000000,Speed,-2370.000000,2400.000000,Speed,Off,On,0.000000,FALSE,0,,,,
08:51:14.263 PM 03/24/2016,Teleop Enabled,10,FALSE,0,NO ERROR,-0.000000,0.012833,0.000000,0.134750,TRUE,FALSE,FALSE,FALSE,FALSE,FALSE,Disabled,0.000000,0.000000,0.000000,TRUE,0.146606,0.197525,0.000000,-0.042130,0.012283,0.000000,0.048000,0.240000,-0.325000,-0.830000,0.000000,1.290000,-3.514329,Hold,0.000000,0.000000,Hold,-6.000000,2.000000,Suck,-2257.500000,2400.000000,Speed,-2370.000000,2400.000000,Speed,Off,On,0.000000,FALSE,0,,,,
08:51:14.363 PM 03/24/2016,Teleop Enabled,8,FALSE,0,NO ERROR,-0.000000,0.012833,0.000000,0.134750,TRUE,FALSE,FALSE,FALSE,FALSE,FALSE,Disabled,0.000000,0.000000,0.000000,TRUE,0.145096,0.200333,0.000000,-0.040024,0.029892,0.000000,0.023000,-0.187000,0.135000,-0.830000,-0.050000,1.330000,-3.517472,Hold,0.000000,0.000000,Hold,-6.000000,2.000000,Suck,-2242.500000,2400.000000,Speed,-2377.500000,2400.000000,Speed,Off,On,0.000000,FALSE,0,,,,
08:51:14.465 PM 03/24/2016,Teleop Enabled,9,FALSE,0,NO ERROR,-0.000000,0.012833,0.000000,0.134750,TRUE,FALSE,FALSE,FALSE,FALSE,FALSE,Disabled,0.000000,0.000000,0.000000,TRUE,0.143661,0.198898,0.000000,-0.025742,-0.008682,0.000000,-0.079000,0.146000,-0.319000,-0.830000,0.050000,1.300000,-3.528026,Hold,0.000000,0.000000,Hold,-6.000000,2.000000,Suck,-2235.000000,2400.000000,Speed,-2355.000000,2400.000000,Speed,Off,On,0.000000,FALSE,0,,,,
08:51:14.565 PM 03/24/2016,Teleop Enabled,8,FALSE,0,NO ERROR,-0.000000,0.012833,0.000000,0.134750,TRUE,FALSE,FALSE,FALSE,FALSE,FALSE,Disabled,0.000000,0.000000,0.000000,TRUE,0.143661,0.198898,0.000000,-0.025742,-0.008682,0.000000,-0.079000,0.146000,-0.319000,-0.830000,0.050000,1.300000,-3.533517,Hold,0.000000,0.000000,Hold,-6.000000,2.000000,Suck,-2302.500000,2400.000000,Speed,-2355.000000,2400.000000,Speed,Off,On,0.000000,FALSE,0,,,,
08:51:14.664 PM 03/24/2016,Teleop Enabled,10,FALSE,0,NO ERROR,-0.000000,0.012833,0.000000,0.134750,TRUE,FALSE,FALSE,FALSE,FALSE,FALSE,Disabled,0.000000,0.000000,0.000000,TRUE,0.139465,0.204727,0.000000,-0.017731,0.004883,0.000000,0.085000,0.105000,0.259000,-0.840000,0.140000,1.390000,-3.536055,Hold,0.000000,0.000000,Hold,-6.000000,2.000000,Suck,-2325.000000,2400.000000,Speed,-2370.000000,2400.000000,Speed,Off,On,0.000000,FALSE,0,,,,
08:51:14.764 PM 03/24/2016,Teleop Enabled,10,FALSE,0,NO ERROR,-0.000000,0.012833,0.000000,0.134750,TRUE,FALSE,FALSE,FALSE,FALSE,FALSE,Disabled,0.000000,0.000000,0.000000,TRUE,0.139282,0.207764,0.000000,0.002121,0.083298,0.000000,0.085000,0.105000,0.259000,-0.840000,0.160000,1.420000,-3.554861,Hold,0.000000,0.000000,Hold,-6.000000,2.000000,Suck,-2302.500000,2400.000000,Speed,-2377.500000,2400.000000,Speed,Off,On,0.000000,FALSE,0,,,,
08:51:14.865 PM 03/24/2016,Teleop Enabled,11,FALSE,0,NO ERROR,-0.000000,0.012833,0.000000,0.134750,TRUE,FALSE,FALSE,FALSE,FALSE,FALSE,Disabled,0.000000,0.000000,0.000000,TRUE,0.141464,0.207169,0.000000,0.066467,-0.062332,0.000000,-0.002000,-0.023000,0.203000,-0.840000,0.100000,1.310000,-3.563722,Hold,0.000000,0.000000,Hold,-6.000000,2.000000,Suck,-2295.000000,2400.000000,Speed,-2377.500000,2400.000000,Speed,Off,On,0.000000,FALSE,0,,,,
08:51:14.966 PM 03/24/2016,Teleop Enabled,10,FALSE,0,NO ERROR,-0.000000,0.012833,0.000000,0.134750,TRUE,FALSE,FALSE,FALSE,FALSE,FALSE,Disabled,0.000000,0.000000,0.000000,TRUE,0.143158,0.206329,0.000000,-0.003403,0.039230,0.000000,0.088000,-0.068000,-0.186000,-0.830000,0.030000,1.310000,-3.553570,Hold,0.000000,0.000000,Hold,-6.000000,2.000000,Suck,-2310.000000,2400.000000,Speed,-2370.000000,2400.000000,Speed,Off,On,0.000000,FALSE,0,,,,
08:51:15.067 PM 03/24/2016,Teleop Enabled,11,FALSE,0,NO ERROR,-0.000000,0.012833,0.000000,0.134750,TRUE,FALSE,FALSE,FALSE,FALSE,FALSE,Disabled,0.000000,0.000000,0.000000,TRUE,0.143143,0.206436,0.000000,0.007339,-0.037735,0.000000,-0.011000,-0.087000,0.000000,-0.850000,-0.040000,1.370000,-3.572952,Hold,0.000000,0.000000,Hold,-6.000000,2.000000,Suck,-2310.000000,2400.000000,Speed,-2370.000000,2400.000000,Speed,Off,On,0.000000,FALSE,0,,,,
08:51:15.166 PM 03/24/2016,Teleop Enabled,10,FALSE,0,NO ERROR,-0.000000,0.012833,0.000000,0.134750,TRUE,FALSE,FALSE,FALSE,FALSE,FALSE,Disabled,0.000000,0.000000,0.000000,TRUE,0.142380,0.204041,0.000000,-0.067001,-0.001831,0.000000,-0.011000,-0.087000,0.000000,-0.830000,-0.070000,1.370000,-3.582949,Hold,0.000000,0.000000,Hold,-6.000000,2.000000,Suck,-2295.000000,2400.000000,Speed,-2377.500000,2400.000000,Speed,Off,On,0.000000,FALSE,0,,,,
08:51:15.267 PM 03/24/2016,Teleop Enabled,9,FALSE,0,NO ERROR,-0.000000,0.012833,0.000000,0.134750,TRUE,FALSE,FALSE,FALSE,FALSE,FALSE,Disabled,0.000000,0.000000,0.000000,TRUE,0.139618,0.208557,0.000000,-0.032669,0.063507,0.000000,0.087000,-0.159000,0.338000,-0.850000,0.000000,1.510000,-3.591139,Hold,0.000000,0.000000,Hold,-6.000000,2.000000,Suck,-2272.500000,2400.000000,Speed,-2370.000000,2400.000000,Speed,Off,On,0.000000,FALSE,0,,,,
08:51:15.368 PM 03/24/2016,Teleop Enabled,9,FALSE,0,NO ERROR,-0.000000,0.012833,0.000000,0.134750,TRUE,FALSE,FALSE,FALSE,FALSE,FALSE,Disabled,0.000000,0.000000,0.000000,TRUE,0.139435,0.210968,0.000000,-0.012680,0.071091,0.000000,0.087000,-0.159000,0.338000,-0.850000,0.060000,1.540000,-3.600458,Hold,0.000000,0.000000,Hold,-6.000000,2.000000,Suck,-2272.500000,2400.000000,Speed,-2377.500000,2400.000000,Speed,Off,On,0.000000,FALSE,0,,,,
08:51:15.468 PM 03/24/2016,Teleop Enabled,9,FALSE,0,NO ERROR,-0.000000,0.012833,0.000000,0.134750,TRUE,FALSE,FALSE,FALSE,FALSE,FALSE,Disabled,0.000000,0.000000,0.000000,TRUE,0.137573,0.216232,0.000000,0.000000,0.098419,0.000000,0.011000,-0.153000,-0.003000,-0.850000,0.020000,1.620000,-3.606710,Hold,0.000000,0.000000,Hold,-6.000000,2.000000,Suck,-2287.500000,2400.000000,Speed,-2377.500000,2400.000000,Speed,Off,On,0.000000,FALSE,0,,,,
08:51:15.570 PM 03/24/2016,Teleop Enabled,10,FALSE,0,NO ERROR,-0.000000,0.012833,0.000000,0.134750,TRUE,FALSE,FALSE,FALSE,FALSE,FALSE,Disabled,0.000000,0.000000,0.000000,TRUE,0.137573,0.216232,0.000000,0.000000,0.098419,0.000000,0.011000,-0.153000,-0.003000,-0.840000,0.070000,1.690000,-3.622404,Hold,0.000000,0.000000,Hold,-6.000000,2.000000,Suck,-2287.500000,2400.000000,Speed,-2377.500000,2400.000000,Speed,Off,On,0.000000,FALSE,0,,,,
08:51:15.671 PM 03/24/2016,Teleop Enabled,9,FALSE,0,NO ERROR,-0.000000,0.012833,0.000000,0.134750,TRUE,FALSE,FALSE,FALSE,FALSE,FALSE,Disabled,0.000000,0.000000,0.000000,TRUE,0.140396,0.226318,0.000000,-0.008087,0.205078,0.000000,-0.080000,-0.131000,-0.084000,-0.850000,0.120000,1.710000,-3.619984,Hold,0.000000,0.000000,Hold,-6.000000,2.000000,Suck,-2287.500000,2400.000000,Speed,-2362.500000,2400.000000,Speed,Off,On,0.000000,FALSE,0,,,,
08:51:15.776 PM 03/24/2016,Teleop Enabled,15,FALSE,0,NO ERROR,-0.000000,0.012833,0.000000,0.134750,TRUE,FALSE,FALSE,FALSE,FALSE,FALSE,Disabled,0.000000,0.000000,0.000000,TRUE,0.138931,0.233200,0.000000,-0.022232,0.102661,0.000000,0.055000,0.087000,0.286000,-0.850000,0.120000,1.710000,-3.619568,Hold,0.000000,0.000000,Hold,-6.000000,2.000000,Suck,-2272.500000,2400.000000,Speed,-2370.000000,2400.000000,Speed,Off,On,0.000000,FALSE,0,,,,
08:51:15.873 PM 03/24/2016,Teleop Enabled,10,FALSE,0,NO ERROR,-0.000000,0.012833,0.000000,0.134750,TRUE,FALSE,FALSE,FALSE,FALSE,FALSE,Disabled,0.000000,0.000000,0.000000,TRUE,0.137405,0.240417,0.000000,-0.028137,0.161041,0.000000,0.097000,0.031000,-0.117000,-0.860000,0.120000,1.680000,-3.617199,Hold,0.000000,0.000000,Hold,-6.000000,2.000000,Suck,-2250.000000,2400.000000,Speed,-2370.000000,2400.000000,Speed,Off,On,0.000000,FALSE,0,,,,
08:51:15.975 PM 03/24/2016,Teleop Enabled,12,FALSE,0,NO ERROR,-0.000000,0.012833,0.000000,0.134750,TRUE,FALSE,FALSE,FALSE,FALSE,FALSE,Disabled,0.000000,0.000000,0.000000,TRUE,0.139603,0.245178,0.000000,0.104355,0.043961,0.000000,0.034000,-0.095000,0.116000,-0.860000,0.150000,1.650000,-3.631802,Hold,0.000000,0.000000,Hold,-6.000000,2.000000,Suck,-2220.000000,2400.000000,Speed,-2377.500000,2400.000000,Speed,Off,On,0.000000,FALSE,0,,,,
08:51:16.077 PM 03/24/2016,Teleop Enabled,10,FALSE,0,NO ERROR,-0.000000,0.012833,0.000000,0.134750,TRUE,FALSE,FALSE,FALSE,FALSE,FALSE,Disabled,0.000000,0.000000,0.000000,TRUE,0.145493,0.246078,0.000000,0.062668,0.024719,0.000000,-0.016000,0.058000,-0.343000,-0.850000,-0.030000,1.530000,-3.629968,Hold,0.000000,0.000000,Hold,-6.000000,2.000000,Suck,-2167.500000,2400.000000,Speed,-2362.500000,2400.000000,Speed,Off,On,0.000000,FALSE,0,,,,
08:51:16.177 PM 03/24/2016,Teleop Enabled,11,FALSE,0,NO ERROR,-0.000000,0.012833,0.000000,0.134750,TRUE,FALSE,FALSE,FALSE,FALSE,FALSE,Disabled,0.000000,0.000000,0.000000,TRUE,0.146347,0.245834,0.000000,0.051498,-0.047180,0.000000,0.008000,-0.091000,0.482000,-0.860000,0.030000,1.420000,-3.626670,Hold,0.000000,0.000000,Hold,-6.000000,2.000000,Suck,-2152.500000,2400.000000,Speed,-2362.500000,2400.000000,Speed,Off,On,0.000000,FALSE,0,,,,
08:51:16.278 PM 03/24/2016,Teleop Enabled,11,FALSE,0,NO ERROR,-0.000000,0.012833,0.000000,0.134750,TRUE,FALSE,FALSE,FALSE,FALSE,FALSE,Disabled,0.000000,0.000000,0.000000,TRUE,0.149002,0.240875,0.000000,0.058273,-0.111206,0.000000,-0.129000,0.025000,-0.067000,-0.860000,-0.010000,1.300000,-3.629847,Hold,0.000000,0.000000,Hold,-6.000000,2.000000,Suck,-2197.500000,2400.000000,Speed,-2362.500000,2400.000000,Speed,Off,On,0.000000,FALSE,0,,,,
08:51:16.379 PM 03/24/2016,Teleop Enabled,12,FALSE,0,NO ERROR,-0.000000,0.012833,0.000000,0.134750,TRUE,FALSE,FALSE,FALSE,FALSE,FALSE,Disabled,0.000000,0.000000,0.000000,TRUE,0.150726,0.236420,0.000000,0.037308,-0.084610,0.000000,0.029000,-0.131000,0.141000,-0.870000,-0.010000,1.310000,-3.651112,Hold,0.000000,0.000000,Hold,-6.000000,2.000000,Suck,-2235.000000,2400.000000,Speed,-2370.000000,2400.000000,Speed,Off,On,0.000000,FALSE,0,,,,
08:51:16.479 PM 03/24/2016,Teleop Enabled,12,FALSE,0,NO ERROR,-0.000000,0.012833,0.000000,0.134750,TRUE,FALSE,FALSE,FALSE,FALSE,FALSE,Disabled,0.000000,0.000000,0.000000,TRUE,0.151108,0.227890,0.000000,-0.021301,-0.146393,0.000000,-0.155000,0.107000,-0.080000,-0.870000,-0.010000,1.310000,-3.648371,Hold,0.000000,0.000000,Hold,-6.000000,2.000000,Suck,-2272.500000,2400.000000,Speed,-2370.000000,2400.000000,Speed,Off,On,0.000000,FALSE,0,,,,
08:51:16.580 PM 03/24/2016,Teleop Enabled,12,FALSE,0,NO ERROR,-0.000000,0.012833,0.000000,0.134750,TRUE,FALSE,FALSE,FALSE,FALSE,FALSE,Disabled,0.000000,0.000000,0.000000,TRUE,0.150635,0.223694,0.000000,0.041901,-0.059647,0.000000,0.059000,-0.106000,-0.020000,-0.870000,0.030000,1.290000,-3.643380,Hold,0.000000,0.000000,Hold,-6.000000,2.000000,Suck,-2310.000000,2400.000000,Speed,-2370.000000,2400.000000,Speed,Off,On,0.000000,FALSE,0,,,,
08:51:16.680 PM 03/24/2016,Teleop Enabled,11,FALSE,0,NO ERROR,-0.000000,0.012833,0.000000,0.134750,TRUE,FALSE,FALSE,FALSE,FALSE,FALSE,Disabled,0.000000,0.000000,0.000000,TRUE,0.155167,0.215729,0.000000,0.128433,-0.210114,0.000000,-0.007000,-0.060000,0.053000,-0.880000,0.060000,1.270000,-3.642863,Hold,0.000000,0.000000,Hold,-6.000000,2.000000,Suck,-2295.000000,2400.000000,Speed,-2370.000000,2400.000000,Speed,Off,On,0.000000,FALSE,0,,,,
08:51:16.780 PM 03/24/2016,Teleop Enabled,11,FALSE,0,NO ERROR,-0.000000,0.012833,0.000000,0.134750,TRUE,FALSE,FALSE,FALSE,FALSE,FALSE,Disabled,0.000000,0.000000,0.000000,TRUE,0.160248,0.206589,0.000000,0.063873,-0.128006,0.000000,-0.007000,-0.060000,0.053000,-0.880000,0.060000,1.270000,-3.630432,Hold,0.000000,0.000000,Hold,-6.000000,2.000000,Suck,-2280.000000,2400.000000,Speed,-2370.000000,2400.000000,Speed,Off,On,0.000000,FALSE,0,,,,
08:51:16.880 PM 03/24/2016,Teleop Enabled,12,FALSE,0,NO ERROR,-0.000000,0.012833,0.000000,0.134750,TRUE,FALSE,FALSE,FALSE,FALSE,FALSE,Disabled,0.000000,0.000000,0.000000,TRUE,0.162735,0.199890,0.000000,0.058456,-0.194687,0.000000,-0.022000,-0.075000,0.081000,-0.880000,-0.010000,1.230000,-3.623406,Hold,0.000000,0.000000,Hold,-6.000000,2.000000,Suck,-2295.000000,2400.000000,Speed,-2370.000000,2400.000000,Speed,Off,On,0.000000,FALSE,0,,,,
08:51:16.981 PM 03/24/2016,Teleop Enabled,12,FALSE,0,NO ERROR,-0.000000,0.012833,0.000000,0.134750,TRUE,FALSE,FALSE,FALSE,FALSE,FALSE,Disabled,0.000000,0.000000,0.000000,TRUE,0.164566,0.190735,0.000000,0.003571,-0.131577,0.000000,-0.022000,-0.075000,0.081000,-0.880000,-0.010000,1.230000,-3.618683,Hold,0.000000,0.000000,Hold,-6.000000,2.000000,Suck,-2325.000000,2400.000000,Speed,-2370.000000,2400.000000,Speed,Off,On,0.000000,FALSE,0,,,,
08:51:17.081 PM 03/24/2016,Teleop Enabled,11,FALSE,0,NO ERROR,-0.000000,0.012833,0.000000,0.134750,TRUE,FALSE,FALSE,FALSE,FALSE,FALSE,Disabled,0.000000,0.000000,0.000000,TRUE,0.165421,0.183319,0.000000,0.032013,-0.210205,0.000000,0.044000,0.038000,-0.238000,-0.880000,-0.040000,1.210000,-3.623850,Hold,0.000000,0.000000,Hold,-6.000000,2.000000,Suck,-2325.000000,2400.000000,Speed,-2370.000000,2400.000000,Speed,Off,On,0.000000,FALSE,0,,,,
08:51:17.180 PM 03/24/2016,Teleop Enabled,9,FALSE,0,NO ERROR,-0.000000,0.012833,0.000000,0.134750,TRUE,FALSE,FALSE,FALSE,FALSE,FALSE,Disabled,0.000000,0.000000,0.000000,TRUE,0.168289,0.172546,0.000000,0.037170,-0.192001,0.000000,0.011000,0.063000,0.278000,-0.880000,-0.070000,1.230000,-3.620848,Hold,0.000000,0.000000,Hold,-6.000000,2.000000,Suck,-2295.000000,2400.000000,Speed,-2377.500000,2400.000000,Speed,Off,On,0.000000,FALSE,0,,,,
08:51:17.281 PM 03/24/2016,Teleop Enabled,11,FALSE,0,NO ERROR,-0.000000,0.012833,0.000000,0.134750,TRUE,FALSE,FALSE,FALSE,FALSE,FALSE,Disabled,0.000000,0.000000,0.000000,TRUE,0.167221,0.163239,0.000000,-0.002258,-0.213455,0.000000,-0.122000,0.169000,-0.496000,-0.880000,-0.140000,1.230000,-3.626222,Hold,0.000000,0.000000,Hold,-6.000000,2.000000,Suck,-2317.500000,2400.000000,Speed,-2392.500000,2400.000000,Speed,Off,On,0.000000,FALSE,0,,,,
08:51:17.381 PM 03/24/2016,Teleop Enabled,12,FALSE,0,NO ERROR,-0.000000,0.012833,0.000000,0.134750,TRUE,FALSE,FALSE,FALSE,FALSE,FALSE,Disabled,0.000000,0.000000,0.000000,TRUE,0.165558,0.152283,0.000000,-0.058472,-0.186340,0.000000,-0.065000,-0.064000,0.448000,-0.880000,-0.140000,1.230000,-3.629603,Hold,0.000000,0.000000,Hold,-6.000000,2.000000,Suck,-2355.000000,2400.000000,Speed,-2385.000000,2400.000000,Speed,Off,On,0.000000,FALSE,0,,,,
08:51:17.481 PM 03/24/2016,Teleop Enabled,9,FALSE,0,NO ERROR,-0.000000,0.012833,0.000000,0.134750,TRUE,FALSE,FALSE,FALSE,FALSE,FALSE,Disabled,0.000000,0.000000,0.000000,TRUE,0.165558,0.152283,0.000000,-0.058472,-0.186340,0.000000,-0.043000,0.143000,-0.231000,-0.870000,-0.210000,1.180000,-3.626401,Hold,0.000000,0.000000,Hold,-6.000000,2.000000,Suck,-2347.500000,2400.000000,Speed,-2377.500000,2400.000000,Speed,Off,On,0.000000,FALSE,0,,,,
08:51:17.582 PM 03/24/2016,Teleop Enabled,12,FALSE,0,NO ERROR,-0.000000,0.012833,0.000000,0.134750,TRUE,FALSE,FALSE,FALSE,FALSE,FALSE,Disabled,0.000000,0.000000,0.000000,TRUE,0.162384,0.146057,0.000000,-0.054825,-0.168015,0.000000,0.052000,-0.117000,0.374000,-0.880000,-0.230000,1.270000,-3.619168,Hold,0.000000,0.000000,Hold,-6.000000,2.000000,Suck,-2332.500000,2400.000000,Speed,-2400.000000,2400.000000,Speed,Off,On,0.000000,FALSE,0,,,,
08:51:17.682 PM 03/24/2016,Teleop Enabled,8,FALSE,0,NO ERROR,-0.000000,0.012833,0.000000,0.134750,TRUE,FALSE,FALSE,FALSE,FALSE,FALSE,Disabled,0.000000,0.000000,0.000000,TRUE,0.160538,0.136993,0.000000,-0.045624,-0.141922,0.000000,0.011000,0.131000,-0.304000,-0.880000,-0.190000,1.320000,-3.620700,Hold,0.000000,0.000000,Hold,-6.000000,2.000000,Suck,-2332.500000,2400.000000,Speed,-2407.500000,2400.000000,Speed,Off,On,0.000000,FALSE,0,,,,
08:51:17.782 PM 03/24/2016,Teleop Enabled,11,FALSE,0,NO ERROR,-0.000000,0.012833,0.000000,0.134750,TRUE,FALSE,FALSE,FALSE,FALSE,FALSE,Disabled,0.000000,0.000000,0.000000,TRUE,0.159164,0.130890,0.000000,0.004883,-0.142624,0.000000,-0.039000,0.041000,0.112000,-0.890000,-0.080000,1.420000,-3.620700,Hold,0.000000,0.000000,Hold,-6.000000,2.000000,Suck,-2362.500000,2400.000000,Speed,-2400.000000,2400.000000,Speed,Off,On,0.000000,FALSE,0,,,,
08:51:17.883 PM 03/24/2016,Teleop Enabled,8,FALSE,0,NO ERROR,-0.000000,0.012833,0.000000,0.134750,TRUE,FALSE,FALSE,FALSE,FALSE,FALSE,Disabled,0.000000,0.000000,0.000000,TRUE,0.158340,0.124756,0.000000,-0.048035,-0.089600,0.000000,-0.019000,0.066000,-0.143000,-0.890000,-0.090000,1.400000,-3.603253,Hold,0.000000,0.000000,Hold,-6.000000,2.000000,Suck,-2377.500000,2400.000000,Speed,-2392.500000,2400.000000,Speed,Off,On,0.000000,FALSE,0,,,,
08:51:17.983 PM 03/24/2016,Teleop Enabled,9,FALSE,0,NO ERROR,-0.000000,0.012833,0.000000,0.134750,TRUE,FALSE,FALSE,FALSE,FALSE,FALSE,Disabled,0.000000,0.000000,0.000000,TRUE,0.155548,0.120148,0.000000,-0.045074,-0.138214,0.000000,-0.051000,0.091000,0.265000,-0.900000,-0.060000,1.500000,-3.604448,Hold,0.000000,0.000000,Hold,-6.000000,2.000000,Suck,-2370.000000,2400.000000,Speed,-2370.000000,2400.000000,Speed,Off,On,0.000000,FALSE,0,,,,
08:51:18.083 PM 03/24/2016,Teleop Enabled,9,FALSE,0,NO ERROR,-0.000000,0.012833,0.000000,0.134750,TRUE,FALSE,FALSE,FALSE,FALSE,FALSE,Disabled,0.000000,0.000000,0.000000,TRUE,0.150955,0.113785,0.000000,-0.104965,-0.058243,0.000000,-0.140000,0.189000,-0.309000,-0.900000,-0.070000,1.490000,-3.600544,Hold,0.000000,0.000000,Hold,-6.000000,2.000000,Suck,-2377.500000,2400.000000,Speed,-2355.000000,2400.000000,Speed,Off,On,0.000000,FALSE,0,,,,
08:51:18.183 PM 03/24/2016,Teleop Enabled,9,FALSE,0,NO ERROR,-0.000000,0.012833,0.000000,0.134750,TRUE,FALSE,FALSE,FALSE,FALSE,FALSE,Disabled,0.000000,0.000000,0.000000,TRUE,0.147369,0.112656,0.000000,-0.080093,-0.043350,0.000000,-0.004000,-0.040000,0.213000,-0.900000,-0.130000,1.650000,-3.600544,Hold,0.000000,0.000000,Hold,-6.000000,2.000000,Suck,-2355.000000,2400.000000,Speed,-2377.500000,2400.000000,Speed,Off,On,0.000000,FALSE,0,,,,
08:51:18.283 PM 03/24/2016,Teleop Enabled,8,FALSE,0,NO ERROR,-0.000000,0.012833,0.000000,0.134750,TRUE,FALSE,FALSE,FALSE,FALSE,FALSE,Disabled,0.000000,0.000000,0.000000,TRUE,0.146042,0.107864,0.000000,-0.006393,-0.102921,0.000000,-0.035000,0.060000,-0.220000,-0.900000,-0.130000,1.560000,-3.604913,Hold,0.000000,0.000000,Hold,-6.000000,2.000000,Suck,-2295.000000,2400.000000,Speed,-2385.000000,2400.000000,Speed,Off,On,0.000000,FALSE,0,,,,
08:51:18.383 PM 03/24/2016,Teleop Enabled,9,FALSE,0,NO ERROR,-0.000000,0.012833,0.000000,0.134750,TRUE,FALSE,FALSE,FALSE,FALSE,FALSE,Disabled,0.000000,0.000000,0.000000,TRUE,0.143784,0.104507,0.000000,-0.044174,-0.053314,0.000000,0.075000,-0.193000,0.366000,-0.900000,-0.120000,1.580000,-3.620979,Hold,0.000000,0.000000,Hold,-6.000000,2.000000,Suck,-2272.500000,2400.000000,Speed,-2370.000000,2400.000000,Speed,Off,On,0.000000,FALSE,0,,,,
08:51:18.484 PM 03/24/2016,Teleop Enabled,8,FALSE,0,NO ERROR,-0.000000,0.012833,0.000000,0.134750,TRUE,FALSE,FALSE,FALSE,FALSE,FALSE,Disabled,0.000000,0.000000,0.000000,TRUE,0.142029,0.098831,0.000000,-0.042953,-0.114761,0.000000,0.108000,0.029000,-0.015000,-0.910000,-0.290000,1.460000,-3.621668,Hold,0.000000,0.000000,Hold,-6.000000,2.000000,Suck,-2235.000000,2400.000000,Speed,-2370.000000,2400.000000,Speed,Off,On,0.000000,FALSE,0,,,,
08:51:18.584 PM 03/24/2016,Teleop Enabled,10,FALSE,0,NO ERROR,-0.000000,0.012833,0.000000,0.134750,TRUE,FALSE,FALSE,FALSE,FALSE,FALSE,Disabled,0.000000,0.000000,0.000000,TRUE,0.140640,0.095749,0.000000,-0.010117,-0.039612,0.000000,-0.006000,-0.116000,-0.140000,-0.910000,-0.230000,1.550000,-3.632016,Hold,0.000000,0.000000,Hold,-6.000000,2.000000,Suck,-2220.000000,2400.000000,Speed,-2362.500000,2400.000000,Speed,Off,On,0.000000,FALSE,0,,,,
08:51:18.684 PM 03/24/2016,Teleop Enabled,8,FALSE,0,NO ERROR,-0.000000,0.012833,0.000000,0.134750,TRUE,FALSE,FALSE,FALSE,FALSE,FALSE,Disabled,0.000000,0.000000,0.000000,TRUE,0.141174,0.089050,0.000000,0.015961,-0.198303,0.000000,0.114000,0.036000,0.068000,-0.920000,-0.230000,1.540000,-3.627186,Hold,0.000000,0.000000,Hold,-6.000000,2.000000,Suck,-2220.000000,2400.000000,Speed,-2370.000000,2400.000000,Speed,Off,On,0.000000,FALSE,0,,,,
08:51:18.784 PM 03/24/2016,Teleop Enabled,9,FALSE,0,NO ERROR,-0.000000,0.012833,0.000000,0.134750,TRUE,FALSE,FALSE,FALSE,FALSE,FALSE,Disabled,0.000000,0.000000,0.000000,TRUE,0.142151,0.080734,0.000000,0.029831,-0.122253,0.000000,0.135000,0.152000,-0.432000,-0.910000,-0.250000,1.500000,-3.646788,Hold,0.000000,0.000000,Hold,-6.000000,2.000000,Suck,-2220.000000,2400.000000,Speed,-2370.000000,2400.000000,Speed,Off,On,0.000000,FALSE,0,,,,
08:51:18.884 PM 03/24/2016,Teleop Enabled,8,FALSE,0,NO ERROR,-0.000000,0.012833,0.000000,0.134750,TRUE,FALSE,FALSE,FALSE,FALSE,FALSE,Disabled,0.000000,0.000000,0.000000,TRUE,0.145447,0.072876,0.000000,0.103424,-0.220352,0.000000,-0.084000,0.065000,0.196000,-0.920000,-0.160000,1.540000,-3.657563,Hold,0.000000,0.000000,Hold,-6.000000,2.000000,Suck,-2242.500000,2400.000000,Speed,-2370.000000,2400.000000,Speed,Off,On,0.000000,FALSE,0,,,,
08:51:18.983 PM 03/24/2016,Teleop Enabled,8,FALSE,0,NO ERROR,-0.000000,0.012833,0.000000,0.134750,TRUE,FALSE,FALSE,FALSE,FALSE,FALSE,Disabled,0.000000,0.000000,0.000000,TRUE,0.149567,0.063583,0.000000,0.040405,-0.070221,0.000000,-0.054000,0.113000,-0.093000,-0.920000,-0.140000,1.640000,-3.659071,Hold,0.000000,0.000000,Hold,-6.000000,2.000000,Suck,-2250.000000,2400.000000,Speed,-2370.000000,2400.000000,Speed,Off,On,0.000000,FALSE,0,,,,
08:51:19.083 PM 03/24/2016,Teleop Enabled,8,FALSE,0,NO ERROR,-0.000000,0.012833,0.000000,0.134750,TRUE,FALSE,FALSE,FALSE,FALSE,FALSE,Disabled,0.000000,0.000000,0.000000,TRUE,0.151596,0.059372,0.000000,0.072952,-0.163803,0.000000,0.205000,-0.008000,0.713000,-0.930000,-0.030000,1.660000,-3.661474,Hold,0.000000,0.000000,Hold,-6.000000,2.000000,Suck,-2227.500000,2400.000000,Speed,-2370.000000,2400.000000,Speed,Off,On,0.000000,FALSE,0,,,,
08:51:19.184 PM 03/24/2016,Teleop Enabled,6,FALSE,0,NO ERROR,-0.000000,0.012833,0.000000,0.134750,TRUE,FALSE,FALSE,FALSE,FALSE,FALSE,Disabled,0.000000,0.000000,0.000000,TRUE,0.160034,0.051178,0.000000,0.153061,0.011078,0.000000,0.028000,0.110000,-0.131000,-0.930000,0.000000,1.650000,-3.661546,Hold,0.000000,0.000000,Hold,-6.000000,2.000000,Suck,-2250.000000,2400.000000,Speed,-2385.000000,2400.000000,Speed,Off,On,0.000000,FALSE,0,,,,
08:51:19.283 PM 03/24/2016,Teleop Enabled,10,FALSE,0,NO ERROR,-0.000000,0.012833,0.000000,0.134750,TRUE,FALSE,FALSE,FALSE,FALSE,FALSE,Disabled,0.000000,0.000000,0.000000,TRUE,0.166718,0.053146,0.000000,0.193542,0.049988,0.000000,0.075000,-0.136000,0.389000,-0.930000,0.050000,1.790000,-3.652964,Hold,0.000000,0.000000,Hold,-6.000000,2.000000,Suck,-2220.000000,2400.000000,Speed,-2392.500000,2400.000000,Speed,Off,On,0.000000,FALSE,0,,,,
08:51:19.383 PM 03/24/2016,Teleop Enabled,5,FALSE,0,NO ERROR,-0.000000,0.012833,0.000000,0.134750,TRUE,FALSE,FALSE,FALSE,FALSE,FALSE,Disabled,0.000000,0.000000,0.000000,TRUE,0.179428,0.052750,0.000000,0.177460,-0.011734,0.000000,-0.166000,0.178000,-0.235000,-0.920000,-0.240000,1.600000,-3.645221,Hold,0.000000,0.000000,Hold,-6.000000,2.000000,Suck,-2175.000000,2400.000000,Speed,-2377.500000,2400.000000,Speed,Off,On,0.000000,FALSE,0,,,,
08:51:19.484 PM 03/24/2016,Teleop Enabled,8,FALSE,0,NO ERROR,-0.000000,0.012833,0.000000,0.134750,TRUE,FALSE,FALSE,FALSE,FALSE,FALSE,Disabled,0.000000,0.000000,0.000000,TRUE,0.186630,0.054520,0.000000,0.133377,0.005447,0.000000,-0.011000,-0.249000,0.183000,-0.930000,-0.240000,1.620000,-3.645514,Hold,0.000000,0.000000,Hold,-6.000000,2.000000,Suck,-2227.500000,2400.000000,Speed,-2355.000000,2400.000000,Speed,Off,On,0.000000,FALSE,0,,,,
08:51:19.585 PM 03/24/2016,Teleop Enabled,9,FALSE,0,NO ERROR,-0.000000,0.012833,0.000000,0.134750,TRUE,FALSE,FALSE,FALSE,FALSE,FALSE,Disabled,0.000000,0.000000,0.000000,TRUE,0.194717,0.052307,0.000000,0.166306,-0.047073,0.000000,-0.058000,0.153000,0.008000,-0.930000,-0.120000,1.600000,-3.648396,Hold,0.000000,0.000000,Hold,-6.000000,2.000000,Suck,-2295.000000,2400.000000,Speed,-2377.500000,2400.000000,Speed,Off,On,0.000000,FALSE,0,,,,
08:51:19.685 PM 03/24/2016,Teleop Enabled,9,FALSE,0,NO ERROR,-0.000000,0.012833,0.000000,0.134750,TRUE,FALSE,FALSE,FALSE,FALSE,FALSE,Disabled,0.000000,0.000000,0.000000,TRUE,0.200317,0.055069,0.000000,0.097305,0.099426,0.000000,-0.079000,-0.095000,-0.121000,-0.940000,0.000000,1.750000,-3.673643,Hold,0.000000,0.000000,Hold,-6.000000,2.000000,Suck,-2280.000000,2400.000000,Speed,-2400.000000,2400.000000,Speed,Off,On,0.000000,FALSE,0,,,,
08:51:19.786 PM 03/24/2016,Teleop Enabled,10,FALSE,0,NO ERROR,-0.000000,0.012833,0.000000,0.134750,TRUE,FALSE,FALSE,FALSE,FALSE,FALSE,Disabled,0.000000,0.000000,0.000000,TRUE,0.205551,0.056396,0.000000,0.118347,0.011154,0.000000,-0.086000,0.068000,0.169000,-0.940000,-0.070000,1.820000,-3.677282,Hold,0.000000,0.000000,Hold,-6.000000,2.000000,Suck,-2280.000000,2400.000000,Speed,-2400.000000,2400.000000,Speed,Off,On,0.000000,FALSE,0,,,,
08:51:19.887 PM 03/24/2016,Teleop Enabled,10,FALSE,0,NO ERROR,-0.000000,0.012833,0.000000,0.134750,TRUE,FALSE,FALSE,FALSE,FALSE,FALSE,Disabled,0.000000,0.000000,0.000000,TRUE,0.211166,0.058060,0.000000,0.137085,0.021500,0.000000,0.134000,-0.163000,0.107000,-0.950000,-0.060000,1.760000,-3.673888,Hold,0.000000,0.000000,Hold,-6.000000,2.000000,Suck,-2295.000000,2400.000000,Speed,-2385.000000,2400.000000,Speed,Off,On,0.000000,FALSE,0,,,,
08:51:19.988 PM 03/24/2016,Teleop Enabled,8,FALSE,0,NO ERROR,-0.000000,0.012833,0.000000,0.134750,TRUE,FALSE,FALSE,FALSE,FALSE,FALSE,Disabled,0.000000,0.000000,0.000000,TRUE,0.220306,0.056793,0.000000,0.189941,-0.027527,0.000000,-0.073000,0.118000,-0.145000,-0.950000,0.050000,1.680000,-3.657525,Hold,0.000000,0.000000,Hold,-6.000000,2.000000,Suck,-2287.500000,2400.000000,Speed,-2355.000000,2400.000000,Speed,Off,On,0.000000,FALSE,0,,,,
08:51:20.088 PM 03/24/2016,Teleop Enabled,9,FALSE,0,NO ERROR,-0.000000,0.012833,0.000000,0.134750,TRUE,FALSE,FALSE,FALSE,FALSE,FALSE,Disabled,0.000000,0.000000,0.000000,TRUE,0.226913,0.059311,0.000000,0.076508,0.128738,0.000000,-0.125000,0.242000,-0.241000,-0.950000,-0.030000,1.620000,-3.661556,Hold,0.000000,0.000000,Hold,-6.000000,2.000000,Suck,-2272.500000,2400.000000,Speed,-2347.500000,2400.000000,Speed,Off,On,0.000000,FALSE,0,,,,
08:51:20.189 PM 03/24/2016,Teleop Enabled,11,FALSE,0,NO ERROR,-0.000000,0.012833,0.000000,0.134750,TRUE,FALSE,FALSE,FALSE,FALSE,FALSE,Disabled,0.000000,0.000000,0.000000,TRUE,0.230911,0.065079,0.000000,0.105713,0.066086,0.000000,0.059000,-0.147000,0.225000,-0.940000,-0.110000,1.760000,-3.662204,Hold,0.000000,0.000000,Hold,-6.000000,2.000000,Suck,-2265.000000,2400.000000,Speed,-2370.000000,2400.000000,Speed,Off,On,0.000000,FALSE,0,,,,
08:51:20.290 PM 03/24/2016,Teleop Enabled,5,FALSE,0,NO ERROR,-0.000000,0.012833,0.000000,0.134750,TRUE,FALSE,FALSE,FALSE,FALSE,FALSE,Disabled,0.000000,0.000000,0.000000,TRUE,0.233032,0.067444,0.000000,-0.015198,0.089462,0.000000,0.067000,0.039000,-0.326000,-0.940000,-0.180000,1.840000,-3.675223,Hold,0.000000,0.000000,Hold,-6.000000,2.000000,Suck,-2272.500000,2400.000000,Speed,-2400.000000,2400.000000,Speed,Off,On,0.000000,FALSE,0,,,,
08:51:20.390 PM 03/24/2016,Teleop Enabled,9,FALSE,0,NO ERROR,-0.000000,0.012833,0.000000,0.134750,TRUE,FALSE,FALSE,FALSE,FALSE,FALSE,Disabled,0.000000,0.000000,0.000000,TRUE,0.233963,0.070816,0.000000,0.049347,0.010574,0.000000,-0.025000,-0.092000,0.023000,-0.940000,-0.120000,1.790000,-3.663956,Hold,0.000000,0.000000,Hold,-6.000000,2.000000,Suck,-2295.000000,2400.000000,Speed,-2407.500000,2400.000000,Speed,Off,On,0.000000,FALSE,0,,,,
08:51:20.491 PM 03/24/2016,Teleop Enabled,10,FALSE,0,NO ERROR,-0.000000,0.012833,0.000000,0.134750,TRUE,FALSE,FALSE,FALSE,FALSE,FALSE,Disabled,0.000000,0.000000,0.000000,TRUE,0.234283,0.071991,0.000000,-0.032959,0.067703,0.000000,0.000000,0.195000,-0.286000,-0.940000,-0.180000,1.780000,-3.674480,Hold,0.000000,0.000000,Hold,-6.000000,2.000000,Suck,-2280.000000,2400.000000,Speed,-2385.000000,2400.000000,Speed,Off,On,0.000000,FALSE,0,,,,
08:51:20.591 PM 03/24/2016,Teleop Enabled,10,FALSE,0,NO ERROR,-0.000000,0.012833,0.000000,0.134750,TRUE,FALSE,FALSE,FALSE,FALSE,FALSE,Disabled,0.000000,0.000000,0.000000,TRUE,0.234085,0.076492,0.000000,0.009247,0.038666,0.000000,-0.177000,-0.112000,0.276000,-0.950000,-0.260000,1.730000,-3.665512,Hold,0.000000,0.000000,Hold,-6.000000,2.000000,Suck,-2265.000000,2400.000000,Speed,-2385.000000,2400.000000,Speed,Off,On,0.000000,FALSE,0,,,,
08:51:20.696 PM 03/24/2016,Teleop Enabled,14,FALSE,0,NO ERROR,-0.000000,0.012833,0.000000,0.134750,TRUE,FALSE,FALSE,FALSE,FALSE,FALSE,Disabled,0.000000,0.000000,0.000000,TRUE,0.232574,0.077377,0.000000,-0.036240,0.046707,0.000000,-0.016000,0.131000,-0.110000,-0.940000,-0.310000,1.600000,-3.661636,Hold,0.000000,0.000000,Hold,-6.000000,2.000000,Suck,-2302.500000,2400.000000,Speed,-2392.500000,2400.000000,Speed,Off,On,0.000000,FALSE,0,,,,
08:51:20.796 PM 03/24/2016,Teleop Enabled,11,FALSE,0,NO ERROR,-0.000000,0.012833,0.000000,0.134750,TRUE,FALSE,FALSE,FALSE,FALSE,FALSE,Disabled,0.000000,0.000000,0.000000,TRUE,0.230774,0.080460,0.000000,-0.021225,0.006577,0.000000,-0.114000,-0.007000,0.198000,-0.940000,-0.390000,1.610000,-3.673227,Hold,0.000000,0.000000,Hold,-6.000000,2.000000,Suck,-2347.500000,2400.000000,Speed,-2392.500000,2400.000000,Speed,Off,On,0.000000,FALSE,0,,,,
