Time,Robot Mode,Loop Time,Error Status,Error Code,Error Source,Left Motor Output,Left Motor Encoder,Right Motor Output,Right Motor Encoder,Is Level,Is Stalled,Ball Detector Photoeye,Vision Enabled,Vision Teleop Control,Vision Auto Control,Vision Current State,Vision X Output,Vision NavX Error,Vision NavX Target,NavX Connection Status,NavX Displacement X,NavX Displacement Y,NavX Displacement Z,NavX Velocity X,NavX Velocity Y,NavX Velocity Z,NavX Acceleration X,NavX Acceleration Y,NavX Acceleration Z,NavX Pitch,NavX Yaw,NavX Roll,Gyro Angle,Roller Arm State,Roller Arm Actual,Roller Arm Desired,Shooter Arm State,Shooter Arm Actual,Shooter Arm Desired,Shooter State,Actual RPM Left,Desired RPM Left,Control Mode Left,Actual RPM Right,Desired RPM Right,Control Mode Right,Ball Shooter Cylinder,Ball Halo Cylinder,Scaler Motor Output,Scaler Solenoid Fire,Auto To Run,Auto Current File,Auto File Status,Auto Current Command,Auto Trimmed Command
06:50:10.959 PM 03/23/2016,Teleop Enabled,9,FALSE,0,NO ERROR,-0.000000,0.000000,0.000000,0.000000,TRUE,FALSE,TRUE,FALSE,FALSE,FALSE,Disabled,0.000000,0.000000,0.000000,TRUE,0.000000,0.000000,0.000000,0.000000,0.000000,0.000000,0.001000,0.000000,0.008000,-0.090000,0.360000,1.090000,0.320148,ResetBack,0.000000,-0.000049,ResetBack,0.000000,-0.300000,LowGoal,0.000000,-1454.545455,Speed,0.000000,-1454.545455,Speed,Off,Off,0.000000,FALSE,0,,,,
06:50:11.060 PM 03/23/2016,Teleop Enabled,11,FALSE,0,NO ERROR,-0.000000,-0.282333,0.000000,0.000000,TRUE,FALSE,TRUE,FALSE,FALSE,FALSE,Disabled,0.000000,0.000000,0.000000,TRUE,0.000000,0.000000,0.000000,0.000000,0.000000,0.000000,-0.032000,0.132000,0.159000,-0.090000,0.340000,1.080000,0.378409,ResetBack,-0.347656,-0.000049,ResetBack,2711.000000,-0.300000,LowGoal,0.000000,-1454.545455,Speed,22.500000,-1454.545455,Speed,Off,Off,0.000000,FALSE,0,,,,
06:50:11.160 PM 03/23/2016,Teleop Enabled,10,FALSE,0,NO ERROR,-0.000000,-0.243833,0.000000,0.000000,TRUE,FALSE,TRUE,FALSE,FALSE,FALSE,Disabled,0.000000,0.000000,0.000000,TRUE,0.000092,0.000458,0.000000,0.020737,0.000000,0.000000,-0.059000,-0.011000,0.027000,-0.040000,0.390000,1.120000,0.355761,ResetBack,-0.571533,-0.000049,ResetBack,5589.000000,-0.300000,LowGoal,502.500000,-1454.545455,Speed,457.500000,-1454.545455,Speed,Off,Off,0.000000,FALSE,0,,,,
06:50:11.260 PM 03/23/2016,Teleop Enabled,9,FALSE,0,NO ERROR,-0.000000,-0.243833,0.000000,0.000000,TRUE,FALSE,TRUE,FALSE,FALSE,FALSE,Disabled,0.000000,0.000000,0.000000,TRUE,0.001190,0.000870,0.000000,0.020370,0.021698,0.000000,-0.026000,-0.084000,0.122000,-0.060000,0.370000,1.140000,0.361775,ResetBack,-0.908447,-0.000049,ResetBack,5589.000000,-0.300000,LowGoal,1365.000000,-1454.545455,Speed,1365.000000,-1454.545455,Speed,Off,Off,0.000000,FALSE,0,,,,
06:50:11.360 PM 03/23/2016,Teleop Enabled,10,FALSE,0,NO ERROR,-0.000000,-0.243833,0.000000,0.000000,TRUE,FALSE,TRUE,FALSE,FALSE,FALSE,Disabled,0.000000,0.000000,0.000000,TRUE,0.001907,0.002197,0.000000,0.019608,0.034882,0.000000,-0.066000,-0.006000,0.049000,-0.070000,0.380000,1.200000,0.364970,Reset,-0.950928,0.000000,ResetBack,6641.000000,-0.300000,LowGoal,1642.500000,-1454.545455,Speed,1657.500000,-1454.545455,Speed,Off,Off,0.000000,FALSE,0,,,,
06:50:11.460 PM 03/23/2016,Teleop Enabled,10,FALSE,0,NO ERROR,-0.000000,-0.243833,0.000000,0.000000,TRUE,FALSE,TRUE,FALSE,FALSE,FALSE,Disabled,0.000000,0.000000,0.000000,TRUE,0.002289,0.002457,0.000000,0.000000,0.014526,0.000000,-0.010000,0.002000,0.011000,-0.060000,0.390000,1.160000,0.369466,Hold,0.436523,0.000000,ResetBack,8429.000000,-0.300000,LowGoal,1372.500000,-1454.545455,Speed,1335.000000,-1454.545455,Speed,Off,Off,0.000000,FALSE,0,,,,
06:50:11.562 PM 03/23/2016,Teleop Enabled,10,FALSE,0,NO ERROR,-0.000000,-0.243833,0.000000,0.000000,TRUE,FALSE,TRUE,FALSE,FALSE,FALSE,Disabled,0.000000,0.000000,0.000000,TRUE,0.001587,0.003265,0.000000,-0.013260,0.015808,0.000000,-0.005000,0.017000,0.013000,-0.060000,0.340000,1.190000,0.375115,Hold,0.479492,0.000000,ResetBack,8429.000000,-0.300000,LowGoal,1305.000000,-1454.545455,Speed,1297.500000,-1454.545455,Speed,Off,Off,0.000000,FALSE,0,,,,
06:50:11.662 PM 03/23/2016,Teleop Enabled,10,FALSE,0,NO ERROR,-0.000000,-0.243833,0.000000,0.000000,TRUE,FALSE,TRUE,FALSE,FALSE,FALSE,Disabled,0.000000,0.000000,0.000000,TRUE,0.000946,0.004059,0.000000,-0.022156,0.015625,0.000000,-0.045000,-0.039000,-0.019000,-0.050000,0.250000,1.160000,0.362522,Hold,0.479492,0.000000,ResetBack,8430.000000,-0.300000,LowGoal,1410.000000,-1454.545455,Speed,1440.000000,-1454.545455,Speed,Off,Off,0.000000,FALSE,0,,,,
06:50:11.762 PM 03/23/2016,Teleop Enabled,9,FALSE,0,NO ERROR,-0.000000,-0.243833,0.000000,0.000000,TRUE,FALSE,TRUE,FALSE,FALSE,FALSE,Disabled,0.000000,0.000000,0.000000,TRUE,0.000320,0.004578,0.000000,-0.002731,0.009689,0.000000,0.000000,-0.015000,0.043000,-0.050000,0.200000,1.110000,0.365338,Hold,0.479492,0.000000,ResetBack,8430.000000,-0.300000,LowGoal,1440.000000,-1454.545455,Speed,1417.500000,-1454.545455,Speed,Off,Off,0.000000,FALSE,0,,,,
06:50:11.863 PM 03/23/2016,Teleop Enabled,9,FALSE,0,NO ERROR,-0.000000,-0.243833,0.000000,0.000000,TRUE,FALSE,TRUE,FALSE,FALSE,FALSE,Disabled,0.000000,0.000000,0.000000,TRUE,0.000519,0.004852,0.000000,0.004227,0.012405,0.000000,0.019000,-0.063000,0.022000,-0.050000,0.200000,1.120000,0.365338,Hold,0.479492,0.000000,ResetBack,8430.000000,-0.300000,LowGoal,1380.000000,-1454.545455,Speed,1357.500000,-1454.545455,Speed,Off,Off,0.000000,FALSE,0,,,,
06:50:11.963 PM 03/23/2016,Teleop Enabled,10,FALSE,0,NO ERROR,-0.000000,-0.243833,0.000000,0.000000,TRUE,FALSE,TRUE,FALSE,FALSE,FALSE,Disabled,0.000000,0.000000,0.000000,TRUE,0.000427,0.005219,0.000000,-0.008408,0.007523,0.000000,-0.037000,0.064000,0.014000,-0.050000,0.170000,1.100000,0.372540,Hold,0.479492,0.000000,ResetBack,8430.000000,-0.300000,LowGoal,1387.500000,-1454.545455,Speed,1380.000000,-1454.545455,Speed,Off,Off,0.000000,FALSE,0,,,,
06:50:12.064 PM 03/23/2016,Teleop Enabled,10,FALSE,0,NO ERROR,-0.000000,-0.243833,0.000000,0.000000,TRUE,FALSE,TRUE,FALSE,FALSE,FALSE,Disabled,0.000000,0.000000,0.000000,TRUE,-0.000214,0.006653,0.000000,-0.000824,0.030090,0.000000,0.054000,-0.032000,0.059000,-0.050000,0.190000,1.090000,0.373728,Hold,0.479492,0.000000,ResetBack,8430.000000,-0.300000,LowGoal,1410.000000,-1454.545455,Speed,1417.500000,-1454.545455,Speed,Off,Off,0.000000,FALSE,0,,,,
06:50:12.164 PM 03/23/2016,Teleop Enabled,12,FALSE,0,NO ERROR,-0.000000,-0.243833,0.000000,0.000000,TRUE,FALSE,TRUE,FALSE,FALSE,FALSE,Disabled,0.000000,0.000000,0.000000,TRUE,-0.000290,0.006912,0.000000,-0.009399,0.000000,0.000000,-0.014000,0.016000,0.045000,-0.040000,0.190000,1.090000,0.374454,Hold,0.479492,0.000000,ResetBack,8430.000000,-0.300000,LowGoal,1402.500000,-1454.545455,Speed,1402.500000,-1454.545455,Speed,Off,Off,0.000000,FALSE,0,,,,
06:50:12.265 PM 03/23/2016,Teleop Enabled,11,FALSE,0,NO ERROR,-0.000000,-0.243833,0.000000,0.000000,TRUE,FALSE,TRUE,FALSE,FALSE,FALSE,Disabled,0.000000,0.000000,0.000000,TRUE,-0.001007,0.007156,0.000000,-0.018265,0.004227,0.000000,-0.025000,-0.001000,0.049000,-0.040000,0.220000,1.100000,0.379033,Hold,0.479492,0.000000,Reset,8430.000000,2.000000,LowGoal,1395.000000,-1454.545455,Speed,1387.500000,-1454.545455,Speed,Off,Off,0.000000,FALSE,0,,,,
06:50:12.365 PM 03/23/2016,Teleop Enabled,10,FALSE,0,NO ERROR,-0.000000,-0.243833,0.000000,0.000000,TRUE,FALSE,TRUE,FALSE,FALSE,FALSE,Disabled,0.000000,0.000000,0.000000,TRUE,-0.002045,0.007401,0.000000,-0.025009,0.008881,0.000000,0.035000,-0.007000,-0.008000,-0.040000,0.240000,1.090000,0.388279,Hold,0.479492,0.000000,Hold,-142.000000,2.000000,LowGoal,1395.000000,-1454.545455,Speed,1395.000000,-1454.545455,Speed,Off,Off,0.000000,FALSE,0,,,,
06:50:12.465 PM 03/23/2016,Teleop Enabled,10,FALSE,0,NO ERROR,-0.000000,-0.243833,0.000000,0.000000,TRUE,FALSE,TRUE,FALSE,FALSE,FALSE,Disabled,0.000000,0.000000,0.000000,TRUE,-0.003586,0.007019,0.000000,-0.035049,-0.006790,0.000000,0.004000,0.002000,0.005000,-0.040000,0.210000,1.080000,0.386493,Hold,0.479492,0.000000,Hold,-217.000000,2.000000,LowGoal,1410.000000,-1454.545455,Speed,1402.500000,-1454.545455,Speed,Off,Off,0.000000,FALSE,0,,,,
06:50:12.565 PM 03/23/2016,Teleop Enabled,10,FALSE,0,NO ERROR,-0.000000,-0.243833,0.000000,0.000000,TRUE,FALSE,TRUE,FALSE,FALSE,FALSE,Disabled,0.000000,0.000000,0.000000,TRUE,-0.003403,0.006516,0.000000,-0.000183,0.000000,0.000000,-0.019000,-0.001000,0.040000,-0.040000,0.250000,1.070000,0.390038,Hold,0.479492,0.000000,Hold,-217.000000,2.000000,LowGoal,1402.500000,-1454.545455,Speed,1395.000000,-1454.545455,Speed,Off,Off,0.000000,FALSE,0,,,,
06:50:12.665 PM 03/23/2016,Teleop Enabled,10,FALSE,0,NO ERROR,-0.000000,-0.243833,0.000000,0.000000,TRUE,FALSE,TRUE,FALSE,FALSE,FALSE,Disabled,0.000000,0.000000,0.000000,TRUE,-0.003510,0.006760,0.000000,0.000000,0.005188,0.000000,-0.006000,0.049000,0.052000,-0.040000,0.230000,1.090000,0.391818,Hold,0.479492,0.000000,Hold,-217.000000,2.000000,LowGoal,1395.000000,-1454.545455,Speed,1395.000000,-1454.545455,Speed,Off,Off,0.000000,FALSE,0,,,,
06:50:12.765 PM 03/23/2016,Teleop Enabled,10,FALSE,0,NO ERROR,-0.000000,-0.243833,0.000000,0.000000,TRUE,FALSE,TRUE,FALSE,FALSE,FALSE,Disabled,0.000000,0.000000,0.000000,TRUE,-0.003571,0.007263,0.000000,-0.005859,0.018799,0.000000,0.091000,-0.018000,-0.072000,-0.040000,0.200000,1.100000,0.392200,Hold,0.479492,0.000000,Hold,-217.000000,2.000000,LowGoal,1402.500000,-1454.545455,Speed,1395.000000,-1454.545455,Speed,Off,Off,0.000000,FALSE,0,,,,
06:50:12.865 PM 03/23/2016,Teleop Enabled,10,FALSE,0,NO ERROR,-0.000000,-0.243833,0.000000,0.000000,TRUE,FALSE,TRUE,FALSE,FALSE,FALSE,Disabled,0.000000,0.000000,0.000000,TRUE,-0.002731,0.008011,0.000000,0.024307,0.005630,0.000000,-0.043000,-0.036000,-0.015000,-0.040000,0.300000,1.070000,0.403791,Hold,0.479492,0.000000,Hold,-217.000000,2.000000,LowGoal,1402.500000,-1454.545455,Speed,1387.500000,-1454.545455,Speed,Off,Off,0.000000,FALSE,0,,,,
06:50:12.965 PM 03/23/2016,Teleop Enabled,10,FALSE,0,NO ERROR,-0.000000,-0.243833,0.000000,0.000000,TRUE,FALSE,TRUE,FALSE,FALSE,FALSE,Disabled,0.000000,0.000000,0.000000,TRUE,-0.001358,0.008392,0.000000,0.036148,0.003220,0.000000,-0.010000,-0.045000,0.009000,-0.040000,0.340000,1.070000,0.403640,Hold,0.479492,0.000000,Hold,-217.000000,2.000000,LowGoal,1402.500000,-1454.545455,Speed,1395.000000,-1454.545455,Speed,Off,Off,0.000000,FALSE,0,,,,
06:50:13.065 PM 03/23/2016,Teleop Enabled,11,FALSE,0,NO ERROR,-0.000000,-0.243833,0.000000,0.000000,TRUE,FALSE,TRUE,FALSE,FALSE,FALSE,Disabled,0.000000,0.000000,0.000000,TRUE,-0.000320,0.008545,0.000000,0.020966,0.000412,0.000000,0.036000,-0.002000,-0.095000,-0.040000,0.250000,1.090000,0.403929,Hold,0.479492,0.000000,Hold,-246.000000,2.000000,LowGoal,1402.500000,-1454.545455,Speed,1395.000000,-1454.545455,Speed,Off,Off,0.000000,FALSE,0,,,,
06:50:13.167 PM 03/23/2016,Teleop Enabled,10,FALSE,0,NO ERROR,-0.000000,-0.243833,0.000000,0.000000,TRUE,FALSE,TRUE,FALSE,FALSE,FALSE,Disabled,0.000000,0.000000,0.000000,TRUE,0.001129,0.008591,0.000000,0.030289,0.000000,0.000000,-0.001000,-0.031000,-0.001000,-0.040000,0.270000,1.080000,0.401695,Hold,0.479492,0.000000,Hold,-246.000000,2.000000,LowGoal,1410.000000,-1454.545455,Speed,1402.500000,-1454.545455,Speed,Off,Off,0.000000,FALSE,0,,,,
06:50:13.267 PM 03/23/2016,Teleop Enabled,10,FALSE,0,NO ERROR,-0.000000,-0.243833,0.000000,0.000000,TRUE,FALSE,TRUE,FALSE,FALSE,FALSE,Disabled,0.000000,0.000000,0.000000,TRUE,0.001663,0.008530,0.000000,0.023300,0.005203,0.000000,-0.076000,0.009000,0.045000,-0.040000,0.380000,1.060000,0.404607,Hold,0.479492,0.000000,Hold,-246.000000,2.000000,LowGoal,1402.500000,-1454.545455,Speed,1402.500000,-1454.545455,Speed,Off,Off,0.000000,FALSE,0,,,,
06:50:13.367 PM 03/23/2016,Teleop Enabled,10,FALSE,0,NO ERROR,-0.000000,-0.243833,0.000000,0.000000,TRUE,FALSE,TRUE,FALSE,FALSE,FALSE,Disabled,0.000000,0.000000,0.000000,TRUE,0.001556,0.009338,0.000000,-0.006546,0.022537,0.000000,0.017000,-0.003000,0.014000,-0.040000,0.250000,1.090000,0.399519,Hold,0.479492,0.000000,Hold,-246.000000,2.000000,LowGoal,1402.500000,-1454.545455,Speed,1395.000000,-1454.545455,Speed,Off,Off,0.000000,FALSE,0,,,,
06:50:13.467 PM 03/23/2016,Teleop Enabled,10,FALSE,0,NO ERROR,-0.000000,-0.243833,0.000000,0.000000,TRUE,FALSE,TRUE,FALSE,FALSE,FALSE,Disabled,0.000000,0.000000,0.000000,TRUE,0.001495,0.009354,0.000000,-0.007675,0.000122,0.000000,0.032000,-0.019000,-0.023000,-0.040000,0.290000,1.060000,0.402797,Hold,0.479492,0.000000,Hold,-246.000000,2.000000,LowGoal,1402.500000,-1454.545455,Speed,1402.500000,-1454.545455,Speed,Off,Off,0.000000,FALSE,0,,,,
06:50:13.568 PM 03/23/2016,Teleop Enabled,9,FALSE,0,NO ERROR,-0.000000,-0.243833,0.000000,0.000000,TRUE,FALSE,TRUE,FALSE,FALSE,FALSE,Disabled,0.000000,0.000000,0.000000,TRUE,0.001266,0.009094,0.000000,0.005264,-0.011856,0.000000,-0.034000,0.044000,0.047000,-0.040000,0.350000,1.030000,0.398180,Hold,0.479492,0.000000,Hold,-246.000000,2.000000,LowGoal,1402.500000,-1454.545455,Speed,1395.000000,-1454.545455,Speed,Off,Off,0.000000,FALSE,0,,,,
06:50:13.668 PM 03/23/2016,Teleop Enabled,10,FALSE,0,NO ERROR,-0.000000,-0.243833,0.000000,0.000000,TRUE,FALSE,TRUE,FALSE,FALSE,FALSE,Disabled,0.000000,0.000000,0.000000,TRUE,0.001389,0.008591,0.000000,0.000000,0.000000,0.000000,0.054000,-0.001000,-0.018000,-0.040000,0.370000,1.040000,0.389560,Hold,0.479492,0.000000,Hold,-246.000000,2.000000,LowGoal,1395.000000,-1454.545455,Speed,1395.000000,-1454.545455,Speed,Off,Off,0.000000,FALSE,0,,,,
06:50:13.768 PM 03/23/2016,Teleop Enabled,10,FALSE,0,NO ERROR,-0.000000,-0.243833,0.000000,0.000000,TRUE,FALSE,TRUE,FALSE,FALSE,FALSE,Disabled,0.000000,0.000000,0.000000,TRUE,0.001663,0.008606,0.000000,-0.001114,0.003265,0.000000,-0.004000,0.047000,0.083000,-0.040000,0.330000,1.070000,0.372733,Hold,0.479492,0.000000,Hold,-246.000000,2.000000,LowGoal,1402.500000,-1454.545455,Speed,1402.500000,-1454.545455,Speed,Off,Off,0.000000,FALSE,0,,,,
06:50:13.868 PM 03/23/2016,Teleop Enabled,11,FALSE,0,NO ERROR,-0.000000,-0.243833,0.000000,0.000000,TRUE,FALSE,TRUE,FALSE,FALSE,FALSE,Disabled,0.000000,0.000000,0.000000,TRUE,0.001877,0.009232,0.000000,0.015289,0.008423,0.000000,-0.014000,-0.006000,-0.024000,-0.030000,0.390000,1.060000,0.388018,Hold,0.479492,0.000000,Hold,-246.000000,2.000000,LowGoal,1402.500000,-1454.545455,Speed,1402.500000,-1454.545455,Speed,Off,Off,0.000000,FALSE,0,,,,
06:50:13.969 PM 03/23/2016,Teleop Enabled,10,FALSE,0,NO ERROR,-0.000000,-0.243833,0.000000,0.000000,TRUE,FALSE,TRUE,FALSE,FALSE,FALSE,Disabled,0.000000,0.000000,0.000000,TRUE,0.001465,0.009659,0.000000,-0.005066,0.011047,0.000000,0.022000,-0.022000,0.000000,-0.030000,0.360000,1.070000,0.390314,Hold,0.479492,0.000000,Hold,-246.000000,2.000000,LowGoal,1402.500000,-1454.545455,Speed,1402.500000,-1454.545455,Speed,Off,Off,0.000000,FALSE,0,,,,
06:50:14.072 PM 03/23/2016,Teleop Enabled,10,FALSE,0,NO ERROR,0.000000,-0.243833,-0.000000,0.000000,TRUE,FALSE,TRUE,TRUE,TRUE,FALSE,Disabled,0.000000,0.000000,0.000000,TRUE,0.001556,0.009720,0.000000,0.003616,-0.003723,0.000000,-0.026000,-0.052000,-0.015000,-0.030000,0.390000,1.080000,0.381952,Hold,0.479492,0.000000,Hold,-246.000000,2.000000,LowGoal,1402.500000,-1454.545455,Speed,1402.500000,-1454.545455,Speed,Off,Off,0.000000,FALSE,0,,,,
06:50:14.172 PM 03/23/2016,Teleop Enabled,9,FALSE,0,NO ERROR,0.000000,-0.243833,-0.000000,0.000000,TRUE,FALSE,TRUE,TRUE,TRUE,FALSE,Disabled,0.000000,0.000000,0.000000,TRUE,0.001755,0.009567,0.000000,0.008087,-0.002380,0.000000,0.037000,0.013000,0.038000,-0.040000,0.350000,1.080000,0.393102,Hold,0.479492,0.000000,Hold,-246.000000,2.000000,LowGoal,1410.000000,-1454.545455,Speed,1395.000000,-1454.545455,Speed,Off,Off,0.000000,FALSE,0,,,,
06:50:14.272 PM 03/23/2016,Teleop Enabled,9,FALSE,0,NO ERROR,0.000000,0.032083,-0.000000,0.000000,TRUE,FALSE,TRUE,TRUE,TRUE,FALSE,Disabled,0.000000,0.000000,0.000000,TRUE,0.000961,0.009491,0.000000,-0.026886,-0.000336,0.000000,0.046000,0.007000,0.110000,-0.140000,0.240000,1.050000,0.280737,Hold,0.479492,0.000000,Hold,-246.000000,2.000000,LowGoal,1402.500000,-1454.545455,Speed,1395.000000,-1454.545455,Speed,Off,Off,0.000000,FALSE,0,,,,
06:50:14.372 PM 03/23/2016,Teleop Enabled,10,FALSE,0,NO ERROR,0.000000,0.032083,-0.000000,-0.012833,TRUE,FALSE,TRUE,TRUE,TRUE,FALSE,Disabled,0.000000,0.000000,0.000000,TRUE,0.000275,0.009689,0.000000,-0.010986,0.002502,0.000000,-0.046000,0.010000,0.076000,-0.090000,0.320000,1.100000,0.331116,Hold,0.479492,0.000000,Hold,-246.000000,2.000000,LowGoal,1402.500000,-1454.545455,Speed,1402.500000,-1454.545455,Speed,Off,Off,0.000000,FALSE,0,,,,
06:50:14.480 PM 03/23/2016,Teleop Enabled,10,FALSE,0,NO ERROR,0.000000,0.032083,-0.000000,-0.012833,TRUE,FALSE,TRUE,TRUE,TRUE,FALSE,Disabled,0.000000,0.000000,0.000000,TRUE,-0.000763,0.009537,0.000000,-0.012497,0.000000,0.000000,0.090000,-0.019000,-0.031000,-0.090000,0.260000,1.070000,0.337388,Hold,0.479492,0.000000,Hold,-246.000000,2.000000,LowGoal,1410.000000,-1454.545455,Speed,1387.500000,-1454.545455,Speed,Off,Off,0.000000,FALSE,0,,,,
06:50:14.580 PM 03/23/2016,Teleop Enabled,10,FALSE,0,NO ERROR,0.000000,0.032083,-0.000000,-0.012833,TRUE,FALSE,TRUE,TRUE,TRUE,FALSE,Disabled,0.000000,0.000000,0.000000,TRUE,-0.000595,0.009537,0.000000,0.011154,0.000000,0.000000,0.089000,-0.036000,0.008000,-0.080000,0.420000,1.050000,0.342004,Hold,0.479492,0.000000,Hold,-246.000000,2.000000,LowGoal,1402.500000,-1454.545455,Speed,1387.500000,-1454.545455,Speed,Off,Off,0.000000,FALSE,0,,,,
06:50:14.680 PM 03/23/2016,Teleop Enabled,11,FALSE,0,NO ERROR,0.000000,0.032083,-0.000000,-0.012833,TRUE,FALSE,TRUE,TRUE,TRUE,FALSE,Disabled,0.000000,0.000000,0.000000,TRUE,0.000626,0.009171,0.000000,0.017197,-0.007507,0.000000,-0.057000,0.060000,-0.016000,-0.080000,0.370000,1.070000,0.333704,Hold,0.479492,0.000000,Hold,-246.000000,2.000000,LowGoal,1402.500000,-1454.545455,Speed,1410.000000,-1454.545455,Speed,Off,Off,0.000000,FALSE,0,,,,
06:50:14.780 PM 03/23/2016,Teleop Enabled,10,FALSE,0,NO ERROR,0.000000,0.032083,-0.000000,-0.012833,TRUE,FALSE,TRUE,TRUE,TRUE,FALSE,Disabled,0.000000,0.000000,0.000000,TRUE,0.001450,0.009079,0.000000,0.020447,0.000000,0.000000,0.009000,0.012000,0.010000,-0.070000,0.390000,1.080000,0.337426,Hold,0.479492,0.000000,Hold,-246.000000,2.000000,LowGoal,1402.500000,-1454.545455,Speed,1410.000000,-1454.545455,Speed,Off,Off,0.000000,FALSE,0,,,,
06:50:14.881 PM 03/23/2016,Teleop Enabled,10,FALSE,0,NO ERROR,0.000000,0.032083,-0.000000,-0.012833,TRUE,FALSE,TRUE,TRUE,TRUE,FALSE,Disabled,0.000000,0.000000,0.000000,TRUE,0.001526,0.009232,0.000000,0.001099,0.008942,0.000000,0.058000,-0.006000,-0.007000,-0.070000,0.390000,1.110000,0.333154,Hold,0.479492,0.000000,Hold,-246.000000,2.000000,LowGoal,1402.500000,-1454.545455,Speed,1402.500000,-1454.545455,Speed,Off,Off,0.000000,FALSE,0,,,,
06:50:14.981 PM 03/23/2016,Teleop Enabled,10,FALSE,0,NO ERROR,0.000000,0.032083,-0.000000,-0.012833,TRUE,FALSE,TRUE,TRUE,TRUE,FALSE,Disabled,0.000000,0.000000,0.000000,TRUE,0.002075,0.009705,0.000000,0.007004,0.009979,0.000000,-0.083000,0.005000,0.018000,-0.070000,0.360000,1.120000,0.333859,Hold,0.479492,0.000000,Hold,-246.000000,2.000000,LowGoal,1410.000000,-1454.545455,Speed,1402.500000,-1454.545455,Speed,Off,Off,0.000000,FALSE,0,,,,
06:50:15.081 PM 03/23/2016,Teleop Enabled,10,FALSE,0,NO ERROR,-0.000000,0.032083,0.000000,-0.012833,TRUE,FALSE,TRUE,FALSE,FALSE,FALSE,Disabled,0.000000,0.000000,0.000000,TRUE,0.001862,0.010391,0.000000,0.003967,0.006729,0.000000,0.029000,0.001000,-0.032000,-0.070000,0.370000,1.100000,0.322420,Hold,0.479492,0.000000,Hold,-246.000000,2.000000,LowGoal,1402.500000,-1454.545455,Speed,1402.500000,-1454.545455,Speed,Off,Off,0.000000,FALSE,0,,,,
06:50:15.182 PM 03/23/2016,Teleop Enabled,10,FALSE,0,NO ERROR,-0.000000,-0.314416,0.000000,-0.006417,TRUE,FALSE,TRUE,FALSE,FALSE,FALSE,Disabled,0.000000,0.000000,0.000000,TRUE,0.002869,0.010590,0.000000,0.035217,0.006622,0.000000,0.022000,-0.011000,-0.030000,-0.050000,0.460000,1.080000,0.312305,Hold,0.479492,0.000000,Hold,-246.000000,2.000000,LowGoal,1402.500000,-1454.545455,Speed,1402.500000,-1454.545455,Speed,Off,Off,0.000000,FALSE,0,,,,
06:50:15.282 PM 03/23/2016,Teleop Enabled,10,FALSE,0,NO ERROR,-0.000000,-0.237416,0.000000,-0.006417,TRUE,FALSE,TRUE,FALSE,FALSE,FALSE,Disabled,0.000000,0.000000,0.000000,TRUE,0.004868,0.010193,0.000000,0.034058,-0.006821,0.000000,-0.025000,-0.047000,-0.023000,-0.030000,0.410000,1.070000,0.332362,Hold,0.479492,0.000000,Hold,-246.000000,2.000000,LowGoal,1402.500000,-1454.545455,Speed,1395.000000,-1454.545455,Speed,Off,Off,0.000000,FALSE,0,,,,
06:50:15.383 PM 03/23/2016,Teleop Enabled,10,FALSE,0,NO ERROR,-0.000000,-0.237416,0.000000,-0.006417,TRUE,FALSE,TRUE,FALSE,FALSE,FALSE,Disabled,0.000000,0.000000,0.000000,TRUE,0.006454,0.009216,0.000000,0.033890,-0.021347,0.000000,0.013000,0.072000,-0.007000,-0.030000,0.460000,1.020000,0.321958,Hold,0.479492,0.000000,HighGoal,-246.000000,77414.400000,HighGoal,1402.500000,-3272.727273,Speed,1402.500000,-3272.727273,Speed,Off,Off,0.000000,FALSE,0,,,,
06:50:15.483 PM 03/23/2016,Teleop Enabled,11,FALSE,0,NO ERROR,-0.000000,-0.237416,0.000000,-0.006417,TRUE,FALSE,TRUE,FALSE,FALSE,FALSE,Disabled,0.000000,0.000000,0.000000,TRUE,0.008408,0.008026,0.000000,0.028915,-0.022430,0.000000,0.036000,-0.006000,-0.030000,-0.030000,0.510000,1.000000,0.347127,Hold,0.479492,0.000000,Hold,-955.000000,77414.400000,HighGoal,1462.500000,-3272.727273,Speed,1455.000000,-3272.727273,Speed,Off,Off,0.000000,FALSE,0,,,,
06:50:15.583 PM 03/23/2016,Teleop Enabled,10,FALSE,0,NO ERROR,-0.000000,-0.237416,0.000000,-0.006417,TRUE,FALSE,TRUE,FALSE,FALSE,FALSE,Disabled,0.000000,0.000000,0.000000,TRUE,0.010468,0.007980,0.000000,0.039566,0.001541,0.000000,-0.129000,0.012000,-0.014000,-0.030000,0.520000,0.950000,0.360997,Hold,0.479492,0.000000,Hold,-14466.000000,77414.400000,HighGoal,2010.000000,-3272.727273,Speed,2002.500000,-3272.727273,Speed,Off,Off,0.000000,FALSE,0,,,,
06:50:15.683 PM 03/23/2016,Teleop Enabled,10,FALSE,0,NO ERROR,-0.000000,-0.237416,0.000000,-0.006417,TRUE,FALSE,TRUE,FALSE,FALSE,FALSE,Disabled,0.000000,0.000000,0.000000,TRUE,0.009995,0.008469,0.000000,-0.031158,0.000000,0.000000,0.147000,-0.152000,0.089000,-0.030000,0.410000,0.960000,0.354222,Hold,0.479492,0.000000,Hold,-27204.000000,77414.400000,HighGoal,2572.500000,-3272.727273,Speed,2610.000000,-3272.727273,Speed,Off,Off,0.000000,FALSE,0,,,,
06:50:15.783 PM 03/23/2016,Teleop Enabled,11,FALSE,0,NO ERROR,-0.000000,-0.237416,0.000000,-0.012833,TRUE,FALSE,TRUE,FALSE,FALSE,FALSE,Disabled,0.000000,0.000000,0.000000,TRUE,0.009888,0.007248,0.000000,0.015045,-0.037582,0.000000,0.095000,-0.097000,-0.088000,-0.050000,0.610000,0.860000,0.340906,Hold,0.479492,0.000000,Hold,-37342.000000,77414.400000,HighGoal,2932.500000,-3272.727273,Speed,3075.000000,-3272.727273,Speed,Off,Off,0.000000,FALSE,0,,,,
06:50:15.883 PM 03/23/2016,Teleop Enabled,10,FALSE,0,NO ERROR,-0.000000,-0.237416,0.000000,-0.012833,TRUE,FALSE,TRUE,FALSE,FALSE,FALSE,Disabled,0.000000,0.000000,0.000000,TRUE,0.011200,0.005783,0.000000,0.022934,-0.011246,0.000000,-0.127000,0.031000,-0.003000,-0.030000,0.570000,0.830000,0.367283,Hold,0.479492,0.000000,Hold,-49320.000000,77414.400000,HighGoal,3277.500000,-3272.727273,Speed,3360.000000,-3272.727273,Speed,Off,Off,0.000000,FALSE,0,,,,
06:50:15.983 PM 03/23/2016,Teleop Enabled,9,FALSE,0,NO ERROR,-0.000000,-0.237416,0.000000,-0.012833,TRUE,FALSE,TRUE,FALSE,FALSE,FALSE,Disabled,0.000000,0.000000,0.000000,TRUE,0.011856,0.005554,0.000000,0.016190,-0.003815,0.000000,0.023000,-0.035000,0.094000,-0.030000,0.520000,0.860000,0.355912,Hold,0.479492,0.000000,Hold,-49320.000000,77414.400000,HighGoal,3352.500000,-3272.727273,Speed,3330.000000,-3272.727273,Speed,Off,Off,0.000000,FALSE,0,,,,
06:50:16.083 PM 03/23/2016,Teleop Enabled,9,FALSE,0,NO ERROR,-0.000000,-0.237416,0.000000,-0.012833,TRUE,FALSE,TRUE,FALSE,FALSE,FALSE,Disabled,0.000000,0.000000,0.000000,TRUE,0.012497,0.005371,0.000000,0.004578,-0.001160,0.000000,-0.043000,-0.062000,-0.006000,-0.040000,0.590000,0.860000,0.360388,Hold,0.479492,0.000000,Hold,-63135.000000,77414.400000,HighGoal,3240.000000,-3272.727273,Speed,3232.500000,-3272.727273,Speed,Off,Off,0.000000,FALSE,0,,,,
06:50:16.183 PM 03/23/2016,Teleop Enabled,9,FALSE,0,NO ERROR,-0.000000,-0.237416,0.000000,-0.012833,TRUE,FALSE,TRUE,FALSE,FALSE,FALSE,Disabled,0.000000,0.000000,0.000000,TRUE,0.013138,0.004517,0.000000,0.015228,-0.008331,0.000000,0.054000,-0.037000,0.074000,-0.040000,0.520000,0.900000,0.369793,Hold,0.479492,0.000000,Hold,-77243.000000,77414.400000,HighGoal,3217.500000,-3272.727273,Speed,3247.500000,-3272.727273,Speed,Off,Off,0.000000,FALSE,0,,,,
06:50:16.283 PM 03/23/2016,Teleop Enabled,9,FALSE,0,NO ERROR,-0.000000,-0.320833,0.000000,0.089833,TRUE,FALSE,TRUE,FALSE,FALSE,FALSE,Disabled,0.000000,0.000000,0.000000,TRUE,0.016357,0.004623,0.000000,0.093491,0.014984,0.000000,-0.147000,0.062000,-0.306000,0.000000,0.290000,0.860000,0.433573,Hold,0.479492,0.000000,Hold,-77315.000000,77414.400000,HighGoal,3262.500000,-3272.727273,Speed,3277.500000,-3272.727273,Speed,Off,Off,0.000000,FALSE,0,,,,
06:50:16.383 PM 03/23/2016,Teleop Enabled,10,FALSE,0,NO ERROR,-0.000000,-0.481249,0.000000,0.307999,TRUE,FALSE,TRUE,FALSE,FALSE,FALSE,Disabled,0.000000,0.000000,0.000000,TRUE,0.016998,0.006226,0.000000,-0.048492,0.049637,0.000000,0.034000,0.150000,-0.149000,-0.070000,0.300000,0.880000,0.340187,Hold,0.480225,0.000000,Hold,-77403.000000,77414.400000,HighGoal,3277.500000,-3272.727273,Speed,3277.500000,-3272.727273,Speed,Off,Off,0.000000,FALSE,0,,,,
06:50:16.483 PM 03/23/2016,Teleop Enabled,10,FALSE,0,NO ERROR,-0.000000,-0.481249,0.000000,0.307999,TRUE,FALSE,TRUE,FALSE,FALSE,FALSE,Disabled,0.000000,0.000000,0.000000,TRUE,0.013321,0.011215,0.000000,-0.064941,0.079422,0.000000,0.051000,0.059000,-0.056000,-0.180000,0.340000,0.800000,0.234865,Hold,0.480225,0.000000,Hold,-77413.000000,77414.400000,HighGoal,3270.000000,-3272.727273,Speed,3270.000000,-3272.727273,Speed,Off,Off,0.000000,FALSE,0,,,,
06:50:16.584 PM 03/23/2016,Teleop Enabled,9,FALSE,0,NO ERROR,-0.000000,-0.397832,0.000000,0.179666,TRUE,FALSE,TRUE,FALSE,FALSE,FALSE,Disabled,0.000000,0.000000,0.000000,TRUE,0.010605,0.016861,0.000000,-0.020447,0.119431,0.000000,0.189000,-0.094000,0.069000,-0.170000,0.260000,0.860000,0.238648,Hold,0.480225,0.000000,Hold,-77413.000000,77414.400000,HighGoal,3255.000000,-3272.727273,Speed,3270.000000,-3272.727273,Speed,Off,Off,0.000000,FALSE,0,,,,
06:50:16.684 PM 03/23/2016,Teleop Enabled,9,FALSE,0,NO ERROR,-0.000000,-0.397832,0.000000,0.186083,TRUE,FALSE,TRUE,FALSE,FALSE,FALSE,Disabled,0.000000,0.000000,0.000000,TRUE,0.008743,0.022873,0.000000,-0.080292,0.130249,0.000000,-0.063000,0.031000,-0.058000,-0.160000,0.430000,0.870000,0.233120,Hold,0.480225,0.000000,Hold,-77464.000000,77414.400000,HighGoal,3270.000000,-3272.727273,Speed,3270.000000,-3272.727273,Speed,Off,Off,0.000000,FALSE,0,,,,
06:50:16.784 PM 03/23/2016,Teleop Enabled,9,FALSE,0,NO ERROR,-0.000000,-0.372166,0.000000,0.147583,TRUE,FALSE,TRUE,FALSE,FALSE,FALSE,Disabled,0.000000,0.000000,0.000000,TRUE,0.003265,0.025803,0.000000,-0.111862,0.002350,0.000000,0.081000,-0.021000,-0.097000,-0.240000,0.260000,0.920000,0.179374,Hold,0.480469,0.000000,Hold,-77463.000000,77414.400000,HighGoal,3270.000000,-3272.727273,Speed,3270.000000,-3272.727273,Speed,Off,Off,0.000000,FALSE,0,,,,
06:50:16.885 PM 03/23/2016,Teleop Enabled,10,FALSE,0,NO ERROR,-0.000000,-0.378582,0.000000,0.147583,TRUE,FALSE,TRUE,FALSE,FALSE,FALSE,Disabled,0.000000,0.000000,0.000000,TRUE,0.000092,0.025345,0.000000,-0.058426,-0.005630,0.000000,0.018000,-0.034000,0.102000,-0.170000,0.390000,0.940000,0.234393,Hold,0.480469,0.000000,Hold,-77514.000000,77414.400000,HighGoal,3262.500000,-3272.727273,Speed,3277.500000,-3272.727273,Speed,Off,Off,0.000000,FALSE,0,,,,
06:50:16.986 PM 03/23/2016,Teleop Enabled,11,FALSE,0,NO ERROR,-0.000000,-0.378582,0.000000,0.147583,TRUE,FALSE,TRUE,FALSE,FALSE,FALSE,Disabled,0.000000,0.000000,0.000000,TRUE,-0.004456,0.026306,0.000000,-0.123413,0.046387,0.000000,0.067000,-0.002000,0.082000,-0.200000,0.210000,0.970000,0.195217,Hold,0.480469,0.000000,Hold,-77489.000000,77414.400000,HighGoal,3270.000000,-3272.727273,Speed,3270.000000,-3272.727273,Speed,Off,Off,0.000000,FALSE,0,,,,
06:50:17.087 PM 03/23/2016,Teleop Enabled,9,FALSE,0,NO ERROR,-0.000000,-0.378582,0.000000,0.147583,TRUE,FALSE,TRUE,FALSE,FALSE,FALSE,Disabled,0.000000,0.000000,0.000000,TRUE,-0.009064,0.029190,0.000000,-0.080399,0.068054,0.000000,0.062000,-0.014000,0.070000,-0.180000,0.370000,0.970000,0.208929,Hold,0.480469,0.000000,Hold,-77494.000000,77414.400000,HighGoal,3270.000000,-3272.727273,Speed,3270.000000,-3272.727273,Speed,Off,Off,0.000000,FALSE,0,,,,
06:50:17.188 PM 03/23/2016,Teleop Enabled,9,FALSE,0,NO ERROR,-0.000000,-0.378582,0.000000,0.147583,TRUE,FALSE,TRUE,FALSE,FALSE,FALSE,Disabled,0.000000,0.000000,0.000000,TRUE,-0.013657,0.033752,0.000000,-0.102234,0.113770,0.000000,-0.018000,0.055000,0.056000,-0.220000,0.340000,0.930000,0.189076,Hold,0.480469,0.000000,Hold,-77494.000000,77414.400000,HighGoal,3262.500000,-3272.727273,Speed,3285.000000,-3272.727273,Speed,Off,Off,0.000000,FALSE,0,,,,
06:50:17.288 PM 03/23/2016,Teleop Enabled,10,FALSE,0,NO ERROR,-0.000000,-0.378582,0.000000,0.147583,TRUE,FALSE,TRUE,FALSE,FALSE,FALSE,Disabled,0.000000,0.000000,0.000000,TRUE,-0.019287,0.040436,0.000000,-0.137665,0.152390,0.000000,-0.094000,0.080000,0.062000,-0.180000,0.240000,0.960000,0.221522,Hold,0.480469,0.000000,Hold,-77494.000000,77414.400000,HighGoal,3262.500000,-3272.727273,Speed,3277.500000,-3272.727273,Speed,Off,Off,0.000000,FALSE,0,,,,
06:50:17.388 PM 03/23/2016,Teleop Enabled,10,FALSE,0,NO ERROR,-0.000000,-0.378582,0.000000,0.147583,TRUE,FALSE,TRUE,FALSE,FALSE,FALSE,Disabled,0.000000,0.000000,0.000000,TRUE,-0.028442,0.050552,0.000000,-0.208252,0.237747,0.000000,-0.009000,0.072000,0.087000,-0.210000,0.140000,1.010000,0.200829,Hold,0.480469,0.000000,Hold,-77494.000000,77414.400000,HighGoal,3270.000000,-3272.727273,Speed,3270.000000,-3272.727273,Speed,Off,Off,0.000000,FALSE,0,,,,
06:50:17.488 PM 03/23/2016,Teleop Enabled,10,FALSE,0,NO ERROR,-0.000000,-0.378582,0.000000,0.147583,TRUE,FALSE,TRUE,FALSE,FALSE,FALSE,Disabled,0.000000,0.000000,0.000000,TRUE,-0.040314,0.066971,0.000000,-0.203384,0.298523,0.000000,-0.033000,0.053000,0.111000,-0.190000,0.230000,1.030000,0.208564,Hold,0.480469,0.000000,Hold,-77494.000000,77414.400000,HighGoal,3262.500000,-3272.727273,Speed,3277.500000,-3272.727273,Speed,Off,Off,0.000000,FALSE,0,,,,
06:50:17.588 PM 03/23/2016,Teleop Enabled,9,FALSE,0,NO ERROR,-0.000000,-0.378582,0.000000,0.147583,TRUE,FALSE,TRUE,FALSE,FALSE,FALSE,Disabled,0.000000,0.000000,0.000000,TRUE,-0.042435,0.080109,0.000000,-0.004272,0.348038,0.000000,-0.082000,0.059000,0.087000,-0.210000,0.290000,1.020000,0.190311,Hold,0.480469,0.000000,Hold,-77494.000000,77414.400000,HighGoal,3262.500000,-3272.727273,Speed,3277.500000,-3272.727273,Speed,Off,Off,0.000000,FALSE,0,,,,
06:50:17.689 PM 03/23/2016,Teleop Enabled,10,FALSE,0,NO ERROR,-0.000000,-0.378582,0.000000,0.147583,TRUE,FALSE,TRUE,FALSE,FALSE,FALSE,Disabled,0.000000,0.000000,0.000000,TRUE,-0.043823,0.103607,0.000000,-0.015533,0.412476,0.000000,0.003000,0.025000,0.000000,-0.210000,0.330000,1.000000,0.203634,Hold,0.480469,0.000000,Hold,-77494.000000,77414.400000,HighGoal,3270.000000,-3272.727273,Speed,3270.000000,-3272.727273,Speed,Off,Off,0.000000,FALSE,0,,,,
06:50:17.792 PM 03/23/2016,Teleop Enabled,9,FALSE,0,NO ERROR,0.000000,-0.378582,-0.000000,0.147583,TRUE,FALSE,TRUE,TRUE,TRUE,FALSE,Disabled,0.000000,0.000000,0.000000,TRUE,-0.044754,0.124985,0.000000,-0.006042,0.441437,0.000000,-0.046000,0.055000,0.001000,-0.200000,0.230000,1.020000,0.193231,Hold,0.480469,0.000000,Hold,-77494.000000,77414.400000,HighGoal,3262.500000,-3272.727273,Speed,3270.000000,-3272.727273,Speed,Off,Off,0.000000,FALSE,0,,,,
06:50:17.892 PM 03/23/2016,Teleop Enabled,10,FALSE,0,NO ERROR,0.000000,-0.077000,-0.000000,0.147583,TRUE,FALSE,TRUE,TRUE,TRUE,FALSE,Disabled,0.000000,0.000000,0.000000,TRUE,-0.046234,0.148712,0.000000,-0.040680,0.499756,0.000000,-0.046000,0.055000,0.001000,-0.200000,0.230000,1.020000,0.140322,Hold,0.480469,0.000000,Hold,-77494.000000,77414.400000,HighGoal,3255.000000,-3272.727273,Speed,3285.000000,-3272.727273,Speed,Off,Off,0.000000,FALSE,0,,,,
06:50:17.992 PM 03/23/2016,Teleop Enabled,10,FALSE,0,NO ERROR,0.000000,0.006417,-0.000000,0.121916,TRUE,FALSE,TRUE,TRUE,TRUE,FALSE,Disabled,0.000000,0.000000,0.000000,TRUE,-0.048416,0.174698,0.000000,0.000000,0.548157,0.000000,-0.048000,0.069000,-0.031000,-0.280000,0.310000,1.090000,0.087613,Hold,0.480469,0.000000,Hold,-77494.000000,77414.400000,HighGoal,3262.500000,-3272.727273,Speed,3285.000000,-3272.727273,Speed,Off,Off,0.000000,FALSE,0,,,,
06:50:18.092 PM 03/23/2016,Teleop Enabled,10,FALSE,0,NO ERROR,0.000000,0.006417,-0.000000,0.115500,TRUE,FALSE,TRUE,TRUE,TRUE,FALSE,Disabled,0.000000,0.000000,0.000000,TRUE,-0.048492,0.203094,0.000000,0.001602,0.588379,0.000000,0.030000,-0.174000,0.034000,-0.280000,0.250000,1.130000,0.118193,Hold,0.480469,0.000000,Hold,-77494.000000,77414.400000,HighGoal,3262.500000,-3272.727273,Speed,3285.000000,-3272.727273,Speed,Off,Off,0.000000,FALSE,0,,,,
06:50:18.192 PM 03/23/2016,Teleop Enabled,10,FALSE,0,NO ERROR,0.000000,0.006417,-0.000000,0.115500,TRUE,FALSE,TRUE,TRUE,TRUE,FALSE,Disabled,0.000000,0.000000,0.000000,TRUE,-0.048523,0.231247,0.000000,-0.004654,0.567413,0.000000,-0.104000,0.091000,0.092000,-0.280000,0.240000,1.110000,0.128407,Hold,0.480469,0.000000,Hold,-77494.000000,77414.400000,HighGoal,3255.000000,-3272.727273,Speed,3270.000000,-3272.727273,Speed,Off,Off,0.000000,FALSE,0,,,,
06:50:18.292 PM 03/23/2016,Teleop Enabled,11,FALSE,0,NO ERROR,0.000000,0.006417,-0.000000,0.115500,TRUE,FALSE,TRUE,TRUE,TRUE,FALSE,Disabled,0.000000,0.000000,0.000000,TRUE,-0.049454,0.260422,0.000000,-0.010132,0.608719,0.000000,-0.018000,-0.019000,0.009000,-0.280000,0.270000,1.130000,0.133795,Hold,0.480469,0.000000,Hold,-77494.000000,77414.400000,HighGoal,3255.000000,-3272.727273,Speed,3270.000000,-3272.727273,Speed,Off,Off,0.000000,FALSE,0,,,,
06:50:18.393 PM 03/23/2016,Teleop Enabled,10,FALSE,0,NO ERROR,0.000000,0.006417,-0.000000,0.115500,TRUE,FALSE,TRUE,TRUE,TRUE,FALSE,Disabled,0.000000,0.000000,0.000000,TRUE,-0.050186,0.290894,0.000000,-0.013184,0.607025,0.000000,-0.095000,-0.004000,-0.124000,-0.280000,0.250000,1.140000,0.147913,Hold,0.480469,0.000000,Hold,-77494.000000,77414.400000,HighGoal,3255.000000,-3272.727273,Speed,3270.000000,-3272.727273,Speed,Off,Off,0.000000,FALSE,0,,,,
06:50:18.493 PM 03/23/2016,Teleop Enabled,10,FALSE,0,NO ERROR,0.000000,0.006417,-0.000000,0.115500,TRUE,FALSE,TRUE,TRUE,TRUE,FALSE,Disabled,0.000000,0.000000,0.000000,TRUE,-0.051849,0.320877,0.000000,-0.037872,0.598679,0.000000,-0.014000,0.043000,-0.012000,-0.280000,0.300000,1.090000,0.149390,Hold,0.480469,51.000000,Hold,-77494.000000,151552.000000,HighGoal,3255.000000,-3272.727273,Speed,3277.500000,-3272.727273,Speed,Off,Off,0.000000,FALSE,0,,,,
06:50:18.593 PM 03/23/2016,Teleop Enabled,13,FALSE,0,NO ERROR,0.000000,0.006417,-0.000000,0.057750,TRUE,FALSE,TRUE,TRUE,TRUE,FALSE,Disabled,0.000000,0.000000,0.000000,TRUE,-0.055008,0.351517,0.000000,-0.080292,0.612152,0.000000,-0.051000,-0.170000,-0.095000,-0.290000,0.300000,1.130000,0.139200,Hold,3.431885,51.000000,Hold,-84143.000000,151552.000000,HighGoal,3262.500000,-3272.727273,Speed,3277.500000,-3272.727273,Speed,Off,Off,0.000000,FALSE,0,,,,
06:50:18.694 PM 03/23/2016,Teleop Enabled,11,FALSE,0,NO ERROR,0.000000,0.006417,-0.000000,0.032083,TRUE,FALSE,TRUE,TRUE,TRUE,FALSE,Disabled,0.000000,0.000000,0.000000,TRUE,-0.059082,0.386368,0.000000,-0.051117,0.590179,0.000000,-0.051000,-0.170000,-0.095000,-0.250000,0.230000,1.130000,0.190979,Hold,5.896240,51.000000,Hold,-84143.000000,151552.000000,HighGoal,3247.500000,-3272.727273,Speed,3262.500000,-3272.727273,Speed,Off,Off,0.000000,FALSE,0,,,,
06:50:18.794 PM 03/23/2016,Teleop Enabled,10,FALSE,0,NO ERROR,0.000000,0.006417,-0.000000,0.032083,TRUE,FALSE,TRUE,TRUE,TRUE,FALSE,Disabled,0.000000,0.000000,0.000000,TRUE,-0.062637,0.415070,0.000000,-0.075638,0.571762,0.000000,0.128000,0.029000,-0.025000,-0.260000,0.190000,1.130000,0.187905,Hold,9.464355,51.000000,Hold,-98575.000000,151552.000000,HighGoal,3247.500000,-3272.727273,Speed,3255.000000,-3272.727273,Speed,Off,Off,0.000000,FALSE,0,,,,
06:50:18.895 PM 03/23/2016,Teleop Enabled,10,FALSE,0,NO ERROR,0.000000,0.006417,-0.000000,0.032083,TRUE,FALSE,TRUE,TRUE,TRUE,FALSE,Disabled,0.000000,0.000000,0.000000,TRUE,-0.067642,0.443558,0.000000,-0.140594,0.593689,0.000000,-0.090000,-0.048000,-0.058000,-0.220000,0.100000,1.100000,0.230200,Hold,12.863525,51.000000,Hold,-117317.000000,151552.000000,HighGoal,3255.000000,-3272.727273,Speed,3270.000000,-3272.727273,Speed,Off,Off,0.000000,FALSE,0,,,,
06:50:18.995 PM 03/23/2016,Teleop Enabled,9,FALSE,0,NO ERROR,0.000000,0.006417,-0.000000,0.032083,TRUE,FALSE,TRUE,TRUE,TRUE,FALSE,Disabled,0.000000,0.000000,0.000000,TRUE,-0.075226,0.467575,0.000000,-0.209427,0.595352,0.000000,-0.373000,-0.122000,-0.006000,-0.220000,0.100000,1.100000,0.208516,Hold,17.648926,51.000000,Hold,-137259.000000,151552.000000,HighGoal,3255.000000,-3272.727273,Speed,3277.500000,-3272.727273,Speed,Off,Off,0.000000,FALSE,0,,,,
06:50:19.095 PM 03/23/2016,Teleop Enabled,9,FALSE,0,NO ERROR,0.000000,0.006417,-0.000000,0.032083,TRUE,FALSE,TRUE,TRUE,TRUE,FALSE,Disabled,0.000000,0.000000,0.000000,TRUE,-0.092636,0.497269,0.000000,-0.317673,0.460831,0.000000,-0.373000,-0.122000,-0.006000,-0.240000,0.110000,1.140000,0.227371,Hold,23.325439,51.000000,Hold,-153909.000000,151552.000000,HighGoal,3255.000000,-3272.727273,Speed,3262.500000,-3272.727273,Speed,Off,Off,0.000000,FALSE,0,,,,
06:50:19.195 PM 03/23/2016,Teleop Enabled,10,FALSE,0,NO ERROR,0.000000,0.006417,-0.000000,0.032083,TRUE,FALSE,TRUE,TRUE,TRUE,FALSE,Disabled,0.000000,0.000000,0.000000,TRUE,-0.108917,0.501572,0.000000,-0.348526,-0.016754,0.000000,0.035000,-0.018000,-0.094000,-0.250000,0.200000,1.050000,0.230383,Hold,29.963867,51.000000,Hold,-151402.000000,151552.000000,HighGoal,3247.500000,-3272.727273,Speed,3262.500000,-3272.727273,Speed,Off,Off,0.000000,FALSE,0,,,,
06:50:19.295 PM 03/23/2016,Teleop Enabled,10,FALSE,0,NO ERROR,0.000000,0.006417,-0.000000,0.032083,TRUE,FALSE,TRUE,TRUE,TRUE,FALSE,Disabled,0.000000,0.000000,0.000000,TRUE,-0.124939,0.501389,0.000000,-0.306534,-0.008591,0.000000,0.072000,0.021000,-0.126000,-0.250000,0.200000,1.050000,0.240387,Hold,37.400146,51.000000,Hold,-151402.000000,151552.000000,HighGoal,3262.500000,-3272.727273,Speed,3292.500000,-3272.727273,Speed,Off,Off,0.000000,FALSE,0,,,,
06:50:19.395 PM 03/23/2016,Teleop Enabled,10,FALSE,0,NO ERROR,0.000000,0.006417,-0.000000,0.038500,TRUE,FALSE,TRUE,TRUE,TRUE,FALSE,Disabled,0.000000,0.000000,0.000000,TRUE,-0.136444,0.501785,0.000000,0.000000,0.011963,0.000000,0.072000,0.021000,-0.126000,-0.220000,-0.070000,1.070000,0.125457,Hold,47.553955,51.000000,Hold,-151614.000000,151552.000000,HighGoal,3277.500000,-3272.727273,Speed,3292.500000,-3272.727273,Speed,Off,Off,0.000000,FALSE,0,,,,
06:50:19.497 PM 03/23/2016,Teleop Enabled,10,FALSE,0,NO ERROR,-0.000000,0.006417,0.000000,0.038500,TRUE,FALSE,TRUE,FALSE,FALSE,FALSE,Disabled,0.000000,0.000000,0.000000,TRUE,-0.133926,0.502121,0.000000,0.061798,0.013382,0.000000,0.203000,0.016000,-0.055000,-0.340000,-0.270000,1.040000,0.177781,Hold,53.791260,51.000000,Hold,-151649.000000,151552.000000,HighGoal,3270.000000,-3272.727273,Speed,3277.500000,-3272.727273,Speed,Off,Off,0.000000,FALSE,0,,,,
06:50:19.600 PM 03/23/2016,Teleop Enabled,11,FALSE,0,NO ERROR,-0.000000,-0.295166,0.000000,0.038500,TRUE,FALSE,TRUE,FALSE,FALSE,FALSE,Disabled,0.000000,0.000000,0.000000,TRUE,-0.130112,0.504013,0.000000,0.079651,0.058197,0.000000,0.072000,0.009000,-0.100000,-0.290000,-0.120000,1.110000,0.247217,Hold,55.805420,51.000000,Hold,-151648.000000,151552.000000,HighGoal,3262.500000,-3272.727273,Speed,3277.500000,-3272.727273,Speed,Off,Off,0.000000,FALSE,0,,,,
06:50:19.700 PM 03/23/2016,Teleop Enabled,10,FALSE,0,NO ERROR,-0.000000,-0.295166,0.000000,0.038500,TRUE,FALSE,TRUE,FALSE,FALSE,FALSE,Disabled,0.000000,0.000000,0.000000,TRUE,-0.126740,0.508804,0.000000,0.070816,0.123047,0.000000,-0.043000,0.042000,0.170000,-0.220000,0.240000,1.180000,0.240070,Hold,55.781738,51.000000,Hold,-151646.000000,151552.000000,HighGoal,3270.000000,-3272.727273,Speed,3277.500000,-3272.727273,Speed,Off,Off,0.000000,FALSE,0,,,,
06:50:19.800 PM 03/23/2016,Teleop Enabled,10,FALSE,0,NO ERROR,-0.000000,-0.295166,0.000000,0.038500,TRUE,FALSE,TRUE,FALSE,FALSE,FALSE,Disabled,0.000000,0.000000,0.000000,TRUE,-0.122726,0.516739,0.000000,0.076477,0.194565,0.000000,0.050000,-0.017000,0.074000,-0.240000,-0.060000,1.170000,0.250608,Hold,55.781738,51.000000,Hold,-151646.000000,151552.000000,HighGoal,3270.000000,-3272.727273,Speed,3277.500000,-3272.727273,Speed,Off,Off,0.000000,FALSE,0,,,,
06:50:19.900 PM 03/23/2016,Teleop Enabled,11,FALSE,0,NO ERROR,-0.000000,-0.295166,0.000000,0.038500,TRUE,FALSE,TRUE,FALSE,FALSE,FALSE,Disabled,0.000000,0.000000,0.000000,TRUE,-0.118820,0.528046,0.000000,0.094254,0.243835,0.000000,0.007000,0.058000,0.110000,-0.220000,0.020000,1.150000,0.235915,Hold,55.781738,51.000000,Hold,-151646.000000,151552.000000,HighGoal,3262.500000,-3272.727273,Speed,3277.500000,-3272.727273,Speed,Off,Off,0.000000,FALSE,0,,,,
06:50:20.001 PM 03/23/2016,Teleop Enabled,11,FALSE,0,NO ERROR,-0.000000,-0.295166,0.000000,0.038500,TRUE,FALSE,TRUE,FALSE,FALSE,FALSE,Disabled,0.000000,0.000000,0.000000,TRUE,-0.113876,0.541550,0.000000,0.095230,0.287766,0.000000,0.016000,0.076000,0.120000,-0.240000,0.060000,1.140000,0.253634,Hold,55.781738,51.000000,Hold,-151646.000000,151552.000000,HighGoal,3262.500000,-3272.727273,Speed,3277.500000,-3272.727273,Speed,Off,Off,0.000000,FALSE,0,,,,
06:50:20.101 PM 03/23/2016,Teleop Enabled,11,FALSE,0,NO ERROR,-0.000000,-0.295166,0.000000,0.038500,TRUE,FALSE,TRUE,FALSE,FALSE,FALSE,Disabled,0.000000,0.000000,0.000000,TRUE,-0.108658,0.557892,0.000000,0.119476,0.350708,0.000000,0.016000,0.076000,0.120000,-0.230000,0.040000,1.130000,0.258247,Hold,55.781738,51.000000,Hold,-151646.000000,151552.000000,HighGoal,3270.000000,-3272.727273,Speed,3285.000000,-3272.727273,Speed,Off,Off,0.000000,FALSE,0,,,,
06:50:20.202 PM 03/23/2016,Teleop Enabled,10,FALSE,0,NO ERROR,-0.000000,-0.295166,0.000000,0.038500,TRUE,FALSE,TRUE,FALSE,FALSE,FALSE,Disabled,0.000000,0.000000,0.000000,TRUE,-0.100830,0.576401,0.000000,0.163910,0.387131,0.000000,0.090000,0.049000,0.161000,-0.240000,0.020000,1.160000,0.255025,Hold,55.781738,51.000000,Hold,-151646.000000,151552.000000,HighGoal,3277.500000,-3272.727273,Speed,3277.500000,-3272.727273,Speed,Off,Off,0.000000,FALSE,0,,,,
06:50:20.303 PM 03/23/2016,Teleop Enabled,10,FALSE,0,NO ERROR,-0.000000,-0.295166,0.000000,0.038500,TRUE,FALSE,TRUE,FALSE,FALSE,FALSE,Disabled,0.000000,0.000000,0.000000,TRUE,-0.092148,0.596832,0.000000,0.173584,0.433014,0.000000,0.042000,-0.023000,0.039000,-0.240000,0.020000,1.160000,0.263135,Hold,55.781738,51.000000,Hold,-151646.000000,151552.000000,HighGoal,3270.000000,-3272.727273,Speed,3277.500000,-3272.727273,Speed,Off,Off,0.000000,FALSE,0,,,,
06:50:20.404 PM 03/23/2016,Teleop Enabled,10,FALSE,0,NO ERROR,-0.000000,-0.295166,0.000000,0.038500,TRUE,FALSE,TRUE,FALSE,FALSE,FALSE,Disabled,-0.615625,0.000000,0.000000,TRUE,-0.082321,0.610443,0.000000,0.188477,0.010666,0.000000,0.115000,0.053000,0.118000,-0.230000,0.080000,1.150000,0.252054,Hold,55.781738,51.000000,Hold,-151646.000000,151552.000000,HighGoal,3270.000000,-3272.727273,Speed,3285.000000,-3272.727273,Speed,Off,Off,0.000000,FALSE,0,,,,
06:50:20.505 PM 03/23/2016,Teleop Enabled,10,FALSE,0,NO ERROR,-0.000000,-0.295166,0.000000,0.038500,TRUE,FALSE,TRUE,FALSE,FALSE,FALSE,Disabled,-0.615625,0.000000,0.000000,TRUE,-0.070190,0.612015,0.000000,0.209244,0.030548,0.000000,-0.007000,0.019000,-0.016000,-0.230000,0.000000,1.160000,0.240108,Hold,55.781738,51.000000,Hold,-151646.000000,151552.000000,HighGoal,3270.000000,-3272.727273,Speed,3285.000000,-3272.727273,Speed,Off,Off,0.000000,FALSE,0,,,,
06:50:20.606 PM 03/23/2016,Teleop Enabled,11,FALSE,0,NO ERROR,-0.000000,-0.295166,0.000000,0.038500,TRUE,FALSE,TRUE,FALSE,FALSE,FALSE,Disabled,-0.615625,0.000000,0.000000,TRUE,-0.059891,0.613083,0.000000,0.197464,0.015961,0.000000,0.056000,0.015000,0.021000,-0.230000,-0.020000,1.150000,0.250777,Hold,55.781738,51.000000,Hold,-151646.000000,151552.000000,HighGoal,3270.000000,-3272.727273,Speed,3285.000000,-3272.727273,Speed,Off,Off,0.000000,FALSE,0,,,,
06:50:20.706 PM 03/23/2016,Teleop Enabled,12,FALSE,0,NO ERROR,-0.000000,-0.295166,0.000000,0.038500,TRUE,FALSE,TRUE,FALSE,FALSE,FALSE,Disabled,-0.615625,0.000000,0.000000,TRUE,-0.049469,0.613480,0.000000,0.200317,0.002548,0.000000,-0.010000,-0.026000,-0.018000,-0.230000,-0.040000,1.180000,0.251224,Hold,55.781738,51.000000,Hold,-151646.000000,151552.000000,HighGoal,3270.000000,-3272.727273,Speed,3292.500000,-3272.727273,Speed,Off,Off,0.000000,FALSE,0,,,,
06:50:20.806 PM 03/23/2016,Teleop Enabled,9,FALSE,0,NO ERROR,-0.000000,-0.295166,0.000000,0.038500,TRUE,FALSE,TRUE,FALSE,FALSE,FALSE,Disabled,-0.615625,0.000000,0.000000,TRUE,-0.039932,0.613831,0.000000,0.173477,0.009933,0.000000,0.144000,-0.042000,-0.093000,-0.230000,-0.050000,1.180000,0.256099,Hold,55.781738,51.000000,Hold,-151646.000000,151552.000000,HighGoal,3270.000000,-3272.727273,Speed,3285.000000,-3272.727273,Speed,Off,Off,0.000000,FALSE,0,,,,
06:50:20.906 PM 03/23/2016,Teleop Enabled,10,FALSE,0,NO ERROR,-0.000000,-0.295166,0.000000,0.038500,TRUE,FALSE,TRUE,FALSE,FALSE,FALSE,Disabled,-0.615625,0.000000,0.000000,TRUE,-0.039932,0.613831,0.000000,0.173477,0.009933,0.000000,0.101000,-0.065000,-0.028000,-0.230000,-0.060000,1.160000,0.266781,Hold,55.781738,51.000000,Hold,-151646.000000,151552.000000,HighGoal,3270.000000,-3272.727273,Speed,3285.000000,-3272.727273,Speed,Off,Off,0.000000,FALSE,0,,,,
06:50:21.007 PM 03/23/2016,Teleop Enabled,10,FALSE,0,NO ERROR,-0.000000,-0.295166,0.000000,0.038500,TRUE,FALSE,TRUE,FALSE,FALSE,FALSE,Disabled,-0.615625,0.000000,0.000000,TRUE,-0.032242,0.614868,0.000000,0.129578,0.030228,0.000000,-0.118000,0.076000,-0.073000,-0.220000,-0.200000,1.160000,0.273866,Hold,55.781738,51.000000,Hold,-151646.000000,151552.000000,HighGoal,3270.000000,-3272.727273,Speed,3285.000000,-3272.727273,Speed,Off,Off,0.000000,FALSE,0,,,,
06:50:21.107 PM 03/23/2016,Teleop Enabled,11,FALSE,0,NO ERROR,-0.000000,-0.295166,0.000000,0.038500,TRUE,FALSE,TRUE,FALSE,FALSE,FALSE,Disabled,-0.615625,0.000000,0.000000,TRUE,-0.026428,0.617538,0.000000,0.103485,0.070801,0.000000,0.075000,-0.034000,0.010000,-0.220000,-0.340000,1.190000,0.277783,Hold,55.781738,51.000000,Hold,-151646.000000,151552.000000,HighGoal,3277.500000,-3272.727273,Speed,3285.000000,-3272.727273,Speed,Off,Off,0.000000,FALSE,0,,,,
06:50:21.207 PM 03/23/2016,Teleop Enabled,10,FALSE,0,NO ERROR,-0.000000,-0.295166,0.000000,0.038500,TRUE,FALSE,TRUE,FALSE,FALSE,FALSE,Disabled,-0.615625,0.000000,0.000000,TRUE,-0.022888,0.622238,0.000000,0.046402,0.112091,0.000000,-0.036000,0.062000,-0.136000,-0.220000,-0.460000,1.160000,0.277783,Hold,55.781738,51.000000,Hold,-151646.000000,151552.000000,HighGoal,3277.500000,-3272.727273,Speed,3285.000000,-3272.727273,Speed,Off,Off,0.000000,FALSE,0,,,,
06:50:21.307 PM 03/23/2016,Teleop Enabled,10,FALSE,0,NO ERROR,-0.000000,-0.295166,0.000000,0.038500,TRUE,FALSE,TRUE,FALSE,FALSE,FALSE,Disabled,-0.615625,0.000000,0.000000,TRUE,-0.020126,0.628616,0.000000,0.058472,0.140900,0.000000,0.075000,-0.048000,0.175000,-0.220000,-0.360000,1.180000,0.287581,Hold,55.781738,51.000000,Hold,-151646.000000,151552.000000,HighGoal,3270.000000,-3272.727273,Speed,3285.000000,-3272.727273,Speed,Off,Off,0.000000,FALSE,0,,,,
06:50:21.406 PM 03/23/2016,Teleop Enabled,11,FALSE,0,NO ERROR,-0.000000,-0.295166,0.000000,0.038500,TRUE,FALSE,TRUE,FALSE,FALSE,FALSE,Disabled,-0.615625,0.000000,0.000000,TRUE,-0.017487,0.636581,0.000000,0.054123,0.172241,0.000000,-0.081000,0.033000,-0.052000,-0.210000,-0.260000,1.180000,0.276472,Hold,55.781738,51.000000,Hold,-151646.000000,151552.000000,HighGoal,3270.000000,-3272.727273,Speed,3285.000000,-3272.727273,Speed,Off,Off,0.000000,FALSE,0,,,,
06:50:21.506 PM 03/23/2016,Teleop Enabled,9,FALSE,0,NO ERROR,-0.000000,-0.295166,0.000000,0.038500,TRUE,FALSE,TRUE,FALSE,FALSE,FALSE,Disabled,-0.615625,0.000000,0.000000,TRUE,-0.013855,0.645111,0.000000,0.092087,0.166946,0.000000,0.000000,0.024000,-0.103000,-0.220000,-0.140000,1.190000,0.279560,Hold,55.781738,51.000000,Hold,-151646.000000,151552.000000,HighGoal,3277.500000,-3272.727273,Speed,3285.000000,-3272.727273,Speed,Off,Off,0.000000,FALSE,0,,,,
06:50:21.607 PM 03/23/2016,Teleop Enabled,10,FALSE,0,NO ERROR,-0.000000,-0.295166,0.000000,0.038500,TRUE,FALSE,TRUE,FALSE,FALSE,FALSE,Disabled,-0.615625,0.000000,0.000000,TRUE,-0.009033,0.653152,0.000000,0.111755,0.155411,0.000000,-0.052000,0.066000,-0.023000,-0.220000,-0.090000,1.190000,0.286961,Hold,55.781738,51.000000,Hold,-151646.000000,151552.000000,HighGoal,3270.000000,-3272.727273,Speed,3285.000000,-3272.727273,Speed,Off,Off,0.000000,FALSE,0,,,,
06:50:21.707 PM 03/23/2016,Teleop Enabled,11,FALSE,0,NO ERROR,-0.000000,-0.295166,0.000000,0.038500,TRUE,FALSE,TRUE,FALSE,FALSE,FALSE,Disabled,-0.615625,0.000000,0.000000,TRUE,-0.006210,0.662018,0.000000,0.024857,0.130249,0.000000,-0.061000,0.050000,0.014000,-0.220000,-0.060000,1.160000,0.290153,Hold,55.781738,51.000000,Hold,-151646.000000,151552.000000,HighGoal,3270.000000,-3272.727273,Speed,3285.000000,-3272.727273,Speed,Off,Off,0.000000,FALSE,0,,,,
06:50:21.807 PM 03/23/2016,Teleop Enabled,10,FALSE,0,NO ERROR,-0.000000,-0.295166,0.000000,0.038500,TRUE,FALSE,TRUE,FALSE,FALSE,FALSE,Disabled,-0.615625,0.000000,0.000000,TRUE,-0.005585,0.669525,0.000000,0.004715,0.131577,0.000000,0.002000,0.057000,-0.034000,-0.220000,-0.080000,1.160000,0.293464,Hold,55.781738,51.000000,HighGoal,-151646.000000,77414.400000,HighGoal,3270.000000,-3272.727273,Speed,3285.000000,-3272.727273,Speed,Off,Off,0.000000,FALSE,0,,,,
06:50:21.907 PM 03/23/2016,Teleop Enabled,9,FALSE,0,NO ERROR,-0.000000,-0.295166,0.000000,0.038500,TRUE,FALSE,TRUE,FALSE,FALSE,FALSE,Disabled,-0.615625,0.000000,0.000000,TRUE,-0.005432,0.674591,0.000000,0.000885,0.125244,0.000000,-0.022000,-0.097000,0.011000,-0.210000,-0.250000,1.140000,0.286448,Hold,55.781738,51.000000,Hold,-151646.000000,77414.400000,HighGoal,3277.500000,-3272.727273,Speed,3285.000000,-3272.727273,Speed,Off,Off,0.000000,FALSE,0,,,,
06:50:22.007 PM 03/23/2016,Teleop Enabled,10,FALSE,0,NO ERROR,-0.000000,-0.295166,0.000000,0.038500,TRUE,FALSE,TRUE,FALSE,FALSE,FALSE,Disabled,-0.615625,0.000000,0.000000,TRUE,-0.006607,0.681503,0.000000,-0.045639,0.124878,0.000000,-0.023000,0.013000,-0.048000,-0.190000,-0.290000,1.130000,0.305362,Hold,55.781738,51.000000,Hold,-145745.000000,77414.400000,HighGoal,3270.000000,-3272.727273,Speed,3277.500000,-3272.727273,Speed,Off,Off,0.000000,FALSE,0,,,,
06:50:22.107 PM 03/23/2016,Teleop Enabled,11,FALSE,0,NO ERROR,-0.000000,-0.295166,0.000000,0.038500,TRUE,FALSE,TRUE,FALSE,FALSE,FALSE,Disabled,-0.615625,0.000000,0.000000,TRUE,-0.010437,0.687546,0.000000,-0.087708,0.111649,0.000000,-0.002000,-0.084000,0.017000,-0.210000,-0.410000,1.120000,0.273494,Hold,55.781738,51.000000,Hold,-136407.000000,77414.400000,HighGoal,3270.000000,-3272.727273,Speed,3285.000000,-3272.727273,Speed,Off,Off,0.000000,FALSE,0,,,,
06:50:22.207 PM 03/23/2016,Teleop Enabled,11,FALSE,0,NO ERROR,-0.000000,-0.295166,0.000000,0.038500,TRUE,FALSE,TRUE,FALSE,FALSE,FALSE,Disabled,-0.615625,0.000000,0.000000,TRUE,-0.013733,0.691818,0.000000,-0.055893,0.066437,0.000000,0.027000,-0.029000,-0.084000,-0.200000,-0.270000,1.110000,0.284204,Hold,55.781738,51.000000,Hold,-126782.000000,77414.400000,HighGoal,3270.000000,-3272.727273,Speed,3285.000000,-3272.727273,Speed,Off,Off,0.000000,FALSE,0,,,,
06:50:22.308 PM 03/23/2016,Teleop Enabled,10,FALSE,0,NO ERROR,-0.000000,-0.295166,0.000000,0.038500,TRUE,FALSE,TRUE,FALSE,FALSE,FALSE,Disabled,-0.615625,0.000000,0.000000,TRUE,-0.017365,0.694290,0.000000,-0.079819,0.037231,0.000000,-0.025000,-0.039000,0.010000,-0.210000,-0.320000,1.070000,0.272613,Hold,55.781738,51.000000,Hold,-117049.000000,77414.400000,HighGoal,3277.500000,-3272.727273,Speed,3277.500000,-3272.727273,Speed,Off,Off,0.000000,FALSE,0,,,,
06:50:22.407 PM 03/23/2016,Teleop Enabled,10,FALSE,0,NO ERROR,-0.000000,-0.295166,0.000000,0.038500,TRUE,FALSE,TRUE,FALSE,FALSE,FALSE,Disabled,-0.615625,0.000000,0.000000,TRUE,-0.020096,0.695190,0.000000,-0.065475,0.012802,0.000000,-0.129000,0.030000,-0.048000,-0.200000,-0.270000,1.070000,0.268155,Hold,55.781738,51.000000,Hold,-106749.000000,77414.400000,HighGoal,3270.000000,-3272.727273,Speed,3277.500000,-3272.727273,Speed,Off,Off,0.000000,FALSE,0,,,,
06:50:22.508 PM 03/23/2016,Teleop Enabled,10,FALSE,0,NO ERROR,-0.000000,-0.295166,0.000000,0.038500,TRUE,FALSE,TRUE,FALSE,FALSE,FALSE,Disabled,-0.615625,0.000000,0.000000,TRUE,-0.023315,0.696030,0.000000,-0.048340,0.015289,0.000000,0.110000,0.019000,-0.093000,-0.200000,-0.150000,1.060000,0.264843,Hold,55.781738,51.000000,Hold,-95598.000000,77414.400000,HighGoal,3270.000000,-3272.727273,Speed,3285.000000,-3272.727273,Speed,Off,Off,0.000000,FALSE,0,,,,
06:50:22.608 PM 03/23/2016,Teleop Enabled,10,FALSE,0,NO ERROR,-0.000000,-0.295166,0.000000,0.038500,TRUE,FALSE,TRUE,FALSE,FALSE,FALSE,Disabled,-0.615625,0.000000,0.000000,TRUE,-0.025085,0.695877,0.000000,-0.021454,-0.030869,0.000000,0.114000,-0.084000,0.010000,-0.210000,-0.110000,1.060000,0.249355,Hold,55.781738,51.000000,Hold,-95598.000000,77414.400000,HighGoal,3270.000000,-3272.727273,Speed,3285.000000,-3272.727273,Speed,Off,Off,0.000000,FALSE,0,,,,
06:50:22.709 PM 03/23/2016,Teleop Enabled,9,FALSE,0,NO ERROR,-0.000000,-0.295166,0.000000,0.038500,TRUE,FALSE,TRUE,FALSE,FALSE,FALSE,Disabled,-0.615625,0.000000,0.000000,TRUE,-0.025787,0.693741,0.000000,-0.018417,-0.064438,0.000000,0.114000,-0.050000,-0.012000,-0.200000,-0.080000,1.050000,0.249685,Hold,55.781738,51.000000,Hold,-83937.000000,77414.400000,HighGoal,3270.000000,-3272.727273,Speed,3285.000000,-3272.727273,Speed,Off,Off,0.000000,FALSE,0,,,,
06:50:22.809 PM 03/23/2016,Teleop Enabled,9,FALSE,0,NO ERROR,-0.000000,-0.295166,0.000000,0.038500,TRUE,FALSE,TRUE,FALSE,FALSE,FALSE,Disabled,-0.615625,0.000000,0.000000,TRUE,-0.026993,0.688583,0.000000,-0.033051,-0.102203,0.000000,0.032000,0.011000,0.023000,-0.220000,-0.090000,1.070000,0.226606,Hold,55.781738,51.000000,Hold,-78004.000000,77414.400000,HighGoal,3277.500000,-3272.727273,Speed,3277.500000,-3272.727273,Speed,Off,Off,0.000000,FALSE,0,,,,
06:50:22.909 PM 03/23/2016,Teleop Enabled,9,FALSE,0,NO ERROR,-0.000000,-0.282333,0.000000,0.032083,TRUE,FALSE,TRUE,FALSE,FALSE,FALSE,Disabled,-0.615625,0.000000,0.000000,TRUE,-0.027969,0.683029,0.000000,0.004822,-0.122055,0.000000,-0.002000,-0.008000,-0.044000,-0.190000,-0.110000,1.090000,0.246133,Hold,55.781738,51.000000,Hold,-77884.000000,77414.400000,HighGoal,3262.500000,-3272.727273,Speed,3277.500000,-3272.727273,Speed,Off,Off,0.000000,FALSE,0,,,,
06:50:23.009 PM 03/23/2016,Teleop Enabled,10,FALSE,0,NO ERROR,0.196850,-0.282333,-0.196850,0.038500,TRUE,FALSE,TRUE,FALSE,FALSE,FALSE,Disabled,-0.615625,0.000000,0.000000,TRUE,-0.026077,0.676285,0.000000,0.055267,-0.147049,0.000000,0.067000,-0.135000,0.043000,-0.170000,-0.160000,1.110000,0.268120,Hold,55.781738,51.000000,Hold,-77592.000000,77414.400000,HighGoal,3270.000000,-3272.727273,Speed,3285.000000,-3272.727273,Speed,Off,Off,0.000000,FALSE,0,,,,
06:50:23.109 PM 03/23/2016,Teleop Enabled,9,FALSE,0,NO ERROR,0.322835,0.070583,-0.322835,0.147583,TRUE,FALSE,TRUE,FALSE,FALSE,FALSE,Disabled,-0.615625,0.000000,0.000000,TRUE,-0.023666,0.666489,0.000000,0.030899,-0.214951,0.000000,-0.455000,-0.138000,0.134000,-0.180000,-0.380000,1.130000,0.265438,Hold,55.781738,51.000000,Hold,-77496.000000,77414.400000,HighGoal,3277.500000,-3272.727273,Speed,3285.000000,-3272.727273,Speed,Off,Off,0.000000,FALSE,0,,,,
06:50:23.209 PM 03/23/2016,Teleop Enabled,10,FALSE,0,NO ERROR,-0.000000,0.641665,0.000000,0.603165,TRUE,FALSE,TRUE,FALSE,FALSE,FALSE,Disabled,-0.615625,0.000000,0.000000,TRUE,-0.026962,0.653442,0.000000,-0.069443,-0.270691,0.000000,-0.004000,0.043000,-0.195000,-1.970000,-0.700000,0.700000,-1.024564,Hold,55.781738,51.000000,Hold,-77496.000000,77414.400000,HighGoal,3262.500000,-3272.727273,Speed,3270.000000,-3272.727273,Speed,Off,Off,0.000000,FALSE,0,,,,
06:50:23.309 PM 03/23/2016,Teleop Enabled,10,FALSE,0,NO ERROR,-0.000000,0.994581,0.000000,0.731498,TRUE,FALSE,TRUE,FALSE,FALSE,FALSE,Disabled,-0.615625,0.000000,0.000000,TRUE,-0.027100,0.642441,0.000000,0.040100,-0.158264,0.000000,0.085000,0.072000,-0.043000,-3.840000,-0.240000,1.270000,-3.518091,Hold,55.781738,51.000000,Hold,-77497.000000,77414.400000,HighGoal,3247.500000,-3272.727273,Speed,3262.500000,-3272.727273,Speed,Off,Off,0.000000,FALSE,0,,,,
06:50:23.409 PM 03/23/2016,Teleop Enabled,9,FALSE,0,NO ERROR,0.496063,1.026664,-0.496063,0.622415,TRUE,FALSE,TRUE,FALSE,FALSE,FALSE,Disabled,-0.615625,0.000000,0.000000,TRUE,-0.022125,0.634521,0.000000,0.128906,-0.151062,0.000000,0.062000,0.015000,-0.101000,-3.310000,0.050000,1.300000,-2.960610,Hold,55.781738,51.000000,Hold,-77495.000000,77414.400000,HighGoal,3270.000000,-3272.727273,Speed,3292.500000,-3272.727273,Speed,Off,Off,0.000000,FALSE,0,,,,
06:50:23.509 PM 03/23/2016,Teleop Enabled,10,FALSE,0,NO ERROR,0.724409,1.674746,-0.724409,1.347497,TRUE,FALSE,TRUE,FALSE,FALSE,FALSE,Disabled,-0.615625,0.000000,0.000000,TRUE,-0.017334,0.623947,0.000000,0.034988,-0.310532,0.000000,-0.261000,-0.163000,0.065000,-4.910000,-0.320000,0.580000,-4.727768,Hold,55.781738,51.000000,Hold,-77495.000000,77414.400000,HighGoal,3262.500000,-3272.727273,Speed,3262.500000,-3272.727273,Speed,Off,Off,0.000000,FALSE,0,,,,
06:50:23.609 PM 03/23/2016,Teleop Enabled,10,FALSE,0,NO ERROR,-0.000000,3.856408,0.000000,3.432909,TRUE,FALSE,TRUE,FALSE,FALSE,FALSE,Disabled,-0.615625,0.000000,0.000000,TRUE,-0.019028,0.602661,0.000000,-0.048523,-0.487396,0.000000,0.046000,-0.126000,-0.004000,-12.290000,-1.080000,-0.020000,-12.499316,Hold,55.781738,51.000000,Hold,-77498.000000,77414.400000,HighGoal,3157.500000,-3272.727273,Speed,3165.000000,-3272.727273,Speed,Off,Off,0.000000,FALSE,0,,,,
06:50:23.709 PM 03/23/2016,Teleop Enabled,10,FALSE,0,NO ERROR,-0.000000,6.455152,0.000000,5.973903,TRUE,FALSE,TRUE,FALSE,FALSE,FALSE,Disabled,-0.615625,0.000000,0.000000,TRUE,-0.020020,0.574310,0.000000,0.021805,-0.603088,0.000000,0.184000,0.134000,0.041000,-24.790000,-0.860000,-0.320000,-25.547881,Hold,55.781738,51.000000,Hold,-77498.000000,77414.400000,HighGoal,3142.500000,-3272.727273,Speed,3157.500000,-3272.727273,Speed,Off,Off,0.000000,FALSE,0,,,,
06:50:23.809 PM 03/23/2016,Teleop Enabled,10,FALSE,0,NO ERROR,-0.472441,8.123481,0.472441,7.873232,TRUE,FALSE,TRUE,FALSE,FALSE,FALSE,Disabled,-0.615625,0.000000,0.000000,TRUE,-0.013214,0.551926,0.000000,0.199188,-0.327347,0.000000,-0.048000,0.250000,0.178000,-31.990000,0.020000,0.510000,-34.212366,Hold,55.781738,51.000000,Hold,-77498.000000,77414.400000,HighGoal,3285.000000,-3272.727273,Speed,3307.500000,-3272.727273,Speed,Off,Off,0.000000,FALSE,0,,,,
06:50:23.909 PM 03/23/2016,Teleop Enabled,10,FALSE,0,NO ERROR,-0.842520,7.802648,0.842520,7.738482,TRUE,FALSE,TRUE,FALSE,FALSE,FALSE,Disabled,-0.615625,0.000000,0.000000,TRUE,-0.002563,0.543152,0.000000,0.231003,-0.039246,0.000000,0.029000,0.253000,0.073000,-34.470000,1.220000,1.610000,-35.265854,Hold,55.781738,51.000000,Hold,-77498.000000,77414.400000,HighGoal,3307.500000,-3272.727273,Speed,3300.000000,-3272.727273,Speed,Off,Off,0.000000,FALSE,0,,,,
06:50:24.009 PM 03/23/2016,Teleop Enabled,7,FALSE,0,NO ERROR,-0.874016,5.229571,0.874016,5.364321,TRUE,FALSE,TRUE,FALSE,FALSE,FALSE,Disabled,-0.615625,0.000000,0.000000,TRUE,0.011841,0.548401,0.000000,0.329681,0.178207,0.000000,0.347000,-0.082000,0.095000,-26.420000,1.590000,2.650000,-26.661821,Hold,55.781738,51.000000,Hold,-77498.000000,77414.400000,HighGoal,3157.500000,-3272.727273,Speed,3135.000000,-3272.727273,Speed,Off,Off,0.000000,FALSE,0,,,,
