Time,Robot Mode,Loop Time,Error Status,Error Code,Error Source,Left Motor Output,Left Motor Encoder,Right Motor Output,Right Motor Encoder,Is Level,Is Stalled,Ball Detector Photoeye,Vision Enabled,Vision Teleop Control,Vision Auto Control,Vision Current State,Vision X Output,Vision NavX Error,Vision NavX Target,NavX Connection Status,NavX Displacement X,NavX Displacement Y,NavX Displacement Z,NavX Velocity X,NavX Velocity Y,NavX Velocity Z,NavX Acceleration X,NavX Acceleration Y,NavX Acceleration Z,NavX Pitch,NavX Yaw,NavX Roll,Gyro Angle,Roller Arm State,Roller Arm Actual,Roller Arm Desired,Shooter Arm State,Shooter Arm Actual,Shooter Arm Desired,Shooter State,Actual RPM Left,Desired RPM Left,Control Mode Left,Actual RPM Right,Desired RPM Right,Control Mode Right,Ball Shooter Cylinder,Ball Halo Cylinder,Scaler Motor Output,Scaler Solenoid Fire,Auto To Run,Auto Current File,Auto File Status,Auto Current Command,Auto Trimmed Command
08:33:41.460 PM 03/22/2016,Autonomous Disabled,14091,FALSE,0,NO ERROR,-0.000000,0.032083,0.000000,0.102666,TRUE,FALSE,FALSE,FALSE,FALSE,FALSE,Disabled,0.018750,0.896875,-6.836875,TRUE,-3.870300,-20.243103,0.000000,-0.027924,0.000000,0.000000,0.002000,0.003000,0.005000,-0.020000,0.760000,1.490000,-0.032453,ResetBack,1.756592,-0.000049,ResetBack,-47431.000000,-0.300000,Empty,0.000000,0.000000,Speed,0.000000,0.000000,Speed,Off,Off,0.000000,FALSE,0,Read: /home/lvuser/scripts/auto_44.bee,File good!,STOP_ALL,STOP_ALL
08:33:41.561 PM 03/22/2016,Autonomous Disabled,10,FALSE,0,NO ERROR,-0.000000,0.000000,0.000000,0.000000,TRUE,FALSE,TRUE,FALSE,FALSE,FALSE,Disabled,0.018750,0.896875,-6.836875,TRUE,-3.873077,-20.242966,0.000000,0.000000,0.000000,0.000000,0.002000,0.000000,0.004000,0.000000,0.140000,1.510000,0.000537,ResetBack,1.756592,-0.000049,ResetBack,-29712.000000,-0.300000,Empty,0.000000,0.000000,Speed,0.000000,0.000000,Speed,Off,Off,0.000000,FALSE,0,Read: /home/lvuser/scripts/auto_44.bee,File good!,STOP_ALL,STOP_ALL
08:33:41.663 PM 03/22/2016,Autonomous Disabled,10,FALSE,0,NO ERROR,-0.000000,0.000000,0.000000,0.000000,TRUE,FALSE,TRUE,FALSE,FALSE,FALSE,Disabled,0.018750,0.896875,-6.836875,TRUE,-3.873077,-20.242966,0.000000,0.000000,0.000000,0.000000,0.000000,-0.001000,0.003000,0.000000,0.140000,1.510000,0.007673,ResetBack,1.756592,-0.000049,ResetBack,-29712.000000,-0.300000,Suck,0.000000,2181.818182,Speed,0.000000,2181.818182,Speed,Off,Off,0.000000,FALSE,0,Read: /home/lvuser/scripts/auto_44.bee,File good!,STOP_ALL,STOP_ALL
08:33:41.763 PM 03/22/2016,Autonomous Disabled,10,FALSE,0,NO ERROR,-0.000000,0.000000,0.000000,0.000000,TRUE,FALSE,TRUE,FALSE,FALSE,FALSE,Disabled,0.018750,0.896875,-6.836875,TRUE,-3.873077,-20.242966,0.000000,0.000000,0.000000,0.000000,0.001000,0.000000,0.003000,0.000000,0.140000,1.510000,0.008679,ResetBack,1.756592,-0.000049,ResetBack,-29712.000000,-0.300000,Suck,0.000000,2181.818182,Speed,0.000000,2181.818182,Speed,Off,Off,0.000000,FALSE,0,Read: /home/lvuser/scripts/auto_44.bee,File good!,STOP_ALL,STOP_ALL
08:33:41.863 PM 03/22/2016,Autonomous Disabled,10,FALSE,0,NO ERROR,-0.000000,0.000000,0.000000,0.000000,TRUE,FALSE,TRUE,FALSE,FALSE,FALSE,Disabled,0.018750,0.896875,-6.836875,TRUE,-3.873077,-20.242966,0.000000,0.000000,0.000000,0.000000,0.000000,0.001000,0.005000,-0.010000,0.140000,1.510000,0.005425,ResetBack,1.756592,-0.000049,ResetBack,-29712.000000,-0.300000,Suck,0.000000,2181.818182,Speed,0.000000,2181.818182,Speed,Off,Off,0.000000,FALSE,0,Read: /home/lvuser/scripts/auto_44.bee,File good!,STOP_ALL,STOP_ALL
08:33:41.963 PM 03/22/2016,Autonomous Disabled,10,FALSE,0,NO ERROR,-0.000000,0.000000,0.000000,0.000000,TRUE,FALSE,TRUE,FALSE,FALSE,FALSE,Disabled,0.018750,0.896875,-6.836875,TRUE,-3.873077,-20.242966,0.000000,0.000000,0.000000,0.000000,0.000000,0.000000,0.000000,-0.010000,0.140000,1.510000,0.004716,ResetBack,1.756592,-0.000049,ResetBack,-29712.000000,-0.300000,Suck,0.000000,2181.818182,Speed,0.000000,2181.818182,Speed,Off,Off,0.000000,FALSE,0,Read: /home/lvuser/scripts/auto_44.bee,File good!,STOP_ALL,STOP_ALL
08:33:42.063 PM 03/22/2016,Autonomous Disabled,10,FALSE,0,NO ERROR,-0.000000,0.000000,0.000000,0.000000,TRUE,FALSE,TRUE,FALSE,FALSE,FALSE,Disabled,0.018750,0.896875,-6.836875,TRUE,-3.873077,-20.242966,0.000000,0.000000,0.000000,0.000000,0.000000,0.000000,0.004000,-0.020000,0.140000,1.510000,0.006290,ResetBack,1.756592,-0.000049,ResetBack,-29712.000000,-0.300000,Suck,0.000000,2181.818182,Speed,0.000000,2181.818182,Speed,Off,Off,0.000000,FALSE,0,Read: /home/lvuser/scripts/auto_44.bee,File good!,STOP_ALL,STOP_ALL
08:33:42.164 PM 03/22/2016,Autonomous Disabled,11,FALSE,0,NO ERROR,-0.000000,0.000000,0.000000,0.000000,TRUE,TRUE,TRUE,FALSE,FALSE,FALSE,Disabled,0.018750,0.896875,-6.836875,TRUE,-3.873077,-20.242966,0.000000,0.000000,0.000000,0.000000,0.002000,-0.001000,0.004000,-0.020000,0.140000,1.510000,0.005477,ResetBack,1.756592,-0.000049,ResetBack,-29712.000000,-0.300000,Suck,0.000000,2181.818182,Speed,0.000000,2181.818182,Speed,Off,Off,0.000000,FALSE,0,Read: /home/lvuser/scripts/auto_44.bee,File good!,STOP_ALL,STOP_ALL
08:33:42.265 PM 03/22/2016,Autonomous Disabled,10,FALSE,0,NO ERROR,-0.000000,0.000000,0.000000,0.000000,TRUE,TRUE,TRUE,FALSE,FALSE,FALSE,Disabled,0.018750,0.896875,-6.836875,TRUE,-3.873077,-20.242966,0.000000,0.000000,0.000000,0.000000,-0.001000,0.000000,0.002000,-0.020000,0.140000,1.510000,0.021272,ResetBack,1.756592,-0.000049,ResetBack,-29712.000000,-0.300000,Suck,0.000000,0.000000,Speed,0.000000,0.000000,Speed,Off,Off,0.000000,FALSE,0,Read: /home/lvuser/scripts/auto_44.bee,File good!,STOP_ALL,STOP_ALL
08:33:42.366 PM 03/22/2016,Autonomous Disabled,9,FALSE,0,NO ERROR,-0.000000,0.000000,0.000000,0.000000,TRUE,FALSE,TRUE,FALSE,FALSE,FALSE,Disabled,0.018750,0.896875,-6.836875,TRUE,-3.873077,-20.242966,0.000000,0.000000,0.000000,0.000000,-0.001000,0.002000,0.006000,-0.030000,0.140000,1.510000,0.031131,ResetBack,1.756592,-0.000049,ResetBack,-29712.000000,-0.300000,Suck,0.000000,0.000000,Speed,0.000000,0.000000,Speed,Off,Off,0.000000,FALSE,0,Read: /home/lvuser/scripts/auto_44.bee,File good!,STOP_ALL,STOP_ALL
08:33:42.467 PM 03/22/2016,Autonomous Disabled,10,FALSE,0,NO ERROR,-0.000000,0.000000,0.000000,0.000000,TRUE,FALSE,TRUE,FALSE,FALSE,FALSE,Disabled,0.018750,0.896875,-6.836875,TRUE,-3.873077,-20.242966,0.000000,0.000000,0.000000,0.000000,0.000000,0.002000,0.004000,-0.030000,0.140000,1.510000,0.029778,ResetBack,1.756592,-0.000049,ResetBack,-29712.000000,-0.300000,Suck,0.000000,2181.818182,Speed,0.000000,2181.818182,Speed,Off,Off,0.000000,FALSE,0,Read: /home/lvuser/scripts/auto_44.bee,File good!,STOP_ALL,STOP_ALL
08:33:42.567 PM 03/22/2016,Autonomous Disabled,9,FALSE,0,NO ERROR,-0.000000,0.000000,0.000000,0.000000,TRUE,FALSE,TRUE,FALSE,FALSE,FALSE,Disabled,0.018750,0.896875,-6.836875,TRUE,-3.873077,-20.242966,0.000000,0.000000,0.000000,0.000000,-0.002000,0.000000,0.001000,-0.030000,0.140000,1.510000,0.010975,ResetBack,1.756592,-0.000049,ResetBack,-29712.000000,-0.300000,Suck,0.000000,2181.818182,Speed,0.000000,2181.818182,Speed,Off,Off,0.000000,FALSE,0,Read: /home/lvuser/scripts/auto_44.bee,File good!,STOP_ALL,STOP_ALL
08:33:42.667 PM 03/22/2016,Autonomous Disabled,10,FALSE,0,NO ERROR,-0.000000,0.000000,0.000000,0.000000,TRUE,FALSE,TRUE,FALSE,FALSE,FALSE,Disabled,0.018750,0.896875,-6.836875,TRUE,-3.873077,-20.242966,0.000000,0.000000,0.000000,0.000000,0.000000,0.000000,0.000000,-0.040000,0.140000,1.510000,0.004431,ResetBack,1.756592,-0.000049,ResetBack,-29712.000000,-0.300000,Suck,0.000000,2181.818182,Speed,0.000000,2181.818182,Speed,Off,Off,0.000000,FALSE,0,Read: /home/lvuser/scripts/auto_44.bee,File good!,STOP_ALL,STOP_ALL
08:33:42.767 PM 03/22/2016,Autonomous Disabled,10,FALSE,0,NO ERROR,-0.000000,0.000000,0.000000,0.000000,TRUE,FALSE,TRUE,FALSE,FALSE,FALSE,Disabled,0.018750,0.896875,-6.836875,TRUE,-3.873077,-20.242966,0.000000,0.000000,0.000000,0.000000,0.001000,0.002000,0.001000,-0.040000,0.140000,1.510000,0.002988,ResetBack,1.756592,-0.000049,ResetBack,-29712.000000,-0.300000,Hold,0.000000,0.000000,Speed,0.000000,0.000000,Speed,Off,Off,0.000000,FALSE,0,Read: /home/lvuser/scripts/auto_44.bee,File good!,STOP_ALL,STOP_ALL
08:33:42.867 PM 03/22/2016,Autonomous Disabled,10,FALSE,0,NO ERROR,-0.000000,0.000000,0.000000,0.000000,TRUE,FALSE,TRUE,FALSE,FALSE,FALSE,Disabled,0.018750,0.896875,-6.836875,TRUE,-3.873077,-20.242966,0.000000,0.000000,0.000000,0.000000,0.000000,0.000000,0.001000,-0.040000,0.130000,1.510000,-0.001308,ResetBack,1.756592,-0.000049,ResetBack,-29712.000000,-0.300000,Hold,0.000000,0.000000,Speed,0.000000,0.000000,Speed,Off,Off,0.000000,FALSE,0,Read: /home/lvuser/scripts/auto_44.bee,File good!,STOP_ALL,STOP_ALL
08:33:42.968 PM 03/22/2016,Autonomous Disabled,10,FALSE,0,NO ERROR,-0.000000,0.000000,0.000000,0.000000,TRUE,FALSE,TRUE,FALSE,FALSE,FALSE,Disabled,0.018750,0.896875,-6.836875,TRUE,-3.873077,-20.242966,0.000000,0.000000,0.000000,0.000000,0.000000,0.000000,0.008000,-0.040000,0.130000,1.510000,-0.002609,ResetBack,1.756592,-0.000049,ResetBack,-29712.000000,-0.300000,Hold,0.000000,0.000000,Speed,0.000000,0.000000,Speed,Off,Off,0.000000,FALSE,0,Read: /home/lvuser/scripts/auto_44.bee,File good!,STOP_ALL,STOP_ALL
08:33:43.068 PM 03/22/2016,Autonomous Disabled,10,FALSE,0,NO ERROR,-0.000000,0.000000,0.000000,0.000000,TRUE,FALSE,TRUE,FALSE,FALSE,FALSE,Disabled,0.018750,0.896875,-6.836875,TRUE,-3.873077,-20.242966,0.000000,0.000000,0.000000,0.000000,0.000000,0.000000,0.004000,-0.050000,0.130000,1.510000,-0.001856,ResetBack,1.756592,-0.000049,ResetBack,-29712.000000,-0.300000,Hold,0.000000,0.000000,Speed,0.000000,0.000000,Speed,Off,Off,0.000000,FALSE,0,Read: /home/lvuser/scripts/auto_44.bee,File good!,STOP_ALL,STOP_ALL
08:33:43.168 PM 03/22/2016,Autonomous Disabled,10,FALSE,0,NO ERROR,-0.000000,0.000000,0.000000,0.000000,TRUE,FALSE,TRUE,FALSE,FALSE,FALSE,Disabled,0.018750,0.896875,-6.836875,TRUE,-3.873077,-20.242966,0.000000,0.000000,0.000000,0.000000,-0.001000,0.001000,0.003000,-0.050000,0.130000,1.510000,-0.003732,ResetBack,1.756592,-0.000049,ResetBack,-29712.000000,-0.300000,Hold,0.000000,0.000000,Speed,0.000000,0.000000,Speed,Off,Off,0.000000,FALSE,0,Read: /home/lvuser/scripts/auto_44.bee,File good!,STOP_ALL,STOP_ALL
08:33:43.268 PM 03/22/2016,Autonomous Disabled,10,FALSE,0,NO ERROR,-0.000000,0.000000,0.000000,0.000000,TRUE,FALSE,TRUE,FALSE,FALSE,FALSE,Disabled,0.018750,0.896875,-6.836875,TRUE,-3.873077,-20.242966,0.000000,0.000000,0.000000,0.000000,0.000000,0.001000,0.003000,-0.060000,0.130000,1.510000,0.003360,ResetBack,1.756592,-0.000049,ResetBack,-29712.000000,-0.300000,Hold,0.000000,0.000000,Speed,0.000000,0.000000,Speed,Off,Off,0.000000,FALSE,0,Read: /home/lvuser/scripts/auto_44.bee,File good!,STOP_ALL,STOP_ALL
08:33:43.368 PM 03/22/2016,Autonomous Disabled,10,FALSE,0,NO ERROR,-0.000000,0.000000,0.000000,0.000000,TRUE,FALSE,TRUE,FALSE,FALSE,FALSE,Disabled,0.018750,0.896875,-6.836875,TRUE,-3.873077,-20.242966,0.000000,0.000000,0.000000,0.000000,0.000000,-0.001000,0.004000,-0.060000,0.130000,1.510000,-0.005116,ResetBack,1.756592,-0.000049,ResetBack,-29712.000000,-0.300000,Hold,0.000000,0.000000,Speed,0.000000,0.000000,Speed,Off,Off,0.000000,FALSE,0,Read: /home/lvuser/scripts/auto_44.bee,File good!,STOP_ALL,STOP_ALL
08:33:43.470 PM 03/22/2016,Autonomous Disabled,9,FALSE,0,NO ERROR,-0.000000,0.000000,0.000000,0.000000,TRUE,FALSE,TRUE,FALSE,FALSE,FALSE,Disabled,0.018750,0.896875,-6.836875,TRUE,-3.873077,-20.242966,0.000000,0.000000,0.000000,0.000000,0.000000,-0.002000,0.001000,-0.070000,0.130000,1.510000,0.007629,ResetBack,1.756592,-0.000049,ResetBack,-29712.000000,-0.300000,Hold,0.000000,0.000000,Speed,0.000000,0.000000,Speed,Off,Off,0.000000,FALSE,10,Read: /home/lvuser/scripts/auto_44.bee,File good!,STOP_ALL,STOP_ALL
08:33:43.572 PM 03/22/2016,Autonomous Disabled,10,FALSE,0,NO ERROR,-0.000000,0.000000,0.000000,0.000000,TRUE,FALSE,TRUE,FALSE,FALSE,FALSE,Disabled,0.018750,0.896875,-6.836875,TRUE,-3.873077,-20.242966,0.000000,0.000000,0.000000,0.000000,0.000000,0.000000,0.005000,-0.070000,0.130000,1.510000,0.004968,ResetBack,1.756592,-0.000049,ResetBack,-29712.000000,-0.300000,Hold,0.000000,0.000000,Speed,0.000000,0.000000,Speed,Off,Off,0.000000,FALSE,10,Read: /home/lvuser/scripts/auto_44.bee,File good!,STOP_ALL,STOP_ALL
08:33:43.673 PM 03/22/2016,Autonomous Disabled,10,FALSE,0,NO ERROR,-0.000000,0.000000,0.000000,0.000000,TRUE,FALSE,TRUE,FALSE,FALSE,FALSE,Disabled,0.018750,0.896875,-6.836875,TRUE,-3.873077,-20.242966,0.000000,0.000000,0.000000,0.000000,0.003000,0.000000,-0.001000,-0.070000,0.130000,1.510000,0.006789,ResetBack,1.756592,-0.000049,ResetBack,-29712.000000,-0.300000,Hold,0.000000,0.000000,Speed,0.000000,0.000000,Speed,Off,Off,0.000000,FALSE,10,Read: /home/lvuser/scripts/auto_44.bee,File good!,STOP_ALL,STOP_ALL
08:34:10.168 PM 03/22/2016,Autonomous Enabled,9,TRUE,7,Read from Text File in DoesScriptNumberContainNull.vi->Disabled.vi->Robot Main.vi<APPEND> /home/lvuser/scripts/auto_43.bee,-0.000000,-0.301583,0.000000,0.141166,TRUE,FALSE,TRUE,FALSE,FALSE,FALSE,Disabled,0.018750,0.896875,-6.836875,TRUE,-3.876404,-20.242538,0.000000,0.000000,0.000000,0.000000,-0.001000,0.000000,0.000000,0.410000,0.080000,1.530000,0.367765,ResetBack,0.836182,-0.000049,ResetBack,-29712.000000,-0.300000,LowGoal,0.000000,-1454.545455,Speed,0.000000,-1454.545455,Speed,Off,Off,0.000000,FALSE,44,Read: /home/lvuser/scripts/auto_44.bee,File good!,WAIT 1500,WAIT
08:34:10.268 PM 03/22/2016,Autonomous Enabled,9,TRUE,7,Read from Text File in DoesScriptNumberContainNull.vi->Disabled.vi->Robot Main.vi<APPEND> /home/lvuser/scripts/auto_43.bee,-0.000000,-0.301583,0.000000,0.141166,TRUE,FALSE,TRUE,FALSE,FALSE,FALSE,Disabled,0.018750,0.896875,-6.836875,TRUE,-3.876404,-20.242661,0.000000,0.000000,-0.004272,0.000000,0.007000,0.001000,0.019000,0.420000,0.050000,1.490000,0.366006,ResetBack,0.281982,-0.000049,ResetBack,-20749.000000,-0.300000,LowGoal,97.500000,-1454.545455,Speed,52.500000,-1454.545455,Speed,Off,Off,0.000000,FALSE,44,Read: /home/lvuser/scripts/auto_44.bee,File good!,WAIT 1500,WAIT
08:34:10.368 PM 03/22/2016,Autonomous Enabled,9,TRUE,7,Read from Text File in DoesScriptNumberContainNull.vi->Disabled.vi->Robot Main.vi<APPEND> /home/lvuser/scripts/auto_43.bee,-0.000000,-0.301583,0.000000,0.141166,TRUE,FALSE,TRUE,FALSE,FALSE,FALSE,Disabled,0.018750,0.896875,-6.836875,TRUE,-3.876740,-20.242905,0.000000,-0.008377,-0.002426,0.000000,-0.002000,0.000000,-0.001000,0.410000,0.050000,1.560000,0.372805,ResetBack,0.279541,-0.000049,ResetBack,-10972.000000,-0.300000,LowGoal,652.500000,-1454.545455,Speed,765.000000,-1454.545455,Speed,Off,Off,0.000000,FALSE,44,Read: /home/lvuser/scripts/auto_44.bee,File good!,WAIT 1500,WAIT
08:34:10.469 PM 03/22/2016,Autonomous Enabled,9,TRUE,7,Read from Text File in DoesScriptNumberContainNull.vi->Disabled.vi->Robot Main.vi<APPEND> /home/lvuser/scripts/auto_43.bee,-0.000000,-0.301583,0.000000,0.141166,TRUE,FALSE,TRUE,FALSE,FALSE,FALSE,Disabled,0.018750,0.896875,-6.836875,TRUE,-3.877075,-20.243546,0.000000,-0.013947,-0.020447,0.000000,0.038000,-0.046000,-0.006000,0.410000,0.050000,1.560000,0.376330,Reset,0.279541,-0.000049,ResetBack,-10972.000000,-0.300000,LowGoal,1477.500000,-1454.545455,Speed,765.000000,-1454.545455,Speed,Off,Off,0.000000,FALSE,44,Read: /home/lvuser/scripts/auto_44.bee,File good!,WAIT 1500,WAIT
08:34:10.570 PM 03/22/2016,Autonomous Enabled,10,TRUE,7,Read from Text File in DoesScriptNumberContainNull.vi->Disabled.vi->Robot Main.vi<APPEND> /home/lvuser/scripts/auto_43.bee,-0.000000,-0.301583,0.000000,0.141166,TRUE,FALSE,TRUE,FALSE,FALSE,FALSE,Disabled,0.018750,0.896875,-6.836875,TRUE,-3.878464,-20.243729,0.000000,0.000000,0.000000,0.000000,0.008000,-0.016000,0.000000,0.410000,-0.010000,1.500000,0.363527,Hold,0.274170,0.000000,ResetBack,-4613.000000,-0.300000,LowGoal,1567.500000,-1454.545455,Speed,1582.500000,-1454.545455,Speed,Off,Off,0.000000,FALSE,44,Read: /home/lvuser/scripts/auto_44.bee,File good!,WAIT 1500,WAIT
08:34:10.671 PM 03/22/2016,Autonomous Enabled,10,TRUE,7,Read from Text File in DoesScriptNumberContainNull.vi->Disabled.vi->Robot Main.vi<APPEND> /home/lvuser/scripts/auto_43.bee,-0.000000,-0.301583,0.000000,0.141166,TRUE,FALSE,TRUE,FALSE,FALSE,FALSE,Disabled,0.018750,0.896875,-6.836875,TRUE,-3.878860,-20.243088,0.000000,0.003586,0.025574,0.000000,-0.002000,0.016000,-0.046000,0.420000,-0.050000,1.460000,0.357424,Hold,0.038818,0.000000,ResetBack,-1166.000000,-0.300000,LowGoal,1567.500000,-1454.545455,Speed,1335.000000,-1454.545455,Speed,Off,Off,0.000000,FALSE,44,Read: /home/lvuser/scripts/auto_44.bee,File good!,WAIT 1500,WAIT
08:34:10.771 PM 03/22/2016,Autonomous Enabled,11,TRUE,7,Read from Text File in DoesScriptNumberContainNull.vi->Disabled.vi->Robot Main.vi<APPEND> /home/lvuser/scripts/auto_43.bee,-0.000000,-0.301583,0.000000,0.141166,TRUE,FALSE,TRUE,FALSE,FALSE,FALSE,Disabled,0.018750,0.896875,-6.836875,TRUE,-3.878891,-20.242004,0.000000,0.001266,0.017670,0.000000,0.020000,0.061000,0.000000,0.420000,-0.040000,1.530000,0.350390,Hold,0.038818,0.000000,ResetBack,-1166.000000,-0.300000,LowGoal,1320.000000,-1454.545455,Speed,1335.000000,-1454.545455,Speed,Off,Off,0.000000,FALSE,44,Read: /home/lvuser/scripts/auto_44.bee,File good!,WAIT 1500,WAIT
08:34:10.872 PM 03/22/2016,Autonomous Enabled,10,TRUE,7,Read from Text File in DoesScriptNumberContainNull.vi->Disabled.vi->Robot Main.vi<APPEND> /home/lvuser/scripts/auto_43.bee,-0.000000,-0.301583,0.000000,0.141166,TRUE,FALSE,TRUE,FALSE,FALSE,FALSE,Disabled,0.018750,0.896875,-6.836875,TRUE,-3.878922,-20.240097,0.000000,0.002930,0.053772,0.000000,-0.021000,0.043000,0.008000,0.420000,-0.040000,1.510000,0.355706,Hold,0.038818,0.000000,ResetBack,-426.000000,-0.300000,LowGoal,1402.500000,-1454.545455,Speed,1335.000000,-1454.545455,Speed,Off,Off,0.000000,FALSE,44,Read: /home/lvuser/scripts/auto_44.bee,File good!,WAIT 1500,WAIT
08:34:10.973 PM 03/22/2016,Autonomous Enabled,9,TRUE,7,Read from Text File in DoesScriptNumberContainNull.vi->Disabled.vi->Robot Main.vi<APPEND> /home/lvuser/scripts/auto_43.bee,-0.000000,-0.301583,0.000000,0.141166,TRUE,FALSE,TRUE,FALSE,FALSE,FALSE,Disabled,0.018750,0.896875,-6.836875,TRUE,-3.878922,-20.240097,0.000000,0.002930,0.053772,0.000000,0.023000,0.044000,-0.043000,0.420000,0.040000,1.580000,0.352349,Hold,0.038818,0.000000,ResetBack,-33.000000,-0.300000,LowGoal,1425.000000,-1454.545455,Speed,1440.000000,-1454.545455,Speed,Off,Off,0.000000,FALSE,44,Read: /home/lvuser/scripts/auto_44.bee,File good!,WAIT 1500,WAIT
08:34:11.074 PM 03/22/2016,Autonomous Enabled,10,TRUE,7,Read from Text File in DoesScriptNumberContainNull.vi->Disabled.vi->Robot Main.vi<APPEND> /home/lvuser/scripts/auto_43.bee,-0.000000,-0.301583,0.000000,0.141166,TRUE,FALSE,TRUE,FALSE,FALSE,FALSE,Disabled,0.018750,0.896875,-6.836875,TRUE,-3.878235,-20.237015,0.000000,0.005173,0.032364,0.000000,-0.019000,-0.004000,-0.007000,0.410000,0.090000,1.490000,0.348218,Hold,0.038818,0.000000,ResetBack,-21.000000,-0.300000,LowGoal,1387.500000,-1454.545455,Speed,1417.500000,-1454.545455,Speed,Off,Off,0.000000,FALSE,44,Read: /home/lvuser/scripts/auto_44.bee,File good!,WAIT 1500,WAIT
08:34:11.174 PM 03/22/2016,Autonomous Enabled,10,TRUE,7,Read from Text File in DoesScriptNumberContainNull.vi->Disabled.vi->Robot Main.vi<APPEND> /home/lvuser/scripts/auto_43.bee,-0.000000,-0.301583,0.000000,0.141166,TRUE,FALSE,TRUE,FALSE,FALSE,FALSE,Disabled,0.018750,0.896875,-6.836875,TRUE,-3.877808,-20.236771,0.000000,0.016998,0.000000,0.000000,-0.112000,-0.067000,-0.023000,0.420000,0.020000,1.530000,0.347485,Hold,0.038818,0.000000,ResetBack,-21.000000,-0.300000,LowGoal,1387.500000,-1454.545455,Speed,1372.500000,-1454.545455,Speed,Off,Off,0.000000,FALSE,44,Read: /home/lvuser/scripts/auto_44.bee,File good!,WAIT 1500,WAIT
08:34:11.275 PM 03/22/2016,Autonomous Enabled,9,TRUE,7,Read from Text File in DoesScriptNumberContainNull.vi->Disabled.vi->Robot Main.vi<APPEND> /home/lvuser/scripts/auto_43.bee,-0.000000,-0.301583,0.000000,0.141166,TRUE,FALSE,TRUE,FALSE,FALSE,FALSE,Disabled,0.018750,0.896875,-6.836875,TRUE,-3.878922,-20.236420,0.000000,-0.044327,0.023026,0.000000,-0.022000,-0.030000,0.046000,0.420000,-0.100000,1.590000,0.340039,Hold,0.038818,0.000000,ResetBack,-21.000000,-0.300000,LowGoal,1380.000000,-1454.545455,Speed,1395.000000,-1454.545455,Speed,Off,Off,0.000000,FALSE,44,Read: /home/lvuser/scripts/auto_44.bee,File good!,WAIT 1500,WAIT
08:34:11.375 PM 03/22/2016,Autonomous Enabled,9,TRUE,7,Read from Text File in DoesScriptNumberContainNull.vi->Disabled.vi->Robot Main.vi<APPEND> /home/lvuser/scripts/auto_43.bee,-0.000000,-0.301583,0.000000,0.141166,TRUE,FALSE,TRUE,FALSE,FALSE,FALSE,Disabled,0.018750,0.896875,-6.836875,TRUE,-3.881714,-20.235153,0.000000,-0.050674,0.022598,0.000000,0.010000,0.019000,0.018000,0.420000,-0.080000,1.610000,0.339750,Hold,0.038818,0.000000,ResetBack,-21.000000,-0.300000,LowGoal,1402.500000,-1454.545455,Speed,1410.000000,-1454.545455,Speed,Off,Off,0.000000,FALSE,44,Read: /home/lvuser/scripts/auto_44.bee,File good!,WAIT 1500,WAIT
08:34:11.475 PM 03/22/2016,Autonomous Enabled,10,TRUE,7,Read from Text File in DoesScriptNumberContainNull.vi->Disabled.vi->Robot Main.vi<APPEND> /home/lvuser/scripts/auto_43.bee,-0.000000,-0.301583,0.000000,0.141166,TRUE,FALSE,TRUE,FALSE,FALSE,FALSE,Disabled,0.018750,0.896875,-6.836875,TRUE,-3.882248,-20.234940,0.000000,-0.004883,-0.004898,0.000000,0.075000,0.044000,0.009000,0.420000,-0.040000,1.570000,0.347065,Hold,0.038818,0.000000,Reset,-21.000000,2.000000,LowGoal,1395.000000,-1454.545455,Speed,1402.500000,-1454.545455,Speed,Off,Off,0.000000,FALSE,44,Read: /home/lvuser/scripts/auto_44.bee,File good!,WAIT 1500,WAIT
08:34:11.575 PM 03/22/2016,Autonomous Enabled,10,TRUE,7,Read from Text File in DoesScriptNumberContainNull.vi->Disabled.vi->Robot Main.vi<APPEND> /home/lvuser/scripts/auto_43.bee,-0.000000,-0.301583,0.000000,0.141166,TRUE,FALSE,TRUE,FALSE,FALSE,FALSE,Disabled,0.018750,0.896875,-6.836875,TRUE,-3.882416,-20.235168,0.000000,-0.012344,-0.009094,0.000000,-0.016000,-0.008000,-0.012000,0.430000,-0.070000,1.570000,0.330307,Hold,0.038818,0.000000,Hold,0.000000,2.000000,LowGoal,1395.000000,-1454.545455,Speed,1395.000000,-1454.545455,Speed,Off,Off,0.000000,FALSE,44,Read: /home/lvuser/scripts/auto_44.bee,File good!,WAIT 1500,WAIT
08:34:11.676 PM 03/22/2016,Autonomous Enabled,9,TRUE,7,Read from Text File in DoesScriptNumberContainNull.vi->Disabled.vi->Robot Main.vi<APPEND> /home/lvuser/scripts/auto_43.bee,-0.000000,-0.301583,0.000000,0.141166,TRUE,FALSE,TRUE,FALSE,FALSE,FALSE,Disabled,0.018750,0.896875,-6.836875,TRUE,-3.882721,-20.235718,0.000000,-0.001083,-0.014343,0.000000,-0.016000,-0.072000,0.000000,0.420000,-0.030000,1.550000,0.336438,Hold,0.038818,0.000000,Hold,-220.000000,2.000000,LowGoal,1395.000000,-1454.545455,Speed,1402.500000,-1454.545455,Speed,Off,Off,0.000000,FALSE,44,Read: /home/lvuser/scripts/auto_44.bee,File good!,NAVX_ZERO_YAW,WAIT
08:34:11.777 PM 03/22/2016,Autonomous Enabled,11,TRUE,7,Read from Text File in DoesScriptNumberContainNull.vi->Disabled.vi->Robot Main.vi<APPEND> /home/lvuser/scripts/auto_43.bee,-0.000000,-0.198916,0.000000,0.346499,TRUE,FALSE,TRUE,FALSE,FALSE,FALSE,Disabled,0.018750,0.896875,-6.836875,TRUE,-3.882812,-20.236938,0.000000,0.000870,-0.028656,0.000000,0.055000,-0.031000,0.005000,0.430000,-0.100000,1.560000,-0.011030,Hold,0.038818,0.000000,Hold,-220.000000,2.000000,LowGoal,1395.000000,-1454.545455,Speed,1410.000000,-1454.545455,Speed,Off,Off,0.000000,FALSE,44,Read: /home/lvuser/scripts/auto_44.bee,File good!,DRIVE_STRAIGHT_NAVX 200 5000,DRIVE_STRAIGHT_NAVX
08:34:11.877 PM 03/22/2016,Autonomous Enabled,9,TRUE,7,Read from Text File in DoesScriptNumberContainNull.vi->Disabled.vi->Robot Main.vi<APPEND> /home/lvuser/scripts/auto_43.bee,-0.000000,-1.982745,0.000000,2.297161,TRUE,FALSE,TRUE,FALSE,FALSE,FALSE,Disabled,0.018750,0.896875,-6.836875,TRUE,-3.880844,-20.238861,0.000000,0.063812,-0.041656,0.000000,1.102000,-0.060000,-0.359000,-0.010000,0.180000,1.490000,-0.520408,Hold,0.038818,0.000000,Hold,-220.000000,2.000000,LowGoal,1395.000000,2909.090909,Speed,1402.500000,2909.090909,Speed,Off,Off,0.000000,FALSE,44,Read: /home/lvuser/scripts/auto_44.bee,File good!,DRIVE_STRAIGHT_NAVX 200 5000,DRIVE_STRAIGHT_NAVX
08:34:11.978 PM 03/22/2016,Autonomous Enabled,10,TRUE,7,Read from Text File in DoesScriptNumberContainNull.vi->Disabled.vi->Robot Main.vi<APPEND> /home/lvuser/scripts/auto_43.bee,-0.000000,-4.125907,0.000000,4.600739,FALSE,FALSE,TRUE,FALSE,FALSE,FALSE,Disabled,0.018750,0.896875,-6.836875,TRUE,-3.859802,-20.241562,0.000000,0.551743,-0.056473,0.000000,0.317000,0.087000,-0.473000,-0.550000,4.190000,1.350000,-0.749101,Hold,0.039307,0.000000,Hold,-246.000000,2.000000,LowGoal,1245.000000,2909.090909,Speed,1305.000000,2909.090909,Speed,Off,Off,0.000000,FALSE,44,Read: /home/lvuser/scripts/auto_44.bee,File good!,DRIVE_STRAIGHT_NAVX 200 5000,DRIVE_STRAIGHT_NAVX
08:34:12.078 PM 03/22/2016,Autonomous Enabled,10,TRUE,7,Read from Text File in DoesScriptNumberContainNull.vi->Disabled.vi->Robot Main.vi<APPEND> /home/lvuser/scripts/auto_43.bee,-0.000000,-7.205900,0.000000,7.776982,TRUE,FALSE,TRUE,FALSE,FALSE,FALSE,Disabled,0.018750,0.896875,-6.836875,TRUE,-3.825562,-20.243607,0.000000,0.747559,-0.045410,0.000000,0.147000,0.008000,-0.043000,-0.850000,2.350000,1.380000,-1.038355,Hold,0.039307,0.000000,Hold,-246.000000,2.000000,LowGoal,157.500000,2909.090909,Speed,315.000000,2909.090909,Speed,Off,Off,0.000000,FALSE,44,Read: /home/lvuser/scripts/auto_44.bee,File good!,DRIVE_STRAIGHT_NAVX 200 5000,DRIVE_STRAIGHT_NAVX
08:34:12.178 PM 03/22/2016,Autonomous Enabled,11,TRUE,7,Read from Text File in DoesScriptNumberContainNull.vi->Disabled.vi->Robot Main.vi<APPEND> /home/lvuser/scripts/auto_43.bee,-0.000000,-10.298726,0.000000,10.972474,FALSE,FALSE,TRUE,FALSE,FALSE,FALSE,Disabled,0.018750,0.896875,-6.836875,TRUE,-3.809357,-20.242889,0.000000,0.013489,0.025803,0.000000,-0.187000,-0.084000,0.728000,-1.110000,3.620000,1.590000,-1.038355,Hold,0.039307,0.000000,Hold,-246.000000,2.000000,LowGoal,-622.500000,2909.090909,Speed,-735.000000,2909.090909,Speed,Off,Off,0.000000,FALSE,44,Read: /home/lvuser/scripts/auto_44.bee,File good!,DRIVE_STRAIGHT_NAVX 200 5000,DRIVE_STRAIGHT_NAVX
08:34:12.279 PM 03/22/2016,Autonomous Enabled,10,TRUE,7,Read from Text File in DoesScriptNumberContainNull.vi->Disabled.vi->Robot Main.vi<APPEND> /home/lvuser/scripts/auto_43.bee,-0.000000,-10.298726,0.000000,10.972474,FALSE,FALSE,TRUE,FALSE,FALSE,FALSE,Disabled,0.018750,0.896875,-6.836875,TRUE,-3.809814,-20.242874,0.000000,0.007721,-0.008316,0.000000,0.073000,-0.059000,0.135000,-1.320000,3.160000,1.630000,-1.298116,Hold,0.039307,0.000000,Hold,-246.000000,2.000000,LowGoal,-1357.500000,2909.090909,Speed,-1537.500000,2909.090909,Speed,Off,Off,0.000000,FALSE,44,Read: /home/lvuser/scripts/auto_44.bee,File good!,DRIVE_STRAIGHT_NAVX 200 5000,DRIVE_STRAIGHT_NAVX
08:34:12.380 PM 03/22/2016,Autonomous Enabled,11,TRUE,7,Read from Text File in DoesScriptNumberContainNull.vi->Disabled.vi->Robot Main.vi<APPEND> /home/lvuser/scripts/auto_43.bee,-0.000000,-13.924134,0.000000,14.482383,FALSE,FALSE,TRUE,FALSE,FALSE,FALSE,Disabled,0.018750,0.896875,-6.836875,TRUE,-3.808472,-20.243576,0.000000,0.018219,0.010544,0.000000,-0.075000,0.042000,-0.247000,-1.230000,3.190000,1.600000,-1.258028,Hold,0.039307,0.000000,Hold,-246.000000,2.000000,LowGoal,-1935.000000,2909.090909,Speed,-2175.000000,2909.090909,Speed,Off,Off,0.000000,FALSE,44,Read: /home/lvuser/scripts/auto_44.bee,File good!,DRIVE_STRAIGHT_NAVX 200 5000,DRIVE_STRAIGHT_NAVX
08:34:12.480 PM 03/22/2016,Autonomous Enabled,10,TRUE,7,Read from Text File in DoesScriptNumberContainNull.vi->Disabled.vi->Robot Main.vi<APPEND> /home/lvuser/scripts/auto_43.bee,-0.000000,-17.555959,0.000000,17.889625,FALSE,FALSE,TRUE,FALSE,FALSE,FALSE,Disabled,0.018750,0.896875,-6.836875,TRUE,-3.808014,-20.243713,0.000000,0.007004,-0.034256,0.000000,-0.067000,0.115000,-0.058000,-0.800000,3.100000,1.510000,-0.860953,Hold,0.039307,0.000000,Hold,-246.000000,2.000000,LowGoal,-2415.000000,2909.090909,Speed,-2685.000000,2909.090909,Speed,Off,Off,0.000000,FALSE,44,Read: /home/lvuser/scripts/auto_44.bee,File good!,DRIVE_STRAIGHT_NAVX 200 5000,DRIVE_STRAIGHT_NAVX
08:34:12.580 PM 03/22/2016,Autonomous Enabled,11,FALSE,0,NO ERROR,-0.000000,-21.412367,0.000000,21.515033,FALSE,FALSE,TRUE,FALSE,FALSE,FALSE,Disabled,0.018750,0.896875,-6.836875,TRUE,-3.807358,-20.245972,0.000000,0.023666,-0.043854,0.000000,0.029000,0.064000,-0.223000,-0.420000,3.150000,1.440000,-0.442734,Hold,0.039307,0.000000,Hold,-246.000000,2.000000,LowGoal,-2820.000000,2909.090909,Speed,-3007.500000,2909.090909,Speed,Off,Off,0.000000,FALSE,44,Read: /home/lvuser/scripts/auto_44.bee,File good!,DRIVE_STRAIGHT_NAVX 200 5000,DRIVE_STRAIGHT_NAVX
08:34:12.679 PM 03/22/2016,Autonomous Enabled,11,FALSE,0,NO ERROR,-0.000000,-25.486940,0.000000,25.499774,FALSE,FALSE,TRUE,FALSE,FALSE,FALSE,Disabled,0.018750,0.896875,-6.836875,TRUE,-3.806641,-20.247574,0.000000,0.011398,-0.046509,0.000000,0.127000,-0.079000,0.179000,-0.250000,3.320000,1.300000,-0.208626,Hold,0.039307,0.000000,Hold,-241.000000,2.000000,LowGoal,-3000.000000,2909.090909,Speed,-2992.500000,2909.090909,Speed,Off,Off,0.000000,FALSE,44,Read: /home/lvuser/scripts/auto_44.bee,File good!,DRIVE_STRAIGHT_NAVX 200 5000,DRIVE_STRAIGHT_NAVX
08:34:12.782 PM 03/22/2016,Autonomous Enabled,11,FALSE,0,NO ERROR,-0.000000,-29.709097,0.000000,29.683431,FALSE,FALSE,TRUE,FALSE,FALSE,FALSE,Disabled,0.018750,0.896875,-6.836875,TRUE,-3.803986,-20.249252,0.000000,0.074661,-0.035538,0.000000,0.053000,-0.185000,0.095000,-0.240000,3.460000,1.200000,-0.200264,Hold,0.039307,0.000000,Hold,-240.000000,2.000000,LowGoal,-2895.000000,2909.090909,Speed,-2895.000000,2909.090909,Speed,Off,Off,0.000000,FALSE,44,Read: /home/lvuser/scripts/auto_44.bee,File good!,DRIVE_STRAIGHT_NAVX 200 5000,DRIVE_STRAIGHT_NAVX
08:34:12.882 PM 03/22/2016,Autonomous Enabled,11,FALSE,0,NO ERROR,-0.000000,-34.046754,0.000000,33.835004,FALSE,FALSE,TRUE,FALSE,FALSE,FALSE,Disabled,0.018750,0.896875,-6.836875,TRUE,-3.800522,-20.251419,0.000000,0.021805,-0.001343,0.000000,-0.020000,-0.241000,0.096000,-0.100000,3.400000,1.100000,-0.082800,Hold,0.039307,0.000000,Hold,-240.000000,2.000000,LowGoal,-2827.500000,2909.090909,Speed,-2887.500000,2909.090909,Speed,Off,Off,0.000000,FALSE,44,Read: /home/lvuser/scripts/auto_44.bee,File good!,DRIVE_STRAIGHT_NAVX 200 5000,DRIVE_STRAIGHT_NAVX
08:34:12.982 PM 03/22/2016,Autonomous Enabled,11,FALSE,0,NO ERROR,-0.000000,-38.249661,0.000000,38.037911,FALSE,FALSE,TRUE,FALSE,FALSE,FALSE,Disabled,0.018750,0.896875,-6.836875,TRUE,-3.800278,-20.254639,0.000000,0.010788,-0.098755,0.000000,0.064000,-0.181000,-0.001000,0.050000,3.520000,0.760000,0.119154,Hold,0.039307,0.000000,Hold,-239.000000,2.000000,LowGoal,-2872.500000,2909.090909,Speed,-2917.500000,2909.090909,Speed,Off,Off,0.000000,FALSE,44,Read: /home/lvuser/scripts/auto_44.bee,File good!,DRIVE_STRAIGHT_NAVX 200 5000,DRIVE_STRAIGHT_NAVX
08:34:13.082 PM 03/22/2016,Autonomous Enabled,11,FALSE,0,NO ERROR,-0.000000,-42.645067,0.000000,42.394818,FALSE,FALSE,TRUE,FALSE,FALSE,FALSE,Disabled,0.018750,0.896875,-6.836875,TRUE,-3.799561,-20.262222,0.000000,-0.012772,-0.203812,0.000000,-0.278000,-0.138000,0.006000,0.000000,6.040000,0.530000,-0.032673,Hold,0.039307,0.000000,Hold,-239.000000,2.000000,LowGoal,-2895.000000,2909.090909,Speed,-2917.500000,2909.090909,Speed,Off,Off,0.000000,FALSE,44,Read: /home/lvuser/scripts/auto_44.bee,File good!,DRIVE_STRAIGHT_NAVX 200 5000,DRIVE_STRAIGHT_NAVX
08:34:13.182 PM 03/22/2016,Autonomous Enabled,11,FALSE,0,NO ERROR,-0.000000,-46.616974,0.000000,46.418058,FALSE,FALSE,TRUE,FALSE,FALSE,FALSE,Disabled,0.018750,0.896875,-6.836875,TRUE,-3.801941,-20.271896,0.000000,-0.059998,-0.184174,0.000000,0.003000,-0.203000,-0.064000,-0.130000,8.200000,0.390000,-0.165009,Hold,0.039307,0.000000,Hold,-239.000000,2.000000,LowGoal,-2880.000000,2909.090909,Speed,-2917.500000,2909.090909,Speed,Off,Off,0.000000,FALSE,44,Read: /home/lvuser/scripts/auto_44.bee,File good!,DRIVE_STRAIGHT_NAVX 200 5000,DRIVE_STRAIGHT_NAVX
08:34:13.282 PM 03/22/2016,Autonomous Enabled,11,FALSE,0,NO ERROR,-0.000000,-50.717215,0.000000,50.556798,FALSE,FALSE,TRUE,FALSE,FALSE,FALSE,Disabled,0.018750,0.896875,-6.836875,TRUE,-3.805527,-20.283340,0.000000,-0.063705,-0.240158,0.000000,0.059000,0.181000,-0.425000,-0.170000,10.630000,0.150000,-0.278062,Hold,0.039307,0.000000,Hold,-239.000000,2.000000,LowGoal,-2865.000000,2909.090909,Speed,-2917.500000,2909.090909,Speed,Off,Off,0.000000,FALSE,44,Read: /home/lvuser/scripts/auto_44.bee,File good!,DRIVE_STRAIGHT_NAVX 200 5000,DRIVE_STRAIGHT_NAVX
08:34:13.382 PM 03/22/2016,Autonomous Enabled,11,FALSE,0,NO ERROR,-0.000000,-54.522289,0.000000,54.419623,FALSE,FALSE,TRUE,FALSE,FALSE,FALSE,Disabled,0.018750,0.896875,-6.836875,TRUE,-3.808167,-20.296585,0.000000,-0.050034,-0.299164,0.000000,0.079000,0.235000,-0.387000,-0.220000,12.120000,-0.190000,-0.368770,Hold,0.039307,0.000000,Hold,-239.000000,2.000000,LowGoal,-2880.000000,2909.090909,Speed,-2895.000000,2909.090909,Speed,Off,Off,0.000000,FALSE,44,Read: /home/lvuser/scripts/auto_44.bee,File good!,DRIVE_STRAIGHT_NAVX 200 5000,DRIVE_STRAIGHT_NAVX
08:34:13.483 PM 03/22/2016,Autonomous Enabled,10,FALSE,0,NO ERROR,-0.000000,-58.199031,0.000000,58.019364,FALSE,FALSE,TRUE,FALSE,FALSE,FALSE,Disabled,0.018750,0.896875,-6.836875,TRUE,-3.810059,-20.310989,0.000000,-0.086304,-0.256516,0.000000,0.118000,-0.112000,-0.007000,0.060000,11.110000,-0.360000,-0.255090,Hold,0.039307,0.000000,Hold,-239.000000,2.000000,LowGoal,-2865.000000,2909.090909,Speed,-2857.500000,2909.090909,Speed,Off,Off,0.000000,FALSE,44,Read: /home/lvuser/scripts/auto_44.bee,File good!,DRIVE_STRAIGHT_NAVX 200 5000,DRIVE_STRAIGHT_NAVX
08:34:13.583 PM 03/22/2016,Autonomous Enabled,10,FALSE,0,NO ERROR,-0.000000,-62.292854,0.000000,61.978438,FALSE,FALSE,TRUE,FALSE,FALSE,FALSE,Disabled,0.018750,0.896875,-6.836875,TRUE,-3.814270,-20.321671,0.000000,-0.073441,-0.187057,0.000000,-0.179000,-0.252000,-0.078000,1.580000,17.790000,0.570000,1.351734,Hold,0.039307,0.000000,Hold,-239.000000,2.000000,LowGoal,-2865.000000,2909.090909,Speed,-2887.500000,2909.090909,Speed,Off,Off,0.000000,FALSE,44,Read: /home/lvuser/scripts/auto_44.bee,File good!,DRIVE_STRAIGHT_NAVX 200 5000,DRIVE_STRAIGHT_NAVX
08:34:13.683 PM 03/22/2016,Autonomous Enabled,11,FALSE,0,NO ERROR,-0.000000,-65.193181,0.000000,65.366430,FALSE,FALSE,TRUE,FALSE,FALSE,FALSE,Disabled,0.018750,0.896875,-6.836875,TRUE,-3.827469,-20.331970,0.000000,-0.289795,-0.133362,0.000000,-0.061000,0.323000,-0.852000,1.760000,16.600000,0.460000,1.666532,Hold,0.044678,0.000000,Hold,-239.000000,2.000000,LowGoal,-2865.000000,2909.090909,Speed,-2902.500000,2909.090909,Speed,Off,Off,0.000000,FALSE,44,Read: /home/lvuser/scripts/auto_44.bee,File good!,DRIVE_STRAIGHT_NAVX 200 5000,DRIVE_STRAIGHT_NAVX
08:34:13.783 PM 03/22/2016,Autonomous Enabled,9,FALSE,0,NO ERROR,-0.000000,-68.125591,0.000000,68.651756,FALSE,FALSE,TRUE,FALSE,FALSE,FALSE,Disabled,0.018750,0.896875,-6.836875,TRUE,-3.839798,-20.335953,0.000000,-0.261856,0.071960,0.000000,-0.093000,0.194000,0.737000,1.170000,14.190000,0.740000,0.872176,Hold,0.405273,0.000000,Hold,-239.000000,2.000000,LowGoal,-2850.000000,2909.090909,Speed,-2887.500000,2909.090909,Speed,Off,Off,0.000000,FALSE,44,Read: /home/lvuser/scripts/auto_44.bee,File good!,DRIVE_STRAIGHT_NAVX 200 5000,DRIVE_STRAIGHT_NAVX
08:34:13.884 PM 03/22/2016,Autonomous Enabled,11,FALSE,0,NO ERROR,-0.000000,-71.083667,0.000000,72.161665,FALSE,FALSE,TRUE,FALSE,FALSE,FALSE,Disabled,0.018750,0.896875,-6.836875,TRUE,-3.855240,-20.340515,0.000000,-0.623962,-0.096222,0.000000,0.114000,-0.338000,0.100000,0.310000,10.070000,-0.540000,-0.036140,Hold,0.429932,0.000000,Hold,-238.000000,2.000000,LowGoal,-2842.500000,2909.090909,Speed,-2880.000000,2909.090909,Speed,Off,Off,0.000000,FALSE,44,Read: /home/lvuser/scripts/auto_44.bee,File good!,DRIVE_STRAIGHT_NAVX 200 5000,DRIVE_STRAIGHT_NAVX
08:34:13.983 PM 03/22/2016,Autonomous Enabled,10,FALSE,0,NO ERROR,-0.000000,-74.362576,0.000000,75.690823,FALSE,FALSE,TRUE,FALSE,FALSE,FALSE,Disabled,0.018750,0.896875,-6.836875,TRUE,-3.888229,-20.348312,0.000000,-0.658600,-0.130188,0.000000,0.214000,0.009000,-1.637000,-1.220000,9.840000,-1.770000,-1.788719,Hold,0.431152,0.000000,Hold,-238.000000,2.000000,LowGoal,-2835.000000,2909.090909,Speed,-2895.000000,2909.090909,Speed,Off,Off,0.000000,FALSE,44,Read: /home/lvuser/scripts/auto_44.bee,File good!,DRIVE_STRAIGHT_NAVX 200 5000,DRIVE_STRAIGHT_NAVX
08:34:14.083 PM 03/22/2016,Autonomous Enabled,11,FALSE,0,NO ERROR,-0.000000,-77.397652,0.000000,78.815732,FALSE,FALSE,TRUE,FALSE,FALSE,FALSE,Disabled,0.018750,0.896875,-6.836875,TRUE,-3.920288,-20.356110,0.000000,-0.670105,-0.221664,0.000000,0.199000,0.596000,0.008000,-1.270000,8.870000,-2.200000,-1.881296,Hold,0.431152,0.000000,Hold,-237.000000,2.000000,LowGoal,-2835.000000,2909.090909,Speed,-2902.500000,2909.090909,Speed,Off,Off,0.000000,FALSE,44,Read: /home/lvuser/scripts/auto_44.bee,File good!,DRIVE_STRAIGHT_NAVX 200 5000,DRIVE_STRAIGHT_NAVX
08:34:14.184 PM 03/22/2016,Autonomous Enabled,10,FALSE,0,NO ERROR,-0.000000,-81.074394,0.000000,82.428307,FALSE,FALSE,TRUE,FALSE,FALSE,FALSE,Disabled,0.018750,0.896875,-6.836875,TRUE,-3.948669,-20.355835,0.000000,-0.496765,0.095963,0.000000,-0.284000,-0.584000,0.487000,1.920000,7.390000,-2.770000,0.680511,Hold,0.431152,0.000000,Hold,-237.000000,2.000000,LowGoal,-2842.500000,2909.090909,Speed,-2902.500000,2909.090909,Speed,Off,Off,0.000000,FALSE,44,Read: /home/lvuser/scripts/auto_44.bee,File good!,DRIVE_STRAIGHT_NAVX 200 5000,DRIVE_STRAIGHT_NAVX
08:34:14.283 PM 03/22/2016,Autonomous Enabled,9,FALSE,0,NO ERROR,-0.000000,-84.378969,0.000000,85.848383,FALSE,FALSE,TRUE,FALSE,FALSE,FALSE,Disabled,0.018750,0.896875,-6.836875,TRUE,-3.980301,-20.362823,0.000000,-0.666916,-0.242661,0.000000,0.297000,0.452000,-0.584000,2.340000,2.530000,-3.800000,1.463039,Hold,0.431152,0.000000,Hold,-230.000000,2.000000,LowGoal,-2865.000000,2909.090909,Speed,-2895.000000,2909.090909,Speed,Off,Off,0.000000,FALSE,44,Read: /home/lvuser/scripts/auto_44.bee,File good!,DRIVE_STRAIGHT_NAVX 200 5000,DRIVE_STRAIGHT_NAVX
08:34:14.384 PM 03/22/2016,Autonomous Enabled,9,FALSE,0,NO ERROR,-0.000000,-87.882461,0.000000,89.929373,FALSE,FALSE,TRUE,FALSE,FALSE,FALSE,Disabled,0.018750,0.896875,-6.836875,TRUE,-4.007156,-20.369553,0.000000,-0.450653,-0.145828,0.000000,0.050000,-0.256000,-0.275000,2.220000,-1.610000,-4.070000,1.419446,Hold,0.431152,0.000000,Hold,-230.000000,2.000000,LowGoal,-2857.500000,2909.090909,Speed,-2887.500000,2909.090909,Speed,Off,Off,0.000000,FALSE,44,Read: /home/lvuser/scripts/auto_44.bee,File good!,DRIVE_STRAIGHT_NAVX 200 5000,DRIVE_STRAIGHT_NAVX
08:34:14.485 PM 03/22/2016,Autonomous Enabled,11,FALSE,0,NO ERROR,-0.000000,-91.000954,0.000000,94.010363,FALSE,FALSE,TRUE,FALSE,FALSE,FALSE,Disabled,0.018750,0.896875,-6.836875,TRUE,-4.030212,-20.379456,0.000000,-0.435730,-0.313202,0.000000,0.430000,-0.345000,-0.493000,0.930000,-11.980000,0.100000,-0.188945,Hold,0.431396,0.000000,Hold,-228.000000,2.000000,LowGoal,-2865.000000,2909.090909,Speed,-2872.500000,2909.090909,Speed,Off,Off,0.000000,FALSE,44,Read: /home/lvuser/scripts/auto_44.bee,File good!,DRIVE_STRAIGHT_NAVX 200 5000,DRIVE_STRAIGHT_NAVX
08:34:14.585 PM 03/22/2016,Autonomous Enabled,11,FALSE,0,NO ERROR,-0.000000,-95.146111,0.000000,98.842102,FALSE,FALSE,TRUE,FALSE,FALSE,FALSE,Disabled,0.018750,0.896875,-6.836875,TRUE,-4.043610,-20.405746,0.000000,-0.184830,-0.390213,0.000000,-0.101000,0.601000,0.013000,-0.440000,-14.030000,0.070000,-1.528083,Hold,1.193848,0.000000,Hold,-227.000000,2.000000,LowGoal,-2857.500000,2909.090909,Speed,-2895.000000,2909.090909,Speed,Off,Off,0.000000,FALSE,44,Read: /home/lvuser/scripts/auto_44.bee,File good!,DRIVE_STRAIGHT_NAVX 200 5000,DRIVE_STRAIGHT_NAVX
08:34:14.686 PM 03/22/2016,Autonomous Enabled,11,FALSE,0,NO ERROR,-0.000000,-100.548932,0.000000,105.149671,FALSE,FALSE,TRUE,FALSE,FALSE,FALSE,Disabled,0.018750,0.896875,-6.836875,TRUE,-4.054565,-20.414566,0.000000,-0.316956,-0.212936,0.000000,-0.428000,0.531000,1.042000,-2.850000,-4.360000,0.570000,-3.693975,Hold,1.344971,0.000000,Hold,-226.000000,2.000000,LowGoal,-2895.000000,2909.090909,Speed,-2917.500000,2909.090909,Speed,Off,Off,0.000000,FALSE,44,Read: /home/lvuser/scripts/auto_44.bee,File good!,DRIVE_STRAIGHT_NAVX 200 5000,DRIVE_STRAIGHT_NAVX
08:34:14.788 PM 03/22/2016,Autonomous Enabled,10,FALSE,0,NO ERROR,-0.000000,-105.419170,0.000000,109.808160,FALSE,FALSE,TRUE,FALSE,FALSE,FALSE,Disabled,0.018750,0.896875,-6.836875,TRUE,-4.072845,-20.418762,0.000000,-0.299530,0.077026,0.000000,-0.903000,0.443000,-2.596000,-2.330000,-4.000000,1.500000,-3.732053,Hold,1.286133,0.000000,Hold,-256.000000,2.000000,LowGoal,-2902.500000,2909.090909,Speed,-2902.500000,2909.090909,Speed,Off,Off,0.000000,FALSE,44,Read: /home/lvuser/scripts/auto_44.bee,File good!,DRIVE_STRAIGHT_NAVX 200 5000,DRIVE_STRAIGHT_NAVX
08:34:14.889 PM 03/22/2016,Autonomous Enabled,11,FALSE,0,NO ERROR,-0.000000,-110.526825,0.000000,114.171483,TRUE,FALSE,TRUE,FALSE,FALSE,FALSE,Disabled,0.018750,0.896875,-6.836875,TRUE,-4.088699,-20.415573,0.000000,-0.267853,0.092621,0.000000,0.063000,-0.826000,0.978000,-1.220000,0.010000,1.510000,-2.439855,Hold,1.286133,0.000000,Hold,-253.000000,2.000000,LowGoal,-2880.000000,2909.090909,Speed,-2895.000000,2909.090909,Speed,Off,Off,0.000000,FALSE,44,Read: /home/lvuser/scripts/auto_44.bee,File good!,DRIVE_STRAIGHT_NAVX 200 5000,DRIVE_STRAIGHT_NAVX
08:34:14.990 PM 03/22/2016,Autonomous Enabled,12,FALSE,0,NO ERROR,-0.000000,-115.461230,0.000000,119.080222,TRUE,FALSE,TRUE,FALSE,FALSE,FALSE,Disabled,0.018750,0.896875,-6.836875,TRUE,-4.107651,-20.418976,0.000000,-0.359283,-0.044403,0.000000,-0.096000,-0.537000,0.684000,-1.100000,2.840000,1.270000,-2.422614,Hold,1.316895,0.000000,Hold,-253.000000,2.000000,LowGoal,-2880.000000,2909.090909,Speed,-2910.000000,2909.090909,Speed,Off,Off,0.000000,FALSE,44,Read: /home/lvuser/scripts/auto_44.bee,File good!,SET_HEADING 0,SET_HEADING
08:34:15.091 PM 03/22/2016,Autonomous Enabled,10,FALSE,0,NO ERROR,-0.000000,-120.081219,0.000000,122.609380,TRUE,FALSE,TRUE,FALSE,FALSE,FALSE,Disabled,0.018750,0.896875,-6.836875,TRUE,-4.133560,-20.424576,0.000000,-0.568665,-0.100800,0.000000,0.010000,0.127000,-1.372000,-0.820000,1.650000,1.350000,-2.111455,Hold,1.316895,0.000000,Hold,-232.000000,2.000000,LowGoal,-2895.000000,2909.090909,Speed,-2910.000000,2909.090909,Speed,Off,Off,0.000000,FALSE,44,Read: /home/lvuser/scripts/auto_44.bee,File good!,WAIT_FOR_PID,WAIT_FOR_PID
08:34:15.192 PM 03/22/2016,Autonomous Enabled,11,FALSE,0,NO ERROR,-0.000000,-122.673546,0.000000,123.591128,TRUE,FALSE,TRUE,TRUE,FALSE,TRUE,Disabled,0.018750,0.896875,-6.836875,TRUE,-4.174194,-20.424408,0.000000,-1.050598,0.082535,0.000000,-0.407000,-0.019000,-0.781000,3.810000,-2.440000,2.540000,2.354954,Hold,1.316406,51.000000,Hold,-233.000000,77824.000000,LowGoal,-2872.500000,-3272.727273,Speed,-2895.000000,-3272.727273,Speed,Off,Off,0.000000,FALSE,44,Read: /home/lvuser/scripts/auto_44.bee,File good!,SEARCH_FOR_GOAL,SEARCH_FOR_GOAL
08:34:15.293 PM 03/22/2016,Autonomous Enabled,11,FALSE,0,NO ERROR,-0.000000,-123.700211,0.000000,124.033877,TRUE,FALSE,TRUE,TRUE,FALSE,TRUE,Disabled,0.018750,0.896875,-6.836875,TRUE,-4.235367,-20.425659,0.000000,-1.395432,-0.225693,0.000000,-0.294000,-0.608000,0.034000,6.050000,-2.020000,0.290000,4.855656,Hold,2.288086,51.000000,Hold,-3725.000000,77824.000000,LowGoal,-2715.000000,-3272.727273,Speed,-2700.000000,-3272.727273,Speed,Off,Off,0.000000,FALSE,44,Read: /home/lvuser/scripts/auto_44.bee,File good!,SEARCH_FOR_GOAL,SEARCH_FOR_GOAL
08:34:15.395 PM 03/22/2016,Autonomous Enabled,8,FALSE,0,NO ERROR,-0.000000,-123.828544,0.000000,124.001793,TRUE,FALSE,TRUE,TRUE,FALSE,TRUE,Disabled,0.018750,0.896875,-6.836875,TRUE,-4.311768,-20.443695,0.000000,-1.549484,-0.249374,0.000000,-0.019000,0.263000,0.174000,6.870000,-2.170000,1.350000,5.696287,Hold,2.288086,51.000000,Hold,-15676.000000,77824.000000,LowGoal,-1432.500000,-3272.727273,Speed,-1350.000000,-3272.727273,Speed,Off,Off,0.000000,FALSE,44,Read: /home/lvuser/scripts/auto_44.bee,File good!,SEARCH_FOR_GOAL,SEARCH_FOR_GOAL
08:34:15.496 PM 03/22/2016,Autonomous Enabled,18,FALSE,0,NO ERROR,-0.000000,-123.828544,0.000000,123.976127,TRUE,FALSE,TRUE,TRUE,FALSE,TRUE,Disabled,0.018750,0.896875,-6.836875,TRUE,-4.310822,-20.452469,0.000000,0.028900,-0.234512,0.000000,-0.017000,-0.189000,0.087000,7.250000,-2.290000,0.610000,6.192343,Hold,3.760254,51.000000,Hold,-26283.000000,77824.000000,LowGoal,-60.000000,-3272.727273,Speed,-232.500000,-3272.727273,Speed,Off,Off,0.000000,FALSE,44,Read: /home/lvuser/scripts/auto_44.bee,File good!,SEARCH_FOR_GOAL,SEARCH_FOR_GOAL
08:34:15.597 PM 03/22/2016,Autonomous Enabled,9,FALSE,0,NO ERROR,-0.000000,-123.828544,0.000000,123.976127,TRUE,FALSE,TRUE,TRUE,FALSE,TRUE,Disabled,0.000000,0.896875,-6.836875,TRUE,-4.308502,-20.465866,0.000000,0.080460,-0.217529,0.000000,0.050000,0.035000,0.016000,7.190000,-1.870000,1.090000,6.098829,Hold,5.368408,51.000000,Hold,-26283.000000,77824.000000,LowGoal,720.000000,-3272.727273,Speed,795.000000,-3272.727273,Speed,Off,Off,0.000000,FALSE,44,Read: /home/lvuser/scripts/auto_44.bee,File good!,SEARCH_FOR_GOAL,SEARCH_FOR_GOAL
08:34:15.698 PM 03/22/2016,Autonomous Enabled,11,FALSE,0,NO ERROR,-0.000000,-123.815710,0.000000,123.976127,TRUE,FALSE,TRUE,TRUE,FALSE,TRUE,Disabled,0.000000,0.896875,-6.836875,TRUE,-4.302261,-20.479370,0.000000,0.127502,-0.247192,0.000000,0.053000,0.026000,-0.119000,6.960000,-1.720000,0.860000,5.882619,Hold,6.829102,51.000000,Hold,-35262.000000,77824.000000,LowGoal,1462.500000,-3272.727273,Speed,1567.500000,-3272.727273,Speed,Off,Off,0.000000,FALSE,44,Read: /home/lvuser/scripts/auto_44.bee,File good!,SEARCH_FOR_GOAL,SEARCH_FOR_GOAL
08:34:15.798 PM 03/22/2016,Autonomous Enabled,11,FALSE,0,NO ERROR,-0.000000,-123.815710,0.000000,123.976127,TRUE,FALSE,TRUE,TRUE,FALSE,TRUE,Disabled,0.000000,0.896875,-6.836875,TRUE,-4.294083,-20.490555,0.000000,0.160629,-0.218872,0.000000,-0.065000,-0.044000,-0.019000,7.060000,-1.590000,0.970000,5.976450,Hold,9.005859,51.000000,Hold,-44878.000000,77824.000000,LowGoal,2047.500000,-3272.727273,Speed,2175.000000,-3272.727273,Speed,Off,Off,0.000000,FALSE,44,Read: /home/lvuser/scripts/auto_44.bee,File good!,SEARCH_FOR_GOAL,SEARCH_FOR_GOAL
08:34:15.899 PM 03/22/2016,Autonomous Enabled,10,FALSE,0,NO ERROR,-0.000000,-123.815710,0.000000,123.976127,TRUE,FALSE,TRUE,TRUE,FALSE,TRUE,Disabled,0.000000,0.896875,-6.836875,TRUE,-4.285385,-20.501968,0.000000,0.182388,-0.214005,0.000000,0.000000,0.107000,0.081000,7.080000,-1.560000,0.980000,5.985066,Hold,11.768555,51.000000,Hold,-56452.000000,77824.000000,LowGoal,2527.500000,-3272.727273,Speed,2670.000000,-3272.727273,Speed,Off,Off,0.000000,FALSE,44,Read: /home/lvuser/scripts/auto_44.bee,File good!,SEARCH_FOR_GOAL,SEARCH_FOR_GOAL
08:34:15.999 PM 03/22/2016,Autonomous Enabled,11,FALSE,0,NO ERROR,-0.000000,-123.815710,0.000000,123.976127,TRUE,FALSE,TRUE,TRUE,FALSE,TRUE,Disabled,0.000000,0.896875,-6.836875,TRUE,-4.281464,-20.511261,0.000000,0.027512,-0.179245,0.000000,0.146000,0.003000,-0.073000,7.010000,-1.350000,1.130000,5.919799,Hold,15.114014,51.000000,Hold,-68661.000000,77824.000000,LowGoal,2910.000000,-3272.727273,Speed,2985.000000,-3272.727273,Speed,Off,Off,0.000000,FALSE,44,Read: /home/lvuser/scripts/auto_44.bee,File good!,SEARCH_FOR_GOAL,SEARCH_FOR_GOAL
08:34:16.099 PM 03/22/2016,Autonomous Enabled,10,FALSE,0,NO ERROR,-0.000000,-123.815710,0.000000,123.976127,TRUE,FALSE,TRUE,TRUE,FALSE,TRUE,Disabled,0.000000,0.896875,-6.836875,TRUE,-4.276947,-20.521240,0.000000,0.113190,-0.202621,0.000000,-0.058000,0.052000,0.223000,7.020000,-1.240000,1.150000,5.934519,Hold,15.114014,51.000000,Hold,-68661.000000,77824.000000,LowGoal,3217.500000,-3272.727273,Speed,3292.500000,-3272.727273,Speed,Off,Off,0.000000,FALSE,44,Read: /home/lvuser/scripts/auto_44.bee,File good!,SEARCH_FOR_GOAL,SEARCH_FOR_GOAL
08:34:16.200 PM 03/22/2016,Autonomous Enabled,10,FALSE,0,NO ERROR,-0.000000,-123.886294,0.000000,124.001793,TRUE,FALSE,TRUE,TRUE,FALSE,TRUE,Disabled,0.000000,0.896875,-6.836875,TRUE,-4.268982,-20.530991,0.000000,0.194809,-0.213364,0.000000,-0.141000,-0.106000,-0.182000,7.010000,-1.700000,1.090000,5.927245,Hold,19.120361,51.000000,Hold,-79546.000000,77824.000000,LowGoal,3337.500000,-3272.727273,Speed,3337.500000,-3272.727273,Speed,Off,Off,0.000000,FALSE,44,Read: /home/lvuser/scripts/auto_44.bee,File good!,SEARCH_FOR_GOAL,SEARCH_FOR_GOAL
08:34:16.300 PM 03/22/2016,Autonomous Enabled,10,FALSE,0,NO ERROR,-0.000000,-123.963293,0.000000,124.078793,TRUE,FALSE,TRUE,TRUE,FALSE,TRUE,Disabled,0.000000,0.896875,-6.836875,TRUE,-4.263000,-20.541779,0.000000,0.076706,-0.191650,0.000000,0.004000,0.069000,-0.155000,6.590000,-1.240000,1.330000,5.481145,Hold,24.388428,51.000000,Hold,-78192.000000,77824.000000,LowGoal,3292.500000,-3272.727273,Speed,3262.500000,-3272.727273,Speed,Off,Off,0.000000,FALSE,44,Read: /home/lvuser/scripts/auto_44.bee,File good!,SEARCH_FOR_GOAL,SEARCH_FOR_GOAL
08:34:16.400 PM 03/22/2016,Autonomous Enabled,11,FALSE,0,NO ERROR,-0.000000,-123.873460,0.000000,123.982543,TRUE,FALSE,TRUE,TRUE,FALSE,TRUE,Disabled,0.000000,0.896875,-6.836875,TRUE,-4.258621,-20.550873,0.000000,0.105865,-0.200363,0.000000,0.058000,0.025000,0.078000,6.720000,-1.400000,1.260000,5.627312,Hold,31.142334,51.000000,Hold,-78192.000000,77824.000000,LowGoal,3292.500000,-3272.727273,Speed,3262.500000,-3272.727273,Speed,Off,Off,0.000000,FALSE,44,Read: /home/lvuser/scripts/auto_44.bee,File good!,SEARCH_FOR_GOAL,SEARCH_FOR_GOAL
08:34:16.501 PM 03/22/2016,Autonomous Enabled,10,FALSE,0,NO ERROR,-0.000000,-123.860627,0.000000,123.976127,TRUE,FALSE,TRUE,TRUE,FALSE,TRUE,Enable,-0.253125,0.896875,-6.836875,TRUE,-4.249115,-20.561188,0.000000,0.253998,-0.211594,0.000000,-0.075000,0.007000,-0.191000,6.660000,-1.300000,1.320000,5.588077,Hold,37.340088,51.000000,Hold,-78119.000000,77824.000000,LowGoal,3255.000000,-3272.727273,Speed,3262.500000,-3272.727273,Speed,Off,Off,0.000000,FALSE,44,Read: /home/lvuser/scripts/auto_44.bee,File good!,SEARCH_FOR_GOAL,SEARCH_FOR_GOAL
08:34:16.600 PM 03/22/2016,Autonomous Enabled,11,FALSE,0,NO ERROR,-0.000000,-123.944043,0.000000,124.014627,TRUE,FALSE,TRUE,TRUE,FALSE,TRUE,PID,-0.253125,10.378125,-3.728125,TRUE,-4.236664,-20.570480,0.000000,0.217606,0.000000,0.000000,0.046000,0.037000,-0.025000,6.710000,-1.250000,1.360000,5.646294,Hold,47.372314,51.000000,Hold,-78004.000000,77824.000000,LowGoal,3255.000000,-3272.727273,Speed,3285.000000,-3272.727273,Speed,Off,Off,0.000000,FALSE,44,Read: /home/lvuser/scripts/auto_44.bee,File good!,SEARCH_FOR_GOAL,SEARCH_FOR_GOAL
08:34:16.701 PM 03/22/2016,Autonomous Enabled,11,FALSE,0,NO ERROR,-0.000000,-123.757961,0.000000,124.380376,TRUE,FALSE,TRUE,TRUE,FALSE,TRUE,PID,-0.253125,10.378125,-3.728125,TRUE,-4.225540,-20.571060,0.000000,0.215698,-0.038864,0.000000,-0.267000,0.015000,-0.108000,6.760000,-1.630000,1.300000,5.703079,Hold,54.232422,51.000000,Hold,-77882.000000,77824.000000,LowGoal,3285.000000,-3272.727273,Speed,3292.500000,-3272.727273,Speed,Off,Off,0.000000,FALSE,44,Read: /home/lvuser/scripts/auto_44.bee,File good!,SEARCH_FOR_GOAL,SEARCH_FOR_GOAL
08:34:16.800 PM 03/22/2016,Autonomous Enabled,9,FALSE,0,NO ERROR,-0.000000,-123.122712,0.000000,125.169624,TRUE,FALSE,TRUE,TRUE,FALSE,TRUE,PID,-0.253125,10.378125,-3.728125,TRUE,-4.218857,-20.577209,0.000000,0.100342,-0.165314,0.000000,0.207000,0.054000,0.301000,4.090000,-1.160000,1.240000,2.939556,Hold,55.842041,51.000000,Hold,-77920.000000,77824.000000,LowGoal,3277.500000,-3272.727273,Speed,3277.500000,-3272.727273,Speed,Off,Off,0.000000,FALSE,44,Read: /home/lvuser/scripts/auto_44.bee,File good!,SEARCH_FOR_GOAL,SEARCH_FOR_GOAL
08:34:16.900 PM 03/22/2016,Autonomous Enabled,9,FALSE,0,NO ERROR,-0.000000,-122.224381,0.000000,126.074372,TRUE,FALSE,TRUE,TRUE,FALSE,TRUE,PID,-0.253125,10.378125,-3.728125,TRUE,-4.211014,-20.586914,0.000000,0.133804,-0.231979,0.000000,-0.017000,-0.113000,-0.012000,0.320000,-1.250000,0.870000,-0.985959,Hold,55.842041,51.000000,Hold,-77909.000000,77824.000000,LowGoal,3255.000000,-3272.727273,Speed,3262.500000,-3272.727273,Speed,Off,Off,0.000000,FALSE,44,Read: /home/lvuser/scripts/auto_44.bee,File good!,SEARCH_FOR_GOAL,SEARCH_FOR_GOAL
08:34:17.000 PM 03/22/2016,Autonomous Enabled,10,FALSE,0,NO ERROR,-0.000000,-121.415883,0.000000,126.979120,TRUE,FALSE,TRUE,TRUE,FALSE,TRUE,PID,-0.253125,10.378125,-3.728125,TRUE,-4.202591,-20.600174,0.000000,0.189041,-0.217529,0.000000,0.227000,0.197000,-0.099000,-3.360000,-1.180000,1.070000,-4.853800,Hold,55.843506,51.000000,Hold,-77909.000000,77824.000000,LowGoal,3255.000000,-3272.727273,Speed,3262.500000,-3272.727273,Speed,Off,Off,0.000000,FALSE,44,Read: /home/lvuser/scripts/auto_44.bee,File good!,SEARCH_FOR_GOAL,SEARCH_FOR_GOAL
08:34:17.100 PM 03/22/2016,Autonomous Enabled,10,FALSE,0,NO ERROR,-0.000000,-121.146383,0.000000,127.351286,TRUE,FALSE,TRUE,TRUE,FALSE,TRUE,Suspended,-0.253125,10.378125,-3.728125,TRUE,-4.191986,-20.606552,0.000000,0.233734,-0.110809,0.000000,-0.009000,-0.050000,0.087000,-5.670000,-0.570000,1.650000,-7.248041,Hold,55.843506,51.000000,Hold,-77916.000000,77824.000000,LowGoal,3255.000000,-3272.727273,Speed,3277.500000,-3272.727273,Speed,Off,Off,0.000000,FALSE,44,Read: /home/lvuser/scripts/auto_44.bee,File good!,SEARCH_FOR_GOAL,SEARCH_FOR_GOAL
08:34:17.200 PM 03/22/2016,Autonomous Enabled,10,FALSE,0,NO ERROR,-0.000000,-121.146383,0.000000,127.351286,TRUE,FALSE,TRUE,TRUE,FALSE,TRUE,Suspended,-0.253125,10.378125,-3.728125,TRUE,-4.179291,-20.614471,0.000000,0.279694,-0.161346,0.000000,-0.009000,-0.050000,0.087000,-5.440000,-0.310000,1.750000,-7.113578,Hold,55.843506,51.000000,Hold,-77918.000000,77824.000000,LowGoal,3255.000000,-3272.727273,Speed,3285.000000,-3272.727273,Speed,Off,Off,0.000000,FALSE,44,Read: /home/lvuser/scripts/auto_44.bee,File good!,SEARCH_FOR_GOAL,SEARCH_FOR_GOAL
08:34:17.300 PM 03/22/2016,Autonomous Enabled,10,FALSE,0,NO ERROR,-0.000000,-121.146383,0.000000,127.351286,TRUE,FALSE,TRUE,TRUE,FALSE,TRUE,Suspended,-0.253125,10.378125,-3.728125,TRUE,-4.174057,-20.623047,0.000000,-0.015121,-0.192566,0.000000,-0.164000,0.049000,0.000000,-5.510000,-0.560000,1.540000,-7.063244,Hold,55.843506,51.000000,Hold,-77906.000000,77824.000000,LowGoal,3270.000000,-3272.727273,Speed,3285.000000,-3272.727273,Speed,Off,Off,0.000000,FALSE,44,Read: /home/lvuser/scripts/auto_44.bee,File good!,SEARCH_FOR_GOAL,SEARCH_FOR_GOAL
08:34:17.402 PM 03/22/2016,Autonomous Enabled,13,FALSE,0,NO ERROR,-0.000000,-121.146383,0.000000,127.351286,TRUE,FALSE,TRUE,TRUE,FALSE,TRUE,Suspended,-0.253125,10.378125,-3.728125,TRUE,-4.173157,-20.632599,0.000000,0.054352,-0.185059,0.000000,0.083000,-0.015000,0.111000,-5.510000,-0.560000,1.540000,-7.033952,Hold,55.843506,51.000000,Hold,-77906.000000,77824.000000,LowGoal,3277.500000,-3272.727273,Speed,3285.000000,-3272.727273,Speed,Off,Off,0.000000,FALSE,44,Read: /home/lvuser/scripts/auto_44.bee,File good!,SEARCH_FOR_GOAL,SEARCH_FOR_GOAL
08:34:17.501 PM 03/22/2016,Autonomous Enabled,10,FALSE,0,NO ERROR,-0.000000,-121.146383,0.000000,127.351286,TRUE,FALSE,TRUE,TRUE,FALSE,TRUE,Suspended,-0.253125,10.378125,-3.728125,TRUE,-4.169312,-20.639008,0.000000,0.086914,0.000000,0.000000,-0.001000,-0.070000,0.002000,-5.480000,-0.410000,1.640000,-7.054270,Hold,55.843506,51.000000,Hold,-77906.000000,77824.000000,LowGoal,3277.500000,-3272.727273,Speed,3285.000000,-3272.727273,Speed,Off,Off,0.000000,FALSE,44,Read: /home/lvuser/scripts/auto_44.bee,File good!,SEARCH_FOR_GOAL,SEARCH_FOR_GOAL
08:34:17.601 PM 03/22/2016,Autonomous Enabled,9,FALSE,0,NO ERROR,-0.000000,-121.146383,0.000000,127.351286,TRUE,FALSE,TRUE,TRUE,FALSE,TRUE,Suspended,0.062500,10.378125,-3.728125,TRUE,-4.164017,-20.640137,0.000000,0.115585,-0.042908,0.000000,0.044000,-0.038000,-0.067000,-5.460000,-0.370000,1.570000,-7.077214,Hold,55.843506,51.000000,Hold,-77906.000000,77824.000000,LowGoal,3270.000000,-3272.727273,Speed,3277.500000,-3272.727273,Speed,Off,Off,0.000000,FALSE,44,Read: /home/lvuser/scripts/auto_44.bee,File good!,SEARCH_FOR_GOAL,SEARCH_FOR_GOAL
08:34:17.701 PM 03/22/2016,Autonomous Enabled,10,FALSE,0,NO ERROR,-0.000000,-121.146383,0.000000,127.351286,TRUE,FALSE,TRUE,TRUE,FALSE,TRUE,Enable,0.062500,-2.562500,-2.897500,TRUE,-4.158813,-20.642822,0.000000,0.110733,-0.057709,0.000000,-0.019000,0.078000,0.039000,-5.480000,-0.320000,1.570000,-7.088172,Hold,55.843506,51.000000,Hold,-77906.000000,77824.000000,LowGoal,3270.000000,-3272.727273,Speed,3285.000000,-3272.727273,Speed,Off,Off,0.000000,FALSE,44,Read: /home/lvuser/scripts/auto_44.bee,File good!,SEARCH_FOR_GOAL,SEARCH_FOR_GOAL
08:34:17.802 PM 03/22/2016,Autonomous Enabled,10,FALSE,0,NO ERROR,-0.000000,-121.377383,0.000000,127.049703,TRUE,FALSE,TRUE,TRUE,FALSE,TRUE,PID,0.062500,-2.562500,-2.897500,TRUE,-4.155975,-20.646011,0.000000,0.000000,-0.065720,0.000000,-0.019000,0.078000,0.039000,-5.480000,-0.320000,1.570000,-7.070161,Hold,55.843506,51.000000,Hold,-77906.000000,77824.000000,LowGoal,3277.500000,-3272.727273,Speed,3285.000000,-3272.727273,Speed,Off,Off,0.000000,FALSE,44,Read: /home/lvuser/scripts/auto_44.bee,File good!,SEARCH_FOR_GOAL,SEARCH_FOR_GOAL
08:34:17.902 PM 03/22/2016,Autonomous Enabled,11,FALSE,0,NO ERROR,-0.000000,-121.877882,0.000000,126.542787,TRUE,FALSE,TRUE,TRUE,FALSE,TRUE,PID,0.062500,-2.562500,-2.897500,TRUE,-4.153961,-20.646271,0.000000,0.032608,0.025772,0.000000,0.083000,0.068000,0.049000,-5.460000,-0.360000,1.560000,-5.311922,Hold,55.843506,51.000000,Hold,-77906.000000,77824.000000,LowGoal,3277.500000,-3272.727273,Speed,3277.500000,-3272.727273,Speed,Off,Off,0.000000,FALSE,44,Read: /home/lvuser/scripts/auto_44.bee,File good!,SEARCH_FOR_GOAL,SEARCH_FOR_GOAL
08:34:18.002 PM 03/22/2016,Autonomous Enabled,12,FALSE,0,NO ERROR,-0.000000,-122.275714,0.000000,126.100038,TRUE,FALSE,TRUE,TRUE,FALSE,TRUE,PID,0.062500,-2.562500,-2.897500,TRUE,-4.152466,-20.645676,0.000000,0.026596,-0.005432,0.000000,-0.147000,-0.101000,0.062000,-3.840000,-0.190000,1.820000,-3.407251,Hold,55.843506,51.000000,Hold,-77906.000000,77824.000000,LowGoal,3270.000000,-3272.727273,Speed,3277.500000,-3272.727273,Speed,Off,Off,0.000000,FALSE,44,Read: /home/lvuser/scripts/auto_44.bee,File good!,SEARCH_FOR_GOAL,SEARCH_FOR_GOAL
08:34:18.102 PM 03/22/2016,Autonomous Enabled,10,FALSE,0,NO ERROR,-0.000000,-122.365547,0.000000,126.055122,TRUE,FALSE,TRUE,TRUE,FALSE,TRUE,PID,0.062500,-2.562500,-2.897500,TRUE,-4.150543,-20.647003,0.000000,0.055588,-0.052811,0.000000,0.033000,-0.036000,0.019000,-1.990000,-0.350000,1.680000,-2.662209,Hold,55.843506,51.000000,Hold,-77906.000000,77824.000000,LowGoal,3270.000000,-3272.727273,Speed,3270.000000,-3272.727273,Speed,Off,Off,0.000000,FALSE,44,Read: /home/lvuser/scripts/auto_44.bee,File good!,SEARCH_FOR_GOAL,SEARCH_FOR_GOAL
08:34:18.202 PM 03/22/2016,Autonomous Enabled,11,FALSE,0,NO ERROR,-0.000000,-121.576299,0.000000,126.760954,TRUE,FALSE,TRUE,TRUE,FALSE,TRUE,PID,0.062500,-2.562500,-2.897500,TRUE,-4.148743,-20.652512,0.000000,0.032822,-0.144348,0.000000,-0.119000,-0.160000,-0.029000,-1.220000,-0.400000,1.400000,-4.559710,Hold,55.843506,51.000000,Hold,-77906.000000,77824.000000,LowGoal,3262.500000,-3272.727273,Speed,3277.500000,-3272.727273,Speed,Off,Off,0.000000,FALSE,44,Read: /home/lvuser/scripts/auto_44.bee,File good!,SEARCH_FOR_GOAL,SEARCH_FOR_GOAL
08:34:18.302 PM 03/22/2016,Autonomous Enabled,11,FALSE,0,NO ERROR,-0.000000,-121.370966,0.000000,126.895703,TRUE,FALSE,TRUE,TRUE,FALSE,TRUE,PID,0.062500,-2.562500,-2.897500,TRUE,-4.147293,-20.653778,0.000000,0.037521,0.021942,0.000000,-0.035000,-0.007000,0.075000,-5.090000,-0.510000,1.250000,-6.685799,Hold,55.843506,51.000000,Hold,-77906.000000,77824.000000,LowGoal,3270.000000,-3272.727273,Speed,3285.000000,-3272.727273,Speed,Off,Off,0.000000,FALSE,44,Read: /home/lvuser/scripts/auto_44.bee,File good!,SEARCH_FOR_GOAL,SEARCH_FOR_GOAL
