Time,Robot Mode,Loop Time,Error Status,Error Code,Error Source,Left Motor Output,Left Motor Encoder,Right Motor Output,Right Motor Encoder,Is Level,Is Stalled,Ball Detector Photoeye,Vision Enabled,Vision Teleop Control,Vision Auto Control,Vision Current State,Vision X Output,Vision NavX Error,Vision NavX Target,NavX Connection Status,NavX Displacement X,NavX Displacement Y,NavX Displacement Z,NavX Velocity X,NavX Velocity Y,NavX Velocity Z,NavX Acceleration X,NavX Acceleration Y,NavX Acceleration Z,NavX Pitch,NavX Yaw,NavX Roll,Gyro Angle,Roller Arm State,Roller Arm Actual,Roller Arm Desired,Shooter Arm State,Shooter Arm Actual,Shooter Arm Desired,Shooter State,Actual RPM Left,Desired RPM Left,Control Mode Left,Actual RPM Right,Desired RPM Right,Control Mode Right,Ball Shooter Cylinder,Ball Halo Cylinder,Scaler Motor Output,Scaler Solenoid Fire,Auto To Run,Auto Current File,Auto File Status,Auto Current Command,Auto Trimmed Command
07:47:49.636 PM 03/22/2016,Teleop Enabled,9,FALSE,0,NO ERROR,-0.000000,0.000000,0.000000,0.000000,TRUE,FALSE,TRUE,FALSE,FALSE,FALSE,Disabled,0.000000,0.000000,0.000000,TRUE,-30.917419,1.664368,0.000000,0.000000,0.000000,0.000000,0.000000,0.001000,0.002000,-0.120000,0.080000,1.330000,0.235037,ResetBack,0.745850,-0.000049,ResetBack,-20442.000000,-0.300000,LowGoal,7.500000,-1454.545455,Speed,0.000000,-1454.545455,Speed,Off,Off,0.000000,FALSE,0,Read: /home/lvuser/scripts/auto_13.bee,File good!,STOP_ALL,STOP_ALL
07:47:49.737 PM 03/22/2016,Teleop Enabled,9,FALSE,0,NO ERROR,-0.000000,0.000000,0.000000,0.000000,TRUE,FALSE,TRUE,FALSE,FALSE,FALSE,Disabled,0.000000,0.000000,0.000000,TRUE,-30.917755,1.664703,0.000000,-0.012070,0.021866,0.000000,0.027000,0.019000,-0.003000,-0.110000,0.100000,1.320000,0.256829,ResetBack,0.028320,-0.000049,ResetBack,-19583.000000,-0.300000,LowGoal,442.500000,-1454.545455,Speed,412.500000,-1454.545455,Speed,Off,Off,0.000000,FALSE,0,Read: /home/lvuser/scripts/auto_13.bee,File good!,STOP_ALL,STOP_ALL
07:47:49.837 PM 03/22/2016,Teleop Enabled,10,FALSE,0,NO ERROR,-0.000000,0.000000,0.000000,0.000000,TRUE,FALSE,TRUE,FALSE,FALSE,FALSE,Disabled,0.000000,0.000000,0.000000,TRUE,-30.918030,1.665039,0.000000,-0.008514,-0.000244,0.000000,-0.014000,0.079000,0.047000,-0.110000,0.050000,1.350000,0.262949,ResetBack,0.008545,-0.000049,ResetBack,-12722.000000,-0.300000,LowGoal,1125.000000,-1454.545455,Speed,1155.000000,-1454.545455,Speed,Off,Off,0.000000,FALSE,0,Read: /home/lvuser/scripts/auto_13.bee,File good!,STOP_ALL,STOP_ALL
07:47:49.937 PM 03/22/2016,Teleop Enabled,9,FALSE,0,NO ERROR,-0.000000,0.000000,0.000000,0.000000,TRUE,FALSE,TRUE,FALSE,FALSE,FALSE,Disabled,0.000000,0.000000,0.000000,TRUE,-30.918350,1.665787,0.000000,0.000000,0.022339,0.000000,-0.010000,0.070000,-0.039000,-0.110000,0.020000,1.400000,0.262103,Reset,0.001953,-0.000049,ResetBack,-6125.000000,-0.300000,LowGoal,1477.500000,-1454.545455,Speed,1537.500000,-1454.545455,Speed,Off,Off,0.000000,FALSE,0,Read: /home/lvuser/scripts/auto_13.bee,File good!,STOP_ALL,STOP_ALL
07:47:50.037 PM 03/22/2016,Teleop Enabled,10,FALSE,0,NO ERROR,-0.000000,0.000000,0.000000,0.000000,TRUE,FALSE,TRUE,FALSE,FALSE,FALSE,Disabled,0.000000,0.000000,0.000000,TRUE,-30.918320,1.666946,0.000000,-0.002579,0.024887,0.000000,0.008000,-0.053000,0.081000,-0.110000,0.010000,1.410000,0.263800,Hold,0.001953,0.000000,ResetBack,-1776.000000,-0.300000,LowGoal,1462.500000,-1454.545455,Speed,1462.500000,-1454.545455,Speed,Off,Off,0.000000,FALSE,0,Read: /home/lvuser/scripts/auto_13.bee,File good!,STOP_ALL,STOP_ALL
07:47:50.136 PM 03/22/2016,Teleop Enabled,11,FALSE,0,NO ERROR,-0.000000,0.000000,0.000000,0.000000,TRUE,FALSE,TRUE,FALSE,FALSE,FALSE,Disabled,0.000000,0.000000,0.000000,TRUE,-30.918304,1.667267,0.000000,0.011169,-0.006180,0.000000,0.057000,0.012000,0.000000,-0.110000,0.030000,1.390000,0.260874,Hold,0.001709,0.000000,ResetBack,-1776.000000,-0.300000,LowGoal,1312.500000,-1454.545455,Speed,1320.000000,-1454.545455,Speed,Off,Off,0.000000,FALSE,0,Read: /home/lvuser/scripts/auto_13.bee,File good!,STOP_ALL,STOP_ALL
07:47:50.237 PM 03/22/2016,Teleop Enabled,10,FALSE,0,NO ERROR,-0.000000,0.000000,0.000000,0.000000,TRUE,FALSE,TRUE,FALSE,FALSE,FALSE,Disabled,0.000000,0.000000,0.000000,TRUE,-30.917252,1.667114,0.000000,0.022415,0.000000,0.000000,0.033000,0.005000,-0.024000,-0.100000,0.000000,1.400000,0.275470,Hold,0.001709,0.000000,ResetBack,-12.000000,-0.300000,LowGoal,1312.500000,-1454.545455,Speed,1327.500000,-1454.545455,Speed,Off,Off,0.000000,FALSE,0,Read: /home/lvuser/scripts/auto_13.bee,File good!,STOP_ALL,STOP_ALL
07:47:50.338 PM 03/22/2016,Teleop Enabled,9,FALSE,0,NO ERROR,-0.000000,0.000000,0.000000,0.000000,TRUE,FALSE,TRUE,FALSE,FALSE,FALSE,Disabled,0.000000,0.000000,0.000000,TRUE,-30.916672,1.667618,0.000000,0.000000,0.013519,0.000000,0.012000,0.032000,-0.033000,-0.100000,0.010000,1.410000,0.282975,Hold,0.001709,0.000000,ResetBack,-12.000000,-0.300000,LowGoal,1372.500000,-1454.545455,Speed,1380.000000,-1454.545455,Speed,Off,Off,0.000000,FALSE,0,Read: /home/lvuser/scripts/auto_13.bee,File good!,STOP_ALL,STOP_ALL
07:47:50.440 PM 03/22/2016,Teleop Enabled,9,FALSE,0,NO ERROR,-0.000000,0.000000,0.000000,0.000000,TRUE,FALSE,TRUE,FALSE,FALSE,FALSE,Disabled,0.000000,0.000000,0.000000,TRUE,-30.916733,1.668396,0.000000,-0.005981,0.010834,0.000000,0.011000,-0.018000,0.037000,-0.100000,0.010000,1.370000,0.287168,Hold,0.001709,0.000000,ResetBack,-3.000000,-0.300000,LowGoal,1357.500000,-1454.545455,Speed,1372.500000,-1454.545455,Speed,Off,Off,0.000000,FALSE,0,Read: /home/lvuser/scripts/auto_13.bee,File good!,STOP_ALL,STOP_ALL
07:47:50.539 PM 03/22/2016,Teleop Enabled,9,FALSE,0,NO ERROR,-0.000000,0.000000,0.000000,0.000000,TRUE,FALSE,TRUE,FALSE,FALSE,FALSE,Disabled,0.000000,0.000000,0.000000,TRUE,-30.917130,1.667999,0.000000,-0.009583,-0.012466,0.000000,0.011000,-0.033000,0.006000,-0.110000,0.010000,1.390000,0.281439,Hold,0.001709,0.000000,ResetBack,5.000000,-0.300000,LowGoal,1342.500000,-1454.545455,Speed,1357.500000,-1454.545455,Speed,Off,Off,0.000000,FALSE,0,Read: /home/lvuser/scripts/auto_13.bee,File good!,STOP_ALL,STOP_ALL
07:47:50.641 PM 03/22/2016,Teleop Enabled,10,FALSE,0,NO ERROR,-0.000000,0.000000,0.000000,0.000000,TRUE,FALSE,TRUE,FALSE,FALSE,FALSE,Disabled,0.000000,0.000000,0.000000,TRUE,-30.917831,1.667496,0.000000,-0.015350,-0.007172,0.000000,-0.033000,0.043000,0.007000,-0.100000,0.000000,1.370000,0.271859,Hold,0.001709,0.000000,ResetBack,5.000000,-0.300000,LowGoal,1342.500000,-1454.545455,Speed,1365.000000,-1454.545455,Speed,Off,Off,0.000000,FALSE,0,Read: /home/lvuser/scripts/auto_13.bee,File good!,STOP_ALL,STOP_ALL
07:47:50.741 PM 03/22/2016,Teleop Enabled,11,FALSE,0,NO ERROR,-0.000000,0.000000,0.000000,0.000000,TRUE,FALSE,TRUE,FALSE,FALSE,FALSE,Disabled,0.000000,0.000000,0.000000,TRUE,-30.917862,1.667542,0.000000,0.000000,0.000000,0.000000,-0.005000,-0.009000,-0.015000,-0.110000,0.030000,1.370000,0.269621,Hold,0.001709,0.000000,ResetBack,25.000000,-0.300000,LowGoal,1350.000000,-1454.545455,Speed,1365.000000,-1454.545455,Speed,Off,Off,0.000000,FALSE,0,Read: /home/lvuser/scripts/auto_13.bee,File good!,STOP_ALL,STOP_ALL
07:47:50.842 PM 03/22/2016,Teleop Enabled,10,FALSE,0,NO ERROR,-0.000000,0.000000,0.000000,0.000000,TRUE,FALSE,TRUE,FALSE,FALSE,FALSE,Disabled,0.000000,0.000000,0.000000,TRUE,-30.917969,1.668121,0.000000,-0.008438,0.019836,0.000000,-0.022000,0.069000,0.024000,-0.110000,0.020000,1.360000,0.270141,Hold,0.001709,0.000000,Reset,26.000000,2.000000,LowGoal,1350.000000,-1454.545455,Speed,1357.500000,-1454.545455,Speed,Off,Off,0.000000,FALSE,0,Read: /home/lvuser/scripts/auto_13.bee,File good!,STOP_ALL,STOP_ALL
07:47:50.944 PM 03/22/2016,Teleop Enabled,11,FALSE,0,NO ERROR,-0.000000,0.000000,0.000000,0.000000,TRUE,FALSE,TRUE,FALSE,FALSE,FALSE,Disabled,0.000000,0.000000,0.000000,TRUE,-30.918732,1.669418,0.000000,-0.016510,0.027069,0.000000,0.010000,0.000000,0.023000,-0.100000,0.000000,1.370000,0.255631,Hold,0.001709,0.000000,Hold,26.000000,2.000000,LowGoal,1357.500000,-1454.545455,Speed,1357.500000,-1454.545455,Speed,Off,Off,0.000000,FALSE,0,Read: /home/lvuser/scripts/auto_13.bee,File good!,STOP_ALL,STOP_ALL
07:47:51.046 PM 03/22/2016,Teleop Enabled,11,FALSE,0,NO ERROR,-0.000000,0.000000,0.000000,0.000000,TRUE,FALSE,TRUE,FALSE,FALSE,FALSE,Disabled,0.000000,0.000000,0.000000,TRUE,-30.919357,1.669693,0.000000,-0.009186,0.013809,0.000000,0.037000,-0.058000,0.028000,-0.100000,-0.010000,1.410000,0.243396,Hold,0.001709,0.000000,Hold,26.000000,2.000000,LowGoal,1357.500000,-1454.545455,Speed,1357.500000,-1454.545455,Speed,Off,Off,0.000000,FALSE,0,Read: /home/lvuser/scripts/auto_13.bee,File good!,STOP_ALL,STOP_ALL
07:47:51.146 PM 03/22/2016,Teleop Enabled,11,FALSE,0,NO ERROR,-0.000000,0.000000,0.000000,0.000000,TRUE,FALSE,TRUE,FALSE,FALSE,FALSE,Disabled,0.000000,0.000000,0.000000,TRUE,-30.919586,1.670044,0.000000,0.004623,0.004608,0.000000,0.035000,0.016000,-0.030000,-0.100000,0.040000,1.380000,0.233712,Hold,0.001709,0.000000,Hold,-185.000000,2.000000,LowGoal,1357.500000,-1454.545455,Speed,1372.500000,-1454.545455,Speed,Off,Off,0.000000,FALSE,0,Read: /home/lvuser/scripts/auto_13.bee,File good!,STOP_ALL,STOP_ALL
07:47:51.248 PM 03/22/2016,Teleop Enabled,9,FALSE,0,NO ERROR,-0.000000,0.000000,0.000000,0.000000,TRUE,FALSE,TRUE,FALSE,FALSE,FALSE,Disabled,0.000000,0.000000,0.000000,TRUE,-30.919098,1.670227,0.000000,0.015350,0.002518,0.000000,-0.020000,0.018000,-0.041000,-0.110000,0.040000,1.360000,0.247041,Hold,0.001709,0.000000,Hold,-185.000000,2.000000,LowGoal,1357.500000,-1454.545455,Speed,1365.000000,-1454.545455,Speed,Off,Off,0.000000,FALSE,0,Read: /home/lvuser/scripts/auto_13.bee,File good!,STOP_ALL,STOP_ALL
07:47:51.349 PM 03/22/2016,Teleop Enabled,11,FALSE,0,NO ERROR,-0.440945,0.000000,-0.440945,0.000000,TRUE,FALSE,TRUE,FALSE,FALSE,FALSE,Disabled,0.000000,0.000000,0.000000,TRUE,-30.918304,1.670654,0.000000,0.011002,0.012894,0.000000,0.014000,0.026000,0.072000,-0.110000,0.010000,1.360000,0.237767,Hold,0.001709,0.000000,Hold,-185.000000,2.000000,LowGoal,1357.500000,-1454.545455,Speed,1365.000000,-1454.545455,Speed,Off,Off,0.000000,FALSE,0,Read: /home/lvuser/scripts/auto_13.bee,File good!,STOP_ALL,STOP_ALL
07:47:51.449 PM 03/22/2016,Teleop Enabled,10,FALSE,0,NO ERROR,-0.433071,-0.442749,-0.433071,0.673748,TRUE,FALSE,TRUE,FALSE,FALSE,FALSE,Disabled,0.000000,0.000000,0.000000,TRUE,-30.917114,1.670776,0.000000,0.122208,-0.030853,0.000000,-0.078000,0.138000,0.240000,-0.070000,0.440000,1.450000,0.277962,Hold,0.001709,0.000000,Hold,-185.000000,2.000000,LowGoal,1357.500000,-1454.545455,Speed,1365.000000,-1454.545455,Speed,Off,Off,0.000000,FALSE,0,Read: /home/lvuser/scripts/auto_13.bee,File good!,STOP_ALL,STOP_ALL
07:47:51.550 PM 03/22/2016,Teleop Enabled,10,FALSE,0,NO ERROR,-0.401575,-1.777413,-0.401575,2.072578,TRUE,FALSE,TRUE,FALSE,FALSE,FALSE,Disabled,0.000000,0.000000,0.000000,TRUE,-30.900848,1.668549,0.000000,0.404114,-0.053787,0.000000,0.195000,-0.078000,-0.009000,-0.290000,2.830000,1.210000,0.083764,Hold,0.001709,0.000000,Hold,-185.000000,2.000000,LowGoal,1335.000000,-1454.545455,Speed,1335.000000,-1454.545455,Speed,Off,Off,0.000000,FALSE,0,Read: /home/lvuser/scripts/auto_13.bee,File good!,STOP_ALL,STOP_ALL
07:47:51.651 PM 03/22/2016,Teleop Enabled,10,FALSE,0,NO ERROR,-0.401575,-3.971907,-0.401575,4.170824,TRUE,FALSE,TRUE,FALSE,FALSE,FALSE,Disabled,0.000000,0.000000,0.000000,TRUE,-30.869125,1.664200,0.000000,0.612549,-0.093277,0.000000,0.088000,-0.034000,-0.071000,-0.170000,2.510000,1.220000,0.208220,Hold,0.001953,0.000000,Hold,-185.000000,2.000000,LowGoal,1290.000000,-1454.545455,Speed,1305.000000,-1454.545455,Speed,Off,Off,0.000000,FALSE,0,Read: /home/lvuser/scripts/auto_13.bee,File good!,STOP_ALL,STOP_ALL
07:47:51.752 PM 03/22/2016,Teleop Enabled,9,FALSE,0,NO ERROR,-0.401575,-6.936400,-0.401575,7.160983,FALSE,FALSE,TRUE,FALSE,FALSE,FALSE,Disabled,0.000000,0.000000,0.000000,TRUE,-30.842712,1.663254,0.000000,0.680603,-0.006134,0.000000,0.073000,-0.081000,-0.122000,-0.070000,3.740000,1.140000,0.318505,Hold,0.001953,0.000000,Hold,-185.000000,2.000000,LowGoal,1305.000000,-1454.545455,Speed,1312.500000,-1454.545455,Speed,Off,Off,0.000000,FALSE,0,Read: /home/lvuser/scripts/auto_13.bee,File good!,STOP_ALL,STOP_ALL
07:47:51.852 PM 03/22/2016,Teleop Enabled,9,FALSE,0,NO ERROR,-0.425197,-10.221726,-0.425197,10.439892,FALSE,FALSE,TRUE,FALSE,FALSE,FALSE,Disabled,0.000000,0.000000,0.000000,TRUE,-30.798981,1.660583,0.000000,0.755600,-0.042725,0.000000,0.164000,0.042000,0.030000,-0.170000,3.100000,1.150000,0.234851,Hold,0.001953,0.000000,Hold,-185.000000,2.000000,LowGoal,1342.500000,-1454.545455,Speed,1342.500000,-1454.545455,Speed,Off,Off,0.000000,FALSE,0,Read: /home/lvuser/scripts/auto_13.bee,File good!,STOP_ALL,STOP_ALL
07:47:51.953 PM 03/22/2016,Teleop Enabled,10,FALSE,0,NO ERROR,-0.425197,-14.155134,-0.425197,14.495216,FALSE,FALSE,TRUE,FALSE,FALSE,FALSE,Disabled,0.000000,0.000000,0.000000,TRUE,-30.758789,1.658813,0.000000,0.801697,-0.041245,0.000000,0.006000,0.026000,0.123000,-0.420000,4.030000,1.050000,-0.051167,Hold,0.001953,0.000000,Hold,-185.000000,2.000000,LowGoal,1335.000000,-1454.545455,Speed,1342.500000,-1454.545455,Speed,Off,Off,0.000000,FALSE,0,Read: /home/lvuser/scripts/auto_13.bee,File good!,STOP_ALL,STOP_ALL
07:47:52.053 PM 03/22/2016,Teleop Enabled,10,FALSE,0,NO ERROR,-0.425197,-18.107791,-0.425197,18.569790,FALSE,FALSE,TRUE,FALSE,FALSE,FALSE,Disabled,0.000000,0.000000,0.000000,TRUE,-30.718430,1.656174,0.000000,0.836502,-0.079025,0.000000,0.047000,0.008000,0.153000,-0.740000,3.730000,0.920000,-0.363438,Hold,0.001953,0.000000,Hold,-185.000000,2.000000,LowGoal,1327.500000,-1454.545455,Speed,1342.500000,-1454.545455,Speed,Off,Off,0.000000,FALSE,0,Read: /home/lvuser/scripts/auto_13.bee,File good!,STOP_ALL,STOP_ALL
07:47:52.152 PM 03/22/2016,Teleop Enabled,9,FALSE,0,NO ERROR,-0.409449,-22.657197,-0.409449,22.971613,FALSE,FALSE,TRUE,FALSE,FALSE,FALSE,Disabled,0.000000,0.000000,0.000000,TRUE,-30.675110,1.652466,0.000000,0.878204,-0.077332,0.000000,-0.035000,0.054000,0.021000,-0.720000,4.280000,0.990000,-0.300274,Hold,0.001953,0.000000,Hold,-185.000000,2.000000,LowGoal,1327.500000,-1454.545455,Speed,1342.500000,-1454.545455,Speed,Off,Off,0.000000,FALSE,0,Read: /home/lvuser/scripts/auto_13.bee,File good!,STOP_ALL,STOP_ALL
07:47:52.252 PM 03/22/2016,Teleop Enabled,10,FALSE,0,NO ERROR,-0.401575,-27.431186,-0.401575,27.668602,FALSE,FALSE,TRUE,FALSE,FALSE,FALSE,Disabled,0.000000,0.000000,0.000000,TRUE,-30.623154,1.647690,0.000000,0.868454,-0.080231,0.000000,-0.016000,-0.058000,-0.027000,-0.390000,4.080000,0.980000,-0.011508,Hold,0.001953,0.000000,Hold,-185.000000,2.000000,LowGoal,1335.000000,-1454.545455,Speed,1342.500000,-1454.545455,Speed,Off,Off,0.000000,FALSE,0,Read: /home/lvuser/scripts/auto_13.bee,File good!,STOP_ALL,STOP_ALL
07:47:52.353 PM 03/22/2016,Teleop Enabled,9,FALSE,0,NO ERROR,-0.401575,-32.282175,-0.401575,32.339924,FALSE,FALSE,TRUE,FALSE,FALSE,FALSE,Disabled,0.000000,0.000000,0.000000,TRUE,-30.589294,1.644760,0.000000,0.828598,-0.059952,0.000000,-0.129000,0.107000,0.019000,-0.190000,4.330000,1.010000,0.187747,Hold,0.001953,0.000000,Hold,-185.000000,2.000000,LowGoal,1335.000000,-1454.545455,Speed,1350.000000,-1454.545455,Speed,Off,Off,0.000000,FALSE,0,Read: /home/lvuser/scripts/auto_13.bee,File good!,STOP_ALL,STOP_ALL
07:47:52.452 PM 03/22/2016,Teleop Enabled,9,FALSE,0,NO ERROR,-0.456910,-36.998413,-0.346240,37.107497,FALSE,FALSE,TRUE,FALSE,FALSE,FALSE,Disabled,0.000000,0.000000,0.000000,TRUE,-30.543259,1.642868,0.000000,0.754913,-0.023880,0.000000,0.106000,0.046000,0.118000,-0.220000,3.520000,0.970000,0.164744,Hold,0.001953,0.000000,Hold,-185.000000,2.000000,LowGoal,1342.500000,-1454.545455,Speed,1357.500000,-1454.545455,Speed,Off,Off,0.000000,FALSE,0,Read: /home/lvuser/scripts/auto_13.bee,File good!,STOP_ALL,STOP_ALL
07:47:52.553 PM 03/22/2016,Teleop Enabled,9,FALSE,0,NO ERROR,-0.456910,-42.170235,-0.346240,42.099652,FALSE,FALSE,TRUE,FALSE,FALSE,FALSE,Disabled,0.000000,0.000000,0.000000,TRUE,-30.513687,1.642105,0.000000,0.701721,-0.025223,0.000000,-0.166000,0.102000,0.205000,-0.210000,7.070000,0.820000,0.056568,Hold,0.001953,0.000000,Hold,-185.000000,2.000000,LowGoal,1335.000000,-1454.545455,Speed,1350.000000,-1454.545455,Speed,Off,Off,0.000000,FALSE,0,Read: /home/lvuser/scripts/auto_13.bee,File good!,STOP_ALL,STOP_ALL
07:47:52.653 PM 03/22/2016,Teleop Enabled,10,FALSE,0,NO ERROR,-0.401575,-46.809474,-0.401575,46.642641,FALSE,FALSE,TRUE,FALSE,FALSE,FALSE,Disabled,0.000000,0.000000,0.000000,TRUE,-30.482208,1.642151,0.000000,0.617447,-0.002899,0.000000,-0.076000,-0.108000,0.054000,0.000000,9.420000,0.740000,0.284228,Hold,0.001953,0.000000,Hold,-185.000000,2.000000,LowGoal,1335.000000,-1454.545455,Speed,1357.500000,-1454.545455,Speed,Off,Off,0.000000,FALSE,0,Read: /home/lvuser/scripts/auto_13.bee,File good!,STOP_ALL,STOP_ALL
07:47:52.753 PM 03/22/2016,Teleop Enabled,9,FALSE,0,NO ERROR,-0.401575,-51.217714,-0.401575,51.038047,FALSE,FALSE,TRUE,FALSE,FALSE,FALSE,Disabled,0.000000,0.000000,0.000000,TRUE,-30.446136,1.640152,0.000000,0.606064,-0.043900,0.000000,-0.029000,-0.043000,0.104000,0.000000,11.480000,0.630000,0.226482,Hold,0.001953,0.000000,Hold,-185.000000,2.000000,LowGoal,1335.000000,-1454.545455,Speed,1350.000000,-1454.545455,Speed,Off,Off,0.000000,FALSE,0,Read: /home/lvuser/scripts/auto_13.bee,File good!,STOP_ALL,STOP_ALL
07:47:52.853 PM 03/22/2016,Teleop Enabled,9,FALSE,0,NO ERROR,-0.401575,-55.093371,-0.401575,55.054871,FALSE,FALSE,TRUE,FALSE,FALSE,FALSE,Disabled,0.000000,0.000000,0.000000,TRUE,-30.417175,1.638474,0.000000,0.533218,-0.007812,0.000000,-0.357000,-0.016000,0.358000,-0.120000,9.780000,0.560000,0.109408,Hold,0.001953,0.000000,Hold,-185.000000,2.000000,LowGoal,1335.000000,-1454.545455,Speed,1350.000000,-1454.545455,Speed,Off,Off,0.000000,FALSE,0,Read: /home/lvuser/scripts/auto_13.bee,File good!,STOP_ALL,STOP_ALL
07:47:52.953 PM 03/22/2016,Teleop Enabled,9,FALSE,0,NO ERROR,-0.401575,-59.052445,-0.401575,59.187195,FALSE,FALSE,TRUE,FALSE,FALSE,FALSE,Disabled,0.000000,0.000000,0.000000,TRUE,-30.394043,1.637558,0.000000,0.461792,-0.029846,0.000000,-0.025000,-0.032000,-0.412000,-0.560000,13.050000,0.260000,-0.321263,Hold,0.001953,0.000000,Hold,-185.000000,2.000000,LowGoal,1335.000000,-1454.545455,Speed,1342.500000,-1454.545455,Speed,Off,Off,0.000000,FALSE,0,Read: /home/lvuser/scripts/auto_13.bee,File good!,STOP_ALL,STOP_ALL
07:47:53.054 PM 03/22/2016,Teleop Enabled,9,FALSE,0,NO ERROR,-0.401575,-62.466104,-0.401575,62.921686,FALSE,FALSE,TRUE,FALSE,FALSE,FALSE,Disabled,0.000000,0.000000,0.000000,TRUE,-30.376526,1.637970,0.000000,0.219955,0.039993,0.000000,-0.153000,-0.016000,-0.524000,-1.080000,15.060000,0.380000,-0.970134,Hold,0.001953,0.000000,Hold,-185.000000,2.000000,LowGoal,1335.000000,-1454.545455,Speed,1350.000000,-1454.545455,Speed,Off,Off,0.000000,FALSE,0,Read: /home/lvuser/scripts/auto_13.bee,File good!,STOP_ALL,STOP_ALL
07:47:53.154 PM 03/22/2016,Teleop Enabled,9,FALSE,0,NO ERROR,-0.401575,-64.602849,-0.401575,65.360014,FALSE,FALSE,TRUE,FALSE,FALSE,FALSE,Disabled,0.000000,0.000000,0.000000,TRUE,-30.368332,1.638596,0.000000,0.137634,0.006210,0.000000,-0.203000,-0.152000,0.632000,-1.100000,11.190000,0.150000,-1.128687,Hold,0.001953,0.000000,Hold,-185.000000,2.000000,LowGoal,1335.000000,-1454.545455,Speed,1342.500000,-1454.545455,Speed,Off,Off,0.000000,FALSE,0,Read: /home/lvuser/scripts/auto_13.bee,File good!,STOP_ALL,STOP_ALL
07:47:53.254 PM 03/22/2016,Teleop Enabled,9,FALSE,0,NO ERROR,-0.401575,-66.823010,-0.401575,67.682842,TRUE,FALSE,TRUE,FALSE,FALSE,FALSE,Disabled,0.000000,0.000000,0.000000,TRUE,-30.361664,1.637421,0.000000,0.193115,0.033386,0.000000,0.225000,0.073000,-0.319000,-1.780000,0.470000,1.240000,-1.426328,Hold,0.002197,0.000000,Hold,-185.000000,2.000000,LowGoal,1312.500000,-1454.545455,Speed,1335.000000,-1454.545455,Speed,Off,Off,0.000000,FALSE,0,Read: /home/lvuser/scripts/auto_13.bee,File good!,STOP_ALL,STOP_ALL
07:47:53.355 PM 03/22/2016,Teleop Enabled,9,FALSE,0,NO ERROR,-0.401575,-70.724335,-0.401575,71.571333,TRUE,FALSE,TRUE,FALSE,FALSE,FALSE,Disabled,0.000000,0.000000,0.000000,TRUE,-30.342178,1.641495,0.000000,0.407822,0.089096,0.000000,0.007000,-0.019000,-0.201000,-1.780000,1.240000,1.170000,-1.443141,Hold,0.002197,0.000000,Hold,-211.000000,2.000000,LowGoal,1312.500000,-1454.545455,Speed,1327.500000,-1454.545455,Speed,Off,Off,0.000000,FALSE,0,Read: /home/lvuser/scripts/auto_13.bee,File good!,STOP_ALL,STOP_ALL
07:47:53.456 PM 03/22/2016,Teleop Enabled,10,FALSE,0,NO ERROR,-0.401575,-75.132574,-0.401575,75.915406,TRUE,FALSE,TRUE,FALSE,FALSE,FALSE,Disabled,0.000000,0.000000,0.000000,TRUE,-30.326950,1.646591,0.000000,0.392914,0.140320,0.000000,-0.042000,0.213000,-0.440000,-1.540000,2.890000,1.130000,-1.248006,Hold,0.002930,0.000000,Hold,-211.000000,2.000000,LowGoal,1335.000000,-1454.545455,Speed,1350.000000,-1454.545455,Speed,Off,Off,0.000000,FALSE,0,Read: /home/lvuser/scripts/auto_13.bee,File good!,STOP_ALL,STOP_ALL
07:47:53.556 PM 03/22/2016,Teleop Enabled,10,FALSE,0,NO ERROR,-0.401575,-79.412481,-0.401575,80.208146,TRUE,FALSE,TRUE,FALSE,FALSE,FALSE,Disabled,0.000000,0.000000,0.000000,TRUE,-30.310165,1.653595,0.000000,0.274261,0.086700,0.000000,0.050000,-0.058000,0.029000,-1.620000,1.070000,1.180000,-1.281327,Hold,0.003418,0.000000,Hold,-211.000000,2.000000,LowGoal,1350.000000,-1454.545455,Speed,1365.000000,-1454.545455,Speed,Off,Off,0.000000,FALSE,0,Read: /home/lvuser/scripts/auto_13.bee,File good!,STOP_ALL,STOP_ALL
07:47:53.656 PM 03/22/2016,Teleop Enabled,9,FALSE,0,NO ERROR,-0.401575,-83.981137,-0.401575,84.956468,TRUE,FALSE,TRUE,FALSE,FALSE,FALSE,Disabled,0.000000,0.000000,0.000000,TRUE,-30.296127,1.658554,0.000000,0.316772,0.104340,0.000000,-0.062000,0.056000,0.104000,-1.950000,0.490000,1.120000,-1.611496,Hold,0.003418,0.000000,Hold,-211.000000,2.000000,LowGoal,1342.500000,-1454.545455,Speed,1350.000000,-1454.545455,Speed,Off,Off,0.000000,FALSE,0,Read: /home/lvuser/scripts/auto_13.bee,File good!,STOP_ALL,STOP_ALL
07:47:53.756 PM 03/22/2016,Teleop Enabled,9,FALSE,0,NO ERROR,-0.401575,-89.101625,-0.401575,90.147539,TRUE,FALSE,TRUE,FALSE,FALSE,FALSE,Disabled,0.000000,0.000000,0.000000,TRUE,-30.280609,1.665054,0.000000,0.325073,0.142868,0.000000,-0.271000,0.034000,0.004000,-2.390000,2.270000,1.660000,-2.037251,Hold,0.003418,0.000000,Hold,-211.000000,2.000000,LowGoal,1342.500000,-1454.545455,Speed,1357.500000,-1454.545455,Speed,Off,Off,0.000000,FALSE,0,Read: /home/lvuser/scripts/auto_13.bee,File good!,STOP_ALL,STOP_ALL
07:47:53.855 PM 03/22/2016,Teleop Enabled,10,FALSE,0,NO ERROR,-0.401575,-93.272449,-0.401575,94.267030,FALSE,FALSE,TRUE,FALSE,FALSE,FALSE,Disabled,0.000000,0.000000,0.000000,TRUE,-30.264954,1.674423,0.000000,0.300278,0.151428,0.000000,0.240000,-0.192000,-0.468000,-1.620000,-6.250000,1.820000,-1.278549,Hold,0.003418,0.000000,Hold,-211.000000,2.000000,LowGoal,1342.500000,-1454.545455,Speed,1357.500000,-1454.545455,Speed,Off,Off,0.000000,FALSE,0,Read: /home/lvuser/scripts/auto_13.bee,File good!,STOP_ALL,STOP_ALL
07:47:53.956 PM 03/22/2016,Teleop Enabled,10,FALSE,0,NO ERROR,-0.401575,-99.201435,-0.401575,100.009933,FALSE,FALSE,TRUE,FALSE,FALSE,FALSE,Disabled,0.000000,0.000000,0.000000,TRUE,-30.243027,1.685684,0.000000,0.389420,0.297501,0.000000,0.377000,-0.137000,-0.091000,-1.300000,-4.190000,1.260000,-0.819294,Hold,0.003662,0.000000,Hold,-211.000000,2.000000,LowGoal,1335.000000,-1454.545455,Speed,1350.000000,-1454.545455,Speed,Off,Off,0.000000,FALSE,0,Read: /home/lvuser/scripts/auto_13.bee,File good!,STOP_ALL,STOP_ALL
07:47:54.055 PM 03/22/2016,Teleop Enabled,9,FALSE,0,NO ERROR,-0.401575,-105.014921,-0.401575,106.208418,TRUE,FALSE,TRUE,FALSE,FALSE,FALSE,Disabled,0.000000,0.000000,0.000000,TRUE,-30.225708,1.700531,0.000000,0.340698,0.329712,0.000000,0.352000,-0.227000,0.983000,-1.850000,-1.790000,1.780000,-1.529291,Hold,0.003662,0.000000,Hold,-241.000000,2.000000,LowGoal,1335.000000,-1454.545455,Speed,1350.000000,-1454.545455,Speed,Off,Off,0.000000,FALSE,0,Read: /home/lvuser/scripts/auto_13.bee,File good!,STOP_ALL,STOP_ALL
07:47:54.155 PM 03/22/2016,Teleop Enabled,10,FALSE,0,NO ERROR,-0.440945,-111.816572,-0.440945,113.080652,FALSE,FALSE,TRUE,FALSE,FALSE,FALSE,Disabled,0.000000,0.000000,0.000000,TRUE,-30.203873,1.721085,0.000000,0.431747,0.397354,0.000000,-0.599000,-0.324000,0.953000,-2.230000,4.170000,1.490000,-1.862028,Hold,0.003662,0.000000,Hold,-198.000000,2.000000,LowGoal,1342.500000,-1454.545455,Speed,1357.500000,-1454.545455,Speed,Off,Off,0.000000,FALSE,0,Read: /home/lvuser/scripts/auto_13.bee,File good!,STOP_ALL,STOP_ALL
07:47:54.256 PM 03/22/2016,Teleop Enabled,10,FALSE,0,NO ERROR,-0.440945,-117.206559,-0.440945,118.451390,TRUE,FALSE,TRUE,FALSE,FALSE,FALSE,Disabled,0.000000,0.000000,0.000000,TRUE,-30.189194,1.735229,0.000000,0.316574,0.242737,0.000000,0.242000,0.148000,0.010000,-2.230000,-0.070000,1.130000,-1.865767,Hold,0.018311,0.000000,Hold,-215.000000,2.000000,LowGoal,1350.000000,-1454.545455,Speed,1365.000000,-1454.545455,Speed,Off,Off,0.000000,FALSE,0,Read: /home/lvuser/scripts/auto_13.bee,File good!,STOP_ALL,STOP_ALL
07:47:54.355 PM 03/22/2016,Teleop Enabled,10,FALSE,0,NO ERROR,-0.358361,-123.559044,-0.271561,124.810291,TRUE,FALSE,TRUE,FALSE,FALSE,FALSE,Disabled,0.000000,0.000000,0.000000,TRUE,-30.170197,1.750290,0.000000,0.383698,0.322693,0.000000,-0.482000,0.019000,0.980000,-2.300000,2.900000,1.650000,-1.926104,Hold,0.066650,0.000000,Hold,-215.000000,2.000000,LowGoal,1335.000000,-1454.545455,Speed,1357.500000,-1454.545455,Speed,Off,Off,0.000000,FALSE,0,Read: /home/lvuser/scripts/auto_13.bee,File good!,STOP_ALL,STOP_ALL
07:47:54.456 PM 03/22/2016,Teleop Enabled,9,FALSE,0,NO ERROR,-0.559055,-129.045282,0.559055,129.334031,TRUE,FALSE,TRUE,FALSE,FALSE,FALSE,Disabled,0.000000,0.000000,0.000000,TRUE,-30.155045,1.765686,0.000000,0.292084,0.309326,0.000000,-0.482000,0.019000,0.980000,-2.300000,1.050000,1.470000,-1.954974,Hold,0.079102,0.000000,Hold,-215.000000,2.000000,LowGoal,1327.500000,-1454.545455,Speed,1357.500000,-1454.545455,Speed,Off,Off,0.000000,FALSE,0,Read: /home/lvuser/scripts/auto_13.bee,File good!,STOP_ALL,STOP_ALL
07:47:54.556 PM 03/22/2016,Teleop Enabled,10,FALSE,0,NO ERROR,-0.724409,-134.993518,0.724409,130.450528,TRUE,FALSE,TRUE,FALSE,FALSE,FALSE,Disabled,0.000000,0.000000,0.000000,TRUE,-30.150314,1.787506,0.000000,-0.008011,0.537216,0.000000,-0.641000,0.086000,0.982000,3.220000,-0.850000,2.390000,3.550327,Hold,0.080566,0.000000,Hold,-215.000000,2.000000,LowGoal,1320.000000,-1454.545455,Speed,1350.000000,-1454.545455,Speed,Off,Off,0.000000,FALSE,0,Read: /home/lvuser/scripts/auto_13.bee,File good!,STOP_ALL,STOP_ALL
07:47:54.656 PM 03/22/2016,Teleop Enabled,9,FALSE,0,NO ERROR,-0.724409,-140.993087,0.724409,130.148946,TRUE,FALSE,TRUE,FALSE,FALSE,FALSE,Disabled,0.000000,0.000000,0.000000,TRUE,-30.154434,1.817566,0.000000,-0.150543,0.553421,0.000000,-0.143000,0.109000,-0.809000,14.710000,-0.030000,1.400000,15.322162,Hold,0.080566,0.000000,Hold,-233.000000,2.000000,LowGoal,1267.500000,-1454.545455,Speed,1305.000000,-1454.545455,Speed,Off,Off,0.000000,FALSE,0,Read: /home/lvuser/scripts/auto_13.bee,File good!,STOP_ALL,STOP_ALL
07:47:54.756 PM 03/22/2016,Teleop Enabled,9,FALSE,0,NO ERROR,-0.716535,-146.235491,0.716535,127.800451,TRUE,FALSE,TRUE,FALSE,FALSE,FALSE,Disabled,0.000000,0.000000,0.000000,TRUE,-30.171661,1.833221,0.000000,-0.391190,0.303207,0.000000,-0.507000,-0.681000,0.439000,29.610000,-1.680000,0.950000,30.825051,Hold,0.080566,0.000000,Hold,-260.000000,2.000000,LowGoal,1222.500000,-1454.545455,Speed,1252.500000,-1454.545455,Speed,Off,Off,0.000000,FALSE,0,Read: /home/lvuser/scripts/auto_13.bee,File good!,STOP_ALL,STOP_ALL
07:47:54.856 PM 03/22/2016,Teleop Enabled,9,FALSE,0,NO ERROR,-0.000000,-151.445813,0.000000,124.611375,TRUE,FALSE,TRUE,FALSE,FALSE,FALSE,Disabled,0.000000,0.000000,0.000000,TRUE,-30.197769,1.849945,0.000000,-0.487457,0.192169,0.000000,-0.040000,0.003000,0.001000,29.610000,-1.680000,0.950000,48.975649,Hold,0.081299,0.000000,Hold,-260.000000,2.000000,LowGoal,1245.000000,-1454.545455,Speed,1260.000000,-1454.545455,Speed,Off,Off,0.000000,FALSE,0,Read: /home/lvuser/scripts/auto_13.bee,File good!,STOP_ALL,STOP_ALL
07:47:54.957 PM 03/22/2016,Teleop Enabled,9,FALSE,0,NO ERROR,-0.291339,-154.904388,-0.291339,122.885296,TRUE,FALSE,TRUE,FALSE,FALSE,FALSE,Disabled,0.000000,0.000000,0.000000,TRUE,-30.242111,1.854141,0.000000,-1.040558,0.098053,0.000000,0.002000,-0.007000,-0.497000,60.550000,-0.730000,-2.390000,63.482290,Hold,0.081299,0.000000,Hold,-215.000000,2.000000,LowGoal,1297.500000,-1454.545455,Speed,1327.500000,-1454.545455,Speed,Off,Off,0.000000,FALSE,0,Read: /home/lvuser/scripts/auto_13.bee,File good!,STOP_ALL,STOP_ALL
07:47:55.057 PM 03/22/2016,Teleop Enabled,6,FALSE,0,NO ERROR,-0.519685,-157.150216,-0.519685,123.719461,TRUE,FALSE,TRUE,FALSE,FALSE,FALSE,Disabled,0.000000,0.000000,0.000000,TRUE,-30.242111,1.854141,0.000000,-1.040558,0.098053,0.000000,0.002000,-0.007000,-0.497000,60.550000,-0.730000,-2.390000,67.560953,Hold,0.081299,0.000000,Hold,-220.000000,2.000000,LowGoal,1387.500000,-1454.545455,Speed,1402.500000,-1454.545455,Speed,Off,Off,0.000000,FALSE,0,Read: /home/lvuser/scripts/auto_13.bee,File good!,STOP_ALL,STOP_ALL
07:47:55.157 PM 03/22/2016,Teleop Enabled,10,FALSE,0,NO ERROR,-0.566929,-159.363961,-0.566929,126.529954,TRUE,FALSE,TRUE,FALSE,FALSE,FALSE,Disabled,0.000000,0.000000,0.000000,TRUE,-30.349075,1.849213,0.000000,-0.965652,-0.185913,0.000000,-0.041000,-0.125000,-0.289000,62.890000,1.230000,-2.580000,66.209866,Hold,0.081299,0.000000,Hold,-220.000000,2.000000,LowGoal,1335.000000,-1454.545455,Speed,1342.500000,-1454.545455,Speed,Off,Off,0.000000,FALSE,0,Read: /home/lvuser/scripts/auto_13.bee,File good!,STOP_ALL,STOP_ALL
07:47:55.257 PM 03/22/2016,Teleop Enabled,15,FALSE,0,NO ERROR,-0.637795,-162.790453,-0.637795,130.225945,TRUE,FALSE,TRUE,FALSE,FALSE,FALSE,Disabled,0.000000,0.000000,0.000000,TRUE,-30.349075,1.849213,0.000000,-0.965652,-0.185913,0.000000,0.225000,-0.340000,-0.166000,62.890000,1.230000,-2.580000,65.563226,Hold,0.081299,0.000000,Hold,-220.000000,2.000000,LowGoal,1260.000000,-1454.545455,Speed,1297.500000,-1454.545455,Speed,Off,Off,0.000000,FALSE,0,Read: /home/lvuser/scripts/auto_13.bee,File good!,STOP_ALL,STOP_ALL
07:47:55.358 PM 03/22/2016,Teleop Enabled,10,FALSE,0,NO ERROR,-0.850394,-167.378359,-0.850394,135.083351,TRUE,FALSE,TRUE,FALSE,FALSE,FALSE,Disabled,0.000000,0.000000,0.000000,TRUE,-30.391785,1.830536,0.000000,-0.785126,-0.477951,0.000000,0.254000,-0.169000,0.076000,62.280000,2.170000,-2.270000,65.293729,Hold,0.081299,0.000000,Hold,-221.000000,2.000000,LowGoal,1275.000000,-1454.545455,Speed,1297.500000,-1454.545455,Speed,Off,Off,0.000000,FALSE,0,Read: /home/lvuser/scripts/auto_13.bee,File good!,STOP_ALL,STOP_ALL
07:47:55.458 PM 03/22/2016,Teleop Enabled,10,FALSE,0,NO ERROR,-1.340790,-173.307345,-0.375746,140.229505,FALSE,FALSE,TRUE,FALSE,FALSE,FALSE,Disabled,0.000000,0.000000,0.000000,TRUE,-30.425690,1.801529,0.000000,-0.611603,-0.645676,0.000000,0.200000,-0.009000,0.237000,62.070000,3.990000,-1.930000,66.077937,Hold,0.081299,0.000000,Hold,-224.000000,2.000000,LowGoal,1275.000000,-1454.545455,Speed,1297.500000,-1454.545455,Speed,Off,Off,0.000000,FALSE,0,Read: /home/lvuser/scripts/auto_13.bee,File good!,STOP_ALL,STOP_ALL
07:47:55.558 PM 03/22/2016,Teleop Enabled,9,FALSE,0,NO ERROR,-1.189193,-180.840494,-0.306870,145.118994,FALSE,FALSE,TRUE,FALSE,FALSE,FALSE,Disabled,0.000000,0.000000,0.000000,TRUE,-30.466263,1.720825,0.000000,-0.270081,-0.970413,0.000000,0.142000,-0.220000,-0.127000,63.530000,4.290000,-1.330000,70.503872,Hold,0.081299,0.000000,Hold,-224.000000,2.000000,LowGoal,1245.000000,-1454.545455,Speed,1275.000000,-1454.545455,Speed,Off,Off,0.000000,FALSE,0,Read: /home/lvuser/scripts/auto_13.bee,File good!,STOP_ALL,STOP_ALL
07:47:55.657 PM 03/22/2016,Teleop Enabled,9,FALSE,0,NO ERROR,-1.189193,-189.689056,-0.306870,150.194565,FALSE,FALSE,TRUE,FALSE,FALSE,FALSE,Disabled,0.000000,0.000000,0.000000,TRUE,-30.466263,1.720825,0.000000,-0.270081,-0.970413,0.000000,0.033000,-0.176000,-0.052000,67.190000,4.550000,-0.950000,77.515382,Hold,0.081299,0.000000,Hold,-224.000000,2.000000,LowGoal,1260.000000,-1454.545455,Speed,1297.500000,-1454.545455,Speed,Off,Off,0.000000,FALSE,0,Read: /home/lvuser/scripts/auto_13.bee,File good!,STOP_ALL,STOP_ALL
07:47:55.758 PM 03/22/2016,Teleop Enabled,8,FALSE,0,NO ERROR,-1.164437,-198.845618,-0.315878,155.315053,FALSE,FALSE,TRUE,FALSE,FALSE,FALSE,Disabled,0.000000,0.000000,0.000000,TRUE,-30.483383,1.656235,0.000000,-0.345856,-1.151169,0.000000,-0.201000,-0.054000,0.165000,75.350000,5.670000,-1.190000,85.686118,Hold,0.081299,0.000000,Hold,-224.000000,2.000000,LowGoal,1297.500000,-1454.545455,Speed,1312.500000,-1454.545455,Speed,Off,Off,0.000000,FALSE,0,Read: /home/lvuser/scripts/auto_13.bee,File good!,STOP_ALL,STOP_ALL
07:47:55.858 PM 03/22/2016,Teleop Enabled,9,FALSE,0,NO ERROR,-0.740157,-198.845618,-0.740157,155.315053,FALSE,FALSE,TRUE,FALSE,FALSE,FALSE,Disabled,0.000000,0.000000,0.000000,TRUE,-30.505417,1.597153,0.000000,-0.498840,-1.201508,0.000000,-0.057000,-0.039000,-0.168000,83.280000,5.380000,-1.150000,85.686118,Hold,0.081299,0.000000,Hold,-224.000000,2.000000,LowGoal,1297.500000,-1454.545455,Speed,1320.000000,-1454.545455,Speed,Off,Off,0.000000,FALSE,0,Read: /home/lvuser/scripts/auto_13.bee,File good!,STOP_ALL,STOP_ALL
07:47:55.959 PM 03/22/2016,Teleop Enabled,9,FALSE,0,NO ERROR,-0.740157,-208.104847,-0.740157,161.622622,FALSE,FALSE,TRUE,FALSE,FALSE,FALSE,Disabled,0.000000,0.000000,0.000000,TRUE,-30.537781,1.537903,0.000000,-0.820648,-1.140854,0.000000,-0.381000,-0.005000,-0.264000,89.900000,5.970000,-2.040000,93.570629,Hold,0.081299,0.000000,Hold,-224.000000,2.000000,LowGoal,1297.500000,-1454.545455,Speed,1327.500000,-1454.545455,Speed,Off,Off,0.000000,FALSE,0,Read: /home/lvuser/scripts/auto_13.bee,File good!,STOP_ALL,STOP_ALL
07:47:56.061 PM 03/22/2016,Teleop Enabled,10,FALSE,0,NO ERROR,-0.740157,-216.812243,-0.740157,168.918355,FALSE,FALSE,TRUE,FALSE,FALSE,FALSE,Disabled,0.000000,0.000000,0.000000,TRUE,-30.586655,1.482300,0.000000,-1.031357,-1.084244,0.000000,-0.070000,0.190000,0.106000,92.340000,6.130000,-2.600000,97.155992,Hold,0.081299,0.000000,Hold,-224.000000,2.000000,LowGoal,1305.000000,-1454.545455,Speed,1327.500000,-1454.545455,Speed,Off,Off,0.000000,FALSE,0,Read: /home/lvuser/scripts/auto_13.bee,File good!,STOP_ALL,STOP_ALL
07:47:56.163 PM 03/22/2016,Teleop Enabled,10,FALSE,0,NO ERROR,-0.530473,-225.449056,-0.934094,177.304919,FALSE,FALSE,TRUE,FALSE,FALSE,FALSE,Disabled,0.000000,0.000000,0.000000,TRUE,-30.639145,1.429733,0.000000,-1.063538,-1.067047,0.000000,0.109000,-0.053000,-0.027000,93.390000,5.190000,-2.370000,98.184050,Hold,0.081299,0.000000,Hold,-224.000000,2.000000,LowGoal,1312.500000,-1454.545455,Speed,1327.500000,-1454.545455,Speed,Off,Off,0.000000,FALSE,0,Read: /home/lvuser/scripts/auto_13.bee,File good!,STOP_ALL,STOP_ALL
07:47:56.263 PM 03/22/2016,Teleop Enabled,11,FALSE,0,NO ERROR,-0.524769,-234.175702,-0.924050,186.673230,FALSE,FALSE,TRUE,FALSE,FALSE,FALSE,Disabled,0.000000,0.000000,0.000000,TRUE,-30.702057,1.366287,0.000000,-1.045380,-1.016022,0.000000,0.071000,0.113000,-0.002000,92.560000,5.860000,-2.450000,97.733116,Hold,0.081299,0.000000,Hold,-224.000000,2.000000,LowGoal,1305.000000,-1454.545455,Speed,1320.000000,-1454.545455,Speed,Off,Off,0.000000,FALSE,0,Read: /home/lvuser/scripts/auto_13.bee,File good!,STOP_ALL,STOP_ALL
07:47:56.366 PM 03/22/2016,Teleop Enabled,10,FALSE,0,NO ERROR,-0.556712,-242.453183,-0.892107,196.894956,FALSE,FALSE,TRUE,FALSE,FALSE,FALSE,Disabled,0.000000,0.000000,0.000000,TRUE,-30.751434,1.316772,0.000000,-0.951736,-0.996185,0.000000,0.209000,0.051000,0.007000,89.770000,4.440000,-2.180000,95.126352,Hold,0.081299,0.000000,Hold,-224.000000,2.000000,LowGoal,1305.000000,-1454.545455,Speed,1327.500000,-1454.545455,Speed,Off,Off,0.000000,FALSE,0,Read: /home/lvuser/scripts/auto_13.bee,File good!,STOP_ALL,STOP_ALL
07:47:56.466 PM 03/22/2016,Teleop Enabled,12,FALSE,0,NO ERROR,-0.612611,-250.852580,-0.836208,207.488848,FALSE,FALSE,TRUE,FALSE,FALSE,FALSE,Disabled,0.000000,0.000000,0.000000,TRUE,-30.790359,1.268204,0.000000,-0.646103,-0.926910,0.000000,0.060000,0.022000,-0.076000,85.610000,4.710000,-1.070000,90.791084,Hold,0.081299,0.000000,Hold,-224.000000,2.000000,LowGoal,1312.500000,-1454.545455,Speed,1335.000000,-1454.545455,Speed,Off,Off,0.000000,FALSE,0,Read: /home/lvuser/scripts/auto_13.bee,File good!,STOP_ALL,STOP_ALL
07:47:56.568 PM 03/22/2016,Teleop Enabled,10,FALSE,0,NO ERROR,-0.724409,-259.675476,-0.724409,218.345823,FALSE,FALSE,TRUE,FALSE,FALSE,FALSE,Disabled,0.000000,0.000000,0.000000,TRUE,-30.818451,1.222687,0.000000,-0.500000,-0.910477,0.000000,0.245000,0.030000,0.105000,81.630000,4.550000,-0.720000,86.610490,Hold,0.081299,0.000000,Hold,-224.000000,2.000000,LowGoal,1327.500000,-1454.545455,Speed,1342.500000,-1454.545455,Speed,Off,Off,0.000000,FALSE,0,Read: /home/lvuser/scripts/auto_13.bee,File good!,STOP_ALL,STOP_ALL
07:47:56.669 PM 03/22/2016,Teleop Enabled,11,FALSE,0,NO ERROR,-0.724409,-268.928288,-0.724409,229.183547,FALSE,FALSE,TRUE,FALSE,FALSE,FALSE,Disabled,0.000000,0.000000,0.000000,TRUE,-30.835342,1.178024,0.000000,-0.235870,-0.875961,0.000000,0.065000,-0.097000,-0.046000,78.530000,5.050000,0.000000,82.891962,Hold,0.081299,0.000000,Hold,-224.000000,2.000000,LowGoal,1327.500000,-1454.545455,Speed,1342.500000,-1454.545455,Speed,Off,Off,0.000000,FALSE,0,Read: /home/lvuser/scripts/auto_13.bee,File good!,STOP_ALL,STOP_ALL
07:47:56.770 PM 03/22/2016,Teleop Enabled,11,FALSE,0,NO ERROR,-0.708661,-278.566099,-0.708661,239.469440,FALSE,FALSE,TRUE,FALSE,FALSE,FALSE,Disabled,0.000000,0.000000,0.000000,TRUE,-30.845001,1.134811,0.000000,-0.180252,-0.869766,0.000000,0.078000,-0.116000,-0.469000,77.090000,4.510000,0.200000,81.188953,Hold,0.081299,0.000000,Hold,-224.000000,2.000000,LowGoal,1327.500000,-1454.545455,Speed,1342.500000,-1454.545455,Speed,Off,Off,0.000000,FALSE,0,Read: /home/lvuser/scripts/auto_13.bee,File good!,STOP_ALL,STOP_ALL
07:47:56.873 PM 03/22/2016,Teleop Enabled,11,FALSE,0,NO ERROR,0.377953,-288.486242,-0.377953,249.986332,FALSE,FALSE,TRUE,FALSE,FALSE,FALSE,Disabled,0.000000,0.000000,0.000000,TRUE,-30.851639,1.093216,0.000000,-0.074738,-0.761154,0.000000,-0.065000,-0.125000,-0.404000,76.360000,4.430000,0.660000,80.161432,Hold,0.081299,0.000000,Hold,-224.000000,2.000000,LowGoal,1335.000000,-1454.545455,Speed,1350.000000,-1454.545455,Speed,Off,Off,0.000000,FALSE,0,Read: /home/lvuser/scripts/auto_13.bee,File good!,STOP_ALL,STOP_ALL
07:47:56.974 PM 03/22/2016,Teleop Enabled,10,FALSE,0,NO ERROR,0.425197,-296.590473,-0.425197,259.675476,TRUE,FALSE,TRUE,FALSE,FALSE,FALSE,Disabled,0.000000,0.000000,0.000000,TRUE,-30.857483,1.059418,0.000000,-0.219894,-0.426041,0.000000,-0.438000,0.682000,0.464000,75.240000,1.600000,0.400000,78.901917,Hold,0.081299,0.000000,Hold,-224.000000,2.000000,LowGoal,1342.500000,-1454.545455,Speed,1342.500000,-1454.545455,Speed,Off,Off,0.000000,FALSE,0,Read: /home/lvuser/scripts/auto_13.bee,File good!,STOP_ALL,STOP_ALL
07:47:57.075 PM 03/22/2016,Teleop Enabled,10,FALSE,0,NO ERROR,0.425197,-299.946382,-0.425197,268.395706,FALSE,FALSE,TRUE,FALSE,FALSE,FALSE,Disabled,0.000000,0.000000,0.000000,TRUE,-30.879242,1.058594,0.000000,-0.576889,0.175858,0.000000,-0.433000,0.351000,-0.375000,64.880000,-3.970000,-0.780000,70.151502,Hold,0.081299,0.000000,Hold,-224.000000,2.000000,LowGoal,1312.500000,-1454.545455,Speed,1320.000000,-1454.545455,Speed,Off,Off,0.000000,FALSE,0,Read: /home/lvuser/scripts/auto_13.bee,File good!,STOP_ALL,STOP_ALL
07:47:57.175 PM 03/22/2016,Teleop Enabled,10,FALSE,0,NO ERROR,0.433071,-300.690714,-0.433071,276.217604,FALSE,FALSE,TRUE,FALSE,FALSE,FALSE,Disabled,0.000000,0.000000,0.000000,TRUE,-30.914001,1.077744,0.000000,-0.678986,0.549103,0.000000,0.675000,0.783000,0.553000,51.000000,-3.350000,1.400000,56.233030,Hold,0.081299,0.000000,Hold,-224.000000,2.000000,LowGoal,1312.500000,-1454.545455,Speed,1335.000000,-1454.545455,Speed,Off,Off,0.000000,FALSE,0,Read: /home/lvuser/scripts/auto_13.bee,File good!,STOP_ALL,STOP_ALL
07:47:57.276 PM 03/22/2016,Teleop Enabled,9,FALSE,0,NO ERROR,0.503937,-300.081132,-0.503937,282.518756,FALSE,FALSE,TRUE,FALSE,FALSE,FALSE,Disabled,0.000000,0.000000,0.000000,TRUE,-30.938889,1.134415,0.000000,-0.391144,1.021286,0.000000,-0.154000,-0.214000,-0.065000,37.320000,-3.980000,3.640000,41.714045,Hold,0.081299,0.000000,Hold,-224.000000,2.000000,LowGoal,1320.000000,-1454.545455,Speed,1350.000000,-1454.545455,Speed,Off,Off,0.000000,FALSE,0,Read: /home/lvuser/scripts/auto_13.bee,File good!,STOP_ALL,STOP_ALL
07:47:57.377 PM 03/22/2016,Teleop Enabled,9,FALSE,0,NO ERROR,0.496063,-299.356050,-0.496063,287.812494,FALSE,FALSE,TRUE,FALSE,FALSE,FALSE,Disabled,0.000000,0.000000,0.000000,TRUE,-30.958023,1.183701,0.000000,-0.359512,1.076096,0.000000,0.082000,0.494000,0.659000,25.300000,-2.110000,5.050000,28.945813,Hold,0.081299,0.000000,Hold,-224.000000,2.000000,LowGoal,1320.000000,-1454.545455,Speed,1335.000000,-1454.545455,Speed,Off,Off,0.000000,FALSE,0,Read: /home/lvuser/scripts/auto_13.bee,File good!,STOP_ALL,STOP_ALL
07:47:57.477 PM 03/22/2016,Teleop Enabled,10,FALSE,0,NO ERROR,0.496063,-297.822470,-0.496063,292.246400,FALSE,FALSE,TRUE,FALSE,FALSE,FALSE,Disabled,0.000000,0.000000,0.000000,TRUE,-30.974411,1.227554,0.000000,-0.470306,1.001465,0.000000,0.106000,-0.345000,-0.030000,13.420000,-2.090000,4.370000,16.488001,Hold,0.081299,0.000000,Hold,-224.000000,2.000000,LowGoal,1305.000000,-1454.545455,Speed,1320.000000,-1454.545455,Speed,Off,Off,0.000000,FALSE,0,Read: /home/lvuser/scripts/auto_13.bee,File good!,STOP_ALL,STOP_ALL
07:47:57.578 PM 03/22/2016,Teleop Enabled,9,FALSE,0,NO ERROR,0.440945,-295.769142,-0.440945,296.494223,FALSE,FALSE,TRUE,FALSE,FALSE,FALSE,Disabled,0.000000,0.000000,0.000000,TRUE,-30.997971,1.274323,0.000000,-0.450485,0.968948,0.000000,0.107000,0.011000,0.030000,0.910000,-0.510000,5.370000,3.400545,Hold,0.081299,0.000000,Hold,-224.000000,2.000000,LowGoal,1305.000000,-1454.545455,Speed,1320.000000,-1454.545455,Speed,Off,Off,0.000000,FALSE,0,Read: /home/lvuser/scripts/auto_13.bee,File good!,STOP_ALL,STOP_ALL
07:47:57.679 PM 03/22/2016,Teleop Enabled,9,FALSE,0,NO ERROR,-0.000000,-293.279481,0.000000,300.434047,FALSE,FALSE,TRUE,FALSE,FALSE,FALSE,Disabled,0.000000,0.000000,0.000000,TRUE,-31.019333,1.317947,0.000000,-0.405518,0.752563,0.000000,0.048000,0.067000,-0.054000,-12.130000,0.060000,4.110000,-10.201966,Hold,0.081299,0.000000,Hold,-224.000000,2.000000,LowGoal,1320.000000,-1454.545455,Speed,1335.000000,-1454.545455,Speed,Off,Off,0.000000,FALSE,0,Read: /home/lvuser/scripts/auto_13.bee,File good!,STOP_ALL,STOP_ALL
07:47:57.779 PM 03/22/2016,Teleop Enabled,10,FALSE,0,NO ERROR,-0.330709,-291.572652,0.330709,303.084125,FALSE,FALSE,TRUE,FALSE,FALSE,FALSE,Disabled,0.000000,0.000000,0.000000,TRUE,-31.039108,1.359085,0.000000,-0.376236,0.925476,0.000000,0.248000,0.301000,-0.035000,-23.670000,1.470000,4.780000,-22.819434,Hold,0.081299,0.000000,Hold,-224.000000,2.000000,LowGoal,1357.500000,-1454.545455,Speed,1380.000000,-1454.545455,Speed,Off,Off,0.000000,FALSE,0,Read: /home/lvuser/scripts/auto_13.bee,File good!,STOP_ALL,STOP_ALL
07:47:57.879 PM 03/22/2016,Teleop Enabled,9,FALSE,0,NO ERROR,-0.858268,-291.206902,0.858268,304.271205,FALSE,FALSE,TRUE,FALSE,FALSE,FALSE,Disabled,0.000000,0.000000,0.000000,TRUE,-31.053497,1.408112,0.000000,-0.255661,1.009552,0.000000,-0.158000,0.323000,0.053000,-28.100000,2.590000,4.930000,-28.418672,Hold,0.081299,0.000000,Hold,-224.000000,2.000000,LowGoal,1365.000000,-1454.545455,Speed,1387.500000,-1454.545455,Speed,Off,Off,0.000000,FALSE,0,Read: /home/lvuser/scripts/auto_13.bee,File good!,STOP_ALL,STOP_ALL
07:47:57.981 PM 03/22/2016,Teleop Enabled,10,FALSE,0,NO ERROR,0.081729,-292.952232,0.327720,303.071291,FALSE,FALSE,TRUE,FALSE,FALSE,FALSE,Disabled,0.000000,0.000000,0.000000,TRUE,-31.069046,1.480972,0.000000,-0.224213,1.303375,0.000000,0.017000,0.124000,-0.192000,-23.600000,2.520000,5.960000,-23.312952,Hold,0.081299,0.000000,Hold,-265.000000,2.000000,LowGoal,1237.500000,-1454.545455,Speed,1267.500000,-1454.545455,Speed,Off,Off,0.000000,FALSE,0,Read: /home/lvuser/scripts/auto_13.bee,File good!,STOP_ALL,STOP_ALL
07:47:58.080 PM 03/22/2016,Teleop Enabled,9,FALSE,0,NO ERROR,0.119449,-295.602309,0.478976,300.389131,FALSE,FALSE,TRUE,FALSE,FALSE,FALSE,Disabled,0.000000,0.000000,0.000000,TRUE,-31.076385,1.543259,0.000000,-0.095810,1.201996,0.000000,-0.447000,-0.032000,-0.164000,-12.800000,1.900000,6.030000,-11.669921,Hold,0.081299,0.000000,Hold,-265.000000,2.000000,LowGoal,1192.500000,-1454.545455,Speed,1222.500000,-1454.545455,Speed,Off,Off,0.000000,FALSE,0,Read: /home/lvuser/scripts/auto_13.bee,File good!,STOP_ALL,STOP_ALL
07:47:58.180 PM 03/22/2016,Teleop Enabled,10,FALSE,0,NO ERROR,0.236220,-296.596890,0.236220,297.822470,FALSE,FALSE,TRUE,FALSE,FALSE,FALSE,Disabled,0.000000,0.000000,0.000000,TRUE,-31.092590,1.598007,0.000000,-0.467422,0.987961,0.000000,-0.315000,-0.342000,-0.139000,-3.980000,-0.800000,5.430000,-3.142801,Hold,0.081299,0.000000,Hold,-265.000000,2.000000,LowGoal,1350.000000,-1454.545455,Speed,1222.500000,-1454.545455,Speed,Off,Off,0.000000,FALSE,0,Read: /home/lvuser/scripts/auto_13.bee,File good!,STOP_ALL,STOP_ALL
07:47:58.280 PM 03/22/2016,Teleop Enabled,10,FALSE,0,NO ERROR,0.236220,-295.961641,0.236220,295.685725,FALSE,FALSE,TRUE,FALSE,FALSE,FALSE,Disabled,0.000000,0.000000,0.000000,TRUE,-31.122849,1.637375,0.000000,-0.683777,0.664017,0.000000,-0.077000,-0.027000,0.030000,0.000000,-1.830000,3.990000,0.601701,Hold,0.081299,0.000000,Hold,-265.000000,2.000000,LowGoal,1387.500000,-1454.545455,Speed,1357.500000,-1454.545455,Speed,Off,Off,0.000000,FALSE,0,Read: /home/lvuser/scripts/auto_13.bee,File good!,STOP_ALL,STOP_ALL
07:47:58.380 PM 03/22/2016,Teleop Enabled,10,FALSE,0,NO ERROR,0.228346,-294.139312,0.228346,293.779980,FALSE,FALSE,TRUE,FALSE,FALSE,FALSE,Disabled,0.000000,0.000000,0.000000,TRUE,-31.158661,1.671402,0.000000,-0.716019,0.711121,0.000000,-0.047000,-0.216000,0.024000,0.450000,-2.320000,4.130000,0.994311,Hold,0.081299,0.000000,Hold,-217.000000,2.000000,LowGoal,1387.500000,-1454.545455,Speed,1402.500000,-1454.545455,Speed,Off,Off,0.000000,FALSE,0,Read: /home/lvuser/scripts/auto_13.bee,File good!,STOP_ALL,STOP_ALL
07:47:58.481 PM 03/22/2016,Teleop Enabled,11,FALSE,0,NO ERROR,0.290855,-292.162983,0.213082,291.854984,FALSE,FALSE,TRUE,FALSE,FALSE,FALSE,Disabled,0.000000,0.000000,0.000000,TRUE,-31.196136,1.702820,0.000000,-0.765106,0.588562,0.000000,0.082000,-0.014000,-0.050000,0.310000,-2.170000,3.700000,0.795992,Hold,0.081299,0.000000,Hold,-217.000000,2.000000,LowGoal,1357.500000,-1454.545455,Speed,1372.500000,-1454.545455,Speed,Off,Off,0.000000,FALSE,0,Read: /home/lvuser/scripts/auto_13.bee,File good!,STOP_ALL,STOP_ALL
07:47:58.583 PM 03/22/2016,Teleop Enabled,11,FALSE,0,NO ERROR,0.385393,-289.949239,0.276025,289.686156,FALSE,FALSE,TRUE,FALSE,FALSE,FALSE,Disabled,0.000000,0.000000,0.000000,TRUE,-31.230591,1.703217,0.000000,-0.643600,0.008698,0.000000,0.030000,-0.015000,-0.069000,0.310000,-2.210000,3.670000,0.837044,Hold,0.081299,0.000000,Hold,-217.000000,2.000000,LowGoal,1342.500000,-1454.545455,Speed,1365.000000,-1454.545455,Speed,Off,Off,0.000000,FALSE,0,Read: /home/lvuser/scripts/auto_13.bee,File good!,STOP_ALL,STOP_ALL
07:47:58.683 PM 03/22/2016,Teleop Enabled,11,FALSE,0,NO ERROR,0.394569,-287.331245,0.282597,287.433911,FALSE,FALSE,TRUE,FALSE,FALSE,FALSE,Disabled,0.000000,0.000000,0.000000,TRUE,-31.263641,1.702103,0.000000,-0.701508,-0.050400,0.000000,-0.055000,-0.047000,-0.053000,-0.140000,-2.420000,3.430000,0.403278,Hold,0.081299,0.000000,Hold,-217.000000,2.000000,LowGoal,1357.500000,-1454.545455,Speed,1372.500000,-1454.545455,Speed,Off,Off,0.000000,FALSE,0,Read: /home/lvuser/scripts/auto_13.bee,File good!,STOP_ALL,STOP_ALL
07:47:58.783 PM 03/22/2016,Teleop Enabled,11,FALSE,0,NO ERROR,0.418829,-284.270502,0.258336,284.918584,FALSE,FALSE,TRUE,FALSE,FALSE,FALSE,Disabled,0.000000,0.000000,0.000000,TRUE,-31.300873,1.697845,0.000000,-0.769028,-0.100754,0.000000,-0.048000,-0.033000,0.019000,-1.240000,-2.580000,3.350000,-0.697951,Hold,0.081299,0.000000,Hold,-217.000000,2.000000,LowGoal,1350.000000,-1454.545455,Speed,1372.500000,-1454.545455,Speed,Off,Off,0.000000,FALSE,0,Read: /home/lvuser/scripts/auto_13.bee,File good!,STOP_ALL,STOP_ALL
07:47:58.884 PM 03/22/2016,Teleop Enabled,10,FALSE,0,NO ERROR,0.390836,-280.657927,0.286329,282.172257,FALSE,FALSE,TRUE,FALSE,FALSE,FALSE,Disabled,0.000000,0.000000,0.000000,TRUE,-31.340958,1.691360,0.000000,-0.816788,-0.157578,0.000000,-0.070000,-0.054000,0.048000,-2.910000,-2.690000,3.140000,-2.387679,Hold,0.081299,0.000000,Hold,-217.000000,2.000000,LowGoal,1335.000000,-1454.545455,Speed,1365.000000,-1454.545455,Speed,Off,Off,0.000000,FALSE,0,Read: /home/lvuser/scripts/auto_13.bee,File good!,STOP_ALL,STOP_ALL
07:47:58.986 PM 03/22/2016,Teleop Enabled,10,FALSE,0,NO ERROR,0.338583,-276.621853,0.338583,279.220597,TRUE,FALSE,TRUE,FALSE,FALSE,FALSE,Disabled,0.000000,0.000000,0.000000,TRUE,-31.382538,1.681473,0.000000,-0.835114,-0.218414,0.000000,0.064000,-0.044000,-0.049000,-5.060000,-2.550000,2.970000,-4.614491,Hold,0.081299,0.000000,Hold,-217.000000,2.000000,LowGoal,1342.500000,-1454.545455,Speed,1365.000000,-1454.545455,Speed,Off,Off,0.000000,FALSE,0,Read: /home/lvuser/scripts/auto_13.bee,File good!,STOP_ALL,STOP_ALL
07:47:59.086 PM 03/22/2016,Teleop Enabled,10,FALSE,0,NO ERROR,0.338583,-272.656362,0.338583,275.948105,TRUE,FALSE,TRUE,FALSE,FALSE,FALSE,Disabled,0.000000,0.000000,0.000000,TRUE,-31.423798,1.669983,0.000000,-0.813065,-0.243118,0.000000,-0.045000,-0.037000,-0.070000,-6.590000,-2.320000,2.920000,-6.348046,Hold,0.081299,0.000000,Hold,-217.000000,2.000000,LowGoal,1350.000000,-1454.545455,Speed,1365.000000,-1454.545455,Speed,Off,Off,0.000000,FALSE,0,Read: /home/lvuser/scripts/auto_13.bee,File good!,STOP_ALL,STOP_ALL
07:47:59.186 PM 03/22/2016,Teleop Enabled,11,FALSE,0,NO ERROR,0.290607,-268.601039,0.370810,272.220030,TRUE,FALSE,TRUE,FALSE,FALSE,FALSE,Disabled,0.000000,0.000000,0.000000,TRUE,-31.472458,1.654770,0.000000,-0.811356,-0.242752,0.000000,-0.050000,0.012000,0.185000,-7.230000,-2.290000,2.850000,-7.065792,Hold,0.081299,0.000000,Hold,-217.000000,2.000000,LowGoal,1350.000000,-1454.545455,Speed,1372.500000,-1454.545455,Speed,Off,Off,0.000000,FALSE,0,Read: /home/lvuser/scripts/auto_13.bee,File good!,STOP_ALL,STOP_ALL
07:47:59.286 PM 03/22/2016,Teleop Enabled,11,FALSE,0,NO ERROR,0.134664,-264.648381,0.337777,268.389289,TRUE,FALSE,TRUE,FALSE,FALSE,FALSE,Disabled,0.000000,0.000000,0.000000,TRUE,-31.512253,1.641602,0.000000,-0.785629,-0.272873,0.000000,0.090000,-0.002000,0.110000,-7.720000,-2.050000,2.670000,-7.544011,Hold,0.081299,0.000000,Hold,-217.000000,2.000000,LowGoal,1350.000000,-1454.545455,Speed,1365.000000,-1454.545455,Speed,Off,Off,0.000000,FALSE,0,Read: /home/lvuser/scripts/auto_13.bee,File good!,STOP_ALL,STOP_ALL
07:47:59.386 PM 03/22/2016,Teleop Enabled,11,FALSE,0,NO ERROR,0.179261,-260.888223,0.277432,264.173549,TRUE,FALSE,TRUE,FALSE,FALSE,FALSE,Disabled,0.000000,0.000000,0.000000,TRUE,-31.549240,1.638809,0.000000,-0.696106,0.002411,0.000000,0.039000,0.022000,0.018000,-7.340000,-1.380000,2.620000,-7.253267,Hold,0.081299,0.000000,Hold,-217.000000,2.000000,LowGoal,1357.500000,-1454.545455,Speed,1372.500000,-1454.545455,Speed,Off,Off,0.000000,FALSE,0,Read: /home/lvuser/scripts/auto_13.bee,File good!,STOP_ALL,STOP_ALL
07:47:59.487 PM 03/22/2016,Teleop Enabled,11,FALSE,0,NO ERROR,0.236220,-257.423231,0.236220,260.073309,TRUE,FALSE,TRUE,FALSE,FALSE,FALSE,Disabled,0.000000,0.000000,0.000000,TRUE,-31.581360,1.639633,0.000000,-0.603088,0.016174,0.000000,0.024000,-0.032000,-0.118000,-6.230000,-1.320000,2.670000,-5.819445,Hold,0.081299,0.000000,Hold,-217.000000,2.000000,LowGoal,1357.500000,-1454.545455,Speed,1380.000000,-1454.545455,Speed,Off,Off,0.000000,FALSE,0,Read: /home/lvuser/scripts/auto_13.bee,File good!,STOP_ALL,STOP_ALL
07:47:59.587 PM 03/22/2016,Teleop Enabled,10,FALSE,0,NO ERROR,0.135259,-253.772157,0.289937,256.281067,TRUE,FALSE,TRUE,FALSE,FALSE,FALSE,Disabled,0.000000,0.000000,0.000000,TRUE,-31.609421,1.639511,0.000000,-0.542786,-0.031174,0.000000,0.063000,-0.083000,0.154000,-5.310000,-0.900000,2.510000,-5.011256,Hold,0.081299,0.000000,Hold,-217.000000,2.000000,LowGoal,1365.000000,-1454.545455,Speed,1380.000000,-1454.545455,Speed,Off,Off,0.000000,FALSE,0,Read: /home/lvuser/scripts/auto_13.bee,File good!,STOP_ALL,STOP_ALL
07:47:59.687 PM 03/22/2016,Teleop Enabled,15,FALSE,0,NO ERROR,-0.574803,-251.372329,0.574803,252.501660,TRUE,FALSE,TRUE,FALSE,FALSE,FALSE,Disabled,0.000000,0.000000,0.000000,TRUE,-31.638016,1.637665,0.000000,-0.337891,0.037704,0.000000,1.450000,0.587000,-0.536000,-4.820000,-0.120000,2.590000,-4.632117,Hold,0.081299,0.000000,Hold,-217.000000,2.000000,LowGoal,1365.000000,-1454.545455,Speed,1387.500000,-1454.545455,Speed,Off,Off,0.000000,FALSE,0,Read: /home/lvuser/scripts/auto_13.bee,File good!,STOP_ALL,STOP_ALL
07:47:59.788 PM 03/22/2016,Teleop Enabled,11,FALSE,0,NO ERROR,-0.000000,-250.698580,0.000000,249.017418,TRUE,FALSE,TRUE,FALSE,FALSE,FALSE,Disabled,0.000000,0.000000,0.000000,TRUE,-31.639236,1.642120,0.000000,0.069031,0.073624,0.000000,-0.046000,-0.263000,-0.157000,2.640000,2.190000,2.550000,2.853671,Hold,0.081299,0.000000,Hold,-253.000000,2.000000,LowGoal,1342.500000,-1454.545455,Speed,1342.500000,-1454.545455,Speed,Off,Off,0.000000,FALSE,0,Read: /home/lvuser/scripts/auto_13.bee,File good!,STOP_ALL,STOP_ALL
07:47:59.888 PM 03/22/2016,Teleop Enabled,11,FALSE,0,NO ERROR,-0.000000,-249.556416,0.000000,246.932006,FALSE,FALSE,TRUE,FALSE,FALSE,FALSE,Disabled,0.000000,0.000000,0.000000,TRUE,-31.638351,1.643875,0.000000,0.032074,0.116348,0.000000,0.057000,-0.106000,-0.146000,4.970000,1.050000,3.410000,5.905722,Hold,0.081299,0.000000,Hold,-253.000000,2.000000,LowGoal,1267.500000,-1454.545455,Speed,1312.500000,-1454.545455,Speed,Off,Off,0.000000,FALSE,0,Read: /home/lvuser/scripts/auto_13.bee,File good!,STOP_ALL,STOP_ALL
07:47:59.989 PM 03/22/2016,Teleop Enabled,11,FALSE,0,NO ERROR,0.204724,-248.311586,-0.204724,246.373757,TRUE,FALSE,TRUE,FALSE,FALSE,FALSE,Disabled,0.000000,0.000000,0.000000,TRUE,-31.632965,1.648590,0.000000,0.102676,-0.027832,0.000000,0.063000,0.014000,0.024000,3.580000,1.780000,2.280000,4.530203,Hold,0.081299,0.000000,Hold,-220.000000,2.000000,LowGoal,1365.000000,-1454.545455,Speed,1387.500000,-1454.545455,Speed,Off,Off,0.000000,FALSE,0,Read: /home/lvuser/scripts/auto_13.bee,File good!,STOP_ALL,STOP_ALL
07:48:00.089 PM 03/22/2016,Teleop Enabled,11,FALSE,0,NO ERROR,0.354331,-247.130922,-0.354331,246.136341,TRUE,FALSE,TRUE,FALSE,FALSE,FALSE,Disabled,0.000000,0.000000,0.000000,TRUE,-31.623245,1.649261,0.000000,0.215347,0.008377,0.000000,-0.508000,-0.369000,0.151000,3.070000,2.020000,2.630000,3.972516,Hold,0.081299,0.000000,Hold,-220.000000,2.000000,LowGoal,1387.500000,-1454.545455,Speed,1410.000000,-1454.545455,Speed,Off,Off,0.000000,FALSE,0,Read: /home/lvuser/scripts/auto_13.bee,File good!,STOP_ALL,STOP_ALL
07:48:00.189 PM 03/22/2016,Teleop Enabled,11,FALSE,0,NO ERROR,-0.000000,-246.328841,0.000000,246.495674,TRUE,FALSE,TRUE,FALSE,FALSE,FALSE,Disabled,0.000000,0.000000,0.000000,TRUE,-31.614883,1.647293,0.000000,0.193024,-0.062866,0.000000,0.095000,-0.020000,-0.040000,-0.470000,1.760000,1.970000,0.402741,Hold,0.081299,0.000000,Hold,-237.000000,2.000000,LowGoal,1342.500000,-1454.545455,Speed,1365.000000,-1454.545455,Speed,Off,Off,0.000000,FALSE,0,Read: /home/lvuser/scripts/auto_13.bee,File good!,STOP_ALL,STOP_ALL
07:48:00.289 PM 03/22/2016,Teleop Enabled,9,FALSE,0,NO ERROR,-0.000000,-246.309591,0.000000,246.482840,TRUE,FALSE,TRUE,FALSE,FALSE,FALSE,Disabled,0.000000,0.000000,0.000000,TRUE,-31.602005,1.646912,0.000000,0.269943,0.064621,0.000000,-0.070000,0.109000,0.083000,-0.610000,2.370000,2.550000,-0.192742,Hold,0.081299,0.000000,Hold,-237.000000,2.000000,LowGoal,1312.500000,-1454.545455,Speed,1335.000000,-1454.545455,Speed,Off,Off,0.000000,FALSE,0,Read: /home/lvuser/scripts/auto_13.bee,File good!,STOP_ALL,STOP_ALL
07:48:00.390 PM 03/22/2016,Teleop Enabled,11,FALSE,0,NO ERROR,-0.000000,-246.309591,0.000000,246.348091,TRUE,FALSE,TRUE,FALSE,FALSE,FALSE,Disabled,0.000000,0.000000,0.000000,TRUE,-31.590210,1.648056,0.000000,0.225586,-0.022110,0.000000,-0.070000,-0.016000,0.006000,-0.530000,2.120000,2.170000,0.248818,Hold,0.081299,0.000000,Hold,-237.000000,2.000000,LowGoal,1372.500000,-1454.545455,Speed,1380.000000,-1454.545455,Speed,Off,Off,0.000000,FALSE,0,Read: /home/lvuser/scripts/auto_13.bee,File good!,STOP_ALL,STOP_ALL
07:48:00.490 PM 03/22/2016,Teleop Enabled,11,FALSE,0,NO ERROR,0.228346,-246.309591,0.228346,246.348091,TRUE,FALSE,TRUE,FALSE,FALSE,FALSE,Disabled,0.000000,0.000000,0.000000,TRUE,-31.588043,1.648132,0.000000,-0.004700,-0.002808,0.000000,-0.031000,-0.109000,-0.055000,-0.490000,2.020000,2.170000,0.232297,Hold,0.081299,0.000000,Hold,-237.000000,2.000000,LowGoal,1387.500000,-1454.545455,Speed,1395.000000,-1454.545455,Speed,Off,Off,0.000000,FALSE,0,Read: /home/lvuser/scripts/auto_13.bee,File good!,STOP_ALL,STOP_ALL
07:48:00.589 PM 03/22/2016,Teleop Enabled,10,FALSE,0,NO ERROR,0.236220,-245.886092,0.236220,245.809092,TRUE,FALSE,TRUE,FALSE,FALSE,FALSE,Disabled,0.000000,0.000000,0.000000,TRUE,-31.590378,1.646057,0.000000,-0.117249,-0.059952,0.000000,-0.078000,0.092000,0.006000,-0.490000,1.030000,2.080000,0.219449,Hold,0.081299,0.000000,Hold,-237.000000,2.000000,LowGoal,1365.000000,-1454.545455,Speed,1387.500000,-1454.545455,Speed,Off,Off,0.000000,FALSE,0,Read: /home/lvuser/scripts/auto_13.bee,File good!,STOP_ALL,STOP_ALL
07:48:00.689 PM 03/22/2016,Teleop Enabled,11,FALSE,0,NO ERROR,0.236220,-245.225177,0.236220,245.109677,TRUE,FALSE,TRUE,FALSE,FALSE,FALSE,Disabled,0.000000,0.000000,0.000000,TRUE,-31.599503,1.643265,0.000000,-0.237946,-0.061890,0.000000,-0.177000,-0.020000,0.087000,-0.370000,0.730000,2.070000,0.317335,Hold,0.081299,0.000000,Hold,-223.000000,2.000000,LowGoal,1350.000000,-1454.545455,Speed,1372.500000,-1454.545455,Speed,Off,Off,0.000000,FALSE,0,Read: /home/lvuser/scripts/auto_13.bee,File good!,STOP_ALL,STOP_ALL
07:48:00.790 PM 03/22/2016,Teleop Enabled,10,FALSE,0,NO ERROR,0.236220,-244.050929,0.236220,243.954680,TRUE,FALSE,TRUE,FALSE,FALSE,FALSE,Disabled,0.000000,0.000000,0.000000,TRUE,-31.614868,1.640747,0.000000,-0.324371,0.000000,0.000000,-0.073000,-0.062000,0.023000,-0.390000,0.230000,2.090000,0.295244,Hold,0.081299,0.000000,Hold,-223.000000,2.000000,LowGoal,1342.500000,-1454.545455,Speed,1365.000000,-1454.545455,Speed,Off,Off,0.000000,FALSE,0,Read: /home/lvuser/scripts/auto_13.bee,File good!,STOP_ALL,STOP_ALL
07:48:00.889 PM 03/22/2016,Teleop Enabled,10,FALSE,0,NO ERROR,0.236220,-242.568683,0.236220,242.491683,TRUE,FALSE,TRUE,FALSE,FALSE,FALSE,Disabled,0.000000,0.000000,0.000000,TRUE,-31.632736,1.639755,0.000000,-0.381027,-0.019958,0.000000,0.029000,0.032000,0.070000,-0.300000,-0.030000,2.060000,0.374602,Hold,0.081299,0.000000,Hold,-223.000000,2.000000,LowGoal,1357.500000,-1454.545455,Speed,1372.500000,-1454.545455,Speed,Off,Off,0.000000,FALSE,0,Read: /home/lvuser/scripts/auto_13.bee,File good!,STOP_ALL,STOP_ALL
07:48:00.989 PM 03/22/2016,Teleop Enabled,9,FALSE,0,NO ERROR,0.236220,-240.823354,0.236220,240.746354,TRUE,FALSE,TRUE,FALSE,FALSE,FALSE,Disabled,0.000000,0.000000,0.000000,TRUE,-31.653107,1.638443,0.000000,-0.428818,-0.041916,0.000000,0.059000,-0.040000,-0.180000,-0.290000,-0.250000,2.020000,0.396163,Hold,0.081299,0.000000,Hold,-223.000000,2.000000,LowGoal,1357.500000,-1454.545455,Speed,1372.500000,-1454.545455,Speed,Off,Off,0.000000,FALSE,0,Read: /home/lvuser/scripts/auto_13.bee,File good!,STOP_ALL,STOP_ALL
