Time,Robot Mode,Loop Time,Error Status,Error Code,Error Source,Left Motor Output,Left Motor Encoder,Right Motor Output,Right Motor Encoder,Is Level,Is Stalled,Ball Detector Photoeye,Vision Enabled,Vision Teleop Control,Vision Auto Control,Vision Current State,Vision X Output,Vision NavX Error,Vision NavX Target,NavX Connection Status,NavX Displacement X,NavX Displacement Y,NavX Displacement Z,NavX Velocity X,NavX Velocity Y,NavX Velocity Z,NavX Acceleration X,NavX Acceleration Y,NavX Acceleration Z,NavX Pitch,NavX Yaw,NavX Roll,Gyro Angle,Roller Arm State,Roller Arm Actual,Roller Arm Desired,Shooter Arm State,Shooter Arm Actual,Shooter Arm Desired,Shooter State,Actual RPM Left,Desired RPM Left,Control Mode Left,Actual RPM Right,Desired RPM Right,Control Mode Right,Ball Shooter Cylinder,Ball Halo Cylinder,Scaler Motor Output,Scaler Solenoid Fire,Auto To Run,Auto Current File,Auto File Status,Auto Current Command,Auto Trimmed Command
08:29:55.908 PM 03/22/2016,Autonomous Enabled,11,TRUE,7,Read from Text File in DoesScriptNumberContainNull.vi->Disabled.vi->Robot Main.vi<APPEND> /home/lvuser/scripts/auto_43.bee,-0.000000,1.225580,0.000000,-1.103664,TRUE,FALSE,TRUE,FALSE,FALSE,FALSE,Disabled,0.000000,-1.793750,-1.646250,TRUE,-3.747787,-20.703964,0.000000,0.000000,0.000000,0.000000,-0.002000,-0.001000,0.003000,-0.680000,0.090000,1.530000,71.943281,ResetBack,1.888916,-0.000049,ResetBack,-14140.000000,-0.300000,LowGoal,0.000000,-1454.545455,Speed,0.000000,-1454.545455,Speed,Off,Off,0.000000,FALSE,44,Read: /home/lvuser/scripts/auto_44.bee,File good!,STOP_ALL,STOP_ALL
08:29:56.008 PM 03/22/2016,Autonomous Enabled,11,TRUE,7,Read from Text File in DoesScriptNumberContainNull.vi->Disabled.vi->Robot Main.vi<APPEND> /home/lvuser/scripts/auto_43.bee,-0.000000,1.225580,0.000000,-1.103664,TRUE,FALSE,TRUE,FALSE,FALSE,FALSE,Disabled,0.000000,-1.793750,-1.646250,TRUE,-3.747787,-20.703857,0.000000,0.000000,0.010101,0.000000,0.025000,0.007000,-0.014000,-0.680000,0.080000,1.570000,72.066563,ResetBack,1.495850,-0.000049,ResetBack,-14140.000000,-0.300000,LowGoal,0.000000,-1454.545455,Speed,0.000000,-1454.545455,Speed,Off,Off,0.000000,FALSE,44,Read: /home/lvuser/scripts/auto_44.bee,File good!,WAIT 1500,WAIT
08:29:56.109 PM 03/22/2016,Autonomous Enabled,11,TRUE,7,Read from Text File in DoesScriptNumberContainNull.vi->Disabled.vi->Robot Main.vi<APPEND> /home/lvuser/scripts/auto_43.bee,-0.000000,1.225580,0.000000,-1.103664,TRUE,FALSE,TRUE,FALSE,FALSE,FALSE,Disabled,0.000000,-1.793750,-1.646250,TRUE,-3.747849,-20.703506,0.000000,0.000000,-0.005692,0.000000,0.017000,-0.068000,0.056000,-0.680000,0.000000,1.580000,72.196919,ResetBack,0.729248,-0.000049,ResetBack,-10866.000000,-0.300000,LowGoal,262.500000,-1454.545455,Speed,172.500000,-1454.545455,Speed,Off,Off,0.000000,FALSE,44,Read: /home/lvuser/scripts/auto_44.bee,File good!,WAIT 1500,WAIT
08:29:56.208 PM 03/22/2016,Autonomous Enabled,10,TRUE,7,Read from Text File in DoesScriptNumberContainNull.vi->Disabled.vi->Robot Main.vi<APPEND> /home/lvuser/scripts/auto_43.bee,-0.000000,1.225580,0.000000,-1.097247,TRUE,FALSE,TRUE,FALSE,FALSE,FALSE,Disabled,0.000000,-1.793750,-1.646250,TRUE,-3.747452,-20.704605,0.000000,0.022766,-0.033478,0.000000,0.046000,-0.019000,0.044000,-0.680000,0.090000,1.550000,72.332996,ResetBack,0.718262,-0.000049,ResetBack,-10866.000000,-0.300000,LowGoal,885.000000,-1454.545455,Speed,997.500000,-1454.545455,Speed,Off,Off,0.000000,FALSE,44,Read: /home/lvuser/scripts/auto_44.bee,File good!,WAIT 1500,WAIT
08:29:56.308 PM 03/22/2016,Autonomous Enabled,11,TRUE,7,Read from Text File in DoesScriptNumberContainNull.vi->Disabled.vi->Robot Main.vi<APPEND> /home/lvuser/scripts/auto_43.bee,-0.000000,1.225580,0.000000,-1.097247,TRUE,FALSE,TRUE,FALSE,FALSE,FALSE,Disabled,0.000000,-1.793750,-1.646250,TRUE,-3.744995,-20.705139,0.000000,0.054062,-0.006256,0.000000,-0.039000,0.017000,0.035000,-0.680000,0.120000,1.550000,72.491915,Reset,0.707031,0.000000,ResetBack,-5441.000000,-0.300000,LowGoal,1507.500000,-1454.545455,Speed,1612.500000,-1454.545455,Speed,Off,Off,0.000000,FALSE,44,Read: /home/lvuser/scripts/auto_44.bee,File good!,WAIT 1500,WAIT
08:29:56.409 PM 03/22/2016,Autonomous Enabled,10,TRUE,7,Read from Text File in DoesScriptNumberContainNull.vi->Disabled.vi->Robot Main.vi<APPEND> /home/lvuser/scripts/auto_43.bee,-0.000000,1.225580,0.000000,-1.097247,TRUE,FALSE,TRUE,FALSE,FALSE,FALSE,Disabled,0.000000,-1.793750,-1.646250,TRUE,-3.742554,-20.706589,0.000000,0.050659,-0.050034,0.000000,-0.014000,-0.044000,-0.013000,-0.680000,0.120000,1.520000,72.633717,Hold,0.000488,0.000000,ResetBack,-1852.000000,-0.300000,LowGoal,1537.500000,-1454.545455,Speed,1507.500000,-1454.545455,Speed,Off,Off,0.000000,FALSE,44,Read: /home/lvuser/scripts/auto_44.bee,File good!,WAIT 1500,WAIT
08:29:56.509 PM 03/22/2016,Autonomous Enabled,11,TRUE,7,Read from Text File in DoesScriptNumberContainNull.vi->Disabled.vi->Robot Main.vi<APPEND> /home/lvuser/scripts/auto_43.bee,-0.000000,1.225580,0.000000,-1.097247,TRUE,FALSE,TRUE,FALSE,FALSE,FALSE,Disabled,0.000000,-1.793750,-1.646250,TRUE,-3.742065,-20.708710,0.000000,-0.000793,-0.037643,0.000000,0.037000,-0.042000,-0.080000,-0.680000,0.100000,1.540000,72.779114,Hold,0.000488,0.000000,ResetBack,-655.000000,-0.300000,LowGoal,1350.000000,-1454.545455,Speed,1305.000000,-1454.545455,Speed,Off,Off,0.000000,FALSE,44,Read: /home/lvuser/scripts/auto_44.bee,File good!,WAIT 1500,WAIT
08:29:56.609 PM 03/22/2016,Autonomous Enabled,10,TRUE,7,Read from Text File in DoesScriptNumberContainNull.vi->Disabled.vi->Robot Main.vi<APPEND> /home/lvuser/scripts/auto_43.bee,-0.000000,1.225580,0.000000,-1.097247,TRUE,FALSE,TRUE,FALSE,FALSE,FALSE,Disabled,0.000000,-1.793750,-1.646250,TRUE,-3.742233,-20.710968,0.000000,0.000000,-0.047928,0.000000,-0.002000,0.052000,0.013000,-0.680000,0.020000,1.590000,72.931530,Hold,0.000488,0.000000,ResetBack,-426.000000,-0.300000,LowGoal,1327.500000,-1454.545455,Speed,1365.000000,-1454.545455,Speed,Off,Off,0.000000,FALSE,44,Read: /home/lvuser/scripts/auto_44.bee,File good!,WAIT 1500,WAIT
08:29:56.710 PM 03/22/2016,Autonomous Enabled,9,TRUE,7,Read from Text File in DoesScriptNumberContainNull.vi->Disabled.vi->Robot Main.vi<APPEND> /home/lvuser/scripts/auto_43.bee,-0.000000,1.225580,0.000000,-1.097247,TRUE,FALSE,TRUE,FALSE,FALSE,FALSE,Disabled,0.000000,-1.793750,-1.646250,TRUE,-3.742447,-20.712830,0.000000,-0.013107,-0.038193,0.000000,-0.031000,-0.022000,0.014000,-0.670000,-0.080000,1.560000,73.068895,Hold,0.000488,0.000000,ResetBack,-426.000000,-0.300000,LowGoal,1402.500000,-1454.545455,Speed,1432.500000,-1454.545455,Speed,Off,Off,0.000000,FALSE,44,Read: /home/lvuser/scripts/auto_44.bee,File good!,WAIT 1500,WAIT
08:29:56.810 PM 03/22/2016,Autonomous Enabled,10,TRUE,7,Read from Text File in DoesScriptNumberContainNull.vi->Disabled.vi->Robot Main.vi<APPEND> /home/lvuser/scripts/auto_43.bee,-0.000000,1.225580,0.000000,-1.097247,TRUE,FALSE,TRUE,FALSE,FALSE,FALSE,Disabled,0.000000,-1.793750,-1.646250,TRUE,-3.743561,-20.714859,0.000000,0.000000,0.000000,0.000000,-0.028000,-0.030000,-0.094000,-0.670000,-0.070000,1.570000,73.202063,Hold,0.000488,0.000000,ResetBack,-425.000000,-0.300000,LowGoal,1402.500000,-1454.545455,Speed,1410.000000,-1454.545455,Speed,Off,Off,0.000000,FALSE,44,Read: /home/lvuser/scripts/auto_44.bee,File good!,WAIT 1500,WAIT
08:29:56.910 PM 03/22/2016,Autonomous Enabled,11,TRUE,7,Read from Text File in DoesScriptNumberContainNull.vi->Disabled.vi->Robot Main.vi<APPEND> /home/lvuser/scripts/auto_43.bee,-0.000000,1.225580,0.000000,-1.097247,TRUE,FALSE,TRUE,FALSE,FALSE,FALSE,Disabled,0.000000,-1.793750,-1.646250,TRUE,-3.742889,-20.715286,0.000000,0.016891,-0.002213,0.000000,0.034000,-0.034000,-0.061000,-0.680000,-0.050000,1.550000,73.321864,Hold,0.000488,0.000000,ResetBack,-425.000000,-0.300000,LowGoal,1380.000000,-1454.545455,Speed,1380.000000,-1454.545455,Speed,Off,Off,0.000000,FALSE,44,Read: /home/lvuser/scripts/auto_44.bee,File good!,WAIT 1500,WAIT
08:29:57.010 PM 03/22/2016,Autonomous Enabled,10,TRUE,7,Read from Text File in DoesScriptNumberContainNull.vi->Disabled.vi->Robot Main.vi<APPEND> /home/lvuser/scripts/auto_43.bee,-0.000000,1.225580,0.000000,-1.097247,TRUE,FALSE,TRUE,FALSE,FALSE,FALSE,Disabled,0.000000,-1.793750,-1.646250,TRUE,-3.741608,-20.715622,0.000000,0.027557,-0.001999,0.000000,0.000000,0.013000,-0.054000,-0.680000,0.010000,1.510000,73.465329,Hold,0.000488,0.000000,ResetBack,-425.000000,-0.300000,LowGoal,1372.500000,-1454.545455,Speed,1395.000000,-1454.545455,Speed,Off,Off,0.000000,FALSE,44,Read: /home/lvuser/scripts/auto_44.bee,File good!,WAIT 1500,WAIT
08:29:57.111 PM 03/22/2016,Autonomous Enabled,8,TRUE,7,Read from Text File in DoesScriptNumberContainNull.vi->Disabled.vi->Robot Main.vi<APPEND> /home/lvuser/scripts/auto_43.bee,-0.000000,1.225580,0.000000,-1.097247,TRUE,FALSE,TRUE,FALSE,FALSE,FALSE,Disabled,0.000000,-1.793750,-1.646250,TRUE,-3.740356,-20.715408,0.000000,0.022034,0.000000,0.000000,0.000000,0.013000,-0.054000,-0.680000,0.010000,1.530000,73.594694,Hold,0.000488,0.000000,ResetBack,-425.000000,-0.300000,LowGoal,1395.000000,-1454.545455,Speed,1402.500000,-1454.545455,Speed,Off,Off,0.000000,FALSE,44,Read: /home/lvuser/scripts/auto_44.bee,File good!,WAIT 1500,WAIT
08:29:57.212 PM 03/22/2016,Autonomous Enabled,12,TRUE,7,Read from Text File in DoesScriptNumberContainNull.vi->Disabled.vi->Robot Main.vi<APPEND> /home/lvuser/scripts/auto_43.bee,-0.000000,1.225580,0.000000,-1.097247,TRUE,FALSE,TRUE,FALSE,FALSE,FALSE,Disabled,0.000000,-1.793750,-1.646250,TRUE,-3.738724,-20.715591,0.000000,0.039886,-0.011215,0.000000,0.027000,0.057000,0.104000,-0.680000,0.020000,1.550000,73.718970,Hold,0.000488,0.000000,Reset,-424.000000,2.000000,LowGoal,1387.500000,-1454.545455,Speed,1402.500000,-1454.545455,Speed,Off,Off,0.000000,FALSE,44,Read: /home/lvuser/scripts/auto_44.bee,File good!,WAIT 1500,WAIT
08:29:57.312 PM 03/22/2016,Autonomous Enabled,12,TRUE,7,Read from Text File in DoesScriptNumberContainNull.vi->Disabled.vi->Robot Main.vi<APPEND> /home/lvuser/scripts/auto_43.bee,-0.000000,1.225580,0.000000,-1.097247,TRUE,FALSE,TRUE,FALSE,FALSE,FALSE,Disabled,0.000000,-1.793750,-1.646250,TRUE,-3.738510,-20.716690,0.000000,0.011063,-0.034637,0.000000,0.003000,0.040000,-0.074000,-0.680000,0.030000,1.540000,73.858883,Hold,0.000488,0.000000,Hold,-150.000000,2.000000,LowGoal,1387.500000,-1454.545455,Speed,1395.000000,-1454.545455,Speed,Off,Off,0.000000,FALSE,44,Read: /home/lvuser/scripts/auto_44.bee,File good!,WAIT 1500,WAIT
08:29:57.412 PM 03/22/2016,Autonomous Enabled,11,TRUE,7,Read from Text File in DoesScriptNumberContainNull.vi->Disabled.vi->Robot Main.vi<APPEND> /home/lvuser/scripts/auto_43.bee,-0.000000,1.225580,0.000000,-1.097247,TRUE,FALSE,TRUE,FALSE,FALSE,FALSE,Disabled,0.000000,-1.793750,-1.646250,TRUE,-3.737930,-20.718658,0.000000,0.011765,-0.039398,0.000000,0.003000,0.040000,-0.074000,-0.680000,0.040000,1.480000,73.987417,Hold,0.000488,0.000000,Hold,-211.000000,2.000000,LowGoal,1387.500000,-1454.545455,Speed,1395.000000,-1454.545455,Speed,Off,Off,0.000000,FALSE,44,Read: /home/lvuser/scripts/auto_44.bee,File good!,WAIT 1500,WAIT
08:29:57.513 PM 03/22/2016,Autonomous Enabled,10,TRUE,7,Read from Text File in DoesScriptNumberContainNull.vi->Disabled.vi->Robot Main.vi<APPEND> /home/lvuser/scripts/auto_43.bee,-0.000000,1.225580,0.000000,-1.097247,TRUE,FALSE,TRUE,FALSE,FALSE,FALSE,Disabled,0.000000,-1.793750,-1.646250,TRUE,-3.736099,-20.720215,0.000000,0.036377,-0.030060,0.000000,0.056000,0.035000,0.069000,-0.680000,0.120000,1.530000,74.129932,Hold,0.000488,0.000000,Hold,-211.000000,2.000000,LowGoal,1395.000000,-1454.545455,Speed,1402.500000,-1454.545455,Speed,Off,Off,0.000000,FALSE,44,Read: /home/lvuser/scripts/auto_44.bee,File good!,NAVX_ZERO_YAW,NAVX_ZERO_YAW
08:29:57.613 PM 03/22/2016,Autonomous Enabled,11,TRUE,7,Read from Text File in DoesScriptNumberContainNull.vi->Disabled.vi->Robot Main.vi<APPEND> /home/lvuser/scripts/auto_43.bee,-0.000000,-0.410666,0.000000,0.590332,TRUE,FALSE,TRUE,FALSE,FALSE,FALSE,Disabled,0.000000,-1.793750,-1.646250,TRUE,-3.735229,-20.721207,0.000000,0.031921,-0.016129,0.000000,0.023000,-0.051000,-0.039000,0.030000,1.140000,1.560000,0.177416,Hold,0.000488,0.000000,Hold,-211.000000,2.000000,LowGoal,1387.500000,2909.090909,Speed,1402.500000,2909.090909,Speed,Off,Off,0.000000,FALSE,44,Read: /home/lvuser/scripts/auto_44.bee,File good!,DRIVE_STRAIGHT_NAVX 200 5000,DRIVE_STRAIGHT_NAVX
08:29:57.713 PM 03/22/2016,Autonomous Enabled,10,TRUE,7,Read from Text File in DoesScriptNumberContainNull.vi->Disabled.vi->Robot Main.vi<APPEND> /home/lvuser/scripts/auto_43.bee,-0.000000,-1.912162,0.000000,2.329245,TRUE,FALSE,TRUE,FALSE,FALSE,FALSE,Disabled,0.000000,-1.793750,-1.646250,TRUE,-3.717331,-20.723465,0.000000,0.439728,-0.062958,0.000000,1.500000,0.008000,-0.395000,0.030000,1.140000,1.560000,-0.066885,Hold,0.000488,0.000000,Hold,-215.000000,2.000000,LowGoal,1245.000000,2909.090909,Speed,1252.500000,2909.090909,Speed,Off,Off,0.000000,FALSE,44,Read: /home/lvuser/scripts/auto_44.bee,File good!,DRIVE_STRAIGHT_NAVX 200 5000,DRIVE_STRAIGHT_NAVX
08:29:57.813 PM 03/22/2016,Autonomous Enabled,10,TRUE,7,Read from Text File in DoesScriptNumberContainNull.vi->Disabled.vi->Robot Main.vi<APPEND> /home/lvuser/scripts/auto_43.bee,-0.000000,-4.138740,0.000000,4.696989,FALSE,FALSE,TRUE,FALSE,FALSE,FALSE,Disabled,0.000000,-1.793750,-1.646250,TRUE,-3.690338,-20.727783,0.000000,0.622055,-0.077728,0.000000,0.058000,-0.082000,-0.087000,-0.390000,3.570000,1.360000,-0.274451,Hold,0.000488,0.000000,Hold,-331.000000,2.000000,LowGoal,157.500000,2909.090909,Speed,165.000000,2909.090909,Speed,Off,Off,0.000000,FALSE,44,Read: /home/lvuser/scripts/auto_44.bee,File good!,DRIVE_STRAIGHT_NAVX 200 5000,DRIVE_STRAIGHT_NAVX
08:29:57.914 PM 03/22/2016,Autonomous Enabled,10,TRUE,7,Read from Text File in DoesScriptNumberContainNull.vi->Disabled.vi->Robot Main.vi<APPEND> /home/lvuser/scripts/auto_43.bee,-0.000000,-7.250816,0.000000,7.943815,TRUE,FALSE,TRUE,FALSE,FALSE,FALSE,Disabled,0.000000,-1.793750,-1.646250,TRUE,-3.690338,-20.727783,0.000000,0.622055,-0.077728,0.000000,0.258000,-0.024000,-0.070000,-0.750000,2.140000,1.320000,-0.408057,Hold,0.000488,0.000000,Hold,-320.000000,2.000000,LowGoal,-637.500000,2909.090909,Speed,-825.000000,2909.090909,Speed,Off,Off,0.000000,FALSE,44,Read: /home/lvuser/scripts/auto_44.bee,File good!,DRIVE_STRAIGHT_NAVX 200 5000,DRIVE_STRAIGHT_NAVX
08:29:58.014 PM 03/22/2016,Autonomous Enabled,10,TRUE,7,Read from Text File in DoesScriptNumberContainNull.vi->Disabled.vi->Robot Main.vi<APPEND> /home/lvuser/scripts/auto_43.bee,-0.000000,-10.548975,0.000000,11.261224,FALSE,FALSE,TRUE,FALSE,FALSE,FALSE,Disabled,0.000000,-1.793750,-1.646250,TRUE,-3.614990,-20.732254,0.000000,0.687775,-0.030746,0.000000,0.048000,0.006000,0.021000,-1.050000,3.480000,1.320000,-0.571688,Hold,0.000488,0.000000,Hold,-310.000000,2.000000,LowGoal,-1387.500000,2909.090909,Speed,-1590.000000,2909.090909,Speed,Off,Off,0.000000,FALSE,44,Read: /home/lvuser/scripts/auto_44.bee,File good!,DRIVE_STRAIGHT_NAVX 200 5000,DRIVE_STRAIGHT_NAVX
08:29:58.115 PM 03/22/2016,Autonomous Enabled,10,FALSE,0,NO ERROR,-0.000000,-14.052467,0.000000,14.783965,FALSE,FALSE,TRUE,FALSE,FALSE,FALSE,Disabled,0.000000,-1.793750,-1.646250,TRUE,-3.579514,-20.733566,0.000000,0.722504,-0.046738,0.000000,0.064000,-0.148000,0.086000,-1.290000,3.020000,1.390000,-0.550692,Hold,0.000488,0.000000,Hold,-295.000000,2.000000,LowGoal,-1965.000000,2909.090909,Speed,-2197.500000,2909.090909,Speed,Off,Off,0.000000,FALSE,44,Read: /home/lvuser/scripts/auto_44.bee,File good!,DRIVE_STRAIGHT_NAVX 200 5000,DRIVE_STRAIGHT_NAVX
08:29:58.215 PM 03/22/2016,Autonomous Enabled,10,FALSE,0,NO ERROR,-0.000000,-17.793375,0.000000,18.293874,FALSE,FALSE,TRUE,FALSE,FALSE,FALSE,Disabled,0.000000,-1.793750,-1.646250,TRUE,-3.579514,-20.733566,0.000000,0.722504,-0.046738,0.000000,0.076000,0.084000,0.013000,-1.350000,3.040000,1.440000,-0.097059,Hold,0.000488,0.000000,Hold,-295.000000,2.000000,LowGoal,-2437.500000,2909.090909,Speed,-2692.500000,2909.090909,Speed,Off,Off,0.000000,FALSE,44,Read: /home/lvuser/scripts/auto_44.bee,File good!,DRIVE_STRAIGHT_NAVX 200 5000,DRIVE_STRAIGHT_NAVX
08:29:58.315 PM 03/22/2016,Autonomous Enabled,11,FALSE,0,NO ERROR,-0.000000,-21.701116,0.000000,22.028365,TRUE,FALSE,TRUE,FALSE,FALSE,FALSE,Disabled,0.000000,-1.793750,-1.646250,TRUE,-3.507507,-20.739319,0.000000,0.744873,-0.076431,0.000000,0.148000,-0.221000,0.133000,-0.970000,2.730000,1.480000,0.416498,Hold,0.000488,0.000000,Hold,-287.000000,2.000000,LowGoal,-2827.500000,2909.090909,Speed,-2962.500000,2909.090909,Speed,Off,Off,0.000000,FALSE,44,Read: /home/lvuser/scripts/auto_44.bee,File good!,DRIVE_STRAIGHT_NAVX 200 5000,DRIVE_STRAIGHT_NAVX
08:29:58.416 PM 03/22/2016,Autonomous Enabled,12,FALSE,0,NO ERROR,-0.000000,-25.993856,0.000000,26.122189,FALSE,FALSE,TRUE,FALSE,FALSE,FALSE,Disabled,0.000000,-1.793750,-1.646250,TRUE,-3.507507,-20.739319,0.000000,0.744873,-0.076431,0.000000,-0.054000,0.033000,-0.179000,-0.650000,3.090000,1.530000,0.760964,Hold,0.000488,0.000000,Hold,-254.000000,2.000000,LowGoal,-2985.000000,2909.090909,Speed,-2985.000000,2909.090909,Speed,Off,Off,0.000000,FALSE,44,Read: /home/lvuser/scripts/auto_44.bee,File good!,DRIVE_STRAIGHT_NAVX 200 5000,DRIVE_STRAIGHT_NAVX
08:29:58.516 PM 03/22/2016,Autonomous Enabled,11,FALSE,0,NO ERROR,-0.000000,-30.196763,0.000000,30.312262,FALSE,FALSE,TRUE,FALSE,FALSE,FALSE,Disabled,0.000000,-1.793750,-1.646250,TRUE,-3.431046,-20.755569,0.000000,0.766418,-0.217941,0.000000,-0.024000,-0.149000,-0.146000,-0.490000,3.100000,1.360000,1.017469,Hold,0.000488,0.000000,Hold,-252.000000,2.000000,LowGoal,-2902.500000,2909.090909,Speed,-2887.500000,2909.090909,Speed,Off,Off,0.000000,FALSE,44,Read: /home/lvuser/scripts/auto_44.bee,File good!,DRIVE_STRAIGHT_NAVX 200 5000,DRIVE_STRAIGHT_NAVX
08:29:58.618 PM 03/22/2016,Autonomous Enabled,11,FALSE,0,NO ERROR,-0.000000,-34.662752,0.000000,34.624252,TRUE,FALSE,TRUE,FALSE,FALSE,FALSE,Disabled,0.000000,-1.793750,-1.646250,TRUE,-3.395218,-20.764130,0.000000,0.676086,-0.132401,0.000000,0.045000,-0.090000,0.146000,-0.370000,2.890000,1.410000,1.333034,Hold,0.000488,0.000000,Hold,-248.000000,2.000000,LowGoal,-2820.000000,2909.090909,Speed,-2880.000000,2909.090909,Speed,Off,Off,0.000000,FALSE,44,Read: /home/lvuser/scripts/auto_44.bee,File good!,DRIVE_STRAIGHT_NAVX 200 5000,DRIVE_STRAIGHT_NAVX
08:29:58.719 PM 03/22/2016,Autonomous Enabled,9,FALSE,0,NO ERROR,-0.000000,-38.955492,0.000000,38.929826,TRUE,FALSE,TRUE,FALSE,FALSE,FALSE,Disabled,0.000000,-1.793750,-1.646250,TRUE,-3.395218,-20.764130,0.000000,0.676086,-0.132401,0.000000,-0.014000,-0.070000,0.112000,-0.160000,2.540000,1.390000,1.583542,Hold,0.000488,0.000000,Hold,-245.000000,2.000000,LowGoal,-2857.500000,2909.090909,Speed,-2887.500000,2909.090909,Speed,Off,Off,0.000000,FALSE,44,Read: /home/lvuser/scripts/auto_44.bee,File good!,DRIVE_STRAIGHT_NAVX 200 5000,DRIVE_STRAIGHT_NAVX
08:29:58.820 PM 03/22/2016,Autonomous Enabled,9,FALSE,0,NO ERROR,-0.000000,-43.325232,0.000000,43.254649,TRUE,FALSE,TRUE,FALSE,FALSE,FALSE,Disabled,0.000000,-1.793750,-1.646250,TRUE,-3.363541,-20.770157,0.000000,0.607620,-0.117920,0.000000,-0.072000,-0.019000,-0.263000,-0.050000,2.590000,1.510000,1.608635,Hold,0.000488,0.000000,Hold,-243.000000,2.000000,LowGoal,-2880.000000,2909.090909,Speed,-2872.500000,2909.090909,Speed,Off,Off,0.000000,FALSE,44,Read: /home/lvuser/scripts/auto_44.bee,File good!,DRIVE_STRAIGHT_NAVX 200 5000,DRIVE_STRAIGHT_NAVX
08:29:58.921 PM 03/22/2016,Autonomous Enabled,9,FALSE,0,NO ERROR,-0.000000,-47.277889,0.000000,47.309973,FALSE,FALSE,TRUE,FALSE,FALSE,FALSE,Disabled,0.000000,-1.793750,-1.646250,TRUE,-3.336197,-20.776733,0.000000,0.497406,-0.131607,0.000000,0.171000,-0.234000,-0.260000,-0.160000,5.650000,1.620000,1.612704,Hold,0.000488,0.000000,Hold,-243.000000,2.000000,LowGoal,-2872.500000,2909.090909,Speed,-2857.500000,2909.090909,Speed,Off,Off,0.000000,FALSE,44,Read: /home/lvuser/scripts/auto_44.bee,File good!,DRIVE_STRAIGHT_NAVX 200 5000,DRIVE_STRAIGHT_NAVX
08:29:59.022 PM 03/22/2016,Autonomous Enabled,9,FALSE,0,NO ERROR,-0.000000,-51.192047,0.000000,51.172797,FALSE,FALSE,TRUE,FALSE,FALSE,FALSE,Disabled,0.000000,-1.793750,-1.646250,TRUE,-3.305786,-20.786041,0.000000,0.467926,-0.173798,0.000000,-0.062000,-0.149000,-0.094000,-0.230000,7.410000,1.360000,1.695112,Hold,0.000488,0.000000,Hold,-239.000000,2.000000,LowGoal,-2865.000000,2909.090909,Speed,-2872.500000,2909.090909,Speed,Off,Off,0.000000,FALSE,44,Read: /home/lvuser/scripts/auto_44.bee,File good!,DRIVE_STRAIGHT_NAVX 200 5000,DRIVE_STRAIGHT_NAVX
08:29:59.124 PM 03/22/2016,Autonomous Enabled,9,FALSE,0,NO ERROR,-0.000000,-55.003538,0.000000,55.048455,FALSE,FALSE,TRUE,FALSE,FALSE,FALSE,Disabled,0.000000,-1.793750,-1.646250,TRUE,-3.282562,-20.794907,0.000000,0.456482,-0.162659,0.000000,-0.133000,-0.026000,0.055000,-0.220000,9.480000,1.290000,1.721262,Hold,0.000488,0.000000,Hold,-239.000000,2.000000,LowGoal,-2865.000000,2909.090909,Speed,-2887.500000,2909.090909,Speed,Off,Off,0.000000,FALSE,44,Read: /home/lvuser/scripts/auto_44.bee,File good!,DRIVE_STRAIGHT_NAVX 200 5000,DRIVE_STRAIGHT_NAVX
08:29:59.225 PM 03/22/2016,Autonomous Enabled,9,FALSE,0,NO ERROR,-0.000000,-59.007529,0.000000,58.975445,FALSE,FALSE,TRUE,FALSE,FALSE,FALSE,Disabled,0.000000,-1.793750,-1.646250,TRUE,-3.262100,-20.801819,0.000000,0.394363,-0.122101,0.000000,0.069000,-0.116000,0.356000,-0.340000,9.760000,1.580000,2.149130,Hold,0.000488,0.000000,Hold,-239.000000,2.000000,LowGoal,-2865.000000,2909.090909,Speed,-2880.000000,2909.090909,Speed,Off,Off,0.000000,FALSE,44,Read: /home/lvuser/scripts/auto_44.bee,File good!,DRIVE_STRAIGHT_NAVX 200 5000,DRIVE_STRAIGHT_NAVX
08:29:59.328 PM 03/22/2016,Autonomous Enabled,10,FALSE,0,NO ERROR,-0.000000,-62.825436,0.000000,62.844686,FALSE,FALSE,TRUE,FALSE,FALSE,FALSE,Disabled,0.000000,-1.793750,-1.646250,TRUE,-3.249298,-20.802597,0.000000,0.161514,0.076660,0.000000,0.157000,-0.145000,-0.300000,0.490000,11.600000,1.770000,3.702027,Hold,0.000488,0.000000,Hold,-239.000000,2.000000,LowGoal,-2865.000000,2909.090909,Speed,-2880.000000,2909.090909,Speed,Off,Off,0.000000,FALSE,44,Read: /home/lvuser/scripts/auto_44.bee,File good!,DRIVE_STRAIGHT_NAVX 200 5000,DRIVE_STRAIGHT_NAVX
08:29:59.430 PM 03/22/2016,Autonomous Enabled,10,FALSE,0,NO ERROR,-0.000000,-65.899013,0.000000,66.367428,FALSE,FALSE,TRUE,FALSE,FALSE,FALSE,Disabled,0.000000,-1.793750,-1.646250,TRUE,-3.240585,-20.803223,0.000000,0.106857,-0.184021,0.000000,-0.331000,-0.429000,0.977000,1.320000,16.040000,1.570000,3.597002,Hold,0.000977,0.000000,Hold,-243.000000,2.000000,LowGoal,-2872.500000,2909.090909,Speed,-2880.000000,2909.090909,Speed,Off,Off,0.000000,FALSE,44,Read: /home/lvuser/scripts/auto_44.bee,File good!,DRIVE_STRAIGHT_NAVX 200 5000,DRIVE_STRAIGHT_NAVX
08:29:59.530 PM 03/22/2016,Autonomous Enabled,10,FALSE,0,NO ERROR,-0.000000,-65.899013,0.000000,66.367428,FALSE,FALSE,TRUE,FALSE,FALSE,FALSE,Disabled,0.000000,-1.793750,-1.646250,TRUE,-3.233398,-20.813644,0.000000,0.206406,-0.222290,0.000000,0.936000,-0.328000,-0.118000,1.100000,13.800000,1.780000,3.597002,Hold,0.124756,0.000000,Hold,-230.000000,2.000000,LowGoal,-2850.000000,2909.090909,Speed,-2865.000000,2909.090909,Speed,Off,Off,0.000000,FALSE,44,Read: /home/lvuser/scripts/auto_44.bee,File good!,DRIVE_STRAIGHT_NAVX 200 5000,DRIVE_STRAIGHT_NAVX
08:29:59.631 PM 03/22/2016,Autonomous Enabled,12,FALSE,0,NO ERROR,-0.000000,-68.908422,0.000000,69.627087,FALSE,FALSE,TRUE,FALSE,FALSE,FALSE,Disabled,0.000000,-1.793750,-1.646250,TRUE,-3.214828,-20.820312,0.000000,0.356262,-0.038055,0.000000,0.607000,-0.275000,-1.677000,0.370000,12.110000,0.520000,2.951849,Hold,0.139404,0.000000,Hold,-240.000000,2.000000,LowGoal,-2850.000000,2909.090909,Speed,-2865.000000,2909.090909,Speed,Off,Off,0.000000,FALSE,44,Read: /home/lvuser/scripts/auto_44.bee,File good!,DRIVE_STRAIGHT_NAVX 200 5000,DRIVE_STRAIGHT_NAVX
08:29:59.733 PM 03/22/2016,Autonomous Enabled,10,FALSE,0,NO ERROR,-0.000000,-71.994832,0.000000,72.957329,FALSE,FALSE,TRUE,FALSE,FALSE,FALSE,Disabled,0.000000,-1.793750,-1.646250,TRUE,-3.193512,-20.824234,0.000000,0.415115,-0.046707,0.000000,-0.063000,0.033000,-0.450000,0.070000,8.930000,0.090000,2.683567,Hold,0.139404,0.000000,Hold,-240.000000,2.000000,LowGoal,-2850.000000,2909.090909,Speed,-2887.500000,2909.090909,Speed,Off,Off,0.000000,FALSE,44,Read: /home/lvuser/scripts/auto_44.bee,File good!,DRIVE_STRAIGHT_NAVX 200 5000,DRIVE_STRAIGHT_NAVX
08:29:59.834 PM 03/22/2016,Autonomous Enabled,10,FALSE,0,NO ERROR,-0.000000,-78.372983,0.000000,80.028480,FALSE,FALSE,TRUE,FALSE,FALSE,FALSE,Disabled,0.000000,-1.793750,-1.646250,TRUE,-3.170197,-20.823807,0.000000,0.487335,0.064484,0.000000,-0.004000,-0.670000,0.043000,0.100000,8.430000,-0.550000,2.353705,Hold,0.139648,0.000000,Hold,-235.000000,2.000000,LowGoal,-2850.000000,2909.090909,Speed,-2910.000000,2909.090909,Speed,Off,Off,0.000000,FALSE,44,Read: /home/lvuser/scripts/auto_44.bee,File good!,DRIVE_STRAIGHT_NAVX 200 5000,DRIVE_STRAIGHT_NAVX
08:29:59.934 PM 03/22/2016,Autonomous Enabled,10,FALSE,0,NO ERROR,-0.000000,-78.372983,0.000000,80.028480,FALSE,FALSE,TRUE,FALSE,FALSE,FALSE,Disabled,0.000000,-1.793750,-1.646250,TRUE,-3.145782,-20.828003,0.000000,0.503418,-0.052307,0.000000,0.127000,0.637000,-0.677000,0.750000,6.300000,-2.520000,2.714915,Hold,0.139648,0.000000,Hold,-234.000000,2.000000,LowGoal,-2857.500000,2909.090909,Speed,-2902.500000,2909.090909,Speed,Off,Off,0.000000,FALSE,44,Read: /home/lvuser/scripts/auto_44.bee,File good!,DRIVE_STRAIGHT_NAVX 200 5000,DRIVE_STRAIGHT_NAVX
08:30:00.035 PM 03/22/2016,Autonomous Enabled,10,FALSE,0,NO ERROR,-0.000000,-81.985558,0.000000,83.981137,FALSE,FALSE,TRUE,FALSE,FALSE,FALSE,Disabled,0.000000,-1.793750,-1.646250,TRUE,-3.118500,-20.825012,0.000000,0.511261,0.053345,0.000000,-0.684000,-1.127000,0.985000,1.060000,5.260000,-1.880000,3.556527,Hold,0.139648,0.000000,Hold,-233.000000,2.000000,LowGoal,-2872.500000,2909.090909,Speed,-2895.000000,2909.090909,Speed,Off,Off,0.000000,FALSE,44,Read: /home/lvuser/scripts/auto_44.bee,File good!,DRIVE_STRAIGHT_NAVX 200 5000,DRIVE_STRAIGHT_NAVX
08:30:00.135 PM 03/22/2016,Autonomous Enabled,11,FALSE,0,NO ERROR,-0.000000,-84.930801,0.000000,87.606545,TRUE,FALSE,TRUE,FALSE,FALSE,FALSE,Disabled,0.000000,-1.793750,-1.646250,TRUE,-3.100098,-20.837570,0.000000,0.433456,-0.256104,0.000000,0.299000,0.336000,-0.408000,-0.330000,1.670000,-2.880000,1.931275,Hold,0.139648,0.000000,Hold,-233.000000,2.000000,LowGoal,-2865.000000,2909.090909,Speed,-2880.000000,2909.090909,Speed,Off,Off,0.000000,FALSE,44,Read: /home/lvuser/scripts/auto_44.bee,File good!,DRIVE_STRAIGHT_NAVX 200 5000,DRIVE_STRAIGHT_NAVX
08:30:00.236 PM 03/22/2016,Autonomous Enabled,10,FALSE,0,NO ERROR,-0.000000,-88.575460,0.000000,91.604119,FALSE,FALSE,TRUE,FALSE,FALSE,FALSE,Disabled,0.000000,-1.793750,-1.646250,TRUE,-3.073700,-20.844101,0.000000,0.535416,-0.122635,0.000000,0.107000,0.075000,0.995000,-1.580000,-3.850000,-1.810000,1.073803,Hold,0.139648,0.000000,Hold,-233.000000,2.000000,LowGoal,-2857.500000,2909.090909,Speed,-2857.500000,2909.090909,Speed,Off,Off,0.000000,FALSE,44,Read: /home/lvuser/scripts/auto_44.bee,File good!,DRIVE_STRAIGHT_NAVX 200 5000,DRIVE_STRAIGHT_NAVX
08:30:00.336 PM 03/22/2016,Autonomous Enabled,9,FALSE,0,NO ERROR,-0.000000,-91.963452,0.000000,95.319360,FALSE,FALSE,TRUE,FALSE,FALSE,FALSE,Disabled,0.000000,-1.793750,-1.646250,TRUE,-3.041428,-20.855957,0.000000,0.784485,-0.392410,0.000000,0.434000,0.039000,-0.244000,-1.890000,-14.290000,2.320000,0.337016,Hold,0.139648,0.000000,Hold,-233.000000,2.000000,LowGoal,-2857.500000,2909.090909,Speed,-2880.000000,2909.090909,Speed,Off,Off,0.000000,FALSE,44,Read: /home/lvuser/scripts/auto_44.bee,File good!,DRIVE_STRAIGHT_NAVX 200 5000,DRIVE_STRAIGHT_NAVX
08:30:00.436 PM 03/22/2016,Autonomous Enabled,12,FALSE,0,NO ERROR,-0.000000,-97.109606,0.000000,100.414182,FALSE,FALSE,TRUE,FALSE,FALSE,FALSE,Disabled,0.000000,-1.793750,-1.646250,TRUE,-2.995834,-20.872681,0.000000,0.604340,-0.176056,0.000000,-0.158000,-0.116000,-1.060000,-2.820000,-13.220000,1.590000,-0.136442,Hold,0.711914,0.000000,Hold,-233.000000,2.000000,LowGoal,-2887.500000,2909.090909,Speed,-2910.000000,2909.090909,Speed,Off,Off,0.000000,FALSE,44,Read: /home/lvuser/scripts/auto_44.bee,File good!,DRIVE_STRAIGHT_NAVX 200 5000,DRIVE_STRAIGHT_NAVX
08:30:00.537 PM 03/22/2016,Autonomous Enabled,10,FALSE,0,NO ERROR,-0.000000,-102.858926,0.000000,106.086502,FALSE,FALSE,TRUE,FALSE,FALSE,FALSE,Disabled,0.000000,-1.793750,-1.646250,TRUE,-2.973236,-20.882645,0.000000,0.515442,-0.227661,0.000000,-0.856000,0.000000,1.087000,-2.800000,-5.100000,2.410000,-0.281212,Hold,0.985596,0.000000,Hold,-233.000000,2.000000,LowGoal,-2902.500000,2909.090909,Speed,-2917.500000,2909.090909,Speed,Off,Off,0.000000,FALSE,44,Read: /home/lvuser/scripts/auto_44.bee,File good!,DRIVE_STRAIGHT_NAVX 200 5000,DRIVE_STRAIGHT_NAVX
08:30:00.638 PM 03/22/2016,Autonomous Enabled,10,FALSE,0,NO ERROR,-0.000000,-107.863914,0.000000,110.546075,FALSE,FALSE,TRUE,FALSE,FALSE,FALSE,Disabled,0.000000,-1.793750,-1.646250,TRUE,-2.952484,-20.891449,0.000000,0.430145,-0.139786,0.000000,0.004000,0.128000,-1.490000,-2.390000,-3.980000,1.470000,0.304463,Hold,0.970703,0.000000,Hold,-228.000000,2.000000,LowGoal,-2902.500000,2909.090909,Speed,-2917.500000,2909.090909,Speed,Off,Off,0.000000,FALSE,44,Read: /home/lvuser/scripts/auto_44.bee,File good!,DRIVE_STRAIGHT_NAVX 200 5000,DRIVE_STRAIGHT_NAVX
08:30:00.740 PM 03/22/2016,Autonomous Enabled,10,FALSE,0,NO ERROR,-0.000000,-112.939486,0.000000,115.140397,TRUE,FALSE,TRUE,FALSE,FALSE,FALSE,Disabled,0.000000,-1.793750,-1.646250,TRUE,-2.926926,-20.896210,0.000000,0.450500,-0.007065,0.000000,0.028000,-0.037000,-1.556000,-2.050000,-0.530000,2.210000,0.699153,Hold,1.089355,0.000000,Hold,-239.000000,2.000000,LowGoal,-2857.500000,2909.090909,Speed,-2917.500000,2909.090909,Speed,Off,Off,0.000000,FALSE,44,Read: /home/lvuser/scripts/auto_44.bee,File good!,DRIVE_STRAIGHT_NAVX 200 5000,DRIVE_STRAIGHT_NAVX
08:30:00.840 PM 03/22/2016,Autonomous Enabled,9,FALSE,0,NO ERROR,-0.000000,-117.957307,0.000000,119.818136,TRUE,FALSE,TRUE,FALSE,FALSE,FALSE,Disabled,0.000000,-1.793750,-1.646250,TRUE,-2.924118,-20.895187,0.000000,-0.130646,0.042419,0.000000,-0.151000,-0.345000,-0.394000,-1.140000,1.440000,1.940000,1.718112,Hold,1.050537,0.000000,Hold,-229.000000,2.000000,LowGoal,-2880.000000,2909.090909,Speed,-2902.500000,2909.090909,Speed,Off,Off,0.000000,FALSE,44,Read: /home/lvuser/scripts/auto_44.bee,File good!,SET_HEADING 0,SET_HEADING
08:30:00.940 PM 03/22/2016,Autonomous Enabled,10,FALSE,0,NO ERROR,-0.000000,-122.243631,0.000000,123.366545,TRUE,FALSE,TRUE,TRUE,FALSE,TRUE,Disabled,0.000000,-1.793750,-1.646250,TRUE,-2.932999,-20.896179,0.000000,-0.136871,-0.039200,0.000000,-1.550000,0.736000,1.031000,-0.680000,0.410000,1.840000,2.301811,Hold,1.050293,0.000000,Hold,-225.000000,73728.000000,LowGoal,-2880.000000,2909.090909,Speed,-2887.500000,2909.090909,Speed,Off,Off,0.000000,FALSE,44,Read: /home/lvuser/scripts/auto_44.bee,File good!,SEARCH_FOR_GOAL,SEARCH_FOR_GOAL
08:30:01.041 PM 03/22/2016,Autonomous Enabled,7,FALSE,0,NO ERROR,-0.000000,-124.566459,0.000000,124.399626,FALSE,FALSE,TRUE,TRUE,FALSE,TRUE,Disabled,0.000000,-1.793750,-1.646250,TRUE,-3.001389,-20.879410,0.000000,-1.121124,0.068207,0.000000,-1.550000,0.736000,1.031000,5.530000,-4.300000,1.630000,6.555082,Hold,1.047852,51.000000,Hold,-225.000000,73728.000000,LowGoal,-2880.000000,-3272.727273,Speed,-2887.500000,-3272.727273,Speed,Off,Off,0.000000,FALSE,44,Read: /home/lvuser/scripts/auto_44.bee,File good!,SEARCH_FOR_GOAL,SEARCH_FOR_GOAL
08:30:01.141 PM 03/22/2016,Autonomous Enabled,10,FALSE,0,NO ERROR,-0.000000,-125.702206,0.000000,124.989958,FALSE,FALSE,TRUE,TRUE,FALSE,TRUE,Disabled,0.000000,-1.793750,-1.646250,TRUE,-3.024109,-20.882446,0.000000,-1.134567,-0.205917,0.000000,-0.153000,-0.204000,0.196000,5.850000,-3.150000,0.790000,9.115832,Hold,2.367188,51.000000,Hold,-225.000000,73728.000000,LowGoal,-2752.500000,-3272.727273,Speed,-2760.000000,-3272.727273,Speed,Off,Off,0.000000,FALSE,44,Read: /home/lvuser/scripts/auto_44.bee,File good!,SEARCH_FOR_GOAL,SEARCH_FOR_GOAL
08:30:01.242 PM 03/22/2016,Autonomous Enabled,9,FALSE,0,NO ERROR,-0.000000,-125.804872,0.000000,124.880875,FALSE,FALSE,TRUE,TRUE,FALSE,TRUE,Disabled,0.000000,-1.793750,-1.646250,TRUE,-3.069778,-20.886734,0.000000,-1.126938,0.008621,0.000000,0.139000,0.032000,-0.159000,7.100000,-3.740000,1.920000,10.351628,Hold,3.215088,51.000000,Hold,-11433.000000,73728.000000,LowGoal,-1545.000000,-3272.727273,Speed,-1470.000000,-3272.727273,Speed,Off,Off,0.000000,FALSE,44,Read: /home/lvuser/scripts/auto_44.bee,File good!,SEARCH_FOR_GOAL,SEARCH_FOR_GOAL
08:30:01.342 PM 03/22/2016,Autonomous Enabled,10,FALSE,0,NO ERROR,-0.000000,-125.804872,0.000000,124.803875,FALSE,FALSE,TRUE,TRUE,FALSE,TRUE,Disabled,0.000000,-1.793750,-1.646250,TRUE,-3.123367,-20.887711,0.000000,-1.066315,-0.085220,0.000000,-0.020000,-0.114000,0.035000,7.140000,-3.380000,1.210000,10.877072,Hold,4.646729,51.000000,Hold,-22723.000000,73728.000000,LowGoal,-142.500000,-3272.727273,Speed,-60.000000,-3272.727273,Speed,Off,Off,0.000000,FALSE,44,Read: /home/lvuser/scripts/auto_44.bee,File good!,SEARCH_FOR_GOAL,SEARCH_FOR_GOAL
08:30:01.442 PM 03/22/2016,Autonomous Enabled,8,FALSE,0,NO ERROR,-0.000000,-125.804872,0.000000,124.765375,FALSE,FALSE,TRUE,TRUE,FALSE,TRUE,Disabled,0.000000,-1.793750,-1.646250,TRUE,-3.175507,-20.891449,0.000000,-1.012009,-0.018707,0.000000,0.025000,-0.123000,-0.090000,7.030000,-3.250000,1.550000,10.847979,Hold,6.716797,51.000000,Hold,-32455.000000,73728.000000,LowGoal,817.500000,-3272.727273,Speed,735.000000,-3272.727273,Speed,Off,Off,0.000000,FALSE,44,Read: /home/lvuser/scripts/auto_44.bee,File good!,SEARCH_FOR_GOAL,SEARCH_FOR_GOAL
08:30:01.543 PM 03/22/2016,Autonomous Enabled,10,FALSE,0,NO ERROR,-0.000000,-125.759956,0.000000,124.752542,TRUE,FALSE,TRUE,TRUE,FALSE,TRUE,Disabled,0.000000,-1.793750,-1.646250,TRUE,-3.224548,-20.895035,0.000000,-0.942978,-0.088989,0.000000,0.091000,0.051000,0.190000,6.850000,-2.920000,1.370000,10.847769,Hold,8.322754,51.000000,Hold,-41563.000000,73728.000000,LowGoal,1537.500000,-3272.727273,Speed,1507.500000,-3272.727273,Speed,Off,Off,0.000000,FALSE,44,Read: /home/lvuser/scripts/auto_44.bee,File good!,SEARCH_FOR_GOAL,SEARCH_FOR_GOAL
08:30:01.644 PM 03/22/2016,Autonomous Enabled,11,FALSE,0,NO ERROR,-0.000000,-125.759956,0.000000,124.752542,TRUE,FALSE,TRUE,TRUE,FALSE,TRUE,Disabled,0.000000,-1.793750,-1.646250,TRUE,-3.278763,-20.902054,0.000000,-0.883987,-0.154953,0.000000,0.128000,-0.080000,0.173000,6.860000,-2.610000,1.310000,10.990360,Hold,11.026611,51.000000,Hold,-52544.000000,73728.000000,LowGoal,2100.000000,-3272.727273,Speed,2115.000000,-3272.727273,Speed,Off,Off,0.000000,FALSE,44,Read: /home/lvuser/scripts/auto_44.bee,File good!,SEARCH_FOR_GOAL,SEARCH_FOR_GOAL
08:30:01.745 PM 03/22/2016,Autonomous Enabled,8,FALSE,0,NO ERROR,-0.000000,-125.759956,0.000000,124.752542,TRUE,FALSE,TRUE,TRUE,FALSE,TRUE,Disabled,0.000000,-1.793750,-1.646250,TRUE,-3.319199,-20.910141,0.000000,-0.766281,-0.149368,0.000000,0.184000,-0.087000,0.091000,6.870000,-2.390000,1.390000,11.125511,Hold,13.602783,51.000000,Hold,-52544.000000,73728.000000,LowGoal,2572.500000,-3272.727273,Speed,2617.500000,-3272.727273,Speed,Off,Off,0.000000,FALSE,44,Read: /home/lvuser/scripts/auto_44.bee,File good!,SEARCH_FOR_GOAL,SEARCH_FOR_GOAL
08:30:01.846 PM 03/22/2016,Autonomous Enabled,9,FALSE,0,NO ERROR,-0.000000,-125.759956,0.000000,124.752542,TRUE,FALSE,TRUE,TRUE,FALSE,TRUE,Disabled,0.000000,-1.793750,-1.646250,TRUE,-3.356293,-20.917679,0.000000,-0.727829,-0.149521,0.000000,0.095000,0.161000,0.129000,6.850000,-2.010000,1.430000,11.228234,Hold,18.350586,51.000000,Hold,-64360.000000,73728.000000,LowGoal,2887.500000,-3272.727273,Speed,3030.000000,-3272.727273,Speed,Off,Off,0.000000,FALSE,44,Read: /home/lvuser/scripts/auto_44.bee,File good!,SEARCH_FOR_GOAL,SEARCH_FOR_GOAL
08:30:01.948 PM 03/22/2016,Autonomous Enabled,11,FALSE,0,NO ERROR,-0.000000,-125.759956,0.000000,124.752542,TRUE,FALSE,TRUE,TRUE,FALSE,TRUE,Disabled,0.000000,-1.793750,-1.646250,TRUE,-3.387466,-20.922531,0.000000,-0.537476,-0.067062,0.000000,0.171000,0.083000,-0.144000,6.870000,-2.400000,1.400000,11.438860,Hold,21.847168,51.000000,Hold,-75113.000000,73728.000000,LowGoal,3202.500000,-3272.727273,Speed,3315.000000,-3272.727273,Speed,Off,Off,0.000000,FALSE,44,Read: /home/lvuser/scripts/auto_44.bee,File good!,SEARCH_FOR_GOAL,SEARCH_FOR_GOAL
08:30:02.047 PM 03/22/2016,Autonomous Enabled,11,FALSE,0,NO ERROR,-0.000000,-125.920372,0.000000,124.900125,TRUE,FALSE,TRUE,TRUE,FALSE,TRUE,Disabled,0.000000,-1.793750,-1.646250,TRUE,-3.416489,-20.924347,0.000000,-0.637543,-0.018051,0.000000,-0.118000,0.150000,0.462000,6.680000,-1.750000,1.330000,11.271224,Hold,28.049072,51.000000,Hold,-73809.000000,73728.000000,LowGoal,3345.000000,-3272.727273,Speed,3345.000000,-3272.727273,Speed,Off,Off,0.000000,FALSE,44,Read: /home/lvuser/scripts/auto_44.bee,File good!,SEARCH_FOR_GOAL,SEARCH_FOR_GOAL
08:30:02.148 PM 03/22/2016,Autonomous Enabled,9,FALSE,0,NO ERROR,-0.000000,-125.888289,0.000000,124.842375,TRUE,FALSE,TRUE,TRUE,FALSE,TRUE,Disabled,0.000000,-1.793750,-1.646250,TRUE,-3.448166,-20.924301,0.000000,-0.631638,-0.005859,0.000000,0.128000,-0.052000,-0.132000,6.670000,-1.840000,1.430000,11.471994,Hold,35.345703,51.000000,Hold,-73745.000000,73728.000000,LowGoal,3292.500000,-3272.727273,Speed,3277.500000,-3272.727273,Speed,Off,Off,0.000000,FALSE,44,Read: /home/lvuser/scripts/auto_44.bee,File good!,SEARCH_FOR_GOAL,SEARCH_FOR_GOAL
08:30:02.248 PM 03/22/2016,Autonomous Enabled,11,FALSE,0,NO ERROR,-0.000000,-125.888289,0.000000,124.791042,TRUE,FALSE,TRUE,TRUE,FALSE,TRUE,Disabled,0.000000,-1.793750,-1.646250,TRUE,-3.475815,-20.925064,0.000000,-0.478958,-0.019608,0.000000,0.136000,-0.045000,0.144000,6.680000,-1.920000,1.450000,11.619739,Hold,45.318848,51.000000,Hold,-73846.000000,73728.000000,LowGoal,3247.500000,-3272.727273,Speed,3270.000000,-3272.727273,Speed,Off,Off,0.000000,FALSE,44,Read: /home/lvuser/scripts/auto_44.bee,File good!,SEARCH_FOR_GOAL,SEARCH_FOR_GOAL
08:30:02.348 PM 03/22/2016,Autonomous Enabled,11,FALSE,0,NO ERROR,-0.000000,-125.901122,0.000000,124.803875,TRUE,FALSE,TRUE,TRUE,FALSE,TRUE,Enable,-0.262500,10.762500,-4.122500,TRUE,-3.489395,-20.925095,0.000000,-0.013138,0.024872,0.000000,-0.115000,0.086000,-0.037000,6.660000,-1.460000,1.430000,11.765039,Hold,53.657471,51.000000,Hold,-73780.000000,73728.000000,LowGoal,3262.500000,-3272.727273,Speed,3285.000000,-3272.727273,Speed,Off,Off,0.000000,FALSE,44,Read: /home/lvuser/scripts/auto_44.bee,File good!,SEARCH_FOR_GOAL,SEARCH_FOR_GOAL
08:30:02.448 PM 03/22/2016,Autonomous Enabled,10,FALSE,0,NO ERROR,-0.000000,-125.907539,0.000000,124.810291,TRUE,FALSE,TRUE,TRUE,FALSE,TRUE,PID,-0.262500,10.762500,-4.122500,TRUE,-3.489899,-20.922882,0.000000,0.004166,0.069962,0.000000,0.050000,-0.023000,-0.124000,6.700000,-1.980000,1.470000,11.902624,Hold,55.816162,51.000000,Hold,-73780.000000,73728.000000,LowGoal,3285.000000,-3272.727273,Speed,3292.500000,-3272.727273,Speed,Off,Off,0.000000,FALSE,44,Read: /home/lvuser/scripts/auto_44.bee,File good!,SEARCH_FOR_GOAL,SEARCH_FOR_GOAL
08:30:02.549 PM 03/22/2016,Autonomous Enabled,11,FALSE,0,NO ERROR,-0.000000,-125.708623,0.000000,125.188874,TRUE,FALSE,TRUE,TRUE,FALSE,TRUE,PID,-0.262500,10.762500,-4.122500,TRUE,-3.487976,-20.919113,0.000000,0.005447,0.049789,0.000000,-0.353000,-0.165000,0.188000,6.660000,-1.440000,1.440000,12.070008,Hold,55.816162,51.000000,Hold,-73828.000000,73728.000000,LowGoal,3277.500000,-3272.727273,Speed,3277.500000,-3272.727273,Speed,Off,Off,0.000000,FALSE,44,Read: /home/lvuser/scripts/auto_44.bee,File good!,SEARCH_FOR_GOAL,SEARCH_FOR_GOAL
08:30:02.649 PM 03/22/2016,Autonomous Enabled,10,FALSE,0,NO ERROR,-0.000000,-124.868041,0.000000,125.990955,TRUE,FALSE,TRUE,TRUE,FALSE,TRUE,PID,-0.262500,10.762500,-4.122500,TRUE,-3.488663,-20.918762,0.000000,-0.002731,0.003983,0.000000,-0.016000,-0.140000,0.069000,3.260000,-1.520000,1.110000,9.242253,Hold,55.816162,51.000000,Hold,-73799.000000,73728.000000,LowGoal,3262.500000,-3272.727273,Speed,3255.000000,-3272.727273,Speed,Off,Off,0.000000,FALSE,44,Read: /home/lvuser/scripts/auto_44.bee,File good!,SEARCH_FOR_GOAL,SEARCH_FOR_GOAL
08:30:02.750 PM 03/22/2016,Autonomous Enabled,11,FALSE,0,NO ERROR,-0.000000,-123.873460,0.000000,127.011203,TRUE,FALSE,TRUE,TRUE,FALSE,TRUE,PID,-0.262500,10.762500,-4.122500,TRUE,-3.486786,-20.920670,0.000000,0.097733,-0.002609,0.000000,0.158000,0.270000,-0.078000,-1.020000,-1.390000,1.040000,4.088286,Hold,55.816162,51.000000,Hold,-73799.000000,73728.000000,LowGoal,3247.500000,-3272.727273,Speed,3247.500000,-3272.727273,Speed,Off,Off,0.000000,FALSE,44,Read: /home/lvuser/scripts/auto_44.bee,File good!,SEARCH_FOR_GOAL,SEARCH_FOR_GOAL
08:30:02.850 PM 03/22/2016,Autonomous Enabled,10,FALSE,0,NO ERROR,-0.000000,-123.174045,0.000000,127.826118,TRUE,FALSE,TRUE,TRUE,FALSE,TRUE,PID,-0.262500,10.762500,-4.122500,TRUE,-3.479858,-20.914749,0.000000,0.136307,0.181534,0.000000,0.035000,0.139000,0.128000,-4.200000,-0.850000,1.730000,0.962009,Hold,55.816162,51.000000,Hold,-73813.000000,73728.000000,LowGoal,3255.000000,-3272.727273,Speed,3262.500000,-3272.727273,Speed,Off,Off,0.000000,FALSE,44,Read: /home/lvuser/scripts/auto_44.bee,File good!,SEARCH_FOR_GOAL,SEARCH_FOR_GOAL
08:30:02.950 PM 03/22/2016,Autonomous Enabled,9,FALSE,0,NO ERROR,-0.000000,-123.007212,0.000000,127.877451,TRUE,FALSE,TRUE,TRUE,FALSE,TRUE,PID,-0.262500,10.762500,-4.122500,TRUE,-3.476501,-20.907394,0.000000,0.032791,0.138275,0.000000,0.009000,0.397000,-0.011000,-6.240000,-0.970000,1.370000,-0.911775,Hold,55.816162,51.000000,Hold,-73811.000000,73728.000000,LowGoal,3262.500000,-3272.727273,Speed,3270.000000,-3272.727273,Speed,Off,Off,0.000000,FALSE,44,Read: /home/lvuser/scripts/auto_44.bee,File good!,SEARCH_FOR_GOAL,SEARCH_FOR_GOAL
08:30:03.050 PM 03/22/2016,Autonomous Enabled,11,FALSE,0,NO ERROR,-0.000000,-123.526961,0.000000,127.370535,TRUE,FALSE,TRUE,TRUE,FALSE,TRUE,PID,-0.262500,10.762500,-4.122500,TRUE,-3.472733,-20.890579,0.000000,0.087143,0.418152,0.000000,-0.081000,-0.018000,0.113000,-4.710000,-0.560000,2.330000,1.039763,Hold,55.816162,51.000000,Hold,-73811.000000,73728.000000,LowGoal,3262.500000,-3272.727273,Speed,3270.000000,-3272.727273,Speed,Off,Off,0.000000,FALSE,44,Read: /home/lvuser/scripts/auto_44.bee,File good!,SEARCH_FOR_GOAL,SEARCH_FOR_GOAL
08:30:03.150 PM 03/22/2016,Autonomous Enabled,11,FALSE,0,NO ERROR,-0.000000,-123.995377,0.000000,126.773787,TRUE,FALSE,TRUE,TRUE,FALSE,TRUE,PID,-0.262500,10.762500,-4.122500,TRUE,-3.467148,-20.873093,0.000000,0.133041,0.324493,0.000000,0.053000,0.016000,-0.096000,-2.370000,-0.540000,1.740000,3.555254,Hold,55.816162,51.000000,Hold,-73811.000000,73728.000000,LowGoal,3255.000000,-3272.727273,Speed,3262.500000,-3272.727273,Speed,Off,Off,0.000000,FALSE,44,Read: /home/lvuser/scripts/auto_44.bee,File good!,SEARCH_FOR_GOAL,SEARCH_FOR_GOAL
08:30:03.250 PM 03/22/2016,Autonomous Enabled,11,FALSE,0,NO ERROR,-0.000000,-123.854210,0.000000,126.940620,TRUE,FALSE,TRUE,TRUE,FALSE,TRUE,PID,-0.262500,10.762500,-4.122500,TRUE,-3.459930,-20.855621,0.000000,0.138901,0.327835,0.000000,-0.047000,-0.139000,-0.147000,-1.710000,-0.580000,1.410000,4.393038,Hold,55.816162,51.000000,Hold,-73807.000000,73728.000000,LowGoal,3262.500000,-3272.727273,Speed,3262.500000,-3272.727273,Speed,Off,Off,0.000000,FALSE,44,Read: /home/lvuser/scripts/auto_44.bee,File good!,SEARCH_FOR_GOAL,SEARCH_FOR_GOAL
08:30:03.351 PM 03/22/2016,Autonomous Enabled,12,FALSE,0,NO ERROR,-0.000000,-123.154795,0.000000,127.588702,TRUE,FALSE,TRUE,TRUE,FALSE,TRUE,PID,-0.053125,10.762500,-4.122500,TRUE,-3.453751,-20.838852,0.000000,0.106384,0.290054,0.000000,-0.116000,-0.001000,-0.120000,-4.140000,-0.660000,1.270000,2.178378,Hold,55.816162,51.000000,Hold,-73807.000000,73728.000000,LowGoal,3270.000000,-3272.727273,Speed,3262.500000,-3272.727273,Speed,Off,Off,0.000000,FALSE,44,Read: /home/lvuser/scripts/auto_44.bee,File good!,SEARCH_FOR_GOAL,SEARCH_FOR_GOAL
08:30:03.450 PM 03/22/2016,Autonomous Enabled,11,FALSE,0,NO ERROR,-0.000000,-122.866046,0.000000,127.845368,TRUE,FALSE,TRUE,TRUE,FALSE,TRUE,Enable,-0.053125,2.178125,-8.168125,TRUE,-3.450256,-20.826523,0.000000,0.086655,0.334915,0.000000,0.016000,0.117000,-0.147000,-6.010000,-0.670000,1.560000,0.110513,Hold,55.816162,51.000000,Hold,-73806.000000,73728.000000,LowGoal,3262.500000,-3272.727273,Speed,3270.000000,-3272.727273,Speed,Off,Off,0.000000,FALSE,44,Read: /home/lvuser/scripts/auto_44.bee,File good!,SEARCH_FOR_GOAL,SEARCH_FOR_GOAL
08:30:03.550 PM 03/22/2016,Autonomous Enabled,11,FALSE,0,NO ERROR,-0.000000,-123.295962,0.000000,127.486035,TRUE,FALSE,TRUE,TRUE,FALSE,TRUE,PID,-0.053125,2.178125,-8.168125,TRUE,-3.444412,-20.804657,0.000000,0.139908,0.477600,0.000000,0.073000,-0.207000,0.061000,-4.300000,-0.240000,2.030000,1.633122,Hold,55.816162,51.000000,Hold,-73806.000000,73728.000000,LowGoal,3262.500000,-3272.727273,Speed,3262.500000,-3272.727273,Speed,Off,Off,0.000000,FALSE,44,Read: /home/lvuser/scripts/auto_44.bee,File good!,SEARCH_FOR_GOAL,SEARCH_FOR_GOAL
08:30:03.650 PM 03/22/2016,Autonomous Enabled,11,FALSE,0,NO ERROR,-0.000000,-123.199712,0.000000,127.595118,TRUE,FALSE,TRUE,TRUE,FALSE,TRUE,PID,-0.053125,2.178125,-8.168125,TRUE,-3.436981,-20.782928,0.000000,0.067719,0.306976,0.000000,-0.163000,-0.010000,-0.206000,-3.590000,-0.500000,1.380000,2.669673,Hold,55.816162,51.000000,Hold,-73806.000000,73728.000000,LowGoal,3270.000000,-3272.727273,Speed,3262.500000,-3272.727273,Speed,Off,Off,0.000000,FALSE,44,Read: /home/lvuser/scripts/auto_44.bee,File good!,SEARCH_FOR_GOAL,SEARCH_FOR_GOAL
08:30:03.750 PM 03/22/2016,Autonomous Enabled,12,FALSE,0,NO ERROR,-0.000000,-122.635047,0.000000,128.172617,TRUE,FALSE,TRUE,TRUE,FALSE,TRUE,PID,-0.053125,2.178125,-8.168125,TRUE,-3.434280,-20.769485,0.000000,0.084991,0.342056,0.000000,0.124000,-0.043000,0.039000,-5.890000,-0.520000,1.270000,0.329535,Hold,55.816162,51.000000,Hold,-73806.000000,73728.000000,LowGoal,3277.500000,-3272.727273,Speed,3255.000000,-3272.727273,Speed,Off,Off,0.000000,FALSE,44,Read: /home/lvuser/scripts/auto_44.bee,File good!,SEARCH_FOR_GOAL,SEARCH_FOR_GOAL
08:30:03.850 PM 03/22/2016,Autonomous Enabled,11,FALSE,0,NO ERROR,-0.000000,-122.153798,0.000000,128.666699,TRUE,FALSE,TRUE,TRUE,FALSE,TRUE,PID,-0.053125,2.178125,-8.168125,TRUE,-3.429306,-20.748260,0.000000,0.063354,0.407516,0.000000,-0.059000,0.053000,-0.023000,-8.060000,-0.500000,1.380000,-1.737645,Hold,55.816162,51.000000,Hold,-73806.000000,73728.000000,LowGoal,3262.500000,-3272.727273,Speed,3270.000000,-3272.727273,Speed,Off,Off,0.000000,FALSE,44,Read: /home/lvuser/scripts/auto_44.bee,File good!,SEARCH_FOR_GOAL,SEARCH_FOR_GOAL
08:30:03.950 PM 03/22/2016,Autonomous Enabled,11,FALSE,0,NO ERROR,-0.000000,-122.160214,0.000000,128.519116,TRUE,FALSE,TRUE,TRUE,FALSE,TRUE,PID,-0.053125,2.178125,-8.168125,TRUE,-3.426605,-20.725037,0.000000,0.058426,0.501892,0.000000,0.077000,0.073000,0.003000,-9.150000,-0.370000,1.660000,-2.625178,Hold,55.816162,51.000000,Hold,-73806.000000,73728.000000,LowGoal,3262.500000,-3272.727273,Speed,3285.000000,-3272.727273,Speed,Off,Off,0.000000,FALSE,44,Read: /home/lvuser/scripts/auto_44.bee,File good!,SEARCH_FOR_GOAL,SEARCH_FOR_GOAL
08:30:04.051 PM 03/22/2016,Autonomous Enabled,10,FALSE,0,NO ERROR,-0.000000,-122.718463,0.000000,127.838951,TRUE,FALSE,TRUE,TRUE,FALSE,TRUE,PID,-0.053125,2.178125,-8.168125,TRUE,-3.421494,-20.697021,0.000000,0.109451,0.589294,0.000000,0.025000,0.011000,-0.036000,-7.180000,-0.270000,2.000000,-0.666534,Hold,55.816162,51.000000,Hold,-73806.000000,73728.000000,LowGoal,3270.000000,-3272.727273,Speed,3285.000000,-3272.727273,Speed,Off,Off,0.000000,FALSE,44,Read: /home/lvuser/scripts/auto_44.bee,File good!,SEARCH_FOR_GOAL,SEARCH_FOR_GOAL
08:30:04.151 PM 03/22/2016,Autonomous Enabled,12,FALSE,0,NO ERROR,-0.000000,-122.936629,0.000000,127.627202,TRUE,FALSE,TRUE,TRUE,FALSE,TRUE,PID,-0.053125,2.178125,-8.168125,TRUE,-3.417252,-20.667999,0.000000,0.057724,0.546936,0.000000,-0.097000,-0.077000,0.077000,-5.280000,-0.480000,1.650000,1.626905,Hold,55.816162,51.000000,Hold,-73806.000000,73728.000000,LowGoal,3270.000000,-3272.727273,Speed,3285.000000,-3272.727273,Speed,Off,Off,0.000000,FALSE,44,Read: /home/lvuser/scripts/auto_44.bee,File good!,SEARCH_FOR_GOAL,SEARCH_FOR_GOAL
08:30:04.251 PM 03/22/2016,Autonomous Enabled,11,FALSE,0,NO ERROR,-0.000000,-122.282131,0.000000,128.236783,TRUE,FALSE,TRUE,TRUE,FALSE,TRUE,PID,-0.053125,2.178125,-8.168125,TRUE,-3.414749,-20.643204,0.000000,0.065659,0.502960,0.000000,0.014000,0.114000,0.170000,-6.960000,-0.630000,1.210000,0.384128,Hold,55.816162,51.000000,Hold,-73806.000000,73728.000000,LowGoal,3277.500000,-3272.727273,Speed,3270.000000,-3272.727273,Speed,Off,Off,0.000000,FALSE,44,Read: /home/lvuser/scripts/auto_44.bee,File good!,SEARCH_FOR_GOAL,SEARCH_FOR_GOAL
08:30:04.351 PM 03/22/2016,Autonomous Enabled,10,FALSE,0,NO ERROR,-0.000000,-121.698215,0.000000,128.743699,TRUE,FALSE,TRUE,TRUE,FALSE,TRUE,PID,0.050000,2.178125,-8.168125,TRUE,-3.409378,-20.615326,0.000000,0.128021,0.606903,0.000000,0.046000,0.090000,-0.074000,-9.710000,-0.470000,1.320000,-2.108773,Hold,55.816162,51.000000,Hold,-73806.000000,73728.000000,LowGoal,3270.000000,-3272.727273,Speed,3277.500000,-3272.727273,Speed,Off,Off,0.000000,FALSE,44,Read: /home/lvuser/scripts/auto_44.bee,File good!,SEARCH_FOR_GOAL,SEARCH_FOR_GOAL
08:30:04.451 PM 03/22/2016,Autonomous Enabled,11,FALSE,0,NO ERROR,-0.000000,-121.454383,0.000000,128.910532,TRUE,FALSE,TRUE,TRUE,FALSE,TRUE,Enable,0.050000,-2.050000,-8.550000,TRUE,-3.401123,-20.581665,0.000000,0.189285,0.718658,0.000000,-0.005000,0.176000,0.130000,-10.600000,-0.270000,1.600000,-3.394555,Hold,55.816162,51.000000,Hold,-73806.000000,73728.000000,LowGoal,3270.000000,-3272.727273,Speed,3285.000000,-3272.727273,Speed,Off,Off,0.000000,FALSE,44,Read: /home/lvuser/scripts/auto_44.bee,File good!,SEARCH_FOR_GOAL,SEARCH_FOR_GOAL
08:30:04.551 PM 03/22/2016,Autonomous Enabled,12,FALSE,0,NO ERROR,-0.000000,-121.942048,0.000000,128.352283,TRUE,FALSE,TRUE,TRUE,FALSE,TRUE,PID,0.050000,-2.050000,-8.550000,TRUE,-3.389725,-20.540375,0.000000,0.249664,0.900131,0.000000,0.050000,-0.018000,0.011000,-8.670000,0.050000,1.780000,-1.760283,Hold,55.816162,51.000000,Hold,-73806.000000,73728.000000,LowGoal,3270.000000,-3272.727273,Speed,3285.000000,-3272.727273,Speed,Off,Off,0.000000,FALSE,44,Read: /home/lvuser/scripts/auto_44.bee,File good!,SEARCH_FOR_GOAL,SEARCH_FOR_GOAL
08:30:04.651 PM 03/22/2016,Autonomous Enabled,11,FALSE,0,NO ERROR,-0.000000,-122.250047,0.000000,127.864618,TRUE,FALSE,TRUE,TRUE,FALSE,TRUE,PID,0.050000,-2.050000,-8.550000,TRUE,-3.375031,-20.487473,0.000000,0.261597,0.904541,0.000000,0.050000,-0.018000,0.011000,-8.280000,0.070000,1.640000,-0.744791,Hold,55.816162,51.000000,Hold,-73806.000000,73728.000000,LowGoal,3277.500000,-3272.727273,Speed,3285.000000,-3272.727273,Speed,Off,Off,0.000000,FALSE,44,Read: /home/lvuser/scripts/auto_44.bee,File good!,SEARCH_FOR_GOAL,SEARCH_FOR_GOAL
08:30:04.752 PM 03/22/2016,Autonomous Enabled,11,FALSE,0,NO ERROR,-0.000000,-121.967715,0.000000,128.153367,TRUE,FALSE,TRUE,TRUE,FALSE,TRUE,PID,0.050000,-2.050000,-8.550000,TRUE,-3.363693,-20.441620,0.000000,0.192703,0.885986,0.000000,-0.110000,-0.147000,-0.146000,-7.810000,-0.120000,1.410000,-0.001060,Hold,55.816162,51.000000,Hold,-73806.000000,73728.000000,LowGoal,3277.500000,-3272.727273,Speed,3285.000000,-3272.727273,Speed,Off,Off,0.000000,FALSE,44,Read: /home/lvuser/scripts/auto_44.bee,File good!,SEARCH_FOR_GOAL,SEARCH_FOR_GOAL
08:30:04.852 PM 03/22/2016,Autonomous Enabled,10,FALSE,0,NO ERROR,-0.000000,-121.428716,0.000000,128.608949,TRUE,FALSE,TRUE,TRUE,FALSE,TRUE,PID,0.050000,-2.050000,-8.550000,TRUE,-3.354630,-20.399612,0.000000,0.179733,0.834167,0.000000,0.156000,-0.007000,-0.011000,-9.850000,-0.220000,1.300000,-1.899610,Hold,55.816162,51.000000,Hold,-73806.000000,73728.000000,LowGoal,3277.500000,-3272.727273,Speed,3285.000000,-3272.727273,Speed,Off,Off,0.000000,FALSE,44,Read: /home/lvuser/scripts/auto_44.bee,File good!,SEARCH_FOR_GOAL,SEARCH_FOR_GOAL
08:30:04.952 PM 03/22/2016,Autonomous Enabled,12,FALSE,0,NO ERROR,-0.000000,-121.601966,0.000000,128.294533,TRUE,FALSE,TRUE,TRUE,FALSE,TRUE,PID,0.050000,-2.050000,-8.550000,TRUE,-3.344482,-20.354706,0.000000,0.219879,0.978683,0.000000,0.156000,-0.007000,-0.011000,-10.140000,0.220000,1.910000,-2.690376,Hold,55.816162,51.000000,Hold,-73806.000000,73728.000000,LowGoal,3270.000000,-3272.727273,Speed,3285.000000,-3272.727273,Speed,Off,Off,0.000000,FALSE,44,Read: /home/lvuser/scripts/auto_44.bee,File good!,SEARCH_FOR_GOAL,SEARCH_FOR_GOAL
08:30:05.053 PM 03/22/2016,Autonomous Enabled,11,FALSE,0,NO ERROR,-0.000000,-122.153798,0.000000,127.633618,TRUE,FALSE,TRUE,TRUE,FALSE,TRUE,PID,0.050000,-2.050000,-8.550000,TRUE,-3.333893,-20.303452,0.000000,0.199203,0.993103,0.000000,-0.123000,0.270000,-0.012000,-7.530000,0.030000,1.810000,-0.032381,Hold,55.816162,51.000000,Hold,-73806.000000,73728.000000,LowGoal,3270.000000,-3272.727273,Speed,3285.000000,-3272.727273,Speed,Off,Off,0.000000,FALSE,44,Read: /home/lvuser/scripts/auto_44.bee,File good!,SEARCH_FOR_GOAL,SEARCH_FOR_GOAL
08:30:05.153 PM 03/22/2016,Autonomous Enabled,11,FALSE,0,NO ERROR,-0.000000,-122.012631,0.000000,127.781201,TRUE,FALSE,TRUE,TRUE,FALSE,TRUE,PID,0.050000,-2.050000,-8.550000,TRUE,-3.333893,-20.303452,0.000000,0.199203,0.993103,0.000000,0.010000,-0.126000,0.016000,-7.170000,-0.130000,1.400000,1.508560,Hold,55.816162,51.000000,Hold,-73806.000000,73728.000000,LowGoal,3270.000000,-3272.727273,Speed,3270.000000,-3272.727273,Speed,Off,Off,0.000000,FALSE,44,Read: /home/lvuser/scripts/auto_44.bee,File good!,SEARCH_FOR_GOAL,SEARCH_FOR_GOAL
08:30:05.254 PM 03/22/2016,Autonomous Enabled,10,FALSE,0,NO ERROR,-0.000000,-121.383799,0.000000,128.313783,TRUE,FALSE,TRUE,TRUE,FALSE,TRUE,PID,0.050000,-2.050000,-8.550000,TRUE,-3.324127,-20.213882,0.000000,0.065720,0.842728,0.000000,0.062000,0.028000,0.103000,-9.120000,-0.150000,1.220000,-0.565726,Hold,55.816162,51.000000,Hold,-73806.000000,73728.000000,LowGoal,3277.500000,-3272.727273,Speed,3270.000000,-3272.727273,Speed,Off,Off,0.000000,FALSE,44,Read: /home/lvuser/scripts/auto_44.bee,File good!,SEARCH_FOR_GOAL,SEARCH_FOR_GOAL
08:30:05.353 PM 03/22/2016,Autonomous Enabled,8,FALSE,0,NO ERROR,-0.000000,-121.454383,0.000000,128.102034,TRUE,FALSE,TRUE,TRUE,FALSE,TRUE,PID,0.093750,-2.050000,-8.550000,TRUE,-3.324127,-20.213882,0.000000,0.065720,0.842728,0.000000,0.062000,0.028000,0.103000,-9.120000,-0.150000,1.220000,-2.051210,Hold,55.816162,51.000000,Hold,-73805.000000,73728.000000,LowGoal,3277.500000,-3272.727273,Speed,3270.000000,-3272.727273,Speed,Off,Off,0.000000,FALSE,44,Read: /home/lvuser/scripts/auto_44.bee,File good!,SEARCH_FOR_GOAL,SEARCH_FOR_GOAL
08:30:05.453 PM 03/22/2016,Autonomous Enabled,11,FALSE,0,NO ERROR,-0.000000,-121.999798,0.000000,127.479619,TRUE,FALSE,TRUE,TRUE,FALSE,TRUE,Enable,0.093750,-3.843750,-4.366250,TRUE,-3.311554,-20.103928,0.000000,0.129456,1.030746,0.000000,0.163000,0.141000,0.040000,-10.260000,0.240000,1.810000,0.318705,Hold,55.816162,51.000000,Hold,-73805.000000,73728.000000,LowGoal,3270.000000,-3272.727273,Speed,3270.000000,-3272.727273,Speed,Off,Off,0.000000,FALSE,44,Read: /home/lvuser/scripts/auto_44.bee,File good!,SEARCH_FOR_GOAL,SEARCH_FOR_GOAL
08:30:05.553 PM 03/22/2016,Autonomous Enabled,10,FALSE,0,NO ERROR,-0.000000,-122.128131,0.000000,127.293536,TRUE,FALSE,TRUE,TRUE,FALSE,TRUE,PID,0.093750,-3.843750,-4.366250,TRUE,-3.307602,-20.054810,0.000000,0.038010,0.947037,0.000000,0.047000,-0.141000,0.067000,-7.700000,0.350000,1.770000,2.205289,Hold,55.816162,51.000000,Hold,-73805.000000,73728.000000,LowGoal,3270.000000,-3272.727273,Speed,3285.000000,-3272.727273,Speed,Off,Off,0.000000,FALSE,44,Read: /home/lvuser/scripts/auto_44.bee,File good!,SEARCH_FOR_GOAL,SEARCH_FOR_GOAL
08:30:05.653 PM 03/22/2016,Autonomous Enabled,10,FALSE,0,NO ERROR,-0.000000,-122.160214,0.000000,127.126703,TRUE,FALSE,TRUE,TRUE,FALSE,TRUE,PID,0.093750,-3.843750,-4.366250,TRUE,-3.307602,-20.054810,0.000000,0.038010,0.947037,0.000000,0.142000,0.009000,-0.025000,-6.820000,0.070000,1.460000,2.184857,Hold,55.816162,51.000000,Hold,-73805.000000,73728.000000,LowGoal,3285.000000,-3272.727273,Speed,3285.000000,-3272.727273,Speed,Off,Off,0.000000,FALSE,44,Read: /home/lvuser/scripts/auto_44.bee,File good!,SEARCH_FOR_GOAL,SEARCH_FOR_GOAL
08:30:05.753 PM 03/22/2016,Autonomous Enabled,9,FALSE,0,NO ERROR,-0.000000,-122.359131,0.000000,126.773787,TRUE,FALSE,TRUE,TRUE,FALSE,TRUE,PID,0.093750,-3.843750,-4.366250,TRUE,-3.304855,-19.997147,0.000000,-0.019608,-0.016068,0.000000,-0.136000,0.001000,-0.070000,-6.550000,0.110000,1.690000,3.426956,Hold,55.816162,51.000000,Hold,-73805.000000,73728.000000,LowGoal,3277.500000,-3272.727273,Speed,3277.500000,-3272.727273,Speed,Off,Off,0.000000,FALSE,44,Read: /home/lvuser/scripts/auto_44.bee,File good!,SEARCH_FOR_GOAL,SEARCH_FOR_GOAL
08:30:05.853 PM 03/22/2016,Autonomous Enabled,9,FALSE,0,NO ERROR,-0.000000,-122.493880,0.000000,126.478621,TRUE,FALSE,TRUE,TRUE,FALSE,TRUE,PID,0.093750,-3.843750,-4.366250,TRUE,-3.304855,-19.997147,0.000000,-0.019608,-0.016068,0.000000,0.098000,-0.030000,0.025000,-5.720000,-0.020000,1.650000,4.459596,Hold,55.816162,51.000000,Hold,-73805.000000,73728.000000,LowGoal,3262.500000,-3272.727273,Speed,3262.500000,-3272.727273,Speed,Off,Off,0.000000,FALSE,44,Read: /home/lvuser/scripts/auto_44.bee,File good!,SEARCH_FOR_GOAL,SEARCH_FOR_GOAL
08:30:05.954 PM 03/22/2016,Autonomous Enabled,10,FALSE,0,NO ERROR,-0.000000,-122.506714,0.000000,126.254038,TRUE,FALSE,TRUE,TRUE,FALSE,TRUE,PID,0.093750,-3.843750,-4.366250,TRUE,-3.310837,-20.000137,0.000000,-0.092972,-0.020569,0.000000,-0.039000,0.006000,-0.085000,-4.730000,-0.040000,1.530000,5.186754,Hold,55.816162,51.000000,Hold,-73805.000000,73728.000000,LowGoal,3270.000000,-3272.727273,Speed,3262.500000,-3272.727273,Speed,Off,Off,0.000000,FALSE,44,Read: /home/lvuser/scripts/auto_44.bee,File good!,SEARCH_FOR_GOAL,SEARCH_FOR_GOAL
08:30:06.054 PM 03/22/2016,Autonomous Enabled,10,FALSE,0,NO ERROR,-0.000000,-122.513130,0.000000,126.100038,TRUE,FALSE,TRUE,TRUE,FALSE,TRUE,PID,0.093750,-3.843750,-4.366250,TRUE,-3.315277,-20.001694,0.000000,-0.089706,-0.045334,0.000000,-0.107000,0.003000,-0.124000,-4.340000,-0.030000,1.510000,5.688979,Hold,55.816162,51.000000,Hold,-73805.000000,73728.000000,LowGoal,3270.000000,-3272.727273,Speed,3270.000000,-3272.727273,Speed,Off,Off,0.000000,FALSE,44,Read: /home/lvuser/scripts/auto_44.bee,File good!,SEARCH_FOR_GOAL,SEARCH_FOR_GOAL
08:30:06.155 PM 03/22/2016,Autonomous Enabled,10,FALSE,0,NO ERROR,-0.000000,-121.980548,0.000000,126.619787,TRUE,FALSE,TRUE,TRUE,FALSE,TRUE,PID,0.093750,-3.843750,-4.366250,TRUE,-3.315277,-20.001694,0.000000,-0.089706,-0.045334,0.000000,0.040000,-0.050000,0.094000,-4.010000,0.140000,1.400000,5.268711,Hold,55.816162,51.000000,Hold,-73805.000000,73728.000000,LowGoal,3277.500000,-3272.727273,Speed,3262.500000,-3272.727273,Speed,Off,Off,0.000000,FALSE,44,Read: /home/lvuser/scripts/auto_44.bee,File good!,SEARCH_FOR_GOAL,SEARCH_FOR_GOAL
08:30:06.256 PM 03/22/2016,Autonomous Enabled,10,FALSE,0,NO ERROR,-0.000000,-121.454383,0.000000,127.133119,TRUE,FALSE,TRUE,TRUE,FALSE,TRUE,PID,0.093750,-3.843750,-4.366250,TRUE,-3.321014,-20.006500,0.000000,-0.133942,-0.113159,0.000000,0.117000,-0.108000,0.018000,-4.600000,0.040000,1.160000,3.351819,Hold,55.816162,51.000000,Hold,-73805.000000,73728.000000,LowGoal,3277.500000,-3272.727273,Speed,3262.500000,-3272.727273,Speed,Off,Off,0.000000,FALSE,44,Read: /home/lvuser/scripts/auto_44.bee,File good!,SEARCH_FOR_GOAL,SEARCH_FOR_GOAL
