Time,Robot Mode,Loop Time,Error Status,Error Code,Error Source,Left Motor Output,Left Motor Encoder,Right Motor Output,Right Motor Encoder,Is Level,Is Stalled,Ball Detector Photoeye,Vision Enabled,Vision Teleop Control,Vision Auto Control,Vision Current State,Vision X Output,Vision NavX Error,Vision NavX Target,NavX Connection Status,NavX Displacement X,NavX Displacement Y,NavX Displacement Z,NavX Velocity X,NavX Velocity Y,NavX Velocity Z,NavX Acceleration X,NavX Acceleration Y,NavX Acceleration Z,NavX Pitch,NavX Yaw,NavX Roll,Gyro Angle,Roller Arm State,Roller Arm Actual,Roller Arm Desired,Shooter Arm State,Shooter Arm Actual,Shooter Arm Desired,Shooter State,Actual RPM Left,Desired RPM Left,Control Mode Left,Actual RPM Right,Desired RPM Right,Control Mode Right,Ball Shooter Cylinder,Ball Halo Cylinder,Scaler Motor Output,Scaler Solenoid Fire,Auto To Run,Auto Current File,Auto File Status,Auto Current Command,Auto Trimmed Command
06:59:32.461 PM 03/23/2016,Teleop Enabled,9,FALSE,0,NO ERROR,-0.000000,-0.660915,0.000000,-0.186083,TRUE,FALSE,TRUE,FALSE,FALSE,FALSE,Disabled,0.000000,0.000000,0.000000,TRUE,0.035385,-0.003357,0.000000,0.000000,0.000000,0.000000,0.000000,0.000000,0.015000,1.300000,0.110000,1.450000,0.526945,ResetBack,-61.138428,-0.000049,ResetBack,129795.000000,-0.300000,LowGoal,0.000000,0.000000,Speed,0.000000,0.000000,Speed,Off,Off,0.000000,FALSE,0,,,,
06:59:32.561 PM 03/23/2016,Teleop Enabled,9,FALSE,0,NO ERROR,-0.000000,-0.660915,0.000000,-0.154000,TRUE,FALSE,TRUE,FALSE,FALSE,FALSE,Disabled,0.000000,0.000000,0.000000,TRUE,0.035492,-0.003357,0.000000,0.001343,0.000000,0.000000,0.005000,0.004000,-0.026000,1.320000,0.130000,1.440000,0.485156,ResetBack,-62.344238,-0.000049,ResetBack,129795.000000,-0.300000,LowGoal,0.000000,-1454.545455,Speed,0.000000,-1454.545455,Speed,Off,Off,0.000000,FALSE,0,,,,
06:59:32.661 PM 03/23/2016,Teleop Enabled,10,FALSE,0,NO ERROR,-0.000000,-0.660915,0.000000,-0.154000,TRUE,FALSE,TRUE,FALSE,FALSE,FALSE,Disabled,0.000000,0.000000,0.000000,TRUE,0.035797,-0.003662,0.000000,0.008804,-0.013672,0.000000,-0.048000,0.041000,0.000000,1.320000,0.150000,1.420000,0.475644,ResetBack,-62.609375,-0.000049,ResetBack,139440.000000,-0.300000,LowGoal,97.500000,-1454.545455,Speed,45.000000,-1454.545455,Speed,Off,Off,0.000000,FALSE,0,,,,
06:59:32.760 PM 03/23/2016,Teleop Enabled,9,FALSE,0,NO ERROR,-0.000000,-0.660915,0.000000,-0.154000,TRUE,FALSE,TRUE,FALSE,FALSE,FALSE,Disabled,0.000000,0.000000,0.000000,TRUE,0.035309,-0.003632,0.000000,-0.009445,0.005630,0.000000,0.003000,0.068000,0.027000,1.320000,0.120000,1.440000,0.465547,Reset,-62.610840,0.000000,ResetBack,148539.000000,-0.300000,LowGoal,690.000000,-1454.545455,Speed,802.500000,-1454.545455,Speed,Off,Off,0.000000,FALSE,0,,,,
06:59:32.861 PM 03/23/2016,Teleop Enabled,9,FALSE,0,NO ERROR,-0.000000,-0.660915,0.000000,-0.154000,TRUE,FALSE,TRUE,FALSE,FALSE,FALSE,Disabled,0.000000,0.000000,0.000000,TRUE,0.034485,-0.003494,0.000000,-0.036942,0.000000,0.000000,0.082000,0.000000,-0.033000,1.320000,0.080000,1.480000,0.481342,Hold,0.378906,0.000000,ResetBack,153036.000000,-0.300000,LowGoal,1462.500000,-1454.545455,Speed,1575.000000,-1454.545455,Speed,Off,Off,0.000000,FALSE,0,,,,
06:59:32.962 PM 03/23/2016,Teleop Enabled,9,FALSE,0,NO ERROR,-0.000000,-0.660915,0.000000,-0.154000,TRUE,FALSE,TRUE,FALSE,FALSE,FALSE,Disabled,0.000000,0.000000,0.000000,TRUE,0.032700,-0.003113,0.000000,-0.040222,0.015137,0.000000,-0.072000,-0.035000,-0.044000,1.330000,0.040000,1.510000,0.473396,Hold,0.378906,0.000000,ResetBack,155590.000000,-0.300000,LowGoal,1590.000000,-1454.545455,Speed,1552.500000,-1454.545455,Speed,Off,Off,0.000000,FALSE,0,,,,
06:59:33.061 PM 03/23/2016,Teleop Enabled,9,FALSE,0,NO ERROR,-0.000000,-0.660915,0.000000,-0.154000,TRUE,FALSE,TRUE,FALSE,FALSE,FALSE,Disabled,0.000000,0.000000,0.000000,TRUE,0.029648,-0.001495,0.000000,-0.045456,0.036041,0.000000,-0.032000,0.026000,0.091000,1.320000,0.080000,1.520000,0.475455,Hold,0.378906,0.000000,ResetBack,156303.000000,-0.300000,LowGoal,1335.000000,-1454.545455,Speed,1290.000000,-1454.545455,Speed,Off,Off,0.000000,FALSE,0,,,,
06:59:33.162 PM 03/23/2016,Teleop Enabled,9,FALSE,0,NO ERROR,-0.000000,-0.660915,0.000000,-0.154000,TRUE,FALSE,TRUE,FALSE,FALSE,FALSE,Disabled,0.000000,0.000000,0.000000,TRUE,0.027573,-0.000671,0.000000,-0.033707,0.003036,0.000000,0.035000,0.008000,-0.002000,1.320000,0.090000,1.570000,0.463974,Hold,0.378906,0.000000,ResetBack,156303.000000,-0.300000,LowGoal,1305.000000,-1454.545455,Speed,1335.000000,-1454.545455,Speed,Off,Off,0.000000,FALSE,0,,,,
06:59:33.262 PM 03/23/2016,Teleop Enabled,9,FALSE,0,NO ERROR,-0.000000,-0.660915,0.000000,-0.154000,TRUE,FALSE,TRUE,FALSE,FALSE,FALSE,Disabled,0.000000,0.000000,0.000000,TRUE,0.025421,-0.000458,0.000000,-0.057968,0.004517,0.000000,-0.076000,0.030000,0.013000,1.330000,-0.030000,1.560000,0.450500,Hold,0.378906,0.000000,ResetBack,156304.000000,-0.300000,LowGoal,1417.500000,-1454.545455,Speed,1440.000000,-1454.545455,Speed,Off,Off,0.000000,FALSE,0,,,,
06:59:33.362 PM 03/23/2016,Teleop Enabled,9,FALSE,0,NO ERROR,-0.000000,-0.660915,0.000000,-0.154000,TRUE,FALSE,TRUE,FALSE,FALSE,FALSE,Disabled,0.000000,0.000000,0.000000,TRUE,0.021881,0.000656,0.000000,-0.058243,0.027725,0.000000,-0.063000,-0.013000,0.174000,1.330000,-0.010000,1.600000,0.440964,Hold,0.378906,0.000000,ResetBack,156355.000000,-0.300000,LowGoal,1402.500000,-1454.545455,Speed,1380.000000,-1454.545455,Speed,Off,Off,0.000000,FALSE,0,,,,
06:59:33.462 PM 03/23/2016,Teleop Enabled,7,FALSE,0,NO ERROR,-0.000000,-0.660915,0.000000,-0.154000,TRUE,FALSE,TRUE,FALSE,FALSE,FALSE,Disabled,0.000000,0.000000,0.000000,TRUE,0.019318,0.001923,0.000000,-0.045959,0.014404,0.000000,-0.033000,0.068000,0.057000,1.320000,0.040000,1.570000,0.454190,Hold,0.378906,0.000000,ResetBack,156519.000000,-0.300000,LowGoal,1365.000000,-1454.545455,Speed,1365.000000,-1454.545455,Speed,Off,Off,0.000000,FALSE,0,,,,
06:59:33.562 PM 03/23/2016,Teleop Enabled,10,FALSE,0,NO ERROR,-0.000000,-0.660915,0.000000,-0.154000,TRUE,FALSE,TRUE,FALSE,FALSE,FALSE,Disabled,0.000000,0.000000,0.000000,TRUE,0.018433,0.002930,0.000000,-0.002823,0.024918,0.000000,-0.054000,-0.001000,0.057000,1.320000,0.040000,1.560000,0.457609,Hold,0.378906,0.000000,ResetBack,156519.000000,-0.300000,LowGoal,1372.500000,-1454.545455,Speed,1395.000000,-1454.545455,Speed,Off,Off,0.000000,FALSE,0,,,,
06:59:33.663 PM 03/23/2016,Teleop Enabled,9,FALSE,0,NO ERROR,-0.000000,-0.660915,0.000000,-0.154000,TRUE,FALSE,TRUE,FALSE,FALSE,FALSE,Disabled,0.000000,0.000000,0.000000,TRUE,0.018402,0.004822,0.000000,0.010300,0.029099,0.000000,-0.003000,0.012000,0.074000,1.330000,0.040000,1.570000,0.465751,Hold,0.378906,0.000000,Reset,156519.000000,2.000000,LowGoal,1387.500000,-1454.545455,Speed,1402.500000,-1454.545455,Speed,Off,Off,0.000000,FALSE,0,,,,
06:59:33.764 PM 03/23/2016,Teleop Enabled,9,FALSE,0,NO ERROR,-0.000000,-0.660915,0.000000,-0.154000,TRUE,FALSE,TRUE,FALSE,FALSE,FALSE,Disabled,0.000000,0.000000,0.000000,TRUE,0.018768,0.004410,0.000000,0.017212,-0.017761,0.000000,-0.009000,-0.002000,0.014000,1.330000,0.030000,1.610000,0.453536,Hold,0.378906,0.000000,Hold,-264.000000,2.000000,LowGoal,1380.000000,-1454.545455,Speed,1387.500000,-1454.545455,Speed,Off,Off,0.000000,FALSE,0,,,,
06:59:33.865 PM 03/23/2016,Teleop Enabled,9,FALSE,0,NO ERROR,-0.000000,-0.660915,0.000000,-0.154000,TRUE,FALSE,TRUE,FALSE,FALSE,FALSE,Disabled,0.000000,0.000000,0.000000,TRUE,0.020462,0.002731,0.000000,0.044556,-0.036636,0.000000,0.012000,-0.067000,0.022000,1.320000,0.080000,1.590000,0.457705,Hold,0.378906,0.000000,Hold,-264.000000,2.000000,LowGoal,1380.000000,-1454.545455,Speed,1387.500000,-1454.545455,Speed,Off,Off,0.000000,FALSE,0,,,,
06:59:33.968 PM 03/23/2016,Teleop Enabled,9,FALSE,0,NO ERROR,-0.000000,-0.660915,0.000000,-0.154000,TRUE,FALSE,TRUE,FALSE,FALSE,FALSE,Disabled,0.000000,0.000000,0.000000,TRUE,0.022736,0.000458,0.000000,0.065262,-0.073837,0.000000,-0.020000,-0.014000,0.046000,1.320000,0.130000,1.560000,0.452063,Hold,0.378906,0.000000,Hold,-248.000000,2.000000,LowGoal,1387.500000,-1454.545455,Speed,1395.000000,-1454.545455,Speed,Off,Off,0.000000,FALSE,0,,,,
06:59:34.068 PM 03/23/2016,Teleop Enabled,10,FALSE,0,NO ERROR,-0.000000,-0.660915,0.000000,-0.154000,TRUE,FALSE,TRUE,FALSE,FALSE,FALSE,Disabled,0.000000,0.000000,0.000000,TRUE,0.025848,-0.003845,0.000000,0.066650,-0.089920,0.000000,0.017000,0.008000,0.021000,1.320000,0.130000,1.570000,0.434041,Hold,0.378906,0.000000,Hold,-248.000000,2.000000,LowGoal,1380.000000,-1454.545455,Speed,1395.000000,-1454.545455,Speed,Off,Off,0.000000,FALSE,0,,,,
06:59:34.167 PM 03/23/2016,Teleop Enabled,9,FALSE,0,NO ERROR,-0.000000,-0.660915,0.000000,-0.154000,TRUE,FALSE,TRUE,FALSE,FALSE,FALSE,Disabled,0.000000,0.000000,0.000000,TRUE,0.026306,-0.009415,0.000000,-0.002563,-0.104187,0.000000,-0.007000,-0.014000,0.048000,1.320000,0.090000,1.610000,0.431600,Hold,0.378906,0.000000,Hold,-248.000000,2.000000,LowGoal,1380.000000,-1454.545455,Speed,1387.500000,-1454.545455,Speed,Off,Off,0.000000,FALSE,0,,,,
06:59:34.268 PM 03/23/2016,Teleop Enabled,9,FALSE,0,NO ERROR,-0.000000,-0.660915,0.000000,-0.154000,TRUE,FALSE,TRUE,FALSE,FALSE,FALSE,Disabled,0.000000,0.000000,0.000000,TRUE,0.026367,-0.014435,0.000000,0.004639,-0.090561,0.000000,0.032000,0.011000,0.039000,1.320000,0.080000,1.620000,0.434940,Hold,0.378906,0.000000,Hold,-248.000000,2.000000,LowGoal,1380.000000,-1454.545455,Speed,1387.500000,-1454.545455,Speed,Off,Off,0.000000,FALSE,0,,,,
06:59:34.368 PM 03/23/2016,Teleop Enabled,9,FALSE,0,NO ERROR,-0.000000,-0.660915,0.000000,-0.154000,TRUE,FALSE,TRUE,FALSE,FALSE,FALSE,Disabled,0.000000,0.000000,0.000000,TRUE,0.026703,-0.018921,0.000000,0.015808,-0.083557,0.000000,0.026000,-0.053000,-0.047000,1.330000,0.030000,1.680000,0.447133,Hold,0.378906,0.000000,Hold,-248.000000,2.000000,LowGoal,1387.500000,-1454.545455,Speed,1395.000000,-1454.545455,Speed,Off,Off,0.000000,FALSE,0,,,,
06:59:34.468 PM 03/23/2016,Teleop Enabled,9,FALSE,0,NO ERROR,-0.000000,-0.660915,0.000000,-0.154000,TRUE,FALSE,TRUE,FALSE,FALSE,FALSE,Disabled,0.000000,0.000000,0.000000,TRUE,0.027435,-0.023270,0.000000,0.018829,-0.098770,0.000000,0.045000,0.039000,0.005000,1.320000,0.060000,1.610000,0.429652,Hold,0.378906,0.000000,Hold,-248.000000,2.000000,LowGoal,1387.500000,-1454.545455,Speed,1395.000000,-1454.545455,Speed,Off,Off,0.000000,FALSE,0,,,,
06:59:34.570 PM 03/23/2016,Teleop Enabled,9,FALSE,0,NO ERROR,-0.000000,-0.660915,0.000000,-0.154000,TRUE,FALSE,TRUE,FALSE,FALSE,FALSE,Disabled,0.000000,0.000000,0.000000,TRUE,0.027802,-0.028625,0.000000,-0.005630,-0.120331,0.000000,0.034000,-0.040000,-0.006000,1.320000,0.050000,1.590000,0.427924,Hold,0.378906,0.000000,Hold,-248.000000,2.000000,LowGoal,1387.500000,-1454.545455,Speed,1395.000000,-1454.545455,Speed,Off,Off,0.000000,FALSE,0,,,,
06:59:34.671 PM 03/23/2016,Teleop Enabled,11,FALSE,0,NO ERROR,-0.000000,-0.660915,0.000000,-0.154000,TRUE,FALSE,TRUE,FALSE,FALSE,FALSE,Disabled,0.000000,0.000000,0.000000,TRUE,0.027573,-0.034714,0.000000,-0.011017,-0.118546,0.000000,0.007000,-0.008000,-0.015000,1.320000,0.070000,1.550000,0.414701,Hold,0.378906,0.000000,Hold,-248.000000,2.000000,LowGoal,1380.000000,-1454.545455,Speed,1395.000000,-1454.545455,Speed,Off,Off,0.000000,FALSE,0,,,,
06:59:34.772 PM 03/23/2016,Teleop Enabled,11,FALSE,0,NO ERROR,-0.000000,-0.660915,0.000000,-0.154000,TRUE,FALSE,TRUE,FALSE,FALSE,FALSE,Disabled,0.000000,0.000000,0.000000,TRUE,0.026825,-0.036041,0.000000,-0.017532,0.002502,0.000000,-0.019000,0.037000,0.091000,1.330000,0.040000,1.540000,0.405234,Hold,0.378906,0.000000,Hold,-248.000000,2.000000,LowGoal,1387.500000,-1454.545455,Speed,1387.500000,-1454.545455,Speed,Off,Off,0.000000,FALSE,0,,,,
06:59:34.871 PM 03/23/2016,Teleop Enabled,10,FALSE,0,NO ERROR,-0.000000,-0.660915,0.000000,-0.154000,TRUE,FALSE,TRUE,FALSE,FALSE,FALSE,Disabled,0.000000,0.000000,0.000000,TRUE,0.027115,-0.036255,0.000000,0.000000,-0.006302,0.000000,0.038000,0.008000,0.023000,1.320000,0.060000,1.560000,0.402349,Hold,0.378906,0.000000,Hold,-248.000000,2.000000,LowGoal,1380.000000,-1454.545455,Speed,1387.500000,-1454.545455,Speed,Off,Off,0.000000,FALSE,0,,,,
06:59:34.972 PM 03/23/2016,Teleop Enabled,10,FALSE,0,NO ERROR,-0.000000,-0.660915,0.000000,-0.154000,TRUE,FALSE,TRUE,FALSE,FALSE,FALSE,Disabled,0.000000,0.000000,0.000000,TRUE,0.026978,-0.036026,0.000000,-0.012772,0.008865,0.000000,-0.030000,0.058000,0.071000,1.310000,0.050000,1.580000,0.389622,Hold,0.378906,0.000000,Hold,-248.000000,2.000000,LowGoal,1387.500000,-1454.545455,Speed,1395.000000,-1454.545455,Speed,Off,Off,0.000000,FALSE,0,,,,
06:59:35.071 PM 03/23/2016,Teleop Enabled,11,FALSE,0,NO ERROR,-0.000000,-0.660915,0.000000,-0.154000,TRUE,FALSE,TRUE,FALSE,FALSE,FALSE,Disabled,0.000000,0.000000,0.000000,TRUE,0.025879,-0.034409,0.000000,-0.025238,0.044922,0.000000,-0.008000,-0.020000,0.031000,1.310000,0.070000,1.580000,0.374788,Hold,0.378906,0.000000,Hold,-248.000000,2.000000,LowGoal,1380.000000,-1454.545455,Speed,1387.500000,-1454.545455,Speed,Off,Off,0.000000,FALSE,0,,,,
06:59:35.171 PM 03/23/2016,Teleop Enabled,11,FALSE,0,NO ERROR,-0.000000,-0.660915,0.000000,-0.154000,TRUE,FALSE,TRUE,FALSE,FALSE,FALSE,Disabled,0.000000,0.000000,0.000000,TRUE,0.025681,-0.031998,0.000000,0.002243,0.050446,0.000000,-0.058000,0.043000,0.007000,1.300000,0.130000,1.540000,0.372178,Hold,0.378906,0.000000,Hold,-248.000000,2.000000,LowGoal,1380.000000,-1454.545455,Speed,1395.000000,-1454.545455,Speed,Off,Off,0.000000,FALSE,0,,,,
06:59:35.271 PM 03/23/2016,Teleop Enabled,11,FALSE,0,NO ERROR,-0.000000,-0.660915,0.000000,-0.154000,TRUE,FALSE,TRUE,FALSE,FALSE,FALSE,Disabled,0.000000,0.000000,0.000000,TRUE,0.025604,-0.029236,0.000000,0.002731,0.046890,0.000000,-0.020000,-0.034000,0.000000,1.300000,0.160000,1.540000,0.361875,Hold,0.378906,0.000000,Hold,-248.000000,2.000000,LowGoal,1387.500000,-1454.545455,Speed,1395.000000,-1454.545455,Speed,Off,Off,0.000000,FALSE,0,,,,
06:59:35.372 PM 03/23/2016,Teleop Enabled,10,FALSE,0,NO ERROR,-0.000000,-0.660915,0.000000,-0.154000,TRUE,FALSE,TRUE,FALSE,FALSE,FALSE,Disabled,0.000000,0.000000,0.000000,TRUE,0.025467,-0.026794,0.000000,-0.003784,0.034531,0.000000,0.027000,0.000000,0.052000,1.300000,0.140000,1.570000,0.362760,Hold,0.378906,0.000000,Hold,-248.000000,2.000000,LowGoal,1387.500000,-1454.545455,Speed,1387.500000,-1454.545455,Speed,Off,Off,0.000000,FALSE,0,,,,
06:59:35.472 PM 03/23/2016,Teleop Enabled,11,FALSE,0,NO ERROR,-0.000000,-0.660915,0.000000,-0.154000,TRUE,FALSE,TRUE,FALSE,FALSE,FALSE,Disabled,0.000000,0.000000,0.000000,TRUE,0.025055,-0.026443,0.000000,-0.013901,0.000000,0.000000,-0.015000,0.026000,0.058000,1.300000,0.120000,1.550000,0.353478,Hold,0.378906,0.000000,Hold,-248.000000,2.000000,LowGoal,1395.000000,-1454.545455,Speed,1387.500000,-1454.545455,Speed,Off,Off,0.000000,FALSE,0,,,,
06:59:35.573 PM 03/23/2016,Teleop Enabled,10,FALSE,0,NO ERROR,-0.000000,-0.660915,0.000000,-0.154000,TRUE,FALSE,TRUE,FALSE,FALSE,FALSE,Disabled,0.000000,0.000000,0.000000,TRUE,0.023773,-0.026459,0.000000,-0.035385,0.008377,0.000000,0.010000,-0.022000,0.028000,1.300000,0.060000,1.580000,0.359720,Hold,0.378906,0.000000,Hold,-248.000000,2.000000,LowGoal,1387.500000,-1454.545455,Speed,1387.500000,-1454.545455,Speed,Off,Off,0.000000,FALSE,0,,,,
06:59:35.673 PM 03/23/2016,Teleop Enabled,10,FALSE,0,NO ERROR,-0.000000,-0.660915,0.000000,-0.154000,TRUE,FALSE,TRUE,FALSE,FALSE,FALSE,Disabled,0.000000,0.000000,0.000000,TRUE,0.023163,-0.025787,0.000000,-0.003922,0.012009,0.000000,0.045000,0.042000,-0.040000,1.300000,0.020000,1.560000,0.354645,Hold,0.378906,0.000000,Hold,-248.000000,2.000000,LowGoal,1387.500000,-1454.545455,Speed,1395.000000,-1454.545455,Speed,Off,Off,0.000000,FALSE,0,,,,
06:59:35.773 PM 03/23/2016,Teleop Enabled,12,FALSE,0,NO ERROR,-0.000000,-0.660915,0.000000,-0.154000,TRUE,FALSE,TRUE,FALSE,FALSE,FALSE,Disabled,0.000000,0.000000,0.000000,TRUE,0.023010,-0.024902,0.000000,-0.008301,0.023056,0.000000,0.045000,0.042000,-0.040000,1.300000,0.090000,1.500000,0.344851,Hold,0.378906,0.000000,Hold,-248.000000,2.000000,LowGoal,1387.500000,-1454.545455,Speed,1380.000000,-1454.545455,Speed,Off,Off,0.000000,FALSE,0,,,,
06:59:35.873 PM 03/23/2016,Teleop Enabled,11,FALSE,0,NO ERROR,-0.000000,-0.660915,0.000000,-0.154000,TRUE,FALSE,TRUE,FALSE,FALSE,FALSE,Disabled,0.000000,0.000000,0.000000,TRUE,0.022903,-0.024323,0.000000,0.003983,0.001465,0.000000,0.034000,-0.102000,-0.047000,1.300000,0.090000,1.500000,0.331522,Hold,0.378906,0.000000,Hold,-248.000000,2.000000,LowGoal,1395.000000,-1454.545455,Speed,1387.500000,-1454.545455,Speed,Off,Off,0.000000,FALSE,0,,,,
06:59:35.974 PM 03/23/2016,Teleop Enabled,11,FALSE,0,NO ERROR,-0.000000,-0.660915,0.000000,-0.154000,TRUE,FALSE,TRUE,FALSE,FALSE,FALSE,Disabled,0.000000,0.000000,0.000000,TRUE,0.023514,-0.024704,0.000000,0.016083,-0.019577,0.000000,0.052000,0.004000,-0.004000,1.300000,0.140000,1.410000,0.312922,Hold,0.378906,0.000000,Hold,-248.000000,2.000000,LowGoal,1395.000000,-1454.545455,Speed,1387.500000,-1454.545455,Speed,Off,Off,0.000000,FALSE,0,,,,
06:59:36.074 PM 03/23/2016,Teleop Enabled,10,FALSE,0,NO ERROR,-0.000000,-0.660915,0.000000,-0.154000,TRUE,FALSE,TRUE,FALSE,FALSE,FALSE,Disabled,0.000000,0.000000,0.000000,TRUE,0.024796,-0.024933,0.000000,0.026779,-0.000351,0.000000,0.052000,0.004000,-0.004000,1.300000,0.160000,1.370000,0.302243,Hold,0.378906,0.000000,Hold,-248.000000,2.000000,LowGoal,1387.500000,-1454.545455,Speed,1387.500000,-1454.545455,Speed,Off,Off,0.000000,FALSE,0,,,,
06:59:36.174 PM 03/23/2016,Teleop Enabled,8,FALSE,0,NO ERROR,-0.000000,-0.660915,0.000000,-0.154000,TRUE,FALSE,TRUE,FALSE,FALSE,FALSE,Disabled,0.000000,0.000000,0.000000,TRUE,0.025177,-0.024567,0.000000,0.000000,0.017487,0.000000,0.014000,0.006000,-0.001000,1.300000,0.080000,1.410000,0.293478,Hold,0.378906,0.000000,Hold,-248.000000,2.000000,LowGoal,1395.000000,-1454.545455,Speed,1387.500000,-1454.545455,Speed,Off,Off,0.000000,FALSE,0,,,,
06:59:36.275 PM 03/23/2016,Teleop Enabled,11,FALSE,0,NO ERROR,-0.385827,-0.660915,0.385827,-0.288749,TRUE,FALSE,TRUE,FALSE,FALSE,FALSE,Disabled,0.000000,0.000000,0.000000,TRUE,0.025131,-0.024445,0.000000,-0.010117,0.002289,0.000000,0.014000,0.006000,-0.001000,1.300000,0.050000,1.470000,0.295230,Hold,0.378906,0.000000,Hold,-248.000000,2.000000,LowGoal,1387.500000,-1454.545455,Speed,1380.000000,-1454.545455,Speed,Off,Off,0.000000,FALSE,0,,,,
06:59:36.377 PM 03/23/2016,Teleop Enabled,11,FALSE,0,NO ERROR,-0.433071,-1.430913,0.433071,-1.071581,TRUE,FALSE,TRUE,FALSE,FALSE,FALSE,Disabled,0.000000,0.000000,0.000000,TRUE,0.027664,-0.024246,0.000000,0.104752,0.005005,0.000000,-0.015000,0.037000,0.045000,2.900000,0.450000,1.760000,2.129811,Hold,0.378906,0.000000,Hold,-248.000000,2.000000,LowGoal,1395.000000,-1454.545455,Speed,1387.500000,-1454.545455,Speed,Off,Off,0.000000,FALSE,0,,,,
06:59:36.476 PM 03/23/2016,Teleop Enabled,10,FALSE,0,NO ERROR,-0.000000,-2.245828,0.000000,-1.738913,TRUE,FALSE,TRUE,FALSE,FALSE,FALSE,Disabled,0.000000,0.000000,0.000000,TRUE,0.034897,-0.019852,0.000000,0.138306,0.097183,0.000000,-0.010000,0.151000,-0.040000,8.160000,0.470000,1.780000,7.538555,Hold,0.378906,0.000000,Hold,-248.000000,2.000000,LowGoal,1380.000000,-1454.545455,Speed,1380.000000,-1454.545455,Speed,Off,Off,0.000000,FALSE,0,,,,
06:59:36.578 PM 03/23/2016,Teleop Enabled,9,FALSE,0,NO ERROR,-0.000000,-2.444744,0.000000,-1.963495,TRUE,FALSE,TRUE,FALSE,FALSE,FALSE,Disabled,0.000000,0.000000,0.000000,TRUE,0.035019,-0.023666,0.000000,-0.039154,-0.103470,0.000000,0.168000,0.227000,0.071000,8.160000,0.470000,1.780000,8.478191,Hold,0.378906,0.000000,Hold,-249.000000,2.000000,LowGoal,1357.500000,-1454.545455,Speed,1350.000000,-1454.545455,Speed,Off,Off,0.000000,FALSE,0,,,,
06:59:36.678 PM 03/23/2016,Teleop Enabled,11,FALSE,0,NO ERROR,-0.000000,-2.444744,0.000000,-1.880079,TRUE,FALSE,TRUE,FALSE,FALSE,FALSE,Disabled,0.000000,0.000000,0.000000,TRUE,0.034866,-0.026917,0.000000,-0.011841,-0.094086,0.000000,0.168000,0.227000,0.071000,8.270000,-0.040000,1.120000,7.527250,Hold,0.378906,0.000000,Hold,-249.000000,2.000000,LowGoal,1387.500000,-1454.545455,Speed,1380.000000,-1454.545455,Speed,Off,Off,0.000000,FALSE,0,,,,
06:59:36.780 PM 03/23/2016,Teleop Enabled,11,FALSE,0,NO ERROR,0.622047,-2.034079,-0.622047,-1.231997,TRUE,FALSE,TRUE,FALSE,FALSE,FALSE,Disabled,0.000000,0.000000,0.000000,TRUE,0.035263,-0.032120,0.000000,0.031601,-0.082779,0.000000,0.035000,-0.109000,0.022000,8.270000,-0.040000,1.120000,7.401569,Hold,0.378906,0.000000,Hold,-249.000000,2.000000,LowGoal,1410.000000,-1454.545455,Speed,1402.500000,-1454.545455,Speed,Off,Off,0.000000,FALSE,0,,,,
06:59:36.882 PM 03/23/2016,Teleop Enabled,10,FALSE,0,NO ERROR,-0.000000,-0.481249,0.000000,0.622415,TRUE,FALSE,TRUE,FALSE,FALSE,FALSE,Disabled,0.000000,0.000000,0.000000,TRUE,0.030548,-0.038315,0.000000,-0.164703,-0.178207,0.000000,-0.547000,0.045000,0.084000,8.160000,-0.030000,1.370000,1.918775,Hold,0.378906,0.000000,Hold,-249.000000,2.000000,LowGoal,1387.500000,-1454.545455,Speed,1387.500000,-1454.545455,Speed,Off,Off,0.000000,FALSE,0,,,,
06:59:36.985 PM 03/23/2016,Teleop Enabled,9,FALSE,0,NO ERROR,-0.000000,0.853415,0.000000,2.188078,TRUE,FALSE,TRUE,FALSE,FALSE,FALSE,Disabled,0.000000,0.000000,0.000000,TRUE,0.022400,-0.053879,0.000000,-0.057190,-0.271225,0.000000,0.085000,-0.233000,-0.093000,3.330000,-0.820000,0.540000,-7.598514,Hold,0.378906,0.000000,Hold,-269.000000,2.000000,LowGoal,1350.000000,-1454.545455,Speed,1335.000000,-1454.545455,Speed,Off,Off,0.000000,FALSE,0,,,,
06:59:37.085 PM 03/23/2016,Teleop Enabled,11,FALSE,0,NO ERROR,-0.000000,1.122914,0.000000,2.650077,TRUE,FALSE,TRUE,FALSE,FALSE,FALSE,Disabled,0.000000,0.000000,0.000000,TRUE,0.022842,-0.062958,0.000000,0.057480,-0.154785,0.000000,0.142000,0.184000,-0.274000,-8.480000,0.410000,1.300000,-9.883240,Hold,0.379150,0.000000,Hold,-264.000000,2.000000,LowGoal,1312.500000,-1454.545455,Speed,1312.500000,-1454.545455,Speed,Off,Off,0.000000,FALSE,0,,,,
06:59:37.186 PM 03/23/2016,Teleop Enabled,10,FALSE,0,NO ERROR,-0.314961,0.923998,-0.314961,2.662910,TRUE,FALSE,TRUE,FALSE,FALSE,FALSE,Disabled,0.000000,0.000000,0.000000,TRUE,0.025528,-0.070602,0.000000,0.033936,-0.137299,0.000000,-0.030000,-0.033000,0.059000,-7.310000,0.390000,1.500000,-8.674981,Hold,0.379150,0.000000,Hold,-264.000000,2.000000,LowGoal,1402.500000,-1454.545455,Speed,1417.500000,-1454.545455,Speed,Off,Off,0.000000,FALSE,0,,,,
06:59:37.288 PM 03/23/2016,Teleop Enabled,9,FALSE,0,NO ERROR,-0.496063,-0.461999,-0.496063,3.978324,TRUE,FALSE,TRUE,FALSE,FALSE,FALSE,Disabled,0.000000,0.000000,0.000000,TRUE,0.034210,-0.078323,0.000000,0.328430,-0.182419,0.000000,-0.030000,-0.033000,0.059000,-7.310000,0.390000,1.500000,-8.584597,Hold,0.379150,0.000000,Hold,-264.000000,2.000000,LowGoal,1417.500000,-1454.545455,Speed,1417.500000,-1454.545455,Speed,Off,Off,0.000000,FALSE,0,,,,
06:59:37.388 PM 03/23/2016,Teleop Enabled,9,FALSE,0,NO ERROR,-0.496063,-2.643660,-0.496063,6.050903,TRUE,FALSE,TRUE,FALSE,FALSE,FALSE,Disabled,0.000000,0.000000,0.000000,TRUE,0.058868,-0.086502,0.000000,0.559113,-0.160416,0.000000,0.397000,0.034000,0.027000,-7.190000,2.440000,1.180000,-8.542436,Hold,0.379395,0.000000,Hold,-264.000000,2.000000,LowGoal,1372.500000,-1454.545455,Speed,1350.000000,-1454.545455,Speed,Off,Off,0.000000,FALSE,0,,,,
06:59:37.490 PM 03/23/2016,Teleop Enabled,11,FALSE,0,NO ERROR,-0.472441,-5.999569,-0.472441,9.361895,FALSE,FALSE,TRUE,FALSE,FALSE,FALSE,Disabled,0.000000,0.000000,0.000000,TRUE,0.094147,-0.094284,0.000000,0.791397,-0.147278,0.000000,0.303000,0.001000,-0.059000,-7.190000,3.640000,1.310000,-8.660695,Hold,0.379395,0.000000,Hold,-264.000000,2.000000,LowGoal,1335.000000,-1454.545455,Speed,1327.500000,-1454.545455,Speed,Off,Off,0.000000,FALSE,0,,,,
06:59:37.590 PM 03/23/2016,Teleop Enabled,9,FALSE,0,NO ERROR,-0.523461,-10.196059,-0.405673,13.500635,FALSE,FALSE,TRUE,FALSE,FALSE,FALSE,Disabled,0.000000,0.000000,0.000000,TRUE,0.137253,-0.094894,0.000000,0.863571,0.049576,0.000000,0.293000,0.017000,-0.002000,-7.320000,3.600000,1.230000,-8.609559,Hold,0.379395,0.000000,Hold,-264.000000,2.000000,LowGoal,1350.000000,-1454.545455,Speed,1357.500000,-1454.545455,Speed,Off,Off,0.000000,FALSE,0,,,,
06:59:37.690 PM 03/23/2016,Teleop Enabled,10,FALSE,0,NO ERROR,-0.566991,-15.175381,-0.362143,17.908875,FALSE,FALSE,TRUE,FALSE,FALSE,FALSE,Disabled,0.000000,0.000000,0.000000,TRUE,0.181290,-0.091553,0.000000,0.891479,0.070343,0.000000,-0.119000,0.026000,-0.090000,-7.260000,4.470000,1.430000,-7.987602,Hold,0.379395,0.000000,Hold,-264.000000,2.000000,LowGoal,1372.500000,-1454.545455,Speed,1380.000000,-1454.545455,Speed,Off,Off,0.000000,FALSE,0,,,,
06:59:37.791 PM 03/23/2016,Teleop Enabled,11,FALSE,0,NO ERROR,-0.572112,-20.847701,-0.357022,22.753447,FALSE,FALSE,TRUE,FALSE,FALSE,FALSE,Disabled,0.000000,0.000000,0.000000,TRUE,0.227112,-0.086594,0.000000,0.914017,0.098114,0.000000,0.171000,0.129000,0.045000,-6.530000,4.340000,1.490000,-6.483803,Hold,0.379395,0.000000,Hold,-264.000000,2.000000,LowGoal,1372.500000,-1454.545455,Speed,1380.000000,-1454.545455,Speed,Off,Off,0.000000,FALSE,0,,,,
06:59:37.892 PM 03/23/2016,Teleop Enabled,10,FALSE,0,NO ERROR,-0.610521,-26.969187,-0.318612,27.893185,FALSE,FALSE,TRUE,FALSE,FALSE,FALSE,Disabled,0.000000,0.000000,0.000000,TRUE,0.282379,-0.081421,0.000000,0.941071,0.078140,0.000000,-0.028000,-0.070000,0.131000,-3.660000,4.450000,1.410000,-4.686162,Hold,0.379395,0.000000,Hold,-264.000000,2.000000,LowGoal,1372.500000,-1454.545455,Speed,1365.000000,-1454.545455,Speed,Off,Off,0.000000,FALSE,0,,,,
06:59:37.993 PM 03/23/2016,Teleop Enabled,11,FALSE,0,NO ERROR,-0.573904,-33.315255,-0.292238,33.148422,FALSE,FALSE,TRUE,FALSE,FALSE,FALSE,Disabled,0.000000,0.000000,0.000000,TRUE,0.321655,-0.079346,0.000000,0.995636,0.031448,0.000000,0.005000,-0.107000,0.008000,-3.660000,4.450000,1.410000,-2.657479,Hold,0.379395,0.000000,Hold,-264.000000,2.000000,LowGoal,1372.500000,-1454.545455,Speed,1372.500000,-1454.545455,Speed,Off,Off,0.000000,FALSE,0,,,,
06:59:38.094 PM 03/23/2016,Teleop Enabled,11,FALSE,0,NO ERROR,-0.417106,-40.129739,-0.197067,38.544827,FALSE,FALSE,TRUE,FALSE,FALSE,FALSE,Disabled,0.000000,0.000000,0.000000,TRUE,0.369141,-0.079895,0.000000,0.000000,-0.004959,0.000000,-0.142000,-0.085000,0.134000,-1.300000,4.780000,1.220000,0.117863,Hold,0.379395,0.000000,Hold,-264.000000,2.000000,LowGoal,1380.000000,-1454.545455,Speed,1380.000000,-1454.545455,Speed,Off,Off,0.000000,FALSE,0,,,,
06:59:38.194 PM 03/23/2016,Teleop Enabled,11,FALSE,0,NO ERROR,-0.590551,-46.450141,0.590551,42.285734,FALSE,FALSE,TRUE,FALSE,FALSE,FALSE,Disabled,0.000000,0.000000,0.000000,TRUE,0.369141,-0.079895,0.000000,0.000000,-0.004959,0.000000,-0.010000,-0.054000,-0.038000,0.910000,4.280000,1.320000,3.002503,Hold,0.379395,0.000000,Hold,-264.000000,2.000000,LowGoal,1380.000000,-1454.545455,Speed,1387.500000,-1454.545455,Speed,Off,Off,0.000000,FALSE,0,,,,
06:59:38.294 PM 03/23/2016,Teleop Enabled,11,FALSE,0,NO ERROR,-0.590551,-52.802627,0.590551,43.293149,FALSE,FALSE,TRUE,FALSE,FALSE,FALSE,Disabled,0.000000,0.000000,0.000000,TRUE,0.349930,-0.074768,0.000000,-0.415802,0.253143,0.000000,-0.403000,0.390000,0.087000,3.420000,3.120000,1.340000,12.377900,Hold,0.379395,0.000000,Hold,-265.000000,2.000000,LowGoal,1380.000000,-1454.545455,Speed,1380.000000,-1454.545455,Speed,Off,Off,0.000000,FALSE,0,,,,
06:59:38.394 PM 03/23/2016,Teleop Enabled,11,FALSE,0,NO ERROR,-0.598425,-58.750863,0.598425,42.664317,TRUE,FALSE,TRUE,FALSE,FALSE,FALSE,Disabled,0.000000,0.000000,0.000000,TRUE,0.317856,-0.064011,0.000000,-0.738586,-0.050537,0.000000,-0.055000,0.070000,-0.653000,11.860000,0.190000,2.870000,25.372132,Hold,0.379395,0.000000,Hold,-265.000000,2.000000,LowGoal,1342.500000,-1454.545455,Speed,1350.000000,-1454.545455,Speed,Off,Off,0.000000,FALSE,0,,,,
06:59:38.494 PM 03/23/2016,Teleop Enabled,11,FALSE,0,NO ERROR,-0.614173,-63.672434,0.614173,40.797071,TRUE,FALSE,TRUE,FALSE,FALSE,FALSE,Disabled,0.000000,0.000000,0.000000,TRUE,0.317856,-0.064011,0.000000,-0.738586,-0.050537,0.000000,-1.064000,-0.818000,0.713000,24.270000,0.930000,1.020000,38.983786,Hold,0.379395,0.000000,Hold,-265.000000,2.000000,LowGoal,1335.000000,-1454.545455,Speed,1342.500000,-1454.545455,Speed,Off,Off,0.000000,FALSE,0,,,,
06:59:38.594 PM 03/23/2016,Teleop Enabled,11,FALSE,0,NO ERROR,-0.000000,-67.939508,0.000000,38.185494,TRUE,FALSE,TRUE,FALSE,FALSE,FALSE,Disabled,0.000000,0.000000,0.000000,TRUE,0.269592,-0.070175,0.000000,-0.886276,-0.027176,0.000000,0.486000,0.215000,-0.167000,37.230000,-1.330000,1.100000,52.602505,Hold,0.385254,0.000000,Hold,-266.000000,2.000000,LowGoal,1342.500000,-1454.545455,Speed,1350.000000,-1454.545455,Speed,Off,Off,0.000000,FALSE,0,,,,
06:59:38.694 PM 03/23/2016,Teleop Enabled,11,FALSE,0,NO ERROR,-0.000000,-67.939508,0.000000,38.185494,TRUE,FALSE,TRUE,FALSE,FALSE,FALSE,Disabled,0.000000,0.000000,0.000000,TRUE,0.222046,-0.073944,0.000000,-1.125671,-0.160599,0.000000,-0.564000,-0.116000,0.948000,50.290000,0.160000,-1.040000,52.602505,Hold,0.392822,0.000000,Hold,-266.000000,2.000000,LowGoal,1357.500000,-1454.545455,Speed,1357.500000,-1454.545455,Speed,Off,Off,0.000000,FALSE,0,,,,
06:59:38.795 PM 03/23/2016,Teleop Enabled,10,FALSE,0,NO ERROR,-0.842520,-69.992836,0.842520,37.338496,TRUE,FALSE,TRUE,FALSE,FALSE,FALSE,Disabled,0.000000,0.000000,0.000000,TRUE,0.161331,-0.081635,0.000000,-1.211395,-0.110306,0.000000,-0.686000,0.079000,0.319000,60.280000,-0.590000,-0.980000,62.248935,Hold,0.393066,0.000000,Hold,-265.000000,2.000000,LowGoal,1380.000000,-1454.545455,Speed,1372.500000,-1454.545455,Speed,Off,Off,0.000000,FALSE,0,,,,
06:59:38.897 PM 03/23/2016,Teleop Enabled,10,FALSE,0,NO ERROR,-1.000000,-71.340333,1.000000,36.722497,TRUE,FALSE,TRUE,FALSE,FALSE,FALSE,Disabled,0.000000,0.000000,0.000000,TRUE,0.091049,-0.084473,0.000000,-1.450668,-0.015732,0.000000,1.233000,0.019000,-0.082000,62.790000,-1.550000,-1.820000,64.125146,Hold,0.416260,0.000000,Hold,-265.000000,2.000000,LowGoal,1402.500000,-1454.545455,Speed,1395.000000,-1454.545455,Speed,Off,Off,0.000000,FALSE,0,,,,
06:59:38.997 PM 03/23/2016,Teleop Enabled,11,FALSE,0,NO ERROR,-1.000000,-73.444995,1.000000,34.771835,TRUE,FALSE,TRUE,FALSE,FALSE,FALSE,Disabled,0.000000,0.000000,0.000000,TRUE,0.034897,-0.084457,0.000000,-1.042252,-0.017578,0.000000,0.249000,-0.115000,0.027000,69.460000,-0.440000,-1.080000,70.326921,Hold,0.416260,0.000000,Hold,-280.000000,2.000000,LowGoal,1320.000000,-1454.545455,Speed,1297.500000,-1454.545455,Speed,Off,Off,0.000000,FALSE,0,,,,
06:59:39.098 PM 03/23/2016,Teleop Enabled,9,FALSE,0,NO ERROR,-0.299213,-77.166653,0.299213,30.851261,TRUE,FALSE,TRUE,FALSE,FALSE,FALSE,Disabled,0.000000,0.000000,0.000000,TRUE,-0.018265,-0.089188,0.000000,-0.831650,-0.144455,0.000000,0.049000,-0.264000,0.101000,83.130000,0.750000,-0.580000,84.066432,Hold,0.416260,0.000000,Hold,-280.000000,2.000000,LowGoal,1222.500000,-1454.545455,Speed,1245.000000,-1454.545455,Speed,Off,Off,0.000000,FALSE,0,,,,
06:59:39.199 PM 03/23/2016,Teleop Enabled,10,FALSE,0,NO ERROR,-0.000000,-82.062558,0.000000,25.403524,TRUE,FALSE,TRUE,FALSE,FALSE,FALSE,Disabled,0.000000,0.000000,0.000000,TRUE,-0.050507,-0.096542,0.000000,-0.768845,-0.182663,0.000000,-0.291000,-0.501000,0.049000,102.650000,1.080000,0.150000,104.037562,Hold,0.416260,0.000000,Hold,-262.000000,2.000000,LowGoal,1260.000000,-1454.545455,Speed,1260.000000,-1454.545455,Speed,Off,Off,0.000000,FALSE,0,,,,
06:59:39.300 PM 03/23/2016,Teleop Enabled,9,FALSE,0,NO ERROR,-0.314961,-85.116884,-0.314961,21.624116,TRUE,FALSE,TRUE,FALSE,FALSE,FALSE,Disabled,0.000000,0.000000,0.000000,TRUE,-0.095184,-0.107651,0.000000,-1.011642,-0.132675,0.000000,-0.119000,0.348000,-0.051000,121.350000,1.250000,-1.050000,124.222106,Hold,0.416260,0.000000,Hold,-262.000000,2.000000,LowGoal,1395.000000,-1454.545455,Speed,1387.500000,-1454.545455,Speed,Off,Off,0.000000,FALSE,0,,,,
06:59:39.400 PM 03/23/2016,Teleop Enabled,10,FALSE,0,NO ERROR,-0.441441,-86.182048,-0.345961,19.904453,TRUE,FALSE,TRUE,FALSE,FALSE,FALSE,Disabled,0.000000,0.000000,0.000000,TRUE,-0.156174,-0.103271,0.000000,-1.001633,0.191422,0.000000,-0.069000,0.288000,0.039000,129.060000,0.760000,-1.650000,133.157628,Hold,0.416260,0.000000,Hold,-263.000000,2.000000,LowGoal,1447.500000,-1454.545455,Speed,1432.500000,-1454.545455,Speed,Off,Off,0.000000,FALSE,0,,,,
06:59:39.501 PM 03/23/2016,Teleop Enabled,10,FALSE,0,NO ERROR,-0.401575,-86.785214,-0.401575,20.520452,TRUE,FALSE,TRUE,FALSE,FALSE,FALSE,Disabled,0.000000,0.000000,0.000000,TRUE,-0.213486,-0.095856,0.000000,-1.181381,0.043839,0.000000,0.035000,-0.264000,-0.160000,128.800000,2.510000,-1.870000,133.303241,Hold,0.416260,0.000000,Hold,-263.000000,2.000000,LowGoal,1365.000000,-1454.545455,Speed,1365.000000,-1454.545455,Speed,Off,Off,0.000000,FALSE,0,,,,
06:59:39.602 PM 03/23/2016,Teleop Enabled,10,FALSE,0,NO ERROR,-0.417323,-87.882461,-0.417323,22.182365,TRUE,FALSE,TRUE,FALSE,FALSE,FALSE,Disabled,0.000000,0.000000,0.000000,TRUE,-0.275146,-0.099640,0.000000,-1.289841,-0.112274,0.000000,-0.185000,-0.027000,0.056000,127.730000,2.700000,-1.850000,131.936101,Hold,0.416260,0.000000,Hold,-263.000000,2.000000,LowGoal,1342.500000,-1454.545455,Speed,1335.000000,-1454.545455,Speed,Off,Off,0.000000,FALSE,0,,,,
06:59:39.702 PM 03/23/2016,Teleop Enabled,9,FALSE,0,NO ERROR,-0.425197,-90.365705,-0.425197,24.832442,FALSE,FALSE,TRUE,FALSE,FALSE,FALSE,Disabled,0.000000,0.000000,0.000000,TRUE,-0.343216,-0.110611,0.000000,-1.383972,-0.313980,0.000000,-0.033000,-0.135000,-0.026000,127.150000,3.880000,-1.510000,131.513692,Hold,0.416260,0.000000,Hold,-263.000000,2.000000,LowGoal,1372.500000,-1454.545455,Speed,1365.000000,-1454.545455,Speed,Off,Off,0.000000,FALSE,0,,,,
06:59:39.802 PM 03/23/2016,Teleop Enabled,9,FALSE,0,NO ERROR,0.181102,-93.676698,-0.181102,28.066434,FALSE,FALSE,TRUE,FALSE,FALSE,FALSE,Disabled,0.000000,0.000000,0.000000,TRUE,-0.411789,-0.129456,0.000000,-1.379089,-0.396057,0.000000,0.195000,-0.046000,-0.054000,127.150000,4.600000,-1.460000,131.512883,Hold,0.416260,0.000000,Hold,-263.000000,2.000000,LowGoal,1395.000000,-1454.545455,Speed,1387.500000,-1454.545455,Speed,Off,Off,0.000000,FALSE,0,,,,
06:59:39.903 PM 03/23/2016,Teleop Enabled,9,FALSE,0,NO ERROR,0.503937,-97.167356,-0.503937,31.807342,FALSE,FALSE,TRUE,FALSE,FALSE,FALSE,Disabled,0.000000,0.000000,0.000000,TRUE,-0.479828,-0.151535,0.000000,-1.364853,-0.470963,0.000000,0.163000,0.053000,0.096000,127.060000,4.350000,-1.180000,131.386968,Hold,0.416260,0.000000,Hold,-263.000000,2.000000,LowGoal,1372.500000,-1454.545455,Speed,1372.500000,-1454.545455,Speed,Off,Off,0.000000,FALSE,0,,,,
06:59:40.003 PM 03/23/2016,Teleop Enabled,10,FALSE,0,NO ERROR,0.566929,-98.502020,-0.566929,35.683000,TRUE,FALSE,TRUE,FALSE,FALSE,FALSE,Disabled,0.000000,0.000000,0.000000,TRUE,-0.544418,-0.163483,0.000000,-1.256775,-0.037659,0.000000,0.066000,0.488000,-0.242000,125.200000,1.240000,-1.570000,128.579060,Hold,0.416260,0.000000,Hold,-263.000000,2.000000,LowGoal,1380.000000,-1454.545455,Speed,1372.500000,-1454.545455,Speed,Off,Off,0.000000,FALSE,0,,,,
06:59:40.103 PM 03/23/2016,Teleop Enabled,9,FALSE,0,NO ERROR,0.566929,-98.161937,-0.566929,40.059156,TRUE,FALSE,TRUE,FALSE,FALSE,FALSE,Disabled,0.000000,0.000000,0.000000,TRUE,-0.604294,-0.154022,0.000000,-1.142334,0.265396,0.000000,0.719000,-0.094000,0.404000,115.270000,0.290000,-1.800000,119.639951,Hold,0.416260,0.000000,Hold,-263.000000,2.000000,LowGoal,1365.000000,-1454.545455,Speed,1357.500000,-1454.545455,Speed,Off,Off,0.000000,FALSE,0,,,,
06:59:40.202 PM 03/23/2016,Teleop Enabled,9,FALSE,0,NO ERROR,-0.000000,-96.423025,0.000000,44.435313,TRUE,FALSE,TRUE,FALSE,FALSE,FALSE,Disabled,0.000000,0.000000,0.000000,TRUE,-0.647049,-0.140793,0.000000,-0.798218,0.351822,0.000000,-0.532000,0.160000,-0.160000,106.280000,-0.550000,-0.850000,107.621795,Hold,0.416260,0.000000,Hold,-263.000000,2.000000,LowGoal,1350.000000,-1454.545455,Speed,1342.500000,-1454.545455,Speed,Off,Off,0.000000,FALSE,0,,,,
06:59:40.303 PM 03/23/2016,Teleop Enabled,9,FALSE,0,NO ERROR,-0.000000,-95.165361,0.000000,47.919555,TRUE,FALSE,TRUE,FALSE,FALSE,FALSE,Disabled,0.000000,0.000000,0.000000,TRUE,-0.698746,-0.119995,0.000000,-1.076767,0.386322,0.000000,0.823000,-0.108000,-0.153000,91.260000,-0.390000,-0.470000,94.515088,Hold,0.416260,0.000000,Hold,-263.000000,2.000000,LowGoal,1365.000000,-1454.545455,Speed,1372.500000,-1454.545455,Speed,Off,Off,0.000000,FALSE,0,,,,
06:59:40.404 PM 03/23/2016,Teleop Enabled,9,FALSE,0,NO ERROR,-0.000000,-94.626362,0.000000,49.658467,TRUE,FALSE,TRUE,FALSE,FALSE,FALSE,Disabled,0.000000,0.000000,0.000000,TRUE,-0.738907,-0.103485,0.000000,-0.732925,0.256073,0.000000,-0.019000,-0.130000,-0.052000,85.930000,0.120000,0.030000,88.612440,Hold,0.416260,0.000000,Hold,-263.000000,2.000000,LowGoal,1402.500000,-1454.545455,Speed,1410.000000,-1454.545455,Speed,Off,Off,0.000000,FALSE,0,,,,
06:59:40.504 PM 03/23/2016,Teleop Enabled,9,FALSE,0,NO ERROR,-0.417323,-94.947195,0.417323,50.069133,TRUE,FALSE,TRUE,FALSE,FALSE,FALSE,Disabled,0.000000,0.000000,0.000000,TRUE,-0.779510,-0.089539,0.000000,-0.588806,0.274338,0.000000,0.030000,0.067000,-0.065000,86.050000,0.020000,0.910000,88.607339,Hold,0.416260,0.000000,Hold,-263.000000,2.000000,LowGoal,1395.000000,-1454.545455,Speed,1402.500000,-1454.545455,Speed,Off,Off,0.000000,FALSE,0,,,,
06:59:40.604 PM 03/23/2016,Teleop Enabled,9,FALSE,0,NO ERROR,-0.496063,-95.999526,0.496063,49.818884,TRUE,FALSE,TRUE,FALSE,FALSE,FALSE,Disabled,0.000000,0.000000,0.000000,TRUE,-0.810013,-0.074783,0.000000,-0.568924,0.274719,0.000000,0.263000,0.079000,0.207000,87.150000,0.270000,0.740000,89.700285,Hold,0.416260,0.000000,Hold,-263.000000,2.000000,LowGoal,1372.500000,-1454.545455,Speed,1380.000000,-1454.545455,Speed,Off,Off,0.000000,FALSE,0,,,,
06:59:40.704 PM 03/23/2016,Teleop Enabled,9,FALSE,0,NO ERROR,-0.000000,-97.526689,0.000000,48.336637,TRUE,FALSE,TRUE,FALSE,FALSE,FALSE,Disabled,0.000000,0.000000,0.000000,TRUE,-0.835083,-0.062302,0.000000,-0.453430,0.202316,0.000000,0.150000,-0.176000,0.025000,92.410000,0.450000,1.450000,95.047749,Hold,0.416260,0.000000,Hold,-263.000000,2.000000,LowGoal,1350.000000,-1454.545455,Speed,1350.000000,-1454.545455,Speed,Off,Off,0.000000,FALSE,0,,,,
06:59:40.805 PM 03/23/2016,Teleop Enabled,9,FALSE,0,NO ERROR,-0.000000,-98.457103,0.000000,47.265056,TRUE,FALSE,TRUE,FALSE,FALSE,FALSE,Disabled,0.000000,0.000000,0.000000,TRUE,-0.859406,-0.052856,0.000000,-0.574356,0.246689,0.000000,-0.339000,0.327000,0.032000,99.150000,0.280000,0.880000,102.131648,Hold,0.416260,0.000000,Hold,-263.000000,2.000000,LowGoal,1372.500000,-1454.545455,Speed,1380.000000,-1454.545455,Speed,Off,Off,0.000000,FALSE,0,,,,
06:59:40.905 PM 03/23/2016,Teleop Enabled,9,FALSE,0,NO ERROR,-0.000000,-98.546936,0.000000,46.989140,TRUE,FALSE,TRUE,FALSE,FALSE,FALSE,Disabled,0.000000,0.000000,0.000000,TRUE,-0.892883,-0.035782,0.000000,-0.656448,0.355225,0.000000,0.054000,-0.047000,0.015000,100.460000,-0.280000,0.700000,103.661869,Hold,0.416260,0.000000,Hold,-261.000000,2.000000,LowGoal,1417.500000,-1454.545455,Speed,1410.000000,-1454.545455,Speed,Off,Off,0.000000,FALSE,0,,,,
06:59:41.006 PM 03/23/2016,Teleop Enabled,9,FALSE,0,NO ERROR,0.291339,-98.508436,0.291339,47.066140,TRUE,FALSE,TRUE,FALSE,FALSE,FALSE,Disabled,0.000000,0.000000,0.000000,TRUE,-0.918884,-0.018768,0.000000,0.000000,0.319870,0.000000,0.007000,-0.050000,0.040000,99.320000,-0.050000,0.590000,102.321664,Hold,0.416260,0.000000,Hold,-257.000000,2.000000,LowGoal,1402.500000,-1454.545455,Speed,1395.000000,-1454.545455,Speed,Off,Off,0.000000,FALSE,0,,,,
06:59:41.105 PM 03/23/2016,Teleop Enabled,10,FALSE,0,NO ERROR,0.314961,-97.943771,0.314961,46.520725,TRUE,FALSE,TRUE,FALSE,FALSE,FALSE,Disabled,0.000000,0.000000,0.000000,TRUE,-0.916916,-0.003708,0.000000,0.097519,0.366241,0.000000,0.160000,0.244000,0.124000,99.430000,-0.690000,0.900000,102.630468,Hold,0.416260,0.000000,Hold,-256.000000,2.000000,LowGoal,1380.000000,-1454.545455,Speed,1380.000000,-1454.545455,Speed,Off,Off,0.000000,FALSE,0,,,,
06:59:41.206 PM 03/23/2016,Teleop Enabled,9,FALSE,0,NO ERROR,0.384401,-96.917107,0.245520,45.417060,TRUE,FALSE,TRUE,FALSE,FALSE,FALSE,Disabled,0.000000,0.000000,0.000000,TRUE,-0.909546,0.021378,0.000000,0.160187,0.587662,0.000000,-0.022000,0.173000,0.068000,99.640000,-1.860000,1.050000,102.819492,Hold,0.416260,0.000000,Hold,-256.000000,2.000000,LowGoal,1372.500000,-1454.545455,Speed,1372.500000,-1454.545455,Speed,Off,Off,0.000000,FALSE,0,,,,
06:59:41.306 PM 03/23/2016,Teleop Enabled,10,FALSE,0,NO ERROR,0.384401,-94.838112,0.245520,43.684565,TRUE,FALSE,TRUE,FALSE,FALSE,FALSE,Disabled,0.000000,0.000000,0.000000,TRUE,-0.901688,0.056213,0.000000,0.170670,0.783585,0.000000,-0.006000,0.162000,-0.028000,99.200000,-2.450000,0.940000,102.343352,Hold,0.416260,0.000000,Hold,-256.000000,2.000000,LowGoal,1387.500000,-1454.545455,Speed,1372.500000,-1454.545455,Speed,Off,Off,0.000000,FALSE,0,,,,
06:59:41.406 PM 03/23/2016,Teleop Enabled,9,FALSE,0,NO ERROR,0.400025,-92.008368,0.229896,41.509320,TRUE,FALSE,TRUE,FALSE,FALSE,FALSE,Disabled,0.000000,0.000000,0.000000,TRUE,-0.901810,0.099426,0.000000,0.010971,0.901886,0.000000,0.105000,0.127000,0.025000,97.990000,-2.760000,0.930000,101.058679,Hold,0.416260,0.000000,Hold,-256.000000,2.000000,LowGoal,1387.500000,-1454.545455,Speed,1380.000000,-1454.545455,Speed,Off,Off,0.000000,FALSE,0,,,,
06:59:41.507 PM 03/23/2016,Teleop Enabled,9,FALSE,0,NO ERROR,0.428954,-88.646043,0.185219,38.961909,TRUE,FALSE,TRUE,FALSE,FALSE,FALSE,Disabled,0.000000,0.000000,0.000000,TRUE,-0.898712,0.147568,0.000000,0.083038,1.017059,0.000000,0.024000,0.082000,-0.098000,96.880000,-2.830000,1.000000,99.599100,Hold,0.416260,0.000000,Hold,-255.000000,2.000000,LowGoal,1387.500000,-1454.545455,Speed,1387.500000,-1454.545455,Speed,Off,Off,0.000000,FALSE,0,,,,
06:59:41.607 PM 03/23/2016,Teleop Enabled,9,FALSE,0,NO ERROR,0.307087,-85.091218,0.307087,36.324665,TRUE,FALSE,TRUE,FALSE,FALSE,FALSE,Disabled,0.000000,0.000000,0.000000,TRUE,-0.896286,0.199570,0.000000,0.000000,1.028107,0.000000,0.112000,0.227000,0.186000,94.780000,-2.680000,1.010000,97.699293,Hold,0.416260,0.000000,Hold,-255.000000,2.000000,LowGoal,1380.000000,-1454.545455,Speed,1387.500000,-1454.545455,Speed,Off,Off,0.000000,FALSE,0,,,,
06:59:41.708 PM 03/23/2016,Teleop Enabled,9,FALSE,0,NO ERROR,0.299213,-81.491476,0.299213,33.174089,TRUE,FALSE,TRUE,FALSE,FALSE,FALSE,Disabled,0.000000,0.000000,0.000000,TRUE,-0.895142,0.251892,0.000000,0.016830,1.026764,0.000000,-0.042000,-0.028000,0.041000,93.380000,-2.870000,1.060000,96.248375,Hold,0.416260,0.000000,Hold,-255.000000,2.000000,LowGoal,1387.500000,-1454.545455,Speed,1395.000000,-1454.545455,Speed,Off,Off,0.000000,FALSE,0,,,,
06:59:41.808 PM 03/23/2016,Teleop Enabled,9,FALSE,0,NO ERROR,-0.000000,-78.064984,0.000000,29.843847,TRUE,FALSE,TRUE,FALSE,FALSE,FALSE,Disabled,0.000000,0.000000,0.000000,TRUE,-0.895111,0.271515,0.000000,0.012650,-0.026230,0.000000,-0.100000,-0.087000,-0.030000,93.180000,-2.470000,1.190000,96.010391,Hold,0.416260,0.000000,Hold,-251.000000,2.000000,LowGoal,1395.000000,-1454.545455,Speed,1380.000000,-1454.545455,Speed,Off,Off,0.000000,FALSE,0,,,,
06:59:41.908 PM 03/23/2016,Teleop Enabled,9,FALSE,0,NO ERROR,-0.000000,-75.305824,0.000000,27.251520,TRUE,FALSE,TRUE,FALSE,FALSE,FALSE,Disabled,0.000000,0.000000,0.000000,TRUE,-0.895203,0.268204,0.000000,0.000778,-0.150986,0.000000,-0.031000,-0.207000,0.183000,92.970000,-1.110000,1.190000,95.758771,Hold,0.416260,0.000000,Hold,-251.000000,2.000000,LowGoal,1395.000000,-1454.545455,Speed,1395.000000,-1454.545455,Speed,Off,Off,0.000000,FALSE,0,,,,
06:59:42.008 PM 03/23/2016,Teleop Enabled,9,FALSE,0,NO ERROR,-0.000000,-73.143412,0.000000,25.018525,TRUE,FALSE,TRUE,FALSE,FALSE,FALSE,Disabled,0.000000,0.000000,0.000000,TRUE,-0.894943,0.246353,0.000000,-0.003464,-0.467987,0.000000,-0.032000,-0.262000,0.024000,92.930000,0.100000,1.150000,95.713233,Hold,0.416260,0.000000,Hold,-251.000000,2.000000,LowGoal,1395.000000,-1454.545455,Speed,1395.000000,-1454.545455,Speed,Off,Off,0.000000,FALSE,0,,,,
06:59:42.108 PM 03/23/2016,Teleop Enabled,10,FALSE,0,NO ERROR,-0.000000,-71.552083,0.000000,23.305279,TRUE,FALSE,TRUE,FALSE,FALSE,FALSE,Disabled,0.000000,0.000000,0.000000,TRUE,-0.896378,0.216156,0.000000,-0.031403,-0.679169,0.000000,0.057000,-0.150000,0.042000,93.230000,0.280000,1.270000,95.986076,Hold,0.416260,0.000000,Hold,-250.000000,2.000000,LowGoal,1402.500000,-1454.545455,Speed,1387.500000,-1454.545455,Speed,Off,Off,0.000000,FALSE,0,,,,
06:59:42.210 PM 03/23/2016,Teleop Enabled,9,FALSE,0,NO ERROR,-0.700787,-70.724335,-0.700787,22.477531,TRUE,FALSE,TRUE,FALSE,FALSE,FALSE,Disabled,0.000000,0.000000,0.000000,TRUE,-0.896973,0.179108,0.000000,-0.014709,-0.779053,0.000000,-0.118000,-0.634000,-0.183000,93.400000,2.030000,1.270000,96.162142,Hold,0.416260,0.000000,Hold,-248.000000,2.000000,LowGoal,1395.000000,-1454.545455,Speed,1395.000000,-1454.545455,Speed,Off,Off,0.000000,FALSE,0,,,,
06:59:42.309 PM 03/23/2016,Teleop Enabled,9,FALSE,0,NO ERROR,-0.000000,-71.487916,0.000000,23.363029,FALSE,FALSE,TRUE,FALSE,FALSE,FALSE,Disabled,0.000000,0.000000,0.000000,TRUE,-0.900482,0.111130,0.000000,-0.101410,-1.402466,0.000000,-0.056000,-0.222000,0.206000,93.160000,5.370000,1.220000,95.943657,Hold,0.416260,0.000000,Hold,-248.000000,2.000000,LowGoal,1357.500000,-1454.545455,Speed,1350.000000,-1454.545455,Speed,Off,Off,0.000000,FALSE,0,,,,
06:59:42.410 PM 03/23/2016,Teleop Enabled,9,FALSE,0,NO ERROR,-0.000000,-72.559497,0.000000,24.441026,TRUE,FALSE,TRUE,FALSE,FALSE,FALSE,Disabled,0.000000,0.000000,0.000000,TRUE,-0.907837,0.039871,0.000000,-0.166763,-1.355164,0.000000,-0.046000,-0.070000,0.549000,93.090000,2.270000,1.190000,95.882627,Hold,0.416260,0.000000,Hold,-278.000000,2.000000,LowGoal,1342.500000,-1454.545455,Speed,1350.000000,-1454.545455,Speed,Off,Off,0.000000,FALSE,0,,,,
06:59:42.510 PM 03/23/2016,Teleop Enabled,10,FALSE,0,NO ERROR,-0.000000,-73.951910,0.000000,25.878356,TRUE,FALSE,TRUE,FALSE,FALSE,FALSE,Disabled,0.000000,0.000000,0.000000,TRUE,-0.916748,-0.026306,0.000000,-0.185974,-1.267593,0.000000,0.009000,0.130000,0.337000,93.020000,2.080000,1.140000,95.786184,Hold,0.416260,0.000000,Hold,-245.000000,2.000000,LowGoal,1417.500000,-1454.545455,Speed,1350.000000,-1454.545455,Speed,Off,Off,0.000000,FALSE,0,,,,
06:59:42.611 PM 03/23/2016,Teleop Enabled,11,FALSE,0,NO ERROR,-0.000000,-74.747575,0.000000,26.699688,TRUE,FALSE,TRUE,FALSE,FALSE,FALSE,Disabled,0.000000,0.000000,0.000000,TRUE,-0.923904,-0.084610,0.000000,0.000000,-1.104553,0.000000,0.023000,0.086000,-0.308000,92.960000,1.150000,1.180000,95.757783,Hold,0.416260,0.000000,Hold,-245.000000,2.000000,LowGoal,1417.500000,-1454.545455,Speed,1425.000000,-1454.545455,Speed,Off,Off,0.000000,FALSE,0,,,,
06:59:42.711 PM 03/23/2016,Teleop Enabled,10,FALSE,0,NO ERROR,-0.000000,-75.286574,0.000000,27.245103,TRUE,FALSE,TRUE,FALSE,FALSE,FALSE,Disabled,0.000000,0.000000,0.000000,TRUE,-0.924515,-0.138092,0.000000,-0.029510,-1.043030,0.000000,0.092000,0.174000,-0.135000,92.940000,1.360000,1.250000,95.695824,Hold,0.416260,0.000000,Hold,-245.000000,2.000000,LowGoal,1417.500000,-1454.545455,Speed,1402.500000,-1454.545455,Speed,Off,Off,0.000000,FALSE,0,,,,
06:59:42.811 PM 03/23/2016,Teleop Enabled,10,FALSE,0,NO ERROR,-0.000000,-75.389240,0.000000,27.334936,TRUE,FALSE,TRUE,FALSE,FALSE,FALSE,Disabled,0.000000,0.000000,0.000000,TRUE,-0.925095,-0.186050,0.000000,-0.007782,-0.924149,0.000000,-0.075000,0.065000,-0.038000,92.960000,0.680000,1.210000,95.725027,Hold,0.416260,60.000000,Hold,-245.000000,2.000000,LowGoal,1387.500000,-1454.545455,Speed,1380.000000,-1454.545455,Speed,Off,Off,0.000000,FALSE,0,,,,
06:59:42.910 PM 03/23/2016,Teleop Enabled,9,FALSE,0,NO ERROR,-0.000000,-75.395657,0.000000,27.328519,TRUE,FALSE,TRUE,FALSE,FALSE,FALSE,Disabled,0.000000,0.000000,0.000000,TRUE,-0.926437,-0.238937,0.000000,-0.021164,-0.845139,0.000000,-0.036000,0.039000,-0.106000,92.970000,0.690000,1.300000,95.732349,Hold,3.547119,60.000000,Hold,-245.000000,2.000000,LowGoal,1380.000000,-1454.545455,Speed,1387.500000,-1454.545455,Speed,Off,Off,0.000000,FALSE,0,,,,
06:59:43.011 PM 03/23/2016,Teleop Enabled,9,FALSE,0,NO ERROR,-0.000000,-75.395657,0.000000,27.302853,TRUE,FALSE,TRUE,FALSE,FALSE,FALSE,Disabled,0.000000,0.000000,0.000000,TRUE,-0.927063,-0.272598,0.000000,0.000000,-0.850143,0.000000,-0.010000,-0.020000,0.131000,92.970000,0.660000,1.290000,95.729854,Hold,6.056885,60.000000,Hold,-244.000000,2.000000,LowGoal,1395.000000,-1454.545455,Speed,1402.500000,-1454.545455,Speed,Off,Off,0.000000,FALSE,0,,,,
06:59:43.111 PM 03/23/2016,Teleop Enabled,8,FALSE,0,NO ERROR,-0.000000,-75.376407,0.000000,27.270770,TRUE,FALSE,TRUE,FALSE,FALSE,FALSE,Disabled,0.000000,0.000000,0.000000,TRUE,-0.926468,-0.298477,0.000000,0.012833,-0.004593,0.000000,-0.029000,-0.030000,0.005000,93.010000,0.740000,1.280000,95.770445,Hold,8.942139,60.000000,Hold,-244.000000,2.000000,LowGoal,1395.000000,-1454.545455,Speed,1395.000000,-1454.545455,Speed,Off,Off,0.000000,FALSE,0,,,,
06:59:43.212 PM 03/23/2016,Teleop Enabled,11,FALSE,0,NO ERROR,-0.000000,-75.369990,0.000000,27.270770,TRUE,FALSE,TRUE,FALSE,FALSE,FALSE,Disabled,0.000000,0.000000,0.000000,TRUE,-0.925995,-0.300034,0.000000,-0.003403,-0.043259,0.000000,-0.057000,-0.022000,-0.006000,93.000000,0.800000,1.250000,95.759628,Hold,13.124512,60.000000,Hold,-244.000000,2.000000,LowGoal,1387.500000,-1454.545455,Speed,1395.000000,-1454.545455,Speed,Off,Off,0.000000,FALSE,0,,,,
06:59:43.313 PM 03/23/2016,Teleop Enabled,10,FALSE,0,NO ERROR,-0.000000,-75.369990,0.000000,27.270770,TRUE,FALSE,TRUE,FALSE,FALSE,FALSE,Disabled,0.000000,0.000000,0.000000,TRUE,-0.926407,-0.301514,0.000000,-0.002289,-0.018890,0.000000,0.015000,-0.010000,0.016000,92.990000,0.710000,1.260000,95.766637,Hold,18.003174,60.000000,Hold,-244.000000,2.000000,LowGoal,1387.500000,-1454.545455,Speed,1402.500000,-1454.545455,Speed,Off,Off,0.000000,FALSE,0,,,,
06:59:43.414 PM 03/23/2016,Teleop Enabled,9,FALSE,0,NO ERROR,-0.000000,-75.369990,0.000000,27.270770,TRUE,FALSE,TRUE,FALSE,FALSE,FALSE,Disabled,0.000000,0.000000,0.000000,TRUE,-0.925354,-0.301605,0.000000,0.046570,0.012482,0.000000,-0.014000,-0.044000,-0.022000,93.000000,0.650000,1.300000,95.749232,Hold,23.874023,60.000000,Hold,-244.000000,2.000000,LowGoal,1395.000000,-1454.545455,Speed,1402.500000,-1454.545455,Speed,Off,Off,0.000000,FALSE,0,,,,
06:59:43.515 PM 03/23/2016,Teleop Enabled,10,FALSE,0,NO ERROR,-0.000000,-75.369990,0.000000,27.270770,TRUE,FALSE,TRUE,FALSE,FALSE,FALSE,Disabled,0.000000,0.000000,0.000000,TRUE,-0.923386,-0.301605,0.000000,0.032700,0.009491,0.000000,0.051000,0.073000,0.031000,92.990000,0.720000,1.280000,95.740233,Hold,30.800049,60.000000,Hold,-244.000000,2.000000,LowGoal,1395.000000,-1454.545455,Speed,1387.500000,-1454.545455,Speed,Off,Off,0.000000,FALSE,0,,,,
06:59:43.616 PM 03/23/2016,Teleop Enabled,9,FALSE,0,NO ERROR,-0.000000,-75.369990,0.000000,27.270770,TRUE,FALSE,TRUE,FALSE,FALSE,FALSE,Disabled,0.000000,0.000000,0.000000,TRUE,-0.922958,-0.301910,0.000000,-0.016891,-0.023163,0.000000,-0.009000,-0.003000,-0.009000,92.970000,0.610000,1.270000,95.701156,Hold,38.664062,60.000000,Hold,-244.000000,2.000000,LowGoal,1395.000000,-1454.545455,Speed,1387.500000,-1454.545455,Speed,Off,Off,0.000000,FALSE,0,,,,
06:59:43.717 PM 03/23/2016,Teleop Enabled,10,FALSE,0,NO ERROR,-0.000000,-75.389240,0.000000,27.328519,TRUE,FALSE,TRUE,FALSE,FALSE,FALSE,Disabled,0.000000,0.000000,0.000000,TRUE,-0.924026,-0.303085,0.000000,-0.037430,-0.033035,0.000000,-0.145000,-0.083000,0.133000,92.990000,0.710000,1.230000,95.729502,Hold,49.899414,60.000000,Hold,-244.000000,2.000000,LowGoal,1395.000000,-1454.545455,Speed,1395.000000,-1454.545455,Speed,Off,Off,0.000000,FALSE,0,,,,
06:59:43.818 PM 03/23/2016,Teleop Enabled,10,FALSE,0,NO ERROR,-0.000000,-75.402074,0.000000,27.334936,TRUE,FALSE,TRUE,FALSE,FALSE,FALSE,Disabled,0.000000,0.000000,0.000000,TRUE,-0.926407,-0.303589,0.000000,-0.055618,0.006302,0.000000,-0.075000,-0.154000,-0.001000,92.930000,0.240000,1.230000,95.672934,Hold,58.022949,60.000000,Hold,-244.000000,2.000000,LowGoal,1387.500000,-1454.545455,Speed,1395.000000,-1454.545455,Speed,Off,Off,0.000000,FALSE,0,,,,
06:59:43.918 PM 03/23/2016,Teleop Enabled,9,FALSE,0,NO ERROR,-0.000000,-75.408490,0.000000,27.334936,TRUE,FALSE,TRUE,FALSE,FALSE,FALSE,Disabled,0.000000,0.000000,0.000000,TRUE,-0.923950,-0.304184,0.000000,0.166336,-0.005997,0.000000,0.030000,-0.085000,-0.073000,93.030000,0.520000,1.260000,95.774955,Hold,63.255371,60.000000,Hold,-244.000000,2.000000,LowGoal,1395.000000,-1454.545455,Speed,1395.000000,-1454.545455,Speed,Off,Off,0.000000,FALSE,0,,,,
06:59:44.020 PM 03/23/2016,Teleop Enabled,9,FALSE,0,NO ERROR,-0.000000,-75.389240,0.000000,27.264353,TRUE,FALSE,TRUE,FALSE,FALSE,FALSE,Disabled,0.000000,0.000000,0.000000,TRUE,-0.911591,-0.304733,0.000000,0.227554,-0.023285,0.000000,0.036000,-0.145000,0.105000,93.010000,0.120000,1.250000,95.766310,Hold,62.884033,60.000000,Hold,-244.000000,2.000000,LowGoal,1395.000000,-1454.545455,Speed,1395.000000,-1454.545455,Speed,Off,Off,0.000000,FALSE,0,,,,
06:59:44.121 PM 03/23/2016,Teleop Enabled,10,FALSE,0,NO ERROR,-0.000000,-75.389240,0.000000,27.264353,TRUE,FALSE,TRUE,FALSE,FALSE,FALSE,Disabled,0.000000,0.000000,0.000000,TRUE,-0.899811,-0.307648,0.000000,0.223206,-0.071274,0.000000,0.011000,0.030000,0.104000,93.020000,0.510000,1.230000,95.753741,Hold,62.882812,60.000000,Hold,-244.000000,2.000000,LowGoal,1395.000000,-1454.545455,Speed,1395.000000,-1454.545455,Speed,Off,Off,0.000000,FALSE,0,,,,
06:59:44.221 PM 03/23/2016,Teleop Enabled,11,FALSE,0,NO ERROR,-0.000000,-75.389240,0.000000,27.264353,TRUE,FALSE,TRUE,FALSE,FALSE,FALSE,Disabled,0.000000,0.000000,0.000000,TRUE,-0.891510,-0.311859,0.000000,0.000000,-0.097885,0.000000,0.033000,0.073000,0.013000,93.010000,0.490000,1.170000,95.755339,Hold,62.882812,60.000000,Hold,-244.000000,2.000000,LowGoal,1387.500000,-1454.545455,Speed,1387.500000,-1454.545455,Speed,Off,Off,0.000000,FALSE,0,,,,
06:59:44.321 PM 03/23/2016,Teleop Enabled,9,FALSE,0,NO ERROR,-0.000000,-75.389240,0.000000,27.264353,TRUE,FALSE,TRUE,FALSE,FALSE,FALSE,Disabled,0.000000,0.000000,0.000000,TRUE,-0.891418,-0.315826,0.000000,0.000000,-0.067398,0.000000,0.033000,0.073000,0.013000,93.020000,0.420000,1.180000,95.754943,Hold,62.882812,60.000000,Hold,-243.000000,2.000000,LowGoal,1402.500000,-1454.545455,Speed,1387.500000,-1454.545455,Speed,Off,Off,0.000000,FALSE,0,,,,
06:59:44.422 PM 03/23/2016,Teleop Enabled,9,FALSE,0,NO ERROR,-0.000000,-75.389240,0.000000,27.264353,TRUE,FALSE,TRUE,FALSE,FALSE,FALSE,Disabled,0.000000,0.000000,0.000000,TRUE,-0.890976,-0.318420,0.000000,0.021103,-0.031464,0.000000,-0.017000,0.030000,0.016000,93.010000,0.340000,1.250000,95.755518,Hold,62.882812,60.000000,Hold,-243.000000,2.000000,LowGoal,1387.500000,-1454.545455,Speed,1395.000000,-1454.545455,Speed,Off,Off,0.000000,FALSE,0,,,,
06:59:44.523 PM 03/23/2016,Teleop Enabled,9,FALSE,0,NO ERROR,-0.000000,-75.389240,0.000000,27.264353,TRUE,FALSE,TRUE,FALSE,FALSE,FALSE,Disabled,0.000000,0.000000,0.000000,TRUE,-0.890808,-0.319717,0.000000,0.000000,-0.024948,0.000000,0.006000,0.035000,0.050000,93.010000,0.330000,1.260000,95.753645,Hold,62.882812,60.000000,Hold,-242.000000,2.000000,LowGoal,1395.000000,-1454.545455,Speed,1402.500000,-1454.545455,Speed,Off,Off,0.000000,FALSE,0,,,,
06:59:44.623 PM 03/23/2016,Teleop Enabled,9,FALSE,0,NO ERROR,-0.000000,-75.389240,0.000000,27.264353,TRUE,FALSE,TRUE,FALSE,FALSE,FALSE,Disabled,0.000000,0.000000,0.000000,TRUE,-0.891159,-0.321640,0.000000,-0.015793,-0.049561,0.000000,0.056000,-0.033000,-0.065000,93.020000,0.400000,1.180000,95.755521,Hold,62.882812,60.000000,HighGoal,-242.000000,77414.400000,HighGoal,1387.500000,-3272.727273,Speed,1402.500000,-3272.727273,Speed,Off,Off,0.000000,FALSE,0,,,,
06:59:44.723 PM 03/23/2016,Teleop Enabled,10,FALSE,0,NO ERROR,-0.000000,-75.389240,0.000000,27.264353,TRUE,FALSE,TRUE,FALSE,FALSE,FALSE,Disabled,0.000000,0.000000,0.000000,TRUE,-0.891220,-0.324203,0.000000,-0.008011,-0.056976,0.000000,-0.082000,-0.001000,0.126000,93.010000,0.350000,1.280000,95.753139,Hold,62.882812,60.000000,Hold,-9696.000000,77414.400000,HighGoal,1387.500000,-3272.727273,Speed,1485.000000,-3272.727273,Speed,Off,Off,0.000000,FALSE,0,,,,
06:59:44.824 PM 03/23/2016,Teleop Enabled,9,FALSE,0,NO ERROR,-0.000000,-75.389240,0.000000,27.264353,TRUE,FALSE,TRUE,FALSE,FALSE,FALSE,Disabled,0.000000,0.000000,0.000000,TRUE,-0.893936,-0.325241,0.000000,-0.083633,0.011765,0.000000,-0.053000,-0.041000,0.050000,93.010000,0.300000,1.300000,95.761212,Hold,62.882812,60.000000,Hold,-9696.000000,77414.400000,HighGoal,1680.000000,-3272.727273,Speed,2077.500000,-3272.727273,Speed,Off,Off,0.000000,FALSE,0,,,,
06:59:44.923 PM 03/23/2016,Teleop Enabled,9,FALSE,0,NO ERROR,-0.000000,-75.389240,0.000000,27.264353,TRUE,FALSE,TRUE,FALSE,FALSE,FALSE,Disabled,0.000000,0.000000,0.000000,TRUE,-0.898254,-0.323792,0.000000,-0.099701,0.055893,0.000000,-0.113000,-0.043000,0.061000,93.000000,0.360000,1.200000,95.766923,Hold,62.882812,60.000000,Hold,-23127.000000,77414.400000,HighGoal,2257.500000,-3272.727273,Speed,2640.000000,-3272.727273,Speed,Off,Off,0.000000,FALSE,0,,,,
06:59:45.024 PM 03/23/2016,Teleop Enabled,9,FALSE,0,NO ERROR,-0.000000,-75.376407,0.000000,27.264353,TRUE,FALSE,TRUE,FALSE,FALSE,FALSE,Disabled,0.000000,0.000000,0.000000,TRUE,-0.903748,-0.320877,0.000000,-0.115601,0.043518,0.000000,-0.113000,-0.043000,0.061000,93.020000,0.430000,1.170000,95.771818,Hold,62.882812,60.000000,Hold,-34476.000000,77414.400000,HighGoal,2715.000000,-3272.727273,Speed,3015.000000,-3272.727273,Speed,Off,Off,0.000000,FALSE,0,,,,
06:59:45.123 PM 03/23/2016,Teleop Enabled,10,FALSE,0,NO ERROR,-0.000000,-75.376407,0.000000,27.264353,TRUE,FALSE,TRUE,FALSE,FALSE,FALSE,Disabled,0.000000,0.000000,0.000000,TRUE,-0.909378,-0.320450,0.000000,-0.120010,0.013763,0.000000,-0.006000,-0.102000,0.132000,93.000000,0.370000,1.210000,95.760392,Hold,62.882812,60.000000,Hold,-45645.000000,77414.400000,HighGoal,3082.500000,-3272.727273,Speed,3345.000000,-3272.727273,Speed,Off,Off,0.000000,FALSE,0,,,,
06:59:45.225 PM 03/23/2016,Teleop Enabled,10,FALSE,0,NO ERROR,-0.000000,-75.376407,0.000000,27.264353,TRUE,FALSE,TRUE,FALSE,FALSE,FALSE,Disabled,0.000000,0.000000,0.000000,TRUE,-0.914932,-0.318405,0.000000,-0.083130,0.050354,0.000000,0.098000,-0.018000,0.056000,93.000000,0.370000,1.210000,95.754072,Hold,62.882812,60.000000,Hold,-59172.000000,77414.400000,HighGoal,3300.000000,-3272.727273,Speed,3322.500000,-3272.727273,Speed,Off,Off,0.000000,FALSE,0,,,,
06:59:45.325 PM 03/23/2016,Teleop Enabled,11,FALSE,0,NO ERROR,-0.000000,-75.369990,0.000000,27.264353,TRUE,FALSE,TRUE,FALSE,FALSE,FALSE,Disabled,0.000000,0.000000,0.000000,TRUE,-0.918579,-0.314865,0.000000,-0.083130,0.066666,0.000000,-0.048000,-0.082000,-0.039000,93.000000,0.290000,1.220000,95.744357,Hold,62.882812,60.000000,Hold,-73528.000000,77414.400000,HighGoal,3255.000000,-3272.727273,Speed,3247.500000,-3272.727273,Speed,Off,Off,0.000000,FALSE,0,,,,
06:59:45.425 PM 03/23/2016,Teleop Enabled,13,FALSE,0,NO ERROR,-0.000000,-75.402074,0.000000,27.302853,TRUE,FALSE,TRUE,FALSE,FALSE,FALSE,Disabled,0.000000,0.000000,0.000000,TRUE,-0.919296,-0.314636,0.000000,0.008835,-0.052063,0.000000,-0.048000,-0.082000,-0.039000,93.010000,-0.110000,1.170000,95.760812,Hold,62.882812,60.000000,Hold,-77676.000000,77414.400000,HighGoal,3180.000000,-3272.727273,Speed,3255.000000,-3272.727273,Speed,Off,Off,0.000000,FALSE,0,,,,
06:59:45.525 PM 03/23/2016,Teleop Enabled,9,FALSE,0,NO ERROR,-0.000000,-75.722906,0.000000,27.585185,TRUE,FALSE,TRUE,FALSE,FALSE,FALSE,Disabled,0.000000,0.000000,0.000000,TRUE,-0.917648,-0.314941,0.000000,0.068542,0.045502,0.000000,-0.056000,-0.077000,-0.067000,93.020000,0.570000,1.170000,95.743379,Hold,62.881592,60.000000,Hold,-77676.000000,77414.400000,HighGoal,3202.500000,-3272.727273,Speed,3270.000000,-3272.727273,Speed,Off,Off,0.000000,FALSE,0,,,,
