Time,Robot Mode,Loop Time,Error Status,Error Code,Error Source,Left Motor Output,Left Motor Encoder,Right Motor Output,Right Motor Encoder,Is Level,Is Stalled,Ball Detector Photoeye,Vision Enabled,Vision Teleop Control,Vision Auto Control,Vision Current State,Vision X Output,Vision NavX Error,Vision NavX Target,NavX Connection Status,NavX Displacement X,NavX Displacement Y,NavX Displacement Z,NavX Velocity X,NavX Velocity Y,NavX Velocity Z,NavX Acceleration X,NavX Acceleration Y,NavX Acceleration Z,NavX Pitch,NavX Yaw,NavX Roll,Gyro Angle,Roller Arm State,Roller Arm Actual,Roller Arm Desired,Shooter Arm State,Shooter Arm Actual,Shooter Arm Desired,Shooter State,Actual RPM Left,Desired RPM Left,Control Mode Left,Actual RPM Right,Desired RPM Right,Control Mode Right,Ball Shooter Cylinder,Ball Halo Cylinder,Scaler Motor Output,Scaler Solenoid Fire,Auto To Run,Auto Current File,Auto File Status,Auto Current Command,Auto Trimmed Command
09:40:36.752 AM 03/25/2016,Teleop Enabled,11,TRUE,-44003,<LOCATION>WPI_CameraIssue HTTP Request with Authentication.vi<CALLSTACK>WPI_CameraIssue HTTP Request with Authentication.vi< <WPI_CameraIssue Get.vi< <WPI_CameraGet Image Appearance Property.vi< <WPI_CameraGet Numeric Sensor Property.vi< <WPI_CameraGet Color Level.vi< <WPI_Camera Registry.vi< <WPI_CameraOpen.vi< <Vision Processing.vi< <Robot Main.vi,-0.000000,-0.064167,0.000000,0.192500,TRUE,FALSE,TRUE,FALSE,FALSE,FALSE,Disabled,0.000000,0.000000,0.000000,TRUE,-0.195374,0.362335,0.000000,0.000000,0.000000,0.000000,-0.002000,0.001000,0.009000,-51.870000,-0.090000,1.280000,-85.182998,ResetBack,-61.807861,-0.000049,ResetBack,-284.000000,-0.250000,LowGoal,0.000000,-2181.818182,Speed,0.000000,-2181.818182,Speed,Off,Off,0.000000,FALSE,0,,,,
09:40:36.852 AM 03/25/2016,Teleop Enabled,11,FALSE,0,NO ERROR,-0.000000,-0.064167,0.000000,0.192500,TRUE,FALSE,TRUE,FALSE,FALSE,FALSE,Disabled,0.000000,0.000000,0.000000,TRUE,-0.195587,0.362366,0.000000,-0.017868,0.003082,0.000000,0.028000,0.020000,-0.042000,-51.880000,-0.100000,1.280000,-83.331673,ResetBack,-62.194336,-0.000049,ResetBack,-284.000000,-0.250000,LowGoal,45.000000,-2181.818182,Speed,30.000000,-2181.818182,Speed,Off,Off,0.000000,FALSE,0,,,,
09:40:36.954 AM 03/25/2016,Teleop Enabled,11,FALSE,0,NO ERROR,-0.000000,-0.064167,0.000000,0.192500,TRUE,FALSE,TRUE,FALSE,FALSE,FALSE,Disabled,0.000000,0.000000,0.000000,TRUE,-0.197632,0.362549,0.000000,-0.054642,0.001282,0.000000,0.094000,0.007000,0.040000,-51.880000,-0.130000,1.290000,-81.440032,ResetBack,-63.010010,-0.000049,ResetBack,66.000000,-0.250000,LowGoal,637.500000,-2181.818182,Speed,607.500000,-2181.818182,Speed,Off,Off,0.000000,FALSE,0,,,,
09:40:37.053 AM 03/25/2016,Teleop Enabled,11,FALSE,0,NO ERROR,-0.000000,-0.064167,0.000000,0.192500,TRUE,FALSE,TRUE,FALSE,FALSE,FALSE,Disabled,0.000000,0.000000,0.000000,TRUE,-0.199387,0.362152,0.000000,-0.030792,-0.019440,0.000000,-0.110000,-0.031000,0.108000,-51.880000,-0.130000,1.270000,-79.191784,ResetBack,-63.101074,-0.000049,ResetBack,1597.000000,-0.250000,LowGoal,1177.500000,-2181.818182,Speed,1335.000000,-2181.818182,Speed,Off,Off,0.000000,FALSE,0,,,,
09:40:37.153 AM 03/25/2016,Teleop Enabled,11,FALSE,0,NO ERROR,-0.000000,-0.064167,0.000000,0.192500,TRUE,FALSE,TRUE,FALSE,FALSE,FALSE,Disabled,0.000000,0.000000,0.000000,TRUE,-0.202759,0.360550,0.000000,-0.105133,-0.034454,0.000000,0.007000,-0.018000,0.045000,-51.870000,-0.230000,1.350000,-77.310667,Reset,-63.101562,0.000000,ResetBack,4602.000000,-0.250000,LowGoal,1740.000000,-2181.818182,Speed,1935.000000,-2181.818182,Speed,Off,Off,0.000000,FALSE,0,,,,
09:40:37.254 AM 03/25/2016,Teleop Enabled,11,FALSE,0,NO ERROR,-0.000000,-0.064167,0.000000,0.192500,TRUE,FALSE,TRUE,FALSE,FALSE,FALSE,Disabled,0.000000,0.000000,0.000000,TRUE,-0.209335,0.356171,0.000000,-0.070038,-0.099075,0.000000,0.080000,-0.019000,0.206000,-51.870000,-0.390000,1.360000,-75.418544,Hold,0.000000,0.000000,ResetBack,8765.000000,-0.250000,LowGoal,2032.500000,-2181.818182,Speed,2287.500000,-2181.818182,Speed,Off,Off,0.000000,FALSE,0,,,,
09:40:37.354 AM 03/25/2016,Teleop Enabled,10,FALSE,0,NO ERROR,-0.000000,-0.064167,0.000000,0.192500,TRUE,FALSE,TRUE,FALSE,FALSE,FALSE,Disabled,0.000000,0.000000,0.000000,TRUE,-0.212082,0.350876,0.000000,-0.053604,-0.084412,0.000000,-0.030000,0.059000,0.212000,-51.880000,-0.410000,1.430000,-73.538704,Hold,0.000000,0.000000,ResetBack,13867.000000,-0.250000,LowGoal,2167.500000,-2181.818182,Speed,2242.500000,-2181.818182,Speed,Off,Off,0.000000,FALSE,0,,,,
09:40:37.455 AM 03/25/2016,Teleop Enabled,10,FALSE,0,NO ERROR,-0.000000,-0.064167,0.000000,0.192500,TRUE,FALSE,TRUE,FALSE,FALSE,FALSE,Disabled,0.000000,0.000000,0.000000,TRUE,-0.213547,0.347488,0.000000,-0.003525,-0.080429,0.000000,-0.049000,-0.017000,-0.036000,-51.880000,-0.300000,1.540000,-71.656564,Hold,0.000000,0.000000,ResetBack,19650.000000,-0.250000,LowGoal,2100.000000,-2181.818182,Speed,2152.500000,-2181.818182,Speed,Off,Off,0.000000,FALSE,0,,,,
09:40:37.554 AM 03/25/2016,Teleop Enabled,11,FALSE,0,NO ERROR,-0.000000,-0.064167,0.000000,0.192500,TRUE,FALSE,TRUE,FALSE,FALSE,FALSE,Disabled,0.000000,0.000000,0.000000,TRUE,-0.214767,0.346725,0.000000,-0.050491,0.008133,0.000000,-0.229000,-0.003000,-0.346000,-51.860000,-0.190000,1.410000,-69.766944,Hold,0.000000,0.000000,ResetBack,19650.000000,-0.250000,LowGoal,2032.500000,-2181.818182,Speed,2152.500000,-2181.818182,Speed,Off,Off,0.000000,FALSE,0,,,,
09:40:37.655 AM 03/25/2016,Teleop Enabled,8,FALSE,0,NO ERROR,-0.000000,-0.064167,0.000000,0.192500,TRUE,FALSE,TRUE,FALSE,FALSE,FALSE,Disabled,0.000000,0.000000,0.000000,TRUE,-0.224258,0.347595,0.000000,-0.297424,0.029434,0.000000,-0.178000,0.100000,-0.181000,-51.880000,-0.330000,1.210000,-67.896000,Hold,0.000000,0.000000,ResetBack,23880.000000,-0.250000,LowGoal,2017.500000,-2181.818182,Speed,2167.500000,-2181.818182,Speed,Off,Off,0.000000,FALSE,0,,,,
09:40:37.755 AM 03/25/2016,Teleop Enabled,9,FALSE,0,NO ERROR,-0.000000,-0.064167,0.000000,0.192500,TRUE,FALSE,TRUE,FALSE,FALSE,FALSE,Disabled,0.000000,0.000000,0.000000,TRUE,-0.249359,0.350739,0.000000,-0.483551,0.050400,0.000000,-0.056000,-0.041000,-0.180000,-51.870000,-0.580000,1.150000,-66.008349,Hold,0.000244,0.000000,ResetBack,25650.000000,-0.250000,LowGoal,1987.500000,-2181.818182,Speed,2167.500000,-2181.818182,Speed,Off,Off,0.000000,FALSE,0,,,,
09:40:37.855 AM 03/25/2016,Teleop Enabled,5,FALSE,0,NO ERROR,-0.000000,-0.064167,0.000000,0.192500,TRUE,FALSE,TRUE,FALSE,FALSE,FALSE,Disabled,0.000000,0.000000,0.000000,TRUE,-0.272156,0.351227,0.000000,-0.639786,0.002808,0.000000,-0.300000,0.115000,-0.194000,-51.870000,-0.820000,1.180000,-64.120512,Hold,0.000244,0.000000,ResetBack,27104.000000,-0.250000,LowGoal,1987.500000,-2181.818182,Speed,2160.000000,-2181.818182,Speed,Off,Off,0.000000,FALSE,0,,,,
09:40:37.955 AM 03/25/2016,Teleop Enabled,11,FALSE,0,NO ERROR,-0.000000,-0.064167,0.000000,0.192500,TRUE,FALSE,TRUE,FALSE,FALSE,FALSE,Disabled,0.000000,0.000000,0.000000,TRUE,-0.311691,0.354568,0.000000,-0.869904,0.115067,0.000000,0.013000,0.180000,-0.249000,-51.870000,-0.970000,1.400000,-62.236696,Hold,0.000244,0.000000,ResetBack,27961.000000,-0.250000,LowGoal,1965.000000,-2181.818182,Speed,2160.000000,-2181.818182,Speed,Off,Off,0.000000,FALSE,0,,,,
09:40:38.055 AM 03/25/2016,Teleop Enabled,13,FALSE,0,NO ERROR,-0.000000,-0.064167,0.000000,0.192500,TRUE,FALSE,TRUE,FALSE,FALSE,FALSE,Disabled,0.000000,0.000000,0.000000,TRUE,-0.357773,0.365143,0.000000,-0.976654,0.282364,0.000000,-0.178000,0.223000,-0.196000,-51.870000,-0.730000,1.570000,-59.995759,Hold,0.000244,0.000000,Reset,28367.000000,2.000000,LowGoal,1950.000000,-2181.818182,Speed,2175.000000,-2181.818182,Speed,Off,Off,0.000000,FALSE,0,,,,
09:40:38.156 AM 03/25/2016,Teleop Enabled,12,FALSE,0,NO ERROR,-0.000000,-0.064167,0.000000,0.192500,TRUE,FALSE,TRUE,FALSE,FALSE,FALSE,Disabled,0.000000,0.000000,0.000000,TRUE,-0.421738,0.390869,0.000000,-1.106247,0.524475,0.000000,-0.013000,0.185000,-0.225000,-51.880000,-0.530000,1.690000,-58.122956,Hold,0.000244,0.000000,Hold,-154.000000,2.000000,LowGoal,1965.000000,-2181.818182,Speed,2175.000000,-2181.818182,Speed,Off,Off,0.000000,FALSE,0,,,,
09:40:38.256 AM 03/25/2016,Teleop Enabled,10,FALSE,0,NO ERROR,-0.000000,-0.064167,0.000000,0.192500,TRUE,FALSE,TRUE,FALSE,FALSE,FALSE,Disabled,0.000000,0.000000,0.000000,TRUE,-0.422073,0.422180,0.000000,-0.025757,0.692963,0.000000,-0.013000,0.185000,-0.225000,-51.890000,-0.180000,1.710000,-56.235085,Hold,0.000244,0.000000,Hold,-154.000000,2.000000,LowGoal,1957.500000,-2181.818182,Speed,2160.000000,-2181.818182,Speed,Off,Off,0.000000,FALSE,0,,,,
09:40:38.356 AM 03/25/2016,Teleop Enabled,11,FALSE,0,NO ERROR,-0.000000,-0.064167,0.000000,0.192500,TRUE,FALSE,TRUE,FALSE,FALSE,FALSE,Disabled,0.000000,0.000000,0.000000,TRUE,-0.423706,0.460373,0.000000,-0.032028,0.789810,0.000000,-0.089000,0.026000,-0.219000,-51.900000,0.030000,1.520000,-54.360347,Hold,0.000244,0.000000,Hold,-155.000000,2.000000,LowGoal,1950.000000,-2181.818182,Speed,2152.500000,-2181.818182,Speed,Off,Off,0.000000,FALSE,0,,,,
09:40:38.455 AM 03/25/2016,Teleop Enabled,11,FALSE,0,NO ERROR,-0.000000,-0.064167,0.000000,0.192500,TRUE,FALSE,TRUE,FALSE,FALSE,FALSE,Disabled,0.000000,0.000000,0.000000,TRUE,-0.428558,0.501312,0.000000,-0.160217,0.853119,0.000000,-0.154000,0.129000,-0.099000,-51.890000,0.030000,1.330000,-52.462103,Hold,0.000244,0.000000,Hold,-155.000000,2.000000,LowGoal,1965.000000,-2181.818182,Speed,2167.500000,-2181.818182,Speed,Off,Off,0.000000,FALSE,0,,,,
09:40:38.556 AM 03/25/2016,Teleop Enabled,11,FALSE,0,NO ERROR,-0.000000,-0.064167,0.000000,0.192500,TRUE,FALSE,TRUE,FALSE,FALSE,FALSE,Disabled,0.000000,0.000000,0.000000,TRUE,-0.440765,0.546387,0.000000,-0.283081,0.921280,0.000000,-0.154000,0.129000,-0.099000,-51.900000,-0.160000,1.140000,-50.585248,Hold,0.000244,0.000000,Hold,-155.000000,2.000000,LowGoal,1950.000000,-2181.818182,Speed,2175.000000,-2181.818182,Speed,Off,Off,0.000000,FALSE,0,,,,
09:40:38.657 AM 03/25/2016,Teleop Enabled,11,FALSE,0,NO ERROR,-0.000000,-0.064167,0.000000,0.192500,TRUE,FALSE,TRUE,FALSE,FALSE,FALSE,Disabled,0.000000,0.000000,0.000000,TRUE,-0.458984,0.593781,0.000000,-0.451538,0.976212,0.000000,-0.047000,0.040000,-0.114000,-51.900000,-0.300000,1.040000,-48.705140,Hold,0.000244,0.000000,Hold,-155.000000,2.000000,LowGoal,1920.000000,-2181.818182,Speed,2167.500000,-2181.818182,Speed,Off,Off,0.000000,FALSE,0,,,,
09:40:38.757 AM 03/25/2016,Teleop Enabled,11,FALSE,0,NO ERROR,-0.000000,-0.064167,0.000000,0.192500,TRUE,FALSE,TRUE,FALSE,FALSE,FALSE,Disabled,0.000000,0.000000,0.000000,TRUE,-0.485565,0.623642,0.000000,-0.582932,0.000000,0.000000,-0.138000,0.091000,0.000000,-51.900000,-0.560000,1.020000,-46.840079,Hold,0.000244,0.000000,Hold,-155.000000,2.000000,LowGoal,1912.500000,-2181.818182,Speed,2167.500000,-2181.818182,Speed,Off,Off,0.000000,FALSE,0,,,,
09:40:38.857 AM 03/25/2016,Teleop Enabled,11,FALSE,0,NO ERROR,-0.000000,-0.064167,0.000000,0.192500,TRUE,FALSE,TRUE,FALSE,FALSE,FALSE,Disabled,0.000000,0.000000,0.000000,TRUE,-0.521851,0.625366,0.000000,-0.803589,0.061371,0.000000,-0.064000,0.012000,0.076000,-51.910000,-0.780000,1.120000,-44.977490,Hold,0.000244,0.000000,Hold,-155.000000,2.000000,LowGoal,1935.000000,-2181.818182,Speed,2167.500000,-2181.818182,Speed,Off,Off,0.000000,FALSE,0,,,,
09:40:38.957 AM 03/25/2016,Teleop Enabled,10,FALSE,0,NO ERROR,-0.000000,-0.064167,0.000000,0.192500,TRUE,FALSE,TRUE,FALSE,FALSE,FALSE,Disabled,0.000000,0.000000,0.000000,TRUE,-0.562836,0.626068,0.000000,-0.801498,0.025604,0.000000,-0.064000,0.012000,0.076000,-51.900000,-0.780000,1.430000,-43.116952,Hold,0.000244,0.000000,Hold,-155.000000,2.000000,LowGoal,1950.000000,-2181.818182,Speed,2152.500000,-2181.818182,Speed,Off,Off,0.000000,FALSE,0,,,,
09:40:39.058 AM 03/25/2016,Teleop Enabled,13,FALSE,0,NO ERROR,-0.000000,-0.064167,0.000000,0.192500,TRUE,FALSE,TRUE,FALSE,FALSE,FALSE,Disabled,0.000000,0.000000,0.000000,TRUE,-0.607254,0.631302,0.000000,-0.661728,0.110260,0.000000,0.071000,0.059000,-0.039000,-51.910000,-0.460000,1.470000,-41.239322,Hold,0.000244,0.000000,Hold,-155.000000,2.000000,LowGoal,1965.000000,-2181.818182,Speed,2160.000000,-2181.818182,Speed,Off,Off,0.000000,FALSE,0,,,,
09:40:39.157 AM 03/25/2016,Teleop Enabled,11,FALSE,0,NO ERROR,-0.000000,-0.064167,0.000000,0.192500,TRUE,FALSE,TRUE,FALSE,FALSE,FALSE,Disabled,0.000000,0.000000,0.000000,TRUE,-0.628922,0.635452,0.000000,-0.484009,0.096390,0.000000,0.234000,-0.058000,0.093000,-51.900000,-0.080000,1.440000,-39.359025,Hold,0.000244,0.000000,Hold,-155.000000,2.000000,LowGoal,1927.500000,-2181.818182,Speed,2175.000000,-2181.818182,Speed,Off,Off,0.000000,FALSE,0,,,,
09:40:39.259 AM 03/25/2016,Teleop Enabled,9,FALSE,0,NO ERROR,-0.000000,-0.064167,0.000000,0.192500,TRUE,FALSE,TRUE,FALSE,FALSE,FALSE,Disabled,0.000000,0.000000,0.000000,TRUE,-0.651077,0.641449,0.000000,-0.270798,0.081894,0.000000,0.101000,0.062000,0.139000,-51.910000,0.160000,1.270000,-37.481953,Hold,0.000244,0.000000,Hold,-155.000000,2.000000,LowGoal,1927.500000,-2181.818182,Speed,2160.000000,-2181.818182,Speed,Off,Off,0.000000,FALSE,0,,,,
09:40:39.359 AM 03/25/2016,Teleop Enabled,11,FALSE,0,NO ERROR,-0.000000,-0.064167,0.000000,0.192500,TRUE,FALSE,TRUE,FALSE,FALSE,FALSE,Disabled,0.000000,0.000000,0.000000,TRUE,-0.651077,0.641449,0.000000,-0.270798,0.081894,0.000000,0.192000,-0.059000,0.118000,-51.920000,-0.060000,1.140000,-35.595414,Hold,0.000244,0.000000,Hold,-155.000000,2.000000,LowGoal,1912.500000,-2181.818182,Speed,2145.000000,-2181.818182,Speed,Off,Off,0.000000,FALSE,0,,,,
09:40:39.460 AM 03/25/2016,Teleop Enabled,10,FALSE,0,NO ERROR,-0.000000,-0.064167,0.000000,0.192500,TRUE,FALSE,TRUE,FALSE,FALSE,FALSE,Disabled,0.000000,0.000000,0.000000,TRUE,-0.660995,0.642792,0.000000,-0.167892,-0.004990,0.000000,0.091000,-0.151000,0.240000,-51.920000,-0.060000,1.140000,-33.702148,Hold,0.000244,0.000000,Hold,-155.000000,2.000000,LowGoal,1912.500000,-2181.818182,Speed,2145.000000,-2181.818182,Speed,Off,Off,0.000000,FALSE,0,,,,
09:40:39.561 AM 03/25/2016,Teleop Enabled,9,FALSE,0,NO ERROR,-0.000000,-0.064167,0.000000,0.192500,TRUE,FALSE,TRUE,FALSE,FALSE,FALSE,Disabled,0.000000,0.000000,0.000000,TRUE,-0.668655,0.639481,0.000000,-0.156708,-0.087479,0.000000,0.032000,0.057000,0.284000,-51.910000,-0.110000,1.420000,-31.441237,Hold,0.000244,0.000000,Hold,-155.000000,2.000000,LowGoal,1912.500000,-2181.818182,Speed,2145.000000,-2181.818182,Speed,Off,Off,0.000000,FALSE,0,,,,
09:40:39.661 AM 03/25/2016,Teleop Enabled,9,FALSE,0,NO ERROR,-0.000000,-0.064167,0.000000,0.192500,TRUE,FALSE,TRUE,FALSE,FALSE,FALSE,Disabled,0.000000,0.000000,0.000000,TRUE,-0.673538,0.630493,0.000000,0.033585,-0.157333,0.000000,0.120000,-0.135000,0.152000,-51.920000,0.270000,1.350000,-29.565363,Hold,0.000244,0.000000,Hold,-155.000000,2.000000,LowGoal,1905.000000,-2181.818182,Speed,2145.000000,-2181.818182,Speed,Off,Off,0.000000,FALSE,0,,,,
09:40:39.762 AM 03/25/2016,Teleop Enabled,11,FALSE,0,NO ERROR,-0.000000,-0.064167,0.000000,0.192500,TRUE,FALSE,TRUE,FALSE,FALSE,FALSE,Disabled,0.000000,0.000000,0.000000,TRUE,-0.673538,0.630493,0.000000,0.033585,-0.157333,0.000000,0.135000,-0.090000,0.251000,-51.920000,0.040000,1.270000,-27.687066,Hold,0.000244,0.000000,Hold,-155.000000,2.000000,LowGoal,1905.000000,-2181.818182,Speed,2152.500000,-2181.818182,Speed,Off,Off,0.000000,FALSE,0,,,,
09:40:39.862 AM 03/25/2016,Teleop Enabled,10,FALSE,0,NO ERROR,-0.000000,-0.064167,0.000000,0.192500,TRUE,FALSE,TRUE,FALSE,FALSE,FALSE,Disabled,0.000000,0.000000,0.000000,TRUE,-0.669266,0.620224,0.000000,0.135025,-0.242554,0.000000,-0.015000,0.019000,0.116000,-51.920000,-0.270000,1.300000,-25.793008,Hold,0.000244,0.000000,Hold,-155.000000,2.000000,LowGoal,1882.500000,-2181.818182,Speed,2160.000000,-2181.818182,Speed,Off,Off,0.000000,FALSE,0,,,,
09:40:39.963 AM 03/25/2016,Teleop Enabled,9,FALSE,0,NO ERROR,-0.000000,-0.064167,0.000000,0.192500,TRUE,FALSE,TRUE,FALSE,FALSE,FALSE,Disabled,0.000000,0.000000,0.000000,TRUE,-0.654221,0.618027,0.000000,0.154480,0.023026,0.000000,0.086000,-0.035000,0.031000,-51.920000,-0.380000,1.500000,-23.920715,Hold,0.000244,0.000000,Hold,-155.000000,2.000000,LowGoal,1897.500000,-2181.818182,Speed,2160.000000,-2181.818182,Speed,Off,Off,0.000000,FALSE,0,,,,
09:40:40.064 AM 03/25/2016,Teleop Enabled,9,FALSE,0,NO ERROR,-0.000000,-0.064167,0.000000,0.192500,TRUE,FALSE,TRUE,FALSE,FALSE,FALSE,Disabled,0.000000,0.000000,0.000000,TRUE,-0.645630,0.620346,0.000000,0.181610,0.038101,0.000000,0.014000,0.095000,-0.038000,-51.910000,-0.140000,1.580000,-22.058332,Hold,0.000244,0.000000,Hold,-155.000000,2.000000,LowGoal,1920.000000,-2181.818182,Speed,2152.500000,-2181.818182,Speed,Off,Off,0.000000,FALSE,0,,,,
09:40:40.164 AM 03/25/2016,Teleop Enabled,9,FALSE,0,NO ERROR,-0.000000,-0.064167,0.000000,0.192500,TRUE,FALSE,TRUE,FALSE,FALSE,FALSE,Disabled,0.000000,0.000000,0.000000,TRUE,-0.645630,0.620346,0.000000,0.181610,0.038101,0.000000,-0.075000,-0.088000,-0.287000,-51.910000,0.030000,1.350000,-20.176279,Hold,0.000244,0.000000,Hold,-155.000000,2.000000,LowGoal,1905.000000,-2181.818182,Speed,2152.500000,-2181.818182,Speed,Off,Off,0.000000,FALSE,0,,,,
09:40:40.263 AM 03/25/2016,Teleop Enabled,9,FALSE,0,NO ERROR,-0.000000,-0.064167,0.000000,0.192500,TRUE,FALSE,TRUE,FALSE,FALSE,FALSE,Disabled,0.000000,0.000000,0.000000,TRUE,-0.639404,0.620422,0.000000,0.075302,-0.008667,0.000000,-0.098000,-0.034000,-0.152000,-51.910000,-0.150000,1.220000,-20.176279,Hold,0.000244,0.000000,Hold,-155.000000,2.000000,LowGoal,1905.000000,-2181.818182,Speed,2167.500000,-2181.818182,Speed,Off,Off,0.000000,FALSE,0,,,,
09:40:40.364 AM 03/25/2016,Teleop Enabled,9,FALSE,0,NO ERROR,-0.000000,-0.064167,0.000000,0.192500,TRUE,FALSE,TRUE,FALSE,FALSE,FALSE,Disabled,0.000000,0.000000,0.000000,TRUE,-0.638412,0.618576,0.000000,-0.027740,-0.060440,0.000000,-0.151000,0.017000,-0.300000,-51.920000,-0.330000,1.090000,-18.284868,Hold,0.000244,0.000000,Hold,-155.000000,2.000000,LowGoal,1905.000000,-2181.818182,Speed,2167.500000,-2181.818182,Speed,Off,Off,0.000000,FALSE,0,,,,
09:40:40.464 AM 03/25/2016,Teleop Enabled,9,FALSE,0,NO ERROR,-0.000000,-0.064167,0.000000,0.192500,TRUE,FALSE,TRUE,FALSE,FALSE,FALSE,Disabled,0.000000,0.000000,0.000000,TRUE,-0.644745,0.615250,0.000000,-0.193924,-0.076782,0.000000,-0.096000,-0.016000,-0.356000,-51.920000,-0.660000,1.100000,-16.407869,Hold,0.000244,0.000000,Hold,-155.000000,2.000000,LowGoal,1890.000000,-2181.818182,Speed,2167.500000,-2181.818182,Speed,Off,Off,0.000000,FALSE,0,,,,
09:40:40.565 AM 03/25/2016,Teleop Enabled,9,FALSE,0,NO ERROR,-0.000000,-0.064167,0.000000,0.192500,TRUE,FALSE,TRUE,FALSE,FALSE,FALSE,Disabled,0.000000,0.000000,0.000000,TRUE,-0.663483,0.611282,0.000000,-0.413559,-0.025177,0.000000,-0.203000,0.069000,-0.142000,-51.910000,-0.840000,1.270000,-14.523020,Hold,0.000244,0.000000,Hold,-155.000000,2.000000,LowGoal,1897.500000,-2181.818182,Speed,2160.000000,-2181.818182,Speed,Off,Off,0.000000,FALSE,0,,,,
09:40:40.666 AM 03/25/2016,Teleop Enabled,12,FALSE,0,NO ERROR,-0.000000,-0.064167,0.000000,0.192500,TRUE,FALSE,TRUE,FALSE,FALSE,FALSE,Disabled,0.000000,0.000000,0.000000,TRUE,-0.687241,0.613770,0.000000,-0.514923,0.111633,0.000000,-0.152000,0.209000,-0.203000,-51.910000,-0.690000,1.390000,-12.639693,Hold,0.000244,0.000000,Hold,-155.000000,2.000000,LowGoal,1920.000000,-2181.818182,Speed,2160.000000,-2181.818182,Speed,Off,Off,0.000000,FALSE,0,,,,
09:40:40.767 AM 03/25/2016,Teleop Enabled,9,FALSE,0,NO ERROR,-0.000000,-0.064167,0.000000,0.192500,TRUE,FALSE,TRUE,FALSE,FALSE,FALSE,Disabled,0.000000,0.000000,0.000000,TRUE,-0.715851,0.625565,0.000000,-0.585266,0.328232,0.000000,0.003000,0.173000,-0.331000,-51.920000,-0.180000,1.480000,-10.381471,Hold,0.000244,0.000000,Hold,-155.000000,2.000000,LowGoal,1912.500000,-2181.818182,Speed,2167.500000,-2181.818182,Speed,Off,Off,0.000000,FALSE,0,,,,
09:40:40.872 AM 03/25/2016,Teleop Enabled,11,FALSE,0,NO ERROR,-0.000000,-0.064167,0.000000,0.192500,TRUE,FALSE,TRUE,FALSE,FALSE,FALSE,Disabled,0.000000,0.000000,0.000000,TRUE,-0.745789,0.647278,0.000000,-0.614059,0.499039,0.000000,-0.032000,0.170000,-0.225000,-51.930000,0.270000,1.300000,-8.486904,Hold,0.000244,0.000000,Hold,-155.000000,2.000000,LowGoal,1882.500000,-2181.818182,Speed,2167.500000,-2181.818182,Speed,Off,Off,0.000000,FALSE,0,,,,
09:40:40.972 AM 03/25/2016,Teleop Enabled,10,FALSE,0,NO ERROR,-0.000000,-0.064167,0.000000,0.192500,TRUE,FALSE,TRUE,FALSE,FALSE,FALSE,Disabled,0.000000,0.000000,0.000000,TRUE,-0.777130,0.676056,0.000000,-0.648880,0.612823,0.000000,-0.170000,0.136000,-0.112000,-51.940000,0.340000,1.160000,-6.614744,Hold,0.000244,0.000000,Hold,-155.000000,2.000000,LowGoal,1882.500000,-2181.818182,Speed,2160.000000,-2181.818182,Speed,Off,Off,0.000000,FALSE,0,,,,
09:40:41.073 AM 03/25/2016,Teleop Enabled,11,FALSE,0,NO ERROR,-0.000000,-0.064167,0.000000,0.192500,TRUE,FALSE,TRUE,FALSE,FALSE,FALSE,Disabled,0.000000,0.000000,0.000000,TRUE,-0.813583,0.708878,0.000000,-0.794296,0.669373,0.000000,-0.171000,-0.021000,-0.016000,-51.920000,0.050000,1.100000,-4.730519,Hold,0.000244,0.000000,Hold,-155.000000,2.000000,LowGoal,1905.000000,-2181.818182,Speed,2160.000000,-2181.818182,Speed,Off,Off,0.000000,FALSE,0,,,,
09:40:41.172 AM 03/25/2016,Teleop Enabled,11,FALSE,0,NO ERROR,-0.000000,-0.064167,0.000000,0.192500,TRUE,FALSE,TRUE,FALSE,FALSE,FALSE,Disabled,0.000000,0.000000,0.000000,TRUE,-0.869995,0.748642,0.000000,-1.062759,0.672760,0.000000,-0.277000,0.032000,0.156000,-51.920000,-0.310000,1.110000,-2.853175,Hold,0.000244,0.000000,Hold,-155.000000,2.000000,LowGoal,1875.000000,-2181.818182,Speed,2167.500000,-2181.818182,Speed,Off,Off,0.000000,FALSE,0,,,,
09:40:41.272 AM 03/25/2016,Teleop Enabled,11,FALSE,0,NO ERROR,-0.000000,-0.064167,0.000000,0.192500,TRUE,FALSE,TRUE,FALSE,FALSE,FALSE,Disabled,0.000000,0.000000,0.000000,TRUE,-0.928482,0.780991,0.000000,-1.254333,0.640808,0.000000,-0.293000,0.017000,0.038000,-51.910000,-0.650000,1.260000,-0.979910,Hold,0.000244,0.000000,Hold,-155.000000,2.000000,LowGoal,1860.000000,-2181.818182,Speed,2167.500000,-2181.818182,Speed,Off,Off,0.000000,FALSE,0,,,,
09:40:41.373 AM 03/25/2016,Teleop Enabled,10,FALSE,0,NO ERROR,-0.000000,-0.064167,0.000000,0.192500,TRUE,FALSE,TRUE,FALSE,FALSE,FALSE,Disabled,0.000000,0.000000,0.000000,TRUE,-0.993683,0.814087,0.000000,-1.305740,0.677078,0.000000,0.061000,0.116000,0.076000,-51.920000,-0.660000,1.480000,0.890411,Hold,0.000244,0.000000,Hold,-155.000000,2.000000,LowGoal,1852.500000,-2181.818182,Speed,2160.000000,-2181.818182,Speed,Off,Off,0.000000,FALSE,0,,,,
09:40:41.472 AM 03/25/2016,Teleop Enabled,11,FALSE,0,NO ERROR,-0.000000,-0.064167,0.000000,0.192500,TRUE,FALSE,TRUE,FALSE,FALSE,FALSE,Disabled,0.000000,0.000000,0.000000,TRUE,-1.056290,0.850098,0.000000,-1.176483,0.748993,0.000000,0.200000,0.073000,0.080000,-51.920000,-0.330000,1.610000,2.765531,Hold,0.000244,0.000000,Hold,-155.000000,2.000000,LowGoal,1852.500000,-2181.818182,Speed,2160.000000,-2181.818182,Speed,Off,Off,0.000000,FALSE,0,,,,
09:40:41.573 AM 03/25/2016,Teleop Enabled,11,FALSE,0,NO ERROR,-0.000000,-0.064167,0.000000,0.192500,TRUE,FALSE,TRUE,FALSE,FALSE,FALSE,Disabled,0.000000,0.000000,0.000000,TRUE,-1.109619,0.887970,0.000000,-1.003357,0.754608,0.000000,0.231000,0.008000,0.139000,-51.920000,0.020000,1.540000,4.639291,Hold,0.000244,0.000000,Hold,-155.000000,2.000000,LowGoal,1837.500000,-2181.818182,Speed,2160.000000,-2181.818182,Speed,Off,Off,0.000000,FALSE,0,,,,
09:40:41.672 AM 03/25/2016,Teleop Enabled,11,FALSE,0,NO ERROR,-0.000000,-0.064167,0.000000,0.192500,TRUE,FALSE,TRUE,FALSE,FALSE,FALSE,Disabled,0.000000,0.000000,0.000000,TRUE,-1.154785,0.887497,0.000000,-0.850693,-0.020233,0.000000,0.126000,-0.050000,0.176000,-51.920000,0.270000,1.360000,6.522326,Hold,0.000244,0.000000,Hold,-155.000000,2.000000,LowGoal,1792.500000,-2181.818182,Speed,2167.500000,-2181.818182,Speed,Off,Off,0.000000,FALSE,0,,,,
09:40:41.773 AM 03/25/2016,Teleop Enabled,11,FALSE,0,NO ERROR,-0.000000,-0.064167,0.000000,0.192500,TRUE,FALSE,TRUE,FALSE,FALSE,FALSE,Disabled,0.000000,0.000000,0.000000,TRUE,-1.193756,0.884415,0.000000,-0.736237,-0.098892,0.000000,0.080000,-0.173000,0.212000,-51.930000,0.160000,1.180000,8.406404,Hold,0.000244,0.000000,Hold,-155.000000,2.000000,LowGoal,1777.500000,-2181.818182,Speed,2160.000000,-2181.818182,Speed,Off,Off,0.000000,FALSE,0,,,,
09:40:41.873 AM 03/25/2016,Teleop Enabled,11,FALSE,0,NO ERROR,-0.000000,-0.064167,0.000000,0.192500,TRUE,FALSE,TRUE,FALSE,FALSE,FALSE,Disabled,0.000000,0.000000,0.000000,TRUE,-1.227005,0.874863,0.000000,-0.633194,-0.263016,0.000000,-0.056000,0.036000,0.328000,-51.910000,-0.200000,1.220000,10.292925,Hold,0.000244,0.000000,Hold,-155.000000,2.000000,LowGoal,1822.500000,-2181.818182,Speed,2145.000000,-2181.818182,Speed,Off,Off,0.000000,FALSE,0,,,,
09:40:41.973 AM 03/25/2016,Teleop Enabled,11,FALSE,0,NO ERROR,-0.000000,-0.064167,0.000000,0.192500,TRUE,FALSE,TRUE,FALSE,FALSE,FALSE,Disabled,0.000000,0.000000,0.000000,TRUE,-1.258606,0.866440,0.000000,-0.628799,-0.002258,0.000000,0.037000,-0.040000,0.247000,-51.920000,-0.040000,1.380000,12.172810,Hold,0.000244,0.000000,Hold,-155.000000,2.000000,LowGoal,1852.500000,-2181.818182,Speed,2145.000000,-2181.818182,Speed,Off,Off,0.000000,FALSE,0,,,,
09:40:42.073 AM 03/25/2016,Teleop Enabled,11,FALSE,0,NO ERROR,-0.000000,-0.064167,0.000000,0.192500,TRUE,FALSE,TRUE,FALSE,FALSE,FALSE,Disabled,0.000000,0.000000,0.000000,TRUE,-1.287506,0.865799,0.000000,-0.529770,-0.022003,0.000000,0.202000,-0.078000,0.238000,-51.910000,0.240000,1.240000,14.462362,Hold,0.000244,0.000000,Hold,-155.000000,2.000000,LowGoal,1845.000000,-2181.818182,Speed,2160.000000,-2181.818182,Speed,Off,Off,0.000000,FALSE,0,,,,
09:40:42.173 AM 03/25/2016,Teleop Enabled,10,FALSE,0,NO ERROR,-0.000000,-0.064167,0.000000,0.192500,TRUE,FALSE,TRUE,FALSE,FALSE,FALSE,Disabled,0.000000,0.000000,0.000000,TRUE,-1.313232,0.861145,0.000000,-0.377045,-0.113419,0.000000,0.093000,-0.047000,0.206000,-51.920000,0.320000,1.100000,16.348636,Hold,0.000244,0.000000,Hold,-155.000000,2.000000,LowGoal,1852.500000,-2181.818182,Speed,2167.500000,-2181.818182,Speed,Off,Off,0.000000,FALSE,0,,,,
09:40:42.275 AM 03/25/2016,Teleop Enabled,11,FALSE,0,NO ERROR,-0.000000,-0.064167,0.000000,0.192500,TRUE,FALSE,TRUE,FALSE,FALSE,FALSE,Disabled,0.000000,0.000000,0.000000,TRUE,-1.326141,0.854889,0.000000,-0.288330,-0.187500,0.000000,0.103000,-0.149000,0.226000,-51.920000,0.150000,0.920000,18.216179,Hold,0.000244,0.000000,Hold,-155.000000,2.000000,LowGoal,1815.000000,-2181.818182,Speed,2160.000000,-2181.818182,Speed,Off,Off,0.000000,FALSE,0,,,,
09:40:42.375 AM 03/25/2016,Teleop Enabled,11,FALSE,0,NO ERROR,-0.000000,-0.064167,0.000000,0.192500,TRUE,FALSE,TRUE,FALSE,FALSE,FALSE,Disabled,0.000000,0.000000,0.000000,TRUE,-1.339325,0.838394,0.000000,-0.174637,-0.328293,0.000000,0.092000,-0.046000,0.069000,-51.920000,-0.150000,0.840000,20.096470,Hold,0.000244,0.000000,Hold,-155.000000,2.000000,LowGoal,1822.500000,-2181.818182,Speed,2160.000000,-2181.818182,Speed,Off,Off,0.000000,FALSE,0,,,,
09:40:42.476 AM 03/25/2016,Teleop Enabled,11,FALSE,0,NO ERROR,-0.000000,-0.064167,0.000000,0.192500,TRUE,FALSE,TRUE,FALSE,FALSE,FALSE,Disabled,0.000000,0.000000,0.000000,TRUE,-1.347244,0.817062,0.000000,-0.117294,-0.351532,0.000000,0.066000,0.083000,0.023000,-51.920000,-0.410000,1.160000,21.982038,Hold,0.000244,0.000000,Hold,-155.000000,2.000000,LowGoal,1815.000000,-2181.818182,Speed,2160.000000,-2181.818182,Speed,Off,Off,0.000000,FALSE,0,,,,
09:40:42.575 AM 03/25/2016,Teleop Enabled,11,FALSE,0,NO ERROR,-0.000000,-0.064167,0.000000,0.192500,TRUE,FALSE,TRUE,FALSE,FALSE,FALSE,Disabled,0.000000,0.000000,0.000000,TRUE,-1.351944,0.801743,0.000000,-0.088028,-0.283997,0.000000,-0.006000,0.000000,-0.112000,-51.910000,-0.280000,1.270000,23.854990,Hold,0.000244,0.000000,Hold,-155.000000,2.000000,LowGoal,1837.500000,-2181.818182,Speed,2160.000000,-2181.818182,Speed,Off,Off,0.000000,FALSE,0,,,,
09:40:42.677 AM 03/25/2016,Teleop Enabled,11,FALSE,0,NO ERROR,-0.393701,-0.064167,0.393701,0.192500,TRUE,FALSE,TRUE,FALSE,FALSE,FALSE,Disabled,0.000000,0.000000,0.000000,TRUE,-1.357910,0.789551,0.000000,-0.140335,-0.219849,0.000000,-0.079000,-0.046000,-0.227000,-51.910000,0.040000,1.340000,25.734324,Hold,0.000244,0.000000,Hold,-155.000000,2.000000,LowGoal,1837.500000,-2181.818182,Speed,2160.000000,-2181.818182,Speed,Off,Off,0.000000,FALSE,0,,,,
09:40:42.777 AM 03/25/2016,Teleop Enabled,11,FALSE,0,NO ERROR,-0.543307,-0.513332,0.543307,0.224583,TRUE,FALSE,TRUE,FALSE,FALSE,FALSE,Disabled,0.000000,0.000000,0.000000,TRUE,-1.366562,0.779022,0.000000,-0.220963,-0.175613,0.000000,-0.379000,-0.164000,0.239000,-51.670000,0.790000,1.450000,27.622394,Hold,0.000244,0.000000,Hold,-155.000000,2.000000,LowGoal,1815.000000,-2181.818182,Speed,2167.500000,-2181.818182,Speed,Off,Off,0.000000,FALSE,0,,,,
09:40:42.877 AM 03/25/2016,Teleop Enabled,11,FALSE,0,NO ERROR,-0.204724,-1.392413,0.204724,-1.154997,TRUE,FALSE,TRUE,FALSE,FALSE,FALSE,Disabled,0.000000,0.000000,0.000000,TRUE,-1.388672,0.771317,0.000000,-0.430557,-0.060226,0.000000,-0.033000,-0.078000,-0.168000,-48.220000,0.370000,1.800000,32.383797,Hold,0.000244,0.000000,Hold,-155.000000,2.000000,LowGoal,1800.000000,-2181.818182,Speed,2137.500000,-2181.818182,Speed,Off,Off,0.000000,FALSE,0,,,,
09:40:42.977 AM 03/25/2016,Teleop Enabled,11,FALSE,0,NO ERROR,-0.275591,-1.912162,0.275591,-1.732496,TRUE,FALSE,TRUE,FALSE,FALSE,FALSE,Disabled,0.000000,0.000000,0.000000,TRUE,-1.410492,0.765686,0.000000,-0.458969,-0.118256,0.000000,-0.163000,0.178000,-0.218000,-44.940000,0.150000,0.990000,38.367909,Hold,0.000244,0.000000,Hold,-155.000000,2.000000,LowGoal,1755.000000,-2181.818182,Speed,2122.500000,-2181.818182,Speed,Off,Off,0.000000,FALSE,0,,,,
09:40:43.078 AM 03/25/2016,Teleop Enabled,11,FALSE,0,NO ERROR,-0.590551,-1.912162,0.590551,-1.905746,TRUE,FALSE,TRUE,FALSE,FALSE,FALSE,Disabled,0.000000,0.000000,0.000000,TRUE,-1.432556,0.764984,0.000000,-0.589035,0.046219,0.000000,-0.146000,0.017000,0.064000,-45.040000,0.270000,1.050000,40.445648,Hold,0.000244,0.000000,Hold,-155.000000,2.000000,LowGoal,1777.500000,-2181.818182,Speed,2145.000000,-2181.818182,Speed,Off,Off,0.000000,FALSE,0,,,,
09:40:43.177 AM 03/25/2016,Teleop Enabled,11,FALSE,0,NO ERROR,-0.653543,-2.842577,0.653543,-2.887493,TRUE,FALSE,TRUE,FALSE,FALSE,FALSE,Disabled,0.000000,0.000000,0.000000,TRUE,-1.465729,0.769867,0.000000,-0.706726,0.148834,0.000000,0.312000,0.023000,-0.242000,-41.230000,0.310000,1.570000,45.669196,Hold,0.000244,0.000000,Hold,-155.000000,2.000000,LowGoal,1770.000000,-2181.818182,Speed,2130.000000,-2181.818182,Speed,Off,Off,0.000000,FALSE,0,,,,
09:40:43.277 AM 03/25/2016,Teleop Enabled,11,FALSE,0,NO ERROR,-0.653543,-4.382573,0.653543,-4.761156,TRUE,FALSE,TRUE,FALSE,FALSE,FALSE,Disabled,0.000000,0.000000,0.000000,TRUE,-1.501816,0.782684,0.000000,-0.556290,0.229080,0.000000,0.066000,-0.075000,0.014000,-34.470000,0.330000,1.740000,54.116322,Hold,0.000244,0.000000,Hold,-156.000000,2.000000,LowGoal,1710.000000,-2181.818182,Speed,2092.500000,-2181.818182,Speed,Off,Off,0.000000,FALSE,0,,,,
09:40:43.377 AM 03/25/2016,Teleop Enabled,11,FALSE,0,NO ERROR,-0.669291,-6.506485,0.669291,-7.385566,TRUE,FALSE,TRUE,FALSE,FALSE,FALSE,Disabled,0.000000,0.000000,0.000000,TRUE,-1.528336,0.787430,0.000000,-0.522461,0.012955,0.000000,0.022000,-0.117000,0.227000,-27.390000,0.300000,1.820000,65.051707,Hold,0.000244,0.000000,Hold,-156.000000,2.000000,LowGoal,1672.500000,-2181.818182,Speed,2077.500000,-2181.818182,Speed,Off,Off,0.000000,FALSE,0,,,,
09:40:43.478 AM 03/25/2016,Teleop Enabled,11,FALSE,0,NO ERROR,-0.669291,-8.810063,0.669291,-10.504059,TRUE,FALSE,TRUE,FALSE,FALSE,FALSE,Disabled,0.000000,0.000000,0.000000,TRUE,-1.553833,0.787048,0.000000,-0.530090,-0.007172,0.000000,-0.157000,0.179000,-0.024000,-17.130000,0.080000,1.790000,77.700323,Hold,0.000244,0.000000,Hold,-156.000000,2.000000,LowGoal,1725.000000,-2181.818182,Speed,2085.000000,-2181.818182,Speed,Off,Off,0.000000,FALSE,0,,,,
09:40:43.577 AM 03/25/2016,Teleop Enabled,11,FALSE,0,NO ERROR,-0.000000,-10.933974,0.000000,-13.680301,TRUE,FALSE,TRUE,FALSE,FALSE,FALSE,Disabled,0.000000,0.000000,0.000000,TRUE,-1.575989,0.788727,0.000000,-0.537521,0.036285,0.000000,-0.138000,0.029000,-0.050000,-5.600000,0.040000,1.650000,91.662702,Hold,0.000244,0.000000,Hold,-156.000000,2.000000,LowGoal,1762.500000,-2181.818182,Speed,2100.000000,-2181.818182,Speed,Off,Off,0.000000,FALSE,0,,,,
09:40:43.678 AM 03/25/2016,Teleop Enabled,10,FALSE,0,NO ERROR,-0.551181,-11.607723,0.551181,-15.290881,TRUE,FALSE,TRUE,FALSE,FALSE,FALSE,Disabled,0.000000,0.000000,0.000000,TRUE,-1.617584,0.788025,0.000000,-0.843796,-0.034622,0.000000,-0.223000,-0.008000,0.114000,1.920000,-0.640000,0.670000,101.161343,Hold,0.000244,0.000000,Hold,-156.000000,2.000000,LowGoal,1800.000000,-2181.818182,Speed,2130.000000,-2181.818182,Speed,Off,Off,0.000000,FALSE,0,,,,
09:40:43.777 AM 03/25/2016,Teleop Enabled,11,FALSE,0,NO ERROR,-0.669291,-12.236555,0.669291,-16.984877,TRUE,FALSE,TRUE,FALSE,FALSE,FALSE,Disabled,0.000000,0.000000,0.000000,TRUE,-1.648804,0.788284,0.000000,-0.744705,0.045563,0.000000,0.199000,-0.001000,-0.140000,5.120000,-0.570000,1.240000,105.572613,Hold,0.000244,0.000000,Hold,-156.000000,2.000000,LowGoal,1830.000000,-2181.818182,Speed,2152.500000,-2181.818182,Speed,Off,Off,0.000000,FALSE,0,,,,
09:40:43.878 AM 03/25/2016,Teleop Enabled,11,FALSE,0,NO ERROR,-0.669291,-13.500635,0.669291,-19.166539,TRUE,FALSE,TRUE,FALSE,FALSE,FALSE,Disabled,0.000000,0.000000,0.000000,TRUE,-1.685547,0.790710,0.000000,-0.554367,-0.037552,0.000000,0.028000,0.004000,0.162000,11.450000,0.110000,1.020000,113.533367,Hold,0.000244,0.000000,Hold,-156.000000,2.000000,LowGoal,1792.500000,-2181.818182,Speed,2100.000000,-2181.818182,Speed,Off,Off,0.000000,FALSE,0,,,,
09:40:43.977 AM 03/25/2016,Teleop Enabled,10,FALSE,0,NO ERROR,-0.000000,-15.393547,0.000000,-21.900032,TRUE,FALSE,TRUE,FALSE,FALSE,FALSE,Disabled,0.000000,0.000000,0.000000,TRUE,-1.711441,0.789032,0.000000,-0.494049,-0.065414,0.000000,-0.311000,-0.064000,0.453000,20.250000,0.320000,1.440000,126.682775,Hold,0.000244,0.000000,Hold,-156.000000,2.000000,LowGoal,1777.500000,-2181.818182,Speed,2077.500000,-2181.818182,Speed,Off,Off,0.000000,FALSE,0,,,,
09:40:44.078 AM 03/25/2016,Teleop Enabled,11,FALSE,0,NO ERROR,-0.000000,-16.092962,0.000000,-23.420779,TRUE,FALSE,TRUE,FALSE,FALSE,FALSE,Disabled,0.000000,0.000000,0.000000,TRUE,-1.742935,0.783096,0.000000,-0.707016,-0.158508,0.000000,-0.311000,-0.064000,0.453000,27.260000,-0.410000,0.730000,135.561766,Hold,0.000244,0.000000,Hold,-156.000000,2.000000,LowGoal,1800.000000,-2181.818182,Speed,2092.500000,-2181.818182,Speed,Off,Off,0.000000,FALSE,0,,,,
09:40:44.177 AM 03/25/2016,Teleop Enabled,11,FALSE,0,NO ERROR,-0.417323,-15.932546,0.417323,-23.850694,TRUE,FALSE,TRUE,FALSE,FALSE,FALSE,Disabled,0.000000,0.000000,0.000000,TRUE,-1.782272,0.775620,0.000000,-0.778992,-0.132858,0.000000,0.434000,0.098000,-0.108000,26.990000,-0.680000,0.050000,137.038293,Hold,0.000244,0.000000,Hold,-156.000000,2.000000,LowGoal,1875.000000,-2181.818182,Speed,2160.000000,-2181.818182,Speed,Off,Off,0.000000,FALSE,0,,,,
09:40:44.277 AM 03/25/2016,Teleop Enabled,9,FALSE,0,NO ERROR,-0.826772,-16.535711,0.826772,-24.954358,TRUE,FALSE,TRUE,FALSE,FALSE,FALSE,Disabled,0.000000,0.000000,0.000000,TRUE,-1.814117,0.772171,0.000000,-0.583023,-0.010605,0.000000,0.434000,0.098000,-0.108000,28.690000,-0.290000,0.440000,140.997827,Hold,0.000244,0.000000,Hold,-156.000000,2.000000,LowGoal,1897.500000,-2181.818182,Speed,2167.500000,-2181.818182,Speed,Off,Off,0.000000,FALSE,0,,,,
09:40:44.377 AM 03/25/2016,Teleop Enabled,11,FALSE,0,NO ERROR,-0.338583,-18.075708,0.338583,-26.911437,TRUE,FALSE,TRUE,FALSE,FALSE,FALSE,Disabled,0.000000,0.000000,0.000000,TRUE,-1.836777,0.777771,0.000000,-0.380890,0.137436,0.000000,-0.140000,0.008000,-0.254000,35.620000,0.320000,0.720000,150.307072,Hold,0.000244,0.000000,Hold,-156.000000,2.000000,LowGoal,1777.500000,-2181.818182,Speed,2092.500000,-2181.818182,Speed,Off,Off,0.000000,FALSE,0,,,,
09:40:44.478 AM 03/25/2016,Teleop Enabled,11,FALSE,0,NO ERROR,-0.000000,-19.198622,0.000000,-28.464267,TRUE,FALSE,TRUE,FALSE,FALSE,FALSE,Disabled,0.000000,0.000000,0.000000,TRUE,-1.857819,0.785294,0.000000,-0.466339,0.126129,0.000000,-0.362000,-0.129000,0.089000,42.480000,0.160000,0.580000,159.175993,Hold,0.000244,0.000000,Hold,-156.000000,2.000000,LowGoal,1755.000000,-2181.818182,Speed,2092.500000,-2181.818182,Speed,Off,Off,0.000000,FALSE,0,,,,
09:40:44.578 AM 03/25/2016,Teleop Enabled,10,FALSE,0,NO ERROR,-0.000000,-19.211455,0.000000,-28.650350,TRUE,FALSE,TRUE,FALSE,FALSE,FALSE,Disabled,0.000000,0.000000,0.000000,TRUE,-1.889389,0.787415,0.000000,-0.702774,-0.031433,0.000000,-0.362000,-0.129000,0.089000,44.100000,-0.360000,-0.290000,162.416480,Hold,0.000244,0.000000,Hold,-156.000000,2.000000,LowGoal,1860.000000,-2181.818182,Speed,2167.500000,-2181.818182,Speed,Off,Off,0.000000,FALSE,0,,,,
09:40:44.677 AM 03/25/2016,Teleop Enabled,11,FALSE,0,NO ERROR,-0.000000,-18.948372,0.000000,-28.631100,TRUE,FALSE,TRUE,FALSE,FALSE,FALSE,Disabled,0.000000,0.000000,0.000000,TRUE,-1.926270,0.781204,0.000000,-0.750366,-0.211517,0.000000,-0.121000,-0.093000,-0.137000,44.100000,-0.360000,-0.290000,163.233492,Hold,0.000244,0.000000,Hold,-156.000000,2.000000,LowGoal,1897.500000,-2181.818182,Speed,2190.000000,-2181.818182,Speed,Off,Off,0.000000,FALSE,0,,,,
09:40:44.780 AM 03/25/2016,Teleop Enabled,10,FALSE,0,NO ERROR,-0.000000,-18.935539,0.000000,-28.631100,TRUE,FALSE,TRUE,FALSE,FALSE,FALSE,Disabled,0.000000,0.000000,0.000000,TRUE,-1.963974,0.762543,0.000000,-0.770172,-0.438660,0.000000,0.056000,-0.382000,0.037000,42.950000,0.100000,-0.500000,165.268715,Hold,0.000244,0.000000,Hold,-156.000000,2.000000,LowGoal,1905.000000,-2181.818182,Speed,2175.000000,-2181.818182,Speed,Off,Off,0.000000,FALSE,0,,,,
09:40:44.878 AM 03/25/2016,Teleop Enabled,7,FALSE,0,NO ERROR,0.314961,-18.505623,0.314961,-28.990432,TRUE,FALSE,TRUE,FALSE,FALSE,FALSE,Disabled,0.000000,0.000000,0.000000,TRUE,-2.004623,0.735886,0.000000,-0.836014,-0.622482,0.000000,0.026000,-0.125000,0.062000,43.170000,0.480000,-0.590000,167.072788,Hold,0.000244,0.000000,Hold,-156.000000,2.000000,LowGoal,1905.000000,-2181.818182,Speed,2160.000000,-2181.818182,Speed,Off,Off,0.000000,FALSE,0,,,,
09:40:44.979 AM 03/25/2016,Teleop Enabled,6,FALSE,0,NO ERROR,0.346457,-17.838292,0.346457,-29.728347,TRUE,FALSE,TRUE,FALSE,FALSE,FALSE,Disabled,0.000000,0.000000,0.000000,TRUE,-2.053589,0.710754,0.000000,-1.057236,-0.430618,0.000000,-0.538000,0.493000,0.190000,43.090000,0.370000,-0.760000,169.018601,Hold,0.000244,0.000000,Hold,-156.000000,2.000000,LowGoal,1882.500000,-2181.818182,Speed,2145.000000,-2181.818182,Speed,Off,Off,0.000000,FALSE,0,,,,
09:40:45.079 AM 03/25/2016,Teleop Enabled,10,FALSE,0,NO ERROR,0.346457,-16.362462,0.346457,-31.300427,TRUE,FALSE,TRUE,FALSE,FALSE,FALSE,Disabled,0.000000,0.000000,0.000000,TRUE,-2.122803,0.689392,0.000000,-1.220718,-0.313416,0.000000,-0.147000,0.155000,-0.025000,43.150000,-1.400000,-0.420000,171.074407,Hold,0.000244,0.000000,Hold,-156.000000,2.000000,LowGoal,1890.000000,-2181.818182,Speed,2145.000000,-2181.818182,Speed,Off,Off,0.000000,FALSE,0,,,,
09:40:45.178 AM 03/25/2016,Teleop Enabled,9,FALSE,0,NO ERROR,0.338583,-14.116634,0.338583,-33.674588,TRUE,FALSE,TRUE,FALSE,FALSE,FALSE,Disabled,0.000000,0.000000,0.000000,TRUE,-2.172653,0.675491,0.000000,-1.258377,-0.406342,0.000000,-0.140000,0.175000,0.234000,43.340000,-1.580000,-0.130000,173.256038,Hold,0.000244,0.000000,Hold,-156.000000,2.000000,LowGoal,1890.000000,-2181.818182,Speed,2160.000000,-2181.818182,Speed,Off,Off,0.000000,FALSE,0,,,,
09:40:45.279 AM 03/25/2016,Teleop Enabled,10,FALSE,0,NO ERROR,0.299213,-11.549973,0.299213,-36.433748,TRUE,FALSE,TRUE,FALSE,FALSE,FALSE,Disabled,0.000000,0.000000,0.000000,TRUE,-2.172653,0.675491,0.000000,-1.258377,-0.406342,0.000000,-0.100000,-0.192000,0.103000,43.640000,-2.120000,-0.160000,175.479780,Hold,0.000244,0.000000,Hold,-156.000000,2.000000,LowGoal,1882.500000,-2181.818182,Speed,2160.000000,-2181.818182,Speed,Off,Off,0.000000,FALSE,0,,,,
09:40:45.380 AM 03/25/2016,Teleop Enabled,10,FALSE,0,NO ERROR,0.299213,-8.752313,0.299213,-39.494491,TRUE,FALSE,TRUE,FALSE,FALSE,FALSE,Disabled,0.000000,0.000000,0.000000,TRUE,-2.319656,0.633545,0.000000,-1.409515,0.000046,0.000000,-0.077000,-0.070000,0.286000,44.000000,-1.880000,-0.340000,178.089679,Hold,0.000244,0.000000,Hold,-156.000000,2.000000,LowGoal,1867.500000,-2181.818182,Speed,2160.000000,-2181.818182,Speed,Off,Off,0.000000,FALSE,0,,,,
09:40:45.481 AM 03/25/2016,Teleop Enabled,9,FALSE,0,NO ERROR,0.291339,-6.018819,0.291339,-42.568067,TRUE,FALSE,TRUE,FALSE,FALSE,FALSE,Disabled,0.000000,0.000000,0.000000,TRUE,-2.391113,0.630096,0.000000,-1.427216,-0.100128,0.000000,-0.119000,-0.039000,0.059000,44.740000,-1.960000,-0.210000,-179.338578,Hold,0.000244,0.000000,Hold,-156.000000,2.000000,LowGoal,1852.500000,-2181.818182,Speed,2167.500000,-2181.818182,Speed,Off,Off,0.000000,FALSE,0,,,,
09:40:45.581 AM 03/25/2016,Teleop Enabled,10,FALSE,0,NO ERROR,-0.000000,-3.426492,0.000000,-45.288727,TRUE,FALSE,TRUE,FALSE,FALSE,FALSE,Disabled,0.000000,0.000000,0.000000,TRUE,-2.419189,0.623810,0.000000,-0.003433,-0.169403,0.000000,0.082000,0.118000,-0.002000,45.360000,-2.000000,-0.010000,-176.473358,Hold,0.000244,0.000000,Hold,-156.000000,2.000000,LowGoal,1852.500000,-2181.818182,Speed,2160.000000,-2181.818182,Speed,Off,Off,0.000000,FALSE,0,,,,
09:40:45.682 AM 03/25/2016,Teleop Enabled,11,FALSE,0,NO ERROR,-0.000000,-1.533580,0.000000,-47.348473,TRUE,FALSE,TRUE,FALSE,FALSE,FALSE,Disabled,0.000000,0.000000,0.000000,TRUE,-2.414322,0.612061,0.000000,0.156906,-0.282150,0.000000,0.024000,-0.153000,0.005000,45.870000,-2.150000,0.340000,-174.480186,Hold,0.000244,0.000000,Hold,-156.000000,2.000000,LowGoal,1860.000000,-2181.818182,Speed,2167.500000,-2181.818182,Speed,Off,Off,0.000000,FALSE,0,,,,
09:40:45.783 AM 03/25/2016,Teleop Enabled,11,FALSE,0,NO ERROR,-0.000000,0.115500,0.000000,-48.984719,TRUE,FALSE,TRUE,FALSE,FALSE,FALSE,Disabled,0.000000,0.000000,0.000000,TRUE,-2.414322,0.612061,0.000000,0.156906,-0.282150,0.000000,0.044000,-0.103000,0.137000,46.020000,-0.520000,0.600000,-172.551066,Hold,0.000244,0.000000,Hold,-156.000000,2.000000,LowGoal,1875.000000,-2181.818182,Speed,2167.500000,-2181.818182,Speed,Off,Off,0.000000,FALSE,0,,,,
09:40:45.885 AM 03/25/2016,Teleop Enabled,9,FALSE,0,NO ERROR,-0.000000,1.142164,0.000000,-49.979300,TRUE,FALSE,TRUE,FALSE,FALSE,FALSE,Disabled,0.000000,0.000000,0.000000,TRUE,-2.385956,0.573471,0.000000,0.370956,-0.451523,0.000000,0.096000,-0.158000,-0.014000,46.020000,-0.520000,0.600000,-170.804549,Hold,0.000244,0.000000,Hold,-156.000000,2.000000,LowGoal,1867.500000,-2181.818182,Speed,2167.500000,-2181.818182,Speed,Off,Off,0.000000,FALSE,0,,,,
09:40:45.985 AM 03/25/2016,Teleop Enabled,9,FALSE,0,NO ERROR,-0.000000,1.751746,0.000000,-50.627382,TRUE,FALSE,TRUE,FALSE,FALSE,FALSE,Disabled,0.000000,0.000000,0.000000,TRUE,-2.362305,0.568176,0.000000,0.521973,-0.043457,0.000000,0.181000,0.009000,0.107000,45.910000,0.400000,0.610000,-168.797032,Hold,0.000244,0.000000,Hold,-156.000000,2.000000,LowGoal,1852.500000,-2181.818182,Speed,2175.000000,-2181.818182,Speed,Off,Off,0.000000,FALSE,0,,,,
09:40:46.085 AM 03/25/2016,Teleop Enabled,9,FALSE,0,NO ERROR,-0.000000,2.034079,0.000000,-50.909714,TRUE,FALSE,TRUE,FALSE,FALSE,FALSE,Disabled,0.000000,0.000000,0.000000,TRUE,-2.333450,0.566925,0.000000,0.639297,-0.008194,0.000000,0.113000,0.008000,0.112000,46.020000,1.050000,0.620000,-166.926029,Hold,0.000244,0.000000,Hold,-156.000000,2.000000,LowGoal,1860.000000,-2181.818182,Speed,2175.000000,-2181.818182,Speed,Off,Off,0.000000,FALSE,0,,,,
09:40:46.185 AM 03/25/2016,Teleop Enabled,9,FALSE,0,NO ERROR,0.275591,2.688577,0.275591,-51.577046,TRUE,FALSE,TRUE,FALSE,FALSE,FALSE,Disabled,0.000000,0.000000,0.000000,TRUE,-2.333450,0.566925,0.000000,0.639297,-0.008194,0.000000,0.037000,-0.054000,-0.078000,46.020000,1.550000,0.570000,-165.089607,Hold,0.000244,0.000000,Hold,-156.000000,2.000000,LowGoal,1867.500000,-2181.818182,Speed,2167.500000,-2181.818182,Speed,Off,Off,0.000000,FALSE,0,,,,
09:40:46.286 AM 03/25/2016,Teleop Enabled,9,FALSE,0,NO ERROR,-0.000000,2.688577,0.000000,-51.577046,TRUE,FALSE,TRUE,FALSE,FALSE,FALSE,Disabled,0.000000,0.000000,0.000000,TRUE,-2.301224,0.566513,0.000000,0.617661,0.054657,0.000000,0.064000,0.069000,0.079000,45.980000,0.770000,0.410000,-165.089607,Hold,0.000244,0.000000,Hold,-156.000000,2.000000,LowGoal,1845.000000,-2181.818182,Speed,2167.500000,-2181.818182,Speed,Off,Off,0.000000,FALSE,0,,,,
09:40:46.387 AM 03/25/2016,Teleop Enabled,9,FALSE,0,NO ERROR,-0.000000,3.227576,0.000000,-52.090378,TRUE,FALSE,TRUE,FALSE,FALSE,FALSE,Disabled,0.000000,0.000000,0.000000,TRUE,-2.265961,0.574036,0.000000,0.572357,0.155380,0.000000,0.102000,0.101000,0.105000,46.030000,0.820000,0.160000,-163.168305,Hold,0.000244,0.000000,Hold,-156.000000,2.000000,LowGoal,1837.500000,-2181.818182,Speed,2160.000000,-2181.818182,Speed,Off,Off,0.000000,FALSE,0,,,,
09:40:46.487 AM 03/25/2016,Teleop Enabled,9,FALSE,0,NO ERROR,-0.338583,3.631825,0.338583,-52.545960,TRUE,FALSE,TRUE,FALSE,FALSE,FALSE,Disabled,0.000000,0.000000,0.000000,TRUE,-2.233917,0.583939,0.000000,0.673141,0.215302,0.000000,0.103000,0.118000,0.027000,46.080000,1.150000,0.150000,-161.252242,Hold,0.000244,0.000000,Hold,-156.000000,2.000000,LowGoal,1867.500000,-2181.818182,Speed,2167.500000,-2181.818182,Speed,Off,Off,0.000000,FALSE,0,,,,
09:40:46.588 AM 03/25/2016,Teleop Enabled,10,FALSE,0,NO ERROR,-0.354331,3.785824,0.354331,-53.367292,TRUE,FALSE,TRUE,FALSE,FALSE,FALSE,Disabled,0.000000,0.000000,0.000000,TRUE,-2.195312,0.597183,0.000000,0.862366,0.301376,0.000000,0.227000,-0.056000,-0.014000,46.690000,1.390000,0.430000,-159.164348,Hold,0.000244,0.000000,Hold,-156.000000,2.000000,LowGoal,1897.500000,-2181.818182,Speed,2175.000000,-2181.818182,Speed,Off,Off,0.000000,FALSE,0,,,,
09:40:46.689 AM 03/25/2016,Teleop Enabled,9,FALSE,0,NO ERROR,-0.354331,3.227576,0.354331,-54.259206,TRUE,FALSE,TRUE,FALSE,FALSE,FALSE,Disabled,0.000000,0.000000,0.000000,TRUE,-2.147827,0.616852,0.000000,0.988983,0.475067,0.000000,0.102000,0.291000,-0.187000,49.670000,0.930000,0.930000,-154.606897,Hold,0.000244,0.000000,Hold,-156.000000,2.000000,LowGoal,1867.500000,-2181.818182,Speed,2160.000000,-2181.818182,Speed,Off,Off,0.000000,FALSE,0,,,,
09:40:46.789 AM 03/25/2016,Teleop Enabled,9,FALSE,0,NO ERROR,-0.354331,2.637244,0.354331,-55.170371,TRUE,FALSE,TRUE,FALSE,FALSE,FALSE,Disabled,0.000000,0.000000,0.000000,TRUE,-2.096634,0.644928,0.000000,1.056183,0.597153,0.000000,0.118000,0.101000,-0.135000,52.140000,0.840000,0.810000,-149.493882,Hold,0.000244,0.000000,Hold,-156.000000,2.000000,LowGoal,1815.000000,-2181.818182,Speed,2145.000000,-2181.818182,Speed,Off,Off,0.000000,FALSE,0,,,,
09:40:46.890 AM 03/25/2016,Teleop Enabled,11,FALSE,0,NO ERROR,-0.354331,2.143162,0.354331,-56.010952,TRUE,FALSE,TRUE,FALSE,FALSE,FALSE,Disabled,0.000000,0.000000,0.000000,TRUE,-2.028641,0.681335,0.000000,1.168869,0.601746,0.000000,0.005000,-0.019000,-0.277000,54.830000,0.990000,0.890000,-144.774593,Hold,0.000244,0.000000,Hold,-156.000000,2.000000,LowGoal,1800.000000,-2181.818182,Speed,2145.000000,-2181.818182,Speed,Off,Off,0.000000,FALSE,0,,,,
09:40:46.990 AM 03/25/2016,Teleop Enabled,11,FALSE,0,NO ERROR,-0.488189,1.777413,0.488189,-56.819450,TRUE,FALSE,TRUE,FALSE,FALSE,FALSE,Disabled,0.000000,0.000000,0.000000,TRUE,-1.981842,0.707764,0.000000,1.171371,0.721130,0.000000,0.041000,0.203000,-0.048000,57.700000,0.800000,0.780000,-140.322498,Hold,0.000244,0.000000,Hold,-156.000000,2.000000,LowGoal,1792.500000,-2181.818182,Speed,2145.000000,-2181.818182,Speed,Off,Off,0.000000,FALSE,0,,,,
09:40:47.089 AM 03/25/2016,Teleop Enabled,11,FALSE,0,NO ERROR,-0.503937,1.373163,0.503937,-57.692115,TRUE,FALSE,TRUE,FALSE,FALSE,FALSE,Disabled,0.000000,0.000000,0.000000,TRUE,-1.957764,0.750015,0.000000,0.004929,0.879501,0.000000,0.034000,-0.186000,-0.053000,59.530000,0.560000,1.020000,-136.062470,Hold,0.000244,0.000000,Hold,-156.000000,2.000000,LowGoal,1777.500000,-2181.818182,Speed,2145.000000,-2181.818182,Speed,Off,Off,0.000000,FALSE,0,,,,
09:40:47.189 AM 03/25/2016,Teleop Enabled,9,FALSE,0,NO ERROR,-0.503937,0.654498,0.503937,-59.052445,TRUE,FALSE,TRUE,FALSE,FALSE,FALSE,Disabled,0.000000,0.000000,0.000000,TRUE,-1.955765,0.789383,0.000000,0.058365,0.737808,0.000000,0.041000,-0.174000,-0.075000,63.230000,0.890000,1.150000,-129.080655,Hold,0.000244,0.000000,Hold,-156.000000,2.000000,LowGoal,1762.500000,-2181.818182,Speed,2130.000000,-2181.818182,Speed,Off,Off,0.000000,FALSE,0,,,,
09:40:47.289 AM 03/25/2016,Teleop Enabled,9,FALSE,0,NO ERROR,-0.511811,-0.372166,0.511811,-60.913274,TRUE,FALSE,TRUE,FALSE,FALSE,FALSE,Disabled,0.000000,0.000000,0.000000,TRUE,-1.952332,0.823395,0.000000,0.067093,0.690216,0.000000,-0.106000,0.036000,0.094000,69.830000,0.870000,1.500000,-121.391182,Hold,0.000244,0.000000,Hold,-156.000000,2.000000,LowGoal,1770.000000,-2181.818182,Speed,2115.000000,-2181.818182,Speed,Off,Off,0.000000,FALSE,0,,,,
09:40:47.389 AM 03/25/2016,Teleop Enabled,9,FALSE,0,NO ERROR,-0.511811,-1.462997,0.511811,-63.062853,TRUE,FALSE,TRUE,FALSE,FALSE,FALSE,Disabled,0.000000,0.000000,0.000000,TRUE,-1.951401,0.858597,0.000000,-0.029480,0.688751,0.000000,-0.240000,-0.037000,0.076000,76.230000,0.540000,1.530000,-112.819694,Hold,0.000244,0.000000,Hold,-156.000000,2.000000,LowGoal,1777.500000,-2181.818182,Speed,2122.500000,-2181.818182,Speed,Off,Off,0.000000,FALSE,0,,,,
09:40:47.490 AM 03/25/2016,Teleop Enabled,11,FALSE,0,NO ERROR,-0.259843,-2.457578,0.259843,-65.225264,TRUE,FALSE,TRUE,FALSE,FALSE,FALSE,Disabled,0.000000,0.000000,0.000000,TRUE,-1.958694,0.890869,0.000000,-0.217484,0.598495,0.000000,-0.033000,-0.031000,-0.003000,82.420000,0.660000,1.440000,-104.468916,Hold,0.000244,0.000000,Hold,-156.000000,2.000000,LowGoal,1747.500000,-2181.818182,Speed,2130.000000,-2181.818182,Speed,Off,Off,0.000000,FALSE,0,,,,
09:40:47.591 AM 03/25/2016,Teleop Enabled,11,FALSE,0,NO ERROR,-0.417323,-2.874660,0.417323,-66.553511,TRUE,FALSE,TRUE,FALSE,FALSE,FALSE,Disabled,0.000000,0.000000,0.000000,TRUE,-1.976913,0.928360,0.000000,-0.378006,0.672668,0.000000,-0.066000,-0.026000,-0.108000,86.710000,0.450000,0.970000,-97.878287,Hold,0.000244,0.000000,Hold,-156.000000,2.000000,LowGoal,1777.500000,-2181.818182,Speed,2122.500000,-2181.818182,Speed,Off,Off,0.000000,FALSE,0,,,,
09:40:47.691 AM 03/25/2016,Teleop Enabled,11,FALSE,0,NO ERROR,-0.519685,-2.925993,0.519685,-67.374842,TRUE,FALSE,TRUE,FALSE,FALSE,FALSE,Disabled,0.000000,0.000000,0.000000,TRUE,-1.991653,0.963089,0.000000,-0.218582,0.711823,0.000000,0.209000,0.005000,0.131000,87.970000,0.420000,1.000000,-94.693373,Hold,0.000244,0.000000,Hold,-156.000000,2.000000,LowGoal,1822.500000,-2181.818182,Speed,2145.000000,-2181.818182,Speed,Off,Off,0.000000,FALSE,0,,,,
09:40:47.791 AM 03/25/2016,Teleop Enabled,11,FALSE,0,NO ERROR,-0.685039,-3.118493,0.685039,-68.234674,TRUE,FALSE,TRUE,FALSE,FALSE,FALSE,Disabled,0.000000,0.000000,0.000000,TRUE,-1.995972,0.998734,0.000000,-0.043808,0.682602,0.000000,-0.077000,-0.039000,-0.152000,89.810000,0.530000,1.230000,-90.918353,Hold,0.000244,0.000000,Hold,-156.000000,2.000000,LowGoal,1800.000000,-2181.818182,Speed,2130.000000,-2181.818182,Speed,Off,Off,0.000000,FALSE,0,,,,
09:40:47.892 AM 03/25/2016,Teleop Enabled,11,FALSE,0,NO ERROR,-0.440945,-3.612575,0.440945,-69.575754,TRUE,FALSE,TRUE,FALSE,FALSE,FALSE,Disabled,0.000000,0.000000,0.000000,TRUE,-1.996002,1.033890,0.000000,0.096573,0.722076,0.000000,0.306000,-0.129000,-0.052000,92.920000,0.450000,1.560000,-85.803104,Hold,0.000244,0.000000,Hold,-156.000000,2.000000,LowGoal,1770.000000,-2181.818182,Speed,2107.500000,-2181.818182,Speed,Off,Off,0.000000,FALSE,0,,,,
09:40:47.992 AM 03/25/2016,Teleop Enabled,11,FALSE,0,NO ERROR,-0.000000,-4.401823,0.000000,-71.519999,TRUE,FALSE,TRUE,FALSE,FALSE,FALSE,Disabled,0.000000,0.000000,0.000000,TRUE,-1.990021,1.067566,0.000000,0.126877,0.658722,0.000000,-0.018000,0.077000,0.220000,98.350000,0.300000,1.940000,-78.356152,Hold,0.000244,0.000000,Hold,-156.000000,2.000000,LowGoal,1732.500000,-2181.818182,Speed,2077.500000,-2181.818182,Speed,Off,Off,0.000000,FALSE,0,,,,
09:40:48.091 AM 03/25/2016,Teleop Enabled,11,FALSE,0,NO ERROR,-0.000000,-4.254240,0.000000,-72.103915,TRUE,FALSE,TRUE,FALSE,FALSE,FALSE,Disabled,0.000000,0.000000,0.000000,TRUE,-1.989944,1.105652,0.000000,-0.091675,0.817184,0.000000,-0.132000,-0.028000,-0.083000,101.120000,-0.180000,1.020000,-73.396913,Hold,0.000244,0.000000,Hold,-157.000000,2.000000,LowGoal,1762.500000,-2181.818182,Speed,2107.500000,-2181.818182,Speed,Off,Off,0.000000,FALSE,0,,,,
09:40:48.194 AM 03/25/2016,Teleop Enabled,11,FALSE,0,NO ERROR,-0.000000,-3.959074,0.000000,-72.142415,TRUE,FALSE,TRUE,FALSE,FALSE,FALSE,Disabled,0.000000,0.000000,0.000000,TRUE,-1.996033,1.144363,0.000000,-0.152054,0.721161,0.000000,-0.056000,0.071000,0.198000,100.460000,0.100000,1.220000,-72.177594,Hold,0.000244,0.000000,Hold,-157.000000,2.000000,LowGoal,1822.500000,-2181.818182,Speed,2175.000000,-2181.818182,Speed,Off,Off,0.000000,FALSE,0,,,,
09:40:48.293 AM 03/25/2016,Teleop Enabled,10,FALSE,0,NO ERROR,-0.000000,-3.965491,0.000000,-72.142415,TRUE,FALSE,TRUE,FALSE,FALSE,FALSE,Disabled,0.000000,0.000000,0.000000,TRUE,-2.006363,1.182007,0.000000,-0.233795,0.784561,0.000000,-0.067000,0.194000,0.124000,100.330000,-0.270000,1.350000,-70.410880,Hold,0.000244,0.000000,Hold,-157.000000,2.000000,LowGoal,1852.500000,-2181.818182,Speed,2175.000000,-2181.818182,Speed,Off,Off,0.000000,FALSE,0,,,,
09:40:48.393 AM 03/25/2016,Teleop Enabled,11,FALSE,0,NO ERROR,-0.000000,-3.965491,0.000000,-72.135998,TRUE,FALSE,TRUE,FALSE,FALSE,FALSE,Disabled,0.000000,0.000000,0.000000,TRUE,-2.019608,1.224152,0.000000,-0.283768,0.859756,0.000000,-0.027000,-0.113000,0.155000,100.310000,-0.460000,1.490000,-68.622502,Hold,0.000244,0.000000,Hold,-157.000000,2.000000,LowGoal,1860.000000,-2181.818182,Speed,2160.000000,-2181.818182,Speed,Off,Off,0.000000,FALSE,0,,,,
09:40:48.494 AM 03/25/2016,Teleop Enabled,11,FALSE,0,NO ERROR,-0.000000,-3.965491,0.000000,-72.135998,TRUE,FALSE,TRUE,FALSE,FALSE,FALSE,Disabled,0.000000,0.000000,0.000000,TRUE,-2.034332,1.266113,0.000000,-0.283798,0.839172,0.000000,-0.012000,-0.059000,0.184000,100.330000,-0.400000,1.700000,-66.684799,Hold,0.000244,0.000000,Hold,-157.000000,2.000000,LowGoal,1852.500000,-2181.818182,Speed,2167.500000,-2181.818182,Speed,Off,Off,0.000000,FALSE,0,,,,
09:40:48.594 AM 03/25/2016,Teleop Enabled,11,FALSE,0,NO ERROR,-0.000000,-3.965491,0.000000,-72.135998,TRUE,FALSE,TRUE,FALSE,FALSE,FALSE,Disabled,0.000000,0.000000,0.000000,TRUE,-2.047943,1.306610,0.000000,-0.269608,0.784210,0.000000,0.122000,-0.059000,0.134000,100.310000,-0.280000,1.860000,-64.815098,Hold,0.000244,0.000000,Hold,-157.000000,2.000000,LowGoal,1860.000000,-2181.818182,Speed,2167.500000,-2181.818182,Speed,Off,Off,0.000000,FALSE,0,,,,
09:40:48.693 AM 03/25/2016,Teleop Enabled,11,FALSE,0,NO ERROR,-0.000000,-3.965491,0.000000,-72.135998,TRUE,FALSE,TRUE,FALSE,FALSE,FALSE,Disabled,0.000000,0.000000,0.000000,TRUE,-2.059448,1.344681,0.000000,-0.231262,0.750015,0.000000,0.035000,0.033000,0.053000,100.340000,0.030000,1.730000,-62.917092,Hold,0.000244,0.000000,Hold,-157.000000,2.000000,LowGoal,1837.500000,-2181.818182,Speed,2160.000000,-2181.818182,Speed,Off,Off,0.000000,FALSE,0,,,,
09:40:48.793 AM 03/25/2016,Teleop Enabled,11,FALSE,0,NO ERROR,-0.000000,-3.965491,0.000000,-72.135998,TRUE,FALSE,TRUE,FALSE,FALSE,FALSE,Disabled,0.000000,0.000000,0.000000,TRUE,-2.070465,1.359863,0.000000,-0.206940,0.001541,0.000000,0.003000,-0.071000,-0.045000,100.320000,0.340000,1.520000,-60.665979,Hold,0.000244,0.000000,Hold,-157.000000,2.000000,LowGoal,1837.500000,-2181.818182,Speed,2167.500000,-2181.818182,Speed,Off,Off,0.000000,FALSE,0,,,,
09:40:48.893 AM 03/25/2016,Teleop Enabled,11,FALSE,0,NO ERROR,-0.000000,-3.965491,0.000000,-72.135998,TRUE,FALSE,TRUE,FALSE,FALSE,FALSE,Disabled,0.000000,0.000000,0.000000,TRUE,-2.073975,1.361099,0.000000,0.039536,0.046204,0.000000,0.081000,-0.019000,-0.028000,100.320000,0.360000,1.220000,-58.780063,Hold,0.000244,0.000732,LowGoal,-157.000000,102400.000000,LowGoal,1837.500000,-2181.818182,Speed,2167.500000,-2181.818182,Speed,Off,Off,0.000000,FALSE,0,,,,
09:40:48.993 AM 03/25/2016,Teleop Enabled,11,FALSE,0,NO ERROR,-0.000000,-3.965491,0.000000,-72.135998,TRUE,FALSE,TRUE,FALSE,FALSE,FALSE,Disabled,0.000000,0.000000,0.000000,TRUE,-2.069382,1.364395,0.000000,0.151871,0.080154,0.000000,0.148000,-0.068000,-0.061000,100.310000,0.160000,1.140000,-56.900509,Hold,0.000244,0.000732,Hold,-3935.000000,102400.000000,LowGoal,1837.500000,-2181.818182,Speed,2160.000000,-2181.818182,Speed,Off,Off,0.000000,FALSE,0,,,,
09:40:49.093 AM 03/25/2016,Teleop Enabled,11,FALSE,0,NO ERROR,-0.000000,-3.965491,0.000000,-72.135998,TRUE,FALSE,TRUE,FALSE,FALSE,FALSE,Disabled,0.000000,0.000000,0.000000,TRUE,-2.059006,1.364944,0.000000,0.245834,-0.005219,0.000000,0.088000,0.082000,-0.194000,100.320000,0.050000,1.280000,-55.020338,Hold,0.000244,0.000732,Hold,-13945.000000,102400.000000,LowGoal,1837.500000,-2181.818182,Speed,2167.500000,-2181.818182,Speed,Off,Off,0.000000,FALSE,0,,,,
09:40:49.193 AM 03/25/2016,Teleop Enabled,10,FALSE,0,NO ERROR,-0.000000,-3.965491,0.000000,-72.135998,TRUE,FALSE,TRUE,FALSE,FALSE,FALSE,Disabled,0.000000,0.000000,0.000000,TRUE,-2.045868,1.364685,0.000000,0.282547,-0.011597,0.000000,0.185000,0.166000,-0.001000,100.310000,-0.020000,1.420000,-53.147928,Hold,0.000244,0.000732,Hold,-13945.000000,102400.000000,LowGoal,1830.000000,-2181.818182,Speed,2167.500000,-2181.818182,Speed,Off,Off,0.000000,FALSE,0,,,,
09:40:49.293 AM 03/25/2016,Teleop Enabled,11,FALSE,0,NO ERROR,-0.000000,-3.965491,0.000000,-72.135998,TRUE,FALSE,TRUE,FALSE,FALSE,FALSE,Disabled,0.000000,0.000000,0.000000,TRUE,-2.029358,1.363770,0.000000,0.306839,-0.045609,0.000000,-0.082000,-0.010000,-0.165000,100.320000,0.150000,1.540000,-51.249484,Hold,0.000244,0.000732,Hold,-24780.000000,102400.000000,LowGoal,1837.500000,-2181.818182,Speed,2167.500000,-2181.818182,Speed,Off,Off,0.000000,FALSE,0,,,,
09:40:49.393 AM 03/25/2016,Teleop Enabled,10,FALSE,0,NO ERROR,-0.000000,-3.965491,0.000000,-72.135998,TRUE,FALSE,TRUE,FALSE,FALSE,FALSE,Disabled,0.000000,0.000000,0.000000,TRUE,-2.013428,1.359680,0.000000,0.333282,-0.142792,0.000000,-0.093000,-0.090000,-0.058000,100.360000,0.490000,1.530000,-49.329528,Hold,0.000244,0.000732,Hold,-34557.000000,102400.000000,LowGoal,1830.000000,-2181.818182,Speed,2160.000000,-2181.818182,Speed,Off,Off,0.000000,FALSE,0,,,,
09:40:49.493 AM 03/25/2016,Teleop Enabled,11,FALSE,0,NO ERROR,-0.000000,-3.965491,0.000000,-72.135998,TRUE,FALSE,TRUE,FALSE,FALSE,FALSE,Disabled,0.000000,0.000000,0.000000,TRUE,-1.998291,1.349564,0.000000,0.305832,-0.240738,0.000000,-0.148000,-0.042000,0.053000,100.330000,0.670000,1.430000,-47.458147,Hold,0.000244,0.000732,Hold,-44609.000000,102400.000000,LowGoal,1822.500000,-2181.818182,Speed,2167.500000,-2181.818182,Speed,Off,Off,0.000000,FALSE,0,,,,
09:40:49.593 AM 03/25/2016,Teleop Enabled,11,FALSE,0,NO ERROR,-0.000000,-3.965491,0.000000,-72.135998,TRUE,FALSE,TRUE,FALSE,FALSE,FALSE,Disabled,0.000000,0.000000,0.000000,TRUE,-1.986618,1.335892,0.000000,0.230377,-0.302811,0.000000,-0.252000,-0.221000,-0.141000,100.360000,0.810000,1.230000,-45.525994,Hold,0.000244,0.000732,Hold,-55896.000000,102400.000000,LowGoal,1800.000000,-2181.818182,Speed,2167.500000,-2181.818182,Speed,Off,Off,0.000000,FALSE,0,,,,
09:40:49.693 AM 03/25/2016,Teleop Enabled,11,FALSE,0,NO ERROR,-0.000000,-3.965491,0.000000,-72.078248,TRUE,FALSE,TRUE,FALSE,FALSE,FALSE,Disabled,0.000000,0.000000,0.000000,TRUE,-1.980103,1.317184,0.000000,0.095856,-0.366608,0.000000,0.050000,0.169000,-0.132000,100.210000,0.600000,1.110000,-43.739912,Hold,0.000244,0.000732,Hold,-70464.000000,102400.000000,LowGoal,1785.000000,-2181.818182,Speed,2160.000000,-2181.818182,Speed,Off,Off,0.000000,FALSE,0,,,,
