Time,Robot Mode,Loop Time,Error Status,Error Code,Error Source,Left Motor Output,Left Motor Encoder,Right Motor Output,Right Motor Encoder,Is Level,Is Stalled,Ball Detector Photoeye,Vision Enabled,Vision Teleop Control,Vision Auto Control,Vision Current State,Vision X Output,Vision NavX Error,Vision NavX Target,NavX Connection Status,NavX Displacement X,NavX Displacement Y,NavX Displacement Z,NavX Velocity X,NavX Velocity Y,NavX Velocity Z,NavX Acceleration X,NavX Acceleration Y,NavX Acceleration Z,NavX Pitch,NavX Yaw,NavX Roll,Gyro Angle,Roller Arm State,Roller Arm Actual,Roller Arm Desired,Shooter Arm State,Shooter Arm Actual,Shooter Arm Desired,Shooter State,Actual RPM Left,Desired RPM Left,Control Mode Left,Actual RPM Right,Desired RPM Right,Control Mode Right,Ball Shooter Cylinder,Ball Halo Cylinder,Scaler Motor Output,Scaler Solenoid Fire,Auto To Run,Auto Current File,Auto File Status,Auto Current Command,Auto Trimmed Command
08:22:04.639 PM 03/24/2016,Teleop Enabled,9,TRUE,-44003,<LOCATION>WPI_CameraIssue HTTP Request with Authentication.vi<CALLSTACK>WPI_CameraIssue HTTP Request with Authentication.vi< <WPI_CameraIssue Get.vi< <WPI_CameraSet Image Appearance Property.vi< <WPI_CameraSet Image Size.vi< <Vision Processing.vi< <Robot Main.vi,-0.000000,0.000000,0.000000,0.000000,TRUE,FALSE,TRUE,FALSE,FALSE,FALSE,Disabled,0.000000,0.000000,0.000000,TRUE,0.073166,-0.032913,0.000000,0.000000,0.000000,0.000000,0.001000,0.002000,0.000000,-0.060000,0.120000,1.480000,22.222446,ResetBack,0.396240,-0.000049,ResetBack,14024.000000,-0.150000,LowGoal,0.000000,0.000000,Speed,0.000000,0.000000,Speed,Off,Off,0.000000,FALSE,0,,,,
08:22:04.741 PM 03/24/2016,Teleop Enabled,9,FALSE,0,NO ERROR,-0.000000,-0.141166,0.000000,-0.115500,TRUE,FALSE,TRUE,FALSE,FALSE,FALSE,Disabled,0.000000,0.000000,0.000000,TRUE,0.073868,-0.032761,0.000000,0.023315,0.004181,0.000000,0.001000,-0.006000,0.000000,-0.060000,0.110000,1.470000,22.752658,ResetBack,-0.097656,-0.000049,ResetBack,14024.000000,-0.150000,LowGoal,0.000000,-1454.545455,Speed,0.000000,-1454.545455,Speed,Off,Off,0.000000,FALSE,0,,,,
08:22:04.841 PM 03/24/2016,Teleop Enabled,10,FALSE,0,NO ERROR,-0.000000,-0.141166,0.000000,-0.109083,TRUE,FALSE,TRUE,FALSE,FALSE,FALSE,Disabled,0.000000,0.000000,0.000000,TRUE,0.073792,-0.032806,0.000000,-0.018799,0.007431,0.000000,-0.115000,-0.048000,-0.040000,0.000000,0.040000,1.410000,23.116451,ResetBack,-0.101807,-0.000049,ResetBack,15139.000000,-0.150000,LowGoal,22.500000,-1454.545455,Speed,112.500000,-1454.545455,Speed,Off,Off,0.000000,FALSE,0,,,,
08:22:04.941 PM 03/24/2016,Teleop Enabled,9,FALSE,0,NO ERROR,-0.000000,-0.141166,0.000000,-0.109083,TRUE,FALSE,TRUE,FALSE,FALSE,FALSE,Disabled,0.000000,0.000000,0.000000,TRUE,0.074112,-0.032745,0.000000,0.006302,-0.008545,0.000000,-0.006000,-0.003000,-0.089000,-0.010000,-0.140000,1.390000,23.505687,ResetBack,-0.101807,-0.000049,ResetBack,16056.000000,-0.150000,LowGoal,525.000000,-1454.545455,Speed,750.000000,-1454.545455,Speed,Off,Off,0.000000,FALSE,0,,,,
08:22:05.042 PM 03/24/2016,Teleop Enabled,10,FALSE,0,NO ERROR,-0.000000,-0.141166,0.000000,-0.109083,TRUE,FALSE,TRUE,FALSE,FALSE,FALSE,Disabled,0.000000,0.000000,0.000000,TRUE,0.074493,-0.034332,0.000000,0.000000,-0.046204,0.000000,0.001000,-0.040000,-0.085000,-0.010000,-0.100000,1.390000,23.897932,Reset,-0.101807,0.000000,ResetBack,16830.000000,-0.150000,LowGoal,1162.500000,-1454.545455,Speed,1252.500000,-1454.545455,Speed,Off,Off,0.000000,FALSE,0,,,,
08:22:05.143 PM 03/24/2016,Teleop Enabled,10,FALSE,0,NO ERROR,-0.000000,-0.141166,0.000000,-0.109083,TRUE,FALSE,TRUE,FALSE,FALSE,FALSE,Disabled,0.000000,0.000000,0.000000,TRUE,0.075180,-0.037018,0.000000,0.028534,-0.059174,0.000000,0.001000,-0.012000,0.016000,-0.010000,-0.100000,1.330000,24.285247,Hold,0.411133,0.000000,ResetBack,18285.000000,-0.150000,LowGoal,1537.500000,-1454.545455,Speed,1567.500000,-1454.545455,Speed,Off,Off,0.000000,FALSE,0,,,,
08:22:05.242 PM 03/24/2016,Teleop Enabled,10,FALSE,0,NO ERROR,-0.000000,-0.141166,0.000000,-0.109083,TRUE,FALSE,TRUE,FALSE,FALSE,FALSE,Disabled,0.000000,0.000000,0.000000,TRUE,0.075180,-0.037018,0.000000,0.028534,-0.059174,0.000000,0.062000,-0.050000,-0.002000,-0.010000,-0.010000,1.360000,24.652964,Hold,0.460449,0.000000,ResetBack,20430.000000,-0.150000,LowGoal,1507.500000,-1454.545455,Speed,1492.500000,-1454.545455,Speed,Off,Off,0.000000,FALSE,0,,,,
08:22:05.343 PM 03/24/2016,Teleop Enabled,10,FALSE,0,NO ERROR,-0.000000,-0.141166,0.000000,-0.109083,TRUE,FALSE,TRUE,FALSE,FALSE,FALSE,Disabled,0.000000,0.000000,0.000000,TRUE,0.077759,-0.040588,0.000000,0.058990,0.000000,0.000000,0.018000,-0.039000,0.063000,-0.010000,0.050000,1.370000,25.034406,Hold,0.460449,0.000000,ResetBack,20430.000000,-0.150000,LowGoal,1417.500000,-1454.545455,Speed,1410.000000,-1454.545455,Speed,Off,Off,0.000000,FALSE,0,,,,
08:22:05.444 PM 03/24/2016,Teleop Enabled,10,FALSE,0,NO ERROR,-0.000000,-0.141166,0.000000,-0.109083,TRUE,FALSE,TRUE,FALSE,FALSE,FALSE,Disabled,0.000000,0.000000,0.000000,TRUE,0.078293,-0.040588,0.000000,0.028534,0.005173,0.000000,-0.023000,0.017000,-0.005000,-0.020000,0.120000,1.340000,25.423436,Hold,0.460449,0.000000,ResetBack,22684.000000,-0.150000,LowGoal,1387.500000,-1454.545455,Speed,1402.500000,-1454.545455,Speed,Off,Off,0.000000,FALSE,0,,,,
08:22:05.545 PM 03/24/2016,Teleop Enabled,10,FALSE,0,NO ERROR,-0.000000,-0.141166,0.000000,-0.109083,TRUE,FALSE,TRUE,FALSE,FALSE,FALSE,Disabled,0.000000,0.000000,0.000000,TRUE,0.079269,-0.039703,0.000000,-0.006653,0.024734,0.000000,-0.008000,0.044000,0.039000,-0.020000,0.070000,1.400000,25.423436,Hold,0.460449,0.000000,ResetBack,25076.000000,-0.150000,LowGoal,1402.500000,-1454.545455,Speed,1417.500000,-1454.545455,Speed,Off,Off,0.000000,FALSE,0,,,,
08:22:05.644 PM 03/24/2016,Teleop Enabled,10,FALSE,0,NO ERROR,-0.000000,-0.141166,0.000000,-0.109083,TRUE,FALSE,TRUE,FALSE,FALSE,FALSE,Disabled,0.000000,0.000000,0.000000,TRUE,0.079254,-0.037170,0.000000,0.004990,0.066238,0.000000,0.030000,0.009000,0.005000,-0.020000,0.200000,1.500000,25.811616,Hold,0.460449,0.000000,ResetBack,27424.000000,-0.150000,LowGoal,1425.000000,-1454.545455,Speed,1425.000000,-1454.545455,Speed,Off,Off,0.000000,FALSE,0,,,,
08:22:05.744 PM 03/24/2016,Teleop Enabled,10,FALSE,0,NO ERROR,-0.000000,-0.141166,0.000000,-0.109083,TRUE,FALSE,TRUE,FALSE,FALSE,FALSE,Disabled,0.000000,0.000000,0.000000,TRUE,0.079010,-0.037170,0.000000,-0.025696,-0.000229,0.000000,-0.060000,0.005000,-0.048000,-0.010000,0.180000,1.430000,26.193440,Hold,0.460449,0.000000,ResetBack,29929.000000,-0.150000,LowGoal,1417.500000,-1454.545455,Speed,1425.000000,-1454.545455,Speed,Off,Off,0.000000,FALSE,0,,,,
08:22:05.844 PM 03/24/2016,Teleop Enabled,9,FALSE,0,NO ERROR,-0.000000,-0.141166,0.000000,-0.109083,TRUE,FALSE,TRUE,FALSE,FALSE,FALSE,Disabled,0.000000,0.000000,0.000000,TRUE,0.077347,-0.036499,0.000000,0.000000,0.030716,0.000000,0.003000,0.057000,0.027000,-0.020000,0.070000,1.480000,26.592567,Hold,0.460449,0.000000,ResetBack,32337.000000,-0.150000,LowGoal,1417.500000,-1454.545455,Speed,1417.500000,-1454.545455,Speed,Off,Off,0.000000,FALSE,0,,,,
08:22:05.944 PM 03/24/2016,Teleop Enabled,10,FALSE,0,NO ERROR,-0.000000,-0.141166,0.000000,-0.109083,TRUE,FALSE,TRUE,FALSE,FALSE,FALSE,Disabled,0.000000,0.000000,0.000000,TRUE,0.078430,-0.035095,0.000000,0.026230,0.019745,0.000000,-0.034000,-0.071000,-0.036000,-0.010000,0.130000,1.430000,26.976474,Hold,0.460449,0.000000,Reset,32337.000000,2.000000,LowGoal,1410.000000,-1454.545455,Speed,1425.000000,-1454.545455,Speed,Off,Off,0.000000,FALSE,0,,,,
08:22:06.044 PM 03/24/2016,Teleop Enabled,10,FALSE,0,NO ERROR,-0.000000,-0.141166,0.000000,-0.109083,TRUE,FALSE,TRUE,FALSE,FALSE,FALSE,Disabled,0.000000,0.000000,0.000000,TRUE,0.080078,-0.035263,0.000000,0.048126,-0.005096,0.000000,0.046000,0.000000,0.035000,-0.020000,0.170000,1.470000,27.366561,Hold,0.460449,0.000000,Hold,111.000000,2.000000,LowGoal,1417.500000,-1454.545455,Speed,1432.500000,-1454.545455,Speed,Off,Off,0.000000,FALSE,0,,,,
08:22:06.144 PM 03/24/2016,Teleop Enabled,10,FALSE,0,NO ERROR,-0.000000,-0.141166,0.000000,-0.109083,TRUE,FALSE,TRUE,FALSE,FALSE,FALSE,Disabled,0.000000,0.000000,0.000000,TRUE,0.080856,-0.035049,0.000000,-0.015274,0.019699,0.000000,0.001000,-0.009000,0.000000,-0.020000,0.150000,1.480000,27.838756,Hold,0.460449,0.000000,Hold,-88.000000,2.000000,LowGoal,1410.000000,-1454.545455,Speed,1425.000000,-1454.545455,Speed,Off,Off,0.000000,FALSE,0,,,,
08:22:06.244 PM 03/24/2016,Teleop Enabled,10,FALSE,0,NO ERROR,-0.000000,-0.141166,0.000000,-0.109083,TRUE,FALSE,TRUE,FALSE,FALSE,FALSE,Disabled,0.000000,0.000000,0.000000,TRUE,0.080429,-0.034775,0.000000,-0.003326,0.018616,0.000000,-0.052000,0.029000,0.031000,-0.020000,0.250000,1.470000,28.230123,Hold,0.460449,0.000000,Hold,-88.000000,2.000000,LowGoal,1402.500000,-1454.545455,Speed,1410.000000,-1454.545455,Speed,Off,Off,0.000000,FALSE,0,,,,
08:22:06.344 PM 03/24/2016,Teleop Enabled,10,FALSE,0,NO ERROR,-0.000000,-0.141166,0.000000,-0.109083,TRUE,FALSE,TRUE,FALSE,FALSE,FALSE,Disabled,0.000000,0.000000,0.000000,TRUE,0.079071,-0.033279,0.000000,-0.037186,0.032455,0.000000,0.009000,-0.049000,-0.003000,-0.020000,0.090000,1.450000,28.626805,Hold,0.460449,0.000000,Hold,-88.000000,2.000000,LowGoal,1402.500000,-1454.545455,Speed,1417.500000,-1454.545455,Speed,Off,Off,0.000000,FALSE,0,,,,
08:22:06.444 PM 03/24/2016,Teleop Enabled,9,FALSE,0,NO ERROR,-0.000000,-0.141166,0.000000,-0.109083,TRUE,FALSE,TRUE,FALSE,FALSE,FALSE,Disabled,0.000000,0.000000,0.000000,TRUE,0.076584,-0.031006,0.000000,-0.063278,0.053085,0.000000,0.027000,-0.037000,-0.046000,-0.020000,0.090000,1.440000,29.005645,Hold,0.460449,0.000000,Hold,-88.000000,2.000000,LowGoal,1402.500000,-1454.545455,Speed,1417.500000,-1454.545455,Speed,Off,Off,0.000000,FALSE,0,,,,
08:22:06.544 PM 03/24/2016,Teleop Enabled,9,FALSE,0,NO ERROR,-0.000000,-0.141166,0.000000,-0.109083,TRUE,FALSE,TRUE,FALSE,FALSE,FALSE,Disabled,0.000000,0.000000,0.000000,TRUE,0.071976,-0.028687,0.000000,-0.103577,0.050278,0.000000,-0.028000,0.057000,0.001000,-0.020000,0.070000,1.470000,29.397274,Hold,0.460449,0.000000,Hold,-88.000000,2.000000,LowGoal,1410.000000,-1454.545455,Speed,1417.500000,-1454.545455,Speed,Off,Off,0.000000,FALSE,0,,,,
08:22:06.644 PM 03/24/2016,Teleop Enabled,8,FALSE,0,NO ERROR,-0.000000,-0.141166,0.000000,-0.109083,TRUE,FALSE,TRUE,FALSE,FALSE,FALSE,Disabled,0.000000,0.000000,0.000000,TRUE,0.065155,-0.027527,0.000000,-0.126587,0.003021,0.000000,-0.012000,0.042000,0.028000,-0.020000,0.030000,1.470000,29.777322,Hold,0.460449,0.000000,Hold,-88.000000,2.000000,LowGoal,1410.000000,-1454.545455,Speed,1410.000000,-1454.545455,Speed,Off,Off,0.000000,FALSE,0,,,,
08:22:06.744 PM 03/24/2016,Teleop Enabled,8,FALSE,0,NO ERROR,-0.000000,-0.141166,0.000000,-0.109083,TRUE,FALSE,TRUE,FALSE,FALSE,FALSE,Disabled,0.000000,0.000000,0.000000,TRUE,0.064514,-0.025558,0.000000,-0.016434,0.049072,0.000000,0.001000,0.010000,-0.006000,-0.020000,0.010000,1.540000,30.156499,Hold,0.460449,0.000000,Hold,-88.000000,2.000000,LowGoal,1417.500000,-1454.545455,Speed,1410.000000,-1454.545455,Speed,Off,Off,0.000000,FALSE,0,,,,
08:22:06.844 PM 03/24/2016,Teleop Enabled,9,FALSE,0,NO ERROR,-0.000000,-0.141166,0.000000,-0.109083,TRUE,FALSE,TRUE,FALSE,FALSE,FALSE,Disabled,0.000000,0.000000,0.000000,TRUE,0.064209,-0.023743,0.000000,-0.005371,0.000000,0.000000,-0.103000,0.037000,-0.010000,-0.020000,-0.010000,1.470000,30.538382,Hold,0.460449,58.000000,Hold,-88.000000,2.000000,LowGoal,1417.500000,-1454.545455,Speed,1425.000000,-1454.545455,Speed,Off,Off,0.000000,FALSE,0,,,,
08:22:06.944 PM 03/24/2016,Teleop Enabled,9,FALSE,0,NO ERROR,-0.000000,-0.141166,0.000000,-0.109083,TRUE,FALSE,TRUE,FALSE,FALSE,FALSE,Disabled,0.000000,0.000000,0.000000,TRUE,0.062546,-0.023560,0.000000,-0.041351,0.011093,0.000000,0.023000,-0.083000,-0.107000,-0.020000,-0.060000,1.530000,30.921625,Hold,3.647461,58.000000,Hold,-88.000000,2.000000,LowGoal,1417.500000,-1454.545455,Speed,1425.000000,-1454.545455,Speed,Off,Off,0.000000,FALSE,0,,,,
08:22:07.044 PM 03/24/2016,Teleop Enabled,10,FALSE,0,NO ERROR,-0.000000,-0.141166,0.000000,-0.109083,TRUE,FALSE,TRUE,FALSE,FALSE,FALSE,Disabled,0.000000,0.000000,0.000000,TRUE,0.059677,-0.023071,0.000000,-0.062561,0.001846,0.000000,-0.045000,-0.022000,0.003000,-0.010000,0.000000,1.460000,31.322721,Hold,6.117676,58.000000,Hold,-88.000000,2.000000,LowGoal,1417.500000,-1454.545455,Speed,1425.000000,-1454.545455,Speed,Off,Off,0.000000,FALSE,0,,,,
08:22:07.145 PM 03/24/2016,Teleop Enabled,9,FALSE,0,NO ERROR,-0.000000,-0.141166,0.000000,-0.109083,TRUE,FALSE,TRUE,FALSE,FALSE,FALSE,Disabled,0.000000,0.000000,0.000000,TRUE,0.056366,-0.022766,0.000000,-0.074432,0.013794,0.000000,-0.029000,0.012000,0.017000,-0.020000,0.080000,1.500000,31.786781,Hold,9.651611,58.000000,Hold,-88.000000,2.000000,LowGoal,1417.500000,-1454.545455,Speed,1417.500000,-1454.545455,Speed,Off,Off,0.000000,FALSE,0,,,,
08:22:07.245 PM 03/24/2016,Teleop Enabled,11,FALSE,0,NO ERROR,-0.000000,-0.141166,0.000000,-0.109083,TRUE,FALSE,TRUE,FALSE,FALSE,FALSE,Disabled,0.000000,0.000000,0.000000,TRUE,0.050629,-0.021759,0.000000,-0.105621,0.010422,0.000000,0.046000,-0.057000,-0.080000,-0.020000,-0.020000,1.490000,32.158002,Hold,12.966064,58.000000,Hold,-88.000000,2.000000,LowGoal,1410.000000,-1454.545455,Speed,1417.500000,-1454.545455,Speed,Off,Off,0.000000,FALSE,0,,,,
08:22:07.350 PM 03/24/2016,Teleop Enabled,11,FALSE,0,NO ERROR,-0.000000,-0.141166,0.000000,-0.109083,TRUE,FALSE,TRUE,FALSE,FALSE,FALSE,Disabled,0.000000,0.000000,0.000000,TRUE,0.048080,-0.021759,0.000000,0.000000,0.003754,0.000000,-0.035000,-0.024000,-0.029000,-0.030000,0.010000,1.420000,32.548337,Hold,17.756104,58.000000,Hold,-88.000000,2.000000,LowGoal,1402.500000,-1454.545455,Speed,1425.000000,-1454.545455,Speed,Off,Off,0.000000,FALSE,0,,,,
08:22:07.450 PM 03/24/2016,Teleop Enabled,10,FALSE,0,NO ERROR,-0.000000,-0.141166,0.000000,-0.109083,TRUE,FALSE,TRUE,FALSE,FALSE,FALSE,Disabled,0.000000,0.000000,0.000000,TRUE,0.047012,-0.021545,0.000000,-0.030457,0.013077,0.000000,-0.022000,-0.013000,-0.014000,-0.030000,-0.100000,1.370000,32.955454,Hold,23.493652,58.000000,Hold,-88.000000,2.000000,LowGoal,1402.500000,-1454.545455,Speed,1425.000000,-1454.545455,Speed,Off,Off,0.000000,FALSE,0,,,,
08:22:07.555 PM 03/24/2016,Teleop Enabled,10,FALSE,0,NO ERROR,-0.000000,-0.141166,0.000000,-0.109083,TRUE,FALSE,TRUE,FALSE,FALSE,FALSE,Disabled,0.000000,0.000000,0.000000,TRUE,0.044785,-0.020279,0.000000,-0.046616,0.005753,0.000000,0.006000,-0.057000,-0.147000,-0.030000,-0.010000,1.410000,33.340528,Hold,23.493652,58.000000,Hold,-88.000000,2.000000,LowGoal,1410.000000,-1454.545455,Speed,1432.500000,-1454.545455,Speed,Off,Off,0.000000,FALSE,0,,,,
08:22:07.657 PM 03/24/2016,Teleop Enabled,10,FALSE,0,NO ERROR,-0.000000,-0.141166,0.000000,-0.109083,TRUE,FALSE,TRUE,FALSE,FALSE,FALSE,Disabled,0.000000,0.000000,0.000000,TRUE,0.043152,-0.019775,0.000000,-0.034561,0.026215,0.000000,0.022000,0.033000,0.103000,-0.040000,0.120000,1.460000,33.716314,Hold,30.214111,58.000000,Hold,-88.000000,2.000000,LowGoal,1410.000000,-1454.545455,Speed,1425.000000,-1454.545455,Speed,Off,Off,0.000000,FALSE,0,,,,
08:22:07.760 PM 03/24/2016,Teleop Enabled,14,FALSE,0,NO ERROR,-0.000000,-0.141166,0.000000,-0.109083,TRUE,FALSE,TRUE,FALSE,FALSE,FALSE,Disabled,0.000000,0.000000,0.000000,TRUE,0.041656,-0.018097,0.000000,-0.031036,0.029617,0.000000,-0.036000,0.061000,0.074000,-0.030000,-0.040000,1.390000,34.084816,Hold,48.643555,58.000000,Hold,-88.000000,2.000000,LowGoal,1417.500000,-1454.545455,Speed,1417.500000,-1454.545455,Speed,Off,Off,0.000000,FALSE,0,,,,
08:22:07.860 PM 03/24/2016,Teleop Enabled,13,FALSE,0,NO ERROR,-0.000000,-0.198916,0.000000,-0.109083,TRUE,FALSE,TRUE,FALSE,FALSE,FALSE,Disabled,0.000000,0.000000,0.000000,TRUE,0.039337,-0.017609,0.000000,-0.034348,-0.009766,0.000000,0.236000,-0.139000,-0.155000,-0.020000,-0.060000,1.400000,34.511493,Hold,58.289551,58.000000,Hold,-88.000000,2.000000,LowGoal,1410.000000,-1454.545455,Speed,1410.000000,-1454.545455,Speed,Off,Off,0.000000,FALSE,0,,,,
08:22:07.964 PM 03/24/2016,Teleop Enabled,9,FALSE,0,NO ERROR,-0.000000,-0.205333,0.000000,-0.109083,TRUE,FALSE,TRUE,FALSE,FALSE,FALSE,Disabled,0.000000,0.000000,0.000000,TRUE,0.037262,-0.018021,0.000000,-0.070389,-0.009201,0.000000,-0.031000,0.000000,0.042000,-0.040000,-0.370000,1.340000,34.949883,Hold,62.766602,58.000000,Hold,-88.000000,2.000000,LowGoal,1387.500000,-1454.545455,Speed,1417.500000,-1454.545455,Speed,Off,Off,0.000000,FALSE,0,,,,
08:22:08.066 PM 03/24/2016,Teleop Enabled,9,FALSE,0,NO ERROR,-0.000000,-0.205333,0.000000,-0.109083,TRUE,FALSE,TRUE,FALSE,FALSE,FALSE,Disabled,0.000000,0.000000,0.000000,TRUE,0.036469,-0.017151,0.000000,-0.001144,0.015289,0.000000,0.057000,-0.048000,-0.060000,-0.070000,-0.290000,1.370000,35.295426,Hold,62.748047,58.000000,Hold,-88.000000,2.000000,LowGoal,1380.000000,-1454.545455,Speed,1417.500000,-1454.545455,Speed,Off,Off,0.000000,FALSE,0,,,,
08:22:08.168 PM 03/24/2016,Teleop Enabled,9,FALSE,0,NO ERROR,-0.000000,-0.205333,0.000000,-0.109083,TRUE,FALSE,TRUE,FALSE,FALSE,FALSE,Disabled,0.000000,0.000000,0.000000,TRUE,0.037308,-0.015854,0.000000,0.026901,0.043823,0.000000,0.050000,0.083000,0.054000,-0.030000,-0.010000,1.500000,35.714809,Hold,62.700928,58.000000,Hold,-88.000000,2.000000,LowGoal,1387.500000,-1454.545455,Speed,1417.500000,-1454.545455,Speed,Off,Off,0.000000,FALSE,0,,,,
08:22:08.270 PM 03/24/2016,Teleop Enabled,13,FALSE,0,NO ERROR,-0.000000,-0.205333,0.000000,-0.109083,TRUE,FALSE,TRUE,FALSE,FALSE,FALSE,Disabled,0.000000,0.000000,0.000000,TRUE,0.040085,-0.013641,0.000000,0.068375,0.036209,0.000000,-0.021000,0.019000,0.000000,-0.060000,-0.120000,1.370000,36.073365,Hold,62.700928,58.000000,Hold,-88.000000,2.000000,LowGoal,1402.500000,-1454.545455,Speed,1425.000000,-1454.545455,Speed,Off,Off,0.000000,FALSE,0,,,,
08:22:08.370 PM 03/24/2016,Teleop Enabled,11,FALSE,0,NO ERROR,-0.000000,-0.205333,0.000000,-0.109083,TRUE,FALSE,TRUE,FALSE,FALSE,FALSE,Disabled,0.000000,0.000000,0.000000,TRUE,0.042740,-0.013123,0.000000,0.042847,0.008453,0.000000,0.029000,0.038000,0.021000,0.000000,-0.160000,1.440000,36.504056,Hold,62.700928,58.000000,Hold,-88.000000,2.000000,LowGoal,1410.000000,-1454.545455,Speed,1432.500000,-1454.545455,Speed,Off,Off,0.000000,FALSE,0,,,,
08:22:08.470 PM 03/24/2016,Teleop Enabled,11,FALSE,0,NO ERROR,-0.000000,-0.205333,0.000000,-0.109083,TRUE,FALSE,TRUE,FALSE,FALSE,FALSE,Disabled,0.000000,0.000000,0.000000,TRUE,0.044464,-0.012909,0.000000,0.000000,-0.005951,0.000000,0.003000,-0.015000,-0.031000,-0.050000,-0.210000,1.420000,36.817302,Hold,62.700928,58.000000,Hold,-88.000000,2.000000,LowGoal,1402.500000,-1454.545455,Speed,1432.500000,-1454.545455,Speed,Off,Off,0.000000,FALSE,0,,,,
08:22:08.570 PM 03/24/2016,Teleop Enabled,10,FALSE,0,NO ERROR,-0.000000,-0.205333,0.000000,-0.109083,TRUE,FALSE,TRUE,FALSE,FALSE,FALSE,Disabled,0.000000,0.000000,0.000000,TRUE,0.044403,-0.011871,0.000000,0.005646,0.027740,0.000000,0.051000,-0.021000,-0.041000,-0.050000,-0.150000,1.480000,37.293328,Hold,62.700928,58.000000,HighGoal,-88.000000,44646.400000,HighGoal,1410.000000,-1454.545455,Speed,1425.000000,-1454.545455,Speed,Off,Off,0.000000,FALSE,0,,,,
08:22:08.670 PM 03/24/2016,Teleop Enabled,11,FALSE,0,NO ERROR,-0.000000,-0.205333,0.000000,-0.109083,TRUE,FALSE,TRUE,FALSE,FALSE,FALSE,Disabled,0.000000,0.000000,0.000000,TRUE,0.044693,-0.011093,0.000000,0.009171,0.006653,0.000000,0.040000,0.055000,0.047000,-0.030000,-0.040000,1.450000,37.681618,Hold,62.700928,58.000000,Hold,-88.000000,44646.400000,HighGoal,1440.000000,-3272.727273,Speed,1470.000000,-3272.727273,Speed,Off,Off,0.000000,FALSE,0,,,,
08:22:08.771 PM 03/24/2016,Teleop Enabled,10,FALSE,0,NO ERROR,-0.000000,-0.205333,0.000000,-0.109083,TRUE,FALSE,TRUE,FALSE,FALSE,FALSE,Disabled,0.000000,0.000000,0.000000,TRUE,0.044815,-0.009384,0.000000,0.004745,0.037399,0.000000,0.046000,0.032000,-0.085000,-0.060000,-0.110000,1.480000,38.037516,Hold,62.700928,58.000000,Hold,-6022.000000,44646.400000,HighGoal,1807.500000,-3272.727273,Speed,1470.000000,-3272.727273,Speed,Off,Off,0.000000,FALSE,0,,,,
08:22:08.871 PM 03/24/2016,Teleop Enabled,11,FALSE,0,NO ERROR,-0.000000,-0.205333,0.000000,-0.109083,TRUE,FALSE,TRUE,FALSE,FALSE,FALSE,Disabled,0.000000,0.000000,0.000000,TRUE,0.046066,-0.007248,0.000000,0.036453,0.046249,0.000000,-0.023000,0.070000,-0.053000,-0.040000,-0.140000,1.560000,38.423830,Hold,62.700928,58.000000,Hold,-6022.000000,44646.400000,HighGoal,2227.500000,-3272.727273,Speed,1957.500000,-3272.727273,Speed,Off,Off,0.000000,FALSE,0,,,,
08:22:08.972 PM 03/24/2016,Teleop Enabled,11,FALSE,0,NO ERROR,-0.000000,-0.205333,0.000000,-0.109083,TRUE,FALSE,TRUE,FALSE,FALSE,FALSE,Disabled,0.000000,0.000000,0.000000,TRUE,0.047150,-0.004852,0.000000,0.028137,0.013611,0.000000,-0.053000,-0.025000,0.086000,-0.050000,-0.130000,1.520000,38.786008,Hold,62.700928,58.000000,Hold,-25031.000000,44646.400000,HighGoal,2512.500000,-3272.727273,Speed,2700.000000,-3272.727273,Speed,Off,Off,0.000000,FALSE,0,,,,
08:22:09.072 PM 03/24/2016,Teleop Enabled,11,FALSE,0,NO ERROR,-0.000000,-0.205333,0.000000,-0.109083,TRUE,FALSE,TRUE,FALSE,FALSE,FALSE,Disabled,0.000000,0.000000,0.000000,TRUE,0.047836,-0.003922,0.000000,0.020676,0.007599,0.000000,-0.089000,-0.087000,-0.050000,-0.060000,-0.160000,1.600000,39.168383,Hold,62.700928,58.000000,Hold,-25031.000000,44646.400000,HighGoal,2857.500000,-3272.727273,Speed,2962.500000,-3272.727273,Speed,Off,Off,0.000000,FALSE,0,,,,
08:22:09.173 PM 03/24/2016,Teleop Enabled,9,FALSE,0,NO ERROR,-0.000000,-0.205333,0.000000,-0.109083,TRUE,FALSE,TRUE,FALSE,FALSE,FALSE,Disabled,0.000000,0.000000,0.000000,TRUE,0.048660,-0.004456,0.000000,0.005539,-0.016983,0.000000,-0.103000,0.002000,0.137000,-0.050000,-0.260000,1.480000,39.568050,Hold,62.700928,58.000000,Hold,-33989.000000,44646.400000,HighGoal,3037.500000,-3272.727273,Speed,2962.500000,-3272.727273,Speed,Off,Off,0.000000,FALSE,0,,,,
08:22:09.275 PM 03/24/2016,Teleop Enabled,10,FALSE,0,NO ERROR,-0.000000,-0.205333,0.000000,-0.109083,TRUE,FALSE,TRUE,FALSE,FALSE,FALSE,Disabled,0.000000,0.000000,0.000000,TRUE,0.044846,-0.003326,0.000000,-0.099533,0.060791,0.000000,0.007000,0.086000,0.067000,-0.070000,-0.460000,1.470000,39.927057,Hold,62.700928,58.000000,Hold,-44486.000000,44646.400000,HighGoal,3210.000000,-3272.727273,Speed,3232.500000,-3272.727273,Speed,Off,Off,0.000000,FALSE,0,,,,
08:22:09.375 PM 03/24/2016,Teleop Enabled,10,FALSE,0,NO ERROR,-0.000000,-0.295166,0.000000,0.038500,TRUE,FALSE,TRUE,FALSE,FALSE,FALSE,Disabled,0.000000,0.000000,0.000000,TRUE,0.042419,-0.000092,0.000000,-0.045013,0.075653,0.000000,-0.156000,-0.133000,-0.246000,-0.080000,-0.610000,1.380000,40.326194,Hold,62.700928,58.000000,Hold,-44856.000000,44646.400000,HighGoal,3210.000000,-3272.727273,Speed,3322.500000,-3272.727273,Speed,Off,Off,0.000000,FALSE,0,,,,
08:22:09.477 PM 03/24/2016,Teleop Enabled,11,FALSE,0,NO ERROR,-0.000000,-0.372166,0.000000,0.115500,TRUE,FALSE,TRUE,FALSE,FALSE,FALSE,Disabled,0.000000,0.000000,0.000000,TRUE,0.037369,0.002258,0.000000,-0.158646,0.042557,0.000000,-0.045000,0.080000,-0.140000,-0.070000,-0.290000,1.440000,40.689677,Hold,62.700928,58.000000,Hold,-44856.000000,44646.400000,HighGoal,3247.500000,-3272.727273,Speed,3292.500000,-3272.727273,Speed,Off,Off,0.000000,FALSE,0,,,,
08:22:09.577 PM 03/24/2016,Teleop Enabled,10,FALSE,0,NO ERROR,-0.000000,-0.340083,0.000000,0.038500,TRUE,FALSE,TRUE,FALSE,FALSE,FALSE,Disabled,0.000000,0.000000,0.000000,TRUE,0.025482,0.004944,0.000000,-0.183548,0.036972,0.000000,0.121000,-0.059000,0.030000,-0.110000,-0.700000,1.340000,41.060492,Hold,62.700684,58.000000,Hold,-44707.000000,44646.400000,HighGoal,3217.500000,-3272.727273,Speed,3277.500000,-3272.727273,Speed,Off,Off,0.000000,FALSE,0,,,,
08:22:09.680 PM 03/24/2016,Teleop Enabled,10,FALSE,0,NO ERROR,-0.000000,-0.333666,0.000000,0.038500,TRUE,FALSE,TRUE,FALSE,FALSE,FALSE,Disabled,0.000000,0.000000,0.000000,TRUE,0.020325,0.005310,0.000000,-0.109756,0.012665,0.000000,-0.093000,0.096000,0.339000,-0.130000,-0.420000,1.440000,41.411826,Hold,62.700684,58.000000,Hold,-44707.000000,44646.400000,HighGoal,3202.500000,-3272.727273,Speed,3285.000000,-3272.727273,Speed,Off,Off,0.000000,FALSE,0,,,,
08:22:09.782 PM 03/24/2016,Teleop Enabled,10,FALSE,0,NO ERROR,-0.000000,-0.333666,0.000000,0.038500,TRUE,FALSE,TRUE,FALSE,FALSE,FALSE,Disabled,0.000000,0.000000,0.000000,TRUE,0.010574,0.007248,0.000000,-0.205368,0.029648,0.000000,0.023000,0.117000,-0.012000,-0.080000,-0.590000,1.400000,41.886706,Hold,62.700684,58.000000,Hold,-44717.000000,44646.400000,HighGoal,3210.000000,-3272.727273,Speed,3292.500000,-3272.727273,Speed,Off,Off,0.000000,FALSE,0,,,,
08:22:09.884 PM 03/24/2016,Teleop Enabled,9,FALSE,0,NO ERROR,-0.000000,-0.333666,0.000000,0.038500,TRUE,FALSE,TRUE,FALSE,FALSE,FALSE,Disabled,0.000000,0.000000,0.000000,TRUE,-0.001236,0.009354,0.000000,-0.227203,0.052887,0.000000,-0.004000,-0.095000,0.065000,-0.110000,-0.560000,1.360000,42.271147,Hold,62.700684,58.000000,Hold,-44717.000000,44646.400000,HighGoal,3217.500000,-3272.727273,Speed,3292.500000,-3272.727273,Speed,Off,Off,0.000000,FALSE,0,,,,
08:22:09.984 PM 03/24/2016,Teleop Enabled,9,FALSE,0,NO ERROR,-0.000000,-0.333666,0.000000,0.038500,TRUE,FALSE,TRUE,FALSE,FALSE,FALSE,Disabled,0.000000,0.000000,0.000000,TRUE,-0.011581,0.012146,0.000000,-0.191177,0.055145,0.000000,-0.065000,-0.035000,-0.039000,-0.080000,-0.480000,1.360000,42.667705,Hold,62.700684,58.000000,Hold,-44717.000000,44646.400000,HighGoal,3210.000000,-3272.727273,Speed,3292.500000,-3272.727273,Speed,Off,Off,0.000000,FALSE,0,,,,
08:22:10.085 PM 03/24/2016,Teleop Enabled,9,FALSE,0,NO ERROR,-0.000000,-0.333666,0.000000,0.038500,TRUE,FALSE,TRUE,FALSE,FALSE,FALSE,Disabled,0.000000,0.000000,0.000000,TRUE,-0.020782,0.014511,0.000000,-0.160065,0.027466,0.000000,0.104000,-0.008000,-0.010000,-0.110000,-0.440000,1.320000,43.023921,Hold,62.700684,58.000000,Hold,-44717.000000,44646.400000,HighGoal,3217.500000,-3272.727273,Speed,3292.500000,-3272.727273,Speed,Off,Off,0.000000,FALSE,0,,,,
08:22:10.186 PM 03/24/2016,Teleop Enabled,9,FALSE,0,NO ERROR,-0.000000,-0.333666,0.000000,0.038500,TRUE,FALSE,TRUE,FALSE,FALSE,FALSE,Disabled,0.000000,0.000000,0.000000,TRUE,-0.027847,0.016830,0.000000,-0.142365,0.062653,0.000000,-0.254000,0.078000,-0.283000,-0.090000,-0.360000,1.360000,43.427120,Hold,62.700684,58.000000,Hold,-44717.000000,44646.400000,HighGoal,3210.000000,-3272.727273,Speed,3292.500000,-3272.727273,Speed,Off,Off,0.000000,FALSE,0,,,,
08:22:10.287 PM 03/24/2016,Teleop Enabled,10,FALSE,0,NO ERROR,-0.000000,-0.333666,0.000000,0.038500,TRUE,FALSE,TRUE,FALSE,FALSE,FALSE,Disabled,0.000000,0.000000,0.000000,TRUE,-0.036606,0.019791,0.000000,-0.160141,0.055664,0.000000,0.138000,-0.060000,-0.084000,-0.120000,-0.390000,1.370000,43.783865,Hold,62.700684,58.000000,Hold,-44717.000000,44646.400000,HighGoal,3195.000000,-3272.727273,Speed,3292.500000,-3272.727273,Speed,Off,Off,0.000000,FALSE,0,,,,
08:22:10.389 PM 03/24/2016,Teleop Enabled,11,FALSE,0,NO ERROR,-0.000000,-0.333666,0.000000,0.038500,TRUE,FALSE,TRUE,FALSE,FALSE,FALSE,Disabled,0.000000,0.000000,0.000000,TRUE,-0.045715,0.023056,0.000000,-0.158066,0.060699,0.000000,-0.137000,0.000000,-0.103000,-0.110000,-0.330000,1.370000,44.176981,Hold,62.700684,58.000000,Hold,-44717.000000,44646.400000,HighGoal,3210.000000,-3272.727273,Speed,3292.500000,-3272.727273,Speed,Off,Off,0.000000,FALSE,0,,,,
08:22:10.489 PM 03/24/2016,Teleop Enabled,10,FALSE,0,NO ERROR,-0.000000,-0.333666,0.000000,0.038500,TRUE,FALSE,TRUE,FALSE,FALSE,FALSE,Disabled,0.000000,0.000000,0.000000,TRUE,-0.051971,0.025848,0.000000,-0.157028,0.069885,0.000000,-0.050000,0.127000,-0.120000,-0.120000,-0.340000,1.350000,44.550217,Hold,62.700684,58.000000,Hold,-44717.000000,44646.400000,HighGoal,3217.500000,-3272.727273,Speed,3292.500000,-3272.727273,Speed,Off,Off,0.000000,FALSE,0,,,,
08:22:10.591 PM 03/24/2016,Teleop Enabled,10,FALSE,0,NO ERROR,-0.000000,-0.333666,0.000000,0.038500,TRUE,FALSE,TRUE,FALSE,FALSE,FALSE,Disabled,0.000000,0.000000,0.000000,TRUE,-0.060715,0.030701,0.000000,-0.185867,0.099640,0.000000,-0.126000,-0.153000,0.070000,-0.110000,-0.470000,1.390000,44.941877,Hold,62.700684,58.000000,Hold,-44717.000000,44646.400000,HighGoal,3217.500000,-3272.727273,Speed,3285.000000,-3272.727273,Speed,Off,Off,0.000000,FALSE,0,,,,
08:22:10.691 PM 03/24/2016,Teleop Enabled,11,FALSE,0,NO ERROR,-0.000000,-0.333666,0.000000,0.038500,TRUE,FALSE,TRUE,FALSE,FALSE,FALSE,Disabled,0.000000,0.000000,0.000000,TRUE,-0.072556,0.034744,0.000000,-0.177429,0.054596,0.000000,0.226000,-0.084000,-0.046000,-0.110000,-0.510000,1.400000,45.317666,Hold,62.700684,58.000000,Hold,-44717.000000,44646.400000,HighGoal,3217.500000,-3272.727273,Speed,3292.500000,-3272.727273,Speed,Off,Off,0.000000,FALSE,0,,,,
08:22:10.791 PM 03/24/2016,Teleop Enabled,11,FALSE,0,NO ERROR,-0.000000,-0.333666,0.000000,0.038500,TRUE,FALSE,TRUE,FALSE,FALSE,FALSE,Disabled,0.000000,0.000000,0.000000,TRUE,-0.079056,0.037766,0.000000,-0.117035,0.086914,0.000000,-0.107000,0.052000,0.243000,-0.110000,-0.450000,1.350000,45.708551,Hold,62.700684,58.000000,Hold,-44717.000000,44646.400000,HighGoal,3210.000000,-3272.727273,Speed,3292.500000,-3272.727273,Speed,Off,Off,0.000000,FALSE,0,,,,
08:22:10.891 PM 03/24/2016,Teleop Enabled,11,FALSE,0,NO ERROR,-0.000000,-0.333666,0.000000,0.038500,TRUE,FALSE,TRUE,FALSE,FALSE,FALSE,Disabled,0.000000,0.000000,0.000000,TRUE,-0.086258,0.044724,0.000000,-0.150528,0.182449,0.000000,0.073000,0.119000,-0.022000,-0.120000,-0.460000,1.390000,46.164962,Hold,62.700684,58.000000,Hold,-44717.000000,44646.400000,HighGoal,3217.500000,-3272.727273,Speed,3292.500000,-3272.727273,Speed,Off,Off,0.000000,FALSE,0,,,,
08:22:10.991 PM 03/24/2016,Teleop Enabled,10,FALSE,0,NO ERROR,-0.000000,-0.333666,0.000000,0.038500,TRUE,FALSE,TRUE,FALSE,FALSE,FALSE,Disabled,0.000000,0.000000,0.000000,TRUE,-0.092712,0.055542,0.000000,-0.125198,0.220947,0.000000,0.073000,0.119000,-0.022000,-0.120000,-0.360000,1.360000,46.553352,Hold,62.700684,58.000000,Hold,-44717.000000,44646.400000,HighGoal,3225.000000,-3272.727273,Speed,3300.000000,-3272.727273,Speed,Off,Off,0.000000,FALSE,0,,,,
08:22:11.092 PM 03/24/2016,Teleop Enabled,10,FALSE,0,NO ERROR,-0.000000,-0.333666,0.000000,0.038500,TRUE,FALSE,TRUE,FALSE,FALSE,FALSE,Disabled,0.000000,0.000000,0.000000,TRUE,-0.101318,0.067673,0.000000,-0.209457,0.242813,0.000000,-0.159000,0.051000,0.044000,-0.120000,-0.360000,1.360000,46.933303,Hold,62.700684,58.000000,Hold,-44717.000000,44646.400000,HighGoal,3217.500000,-3272.727273,Speed,3292.500000,-3272.727273,Speed,Off,Off,0.000000,FALSE,0,,,,
08:22:11.192 PM 03/24/2016,Teleop Enabled,11,FALSE,0,NO ERROR,-0.000000,-0.333666,0.000000,0.038500,TRUE,FALSE,TRUE,FALSE,FALSE,FALSE,Disabled,0.000000,0.000000,0.000000,TRUE,-0.110352,0.078659,0.000000,-0.162918,0.214035,0.000000,-0.083000,0.073000,-0.169000,-0.120000,-0.430000,1.380000,47.316918,Hold,62.700684,58.000000,Hold,-44717.000000,44646.400000,HighGoal,3210.000000,-3272.727273,Speed,3292.500000,-3272.727273,Speed,Off,Off,0.000000,FALSE,0,,,,
08:22:11.292 PM 03/24/2016,Teleop Enabled,11,FALSE,0,NO ERROR,-0.000000,-0.333666,0.000000,0.038500,TRUE,FALSE,TRUE,FALSE,FALSE,FALSE,Disabled,0.000000,0.000000,0.000000,TRUE,-0.118423,0.089935,0.000000,-0.162949,0.232666,0.000000,-0.083000,0.073000,-0.169000,-0.120000,-0.400000,1.380000,47.696453,Hold,62.700684,58.000000,Hold,-44717.000000,44646.400000,HighGoal,3217.500000,-3272.727273,Speed,3292.500000,-3272.727273,Speed,Off,Off,0.000000,FALSE,0,,,,
08:22:11.392 PM 03/24/2016,Teleop Enabled,10,FALSE,0,NO ERROR,-0.000000,-0.333666,0.000000,0.038500,TRUE,FALSE,TRUE,FALSE,FALSE,FALSE,Disabled,0.000000,0.000000,0.000000,TRUE,-0.118423,0.089935,0.000000,-0.162949,0.232666,0.000000,0.003000,-0.070000,-0.040000,-0.120000,-0.400000,1.380000,48.075324,Hold,62.700684,58.000000,Hold,-44717.000000,44646.400000,HighGoal,3225.000000,-3272.727273,Speed,3292.500000,-3272.727273,Speed,Off,Off,0.000000,FALSE,0,,,,
08:22:11.492 PM 03/24/2016,Teleop Enabled,11,FALSE,0,NO ERROR,-0.000000,-0.333666,0.000000,0.038500,TRUE,FALSE,TRUE,FALSE,FALSE,FALSE,Disabled,0.000000,0.000000,0.000000,TRUE,-0.118454,0.107147,0.000000,-0.008499,0.104279,0.000000,0.049000,0.029000,-0.098000,-0.130000,-0.300000,1.340000,48.448026,Hold,62.700684,58.000000,Hold,-44717.000000,44646.400000,HighGoal,3232.500000,-3272.727273,Speed,3292.500000,-3272.727273,Speed,Off,Off,0.000000,FALSE,0,,,,
08:22:11.592 PM 03/24/2016,Teleop Enabled,10,FALSE,0,NO ERROR,-0.000000,-0.333666,0.000000,0.038500,TRUE,FALSE,TRUE,FALSE,FALSE,FALSE,Disabled,0.000000,0.000000,0.000000,TRUE,-0.119186,0.111221,0.000000,-0.010345,0.095306,0.000000,0.047000,-0.090000,-0.011000,-0.140000,-0.240000,1.390000,48.827299,Hold,62.700684,58.000000,Hold,-44717.000000,44646.400000,HighGoal,3240.000000,-3272.727273,Speed,3292.500000,-3272.727273,Speed,Off,Off,0.000000,FALSE,0,,,,
08:22:11.692 PM 03/24/2016,Teleop Enabled,10,FALSE,0,NO ERROR,-0.000000,-0.333666,0.000000,0.038500,TRUE,FALSE,TRUE,FALSE,FALSE,FALSE,Disabled,0.000000,0.000000,0.000000,TRUE,-0.119202,0.115067,0.000000,0.001144,0.067963,0.000000,0.080000,0.008000,0.011000,-0.130000,-0.140000,1.400000,49.210580,Hold,62.700684,58.000000,Hold,-44717.000000,44646.400000,HighGoal,3247.500000,-3272.727273,Speed,3292.500000,-3272.727273,Speed,Off,Off,0.000000,FALSE,0,,,,
08:22:11.792 PM 03/24/2016,Teleop Enabled,10,FALSE,0,NO ERROR,-0.000000,-0.333666,0.000000,0.038500,TRUE,FALSE,TRUE,FALSE,FALSE,FALSE,Disabled,0.000000,0.000000,0.000000,TRUE,-0.119202,0.115067,0.000000,0.001144,0.067963,0.000000,-0.060000,-0.088000,0.042000,-0.140000,-0.260000,1.380000,49.582097,Hold,62.700684,58.000000,Hold,-44717.000000,44646.400000,HighGoal,3240.000000,-3272.727273,Speed,3292.500000,-3272.727273,Speed,Off,Off,0.000000,FALSE,0,,,,
08:22:11.892 PM 03/24/2016,Teleop Enabled,10,FALSE,0,NO ERROR,-0.000000,-0.333666,0.000000,0.038500,TRUE,FALSE,TRUE,FALSE,FALSE,FALSE,Disabled,0.000000,0.000000,0.000000,TRUE,-0.119690,0.119797,0.000000,-0.005951,0.096542,0.000000,0.006000,0.006000,0.085000,-0.140000,-0.310000,1.420000,49.959945,Hold,62.700684,58.000000,Hold,-44717.000000,44646.400000,HighGoal,3232.500000,-3272.727273,Speed,3292.500000,-3272.727273,Speed,Off,Off,0.000000,FALSE,0,,,,
08:22:11.994 PM 03/24/2016,Teleop Enabled,10,FALSE,0,NO ERROR,-0.000000,-0.333666,0.000000,0.038500,TRUE,FALSE,TRUE,FALSE,FALSE,FALSE,Disabled,0.000000,0.000000,0.000000,TRUE,-0.118820,0.124588,0.000000,0.024780,0.105194,0.000000,0.022000,0.009000,-0.019000,-0.130000,-0.240000,1.430000,50.333088,Hold,62.700684,58.000000,Hold,-44717.000000,44646.400000,HighGoal,3232.500000,-3272.727273,Speed,3292.500000,-3272.727273,Speed,Off,Off,0.000000,FALSE,0,,,,
08:22:12.093 PM 03/24/2016,Teleop Enabled,11,FALSE,0,NO ERROR,-0.000000,-0.333666,0.000000,0.038500,TRUE,FALSE,TRUE,FALSE,FALSE,FALSE,Disabled,0.000000,0.000000,0.000000,TRUE,-0.118042,0.131119,0.000000,0.023285,0.133163,0.000000,0.078000,-0.043000,-0.005000,-0.130000,-0.260000,1.430000,50.333088,Hold,62.700684,58.000000,Hold,-44717.000000,44646.400000,HighGoal,3225.000000,-3272.727273,Speed,3300.000000,-3272.727273,Speed,Off,Off,0.000000,FALSE,0,,,,
08:22:12.194 PM 03/24/2016,Teleop Enabled,11,FALSE,0,NO ERROR,-0.000000,-0.333666,0.000000,0.038500,TRUE,FALSE,TRUE,FALSE,FALSE,FALSE,Disabled,0.000000,0.000000,0.000000,TRUE,-0.116196,0.137772,0.000000,0.031082,0.123016,0.000000,0.045000,-0.167000,-0.069000,-0.140000,-0.170000,1.460000,50.711063,Hold,62.700684,58.000000,Hold,-44717.000000,44646.400000,HighGoal,3232.500000,-3272.727273,Speed,3292.500000,-3272.727273,Speed,Off,Off,0.000000,FALSE,0,,,,
08:22:12.294 PM 03/24/2016,Teleop Enabled,10,FALSE,0,NO ERROR,-0.000000,-0.333666,0.000000,0.044917,TRUE,FALSE,TRUE,FALSE,FALSE,FALSE,Disabled,0.000000,0.000000,0.000000,TRUE,-0.116074,0.141357,0.000000,-0.032822,0.039352,0.000000,-0.161000,-0.074000,-0.224000,-0.130000,-0.330000,1.440000,51.084185,Hold,62.700684,58.000000,Hold,-44717.000000,44646.400000,HighGoal,3232.500000,-3272.727273,Speed,3292.500000,-3272.727273,Speed,Off,Off,0.000000,FALSE,0,,,,
08:22:12.394 PM 03/24/2016,Teleop Enabled,10,FALSE,0,NO ERROR,-0.000000,-0.333666,0.000000,0.044917,TRUE,FALSE,TRUE,FALSE,FALSE,FALSE,Disabled,0.000000,0.000000,0.000000,TRUE,-0.120499,0.140976,0.000000,-0.097549,-0.023087,0.000000,0.010000,-0.070000,0.069000,-0.140000,-0.330000,1.460000,51.548218,Hold,62.700684,58.000000,Hold,-44717.000000,44646.400000,HighGoal,3225.000000,-3272.727273,Speed,3300.000000,-3272.727273,Speed,Off,Off,0.000000,FALSE,0,,,,
08:22:12.494 PM 03/24/2016,Teleop Enabled,10,FALSE,0,NO ERROR,-0.000000,-0.333666,0.000000,0.044917,TRUE,FALSE,TRUE,FALSE,FALSE,FALSE,Disabled,0.000000,0.000000,0.000000,TRUE,-0.123993,0.138031,0.000000,-0.057281,-0.075653,0.000000,-0.050000,0.076000,0.177000,-0.140000,-0.370000,1.410000,51.933919,Hold,62.700684,58.000000,Hold,-44717.000000,44646.400000,HighGoal,3225.000000,-3272.727273,Speed,3292.500000,-3272.727273,Speed,Off,Off,0.000000,FALSE,0,,,,
08:22:12.594 PM 03/24/2016,Teleop Enabled,10,FALSE,0,NO ERROR,-0.000000,-0.333666,0.000000,0.044917,TRUE,FALSE,TRUE,FALSE,FALSE,FALSE,Disabled,0.000000,0.000000,0.000000,TRUE,-0.125916,0.135452,0.000000,0.000000,-0.025650,0.000000,-0.003000,0.045000,-0.097000,-0.130000,-0.370000,1.400000,52.321430,Hold,62.700684,58.000000,Hold,-44717.000000,44646.400000,HighGoal,3240.000000,-3272.727273,Speed,3292.500000,-3272.727273,Speed,Off,Off,0.000000,FALSE,0,,,,
08:22:12.694 PM 03/24/2016,Teleop Enabled,10,FALSE,0,NO ERROR,-0.000000,-0.333666,0.000000,0.044917,TRUE,FALSE,TRUE,FALSE,FALSE,FALSE,Disabled,0.000000,0.000000,0.000000,TRUE,-0.126053,0.135056,0.000000,0.004822,-0.021210,0.000000,0.142000,-0.143000,0.219000,-0.140000,-0.370000,1.400000,52.714229,Hold,62.700684,58.000000,Hold,-44717.000000,44646.400000,HighGoal,3255.000000,-3272.727273,Speed,3300.000000,-3272.727273,Speed,Off,Off,0.000000,FALSE,0,,,,
08:22:12.794 PM 03/24/2016,Teleop Enabled,10,FALSE,0,NO ERROR,-0.000000,-0.333666,0.000000,0.044917,TRUE,FALSE,TRUE,FALSE,FALSE,FALSE,Disabled,0.000000,0.000000,0.000000,TRUE,-0.125656,0.132523,0.000000,0.016006,-0.065765,0.000000,-0.070000,0.074000,-0.178000,-0.140000,-0.430000,1.300000,53.109118,Hold,62.700684,58.000000,Hold,-44717.000000,44646.400000,HighGoal,3270.000000,-3272.727273,Speed,3292.500000,-3272.727273,Speed,Off,Off,0.000000,FALSE,0,,,,
08:22:12.894 PM 03/24/2016,Teleop Enabled,10,FALSE,0,NO ERROR,-0.000000,-0.333666,0.000000,0.044917,TRUE,FALSE,TRUE,FALSE,FALSE,FALSE,Disabled,0.000000,0.000000,0.000000,TRUE,-0.125031,0.129318,0.000000,-0.000610,-0.065002,0.000000,0.012000,-0.071000,0.075000,-0.130000,-0.500000,1.320000,53.491032,Hold,62.700684,58.000000,Hold,-44717.000000,44646.400000,HighGoal,3262.500000,-3272.727273,Speed,3300.000000,-3272.727273,Speed,Off,Off,0.000000,FALSE,0,,,,
08:22:12.994 PM 03/24/2016,Teleop Enabled,10,FALSE,0,NO ERROR,-0.000000,-0.333666,0.000000,0.044917,TRUE,FALSE,TRUE,FALSE,FALSE,FALSE,Disabled,0.000000,0.000000,0.000000,TRUE,-0.126328,0.125381,0.000000,-0.043228,-0.078857,0.000000,-0.007000,-0.063000,-0.024000,-0.130000,-0.490000,1.370000,53.874048,Hold,62.700684,58.000000,Hold,-44717.000000,44646.400000,HighGoal,3255.000000,-3272.727273,Speed,3300.000000,-3272.727273,Speed,Off,Off,0.000000,FALSE,0,,,,
08:22:13.094 PM 03/24/2016,Teleop Enabled,10,FALSE,0,NO ERROR,-0.000000,-0.333666,0.000000,0.044917,TRUE,FALSE,TRUE,FALSE,FALSE,FALSE,Disabled,0.000000,0.000000,0.000000,TRUE,-0.129395,0.120575,0.000000,-0.071671,-0.113968,0.000000,-0.085000,-0.076000,-0.030000,-0.130000,-0.520000,1.320000,54.259628,Hold,62.700684,58.000000,Hold,-44717.000000,44646.400000,HighGoal,3247.500000,-3272.727273,Speed,3292.500000,-3272.727273,Speed,Off,Off,0.000000,FALSE,0,,,,
08:22:13.194 PM 03/24/2016,Teleop Enabled,9,FALSE,0,NO ERROR,-0.000000,-0.333666,0.000000,0.044917,TRUE,FALSE,TRUE,FALSE,FALSE,FALSE,Disabled,0.000000,0.000000,0.000000,TRUE,-0.134598,0.114029,0.000000,-0.148331,-0.133499,0.000000,-0.035000,-0.072000,0.067000,-0.130000,-0.750000,1.350000,54.639077,Hold,62.700684,58.000000,Hold,-44717.000000,44646.400000,HighGoal,3247.500000,-3272.727273,Speed,3300.000000,-3272.727273,Speed,Off,Off,0.000000,FALSE,0,,,,
08:22:13.294 PM 03/24/2016,Teleop Enabled,10,FALSE,0,NO ERROR,-0.000000,-0.333666,0.000000,0.044917,TRUE,FALSE,TRUE,FALSE,FALSE,FALSE,Disabled,0.000000,0.000000,0.000000,TRUE,-0.142303,0.107315,0.000000,-0.151398,-0.133484,0.000000,0.053000,0.089000,0.042000,-0.130000,-0.740000,1.390000,54.984383,Hold,62.700684,58.000000,Hold,-44717.000000,44646.400000,HighGoal,3240.000000,-3272.727273,Speed,3300.000000,-3272.727273,Speed,Off,Off,0.000000,FALSE,0,,,,
08:22:13.395 PM 03/24/2016,Teleop Enabled,11,FALSE,0,NO ERROR,-0.000000,-0.333666,0.000000,0.044917,TRUE,FALSE,TRUE,FALSE,FALSE,FALSE,Disabled,0.000000,0.000000,0.000000,TRUE,-0.151825,0.101410,0.000000,-0.218582,-0.118530,0.000000,-0.008000,0.004000,0.207000,-0.130000,-0.830000,1.400000,55.380694,Hold,62.700684,58.000000,Hold,-44717.000000,44646.400000,HighGoal,3232.500000,-3272.727273,Speed,3292.500000,-3272.727273,Speed,Off,Off,0.000000,FALSE,0,,,,
08:22:13.495 PM 03/24/2016,Teleop Enabled,10,FALSE,0,NO ERROR,-0.000000,-0.333666,0.000000,0.044917,TRUE,FALSE,TRUE,FALSE,FALSE,FALSE,Disabled,0.000000,0.000000,0.000000,TRUE,-0.159775,0.095108,0.000000,0.008606,-0.098846,0.000000,0.084000,0.074000,-0.040000,-0.120000,-0.850000,1.410000,55.748813,Hold,62.700684,58.000000,Hold,-44717.000000,44646.400000,HighGoal,3217.500000,-3272.727273,Speed,3292.500000,-3272.727273,Speed,Off,Off,0.000000,FALSE,0,,,,
08:22:13.595 PM 03/24/2016,Teleop Enabled,10,FALSE,0,NO ERROR,-0.000000,-0.333666,0.000000,0.044917,TRUE,FALSE,TRUE,FALSE,FALSE,FALSE,Disabled,0.000000,0.000000,0.000000,TRUE,-0.157852,0.090942,0.000000,0.063599,-0.108292,0.000000,-0.156000,0.248000,-0.098000,-0.130000,-0.640000,1.430000,56.130218,Hold,62.700684,58.000000,Hold,-44717.000000,44646.400000,HighGoal,3210.000000,-3272.727273,Speed,3292.500000,-3272.727273,Speed,Off,Off,0.000000,FALSE,0,,,,
08:22:13.695 PM 03/24/2016,Teleop Enabled,10,FALSE,0,NO ERROR,-0.000000,-0.333666,0.000000,0.044917,TRUE,FALSE,TRUE,FALSE,FALSE,FALSE,Disabled,0.000000,0.000000,0.000000,TRUE,-0.155533,0.085587,0.000000,0.003540,-0.110107,0.000000,-0.097000,0.021000,-0.292000,-0.130000,-0.720000,1.420000,56.607171,Hold,62.700684,58.000000,Hold,-44717.000000,44646.400000,HighGoal,3225.000000,-3272.727273,Speed,3292.500000,-3272.727273,Speed,Off,Off,0.000000,FALSE,0,,,,
08:22:13.795 PM 03/24/2016,Teleop Enabled,10,FALSE,0,NO ERROR,-0.000000,-0.333666,0.000000,0.044917,TRUE,FALSE,TRUE,FALSE,FALSE,FALSE,Disabled,0.000000,0.000000,0.000000,TRUE,-0.157227,0.078888,0.000000,-0.061127,-0.154388,0.000000,-0.103000,-0.032000,-0.291000,-0.130000,-0.760000,1.450000,56.983081,Hold,62.700684,58.000000,Hold,-44717.000000,44646.400000,HighGoal,3225.000000,-3272.727273,Speed,3292.500000,-3272.727273,Speed,Off,Off,0.000000,FALSE,0,,,,
08:22:13.895 PM 03/24/2016,Teleop Enabled,9,FALSE,0,NO ERROR,-0.000000,-0.333666,0.000000,0.044917,TRUE,FALSE,TRUE,FALSE,FALSE,FALSE,Disabled,0.000000,0.000000,0.000000,TRUE,-0.160965,0.068161,0.000000,-0.082214,-0.252090,0.000000,0.103000,0.026000,0.040000,-0.140000,-0.700000,1.460000,57.362757,Hold,62.700684,58.000000,Hold,-44717.000000,44646.400000,HighGoal,3217.500000,-3272.727273,Speed,3300.000000,-3272.727273,Speed,Off,Off,0.000000,FALSE,0,,,,
08:22:13.995 PM 03/24/2016,Teleop Enabled,11,FALSE,0,NO ERROR,-0.000000,-0.333666,0.000000,0.044917,TRUE,FALSE,TRUE,FALSE,FALSE,FALSE,Disabled,0.000000,0.000000,0.000000,TRUE,-0.162628,0.057709,0.000000,-0.009811,0.000000,0.000000,0.044000,0.013000,0.059000,-0.140000,-0.620000,1.490000,57.741373,Hold,62.700684,58.000000,Hold,-44717.000000,44646.400000,HighGoal,3217.500000,-3272.727273,Speed,3292.500000,-3272.727273,Speed,Off,Off,0.000000,FALSE,0,,,,
08:22:14.096 PM 03/24/2016,Teleop Enabled,11,FALSE,0,NO ERROR,-0.000000,-0.333666,0.000000,0.044917,TRUE,FALSE,TRUE,FALSE,FALSE,FALSE,Disabled,0.000000,0.000000,0.000000,TRUE,-0.162521,0.057526,0.000000,-0.005844,-0.001266,0.000000,-0.079000,0.019000,0.286000,-0.140000,-0.580000,1.460000,58.126130,Hold,62.700684,58.000000,Hold,-44717.000000,44646.400000,HighGoal,3225.000000,-3272.727273,Speed,3292.500000,-3272.727273,Speed,Off,Off,0.000000,FALSE,0,,,,
08:22:14.197 PM 03/24/2016,Teleop Enabled,11,FALSE,0,NO ERROR,-0.000000,-0.333666,0.000000,0.044917,TRUE,FALSE,TRUE,FALSE,FALSE,FALSE,Disabled,0.000000,0.000000,0.000000,TRUE,-0.164413,0.057968,0.000000,-0.052521,0.012512,0.000000,-0.026000,0.008000,-0.066000,-0.140000,-0.520000,1.500000,58.505067,Hold,62.700684,58.000000,Hold,-44717.000000,44646.400000,HighGoal,3217.500000,-3272.727273,Speed,3292.500000,-3272.727273,Speed,Off,Off,0.000000,FALSE,0,,,,
08:22:14.297 PM 03/24/2016,Teleop Enabled,9,FALSE,0,NO ERROR,-0.000000,-0.333666,0.000000,0.044917,TRUE,FALSE,TRUE,FALSE,FALSE,FALSE,Disabled,0.000000,0.000000,0.000000,TRUE,-0.168076,0.058685,0.000000,-0.061356,0.022766,0.000000,-0.073000,0.007000,-0.127000,-0.140000,-0.630000,1.460000,58.913681,Hold,62.700684,58.000000,Hold,-44717.000000,44646.400000,HighGoal,3232.500000,-3272.727273,Speed,3292.500000,-3272.727273,Speed,Off,Off,0.000000,FALSE,0,,,,
08:22:14.398 PM 03/24/2016,Teleop Enabled,9,FALSE,0,NO ERROR,-0.000000,-0.333666,0.000000,0.044917,TRUE,FALSE,TRUE,FALSE,FALSE,FALSE,Disabled,0.000000,0.000000,0.000000,TRUE,-0.170425,0.059631,0.000000,-0.022110,0.022507,0.000000,0.110000,-0.099000,-0.026000,-0.150000,-0.640000,1.460000,59.302952,Hold,62.700684,58.000000,Hold,-44717.000000,44646.400000,HighGoal,3217.500000,-3272.727273,Speed,3300.000000,-3272.727273,Speed,Off,Off,0.000000,FALSE,0,,,,
08:22:14.499 PM 03/24/2016,Teleop Enabled,9,FALSE,0,NO ERROR,-0.000000,-0.333666,0.000000,0.044917,TRUE,FALSE,TRUE,FALSE,FALSE,FALSE,Disabled,0.000000,0.000000,0.000000,TRUE,-0.170883,0.060791,0.000000,-0.014496,0.031418,0.000000,0.068000,-0.041000,-0.119000,-0.140000,-0.770000,1.430000,59.688294,Hold,62.700684,58.000000,Hold,-44717.000000,44646.400000,HighGoal,3210.000000,-3272.727273,Speed,3292.500000,-3272.727273,Speed,Off,Off,0.000000,FALSE,0,,,,
08:22:14.599 PM 03/24/2016,Teleop Enabled,11,FALSE,0,NO ERROR,-0.204724,-0.333666,0.204724,0.044917,TRUE,FALSE,TRUE,FALSE,FALSE,FALSE,Disabled,0.000000,0.000000,0.000000,TRUE,-0.170197,0.063736,0.000000,0.004211,0.060928,0.000000,0.028000,-0.082000,-0.200000,-0.150000,-0.580000,1.470000,60.059505,Hold,62.700684,58.000000,Hold,-44717.000000,44646.400000,HighGoal,3165.000000,-3272.727273,Speed,3292.500000,-3272.727273,Speed,Off,Off,0.000000,FALSE,0,,,,
08:22:14.699 PM 03/24/2016,Teleop Enabled,10,FALSE,0,NO ERROR,-0.000000,-0.526165,0.000000,-0.275916,TRUE,FALSE,TRUE,FALSE,FALSE,FALSE,Disabled,0.000000,0.000000,0.000000,TRUE,-0.169113,0.066544,0.000000,0.033585,0.095047,0.000000,-0.053000,0.030000,-0.044000,0.120000,-0.460000,1.650000,60.713099,Hold,62.700684,58.000000,Hold,-44717.000000,44646.400000,HighGoal,3180.000000,-3272.727273,Speed,3285.000000,-3272.727273,Speed,Off,Off,0.000000,FALSE,0,,,,
08:22:14.801 PM 03/24/2016,Teleop Enabled,9,FALSE,0,NO ERROR,-0.000000,-0.526165,0.000000,-0.237416,TRUE,FALSE,TRUE,FALSE,FALSE,FALSE,Disabled,0.000000,0.000000,0.000000,TRUE,-0.169724,0.070099,0.000000,-0.045517,0.053070,0.000000,-0.081000,0.010000,0.060000,0.170000,-0.590000,1.400000,61.309609,Hold,62.700684,58.000000,Hold,-44717.000000,44646.400000,HighGoal,3232.500000,-3272.727273,Speed,3285.000000,-3272.727273,Speed,Off,Off,0.000000,FALSE,0,,,,
08:22:14.901 PM 03/24/2016,Teleop Enabled,10,FALSE,0,NO ERROR,-0.000000,-0.513332,0.000000,-0.205333,TRUE,FALSE,TRUE,FALSE,FALSE,FALSE,Disabled,0.000000,0.000000,0.000000,TRUE,-0.171768,0.073685,0.000000,-0.033798,0.076813,0.000000,0.019000,0.029000,-0.049000,0.080000,-0.500000,1.500000,61.401704,Hold,62.700684,58.000000,Hold,-44717.000000,44646.400000,HighGoal,3262.500000,-3272.727273,Speed,3285.000000,-3272.727273,Speed,Off,Off,0.000000,FALSE,0,,,,
08:22:15.002 PM 03/24/2016,Teleop Enabled,11,FALSE,0,NO ERROR,-0.000000,-0.513332,0.000000,-0.198916,TRUE,FALSE,TRUE,FALSE,FALSE,FALSE,Disabled,0.000000,0.000000,0.000000,TRUE,-0.173996,0.077240,0.000000,-0.039902,0.075638,0.000000,0.045000,-0.054000,0.205000,0.040000,-0.470000,1.480000,61.786699,Hold,62.700684,58.000000,Hold,-44717.000000,44646.400000,HighGoal,3247.500000,-3272.727273,Speed,3292.500000,-3272.727273,Speed,Off,Off,0.000000,FALSE,0,,,,
08:22:15.102 PM 03/24/2016,Teleop Enabled,10,FALSE,0,NO ERROR,-0.259843,-0.513332,0.259843,-0.205333,TRUE,FALSE,TRUE,FALSE,FALSE,FALSE,Disabled,0.000000,0.000000,0.000000,TRUE,-0.173538,0.081345,0.000000,0.020340,0.077362,0.000000,-0.012000,0.050000,0.005000,0.060000,-0.310000,1.490000,62.195830,Hold,62.700684,58.000000,Hold,-44717.000000,44646.400000,HighGoal,3247.500000,-3272.727273,Speed,3292.500000,-3272.727273,Speed,Off,Off,0.000000,FALSE,0,,,,
08:22:15.202 PM 03/24/2016,Teleop Enabled,9,FALSE,0,NO ERROR,-0.000000,-0.596749,0.000000,-0.391416,TRUE,FALSE,TRUE,FALSE,FALSE,FALSE,Disabled,0.000000,0.000000,0.000000,TRUE,-0.174561,0.085434,0.000000,-0.025757,0.098480,0.000000,0.012000,0.202000,0.188000,0.340000,-0.200000,1.680000,62.640632,Hold,62.700684,58.000000,Hold,-44717.000000,44646.400000,HighGoal,3232.500000,-3272.727273,Speed,3292.500000,-3272.727273,Speed,Off,Off,0.000000,FALSE,0,,,,
08:22:15.302 PM 03/24/2016,Teleop Enabled,10,FALSE,0,NO ERROR,-0.000000,-0.949664,0.000000,-0.712248,TRUE,FALSE,TRUE,FALSE,FALSE,FALSE,Disabled,0.000000,0.000000,0.000000,TRUE,-0.174545,0.093124,0.000000,-0.018448,0.141586,0.000000,-0.073000,-0.193000,-0.078000,2.310000,-0.440000,1.460000,65.368281,Hold,62.700684,58.000000,Hold,-44717.000000,44646.400000,HighGoal,3217.500000,-3272.727273,Speed,3270.000000,-3272.727273,Speed,Off,Off,0.000000,FALSE,0,,,,
08:22:15.402 PM 03/24/2016,Teleop Enabled,7,FALSE,0,NO ERROR,-0.000000,-0.737915,0.000000,-0.474832,TRUE,FALSE,TRUE,FALSE,FALSE,FALSE,Disabled,0.000000,0.000000,0.000000,TRUE,-0.179733,0.098953,0.000000,-0.095993,0.095535,0.000000,0.197000,-0.059000,0.091000,1.170000,-0.440000,1.310000,64.576675,Hold,62.700684,58.000000,Hold,-44717.000000,44646.400000,HighGoal,3225.000000,-3272.727273,Speed,3277.500000,-3272.727273,Speed,Off,Off,0.000000,FALSE,0,,,,
08:22:15.502 PM 03/24/2016,Teleop Enabled,9,FALSE,0,NO ERROR,-0.000000,-0.667332,0.000000,-0.423499,TRUE,FALSE,TRUE,FALSE,FALSE,FALSE,Disabled,0.000000,0.000000,0.000000,TRUE,-0.181503,0.103470,0.000000,-0.028793,0.124741,0.000000,0.133000,-0.143000,0.092000,0.890000,-0.270000,1.480000,64.677129,Hold,62.700684,58.000000,Hold,-44717.000000,44646.400000,HighGoal,3232.500000,-3272.727273,Speed,3292.500000,-3272.727273,Speed,Off,Off,0.000000,FALSE,0,,,,
08:22:15.608 PM 03/24/2016,Teleop Enabled,12,FALSE,0,NO ERROR,-0.000000,-0.667332,0.000000,-0.423499,TRUE,FALSE,TRUE,FALSE,FALSE,FALSE,Disabled,0.000000,0.000000,0.000000,TRUE,-0.183289,0.109512,0.000000,-0.053741,0.073898,0.000000,-0.087000,-0.090000,-0.022000,0.960000,-0.340000,1.380000,65.124269,Hold,62.700684,58.000000,Hold,-44717.000000,44646.400000,HighGoal,3240.000000,-3272.727273,Speed,3300.000000,-3272.727273,Speed,Off,Off,0.000000,FALSE,0,,,,
08:22:15.704 PM 03/24/2016,Teleop Enabled,10,FALSE,0,NO ERROR,-0.000000,-0.667332,0.000000,-0.417082,TRUE,FALSE,TRUE,FALSE,FALSE,FALSE,Disabled,0.000000,0.000000,0.000000,TRUE,-0.187088,0.112000,0.000000,-0.107956,0.054520,0.000000,-0.041000,-0.066000,0.179000,0.950000,-0.460000,1.470000,65.495360,Hold,62.700684,58.000000,Hold,-44717.000000,44646.400000,HighGoal,3247.500000,-3272.727273,Speed,3292.500000,-3272.727273,Speed,Off,Off,0.000000,FALSE,0,,,,
08:22:15.807 PM 03/24/2016,Teleop Enabled,10,FALSE,0,NO ERROR,-0.244094,-0.667332,0.244094,-0.417082,TRUE,FALSE,TRUE,FALSE,FALSE,FALSE,Disabled,0.000000,0.000000,0.000000,TRUE,-0.194519,0.113876,0.000000,-0.120850,0.016342,0.000000,0.000000,-0.044000,-0.004000,0.940000,-0.410000,1.450000,65.859410,Hold,62.700684,58.000000,Hold,-44717.000000,44646.400000,HighGoal,3255.000000,-3272.727273,Speed,3292.500000,-3272.727273,Speed,Off,Off,0.000000,FALSE,0,,,,
08:22:15.907 PM 03/24/2016,Teleop Enabled,11,FALSE,0,NO ERROR,-0.000000,-0.930414,0.000000,-0.692998,TRUE,FALSE,TRUE,FALSE,FALSE,FALSE,Disabled,0.000000,0.000000,0.000000,TRUE,-0.199326,0.115387,0.000000,-0.084259,0.038300,0.000000,-0.030000,-0.070000,-0.010000,2.080000,-0.380000,1.570000,67.186072,Hold,62.700684,58.000000,Hold,-44717.000000,44646.400000,HighGoal,3262.500000,-3272.727273,Speed,3292.500000,-3272.727273,Speed,Off,Off,0.000000,FALSE,0,,,,
08:22:16.009 PM 03/24/2016,Teleop Enabled,9,FALSE,0,NO ERROR,-0.000000,-0.834165,0.000000,-0.487666,TRUE,FALSE,TRUE,FALSE,FALSE,FALSE,Disabled,0.000000,0.000000,0.000000,TRUE,-0.207138,0.115112,0.000000,-0.194504,-0.011688,0.000000,0.091000,0.066000,0.048000,2.080000,-0.380000,1.570000,67.126075,Hold,62.700684,58.000000,Hold,-44717.000000,44646.400000,HighGoal,3262.500000,-3272.727273,Speed,3292.500000,-3272.727273,Speed,Off,Off,0.000000,FALSE,0,,,,
08:22:16.110 PM 03/24/2016,Teleop Enabled,11,FALSE,0,NO ERROR,-0.000000,-0.744332,0.000000,-0.410666,TRUE,FALSE,TRUE,FALSE,FALSE,FALSE,Disabled,0.000000,0.000000,0.000000,TRUE,-0.216019,0.116486,0.000000,0.000000,0.064957,0.000000,0.007000,0.090000,0.008000,0.980000,-0.520000,1.540000,67.171517,Hold,62.700684,58.000000,Hold,-44717.000000,44646.400000,HighGoal,3262.500000,-3272.727273,Speed,3292.500000,-3272.727273,Speed,Off,Off,0.000000,FALSE,0,,,,
08:22:16.211 PM 03/24/2016,Teleop Enabled,10,FALSE,0,NO ERROR,-0.000000,-0.744332,0.000000,-0.410666,TRUE,FALSE,TRUE,FALSE,FALSE,FALSE,Disabled,0.000000,0.000000,0.000000,TRUE,-0.215790,0.120850,0.000000,0.022079,0.092987,0.000000,-0.058000,0.027000,0.102000,1.080000,-0.470000,1.460000,67.651895,Hold,62.700684,58.000000,Hold,-44717.000000,44646.400000,HighGoal,3262.500000,-3272.727273,Speed,3300.000000,-3272.727273,Speed,Off,Off,0.000000,FALSE,0,,,,
08:22:16.311 PM 03/24/2016,Teleop Enabled,10,FALSE,0,NO ERROR,-0.000000,-0.744332,0.000000,-0.410666,TRUE,FALSE,TRUE,FALSE,FALSE,FALSE,Disabled,0.000000,0.000000,0.000000,TRUE,-0.214081,0.125656,0.000000,0.049728,0.094040,0.000000,0.132000,-0.041000,-0.063000,1.030000,-0.390000,1.460000,68.020604,Hold,62.700684,58.000000,Hold,-44717.000000,44646.400000,HighGoal,3262.500000,-3272.727273,Speed,3292.500000,-3272.727273,Speed,Off,Off,0.000000,FALSE,0,,,,
08:22:16.411 PM 03/24/2016,Teleop Enabled,10,FALSE,0,NO ERROR,-0.000000,-0.744332,0.000000,-0.410666,TRUE,FALSE,TRUE,FALSE,FALSE,FALSE,Disabled,0.000000,0.000000,0.000000,TRUE,-0.210983,0.130035,0.000000,0.065094,0.085251,0.000000,-0.089000,0.041000,-0.032000,1.030000,-0.340000,1.360000,68.395942,Hold,62.700684,58.000000,Hold,-44717.000000,44646.400000,HighGoal,3262.500000,-3272.727273,Speed,3292.500000,-3272.727273,Speed,Off,Off,0.000000,FALSE,0,,,,
08:22:16.511 PM 03/24/2016,Teleop Enabled,11,FALSE,0,NO ERROR,-0.000000,-0.744332,0.000000,-0.410666,TRUE,FALSE,TRUE,FALSE,FALSE,FALSE,Disabled,0.000000,0.000000,0.000000,TRUE,-0.207504,0.135483,0.000000,0.050873,0.098801,0.000000,-0.043000,0.117000,-0.041000,1.050000,-0.430000,1.340000,68.807221,Hold,62.700684,58.000000,Hold,-44717.000000,44646.400000,HighGoal,3262.500000,-3272.727273,Speed,3300.000000,-3272.727273,Speed,Off,Off,0.000000,FALSE,0,,,,
08:22:16.612 PM 03/24/2016,Teleop Enabled,9,FALSE,0,NO ERROR,-0.000000,-0.744332,0.000000,-0.410666,TRUE,FALSE,TRUE,FALSE,FALSE,FALSE,Disabled,0.000000,0.000000,0.000000,TRUE,-0.205612,0.139862,0.000000,0.054626,0.107010,0.000000,-0.002000,-0.032000,0.132000,1.030000,-0.440000,1.390000,69.173076,Hold,62.700684,58.000000,Hold,-44717.000000,44646.400000,HighGoal,3262.500000,-3272.727273,Speed,3300.000000,-3272.727273,Speed,Off,Off,0.000000,FALSE,0,,,,
08:22:16.713 PM 03/24/2016,Teleop Enabled,10,FALSE,0,NO ERROR,-0.000000,-0.744332,0.000000,-0.410666,TRUE,FALSE,TRUE,FALSE,FALSE,FALSE,Disabled,0.000000,0.000000,0.000000,TRUE,-0.202057,0.145172,0.000000,0.077805,0.125580,0.000000,-0.040000,0.029000,0.077000,1.030000,-0.400000,1.410000,69.556480,Hold,62.700684,58.000000,Hold,-44717.000000,44646.400000,HighGoal,3262.500000,-3272.727273,Speed,3292.500000,-3272.727273,Speed,Off,Off,0.000000,FALSE,0,,,,
08:22:16.814 PM 03/24/2016,Teleop Enabled,10,FALSE,0,NO ERROR,-0.000000,-0.744332,0.000000,-0.410666,TRUE,FALSE,TRUE,FALSE,FALSE,FALSE,Disabled,0.000000,0.000000,0.000000,TRUE,-0.199951,0.153122,0.000000,-0.006958,0.179901,0.000000,0.031000,0.018000,0.259000,1.020000,-0.430000,1.380000,69.940019,Hold,62.700684,58.000000,Hold,-44717.000000,44646.400000,HighGoal,3262.500000,-3272.727273,Speed,3292.500000,-3272.727273,Speed,Off,Off,0.000000,FALSE,0,,,,
08:22:16.914 PM 03/24/2016,Teleop Enabled,9,FALSE,0,NO ERROR,-0.000000,-0.744332,0.000000,-0.410666,TRUE,FALSE,TRUE,FALSE,FALSE,FALSE,Disabled,0.000000,0.000000,0.000000,TRUE,-0.201187,0.156250,0.000000,-0.033936,0.059296,0.000000,0.062000,-0.021000,-0.009000,1.030000,-0.520000,1.330000,70.311946,Hold,62.700684,58.000000,Hold,-44717.000000,44646.400000,HighGoal,3262.500000,-3272.727273,Speed,3292.500000,-3272.727273,Speed,Off,Off,0.000000,FALSE,0,,,,
08:22:17.014 PM 03/24/2016,Teleop Enabled,10,FALSE,0,NO ERROR,-0.000000,-0.744332,0.000000,-0.410666,TRUE,FALSE,TRUE,FALSE,FALSE,FALSE,Disabled,0.000000,0.000000,0.000000,TRUE,-0.202545,0.160629,0.000000,-0.024979,0.105255,0.000000,-0.057000,-0.052000,0.091000,1.030000,-0.560000,1.400000,70.702036,Hold,62.700684,58.000000,Hold,-44717.000000,44646.400000,HighGoal,3270.000000,-3272.727273,Speed,3292.500000,-3272.727273,Speed,Off,Off,0.000000,FALSE,0,,,,
08:22:17.115 PM 03/24/2016,Teleop Enabled,9,FALSE,0,NO ERROR,-0.000000,-0.744332,0.000000,-0.410666,TRUE,FALSE,TRUE,FALSE,FALSE,FALSE,Disabled,0.000000,0.000000,0.000000,TRUE,-0.202454,0.164948,0.000000,0.023346,0.080414,0.000000,0.109000,-0.060000,0.032000,1.030000,-0.480000,1.430000,71.085923,Hold,62.700684,58.000000,Hold,-44717.000000,44646.400000,HighGoal,3255.000000,-3272.727273,Speed,3300.000000,-3272.727273,Speed,Off,Off,0.000000,FALSE,0,,,,
08:22:17.219 PM 03/24/2016,Teleop Enabled,9,FALSE,0,NO ERROR,-0.000000,-0.744332,0.000000,-0.410666,TRUE,FALSE,TRUE,FALSE,FALSE,FALSE,Disabled,0.000000,0.000000,0.000000,TRUE,-0.200653,0.168625,0.000000,0.040985,0.063477,0.000000,0.116000,-0.040000,-0.049000,1.030000,-0.470000,1.400000,71.466298,Hold,62.700684,58.000000,Hold,-44717.000000,44646.400000,HighGoal,3255.000000,-3272.727273,Speed,3300.000000,-3272.727273,Speed,Off,Off,0.000000,FALSE,0,,,,
08:22:17.318 PM 03/24/2016,Teleop Enabled,10,FALSE,0,NO ERROR,-0.000000,-0.744332,0.000000,-0.410666,TRUE,FALSE,TRUE,FALSE,FALSE,FALSE,Disabled,0.000000,0.000000,0.000000,TRUE,-0.198486,0.171036,0.000000,0.054596,0.038544,0.000000,0.070000,-0.019000,-0.086000,1.030000,-0.490000,1.390000,71.847155,Hold,62.700684,58.000000,Hold,-44717.000000,44646.400000,HighGoal,3262.500000,-3272.727273,Speed,3300.000000,-3272.727273,Speed,Off,Off,0.000000,FALSE,0,,,,
08:22:17.419 PM 03/24/2016,Teleop Enabled,9,FALSE,0,NO ERROR,-0.000000,-0.744332,0.000000,-0.410666,TRUE,FALSE,TRUE,FALSE,FALSE,FALSE,Disabled,0.000000,0.000000,0.000000,TRUE,-0.194595,0.170471,0.000000,0.098663,-0.020691,0.000000,0.029000,0.043000,0.003000,1.020000,-0.410000,1.380000,72.308805,Hold,62.700684,58.000000,Hold,-44717.000000,44646.400000,HighGoal,3270.000000,-3272.727273,Speed,3292.500000,-3272.727273,Speed,Off,Off,0.000000,FALSE,0,,,,
08:22:17.520 PM 03/24/2016,Teleop Enabled,11,FALSE,0,NO ERROR,-0.000000,-0.744332,0.000000,-0.410666,TRUE,FALSE,TRUE,FALSE,FALSE,FALSE,Disabled,0.000000,0.000000,0.000000,TRUE,-0.187881,0.169983,0.000000,0.169998,-0.007004,0.000000,0.029000,0.043000,0.003000,1.020000,-0.390000,1.440000,72.695832,Hold,62.700684,58.000000,Hold,-44717.000000,44646.400000,HighGoal,3262.500000,-3272.727273,Speed,3300.000000,-3272.727273,Speed,Off,Off,0.000000,FALSE,0,,,,
