Time,Robot Mode,Loop Time,Error Status,Error Code,Error Source,Left Motor Output,Left Motor Encoder,Right Motor Output,Right Motor Encoder,Is Level,Is Stalled,Ball Detector Photoeye,Vision Enabled,Vision Teleop Control,Vision Auto Control,Vision Current State,Vision X Output,Vision NavX Error,Vision NavX Target,NavX Connection Status,NavX Displacement X,NavX Displacement Y,NavX Displacement Z,NavX Velocity X,NavX Velocity Y,NavX Velocity Z,NavX Acceleration X,NavX Acceleration Y,NavX Acceleration Z,NavX Pitch,NavX Yaw,NavX Roll,Gyro Angle,Roller Arm State,Roller Arm Actual,Roller Arm Desired,Shooter Arm State,Shooter Arm Actual,Shooter Arm Desired,Shooter State,Actual RPM Left,Desired RPM Left,Control Mode Left,Actual RPM Right,Desired RPM Right,Control Mode Right,Ball Shooter Cylinder,Ball Halo Cylinder,Scaler Motor Output,Scaler Solenoid Fire,Auto To Run,Auto Current File,Auto File Status,Auto Current Command,Auto Trimmed Command
06:44:29.084 PM 03/23/2016,Autonomous Enabled,9,FALSE,0,NO ERROR,0.000000,0.000000,0.000000,0.000000,TRUE,FALSE,FALSE,FALSE,FALSE,FALSE,Disabled,0.000000,0.000000,0.000000,TRUE,-0.445786,0.244873,0.000000,0.000000,0.000000,0.000000,0.001000,0.000000,0.014000,0.000000,0.190000,1.270000,-0.020600,ResetBack,-64.814209,-0.000049,ResetBack,110675.000000,-0.300000,Suck,0.000000,2181.818182,Speed,0.000000,2181.818182,Speed,Off,On,0.000000,FALSE,0,,,,
06:44:29.185 PM 03/23/2016,Autonomous Enabled,9,FALSE,0,NO ERROR,0.000000,0.000000,0.000000,0.000000,TRUE,FALSE,FALSE,FALSE,FALSE,FALSE,Disabled,0.000000,0.000000,0.000000,TRUE,-0.445786,0.244873,0.000000,0.000000,0.000000,0.000000,0.001000,0.000000,0.014000,0.000000,0.190000,1.270000,-0.020397,ResetBack,-65.744141,-0.000049,ResetBack,111649.000000,-0.300000,Suck,0.000000,2181.818182,Speed,-67.500000,2181.818182,Speed,Off,On,0.000000,FALSE,0,Read: /home/lvuser/scripts/auto_00.bee,File good!,STOP_ALL,STOP_ALL
06:44:29.285 PM 03/23/2016,Autonomous Enabled,9,FALSE,0,NO ERROR,0.000000,0.000000,0.000000,0.000000,TRUE,FALSE,FALSE,FALSE,FALSE,FALSE,Disabled,0.000000,0.000000,0.000000,TRUE,-0.441879,0.243866,0.000000,0.054321,-0.032074,0.000000,0.001000,0.000000,0.014000,0.000000,0.300000,1.190000,-0.020397,ResetBack,-66.745850,-0.000049,ResetBack,120638.000000,-0.300000,Suck,-450.000000,2181.818182,Speed,-952.500000,2181.818182,Speed,Off,On,0.000000,FALSE,0,Read: /home/lvuser/scripts/auto_00.bee,File good!,STOP_ALL,STOP_ALL
06:44:29.386 PM 03/23/2016,Autonomous Enabled,9,FALSE,0,NO ERROR,0.000000,0.000000,0.000000,0.000000,TRUE,FALSE,FALSE,FALSE,FALSE,FALSE,Disabled,0.000000,0.000000,0.000000,TRUE,-0.440887,0.243362,0.000000,0.046432,-0.019791,0.000000,-0.060000,-0.008000,-0.035000,0.000000,0.400000,1.210000,-0.014269,ResetBack,-66.746826,-0.000049,ResetBack,128628.000000,-0.300000,Suck,-1410.000000,2181.818182,Speed,-1875.000000,2181.818182,Speed,Off,On,0.000000,FALSE,0,Read: /home/lvuser/scripts/auto_00.bee,File good!,STOP_ALL,STOP_ALL
06:44:29.486 PM 03/23/2016,Autonomous Enabled,10,FALSE,0,NO ERROR,0.000000,0.000000,0.000000,0.000000,TRUE,FALSE,FALSE,FALSE,FALSE,FALSE,Disabled,0.000000,0.000000,0.000000,TRUE,-0.438202,0.240372,0.000000,0.040817,-0.098877,0.000000,-0.136000,0.142000,-0.131000,0.010000,0.260000,1.180000,-0.027950,Reset,-66.923828,0.000000,ResetBack,128628.000000,-0.300000,Suck,-2137.500000,2181.818182,Speed,-2377.500000,2181.818182,Speed,Off,On,0.000000,FALSE,0,Read: /home/lvuser/scripts/auto_00.bee,File good!,STOP_ALL,STOP_ALL
06:44:29.586 PM 03/23/2016,Autonomous Enabled,9,FALSE,0,NO ERROR,0.000000,0.000000,0.000000,0.000000,TRUE,FALSE,FALSE,FALSE,FALSE,FALSE,Disabled,0.000000,0.000000,0.000000,TRUE,-0.438141,0.238297,0.000000,-0.006332,-0.025360,0.000000,0.001000,0.056000,-0.131000,0.000000,0.270000,1.170000,-0.033586,Hold,0.034912,0.000000,ResetBack,133770.000000,-0.300000,Suck,-2362.500000,2181.818182,Speed,-2220.000000,2181.818182,Speed,Off,On,0.000000,FALSE,0,Read: /home/lvuser/scripts/auto_00.bee,File good!,STOP_ALL,STOP_ALL
06:44:29.686 PM 03/23/2016,Autonomous Enabled,10,FALSE,0,NO ERROR,0.000000,0.000000,0.000000,0.000000,TRUE,FALSE,FALSE,FALSE,FALSE,FALSE,Disabled,0.000000,0.000000,0.000000,TRUE,-0.438583,0.238113,0.000000,-0.019012,0.000000,0.000000,-0.004000,-0.028000,-0.016000,0.000000,0.290000,1.200000,-0.034828,Hold,0.035156,0.000000,ResetBack,136225.000000,-0.300000,Suck,-2167.500000,2181.818182,Speed,-2077.500000,2181.818182,Speed,Off,On,0.000000,FALSE,0,Read: /home/lvuser/scripts/auto_00.bee,File good!,STOP_ALL,STOP_ALL
06:44:29.786 PM 03/23/2016,Autonomous Enabled,10,FALSE,0,NO ERROR,0.000000,0.000000,0.000000,0.000000,TRUE,FALSE,FALSE,FALSE,FALSE,FALSE,Disabled,0.000000,0.000000,0.000000,TRUE,-0.438324,0.236771,0.000000,0.035858,-0.046814,0.000000,0.086000,-0.085000,0.077000,0.010000,0.320000,1.210000,-0.027413,Hold,0.035156,0.000000,ResetBack,137056.000000,-0.300000,Suck,-2040.000000,2181.818182,Speed,-2152.500000,2181.818182,Speed,Off,On,0.000000,FALSE,0,Read: /home/lvuser/scripts/auto_00.bee,File good!,STOP_ALL,STOP_ALL
06:44:29.886 PM 03/23/2016,Autonomous Enabled,10,FALSE,0,NO ERROR,0.000000,0.000000,0.000000,0.000000,TRUE,FALSE,FALSE,FALSE,FALSE,FALSE,Disabled,0.000000,0.000000,0.000000,TRUE,-0.437317,0.233688,0.000000,-0.000427,-0.091324,0.000000,-0.051000,-0.042000,-0.007000,0.010000,0.430000,1.220000,-0.022328,Hold,0.035156,0.000000,ResetBack,137121.000000,-0.300000,Suck,-2152.500000,2181.818182,Speed,-2205.000000,2181.818182,Speed,Off,On,0.000000,FALSE,0,Read: /home/lvuser/scripts/auto_00.bee,File good!,STOP_ALL,STOP_ALL
06:44:29.986 PM 03/23/2016,Autonomous Enabled,10,FALSE,0,NO ERROR,0.000000,0.000000,0.000000,0.000000,TRUE,FALSE,FALSE,FALSE,FALSE,FALSE,Disabled,0.000000,0.000000,0.000000,TRUE,-0.437988,0.227203,0.000000,-0.008362,-0.118118,0.000000,0.077000,-0.067000,-0.122000,0.010000,0.360000,1.280000,-0.029220,Hold,0.035156,0.000000,ResetBack,137266.000000,-0.300000,Suck,-2190.000000,2181.818182,Speed,-2167.500000,2181.818182,Speed,Off,On,0.000000,FALSE,0,Read: /home/lvuser/scripts/auto_00.bee,File good!,STOP_ALL,STOP_ALL
06:44:30.086 PM 03/23/2016,Autonomous Enabled,10,FALSE,0,NO ERROR,0.000000,0.000000,0.000000,0.000000,TRUE,FALSE,FALSE,FALSE,FALSE,FALSE,Disabled,0.000000,0.000000,0.000000,TRUE,-0.437744,0.219421,0.000000,0.018112,-0.184814,0.000000,0.016000,-0.077000,0.008000,0.010000,0.370000,1.280000,-0.036598,Hold,0.035156,0.000000,ResetBack,137464.000000,-0.300000,Suck,-2122.500000,2181.818182,Speed,-2152.500000,2181.818182,Speed,Off,On,0.000000,FALSE,0,Read: /home/lvuser/scripts/auto_00.bee,File good!,STOP_ALL,STOP_ALL
06:44:30.186 PM 03/23/2016,Autonomous Enabled,10,FALSE,0,NO ERROR,0.000000,0.000000,0.000000,0.000000,TRUE,FALSE,FALSE,FALSE,FALSE,FALSE,Disabled,0.000000,0.000000,0.000000,TRUE,-0.434830,0.208298,0.000000,0.085831,-0.248245,0.000000,0.050000,-0.047000,0.201000,0.010000,0.490000,1.210000,-0.038471,Hold,0.035156,0.000000,ResetBack,137464.000000,-0.300000,Suck,-2122.500000,2181.818182,Speed,-2167.500000,2181.818182,Speed,Off,On,0.000000,FALSE,0,Read: /home/lvuser/scripts/auto_00.bee,File good!,STOP_ALL,STOP_ALL
06:44:30.286 PM 03/23/2016,Autonomous Enabled,10,FALSE,0,NO ERROR,0.000000,0.000000,0.000000,0.000000,TRUE,FALSE,FALSE,FALSE,FALSE,FALSE,Disabled,0.000000,0.000000,0.000000,TRUE,-0.429214,0.194992,0.000000,0.113678,-0.282837,0.000000,-0.004000,-0.020000,0.124000,0.010000,0.510000,1.210000,-0.043583,Hold,0.035156,0.000000,ResetBack,137466.000000,-0.300000,Suck,-2160.000000,2181.818182,Speed,-2167.500000,2181.818182,Speed,Off,On,0.000000,FALSE,0,Read: /home/lvuser/scripts/auto_00.bee,File good!,STOP_ALL,STOP_ALL
06:44:30.386 PM 03/23/2016,Autonomous Enabled,10,FALSE,0,NO ERROR,0.000000,0.000000,0.000000,0.000000,TRUE,FALSE,FALSE,FALSE,FALSE,FALSE,Disabled,0.000000,0.000000,0.000000,TRUE,-0.423904,0.179352,0.000000,0.090408,-0.346085,0.000000,-0.052000,-0.065000,0.287000,0.010000,0.350000,1.200000,-0.043400,Hold,0.035400,0.000000,Reset,137500.000000,2.000000,Suck,-2152.500000,2181.818182,Speed,-2167.500000,2181.818182,Speed,Off,On,0.000000,FALSE,0,Read: /home/lvuser/scripts/auto_00.bee,File good!,STOP_ALL,STOP_ALL
06:44:30.486 PM 03/23/2016,Autonomous Enabled,9,FALSE,0,NO ERROR,0.000000,0.000000,0.000000,0.000000,TRUE,FALSE,FALSE,FALSE,FALSE,FALSE,Disabled,0.000000,0.000000,0.000000,TRUE,-0.420822,0.160080,0.000000,0.049774,-0.410995,0.000000,-0.053000,-0.056000,0.153000,0.010000,0.250000,1.230000,-0.045480,Hold,0.035400,0.000000,Hold,-236.000000,2.000000,Suck,-2130.000000,2181.818182,Speed,-2167.500000,2181.818182,Speed,Off,On,0.000000,FALSE,0,Read: /home/lvuser/scripts/auto_00.bee,File good!,STOP_ALL,STOP_ALL
06:44:30.586 PM 03/23/2016,Autonomous Enabled,9,FALSE,0,NO ERROR,0.000000,0.000000,0.000000,0.000000,TRUE,FALSE,FALSE,FALSE,FALSE,FALSE,Disabled,0.000000,0.000000,0.000000,TRUE,-0.419434,0.137604,0.000000,0.005737,-0.468353,0.000000,-0.022000,0.003000,0.178000,0.020000,0.000000,1.260000,-0.039896,Hold,0.035400,0.000000,Hold,-227.000000,2.000000,Suck,-2145.000000,2181.818182,Speed,-2167.500000,2181.818182,Speed,Off,On,0.000000,FALSE,0,Read: /home/lvuser/scripts/auto_00.bee,File good!,STOP_ALL,STOP_ALL
06:44:30.686 PM 03/23/2016,Autonomous Enabled,10,FALSE,0,NO ERROR,0.000000,0.000000,0.000000,0.000000,TRUE,FALSE,FALSE,FALSE,FALSE,FALSE,Disabled,0.000000,0.000000,0.000000,TRUE,-0.419952,0.113434,0.000000,-0.017181,-0.496948,0.000000,0.042000,-0.031000,0.103000,0.030000,-0.110000,1.310000,-0.057016,Hold,0.035400,0.000000,Hold,-227.000000,2.000000,Suck,-2152.500000,2181.818182,Speed,-2167.500000,2181.818182,Speed,Off,On,0.000000,FALSE,0,Read: /home/lvuser/scripts/auto_00.bee,File good!,STOP_ALL,STOP_ALL
06:44:30.786 PM 03/23/2016,Autonomous Enabled,10,FALSE,0,NO ERROR,0.000000,0.000000,0.000000,0.000000,TRUE,FALSE,FALSE,FALSE,FALSE,FALSE,Disabled,0.000000,0.000000,0.000000,TRUE,-0.419769,0.087082,0.000000,0.016891,-0.562271,0.000000,0.006000,-0.029000,0.005000,0.030000,-0.080000,1.290000,-0.065371,Hold,0.035400,0.000000,Hold,-227.000000,2.000000,Suck,-2145.000000,2181.818182,Speed,-2175.000000,2181.818182,Speed,Off,On,0.000000,FALSE,0,Read: /home/lvuser/scripts/auto_00.bee,File good!,STOP_ALL,STOP_ALL
06:44:30.886 PM 03/23/2016,Autonomous Enabled,10,FALSE,0,NO ERROR,0.000000,0.000000,0.000000,0.000000,TRUE,FALSE,FALSE,FALSE,FALSE,FALSE,Disabled,0.000000,0.000000,0.000000,TRUE,-0.419281,0.057495,0.000000,0.000000,-0.608154,0.000000,-0.023000,-0.045000,-0.056000,0.030000,-0.100000,1.330000,-0.046795,Hold,0.035400,0.000000,Hold,-227.000000,2.000000,Suck,-2145.000000,2181.818182,Speed,-2167.500000,2181.818182,Speed,Off,On,0.000000,FALSE,0,Read: /home/lvuser/scripts/auto_00.bee,File good!,STOP_ALL,STOP_ALL
06:44:30.985 PM 03/23/2016,Autonomous Enabled,10,FALSE,0,NO ERROR,0.000000,0.000000,0.000000,0.000000,TRUE,FALSE,FALSE,FALSE,FALSE,FALSE,Disabled,0.000000,0.000000,0.000000,TRUE,-0.419083,0.025864,0.000000,0.016510,-0.653076,0.000000,0.011000,-0.099000,-0.101000,0.020000,-0.050000,1.320000,-0.049053,Hold,0.035400,0.000000,Hold,-227.000000,2.000000,Suck,-2145.000000,2181.818182,Speed,-2167.500000,2181.818182,Speed,Off,On,0.000000,FALSE,0,Read: /home/lvuser/scripts/auto_00.bee,File good!,STOP_ALL,STOP_ALL
06:44:31.086 PM 03/23/2016,Autonomous Enabled,9,FALSE,0,NO ERROR,0.000000,0.000000,0.000000,0.000000,TRUE,FALSE,FALSE,FALSE,FALSE,FALSE,Disabled,0.000000,0.000000,0.000000,TRUE,-0.416611,-0.016769,0.000000,0.065369,-0.749557,0.000000,0.094000,-0.086000,-0.042000,0.020000,0.110000,1.250000,-0.046330,Hold,0.035400,0.000000,Hold,-227.000000,2.000000,Suck,-2145.000000,2181.818182,Speed,-2175.000000,2181.818182,Speed,Off,On,0.000000,FALSE,0,Read: /home/lvuser/scripts/auto_00.bee,File good!,STOP_ALL,STOP_ALL
06:44:31.186 PM 03/23/2016,Autonomous Enabled,9,FALSE,0,NO ERROR,0.000000,0.000000,0.000000,0.000000,TRUE,FALSE,FALSE,FALSE,FALSE,FALSE,Disabled,0.000000,0.000000,0.000000,TRUE,-0.411499,-0.032333,0.000000,0.115067,-0.014877,0.000000,0.062000,-0.041000,-0.031000,0.010000,0.300000,1.240000,-0.030381,Hold,0.035400,0.000000,Hold,-227.000000,2.000000,Suck,-2145.000000,2181.818182,Speed,-2167.500000,2181.818182,Speed,Off,On,0.000000,FALSE,0,Read: /home/lvuser/scripts/auto_00.bee,File good!,STOP_ALL,STOP_ALL
06:44:31.286 PM 03/23/2016,Autonomous Enabled,9,FALSE,0,NO ERROR,0.000000,0.000000,0.000000,0.000000,TRUE,FALSE,FALSE,FALSE,FALSE,FALSE,Disabled,0.000000,0.000000,0.000000,TRUE,-0.405869,-0.034729,0.000000,0.113129,-0.066177,0.000000,0.079000,-0.045000,-0.042000,0.010000,0.370000,1.230000,-0.042357,Hold,0.035400,0.000000,Hold,-227.000000,2.000000,Suck,-2145.000000,2181.818182,Speed,-2175.000000,2181.818182,Speed,Off,On,0.000000,FALSE,0,Read: /home/lvuser/scripts/auto_00.bee,File good!,STOP_ALL,STOP_ALL
06:44:31.386 PM 03/23/2016,Autonomous Enabled,10,FALSE,0,NO ERROR,0.000000,0.000000,0.000000,0.000000,TRUE,FALSE,FALSE,FALSE,FALSE,FALSE,Disabled,0.000000,0.000000,0.000000,TRUE,-0.398483,-0.039688,0.000000,0.170578,-0.117432,0.000000,0.005000,-0.018000,0.038000,0.010000,0.590000,1.190000,-0.039166,Hold,0.035400,0.000000,Hold,-227.000000,2.000000,Suck,-2145.000000,2181.818182,Speed,-2175.000000,2181.818182,Speed,Off,On,0.000000,FALSE,0,Read: /home/lvuser/scripts/auto_00.bee,File good!,STOP_ALL,STOP_ALL
06:44:31.486 PM 03/23/2016,Autonomous Enabled,10,FALSE,0,NO ERROR,0.000000,0.000000,0.000000,0.000000,TRUE,FALSE,FALSE,FALSE,FALSE,FALSE,Disabled,0.000000,0.000000,0.000000,TRUE,-0.392853,-0.046249,0.000000,0.005432,-0.139999,0.000000,0.055000,-0.002000,0.109000,0.020000,0.630000,1.160000,-0.038385,Hold,0.035400,0.000000,Hold,-227.000000,2.000000,Suck,-2145.000000,2181.818182,Speed,-2167.500000,2181.818182,Speed,Off,On,0.000000,FALSE,0,Read: /home/lvuser/scripts/auto_00.bee,File good!,STOP_ALL,STOP_ALL
06:44:31.587 PM 03/23/2016,Autonomous Enabled,9,FALSE,0,NO ERROR,0.000000,0.000000,0.000000,0.000000,TRUE,FALSE,FALSE,FALSE,FALSE,FALSE,Disabled,0.000000,0.000000,0.000000,TRUE,-0.391022,-0.046738,0.000000,0.058899,-0.029449,0.000000,0.022000,-0.054000,-0.079000,0.020000,0.510000,1.180000,-0.033176,Hold,0.035400,0.000000,Hold,-227.000000,2.000000,Suck,-2145.000000,2181.818182,Speed,-2175.000000,2181.818182,Speed,Off,On,0.000000,FALSE,0,Read: /home/lvuser/scripts/auto_00.bee,File good!,STOP_ALL,STOP_ALL
06:44:31.687 PM 03/23/2016,Autonomous Enabled,9,FALSE,0,NO ERROR,0.000000,0.000000,0.000000,0.000000,TRUE,FALSE,FALSE,FALSE,FALSE,FALSE,Disabled,0.000000,0.000000,0.000000,TRUE,-0.386963,-0.049515,0.000000,0.092865,-0.071533,0.000000,0.013000,-0.039000,0.119000,0.020000,0.480000,1.160000,-0.033654,Hold,0.035400,0.000000,Hold,-227.000000,2.000000,Suck,-2145.000000,2181.818182,Speed,-2175.000000,2181.818182,Speed,Off,On,0.000000,FALSE,0,Read: /home/lvuser/scripts/auto_00.bee,File good!,STOP_ALL,STOP_ALL
06:44:31.787 PM 03/23/2016,Autonomous Enabled,9,FALSE,0,NO ERROR,0.000000,0.000000,0.000000,0.000000,TRUE,FALSE,FALSE,FALSE,FALSE,FALSE,Disabled,0.000000,0.000000,0.000000,TRUE,-0.385788,-0.054474,0.000000,0.040436,-0.123169,0.000000,-0.008000,-0.020000,0.005000,0.020000,0.340000,1.190000,-0.025981,Hold,0.035400,0.000000,Hold,-227.000000,2.000000,Suck,-2145.000000,2181.818182,Speed,-2175.000000,2181.818182,Speed,Off,On,0.000000,FALSE,0,Read: /home/lvuser/scripts/auto_00.bee,File good!,STOP_ALL,STOP_ALL
06:44:31.887 PM 03/23/2016,Autonomous Enabled,7,FALSE,0,NO ERROR,0.000000,0.000000,0.000000,0.000000,TRUE,FALSE,FALSE,FALSE,FALSE,FALSE,Disabled,0.000000,0.000000,0.000000,TRUE,-0.384995,-0.056946,0.000000,0.005753,0.008911,0.000000,-0.056000,0.004000,0.002000,0.030000,0.050000,1.230000,-0.021447,Hold,0.035400,0.000000,Hold,-227.000000,2.000000,Suck,-2145.000000,2181.818182,Speed,-2167.500000,2181.818182,Speed,Off,On,0.000000,FALSE,0,Read: /home/lvuser/scripts/auto_00.bee,File good!,STOP_ALL,STOP_ALL
06:44:31.987 PM 03/23/2016,Autonomous Enabled,9,FALSE,0,NO ERROR,0.000000,0.000000,0.000000,0.000000,TRUE,FALSE,FALSE,FALSE,FALSE,FALSE,Disabled,0.000000,0.000000,0.000000,TRUE,-0.384201,-0.056885,0.000000,0.029785,-0.005829,0.000000,0.009000,-0.060000,-0.129000,0.040000,-0.090000,1.250000,-0.020218,Hold,0.035400,0.000000,Hold,-228.000000,2.000000,Suck,-2145.000000,2181.818182,Speed,-2175.000000,2181.818182,Speed,Off,On,0.000000,FALSE,0,Read: /home/lvuser/scripts/auto_00.bee,File good!,STOP_ALL,STOP_ALL
06:44:32.087 PM 03/23/2016,Autonomous Enabled,9,FALSE,0,NO ERROR,0.000000,0.000000,0.000000,0.000000,TRUE,FALSE,FALSE,FALSE,FALSE,FALSE,Disabled,0.000000,0.000000,0.000000,TRUE,-0.382675,-0.057220,0.000000,0.044281,0.003326,0.000000,0.040000,0.028000,-0.060000,0.040000,-0.180000,1.280000,-0.020590,Hold,0.035400,0.000000,Hold,-228.000000,2.000000,Suck,-2145.000000,2181.818182,Speed,-2175.000000,2181.818182,Speed,Off,On,0.000000,FALSE,0,Read: /home/lvuser/scripts/auto_00.bee,File good!,STOP_ALL,STOP_ALL
06:44:32.188 PM 03/23/2016,Autonomous Enabled,9,FALSE,0,NO ERROR,0.000000,0.000000,0.000000,0.000000,TRUE,FALSE,FALSE,FALSE,FALSE,FALSE,Disabled,0.000000,0.000000,0.000000,TRUE,-0.379684,-0.056107,0.000000,0.064011,0.039642,0.000000,-0.034000,0.092000,0.030000,0.050000,-0.330000,1.350000,-0.015956,Hold,0.035400,0.000000,Hold,-228.000000,2.000000,Suck,-2152.500000,2181.818182,Speed,-2167.500000,2181.818182,Speed,Off,On,0.000000,FALSE,0,Read: /home/lvuser/scripts/auto_00.bee,File good!,STOP_ALL,STOP_ALL
06:44:32.288 PM 03/23/2016,Autonomous Enabled,9,FALSE,0,NO ERROR,0.000000,0.000000,0.000000,0.000000,TRUE,FALSE,FALSE,FALSE,FALSE,FALSE,Disabled,0.000000,0.000000,0.000000,TRUE,-0.377502,-0.050186,0.000000,0.018845,0.145523,0.000000,-0.013000,0.098000,-0.033000,0.050000,-0.400000,1.380000,-0.016679,Hold,0.035400,0.000000,Hold,-228.000000,2.000000,Suck,-2145.000000,2181.818182,Speed,-2167.500000,2181.818182,Speed,Off,On,0.000000,FALSE,0,Read: /home/lvuser/scripts/auto_00.bee,File good!,STOP_ALL,STOP_ALL
06:44:32.390 PM 03/23/2016,Autonomous Enabled,9,FALSE,0,NO ERROR,0.000000,0.000000,0.000000,0.000000,TRUE,FALSE,FALSE,FALSE,FALSE,FALSE,Disabled,0.000000,0.000000,0.000000,TRUE,-0.376877,-0.040741,0.000000,0.000000,0.228653,0.000000,-0.006000,0.137000,-0.134000,0.040000,-0.320000,1.320000,-0.002868,Hold,0.035400,0.000000,Hold,-228.000000,2.000000,Suck,-2145.000000,2181.818182,Speed,-2175.000000,2181.818182,Speed,Off,On,0.000000,FALSE,0,Read: /home/lvuser/scripts/auto_00.bee,File good!,STOP_ALL,STOP_ALL
06:44:32.490 PM 03/23/2016,Autonomous Enabled,9,FALSE,0,NO ERROR,0.000000,0.000000,0.000000,0.000000,TRUE,FALSE,FALSE,FALSE,FALSE,FALSE,Disabled,0.000000,0.000000,0.000000,TRUE,-0.376984,-0.025909,0.000000,-0.008484,0.332901,0.000000,-0.053000,0.084000,-0.080000,0.050000,-0.230000,1.320000,0.003329,Hold,0.035400,0.000000,Hold,-227.000000,2.000000,Suck,-2145.000000,2181.818182,Speed,-2175.000000,2181.818182,Speed,Off,On,0.000000,FALSE,0,Read: /home/lvuser/scripts/auto_00.bee,File good!,STOP_ALL,STOP_ALL
06:44:32.591 PM 03/23/2016,Autonomous Enabled,10,FALSE,0,NO ERROR,0.000000,0.000000,0.000000,0.000000,TRUE,FALSE,FALSE,FALSE,FALSE,FALSE,Disabled,0.000000,0.000000,0.000000,TRUE,-0.377792,-0.006561,0.000000,-0.018723,0.422287,0.000000,0.046000,0.128000,-0.074000,0.050000,-0.160000,1.270000,0.004596,Hold,0.035400,0.000000,Hold,-227.000000,2.000000,Suck,-2145.000000,2181.818182,Speed,-2167.500000,2181.818182,Speed,Off,On,0.000000,FALSE,0,Read: /home/lvuser/scripts/auto_00.bee,File good!,STOP_ALL,STOP_ALL
06:44:32.695 PM 03/23/2016,Autonomous Enabled,10,FALSE,0,NO ERROR,0.000000,0.000000,0.000000,0.000000,TRUE,FALSE,FALSE,FALSE,FALSE,FALSE,Disabled,0.000000,0.000000,0.000000,TRUE,-0.378128,0.018158,0.000000,0.007095,0.540573,0.000000,0.008000,0.174000,0.009000,0.040000,0.050000,1.230000,-0.007054,Hold,0.035400,0.000000,Hold,-227.000000,2.000000,Suck,-2145.000000,2181.818182,Speed,-2175.000000,2181.818182,Speed,Off,On,0.000000,FALSE,0,Read: /home/lvuser/scripts/auto_00.bee,File good!,STOP_ALL,STOP_ALL
06:44:32.794 PM 03/23/2016,Autonomous Enabled,11,FALSE,0,NO ERROR,0.000000,0.000000,0.000000,0.000000,TRUE,FALSE,FALSE,FALSE,FALSE,FALSE,Disabled,0.000000,0.000000,0.000000,TRUE,-0.377182,0.048920,0.000000,0.023270,0.656860,0.000000,0.108000,0.099000,0.026000,0.030000,0.160000,1.240000,-0.011601,Hold,0.035400,0.000000,Hold,-227.000000,2.000000,Suck,-2152.500000,2181.818182,Speed,-2175.000000,2181.818182,Speed,Off,On,0.000000,FALSE,0,Read: /home/lvuser/scripts/auto_00.bee,File good!,STOP_ALL,STOP_ALL
06:44:32.895 PM 03/23/2016,Autonomous Enabled,10,FALSE,0,NO ERROR,0.000000,0.000000,0.000000,0.000000,TRUE,FALSE,FALSE,FALSE,FALSE,FALSE,Disabled,0.000000,0.000000,0.000000,TRUE,-0.374390,0.084732,0.000000,0.075790,0.748032,0.000000,0.015000,0.054000,-0.094000,0.040000,0.290000,1.290000,-0.019619,Hold,0.035400,0.000000,Hold,-227.000000,2.000000,Suck,-2145.000000,2181.818182,Speed,-2167.500000,2181.818182,Speed,Off,On,0.000000,FALSE,0,Read: /home/lvuser/scripts/auto_00.bee,File good!,STOP_ALL,STOP_ALL
06:44:32.995 PM 03/23/2016,Autonomous Enabled,11,FALSE,0,NO ERROR,0.000000,0.000000,0.000000,0.000000,TRUE,FALSE,FALSE,FALSE,FALSE,FALSE,Disabled,0.000000,0.000000,0.000000,TRUE,-0.369965,0.123901,0.000000,0.078674,0.805847,0.000000,-0.105000,0.040000,-0.073000,0.030000,0.450000,1.270000,-0.026225,Hold,0.035400,0.000000,Hold,-227.000000,2.000000,Suck,-2145.000000,2181.818182,Speed,-2167.500000,2181.818182,Speed,Off,On,0.000000,FALSE,0,Read: /home/lvuser/scripts/auto_00.bee,File good!,STOP_ALL,STOP_ALL
06:44:33.096 PM 03/23/2016,Autonomous Enabled,10,FALSE,0,NO ERROR,0.000000,0.000000,0.000000,0.000000,TRUE,FALSE,FALSE,FALSE,FALSE,FALSE,Disabled,0.000000,0.000000,0.000000,TRUE,-0.369171,0.174545,0.000000,-0.034241,0.878540,0.000000,-0.149000,0.074000,-0.015000,0.030000,0.400000,1.230000,-0.025943,Hold,0.035400,0.000000,Hold,-227.000000,2.000000,Suck,-2152.500000,2181.818182,Speed,-2167.500000,2181.818182,Speed,Off,On,0.000000,FALSE,0,Read: /home/lvuser/scripts/auto_00.bee,File good!,STOP_ALL,STOP_ALL
06:44:33.197 PM 03/23/2016,Autonomous Enabled,11,FALSE,0,NO ERROR,0.000000,0.000000,0.000000,0.000000,TRUE,FALSE,FALSE,FALSE,FALSE,FALSE,Disabled,0.000000,0.000000,0.000000,TRUE,-0.373337,0.211151,0.000000,-0.148346,0.934311,0.000000,-0.181000,0.062000,0.032000,0.030000,0.170000,1.210000,-0.027100,Hold,0.035400,0.000000,Hold,-227.000000,2.000000,Suck,-2145.000000,2181.818182,Speed,-2175.000000,2181.818182,Speed,Off,On,0.000000,FALSE,0,Read: /home/lvuser/scripts/auto_00.bee,File good!,STOP_ALL,STOP_ALL
06:44:33.299 PM 03/23/2016,Autonomous Enabled,14,FALSE,0,NO ERROR,0.000000,0.000000,0.000000,0.000000,TRUE,FALSE,FALSE,FALSE,FALSE,FALSE,Disabled,0.000000,0.000000,0.000000,TRUE,-0.384674,0.260452,0.000000,-0.269089,1.028503,0.000000,-0.027000,0.132000,-0.007000,0.030000,0.040000,1.220000,-0.040364,Hold,0.035400,0.000000,Hold,-227.000000,2.000000,Suck,-2145.000000,2181.818182,Speed,-2175.000000,2181.818182,Speed,Off,On,0.000000,FALSE,0,Read: /home/lvuser/scripts/auto_00.bee,File good!,STOP_ALL,STOP_ALL
06:44:33.399 PM 03/23/2016,Autonomous Enabled,10,FALSE,0,NO ERROR,0.000000,0.000000,0.000000,0.000000,TRUE,FALSE,FALSE,FALSE,FALSE,FALSE,Disabled,0.000000,0.000000,0.000000,TRUE,-0.399170,0.314957,0.000000,-0.309937,1.126205,0.000000,-0.056000,0.104000,-0.005000,0.030000,0.040000,1.260000,-0.055959,Hold,0.035400,0.000000,Hold,-227.000000,2.000000,Suck,-2145.000000,2181.818182,Speed,-2175.000000,2181.818182,Speed,Off,On,0.000000,FALSE,0,Read: /home/lvuser/scripts/auto_00.bee,File good!,STOP_ALL,STOP_ALL
06:44:33.499 PM 03/23/2016,Autonomous Enabled,11,FALSE,0,NO ERROR,0.000000,0.000000,0.000000,0.000000,TRUE,FALSE,FALSE,FALSE,FALSE,FALSE,Disabled,0.000000,0.000000,0.000000,TRUE,-0.421341,0.387405,0.000000,-0.422394,1.284592,0.000000,-0.142000,0.135000,-0.043000,0.040000,-0.070000,1.300000,-0.063729,Hold,0.035400,0.000000,Hold,-227.000000,2.000000,Suck,-2145.000000,2181.818182,Speed,-2167.500000,2181.818182,Speed,Off,On,0.000000,FALSE,0,Read: /home/lvuser/scripts/auto_00.bee,File good!,STOP_ALL,STOP_ALL
06:44:33.600 PM 03/23/2016,Autonomous Enabled,11,FALSE,0,NO ERROR,0.000000,0.000000,0.000000,0.000000,TRUE,FALSE,FALSE,FALSE,FALSE,FALSE,Disabled,0.000000,0.000000,0.000000,TRUE,-0.445267,0.455551,0.000000,-0.506088,1.410110,0.000000,-0.059000,0.068000,-0.115000,0.040000,-0.200000,1.380000,-0.066407,Hold,0.035400,0.000000,Hold,-227.000000,2.000000,Suck,-2152.500000,2181.818182,Speed,-2175.000000,2181.818182,Speed,Off,On,0.000000,FALSE,0,Read: /home/lvuser/scripts/auto_00.bee,File good!,STOP_ALL,STOP_ALL
06:44:33.701 PM 03/23/2016,Autonomous Enabled,10,FALSE,0,NO ERROR,0.000000,0.000000,0.000000,0.000000,TRUE,FALSE,FALSE,FALSE,FALSE,FALSE,Disabled,0.000000,0.000000,0.000000,TRUE,-0.471802,0.527832,0.000000,-0.538757,1.467438,0.000000,0.002000,0.032000,-0.059000,0.050000,-0.250000,1.400000,-0.064434,Hold,0.035400,0.000000,Hold,-227.000000,2.000000,Suck,-2145.000000,2181.818182,Speed,-2167.500000,2181.818182,Speed,Off,On,0.000000,FALSE,0,Read: /home/lvuser/scripts/auto_00.bee,File good!,STOP_ALL,STOP_ALL
06:44:33.802 PM 03/23/2016,Autonomous Enabled,11,FALSE,0,NO ERROR,0.000000,0.000000,0.000000,0.000000,TRUE,FALSE,FALSE,FALSE,FALSE,FALSE,Disabled,0.000000,0.000000,0.000000,TRUE,-0.477112,0.602417,0.000000,-0.002228,1.498108,0.000000,-0.086000,-0.007000,-0.118000,0.050000,-0.390000,1.420000,-0.067392,Hold,0.035400,0.000000,Hold,-227.000000,2.000000,Suck,-2145.000000,2181.818182,Speed,-2167.500000,2181.818182,Speed,Off,On,0.000000,FALSE,0,Read: /home/lvuser/scripts/auto_00.bee,File good!,STOP_ALL,STOP_ALL
06:44:33.903 PM 03/23/2016,Autonomous Enabled,10,FALSE,0,NO ERROR,0.000000,0.000000,0.000000,0.000000,TRUE,FALSE,FALSE,FALSE,FALSE,FALSE,Disabled,0.000000,0.000000,0.000000,TRUE,-0.478577,0.677734,0.000000,-0.043518,1.510544,0.000000,-0.087000,0.080000,0.001000,0.060000,-0.480000,1.380000,-0.047514,Hold,0.035400,0.000000,Hold,-227.000000,2.000000,Suck,-2145.000000,2181.818182,Speed,-2175.000000,2181.818182,Speed,Off,On,0.000000,FALSE,0,Read: /home/lvuser/scripts/auto_00.bee,File good!,STOP_ALL,STOP_ALL
06:44:34.004 PM 03/23/2016,Autonomous Enabled,9,FALSE,0,NO ERROR,0.000000,0.000000,0.000000,0.000000,TRUE,FALSE,FALSE,FALSE,FALSE,FALSE,Disabled,0.000000,0.000000,0.000000,TRUE,-0.482422,0.755829,0.000000,-0.088989,1.595718,0.000000,0.034000,0.037000,-0.104000,0.050000,-0.540000,1.380000,-0.048688,Hold,0.035400,0.000000,Hold,-227.000000,2.000000,Suck,-2145.000000,2181.818182,Speed,-2175.000000,2181.818182,Speed,Off,On,0.000000,FALSE,0,Read: /home/lvuser/scripts/auto_00.bee,File good!,STOP_ALL,STOP_ALL
06:44:34.104 PM 03/23/2016,Autonomous Enabled,9,FALSE,0,NO ERROR,0.000000,0.000000,0.000000,0.000000,TRUE,FALSE,FALSE,FALSE,FALSE,FALSE,Disabled,0.000000,0.000000,0.000000,TRUE,-0.483841,0.836487,0.000000,0.015320,1.615448,0.000000,0.034000,0.037000,-0.104000,0.060000,-0.470000,1.380000,-0.061691,Hold,0.035400,0.000000,Hold,-227.000000,2.000000,Suck,-2145.000000,2181.818182,Speed,-2175.000000,2181.818182,Speed,Off,On,0.000000,FALSE,0,Read: /home/lvuser/scripts/auto_00.bee,File good!,STOP_ALL,STOP_ALL
06:44:34.204 PM 03/23/2016,Autonomous Enabled,10,FALSE,0,NO ERROR,0.000000,0.000000,0.000000,0.000000,TRUE,FALSE,FALSE,FALSE,FALSE,FALSE,Disabled,0.000000,0.000000,0.000000,TRUE,-0.483246,0.869034,0.000000,0.010452,0.023941,0.000000,0.029000,0.047000,0.015000,0.060000,-0.380000,1.380000,-0.049125,Hold,0.035400,0.000000,Hold,-227.000000,2.000000,Suck,-2152.500000,2181.818182,Speed,-2167.500000,2181.818182,Speed,Off,On,0.000000,FALSE,0,Read: /home/lvuser/scripts/auto_00.bee,File good!,STOP_ALL,STOP_ALL
06:44:34.304 PM 03/23/2016,Autonomous Enabled,10,FALSE,0,NO ERROR,0.000000,0.000000,0.000000,0.000000,TRUE,FALSE,FALSE,FALSE,FALSE,FALSE,Disabled,0.000000,0.000000,0.000000,TRUE,-0.481400,0.869904,0.000000,0.055908,-0.006607,0.000000,0.029000,0.047000,0.015000,0.050000,-0.220000,1.320000,-0.053036,Hold,0.035400,0.000000,Hold,-227.000000,2.000000,Suck,-2145.000000,2181.818182,Speed,-2167.500000,2181.818182,Speed,Off,On,0.000000,FALSE,0,Read: /home/lvuser/scripts/auto_00.bee,File good!,STOP_ALL,STOP_ALL
06:44:34.404 PM 03/23/2016,Autonomous Enabled,10,FALSE,0,NO ERROR,0.000000,0.000000,0.000000,0.000000,TRUE,FALSE,FALSE,FALSE,FALSE,FALSE,Disabled,0.000000,0.000000,0.000000,TRUE,-0.478836,0.869385,0.000000,0.044968,-0.002228,0.000000,0.012000,0.008000,0.030000,0.050000,-0.060000,1.220000,-0.056854,Hold,0.035400,0.000000,Hold,-227.000000,2.000000,Suck,-2145.000000,2181.818182,Speed,-2175.000000,2181.818182,Speed,Off,On,0.000000,FALSE,0,Read: /home/lvuser/scripts/auto_00.bee,File good!,STOP_ALL,STOP_ALL
06:44:34.505 PM 03/23/2016,Autonomous Enabled,9,FALSE,0,NO ERROR,0.000000,0.000000,0.000000,0.000000,TRUE,FALSE,FALSE,FALSE,FALSE,FALSE,Disabled,0.000000,0.000000,0.000000,TRUE,-0.476486,0.869888,0.000000,0.046875,0.011429,0.000000,0.031000,-0.016000,0.009000,0.050000,-0.060000,1.220000,-0.051008,Hold,0.035400,0.000000,Hold,-227.000000,2.000000,Suck,-2152.500000,2181.818182,Speed,-2182.500000,2181.818182,Speed,Off,On,0.000000,FALSE,0,Read: /home/lvuser/scripts/auto_00.bee,File good!,STOP_ALL,STOP_ALL
06:44:34.605 PM 03/23/2016,Autonomous Enabled,9,FALSE,0,NO ERROR,0.000000,0.000000,0.000000,0.000000,TRUE,FALSE,FALSE,FALSE,FALSE,FALSE,Disabled,0.000000,0.000000,0.000000,TRUE,-0.475021,0.870102,0.000000,0.005905,0.006882,0.000000,0.031000,-0.016000,0.009000,0.050000,0.120000,1.200000,-0.064637,Hold,0.035400,0.000000,Hold,-227.000000,2.000000,Suck,-2145.000000,2181.818182,Speed,-2175.000000,2181.818182,Speed,Off,On,0.000000,FALSE,0,Read: /home/lvuser/scripts/auto_00.bee,File good!,STOP_ALL,STOP_ALL
06:44:34.705 PM 03/23/2016,Autonomous Enabled,10,FALSE,0,NO ERROR,0.000000,0.000000,0.000000,0.000000,TRUE,FALSE,FALSE,FALSE,FALSE,FALSE,Disabled,0.000000,0.000000,0.000000,TRUE,-0.474243,0.870712,0.000000,0.039856,0.008087,0.000000,0.011000,0.041000,0.051000,0.050000,0.130000,1.210000,-0.073475,Hold,0.035400,0.000000,Hold,-227.000000,2.000000,Suck,-2145.000000,2181.818182,Speed,-2175.000000,2181.818182,Speed,Off,On,0.000000,FALSE,0,Read: /home/lvuser/scripts/auto_00.bee,File good!,STOP_ALL,STOP_ALL
06:44:34.804 PM 03/23/2016,Autonomous Enabled,11,FALSE,0,NO ERROR,0.000000,0.000000,0.000000,0.000000,TRUE,FALSE,FALSE,FALSE,FALSE,FALSE,Disabled,0.000000,0.000000,0.000000,TRUE,-0.472107,0.871063,0.000000,0.045456,0.000000,0.000000,0.022000,0.030000,-0.056000,0.040000,0.350000,1.160000,-0.075265,Hold,0.035400,0.000000,Hold,-227.000000,2.000000,Suck,-2145.000000,2181.818182,Speed,-2175.000000,2181.818182,Speed,Off,On,0.000000,FALSE,0,Read: /home/lvuser/scripts/auto_00.bee,File good!,STOP_ALL,STOP_ALL
06:44:34.905 PM 03/23/2016,Autonomous Enabled,9,FALSE,0,NO ERROR,0.000000,0.000000,0.000000,0.000000,TRUE,FALSE,FALSE,FALSE,FALSE,FALSE,Disabled,0.000000,0.000000,0.000000,TRUE,-0.470032,0.871399,0.000000,0.049744,0.000000,0.000000,-0.031000,-0.001000,0.041000,0.040000,0.420000,1.120000,-0.081771,Hold,0.035400,0.000000,Hold,-227.000000,2.000000,Suck,-2152.500000,2181.818182,Speed,-2167.500000,2181.818182,Speed,Off,On,0.000000,FALSE,0,Read: /home/lvuser/scripts/auto_00.bee,File good!,STOP_ALL,STOP_ALL
06:44:35.005 PM 03/23/2016,Autonomous Enabled,10,FALSE,0,NO ERROR,0.000000,0.000000,0.000000,0.000000,TRUE,FALSE,FALSE,FALSE,FALSE,FALSE,Disabled,0.000000,0.000000,0.000000,TRUE,-0.470032,0.871399,0.000000,0.049744,0.000000,0.000000,0.021000,-0.001000,-0.030000,0.040000,0.350000,1.140000,-0.079843,Hold,0.035400,0.000000,Hold,-227.000000,2.000000,Suck,-2145.000000,2181.818182,Speed,-2167.500000,2181.818182,Speed,Off,On,0.000000,FALSE,0,Read: /home/lvuser/scripts/auto_00.bee,File good!,STOP_ALL,STOP_ALL
06:44:35.105 PM 03/23/2016,Autonomous Enabled,11,FALSE,0,NO ERROR,0.000000,0.000000,0.000000,0.000000,TRUE,FALSE,FALSE,FALSE,FALSE,FALSE,Disabled,0.000000,0.000000,0.000000,TRUE,-0.467987,0.871475,0.000000,0.023666,0.005951,0.000000,0.005000,0.010000,-0.005000,0.050000,0.090000,1.190000,-0.072097,Hold,0.035400,0.000000,Hold,-227.000000,2.000000,Suck,-2145.000000,2181.818182,Speed,-2175.000000,2181.818182,Speed,Off,On,0.000000,FALSE,0,Read: /home/lvuser/scripts/auto_00.bee,File good!,STOP_ALL,STOP_ALL
06:44:35.205 PM 03/23/2016,Autonomous Enabled,9,FALSE,0,NO ERROR,0.000000,0.000000,0.000000,0.000000,TRUE,FALSE,FALSE,FALSE,FALSE,FALSE,Disabled,0.000000,0.000000,0.000000,TRUE,-0.467407,0.871231,0.000000,0.020966,-0.013672,0.000000,0.009000,-0.001000,-0.118000,0.060000,0.070000,1.140000,-0.072097,Hold,0.035400,0.000000,Hold,-227.000000,2.000000,Suck,-2145.000000,2181.818182,Speed,-2167.500000,2181.818182,Speed,Off,On,0.000000,FALSE,0,Read: /home/lvuser/scripts/auto_00.bee,File good!,STOP_ALL,STOP_ALL
06:44:35.305 PM 03/23/2016,Autonomous Enabled,10,FALSE,0,NO ERROR,0.000000,0.000000,0.000000,0.000000,TRUE,FALSE,FALSE,FALSE,FALSE,FALSE,Disabled,0.000000,0.000000,0.000000,TRUE,-0.466782,0.869476,0.000000,-0.006393,-0.058884,0.000000,-0.103000,-0.060000,-0.031000,0.060000,-0.170000,1.190000,-0.076807,Hold,0.035400,0.000000,Hold,-227.000000,2.000000,Suck,-2145.000000,2181.818182,Speed,-2167.500000,2181.818182,Speed,Off,On,0.000000,FALSE,0,Read: /home/lvuser/scripts/auto_00.bee,File good!,STOP_ALL,STOP_ALL
06:44:35.405 PM 03/23/2016,Autonomous Enabled,10,FALSE,0,NO ERROR,0.000000,0.000000,0.000000,0.000000,TRUE,FALSE,FALSE,FALSE,FALSE,FALSE,Disabled,0.000000,0.000000,0.000000,TRUE,-0.469345,0.864807,0.000000,-0.070801,-0.117996,0.000000,-0.051000,-0.058000,0.032000,0.070000,-0.320000,1.220000,-0.077833,Hold,0.035400,0.000000,Hold,-227.000000,2.000000,Suck,-2152.500000,2181.818182,Speed,-2175.000000,2181.818182,Speed,Off,On,0.000000,FALSE,0,Read: /home/lvuser/scripts/auto_00.bee,File good!,STOP_ALL,STOP_ALL
06:44:35.504 PM 03/23/2016,Autonomous Enabled,11,FALSE,0,NO ERROR,0.000000,0.000000,0.000000,0.000000,TRUE,FALSE,FALSE,FALSE,FALSE,FALSE,Disabled,0.000000,0.000000,0.000000,TRUE,-0.473953,0.857758,0.000000,-0.095764,-0.155350,0.000000,-0.070000,-0.009000,0.005000,0.060000,-0.360000,1.270000,-0.076411,Hold,0.035400,0.000000,Hold,-227.000000,2.000000,Suck,-2145.000000,2181.818182,Speed,-2175.000000,2181.818182,Speed,Off,On,0.000000,FALSE,0,Read: /home/lvuser/scripts/auto_00.bee,File good!,STOP_ALL,STOP_ALL
06:44:35.605 PM 03/23/2016,Autonomous Enabled,10,FALSE,0,NO ERROR,0.000000,0.000000,0.000000,0.000000,TRUE,FALSE,FALSE,FALSE,FALSE,FALSE,Disabled,0.000000,0.000000,0.000000,TRUE,-0.479141,0.848938,0.000000,-0.103531,-0.200073,0.000000,0.007000,-0.040000,0.191000,0.060000,-0.370000,1.300000,-0.082546,Hold,0.035400,0.000000,Hold,-227.000000,2.000000,Suck,-2145.000000,2181.818182,Speed,-2167.500000,2181.818182,Speed,Off,On,0.000000,FALSE,0,Read: /home/lvuser/scripts/auto_00.bee,File good!,STOP_ALL,STOP_ALL
06:44:35.705 PM 03/23/2016,Autonomous Enabled,9,FALSE,0,NO ERROR,0.000000,0.000000,0.000000,0.000000,TRUE,FALSE,FALSE,FALSE,FALSE,FALSE,Disabled,0.000000,0.000000,0.000000,TRUE,-0.480347,0.837189,0.000000,0.001968,-0.265091,0.000000,0.067000,-0.108000,0.148000,0.070000,-0.410000,1.300000,-0.076549,Hold,0.035400,0.000000,Hold,-227.000000,2.000000,Suck,-2145.000000,2181.818182,Speed,-2160.000000,2181.818182,Speed,Off,On,0.000000,FALSE,0,Read: /home/lvuser/scripts/auto_00.bee,File good!,STOP_ALL,STOP_ALL
06:44:35.805 PM 03/23/2016,Autonomous Enabled,9,FALSE,0,NO ERROR,0.000000,0.000000,0.000000,0.000000,TRUE,FALSE,FALSE,FALSE,FALSE,FALSE,Disabled,0.000000,0.000000,0.000000,TRUE,-0.478195,0.824905,0.000000,0.074493,0.000000,0.000000,0.058000,-0.061000,0.181000,0.060000,-0.160000,1.300000,-0.073413,Hold,0.035400,0.000000,Hold,-227.000000,2.000000,Suck,-2152.500000,2181.818182,Speed,-2160.000000,2181.818182,Speed,Off,On,0.000000,FALSE,0,Read: /home/lvuser/scripts/auto_00.bee,File good!,STOP_ALL,STOP_ALL
06:44:35.905 PM 03/23/2016,Autonomous Enabled,10,FALSE,0,NO ERROR,0.000000,0.000000,0.000000,0.000000,TRUE,FALSE,FALSE,FALSE,FALSE,FALSE,Disabled,0.000000,0.000000,0.000000,TRUE,-0.470764,0.822937,0.000000,0.148178,-0.060532,0.000000,0.006000,-0.079000,0.160000,0.060000,0.040000,1.300000,-0.084346,Hold,0.035400,0.000000,Hold,-227.000000,2.000000,Suck,-2145.000000,2181.818182,Speed,-2152.500000,2181.818182,Speed,Off,On,0.000000,FALSE,0,Read: /home/lvuser/scripts/auto_00.bee,File good!,STOP_ALL,STOP_ALL
06:44:36.006 PM 03/23/2016,Autonomous Enabled,9,FALSE,0,NO ERROR,0.000000,0.000000,0.000000,0.000000,TRUE,FALSE,FALSE,FALSE,FALSE,FALSE,Disabled,0.000000,0.000000,0.000000,TRUE,-0.464386,0.817917,0.000000,0.101456,-0.125305,0.000000,-0.073000,-0.057000,0.141000,0.070000,-0.050000,1.340000,-0.077506,Hold,0.035400,0.000000,Hold,-227.000000,2.000000,Suck,-2145.000000,2181.818182,Speed,-2152.500000,2181.818182,Speed,Off,On,0.000000,FALSE,0,Read: /home/lvuser/scripts/auto_00.bee,File good!,STOP_ALL,STOP_ALL
06:44:36.106 PM 03/23/2016,Autonomous Enabled,9,FALSE,0,NO ERROR,0.000000,0.000000,0.000000,0.000000,TRUE,FALSE,FALSE,FALSE,FALSE,FALSE,Disabled,0.000000,0.000000,0.000000,TRUE,-0.459503,0.810501,0.000000,0.109329,-0.169052,0.000000,0.018000,-0.017000,0.104000,0.070000,-0.140000,1.350000,-0.075877,Hold,0.035400,0.000000,Hold,-227.000000,2.000000,Suck,-2145.000000,2181.818182,Speed,-2160.000000,2181.818182,Speed,Off,On,0.000000,FALSE,0,Read: /home/lvuser/scripts/auto_00.bee,File good!,STOP_ALL,STOP_ALL
06:44:36.206 PM 03/23/2016,Autonomous Enabled,10,FALSE,0,NO ERROR,0.000000,0.000000,0.000000,0.000000,TRUE,FALSE,FALSE,FALSE,FALSE,FALSE,Disabled,0.000000,0.000000,0.000000,TRUE,-0.458420,0.800583,0.000000,0.039642,-0.223572,0.000000,-0.024000,-0.062000,0.052000,0.070000,-0.010000,1.320000,-0.079458,Hold,0.035400,0.000000,Hold,-227.000000,2.000000,Suck,-2145.000000,2181.818182,Speed,-2160.000000,2181.818182,Speed,Off,On,0.000000,FALSE,0,Read: /home/lvuser/scripts/auto_00.bee,File good!,STOP_ALL,STOP_ALL
06:44:36.306 PM 03/23/2016,Autonomous Enabled,10,FALSE,0,NO ERROR,0.000000,0.000000,0.000000,0.000000,TRUE,FALSE,FALSE,FALSE,FALSE,FALSE,Disabled,0.000000,0.000000,0.000000,TRUE,-0.455811,0.787766,0.000000,0.073044,-0.277847,0.000000,0.085000,-0.080000,-0.021000,0.070000,0.180000,1.280000,-0.076352,Hold,0.035400,0.000000,Hold,-227.000000,2.000000,Suck,-2145.000000,2181.818182,Speed,-2152.500000,2181.818182,Speed,Off,On,0.000000,FALSE,0,Read: /home/lvuser/scripts/auto_00.bee,File good!,STOP_ALL,STOP_ALL
06:44:36.406 PM 03/23/2016,Autonomous Enabled,10,FALSE,0,NO ERROR,0.000000,0.000000,0.000000,0.000000,TRUE,FALSE,FALSE,FALSE,FALSE,FALSE,Disabled,0.000000,0.000000,0.000000,TRUE,-0.450180,0.771667,0.000000,0.137466,-0.343170,0.000000,0.077000,-0.057000,-0.103000,0.070000,0.250000,1.320000,-0.077633,Hold,0.035400,0.000000,Hold,-227.000000,2.000000,Suck,-2145.000000,2181.818182,Speed,-2167.500000,2181.818182,Speed,Off,On,0.000000,FALSE,0,Read: /home/lvuser/scripts/auto_00.bee,File good!,STOP_ALL,STOP_ALL
06:44:36.506 PM 03/23/2016,Autonomous Enabled,10,FALSE,0,NO ERROR,0.000000,0.000000,0.000000,0.000000,TRUE,FALSE,FALSE,FALSE,FALSE,FALSE,Disabled,0.000000,0.000000,0.000000,TRUE,-0.441818,0.752609,0.000000,0.189514,-0.412628,0.000000,0.028000,-0.079000,-0.093000,0.070000,0.050000,1.310000,-0.090863,Hold,0.035400,0.000000,Hold,-227.000000,2.000000,Suck,-2145.000000,2181.818182,Speed,-2175.000000,2181.818182,Speed,Off,On,0.000000,FALSE,0,Read: /home/lvuser/scripts/auto_00.bee,File good!,STOP_ALL,STOP_ALL
06:44:36.606 PM 03/23/2016,Autonomous Enabled,9,FALSE,0,NO ERROR,0.000000,0.000000,0.000000,0.000000,TRUE,FALSE,FALSE,FALSE,FALSE,FALSE,Disabled,0.000000,0.000000,0.000000,TRUE,-0.427414,0.727081,0.000000,0.273514,-0.420547,0.000000,0.021000,0.037000,-0.126000,0.070000,0.030000,1.310000,-0.096498,Hold,0.035400,0.000000,Hold,-227.000000,2.000000,Suck,-2152.500000,2181.818182,Speed,-2160.000000,2181.818182,Speed,Off,On,0.000000,FALSE,0,Read: /home/lvuser/scripts/auto_00.bee,File good!,STOP_ALL,STOP_ALL
06:44:36.705 PM 03/23/2016,Autonomous Enabled,11,FALSE,0,NO ERROR,0.000000,0.000000,0.000000,0.000000,TRUE,FALSE,FALSE,FALSE,FALSE,FALSE,Disabled,0.000000,0.000000,0.000000,TRUE,-0.411743,0.704422,0.000000,0.229507,-0.349762,0.000000,-0.041000,0.064000,0.003000,0.080000,-0.100000,1.370000,-0.089586,Hold,0.035400,0.000000,Hold,-227.000000,2.000000,Suck,-2152.500000,2181.818182,Speed,-2160.000000,2181.818182,Speed,Off,On,0.000000,FALSE,0,Read: /home/lvuser/scripts/auto_00.bee,File good!,STOP_ALL,STOP_ALL
06:44:36.806 PM 03/23/2016,Autonomous Enabled,9,FALSE,0,NO ERROR,0.000000,0.000000,0.000000,0.000000,TRUE,FALSE,FALSE,FALSE,FALSE,FALSE,Disabled,0.000000,0.000000,0.000000,TRUE,-0.402908,0.691803,0.000000,0.217697,-0.285416,0.000000,0.022000,0.150000,-0.099000,0.080000,-0.020000,1.320000,-0.112830,Hold,0.035400,0.000000,Hold,-227.000000,2.000000,Suck,-2145.000000,2181.818182,Speed,-2167.500000,2181.818182,Speed,Off,On,0.000000,FALSE,0,Read: /home/lvuser/scripts/auto_00.bee,File good!,STOP_ALL,STOP_ALL
06:44:36.906 PM 03/23/2016,Autonomous Enabled,9,FALSE,0,NO ERROR,0.000000,0.000000,0.000000,0.000000,TRUE,FALSE,FALSE,FALSE,FALSE,FALSE,Disabled,0.000000,0.000000,0.000000,TRUE,-0.394257,0.680969,0.000000,0.000000,-0.178894,0.000000,-0.011000,0.074000,-0.010000,0.070000,0.140000,1.310000,-0.108055,Hold,0.035400,0.000000,Hold,-227.000000,2.000000,Suck,-2145.000000,2181.818182,Speed,-2167.500000,2181.818182,Speed,Off,On,0.000000,FALSE,0,Read: /home/lvuser/scripts/auto_00.bee,File good!,STOP_ALL,STOP_ALL
06:44:37.006 PM 03/23/2016,Autonomous Enabled,9,FALSE,0,NO ERROR,0.000000,0.000000,0.000000,0.000000,TRUE,FALSE,FALSE,FALSE,FALSE,FALSE,Disabled,0.000000,0.000000,0.000000,TRUE,-0.394287,0.674988,0.000000,0.007492,-0.077423,0.000000,-0.012000,0.068000,-0.106000,0.070000,0.190000,1.300000,-0.094781,Hold,0.035400,0.000000,Hold,-227.000000,2.000000,Suck,-2152.500000,2181.818182,Speed,-2160.000000,2181.818182,Speed,Off,On,0.000000,FALSE,0,Read: /home/lvuser/scripts/auto_00.bee,File good!,STOP_ALL,STOP_ALL
06:44:37.106 PM 03/23/2016,Autonomous Enabled,9,FALSE,0,NO ERROR,0.000000,0.000000,0.000000,0.000000,TRUE,FALSE,FALSE,FALSE,FALSE,FALSE,Disabled,0.000000,0.000000,0.000000,TRUE,-0.393036,0.673233,0.000000,0.024612,-0.012039,0.000000,-0.010000,0.023000,0.014000,0.070000,0.150000,1.300000,-0.098591,Hold,0.035400,0.000000,Hold,-227.000000,2.000000,Suck,-2145.000000,2181.818182,Speed,-2167.500000,2181.818182,Speed,Off,On,0.000000,FALSE,0,Read: /home/lvuser/scripts/auto_00.bee,File good!,STOP_ALL,STOP_ALL
06:44:37.206 PM 03/23/2016,Autonomous Enabled,9,FALSE,0,NO ERROR,0.000000,0.000000,0.000000,0.000000,TRUE,FALSE,FALSE,FALSE,FALSE,FALSE,Disabled,0.000000,0.000000,0.000000,TRUE,-0.392883,0.675613,0.000000,-0.019958,0.098907,0.000000,-0.074000,0.142000,0.063000,0.070000,0.310000,1.290000,-0.085668,Hold,0.035400,0.000000,Hold,-227.000000,2.000000,Suck,-2145.000000,2181.818182,Speed,-2167.500000,2181.818182,Speed,Off,On,0.000000,FALSE,0,Read: /home/lvuser/scripts/auto_00.bee,File good!,STOP_ALL,STOP_ALL
06:44:37.306 PM 03/23/2016,Autonomous Enabled,9,FALSE,0,NO ERROR,0.000000,0.000000,0.000000,0.000000,TRUE,FALSE,FALSE,FALSE,FALSE,FALSE,Disabled,0.000000,0.000000,0.000000,TRUE,-0.396957,0.683563,0.000000,-0.139664,0.188522,0.000000,-0.151000,0.037000,-0.004000,0.070000,0.190000,1.320000,-0.079523,Hold,0.035400,0.000000,Hold,-227.000000,2.000000,Suck,-2145.000000,2181.818182,Speed,-2175.000000,2181.818182,Speed,Off,On,0.000000,FALSE,0,Read: /home/lvuser/scripts/auto_00.bee,File good!,STOP_ALL,STOP_ALL
06:44:37.407 PM 03/23/2016,Autonomous Disabled,10,FALSE,0,NO ERROR,0.000000,0.000000,0.000000,0.000000,TRUE,FALSE,FALSE,FALSE,FALSE,FALSE,Disabled,0.000000,0.000000,0.000000,TRUE,-0.409454,0.695847,0.000000,-0.321976,0.296509,0.000000,-0.115000,0.120000,0.120000,0.080000,-0.110000,1.340000,-0.079237,Hold,0.035400,0.000000,Hold,-227.000000,2.000000,Suck,-2152.500000,2181.818182,Speed,-2167.500000,2181.818182,Speed,Off,On,0.000000,FALSE,0,Read: /home/lvuser/scripts/auto_00.bee,File good!,STOP_ALL,STOP_ALL
06:44:37.507 PM 03/23/2016,Autonomous Disabled,10,FALSE,0,NO ERROR,0.000000,0.000000,0.000000,0.000000,TRUE,FALSE,FALSE,FALSE,FALSE,FALSE,Disabled,0.000000,0.000000,0.000000,TRUE,-0.424072,0.709869,0.000000,-0.385849,0.370361,0.000000,-0.027000,0.006000,-0.055000,0.080000,-0.250000,1.300000,-0.073357,Hold,0.035400,0.000000,Hold,-9135.000000,2.000000,Suck,-2062.500000,2181.818182,Speed,-2085.000000,2181.818182,Speed,Off,On,0.000000,FALSE,0,Read: /home/lvuser/scripts/auto_00.bee,File good!,STOP_ALL,STOP_ALL
06:44:37.607 PM 03/23/2016,Autonomous Disabled,9,FALSE,0,NO ERROR,0.000000,0.000000,0.000000,0.000000,TRUE,FALSE,FALSE,FALSE,FALSE,FALSE,Disabled,0.000000,0.000000,0.000000,TRUE,-0.443527,0.727844,0.000000,-0.393265,0.355621,0.000000,0.096000,-0.030000,-0.007000,0.080000,-0.210000,1.240000,-0.071636,Hold,0.035400,0.000000,Hold,-18985.000000,2.000000,Suck,-1875.000000,2181.818182,Speed,-1905.000000,2181.818182,Speed,Off,On,0.000000,FALSE,0,Read: /home/lvuser/scripts/auto_00.bee,File good!,STOP_ALL,STOP_ALL
06:44:37.707 PM 03/23/2016,Autonomous Disabled,9,FALSE,0,NO ERROR,0.000000,0.000000,0.000000,0.000000,TRUE,FALSE,FALSE,FALSE,FALSE,FALSE,Disabled,0.000000,0.000000,0.000000,TRUE,-0.462219,0.745758,0.000000,-0.374268,0.369812,0.000000,0.027000,-0.001000,0.059000,0.080000,-0.110000,1.270000,-0.066132,Hold,0.035400,0.000000,Hold,-18985.000000,2.000000,Suck,-1687.500000,2181.818182,Speed,-1905.000000,2181.818182,Speed,Off,On,0.000000,FALSE,0,Read: /home/lvuser/scripts/auto_00.bee,File good!,STOP_ALL,STOP_ALL
06:44:37.807 PM 03/23/2016,Autonomous Disabled,9,FALSE,0,NO ERROR,0.000000,0.000000,0.000000,0.000000,TRUE,FALSE,FALSE,FALSE,FALSE,FALSE,Disabled,0.000000,0.000000,0.000000,TRUE,-0.473236,0.752945,0.000000,0.004456,-0.016846,0.000000,0.005000,0.038000,0.024000,0.070000,-0.070000,1.250000,-0.055835,Hold,0.035400,0.000000,Hold,-18985.000000,2.000000,Suck,-1507.500000,2181.818182,Speed,-1552.500000,2181.818182,Speed,Off,On,0.000000,FALSE,0,Read: /home/lvuser/scripts/auto_00.bee,File good!,STOP_ALL,STOP_ALL
06:44:37.907 PM 03/23/2016,Autonomous Disabled,10,FALSE,0,NO ERROR,0.000000,0.000000,0.000000,0.000000,TRUE,FALSE,FALSE,FALSE,FALSE,FALSE,Disabled,0.000000,0.000000,0.000000,TRUE,-0.472305,0.752350,0.000000,0.024231,-0.015335,0.000000,0.092000,-0.047000,0.034000,0.060000,-0.070000,1.250000,-0.057518,Hold,0.035400,0.000000,Hold,-23953.000000,2.000000,Suck,-1335.000000,2181.818182,Speed,-1552.500000,2181.818182,Speed,Off,On,0.000000,FALSE,0,Read: /home/lvuser/scripts/auto_00.bee,File good!,STOP_ALL,STOP_ALL
06:44:38.007 PM 03/23/2016,Autonomous Disabled,9,FALSE,0,NO ERROR,0.000000,0.000000,0.000000,0.000000,TRUE,FALSE,FALSE,FALSE,FALSE,FALSE,Disabled,0.000000,0.000000,0.000000,TRUE,-0.471039,0.751953,0.000000,0.032516,-0.009430,0.000000,-0.002000,0.027000,0.014000,0.030000,0.000000,1.320000,-0.030308,Hold,0.035400,0.000000,Hold,-24642.000000,2.000000,Suck,-1335.000000,2181.818182,Speed,-1387.500000,2181.818182,Speed,Off,On,0.000000,FALSE,0,Read: /home/lvuser/scripts/auto_00.bee,File good!,STOP_ALL,STOP_ALL
06:44:38.107 PM 03/23/2016,Autonomous Disabled,9,FALSE,0,NO ERROR,0.000000,0.000000,0.000000,0.000000,TRUE,FALSE,FALSE,FALSE,FALSE,FALSE,Disabled,0.000000,0.000000,0.000000,TRUE,-0.470108,0.751907,0.000000,0.000000,-0.004593,0.000000,-0.017000,-0.078000,-0.007000,0.030000,-0.030000,1.310000,-0.021716,Hold,0.035400,0.000000,Hold,-24642.000000,2.000000,Suck,-1162.500000,2181.818182,Speed,-1230.000000,2181.818182,Speed,Off,On,0.000000,FALSE,0,Read: /home/lvuser/scripts/auto_00.bee,File good!,STOP_ALL,STOP_ALL
06:44:38.209 PM 03/23/2016,Autonomous Disabled,10,FALSE,0,NO ERROR,0.000000,0.000000,0.000000,0.000000,TRUE,FALSE,FALSE,FALSE,FALSE,FALSE,Disabled,0.000000,0.000000,0.000000,TRUE,-0.469391,0.751556,0.000000,0.024200,-0.000244,0.000000,-0.026000,0.014000,0.011000,0.040000,0.000000,1.290000,-0.025100,Hold,0.035400,0.000000,Hold,-24642.000000,2.000000,Suck,-1027.500000,2181.818182,Speed,-1080.000000,2181.818182,Speed,Off,On,0.000000,FALSE,0,Read: /home/lvuser/scripts/auto_00.bee,File good!,STOP_ALL,STOP_ALL
06:44:38.310 PM 03/23/2016,Autonomous Disabled,10,FALSE,0,NO ERROR,0.000000,0.000000,0.000000,0.000000,TRUE,FALSE,FALSE,FALSE,FALSE,FALSE,Disabled,0.000000,0.000000,0.000000,TRUE,-0.467712,0.751907,0.000000,0.043884,0.003372,0.000000,0.041000,-0.021000,-0.001000,0.030000,0.030000,1.300000,-0.036608,Hold,0.035400,0.000000,Hold,-24642.000000,2.000000,Suck,-870.000000,2181.818182,Speed,-930.000000,2181.818182,Speed,Off,On,0.000000,FALSE,0,Read: /home/lvuser/scripts/auto_00.bee,File good!,STOP_ALL,STOP_ALL
06:44:38.411 PM 03/23/2016,Autonomous Disabled,10,FALSE,0,NO ERROR,0.000000,0.000000,0.000000,0.000000,TRUE,FALSE,FALSE,FALSE,FALSE,FALSE,Disabled,0.000000,0.000000,0.000000,TRUE,-0.466095,0.752045,0.000000,0.023773,0.002548,0.000000,0.015000,0.004000,0.019000,0.030000,-0.010000,1.310000,-0.042471,Hold,0.035400,0.000000,Hold,-24642.000000,2.000000,Suck,-712.500000,2181.818182,Speed,-817.500000,2181.818182,Speed,Off,On,0.000000,FALSE,0,Read: /home/lvuser/scripts/auto_00.bee,File good!,STOP_ALL,STOP_ALL
06:44:38.514 PM 03/23/2016,Autonomous Disabled,11,FALSE,0,NO ERROR,0.000000,0.000000,0.000000,0.000000,TRUE,FALSE,FALSE,FALSE,FALSE,FALSE,Disabled,0.000000,0.000000,0.000000,TRUE,-0.465515,0.752045,0.000000,0.016251,0.000000,0.000000,-0.007000,-0.016000,-0.027000,0.030000,0.050000,1.270000,-0.041910,Hold,0.035400,0.000000,Hold,-24642.000000,2.000000,Suck,-562.500000,2181.818182,Speed,-682.500000,2181.818182,Speed,Off,On,0.000000,FALSE,0,Read: /home/lvuser/scripts/auto_00.bee,File good!,STOP_ALL,STOP_ALL
06:44:38.614 PM 03/23/2016,Autonomous Disabled,11,FALSE,0,NO ERROR,0.000000,0.000000,0.000000,0.000000,TRUE,FALSE,FALSE,FALSE,FALSE,FALSE,Disabled,0.000000,0.000000,0.000000,TRUE,-0.465286,0.752243,0.000000,0.000183,0.000000,0.000000,0.000000,-0.009000,0.037000,0.030000,0.070000,1.260000,-0.034167,Hold,0.035400,0.000000,Hold,-24642.000000,2.000000,Suck,-420.000000,2181.818182,Speed,-547.500000,2181.818182,Speed,Off,On,0.000000,FALSE,0,Read: /home/lvuser/scripts/auto_00.bee,File good!,STOP_ALL,STOP_ALL
06:44:38.715 PM 03/23/2016,Autonomous Disabled,10,FALSE,0,NO ERROR,0.000000,0.000000,0.000000,0.000000,TRUE,FALSE,FALSE,FALSE,FALSE,FALSE,Disabled,0.000000,0.000000,0.000000,TRUE,-0.465286,0.752243,0.000000,0.000000,0.000000,0.000000,0.013000,-0.008000,-0.003000,0.020000,0.080000,1.270000,-0.023998,Hold,0.035400,0.000000,Hold,-24642.000000,2.000000,Suck,-255.000000,2181.818182,Speed,-427.500000,2181.818182,Speed,Off,On,0.000000,FALSE,0,Read: /home/lvuser/scripts/auto_00.bee,File good!,STOP_ALL,STOP_ALL
06:44:38.816 PM 03/23/2016,Autonomous Disabled,10,FALSE,0,NO ERROR,0.000000,0.000000,0.000000,0.000000,TRUE,FALSE,FALSE,FALSE,FALSE,FALSE,Disabled,0.000000,0.000000,0.000000,TRUE,-0.465286,0.752243,0.000000,0.000000,0.000000,0.000000,0.000000,0.000000,0.028000,0.020000,0.080000,1.260000,-0.033169,Hold,0.035400,0.000000,Hold,-24642.000000,2.000000,Suck,-150.000000,2181.818182,Speed,-322.500000,2181.818182,Speed,Off,On,0.000000,FALSE,0,Read: /home/lvuser/scripts/auto_00.bee,File good!,STOP_ALL,STOP_ALL
06:44:38.921 PM 03/23/2016,Autonomous Disabled,10,FALSE,0,NO ERROR,0.000000,0.000000,0.000000,0.000000,TRUE,FALSE,FALSE,FALSE,FALSE,FALSE,Disabled,0.000000,0.000000,0.000000,TRUE,-0.465286,0.752243,0.000000,0.000000,0.000000,0.000000,0.007000,-0.021000,0.011000,0.020000,0.080000,1.260000,-0.042936,Hold,0.035400,0.000000,Hold,-24642.000000,2.000000,Suck,-37.500000,2181.818182,Speed,-247.500000,2181.818182,Speed,Off,On,0.000000,FALSE,0,Read: /home/lvuser/scripts/auto_00.bee,File good!,STOP_ALL,STOP_ALL
06:44:39.020 PM 03/23/2016,Autonomous Disabled,11,FALSE,0,NO ERROR,0.000000,0.000000,0.000000,0.000000,TRUE,FALSE,FALSE,FALSE,FALSE,FALSE,Disabled,0.000000,0.000000,0.000000,TRUE,-0.465286,0.752136,0.000000,0.000000,0.000000,0.000000,0.000000,-0.002000,0.008000,0.020000,0.090000,1.260000,-0.051273,Hold,0.035400,0.000000,Hold,-24642.000000,2.000000,Suck,0.000000,2181.818182,Speed,-150.000000,2181.818182,Speed,Off,On,0.000000,FALSE,0,Read: /home/lvuser/scripts/auto_00.bee,File good!,STOP_ALL,STOP_ALL
06:44:39.122 PM 03/23/2016,Autonomous Disabled,9,FALSE,0,NO ERROR,0.000000,0.000000,0.000000,0.000000,TRUE,FALSE,FALSE,FALSE,FALSE,FALSE,Disabled,0.000000,0.000000,0.000000,TRUE,-0.465286,0.752136,0.000000,0.000000,0.000000,0.000000,0.001000,-0.001000,0.014000,0.010000,0.100000,1.260000,-0.043232,Hold,0.035400,0.000000,Hold,-24642.000000,2.000000,Suck,0.000000,2181.818182,Speed,-75.000000,2181.818182,Speed,Off,On,0.000000,FALSE,0,Read: /home/lvuser/scripts/auto_00.bee,File good!,STOP_ALL,STOP_ALL
06:44:39.223 PM 03/23/2016,Autonomous Disabled,10,FALSE,0,NO ERROR,0.000000,0.000000,0.000000,0.000000,TRUE,FALSE,FALSE,FALSE,FALSE,FALSE,Disabled,0.000000,0.000000,0.000000,TRUE,-0.465286,0.752136,0.000000,0.000000,0.000000,0.000000,0.000000,-0.001000,0.020000,0.010000,0.100000,1.270000,-0.034126,Hold,0.035400,0.000000,Hold,-24642.000000,2.000000,Suck,0.000000,2181.818182,Speed,-15.000000,2181.818182,Speed,Off,On,0.000000,FALSE,0,Read: /home/lvuser/scripts/auto_00.bee,File good!,STOP_ALL,STOP_ALL
06:44:39.323 PM 03/23/2016,Autonomous Disabled,8,FALSE,0,NO ERROR,0.000000,0.000000,0.000000,0.000000,TRUE,TRUE,FALSE,FALSE,FALSE,FALSE,Disabled,0.000000,0.000000,0.000000,TRUE,-0.465286,0.752136,0.000000,0.000000,0.000000,0.000000,0.002000,-0.001000,0.018000,0.010000,0.100000,1.270000,-0.015251,Hold,0.035400,0.000000,Hold,-24642.000000,2.000000,Suck,0.000000,2181.818182,Speed,0.000000,2181.818182,Speed,Off,On,0.000000,FALSE,0,Read: /home/lvuser/scripts/auto_00.bee,File good!,STOP_ALL,STOP_ALL
06:44:39.424 PM 03/23/2016,Autonomous Disabled,10,FALSE,0,NO ERROR,0.000000,0.000000,0.000000,0.000000,TRUE,TRUE,FALSE,FALSE,FALSE,FALSE,Disabled,0.000000,0.000000,0.000000,TRUE,-0.465286,0.752136,0.000000,0.000000,0.000000,0.000000,0.001000,0.002000,0.012000,0.000000,0.110000,1.270000,-0.017199,Hold,0.035400,0.000000,Hold,-24642.000000,2.000000,Suck,0.000000,0.000000,Speed,0.000000,0.000000,Speed,Off,On,0.000000,FALSE,0,Read: /home/lvuser/scripts/auto_00.bee,File good!,STOP_ALL,STOP_ALL
06:44:39.524 PM 03/23/2016,Teleop Disabled,10,FALSE,0,NO ERROR,0.000000,0.000000,0.000000,0.000000,TRUE,FALSE,FALSE,FALSE,FALSE,FALSE,Disabled,0.000000,0.000000,0.000000,TRUE,-0.465286,0.752136,0.000000,0.000000,0.000000,0.000000,0.002000,0.002000,0.012000,0.000000,0.120000,1.270000,-0.006661,Hold,0.035400,0.000000,Hold,-24642.000000,2.000000,Suck,0.000000,0.000000,Speed,0.000000,0.000000,Speed,Off,On,0.000000,FALSE,0,Read: /home/lvuser/scripts/auto_00.bee,File good!,STOP_ALL,STOP_ALL
06:44:39.624 PM 03/23/2016,Teleop Disabled,9,FALSE,0,NO ERROR,0.000000,0.000000,0.000000,0.000000,TRUE,FALSE,FALSE,FALSE,FALSE,FALSE,Disabled,0.000000,0.000000,0.000000,TRUE,-0.465286,0.752136,0.000000,0.000000,0.000000,0.000000,0.002000,0.000000,0.010000,0.000000,0.130000,1.270000,-0.009687,Hold,0.035400,0.000000,Hold,-24642.000000,2.000000,Suck,0.000000,2181.818182,Speed,0.000000,2181.818182,Speed,Off,On,0.000000,FALSE,0,Read: /home/lvuser/scripts/auto_00.bee,File good!,STOP_ALL,STOP_ALL
06:44:39.724 PM 03/23/2016,Teleop Disabled,9,FALSE,0,NO ERROR,0.000000,0.000000,0.000000,0.000000,TRUE,FALSE,FALSE,FALSE,FALSE,FALSE,Disabled,0.000000,0.000000,0.000000,TRUE,-0.465286,0.752136,0.000000,0.000000,0.000000,0.000000,0.002000,0.000000,0.011000,0.000000,0.130000,1.270000,-0.014221,Hold,0.035400,0.000000,Hold,-24642.000000,2.000000,Suck,0.000000,2181.818182,Speed,0.000000,2181.818182,Speed,Off,On,0.000000,FALSE,0,Read: /home/lvuser/scripts/auto_00.bee,File good!,STOP_ALL,STOP_ALL
06:44:39.824 PM 03/23/2016,Teleop Disabled,9,FALSE,0,NO ERROR,0.000000,0.000000,0.000000,0.000000,TRUE,FALSE,FALSE,FALSE,FALSE,FALSE,Disabled,0.000000,0.000000,0.000000,TRUE,-0.465286,0.752136,0.000000,0.000000,0.000000,0.000000,0.000000,0.000000,0.016000,0.000000,0.130000,1.270000,-0.008827,Hold,0.035400,0.000000,Hold,-24642.000000,2.000000,Suck,0.000000,2181.818182,Speed,0.000000,2181.818182,Speed,Off,On,0.000000,FALSE,0,Read: /home/lvuser/scripts/auto_00.bee,File good!,STOP_ALL,STOP_ALL
06:44:39.924 PM 03/23/2016,Teleop Disabled,10,FALSE,0,NO ERROR,0.000000,0.000000,0.000000,0.000000,TRUE,FALSE,FALSE,FALSE,FALSE,FALSE,Disabled,0.000000,0.000000,0.000000,TRUE,-0.465286,0.752136,0.000000,0.000000,0.000000,0.000000,0.001000,-0.002000,0.014000,-0.010000,0.130000,1.270000,-0.006796,Hold,0.035400,0.000000,Hold,-24642.000000,2.000000,Suck,0.000000,2181.818182,Speed,0.000000,2181.818182,Speed,Off,On,0.000000,FALSE,0,Read: /home/lvuser/scripts/auto_00.bee,File good!,STOP_ALL,STOP_ALL
06:44:40.024 PM 03/23/2016,Teleop Disabled,10,FALSE,0,NO ERROR,0.000000,0.000000,0.000000,0.000000,TRUE,FALSE,FALSE,FALSE,FALSE,FALSE,Disabled,0.000000,0.000000,0.000000,TRUE,-0.465286,0.752136,0.000000,0.000000,0.000000,0.000000,0.000000,0.000000,0.016000,-0.010000,0.130000,1.270000,-0.010496,Hold,0.035400,0.000000,Hold,-24642.000000,2.000000,Suck,0.000000,2181.818182,Speed,0.000000,2181.818182,Speed,Off,On,0.000000,FALSE,0,Read: /home/lvuser/scripts/auto_00.bee,File good!,STOP_ALL,STOP_ALL
06:44:40.123 PM 03/23/2016,Teleop Disabled,10,FALSE,0,NO ERROR,0.000000,0.000000,0.000000,0.000000,TRUE,TRUE,FALSE,FALSE,FALSE,FALSE,Disabled,0.000000,0.000000,0.000000,TRUE,-0.465286,0.752136,0.000000,0.000000,0.000000,0.000000,0.002000,-0.002000,0.020000,-0.010000,0.130000,1.270000,-0.005388,Hold,0.035400,0.000000,Hold,-24642.000000,2.000000,Suck,0.000000,2181.818182,Speed,0.000000,2181.818182,Speed,Off,On,0.000000,FALSE,0,Read: /home/lvuser/scripts/auto_00.bee,File good!,STOP_ALL,STOP_ALL
06:44:40.224 PM 03/23/2016,Teleop Disabled,9,FALSE,0,NO ERROR,0.000000,0.000000,0.000000,0.000000,TRUE,TRUE,FALSE,FALSE,FALSE,FALSE,Disabled,0.000000,0.000000,0.000000,TRUE,-0.465286,0.752136,0.000000,0.000000,0.000000,0.000000,-0.001000,-0.001000,0.015000,-0.020000,0.130000,1.270000,-0.013323,Hold,0.035400,0.000000,Hold,-24642.000000,2.000000,Suck,0.000000,0.000000,Speed,0.000000,0.000000,Speed,Off,On,0.000000,FALSE,0,Read: /home/lvuser/scripts/auto_00.bee,File good!,STOP_ALL,STOP_ALL
06:44:40.324 PM 03/23/2016,Teleop Disabled,9,FALSE,0,NO ERROR,0.000000,0.000000,0.000000,0.000000,TRUE,FALSE,FALSE,FALSE,FALSE,FALSE,Disabled,0.000000,0.000000,0.000000,TRUE,-0.465286,0.752136,0.000000,0.000000,0.000000,0.000000,0.000000,-0.001000,0.013000,-0.020000,0.130000,1.270000,-0.018201,Hold,0.035400,0.000000,Hold,-24642.000000,2.000000,Suck,0.000000,0.000000,Speed,0.000000,0.000000,Speed,Off,On,0.000000,FALSE,0,Read: /home/lvuser/scripts/auto_00.bee,File good!,STOP_ALL,STOP_ALL
06:44:40.424 PM 03/23/2016,Teleop Disabled,10,FALSE,0,NO ERROR,0.000000,0.000000,0.000000,0.000000,TRUE,FALSE,FALSE,FALSE,FALSE,FALSE,Disabled,0.000000,0.000000,0.000000,TRUE,-0.465286,0.752136,0.000000,0.000000,0.000000,0.000000,0.000000,0.000000,0.013000,-0.020000,0.130000,1.270000,-0.012121,Hold,0.035400,0.000000,Hold,-24642.000000,2.000000,Suck,0.000000,2181.818182,Speed,0.000000,2181.818182,Speed,Off,On,0.000000,FALSE,0,Read: /home/lvuser/scripts/auto_00.bee,File good!,STOP_ALL,STOP_ALL
06:44:40.524 PM 03/23/2016,Teleop Disabled,9,FALSE,0,NO ERROR,0.000000,0.000000,0.000000,0.000000,TRUE,FALSE,FALSE,FALSE,FALSE,FALSE,Disabled,0.000000,0.000000,0.000000,TRUE,-0.465286,0.752136,0.000000,0.000000,0.000000,0.000000,0.001000,0.000000,0.015000,-0.020000,0.140000,1.270000,-0.003167,Hold,0.035400,0.000000,Hold,-24642.000000,2.000000,Suck,0.000000,2181.818182,Speed,0.000000,2181.818182,Speed,Off,On,0.000000,FALSE,0,Read: /home/lvuser/scripts/auto_00.bee,File good!,STOP_ALL,STOP_ALL
06:44:40.624 PM 03/23/2016,Teleop Disabled,9,FALSE,0,NO ERROR,0.000000,0.000000,0.000000,0.000000,TRUE,FALSE,FALSE,FALSE,FALSE,FALSE,Disabled,0.000000,0.000000,0.000000,TRUE,-0.465286,0.752136,0.000000,0.000000,0.000000,0.000000,0.002000,0.000000,0.013000,-0.020000,0.140000,1.280000,0.007729,Hold,0.035400,0.000000,Hold,-24642.000000,2.000000,Suck,0.000000,2181.818182,Speed,0.000000,2181.818182,Speed,Off,On,0.000000,FALSE,0,Read: /home/lvuser/scripts/auto_00.bee,File good!,STOP_ALL,STOP_ALL
