Time,Robot Mode,Loop Time,Error Status,Error Code,Error Source,Left Motor Output,Left Motor Encoder,Right Motor Output,Right Motor Encoder,Is Level,Is Stalled,Ball Detector Photoeye,Vision Enabled,Vision Teleop Control,Vision Auto Control,Vision Current State,Vision X Output,Vision NavX Error,Vision NavX Target,NavX Connection Status,NavX Displacement X,NavX Displacement Y,NavX Displacement Z,NavX Velocity X,NavX Velocity Y,NavX Velocity Z,NavX Acceleration X,NavX Acceleration Y,NavX Acceleration Z,NavX Pitch,NavX Yaw,NavX Roll,Gyro Angle,Roller Arm State,Roller Arm Actual,Roller Arm Desired,Shooter Arm State,Shooter Arm Actual,Shooter Arm Desired,Shooter State,Actual RPM Left,Desired RPM Left,Control Mode Left,Actual RPM Right,Desired RPM Right,Control Mode Right,Ball Shooter Cylinder,Ball Halo Cylinder,Scaler Motor Output,Scaler Solenoid Fire,Auto To Run,Auto Current File,Auto File Status,Auto Current Command,Auto Trimmed Command
07:54:37.935 PM 03/22/2016,Teleop Enabled,12,FALSE,0,NO ERROR,-0.000000,0.000000,0.000000,0.000000,TRUE,FALSE,TRUE,FALSE,FALSE,FALSE,Disabled,0.000000,0.000000,0.000000,TRUE,0.043976,0.079971,0.000000,0.000000,0.000000,0.000000,0.000000,0.003000,0.000000,-0.020000,0.450000,1.450000,0.337612,ResetBack,0.000000,-0.000049,ResetBack,3622.000000,-0.300000,LowGoal,0.000000,-1454.545455,Speed,0.000000,-1454.545455,Speed,Off,Off,0.000000,FALSE,0,,,,
07:54:38.034 PM 03/22/2016,Teleop Enabled,11,FALSE,0,NO ERROR,-0.000000,-0.077000,0.000000,0.000000,TRUE,FALSE,TRUE,FALSE,FALSE,FALSE,Disabled,0.000000,0.000000,0.000000,TRUE,0.043991,0.079971,0.000000,0.001709,0.000000,0.000000,0.061000,0.011000,0.004000,-0.020000,0.450000,1.440000,0.306426,ResetBack,-1.457520,-0.000049,ResetBack,3622.000000,-0.300000,LowGoal,75.000000,-1454.545455,Speed,112.500000,-1454.545455,Speed,Off,Off,0.000000,FALSE,0,,,,
07:54:38.135 PM 03/22/2016,Teleop Enabled,10,FALSE,0,NO ERROR,-0.000000,-0.083416,0.000000,0.000000,TRUE,FALSE,TRUE,FALSE,FALSE,FALSE,Disabled,0.000000,0.000000,0.000000,TRUE,0.044388,0.079422,0.000000,0.004852,-0.023163,0.000000,0.012000,-0.007000,0.004000,-0.020000,0.450000,1.430000,0.319982,ResetBack,-2.667480,-0.000049,ResetBack,14795.000000,-0.300000,LowGoal,787.500000,-1454.545455,Speed,885.000000,-1454.545455,Speed,Off,Off,0.000000,FALSE,0,,,,
07:54:38.235 PM 03/22/2016,Teleop Enabled,10,FALSE,0,NO ERROR,-0.000000,-0.083416,0.000000,0.000000,TRUE,FALSE,TRUE,FALSE,FALSE,FALSE,Disabled,0.000000,0.000000,0.000000,TRUE,0.044632,0.079422,0.000000,0.000000,-0.001648,0.000000,-0.013000,0.036000,-0.006000,-0.010000,0.470000,1.450000,0.340658,Reset,-2.701416,-0.000049,ResetBack,14795.000000,-0.300000,LowGoal,787.500000,-1454.545455,Speed,885.000000,-1454.545455,Speed,Off,Off,0.000000,FALSE,0,,,,
07:54:38.335 PM 03/22/2016,Teleop Enabled,10,FALSE,0,NO ERROR,-0.000000,-0.083416,0.000000,0.000000,TRUE,FALSE,TRUE,FALSE,FALSE,FALSE,Disabled,0.000000,0.000000,0.000000,TRUE,0.045181,0.079071,0.000000,0.019043,-0.009521,0.000000,-0.011000,-0.084000,-0.032000,0.000000,0.390000,1.460000,0.349106,Hold,-2.712891,0.000000,ResetBack,22775.000000,-0.300000,LowGoal,1612.500000,-1454.545455,Speed,1567.500000,-1454.545455,Speed,Off,Off,0.000000,FALSE,0,,,,
07:54:38.435 PM 03/22/2016,Teleop Enabled,11,FALSE,0,NO ERROR,-0.000000,-0.083416,0.000000,0.000000,TRUE,FALSE,TRUE,FALSE,FALSE,FALSE,Disabled,0.000000,0.000000,0.000000,TRUE,0.045639,0.078033,0.000000,0.008545,-0.013779,0.000000,-0.037000,-0.037000,0.003000,0.000000,0.400000,1.480000,0.358577,Hold,0.305664,0.000000,ResetBack,27625.000000,-0.300000,LowGoal,1612.500000,-1454.545455,Speed,1537.500000,-1454.545455,Speed,Off,Off,0.000000,FALSE,0,,,,
07:54:38.535 PM 03/22/2016,Teleop Enabled,10,FALSE,0,NO ERROR,-0.000000,-0.083416,0.000000,0.000000,TRUE,FALSE,TRUE,FALSE,FALSE,FALSE,Disabled,0.000000,0.000000,0.000000,TRUE,0.045807,0.077591,0.000000,-0.004303,0.002884,0.000000,-0.067000,0.028000,0.025000,0.000000,0.390000,1.460000,0.357193,Hold,0.371338,0.000000,ResetBack,29496.000000,-0.300000,LowGoal,1372.500000,-1454.545455,Speed,1305.000000,-1454.545455,Speed,Off,Off,0.000000,FALSE,0,,,,
07:54:38.635 PM 03/22/2016,Teleop Enabled,11,FALSE,0,NO ERROR,-0.000000,-0.083416,0.000000,0.000000,TRUE,FALSE,TRUE,FALSE,FALSE,FALSE,Disabled,0.000000,0.000000,0.000000,TRUE,0.045303,0.077988,0.000000,-0.010559,0.010742,0.000000,-0.065000,0.012000,0.064000,0.000000,0.390000,1.460000,0.363338,Hold,0.371338,0.000000,ResetBack,29671.000000,-0.300000,LowGoal,1297.500000,-1454.545455,Speed,1350.000000,-1454.545455,Speed,Off,Off,0.000000,FALSE,0,,,,
07:54:38.736 PM 03/22/2016,Teleop Enabled,11,FALSE,0,NO ERROR,-0.000000,-0.083416,0.000000,0.000000,TRUE,FALSE,TRUE,FALSE,FALSE,FALSE,Disabled,0.000000,0.000000,0.000000,TRUE,0.045059,0.079193,0.000000,0.006058,0.034760,0.000000,0.085000,-0.003000,0.025000,0.000000,0.360000,1.500000,0.371652,Hold,0.371338,0.000000,ResetBack,29672.000000,-0.300000,LowGoal,1387.500000,-1454.545455,Speed,1425.000000,-1454.545455,Speed,Off,Off,0.000000,FALSE,0,,,,
07:54:38.836 PM 03/22/2016,Teleop Enabled,11,FALSE,0,NO ERROR,-0.000000,-0.083416,0.000000,0.000000,TRUE,FALSE,TRUE,FALSE,FALSE,FALSE,Disabled,0.000000,0.000000,0.000000,TRUE,0.046112,0.080872,0.000000,0.014282,0.029205,0.000000,0.000000,0.066000,0.023000,0.000000,0.430000,1.490000,0.400060,Hold,0.371338,0.000000,ResetBack,29674.000000,-0.300000,LowGoal,1410.000000,-1454.545455,Speed,1410.000000,-1454.545455,Speed,Off,Off,0.000000,FALSE,0,,,,
07:54:38.937 PM 03/22/2016,Teleop Enabled,10,FALSE,0,NO ERROR,-0.000000,-0.083416,0.000000,0.000000,TRUE,FALSE,TRUE,FALSE,FALSE,FALSE,Disabled,0.000000,0.000000,0.000000,TRUE,0.046616,0.082260,0.000000,0.001312,0.001999,0.000000,0.037000,-0.064000,0.026000,0.000000,0.370000,1.520000,0.383656,Hold,0.371338,0.000000,ResetBack,29674.000000,-0.300000,LowGoal,1357.500000,-1454.545455,Speed,1365.000000,-1454.545455,Speed,Off,Off,0.000000,FALSE,0,,,,
07:54:39.039 PM 03/22/2016,Teleop Enabled,11,FALSE,0,NO ERROR,-0.000000,-0.083416,0.000000,0.000000,TRUE,FALSE,TRUE,FALSE,FALSE,FALSE,Disabled,0.000000,0.000000,0.000000,TRUE,0.046692,0.082321,0.000000,0.001648,0.009628,0.000000,-0.068000,0.062000,-0.010000,0.000000,0.400000,1.500000,0.383164,Hold,0.371338,0.000000,ResetBack,29679.000000,-0.300000,LowGoal,1365.000000,-1454.545455,Speed,1387.500000,-1454.545455,Speed,Off,Off,0.000000,FALSE,0,,,,
07:54:39.139 PM 03/22/2016,Teleop Enabled,11,FALSE,0,NO ERROR,-0.377953,-0.083416,0.377953,0.000000,TRUE,FALSE,TRUE,FALSE,FALSE,FALSE,Disabled,0.000000,0.000000,0.000000,TRUE,0.045898,0.083405,0.000000,-0.017044,0.026108,0.000000,0.032000,-0.039000,0.023000,0.000000,0.380000,1.530000,0.377087,Hold,0.371338,0.000000,ResetBack,29680.000000,-0.300000,LowGoal,1380.000000,-1454.545455,Speed,1402.500000,-1454.545455,Speed,Off,Off,0.000000,FALSE,0,,,,
07:54:39.239 PM 03/22/2016,Teleop Enabled,11,FALSE,0,NO ERROR,-0.559055,-0.275916,0.559055,-0.333666,TRUE,FALSE,TRUE,FALSE,FALSE,FALSE,Disabled,0.000000,0.000000,0.000000,TRUE,0.046570,0.084595,0.000000,0.044312,0.047882,0.000000,-0.048000,0.216000,0.345000,0.000000,0.500000,1.500000,0.708399,Hold,0.371338,0.000000,Reset,30117.000000,2.000000,LowGoal,1387.500000,-1454.545455,Speed,1395.000000,-1454.545455,Speed,Off,Off,0.000000,FALSE,0,,,,
07:54:39.339 PM 03/22/2016,Teleop Enabled,9,FALSE,0,NO ERROR,-0.661417,-1.443747,0.661417,-1.687579,TRUE,FALSE,TRUE,FALSE,FALSE,FALSE,Disabled,0.000000,0.000000,0.000000,TRUE,0.051071,0.090714,0.000000,0.139771,0.147766,0.000000,0.181000,0.023000,-0.196000,2.910000,0.910000,2.070000,5.203334,Hold,0.371582,0.000000,Hold,-316.000000,2.000000,LowGoal,1357.500000,-1454.545455,Speed,1365.000000,-1454.545455,Speed,Off,Off,0.000000,FALSE,0,,,,
07:54:39.439 PM 03/22/2016,Teleop Enabled,11,FALSE,0,NO ERROR,-0.716535,-3.477825,0.716535,-4.247823,TRUE,FALSE,TRUE,FALSE,FALSE,FALSE,Disabled,0.000000,0.000000,0.000000,TRUE,0.061157,0.098862,0.000000,0.239822,0.187241,0.000000,0.100000,0.096000,0.003000,10.190000,0.940000,2.510000,13.947930,Hold,0.371582,0.000000,Hold,-302.000000,2.000000,LowGoal,1320.000000,-1454.545455,Speed,1342.500000,-1454.545455,Speed,Off,Off,0.000000,FALSE,0,,,,
07:54:39.539 PM 03/22/2016,Teleop Enabled,11,FALSE,0,NO ERROR,-0.000000,-6.525735,0.000000,-8.084981,FALSE,FALSE,TRUE,FALSE,FALSE,FALSE,Disabled,0.000000,0.000000,0.000000,TRUE,0.076569,0.107468,0.000000,0.364868,0.164307,0.000000,0.178000,0.112000,-0.182000,24.660000,0.990000,3.180000,27.530853,Hold,0.371582,0.000000,Hold,-302.000000,2.000000,LowGoal,1312.500000,-1454.545455,Speed,1335.000000,-1454.545455,Speed,Off,Off,0.000000,FALSE,0,,,,
07:54:39.639 PM 03/22/2016,Teleop Enabled,10,FALSE,0,NO ERROR,-0.000000,-9.535144,0.000000,-11.883639,TRUE,FALSE,TRUE,FALSE,FALSE,FALSE,Disabled,0.000000,0.000000,0.000000,TRUE,0.095718,0.111618,0.000000,0.329102,0.004166,0.000000,-0.048000,-0.173000,-0.152000,40.990000,0.770000,2.470000,44.602877,Hold,0.371826,0.000000,Hold,-302.000000,2.000000,LowGoal,1320.000000,-1454.545455,Speed,1335.000000,-1454.545455,Speed,Off,Off,0.000000,FALSE,0,,,,
07:54:39.739 PM 03/22/2016,Teleop Enabled,11,FALSE,0,NO ERROR,0.275591,-10.824891,-0.275591,-14.039634,TRUE,FALSE,TRUE,FALSE,FALSE,FALSE,Disabled,0.000000,0.000000,0.000000,TRUE,0.104752,0.111191,0.000000,0.039124,0.019867,0.000000,-0.469000,0.039000,0.199000,50.820000,0.130000,1.060000,53.856477,Hold,0.379639,0.000000,Hold,-302.000000,2.000000,LowGoal,1380.000000,-1454.545455,Speed,1387.500000,-1454.545455,Speed,Off,Off,0.000000,FALSE,0,,,,
07:54:39.839 PM 03/22/2016,Teleop Enabled,9,FALSE,0,NO ERROR,1.000000,-10.067726,-1.000000,-14.142300,TRUE,FALSE,TRUE,FALSE,FALSE,FALSE,Disabled,0.000000,0.000000,0.000000,TRUE,0.103424,0.114120,0.000000,-0.035049,0.078674,0.000000,-0.403000,0.113000,-0.004000,51.720000,-0.410000,1.090000,54.274514,Hold,0.379883,0.000000,Hold,-284.000000,2.000000,LowGoal,1402.500000,-1454.545455,Speed,1417.500000,-1454.545455,Speed,Off,Off,0.000000,FALSE,0,,,,
07:54:39.938 PM 03/22/2016,Teleop Enabled,11,FALSE,0,NO ERROR,-0.000000,-7.815482,0.000000,-12.127472,TRUE,FALSE,TRUE,FALSE,FALSE,FALSE,Disabled,0.000000,0.000000,0.000000,TRUE,0.088150,0.121231,0.000000,-0.426041,0.115738,0.000000,-0.150000,-0.126000,-0.038000,46.260000,-1.260000,0.230000,47.745386,Hold,0.379883,0.000000,Hold,-286.000000,2.000000,LowGoal,1365.000000,-1454.545455,Speed,1387.500000,-1454.545455,Speed,Off,Off,0.000000,FALSE,0,,,,
07:54:40.039 PM 03/22/2016,Teleop Enabled,10,FALSE,0,NO ERROR,-0.000000,-4.613573,0.000000,-9.015396,TRUE,FALSE,TRUE,FALSE,FALSE,FALSE,Disabled,0.000000,0.000000,0.000000,TRUE,0.068039,0.125748,0.000000,-0.522095,0.095886,0.000000,0.385000,-0.098000,-0.141000,32.480000,-1.390000,-0.290000,32.687223,Hold,0.380371,0.000000,Hold,-328.000000,2.000000,LowGoal,1267.500000,-1454.545455,Speed,1290.000000,-1454.545455,Speed,Off,Off,0.000000,FALSE,0,,,,
07:54:40.139 PM 03/22/2016,Teleop Enabled,11,FALSE,0,NO ERROR,-0.000000,-2.650077,0.000000,-7.064733,TRUE,FALSE,TRUE,FALSE,FALSE,FALSE,Disabled,0.000000,0.000000,0.000000,TRUE,0.054352,0.128159,0.000000,-0.099228,0.032700,0.000000,0.394000,0.328000,-0.029000,20.960000,0.130000,0.400000,21.797903,Hold,0.380615,0.000000,Hold,-278.000000,2.000000,LowGoal,1312.500000,-1454.545455,Speed,1327.500000,-1454.545455,Speed,Off,Off,0.000000,FALSE,0,,,,
07:54:40.239 PM 03/22/2016,Teleop Enabled,11,FALSE,0,NO ERROR,-0.307087,-2.502494,-0.307087,-6.814484,TRUE,FALSE,TRUE,FALSE,FALSE,FALSE,Disabled,0.000000,0.000000,0.000000,TRUE,0.058258,0.134949,0.000000,0.154266,0.173264,0.000000,-0.057000,-0.071000,-0.125000,18.990000,0.940000,1.240000,20.053001,Hold,0.380615,0.000000,Hold,-280.000000,2.000000,LowGoal,1432.500000,-1454.545455,Speed,1440.000000,-1454.545455,Speed,Off,Off,0.000000,FALSE,0,,,,
07:54:40.338 PM 03/22/2016,Teleop Enabled,11,FALSE,0,NO ERROR,-0.566929,-3.022243,-0.566929,-6.269069,TRUE,FALSE,TRUE,FALSE,FALSE,FALSE,Disabled,0.000000,0.000000,0.000000,TRUE,0.069107,0.144409,0.000000,0.302521,0.054855,0.000000,-0.048000,-0.148000,0.366000,19.400000,2.280000,1.370000,20.625078,Hold,0.380615,0.000000,Hold,-280.000000,2.000000,LowGoal,1395.000000,-1454.545455,Speed,1417.500000,-1454.545455,Speed,Off,Off,0.000000,FALSE,0,,,,
07:54:40.439 PM 03/22/2016,Teleop Enabled,11,FALSE,0,NO ERROR,-0.559055,-4.607156,-0.559055,-4.607156,FALSE,FALSE,TRUE,FALSE,FALSE,FALSE,Disabled,0.000000,0.000000,0.000000,TRUE,0.093170,0.139496,0.000000,0.607910,-0.170258,0.000000,0.261000,-0.131000,-0.111000,19.260000,4.630000,1.150000,20.577092,Hold,0.381104,0.000000,Hold,-278.000000,2.000000,LowGoal,1342.500000,-1454.545455,Speed,1350.000000,-1454.545455,Speed,Off,Off,0.000000,FALSE,0,,,,
07:54:40.539 PM 03/22/2016,Teleop Enabled,10,FALSE,0,NO ERROR,-0.456693,-7.398399,-0.456693,-1.668329,FALSE,FALSE,TRUE,FALSE,FALSE,FALSE,Disabled,0.000000,0.000000,0.000000,TRUE,0.122650,0.130997,0.000000,0.814285,-0.233902,0.000000,0.174000,-0.206000,-0.033000,19.040000,4.730000,1.140000,20.367768,Hold,0.381104,0.000000,Hold,-281.000000,2.000000,LowGoal,1320.000000,-1454.545455,Speed,1335.000000,-1454.545455,Speed,Off,Off,0.000000,FALSE,0,,,,
07:54:40.638 PM 03/22/2016,Teleop Enabled,11,FALSE,0,NO ERROR,-0.307087,-11.466557,-0.307087,2.476828,FALSE,FALSE,TRUE,FALSE,FALSE,FALSE,Disabled,0.000000,0.000000,0.000000,TRUE,0.167984,0.116669,0.000000,0.968933,-0.316254,0.000000,0.213000,-0.198000,-0.087000,18.770000,5.660000,0.950000,20.057690,Hold,0.381104,0.000000,Hold,-281.000000,2.000000,LowGoal,1342.500000,-1454.545455,Speed,1357.500000,-1454.545455,Speed,Off,Off,0.000000,FALSE,0,,,,
07:54:40.739 PM 03/22/2016,Teleop Enabled,11,FALSE,0,NO ERROR,-0.000000,-15.727213,0.000000,6.949234,FALSE,FALSE,TRUE,FALSE,FALSE,FALSE,Disabled,0.000000,0.000000,0.000000,TRUE,0.219376,0.098724,0.000000,0.999619,-0.341690,0.000000,-0.212000,0.104000,-0.052000,18.530000,5.030000,0.940000,19.824019,Hold,0.381348,0.000000,Hold,-281.000000,2.000000,LowGoal,1380.000000,-1454.545455,Speed,1395.000000,-1454.545455,Speed,Off,Off,0.000000,FALSE,0,,,,
07:54:40.838 PM 03/22/2016,Teleop Enabled,11,FALSE,0,NO ERROR,0.472441,-18.704540,-0.472441,10.446309,TRUE,FALSE,TRUE,FALSE,FALSE,FALSE,Disabled,0.000000,0.000000,0.000000,TRUE,0.261703,0.084579,0.000000,0.730560,-0.268738,0.000000,-0.485000,0.051000,-0.502000,18.360000,2.590000,0.970000,19.615662,Hold,0.381348,0.000000,Hold,-281.000000,2.000000,LowGoal,1380.000000,-1454.545455,Speed,1402.500000,-1454.545455,Speed,Off,Off,0.000000,FALSE,0,,,,
07:54:40.939 PM 03/22/2016,Teleop Enabled,11,FALSE,0,NO ERROR,0.582677,-19.827454,-0.582677,14.719799,TRUE,FALSE,TRUE,FALSE,FALSE,FALSE,Disabled,0.000000,0.000000,0.000000,TRUE,0.284027,0.068008,0.000000,0.084152,-0.265961,0.000000,-0.118000,0.364000,0.061000,13.570000,0.750000,-0.050000,15.287633,Hold,0.381348,0.000000,Hold,-281.000000,2.000000,LowGoal,1380.000000,-1454.545455,Speed,1395.000000,-1454.545455,Speed,Off,Off,0.000000,FALSE,0,,,,
07:54:41.039 PM 03/22/2016,Teleop Enabled,10,FALSE,0,NO ERROR,0.322835,-18.640373,-0.322835,19.288455,TRUE,FALSE,TRUE,FALSE,FALSE,FALSE,Disabled,0.000000,0.000000,0.000000,TRUE,0.282822,0.061920,0.000000,-0.084930,-0.125946,0.000000,0.126000,-0.422000,0.004000,4.680000,-0.050000,0.270000,3.617130,Hold,0.381348,0.000000,Hold,-281.000000,2.000000,LowGoal,1357.500000,-1454.545455,Speed,1365.000000,-1454.545455,Speed,Off,Off,0.000000,FALSE,0,,,,
07:54:41.139 PM 03/22/2016,Teleop Enabled,10,FALSE,0,NO ERROR,-0.000000,-16.689711,0.000000,23.703111,TRUE,FALSE,TRUE,FALSE,FALSE,FALSE,Disabled,0.000000,0.000000,0.000000,TRUE,0.278046,0.044678,0.000000,-0.060150,-0.253738,0.000000,-0.001000,0.631000,0.181000,-9.230000,-0.350000,-0.230000,-11.040669,Hold,0.381348,51.000000,Hold,-281.000000,2.000000,LowGoal,1327.500000,-1454.545455,Speed,1350.000000,-1454.545455,Speed,Off,Off,0.000000,FALSE,0,,,,
07:54:41.239 PM 03/22/2016,Teleop Enabled,11,FALSE,0,NO ERROR,-0.519685,-15.926129,0.519685,26.013106,TRUE,FALSE,TRUE,FALSE,FALSE,FALSE,Disabled,0.000000,0.000000,0.000000,TRUE,0.275818,0.042770,0.000000,0.008499,0.006836,0.000000,0.129000,0.356000,-0.105000,-20.180000,0.240000,0.930000,-20.241223,Hold,3.568359,51.000000,Hold,-274.000000,151552.000000,LowGoal,1372.500000,-1454.545455,Speed,1395.000000,-1454.545455,Speed,Off,Off,0.000000,FALSE,0,,,,
07:54:41.339 PM 03/22/2016,Teleop Enabled,11,FALSE,0,NO ERROR,-0.716535,-17.113210,0.716535,25.615273,TRUE,FALSE,TRUE,FALSE,FALSE,FALSE,Disabled,0.000000,0.000000,0.000000,TRUE,0.276993,0.049362,0.000000,0.035767,0.289291,0.000000,0.072000,0.316000,-0.123000,-20.130000,1.090000,2.160000,-19.614739,Hold,5.262939,51.000000,Hold,-7221.000000,151552.000000,LowGoal,1395.000000,-1454.545455,Speed,1410.000000,-1454.545455,Speed,Off,Off,0.000000,FALSE,0,,,,
07:54:41.439 PM 03/22/2016,Teleop Enabled,8,FALSE,0,NO ERROR,-0.417323,-20.000703,0.417323,22.862530,TRUE,FALSE,TRUE,FALSE,FALSE,FALSE,Disabled,0.000000,0.000000,0.000000,TRUE,0.283157,0.074951,0.000000,0.190216,0.418030,0.000000,0.187000,-0.356000,0.133000,-11.340000,1.150000,2.930000,-9.422767,Hold,8.577881,51.000000,Hold,-20686.000000,151552.000000,LowGoal,1335.000000,-1454.545455,Speed,1365.000000,-1454.545455,Speed,Off,Off,0.000000,FALSE,0,,,,
07:54:41.539 PM 03/22/2016,Teleop Enabled,11,FALSE,0,NO ERROR,-0.000000,-22.618697,0.000000,19.910870,TRUE,FALSE,TRUE,FALSE,FALSE,FALSE,Disabled,0.000000,0.000000,0.000000,TRUE,0.296417,0.091904,0.000000,0.259644,0.296143,0.000000,-0.471000,-0.423000,0.135000,5.280000,0.680000,2.910000,5.392340,Hold,12.143555,51.000000,Hold,-20686.000000,151552.000000,LowGoal,1297.500000,-1454.545455,Speed,1335.000000,-1454.545455,Speed,Off,Off,0.000000,FALSE,0,,,,
07:54:41.639 PM 03/22/2016,Teleop Enabled,11,FALSE,0,NO ERROR,-0.000000,-23.638945,0.000000,18.300291,TRUE,FALSE,TRUE,FALSE,FALSE,FALSE,Disabled,0.000000,0.000000,0.000000,TRUE,0.298462,0.095703,0.000000,-0.093658,-0.000244,0.000000,-0.173000,0.138000,-0.265000,11.390000,-0.200000,1.030000,12.898604,Hold,16.758057,51.000000,Hold,-32807.000000,151552.000000,LowGoal,1372.500000,-1454.545455,Speed,1387.500000,-1454.545455,Speed,Off,Off,0.000000,FALSE,0,,,,
07:54:41.740 PM 03/22/2016,Teleop Enabled,10,FALSE,0,NO ERROR,-0.000000,-23.606861,0.000000,18.101374,TRUE,FALSE,TRUE,FALSE,FALSE,FALSE,Disabled,0.000000,0.000000,0.000000,TRUE,0.293259,0.098022,0.000000,-0.101639,0.026184,0.000000,0.054000,-0.140000,-0.037000,12.130000,-0.500000,1.070000,13.261660,Hold,22.245605,51.000000,Hold,-44629.000000,151552.000000,LowGoal,1432.500000,-1454.545455,Speed,1432.500000,-1454.545455,Speed,Off,Off,0.000000,FALSE,0,,,,
07:54:41.840 PM 03/22/2016,Teleop Enabled,11,FALSE,0,NO ERROR,0.338583,-22.997280,0.338583,17.594459,TRUE,FALSE,TRUE,FALSE,FALSE,FALSE,Disabled,0.000000,0.000000,0.000000,TRUE,0.290741,0.097488,0.000000,-0.032578,-0.000961,0.000000,-0.242000,0.230000,0.166000,11.600000,-0.200000,1.090000,12.673778,Hold,28.549561,51.000000,Hold,-57986.000000,151552.000000,LowGoal,1387.500000,-1454.545455,Speed,1410.000000,-1454.545455,Speed,Off,Off,0.000000,FALSE,0,,,,
07:54:41.940 PM 03/22/2016,Teleop Enabled,10,FALSE,0,NO ERROR,0.338583,-22.124615,0.338583,16.356045,TRUE,FALSE,TRUE,FALSE,FALSE,FALSE,Disabled,0.000000,0.000000,0.000000,TRUE,0.283371,0.100296,0.000000,-0.230850,0.083008,0.000000,-0.140000,0.057000,0.031000,12.190000,-1.910000,1.080000,13.259784,Hold,34.231689,51.000000,Hold,-71759.000000,151552.000000,LowGoal,1365.000000,-1454.545455,Speed,1387.500000,-1454.545455,Speed,Off,Off,0.000000,FALSE,0,,,,
07:54:42.041 PM 03/22/2016,Teleop Enabled,11,FALSE,0,NO ERROR,0.338583,-20.398536,0.338583,14.508049,FALSE,FALSE,TRUE,FALSE,FALSE,FALSE,Disabled,0.000000,0.000000,0.000000,TRUE,0.265884,0.107605,0.000000,-0.314789,0.148956,0.000000,-0.197000,0.061000,-0.400000,12.650000,-3.630000,1.090000,13.762160,Hold,44.626953,51.000000,Hold,-90260.000000,151552.000000,LowGoal,1365.000000,-1454.545455,Speed,1387.500000,-1454.545455,Speed,Off,Off,0.000000,FALSE,0,,,,
07:54:42.141 PM 03/22/2016,Teleop Enabled,10,FALSE,0,NO ERROR,0.263935,-18.281041,0.413231,12.268638,FALSE,FALSE,TRUE,FALSE,FALSE,FALSE,Disabled,0.000000,0.000000,0.000000,TRUE,0.245926,0.115479,0.000000,-0.448929,0.157089,0.000000,-0.268000,0.183000,0.174000,12.720000,-3.350000,1.090000,13.889476,Hold,53.644287,51.000000,Hold,-90260.000000,151552.000000,LowGoal,1380.000000,-1454.545455,Speed,1395.000000,-1454.545455,Speed,Off,Off,0.000000,FALSE,0,,,,
07:54:42.241 PM 03/22/2016,Teleop Enabled,10,FALSE,0,NO ERROR,0.263935,-15.476964,0.413231,9.008979,FALSE,FALSE,TRUE,FALSE,FALSE,FALSE,Disabled,0.000000,0.000000,0.000000,TRUE,0.219788,0.127151,0.000000,-0.520187,0.281952,0.000000,-0.031000,0.154000,-0.187000,13.450000,-4.140000,1.280000,14.776482,Hold,55.619141,51.000000,Hold,-109128.000000,151552.000000,LowGoal,1380.000000,-1454.545455,Speed,1395.000000,-1454.545455,Speed,Off,Off,0.000000,FALSE,0,,,,
07:54:42.341 PM 03/22/2016,Teleop Enabled,10,FALSE,0,NO ERROR,0.273266,-12.473971,0.403900,5.338654,FALSE,FALSE,TRUE,FALSE,FALSE,FALSE,Disabled,0.000000,0.000000,0.000000,TRUE,0.191254,0.142441,0.000000,-0.611786,0.326614,0.000000,-0.116000,0.102000,0.175000,14.590000,-4.140000,1.450000,16.009269,Hold,55.632080,51.000000,Hold,-129379.000000,151552.000000,LowGoal,1372.500000,-1454.545455,Speed,1395.000000,-1454.545455,Speed,Off,Off,0.000000,FALSE,0,,,,
07:54:42.441 PM 03/22/2016,Teleop Enabled,10,FALSE,0,NO ERROR,-0.000000,-9.592894,0.000000,1.957079,FALSE,FALSE,TRUE,FALSE,FALSE,FALSE,Disabled,0.000000,0.000000,0.000000,TRUE,0.159775,0.158646,0.000000,-0.626358,0.288971,0.000000,0.078000,0.058000,-0.045000,16.220000,-3.800000,1.500000,17.456321,Hold,55.629150,51.000000,Hold,-150617.000000,151552.000000,LowGoal,1372.500000,-1454.545455,Speed,1395.000000,-1454.545455,Speed,Off,Off,0.000000,FALSE,0,,,,
07:54:42.541 PM 03/22/2016,Teleop Enabled,9,FALSE,0,NO ERROR,-0.000000,-6.917150,0.000000,-0.872665,TRUE,FALSE,TRUE,FALSE,FALSE,FALSE,Disabled,0.000000,0.000000,0.000000,TRUE,0.138977,0.172577,0.000000,-0.272720,0.294128,0.000000,0.288000,-0.089000,0.204000,16.610000,-1.710000,1.420000,17.935476,Hold,55.624512,51.000000,Hold,-152129.000000,151552.000000,LowGoal,1380.000000,-1454.545455,Speed,1402.500000,-1454.545455,Speed,Off,Off,0.000000,FALSE,0,,,,
07:54:42.643 PM 03/22/2016,Teleop Enabled,11,FALSE,0,NO ERROR,-0.314961,-5.235988,0.314961,-3.259659,TRUE,FALSE,TRUE,FALSE,FALSE,FALSE,Disabled,0.000000,0.000000,0.000000,TRUE,0.131195,0.185471,0.000000,-0.083282,0.253754,0.000000,0.525000,0.079000,-0.114000,16.590000,-0.840000,1.400000,17.967644,Hold,55.580566,51.000000,Hold,-151939.000000,151552.000000,LowGoal,1387.500000,-1454.545455,Speed,1417.500000,-1454.545455,Speed,Off,Off,0.000000,FALSE,0,,,,
07:54:42.743 PM 03/22/2016,Teleop Enabled,10,FALSE,0,NO ERROR,-0.000000,-5.043488,0.000000,-5.062738,TRUE,FALSE,TRUE,FALSE,FALSE,FALSE,Disabled,0.000000,0.000000,0.000000,TRUE,0.138443,0.204712,0.000000,0.225113,0.360474,0.000000,0.081000,-0.073000,-0.025000,18.820000,-0.080000,1.930000,21.269136,Hold,55.580566,51.000000,Hold,-151750.000000,151552.000000,LowGoal,1395.000000,-1454.545455,Speed,1417.500000,-1454.545455,Speed,Off,Off,0.000000,FALSE,0,,,,
07:54:42.845 PM 03/22/2016,Teleop Enabled,10,FALSE,0,NO ERROR,-0.000000,-4.934405,0.000000,-5.819903,TRUE,FALSE,TRUE,FALSE,FALSE,FALSE,Disabled,0.000000,0.000000,0.000000,TRUE,0.145752,0.216553,0.000000,0.114792,0.195724,0.000000,-0.038000,0.025000,0.037000,22.430000,0.110000,1.230000,24.297486,Hold,55.578857,51.000000,Hold,-151750.000000,151552.000000,LowGoal,1380.000000,-1454.545455,Speed,1395.000000,-1454.545455,Speed,Off,Off,0.000000,FALSE,0,,,,
07:54:42.946 PM 03/22/2016,Teleop Enabled,10,FALSE,0,NO ERROR,-0.000000,-4.485240,0.000000,-5.980319,TRUE,FALSE,TRUE,FALSE,FALSE,FALSE,Disabled,0.000000,0.000000,0.000000,TRUE,0.151901,0.225723,0.000000,0.171906,0.222412,0.000000,0.000000,-0.088000,-0.030000,22.210000,0.310000,1.180000,23.893801,Hold,55.578857,51.000000,Hold,-151671.000000,151552.000000,LowGoal,1402.500000,-1454.545455,Speed,1410.000000,-1454.545455,Speed,Off,Off,0.000000,FALSE,0,,,,
07:54:43.046 PM 03/22/2016,Teleop Enabled,10,FALSE,0,NO ERROR,0.440945,-4.344073,-0.440945,-5.980319,TRUE,FALSE,TRUE,FALSE,FALSE,FALSE,Disabled,0.000000,0.000000,0.000000,TRUE,0.153381,0.234909,0.000000,0.068420,0.198059,0.000000,0.023000,0.053000,-0.022000,21.590000,0.570000,1.390000,23.250707,Hold,55.578857,51.000000,Hold,-151671.000000,151552.000000,LowGoal,1402.500000,-1454.545455,Speed,1417.500000,-1454.545455,Speed,Off,Off,0.000000,FALSE,0,,,,
07:54:43.147 PM 03/22/2016,Teleop Enabled,10,FALSE,0,NO ERROR,0.590551,-3.484242,-0.590551,-5.191071,TRUE,FALSE,TRUE,FALSE,FALSE,FALSE,Disabled,0.000000,0.000000,0.000000,TRUE,0.155884,0.245605,0.000000,-0.053329,0.161194,0.000000,-0.192000,-0.168000,0.003000,20.680000,0.210000,0.850000,22.261622,Hold,55.578857,51.000000,Hold,-151671.000000,151552.000000,LowGoal,1402.500000,-1454.545455,Speed,1417.500000,-1454.545455,Speed,Off,Off,0.000000,FALSE,0,,,,
07:54:43.248 PM 03/22/2016,Teleop Enabled,10,FALSE,0,NO ERROR,0.362205,-1.854412,-0.362205,-3.310992,TRUE,FALSE,TRUE,FALSE,FALSE,FALSE,Disabled,0.000000,0.000000,0.000000,TRUE,0.149292,0.248505,0.000000,-0.162033,0.027069,0.000000,-0.229000,0.080000,0.084000,16.020000,-0.050000,0.380000,15.784435,Hold,55.578857,51.000000,Hold,-151671.000000,151552.000000,LowGoal,1357.500000,-1454.545455,Speed,1372.500000,-1454.545455,Speed,Off,Off,0.000000,FALSE,0,,,,
07:54:43.350 PM 03/22/2016,Teleop Enabled,10,FALSE,0,NO ERROR,0.275591,-0.064167,-0.275591,-1.148581,TRUE,FALSE,TRUE,FALSE,FALSE,FALSE,Disabled,0.000000,0.000000,0.000000,TRUE,0.139328,0.251419,0.000000,-0.171219,0.065338,0.000000,-0.005000,-0.022000,0.057000,6.210000,0.020000,0.230000,7.135690,Hold,55.578857,51.000000,Hold,-151671.000000,151552.000000,LowGoal,1335.000000,-1454.545455,Speed,1342.500000,-1454.545455,Speed,Off,Off,0.000000,FALSE,0,,,,
07:54:43.450 PM 03/22/2016,Teleop Enabled,7,FALSE,0,NO ERROR,-0.000000,0.988164,0.000000,0.166833,TRUE,FALSE,TRUE,FALSE,FALSE,FALSE,Disabled,0.000000,0.000000,0.000000,TRUE,0.132156,0.254227,0.000000,-0.076065,0.064789,0.000000,0.066000,0.190000,-0.087000,-0.830000,0.210000,0.500000,-0.203830,Hold,55.578857,51.000000,Hold,-151671.000000,151552.000000,LowGoal,1380.000000,-1454.545455,Speed,1402.500000,-1454.545455,Speed,Off,Off,0.000000,FALSE,0,,,,
07:54:43.550 PM 03/22/2016,Teleop Enabled,10,FALSE,0,NO ERROR,-0.000000,1.276914,0.000000,0.667332,TRUE,FALSE,TRUE,FALSE,FALSE,FALSE,Disabled,0.000000,0.000000,0.000000,TRUE,0.132645,0.260269,0.000000,0.068588,0.000000,0.000000,-0.010000,-0.004000,-0.065000,-3.500000,0.760000,1.180000,-2.902589,Hold,55.578857,51.000000,Hold,-151671.000000,151552.000000,LowGoal,1402.500000,-1454.545455,Speed,1440.000000,-1454.545455,Speed,Off,Off,0.000000,FALSE,0,,,,
07:54:43.651 PM 03/22/2016,Teleop Enabled,10,FALSE,0,NO ERROR,-0.000000,1.135747,0.000000,0.603165,TRUE,FALSE,TRUE,FALSE,FALSE,FALSE,Disabled,0.000000,0.000000,0.000000,TRUE,0.137329,0.262039,0.000000,0.102417,0.061844,0.000000,-0.090000,-0.116000,0.048000,-2.490000,0.840000,1.520000,-1.602060,Hold,55.578857,51.000000,Hold,-151671.000000,151552.000000,LowGoal,1387.500000,-1454.545455,Speed,1425.000000,-1454.545455,Speed,Off,Off,0.000000,FALSE,0,,,,
07:54:43.751 PM 03/22/2016,Teleop Enabled,10,FALSE,0,NO ERROR,-0.000000,1.052331,0.000000,0.590332,TRUE,FALSE,TRUE,FALSE,FALSE,FALSE,Disabled,0.000000,0.000000,0.000000,TRUE,0.140274,0.262466,0.000000,0.042679,-0.040863,0.000000,-0.005000,0.039000,0.079000,-1.880000,0.480000,1.120000,-1.310726,Hold,55.578857,51.000000,Hold,-151671.000000,151552.000000,LowGoal,1395.000000,-1454.545455,Speed,1410.000000,-1454.545455,Speed,Off,Off,0.000000,FALSE,0,,,,
07:54:43.853 PM 03/22/2016,Teleop Enabled,10,FALSE,0,NO ERROR,-0.000000,1.052331,0.000000,0.590332,TRUE,FALSE,TRUE,FALSE,FALSE,FALSE,Disabled,0.000000,0.000000,0.000000,TRUE,0.140320,0.260773,0.000000,0.002655,-0.025589,0.000000,-0.005000,0.039000,0.079000,-2.150000,0.410000,1.220000,-1.514040,Hold,55.578857,51.000000,Hold,-151671.000000,151552.000000,LowGoal,1402.500000,-1454.545455,Speed,1410.000000,-1454.545455,Speed,Off,Off,0.000000,FALSE,0,,,,
07:54:43.953 PM 03/22/2016,Teleop Enabled,10,FALSE,0,NO ERROR,-0.000000,1.052331,0.000000,0.590332,TRUE,FALSE,TRUE,FALSE,FALSE,FALSE,Disabled,0.000000,0.000000,0.000000,TRUE,0.142609,0.259216,0.000000,0.059647,0.000000,0.000000,0.092000,-0.066000,0.008000,-2.070000,0.480000,1.230000,-1.416320,Hold,55.578857,51.000000,Hold,-151671.000000,151552.000000,LowGoal,1402.500000,-1454.545455,Speed,1417.500000,-1454.545455,Speed,Off,Off,0.000000,FALSE,0,,,,
07:54:44.054 PM 03/22/2016,Teleop Enabled,10,FALSE,0,NO ERROR,-0.000000,1.052331,0.000000,0.590332,TRUE,FALSE,TRUE,FALSE,FALSE,FALSE,Disabled,0.000000,0.000000,0.000000,TRUE,0.142609,0.259216,0.000000,0.059647,0.000000,0.000000,-0.057000,-0.003000,0.038000,-2.090000,0.420000,1.260000,-1.428755,Hold,55.578857,51.000000,Hold,-151671.000000,151552.000000,LowGoal,1395.000000,-1454.545455,Speed,1417.500000,-1454.545455,Speed,Off,Off,0.000000,FALSE,0,,,,
07:54:44.156 PM 03/22/2016,Teleop Enabled,11,FALSE,0,NO ERROR,-0.000000,1.052331,0.000000,0.590332,TRUE,FALSE,TRUE,FALSE,FALSE,FALSE,Disabled,0.000000,0.000000,0.000000,TRUE,0.149612,0.257828,0.000000,0.000000,-0.031464,0.000000,0.042000,0.061000,-0.038000,-2.080000,0.280000,1.230000,-1.400495,Hold,55.578857,51.000000,HighGoal,-151671.000000,77414.400000,HighGoal,1395.000000,-3272.727273,Speed,1417.500000,-3272.727273,Speed,Off,Off,0.000000,FALSE,0,,,,
07:54:44.256 PM 03/22/2016,Teleop Enabled,9,FALSE,0,NO ERROR,-0.000000,1.052331,0.000000,0.590332,TRUE,FALSE,TRUE,FALSE,FALSE,FALSE,Disabled,0.000000,0.000000,0.000000,TRUE,0.151260,0.257294,0.000000,0.057709,-0.005142,0.000000,0.042000,0.061000,-0.038000,-2.090000,0.380000,1.230000,-1.394918,Hold,55.578857,51.000000,Hold,-151442.000000,77414.400000,HighGoal,1455.000000,-3272.727273,Speed,1447.500000,-3272.727273,Speed,Off,Off,0.000000,FALSE,0,,,,
07:54:44.358 PM 03/22/2016,Teleop Enabled,10,FALSE,0,NO ERROR,-0.000000,1.052331,0.000000,0.590332,TRUE,FALSE,TRUE,FALSE,FALSE,FALSE,Disabled,0.000000,0.000000,0.000000,TRUE,0.152847,0.258072,0.000000,-0.004669,0.027313,0.000000,-0.068000,-0.007000,-0.033000,-2.060000,0.430000,1.280000,-1.349156,Hold,55.578857,51.000000,Hold,-145558.000000,77414.400000,HighGoal,1950.000000,-3272.727273,Speed,1942.500000,-3272.727273,Speed,Off,Off,0.000000,FALSE,0,,,,
07:54:44.458 PM 03/22/2016,Teleop Enabled,9,FALSE,0,NO ERROR,-0.000000,1.052331,0.000000,0.590332,TRUE,FALSE,TRUE,FALSE,FALSE,FALSE,Disabled,0.000000,0.000000,0.000000,TRUE,0.152420,0.258575,0.000000,-0.008392,0.010178,0.000000,-0.026000,-0.029000,-0.033000,-2.090000,0.420000,1.290000,-1.381530,Hold,55.578857,51.000000,Hold,-138226.000000,77414.400000,HighGoal,2370.000000,-3272.727273,Speed,2400.000000,-3272.727273,Speed,Off,Off,0.000000,FALSE,0,,,,
07:54:44.558 PM 03/22/2016,Teleop Enabled,10,FALSE,0,NO ERROR,-0.000000,1.052331,0.000000,0.590332,TRUE,FALSE,TRUE,FALSE,FALSE,FALSE,Disabled,0.000000,0.000000,0.000000,TRUE,0.151260,0.259262,0.000000,-0.037064,0.012817,0.000000,-0.088000,0.021000,0.096000,-2.070000,0.380000,1.350000,-1.332945,Hold,55.578857,51.000000,Hold,-130606.000000,77414.400000,HighGoal,2872.500000,-3272.727273,Speed,2850.000000,-3272.727273,Speed,Off,Off,0.000000,FALSE,0,,,,
07:54:44.658 PM 03/22/2016,Teleop Enabled,10,FALSE,0,NO ERROR,-0.000000,1.052331,0.000000,0.590332,TRUE,FALSE,TRUE,FALSE,FALSE,FALSE,Disabled,0.000000,0.000000,0.000000,TRUE,0.149857,0.259583,0.000000,-0.004669,-0.005585,0.000000,-0.088000,0.021000,0.096000,-2.090000,0.410000,1.350000,-1.326721,Hold,55.578857,51.000000,Hold,-122451.000000,77414.400000,HighGoal,3150.000000,-3272.727273,Speed,3180.000000,-3272.727273,Speed,Off,Off,0.000000,FALSE,0,,,,
07:54:44.758 PM 03/22/2016,Teleop Enabled,9,FALSE,0,NO ERROR,-0.000000,1.052331,0.000000,0.590332,TRUE,FALSE,TRUE,FALSE,FALSE,FALSE,Disabled,0.000000,0.000000,0.000000,TRUE,0.149384,0.259827,0.000000,-0.018341,0.000000,0.000000,0.045000,-0.004000,0.028000,-2.090000,0.410000,1.350000,-1.318235,Hold,55.578857,51.000000,Hold,-122451.000000,77414.400000,HighGoal,3330.000000,-3272.727273,Speed,3307.500000,-3272.727273,Speed,Off,Off,0.000000,FALSE,0,,,,
07:54:44.858 PM 03/22/2016,Teleop Enabled,12,FALSE,0,NO ERROR,-0.000000,1.052331,0.000000,0.590332,TRUE,FALSE,TRUE,FALSE,FALSE,FALSE,Disabled,0.000000,0.000000,0.000000,TRUE,0.147522,0.259171,0.000000,-0.042496,-0.036087,0.000000,-0.091000,0.055000,0.039000,-2.080000,0.400000,1.340000,-1.319639,Hold,55.578857,51.000000,Hold,-113234.000000,77414.400000,HighGoal,3277.500000,-3272.727273,Speed,3232.500000,-3272.727273,Speed,Off,Off,0.000000,FALSE,0,,,,
07:54:44.958 PM 03/22/2016,Teleop Enabled,9,FALSE,0,NO ERROR,-0.000000,1.052331,0.000000,0.590332,TRUE,FALSE,TRUE,FALSE,FALSE,FALSE,Disabled,0.000000,0.000000,0.000000,TRUE,0.145233,0.258636,0.000000,-0.028778,0.018234,0.000000,0.049000,-0.031000,0.080000,-2.090000,0.390000,1.350000,-1.324951,Hold,55.578857,51.000000,Hold,-103394.000000,77414.400000,HighGoal,3217.500000,-3272.727273,Speed,3210.000000,-3272.727273,Speed,Off,Off,0.000000,FALSE,0,,,,
07:54:45.058 PM 03/22/2016,Teleop Enabled,11,FALSE,0,NO ERROR,-0.000000,1.052331,0.000000,0.590332,TRUE,FALSE,TRUE,FALSE,FALSE,FALSE,Disabled,0.000000,0.000000,0.000000,TRUE,0.143982,0.261612,0.000000,-0.011047,0.084717,0.000000,-0.028000,0.086000,-0.041000,-2.090000,0.390000,1.350000,-1.314579,Hold,55.578857,51.000000,Hold,-93243.000000,77414.400000,HighGoal,3240.000000,-3272.727273,Speed,3240.000000,-3272.727273,Speed,Off,Off,0.000000,FALSE,0,,,,
07:54:45.158 PM 03/22/2016,Teleop Enabled,11,FALSE,0,NO ERROR,-0.000000,1.052331,0.000000,0.590332,TRUE,FALSE,TRUE,FALSE,FALSE,FALSE,Disabled,0.000000,0.000000,0.000000,TRUE,0.142075,0.267242,0.000000,-0.054779,0.128403,0.000000,-0.013000,0.040000,0.043000,-2.080000,0.380000,1.330000,-1.303211,Hold,55.578857,51.000000,Hold,-82504.000000,77414.400000,HighGoal,3262.500000,-3272.727273,Speed,3240.000000,-3272.727273,Speed,Off,Off,0.000000,FALSE,0,,,,
07:54:45.261 PM 03/22/2016,Teleop Enabled,9,FALSE,0,NO ERROR,-0.000000,1.052331,0.000000,0.590332,TRUE,FALSE,TRUE,FALSE,FALSE,FALSE,Disabled,0.000000,0.000000,0.000000,TRUE,0.138504,0.274780,0.000000,-0.078598,0.155731,0.000000,0.004000,0.017000,-0.077000,-2.090000,0.420000,1.340000,-1.314699,Hold,55.578857,51.000000,Hold,-77639.000000,77414.400000,HighGoal,3262.500000,-3272.727273,Speed,3225.000000,-3272.727273,Speed,Off,Off,0.000000,FALSE,0,,,,
07:54:45.361 PM 03/22/2016,Teleop Enabled,7,FALSE,0,NO ERROR,-0.000000,1.052331,0.000000,0.583915,TRUE,FALSE,TRUE,FALSE,FALSE,FALSE,Disabled,0.000000,0.000000,0.000000,TRUE,0.133911,0.281342,0.000000,-0.089035,0.000000,0.000000,0.016000,0.043000,0.025000,-2.100000,0.450000,1.350000,-1.331554,Hold,55.578857,51.000000,Hold,-77601.000000,77414.400000,HighGoal,3240.000000,-3272.727273,Speed,3232.500000,-3272.727273,Speed,Off,Off,0.000000,FALSE,0,,,,
07:54:45.461 PM 03/22/2016,Teleop Enabled,10,FALSE,0,NO ERROR,-0.000000,1.052331,0.000000,0.590332,TRUE,FALSE,TRUE,FALSE,FALSE,FALSE,Disabled,0.000000,0.000000,0.000000,TRUE,0.131760,0.281433,0.000000,-0.046509,0.009155,0.000000,0.211000,-0.014000,0.163000,-2.120000,0.450000,1.380000,-1.324359,Hold,55.578857,51.000000,Hold,-77601.000000,77414.400000,HighGoal,3240.000000,-3272.727273,Speed,3232.500000,-3272.727273,Speed,Off,Off,0.000000,FALSE,0,,,,
07:54:45.565 PM 03/22/2016,Teleop Enabled,11,FALSE,0,NO ERROR,-0.000000,1.052331,0.000000,0.590332,TRUE,FALSE,TRUE,FALSE,FALSE,FALSE,Disabled,0.000000,0.000000,0.000000,TRUE,0.128250,0.280396,0.000000,-0.087875,-0.040009,0.000000,-0.035000,-0.009000,-0.127000,-2.040000,0.370000,1.320000,-1.265767,Hold,55.578857,51.000000,Hold,-77474.000000,77414.400000,HighGoal,3247.500000,-3272.727273,Speed,3232.500000,-3272.727273,Speed,Off,Off,0.000000,FALSE,0,,,,
07:54:45.664 PM 03/22/2016,Teleop Enabled,11,FALSE,0,NO ERROR,-0.000000,1.052331,0.000000,0.590332,TRUE,FALSE,TRUE,FALSE,FALSE,FALSE,Disabled,0.000000,0.000000,0.000000,TRUE,0.128250,0.280396,0.000000,-0.087875,-0.040009,0.000000,0.065000,-0.061000,0.061000,-2.120000,0.350000,1.320000,-1.328841,Hold,55.578857,51.000000,Hold,-77474.000000,77414.400000,HighGoal,3255.000000,-3272.727273,Speed,3240.000000,-3272.727273,Speed,Off,Off,0.000000,FALSE,0,,,,
07:54:45.766 PM 03/22/2016,Teleop Enabled,11,FALSE,0,NO ERROR,-0.000000,1.052331,0.000000,0.590332,TRUE,FALSE,TRUE,FALSE,FALSE,FALSE,Disabled,0.000000,0.000000,0.000000,TRUE,0.120728,0.272156,0.000000,-0.078659,-0.112137,0.000000,-0.191000,0.035000,-0.126000,-2.060000,0.280000,1.390000,-1.286019,Hold,55.578857,51.000000,Hold,-77502.000000,77414.400000,HighGoal,3255.000000,-3272.727273,Speed,3240.000000,-3272.727273,Speed,Off,Off,0.000000,FALSE,0,,,,
07:54:45.869 PM 03/22/2016,Teleop Enabled,11,FALSE,0,NO ERROR,-0.000000,1.052331,0.000000,0.590332,TRUE,FALSE,TRUE,FALSE,FALSE,FALSE,Disabled,0.000000,0.000000,0.000000,TRUE,0.118301,0.265488,0.000000,-0.024490,-0.141006,0.000000,0.163000,-0.057000,-0.036000,-2.110000,0.270000,1.370000,-1.308341,Hold,55.578857,51.000000,Hold,-77502.000000,77414.400000,HighGoal,3255.000000,-3272.727273,Speed,3232.500000,-3272.727273,Speed,Off,Off,0.000000,FALSE,0,,,,
07:54:45.974 PM 03/22/2016,Teleop Enabled,9,FALSE,0,NO ERROR,0.000000,1.052331,-0.000000,0.590332,TRUE,FALSE,TRUE,TRUE,TRUE,FALSE,Disabled,0.000000,0.000000,0.000000,TRUE,0.117905,0.256668,0.000000,0.006302,-0.139313,0.000000,-0.051000,0.008000,0.055000,-2.110000,0.270000,1.370000,-1.318858,Hold,55.578857,51.000000,Hold,-77500.000000,77414.400000,HighGoal,3255.000000,-3272.727273,Speed,3240.000000,-3272.727273,Speed,Off,Off,0.000000,FALSE,0,,,,
07:54:46.074 PM 03/22/2016,Teleop Enabled,9,FALSE,0,NO ERROR,0.000000,1.052331,-0.000000,0.641665,TRUE,FALSE,TRUE,TRUE,TRUE,FALSE,Disabled,0.000000,0.000000,0.000000,TRUE,0.117706,0.251602,0.000000,-0.017166,-0.117996,0.000000,0.066000,-0.016000,-0.074000,-2.110000,0.290000,1.350000,-1.313057,Hold,55.578857,51.000000,Hold,-77499.000000,77414.400000,HighGoal,3255.000000,-3272.727273,Speed,3240.000000,-3272.727273,Speed,Off,Off,0.000000,FALSE,0,,,,
07:54:46.174 PM 03/22/2016,Teleop Enabled,10,FALSE,0,NO ERROR,0.000000,1.052331,-0.000000,0.648082,TRUE,FALSE,TRUE,TRUE,TRUE,FALSE,Disabled,0.000000,0.000000,0.000000,TRUE,0.116486,0.249466,0.000000,-0.019226,0.011154,0.000000,-0.013000,0.055000,-0.225000,-2.110000,0.210000,1.410000,-1.344198,Hold,55.578857,51.000000,Hold,-77499.000000,77414.400000,HighGoal,3262.500000,-3272.727273,Speed,3240.000000,-3272.727273,Speed,Off,Off,0.000000,FALSE,0,,,,
07:54:46.274 PM 03/22/2016,Teleop Enabled,9,FALSE,0,NO ERROR,0.000000,1.052331,-0.000000,0.648082,TRUE,FALSE,TRUE,TRUE,TRUE,FALSE,Disabled,0.000000,0.000000,0.000000,TRUE,0.114807,0.250519,0.000000,-0.056808,0.020432,0.000000,-0.013000,0.055000,-0.225000,-2.150000,0.220000,1.380000,-1.364441,Hold,55.578857,51.000000,Hold,-77499.000000,77414.400000,HighGoal,3262.500000,-3272.727273,Speed,3240.000000,-3272.727273,Speed,Off,Off,0.000000,FALSE,0,,,,
07:54:46.374 PM 03/22/2016,Teleop Enabled,12,FALSE,0,NO ERROR,0.000000,1.052331,-0.000000,0.648082,TRUE,FALSE,TRUE,TRUE,TRUE,FALSE,Disabled,0.000000,0.000000,0.000000,TRUE,0.110367,0.252487,0.000000,-0.104080,0.048721,0.000000,-0.106000,0.100000,-0.197000,-2.160000,0.220000,1.350000,-1.365704,Hold,55.578857,51.000000,Hold,-77499.000000,77414.400000,HighGoal,3262.500000,-3272.727273,Speed,3240.000000,-3272.727273,Speed,Off,Off,0.000000,FALSE,0,,,,
07:54:46.474 PM 03/22/2016,Teleop Enabled,10,FALSE,0,NO ERROR,0.000000,1.052331,-0.000000,0.648082,TRUE,FALSE,TRUE,TRUE,TRUE,FALSE,Disabled,0.000000,0.000000,0.000000,TRUE,0.110367,0.252487,0.000000,-0.104080,0.048721,0.000000,-0.106000,0.100000,-0.197000,-2.160000,0.230000,1.360000,-1.355975,Hold,55.578857,51.000000,Hold,-77498.000000,77414.400000,HighGoal,3255.000000,-3272.727273,Speed,3240.000000,-3272.727273,Speed,Off,Off,0.000000,FALSE,0,,,,
07:54:46.574 PM 03/22/2016,Teleop Enabled,10,FALSE,0,NO ERROR,0.000000,1.052331,-0.000000,0.654498,TRUE,FALSE,TRUE,TRUE,TRUE,FALSE,Enable,0.750000,-30.750000,28.590000,TRUE,0.098465,0.261414,0.000000,-0.085663,0.125748,0.000000,0.180000,-0.081000,0.166000,-2.160000,0.180000,1.370000,-1.340518,Hold,55.578857,51.000000,Hold,-77498.000000,77414.400000,HighGoal,3262.500000,-3272.727273,Speed,3240.000000,-3272.727273,Speed,Off,Off,0.000000,FALSE,0,,,,
07:54:46.674 PM 03/22/2016,Teleop Enabled,10,FALSE,0,NO ERROR,-0.615440,0.609582,-0.615440,0.173250,TRUE,FALSE,TRUE,TRUE,TRUE,FALSE,PID,0.750000,-30.750000,28.590000,TRUE,0.093979,0.268539,0.000000,-0.082291,0.146683,0.000000,0.089000,-0.063000,-0.006000,-2.160000,0.210000,1.350000,-1.350230,Hold,55.578857,51.000000,Hold,-77498.000000,77414.400000,HighGoal,3262.500000,-3272.727273,Speed,3240.000000,-3272.727273,Speed,Off,Off,0.000000,FALSE,0,,,,
07:54:46.774 PM 03/22/2016,Teleop Enabled,10,FALSE,0,NO ERROR,-0.609180,-1.610580,-0.609180,-2.213745,TRUE,FALSE,TRUE,TRUE,TRUE,FALSE,PID,0.750000,-30.750000,28.590000,TRUE,0.093979,0.268539,0.000000,-0.082291,0.146683,0.000000,0.146000,-0.126000,0.026000,-2.170000,0.220000,1.380000,5.378030,Hold,55.578857,51.000000,Hold,-77498.000000,77414.400000,HighGoal,3255.000000,-3272.727273,Speed,3232.500000,-3272.727273,Speed,Off,Off,0.000000,FALSE,0,,,,
07:54:46.875 PM 03/22/2016,Teleop Enabled,10,FALSE,0,NO ERROR,-0.445223,-4.344073,-0.445223,-5.248821,TRUE,FALSE,TRUE,TRUE,TRUE,FALSE,PID,0.750000,-30.750000,28.590000,TRUE,0.099808,0.283340,0.000000,0.214218,0.380234,0.000000,-0.063000,-0.274000,0.187000,5.060000,1.310000,2.660000,17.587812,Hold,55.568115,51.000000,Hold,-77498.000000,77414.400000,HighGoal,3210.000000,-3272.727273,Speed,3202.500000,-3272.727273,Speed,Off,Off,0.000000,FALSE,0,,,,
07:54:46.975 PM 03/22/2016,Teleop Enabled,11,FALSE,0,NO ERROR,-0.239366,-4.344073,-0.239366,-5.248821,TRUE,FALSE,TRUE,TRUE,TRUE,FALSE,PID,0.750000,-30.750000,28.590000,TRUE,0.113693,0.299393,0.000000,0.249451,0.243073,0.000000,0.127000,-0.146000,0.056000,14.360000,1.180000,2.720000,17.587812,Hold,55.567383,51.000000,Hold,-77498.000000,77414.400000,HighGoal,3180.000000,-3272.727273,Speed,3180.000000,-3272.727273,Speed,Off,Off,0.000000,FALSE,0,,,,
07:54:47.076 PM 03/22/2016,Teleop Enabled,10,FALSE,0,NO ERROR,0.171603,-6.782401,0.171603,-7.834732,TRUE,FALSE,TRUE,TRUE,TRUE,FALSE,PID,0.750000,-30.750000,28.590000,TRUE,0.122421,0.307373,0.000000,0.190384,0.152618,0.000000,-0.200000,0.070000,-0.116000,27.820000,0.640000,2.270000,29.274805,Hold,55.567383,51.000000,Hold,-77498.000000,77414.400000,HighGoal,3232.500000,-3272.727273,Speed,3225.000000,-3272.727273,Speed,Off,Off,0.000000,FALSE,0,,,,
07:54:47.176 PM 03/22/2016,Teleop Enabled,10,FALSE,0,NO ERROR,0.243419,-8.226147,0.243419,-9.188645,TRUE,FALSE,TRUE,TRUE,TRUE,FALSE,PID,0.750000,-30.750000,28.590000,TRUE,0.127396,0.311768,0.000000,0.009445,0.034714,0.000000,-0.079000,-0.079000,0.059000,35.280000,-0.030000,1.580000,37.499186,Hold,55.567383,51.000000,Hold,-77498.000000,77414.400000,HighGoal,3270.000000,-3272.727273,Speed,3247.500000,-3272.727273,Speed,Off,Off,0.000000,FALSE,0,,,,
07:54:47.276 PM 03/22/2016,Teleop Enabled,10,FALSE,0,NO ERROR,0.227529,-7.776982,0.227529,-8.771563,TRUE,FALSE,TRUE,TRUE,TRUE,FALSE,PID,0.750000,-30.750000,28.590000,TRUE,0.121445,0.311676,0.000000,-0.230728,-0.027481,0.000000,-0.078000,-0.097000,0.052000,35.380000,-0.680000,0.750000,38.165614,Hold,55.567383,51.000000,Hold,-77498.000000,77414.400000,HighGoal,3262.500000,-3272.727273,Speed,3232.500000,-3272.727273,Speed,Off,Off,0.000000,FALSE,0,,,,
07:54:47.377 PM 03/22/2016,Teleop Enabled,10,FALSE,0,NO ERROR,0.179035,-6.955650,0.179035,-7.853982,TRUE,FALSE,TRUE,TRUE,TRUE,FALSE,PID,0.750000,-30.750000,28.590000,TRUE,0.107803,0.309586,0.000000,-0.282410,-0.025360,0.000000,0.064000,-0.117000,0.086000,31.790000,-0.630000,0.640000,34.462320,Hold,55.567383,51.000000,Hold,-77497.000000,77414.400000,HighGoal,3247.500000,-3272.727273,Speed,3232.500000,-3272.727273,Speed,Off,Off,0.000000,FALSE,0,,,,
07:54:47.477 PM 03/22/2016,Teleop Enabled,11,FALSE,0,NO ERROR,-0.169538,-6.236985,-0.169538,-7.077567,TRUE,FALSE,TRUE,TRUE,TRUE,FALSE,PID,-0.187500,-30.750000,28.590000,TRUE,0.094727,0.311127,0.000000,-0.169067,0.093201,0.000000,0.209000,0.042000,0.116000,28.610000,-0.430000,0.980000,31.113685,Hold,55.567383,51.000000,Hold,-77497.000000,77414.400000,HighGoal,3247.500000,-3272.727273,Speed,3240.000000,-3272.727273,Speed,Off,Off,0.000000,FALSE,0,,,,
07:54:47.578 PM 03/22/2016,Teleop Enabled,11,FALSE,0,NO ERROR,0.000000,-5.961069,-0.000000,-6.775984,TRUE,FALSE,TRUE,TRUE,TRUE,FALSE,Enable,-0.187500,7.687500,18.812500,TRUE,0.089325,0.316422,0.000000,-0.091644,0.113235,0.000000,0.090000,0.031000,-0.003000,26.600000,-0.290000,0.980000,28.744799,Hold,55.567383,51.000000,Hold,-77497.000000,77414.400000,HighGoal,3255.000000,-3272.727273,Speed,3255.000000,-3272.727273,Speed,Off,Off,0.000000,FALSE,0,,,,
07:54:47.678 PM 03/22/2016,Teleop Enabled,10,FALSE,0,NO ERROR,0.272712,-6.435902,0.272712,-7.244400,TRUE,FALSE,TRUE,TRUE,TRUE,FALSE,PID,-0.187500,7.687500,18.812500,TRUE,0.090210,0.324585,0.000000,0.056152,0.195877,0.000000,0.001000,-0.151000,-0.015000,27.710000,0.050000,1.770000,30.420994,Hold,55.567383,51.000000,Hold,-77497.000000,77414.400000,HighGoal,3262.500000,-3272.727273,Speed,3240.000000,-3272.727273,Speed,Off,Off,0.000000,FALSE,0,,,,
07:54:47.778 PM 03/22/2016,Teleop Enabled,10,FALSE,0,NO ERROR,0.269848,-6.346068,0.269848,-7.186650,TRUE,FALSE,TRUE,TRUE,TRUE,FALSE,PID,-0.187500,7.687500,18.812500,TRUE,0.089371,0.331741,0.000000,-0.069977,0.115921,0.000000,-0.134000,0.049000,-0.096000,28.800000,-0.310000,1.230000,31.215144,Hold,55.567383,51.000000,Hold,-77497.000000,77414.400000,HighGoal,3255.000000,-3272.727273,Speed,3247.500000,-3272.727273,Speed,Off,Off,0.000000,FALSE,0,,,,
07:54:47.878 PM 03/22/2016,Teleop Enabled,10,FALSE,0,NO ERROR,0.222991,-5.460571,0.222991,-6.352485,TRUE,FALSE,TRUE,TRUE,TRUE,FALSE,PID,-0.187500,7.687500,18.812500,TRUE,0.081726,0.335358,0.000000,-0.171890,0.046249,0.000000,0.044000,-0.121000,0.009000,26.160000,-0.520000,0.820000,27.814537,Hold,55.567383,51.000000,Hold,-77497.000000,77414.400000,HighGoal,3262.500000,-3272.727273,Speed,3240.000000,-3272.727273,Speed,Off,Off,0.000000,FALSE,0,,,,
07:54:47.978 PM 03/22/2016,Teleop Enabled,10,FALSE,0,NO ERROR,0.178903,-4.575073,0.178903,-5.370737,TRUE,FALSE,TRUE,TRUE,TRUE,FALSE,PID,-0.187500,7.687500,18.812500,TRUE,0.072021,0.335876,0.000000,-0.194946,-0.003632,0.000000,0.168000,-0.022000,-0.065000,21.390000,-0.360000,1.040000,23.625195,Hold,55.567383,51.000000,Hold,-77497.000000,77414.400000,HighGoal,3247.500000,-3272.727273,Speed,3232.500000,-3272.727273,Speed,Off,Off,0.000000,FALSE,0,,,,
07:54:48.078 PM 03/22/2016,Teleop Enabled,10,FALSE,0,NO ERROR,-0.171008,-3.830741,-0.171008,-4.587906,TRUE,FALSE,TRUE,TRUE,TRUE,FALSE,PID,-0.187500,7.687500,18.812500,TRUE,0.065018,0.335922,0.000000,-0.110703,-0.001205,0.000000,0.038000,-0.171000,0.048000,18.210000,-0.120000,1.070000,20.263623,Hold,55.567383,51.000000,Hold,-77497.000000,77414.400000,HighGoal,3247.500000,-3272.727273,Speed,3247.500000,-3272.727273,Speed,Off,Off,0.000000,FALSE,0,,,,
07:54:48.178 PM 03/22/2016,Teleop Enabled,10,FALSE,0,NO ERROR,-0.185465,-3.522742,-0.185465,-4.401823,TRUE,FALSE,TRUE,TRUE,TRUE,FALSE,PID,-0.187500,7.687500,18.812500,TRUE,0.061203,0.333847,0.000000,-0.044830,-0.046402,0.000000,0.136000,0.223000,-0.019000,16.390000,-0.050000,1.340000,18.291124,Hold,55.567383,51.000000,Hold,-77497.000000,77414.400000,HighGoal,3262.500000,-3272.727273,Speed,3262.500000,-3272.727273,Speed,Off,Off,0.000000,FALSE,0,,,,
07:54:48.278 PM 03/22/2016,Teleop Enabled,10,FALSE,0,NO ERROR,0.162888,-4.196490,0.162888,-5.139738,TRUE,FALSE,TRUE,TRUE,TRUE,FALSE,PID,-0.187500,7.687500,18.812500,TRUE,0.063370,0.334778,0.000000,0.096252,0.062744,0.000000,-0.092000,-0.153000,0.021000,17.980000,0.250000,1.960000,19.831118,Hold,55.567383,51.000000,Hold,-77497.000000,77414.400000,HighGoal,3262.500000,-3272.727273,Speed,3277.500000,-3272.727273,Speed,Off,Off,0.000000,FALSE,0,,,,
07:54:48.379 PM 03/22/2016,Teleop Enabled,10,FALSE,0,NO ERROR,0.178269,-4.607156,0.178269,-5.576070,TRUE,FALSE,TRUE,TRUE,TRUE,FALSE,PID,-0.187500,7.687500,18.812500,TRUE,0.066589,0.334579,0.000000,0.003769,-0.063858,0.000000,-0.238000,-0.171000,-0.052000,20.430000,0.010000,1.590000,22.427309,Hold,55.567383,51.000000,Hold,-77497.000000,77414.400000,HighGoal,3262.500000,-3272.727273,Speed,3270.000000,-3272.727273,Speed,Off,Off,0.000000,FALSE,0,,,,
07:54:48.480 PM 03/22/2016,Teleop Enabled,10,FALSE,0,NO ERROR,-0.166184,-3.882074,-0.166184,-4.947238,TRUE,FALSE,TRUE,TRUE,TRUE,FALSE,PID,0.200000,7.687500,18.812500,TRUE,0.062469,0.327744,0.000000,-0.122086,-0.173615,0.000000,0.070000,-0.050000,0.079000,18.720000,-0.290000,1.020000,20.756119,Hold,55.567383,51.000000,Hold,-77497.000000,77414.400000,HighGoal,3270.000000,-3272.727273,Speed,3255.000000,-3272.727273,Speed,Off,Off,0.000000,FALSE,0,,,,
07:54:48.580 PM 03/22/2016,Teleop Enabled,11,FALSE,0,NO ERROR,0.000000,-3.464992,-0.000000,-4.645656,TRUE,FALSE,TRUE,TRUE,TRUE,FALSE,Enable,0.200000,-8.200000,24.780000,TRUE,0.057159,0.317490,0.000000,-0.095764,-0.207382,0.000000,0.183000,0.033000,0.055000,16.800000,-0.170000,1.140000,18.484640,Hold,55.567383,51.000000,Hold,-77497.000000,77414.400000,HighGoal,3270.000000,-3272.727273,Speed,3262.500000,-3272.727273,Speed,Off,Off,0.000000,FALSE,0,,,,
07:54:48.681 PM 03/22/2016,Teleop Enabled,9,FALSE,0,NO ERROR,-0.227410,-3.798658,-0.227410,-5.062738,TRUE,FALSE,TRUE,TRUE,TRUE,FALSE,PID,0.200000,-8.200000,24.780000,TRUE,0.057098,0.312073,0.000000,0.040939,-0.045868,0.000000,-0.238000,-0.073000,0.056000,17.790000,0.100000,2.090000,20.182613,Hold,55.567383,51.000000,Hold,-77497.000000,77414.400000,HighGoal,3262.500000,-3272.727273,Speed,3277.500000,-3272.727273,Speed,Off,Off,0.000000,FALSE,0,,,,
07:54:48.781 PM 03/22/2016,Teleop Enabled,10,FALSE,0,NO ERROR,-0.225625,-4.222157,-0.225625,-5.499070,TRUE,FALSE,TRUE,TRUE,TRUE,FALSE,PID,0.200000,-8.200000,24.780000,TRUE,0.054886,0.306351,0.000000,-0.083572,-0.154099,0.000000,0.542000,-0.105000,-0.115000,18.730000,-0.200000,1.430000,20.710416,Hold,55.567383,51.000000,Hold,-77497.000000,77414.400000,HighGoal,3270.000000,-3272.727273,Speed,3270.000000,-3272.727273,Speed,Off,Off,0.000000,FALSE,0,,,,
07:54:48.881 PM 03/22/2016,Teleop Enabled,10,FALSE,0,NO ERROR,-0.199251,-4.587906,-0.199251,-6.038069,TRUE,FALSE,TRUE,TRUE,TRUE,FALSE,PID,0.200000,-8.200000,24.780000,TRUE,0.056946,0.298965,0.000000,0.039459,-0.111633,0.000000,0.006000,-0.003000,-0.064000,20.090000,0.030000,1.920000,22.603988,Hold,55.567383,51.000000,Hold,-77496.000000,77414.400000,HighGoal,3262.500000,-3272.727273,Speed,3255.000000,-3272.727273,Speed,Off,Off,0.000000,FALSE,0,,,,
07:54:48.981 PM 03/22/2016,Teleop Enabled,10,FALSE,0,NO ERROR,-0.176715,-5.069155,-0.176715,-6.596318,TRUE,FALSE,TRUE,TRUE,TRUE,FALSE,PID,0.200000,-8.200000,24.780000,TRUE,0.057800,0.291962,0.000000,0.000000,-0.138580,0.000000,0.006000,-0.038000,-0.008000,22.350000,-0.050000,1.660000,24.901224,Hold,55.567383,51.000000,Hold,-77496.000000,77414.400000,HighGoal,3255.000000,-3272.727273,Speed,3270.000000,-3272.727273,Speed,Off,Off,0.000000,FALSE,0,,,,
07:54:49.081 PM 03/22/2016,Teleop Enabled,12,FALSE,0,NO ERROR,-0.160500,-5.422071,-0.160500,-7.039067,TRUE,FALSE,TRUE,TRUE,TRUE,FALSE,PID,0.200000,-8.200000,24.780000,TRUE,0.057190,0.284958,0.000000,-0.017258,-0.147629,0.000000,-0.024000,-0.005000,0.039000,24.190000,-0.150000,1.630000,26.710578,Hold,55.567383,51.000000,Hold,-77496.000000,77414.400000,HighGoal,3262.500000,-3272.727273,Speed,3277.500000,-3272.727273,Speed,Off,Off,0.000000,FALSE,0,,,,
07:54:49.181 PM 03/22/2016,Teleop Enabled,10,FALSE,0,NO ERROR,0.168305,-5.576070,0.168305,-7.308566,TRUE,FALSE,TRUE,TRUE,TRUE,FALSE,PID,0.200000,-8.200000,24.780000,TRUE,0.054916,0.277954,0.000000,-0.074127,-0.156586,0.000000,0.028000,-0.144000,0.110000,25.350000,-0.340000,1.600000,27.766975,Hold,55.567383,51.000000,Hold,-77496.000000,77414.400000,HighGoal,3270.000000,-3272.727273,Speed,3262.500000,-3272.727273,Speed,Off,Off,0.000000,FALSE,0,,,,
07:54:49.280 PM 03/22/2016,Teleop Enabled,11,FALSE,0,NO ERROR,0.166260,-5.351487,0.166260,-7.116067,TRUE,FALSE,TRUE,TRUE,TRUE,FALSE,PID,0.200000,-8.200000,24.780000,TRUE,0.051163,0.270370,0.000000,-0.084564,-0.140045,0.000000,-0.068000,0.047000,-0.002000,25.760000,-0.440000,1.470000,27.923405,Hold,55.567383,51.000000,Hold,-77496.000000,77414.400000,HighGoal,3270.000000,-3272.727273,Speed,3255.000000,-3272.727273,Speed,Off,Off,0.000000,FALSE,0,,,,
07:54:49.381 PM 03/22/2016,Teleop Enabled,11,FALSE,0,NO ERROR,-0.176400,-4.562239,-0.176400,-6.480818,TRUE,FALSE,TRUE,TRUE,TRUE,FALSE,PID,0.200000,-8.200000,24.780000,TRUE,0.046173,0.262634,0.000000,-0.109695,-0.165100,0.000000,0.140000,0.081000,0.037000,23.670000,-0.530000,1.060000,25.887720,Hold,55.567383,51.000000,Hold,-77496.000000,77414.400000,HighGoal,3262.500000,-3272.727273,Speed,3255.000000,-3272.727273,Speed,Off,Off,0.000000,FALSE,0,,,,
07:54:49.481 PM 03/22/2016,Teleop Enabled,10,FALSE,0,NO ERROR,-0.192392,-4.517323,-0.192392,-6.500068,TRUE,FALSE,TRUE,TRUE,TRUE,FALSE,PID,0.021875,-8.200000,24.780000,TRUE,0.043701,0.255753,0.000000,0.000168,-0.103104,0.000000,0.123000,0.238000,0.080000,21.690000,-0.260000,1.400000,23.841009,Hold,55.567383,51.000000,Hold,-77496.000000,77414.400000,HighGoal,3262.500000,-3272.727273,Speed,3285.000000,-3272.727273,Speed,Off,Off,0.000000,FALSE,0,,,,
07:54:49.581 PM 03/22/2016,Teleop Enabled,10,FALSE,0,NO ERROR,0.000000,-5.094821,-0.000000,-7.135317,TRUE,FALSE,TRUE,TRUE,TRUE,FALSE,Enable,0.021875,-0.896875,25.086875,TRUE,0.048813,0.254288,0.000000,0.102509,0.000000,0.000000,-0.130000,0.011000,-0.033000,23.610000,0.000000,1.960000,25.890849,Hold,55.567383,51.000000,Hold,-77496.000000,77414.400000,Shoot,3262.500000,-3272.727273,Speed,3292.500000,-3272.727273,Speed,Off,On,0.000000,FALSE,0,,,,
07:54:49.681 PM 03/22/2016,Teleop Enabled,10,FALSE,0,NO ERROR,0.000000,-5.402821,-0.000000,-7.462566,TRUE,FALSE,TRUE,TRUE,TRUE,FALSE,Suspended,0.021875,-0.896875,25.086875,TRUE,0.053802,0.254318,0.000000,0.092957,0.000107,0.000000,-0.219000,0.062000,0.027000,26.070000,-0.200000,1.550000,28.376858,Hold,55.567383,51.000000,Hold,-77496.000000,77414.400000,Shoot,3262.500000,-3272.727273,Speed,3270.000000,-3272.727273,Speed,Off,On,0.000000,FALSE,0,,,,
07:54:49.781 PM 03/22/2016,Teleop Enabled,10,FALSE,0,NO ERROR,0.000000,-5.351487,-0.000000,-7.436899,TRUE,FALSE,TRUE,TRUE,TRUE,FALSE,Suspended,0.021875,-0.896875,25.086875,TRUE,0.057449,0.254700,0.000000,0.124954,0.025970,0.000000,0.063000,0.091000,-0.009000,25.430000,-0.040000,1.470000,27.751332,Hold,55.567383,51.000000,Hold,-77496.000000,77414.400000,Shoot,3270.000000,-3272.727273,Speed,3262.500000,-3272.727273,Speed,Off,On,0.000000,FALSE,0,,,,
07:54:49.882 PM 03/22/2016,Teleop Enabled,10,FALSE,0,NO ERROR,0.000000,-5.351487,-0.000000,-7.436899,TRUE,FALSE,TRUE,TRUE,TRUE,FALSE,Suspended,0.021875,-0.896875,25.086875,TRUE,0.064301,0.257477,0.000000,0.000000,0.083237,0.000000,0.008000,0.000000,-0.037000,25.370000,0.000000,1.490000,27.743634,Hold,55.567383,51.000000,Hold,-77494.000000,77414.400000,Shoot,3270.000000,-3272.727273,Speed,3270.000000,-3272.727273,Speed,On,On,0.000000,FALSE,0,,,,
07:54:49.982 PM 03/22/2016,Teleop Enabled,11,FALSE,0,NO ERROR,0.000000,-5.332238,-0.000000,-7.436899,TRUE,FALSE,FALSE,TRUE,TRUE,FALSE,Suspended,0.021875,-0.896875,25.086875,TRUE,0.063461,0.263687,0.000000,-0.036652,0.156860,0.000000,0.124000,0.044000,0.067000,25.370000,-0.120000,1.490000,27.748006,Hold,55.567383,51.000000,Hold,-77493.000000,77414.400000,Shoot,3217.500000,-3272.727273,Speed,3217.500000,-3272.727273,Speed,On,On,0.000000,FALSE,0,,,,
07:54:50.082 PM 03/22/2016,Teleop Enabled,11,FALSE,0,NO ERROR,0.000000,-5.319404,-0.000000,-7.436899,TRUE,FALSE,FALSE,TRUE,TRUE,FALSE,Suspended,0.021875,-0.896875,25.086875,TRUE,0.062500,0.271439,0.000000,-0.021103,0.135468,0.000000,-0.128000,-0.072000,0.210000,25.350000,0.070000,1.470000,27.702052,Hold,55.567383,51.000000,Hold,-77493.000000,77414.400000,Shoot,2257.500000,-3272.727273,Speed,2317.500000,-3272.727273,Speed,On,On,0.000000,FALSE,0,,,,
07:54:50.183 PM 03/22/2016,Teleop Enabled,9,FALSE,0,NO ERROR,0.000000,-5.319404,-0.000000,-7.436899,TRUE,FALSE,FALSE,TRUE,TRUE,FALSE,Suspended,0.021875,-0.896875,25.086875,TRUE,0.059860,0.279190,0.000000,-0.023026,0.137512,0.000000,-0.069000,0.030000,0.133000,25.320000,0.040000,1.500000,27.722452,Hold,55.567383,51.000000,Hold,-77493.000000,77414.400000,Shoot,2602.500000,-3272.727273,Speed,2677.500000,-3272.727273,Speed,On,On,0.000000,FALSE,0,,,,
07:54:50.283 PM 03/22/2016,Teleop Enabled,10,FALSE,0,NO ERROR,0.000000,-5.319404,-0.000000,-7.436899,TRUE,FALSE,FALSE,TRUE,TRUE,FALSE,Suspended,0.021875,-0.896875,25.086875,TRUE,0.058640,0.284470,0.000000,-0.035873,0.124130,0.000000,-0.020000,-0.023000,-0.080000,25.310000,0.120000,1.520000,27.715608,Hold,55.567383,51.000000,Hold,-77493.000000,77414.400000,Shoot,2947.500000,-3272.727273,Speed,3112.500000,-3272.727273,Speed,On,On,0.000000,FALSE,0,,,,
07:54:50.384 PM 03/22/2016,Teleop Enabled,17,FALSE,0,NO ERROR,0.000000,-5.319404,-0.000000,-7.436899,TRUE,FALSE,FALSE,TRUE,TRUE,FALSE,Suspended,0.021875,-0.896875,25.086875,TRUE,0.055984,0.290329,0.000000,-0.030350,0.091690,0.000000,-0.071000,-0.012000,0.127000,25.300000,0.150000,1.480000,27.717082,Hold,55.567383,51.000000,Hold,-77493.000000,77414.400000,Shoot,3337.500000,-3272.727273,Speed,3345.000000,-3272.727273,Speed,On,On,0.000000,FALSE,0,,,,
07:54:50.486 PM 03/22/2016,Teleop Enabled,10,FALSE,0,NO ERROR,0.000000,-5.319404,-0.000000,-7.436899,TRUE,FALSE,FALSE,TRUE,TRUE,FALSE,Suspended,0.021875,-0.896875,25.086875,TRUE,0.053513,0.291077,0.000000,-0.068665,-0.022125,0.000000,-0.101000,-0.047000,0.032000,25.300000,0.100000,1.530000,27.721674,Hold,55.567383,51.000000,Hold,-77493.000000,77414.400000,Shoot,3375.000000,-3272.727273,Speed,3330.000000,-3272.727273,Speed,On,On,0.000000,FALSE,0,,,,
07:54:50.586 PM 03/22/2016,Teleop Enabled,10,FALSE,0,NO ERROR,0.000000,-5.319404,-0.000000,-7.436899,TRUE,FALSE,FALSE,TRUE,TRUE,FALSE,Suspended,0.021875,-0.896875,25.086875,TRUE,0.050629,0.288116,0.000000,-0.045578,-0.068741,0.000000,0.062000,-0.020000,-0.021000,25.310000,0.230000,1.480000,27.708720,Hold,55.567383,51.000000,Hold,-77493.000000,77414.400000,Shoot,3255.000000,-3272.727273,Speed,3270.000000,-3272.727273,Speed,On,On,0.000000,FALSE,0,,,,
07:54:50.687 PM 03/22/2016,Teleop Enabled,10,FALSE,0,NO ERROR,0.000000,-5.319404,-0.000000,-7.436899,TRUE,FALSE,FALSE,TRUE,TRUE,FALSE,Suspended,0.021875,-0.896875,25.086875,TRUE,0.047852,0.283829,0.000000,-0.069107,-0.092789,0.000000,0.041000,-0.067000,0.010000,25.310000,0.210000,1.480000,27.711557,Hold,55.567383,51.000000,Hold,-77493.000000,77414.400000,Shoot,3247.500000,-3272.727273,Speed,3270.000000,-3272.727273,Speed,On,On,0.000000,FALSE,0,,,,
07:54:50.788 PM 03/22/2016,Teleop Enabled,10,FALSE,0,NO ERROR,0.000000,-5.319404,-0.000000,-7.436899,TRUE,FALSE,FALSE,TRUE,TRUE,FALSE,Suspended,0.021875,-0.896875,25.086875,TRUE,0.044235,0.278595,0.000000,-0.078735,-0.110580,0.000000,-0.076000,0.037000,-0.085000,25.310000,0.130000,1.550000,27.721444,Hold,55.567383,51.000000,Hold,-77493.000000,77414.400000,Shoot,3292.500000,-3272.727273,Speed,3300.000000,-3272.727273,Speed,On,On,0.000000,FALSE,0,,,,
07:54:50.887 PM 03/22/2016,Teleop Enabled,6,FALSE,0,NO ERROR,0.000000,-5.319404,-0.000000,-7.436899,TRUE,FALSE,FALSE,TRUE,TRUE,FALSE,Suspended,0.021875,-0.896875,25.086875,TRUE,0.039566,0.271622,0.000000,-0.106186,-0.171478,0.000000,-0.040000,-0.033000,-0.048000,25.300000,0.070000,1.580000,27.725902,Hold,55.567383,51.000000,Hold,-77493.000000,77414.400000,Shoot,3292.500000,-3272.727273,Speed,3300.000000,-3272.727273,Speed,On,On,0.000000,FALSE,0,,,,
