Time,Robot Mode,Loop Time,Error Status,Error Code,Error Source,Left Motor Output,Left Motor Encoder,Right Motor Output,Right Motor Encoder,Is Level,Is Stalled,Ball Detector Photoeye,Vision Enabled,Vision Teleop Control,Vision Auto Control,Vision Current State,Vision X Output,Vision NavX Error,Vision NavX Target,NavX Connection Status,NavX Displacement X,NavX Displacement Y,NavX Displacement Z,NavX Velocity X,NavX Velocity Y,NavX Velocity Z,NavX Acceleration X,NavX Acceleration Y,NavX Acceleration Z,NavX Pitch,NavX Yaw,NavX Roll,Gyro Angle,Roller Arm State,Roller Arm Actual,Roller Arm Desired,Shooter Arm State,Shooter Arm Actual,Shooter Arm Desired,Shooter State,Actual RPM Left,Desired RPM Left,Control Mode Left,Actual RPM Right,Desired RPM Right,Control Mode Right,Ball Shooter Cylinder,Ball Halo Cylinder,Scaler Motor Output,Scaler Solenoid Fire,Auto To Run,Auto Current File,Auto File Status,Auto Current Command,Auto Trimmed Command
08:11:07.833 PM 03/22/2016,Teleop Enabled,10,FALSE,0,NO ERROR,-0.000000,0.000000,0.000000,0.000000,TRUE,FALSE,FALSE,FALSE,FALSE,FALSE,Disabled,0.000000,0.000000,0.000000,TRUE,0.001251,-0.000259,0.000000,0.000000,0.000000,0.000000,0.005000,-0.022000,-0.017000,0.000000,0.360000,1.330000,-0.008276,ResetBack,-0.157959,-0.000049,ResetBack,-160.000000,-0.300000,Empty,0.000000,0.000000,Speed,0.000000,0.000000,Speed,Off,Off,0.000000,FALSE,0,,,,
08:11:07.933 PM 03/22/2016,Teleop Enabled,6,FALSE,0,NO ERROR,-0.000000,0.000000,0.000000,-0.160416,TRUE,FALSE,FALSE,FALSE,FALSE,FALSE,Disabled,0.000000,0.000000,0.000000,TRUE,0.001266,-0.000549,0.000000,0.000824,0.000000,0.000000,0.025000,0.010000,-0.041000,0.000000,0.300000,1.330000,-0.010517,ResetBack,-1.791504,-0.000049,ResetBack,5552.000000,-0.300000,Empty,0.000000,0.000000,Speed,0.000000,0.000000,Speed,Off,Off,0.000000,FALSE,0,,,,
08:11:08.033 PM 03/22/2016,Teleop Enabled,9,FALSE,0,NO ERROR,-0.000000,0.000000,0.000000,-0.160416,TRUE,FALSE,FALSE,FALSE,FALSE,FALSE,Disabled,0.000000,0.000000,0.000000,TRUE,0.001373,-0.000717,0.000000,0.000000,-0.000854,0.000000,-0.023000,0.004000,0.033000,0.000000,0.310000,1.320000,-0.016035,ResetBack,-1.924072,-0.000049,ResetBack,18153.000000,-0.300000,Empty,0.000000,0.000000,Speed,0.000000,0.000000,Speed,Off,Off,0.000000,FALSE,0,,,,
08:11:08.134 PM 03/22/2016,Teleop Enabled,10,FALSE,0,NO ERROR,-0.000000,0.000000,0.000000,-0.160416,TRUE,FALSE,FALSE,FALSE,FALSE,FALSE,Disabled,0.000000,0.000000,0.000000,TRUE,0.001312,-0.000717,0.000000,0.000000,0.000000,0.000000,0.016000,-0.002000,0.005000,0.000000,0.310000,1.330000,-0.004944,Reset,-1.924072,0.000000,ResetBack,26235.000000,-0.300000,Empty,0.000000,0.000000,Speed,0.000000,0.000000,Speed,Off,Off,0.000000,FALSE,0,,,,
08:11:08.234 PM 03/22/2016,Teleop Enabled,9,FALSE,0,NO ERROR,-0.000000,0.000000,0.000000,-0.160416,TRUE,FALSE,FALSE,FALSE,FALSE,FALSE,Disabled,0.000000,0.000000,0.000000,TRUE,0.001312,-0.000717,0.000000,0.000000,0.000000,0.000000,-0.002000,0.024000,0.001000,0.000000,0.300000,1.330000,-0.008252,Hold,0.385254,0.000000,ResetBack,28906.000000,-0.300000,Empty,0.000000,0.000000,Speed,0.000000,0.000000,Speed,Off,Off,0.000000,FALSE,0,,,,
08:11:08.337 PM 03/22/2016,Teleop Enabled,11,FALSE,0,NO ERROR,-0.000000,0.000000,0.000000,-0.160416,TRUE,FALSE,FALSE,FALSE,FALSE,FALSE,Disabled,0.000000,0.000000,0.000000,TRUE,0.001312,-0.000626,0.000000,0.000000,0.000000,0.000000,0.001000,-0.006000,0.000000,0.000000,0.320000,1.340000,-0.012689,Hold,0.385498,0.000000,ResetBack,29794.000000,-0.300000,Empty,0.000000,0.000000,Speed,0.000000,0.000000,Speed,Off,Off,0.000000,FALSE,0,,,,
08:11:08.438 PM 03/22/2016,Teleop Enabled,9,FALSE,0,NO ERROR,-0.000000,0.000000,0.000000,-0.160416,TRUE,FALSE,FALSE,FALSE,FALSE,FALSE,Disabled,0.000000,0.000000,0.000000,TRUE,0.001312,-0.000626,0.000000,0.000000,0.000000,0.000000,-0.005000,0.002000,0.000000,0.000000,0.300000,1.340000,-0.006978,Hold,0.385498,0.000000,ResetBack,29794.000000,-0.300000,Empty,0.000000,0.000000,Speed,0.000000,0.000000,Speed,Off,Off,0.000000,FALSE,0,,,,
08:11:08.538 PM 03/22/2016,Teleop Enabled,11,FALSE,0,NO ERROR,-0.000000,0.000000,0.000000,-0.160416,TRUE,FALSE,FALSE,FALSE,FALSE,FALSE,Disabled,0.000000,0.000000,0.000000,TRUE,0.001312,-0.000626,0.000000,0.000000,0.000000,0.000000,-0.003000,-0.004000,0.001000,0.000000,0.320000,1.350000,0.005563,Hold,0.385498,0.000000,ResetBack,30008.000000,-0.300000,Empty,0.000000,0.000000,Speed,0.000000,0.000000,Speed,Off,On,0.000000,FALSE,0,,,,
08:11:08.638 PM 03/22/2016,Teleop Enabled,9,FALSE,0,NO ERROR,-0.000000,0.000000,0.000000,-0.160416,TRUE,FALSE,FALSE,FALSE,FALSE,FALSE,Disabled,0.000000,0.000000,0.000000,TRUE,0.001266,-0.000580,0.000000,-0.000778,0.004196,0.000000,-0.213000,-0.035000,-0.037000,0.000000,0.330000,1.360000,0.010841,Hold,0.385498,0.000000,ResetBack,30008.000000,-0.300000,Suck,0.000000,2181.818182,Speed,0.000000,2181.818182,Speed,Off,On,0.000000,FALSE,0,,,,
08:11:08.739 PM 03/22/2016,Teleop Enabled,9,FALSE,0,NO ERROR,-0.000000,0.000000,0.000000,-0.160416,TRUE,FALSE,FALSE,FALSE,FALSE,FALSE,Disabled,0.000000,0.000000,0.000000,TRUE,-0.000366,-0.000854,0.000000,-0.036057,-0.030487,0.000000,-0.101000,-0.020000,0.183000,0.000000,0.240000,1.260000,0.022924,Hold,0.385498,0.000000,ResetBack,30008.000000,-0.300000,Suck,-60.000000,2181.818182,Speed,-97.500000,2181.818182,Speed,Off,On,0.000000,FALSE,0,,,,
08:11:08.840 PM 03/22/2016,Teleop Enabled,11,FALSE,0,NO ERROR,-0.000000,0.000000,0.000000,-0.160416,TRUE,FALSE,FALSE,FALSE,FALSE,FALSE,Disabled,0.000000,0.000000,0.000000,TRUE,-0.002396,-0.001511,0.000000,-0.050400,0.000000,0.000000,-0.010000,0.006000,0.034000,0.000000,0.170000,1.240000,0.038144,Hold,0.385498,0.000000,ResetBack,30008.000000,-0.300000,Suck,-727.500000,2181.818182,Speed,-855.000000,2181.818182,Speed,Off,On,0.000000,FALSE,0,,,,
08:11:08.941 PM 03/22/2016,Teleop Enabled,10,FALSE,0,NO ERROR,-0.000000,0.000000,0.000000,-0.160416,TRUE,FALSE,FALSE,FALSE,FALSE,FALSE,Disabled,0.000000,0.000000,0.000000,TRUE,-0.003082,-0.000916,0.000000,-0.017807,0.005997,0.000000,-0.094000,0.064000,-0.081000,0.010000,0.110000,1.240000,0.046209,Hold,0.385498,0.000000,ResetBack,30008.000000,-0.300000,Suck,-1342.500000,2181.818182,Speed,-1642.500000,2181.818182,Speed,Off,On,0.000000,FALSE,0,,,,
08:11:09.041 PM 03/22/2016,Teleop Enabled,12,FALSE,0,NO ERROR,-0.000000,0.000000,0.000000,-0.160416,TRUE,FALSE,FALSE,FALSE,FALSE,FALSE,Disabled,0.000000,0.000000,0.000000,TRUE,-0.004654,0.000977,0.000000,-0.056030,0.075012,0.000000,-0.068000,0.192000,-0.088000,0.010000,0.110000,1.180000,0.051676,Hold,0.385498,0.000000,Reset,30008.000000,2.000000,Suck,-1965.000000,2181.818182,Speed,-2235.000000,2181.818182,Speed,Off,On,0.000000,FALSE,0,,,,
08:11:09.142 PM 03/22/2016,Teleop Enabled,14,FALSE,0,NO ERROR,-0.000000,0.000000,0.000000,-0.160416,TRUE,FALSE,FALSE,FALSE,FALSE,FALSE,Disabled,0.000000,0.000000,0.000000,TRUE,-0.010406,0.010712,0.000000,-0.108032,0.175873,0.000000,0.047000,-0.039000,0.133000,0.010000,0.080000,1.220000,0.054052,Hold,0.385498,0.000000,Hold,30008.000000,2.000000,Suck,-2302.500000,2181.818182,Speed,-2347.500000,2181.818182,Speed,Off,On,0.000000,FALSE,0,,,,
08:11:09.243 PM 03/22/2016,Teleop Enabled,10,FALSE,0,NO ERROR,-0.000000,0.000000,0.000000,-0.160416,TRUE,FALSE,FALSE,FALSE,FALSE,FALSE,Disabled,0.000000,0.000000,0.000000,TRUE,-0.013702,0.015488,0.000000,-0.035202,0.053177,0.000000,0.078000,0.004000,0.113000,0.010000,0.170000,1.200000,0.044764,Hold,0.385498,0.000000,Hold,-252.000000,2.000000,Suck,-2167.500000,2181.818182,Speed,-2197.500000,2181.818182,Speed,Off,On,0.000000,FALSE,0,,,,
08:11:09.343 PM 03/22/2016,Teleop Enabled,11,FALSE,0,NO ERROR,-0.314961,0.000000,0.314961,-0.160416,TRUE,FALSE,FALSE,FALSE,FALSE,FALSE,Disabled,0.000000,0.000000,0.000000,TRUE,-0.013962,0.015930,0.000000,-0.004593,-0.005829,0.000000,-0.052000,-0.059000,0.189000,0.010000,0.180000,1.210000,0.061298,Hold,0.385498,51.000000,Hold,-252.000000,151552.000000,Suck,-2040.000000,2181.818182,Speed,-2122.500000,2181.818182,Speed,Off,On,0.000000,FALSE,0,,,,
08:11:09.444 PM 03/22/2016,Teleop Enabled,10,FALSE,0,NO ERROR,-0.488189,-0.449166,0.488189,-0.526165,TRUE,FALSE,FALSE,FALSE,FALSE,FALSE,Disabled,0.000000,0.000000,0.000000,TRUE,-0.014618,0.014496,0.000000,-0.029846,-0.029953,0.000000,-0.143000,0.012000,0.046000,0.270000,-0.090000,1.330000,0.485776,Hold,2.755859,51.000000,Hold,-4752.000000,151552.000000,Suck,-2115.000000,2181.818182,Speed,-2167.500000,2181.818182,Speed,Off,On,0.000000,FALSE,0,,,,
08:11:09.545 PM 03/22/2016,Teleop Enabled,9,FALSE,0,NO ERROR,-0.488189,-1.328247,0.488189,-1.815912,TRUE,FALSE,FALSE,FALSE,FALSE,FALSE,Disabled,0.000000,0.000000,0.000000,TRUE,-0.009781,0.014999,0.000000,0.122498,0.017654,0.000000,-0.119000,0.335000,0.057000,3.910000,0.710000,1.450000,4.755949,Hold,4.537598,51.000000,Hold,-20003.000000,151552.000000,Suck,-2137.500000,2181.818182,Speed,-2167.500000,2181.818182,Speed,Off,On,0.000000,FALSE,0,,,,
08:11:09.645 PM 03/22/2016,Teleop Enabled,11,FALSE,0,NO ERROR,-0.503937,-2.836160,0.503937,-3.593325,TRUE,FALSE,FALSE,FALSE,FALSE,FALSE,Disabled,0.000000,0.000000,0.000000,TRUE,-0.005005,0.025070,0.000000,0.000000,0.299606,0.000000,-0.037000,-0.097000,-0.159000,10.010000,0.840000,1.890000,11.362218,Hold,7.316895,51.000000,Hold,-32667.000000,151552.000000,Suck,-2085.000000,2181.818182,Speed,-2145.000000,2181.818182,Speed,Off,On,0.000000,FALSE,0,,,,
08:11:09.745 PM 03/22/2016,Teleop Enabled,11,FALSE,0,NO ERROR,-0.000000,-4.536573,0.000000,-5.903320,TRUE,FALSE,FALSE,FALSE,FALSE,FALSE,Disabled,0.000000,0.000000,0.000000,TRUE,-0.007172,0.046265,0.000000,-0.084518,0.326538,0.000000,-0.210000,-0.232000,-0.175000,20.340000,0.400000,1.970000,20.483534,Hold,10.713379,51.000000,Hold,-32667.000000,151552.000000,Suck,-2077.500000,2181.818182,Speed,-2130.000000,2181.818182,Speed,Off,On,0.000000,FALSE,0,,,,
08:11:09.847 PM 03/22/2016,Teleop Enabled,10,FALSE,0,NO ERROR,-0.000000,-5.107655,0.000000,-7.026234,TRUE,FALSE,FALSE,FALSE,FALSE,FALSE,Disabled,0.000000,0.000000,0.000000,TRUE,-0.015091,0.059464,0.000000,-0.285583,0.320206,0.000000,-0.199000,0.083000,-0.027000,24.940000,-0.350000,1.280000,26.349505,Hold,14.619873,51.000000,Hold,-43666.000000,151552.000000,Suck,-2130.000000,2181.818182,Speed,-2175.000000,2181.818182,Speed,Off,On,0.000000,FALSE,0,,,,
08:11:09.948 PM 03/22/2016,Teleop Enabled,11,FALSE,0,NO ERROR,-0.488189,-5.017822,-0.488189,-6.974900,TRUE,FALSE,FALSE,FALSE,FALSE,FALSE,Disabled,0.000000,0.000000,0.000000,TRUE,-0.032257,0.076508,0.000000,-0.315918,0.367569,0.000000,0.390000,-0.141000,-0.262000,24.710000,-0.550000,1.020000,25.786089,Hold,14.619873,51.000000,Hold,-57550.000000,151552.000000,Suck,-2152.500000,2181.818182,Speed,-2197.500000,2181.818182,Speed,Off,On,0.000000,FALSE,0,,,,
08:11:10.048 PM 03/22/2016,Teleop Enabled,9,FALSE,0,NO ERROR,-0.496063,-5.813486,-0.496063,-5.903320,TRUE,FALSE,FALSE,FALSE,FALSE,FALSE,Disabled,0.000000,0.000000,0.000000,TRUE,-0.035278,0.095001,0.000000,0.152618,0.260620,0.000000,0.354000,-0.026000,-0.062000,24.000000,2.170000,1.050000,25.189098,Hold,22.491943,51.000000,Hold,-71547.000000,151552.000000,Suck,-2107.500000,2181.818182,Speed,-2160.000000,2181.818182,Speed,Off,On,0.000000,FALSE,0,,,,
08:11:10.148 PM 03/22/2016,Teleop Enabled,9,FALSE,0,NO ERROR,-0.496063,-8.117064,-0.496063,-3.708825,FALSE,FALSE,FALSE,FALSE,FALSE,FALSE,Disabled,0.000000,0.000000,0.000000,TRUE,-0.025024,0.104889,0.000000,0.315720,0.252396,0.000000,0.226000,0.043000,-0.321000,24.170000,3.060000,1.100000,25.285751,Hold,22.491943,51.000000,Hold,-84647.000000,151552.000000,Suck,-2070.000000,2181.818182,Speed,-2122.500000,2181.818182,Speed,Off,On,0.000000,FALSE,0,,,,
08:11:10.249 PM 03/22/2016,Teleop Enabled,9,FALSE,0,NO ERROR,-0.496063,-11.479390,-0.496063,-0.429916,FALSE,FALSE,FALSE,FALSE,FALSE,FALSE,Disabled,0.000000,0.000000,0.000000,TRUE,-0.005035,0.120895,0.000000,0.478195,0.321777,0.000000,0.142000,-0.203000,0.038000,24.360000,4.230000,1.100000,25.512151,Hold,26.902100,51.000000,Hold,-97547.000000,151552.000000,Suck,-2085.000000,2181.818182,Speed,-2115.000000,2181.818182,Speed,Off,On,0.000000,FALSE,0,,,,
08:11:10.351 PM 03/22/2016,Teleop Enabled,10,FALSE,0,NO ERROR,-0.496063,-15.451297,-0.496063,3.657491,FALSE,FALSE,FALSE,FALSE,FALSE,FALSE,Disabled,0.000000,0.000000,0.000000,TRUE,0.028381,0.136139,0.000000,0.622681,0.185135,0.000000,0.134000,-0.213000,0.079000,24.370000,4.730000,0.880000,25.537505,Hold,32.796387,51.000000,Hold,-97547.000000,151552.000000,Suck,-2107.500000,2181.818182,Speed,-2145.000000,2181.818182,Speed,Off,On,0.000000,FALSE,0,,,,
08:11:10.451 PM 03/22/2016,Teleop Enabled,9,FALSE,0,NO ERROR,-0.496063,-20.212453,-0.496063,8.598313,FALSE,FALSE,FALSE,FALSE,FALSE,FALSE,Disabled,0.000000,0.000000,0.000000,TRUE,0.071609,0.138672,0.000000,0.766266,0.005356,0.000000,-0.044000,0.045000,0.103000,24.220000,4.580000,0.630000,25.273045,Hold,40.670166,51.000000,Hold,-111390.000000,151552.000000,Suck,-2107.500000,2181.818182,Speed,-2160.000000,2181.818182,Speed,Off,On,0.000000,FALSE,0,,,,
08:11:10.551 PM 03/22/2016,Teleop Enabled,9,FALSE,0,NO ERROR,-0.496063,-25.948939,-0.496063,14.482383,FALSE,FALSE,FALSE,FALSE,FALSE,FALSE,Disabled,0.000000,0.000000,0.000000,TRUE,0.104355,0.138504,0.000000,0.853989,-0.000626,0.000000,-0.006000,0.039000,0.153000,23.870000,4.730000,0.620000,24.995275,Hold,47.390381,51.000000,Hold,-130638.000000,151552.000000,Suck,-2107.500000,2181.818182,Speed,-2152.500000,2181.818182,Speed,Off,On,0.000000,FALSE,0,,,,
08:11:10.651 PM 03/22/2016,Teleop Enabled,10,FALSE,0,NO ERROR,-0.000000,-31.800926,0.000000,20.231703,FALSE,FALSE,FALSE,FALSE,FALSE,FALSE,Disabled,0.000000,0.000000,0.000000,TRUE,0.145279,0.139038,0.000000,0.840332,0.002884,0.000000,0.170000,-0.136000,-0.057000,23.720000,4.500000,0.770000,24.881667,Hold,54.456299,51.000000,Hold,-130638.000000,151552.000000,Suck,-2115.000000,2181.818182,Speed,-2145.000000,2181.818182,Speed,Off,On,0.000000,FALSE,0,,,,
08:11:10.751 PM 03/22/2016,Teleop Enabled,9,FALSE,0,NO ERROR,-0.000000,-36.459415,0.000000,24.774692,TRUE,FALSE,FALSE,FALSE,FALSE,FALSE,Disabled,0.000000,0.000000,0.000000,TRUE,0.183792,0.144669,0.000000,0.668930,0.242538,0.000000,-0.345000,0.076000,-0.475000,23.870000,2.420000,0.870000,25.082537,Hold,55.540527,51.000000,Hold,-150289.000000,151552.000000,Suck,-2107.500000,2181.818182,Speed,-2152.500000,2181.818182,Speed,Off,On,0.000000,FALSE,0,,,,
08:11:10.851 PM 03/22/2016,Teleop Enabled,9,FALSE,0,NO ERROR,-0.236220,-40.258073,0.236220,28.528433,TRUE,FALSE,FALSE,FALSE,FALSE,FALSE,Disabled,0.000000,0.000000,0.000000,TRUE,0.209335,0.158997,0.000000,0.426102,0.290741,0.000000,-0.357000,0.180000,0.137000,23.900000,0.840000,0.980000,25.109857,Hold,55.540283,51.000000,Hold,-151940.000000,151552.000000,Suck,-2107.500000,2181.818182,Speed,-2182.500000,2181.818182,Speed,Off,On,0.000000,FALSE,0,,,,
08:11:10.951 PM 03/22/2016,Teleop Enabled,11,FALSE,0,NO ERROR,-0.346457,-43.671731,0.346457,30.427762,TRUE,FALSE,FALSE,FALSE,FALSE,FALSE,Disabled,0.000000,0.000000,0.000000,TRUE,0.222717,0.178574,0.000000,0.197723,0.452148,0.000000,-0.095000,0.095000,0.014000,25.430000,-0.290000,1.590000,26.541944,Hold,55.540283,51.000000,Hold,-151635.000000,151552.000000,Suck,-2107.500000,2181.818182,Speed,-2175.000000,2181.818182,Speed,Off,On,0.000000,FALSE,0,,,,
08:11:11.051 PM 03/22/2016,Teleop Enabled,10,FALSE,0,NO ERROR,-0.393701,-46.398808,0.393701,30.780678,TRUE,FALSE,FALSE,FALSE,FALSE,FALSE,Disabled,0.000000,0.000000,0.000000,TRUE,0.230225,0.209717,0.000000,0.083893,0.551773,0.000000,-0.041000,-0.094000,-0.002000,29.900000,-1.200000,1.880000,31.116615,Hold,55.540283,51.000000,Hold,-151695.000000,151552.000000,Suck,-2130.000000,2181.818182,Speed,-2175.000000,2181.818182,Speed,Off,On,0.000000,FALSE,0,,,,
08:11:11.151 PM 03/22/2016,Teleop Enabled,9,FALSE,0,NO ERROR,-0.440945,-48.715219,0.440945,30.414929,TRUE,FALSE,FALSE,FALSE,FALSE,FALSE,Disabled,0.000000,0.000000,0.000000,TRUE,0.230591,0.231583,0.000000,-0.037735,0.527969,0.000000,-0.081000,-0.181000,0.192000,33.920000,-1.170000,1.240000,36.342373,Hold,55.540283,51.000000,Hold,-151695.000000,151552.000000,Suck,-2130.000000,2181.818182,Speed,-2130.000000,2181.818182,Speed,Off,On,0.000000,FALSE,0,,,,
08:11:11.251 PM 03/22/2016,Teleop Enabled,10,FALSE,0,NO ERROR,-0.440945,-50.794215,0.440945,29.227848,TRUE,FALSE,FALSE,FALSE,FALSE,FALSE,Disabled,0.000000,0.000000,0.000000,TRUE,0.229385,0.254120,0.000000,0.010574,0.455811,0.000000,0.195000,0.123000,-0.090000,41.240000,-1.250000,1.590000,42.889096,Hold,55.540283,51.000000,Hold,-151688.000000,151552.000000,Suck,-2100.000000,2181.818182,Speed,-2107.500000,2181.818182,Speed,Off,On,0.000000,FALSE,0,,,,
08:11:11.351 PM 03/22/2016,Teleop Enabled,9,FALSE,0,NO ERROR,-0.440945,-53.142709,0.440945,27.399103,TRUE,FALSE,FALSE,FALSE,FALSE,FALSE,Disabled,0.000000,0.000000,0.000000,TRUE,0.234421,0.276642,0.000000,0.107681,0.384308,0.000000,-0.056000,0.196000,-0.131000,50.690000,-1.520000,1.320000,51.100489,Hold,55.540283,51.000000,Hold,-151668.000000,151552.000000,Suck,-2092.500000,2181.818182,Speed,-2122.500000,2181.818182,Speed,Off,On,0.000000,FALSE,0,,,,
08:11:11.451 PM 03/22/2016,Teleop Enabled,11,FALSE,0,NO ERROR,-0.440945,-55.401370,0.440945,25.409941,TRUE,FALSE,FALSE,FALSE,FALSE,FALSE,Disabled,0.000000,0.000000,0.000000,TRUE,0.239517,0.300232,0.000000,0.108841,0.402298,0.000000,0.159000,0.008000,0.117000,57.450000,-0.890000,0.920000,59.859496,Hold,55.540283,51.000000,Hold,-151669.000000,151552.000000,Suck,-2107.500000,2181.818182,Speed,-2145.000000,2181.818182,Speed,Off,On,0.000000,FALSE,0,,,,
08:11:11.551 PM 03/22/2016,Teleop Enabled,10,FALSE,0,NO ERROR,-0.000000,-57.788365,0.000000,23.016530,TRUE,FALSE,FALSE,FALSE,FALSE,FALSE,Disabled,0.000000,0.000000,0.000000,TRUE,0.250610,0.322800,0.000000,0.290833,0.493500,0.000000,0.159000,0.008000,0.117000,67.050000,-0.520000,1.210000,69.918896,Hold,55.540283,51.000000,Hold,-151669.000000,151552.000000,Suck,-2107.500000,2181.818182,Speed,-2145.000000,2181.818182,Speed,Off,On,0.000000,FALSE,0,,,,
08:11:11.651 PM 03/22/2016,Teleop Enabled,11,FALSE,0,NO ERROR,-0.000000,-59.418194,0.000000,21.572783,TRUE,FALSE,FALSE,FALSE,FALSE,FALSE,Disabled,0.000000,0.000000,0.000000,TRUE,0.259781,0.332870,0.000000,0.169907,0.002808,0.000000,-0.263000,0.032000,-0.117000,76.030000,-0.680000,0.330000,79.429327,Hold,55.540283,51.000000,Hold,-151669.000000,151552.000000,Suck,-2107.500000,2181.818182,Speed,-2137.500000,2181.818182,Speed,Off,On,0.000000,FALSE,0,,,,
08:11:11.752 PM 03/22/2016,Teleop Enabled,10,FALSE,0,NO ERROR,-0.000000,-60.156109,0.000000,21.072284,TRUE,FALSE,FALSE,FALSE,FALSE,FALSE,Disabled,0.000000,0.000000,0.000000,TRUE,0.266037,0.337784,0.000000,0.096176,0.120789,0.000000,-0.263000,0.032000,-0.117000,79.770000,-1.350000,-0.070000,83.289523,Hold,55.540283,51.000000,Hold,-151669.000000,151552.000000,Suck,-2122.500000,2181.818182,Speed,-2167.500000,2181.818182,Speed,Off,On,0.000000,FALSE,0,,,,
08:11:11.854 PM 03/22/2016,Teleop Enabled,8,FALSE,0,NO ERROR,-0.000000,-60.226692,0.000000,21.149284,TRUE,FALSE,FALSE,FALSE,FALSE,FALSE,Disabled,0.000000,0.000000,0.000000,TRUE,0.268539,0.344604,0.000000,0.041977,0.179245,0.000000,-0.073000,-0.013000,-0.166000,79.180000,-1.620000,-0.400000,83.169873,Hold,55.540283,51.000000,Hold,-151669.000000,151552.000000,Suck,-2137.500000,2181.818182,Speed,-2190.000000,2181.818182,Speed,Off,On,0.000000,FALSE,0,,,,
08:11:11.957 PM 03/22/2016,Teleop Enabled,11,FALSE,0,NO ERROR,-0.259843,-60.226692,0.259843,21.226284,TRUE,FALSE,FALSE,FALSE,FALSE,FALSE,Disabled,0.000000,0.000000,0.000000,TRUE,0.272430,0.353302,0.000000,0.140030,0.175629,0.000000,0.107000,-0.056000,-0.015000,78.490000,-1.620000,-0.040000,82.226409,Hold,55.540283,51.000000,Hold,-151669.000000,151552.000000,Suck,-2137.500000,2181.818182,Speed,-2167.500000,2181.818182,Speed,Off,On,0.000000,FALSE,0,,,,
08:11:12.059 PM 03/22/2016,Teleop Enabled,10,FALSE,0,NO ERROR,-0.614173,-60.842691,0.614173,20.770701,TRUE,FALSE,FALSE,FALSE,FALSE,FALSE,Disabled,0.000000,0.000000,0.000000,TRUE,0.285446,0.361465,0.000000,0.305176,0.054077,0.000000,0.177000,-0.374000,0.161000,79.520000,-1.170000,0.670000,82.732737,Hold,55.540283,51.000000,Hold,-151669.000000,151552.000000,Suck,-2137.500000,2181.818182,Speed,-2137.500000,2181.818182,Speed,Off,On,0.000000,FALSE,0,,,,
08:11:12.159 PM 03/22/2016,Teleop Enabled,9,FALSE,0,NO ERROR,-0.433071,-62.408354,0.433071,19.121622,TRUE,FALSE,FALSE,FALSE,FALSE,FALSE,Disabled,0.000000,0.000000,0.000000,TRUE,0.304047,0.358582,0.000000,0.398880,-0.097534,0.000000,0.177000,-0.374000,0.161000,85.260000,-0.450000,1.030000,89.247513,Hold,55.540283,51.000000,Hold,-151669.000000,151552.000000,Suck,-2130.000000,2181.818182,Speed,-2137.500000,2181.818182,Speed,Off,On,0.000000,FALSE,0,,,,
08:11:12.260 PM 03/22/2016,Teleop Enabled,10,FALSE,0,NO ERROR,-0.000000,-64.590016,0.000000,16.837294,TRUE,FALSE,FALSE,FALSE,FALSE,FALSE,Disabled,0.000000,0.000000,0.000000,TRUE,0.326782,0.348495,0.000000,0.459229,-0.260208,0.000000,-0.198000,-0.041000,-0.110000,94.400000,-0.220000,1.100000,98.798116,Hold,55.540283,51.000000,Hold,-151669.000000,151552.000000,Suck,-2077.500000,2181.818182,Speed,-2092.500000,2181.818182,Speed,Off,On,0.000000,FALSE,0,,,,
08:11:12.360 PM 03/22/2016,Teleop Enabled,11,FALSE,0,NO ERROR,-0.000000,-65.655180,0.000000,15.752880,TRUE,FALSE,FALSE,FALSE,FALSE,FALSE,Disabled,0.000000,0.000000,0.000000,TRUE,0.339813,0.339371,0.000000,0.273010,-0.185013,0.000000,-0.198000,-0.041000,-0.110000,94.400000,-0.220000,1.100000,105.975843,Hold,55.540283,51.000000,Hold,-151669.000000,151552.000000,Suck,-2062.500000,2181.818182,Speed,-2092.500000,2181.818182,Speed,Off,On,0.000000,FALSE,0,,,,
08:11:12.460 PM 03/22/2016,Teleop Enabled,10,FALSE,0,NO ERROR,-0.000000,-65.847679,0.000000,15.515464,TRUE,FALSE,FALSE,FALSE,FALSE,FALSE,Disabled,0.000000,0.000000,0.000000,TRUE,0.352051,0.331573,0.000000,0.223877,-0.123840,0.000000,-0.073000,0.118000,0.163000,102.580000,-0.870000,0.000000,107.344845,Hold,55.540283,51.000000,Hold,-151669.000000,151552.000000,Suck,-2137.500000,2181.818182,Speed,-2197.500000,2181.818182,Speed,Off,On,0.000000,FALSE,0,,,,
08:11:12.561 PM 03/22/2016,Teleop Enabled,10,FALSE,0,NO ERROR,-0.000000,-65.809179,0.000000,15.586047,TRUE,FALSE,FALSE,FALSE,FALSE,FALSE,Disabled,0.000000,0.000000,0.000000,TRUE,0.361328,0.323837,0.000000,0.169006,-0.161880,0.000000,-0.190000,-0.053000,0.088000,102.580000,-0.870000,0.000000,106.067725,Hold,55.540283,51.000000,Hold,-151669.000000,151552.000000,Suck,-2167.500000,2181.818182,Speed,-2212.500000,2181.818182,Speed,Off,On,0.000000,FALSE,0,,,,
08:11:12.662 PM 03/22/2016,Teleop Enabled,9,FALSE,0,NO ERROR,-0.000000,-65.809179,0.000000,15.586047,TRUE,FALSE,FALSE,FALSE,FALSE,FALSE,Disabled,0.000000,0.000000,0.000000,TRUE,0.370468,0.315506,0.000000,0.246719,-0.221329,0.000000,0.153000,-0.098000,0.039000,101.060000,-0.910000,0.000000,105.748293,Hold,55.540283,51.000000,Hold,-151669.000000,151552.000000,Suck,-2137.500000,2181.818182,Speed,-2152.500000,2181.818182,Speed,Off,On,0.000000,FALSE,0,,,,
08:11:12.763 PM 03/22/2016,Teleop Enabled,10,FALSE,0,NO ERROR,-0.000000,-65.809179,0.000000,15.586047,TRUE,FALSE,FALSE,FALSE,FALSE,FALSE,Disabled,0.000000,0.000000,0.000000,TRUE,0.375626,0.313263,0.000000,0.036285,0.008850,0.000000,-0.065000,0.002000,0.118000,100.930000,-0.800000,0.210000,105.944013,Hold,55.540283,51.000000,Hold,-151669.000000,151552.000000,Suck,-2130.000000,2181.818182,Speed,-2152.500000,2181.818182,Speed,Off,On,0.000000,FALSE,0,,,,
08:11:12.864 PM 03/22/2016,Teleop Enabled,10,FALSE,0,NO ERROR,-0.000000,-65.809179,0.000000,15.586047,TRUE,FALSE,FALSE,FALSE,FALSE,FALSE,Disabled,0.000000,0.000000,0.000000,TRUE,0.378754,0.315765,0.000000,0.076019,0.068268,0.000000,-0.009000,-0.065000,0.048000,101.120000,-0.580000,0.320000,105.828140,Hold,55.540283,51.000000,Hold,-151669.000000,151552.000000,Suck,-2137.500000,2181.818182,Speed,-2175.000000,2181.818182,Speed,Off,On,0.000000,FALSE,0,,,,
08:11:12.963 PM 03/22/2016,Teleop Enabled,8,FALSE,0,NO ERROR,-0.000000,-65.809179,0.000000,15.586047,TRUE,FALSE,FALSE,FALSE,FALSE,FALSE,Disabled,0.000000,0.000000,0.000000,TRUE,0.378754,0.315765,0.000000,0.076019,0.068268,0.000000,0.006000,0.027000,0.017000,101.010000,-0.600000,0.460000,105.890922,Hold,55.540283,51.000000,Hold,-151669.000000,151552.000000,Suck,-2145.000000,2181.818182,Speed,-2175.000000,2181.818182,Speed,Off,On,0.000000,FALSE,0,,,,
08:11:13.064 PM 03/22/2016,Teleop Enabled,11,FALSE,0,NO ERROR,-0.000000,-65.809179,0.000000,15.586047,TRUE,FALSE,FALSE,FALSE,FALSE,FALSE,Disabled,0.000000,0.000000,0.000000,TRUE,0.380905,0.321762,0.000000,0.010696,0.094406,0.000000,-0.150000,-0.030000,-0.092000,101.070000,-0.580000,0.490000,105.853277,Hold,55.540283,51.000000,Hold,-151669.000000,151552.000000,Suck,-2145.000000,2181.818182,Speed,-2160.000000,2181.818182,Speed,Off,On,0.000000,FALSE,0,,,,
08:11:13.164 PM 03/22/2016,Teleop Enabled,10,FALSE,0,NO ERROR,-0.000000,-65.809179,0.000000,15.586047,TRUE,FALSE,FALSE,FALSE,FALSE,FALSE,Disabled,0.000000,0.000000,0.000000,TRUE,0.380630,0.327591,0.000000,0.012466,0.060928,0.000000,-0.150000,-0.030000,-0.092000,101.040000,-0.580000,0.610000,105.841848,Hold,55.540283,51.000000,Hold,-151669.000000,151552.000000,Suck,-2137.500000,2181.818182,Speed,-2167.500000,2181.818182,Speed,Off,On,0.000000,FALSE,0,,,,
08:11:13.265 PM 03/22/2016,Teleop Enabled,10,FALSE,0,NO ERROR,-0.000000,-65.809179,0.000000,15.586047,TRUE,FALSE,FALSE,FALSE,FALSE,FALSE,Disabled,0.000000,0.000000,0.000000,TRUE,0.381973,0.330261,0.000000,0.046661,0.063354,0.000000,0.004000,0.008000,0.108000,101.050000,-0.570000,0.740000,105.853728,Hold,55.540283,51.000000,Hold,-151669.000000,151552.000000,Suck,-2145.000000,2181.818182,Speed,-2197.500000,2181.818182,Speed,Off,On,0.000000,FALSE,0,,,,
08:11:13.366 PM 03/22/2016,Teleop Enabled,10,FALSE,0,NO ERROR,-0.000000,-65.809179,0.000000,15.586047,TRUE,FALSE,FALSE,FALSE,FALSE,FALSE,Disabled,0.000000,0.000000,0.000000,TRUE,0.381973,0.330261,0.000000,0.046661,0.063354,0.000000,-0.024000,-0.005000,0.169000,101.050000,-0.560000,0.820000,105.848210,Hold,55.540283,51.000000,Hold,-151669.000000,151552.000000,Suck,-2145.000000,2181.818182,Speed,-2197.500000,2181.818182,Speed,Off,On,0.000000,FALSE,0,,,,
08:11:13.467 PM 03/22/2016,Teleop Enabled,10,FALSE,0,NO ERROR,-0.000000,-65.809179,0.000000,15.586047,TRUE,FALSE,FALSE,FALSE,FALSE,FALSE,Disabled,0.000000,0.000000,0.000000,TRUE,0.383774,0.331909,0.000000,0.028122,-0.001907,0.000000,-0.055000,0.042000,0.072000,101.040000,-0.430000,0.880000,105.862968,Hold,55.540283,51.000000,Hold,-151669.000000,151552.000000,Suck,-2137.500000,2181.818182,Speed,-2190.000000,2181.818182,Speed,Off,On,0.000000,FALSE,0,,,,
08:11:13.567 PM 03/22/2016,Teleop Enabled,9,FALSE,0,NO ERROR,-0.000000,-65.809179,0.000000,15.586047,TRUE,FALSE,FALSE,FALSE,FALSE,FALSE,Disabled,0.000000,0.000000,0.000000,TRUE,0.384583,0.332428,0.000000,-0.002243,0.007904,0.000000,0.045000,0.041000,0.122000,101.040000,-0.520000,0.940000,105.871451,Hold,55.540283,51.000000,Hold,-151669.000000,151552.000000,Suck,-2137.500000,2181.818182,Speed,-2182.500000,2181.818182,Speed,Off,On,0.000000,FALSE,0,,,,
08:11:13.667 PM 03/22/2016,Teleop Enabled,9,FALSE,0,NO ERROR,-0.000000,-65.809179,0.000000,15.586047,TRUE,FALSE,FALSE,FALSE,FALSE,FALSE,Disabled,0.000000,0.000000,0.000000,TRUE,0.383667,0.334045,0.000000,-0.027283,0.021164,0.000000,-0.026000,0.005000,0.117000,101.040000,-0.360000,0.980000,105.877362,Hold,55.540283,51.000000,Hold,-151669.000000,151552.000000,Suck,-2145.000000,2181.818182,Speed,-2182.500000,2181.818182,Speed,Off,On,0.000000,FALSE,0,,,,
08:11:13.768 PM 03/22/2016,Teleop Enabled,10,FALSE,0,NO ERROR,-0.000000,-65.809179,0.000000,15.586047,TRUE,FALSE,FALSE,FALSE,FALSE,FALSE,Disabled,0.000000,0.000000,0.000000,TRUE,0.382507,0.334000,0.000000,-0.013168,-0.017151,0.000000,0.007000,-0.067000,0.218000,101.040000,-0.340000,0.990000,105.877362,Hold,55.540283,51.000000,Hold,-151669.000000,151552.000000,Suck,-2145.000000,2181.818182,Speed,-2182.500000,2181.818182,Speed,Off,On,0.000000,FALSE,0,,,,
08:11:13.868 PM 03/22/2016,Teleop Enabled,9,FALSE,0,NO ERROR,-0.000000,-65.809179,0.000000,15.586047,TRUE,FALSE,FALSE,FALSE,FALSE,FALSE,Disabled,0.000000,0.000000,0.000000,TRUE,0.381851,0.331619,0.000000,-0.020630,-0.067596,0.000000,0.056000,0.053000,0.226000,101.040000,-0.420000,1.010000,105.869846,Hold,55.540283,51.000000,Hold,-151669.000000,151552.000000,Suck,-2145.000000,2181.818182,Speed,-2190.000000,2181.818182,Speed,Off,On,0.000000,FALSE,0,,,,
08:11:13.968 PM 03/22/2016,Teleop Enabled,9,FALSE,0,NO ERROR,-0.000000,-65.809179,0.000000,15.586047,TRUE,FALSE,FALSE,FALSE,FALSE,FALSE,Disabled,0.000000,0.000000,0.000000,TRUE,0.381714,0.330399,0.000000,0.010284,0.038956,0.000000,0.011000,0.092000,0.087000,101.040000,-0.630000,1.080000,105.869492,Hold,55.540283,51.000000,Hold,-151669.000000,151552.000000,Suck,-2145.000000,2181.818182,Speed,-2182.500000,2181.818182,Speed,Off,On,0.000000,FALSE,0,,,,
08:11:14.068 PM 03/22/2016,Teleop Enabled,10,FALSE,0,NO ERROR,-0.000000,-65.809179,0.000000,15.586047,TRUE,FALSE,FALSE,FALSE,FALSE,FALSE,Disabled,0.000000,0.000000,0.000000,TRUE,0.381577,0.332626,0.000000,-0.019562,0.059601,0.000000,-0.023000,0.109000,0.063000,101.040000,-0.510000,1.100000,105.880708,Hold,55.540283,51.000000,Hold,-151669.000000,151552.000000,Suck,-2145.000000,2181.818182,Speed,-2182.500000,2181.818182,Speed,Off,On,0.000000,FALSE,0,,,,
08:11:14.168 PM 03/22/2016,Teleop Enabled,9,FALSE,0,NO ERROR,-0.000000,-65.809179,0.000000,15.586047,TRUE,FALSE,FALSE,FALSE,FALSE,FALSE,Disabled,0.000000,0.000000,0.000000,TRUE,0.380539,0.339020,0.000000,0.000000,0.137817,0.000000,0.011000,0.030000,0.083000,101.040000,-0.490000,1.110000,105.882629,Hold,55.540283,51.000000,Hold,-151669.000000,151552.000000,Suck,-2145.000000,2181.818182,Speed,-2190.000000,2181.818182,Speed,Off,On,0.000000,FALSE,0,,,,
08:11:14.268 PM 03/22/2016,Teleop Enabled,9,FALSE,0,NO ERROR,-0.000000,-65.809179,0.000000,15.586047,TRUE,FALSE,FALSE,FALSE,FALSE,FALSE,Disabled,0.000000,0.000000,0.000000,TRUE,0.379700,0.343216,0.000000,-0.027969,-0.003799,0.000000,-0.054000,0.055000,0.184000,101.040000,-0.540000,1.150000,105.887648,Hold,55.540283,51.000000,Hold,-151669.000000,151552.000000,Suck,-2152.500000,2181.818182,Speed,-2175.000000,2181.818182,Speed,Off,On,0.000000,FALSE,0,,,,
08:11:14.369 PM 03/22/2016,Teleop Enabled,10,FALSE,0,NO ERROR,-0.000000,-65.809179,0.000000,15.586047,TRUE,FALSE,FALSE,FALSE,FALSE,FALSE,Disabled,0.000000,0.000000,0.000000,TRUE,0.378159,0.342636,0.000000,-0.003555,-0.032227,0.000000,-0.056000,0.015000,0.097000,101.040000,-0.640000,1.170000,105.887579,Hold,55.540283,51.000000,Hold,-151669.000000,151552.000000,Suck,-2152.500000,2181.818182,Speed,-2152.500000,2181.818182,Speed,Off,On,0.000000,FALSE,0,,,,
08:11:14.469 PM 03/22/2016,Teleop Enabled,8,FALSE,0,NO ERROR,-0.000000,-65.809179,0.000000,15.586047,TRUE,FALSE,FALSE,FALSE,FALSE,FALSE,Disabled,0.000000,0.000000,0.000000,TRUE,0.375946,0.340866,0.000000,-0.071899,-0.034027,0.000000,-0.004000,-0.090000,0.085000,101.050000,-0.590000,1.160000,105.905745,Hold,55.540283,51.000000,Hold,-151669.000000,151552.000000,Suck,-2145.000000,2181.818182,Speed,-2167.500000,2181.818182,Speed,Off,On,0.000000,FALSE,0,,,,
08:11:14.572 PM 03/22/2016,Teleop Enabled,10,FALSE,0,NO ERROR,-0.000000,-65.809179,0.000000,15.586047,TRUE,FALSE,FALSE,FALSE,FALSE,FALSE,Disabled,0.000000,0.000000,0.000000,TRUE,0.371964,0.337463,0.000000,-0.093155,-0.080338,0.000000,-0.031000,0.057000,0.177000,101.040000,-0.500000,1.170000,105.918411,Hold,55.540283,51.000000,Hold,-151669.000000,151552.000000,Suck,-2145.000000,2181.818182,Speed,-2197.500000,2181.818182,Speed,Off,On,0.000000,FALSE,0,,,,
08:11:14.673 PM 03/22/2016,Teleop Enabled,11,FALSE,0,NO ERROR,-0.000000,-65.809179,0.000000,15.586047,TRUE,FALSE,FALSE,FALSE,FALSE,FALSE,Disabled,0.000000,0.000000,0.000000,TRUE,0.368256,0.333923,0.000000,-0.067673,-0.065796,0.000000,0.005000,-0.028000,0.156000,101.040000,-0.490000,1.190000,105.916769,Hold,55.540283,51.000000,Hold,-151669.000000,151552.000000,Suck,-2145.000000,2181.818182,Speed,-2190.000000,2181.818182,Speed,Off,On,0.000000,FALSE,0,,,,
08:11:14.774 PM 03/22/2016,Teleop Enabled,9,FALSE,0,NO ERROR,-0.000000,-65.809179,0.000000,15.586047,TRUE,FALSE,FALSE,FALSE,FALSE,FALSE,Disabled,0.000000,0.000000,0.000000,TRUE,0.368195,0.330292,0.000000,-0.005432,-0.099197,0.000000,-0.043000,-0.058000,0.177000,101.050000,-0.550000,1.230000,105.923485,Hold,55.222168,51.000000,Hold,-151669.000000,151552.000000,Suck,-2152.500000,2181.818182,Speed,-2175.000000,2181.818182,Speed,Off,On,0.000000,FALSE,0,,,,
08:11:14.874 PM 03/22/2016,Teleop Enabled,10,FALSE,0,NO ERROR,-0.000000,-65.809179,0.000000,15.586047,TRUE,FALSE,FALSE,FALSE,FALSE,FALSE,Disabled,0.000000,0.000000,0.000000,TRUE,0.367249,0.323685,0.000000,-0.011978,-0.149017,0.000000,0.013000,-0.056000,0.003000,101.050000,-0.370000,1.230000,105.934098,Hold,53.786865,51.000000,Hold,-151669.000000,151552.000000,Suck,-2145.000000,2181.818182,Speed,-2175.000000,2181.818182,Speed,Off,On,0.000000,FALSE,0,,,,
08:11:14.975 PM 03/22/2016,Teleop Enabled,10,FALSE,0,NO ERROR,-0.000000,-65.809179,0.000000,15.586047,TRUE,FALSE,FALSE,FALSE,FALSE,FALSE,Disabled,0.000000,0.000000,0.000000,TRUE,0.367218,0.316132,0.000000,0.005127,-0.129868,0.000000,0.114000,0.121000,0.259000,101.110000,-0.440000,1.270000,105.965539,Hold,53.544678,51.000000,Hold,-151669.000000,151552.000000,Suck,-1807.500000,2181.818182,Speed,-2047.500000,2181.818182,Speed,Off,On,0.000000,FALSE,0,,,,
08:11:15.076 PM 03/22/2016,Teleop Enabled,11,FALSE,0,NO ERROR,-0.000000,-65.809179,0.000000,15.592464,TRUE,FALSE,TRUE,FALSE,FALSE,FALSE,Disabled,0.000000,0.000000,0.000000,TRUE,0.369797,0.310867,0.000000,0.094879,-0.092682,0.000000,-0.143000,0.022000,0.189000,100.910000,-0.680000,1.330000,105.842340,Hold,54.301758,51.000000,Hold,-151695.000000,151552.000000,Suck,-750.000000,2181.818182,Speed,-757.500000,2181.818182,Speed,Off,Off,0.000000,FALSE,0,,,,
08:11:15.176 PM 03/22/2016,Teleop Enabled,10,FALSE,0,NO ERROR,-0.000000,-65.809179,0.000000,15.586047,TRUE,FALSE,TRUE,FALSE,FALSE,FALSE,Disabled,0.000000,0.000000,0.000000,TRUE,0.374069,0.307907,0.000000,0.092880,-0.028870,0.000000,-0.163000,0.042000,-0.101000,101.060000,-0.760000,1.360000,106.002888,Hold,54.618164,51.000000,Hold,-151695.000000,151552.000000,Suck,-870.000000,2181.818182,Speed,-1080.000000,2181.818182,Speed,Off,Off,0.000000,FALSE,0,,,,
08:11:15.278 PM 03/22/2016,Teleop Enabled,12,FALSE,0,NO ERROR,-0.000000,-65.809179,0.000000,15.586047,TRUE,FALSE,TRUE,FALSE,FALSE,FALSE,Disabled,0.000000,0.000000,0.000000,TRUE,0.377655,0.306992,0.000000,0.066971,-0.028030,0.000000,-0.055000,-0.058000,-0.029000,101.010000,-0.530000,1.330000,105.945115,Hold,54.618164,51.000000,Hold,-151695.000000,151552.000000,Suck,-1620.000000,2181.818182,Speed,-1867.500000,2181.818182,Speed,Off,Off,0.000000,FALSE,0,,,,
08:11:15.378 PM 03/22/2016,Teleop Enabled,9,FALSE,0,NO ERROR,-0.000000,-65.809179,0.000000,15.586047,TRUE,FALSE,TRUE,FALSE,FALSE,FALSE,Disabled,0.000000,0.000000,0.000000,TRUE,0.379150,0.303955,0.000000,-0.002609,-0.065735,0.000000,-0.055000,-0.062000,0.159000,101.030000,-0.460000,1.320000,105.963247,Hold,54.618164,51.000000,Hold,-151691.000000,151552.000000,Suck,-2197.500000,2181.818182,Speed,-2362.500000,2181.818182,Speed,Off,Off,0.000000,FALSE,0,,,,
08:11:15.478 PM 03/22/2016,Teleop Enabled,10,FALSE,0,NO ERROR,0.425197,-65.809179,-0.425197,15.586047,TRUE,FALSE,TRUE,FALSE,FALSE,FALSE,Disabled,0.000000,0.000000,0.000000,TRUE,0.377258,0.297363,0.000000,0.010391,-0.106125,0.000000,-0.036000,-0.115000,-0.239000,101.000000,-0.290000,1.370000,105.943314,Hold,54.618164,51.000000,Hold,-151676.000000,151552.000000,Suck,-2310.000000,2181.818182,Speed,-2325.000000,2181.818182,Speed,Off,Off,0.000000,FALSE,0,,,,
08:11:15.579 PM 03/22/2016,Teleop Enabled,10,FALSE,0,NO ERROR,0.598425,-65.096931,-0.598425,16.317545,TRUE,FALSE,TRUE,FALSE,FALSE,FALSE,Disabled,0.000000,0.000000,0.000000,TRUE,0.374496,0.293991,0.000000,-0.116425,0.001053,0.000000,-0.046000,0.058000,-0.077000,99.740000,-0.600000,0.810000,104.954835,Hold,54.618164,51.000000,Hold,-151675.000000,151552.000000,Suck,-2115.000000,2181.818182,Speed,-2137.500000,2181.818182,Speed,Off,Off,0.000000,FALSE,0,,,,
08:11:15.680 PM 03/22/2016,Teleop Enabled,8,FALSE,0,NO ERROR,0.787402,-63.627518,-0.787402,17.761292,TRUE,FALSE,TRUE,FALSE,FALSE,FALSE,Disabled,0.000000,0.000000,0.000000,TRUE,0.368851,0.296188,0.000000,-0.156021,0.051361,0.000000,0.081000,0.109000,-0.024000,94.720000,-0.650000,0.560000,100.061160,Hold,54.618164,51.000000,Hold,-151676.000000,151552.000000,Suck,-2032.500000,2181.818182,Speed,-2062.500000,2181.818182,Speed,Off,Off,0.000000,FALSE,0,,,,
08:11:15.781 PM 03/22/2016,Teleop Enabled,11,FALSE,0,NO ERROR,0.787402,-61.246940,-0.787402,20.161120,TRUE,FALSE,TRUE,FALSE,FALSE,FALSE,Disabled,0.000000,0.000000,0.000000,TRUE,0.358261,0.298248,0.000000,-0.301819,0.021240,0.000000,-0.086000,0.173000,0.014000,86.260000,-1.060000,0.170000,91.620751,Hold,54.618164,51.000000,Hold,-151677.000000,151552.000000,Suck,-2040.000000,2181.818182,Speed,-2085.000000,2181.818182,Speed,Off,Off,0.000000,FALSE,0,,,,
08:11:15.883 PM 03/22/2016,Teleop Enabled,11,FALSE,0,NO ERROR,0.795276,-57.756282,-0.795276,23.837861,TRUE,FALSE,TRUE,FALSE,FALSE,FALSE,Disabled,0.000000,0.000000,0.000000,TRUE,0.337189,0.299576,0.000000,-0.507812,-0.006500,0.000000,-0.042000,-0.184000,0.015000,73.350000,-0.970000,-0.350000,78.527790,Hold,54.618164,51.000000,Hold,-151677.000000,151552.000000,Suck,-2047.500000,2181.818182,Speed,-2085.000000,2181.818182,Speed,Off,Off,0.000000,FALSE,0,,,,
08:11:15.983 PM 03/22/2016,Teleop Enabled,11,FALSE,0,NO ERROR,0.795276,-53.348042,-0.795276,28.477100,TRUE,FALSE,TRUE,FALSE,FALSE,FALSE,Disabled,0.000000,0.000000,0.000000,TRUE,0.308990,0.297668,0.000000,-0.591080,-0.022339,0.000000,-0.231000,0.021000,0.029000,56.580000,-1.140000,-0.560000,61.301976,Hold,54.618164,51.000000,Hold,-151679.000000,151552.000000,Suck,-2047.500000,2181.818182,Speed,-2077.500000,2181.818182,Speed,Off,Off,0.000000,FALSE,0,,,,
08:11:16.084 PM 03/22/2016,Teleop Enabled,11,FALSE,0,NO ERROR,-0.000000,-48.099221,0.000000,34.207170,TRUE,FALSE,TRUE,FALSE,FALSE,FALSE,Disabled,0.000000,0.000000,0.000000,TRUE,0.275040,0.292099,0.000000,-0.715988,-0.236786,0.000000,0.210000,-0.404000,0.004000,35.870000,-1.720000,-1.650000,35.275652,Hold,54.618164,51.000000,Hold,-151680.000000,151552.000000,Suck,-2047.500000,2181.818182,Speed,-2092.500000,2181.818182,Speed,Off,Off,0.000000,FALSE,0,,,,
08:11:16.184 PM 03/22/2016,Teleop Enabled,10,FALSE,0,NO ERROR,-0.000000,-43.998980,0.000000,38.859242,TRUE,FALSE,TRUE,FALSE,FALSE,FALSE,Disabled,0.000000,0.000000,0.000000,TRUE,0.243729,0.269547,0.000000,-0.536331,-0.563324,0.000000,0.495000,0.481000,0.251000,14.080000,-0.620000,-2.090000,12.904505,Hold,54.618164,51.000000,Hold,-151684.000000,151552.000000,Suck,-2085.000000,2181.818182,Speed,-2130.000000,2181.818182,Speed,Off,Off,0.000000,FALSE,0,,,,
08:11:16.285 PM 03/22/2016,Teleop Enabled,11,FALSE,0,NO ERROR,-0.000000,-41.573486,0.000000,41.573486,TRUE,FALSE,TRUE,FALSE,FALSE,FALSE,Disabled,0.000000,0.000000,0.000000,TRUE,0.231537,0.253952,0.000000,-0.067871,-0.084503,0.000000,0.135000,-0.124000,0.136000,1.160000,0.790000,0.060000,0.639985,Hold,54.603027,51.000000,Hold,-151658.000000,151552.000000,Hold,-2175.000000,0.000000,Speed,-2205.000000,0.000000,Speed,Off,Off,0.000000,FALSE,0,,,,
08:11:16.385 PM 03/22/2016,Teleop Enabled,5,FALSE,0,NO ERROR,-0.716535,-40.989571,0.716535,42.587317,TRUE,FALSE,TRUE,FALSE,FALSE,FALSE,Disabled,0.000000,0.000000,0.000000,TRUE,0.232864,0.248611,0.000000,0.082474,-0.122025,0.000000,0.146000,0.189000,-0.009000,-3.590000,1.120000,0.090000,-3.567513,Hold,54.605713,51.000000,Hold,-151663.000000,151552.000000,Hold,-2175.000000,0.000000,Speed,-2175.000000,0.000000,Speed,Off,Off,0.000000,FALSE,0,,,,
08:11:16.486 PM 03/22/2016,Teleop Enabled,12,FALSE,0,NO ERROR,-0.755906,-42.195901,0.755906,41.509320,TRUE,FALSE,TRUE,FALSE,FALSE,FALSE,Disabled,0.000000,0.000000,0.000000,TRUE,0.242767,0.254837,0.000000,0.229202,0.293411,0.000000,-0.011000,0.244000,0.036000,-1.520000,2.010000,1.920000,-0.398865,Hold,54.605713,51.000000,Hold,-151663.000000,151552.000000,Hold,-2025.000000,0.000000,Speed,-1995.000000,0.000000,Speed,Off,Off,0.000000,FALSE,0,,,,
08:11:16.586 PM 03/22/2016,Teleop Enabled,11,FALSE,0,NO ERROR,-0.393701,-44.621396,0.393701,38.884909,TRUE,FALSE,TRUE,FALSE,FALSE,FALSE,Disabled,0.000000,0.000000,0.000000,TRUE,0.255859,0.273331,0.000000,0.261261,0.385010,0.000000,-0.073000,0.118000,0.062000,7.090000,2.220000,2.330000,9.206433,Hold,54.605713,51.000000,Hold,-151664.000000,151552.000000,Hold,-1792.500000,0.000000,Speed,-1837.500000,0.000000,Speed,Off,Off,0.000000,FALSE,0,,,,
08:11:16.687 PM 03/22/2016,Teleop Enabled,11,FALSE,0,NO ERROR,-0.000000,-47.181640,0.000000,36.144999,TRUE,FALSE,TRUE,FALSE,FALSE,FALSE,Disabled,0.000000,0.000000,0.000000,TRUE,0.269867,0.289795,0.000000,0.257202,0.284134,0.000000,-0.105000,-0.166000,0.026000,18.190000,2.030000,2.220000,20.825972,Hold,54.605713,51.000000,Hold,-151665.000000,151552.000000,Hold,-1627.500000,0.000000,Speed,-1642.500000,0.000000,Speed,Off,Off,0.000000,FALSE,0,,,,
08:11:16.787 PM 03/22/2016,Teleop Enabled,9,FALSE,0,NO ERROR,-0.000000,-48.574053,0.000000,34.675586,TRUE,FALSE,TRUE,FALSE,FALSE,FALSE,Disabled,0.000000,0.000000,0.000000,TRUE,0.280945,0.302109,0.000000,0.157074,0.225998,0.000000,-0.282000,-0.049000,-0.014000,27.310000,1.180000,1.830000,29.695658,Hold,54.605713,51.000000,Hold,-151665.000000,151552.000000,Hold,-1410.000000,0.000000,Speed,-1470.000000,0.000000,Speed,Off,Off,0.000000,FALSE,0,,,,
08:11:16.887 PM 03/22/2016,Teleop Enabled,9,FALSE,0,NO ERROR,-0.000000,-48.901302,0.000000,34.130170,TRUE,FALSE,TRUE,FALSE,FALSE,FALSE,Disabled,0.000000,0.000000,0.000000,TRUE,0.283264,0.312134,0.000000,-0.037643,0.178284,0.000000,-0.142000,-0.175000,-0.065000,30.670000,0.240000,1.270000,32.453818,Hold,54.605713,51.000000,Hold,-151665.000000,151552.000000,Hold,-1192.500000,0.000000,Speed,-1305.000000,0.000000,Speed,Off,Off,0.000000,FALSE,0,,,,
08:11:16.987 PM 03/22/2016,Teleop Enabled,8,FALSE,0,NO ERROR,-0.000000,-48.837136,0.000000,34.207170,TRUE,FALSE,TRUE,FALSE,FALSE,FALSE,Disabled,0.000000,0.000000,0.000000,TRUE,0.278976,0.318848,0.000000,0.004395,0.104767,0.000000,0.057000,0.110000,-0.040000,29.310000,0.190000,0.730000,31.093223,Hold,54.605713,51.000000,Hold,-151665.000000,151552.000000,Hold,-1027.500000,0.000000,Speed,-1147.500000,0.000000,Speed,Off,Off,0.000000,FALSE,0,,,,
08:11:17.087 PM 03/22/2016,Teleop Enabled,10,FALSE,0,NO ERROR,0.377953,-48.625386,0.377953,34.277753,TRUE,FALSE,TRUE,FALSE,FALSE,FALSE,Disabled,0.000000,0.000000,0.000000,TRUE,0.281555,0.325699,0.000000,0.091156,0.223373,0.000000,0.085000,0.159000,-0.090000,28.340000,0.380000,1.150000,29.991621,Hold,54.605713,51.000000,Hold,-151665.000000,151552.000000,Hold,-832.500000,0.000000,Speed,-967.500000,0.000000,Speed,Off,Off,0.000000,FALSE,0,,,,
08:11:17.187 PM 03/22/2016,Teleop Enabled,9,FALSE,0,NO ERROR,0.401575,-47.637222,0.401575,33.379422,TRUE,FALSE,TRUE,FALSE,FALSE,FALSE,Disabled,0.000000,0.000000,0.000000,TRUE,0.283737,0.340500,0.000000,-0.059189,0.335007,0.000000,-0.162000,0.161000,-0.081000,28.770000,-1.490000,1.260000,30.416846,Hold,54.605957,51.000000,Hold,-151665.000000,151552.000000,Hold,-652.500000,0.000000,Speed,-840.000000,0.000000,Speed,Off,Off,0.000000,FALSE,0,,,,
08:11:17.287 PM 03/22/2016,Teleop Enabled,10,FALSE,0,NO ERROR,0.401575,-45.898309,0.401575,31.499343,TRUE,FALSE,TRUE,FALSE,FALSE,FALSE,Disabled,0.000000,0.000000,0.000000,TRUE,0.274002,0.362106,0.000000,-0.285355,0.465302,0.000000,-0.005000,-0.023000,-0.150000,29.130000,-2.890000,1.180000,30.751745,Hold,54.606201,51.000000,Hold,-151665.000000,151552.000000,Hold,-472.500000,0.000000,Speed,-690.000000,0.000000,Speed,Off,Off,0.000000,FALSE,0,,,,
08:11:17.387 PM 03/22/2016,Teleop Enabled,11,FALSE,0,NO ERROR,0.401575,-43.177649,0.401575,28.637516,TRUE,FALSE,TRUE,FALSE,FALSE,FALSE,Disabled,0.000000,0.000000,0.000000,TRUE,0.256210,0.385391,0.000000,-0.411163,0.469650,0.000000,-0.143000,0.093000,0.038000,29.340000,-2.970000,1.210000,30.943757,Hold,54.606201,51.000000,Hold,-151666.000000,151552.000000,Hold,-292.500000,0.000000,Speed,-562.500000,0.000000,Speed,Off,Off,0.000000,FALSE,0,,,,
08:11:17.488 PM 03/22/2016,Teleop Enabled,10,FALSE,0,NO ERROR,0.401575,-39.565074,0.401575,24.947942,FALSE,FALSE,TRUE,FALSE,FALSE,FALSE,Disabled,0.000000,0.000000,0.000000,TRUE,0.231415,0.411865,0.000000,-0.545914,0.569916,0.000000,-0.104000,0.057000,-0.051000,29.610000,-3.720000,1.290000,31.215809,Hold,54.606201,51.000000,Hold,-151666.000000,151552.000000,LowGoal,-135.000000,-1454.545455,Speed,-435.000000,-1454.545455,Speed,Off,Off,0.000000,FALSE,0,,,,
08:11:17.588 PM 03/22/2016,Teleop Enabled,8,FALSE,0,NO ERROR,-0.000000,-35.535417,0.000000,20.918284,FALSE,FALSE,TRUE,FALSE,FALSE,FALSE,Disabled,0.000000,0.000000,0.000000,TRUE,0.195663,0.446884,0.000000,-0.611572,0.560410,0.000000,0.056000,-0.068000,-0.054000,29.710000,-3.920000,1.060000,31.324786,Hold,54.606201,51.000000,Hold,-151666.000000,151552.000000,LowGoal,60.000000,-1454.545455,Speed,-172.500000,-1454.545455,Speed,Off,Off,0.000000,FALSE,0,,,,
08:11:17.688 PM 03/22/2016,Teleop Enabled,11,FALSE,0,NO ERROR,0.228346,-32.327091,-0.228346,17.863958,TRUE,FALSE,TRUE,FALSE,FALSE,FALSE,Disabled,0.000000,0.000000,0.000000,TRUE,0.169403,0.471680,0.000000,-0.447937,0.448441,0.000000,0.251000,-0.102000,-0.039000,29.290000,-1.680000,1.070000,30.941316,Hold,54.606201,51.000000,Hold,-151641.000000,151552.000000,LowGoal,750.000000,-1454.545455,Speed,555.000000,-1454.545455,Speed,Off,Off,0.000000,FALSE,0,,,,
08:11:17.788 PM 03/22/2016,Teleop Enabled,9,FALSE,0,NO ERROR,0.535433,-29.080265,-0.535433,15.919713,TRUE,FALSE,TRUE,FALSE,FALSE,FALSE,Disabled,0.000000,0.000000,0.000000,TRUE,0.156174,0.486542,0.000000,-0.269989,0.311722,0.000000,0.205000,-0.082000,0.297000,27.970000,-0.800000,0.960000,29.655063,Hold,54.606201,51.000000,Hold,-151663.000000,151552.000000,LowGoal,1335.000000,-1454.545455,Speed,1477.500000,-1454.545455,Speed,Off,Off,0.000000,FALSE,0,,,,
08:11:17.888 PM 03/22/2016,Teleop Enabled,11,FALSE,0,NO ERROR,0.574803,-26.013106,-0.574803,15.900463,TRUE,FALSE,TRUE,FALSE,FALSE,FALSE,Disabled,0.000000,0.000000,0.000000,TRUE,0.144485,0.494873,0.000000,-0.210236,-0.017349,0.000000,0.027000,0.145000,0.223000,21.030000,-0.390000,0.070000,24.215029,Hold,54.611572,51.000000,Hold,-151663.000000,151552.000000,LowGoal,1567.500000,-1454.545455,Speed,1612.500000,-1454.545455,Speed,Off,Off,0.000000,FALSE,0,,,,
08:11:17.989 PM 03/22/2016,Teleop Enabled,12,FALSE,0,NO ERROR,-0.000000,-22.625114,0.000000,17.260793,TRUE,FALSE,TRUE,FALSE,FALSE,FALSE,Disabled,0.000000,0.000000,0.000000,TRUE,0.134338,0.492722,0.000000,-0.226227,-0.124298,0.000000,-0.089000,-0.501000,0.046000,13.830000,-0.460000,-0.500000,15.085303,Hold,54.611572,51.000000,Hold,-151663.000000,151552.000000,LowGoal,1395.000000,-1454.545455,Speed,1380.000000,-1454.545455,Speed,Off,Off,0.000000,FALSE,0,,,,
08:11:18.090 PM 03/22/2016,Teleop Enabled,8,FALSE,0,NO ERROR,-0.000000,-20.321536,0.000000,18.248957,TRUE,FALSE,TRUE,FALSE,FALSE,FALSE,Disabled,0.000000,0.000000,0.000000,TRUE,0.125870,0.480698,0.000000,-0.059097,-0.178528,0.000000,0.519000,0.330000,-0.208000,4.330000,0.320000,-0.280000,5.086466,Hold,54.611572,51.000000,Hold,-151663.000000,151552.000000,LowGoal,1395.000000,-1454.545455,Speed,1320.000000,-1454.545455,Speed,Off,Off,0.000000,FALSE,0,,,,
08:11:18.191 PM 03/22/2016,Teleop Enabled,11,FALSE,0,NO ERROR,-0.000000,-19.192205,0.000000,18.467123,TRUE,FALSE,TRUE,FALSE,FALSE,FALSE,Disabled,0.000000,0.000000,0.000000,TRUE,0.131149,0.479279,0.000000,0.183243,0.047134,0.000000,0.166000,-0.138000,-0.099000,0.820000,1.120000,0.550000,1.284818,Hold,54.611572,51.000000,Hold,-151663.000000,151552.000000,LowGoal,1387.500000,-1454.545455,Speed,1447.500000,-1454.545455,Speed,Off,Off,0.000000,FALSE,0,,,,
08:11:18.292 PM 03/22/2016,Teleop Enabled,11,FALSE,0,NO ERROR,-0.000000,-19.057455,0.000000,18.261791,TRUE,FALSE,TRUE,FALSE,FALSE,FALSE,Disabled,0.000000,0.000000,0.000000,TRUE,0.145828,0.480194,0.000000,0.337723,0.038162,0.000000,-0.086000,-0.031000,0.003000,0.820000,1.120000,0.550000,1.653874,Hold,54.611572,51.000000,Hold,-151663.000000,151552.000000,LowGoal,1432.500000,-1454.545455,Speed,1462.500000,-1454.545455,Speed,Off,Off,0.000000,FALSE,0,,,,
08:11:18.393 PM 03/22/2016,Teleop Enabled,10,FALSE,0,NO ERROR,-0.000000,-19.057455,0.000000,18.133458,TRUE,FALSE,TRUE,FALSE,FALSE,FALSE,Disabled,0.000000,0.000000,0.000000,TRUE,0.160538,0.482193,0.000000,0.247986,-0.011612,0.000000,0.101000,0.107000,0.040000,1.510000,1.690000,0.960000,2.109813,Hold,54.611572,51.000000,Hold,-151663.000000,151552.000000,LowGoal,1402.500000,-1454.545455,Speed,1402.500000,-1454.545455,Speed,Off,Off,0.000000,FALSE,0,,,,
08:11:18.493 PM 03/22/2016,Teleop Enabled,11,FALSE,0,NO ERROR,-0.000000,-19.057455,0.000000,18.133458,TRUE,FALSE,TRUE,FALSE,FALSE,FALSE,Disabled,0.000000,0.000000,0.000000,TRUE,0.178207,0.483566,0.000000,0.293839,0.032745,0.000000,0.092000,-0.021000,-0.003000,1.540000,1.550000,0.840000,2.028035,Hold,54.611572,51.000000,HighGoal,-151663.000000,77414.400000,HighGoal,1402.500000,-1454.545455,Speed,1402.500000,-1454.545455,Speed,Off,Off,0.000000,FALSE,0,,,,
08:11:18.594 PM 03/22/2016,Teleop Enabled,11,FALSE,0,NO ERROR,-0.000000,-19.057455,0.000000,18.133458,TRUE,FALSE,TRUE,FALSE,FALSE,FALSE,Disabled,0.000000,0.000000,0.000000,TRUE,0.190414,0.484314,0.000000,0.300552,0.015121,0.000000,-0.096000,0.007000,0.078000,1.590000,1.230000,0.850000,2.094401,Hold,54.611572,51.000000,Hold,-151663.000000,77414.400000,HighGoal,1440.000000,-3272.727273,Speed,1455.000000,-3272.727273,Speed,Off,Off,0.000000,FALSE,0,,,,
08:11:18.694 PM 03/22/2016,Teleop Enabled,9,FALSE,0,NO ERROR,-0.000000,-19.057455,0.000000,18.133458,TRUE,FALSE,TRUE,FALSE,FALSE,FALSE,Disabled,0.000000,0.000000,0.000000,TRUE,0.190414,0.484314,0.000000,0.300552,0.015121,0.000000,-0.096000,0.007000,0.078000,1.610000,1.240000,0.920000,2.100553,Hold,54.611572,51.000000,Hold,-145646.000000,77414.400000,HighGoal,1440.000000,-3272.727273,Speed,1890.000000,-3272.727273,Speed,Off,Off,0.000000,FALSE,0,,,,
08:11:18.794 PM 03/22/2016,Teleop Enabled,10,FALSE,0,NO ERROR,-0.000000,-19.057455,0.000000,18.133458,TRUE,FALSE,TRUE,FALSE,FALSE,FALSE,Disabled,0.000000,0.000000,0.000000,TRUE,0.220581,0.491104,0.000000,0.225861,0.056320,0.000000,-0.193000,-0.070000,-0.039000,1.590000,1.330000,0.920000,2.096432,Hold,54.611572,51.000000,Hold,-145646.000000,77414.400000,HighGoal,2407.500000,-3272.727273,Speed,2452.500000,-3272.727273,Speed,Off,Off,0.000000,FALSE,0,,,,
08:11:18.896 PM 03/22/2016,Teleop Enabled,10,FALSE,0,NO ERROR,0.283465,-19.057455,-0.283465,18.133458,TRUE,FALSE,TRUE,FALSE,FALSE,FALSE,Disabled,0.000000,0.000000,0.000000,TRUE,0.231216,0.495956,0.000000,0.229248,0.097855,0.000000,-0.091000,-0.117000,-0.010000,1.610000,1.260000,0.990000,2.122754,Hold,54.611572,51.000000,Hold,-137917.000000,77414.400000,HighGoal,2812.500000,-3272.727273,Speed,2452.500000,-3272.727273,Speed,Off,Off,0.000000,FALSE,0,,,,
08:11:18.996 PM 03/22/2016,Teleop Enabled,9,FALSE,0,NO ERROR,0.629921,-18.467123,-0.629921,18.479957,TRUE,FALSE,TRUE,FALSE,FALSE,FALSE,Disabled,0.000000,0.000000,0.000000,TRUE,0.239685,0.500229,0.000000,0.142532,0.076508,0.000000,-0.091000,-0.117000,-0.010000,0.770000,0.920000,0.580000,1.223475,Hold,54.611572,51.000000,Hold,-129959.000000,77414.400000,HighGoal,2812.500000,-3272.727273,Speed,2880.000000,-3272.727273,Speed,Off,Off,0.000000,FALSE,0,,,,
08:11:19.096 PM 03/22/2016,Teleop Enabled,11,FALSE,0,NO ERROR,-0.000000,-17.209460,0.000000,19.641371,TRUE,FALSE,TRUE,FALSE,FALSE,FALSE,Disabled,0.000000,0.000000,0.000000,TRUE,0.244034,0.502884,0.000000,0.052429,0.071548,0.000000,-0.036000,0.054000,-0.010000,-3.110000,0.800000,0.310000,-2.872195,Hold,54.611572,51.000000,Hold,-121990.000000,77414.400000,HighGoal,3075.000000,-3272.727273,Speed,3210.000000,-3272.727273,Speed,Off,Off,0.000000,FALSE,0,,,,
08:11:19.197 PM 03/22/2016,Teleop Enabled,11,FALSE,0,NO ERROR,-0.000000,-16.529295,0.000000,20.283036,TRUE,FALSE,TRUE,FALSE,FALSE,FALSE,Disabled,0.000000,0.000000,0.000000,TRUE,0.247360,0.510300,0.000000,0.099274,0.204239,0.000000,-0.036000,0.054000,-0.010000,-8.250000,0.870000,0.400000,-8.196703,Hold,54.611572,51.000000,Hold,-114380.000000,77414.400000,HighGoal,3247.500000,-3272.727273,Speed,3277.500000,-3272.727273,Speed,Off,Off,0.000000,FALSE,0,,,,
08:11:19.298 PM 03/22/2016,Teleop Enabled,9,FALSE,0,NO ERROR,-0.000000,-16.465128,0.000000,20.334369,TRUE,FALSE,TRUE,FALSE,FALSE,FALSE,Disabled,0.000000,0.000000,0.000000,TRUE,0.254730,0.523270,0.000000,0.146301,0.320892,0.000000,0.022000,0.245000,0.075000,-8.450000,1.270000,1.130000,-8.341859,Hold,54.611572,51.000000,Hold,-114380.000000,77414.400000,HighGoal,3232.500000,-3272.727273,Speed,3232.500000,-3272.727273,Speed,Off,Off,0.000000,FALSE,0,,,,
08:11:19.399 PM 03/22/2016,Teleop Enabled,12,FALSE,0,NO ERROR,-0.000000,-16.510045,0.000000,20.283036,TRUE,FALSE,TRUE,FALSE,FALSE,FALSE,Disabled,0.000000,0.000000,0.000000,TRUE,0.260040,0.538742,0.000000,0.077316,0.252670,0.000000,0.022000,0.245000,0.075000,-7.410000,1.110000,0.890000,-7.286395,Hold,54.611572,51.000000,Hold,-105014.000000,77414.400000,HighGoal,3240.000000,-3272.727273,Speed,3277.500000,-3272.727273,Speed,Off,Off,0.000000,FALSE,0,,,,
08:11:19.499 PM 03/22/2016,Teleop Enabled,10,FALSE,0,NO ERROR,-0.000000,-16.510045,0.000000,20.283036,TRUE,FALSE,TRUE,FALSE,FALSE,FALSE,Disabled,0.000000,0.000000,0.000000,TRUE,0.262329,0.549683,0.000000,0.032547,0.197937,0.000000,0.003000,-0.058000,-0.205000,-7.600000,0.930000,0.960000,-7.487925,Hold,54.611572,51.000000,Hold,-94793.000000,77414.400000,HighGoal,3255.000000,-3272.727273,Speed,3300.000000,-3272.727273,Speed,Off,Off,0.000000,FALSE,0,,,,
08:11:19.600 PM 03/22/2016,Teleop Enabled,10,FALSE,0,NO ERROR,0.204972,-16.510045,0.267469,20.206036,TRUE,FALSE,TRUE,FALSE,FALSE,FALSE,Disabled,0.000000,0.000000,0.000000,TRUE,0.263458,0.557098,0.000000,0.014359,0.186111,0.000000,-0.072000,-0.036000,-0.083000,-7.510000,0.930000,1.010000,-7.420045,Hold,54.611572,51.000000,Hold,-83897.000000,77414.400000,HighGoal,3262.500000,-3272.727273,Speed,3277.500000,-3272.727273,Speed,Off,Off,0.000000,FALSE,0,,,,
08:11:19.701 PM 03/22/2016,Teleop Enabled,10,FALSE,0,NO ERROR,0.194556,-15.926129,0.277885,19.346205,TRUE,FALSE,TRUE,FALSE,FALSE,FALSE,Disabled,0.000000,0.000000,0.000000,TRUE,0.258392,0.567825,0.000000,-0.187927,0.174271,0.000000,-0.150000,-0.083000,-0.199000,-7.320000,-0.110000,1.210000,-7.205116,Hold,54.611572,51.000000,Hold,-77960.000000,77414.400000,HighGoal,3255.000000,-3272.727273,Speed,3270.000000,-3272.727273,Speed,Off,Off,0.000000,FALSE,0,,,,
08:11:19.802 PM 03/22/2016,Teleop Enabled,10,FALSE,0,NO ERROR,0.195028,-14.937965,0.308909,18.120624,TRUE,FALSE,TRUE,FALSE,FALSE,FALSE,Disabled,0.000000,0.000000,0.000000,TRUE,0.245300,0.570633,0.000000,-0.310791,-0.018677,0.000000,-0.152000,-0.021000,0.006000,-6.850000,-0.910000,1.210000,-6.712310,Hold,54.611572,51.000000,Hold,-77734.000000,77414.400000,HighGoal,3240.000000,-3272.727273,Speed,3270.000000,-3272.727273,Speed,Off,Off,0.000000,FALSE,0,,,,
08:11:19.903 PM 03/22/2016,Teleop Enabled,10,FALSE,0,NO ERROR,0.201122,-13.442885,0.318563,16.349628,TRUE,FALSE,TRUE,FALSE,FALSE,FALSE,Disabled,0.000000,0.000000,0.000000,TRUE,0.224594,0.570663,0.000000,-0.468491,0.006744,0.000000,-0.152000,-0.021000,0.006000,-6.850000,-0.910000,1.210000,-6.179268,Hold,54.611572,51.000000,Hold,-77734.000000,77414.400000,HighGoal,3232.500000,-3272.727273,Speed,3262.500000,-3272.727273,Speed,Off,Off,0.000000,FALSE,0,,,,
08:11:20.004 PM 03/22/2016,Teleop Enabled,9,FALSE,0,NO ERROR,0.201122,-11.498640,0.318563,14.097384,TRUE,FALSE,TRUE,FALSE,FALSE,FALSE,Disabled,0.000000,0.000000,0.000000,TRUE,0.198105,0.571350,0.000000,-0.570984,0.017853,0.000000,-0.169000,-0.008000,0.115000,-5.710000,-1.810000,1.230000,-5.352586,Hold,54.611572,51.000000,Hold,-77413.000000,77414.400000,HighGoal,3240.000000,-3272.727273,Speed,3262.500000,-3272.727273,Speed,Off,Off,0.000000,FALSE,0,,,,
08:11:20.104 PM 03/22/2016,Teleop Enabled,10,FALSE,0,NO ERROR,0.322835,-9.342645,0.322835,11.537140,TRUE,FALSE,TRUE,FALSE,FALSE,FALSE,Disabled,0.000000,0.000000,0.000000,TRUE,0.166901,0.575302,0.000000,-0.624664,0.123444,0.000000,-0.083000,0.160000,0.028000,-4.790000,-1.620000,1.280000,-4.536514,Hold,54.614502,51.000000,Hold,-77517.000000,77414.400000,HighGoal,3255.000000,-3272.727273,Speed,3270.000000,-3272.727273,Speed,Off,Off,0.000000,FALSE,0,,,,
08:11:20.204 PM 03/22/2016,Teleop Enabled,10,FALSE,0,NO ERROR,0.265894,-6.416652,0.379776,8.437897,TRUE,FALSE,TRUE,FALSE,FALSE,FALSE,Disabled,0.000000,0.000000,0.000000,TRUE,0.134506,0.581161,0.000000,-0.673691,0.096481,0.000000,-0.065000,0.001000,-0.015000,-4.280000,-2.290000,1.310000,-3.915676,Hold,54.614502,51.000000,Hold,-77510.000000,77414.400000,HighGoal,3247.500000,-3272.727273,Speed,3277.500000,-3272.727273,Speed,Off,Off,0.000000,FALSE,0,,,,
08:11:20.305 PM 03/22/2016,Teleop Enabled,11,FALSE,0,NO ERROR,0.280129,-3.503492,0.365540,4.979322,FALSE,FALSE,TRUE,FALSE,FALSE,FALSE,Disabled,0.000000,0.000000,0.000000,TRUE,0.092697,0.587646,0.000000,-0.699051,0.112183,0.000000,-0.248000,0.061000,-0.176000,-3.480000,-3.020000,1.470000,-3.139902,Hold,54.614502,51.000000,Hold,-77507.000000,77414.400000,HighGoal,3240.000000,-3272.727273,Speed,3270.000000,-3272.727273,Speed,Off,Off,0.000000,FALSE,0,,,,
08:11:20.406 PM 03/22/2016,Teleop Enabled,11,FALSE,0,NO ERROR,-0.000000,-0.911165,0.000000,2.008412,TRUE,FALSE,TRUE,FALSE,FALSE,FALSE,Disabled,0.000000,0.000000,0.000000,TRUE,0.056824,0.592697,0.000000,-0.674606,0.076782,0.000000,0.472000,-0.109000,-0.120000,-2.460000,-2.290000,1.410000,-2.086335,Hold,54.614502,51.000000,Hold,-77507.000000,77414.400000,HighGoal,3240.000000,-3272.727273,Speed,3262.500000,-3272.727273,Speed,Off,Off,0.000000,FALSE,0,,,,
08:11:20.506 PM 03/22/2016,Teleop Enabled,10,FALSE,0,NO ERROR,-0.000000,1.437330,0.000000,-0.429916,TRUE,FALSE,TRUE,FALSE,FALSE,FALSE,Disabled,0.000000,0.000000,0.000000,TRUE,0.035446,0.595322,0.000000,-0.475952,0.063980,0.000000,0.257000,-0.138000,-0.348000,-2.090000,-0.360000,1.130000,-1.714749,Hold,54.614502,51.000000,Hold,-77500.000000,77414.400000,HighGoal,3240.000000,-3272.727273,Speed,3277.500000,-3272.727273,Speed,Off,Off,0.000000,FALSE,0,,,,
08:11:20.605 PM 03/22/2016,Teleop Enabled,11,FALSE,0,NO ERROR,-0.000000,3.176243,0.000000,-2.053329,TRUE,FALSE,TRUE,FALSE,FALSE,FALSE,Disabled,0.000000,0.000000,0.000000,TRUE,0.017609,0.597000,0.000000,-0.283936,0.031601,0.000000,0.257000,-0.138000,-0.348000,-2.090000,-0.360000,1.130000,-1.851504,Hold,54.614502,51.000000,Hold,-77500.000000,77414.400000,HighGoal,3262.500000,-3272.727273,Speed,3292.500000,-3272.727273,Speed,Off,Off,0.000000,FALSE,0,,,,
08:11:20.706 PM 03/22/2016,Teleop Enabled,9,FALSE,0,NO ERROR,-0.000000,4.183657,0.000000,-2.945243,TRUE,FALSE,TRUE,FALSE,FALSE,FALSE,Disabled,0.000000,0.000000,0.000000,TRUE,0.007858,0.597000,0.000000,-0.095490,-0.012924,0.000000,0.211000,-0.067000,0.061000,-2.550000,0.460000,1.030000,-2.186975,Hold,54.614502,51.000000,Hold,-77414.000000,77414.400000,HighGoal,3270.000000,-3272.727273,Speed,3292.500000,-3272.727273,Speed,Off,Off,0.000000,FALSE,0,,,,
08:11:20.806 PM 03/22/2016,Teleop Enabled,11,FALSE,0,NO ERROR,0.330709,4.998572,0.330709,-3.702408,TRUE,FALSE,TRUE,FALSE,FALSE,FALSE,Disabled,0.000000,0.000000,0.000000,TRUE,0.006851,0.595901,0.000000,0.011459,-0.020035,0.000000,0.152000,-0.029000,0.009000,-2.550000,0.460000,1.030000,-2.285890,Hold,54.614502,51.000000,Hold,-77550.000000,77414.400000,HighGoal,3262.500000,-3272.727273,Speed,3285.000000,-3272.727273,Speed,Off,Off,0.000000,FALSE,0,,,,
