Time,Robot Mode,Loop Time,Error Status,Error Code,Error Source,Left Motor Output,Left Motor Encoder,Right Motor Output,Right Motor Encoder,Is Level,Is Stalled,Ball Detector Photoeye,Vision Enabled,Vision Teleop Control,Vision Auto Control,Vision Current State,Vision X Output,Vision NavX Error,Vision NavX Target,NavX Connection Status,NavX Displacement X,NavX Displacement Y,NavX Displacement Z,NavX Velocity X,NavX Velocity Y,NavX Velocity Z,NavX Acceleration X,NavX Acceleration Y,NavX Acceleration Z,NavX Pitch,NavX Yaw,NavX Roll,Gyro Angle,Roller Arm State,Roller Arm Actual,Roller Arm Desired,Shooter Arm State,Shooter Arm Actual,Shooter Arm Desired,Shooter State,Actual RPM Left,Desired RPM Left,Control Mode Left,Actual RPM Right,Desired RPM Right,Control Mode Right,Ball Shooter Cylinder,Ball Halo Cylinder,Scaler Motor Output,Scaler Solenoid Fire,Auto To Run,Auto Current File,Auto File Status,Auto Current Command,Auto Trimmed Command
01:10:55.737 PM 03/25/2016,Teleop Enabled,9,TRUE,-44003,<LOCATION>WPI_CameraIssue HTTP Request with Authentication.vi<CALLSTACK>WPI_CameraIssue HTTP Request with Authentication.vi< <WPI_CameraIssue Get.vi< <WPI_CameraSet Image Appearance Property.vi< <WPI_CameraSet Image Size.vi< <Vision Processing.vi< <Robot Main.vi,-0.000000,0.000000,0.000000,0.000000,TRUE,FALSE,FALSE,FALSE,FALSE,FALSE,Disabled,0.000000,0.000000,0.000000,TRUE,-0.002289,-0.003754,0.000000,0.000000,0.008926,0.000000,0.006000,0.002000,0.001000,-0.280000,0.300000,-0.010000,-0.081024,ResetBack,-0.001221,-0.000049,ResetBack,111816.000000,-0.250000,Suck,0.000000,2400.000000,Speed,0.000000,2400.000000,Speed,Off,On,0.000000,FALSE,0,,,,
01:10:55.839 PM 03/25/2016,Teleop Enabled,8,FALSE,0,NO ERROR,-0.000000,0.000000,0.000000,0.000000,TRUE,FALSE,FALSE,FALSE,FALSE,FALSE,Disabled,0.000000,0.000000,0.000000,TRUE,-0.002289,-0.003754,0.000000,0.000000,0.000000,0.000000,0.010000,0.009000,0.008000,-0.290000,0.290000,-0.040000,-0.081771,ResetBack,-1.156006,-0.000049,ResetBack,112019.000000,-0.250000,Suck,-30.000000,2400.000000,Speed,-22.500000,2400.000000,Speed,Off,On,0.000000,FALSE,0,,,,
01:10:55.939 PM 03/25/2016,Teleop Enabled,9,FALSE,0,NO ERROR,-0.000000,0.000000,0.000000,0.000000,TRUE,FALSE,FALSE,FALSE,FALSE,FALSE,Disabled,0.000000,0.000000,0.000000,TRUE,-0.001694,-0.003326,0.000000,0.018448,0.012482,0.000000,-0.015000,0.057000,-0.096000,-0.280000,0.320000,-0.090000,-0.072745,ResetBack,-2.141846,-0.000049,ResetBack,114883.000000,-0.250000,Suck,-562.500000,2400.000000,Speed,-555.000000,2400.000000,Speed,Off,On,0.000000,FALSE,0,,,,
01:10:56.039 PM 03/25/2016,Teleop Enabled,9,FALSE,0,NO ERROR,-0.000000,0.000000,0.000000,0.006417,TRUE,FALSE,FALSE,FALSE,FALSE,FALSE,Disabled,0.000000,0.000000,0.000000,TRUE,-0.001511,-0.002106,0.000000,-0.003448,0.019348,0.000000,-0.035000,-0.034000,0.069000,-0.280000,0.140000,-0.020000,-0.066028,ResetBack,-2.402832,-0.000049,ResetBack,119021.000000,-0.250000,Suck,-1125.000000,2400.000000,Speed,-1267.500000,2400.000000,Speed,Off,On,0.000000,FALSE,0,,,,
01:10:56.140 PM 03/25/2016,Teleop Enabled,10,FALSE,0,NO ERROR,-0.000000,0.000000,0.000000,0.006417,TRUE,FALSE,FALSE,FALSE,FALSE,FALSE,Disabled,0.000000,0.000000,0.000000,TRUE,-0.002365,-0.001221,0.000000,-0.035919,0.030792,0.000000,0.033000,-0.073000,-0.071000,-0.300000,0.220000,-0.010000,-0.063560,Reset,-2.405273,0.000000,ResetBack,123361.000000,-0.250000,Suck,-1695.000000,2400.000000,Speed,-1762.500000,2400.000000,Speed,Off,On,0.000000,FALSE,0,,,,
01:10:56.240 PM 03/25/2016,Teleop Enabled,10,FALSE,0,NO ERROR,-0.000000,0.000000,0.000000,0.006417,TRUE,FALSE,FALSE,FALSE,FALSE,FALSE,Disabled,0.000000,0.000000,0.000000,TRUE,-0.004013,0.000412,0.000000,-0.043671,0.067795,0.000000,-0.076000,0.209000,-0.021000,-0.300000,0.340000,0.050000,-0.061980,Hold,0.232666,0.000000,ResetBack,128658.000000,-0.250000,Suck,-2167.500000,2400.000000,Speed,-2272.500000,2400.000000,Speed,Off,On,0.000000,FALSE,0,,,,
01:10:56.341 PM 03/25/2016,Teleop Enabled,11,FALSE,0,NO ERROR,-0.000000,0.000000,0.000000,0.006417,TRUE,FALSE,FALSE,FALSE,FALSE,FALSE,Disabled,0.000000,0.000000,0.000000,TRUE,-0.006943,0.008163,0.000000,-0.056580,0.148697,0.000000,0.005000,-0.074000,0.231000,-0.310000,0.300000,0.130000,-0.070049,Hold,0.232666,0.000000,ResetBack,128658.000000,-0.250000,Suck,-2475.000000,2400.000000,Speed,-2490.000000,2400.000000,Speed,Off,On,0.000000,FALSE,0,,,,
01:10:56.441 PM 03/25/2016,Teleop Enabled,10,FALSE,0,NO ERROR,-0.000000,0.000000,0.000000,0.006417,TRUE,FALSE,FALSE,FALSE,FALSE,FALSE,Disabled,0.000000,0.000000,0.000000,TRUE,-0.008987,0.012695,0.000000,-0.046677,0.114288,0.000000,-0.089000,0.024000,0.108000,-0.310000,0.290000,0.180000,-0.068273,Hold,0.232666,0.000000,ResetBack,134911.000000,-0.250000,Suck,-2475.000000,2400.000000,Speed,-2362.500000,2400.000000,Speed,Off,On,0.000000,FALSE,0,,,,
01:10:56.543 PM 03/25/2016,Teleop Enabled,11,FALSE,0,NO ERROR,-0.000000,0.000000,0.000000,0.006417,TRUE,FALSE,FALSE,FALSE,FALSE,FALSE,Disabled,0.000000,0.000000,0.000000,TRUE,-0.008377,0.016617,0.000000,0.039246,0.024307,0.000000,-0.013000,-0.013000,-0.065000,-0.330000,0.320000,0.110000,-0.102605,Hold,0.232666,0.000000,ResetBack,139240.000000,-0.250000,Suck,-2400.000000,2400.000000,Speed,-2265.000000,2400.000000,Speed,Off,On,0.000000,FALSE,0,,,,
01:10:56.645 PM 03/25/2016,Teleop Enabled,10,FALSE,0,NO ERROR,-0.000000,0.000000,0.000000,0.006417,TRUE,FALSE,FALSE,FALSE,FALSE,FALSE,Disabled,0.000000,0.000000,0.000000,TRUE,-0.005814,0.020798,0.000000,0.013885,0.121719,0.000000,0.194000,0.035000,-0.090000,-0.340000,0.370000,0.190000,-0.108189,Hold,0.232666,0.000000,ResetBack,141704.000000,-0.250000,Suck,-2377.500000,2400.000000,Speed,-2347.500000,2400.000000,Speed,Off,On,0.000000,FALSE,0,,,,
01:10:56.745 PM 03/25/2016,Teleop Enabled,10,FALSE,0,NO ERROR,-0.000000,0.000000,0.000000,0.006417,TRUE,FALSE,FALSE,FALSE,FALSE,FALSE,Disabled,0.000000,0.000000,0.000000,TRUE,-0.004272,0.027740,0.000000,0.032806,0.126297,0.000000,-0.098000,-0.067000,-0.068000,-0.350000,0.380000,0.140000,-0.117942,Hold,0.232666,0.000000,ResetBack,142590.000000,-0.250000,Suck,-2400.000000,2400.000000,Speed,-2400.000000,2400.000000,Speed,Off,On,0.000000,FALSE,0,,,,
01:10:56.845 PM 03/25/2016,Teleop Enabled,10,FALSE,0,NO ERROR,-0.000000,0.000000,0.000000,0.006417,TRUE,FALSE,FALSE,FALSE,FALSE,FALSE,Disabled,0.000000,0.000000,0.000000,TRUE,-0.002274,0.035217,0.000000,0.047043,0.136719,0.000000,0.144000,0.092000,0.052000,-0.360000,0.450000,0.180000,-0.115543,Hold,0.232910,0.000000,ResetBack,143866.000000,-0.250000,Suck,-2415.000000,2400.000000,Speed,-2362.500000,2400.000000,Speed,Off,On,0.000000,FALSE,0,,,,
01:10:56.945 PM 03/25/2016,Teleop Enabled,10,FALSE,0,NO ERROR,-0.000000,0.000000,0.000000,0.006417,TRUE,FALSE,FALSE,FALSE,FALSE,FALSE,Disabled,0.000000,0.000000,0.000000,TRUE,0.000931,0.043610,0.000000,0.054245,0.163712,0.000000,0.058000,0.101000,0.085000,-0.350000,0.450000,0.230000,-0.116131,Hold,0.232910,0.000000,ResetBack,143866.000000,-0.250000,Suck,-2407.500000,2400.000000,Speed,-2347.500000,2400.000000,Speed,Off,On,0.000000,FALSE,0,,,,
01:10:57.045 PM 03/25/2016,Teleop Enabled,10,FALSE,0,NO ERROR,-0.000000,0.000000,0.000000,0.012833,TRUE,FALSE,FALSE,FALSE,FALSE,FALSE,Disabled,0.000000,0.000000,0.000000,TRUE,0.004318,0.050400,0.000000,0.081421,0.070328,0.000000,0.075000,0.136000,-0.121000,-0.360000,0.530000,0.120000,-0.124603,Hold,0.232910,0.000000,Reset,144804.000000,2.000000,Suck,-2400.000000,2400.000000,Speed,-2347.500000,2400.000000,Speed,Off,On,0.000000,FALSE,0,,,,
01:10:57.146 PM 03/25/2016,Teleop Enabled,9,FALSE,0,NO ERROR,-0.000000,0.000000,0.000000,0.012833,TRUE,FALSE,FALSE,FALSE,FALSE,FALSE,Disabled,0.000000,0.000000,0.000000,TRUE,0.011490,0.059448,0.000000,0.086319,0.221909,0.000000,0.023000,-0.324000,0.192000,-0.370000,0.530000,0.200000,-0.121099,Hold,0.232910,0.000000,Hold,144804.000000,2.000000,Suck,-2407.500000,2400.000000,Speed,-2355.000000,2400.000000,Speed,Off,On,0.000000,FALSE,0,,,,
01:10:57.248 PM 03/25/2016,Teleop Enabled,9,FALSE,0,NO ERROR,-0.000000,0.000000,0.000000,0.012833,TRUE,FALSE,FALSE,FALSE,FALSE,FALSE,Disabled,0.000000,0.000000,0.000000,TRUE,0.015213,0.063736,0.000000,0.104248,0.044876,0.000000,0.062000,-0.023000,-0.186000,-0.380000,0.400000,0.130000,-0.122789,Hold,0.232910,0.000000,Hold,6.000000,2.000000,Suck,-2407.500000,2400.000000,Speed,-2355.000000,2400.000000,Speed,Off,On,0.000000,FALSE,0,,,,
01:10:57.348 PM 03/25/2016,Teleop Enabled,10,FALSE,0,NO ERROR,-0.000000,0.000000,0.000000,0.012833,TRUE,FALSE,FALSE,FALSE,FALSE,FALSE,Disabled,0.000000,0.000000,0.000000,TRUE,0.020279,0.069641,0.000000,0.042191,0.200653,0.000000,-0.075000,0.097000,0.066000,-0.380000,0.370000,0.100000,-0.131062,Hold,0.232910,0.000000,Hold,-204.000000,2.000000,Suck,-2407.500000,2400.000000,Speed,-2355.000000,2400.000000,Speed,Off,On,0.000000,FALSE,0,,,,
01:10:57.450 PM 03/25/2016,Teleop Enabled,11,FALSE,0,NO ERROR,-0.000000,0.000000,0.000000,0.012833,TRUE,FALSE,FALSE,FALSE,FALSE,FALSE,Disabled,0.000000,0.000000,0.000000,TRUE,0.022263,0.074127,0.000000,0.084793,0.046463,0.000000,0.073000,-0.168000,-0.017000,-0.380000,0.350000,0.100000,-0.124166,Hold,0.232910,0.000000,Hold,-204.000000,2.000000,Suck,-2407.500000,2400.000000,Speed,-2362.500000,2400.000000,Speed,Off,On,0.000000,FALSE,0,,,,
01:10:57.552 PM 03/25/2016,Teleop Enabled,10,FALSE,0,NO ERROR,-0.000000,0.000000,0.000000,0.012833,TRUE,FALSE,FALSE,FALSE,FALSE,FALSE,Disabled,0.000000,0.000000,0.000000,TRUE,0.028152,0.077408,0.000000,0.091843,0.119904,0.000000,-0.163000,0.119000,0.138000,-0.390000,0.460000,0.130000,-0.120899,Hold,0.232910,0.000000,Hold,-204.000000,2.000000,Suck,-2407.500000,2400.000000,Speed,-2362.500000,2400.000000,Speed,Off,On,0.000000,FALSE,0,,,,
01:10:57.656 PM 03/25/2016,Teleop Enabled,11,FALSE,0,NO ERROR,-0.000000,0.000000,0.000000,0.012833,TRUE,FALSE,FALSE,FALSE,FALSE,FALSE,Disabled,0.000000,0.000000,0.000000,TRUE,0.032852,0.084869,0.000000,0.101791,0.139816,0.000000,-0.019000,-0.159000,-0.080000,-0.370000,0.430000,0.140000,-0.104575,Hold,0.232910,0.000000,Hold,-187.000000,2.000000,Suck,-2407.500000,2400.000000,Speed,-2355.000000,2400.000000,Speed,Off,On,0.000000,FALSE,0,,,,
01:10:57.756 PM 03/25/2016,Teleop Enabled,10,FALSE,0,NO ERROR,-0.000000,0.000000,0.000000,0.012833,TRUE,FALSE,FALSE,FALSE,FALSE,FALSE,Disabled,0.000000,0.000000,0.000000,TRUE,0.038376,0.089615,0.000000,0.091019,0.055405,0.000000,-0.065000,-0.202000,0.079000,-0.380000,0.410000,0.070000,-0.105545,Hold,0.232910,0.000000,Hold,-186.000000,2.000000,Suck,-2407.500000,2400.000000,Speed,-2340.000000,2400.000000,Speed,Off,On,0.000000,FALSE,0,,,,
01:10:57.858 PM 03/25/2016,Teleop Enabled,11,FALSE,0,NO ERROR,-0.000000,0.000000,0.000000,0.012833,TRUE,FALSE,FALSE,FALSE,FALSE,FALSE,Disabled,0.000000,0.000000,0.000000,TRUE,0.044022,0.091705,0.000000,0.084991,0.082382,0.000000,-0.233000,0.130000,-0.223000,-0.360000,0.320000,0.070000,-0.096739,Hold,0.232910,0.000000,Hold,-186.000000,2.000000,Suck,-2407.500000,2400.000000,Speed,-2340.000000,2400.000000,Speed,Off,On,0.000000,FALSE,0,,,,
01:10:57.959 PM 03/25/2016,Teleop Enabled,9,FALSE,0,NO ERROR,-0.000000,0.000000,0.000000,0.012833,TRUE,FALSE,FALSE,FALSE,FALSE,FALSE,Disabled,0.000000,0.000000,0.000000,TRUE,0.046387,0.098495,0.000000,0.053604,0.070541,0.000000,0.037000,-0.171000,0.198000,-0.360000,0.260000,0.110000,-0.078910,Hold,0.232910,0.000000,Hold,-186.000000,2.000000,Suck,-2407.500000,2400.000000,Speed,-2340.000000,2400.000000,Speed,Off,On,0.000000,FALSE,0,,,,
01:10:58.059 PM 03/25/2016,Teleop Enabled,10,FALSE,0,NO ERROR,-0.000000,0.000000,0.000000,0.012833,TRUE,FALSE,FALSE,FALSE,FALSE,FALSE,Disabled,0.000000,0.000000,0.000000,TRUE,0.050781,0.098618,0.000000,0.085983,0.008209,0.000000,-0.161000,0.102000,-0.224000,-0.340000,0.300000,-0.050000,-0.065632,Hold,0.232910,0.000000,Hold,-186.000000,2.000000,Suck,-2407.500000,2400.000000,Speed,-2340.000000,2400.000000,Speed,Off,On,0.000000,FALSE,0,,,,
01:10:58.161 PM 03/25/2016,Teleop Enabled,11,FALSE,0,NO ERROR,-0.000000,0.000000,0.000000,0.012833,TRUE,FALSE,FALSE,FALSE,FALSE,FALSE,Disabled,0.000000,0.000000,0.000000,TRUE,0.052383,0.104218,0.000000,0.006668,0.103104,0.000000,0.007000,-0.164000,-0.026000,-0.360000,0.200000,0.010000,-0.057735,Hold,0.232910,0.000000,Hold,-186.000000,2.000000,Suck,-2415.000000,2400.000000,Speed,-2340.000000,2400.000000,Speed,Off,On,0.000000,FALSE,0,,,,
01:10:58.260 PM 03/25/2016,Teleop Enabled,11,FALSE,0,NO ERROR,-0.000000,0.000000,0.000000,0.012833,TRUE,FALSE,FALSE,FALSE,FALSE,FALSE,Disabled,0.000000,0.000000,0.000000,TRUE,0.053360,0.104477,0.000000,0.006500,-0.027237,0.000000,0.010000,0.154000,-0.046000,-0.390000,0.080000,-0.020000,-0.069829,Hold,0.233154,0.000000,Hold,-186.000000,2.000000,Suck,-2407.500000,2400.000000,Speed,-2340.000000,2400.000000,Speed,Off,On,0.000000,FALSE,0,,,,
01:10:58.360 PM 03/25/2016,Teleop Enabled,10,FALSE,0,NO ERROR,-0.000000,0.000000,0.000000,0.012833,TRUE,FALSE,FALSE,FALSE,FALSE,FALSE,Disabled,0.000000,0.000000,0.000000,TRUE,0.054749,0.104065,0.000000,0.046021,-0.018570,0.000000,-0.014000,0.109000,-0.130000,-0.400000,0.140000,-0.050000,-0.112740,Hold,0.233154,0.000000,Hold,-186.000000,2.000000,Suck,-2407.500000,2400.000000,Speed,-2355.000000,2400.000000,Speed,Off,On,0.000000,FALSE,0,,,,
01:10:58.460 PM 03/25/2016,Teleop Enabled,10,FALSE,0,NO ERROR,-0.000000,0.000000,0.000000,0.012833,TRUE,FALSE,FALSE,FALSE,FALSE,FALSE,Disabled,0.000000,0.000000,0.000000,TRUE,0.056564,0.105103,0.000000,0.036163,0.022858,0.000000,0.046000,-0.290000,0.175000,-0.440000,0.170000,0.020000,-0.163322,Hold,0.233154,0.000000,Hold,-186.000000,2.000000,Suck,-2415.000000,2400.000000,Speed,-2347.500000,2400.000000,Speed,Off,On,0.000000,FALSE,0,,,,
01:10:58.561 PM 03/25/2016,Teleop Enabled,10,FALSE,0,NO ERROR,-0.000000,0.000000,0.000000,0.012833,TRUE,FALSE,FALSE,FALSE,FALSE,FALSE,Disabled,0.000000,0.000000,0.000000,TRUE,0.061218,0.101074,0.000000,0.147095,-0.102524,0.000000,0.084000,-0.049000,-0.220000,-0.430000,0.240000,-0.070000,-0.149390,Hold,0.233154,0.000000,Hold,-186.000000,2.000000,Suck,-2415.000000,2400.000000,Speed,-2340.000000,2400.000000,Speed,Off,On,0.000000,FALSE,0,,,,
01:10:58.662 PM 03/25/2016,Teleop Enabled,10,FALSE,0,NO ERROR,-0.000000,0.000000,0.000000,0.012833,TRUE,FALSE,FALSE,FALSE,FALSE,FALSE,Disabled,0.000000,0.000000,0.000000,TRUE,0.065170,0.101227,0.000000,0.033905,0.074173,0.000000,0.026000,-0.339000,0.006000,-0.400000,0.190000,0.020000,-0.120971,Hold,0.233154,0.000000,Hold,-186.000000,2.000000,Suck,-2415.000000,2400.000000,Speed,-2355.000000,2400.000000,Speed,Off,On,0.000000,FALSE,0,,,,
01:10:58.763 PM 03/25/2016,Teleop Enabled,9,FALSE,0,NO ERROR,-0.000000,0.000000,0.000000,0.012833,TRUE,FALSE,FALSE,FALSE,FALSE,FALSE,Disabled,0.000000,0.000000,0.000000,TRUE,0.069458,0.099548,0.000000,0.124222,0.000000,0.000000,-0.100000,0.060000,0.001000,-0.390000,0.180000,-0.020000,-0.092932,Hold,0.233154,0.000000,Hold,-186.000000,2.000000,Suck,-2407.500000,2400.000000,Speed,-2355.000000,2400.000000,Speed,Off,On,0.000000,FALSE,0,,,,
01:10:58.863 PM 03/25/2016,Teleop Enabled,10,FALSE,0,NO ERROR,-0.000000,0.000000,0.000000,0.012833,TRUE,FALSE,FALSE,FALSE,FALSE,FALSE,Disabled,0.000000,0.000000,0.000000,TRUE,0.075348,0.102676,0.000000,0.111160,0.104492,0.000000,0.024000,-0.010000,0.182000,-0.370000,0.150000,-0.020000,-0.070989,Hold,0.233154,0.000000,Hold,-186.000000,2.000000,Suck,-2415.000000,2400.000000,Speed,-2340.000000,2400.000000,Speed,Off,On,0.000000,FALSE,0,,,,
01:10:58.963 PM 03/25/2016,Teleop Enabled,10,FALSE,0,NO ERROR,-0.000000,0.000000,0.000000,0.012833,TRUE,FALSE,FALSE,FALSE,FALSE,FALSE,Disabled,0.000000,0.000000,0.000000,TRUE,0.077728,0.106384,0.000000,0.016998,0.027191,0.000000,0.136000,0.033000,0.018000,-0.370000,0.150000,-0.020000,-0.074934,Hold,0.233154,0.000000,Hold,-186.000000,2.000000,Suck,-2415.000000,2400.000000,Speed,-2355.000000,2400.000000,Speed,Off,On,0.000000,FALSE,0,,,,
01:10:59.064 PM 03/25/2016,Teleop Enabled,11,FALSE,0,NO ERROR,-0.000000,0.000000,0.000000,0.012833,TRUE,FALSE,FALSE,FALSE,FALSE,FALSE,Disabled,0.000000,0.000000,0.000000,TRUE,0.079712,0.108643,0.000000,0.046021,0.019485,0.000000,0.172000,0.025000,0.074000,-0.380000,0.270000,-0.120000,-0.059959,Hold,0.233154,0.000000,Hold,-186.000000,2.000000,Suck,-2415.000000,2400.000000,Speed,-2370.000000,2400.000000,Speed,Off,On,0.000000,FALSE,0,,,,
01:10:59.165 PM 03/25/2016,Teleop Enabled,9,FALSE,0,NO ERROR,-0.000000,0.000000,0.000000,0.012833,TRUE,FALSE,FALSE,FALSE,FALSE,FALSE,Disabled,0.000000,0.000000,0.000000,TRUE,0.082428,0.112595,0.000000,0.031754,0.119858,0.000000,0.172000,0.025000,0.074000,-0.400000,0.290000,-0.100000,-0.074290,Hold,0.233154,0.000000,Hold,-186.000000,2.000000,Suck,-2415.000000,2400.000000,Speed,-2355.000000,2400.000000,Speed,Off,On,0.000000,FALSE,0,,,,
01:10:59.270 PM 03/25/2016,Teleop Enabled,11,FALSE,0,NO ERROR,-0.000000,0.000000,0.000000,0.012833,TRUE,FALSE,FALSE,FALSE,FALSE,FALSE,Disabled,0.000000,0.000000,0.000000,TRUE,0.084213,0.116867,0.000000,0.052704,0.040359,0.000000,0.073000,0.033000,0.020000,-0.400000,0.290000,-0.100000,-0.077141,Hold,0.233154,0.000000,Hold,-186.000000,2.000000,Suck,-2407.500000,2400.000000,Speed,-2347.500000,2400.000000,Speed,Off,On,0.000000,FALSE,0,,,,
01:10:59.372 PM 03/25/2016,Teleop Enabled,9,FALSE,0,NO ERROR,-0.000000,0.000000,0.000000,0.012833,TRUE,FALSE,FALSE,FALSE,FALSE,FALSE,Disabled,0.000000,0.000000,0.000000,TRUE,0.085037,0.121841,0.000000,-0.028030,0.173782,0.000000,0.073000,0.033000,0.020000,-0.410000,0.280000,-0.060000,-0.054640,Hold,0.233154,0.000000,Hold,-186.000000,2.000000,Suck,-2415.000000,2400.000000,Speed,-2355.000000,2400.000000,Speed,Off,On,0.000000,FALSE,0,,,,
01:10:59.472 PM 03/25/2016,Teleop Enabled,10,FALSE,0,NO ERROR,-0.000000,0.000000,0.000000,0.012833,TRUE,FALSE,FALSE,FALSE,FALSE,FALSE,Disabled,0.000000,0.000000,0.000000,TRUE,0.085068,0.126801,0.000000,0.046371,0.016418,0.000000,-0.061000,-0.077000,0.024000,-0.410000,0.240000,0.020000,-0.062073,Hold,0.233154,0.000000,Hold,-186.000000,2.000000,Suck,-2415.000000,2400.000000,Speed,-2362.500000,2400.000000,Speed,Off,On,0.000000,FALSE,0,,,,
01:10:59.573 PM 03/25/2016,Teleop Enabled,9,FALSE,0,NO ERROR,-0.000000,0.000000,0.000000,0.012833,TRUE,FALSE,FALSE,FALSE,FALSE,FALSE,Disabled,0.000000,0.000000,0.000000,TRUE,0.085785,0.130234,0.000000,0.012878,0.143433,0.000000,-0.009000,0.031000,-0.113000,-0.420000,0.350000,-0.050000,-0.066314,Hold,0.233154,0.000000,Hold,-186.000000,2.000000,Suck,-2415.000000,2400.000000,Speed,-2362.500000,2400.000000,Speed,Off,On,0.000000,FALSE,0,,,,
01:10:59.673 PM 03/25/2016,Teleop Enabled,11,FALSE,0,NO ERROR,-0.000000,0.000000,0.000000,0.012833,TRUE,FALSE,FALSE,FALSE,FALSE,FALSE,Disabled,0.000000,0.000000,0.000000,TRUE,0.086868,0.136993,0.000000,0.037445,0.051056,0.000000,-0.047000,-0.043000,0.012000,-0.440000,0.430000,-0.010000,-0.072748,Hold,0.233154,0.000000,Hold,-186.000000,2.000000,Suck,-2415.000000,2400.000000,Speed,-2355.000000,2400.000000,Speed,Off,On,0.000000,FALSE,0,,,,
01:10:59.773 PM 03/25/2016,Teleop Enabled,10,FALSE,0,NO ERROR,-0.000000,0.000000,0.000000,0.012833,TRUE,FALSE,FALSE,FALSE,FALSE,FALSE,Disabled,0.000000,0.000000,0.000000,TRUE,0.086868,0.136993,0.000000,0.037445,0.051056,0.000000,-0.065000,-0.116000,-0.034000,-0.440000,0.440000,-0.010000,-0.066851,Hold,0.233154,0.000000,Hold,-186.000000,2.000000,Suck,-2415.000000,2400.000000,Speed,-2355.000000,2400.000000,Speed,Off,On,0.000000,FALSE,0,,,,
01:10:59.874 PM 03/25/2016,Teleop Enabled,11,FALSE,0,NO ERROR,-0.000000,0.000000,0.000000,0.012833,TRUE,FALSE,FALSE,FALSE,FALSE,FALSE,Disabled,0.000000,0.000000,0.000000,TRUE,0.087860,0.144440,0.000000,-0.020859,0.160995,0.000000,0.073000,-0.115000,0.000000,-0.450000,0.420000,0.000000,-0.073581,Hold,0.233154,0.000000,Hold,-186.000000,2.000000,Suck,-2422.500000,2400.000000,Speed,-2355.000000,2400.000000,Speed,Off,On,0.000000,FALSE,0,,,,
01:10:59.975 PM 03/25/2016,Teleop Enabled,11,FALSE,0,NO ERROR,-0.000000,0.000000,0.000000,0.012833,TRUE,FALSE,FALSE,FALSE,FALSE,FALSE,Disabled,0.000000,0.000000,0.000000,TRUE,0.088425,0.150864,0.000000,0.042130,0.067352,0.000000,-0.006000,0.072000,-0.216000,-0.450000,0.420000,0.000000,-0.064944,Hold,0.233154,0.000000,Hold,-186.000000,2.000000,Suck,-2422.500000,2400.000000,Speed,-2355.000000,2400.000000,Speed,Off,On,0.000000,FALSE,0,,,,
01:11:00.076 PM 03/25/2016,Teleop Enabled,10,FALSE,0,NO ERROR,-0.000000,0.000000,0.000000,0.012833,TRUE,FALSE,FALSE,FALSE,FALSE,FALSE,Disabled,0.000000,0.000000,0.000000,TRUE,0.088425,0.150864,0.000000,0.042130,0.067352,0.000000,0.191000,0.011000,-0.074000,-0.430000,0.360000,0.000000,-0.073843,Hold,0.233154,0.000000,Hold,-186.000000,2.000000,Suck,-2415.000000,2400.000000,Speed,-2355.000000,2400.000000,Speed,Off,On,0.000000,FALSE,0,,,,
01:11:00.176 PM 03/25/2016,Teleop Enabled,9,FALSE,0,NO ERROR,-0.000000,0.000000,0.000000,0.012833,TRUE,FALSE,FALSE,FALSE,FALSE,FALSE,Disabled,0.000000,0.000000,0.000000,TRUE,0.091843,0.152512,0.000000,0.035202,0.100525,0.000000,-0.042000,0.231000,0.001000,-0.440000,0.330000,0.010000,-0.075468,Hold,0.233154,0.000000,Hold,-186.000000,2.000000,Suck,-2407.500000,2400.000000,Speed,-2347.500000,2400.000000,Speed,Off,On,0.000000,FALSE,0,,,,
01:11:00.276 PM 03/25/2016,Teleop Enabled,10,FALSE,0,NO ERROR,-0.000000,0.000000,0.000000,0.012833,TRUE,FALSE,FALSE,FALSE,FALSE,FALSE,Disabled,0.000000,0.000000,0.000000,TRUE,0.093307,0.157974,0.000000,0.052277,0.024490,0.000000,0.117000,-0.024000,-0.048000,-0.430000,0.380000,-0.020000,-0.075468,Hold,0.233154,0.000000,Hold,-186.000000,2.000000,Suck,-2415.000000,2400.000000,Speed,-2347.500000,2400.000000,Speed,Off,On,0.000000,FALSE,0,,,,
01:11:00.377 PM 03/25/2016,Teleop Enabled,10,FALSE,0,NO ERROR,-0.000000,0.000000,0.000000,0.012833,TRUE,FALSE,FALSE,FALSE,FALSE,FALSE,Disabled,0.000000,0.000000,0.000000,TRUE,0.096390,0.161804,0.000000,0.045410,0.149536,0.000000,-0.024000,0.073000,0.185000,-0.430000,0.390000,0.030000,-0.068063,Hold,0.233154,0.000000,Hold,-186.000000,2.000000,Suck,-2415.000000,2400.000000,Speed,-2347.500000,2400.000000,Speed,Off,On,0.000000,FALSE,0,,,,
01:11:00.478 PM 03/25/2016,Teleop Enabled,10,FALSE,0,NO ERROR,-0.000000,0.000000,0.000000,0.012833,TRUE,FALSE,FALSE,FALSE,FALSE,FALSE,Disabled,0.000000,0.000000,0.000000,TRUE,0.098480,0.168396,0.000000,0.063309,0.183640,0.000000,0.079000,-0.198000,-0.083000,-0.430000,0.420000,0.010000,-0.076797,Hold,0.233154,0.000000,Hold,-186.000000,2.000000,Suck,-2415.000000,2400.000000,Speed,-2355.000000,2400.000000,Speed,Off,On,0.000000,FALSE,0,,,,
01:11:00.578 PM 03/25/2016,Teleop Enabled,11,FALSE,0,NO ERROR,-0.000000,0.000000,0.000000,0.012833,TRUE,FALSE,FALSE,FALSE,FALSE,FALSE,Disabled,0.000000,0.000000,0.000000,TRUE,0.103348,0.176758,0.000000,0.073822,0.123489,0.000000,0.078000,-0.076000,0.090000,-0.430000,0.400000,0.070000,-0.059129,Hold,0.233154,0.000000,Hold,-186.000000,2.000000,Suck,-2415.000000,2400.000000,Speed,-2355.000000,2400.000000,Speed,Off,On,0.000000,FALSE,0,,,,
01:11:00.679 PM 03/25/2016,Teleop Enabled,11,FALSE,0,NO ERROR,-0.000000,0.000000,0.000000,0.012833,TRUE,FALSE,FALSE,FALSE,FALSE,FALSE,Disabled,0.000000,0.000000,0.000000,TRUE,0.106964,0.181229,0.000000,0.086105,0.138428,0.000000,-0.189000,0.084000,-0.104000,-0.420000,0.340000,0.000000,-0.046333,Hold,0.233154,0.000000,Hold,-186.000000,2.000000,Suck,-2415.000000,2400.000000,Speed,-2362.500000,2400.000000,Speed,Off,On,0.000000,FALSE,0,,,,
01:11:00.780 PM 03/25/2016,Teleop Enabled,10,FALSE,0,NO ERROR,-0.000000,0.000000,0.000000,0.012833,TRUE,FALSE,FALSE,FALSE,FALSE,FALSE,Disabled,0.000000,0.000000,0.000000,TRUE,0.108658,0.191223,0.000000,0.005203,0.106812,0.000000,0.021000,-0.274000,0.210000,-0.410000,0.310000,0.050000,-0.036763,Hold,0.233154,0.000000,Hold,-186.000000,2.000000,Suck,-2415.000000,2400.000000,Speed,-2355.000000,2400.000000,Speed,Off,On,0.000000,FALSE,0,,,,
01:11:00.879 PM 03/25/2016,Teleop Enabled,10,FALSE,0,NO ERROR,-0.000000,0.000000,0.000000,0.012833,TRUE,FALSE,FALSE,FALSE,FALSE,FALSE,Disabled,0.000000,0.000000,0.000000,TRUE,0.110306,0.196152,0.000000,0.009140,0.135101,0.000000,-0.070000,0.382000,-0.178000,-0.400000,0.340000,0.000000,-0.018091,Hold,0.233154,0.000000,Hold,-186.000000,2.000000,Suck,-2415.000000,2400.000000,Speed,-2362.500000,2400.000000,Speed,Off,On,0.000000,FALSE,0,,,,
01:11:00.980 PM 03/25/2016,Teleop Enabled,10,FALSE,0,NO ERROR,-0.000000,0.000000,0.000000,0.012833,TRUE,FALSE,FALSE,FALSE,FALSE,FALSE,Disabled,0.000000,0.000000,0.000000,TRUE,0.108368,0.206894,0.000000,-0.033188,0.147263,0.000000,-0.047000,-0.096000,0.146000,-0.400000,0.330000,0.020000,-0.024329,Hold,0.233154,0.000000,Hold,-186.000000,2.000000,Suck,-2415.000000,2400.000000,Speed,-2362.500000,2400.000000,Speed,Off,On,0.000000,FALSE,0,,,,
01:11:01.081 PM 03/25/2016,Teleop Enabled,8,FALSE,0,NO ERROR,-0.000000,0.000000,0.000000,0.012833,TRUE,FALSE,FALSE,FALSE,FALSE,FALSE,Disabled,0.000000,0.000000,0.000000,TRUE,0.107422,0.212509,0.000000,-0.025146,0.147217,0.000000,0.012000,0.241000,-0.166000,-0.400000,0.390000,-0.070000,-0.020063,Hold,0.233154,0.000000,Hold,-185.000000,2.000000,Suck,-2415.000000,2400.000000,Speed,-2355.000000,2400.000000,Speed,Off,On,0.000000,FALSE,0,,,,
01:11:01.180 PM 03/25/2016,Teleop Enabled,6,FALSE,0,NO ERROR,-0.000000,0.000000,0.000000,0.012833,TRUE,FALSE,FALSE,FALSE,FALSE,FALSE,Disabled,0.000000,0.000000,0.000000,TRUE,0.105118,0.223557,0.000000,-0.018890,0.208496,0.000000,0.068000,-0.153000,-0.049000,-0.380000,0.410000,-0.080000,-0.009147,Hold,0.233154,0.000000,Hold,-185.000000,2.000000,Suck,-2415.000000,2400.000000,Speed,-2370.000000,2400.000000,Speed,Off,On,0.000000,FALSE,0,,,,
01:11:01.280 PM 03/25/2016,Teleop Enabled,9,FALSE,0,NO ERROR,-0.000000,0.000000,0.000000,0.012833,TRUE,FALSE,FALSE,FALSE,FALSE,FALSE,Disabled,0.000000,0.000000,0.000000,TRUE,0.104309,0.231537,0.000000,-0.032608,0.167786,0.000000,-0.008000,-0.061000,0.088000,-0.380000,0.330000,-0.100000,-0.010369,Hold,0.233154,0.000000,Hold,-184.000000,2.000000,Suck,-2415.000000,2400.000000,Speed,-2370.000000,2400.000000,Speed,Off,On,0.000000,FALSE,0,,,,
01:11:01.381 PM 03/25/2016,Teleop Enabled,9,FALSE,0,NO ERROR,-0.000000,0.000000,0.000000,0.012833,TRUE,FALSE,FALSE,FALSE,FALSE,FALSE,Disabled,0.000000,0.000000,0.000000,TRUE,0.102859,0.239624,0.000000,-0.014496,0.190201,0.000000,-0.047000,-0.055000,-0.118000,-0.380000,0.310000,-0.070000,-0.011918,Hold,0.233154,0.000000,Hold,-184.000000,2.000000,Suck,-2415.000000,2400.000000,Speed,-2362.500000,2400.000000,Speed,Off,On,0.000000,FALSE,0,,,,
01:11:01.483 PM 03/25/2016,Teleop Enabled,11,FALSE,0,NO ERROR,-0.000000,0.000000,0.000000,0.012833,TRUE,FALSE,FALSE,FALSE,FALSE,FALSE,Disabled,0.000000,0.000000,0.000000,TRUE,0.102127,0.249649,0.000000,-0.006912,0.208130,0.000000,-0.281000,-0.158000,0.101000,-0.380000,0.340000,-0.040000,0.003776,Hold,0.233154,0.000000,Hold,-184.000000,2.000000,Suck,-2415.000000,2400.000000,Speed,-2362.500000,2400.000000,Speed,Off,On,0.000000,FALSE,0,,,,
01:11:01.583 PM 03/25/2016,Teleop Enabled,9,FALSE,0,NO ERROR,-0.000000,0.000000,0.000000,0.012833,TRUE,FALSE,FALSE,FALSE,FALSE,FALSE,Disabled,0.000000,0.000000,0.000000,TRUE,0.099579,0.259491,0.000000,-0.061584,0.175385,0.000000,-0.161000,0.082000,-0.178000,-0.370000,0.240000,-0.090000,0.004400,Hold,0.233154,0.000000,Hold,-184.000000,2.000000,Suck,-2415.000000,2400.000000,Speed,-2355.000000,2400.000000,Speed,Off,On,0.000000,FALSE,0,,,,
01:11:01.682 PM 03/25/2016,Teleop Enabled,10,FALSE,0,NO ERROR,-0.000000,0.000000,0.000000,0.012833,TRUE,FALSE,FALSE,FALSE,FALSE,FALSE,Disabled,0.000000,0.000000,0.000000,TRUE,0.095535,0.270493,0.000000,-0.081055,0.162567,0.000000,-0.088000,-0.309000,0.274000,-0.380000,0.240000,-0.030000,-0.000812,Hold,0.233154,0.000000,Hold,-184.000000,2.000000,Suck,-2415.000000,2400.000000,Speed,-2362.500000,2400.000000,Speed,Off,On,0.000000,FALSE,0,,,,
01:11:01.782 PM 03/25/2016,Teleop Enabled,10,FALSE,0,NO ERROR,-0.000000,0.000000,0.000000,0.012833,TRUE,FALSE,FALSE,FALSE,FALSE,FALSE,Disabled,0.000000,0.000000,0.000000,TRUE,0.091385,0.276108,0.000000,-0.097717,0.142731,0.000000,-0.095000,0.150000,-0.221000,-0.370000,0.290000,-0.080000,-0.011336,Hold,0.233154,0.000000,Hold,-184.000000,2.000000,Suck,-2415.000000,2400.000000,Speed,-2362.500000,2400.000000,Speed,Off,On,0.000000,FALSE,0,,,,
01:11:01.882 PM 03/25/2016,Teleop Enabled,9,FALSE,0,NO ERROR,-0.000000,0.000000,0.000000,0.012833,TRUE,FALSE,FALSE,FALSE,FALSE,FALSE,Disabled,0.000000,0.000000,0.000000,TRUE,0.085815,0.287979,0.000000,-0.095779,0.201370,0.000000,0.244000,-0.312000,0.172000,-0.360000,0.380000,-0.100000,-0.006920,Hold,0.233154,0.000000,Hold,-184.000000,2.000000,Suck,-2415.000000,2400.000000,Speed,-2370.000000,2400.000000,Speed,Off,On,0.000000,FALSE,0,,,,
01:11:01.982 PM 03/25/2016,Teleop Enabled,9,FALSE,0,NO ERROR,-0.000000,0.000000,0.000000,0.012833,TRUE,FALSE,FALSE,FALSE,FALSE,FALSE,Disabled,0.000000,0.000000,0.000000,TRUE,0.082932,0.294571,0.000000,-0.077759,0.155777,0.000000,0.029000,0.184000,-0.136000,-0.350000,0.360000,-0.160000,0.004513,Hold,0.233154,0.000000,Hold,-184.000000,2.000000,Suck,-2422.500000,2400.000000,Speed,-2355.000000,2400.000000,Speed,Off,On,0.000000,FALSE,0,,,,
01:11:02.083 PM 03/25/2016,Teleop Enabled,10,FALSE,0,NO ERROR,-0.000000,0.000000,0.000000,0.012833,TRUE,FALSE,FALSE,FALSE,FALSE,FALSE,Disabled,0.000000,0.000000,0.000000,TRUE,0.078354,0.305283,0.000000,-0.107666,0.234390,0.000000,0.000000,-0.091000,-0.097000,-0.360000,0.320000,-0.080000,0.008100,Hold,0.233154,0.000000,Hold,-184.000000,2.000000,Suck,-2415.000000,2400.000000,Speed,-2347.500000,2400.000000,Speed,Off,On,0.000000,FALSE,0,,,,
01:11:02.183 PM 03/25/2016,Teleop Enabled,12,FALSE,0,NO ERROR,-0.000000,0.000000,0.000000,0.012833,TRUE,FALSE,FALSE,FALSE,FALSE,FALSE,Disabled,0.000000,0.000000,0.000000,TRUE,0.071793,0.315903,0.000000,-0.135086,0.209274,0.000000,-0.071000,-0.077000,0.180000,-0.370000,0.270000,-0.080000,0.011536,Hold,0.233154,0.000000,Hold,-183.000000,2.000000,Suck,-2407.500000,2400.000000,Speed,-2347.500000,2400.000000,Speed,Off,On,0.000000,FALSE,0,,,,
01:11:02.287 PM 03/25/2016,Teleop Enabled,10,FALSE,0,NO ERROR,-0.000000,0.000000,0.000000,0.012833,TRUE,FALSE,FALSE,FALSE,FALSE,FALSE,Disabled,0.000000,0.000000,0.000000,TRUE,0.065445,0.324387,0.000000,-0.092102,0.168381,0.000000,-0.001000,0.042000,-0.178000,-0.380000,0.310000,-0.120000,0.000974,Hold,0.233154,0.000000,Hold,-183.000000,2.000000,Suck,-2415.000000,2400.000000,Speed,-2362.500000,2400.000000,Speed,Off,On,0.000000,FALSE,0,,,,
01:11:02.387 PM 03/25/2016,Teleop Enabled,11,FALSE,0,NO ERROR,-0.000000,0.000000,0.000000,0.012833,TRUE,FALSE,FALSE,FALSE,FALSE,FALSE,Disabled,0.000000,0.000000,0.000000,TRUE,0.059097,0.336075,0.000000,-0.145599,0.270859,0.000000,-0.050000,-0.296000,0.180000,-0.390000,0.270000,-0.020000,-0.004954,Hold,0.233154,0.000000,Hold,-183.000000,2.000000,Suck,-2415.000000,2400.000000,Speed,-2377.500000,2400.000000,Speed,Off,On,0.000000,FALSE,0,,,,
01:11:02.488 PM 03/25/2016,Teleop Enabled,9,FALSE,0,NO ERROR,-0.000000,0.000000,0.000000,0.012833,TRUE,FALSE,FALSE,FALSE,FALSE,FALSE,Disabled,0.000000,0.000000,0.000000,TRUE,0.053421,0.343506,0.000000,-0.069000,0.119247,0.000000,-0.088000,0.066000,-0.102000,-0.400000,0.340000,-0.090000,-0.003649,Hold,0.233154,0.000000,Hold,-183.000000,2.000000,Suck,-2415.000000,2400.000000,Speed,-2385.000000,2400.000000,Speed,Off,On,0.000000,FALSE,0,,,,
01:11:02.591 PM 03/25/2016,Teleop Enabled,10,FALSE,0,NO ERROR,-0.000000,0.000000,0.000000,0.012833,TRUE,FALSE,FALSE,FALSE,FALSE,FALSE,Disabled,0.000000,0.000000,0.000000,TRUE,0.047119,0.355499,0.000000,-0.114761,0.188354,0.000000,0.098000,-0.336000,0.215000,-0.410000,0.380000,-0.030000,-0.004444,Hold,0.233154,0.000000,Hold,-183.000000,2.000000,Suck,-2422.500000,2400.000000,Speed,-2362.500000,2400.000000,Speed,Off,On,0.000000,FALSE,0,,,,
01:11:02.692 PM 03/25/2016,Teleop Enabled,11,FALSE,0,NO ERROR,-0.000000,0.000000,0.000000,0.012833,TRUE,FALSE,FALSE,FALSE,FALSE,FALSE,Disabled,0.000000,0.000000,0.000000,TRUE,0.045166,0.362000,0.000000,-0.004807,0.146393,0.000000,0.106000,0.253000,-0.101000,-0.400000,0.310000,-0.100000,-0.001332,Hold,0.233154,0.000000,Hold,-183.000000,2.000000,Suck,-2415.000000,2400.000000,Speed,-2355.000000,2400.000000,Speed,Off,On,0.000000,FALSE,0,,,,
01:11:02.791 PM 03/25/2016,Teleop Enabled,10,FALSE,0,NO ERROR,-0.000000,0.000000,0.000000,0.012833,TRUE,FALSE,FALSE,FALSE,FALSE,FALSE,Disabled,0.000000,0.000000,0.000000,TRUE,0.045547,0.373184,0.000000,0.020172,0.214203,0.000000,-0.002000,-0.059000,0.031000,-0.410000,0.410000,-0.090000,0.003949,Hold,0.233154,0.000000,Hold,-183.000000,2.000000,Suck,-2415.000000,2400.000000,Speed,-2362.500000,2400.000000,Speed,Off,On,0.000000,FALSE,0,,,,
01:11:02.892 PM 03/25/2016,Teleop Enabled,11,FALSE,0,NO ERROR,-0.000000,0.000000,0.000000,0.012833,TRUE,FALSE,FALSE,FALSE,FALSE,FALSE,Disabled,0.000000,0.000000,0.000000,TRUE,0.047302,0.381577,0.000000,0.031143,0.174210,0.000000,0.027000,0.192000,-0.052000,-0.400000,0.420000,-0.070000,0.015615,Hold,0.233154,0.000000,Hold,-183.000000,2.000000,Suck,-2407.500000,2400.000000,Speed,-2362.500000,2400.000000,Speed,Off,On,0.000000,FALSE,0,,,,
01:11:02.993 PM 03/25/2016,Teleop Enabled,10,FALSE,0,NO ERROR,-0.000000,0.000000,0.000000,0.012833,TRUE,FALSE,FALSE,FALSE,FALSE,FALSE,Disabled,0.000000,0.000000,0.000000,TRUE,0.049393,0.390778,0.000000,0.037384,0.198227,0.000000,-0.106000,0.161000,-0.070000,-0.400000,0.410000,-0.150000,0.033882,Hold,0.233154,0.000000,Hold,-183.000000,2.000000,Suck,-2415.000000,2400.000000,Speed,-2362.500000,2400.000000,Speed,Off,On,0.000000,FALSE,0,,,,
01:11:03.094 PM 03/25/2016,Teleop Enabled,12,FALSE,0,NO ERROR,-0.000000,0.000000,0.000000,0.012833,TRUE,FALSE,FALSE,FALSE,FALSE,FALSE,Disabled,0.000000,0.000000,0.000000,TRUE,0.050583,0.400146,0.000000,0.040573,0.000000,0.000000,0.077000,-0.251000,0.156000,-0.400000,0.410000,-0.120000,0.022569,Hold,0.233154,0.000000,Hold,-183.000000,2.000000,Suck,-2415.000000,2400.000000,Speed,-2355.000000,2400.000000,Speed,Off,On,0.000000,FALSE,0,,,,
01:11:03.194 PM 03/25/2016,Teleop Enabled,10,FALSE,0,NO ERROR,-0.000000,0.000000,0.000000,0.012833,TRUE,FALSE,FALSE,FALSE,FALSE,FALSE,Disabled,0.000000,0.000000,0.000000,TRUE,0.055710,0.393372,0.000000,0.102585,-0.129028,0.000000,-0.070000,0.164000,-0.149000,-0.410000,0.460000,-0.210000,0.001053,Hold,0.233154,0.000000,Hold,-183.000000,2.000000,Suck,-2415.000000,2400.000000,Speed,-2355.000000,2400.000000,Speed,Off,On,0.000000,FALSE,0,,,,
01:11:03.295 PM 03/25/2016,Teleop Enabled,10,FALSE,0,NO ERROR,-0.000000,0.000000,0.000000,0.012833,TRUE,FALSE,FALSE,FALSE,FALSE,FALSE,Disabled,0.000000,0.000000,0.000000,TRUE,0.056824,0.393082,0.000000,-0.006638,0.029510,0.000000,-0.058000,-0.347000,0.141000,-0.410000,0.350000,-0.060000,-0.007797,Hold,0.233154,0.000000,Hold,-183.000000,2.000000,Suck,-2415.000000,2400.000000,Speed,-2362.500000,2400.000000,Speed,Off,On,0.000000,FALSE,0,,,,
01:11:03.396 PM 03/25/2016,Teleop Enabled,10,FALSE,0,NO ERROR,-0.000000,0.000000,0.000000,0.012833,TRUE,FALSE,FALSE,FALSE,FALSE,FALSE,Disabled,0.000000,0.000000,0.000000,TRUE,0.057236,0.389435,0.000000,0.026794,-0.073746,0.000000,-0.197000,0.196000,-0.115000,-0.400000,0.350000,-0.110000,-0.008837,Hold,0.233154,0.000000,Hold,-183.000000,2.000000,Suck,-2407.500000,2400.000000,Speed,-2370.000000,2400.000000,Speed,Off,On,0.000000,FALSE,0,,,,
01:11:03.497 PM 03/25/2016,Teleop Enabled,9,FALSE,0,NO ERROR,-0.000000,0.000000,0.000000,0.012833,TRUE,FALSE,FALSE,FALSE,FALSE,FALSE,Disabled,0.000000,0.000000,0.000000,TRUE,0.055527,0.391937,0.000000,-0.044571,0.045319,0.000000,0.101000,-0.198000,0.154000,-0.400000,0.270000,-0.050000,0.016283,Hold,0.233154,0.000000,Hold,-183.000000,2.000000,Suck,-2415.000000,2400.000000,Speed,-2370.000000,2400.000000,Speed,Off,On,0.000000,FALSE,0,,,,
01:11:03.598 PM 03/25/2016,Teleop Enabled,10,FALSE,0,NO ERROR,-0.000000,0.000000,0.000000,0.012833,TRUE,FALSE,FALSE,FALSE,FALSE,FALSE,Disabled,0.000000,0.000000,0.000000,TRUE,0.055679,0.390732,0.000000,-0.002838,-0.047302,0.000000,0.080000,0.169000,-0.088000,-0.400000,0.270000,-0.080000,0.029689,Hold,0.233154,0.000000,Hold,-183.000000,2.000000,Suck,-2415.000000,2400.000000,Speed,-2362.500000,2400.000000,Speed,Off,On,0.000000,FALSE,0,,,,
01:11:03.699 PM 03/25/2016,Teleop Enabled,11,FALSE,0,NO ERROR,-0.000000,0.000000,0.000000,0.012833,TRUE,FALSE,FALSE,FALSE,FALSE,FALSE,Disabled,0.000000,0.000000,0.000000,TRUE,0.054886,0.390457,0.000000,-0.024567,-0.011139,0.000000,0.083000,0.157000,0.029000,-0.400000,0.240000,-0.060000,0.021623,Hold,0.233154,0.000000,Hold,-183.000000,2.000000,Suck,-2415.000000,2400.000000,Speed,-2362.500000,2400.000000,Speed,Off,On,0.000000,FALSE,0,,,,
01:11:03.800 PM 03/25/2016,Teleop Enabled,10,FALSE,0,NO ERROR,-0.000000,0.000000,0.000000,0.012833,TRUE,FALSE,FALSE,FALSE,FALSE,FALSE,Disabled,0.000000,0.000000,0.000000,TRUE,0.054306,0.391663,0.000000,-0.018433,0.029816,0.000000,0.022000,0.057000,-0.023000,-0.400000,0.270000,-0.030000,0.022432,Hold,0.233154,0.000000,Hold,-183.000000,2.000000,Suck,-2415.000000,2400.000000,Speed,-2355.000000,2400.000000,Speed,Off,On,0.000000,FALSE,0,,,,
01:11:03.899 PM 03/25/2016,Teleop Enabled,9,FALSE,0,NO ERROR,-0.000000,0.000000,0.000000,0.012833,TRUE,FALSE,FALSE,FALSE,FALSE,FALSE,Disabled,0.000000,0.000000,0.000000,TRUE,0.053314,0.392517,0.000000,0.000946,0.002762,0.000000,-0.001000,0.115000,-0.077000,-0.400000,0.230000,-0.040000,0.017468,Hold,0.233154,0.000000,Hold,-183.000000,2.000000,Suck,-2415.000000,2400.000000,Speed,-2362.500000,2400.000000,Speed,Off,On,0.000000,FALSE,0,,,,
01:11:04.000 PM 03/25/2016,Teleop Enabled,11,FALSE,0,NO ERROR,-0.000000,0.000000,0.000000,0.012833,TRUE,FALSE,FALSE,FALSE,FALSE,FALSE,Disabled,0.000000,0.000000,0.000000,TRUE,0.051941,0.395279,0.000000,-0.060394,0.128387,0.000000,-0.065000,-0.079000,0.102000,-0.400000,0.240000,0.000000,0.021568,Hold,0.233154,0.000000,Hold,-183.000000,2.000000,Suck,-2415.000000,2400.000000,Speed,-2370.000000,2400.000000,Speed,Off,On,0.000000,FALSE,0,,,,
01:11:04.100 PM 03/25/2016,Teleop Enabled,11,FALSE,0,NO ERROR,-0.000000,0.000000,0.000000,0.012833,TRUE,FALSE,FALSE,FALSE,FALSE,FALSE,Disabled,0.000000,0.000000,0.000000,TRUE,0.047958,0.399139,0.000000,-0.072495,0.031754,0.000000,0.029000,0.113000,-0.047000,-0.410000,0.240000,-0.020000,0.013746,Hold,0.233154,0.000000,Hold,-183.000000,2.000000,Suck,-2415.000000,2400.000000,Speed,-2355.000000,2400.000000,Speed,Off,On,0.000000,FALSE,0,,,,
01:11:04.200 PM 03/25/2016,Teleop Enabled,11,FALSE,0,NO ERROR,-0.000000,0.000000,0.000000,0.012833,TRUE,FALSE,FALSE,FALSE,FALSE,FALSE,Disabled,0.000000,0.000000,0.000000,TRUE,0.043579,0.403976,0.000000,-0.108994,0.176270,0.000000,-0.071000,-0.044000,-0.035000,-0.400000,0.190000,0.010000,0.017199,Hold,0.233398,0.000000,Hold,-183.000000,2.000000,Suck,-2415.000000,2400.000000,Speed,-2355.000000,2400.000000,Speed,Off,On,0.000000,FALSE,0,,,,
01:11:04.300 PM 03/25/2016,Teleop Enabled,11,FALSE,0,NO ERROR,-0.000000,0.000000,0.000000,0.012833,TRUE,FALSE,FALSE,FALSE,FALSE,FALSE,Disabled,0.000000,0.000000,0.000000,TRUE,0.038132,0.409363,0.000000,-0.082321,0.032623,0.000000,-0.001000,0.082000,-0.123000,-0.400000,0.210000,-0.010000,0.016046,Hold,0.233398,0.000000,Hold,-183.000000,2.000000,Suck,-2415.000000,2400.000000,Speed,-2370.000000,2400.000000,Speed,Off,On,0.000000,FALSE,0,,,,
01:11:04.400 PM 03/25/2016,Teleop Enabled,11,FALSE,0,NO ERROR,-0.000000,0.000000,0.000000,0.012833,TRUE,FALSE,FALSE,FALSE,FALSE,FALSE,Disabled,0.000000,0.000000,0.000000,TRUE,0.030914,0.416260,0.000000,-0.170212,0.190704,0.000000,-0.026000,-0.065000,-0.020000,-0.400000,0.170000,0.040000,0.018056,Hold,0.233398,0.000000,Hold,-183.000000,2.000000,Suck,-2415.000000,2400.000000,Speed,-2370.000000,2400.000000,Speed,Off,On,0.000000,FALSE,0,,,,
01:11:04.500 PM 03/25/2016,Teleop Enabled,11,FALSE,0,NO ERROR,-0.000000,0.000000,0.000000,0.012833,TRUE,FALSE,FALSE,FALSE,FALSE,FALSE,Disabled,0.000000,0.000000,0.000000,TRUE,0.023727,0.422241,0.000000,-0.135025,0.067871,0.000000,-0.043000,0.092000,-0.065000,-0.400000,0.100000,0.000000,0.007453,Hold,0.233398,0.000000,Hold,-183.000000,2.000000,Suck,-2415.000000,2400.000000,Speed,-2362.500000,2400.000000,Speed,Off,On,0.000000,FALSE,0,,,,
01:11:04.600 PM 03/25/2016,Teleop Enabled,10,FALSE,0,NO ERROR,-0.000000,0.000000,0.000000,0.012833,TRUE,FALSE,FALSE,FALSE,FALSE,FALSE,Disabled,0.000000,0.000000,0.000000,TRUE,0.016418,0.426971,0.000000,-0.151398,0.088333,0.000000,0.222000,0.120000,0.042000,-0.410000,0.110000,0.000000,0.002974,Hold,0.233398,0.000000,Hold,-183.000000,2.000000,Suck,-2415.000000,2400.000000,Speed,-2370.000000,2400.000000,Speed,Off,On,0.000000,FALSE,0,,,,
01:11:04.700 PM 03/25/2016,Teleop Enabled,9,FALSE,0,NO ERROR,-0.000000,0.000000,0.000000,0.012833,TRUE,FALSE,FALSE,FALSE,FALSE,FALSE,Disabled,0.000000,0.000000,0.000000,TRUE,0.010345,0.433411,0.000000,-0.139282,0.133026,0.000000,0.089000,0.073000,0.053000,-0.400000,0.210000,-0.010000,0.029024,Hold,0.233398,0.000000,Hold,-183.000000,2.000000,Suck,-2415.000000,2400.000000,Speed,-2362.500000,2400.000000,Speed,Off,On,0.000000,FALSE,0,,,,
01:11:04.801 PM 03/25/2016,Teleop Enabled,10,FALSE,0,NO ERROR,-0.000000,0.000000,0.000000,0.012833,TRUE,FALSE,FALSE,FALSE,FALSE,FALSE,Disabled,0.000000,0.000000,0.000000,TRUE,0.003601,0.438141,0.000000,-0.139816,0.038437,0.000000,-0.003000,0.102000,-0.019000,-0.400000,0.240000,-0.060000,0.014937,Hold,0.233398,0.000000,Hold,-183.000000,2.000000,Suck,-2407.500000,2400.000000,Speed,-2362.500000,2400.000000,Speed,Off,On,0.000000,FALSE,0,,,,
01:11:04.903 PM 03/25/2016,Teleop Enabled,11,FALSE,0,NO ERROR,-0.000000,0.000000,0.000000,0.012833,TRUE,FALSE,FALSE,FALSE,FALSE,FALSE,Disabled,0.000000,0.000000,0.000000,TRUE,-0.003662,0.442444,0.000000,-0.155884,0.152786,0.000000,0.003000,0.236000,-0.116000,-0.400000,0.300000,-0.050000,0.013133,Hold,0.233398,0.000000,Hold,-183.000000,2.000000,Suck,-2415.000000,2400.000000,Speed,-2362.500000,2400.000000,Speed,Off,On,0.000000,FALSE,0,,,,
01:11:05.002 PM 03/25/2016,Teleop Enabled,10,FALSE,0,NO ERROR,-0.000000,0.000000,0.000000,0.012833,TRUE,FALSE,FALSE,FALSE,FALSE,FALSE,Disabled,0.000000,0.000000,0.000000,TRUE,-0.011551,0.447876,0.000000,-0.144241,0.021057,0.000000,0.139000,0.080000,-0.052000,-0.400000,0.300000,-0.070000,0.002503,Hold,0.233398,0.000000,Hold,-183.000000,2.000000,Suck,-2415.000000,2400.000000,Speed,-2370.000000,2400.000000,Speed,Off,On,0.000000,FALSE,0,,,,
01:11:05.102 PM 03/25/2016,Teleop Enabled,10,FALSE,0,NO ERROR,-0.000000,0.000000,0.000000,0.012833,TRUE,FALSE,FALSE,FALSE,FALSE,FALSE,Disabled,0.000000,0.000000,0.000000,TRUE,-0.017715,0.452026,0.000000,-0.123917,0.163422,0.000000,-0.171000,0.106000,0.023000,-0.400000,0.370000,-0.080000,-0.002582,Hold,0.233398,0.000000,Hold,-183.000000,2.000000,Suck,-2415.000000,2400.000000,Speed,-2362.500000,2400.000000,Speed,Off,On,0.000000,FALSE,0,,,,
01:11:05.202 PM 03/25/2016,Teleop Enabled,11,FALSE,0,NO ERROR,-0.000000,0.000000,0.000000,0.012833,TRUE,FALSE,FALSE,FALSE,FALSE,FALSE,Disabled,0.000000,0.000000,0.000000,TRUE,-0.024948,0.458679,0.000000,-0.113373,0.050903,0.000000,0.035000,-0.119000,-0.055000,-0.400000,0.340000,-0.100000,-0.002289,Hold,0.233398,0.000000,Hold,-183.000000,2.000000,Suck,-2415.000000,2400.000000,Speed,-2362.500000,2400.000000,Speed,Off,On,0.000000,FALSE,0,,,,
01:11:05.302 PM 03/25/2016,Teleop Enabled,11,FALSE,0,NO ERROR,-0.000000,0.000000,0.000000,0.012833,TRUE,FALSE,FALSE,FALSE,FALSE,FALSE,Disabled,0.000000,0.000000,0.000000,TRUE,-0.031845,0.462463,0.000000,-0.125153,0.111221,0.000000,-0.115000,-0.008000,0.032000,-0.400000,0.330000,-0.080000,-0.002520,Hold,0.233398,0.000000,Hold,-183.000000,2.000000,Suck,-2415.000000,2400.000000,Speed,-2370.000000,2400.000000,Speed,Off,On,0.000000,FALSE,0,,,,
01:11:05.402 PM 03/25/2016,Teleop Enabled,10,FALSE,0,NO ERROR,-0.000000,0.000000,0.000000,0.012833,TRUE,FALSE,FALSE,FALSE,FALSE,FALSE,Disabled,0.000000,0.000000,0.000000,TRUE,-0.036896,0.465393,0.000000,-0.108246,0.040894,0.000000,-0.115000,-0.008000,0.032000,-0.410000,0.220000,-0.070000,0.002289,Hold,0.233398,0.000000,Hold,-183.000000,2.000000,Suck,-2415.000000,2400.000000,Speed,-2362.500000,2400.000000,Speed,Off,On,0.000000,FALSE,0,,,,
01:11:05.502 PM 03/25/2016,Teleop Enabled,10,FALSE,0,NO ERROR,-0.000000,0.000000,0.000000,0.012833,TRUE,FALSE,FALSE,FALSE,FALSE,FALSE,Disabled,0.000000,0.000000,0.000000,TRUE,-0.044327,0.467545,0.000000,-0.145920,0.039917,0.000000,-0.075000,-0.068000,0.058000,-0.400000,0.200000,-0.030000,0.008875,Hold,0.233398,0.000000,Hold,-183.000000,2.000000,Suck,-2415.000000,2400.000000,Speed,-2370.000000,2400.000000,Speed,Off,On,0.000000,FALSE,0,,,,
01:11:05.602 PM 03/25/2016,Teleop Enabled,10,FALSE,0,NO ERROR,-0.000000,0.000000,0.000000,0.012833,TRUE,FALSE,FALSE,FALSE,FALSE,FALSE,Disabled,0.000000,0.000000,0.000000,TRUE,-0.049744,0.470200,0.000000,-0.131226,0.073639,0.000000,-0.063000,0.006000,-0.139000,-0.400000,0.200000,-0.030000,0.014927,Hold,0.233398,0.000000,Hold,-183.000000,2.000000,Suck,-2415.000000,2400.000000,Speed,-2377.500000,2400.000000,Speed,Off,On,0.000000,FALSE,0,,,,
01:11:05.703 PM 03/25/2016,Teleop Enabled,9,FALSE,0,NO ERROR,-0.000000,0.000000,0.000000,0.012833,TRUE,FALSE,FALSE,FALSE,FALSE,FALSE,Disabled,0.000000,0.000000,0.000000,TRUE,-0.053070,0.473602,0.000000,-0.014267,0.017075,0.000000,0.088000,-0.034000,0.095000,-0.400000,0.180000,-0.020000,0.011526,Hold,0.233398,0.000000,Hold,-183.000000,2.000000,Suck,-2415.000000,2400.000000,Speed,-2370.000000,2400.000000,Speed,Off,On,0.000000,FALSE,0,,,,
01:11:05.802 PM 03/25/2016,Teleop Enabled,11,FALSE,0,NO ERROR,-0.000000,0.000000,0.000000,0.012833,TRUE,FALSE,FALSE,FALSE,FALSE,FALSE,Disabled,0.000000,0.000000,0.000000,TRUE,-0.053558,0.477005,0.000000,-0.038513,0.116806,0.000000,0.088000,-0.034000,0.095000,-0.400000,0.240000,-0.060000,0.022890,Hold,0.233398,0.000000,Hold,-183.000000,2.000000,Suck,-2415.000000,2400.000000,Speed,-2370.000000,2400.000000,Speed,Off,On,0.000000,FALSE,0,,,,
01:11:05.903 PM 03/25/2016,Teleop Enabled,11,FALSE,0,NO ERROR,-0.000000,0.000000,0.000000,0.012833,TRUE,FALSE,FALSE,FALSE,FALSE,FALSE,Disabled,0.000000,0.000000,0.000000,TRUE,-0.055466,0.480942,0.000000,-0.027527,0.015579,0.000000,0.171000,-0.027000,0.056000,-0.410000,0.210000,0.000000,0.003167,Hold,0.233398,0.000000,Hold,-183.000000,2.000000,Suck,-2415.000000,2400.000000,Speed,-2370.000000,2400.000000,Speed,Off,On,0.000000,FALSE,0,,,,
01:11:06.002 PM 03/25/2016,Teleop Enabled,11,FALSE,0,NO ERROR,-0.000000,0.000000,0.000000,0.012833,TRUE,FALSE,FALSE,FALSE,FALSE,FALSE,Disabled,0.000000,0.000000,0.000000,TRUE,-0.057724,0.484665,0.000000,-0.099960,0.160934,0.000000,0.171000,-0.027000,0.056000,-0.410000,0.210000,0.000000,-0.014438,Hold,0.233398,0.000000,Hold,-183.000000,2.000000,Suck,-2415.000000,2400.000000,Speed,-2377.500000,2400.000000,Speed,Off,On,0.000000,FALSE,0,,,,
01:11:06.103 PM 03/25/2016,Teleop Enabled,11,FALSE,0,NO ERROR,-0.000000,0.000000,0.000000,0.012833,TRUE,FALSE,FALSE,FALSE,FALSE,FALSE,Disabled,0.000000,0.000000,0.000000,TRUE,-0.062637,0.489624,0.000000,-0.066971,0.029526,0.000000,-0.068000,-0.081000,-0.061000,-0.410000,0.190000,-0.040000,-0.022167,Hold,0.233398,0.000000,Hold,-183.000000,2.000000,Suck,-2415.000000,2400.000000,Speed,-2370.000000,2400.000000,Speed,Off,On,0.000000,FALSE,0,,,,
01:11:06.202 PM 03/25/2016,Teleop Enabled,11,FALSE,0,NO ERROR,-0.000000,0.000000,0.000000,0.012833,TRUE,FALSE,FALSE,FALSE,FALSE,FALSE,Disabled,0.000000,0.000000,0.000000,TRUE,-0.065842,0.493622,0.000000,-0.079453,0.165924,0.000000,0.116000,-0.040000,-0.221000,-0.420000,0.090000,-0.030000,-0.034488,Hold,0.233398,0.000000,Hold,-183.000000,2.000000,Suck,-2415.000000,2400.000000,Speed,-2370.000000,2400.000000,Speed,Off,On,0.000000,FALSE,0,,,,
01:11:06.303 PM 03/25/2016,Teleop Enabled,10,FALSE,0,NO ERROR,-0.000000,0.000000,0.000000,0.019250,TRUE,FALSE,FALSE,FALSE,FALSE,FALSE,Disabled,0.000000,0.000000,0.000000,TRUE,-0.070129,0.500153,0.000000,-0.055344,0.066269,0.000000,-0.111000,0.033000,0.148000,-0.440000,0.170000,-0.010000,-0.119615,Hold,0.233398,0.000000,Hold,-183.000000,2.000000,Suck,-2415.000000,2400.000000,Speed,-2377.500000,2400.000000,Speed,Off,On,0.000000,FALSE,0,,,,
01:11:06.404 PM 03/25/2016,Teleop Enabled,7,FALSE,0,NO ERROR,-0.000000,0.000000,0.000000,0.019250,TRUE,FALSE,FALSE,FALSE,FALSE,FALSE,Disabled,0.000000,0.000000,0.000000,TRUE,-0.073944,0.505112,0.000000,-0.096466,0.160416,0.000000,-0.098000,-0.017000,0.006000,-0.520000,0.130000,-0.170000,-0.041665,Hold,0.233398,0.000000,Hold,-183.000000,2.000000,Suck,-2415.000000,2400.000000,Speed,-2370.000000,2400.000000,Speed,Off,On,0.000000,FALSE,0,,,,
01:11:06.506 PM 03/25/2016,Teleop Enabled,9,FALSE,0,NO ERROR,-0.000000,0.000000,0.000000,0.019250,TRUE,FALSE,FALSE,FALSE,FALSE,FALSE,Disabled,0.000000,0.000000,0.000000,TRUE,-0.073944,0.505112,0.000000,-0.096466,0.160416,0.000000,-0.240000,0.110000,0.138000,-0.440000,0.150000,-0.200000,-0.077974,Hold,0.233398,0.000000,Hold,-183.000000,2.000000,Suck,-2415.000000,2400.000000,Speed,-2370.000000,2400.000000,Speed,Off,On,0.000000,FALSE,0,,,,
01:11:06.606 PM 03/25/2016,Teleop Enabled,11,FALSE,0,NO ERROR,-0.000000,0.000000,0.000000,0.019250,TRUE,FALSE,FALSE,FALSE,FALSE,FALSE,Disabled,0.000000,0.000000,0.000000,TRUE,-0.079681,0.507706,0.000000,-0.099731,-0.038406,0.000000,-0.090000,-0.041000,-0.029000,-0.470000,0.090000,-0.180000,-0.070314,Hold,0.233398,0.000000,Hold,-183.000000,2.000000,Suck,-2415.000000,2400.000000,Speed,-2377.500000,2400.000000,Speed,Off,On,0.000000,FALSE,0,,,,
01:11:06.707 PM 03/25/2016,Teleop Enabled,10,FALSE,0,NO ERROR,-0.000000,0.000000,0.000000,0.019250,TRUE,FALSE,FALSE,FALSE,FALSE,FALSE,Disabled,0.000000,0.000000,0.000000,TRUE,-0.085175,0.506134,0.000000,-0.119400,-0.022476,0.000000,0.083000,-0.046000,0.109000,-0.470000,0.080000,-0.190000,-0.078876,Hold,0.233398,0.000000,Hold,-183.000000,2.000000,Suck,-2415.000000,2400.000000,Speed,-2370.000000,2400.000000,Speed,Off,On,0.000000,FALSE,0,,,,
01:11:06.809 PM 03/25/2016,Teleop Enabled,10,FALSE,0,NO ERROR,-0.000000,0.000000,0.000000,0.019250,TRUE,FALSE,FALSE,FALSE,FALSE,FALSE,Disabled,0.000000,0.000000,0.000000,TRUE,-0.091141,0.506210,0.000000,-0.095001,0.021957,0.000000,0.075000,0.085000,-0.090000,-0.470000,0.120000,-0.230000,-0.077013,Hold,0.233398,0.000000,Hold,-183.000000,2.000000,Suck,-2415.000000,2400.000000,Speed,-2370.000000,2400.000000,Speed,Off,On,0.000000,FALSE,0,,,,
01:11:06.910 PM 03/25/2016,Teleop Enabled,10,FALSE,0,NO ERROR,-0.000000,0.000000,0.000000,0.019250,TRUE,FALSE,FALSE,FALSE,FALSE,FALSE,Disabled,0.000000,0.000000,0.000000,TRUE,-0.095978,0.505692,0.000000,-0.068054,-0.057938,0.000000,0.172000,0.051000,0.063000,-0.470000,0.070000,-0.220000,-0.077013,Hold,0.233398,0.000000,Hold,-183.000000,2.000000,Suck,-2422.500000,2400.000000,Speed,-2370.000000,2400.000000,Speed,Off,On,0.000000,FALSE,0,,,,
01:11:07.010 PM 03/25/2016,Teleop Enabled,9,FALSE,0,NO ERROR,-0.000000,0.000000,0.000000,0.019250,TRUE,FALSE,FALSE,FALSE,FALSE,FALSE,Disabled,0.000000,0.000000,0.000000,TRUE,-0.099686,0.506653,0.000000,-0.106750,0.107468,0.000000,-0.041000,0.208000,-0.094000,-0.490000,0.050000,-0.150000,-0.097972,Hold,0.233398,0.000000,Hold,-183.000000,2.000000,Suck,-2415.000000,2400.000000,Speed,-2370.000000,2400.000000,Speed,Off,On,0.000000,FALSE,0,,,,
01:11:07.110 PM 03/25/2016,Teleop Enabled,11,FALSE,0,NO ERROR,-0.000000,0.000000,0.000000,0.019250,TRUE,FALSE,FALSE,FALSE,FALSE,FALSE,Disabled,0.000000,0.000000,0.000000,TRUE,-0.103348,0.507828,0.000000,-0.010788,-0.045303,0.000000,0.200000,-0.055000,-0.024000,-0.480000,0.190000,-0.230000,-0.073623,Hold,0.233398,0.000000,Hold,-183.000000,2.000000,Suck,-2415.000000,2400.000000,Speed,-2355.000000,2400.000000,Speed,Off,On,0.000000,FALSE,0,,,,
01:11:07.211 PM 03/25/2016,Teleop Enabled,10,FALSE,0,NO ERROR,-0.000000,0.000000,0.000000,0.019250,TRUE,FALSE,FALSE,FALSE,FALSE,FALSE,Disabled,0.000000,0.000000,0.000000,TRUE,-0.103287,0.508408,0.000000,-0.014801,0.085144,0.000000,-0.092000,-0.023000,0.089000,-0.480000,0.280000,-0.220000,-0.073175,Hold,0.233398,0.000000,Hold,-183.000000,2.000000,Suck,-2415.000000,2400.000000,Speed,-2362.500000,2400.000000,Speed,Off,On,0.000000,FALSE,0,,,,
01:11:07.311 PM 03/25/2016,Teleop Enabled,11,FALSE,0,NO ERROR,-0.000000,0.000000,0.000000,0.019250,TRUE,FALSE,FALSE,FALSE,FALSE,FALSE,Disabled,0.000000,0.000000,0.000000,TRUE,-0.103409,0.510117,0.000000,0.038498,-0.027969,0.000000,-0.070000,0.001000,0.002000,-0.480000,0.280000,-0.280000,-0.055907,Hold,0.233398,0.000000,Hold,-183.000000,2.000000,Suck,-2415.000000,2400.000000,Speed,-2370.000000,2400.000000,Speed,Off,On,0.000000,FALSE,0,,,,
01:11:07.412 PM 03/25/2016,Teleop Enabled,8,FALSE,0,NO ERROR,-0.000000,0.000000,0.000000,0.019250,TRUE,FALSE,FALSE,FALSE,FALSE,FALSE,Disabled,0.000000,0.000000,0.000000,TRUE,-0.102692,0.510696,0.000000,-0.016571,0.056168,0.000000,0.146000,-0.108000,-0.017000,-0.470000,0.190000,-0.240000,-0.044574,Hold,0.233398,0.000000,Hold,-183.000000,2.000000,Suck,-2415.000000,2400.000000,Speed,-2362.500000,2400.000000,Speed,Off,On,0.000000,FALSE,0,,,,
01:11:07.513 PM 03/25/2016,Teleop Enabled,9,FALSE,0,NO ERROR,-0.000000,0.000000,0.000000,0.019250,TRUE,FALSE,FALSE,FALSE,FALSE,FALSE,Disabled,0.000000,0.000000,0.000000,TRUE,-0.102921,0.512695,0.000000,0.002762,0.017883,0.000000,0.034000,-0.012000,0.114000,-0.470000,0.190000,-0.240000,-0.045652,Hold,0.233398,0.000000,Hold,-183.000000,2.000000,Suck,-2415.000000,2400.000000,Speed,-2355.000000,2400.000000,Speed,Off,On,0.000000,FALSE,0,,,,
01:11:07.614 PM 03/25/2016,Teleop Enabled,9,FALSE,0,NO ERROR,-0.000000,0.000000,0.000000,0.019250,TRUE,FALSE,FALSE,FALSE,FALSE,FALSE,Disabled,0.000000,0.000000,0.000000,TRUE,-0.102798,0.512985,0.000000,-0.011932,-0.015091,0.000000,0.194000,0.035000,0.141000,-0.470000,0.130000,-0.250000,-0.037090,Hold,0.233398,0.000000,Hold,-183.000000,2.000000,Suck,-2415.000000,2400.000000,Speed,-2362.500000,2400.000000,Speed,Off,On,0.000000,FALSE,0,,,,
01:11:07.715 PM 03/25/2016,Teleop Enabled,11,FALSE,0,NO ERROR,-0.000000,0.000000,0.000000,0.019250,TRUE,FALSE,FALSE,FALSE,FALSE,FALSE,Disabled,0.000000,0.000000,0.000000,TRUE,-0.101959,0.513123,0.000000,-0.018753,0.045837,0.000000,0.062000,0.164000,-0.118000,-0.470000,0.090000,-0.220000,-0.030177,Hold,0.233398,0.000000,Hold,-183.000000,2.000000,Suck,-2415.000000,2400.000000,Speed,-2370.000000,2400.000000,Speed,Off,On,0.000000,FALSE,0,,,,
01:11:07.816 PM 03/25/2016,Teleop Enabled,10,FALSE,0,NO ERROR,-0.000000,0.000000,0.000000,0.019250,TRUE,FALSE,FALSE,FALSE,FALSE,FALSE,Disabled,0.000000,0.000000,0.000000,TRUE,-0.103470,0.514206,0.000000,-0.037704,-0.063019,0.000000,0.097000,0.100000,0.089000,-0.470000,0.090000,-0.300000,-0.021440,Hold,0.233398,0.000000,Hold,-183.000000,2.000000,Suck,-2415.000000,2400.000000,Speed,-2362.500000,2400.000000,Speed,Off,On,0.000000,FALSE,0,,,,
01:11:07.916 PM 03/25/2016,Teleop Enabled,10,FALSE,0,NO ERROR,-0.000000,0.000000,0.000000,0.019250,TRUE,FALSE,FALSE,FALSE,FALSE,FALSE,Disabled,0.000000,0.000000,0.000000,TRUE,-0.105682,0.513611,0.000000,-0.077850,0.089966,0.000000,-0.179000,0.275000,0.044000,-0.470000,0.110000,-0.240000,-0.032539,Hold,0.233398,0.000000,Hold,-183.000000,2.000000,Suck,-2415.000000,2400.000000,Speed,-2362.500000,2400.000000,Speed,Off,On,0.000000,FALSE,0,,,,
01:11:08.017 PM 03/25/2016,Teleop Enabled,10,FALSE,0,NO ERROR,-0.000000,0.000000,0.000000,0.019250,TRUE,FALSE,FALSE,FALSE,FALSE,FALSE,Disabled,0.000000,0.000000,0.000000,TRUE,-0.109482,0.513855,0.000000,-0.036270,-0.083496,0.000000,0.017000,-0.040000,-0.149000,-0.490000,0.060000,-0.270000,-0.039686,Hold,0.233398,0.000000,Hold,-183.000000,2.000000,Suck,-2415.000000,2400.000000,Speed,-2370.000000,2400.000000,Speed,Off,On,0.000000,FALSE,0,,,,
01:11:08.117 PM 03/25/2016,Teleop Enabled,10,FALSE,0,NO ERROR,-0.000000,0.000000,0.000000,0.019250,TRUE,FALSE,FALSE,FALSE,FALSE,FALSE,Disabled,0.000000,0.000000,0.000000,TRUE,-0.110931,0.511490,0.000000,-0.028290,0.015945,0.000000,-0.009000,0.091000,0.036000,-0.490000,0.150000,-0.230000,-0.029355,Hold,0.233398,0.000000,Hold,-183.000000,2.000000,Suck,-2407.500000,2400.000000,Speed,-2362.500000,2400.000000,Speed,Off,On,0.000000,FALSE,0,,,,
01:11:08.219 PM 03/25/2016,Teleop Enabled,10,FALSE,0,NO ERROR,-0.000000,0.000000,0.000000,0.019250,TRUE,FALSE,FALSE,FALSE,FALSE,FALSE,Disabled,0.000000,0.000000,0.000000,TRUE,-0.111481,0.511261,0.000000,0.017242,-0.048965,0.000000,0.051000,-0.118000,0.000000,-0.490000,0.140000,-0.240000,-0.021926,Hold,0.233398,0.000000,Hold,-183.000000,2.000000,Suck,-2415.000000,2400.000000,Speed,-2362.500000,2400.000000,Speed,Off,On,0.000000,FALSE,0,,,,
01:11:08.320 PM 03/25/2016,Teleop Enabled,11,FALSE,0,NO ERROR,-0.000000,0.000000,0.000000,0.019250,TRUE,FALSE,FALSE,FALSE,FALSE,FALSE,Disabled,0.000000,0.000000,0.000000,TRUE,-0.111115,0.508789,0.000000,0.006516,-0.046768,0.000000,-0.028000,-0.131000,-0.067000,-0.480000,0.120000,-0.210000,0.011219,Hold,0.233398,0.000000,Hold,-183.000000,2.000000,Suck,-2415.000000,2400.000000,Speed,-2362.500000,2400.000000,Speed,Off,On,0.000000,FALSE,0,,,,
01:11:08.419 PM 03/25/2016,Teleop Enabled,10,FALSE,0,NO ERROR,-0.000000,0.000000,0.000000,0.019250,TRUE,FALSE,FALSE,FALSE,FALSE,FALSE,Disabled,0.000000,0.000000,0.000000,TRUE,-0.111298,0.505264,0.000000,-0.022079,-0.067429,0.000000,-0.081000,-0.039000,-0.095000,-0.470000,0.110000,-0.220000,0.017010,Hold,0.233398,0.000000,Hold,-183.000000,2.000000,Suck,-2415.000000,2400.000000,Speed,-2370.000000,2400.000000,Speed,Off,On,0.000000,FALSE,0,,,,
01:11:08.519 PM 03/25/2016,Teleop Enabled,10,FALSE,0,NO ERROR,-0.000000,0.000000,0.000000,0.019250,TRUE,FALSE,FALSE,FALSE,FALSE,FALSE,Disabled,0.000000,0.000000,0.000000,TRUE,-0.112442,0.502075,0.000000,-0.053268,-0.087860,0.000000,0.169000,0.057000,0.049000,-0.480000,0.040000,-0.180000,0.003312,Hold,0.233398,0.000000,Hold,-183.000000,139264.000000,Suck,-2415.000000,2400.000000,Speed,-2362.500000,2400.000000,Speed,Off,On,0.000000,FALSE,0,,,,
01:11:08.623 PM 03/25/2016,Teleop Enabled,11,FALSE,0,NO ERROR,-0.000000,0.000000,0.000000,0.019250,TRUE,FALSE,FALSE,FALSE,FALSE,FALSE,Disabled,0.000000,0.000000,0.000000,TRUE,-0.113129,0.498749,0.000000,-0.033127,-0.020142,0.000000,0.012000,0.169000,-0.297000,-0.470000,0.150000,-0.220000,-0.004703,Hold,0.233398,47.000000,Hold,-183.000000,139264.000000,Suck,-2415.000000,2400.000000,Speed,-2362.500000,2400.000000,Speed,Off,On,0.000000,FALSE,0,,,,
01:11:08.725 PM 03/25/2016,Teleop Enabled,11,FALSE,0,NO ERROR,-0.000000,0.000000,0.000000,0.019250,TRUE,FALSE,FALSE,FALSE,FALSE,FALSE,Disabled,0.000000,0.000000,0.000000,TRUE,-0.114975,0.498581,0.000000,-0.024582,-0.065338,0.000000,-0.045000,0.035000,0.184000,-0.480000,0.060000,-0.190000,0.001907,Hold,3.077881,47.000000,Hold,-13976.000000,139264.000000,Suck,-2407.500000,2400.000000,Speed,-2370.000000,2400.000000,Speed,Off,On,0.000000,FALSE,0,,,,
01:11:08.825 PM 03/25/2016,Teleop Enabled,11,FALSE,0,NO ERROR,-0.000000,0.000000,0.000000,0.019250,TRUE,FALSE,FALSE,FALSE,FALSE,FALSE,Disabled,0.000000,0.000000,0.000000,TRUE,-0.115524,0.493881,0.000000,-0.009644,-0.104202,0.000000,-0.068000,0.247000,-0.020000,-0.480000,0.050000,-0.300000,0.007563,Hold,7.940430,47.000000,Hold,-25477.000000,139264.000000,Suck,-2407.500000,2400.000000,Speed,-2370.000000,2400.000000,Speed,Off,On,0.000000,FALSE,0,,,,
01:11:08.925 PM 03/25/2016,Teleop Enabled,11,FALSE,0,NO ERROR,-0.000000,0.000000,0.000000,0.019250,TRUE,FALSE,FALSE,FALSE,FALSE,FALSE,Disabled,0.000000,0.000000,0.000000,TRUE,-0.116333,0.491165,0.000000,0.018127,-0.088974,0.000000,0.031000,-0.163000,0.108000,-0.470000,0.060000,-0.260000,0.027313,Hold,7.940430,47.000000,Hold,-25477.000000,139264.000000,Suck,-2407.500000,2400.000000,Speed,-2362.500000,2400.000000,Speed,Off,On,0.000000,FALSE,0,,,,
01:11:09.026 PM 03/25/2016,Teleop Enabled,10,FALSE,0,NO ERROR,-0.000000,0.000000,0.000000,0.019250,TRUE,FALSE,FALSE,FALSE,FALSE,FALSE,Disabled,0.000000,0.000000,0.000000,TRUE,-0.115280,0.484665,0.000000,0.003235,-0.120193,0.000000,-0.013000,0.187000,-0.108000,-0.470000,0.090000,-0.290000,0.023148,Hold,11.391357,47.000000,Hold,-25477.000000,139264.000000,Suck,-2400.000000,2400.000000,Speed,-2370.000000,2400.000000,Speed,Off,On,0.000000,FALSE,0,,,,
