Time,Robot Mode,Loop Time,Error Status,Error Code,Error Source,Left Motor Output,Left Motor Encoder,Right Motor Output,Right Motor Encoder,Is Level,Is Stalled,Ball Detector Photoeye,Vision Enabled,Vision Teleop Control,Vision Auto Control,Vision Current State,Vision X Output,Vision NavX Error,Vision NavX Target,NavX Connection Status,NavX Displacement X,NavX Displacement Y,NavX Displacement Z,NavX Velocity X,NavX Velocity Y,NavX Velocity Z,NavX Acceleration X,NavX Acceleration Y,NavX Acceleration Z,NavX Pitch,NavX Yaw,NavX Roll,Gyro Angle,Roller Arm State,Roller Arm Actual,Roller Arm Desired,Shooter Arm State,Shooter Arm Actual,Shooter Arm Desired,Shooter State,Actual RPM Left,Desired RPM Left,Control Mode Left,Actual RPM Right,Desired RPM Right,Control Mode Right,Ball Shooter Cylinder,Ball Halo Cylinder,Scaler Motor Output,Scaler Solenoid Fire,Auto To Run,Auto Current File,Auto File Status,Auto Current Command,Auto Trimmed Command
08:19:07.137 PM 03/22/2016,Autonomous Enabled,9,TRUE,7,Read from Text File in DoesScriptNumberContainNull.vi->Disabled.vi->Robot Main.vi<APPEND> /home/lvuser/scripts/auto_43.bee,-0.000000,0.000000,0.000000,0.000000,TRUE,FALSE,TRUE,FALSE,FALSE,FALSE,Disabled,-0.028125,-5.381250,-1.928750,TRUE,-0.515564,0.191971,0.000000,0.000000,0.000000,0.000000,0.002000,0.000000,0.005000,-0.120000,0.090000,1.440000,0.620993,ResetBack,1.663818,-0.000049,ResetBack,-31983.000000,-0.300000,LowGoal,52.500000,-1454.545455,Speed,82.500000,-1454.545455,Speed,Off,Off,0.000000,FALSE,44,Read: /home/lvuser/scripts/auto_44.bee,File good!,WAIT 1500,WAIT
08:19:07.237 PM 03/22/2016,Autonomous Enabled,9,TRUE,7,Read from Text File in DoesScriptNumberContainNull.vi->Disabled.vi->Robot Main.vi<APPEND> /home/lvuser/scripts/auto_43.bee,-0.000000,-1.154997,0.000000,1.257664,FALSE,FALSE,TRUE,FALSE,FALSE,FALSE,Disabled,-0.028125,-5.381250,-1.928750,TRUE,-0.504807,0.189163,0.000000,0.373688,-0.143173,0.000000,0.423000,-0.118000,-0.172000,-0.290000,3.390000,1.310000,0.500569,ResetBack,0.698242,-0.000049,ResetBack,-27869.000000,-0.300000,LowGoal,675.000000,-1454.545455,Speed,787.500000,-1454.545455,Speed,Off,Off,0.000000,FALSE,44,Read: /home/lvuser/scripts/auto_44.bee,File good!,WAIT 1500,WAIT
08:19:07.337 PM 03/22/2016,Autonomous Enabled,10,TRUE,7,Read from Text File in DoesScriptNumberContainNull.vi->Disabled.vi->Robot Main.vi<APPEND> /home/lvuser/scripts/auto_43.bee,-0.000000,-3.323826,0.000000,3.458575,FALSE,FALSE,TRUE,FALSE,FALSE,FALSE,Disabled,-0.028125,-5.381250,-1.928750,TRUE,-0.484787,0.183792,0.000000,0.560883,-0.133972,0.000000,0.320000,-0.011000,0.100000,-0.430000,3.730000,1.160000,0.310395,ResetBack,0.543213,-0.000049,ResetBack,-18611.000000,-0.300000,LowGoal,1327.500000,-1454.545455,Speed,1365.000000,-1454.545455,Speed,Off,Off,0.000000,FALSE,44,Read: /home/lvuser/scripts/auto_44.bee,File good!,WAIT 1500,WAIT
08:19:07.437 PM 03/22/2016,Autonomous Enabled,11,TRUE,7,Read from Text File in DoesScriptNumberContainNull.vi->Disabled.vi->Robot Main.vi<APPEND> /home/lvuser/scripts/auto_43.bee,-0.000000,-6.544985,0.000000,6.763151,FALSE,FALSE,TRUE,FALSE,FALSE,FALSE,Disabled,-0.028125,-5.381250,-1.928750,TRUE,-0.448792,0.176926,0.000000,0.788376,-0.132553,0.000000,0.028000,-0.005000,-0.037000,-0.550000,3.550000,1.150000,0.233151,Reset,0.327393,-0.000049,ResetBack,-9058.000000,-0.300000,LowGoal,1560.000000,-1454.545455,Speed,1597.500000,-1454.545455,Speed,Off,Off,0.000000,FALSE,44,Read: /home/lvuser/scripts/auto_44.bee,File good!,WAIT 1500,WAIT
08:19:07.537 PM 03/22/2016,Autonomous Enabled,11,TRUE,7,Read from Text File in DoesScriptNumberContainNull.vi->Disabled.vi->Robot Main.vi<APPEND> /home/lvuser/scripts/auto_43.bee,-0.000000,-10.465559,0.000000,10.658058,FALSE,FALSE,TRUE,FALSE,FALSE,FALSE,Disabled,-0.028125,-5.381250,-1.928750,TRUE,-0.408218,0.170319,0.000000,0.837982,-0.125732,0.000000,0.089000,0.036000,0.037000,-0.620000,4.720000,1.170000,0.168300,Hold,0.122559,0.000000,ResetBack,-3380.000000,-0.300000,LowGoal,1387.500000,-1454.545455,Speed,1402.500000,-1454.545455,Speed,Off,Off,0.000000,FALSE,44,Read: /home/lvuser/scripts/auto_44.bee,File good!,WAIT 1500,WAIT
08:19:07.638 PM 03/22/2016,Autonomous Enabled,9,TRUE,7,Read from Text File in DoesScriptNumberContainNull.vi->Disabled.vi->Robot Main.vi<APPEND> /home/lvuser/scripts/auto_43.bee,-0.000000,-14.533716,0.000000,14.822465,FALSE,FALSE,TRUE,FALSE,FALSE,FALSE,Disabled,-0.028125,-5.381250,-1.928750,TRUE,-0.365005,0.168091,0.000000,0.881027,0.008575,0.000000,0.046000,-0.024000,-0.041000,-0.640000,3.690000,1.240000,0.190115,Hold,0.122803,0.000000,ResetBack,-2617.000000,-0.300000,LowGoal,1320.000000,-1454.545455,Speed,1320.000000,-1454.545455,Speed,Off,Off,0.000000,FALSE,44,Read: /home/lvuser/scripts/auto_44.bee,File good!,WAIT 1500,WAIT
08:19:07.738 PM 03/22/2016,Autonomous Enabled,9,TRUE,7,Read from Text File in DoesScriptNumberContainNull.vi->Disabled.vi->Robot Main.vi<APPEND> /home/lvuser/scripts/auto_43.bee,-0.000000,-18.986872,0.000000,19.256372,FALSE,FALSE,TRUE,FALSE,FALSE,FALSE,Disabled,-0.028125,-5.381250,-1.928750,TRUE,-0.321793,0.168137,0.000000,0.826782,0.011475,0.000000,-0.136000,-0.063000,0.022000,-0.770000,3.880000,1.320000,0.070869,Hold,0.122803,0.000000,ResetBack,-2617.000000,-0.300000,LowGoal,1372.500000,-1454.545455,Speed,1402.500000,-1454.545455,Speed,Off,Off,0.000000,FALSE,44,Read: /home/lvuser/scripts/auto_44.bee,File good!,WAIT 1500,WAIT
08:19:07.839 PM 03/22/2016,Autonomous Enabled,9,TRUE,7,Read from Text File in DoesScriptNumberContainNull.vi->Disabled.vi->Robot Main.vi<APPEND> /home/lvuser/scripts/auto_43.bee,-0.000000,-23.420779,0.000000,23.735194,FALSE,FALSE,TRUE,FALSE,FALSE,FALSE,Disabled,-0.028125,-5.381250,-1.928750,TRUE,-0.282532,0.168549,0.000000,0.787933,0.000534,0.000000,0.015000,-0.022000,0.003000,-0.900000,3.450000,1.230000,-0.074046,Hold,0.122803,0.000000,ResetBack,-2384.000000,-0.300000,LowGoal,1410.000000,-1454.545455,Speed,1425.000000,-1454.545455,Speed,Off,Off,0.000000,FALSE,44,Read: /home/lvuser/scripts/auto_44.bee,File good!,WAIT 1500,WAIT
08:19:07.941 PM 03/22/2016,Autonomous Enabled,10,TRUE,7,Read from Text File in DoesScriptNumberContainNull.vi->Disabled.vi->Robot Main.vi<APPEND> /home/lvuser/scripts/auto_43.bee,-0.000000,-28.027934,0.000000,28.214017,FALSE,FALSE,TRUE,FALSE,FALSE,FALSE,Disabled,-0.028125,-5.381250,-1.928750,TRUE,-0.244354,0.168137,0.000000,0.718384,-0.009720,0.000000,-0.023000,-0.032000,-0.018000,-0.960000,3.580000,1.180000,-0.140339,Hold,0.122803,0.000000,ResetBack,-1291.000000,-0.300000,LowGoal,1387.500000,-1454.545455,Speed,1402.500000,-1454.545455,Speed,Off,Off,0.000000,FALSE,44,Read: /home/lvuser/scripts/auto_44.bee,File good!,WAIT 1500,WAIT
08:19:08.042 PM 03/22/2016,Autonomous Enabled,10,TRUE,7,Read from Text File in DoesScriptNumberContainNull.vi->Disabled.vi->Robot Main.vi<APPEND> /home/lvuser/scripts/auto_43.bee,-0.000000,-32.545257,0.000000,32.680007,FALSE,FALSE,TRUE,FALSE,FALSE,FALSE,Disabled,-0.028125,-5.381250,-1.928750,TRUE,-0.209656,0.167450,0.000000,0.681183,-0.021301,0.000000,0.010000,0.047000,0.037000,-0.830000,3.360000,1.210000,-0.054158,Hold,0.122803,0.000000,ResetBack,-1278.000000,-0.300000,LowGoal,1372.500000,-1454.545455,Speed,1387.500000,-1454.545455,Speed,Off,Off,0.000000,FALSE,44,Read: /home/lvuser/scripts/auto_44.bee,File good!,WAIT 1500,WAIT
08:19:08.144 PM 03/22/2016,Autonomous Enabled,10,TRUE,7,Read from Text File in DoesScriptNumberContainNull.vi->Disabled.vi->Robot Main.vi<APPEND> /home/lvuser/scripts/auto_43.bee,-0.000000,-37.094663,0.000000,37.229413,FALSE,FALSE,TRUE,FALSE,FALSE,FALSE,Disabled,-0.028125,-5.381250,-1.928750,TRUE,-0.176788,0.167145,0.000000,0.636322,-0.006134,0.000000,-0.048000,0.015000,-0.016000,-0.770000,3.480000,1.190000,0.027048,Hold,0.122803,0.000000,ResetBack,-1278.000000,-0.300000,LowGoal,1387.500000,-1454.545455,Speed,1402.500000,-1454.545455,Speed,Off,Off,0.000000,FALSE,44,Read: /home/lvuser/scripts/auto_44.bee,File good!,WAIT 1500,WAIT
08:19:08.244 PM 03/22/2016,Autonomous Enabled,11,TRUE,7,Read from Text File in DoesScriptNumberContainNull.vi->Disabled.vi->Robot Main.vi<APPEND> /home/lvuser/scripts/auto_43.bee,-0.000000,-41.644069,0.000000,41.907152,FALSE,FALSE,TRUE,FALSE,FALSE,FALSE,Disabled,-0.028125,-5.381250,-1.928750,TRUE,-0.138977,0.167130,0.000000,0.632431,-0.001297,0.000000,-0.083000,-0.055000,0.056000,-0.910000,4.820000,1.140000,-0.115639,Hold,0.122803,0.000000,ResetBack,-1278.000000,-0.300000,LowGoal,1387.500000,-1454.545455,Speed,1402.500000,-1454.545455,Speed,Off,Off,0.000000,FALSE,44,Read: /home/lvuser/scripts/auto_44.bee,File good!,WAIT 1500,WAIT
08:19:08.344 PM 03/22/2016,Autonomous Enabled,10,TRUE,7,Read from Text File in DoesScriptNumberContainNull.vi->Disabled.vi->Robot Main.vi<APPEND> /home/lvuser/scripts/auto_43.bee,-0.000000,-46.110059,0.000000,46.347475,FALSE,FALSE,TRUE,FALSE,FALSE,FALSE,Disabled,-0.028125,-5.381250,-1.928750,TRUE,-0.113388,0.167252,0.000000,0.503708,0.011475,0.000000,0.035000,0.101000,-0.095000,-1.030000,7.110000,1.080000,-0.357999,Hold,0.122803,0.000000,Reset,-1278.000000,2.000000,LowGoal,1387.500000,-1454.545455,Speed,1395.000000,-1454.545455,Speed,Off,Off,0.000000,FALSE,44,Read: /home/lvuser/scripts/auto_44.bee,File good!,WAIT 1500,WAIT
08:19:08.448 PM 03/22/2016,Autonomous Enabled,11,TRUE,7,Read from Text File in DoesScriptNumberContainNull.vi->Disabled.vi->Robot Main.vi<APPEND> /home/lvuser/scripts/auto_43.bee,-0.000000,-50.409215,0.000000,50.665882,FALSE,FALSE,TRUE,FALSE,FALSE,FALSE,Disabled,-0.028125,-5.381250,-1.928750,TRUE,-0.091125,0.167191,0.000000,0.435623,0.004196,0.000000,-0.144000,0.132000,-0.026000,-1.090000,9.590000,0.910000,-0.435780,Hold,0.122803,0.000000,Hold,-1278.000000,2.000000,LowGoal,1380.000000,-1454.545455,Speed,1395.000000,-1454.545455,Speed,Off,Off,0.000000,FALSE,44,Read: /home/lvuser/scripts/auto_44.bee,File good!,WAIT 1500,WAIT
08:19:08.549 PM 03/22/2016,Autonomous Enabled,9,TRUE,7,Read from Text File in DoesScriptNumberContainNull.vi->Disabled.vi->Robot Main.vi<APPEND> /home/lvuser/scripts/auto_43.bee,-0.000000,-54.580039,0.000000,54.843122,FALSE,FALSE,TRUE,FALSE,FALSE,FALSE,Disabled,-0.028125,-5.381250,-1.928750,TRUE,-0.071793,0.168716,0.000000,0.359680,0.024139,0.000000,0.006000,-0.029000,-0.212000,-1.090000,11.210000,0.940000,-0.497677,Hold,0.122803,0.000000,Hold,-229.000000,2.000000,LowGoal,1380.000000,-1454.545455,Speed,1395.000000,-1454.545455,Speed,Off,Off,0.000000,FALSE,44,Read: /home/lvuser/scripts/auto_44.bee,File good!,WAIT 1500,WAIT
08:19:08.649 PM 03/22/2016,Autonomous Enabled,10,TRUE,7,Read from Text File in DoesScriptNumberContainNull.vi->Disabled.vi->Robot Main.vi<APPEND> /home/lvuser/scripts/auto_43.bee,-0.000000,-58.584030,0.000000,58.718779,FALSE,FALSE,TRUE,FALSE,FALSE,FALSE,Disabled,-0.028125,-5.381250,-1.928750,TRUE,-0.056229,0.169907,0.000000,0.241302,0.065140,0.000000,0.024000,0.138000,-0.379000,-0.460000,11.020000,0.750000,-0.129461,Hold,0.122803,0.000000,Hold,-229.000000,2.000000,LowGoal,1380.000000,-1454.545455,Speed,1402.500000,-1454.545455,Speed,Off,Off,0.000000,FALSE,44,Read: /home/lvuser/scripts/auto_44.bee,File good!,WAIT 1500,WAIT
08:19:08.749 PM 03/22/2016,Autonomous Enabled,11,TRUE,7,Read from Text File in DoesScriptNumberContainNull.vi->Disabled.vi->Robot Main.vi<APPEND> /home/lvuser/scripts/auto_43.bee,-0.000000,-62.806186,0.000000,63.229685,FALSE,FALSE,TRUE,FALSE,FALSE,FALSE,Disabled,-0.028125,-5.381250,-1.928750,TRUE,-0.044693,0.175613,0.000000,0.221222,0.125656,0.000000,-0.806000,-0.340000,0.831000,0.490000,17.730000,1.410000,0.593294,Hold,0.122803,0.000000,Hold,-232.000000,2.000000,LowGoal,1387.500000,-1454.545455,Speed,1402.500000,-1454.545455,Speed,Off,Off,0.000000,FALSE,44,Read: /home/lvuser/scripts/auto_44.bee,File good!,DRIVE_STRAIGHT_NAVX 200 5000,DRIVE_STRAIGHT_NAVX
08:19:08.850 PM 03/22/2016,Autonomous Enabled,9,TRUE,7,Read from Text File in DoesScriptNumberContainNull.vi->Disabled.vi->Robot Main.vi<APPEND> /home/lvuser/scripts/auto_43.bee,-0.000000,-2.316411,0.000000,2.547411,FALSE,FALSE,TRUE,FALSE,FALSE,FALSE,Disabled,-0.028125,-5.381250,-1.928750,TRUE,-0.042053,0.178711,0.000000,0.051239,0.071350,0.000000,-0.014000,-0.083000,-1.266000,0.090000,14.870000,0.730000,0.582243,Hold,0.192383,0.000000,Hold,-224.000000,2.000000,LowGoal,1222.500000,2909.090909,Speed,1402.500000,2909.090909,Speed,Off,Off,0.000000,FALSE,44,Read: /home/lvuser/scripts/auto_44.bee,File good!,DRIVE_STRAIGHT_NAVX 200 5000,DRIVE_STRAIGHT_NAVX
08:19:08.953 PM 03/22/2016,Autonomous Enabled,11,TRUE,7,Read from Text File in DoesScriptNumberContainNull.vi->Disabled.vi->Robot Main.vi<APPEND> /home/lvuser/scripts/auto_43.bee,-0.000000,-5.235988,0.000000,5.755737,FALSE,FALSE,TRUE,FALSE,FALSE,FALSE,Disabled,-0.028125,-5.381250,-1.928750,TRUE,-0.033722,0.186111,0.000000,0.136230,0.235886,0.000000,0.494000,-0.385000,-0.507000,-0.630000,12.030000,0.960000,-0.158754,Hold,0.285889,0.000000,Hold,-255.000000,2.000000,LowGoal,352.500000,2909.090909,Speed,1275.000000,2909.090909,Speed,Off,Off,0.000000,FALSE,44,Read: /home/lvuser/scripts/auto_44.bee,File good!,DRIVE_STRAIGHT_NAVX 200 5000,DRIVE_STRAIGHT_NAVX
08:19:09.054 PM 03/22/2016,Autonomous Enabled,10,FALSE,0,NO ERROR,-0.000000,-7.834732,0.000000,8.380147,FALSE,FALSE,TRUE,FALSE,FALSE,FALSE,Disabled,-0.028125,-5.381250,-1.928750,TRUE,-0.023926,0.194397,0.000000,0.237732,0.166870,0.000000,-0.207000,0.454000,0.492000,-0.210000,8.480000,-0.460000,-0.014944,Hold,0.312012,0.000000,Hold,-255.000000,2.000000,LowGoal,352.500000,2909.090909,Speed,210.000000,2909.090909,Speed,Off,Off,0.000000,FALSE,44,Read: /home/lvuser/scripts/auto_44.bee,File good!,DRIVE_STRAIGHT_NAVX 200 5000,DRIVE_STRAIGHT_NAVX
08:19:09.156 PM 03/22/2016,Autonomous Enabled,10,FALSE,0,NO ERROR,-0.000000,-10.664475,0.000000,11.235557,FALSE,FALSE,TRUE,FALSE,FALSE,FALSE,Disabled,-0.028125,-5.381250,-1.928750,TRUE,-0.010162,0.208755,0.000000,0.345169,0.310471,0.000000,-0.234000,-0.148000,0.470000,0.080000,8.420000,-1.310000,0.187644,Hold,0.312012,0.000000,Hold,-255.000000,2.000000,LowGoal,-817.500000,2909.090909,Speed,-832.500000,2909.090909,Speed,Off,Off,0.000000,FALSE,44,Read: /home/lvuser/scripts/auto_44.bee,File good!,DRIVE_STRAIGHT_NAVX 200 5000,DRIVE_STRAIGHT_NAVX
08:19:09.256 PM 03/22/2016,Autonomous Enabled,11,FALSE,0,NO ERROR,-0.000000,-13.128469,0.000000,14.046050,FALSE,FALSE,TRUE,FALSE,FALSE,FALSE,Disabled,-0.028125,-5.381250,-1.928750,TRUE,0.004318,0.218826,0.000000,0.267426,0.172089,0.000000,-0.075000,0.799000,0.185000,-0.060000,5.530000,-1.590000,-0.166021,Hold,0.312012,0.000000,Hold,-255.000000,2.000000,LowGoal,-1357.500000,2909.090909,Speed,-1590.000000,2909.090909,Speed,Off,Off,0.000000,FALSE,44,Read: /home/lvuser/scripts/auto_44.bee,File good!,DRIVE_STRAIGHT_NAVX 200 5000,DRIVE_STRAIGHT_NAVX
08:19:09.358 PM 03/22/2016,Autonomous Enabled,9,FALSE,0,NO ERROR,-0.000000,-16.195629,0.000000,17.145293,FALSE,FALSE,TRUE,FALSE,FALSE,FALSE,Disabled,-0.028125,-5.381250,-1.928750,TRUE,0.021286,0.244202,0.000000,0.401337,0.446533,0.000000,0.485000,-0.648000,-1.644000,-0.120000,5.280000,-3.560000,-0.384826,Hold,0.312012,0.000000,Hold,-255.000000,2.000000,LowGoal,-1912.500000,2909.090909,Speed,-2077.500000,2909.090909,Speed,Off,Off,0.000000,FALSE,44,Read: /home/lvuser/scripts/auto_44.bee,File good!,DRIVE_STRAIGHT_NAVX 200 5000,DRIVE_STRAIGHT_NAVX
08:19:09.459 PM 03/22/2016,Autonomous Enabled,10,FALSE,0,NO ERROR,-0.000000,-19.378288,0.000000,20.642368,FALSE,FALSE,TRUE,FALSE,FALSE,FALSE,Disabled,-0.028125,-5.381250,-1.928750,TRUE,0.040283,0.264374,0.000000,0.363785,0.292480,0.000000,0.211000,0.338000,0.550000,-1.400000,4.630000,-2.870000,-1.159247,Hold,0.312012,0.000000,Hold,-255.000000,2.000000,LowGoal,-2377.500000,2909.090909,Speed,-2670.000000,2909.090909,Speed,Off,Off,0.000000,FALSE,44,Read: /home/lvuser/scripts/auto_44.bee,File good!,DRIVE_STRAIGHT_NAVX 200 5000,DRIVE_STRAIGHT_NAVX
08:19:09.560 PM 03/22/2016,Autonomous Enabled,10,FALSE,0,NO ERROR,-0.000000,-22.830447,0.000000,24.139444,TRUE,FALSE,TRUE,FALSE,FALSE,FALSE,Disabled,-0.028125,-5.381250,-1.928750,TRUE,0.064133,0.284637,0.000000,0.572021,0.426498,0.000000,0.293000,0.147000,-0.283000,-1.930000,2.240000,-2.920000,-1.977629,Hold,0.312012,0.000000,Hold,-251.000000,2.000000,LowGoal,-2775.000000,2909.090909,Speed,-2917.500000,2909.090909,Speed,Off,Off,0.000000,FALSE,44,Read: /home/lvuser/scripts/auto_44.bee,File good!,DRIVE_STRAIGHT_NAVX 200 5000,DRIVE_STRAIGHT_NAVX
08:19:09.660 PM 03/22/2016,Autonomous Enabled,9,FALSE,0,NO ERROR,-0.000000,-26.231272,0.000000,27.533852,FALSE,FALSE,TRUE,FALSE,FALSE,FALSE,Disabled,-0.028125,-5.381250,-1.928750,TRUE,0.094101,0.306763,0.000000,0.598083,0.448013,0.000000,0.145000,0.254000,0.989000,-1.440000,-7.080000,-1.800000,-1.573948,Hold,0.312012,0.000000,Hold,-240.000000,2.000000,LowGoal,-2962.500000,2909.090909,Speed,-2932.500000,2909.090909,Speed,Off,Off,0.000000,FALSE,44,Read: /home/lvuser/scripts/auto_44.bee,File good!,DRIVE_STRAIGHT_NAVX 200 5000,DRIVE_STRAIGHT_NAVX
08:19:09.759 PM 03/22/2016,Autonomous Enabled,10,FALSE,0,NO ERROR,-0.000000,-30.299429,0.000000,31.608426,FALSE,FALSE,TRUE,FALSE,FALSE,FALSE,Disabled,-0.028125,-5.381250,-1.928750,TRUE,0.131897,0.323410,0.000000,0.943787,0.208649,0.000000,-0.352000,0.164000,-0.585000,-1.110000,-13.700000,1.200000,-1.611035,Hold,0.312256,0.000000,Hold,-231.000000,2.000000,LowGoal,-2887.500000,2909.090909,Speed,-2850.000000,2909.090909,Speed,Off,Off,0.000000,FALSE,44,Read: /home/lvuser/scripts/auto_44.bee,File good!,DRIVE_STRAIGHT_NAVX 200 5000,DRIVE_STRAIGHT_NAVX
08:19:09.860 PM 03/22/2016,Autonomous Enabled,10,FALSE,0,NO ERROR,-0.000000,-35.849833,0.000000,36.947080,FALSE,FALSE,TRUE,FALSE,FALSE,FALSE,Disabled,-0.028125,-5.381250,-1.928750,TRUE,0.174011,0.339493,0.000000,0.725174,0.339966,0.000000,-0.166000,-0.127000,-0.680000,-2.090000,-10.250000,1.250000,-2.708164,Hold,0.421387,0.000000,Hold,-239.000000,2.000000,LowGoal,-2820.000000,2909.090909,Speed,-2865.000000,2909.090909,Speed,Off,Off,0.000000,FALSE,44,Read: /home/lvuser/scripts/auto_44.bee,File good!,DRIVE_STRAIGHT_NAVX 200 5000,DRIVE_STRAIGHT_NAVX
08:19:09.962 PM 03/22/2016,Autonomous Enabled,11,FALSE,0,NO ERROR,-0.000000,-41.406653,0.000000,42.260068,FALSE,FALSE,TRUE,FALSE,FALSE,FALSE,Disabled,-0.028125,-5.381250,-1.928750,TRUE,0.206528,0.362411,0.000000,0.432190,0.561523,0.000000,0.929000,-0.223000,-0.184000,-1.660000,-6.340000,2.010000,-2.344909,Hold,0.608643,0.000000,Hold,-239.000000,2.000000,LowGoal,-2865.000000,2909.090909,Speed,-2910.000000,2909.090909,Speed,Off,Off,0.000000,FALSE,44,Read: /home/lvuser/scripts/auto_44.bee,File good!,DRIVE_STRAIGHT_NAVX 200 5000,DRIVE_STRAIGHT_NAVX
08:19:10.063 PM 03/22/2016,Autonomous Enabled,11,FALSE,0,NO ERROR,-0.000000,-46.289725,0.000000,46.892890,TRUE,FALSE,TRUE,FALSE,FALSE,FALSE,Disabled,-0.028125,-5.381250,-1.928750,TRUE,0.226349,0.386063,0.000000,0.535187,0.580246,0.000000,0.473000,-0.273000,-0.851000,-1.080000,-2.460000,1.710000,-1.705388,Hold,0.622559,0.000000,Hold,-213.000000,2.000000,LowGoal,-2925.000000,2909.090909,Speed,-2910.000000,2909.090909,Speed,Off,Off,0.000000,FALSE,44,Read: /home/lvuser/scripts/auto_44.bee,File good!,DRIVE_STRAIGHT_NAVX 200 5000,DRIVE_STRAIGHT_NAVX
08:19:10.164 PM 03/22/2016,Autonomous Enabled,11,FALSE,0,NO ERROR,-0.000000,-51.577046,0.000000,51.840129,TRUE,FALSE,TRUE,FALSE,FALSE,FALSE,Disabled,-0.028125,-5.381250,-1.928750,TRUE,0.252777,0.419693,0.000000,0.346970,0.583878,0.000000,0.164000,-0.034000,-1.151000,-0.670000,0.900000,1.070000,-1.307212,Hold,1.615967,0.000000,Hold,-228.000000,2.000000,LowGoal,-2872.500000,2909.090909,Speed,-2887.500000,2909.090909,Speed,Off,Off,0.000000,FALSE,44,Read: /home/lvuser/scripts/auto_44.bee,File good!,DRIVE_STRAIGHT_NAVX 200 5000,DRIVE_STRAIGHT_NAVX
08:19:10.263 PM 03/22/2016,Autonomous Enabled,11,FALSE,0,NO ERROR,-0.000000,-56.460118,0.000000,56.620534,TRUE,FALSE,TRUE,FALSE,FALSE,FALSE,Disabled,-0.028125,-5.381250,-1.928750,TRUE,0.269592,0.447144,0.000000,0.239914,0.564728,0.000000,0.118000,0.228000,-0.750000,-0.550000,2.350000,1.320000,-1.153105,Hold,1.469727,0.000000,Hold,-232.000000,2.000000,LowGoal,-2850.000000,2909.090909,Speed,-2872.500000,2909.090909,Speed,Off,Off,0.000000,FALSE,44,Read: /home/lvuser/scripts/auto_44.bee,File good!,SET_HEADING 0,SET_HEADING
08:19:10.363 PM 03/22/2016,Autonomous Enabled,10,FALSE,0,NO ERROR,-0.000000,-59.854527,0.000000,59.848110,TRUE,FALSE,TRUE,TRUE,FALSE,TRUE,Disabled,-0.028125,-5.381250,-1.928750,TRUE,0.281799,0.470535,0.000000,0.353668,0.556931,0.000000,-1.698000,0.095000,0.972000,-0.140000,1.040000,1.270000,-0.707966,Hold,1.465820,51.000000,Hold,-227.000000,69632.000000,LowGoal,-2880.000000,-3272.727273,Speed,-2902.500000,-3272.727273,Speed,Off,Off,0.000000,FALSE,44,Read: /home/lvuser/scripts/auto_44.bee,File good!,SEARCH_FOR_GOAL,SEARCH_FOR_GOAL
08:19:10.463 PM 03/22/2016,Autonomous Enabled,10,FALSE,0,NO ERROR,-0.000000,-61.227690,0.000000,61.208440,FALSE,FALSE,TRUE,TRUE,FALSE,TRUE,Disabled,-0.028125,-5.381250,-1.928750,TRUE,0.272858,0.504547,0.000000,-0.323181,0.568192,0.000000,-0.535000,0.014000,-0.303000,-0.020000,-4.120000,0.890000,-0.561674,Hold,2.455078,51.000000,Hold,-7969.000000,69632.000000,LowGoal,-2760.000000,-3272.727273,Speed,-2767.500000,-3272.727273,Speed,Off,Off,0.000000,FALSE,44,Read: /home/lvuser/scripts/auto_44.bee,File good!,SEARCH_FOR_GOAL,SEARCH_FOR_GOAL
08:19:10.563 PM 03/22/2016,Autonomous Enabled,6,FALSE,0,NO ERROR,-0.000000,-61.997688,0.000000,61.978438,TRUE,FALSE,TRUE,TRUE,FALSE,TRUE,Disabled,-0.028125,-5.381250,-1.928750,TRUE,0.247498,0.534012,0.000000,-0.560074,0.594116,0.000000,-0.042000,0.010000,0.202000,0.010000,-1.790000,1.150000,-0.583524,Hold,5.481934,51.000000,Hold,-7969.000000,69632.000000,LowGoal,-1530.000000,-3272.727273,Speed,-1515.000000,-3272.727273,Speed,Off,Off,0.000000,FALSE,44,Read: /home/lvuser/scripts/auto_44.bee,File good!,SEARCH_FOR_GOAL,SEARCH_FOR_GOAL
08:19:10.663 PM 03/22/2016,Autonomous Enabled,9,FALSE,0,NO ERROR,-0.000000,-62.004105,0.000000,61.991272,TRUE,FALSE,TRUE,TRUE,FALSE,TRUE,Disabled,-0.028125,-5.381250,-1.928750,TRUE,0.218933,0.564575,0.000000,-0.563156,0.620316,0.000000,0.131000,-0.148000,0.307000,-0.130000,-2.470000,1.250000,-0.729784,Hold,6.915283,51.000000,Hold,-20639.000000,69632.000000,LowGoal,-150.000000,-3272.727273,Speed,-120.000000,-3272.727273,Speed,Off,Off,0.000000,FALSE,44,Read: /home/lvuser/scripts/auto_44.bee,File good!,SEARCH_FOR_GOAL,SEARCH_FOR_GOAL
08:19:10.763 PM 03/22/2016,Autonomous Enabled,10,FALSE,0,NO ERROR,-0.000000,-62.004105,0.000000,62.010522,TRUE,FALSE,TRUE,TRUE,FALSE,TRUE,Disabled,-0.028125,-5.381250,-1.928750,TRUE,0.192764,0.594330,0.000000,-0.519363,0.591217,0.000000,0.085000,-0.124000,0.294000,-0.100000,-2.110000,1.120000,-0.792043,Hold,8.561768,51.000000,Hold,-34119.000000,69632.000000,LowGoal,802.500000,-3272.727273,Speed,862.500000,-3272.727273,Speed,Off,Off,0.000000,FALSE,44,Read: /home/lvuser/scripts/auto_44.bee,File good!,SEARCH_FOR_GOAL,SEARCH_FOR_GOAL
08:19:10.863 PM 03/22/2016,Autonomous Enabled,9,FALSE,0,NO ERROR,-0.000000,-61.997688,0.000000,61.997688,TRUE,FALSE,TRUE,TRUE,FALSE,TRUE,Disabled,0.000000,-5.381250,-1.928750,TRUE,0.167953,0.624069,0.000000,-0.469757,0.618378,0.000000,0.023000,-0.133000,0.134000,-0.190000,-1.870000,1.170000,-0.775877,Hold,11.048828,51.000000,Hold,-45592.000000,69632.000000,LowGoal,1380.000000,-3272.727273,Speed,1605.000000,-3272.727273,Speed,Off,Off,0.000000,FALSE,44,Read: /home/lvuser/scripts/auto_44.bee,File good!,SEARCH_FOR_GOAL,SEARCH_FOR_GOAL
08:19:10.963 PM 03/22/2016,Autonomous Enabled,10,FALSE,0,NO ERROR,-0.000000,-61.972022,0.000000,61.984855,TRUE,FALSE,TRUE,TRUE,FALSE,TRUE,Disabled,0.000000,-5.381250,-1.928750,TRUE,0.141846,0.658920,0.000000,-0.395630,0.565613,0.000000,-0.019000,-0.051000,0.090000,-0.400000,-1.680000,1.150000,-0.977328,Hold,13.874023,51.000000,Hold,-56016.000000,69632.000000,LowGoal,1957.500000,-3272.727273,Speed,2085.000000,-3272.727273,Speed,Off,Off,0.000000,FALSE,44,Read: /home/lvuser/scripts/auto_44.bee,File good!,SEARCH_FOR_GOAL,SEARCH_FOR_GOAL
08:19:11.063 PM 03/22/2016,Autonomous Enabled,9,FALSE,0,NO ERROR,-0.000000,-61.972022,0.000000,61.972022,TRUE,FALSE,TRUE,TRUE,FALSE,TRUE,Disabled,0.000000,-5.381250,-1.928750,TRUE,0.142075,0.682755,0.000000,0.016434,0.600983,0.000000,0.215000,-0.050000,-0.018000,-0.310000,-1.530000,1.190000,-0.871594,Hold,17.388916,51.000000,Hold,-68226.000000,69632.000000,LowGoal,2430.000000,-3272.727273,Speed,2572.500000,-3272.727273,Speed,Off,Off,0.000000,FALSE,44,Read: /home/lvuser/scripts/auto_44.bee,File good!,SEARCH_FOR_GOAL,SEARCH_FOR_GOAL
08:19:11.163 PM 03/22/2016,Autonomous Enabled,9,FALSE,0,NO ERROR,-0.000000,-62.036188,0.000000,62.023355,TRUE,FALSE,TRUE,TRUE,FALSE,TRUE,Disabled,0.000000,-5.381250,-1.928750,TRUE,0.147812,0.712418,0.000000,0.182800,0.599472,0.000000,-0.007000,-0.011000,-0.288000,-0.290000,-1.780000,1.060000,-0.816984,Hold,21.205078,51.000000,Hold,-70100.000000,69632.000000,LowGoal,2812.500000,-3272.727273,Speed,2977.500000,-3272.727273,Speed,Off,Off,0.000000,FALSE,44,Read: /home/lvuser/scripts/auto_44.bee,File good!,SEARCH_FOR_GOAL,SEARCH_FOR_GOAL
08:19:11.263 PM 03/22/2016,Autonomous Enabled,10,FALSE,0,NO ERROR,-0.000000,-62.132438,0.000000,62.126021,TRUE,FALSE,TRUE,TRUE,FALSE,TRUE,Disabled,0.000000,-5.381250,-1.928750,TRUE,0.152740,0.742233,0.000000,0.016113,0.572388,0.000000,0.013000,0.048000,0.033000,-0.130000,-1.410000,1.070000,-0.685296,Hold,26.773438,51.000000,Hold,-70100.000000,69632.000000,LowGoal,3135.000000,-3272.727273,Speed,3277.500000,-3272.727273,Speed,Off,Off,0.000000,FALSE,44,Read: /home/lvuser/scripts/auto_44.bee,File good!,SEARCH_FOR_GOAL,SEARCH_FOR_GOAL
08:19:11.363 PM 03/22/2016,Autonomous Enabled,11,FALSE,0,NO ERROR,-0.000000,-62.087521,0.000000,62.023355,TRUE,FALSE,TRUE,TRUE,FALSE,TRUE,Disabled,0.000000,-5.381250,-1.928750,TRUE,0.153702,0.777786,0.000000,0.055496,0.606918,0.000000,0.013000,0.048000,0.033000,-0.270000,-1.590000,1.230000,-0.821601,Hold,32.207764,51.000000,Hold,-69668.000000,69632.000000,LowGoal,3322.500000,-3272.727273,Speed,3352.500000,-3272.727273,Speed,Off,Off,0.000000,FALSE,44,Read: /home/lvuser/scripts/auto_44.bee,File good!,SEARCH_FOR_GOAL,SEARCH_FOR_GOAL
08:19:11.463 PM 03/22/2016,Autonomous Enabled,10,FALSE,0,NO ERROR,-0.000000,-62.087521,0.000000,62.023355,TRUE,FALSE,TRUE,TRUE,FALSE,TRUE,Disabled,0.000000,-5.381250,-1.928750,TRUE,0.159698,0.807648,0.000000,0.152451,0.604462,0.000000,0.021000,-0.014000,0.166000,-0.340000,-1.530000,1.160000,-0.883539,Hold,40.985840,51.000000,Hold,-69691.000000,69632.000000,LowGoal,3330.000000,-3272.727273,Speed,3285.000000,-3272.727273,Speed,Off,Off,0.000000,FALSE,44,Read: /home/lvuser/scripts/auto_44.bee,File good!,SEARCH_FOR_GOAL,SEARCH_FOR_GOAL
08:19:11.563 PM 03/22/2016,Autonomous Enabled,11,FALSE,0,NO ERROR,-0.000000,-62.087521,0.000000,62.119605,TRUE,FALSE,TRUE,TRUE,FALSE,TRUE,Disabled,0.000000,-5.381250,-1.928750,TRUE,0.168915,0.837845,0.000000,0.200912,0.603195,0.000000,0.126000,-0.016000,0.024000,-0.380000,-1.410000,1.190000,-0.896962,Hold,50.241211,51.000000,Hold,-69691.000000,69632.000000,LowGoal,3247.500000,-3272.727273,Speed,3277.500000,-3272.727273,Speed,Off,Off,0.000000,FALSE,44,Read: /home/lvuser/scripts/auto_44.bee,File good!,SEARCH_FOR_GOAL,SEARCH_FOR_GOAL
08:19:11.663 PM 03/22/2016,Autonomous Enabled,10,FALSE,0,NO ERROR,-0.000000,-62.132438,0.000000,62.119605,TRUE,FALSE,TRUE,TRUE,FALSE,TRUE,Disabled,0.000000,-5.381250,-1.928750,TRUE,0.177780,0.867508,0.000000,0.165024,0.595322,0.000000,0.022000,-0.043000,-0.029000,-0.250000,-1.740000,1.260000,-0.750553,Hold,55.425537,51.000000,Hold,-69691.000000,69632.000000,LowGoal,3255.000000,-3272.727273,Speed,3300.000000,-3272.727273,Speed,Off,Off,0.000000,FALSE,44,Read: /home/lvuser/scripts/auto_44.bee,File good!,SEARCH_FOR_GOAL,SEARCH_FOR_GOAL
08:19:11.763 PM 03/22/2016,Autonomous Enabled,10,FALSE,0,NO ERROR,-0.000000,-62.132438,0.000000,62.126021,TRUE,FALSE,TRUE,TRUE,FALSE,TRUE,Enable,-0.112500,4.612500,-4.822500,TRUE,0.184219,0.896286,0.000000,0.103973,0.555786,0.000000,-0.129000,0.064000,-0.162000,-0.210000,-1.330000,1.220000,-0.717877,Hold,56.003662,51.000000,Hold,-69703.000000,69632.000000,LowGoal,3277.500000,-3272.727273,Speed,3292.500000,-3272.727273,Speed,Off,Off,0.000000,FALSE,44,Read: /home/lvuser/scripts/auto_44.bee,File good!,SEARCH_FOR_GOAL,SEARCH_FOR_GOAL
08:19:11.864 PM 03/22/2016,Autonomous Enabled,10,FALSE,0,NO ERROR,-0.000000,-61.843689,0.000000,62.453271,TRUE,FALSE,TRUE,TRUE,FALSE,TRUE,PID,-0.112500,4.612500,-4.822500,TRUE,0.189636,0.924286,0.000000,0.123764,0.567627,0.000000,0.044000,-0.068000,0.189000,-0.210000,-1.330000,1.220000,-0.796481,Hold,56.003418,51.000000,Hold,-69703.000000,69632.000000,LowGoal,3277.500000,-3272.727273,Speed,3285.000000,-3272.727273,Speed,Off,Off,0.000000,FALSE,44,Read: /home/lvuser/scripts/auto_44.bee,File good!,SEARCH_FOR_GOAL,SEARCH_FOR_GOAL
08:19:11.964 PM 03/22/2016,Autonomous Enabled,9,FALSE,0,NO ERROR,-0.000000,-61.542106,0.000000,62.639354,TRUE,FALSE,TRUE,TRUE,FALSE,TRUE,Suspended,-0.112500,4.612500,-4.822500,TRUE,0.195801,0.949066,0.000000,0.171799,0.494354,0.000000,-0.238000,-0.154000,-0.110000,-0.390000,-1.680000,1.280000,-2.863028,Hold,56.003418,51.000000,Hold,-69703.000000,69632.000000,LowGoal,3262.500000,-3272.727273,Speed,3285.000000,-3272.727273,Speed,Off,Off,0.000000,FALSE,44,Read: /home/lvuser/scripts/auto_44.bee,File good!,SEARCH_FOR_GOAL,SEARCH_FOR_GOAL
08:19:12.064 PM 03/22/2016,Autonomous Enabled,10,FALSE,0,NO ERROR,-0.000000,-61.503606,0.000000,62.665020,TRUE,FALSE,TRUE,TRUE,FALSE,TRUE,Suspended,-0.112500,4.612500,-4.822500,TRUE,0.206726,0.977646,0.000000,0.261032,0.599243,0.000000,0.104000,0.090000,0.123000,-2.560000,-1.270000,1.280000,-3.054003,Hold,56.003418,51.000000,Hold,-69703.000000,69632.000000,LowGoal,3262.500000,-3272.727273,Speed,3285.000000,-3272.727273,Speed,Off,Off,0.000000,FALSE,44,Read: /home/lvuser/scripts/auto_44.bee,File good!,SEARCH_FOR_GOAL,SEARCH_FOR_GOAL
08:19:12.164 PM 03/22/2016,Autonomous Enabled,11,FALSE,0,NO ERROR,-0.000000,-61.516439,0.000000,62.665020,TRUE,FALSE,TRUE,TRUE,FALSE,TRUE,Suspended,-0.112500,4.612500,-4.822500,TRUE,0.222275,1.006989,0.000000,0.336853,0.563766,0.000000,0.136000,0.030000,-0.033000,-2.300000,-0.980000,1.580000,-2.388385,Hold,56.003418,51.000000,Hold,-69703.000000,69632.000000,LowGoal,3270.000000,-3272.727273,Speed,3300.000000,-3272.727273,Speed,Off,Off,0.000000,FALSE,44,Read: /home/lvuser/scripts/auto_44.bee,File good!,SEARCH_FOR_GOAL,SEARCH_FOR_GOAL
08:19:12.264 PM 03/22/2016,Autonomous Enabled,9,FALSE,0,NO ERROR,-0.000000,-61.510023,0.000000,62.665020,TRUE,FALSE,TRUE,TRUE,FALSE,TRUE,Suspended,-0.112500,4.612500,-4.822500,TRUE,0.222275,1.006989,0.000000,0.336853,0.563766,0.000000,0.019000,-0.110000,0.070000,-1.830000,-1.130000,1.330000,-2.541500,Hold,56.003418,51.000000,Hold,-69703.000000,69632.000000,LowGoal,3277.500000,-3272.727273,Speed,3285.000000,-3272.727273,Speed,Off,Off,0.000000,FALSE,44,Read: /home/lvuser/scripts/auto_44.bee,File good!,SEARCH_FOR_GOAL,SEARCH_FOR_GOAL
08:19:12.366 PM 03/22/2016,Autonomous Enabled,9,FALSE,0,NO ERROR,-0.000000,-61.516439,0.000000,62.665020,TRUE,FALSE,TRUE,TRUE,FALSE,TRUE,Suspended,-0.112500,4.612500,-4.822500,TRUE,0.243958,1.040375,0.000000,0.379471,0.578674,0.000000,0.073000,-0.061000,0.155000,-1.990000,-1.010000,1.380000,-2.450905,Hold,56.003418,51.000000,Hold,-69703.000000,69632.000000,LowGoal,3277.500000,-3272.727273,Speed,3277.500000,-3272.727273,Speed,Off,Off,0.000000,FALSE,44,Read: /home/lvuser/scripts/auto_44.bee,File good!,SEARCH_FOR_GOAL,SEARCH_FOR_GOAL
08:19:12.465 PM 03/22/2016,Autonomous Enabled,9,FALSE,0,NO ERROR,-0.000000,-61.516439,0.000000,62.665020,TRUE,FALSE,TRUE,TRUE,FALSE,TRUE,Suspended,-0.112500,4.612500,-4.822500,TRUE,0.264343,1.070435,0.000000,0.430313,0.612717,0.000000,-0.017000,0.178000,-0.066000,-1.910000,-0.980000,1.340000,-2.450905,Hold,56.003418,51.000000,Hold,-69702.000000,69632.000000,LowGoal,3270.000000,-3272.727273,Speed,3270.000000,-3272.727273,Speed,Off,Off,0.000000,FALSE,44,Read: /home/lvuser/scripts/auto_44.bee,File good!,SEARCH_FOR_GOAL,SEARCH_FOR_GOAL
08:19:12.565 PM 03/22/2016,Autonomous Enabled,10,FALSE,0,NO ERROR,-0.000000,-61.516439,0.000000,62.665020,TRUE,FALSE,TRUE,TRUE,FALSE,TRUE,Suspended,-0.112500,4.612500,-4.822500,TRUE,0.265396,1.102493,0.000000,0.040909,0.659241,0.000000,0.018000,0.017000,0.167000,-1.960000,-0.880000,1.360000,-2.499545,Hold,56.003418,51.000000,Hold,-69702.000000,69632.000000,LowGoal,3270.000000,-3272.727273,Speed,3277.500000,-3272.727273,Speed,Off,Off,0.000000,FALSE,44,Read: /home/lvuser/scripts/auto_44.bee,File good!,SEARCH_FOR_GOAL,SEARCH_FOR_GOAL
08:19:12.666 PM 03/22/2016,Autonomous Enabled,14,FALSE,0,NO ERROR,-0.000000,-61.516439,0.000000,62.665020,TRUE,FALSE,TRUE,TRUE,FALSE,FALSE,Suspended,-0.112500,4.612500,-4.822500,TRUE,0.267685,1.137039,0.000000,0.000000,0.702698,0.000000,-0.019000,-0.102000,0.072000,-1.920000,-0.730000,1.440000,-2.451088,Hold,56.003418,51.000000,Hold,-69702.000000,69632.000000,LowGoal,3270.000000,-3272.727273,Speed,3277.500000,-3272.727273,Speed,Off,Off,0.000000,FALSE,44,Read: /home/lvuser/scripts/auto_44.bee,File good!,SHOOT,SHOOT
08:19:12.767 PM 03/22/2016,Autonomous Enabled,9,FALSE,0,NO ERROR,-0.000000,-61.516439,0.000000,62.665020,TRUE,FALSE,TRUE,TRUE,FALSE,FALSE,Suspended,-0.075000,4.612500,-4.822500,TRUE,0.268661,1.172134,0.000000,0.026733,0.707001,0.000000,0.088000,-0.055000,0.064000,-1.950000,-0.590000,1.400000,-2.471034,Hold,56.003418,51.000000,Hold,-69702.000000,69632.000000,Shoot,3270.000000,-3272.727273,Speed,3277.500000,-3272.727273,Speed,Off,On,0.000000,FALSE,44,Read: /home/lvuser/scripts/auto_44.bee,File good!,SHOOT,SHOOT
08:19:12.867 PM 03/22/2016,Autonomous Enabled,11,FALSE,0,NO ERROR,-0.000000,-61.516439,0.000000,62.665020,TRUE,FALSE,TRUE,TRUE,FALSE,FALSE,Enable,-0.075000,3.075000,-5.015000,TRUE,0.270905,1.208313,0.000000,0.024078,0.737198,0.000000,-0.135000,-0.004000,-0.017000,-1.940000,-0.640000,1.360000,-2.461081,Hold,56.003418,51.000000,Hold,-69702.000000,69632.000000,Shoot,3270.000000,-3272.727273,Speed,3247.500000,-3272.727273,Speed,Off,On,0.000000,FALSE,44,Read: /home/lvuser/scripts/auto_44.bee,File good!,SHOOT,SHOOT
08:19:12.968 PM 03/22/2016,Autonomous Enabled,9,FALSE,0,NO ERROR,-0.000000,-61.516439,0.000000,62.665020,TRUE,FALSE,TRUE,TRUE,FALSE,FALSE,PID,-0.075000,3.075000,-5.015000,TRUE,0.268738,1.230698,0.000000,-0.057693,0.011276,0.000000,0.096000,-0.094000,0.054000,-1.940000,-0.740000,1.400000,-2.465629,Hold,56.003418,51.000000,Hold,-69702.000000,69632.000000,Shoot,3270.000000,-3272.727273,Speed,3247.500000,-3272.727273,Speed,Off,On,0.000000,FALSE,44,Read: /home/lvuser/scripts/auto_44.bee,File good!,SHOOT,SHOOT
08:19:13.069 PM 03/22/2016,Autonomous Enabled,10,FALSE,0,NO ERROR,-0.000000,-61.516439,0.000000,62.665020,TRUE,FALSE,TRUE,TRUE,FALSE,FALSE,PID,-0.075000,3.075000,-5.015000,TRUE,0.266891,1.232224,0.000000,-0.037369,0.055405,0.000000,0.130000,0.129000,-0.045000,-1.940000,-0.670000,1.460000,-2.455312,Hold,56.003418,51.000000,Hold,-69702.000000,69632.000000,Shoot,3270.000000,-3272.727273,Speed,3255.000000,-3272.727273,Speed,On,On,0.000000,FALSE,44,Read: /home/lvuser/scripts/auto_44.bee,File good!,SHOOT,SHOOT
08:19:13.169 PM 03/22/2016,Autonomous Enabled,9,FALSE,0,NO ERROR,-0.000000,-61.516439,0.000000,62.665020,TRUE,FALSE,FALSE,TRUE,FALSE,FALSE,PID,-0.075000,3.075000,-5.015000,TRUE,0.268127,1.237305,0.000000,0.052536,0.110245,0.000000,0.165000,-0.006000,0.104000,-1.950000,-0.610000,1.500000,-2.449573,Hold,56.003418,51.000000,Hold,-69702.000000,69632.000000,Shoot,3247.500000,-3272.727273,Speed,3247.500000,-3272.727273,Speed,On,On,0.000000,FALSE,44,Read: /home/lvuser/scripts/auto_44.bee,File good!,WAIT 500,WAIT
08:19:13.270 PM 03/22/2016,Autonomous Enabled,9,FALSE,0,NO ERROR,-0.000000,-61.510023,0.000000,62.665020,TRUE,FALSE,FALSE,TRUE,FALSE,FALSE,PID,-0.075000,3.075000,-5.015000,TRUE,0.271545,1.243225,0.000000,0.079178,0.100708,0.000000,-0.004000,-0.053000,-0.178000,-1.950000,-0.680000,1.500000,-2.436863,Hold,56.003418,51.000000,Hold,-69702.000000,69632.000000,Shoot,2505.000000,-3272.727273,Speed,2302.500000,-3272.727273,Speed,On,On,0.000000,FALSE,44,Read: /home/lvuser/scripts/auto_44.bee,File good!,WAIT 500,WAIT
08:19:13.370 PM 03/22/2016,Autonomous Enabled,9,FALSE,0,NO ERROR,-0.000000,-61.510023,0.000000,62.665020,TRUE,FALSE,FALSE,TRUE,FALSE,FALSE,PID,-0.075000,3.075000,-5.015000,TRUE,0.276215,1.245361,0.000000,0.091827,-0.011429,0.000000,-0.081000,-0.087000,0.185000,-1.970000,-0.380000,1.520000,-2.477592,Hold,56.003418,51.000000,Hold,-69702.000000,69632.000000,Shoot,2400.000000,-3272.727273,Speed,2460.000000,-3272.727273,Speed,On,On,0.000000,FALSE,44,Read: /home/lvuser/scripts/auto_44.bee,File good!,WAIT 500,WAIT
08:19:13.471 PM 03/22/2016,Autonomous Enabled,10,FALSE,0,NO ERROR,-0.000000,-61.516439,0.000000,62.665020,TRUE,FALSE,FALSE,TRUE,FALSE,FALSE,PID,-0.075000,3.075000,-5.015000,TRUE,0.280380,1.242950,0.000000,0.089661,-0.056702,0.000000,-0.088000,0.011000,0.104000,-1.950000,-0.560000,1.450000,-2.437875,Hold,56.003418,51.000000,Hold,-69702.000000,69632.000000,Shoot,2805.000000,-3272.727273,Speed,2902.500000,-3272.727273,Speed,On,On,0.000000,FALSE,44,Read: /home/lvuser/scripts/auto_44.bee,File good!,WAIT 500,WAIT
08:19:13.572 PM 03/22/2016,Autonomous Enabled,10,FALSE,0,NO ERROR,-0.000000,-61.516439,0.000000,62.665020,TRUE,FALSE,FALSE,TRUE,FALSE,FALSE,PID,-0.075000,3.075000,-5.015000,TRUE,0.285675,1.237427,0.000000,0.092590,-0.124680,0.000000,-0.073000,-0.098000,-0.042000,-1.940000,-0.460000,1.360000,-2.446344,Hold,56.003418,51.000000,Hold,-69702.000000,69632.000000,Shoot,2805.000000,-3272.727273,Speed,2902.500000,-3272.727273,Speed,On,On,0.000000,FALSE,44,Read: /home/lvuser/scripts/auto_44.bee,File good!,WAIT 500,WAIT
08:19:13.672 PM 03/22/2016,Autonomous Enabled,9,FALSE,0,NO ERROR,-0.000000,-61.510023,0.000000,62.665020,TRUE,FALSE,FALSE,TRUE,FALSE,FALSE,PID,-0.075000,3.075000,-5.015000,TRUE,0.288986,1.228546,0.000000,0.000000,-0.203415,0.000000,-0.016000,-0.031000,-0.036000,-1.950000,-0.330000,1.300000,-2.434395,Hold,56.003418,51.000000,Hold,-69702.000000,69632.000000,Shoot,3330.000000,-3272.727273,Speed,3382.500000,-3272.727273,Speed,On,On,0.000000,FALSE,44,Read: /home/lvuser/scripts/auto_44.bee,File good!,WAIT 500,WAIT
08:19:13.773 PM 03/22/2016,Autonomous Enabled,11,FALSE,0,NO ERROR,-0.000000,-61.516439,0.000000,62.665020,TRUE,FALSE,FALSE,TRUE,FALSE,FALSE,PID,-0.078125,3.075000,-5.015000,TRUE,0.288544,1.219742,0.000000,-0.015045,-0.235855,0.000000,-0.016000,-0.031000,-0.036000,-1.950000,-0.330000,1.300000,-2.453680,Hold,56.003418,51.000000,Hold,-69702.000000,69632.000000,Shoot,3315.000000,-3272.727273,Speed,3315.000000,-3272.727273,Speed,On,On,0.000000,FALSE,44,Read: /home/lvuser/scripts/auto_44.bee,File good!,STOP_ALL,STOP_ALL
08:19:13.874 PM 03/22/2016,Autonomous Enabled,10,FALSE,0,NO ERROR,-0.000000,-61.516439,0.000000,62.665020,TRUE,FALSE,FALSE,TRUE,FALSE,FALSE,PID,-0.078125,3.075000,-5.015000,TRUE,0.287811,1.204544,0.000000,-0.021011,-0.252609,0.000000,-0.066000,0.071000,-0.051000,-1.950000,-0.380000,1.330000,-2.432026,Hold,56.003418,51.000000,Hold,-69702.000000,69632.000000,Shoot,3247.500000,-3272.727273,Speed,3270.000000,-3272.727273,Speed,On,On,0.000000,FALSE,44,Read: /home/lvuser/scripts/auto_44.bee,File good!,STOP_ALL,STOP_ALL
08:19:13.973 PM 03/22/2016,Autonomous Enabled,10,FALSE,0,NO ERROR,-0.000000,-61.516439,0.000000,62.665020,TRUE,FALSE,FALSE,TRUE,FALSE,FALSE,PID,-0.078125,3.075000,-5.015000,TRUE,0.285706,1.192352,0.000000,-0.041534,-0.254974,0.000000,0.036000,-0.045000,0.101000,-1.950000,-0.390000,1.350000,-2.437138,Hold,56.003418,51.000000,Hold,-69702.000000,69632.000000,Shoot,3247.500000,-3272.727273,Speed,3270.000000,-3272.727273,Speed,On,On,0.000000,FALSE,44,Read: /home/lvuser/scripts/auto_44.bee,File good!,STOP_ALL,STOP_ALL
08:19:14.074 PM 03/22/2016,Autonomous Enabled,10,FALSE,0,NO ERROR,-0.000000,-61.516439,0.000000,62.665020,TRUE,FALSE,FALSE,TRUE,FALSE,FALSE,PID,-0.078125,3.075000,-5.015000,TRUE,0.284363,1.178680,0.000000,-0.025223,-0.288239,0.000000,-0.012000,-0.026000,-0.051000,-1.950000,-0.360000,1.340000,-2.433813,Hold,56.003418,51.000000,Hold,-69702.000000,69632.000000,Shoot,3262.500000,-3272.727273,Speed,3292.500000,-3272.727273,Speed,On,On,0.000000,FALSE,44,Read: /home/lvuser/scripts/auto_44.bee,File good!,STOP_ALL,STOP_ALL
08:19:14.174 PM 03/22/2016,Autonomous Enabled,10,FALSE,0,NO ERROR,-0.000000,-61.516439,0.000000,62.665020,TRUE,FALSE,FALSE,TRUE,FALSE,FALSE,PID,-0.078125,3.075000,-5.015000,TRUE,0.283279,1.163025,0.000000,-0.039993,-0.340256,0.000000,-0.030000,-0.066000,-0.017000,-1.950000,-0.410000,1.330000,-2.436092,Hold,56.003418,51.000000,Hold,-69702.000000,69632.000000,Shoot,3285.000000,-3272.727273,Speed,3300.000000,-3272.727273,Speed,On,On,0.000000,FALSE,44,Read: /home/lvuser/scripts/auto_44.bee,File good!,STOP_ALL,STOP_ALL
08:19:14.276 PM 03/22/2016,Autonomous Enabled,10,FALSE,0,NO ERROR,-0.000000,-61.516439,0.000000,62.665020,TRUE,FALSE,FALSE,TRUE,FALSE,FALSE,PID,-0.078125,3.075000,-5.015000,TRUE,0.283279,1.163025,0.000000,-0.039993,-0.340256,0.000000,-0.030000,-0.066000,-0.017000,-1.950000,-0.410000,1.330000,-2.412944,Hold,56.003418,51.000000,Hold,-69702.000000,69632.000000,Shoot,3285.000000,-3272.727273,Speed,3292.500000,-3272.727273,Speed,On,On,0.000000,FALSE,44,Read: /home/lvuser/scripts/auto_44.bee,File good!,STOP_ALL,STOP_ALL
08:19:14.376 PM 03/22/2016,Autonomous Enabled,9,FALSE,0,NO ERROR,-0.000000,-61.516439,0.000000,62.665020,TRUE,FALSE,FALSE,TRUE,FALSE,FALSE,PID,-0.078125,3.075000,-5.015000,TRUE,0.276505,1.116531,0.000000,-0.066940,-0.404907,0.000000,-0.067000,-0.026000,-0.029000,-1.960000,-0.530000,1.340000,-2.393700,Hold,56.003418,51.000000,Hold,-69701.000000,69632.000000,Shoot,3277.500000,-3272.727273,Speed,3285.000000,-3272.727273,Speed,On,On,0.000000,FALSE,44,Read: /home/lvuser/scripts/auto_44.bee,File good!,STOP_ALL,STOP_ALL
08:19:14.478 PM 03/22/2016,Autonomous Enabled,10,FALSE,0,NO ERROR,-0.000000,-61.516439,0.000000,62.665020,TRUE,FALSE,FALSE,TRUE,FALSE,FALSE,PID,-0.078125,3.075000,-5.015000,TRUE,0.273941,1.100296,0.000000,-0.051788,-0.400024,0.000000,0.009000,0.005000,-0.096000,-1.950000,-0.530000,1.360000,-2.404334,Hold,56.003418,51.000000,Hold,-69701.000000,69632.000000,Dwell,3270.000000,-3272.727273,Speed,3277.500000,-3272.727273,Speed,On,Off,0.000000,FALSE,44,Read: /home/lvuser/scripts/auto_44.bee,File good!,STOP_ALL,STOP_ALL
08:19:14.579 PM 03/22/2016,Autonomous Enabled,10,FALSE,0,NO ERROR,-0.000000,-61.516439,0.000000,62.665020,TRUE,FALSE,FALSE,TRUE,FALSE,FALSE,PID,-0.078125,3.075000,-5.015000,TRUE,0.273239,1.081543,0.000000,0.019928,-0.364685,0.000000,0.032000,0.014000,0.121000,-1.940000,-0.470000,1.340000,-2.388505,Hold,56.003418,51.000000,Hold,-69701.000000,69632.000000,Dwell,3277.500000,-3272.727273,Speed,3292.500000,-3272.727273,Speed,Off,Off,0.000000,FALSE,44,Read: /home/lvuser/scripts/auto_44.bee,File good!,STOP_ALL,STOP_ALL
08:19:14.679 PM 03/22/2016,Autonomous Enabled,10,FALSE,0,NO ERROR,-0.000000,-61.516439,0.000000,62.665020,TRUE,FALSE,FALSE,TRUE,FALSE,FALSE,PID,-0.078125,3.075000,-5.015000,TRUE,0.276382,1.060898,0.000000,0.081223,-0.320084,0.000000,0.162000,0.012000,-0.052000,-1.940000,-0.440000,1.310000,-2.386457,Hold,56.003418,51.000000,Hold,-69701.000000,69632.000000,Dwell,3277.500000,-3272.727273,Speed,3300.000000,-3272.727273,Speed,Off,Off,0.000000,FALSE,44,Read: /home/lvuser/scripts/auto_44.bee,File good!,STOP_ALL,STOP_ALL
08:19:14.780 PM 03/22/2016,Autonomous Enabled,10,FALSE,0,NO ERROR,-0.000000,-61.516439,0.000000,62.665020,TRUE,FALSE,FALSE,TRUE,FALSE,FALSE,PID,-0.078125,3.075000,-5.015000,TRUE,0.280685,1.049454,0.000000,0.121552,-0.270767,0.000000,0.054000,0.061000,0.144000,-1.950000,-0.190000,1.310000,-2.374157,Hold,56.003418,51.000000,Hold,-69701.000000,69632.000000,Dwell,3285.000000,-3272.727273,Speed,3292.500000,-3272.727273,Speed,Off,Off,0.000000,FALSE,44,Read: /home/lvuser/scripts/auto_44.bee,File good!,STOP_ALL,STOP_ALL
08:19:14.881 PM 03/22/2016,Autonomous Enabled,10,FALSE,0,NO ERROR,-0.000000,-61.516439,0.000000,62.665020,TRUE,FALSE,FALSE,TRUE,FALSE,FALSE,PID,-0.078125,3.075000,-5.015000,TRUE,0.292404,1.035263,0.000000,0.222076,-0.196960,0.000000,0.084000,0.038000,-0.045000,-1.950000,-0.110000,1.290000,-2.372205,Hold,56.003418,51.000000,Hold,-69701.000000,69632.000000,Dwell,3277.500000,-3272.727273,Speed,3277.500000,-3272.727273,Speed,Off,Off,0.000000,FALSE,44,Read: /home/lvuser/scripts/auto_44.bee,File good!,STOP_ALL,STOP_ALL
08:19:14.981 PM 03/22/2016,Autonomous Enabled,11,FALSE,0,NO ERROR,-0.000000,-61.516439,0.000000,62.665020,TRUE,FALSE,FALSE,TRUE,FALSE,FALSE,PID,-0.078125,3.075000,-5.015000,TRUE,0.304565,1.027740,0.000000,0.260376,-0.131409,0.000000,0.052000,0.037000,0.030000,-1.960000,-0.020000,1.280000,-2.378901,Hold,56.003418,51.000000,Hold,-69701.000000,69632.000000,Dwell,3277.500000,-3272.727273,Speed,3277.500000,-3272.727273,Speed,Off,Off,0.000000,FALSE,44,Read: /home/lvuser/scripts/auto_44.bee,File good!,STOP_ALL,STOP_ALL
08:19:15.082 PM 03/22/2016,Autonomous Enabled,10,FALSE,0,NO ERROR,-0.000000,-61.516439,0.000000,62.665020,TRUE,FALSE,FALSE,TRUE,FALSE,FALSE,PID,-0.078125,3.075000,-5.015000,TRUE,0.317902,1.023544,0.000000,0.258362,-0.049088,0.000000,-0.044000,0.054000,-0.037000,-1.960000,-0.020000,1.270000,-2.372184,Hold,56.003418,51.000000,Hold,-69701.000000,69632.000000,Dwell,3277.500000,-3272.727273,Speed,3277.500000,-3272.727273,Speed,Off,Off,0.000000,FALSE,44,Read: /home/lvuser/scripts/auto_44.bee,File good!,STOP_ALL,STOP_ALL
08:19:15.183 PM 03/22/2016,Autonomous Enabled,10,FALSE,0,NO ERROR,-0.000000,-61.516439,0.000000,62.665020,TRUE,FALSE,FALSE,TRUE,FALSE,FALSE,PID,-0.078125,3.075000,-5.015000,TRUE,0.329117,1.023407,0.000000,0.208405,0.024414,0.000000,0.045000,-0.012000,-0.012000,-1.960000,-0.110000,1.330000,-2.360545,Hold,56.003418,51.000000,Hold,-69701.000000,69632.000000,Dwell,3277.500000,-3272.727273,Speed,3270.000000,-3272.727273,Speed,Off,Off,0.000000,FALSE,44,Read: /home/lvuser/scripts/auto_44.bee,File good!,STOP_ALL,STOP_ALL
08:19:15.283 PM 03/22/2016,Autonomous Enabled,10,FALSE,0,NO ERROR,-0.000000,-61.516439,0.000000,62.665020,TRUE,FALSE,FALSE,TRUE,FALSE,FALSE,PID,-0.078125,3.075000,-5.015000,TRUE,0.338547,1.024002,0.000000,0.164978,0.025986,0.000000,-0.043000,0.025000,0.016000,-1.960000,-0.230000,1.360000,-2.353859,Hold,56.003418,51.000000,Hold,-69701.000000,69632.000000,Dwell,3277.500000,-3272.727273,Speed,3277.500000,-3272.727273,Speed,Off,Off,0.000000,FALSE,44,Read: /home/lvuser/scripts/auto_44.bee,File good!,STOP_ALL,STOP_ALL
08:19:15.383 PM 03/22/2016,Autonomous Enabled,10,FALSE,0,NO ERROR,-0.000000,-61.516439,0.000000,62.665020,TRUE,FALSE,FALSE,TRUE,FALSE,FALSE,PID,-0.078125,3.075000,-5.015000,TRUE,0.344391,1.026550,0.000000,0.083603,0.051956,0.000000,-0.166000,-0.024000,-0.096000,-1.970000,-0.290000,1.430000,-2.356830,Hold,56.003418,51.000000,Hold,-69701.000000,69632.000000,Dwell,3285.000000,-3272.727273,Speed,3292.500000,-3272.727273,Speed,Off,Off,0.000000,FALSE,44,Read: /home/lvuser/scripts/auto_44.bee,File good!,STOP_ALL,STOP_ALL
08:19:15.483 PM 03/22/2016,Autonomous Enabled,10,FALSE,0,NO ERROR,-0.000000,-61.516439,0.000000,62.665020,TRUE,FALSE,FALSE,TRUE,FALSE,FALSE,PID,-0.078125,3.075000,-5.015000,TRUE,0.347397,1.027847,0.000000,0.032120,0.008102,0.000000,0.025000,-0.062000,0.029000,-1.960000,-0.190000,1.420000,-2.350837,Hold,56.003418,51.000000,Hold,-69701.000000,69632.000000,Dwell,3277.500000,-3272.727273,Speed,3292.500000,-3272.727273,Speed,Off,Off,0.000000,FALSE,44,Read: /home/lvuser/scripts/auto_44.bee,File good!,STOP_ALL,STOP_ALL
08:19:15.583 PM 03/22/2016,Autonomous Enabled,10,FALSE,0,NO ERROR,-0.000000,-61.516439,0.000000,62.665020,TRUE,FALSE,FALSE,TRUE,FALSE,FALSE,PID,-0.078125,3.075000,-5.015000,TRUE,0.348206,1.028152,0.000000,0.015320,-0.002045,0.000000,0.022000,-0.021000,-0.136000,-1.970000,-0.180000,1.430000,-2.359667,Hold,56.003418,51.000000,Hold,-69701.000000,69632.000000,Dwell,3277.500000,-3272.727273,Speed,3277.500000,-3272.727273,Speed,Off,Off,0.000000,FALSE,44,Read: /home/lvuser/scripts/auto_44.bee,File good!,STOP_ALL,STOP_ALL
08:19:15.683 PM 03/22/2016,Autonomous Enabled,9,FALSE,0,NO ERROR,-0.000000,-61.510023,0.000000,62.665020,TRUE,FALSE,FALSE,TRUE,FALSE,FALSE,PID,-0.078125,3.075000,-5.015000,TRUE,0.350037,1.025177,0.000000,0.050522,-0.084503,0.000000,0.022000,-0.021000,-0.136000,-1.990000,0.000000,1.380000,-2.370384,Hold,56.003418,51.000000,Hold,-69701.000000,69632.000000,Empty,3285.000000,0.000000,Speed,3277.500000,0.000000,Speed,Off,Off,0.000000,FALSE,44,Read: /home/lvuser/scripts/auto_44.bee,File good!,STOP_ALL,STOP_ALL
08:19:15.783 PM 03/22/2016,Autonomous Enabled,10,FALSE,0,NO ERROR,-0.000000,-61.510023,0.000000,62.665020,TRUE,FALSE,FALSE,TRUE,FALSE,FALSE,PID,-0.084375,3.075000,-5.015000,TRUE,0.351761,1.021744,0.000000,0.029312,-0.076736,0.000000,0.055000,0.014000,0.020000,-1.950000,-0.060000,1.490000,-2.336740,Hold,56.003174,51.000000,Hold,-69701.000000,69632.000000,Empty,3262.500000,0.000000,Speed,3270.000000,0.000000,Speed,Off,Off,0.000000,FALSE,44,Read: /home/lvuser/scripts/auto_44.bee,File good!,STOP_ALL,STOP_ALL
08:19:15.883 PM 03/22/2016,Autonomous Enabled,10,FALSE,0,NO ERROR,-0.000000,-61.516439,0.000000,62.665020,TRUE,FALSE,FALSE,TRUE,FALSE,FALSE,Enable,-0.084375,3.459375,-5.409375,TRUE,0.352600,1.017975,0.000000,0.003281,-0.082977,0.000000,-0.051000,0.033000,-0.160000,-1.990000,-0.160000,1.470000,-2.345143,Hold,56.003174,51.000000,Hold,-69701.000000,69632.000000,Empty,3097.500000,0.000000,Speed,3112.500000,0.000000,Speed,Off,Off,0.000000,FALSE,44,Read: /home/lvuser/scripts/auto_44.bee,File good!,STOP_ALL,STOP_ALL
08:19:15.983 PM 03/22/2016,Autonomous Enabled,11,FALSE,0,NO ERROR,-0.000000,-61.516439,0.000000,62.665020,TRUE,FALSE,FALSE,TRUE,FALSE,FALSE,PID,-0.084375,3.459375,-5.409375,TRUE,0.351868,1.014740,0.000000,-0.023834,-0.049973,0.000000,-0.029000,-0.056000,-0.232000,-1.980000,-0.130000,1.490000,-2.322587,Hold,56.003174,51.000000,Hold,-69701.000000,69632.000000,Empty,2887.500000,0.000000,Speed,2857.500000,0.000000,Speed,Off,Off,0.000000,FALSE,44,Read: /home/lvuser/scripts/auto_44.bee,File good!,STOP_ALL,STOP_ALL
08:19:16.083 PM 03/22/2016,Autonomous Enabled,9,FALSE,0,NO ERROR,-0.000000,-61.510023,0.000000,62.665020,TRUE,FALSE,FALSE,TRUE,FALSE,FALSE,PID,-0.084375,3.459375,-5.409375,TRUE,0.351151,1.010406,0.000000,0.008255,-0.078171,0.000000,0.066000,0.022000,0.018000,-1.990000,-0.060000,1.460000,-2.339683,Hold,56.003174,51.000000,Hold,-69700.000000,69632.000000,Empty,2677.500000,0.000000,Speed,2610.000000,0.000000,Speed,Off,Off,0.000000,FALSE,44,Read: /home/lvuser/scripts/auto_44.bee,File good!,STOP_ALL,STOP_ALL
08:19:16.183 PM 03/22/2016,Autonomous Enabled,9,FALSE,0,NO ERROR,-0.000000,-61.516439,0.000000,62.665020,TRUE,FALSE,FALSE,TRUE,FALSE,FALSE,PID,-0.084375,3.459375,-5.409375,TRUE,0.353378,1.009232,0.000000,0.061325,0.024445,0.000000,-0.056000,0.060000,-0.161000,-1.990000,0.000000,1.410000,-2.330030,Hold,56.003174,51.000000,Hold,-69700.000000,69632.000000,Empty,2475.000000,0.000000,Speed,2362.500000,0.000000,Speed,Off,Off,0.000000,FALSE,44,Read: /home/lvuser/scripts/auto_44.bee,File good!,STOP_ALL,STOP_ALL
08:19:16.283 PM 03/22/2016,Autonomous Enabled,11,FALSE,0,NO ERROR,-0.000000,-61.516439,0.000000,62.665020,TRUE,FALSE,FALSE,TRUE,FALSE,FALSE,PID,-0.084375,3.459375,-5.409375,TRUE,0.355606,1.012222,0.000000,0.032166,0.062820,0.000000,-0.056000,0.060000,-0.161000,-1.990000,0.000000,1.410000,-2.344551,Hold,56.003174,51.000000,Hold,-69700.000000,69632.000000,Empty,2280.000000,0.000000,Speed,2130.000000,0.000000,Speed,Off,Off,0.000000,FALSE,44,Read: /home/lvuser/scripts/auto_44.bee,File good!,STOP_ALL,STOP_ALL
08:19:16.383 PM 03/22/2016,Autonomous Enabled,10,FALSE,0,NO ERROR,-0.000000,-61.516439,0.000000,62.665020,TRUE,FALSE,FALSE,TRUE,FALSE,FALSE,PID,-0.084375,3.459375,-5.409375,TRUE,0.357697,1.014725,0.000000,0.042282,0.049530,0.000000,-0.032000,-0.018000,-0.119000,-1.990000,0.000000,1.280000,-2.360431,Hold,56.003174,51.000000,Hold,-69700.000000,69632.000000,Empty,2122.500000,0.000000,Speed,1905.000000,0.000000,Speed,Off,Off,0.000000,FALSE,44,Read: /home/lvuser/scripts/auto_44.bee,File good!,STOP_ALL,STOP_ALL
08:19:16.485 PM 03/22/2016,Autonomous Enabled,11,FALSE,0,NO ERROR,-0.000000,-61.516439,0.000000,62.665020,TRUE,FALSE,FALSE,TRUE,FALSE,FALSE,PID,-0.084375,3.459375,-5.409375,TRUE,0.358444,1.017426,0.000000,0.003906,0.059418,0.000000,-0.067000,-0.002000,0.040000,-1.990000,0.000000,1.280000,-2.344551,Hold,56.003174,51.000000,Hold,-69700.000000,69632.000000,Empty,1920.000000,0.000000,Speed,1680.000000,0.000000,Speed,Off,Off,0.000000,FALSE,44,Read: /home/lvuser/scripts/auto_44.bee,File good!,STOP_ALL,STOP_ALL
08:19:16.586 PM 03/22/2016,Autonomous Enabled,9,FALSE,0,NO ERROR,-0.000000,-61.516439,0.000000,62.665020,TRUE,FALSE,FALSE,TRUE,FALSE,FALSE,PID,-0.084375,3.459375,-5.409375,TRUE,0.358414,1.019287,0.000000,-0.002380,0.000000,0.000000,0.032000,0.019000,0.092000,-1.990000,0.120000,1.270000,-2.323382,Hold,56.003174,51.000000,Hold,-69700.000000,69632.000000,Empty,1740.000000,0.000000,Speed,1470.000000,0.000000,Speed,Off,Off,0.000000,FALSE,44,Read: /home/lvuser/scripts/auto_44.bee,File good!,STOP_ALL,STOP_ALL
08:19:16.688 PM 03/22/2016,Autonomous Enabled,10,FALSE,0,NO ERROR,-0.000000,-61.516439,0.000000,62.665020,TRUE,FALSE,FALSE,TRUE,FALSE,FALSE,PID,-0.075000,3.459375,-5.409375,TRUE,0.358292,1.019882,0.000000,-0.000565,0.008148,0.000000,0.022000,-0.022000,0.081000,-2.000000,0.110000,1.310000,-2.307237,Hold,56.003174,51.000000,Hold,-69700.000000,69632.000000,Empty,1567.500000,0.000000,Speed,1290.000000,0.000000,Speed,Off,Off,0.000000,FALSE,44,Read: /home/lvuser/scripts/auto_44.bee,File good!,STOP_ALL,STOP_ALL
08:19:16.788 PM 03/22/2016,Autonomous Enabled,9,FALSE,0,NO ERROR,-0.000000,-61.516439,0.000000,62.665020,TRUE,FALSE,FALSE,TRUE,FALSE,FALSE,PID,-0.075000,3.459375,-5.409375,TRUE,0.357574,1.020050,0.000000,-0.032654,-0.013306,0.000000,-0.061000,-0.094000,-0.018000,-2.010000,0.020000,1.320000,-2.320308,Hold,56.003174,51.000000,Hold,-69700.000000,69632.000000,Empty,1395.000000,0.000000,Speed,1147.500000,0.000000,Speed,Off,On,0.000000,FALSE,44,Read: /home/lvuser/scripts/auto_44.bee,File good!,STOP_ALL,STOP_ALL
08:19:16.889 PM 03/22/2016,Autonomous Enabled,10,FALSE,0,NO ERROR,-0.000000,-61.516439,0.000000,62.665020,TRUE,FALSE,FALSE,TRUE,FALSE,FALSE,PID,-0.075000,3.459375,-5.409375,TRUE,0.355545,1.017776,0.000000,-0.039642,-0.057922,0.000000,-0.061000,-0.094000,-0.018000,-1.990000,-0.060000,1.310000,-2.310445,Hold,56.003174,51.000000,Hold,-69700.000000,69632.000000,Suck,1245.000000,2181.818182,Speed,990.000000,2181.818182,Speed,Off,On,0.000000,FALSE,44,Read: /home/lvuser/scripts/auto_44.bee,File good!,STOP_ALL,STOP_ALL
08:19:16.990 PM 03/22/2016,Autonomous Enabled,9,FALSE,0,NO ERROR,-0.000000,-61.516439,0.000000,62.665020,TRUE,FALSE,FALSE,TRUE,FALSE,FALSE,PID,-0.075000,3.459375,-5.409375,TRUE,0.352951,1.015106,0.000000,0.000000,-0.044525,0.000000,-0.083000,-0.026000,-0.034000,-2.000000,-0.060000,1.390000,-2.315681,Hold,56.003174,51.000000,Hold,-69700.000000,69632.000000,Suck,930.000000,2181.818182,Speed,765.000000,2181.818182,Speed,Off,On,0.000000,FALSE,44,Read: /home/lvuser/scripts/auto_44.bee,File good!,STOP_ALL,STOP_ALL
08:19:17.089 PM 03/22/2016,Autonomous Enabled,9,FALSE,0,NO ERROR,-0.000000,-61.516439,0.000000,62.665020,TRUE,FALSE,FALSE,TRUE,FALSE,FALSE,PID,-0.075000,3.459375,-5.409375,TRUE,0.352814,1.013290,0.000000,0.006271,-0.032471,0.000000,0.019000,-0.043000,-0.020000,-2.000000,-0.040000,1.380000,-2.324801,Hold,56.003174,51.000000,Hold,-69700.000000,69632.000000,Suck,-142.500000,2181.818182,Speed,-165.000000,2181.818182,Speed,Off,On,0.000000,FALSE,44,Read: /home/lvuser/scripts/auto_44.bee,File good!,STOP_ALL,STOP_ALL
08:19:17.190 PM 03/22/2016,Autonomous Enabled,10,FALSE,0,NO ERROR,-0.000000,-61.516439,0.000000,62.665020,TRUE,FALSE,FALSE,TRUE,FALSE,FALSE,PID,-0.075000,3.459375,-5.409375,TRUE,0.352798,1.011429,0.000000,-0.010529,-0.037170,0.000000,0.019000,-0.043000,-0.020000,-2.000000,-0.040000,1.380000,-2.322439,Hold,56.003174,51.000000,Hold,-69700.000000,69632.000000,Suck,-870.000000,2181.818182,Speed,-1087.500000,2181.818182,Speed,Off,On,0.000000,FALSE,44,Read: /home/lvuser/scripts/auto_44.bee,File good!,STOP_ALL,STOP_ALL
08:19:17.291 PM 03/22/2016,Autonomous Enabled,10,FALSE,0,NO ERROR,-0.000000,-61.516439,0.000000,62.665020,TRUE,FALSE,FALSE,TRUE,FALSE,FALSE,PID,-0.075000,3.459375,-5.409375,TRUE,0.352798,1.011963,0.000000,-0.002136,0.026703,0.000000,0.084000,0.019000,-0.061000,-2.000000,-0.040000,1.420000,-2.306177,Hold,56.003174,51.000000,Hold,-69700.000000,69632.000000,Suck,-1590.000000,2181.818182,Speed,-1837.500000,2181.818182,Speed,Off,On,0.000000,FALSE,44,Read: /home/lvuser/scripts/auto_44.bee,File good!,STOP_ALL,STOP_ALL
08:19:17.392 PM 03/22/2016,Autonomous Enabled,10,FALSE,0,NO ERROR,-0.000000,-61.516439,0.000000,62.665020,TRUE,FALSE,FALSE,TRUE,FALSE,FALSE,PID,-0.075000,3.459375,-5.409375,TRUE,0.352463,1.014679,0.000000,-0.019135,0.052902,0.000000,-0.014000,0.010000,-0.183000,-2.000000,0.170000,1.390000,-2.298748,Hold,56.003174,51.000000,Hold,-69700.000000,69632.000000,Suck,-2160.000000,2181.818182,Speed,-2265.000000,2181.818182,Speed,Off,On,0.000000,FALSE,44,Read: /home/lvuser/scripts/auto_44.bee,File good!,STOP_ALL,STOP_ALL
08:19:17.492 PM 03/22/2016,Autonomous Enabled,10,FALSE,0,NO ERROR,-0.000000,-61.516439,0.000000,62.665020,TRUE,FALSE,FALSE,TRUE,FALSE,FALSE,PID,-0.075000,3.459375,-5.409375,TRUE,0.352417,1.013229,0.000000,0.006256,-0.077011,0.000000,0.017000,-0.115000,-0.017000,-2.000000,0.060000,1.400000,-2.297061,Hold,56.003174,51.000000,Hold,-69700.000000,69632.000000,Suck,-2340.000000,2181.818182,Speed,-2317.500000,2181.818182,Speed,Off,On,0.000000,FALSE,44,Read: /home/lvuser/scripts/auto_44.bee,File good!,STOP_ALL,STOP_ALL
08:19:17.593 PM 03/22/2016,Autonomous Enabled,9,FALSE,0,NO ERROR,-0.000000,-61.516439,0.000000,62.665020,TRUE,FALSE,FALSE,TRUE,FALSE,FALSE,PID,-0.075000,3.459375,-5.409375,TRUE,0.353729,1.008987,0.000000,0.045563,-0.133545,0.000000,0.061000,-0.055000,0.168000,-2.010000,0.100000,1.390000,-2.297147,Hold,56.003174,51.000000,Hold,-69700.000000,69632.000000,Suck,-2175.000000,2181.818182,Speed,-2167.500000,2181.818182,Speed,Off,On,0.000000,FALSE,44,Read: /home/lvuser/scripts/auto_44.bee,File good!,STOP_ALL,STOP_ALL
08:19:17.694 PM 03/22/2016,Autonomous Enabled,10,FALSE,0,NO ERROR,-0.000000,-61.516439,0.000000,62.665020,TRUE,FALSE,FALSE,TRUE,FALSE,FALSE,PID,-0.075000,3.459375,-5.409375,TRUE,0.356674,0.998932,0.000000,0.073715,-0.239594,0.000000,-0.006000,-0.150000,0.187000,-2.010000,0.160000,1.430000,-2.301415,Hold,56.003174,51.000000,Hold,-69700.000000,69632.000000,Suck,-2115.000000,2181.818182,Speed,-2145.000000,2181.818182,Speed,Off,On,0.000000,FALSE,44,Read: /home/lvuser/scripts/auto_44.bee,File good!,STOP_ALL,STOP_ALL
08:19:17.795 PM 03/22/2016,Autonomous Enabled,10,FALSE,0,NO ERROR,-0.000000,-61.516439,0.000000,62.665020,TRUE,FALSE,FALSE,TRUE,FALSE,FALSE,PID,-0.087500,3.459375,-5.409375,TRUE,0.361847,0.980957,0.000000,0.104355,-0.340515,0.000000,-0.034000,-0.086000,0.259000,-2.000000,0.000000,1.410000,-2.306318,Hold,56.003174,51.000000,Hold,-69700.000000,69632.000000,Suck,-2175.000000,2181.818182,Speed,-2205.000000,2181.818182,Speed,Off,On,0.000000,FALSE,44,Read: /home/lvuser/scripts/auto_44.bee,File good!,STOP_ALL,STOP_ALL
08:19:17.895 PM 03/22/2016,Autonomous Enabled,10,FALSE,0,NO ERROR,-0.000000,-61.516439,0.000000,62.665020,TRUE,FALSE,FALSE,TRUE,FALSE,FALSE,PID,-0.087500,3.459375,-5.409375,TRUE,0.368896,0.959473,0.000000,0.149796,-0.497528,0.000000,0.065000,-0.169000,0.340000,-2.000000,-0.060000,1.420000,-2.297264,Hold,56.003174,51.000000,Hold,-69700.000000,69632.000000,Suck,-2190.000000,2181.818182,Speed,-2212.500000,2181.818182,Speed,Off,On,0.000000,FALSE,44,Read: /home/lvuser/scripts/auto_44.bee,File good!,STOP_ALL,STOP_ALL
