Time,Robot Mode,Loop Time,Error Status,Error Code,Error Source,Left Motor Output,Left Motor Encoder,Right Motor Output,Right Motor Encoder,Is Level,Is Stalled,Ball Detector Photoeye,Vision Enabled,Vision Teleop Control,Vision Auto Control,Vision Current State,Vision X Output,Vision NavX Error,Vision NavX Target,NavX Connection Status,NavX Displacement X,NavX Displacement Y,NavX Displacement Z,NavX Velocity X,NavX Velocity Y,NavX Velocity Z,NavX Acceleration X,NavX Acceleration Y,NavX Acceleration Z,NavX Pitch,NavX Yaw,NavX Roll,Gyro Angle,Roller Arm State,Roller Arm Actual,Roller Arm Desired,Shooter Arm State,Shooter Arm Actual,Shooter Arm Desired,Shooter State,Actual RPM Left,Desired RPM Left,Control Mode Left,Actual RPM Right,Desired RPM Right,Control Mode Right,Ball Shooter Cylinder,Ball Halo Cylinder,Scaler Motor Output,Scaler Solenoid Fire,Auto To Run,Auto Current File,Auto File Status,Auto Current Command,Auto Trimmed Command
05:42:51.908 PM 03/25/2016,Teleop Enabled,11,TRUE,-44003,<LOCATION>WPI_CameraIssue HTTP Request with Authentication.vi<CALLSTACK>WPI_CameraIssue HTTP Request with Authentication.vi< <WPI_CameraIssue Get.vi< <WPI_CameraSet Image Appearance Property.vi< <WPI_CameraSet Image Size.vi< <Vision Processing.vi< <Robot Main.vi,-0.000000,6.743901,0.000000,-6.846567,TRUE,FALSE,FALSE,FALSE,FALSE,FALSE,Disabled,0.000000,0.000000,0.000000,TRUE,-0.012665,-0.014557,0.000000,0.000000,0.000000,0.000000,-0.001000,0.001000,0.007000,-1.450000,0.020000,1.580000,0.506504,ResetBack,-0.672607,-0.000049,ResetBack,1066.000000,-0.250000,Suck,-22.500000,2400.000000,Speed,-15.000000,2400.000000,Speed,Off,On,0.000000,FALSE,0,,,,
05:42:52.008 PM 03/25/2016,Teleop Enabled,9,FALSE,0,NO ERROR,-0.000000,6.743901,0.000000,-6.846567,TRUE,FALSE,FALSE,FALSE,FALSE,FALSE,Disabled,0.000000,0.000000,0.000000,TRUE,-0.012100,-0.014923,0.000000,0.031097,-0.000244,0.000000,-0.025000,-0.092000,-0.068000,-1.460000,0.210000,1.560000,0.535738,ResetBack,-0.672607,-0.000049,ResetBack,1066.000000,-0.250000,Suck,-510.000000,2400.000000,Speed,-495.000000,2400.000000,Speed,Off,On,0.000000,FALSE,0,,,,
05:42:52.110 PM 03/25/2016,Teleop Enabled,8,FALSE,0,NO ERROR,-0.000000,6.743901,0.000000,-6.840151,TRUE,FALSE,FALSE,FALSE,FALSE,FALSE,Disabled,0.000000,0.000000,0.000000,TRUE,-0.010254,-0.015366,0.000000,0.023270,-0.021530,0.000000,0.080000,0.010000,-0.018000,-1.450000,0.150000,1.460000,0.549174,ResetBack,-2.460205,-0.000049,ResetBack,4631.000000,-0.250000,Suck,-1125.000000,2400.000000,Speed,-1200.000000,2400.000000,Speed,Off,On,0.000000,FALSE,0,,,,
05:42:52.210 PM 03/25/2016,Teleop Enabled,9,FALSE,0,NO ERROR,-0.000000,6.743901,0.000000,-6.840151,TRUE,FALSE,FALSE,FALSE,FALSE,FALSE,Disabled,0.000000,0.000000,0.000000,TRUE,-0.008453,-0.015533,0.000000,0.021942,0.020432,0.000000,0.000000,-0.011000,-0.051000,-1.460000,0.190000,1.660000,0.561065,Reset,-2.507568,0.000000,ResetBack,10045.000000,-0.250000,Suck,-1635.000000,2400.000000,Speed,-1785.000000,2400.000000,Speed,Off,On,0.000000,FALSE,0,,,,
05:42:52.310 PM 03/25/2016,Teleop Enabled,10,FALSE,0,NO ERROR,-0.000000,6.743901,0.000000,-6.840151,TRUE,FALSE,FALSE,FALSE,FALSE,FALSE,Disabled,0.000000,0.000000,0.000000,TRUE,-0.007523,-0.015839,0.000000,0.000595,-0.014511,0.000000,-0.013000,-0.003000,0.053000,-1.460000,0.190000,1.570000,0.553047,Hold,0.353760,0.000000,ResetBack,16014.000000,-0.250000,Suck,-1995.000000,2400.000000,Speed,-2190.000000,2400.000000,Speed,Off,On,0.000000,FALSE,0,,,,
05:42:52.412 PM 03/25/2016,Teleop Enabled,10,FALSE,0,NO ERROR,-0.000000,6.743901,0.000000,-6.840151,TRUE,FALSE,FALSE,FALSE,FALSE,FALSE,Disabled,0.000000,0.000000,0.000000,TRUE,-0.007111,-0.015686,0.000000,-0.002716,0.056274,0.000000,-0.021000,0.288000,-0.229000,-1.450000,0.210000,1.500000,0.567729,Hold,0.353760,0.000000,ResetBack,20985.000000,-0.250000,Suck,-2362.500000,2400.000000,Speed,-2482.500000,2400.000000,Speed,Off,On,0.000000,FALSE,0,,,,
05:42:52.514 PM 03/25/2016,Teleop Enabled,11,FALSE,0,NO ERROR,-0.000000,6.743901,0.000000,-6.840151,TRUE,FALSE,FALSE,FALSE,FALSE,FALSE,Disabled,0.000000,0.000000,0.000000,TRUE,-0.007141,-0.012451,0.000000,0.005356,0.016739,0.000000,0.067000,0.285000,-0.147000,-1.450000,0.140000,1.490000,0.566270,Hold,0.353760,0.000000,ResetBack,22728.000000,-0.250000,Suck,-2452.500000,2400.000000,Speed,-2445.000000,2400.000000,Speed,Off,On,0.000000,FALSE,0,,,,
05:42:52.614 PM 03/25/2016,Teleop Enabled,10,FALSE,0,NO ERROR,-0.000000,6.743901,0.000000,-6.840151,TRUE,FALSE,FALSE,FALSE,FALSE,FALSE,Disabled,0.000000,0.000000,0.000000,TRUE,-0.008484,-0.005966,0.000000,-0.048080,0.154434,0.000000,-0.071000,-0.152000,0.166000,-1.450000,0.050000,1.590000,0.551763,Hold,0.353760,0.000000,ResetBack,22728.000000,-0.250000,Suck,-2362.500000,2400.000000,Speed,-2370.000000,2400.000000,Speed,Off,On,0.000000,FALSE,0,,,,
05:42:52.714 PM 03/25/2016,Teleop Enabled,11,FALSE,0,NO ERROR,-0.000000,6.743901,0.000000,-6.840151,TRUE,FALSE,FALSE,FALSE,FALSE,FALSE,Disabled,0.000000,0.000000,0.000000,TRUE,-0.010834,-0.003159,0.000000,-0.012299,-0.009628,0.000000,-0.087000,0.001000,0.003000,-1.440000,0.000000,1.630000,0.554909,Hold,0.353760,0.000000,ResetBack,22728.000000,-0.250000,Suck,-2317.500000,2400.000000,Speed,-2362.500000,2400.000000,Speed,Off,On,0.000000,FALSE,0,,,,
05:42:52.814 PM 03/25/2016,Teleop Enabled,12,FALSE,0,NO ERROR,-0.000000,6.743901,0.000000,-6.840151,TRUE,FALSE,FALSE,FALSE,FALSE,FALSE,Disabled,0.000000,0.000000,0.000000,TRUE,-0.012833,-0.001190,0.000000,-0.074158,0.104843,0.000000,0.070000,0.080000,-0.144000,-1.440000,0.010000,1.590000,0.560001,Hold,0.353760,0.000000,ResetBack,23077.000000,-0.250000,Suck,-2317.500000,2400.000000,Speed,-2377.500000,2400.000000,Speed,Off,On,0.000000,FALSE,0,,,,
05:42:52.915 PM 03/25/2016,Teleop Enabled,14,FALSE,0,NO ERROR,-0.000000,6.743901,0.000000,-6.840151,TRUE,FALSE,FALSE,FALSE,FALSE,FALSE,Disabled,0.000000,0.000000,0.000000,TRUE,-0.016953,0.004684,0.000000,-0.079086,0.088699,0.000000,0.093000,-0.145000,0.155000,-1.450000,0.010000,1.600000,0.558383,Hold,0.353760,0.000000,ResetBack,23206.000000,-0.250000,Suck,-2325.000000,2400.000000,Speed,-2377.500000,2400.000000,Speed,Off,On,0.000000,FALSE,0,,,,
05:42:53.017 PM 03/25/2016,Teleop Enabled,13,FALSE,0,NO ERROR,-0.000000,6.743901,0.000000,-6.840151,TRUE,FALSE,FALSE,FALSE,FALSE,FALSE,Disabled,0.000000,0.000000,0.000000,TRUE,-0.019333,0.007187,0.000000,-0.044327,0.048325,0.000000,0.009000,0.037000,-0.131000,-1.450000,-0.030000,1.510000,0.561640,Hold,0.353760,0.000000,ResetBack,23268.000000,-0.250000,Suck,-2310.000000,2400.000000,Speed,-2370.000000,2400.000000,Speed,Off,On,0.000000,FALSE,0,,,,
05:42:53.117 PM 03/25/2016,Teleop Enabled,11,FALSE,0,NO ERROR,-0.000000,6.743901,0.000000,-6.840151,TRUE,FALSE,FALSE,FALSE,FALSE,FALSE,Disabled,0.000000,0.000000,0.000000,TRUE,-0.021225,0.010025,0.000000,-0.035675,0.033203,0.000000,0.120000,0.011000,0.068000,-1.450000,0.060000,1.610000,0.546675,Hold,0.353760,0.000000,Reset,23268.000000,2.000000,Suck,-2325.000000,2400.000000,Speed,-2377.500000,2400.000000,Speed,Off,On,0.000000,FALSE,0,,,,
05:42:53.220 PM 03/25/2016,Teleop Enabled,12,FALSE,0,NO ERROR,-0.000000,6.743901,0.000000,-6.840151,TRUE,FALSE,FALSE,FALSE,FALSE,FALSE,Disabled,0.000000,0.000000,0.000000,TRUE,-0.022461,0.012115,0.000000,-0.043594,0.058472,0.000000,-0.156000,0.023000,0.056000,-1.440000,0.000000,1.590000,0.525620,Hold,0.353760,0.000000,Hold,24118.000000,2.000000,Suck,-2325.000000,2400.000000,Speed,-2377.500000,2400.000000,Speed,Off,On,0.000000,FALSE,0,,,,
05:42:53.320 PM 03/25/2016,Teleop Enabled,12,FALSE,0,NO ERROR,-0.000000,6.743901,0.000000,-6.840151,TRUE,FALSE,FALSE,FALSE,FALSE,FALSE,Disabled,0.000000,0.000000,0.000000,TRUE,-0.026947,0.014343,0.000000,-0.076584,0.009247,0.000000,0.098000,-0.144000,0.067000,-1.440000,0.000000,1.600000,0.519220,Hold,0.353760,0.000000,Hold,-101.000000,2.000000,Suck,-2325.000000,2400.000000,Speed,-2370.000000,2400.000000,Speed,Off,On,0.000000,FALSE,0,,,,
05:42:53.420 PM 03/25/2016,Teleop Enabled,11,FALSE,0,NO ERROR,-0.000000,6.743901,0.000000,-6.840151,TRUE,FALSE,FALSE,FALSE,FALSE,FALSE,Disabled,0.000000,0.000000,0.000000,TRUE,-0.031265,0.013779,0.000000,-0.095398,0.053040,0.000000,0.056000,0.227000,-0.112000,-1.430000,-0.050000,1.670000,0.506029,Hold,0.353760,0.000000,Hold,-101.000000,2.000000,Suck,-2325.000000,2400.000000,Speed,-2370.000000,2400.000000,Speed,Off,On,0.000000,FALSE,0,,,,
05:42:53.521 PM 03/25/2016,Teleop Enabled,14,FALSE,0,NO ERROR,-0.000000,6.743901,0.000000,-6.840151,TRUE,FALSE,FALSE,FALSE,FALSE,FALSE,Disabled,0.000000,0.000000,0.000000,TRUE,-0.036957,0.019669,0.000000,-0.120453,0.121429,0.000000,-0.002000,-0.170000,0.147000,-1.440000,-0.050000,1.710000,0.498816,Hold,0.353760,0.000000,Hold,-102.000000,2.000000,Suck,-2325.000000,2400.000000,Speed,-2370.000000,2400.000000,Speed,Off,On,0.000000,FALSE,0,,,,
05:42:53.622 PM 03/25/2016,Teleop Enabled,9,FALSE,0,NO ERROR,-0.000000,6.743901,0.000000,-6.589901,TRUE,FALSE,FALSE,FALSE,FALSE,FALSE,Disabled,0.000000,0.000000,0.000000,TRUE,-0.041794,0.022995,0.000000,-0.076355,0.063171,0.000000,0.074000,0.107000,-0.076000,-1.450000,-0.100000,1.600000,0.478746,Hold,0.353760,0.000000,Hold,-102.000000,2.000000,Suck,-2325.000000,2400.000000,Speed,-2385.000000,2400.000000,Speed,Off,On,0.000000,FALSE,0,,,,
05:42:53.722 PM 03/25/2016,Teleop Enabled,9,FALSE,0,NO ERROR,-0.000000,6.737484,0.000000,-6.570651,TRUE,FALSE,FALSE,FALSE,FALSE,FALSE,Disabled,0.000000,0.000000,0.000000,TRUE,-0.047638,0.030273,0.000000,-0.138916,0.173309,0.000000,-0.041000,-0.135000,-0.165000,-1.450000,-0.200000,1.610000,0.460893,Hold,0.353760,0.000000,Hold,-102.000000,2.000000,Suck,-2325.000000,2400.000000,Speed,-2385.000000,2400.000000,Speed,Off,On,0.000000,FALSE,0,,,,
05:42:53.823 PM 03/25/2016,Teleop Enabled,9,FALSE,0,NO ERROR,-0.000000,6.737484,0.000000,-6.570651,TRUE,FALSE,FALSE,FALSE,FALSE,FALSE,Disabled,0.000000,0.000000,0.000000,TRUE,-0.055405,0.033432,0.000000,-0.147247,0.006683,0.000000,0.072000,-0.036000,0.219000,-1.460000,-0.360000,1.430000,0.442575,Hold,0.353760,0.000000,Hold,-102.000000,2.000000,Suck,-2355.000000,2400.000000,Speed,-2385.000000,2400.000000,Speed,Off,On,0.000000,FALSE,0,,,,
05:42:53.923 PM 03/25/2016,Teleop Enabled,9,FALSE,0,NO ERROR,-0.000000,6.737484,0.000000,-6.570651,TRUE,FALSE,FALSE,FALSE,FALSE,FALSE,Disabled,0.000000,0.000000,0.000000,TRUE,-0.062531,0.036285,0.000000,-0.148911,0.120911,0.000000,-0.046000,-0.029000,-0.150000,-1.460000,-0.270000,1.530000,0.440369,Hold,0.353760,0.000000,Hold,-102.000000,2.000000,Suck,-2370.000000,2400.000000,Speed,-2385.000000,2400.000000,Speed,Off,On,0.000000,FALSE,0,,,,
05:42:54.024 PM 03/25/2016,Teleop Enabled,10,FALSE,0,NO ERROR,-0.000000,6.737484,0.000000,-6.570651,TRUE,FALSE,FALSE,FALSE,FALSE,FALSE,Disabled,0.000000,0.000000,0.000000,TRUE,-0.070297,0.040482,0.000000,-0.136627,0.018356,0.000000,-0.086000,-0.015000,0.027000,-1.450000,-0.410000,1.430000,0.441670,Hold,0.353760,0.000000,Hold,-102.000000,2.000000,Suck,-2385.000000,2400.000000,Speed,-2377.500000,2400.000000,Speed,Off,On,0.000000,FALSE,0,,,,
05:42:54.123 PM 03/25/2016,Teleop Enabled,8,FALSE,0,NO ERROR,-0.000000,6.737484,0.000000,-6.570651,TRUE,FALSE,FALSE,FALSE,FALSE,FALSE,Disabled,0.000000,0.000000,0.000000,TRUE,-0.078476,0.041595,0.000000,-0.178818,0.051468,0.000000,0.075000,0.011000,-0.293000,-1.460000,-0.360000,1.420000,0.450648,Hold,0.353760,0.000000,Hold,-102.000000,2.000000,Suck,-2370.000000,2400.000000,Speed,-2385.000000,2400.000000,Speed,Off,On,0.000000,FALSE,0,,,,
05:42:54.223 PM 03/25/2016,Teleop Enabled,9,FALSE,0,NO ERROR,-0.000000,6.737484,0.000000,-6.570651,TRUE,FALSE,FALSE,FALSE,FALSE,FALSE,Disabled,0.000000,0.000000,0.000000,TRUE,-0.086594,0.043610,0.000000,-0.149231,-0.000900,0.000000,0.012000,-0.002000,0.387000,-1.460000,-0.390000,1.470000,0.443123,Hold,0.353760,0.000000,Hold,-102.000000,2.000000,Suck,-2362.500000,2400.000000,Speed,-2377.500000,2400.000000,Speed,Off,On,0.000000,FALSE,0,,,,
05:42:54.323 PM 03/25/2016,Teleop Enabled,7,FALSE,0,NO ERROR,-0.000000,6.737484,0.000000,-6.570651,TRUE,FALSE,FALSE,FALSE,FALSE,FALSE,Disabled,0.000000,0.000000,0.000000,TRUE,-0.094131,0.042953,0.000000,-0.108246,0.008743,0.000000,0.012000,0.039000,-0.159000,-1.460000,-0.300000,1.450000,0.431635,Hold,0.353760,0.000000,Hold,-102.000000,2.000000,Suck,-2340.000000,2400.000000,Speed,-2370.000000,2400.000000,Speed,Off,On,0.000000,FALSE,0,,,,
05:42:54.423 PM 03/25/2016,Teleop Enabled,9,FALSE,0,NO ERROR,-0.000000,6.737484,0.000000,-6.570651,TRUE,FALSE,FALSE,FALSE,FALSE,FALSE,Disabled,0.000000,0.000000,0.000000,TRUE,-0.094177,0.043320,0.000000,-0.004532,-0.006790,0.000000,-0.029000,0.064000,-0.205000,-1.460000,-0.230000,1.420000,0.434761,Hold,0.353760,0.000000,Hold,-102.000000,2.000000,Suck,-2317.500000,2400.000000,Speed,-2370.000000,2400.000000,Speed,Off,On,0.000000,FALSE,0,,,,
05:42:54.523 PM 03/25/2016,Teleop Enabled,9,FALSE,0,NO ERROR,-0.000000,6.737484,0.000000,-6.570651,TRUE,FALSE,FALSE,FALSE,FALSE,FALSE,Disabled,0.000000,0.000000,0.000000,TRUE,-0.095581,0.047150,0.000000,-0.053085,0.098495,0.000000,0.055000,-0.067000,0.116000,-1.470000,-0.360000,1.550000,0.425270,Hold,0.353760,0.000000,Hold,-102.000000,2.000000,Suck,-2317.500000,2400.000000,Speed,-2385.000000,2400.000000,Speed,Off,On,0.000000,FALSE,0,,,,
05:42:54.623 PM 03/25/2016,Teleop Enabled,8,FALSE,0,NO ERROR,-0.000000,6.737484,0.000000,-6.564235,TRUE,FALSE,FALSE,FALSE,FALSE,FALSE,Disabled,0.000000,0.000000,0.000000,TRUE,-0.097366,0.048584,0.000000,-0.016800,-0.018784,0.000000,0.128000,-0.027000,-0.059000,-1.470000,-0.370000,1.440000,0.418939,Hold,0.353760,0.000000,Hold,-102.000000,2.000000,Suck,-2332.500000,2400.000000,Speed,-2385.000000,2400.000000,Speed,Off,On,0.000000,FALSE,0,,,,
05:42:54.723 PM 03/25/2016,Teleop Enabled,10,FALSE,0,NO ERROR,-0.000000,6.737484,0.000000,-6.564235,TRUE,FALSE,FALSE,FALSE,FALSE,FALSE,Disabled,0.000000,0.000000,0.000000,TRUE,-0.097168,0.050064,0.000000,0.015198,0.102509,0.000000,0.151000,0.226000,-0.176000,-1.470000,-0.400000,1.500000,0.432554,Hold,0.353760,0.000000,Hold,-102.000000,2.000000,Suck,-2340.000000,2400.000000,Speed,-2377.500000,2400.000000,Speed,Off,On,0.000000,FALSE,0,,,,
05:42:54.823 PM 03/25/2016,Teleop Enabled,10,FALSE,0,NO ERROR,-0.000000,6.737484,0.000000,-6.564235,TRUE,FALSE,FALSE,FALSE,FALSE,FALSE,Disabled,0.000000,0.000000,0.000000,TRUE,-0.096100,0.055237,0.000000,0.015411,0.049744,0.000000,-0.078000,-0.110000,0.403000,-1.470000,-0.460000,1.540000,0.438864,Hold,0.353760,0.000000,Hold,-102.000000,2.000000,Suck,-2317.500000,2400.000000,Speed,-2377.500000,2400.000000,Speed,Off,On,0.000000,FALSE,0,,,,
05:42:54.924 PM 03/25/2016,Teleop Enabled,9,FALSE,0,NO ERROR,-0.000000,6.737484,0.000000,-6.564235,TRUE,FALSE,FALSE,FALSE,FALSE,FALSE,Disabled,0.000000,0.000000,0.000000,TRUE,-0.094742,0.054993,0.000000,0.024780,-0.001175,0.000000,-0.214000,0.210000,-0.213000,-1.460000,-0.500000,1.410000,0.445784,Hold,0.353760,0.000000,Hold,-102.000000,2.000000,Suck,-2325.000000,2400.000000,Speed,-2377.500000,2400.000000,Speed,Off,On,0.000000,FALSE,0,,,,
05:42:55.024 PM 03/25/2016,Teleop Enabled,10,FALSE,0,NO ERROR,-0.000000,6.737484,0.000000,-6.564235,TRUE,FALSE,FALSE,FALSE,FALSE,FALSE,Disabled,0.000000,0.000000,0.000000,TRUE,-0.096497,0.057846,0.000000,-0.032867,0.048737,0.000000,0.066000,-0.247000,-0.146000,-1.470000,-0.470000,1.330000,0.443501,Hold,0.353760,0.000000,Hold,-103.000000,2.000000,Suck,-2355.000000,2400.000000,Speed,-2385.000000,2400.000000,Speed,Off,On,0.000000,FALSE,0,,,,
05:42:55.125 PM 03/25/2016,Teleop Enabled,10,FALSE,0,NO ERROR,-0.000000,6.737484,0.000000,-6.551401,TRUE,FALSE,FALSE,FALSE,FALSE,FALSE,Disabled,0.000000,0.000000,0.000000,TRUE,-0.096664,0.057602,0.000000,0.025543,-0.003525,0.000000,0.106000,0.042000,0.090000,-1.470000,-0.530000,1.360000,0.445970,Hold,0.353760,0.000000,Hold,-103.000000,2.000000,Suck,-2355.000000,2400.000000,Speed,-2377.500000,2400.000000,Speed,Off,On,0.000000,FALSE,0,,,,
05:42:55.226 PM 03/25/2016,Teleop Enabled,9,FALSE,0,NO ERROR,-0.000000,6.731068,0.000000,-6.544985,TRUE,FALSE,FALSE,FALSE,FALSE,FALSE,Disabled,0.000000,0.000000,0.000000,TRUE,-0.095779,0.057480,0.000000,0.001755,-0.012772,0.000000,0.090000,-0.165000,-0.202000,-1.480000,-0.560000,1.390000,0.459347,Hold,0.353760,0.000000,Hold,-103.000000,2.000000,Suck,-2340.000000,2400.000000,Speed,-2377.500000,2400.000000,Speed,Off,On,0.000000,FALSE,0,,,,
05:42:55.328 PM 03/25/2016,Teleop Enabled,8,FALSE,0,NO ERROR,-0.000000,6.731068,0.000000,-6.544985,TRUE,FALSE,FALSE,FALSE,FALSE,FALSE,Disabled,0.000000,0.000000,0.000000,TRUE,-0.094650,0.055069,0.000000,0.039291,-0.048737,0.000000,-0.073000,0.034000,0.228000,-1.480000,-0.520000,1.360000,0.461299,Hold,0.353760,0.000000,Hold,-103.000000,2.000000,Suck,-2340.000000,2400.000000,Speed,-2385.000000,2400.000000,Speed,Off,On,0.000000,FALSE,0,,,,
05:42:55.428 PM 03/25/2016,Teleop Enabled,8,FALSE,0,NO ERROR,-0.000000,6.731068,0.000000,-6.544985,TRUE,FALSE,FALSE,FALSE,FALSE,FALSE,Disabled,0.000000,0.000000,0.000000,TRUE,-0.092407,0.053482,0.000000,0.082047,-0.040222,0.000000,0.095000,-0.117000,-0.120000,-1.480000,-0.390000,1.280000,0.452242,Hold,0.353760,0.000000,Hold,-103.000000,2.000000,Suck,-2355.000000,2400.000000,Speed,-2385.000000,2400.000000,Speed,Off,On,0.000000,FALSE,0,,,,
05:42:55.529 PM 03/25/2016,Teleop Enabled,10,FALSE,0,NO ERROR,-0.000000,6.731068,0.000000,-6.544985,TRUE,FALSE,FALSE,FALSE,FALSE,FALSE,Disabled,0.000000,0.000000,0.000000,TRUE,-0.087311,0.051041,0.000000,0.066833,0.004608,0.000000,0.095000,-0.117000,-0.120000,-1.480000,-0.450000,1.290000,0.454638,Hold,0.353760,0.000000,Hold,-103.000000,2.000000,Suck,-2340.000000,2400.000000,Speed,-2385.000000,2400.000000,Speed,Off,On,0.000000,FALSE,0,,,,
05:42:55.628 PM 03/25/2016,Teleop Enabled,10,FALSE,0,NO ERROR,-0.000000,6.731068,0.000000,-6.544985,TRUE,FALSE,FALSE,FALSE,FALSE,FALSE,Disabled,0.000000,0.000000,0.000000,TRUE,-0.084473,0.051117,0.000000,0.072388,-0.029785,0.000000,-0.019000,0.080000,-0.043000,-1.480000,-0.500000,1.330000,0.438950,Hold,0.353760,0.000000,Hold,-103.000000,2.000000,Suck,-2347.500000,2400.000000,Speed,-2385.000000,2400.000000,Speed,Off,On,0.000000,FALSE,0,,,,
05:42:55.729 PM 03/25/2016,Teleop Enabled,9,FALSE,0,NO ERROR,-0.000000,6.731068,0.000000,-6.544985,TRUE,FALSE,FALSE,FALSE,FALSE,FALSE,Disabled,0.000000,0.000000,0.000000,TRUE,-0.079498,0.048325,0.000000,0.097351,-0.056091,0.000000,0.090000,-0.011000,0.117000,-1.480000,-0.400000,1.260000,0.432296,Hold,0.353760,0.000000,Hold,-103.000000,2.000000,Suck,-2347.500000,2400.000000,Speed,-2362.500000,2400.000000,Speed,Off,On,0.000000,FALSE,0,,,,
05:42:55.830 PM 03/25/2016,Teleop Enabled,11,FALSE,0,NO ERROR,-0.000000,6.731068,0.000000,-6.544985,TRUE,FALSE,FALSE,FALSE,FALSE,FALSE,Disabled,0.000000,0.000000,0.000000,TRUE,-0.076294,0.048676,0.000000,0.030167,0.017517,0.000000,-0.014000,0.085000,-0.079000,-1.480000,-0.400000,1.260000,0.429438,Hold,0.353760,0.000000,Hold,-103.000000,2.000000,Suck,-2340.000000,2400.000000,Speed,-2355.000000,2400.000000,Speed,Off,On,0.000000,FALSE,0,,,,
05:42:55.931 PM 03/25/2016,Teleop Enabled,11,FALSE,0,NO ERROR,-0.000000,6.731068,0.000000,-6.544985,TRUE,FALSE,FALSE,FALSE,FALSE,FALSE,Disabled,0.000000,0.000000,0.000000,TRUE,-0.072815,0.045227,0.000000,0.108109,-0.123566,0.000000,0.040000,-0.125000,0.007000,-1.490000,-0.530000,1.240000,0.438678,Hold,0.353760,0.000000,Hold,-103.000000,2.000000,Suck,-2347.500000,2400.000000,Speed,-2362.500000,2400.000000,Speed,Off,On,0.000000,FALSE,0,,,,
05:42:56.032 PM 03/25/2016,Teleop Enabled,11,FALSE,0,NO ERROR,-0.000000,6.731068,0.000000,-6.544985,TRUE,FALSE,FALSE,FALSE,FALSE,FALSE,Disabled,0.000000,0.000000,0.000000,TRUE,-0.067856,0.045258,0.000000,0.081818,0.083389,0.000000,0.040000,-0.125000,0.007000,-1.490000,-0.490000,1.300000,0.425445,Hold,0.354004,0.000000,Hold,-103.000000,2.000000,Suck,-2340.000000,2400.000000,Speed,-2362.500000,2400.000000,Speed,Off,On,0.000000,FALSE,0,,,,
05:42:56.133 PM 03/25/2016,Teleop Enabled,10,FALSE,0,NO ERROR,-0.000000,6.731068,0.000000,-6.544985,TRUE,FALSE,FALSE,FALSE,FALSE,FALSE,Disabled,0.000000,0.000000,0.000000,TRUE,-0.063843,0.050461,0.000000,0.096191,0.067917,0.000000,-0.015000,0.252000,-0.131000,-1.490000,-0.390000,1.420000,0.420780,Hold,0.354004,0.000000,Hold,-103.000000,2.000000,Suck,-2340.000000,2400.000000,Speed,-2362.500000,2400.000000,Speed,Off,On,0.000000,FALSE,0,,,,
05:42:56.234 PM 03/25/2016,Teleop Enabled,10,FALSE,0,NO ERROR,-0.000000,6.731068,0.000000,-6.538568,TRUE,FALSE,FALSE,FALSE,FALSE,FALSE,Disabled,0.000000,0.000000,0.000000,TRUE,-0.063843,0.050461,0.000000,0.096191,0.067917,0.000000,0.114000,-0.147000,0.210000,-1.510000,-0.220000,1.460000,0.433662,Hold,0.354004,0.000000,Hold,-103.000000,2.000000,Suck,-2355.000000,2400.000000,Speed,-2362.500000,2400.000000,Speed,Off,On,0.000000,FALSE,0,,,,
05:42:56.337 PM 03/25/2016,Teleop Enabled,9,FALSE,0,NO ERROR,-0.000000,6.731068,0.000000,-6.538568,TRUE,FALSE,FALSE,FALSE,FALSE,FALSE,Disabled,0.000000,0.000000,0.000000,TRUE,-0.053574,0.057816,0.000000,0.069916,0.141800,0.000000,0.038000,0.239000,-0.255000,-1.500000,-0.300000,1.310000,0.429941,Hold,0.354004,0.000000,Hold,-103.000000,2.000000,Suck,-2347.500000,2400.000000,Speed,-2362.500000,2400.000000,Speed,Off,On,0.000000,FALSE,0,,,,
05:42:56.437 PM 03/25/2016,Teleop Enabled,9,FALSE,0,NO ERROR,-0.000000,6.731068,0.000000,-6.538568,TRUE,FALSE,FALSE,FALSE,FALSE,FALSE,Disabled,0.000000,0.000000,0.000000,TRUE,-0.048553,0.060257,0.000000,0.119659,0.001022,0.000000,0.105000,-0.123000,0.194000,-1.510000,-0.260000,1.360000,0.421713,Hold,0.354004,0.000000,Hold,-103.000000,2.000000,Suck,-2340.000000,2400.000000,Speed,-2362.500000,2400.000000,Speed,Off,On,0.000000,FALSE,0,,,,
05:42:56.537 PM 03/25/2016,Teleop Enabled,9,FALSE,0,NO ERROR,-0.000000,6.731068,0.000000,-6.538568,TRUE,FALSE,FALSE,FALSE,FALSE,FALSE,Disabled,0.000000,0.000000,0.000000,TRUE,-0.043243,0.066055,0.000000,0.079788,0.198898,0.000000,-0.001000,0.193000,-0.009000,-1.510000,-0.230000,1.440000,0.435997,Hold,0.354004,0.000000,Hold,-103.000000,2.000000,Suck,-2362.500000,2400.000000,Speed,-2370.000000,2400.000000,Speed,Off,On,0.000000,FALSE,0,,,,
05:42:56.637 PM 03/25/2016,Teleop Enabled,10,FALSE,0,NO ERROR,-0.000000,6.731068,0.000000,-6.538568,TRUE,FALSE,FALSE,FALSE,FALSE,FALSE,Disabled,0.000000,0.000000,0.000000,TRUE,-0.039124,0.072968,0.000000,0.104797,0.060623,0.000000,-0.021000,-0.131000,-0.151000,-1.510000,-0.230000,1.440000,0.445519,Hold,0.354004,0.000000,Hold,-103.000000,2.000000,Suck,-2362.500000,2400.000000,Speed,-2385.000000,2400.000000,Speed,Off,On,0.000000,FALSE,0,,,,
05:42:56.738 PM 03/25/2016,Teleop Enabled,11,FALSE,0,NO ERROR,-0.000000,6.731068,0.000000,-6.538568,TRUE,FALSE,FALSE,FALSE,FALSE,FALSE,Disabled,0.000000,0.000000,0.000000,TRUE,-0.033432,0.077942,0.000000,0.000000,0.172272,0.000000,-0.016000,-0.003000,0.210000,-1.520000,-0.090000,1.440000,0.448035,Hold,0.354004,0.000000,Hold,-103.000000,2.000000,Suck,-2370.000000,2400.000000,Speed,-2392.500000,2400.000000,Speed,Off,On,0.000000,FALSE,0,,,,
05:42:56.839 PM 03/25/2016,Teleop Enabled,10,FALSE,0,NO ERROR,-0.000000,6.731068,0.000000,-6.538568,TRUE,FALSE,FALSE,FALSE,FALSE,FALSE,Disabled,0.000000,0.000000,0.000000,TRUE,-0.033508,0.086823,0.000000,0.018448,0.120361,0.000000,-0.018000,0.074000,-0.022000,-1.520000,0.080000,1.530000,0.449753,Hold,0.354004,0.000000,Hold,-103.000000,2.000000,Suck,-2362.500000,2400.000000,Speed,-2377.500000,2400.000000,Speed,Off,On,0.000000,FALSE,0,,,,
05:42:56.939 PM 03/25/2016,Teleop Enabled,10,FALSE,0,NO ERROR,-0.000000,6.731068,0.000000,-6.538568,TRUE,FALSE,FALSE,FALSE,FALSE,FALSE,Disabled,0.000000,0.000000,0.000000,TRUE,-0.033508,0.086823,0.000000,0.018448,0.120361,0.000000,0.160000,-0.209000,0.272000,-1.520000,0.120000,1.510000,0.464890,Hold,0.354004,0.000000,Hold,-103.000000,2.000000,Suck,-2370.000000,2400.000000,Speed,-2377.500000,2400.000000,Speed,Off,On,0.000000,FALSE,0,,,,
05:42:57.040 PM 03/25/2016,Teleop Enabled,10,FALSE,0,NO ERROR,-0.000000,6.731068,0.000000,-6.538568,TRUE,FALSE,FALSE,FALSE,FALSE,FALSE,Disabled,0.000000,0.000000,0.000000,TRUE,-0.027863,0.100906,0.000000,0.056778,0.110687,0.000000,0.141000,-0.257000,0.248000,-1.520000,0.260000,1.510000,0.459637,Hold,0.354004,0.000000,Hold,-103.000000,2.000000,Suck,-2370.000000,2400.000000,Speed,-2385.000000,2400.000000,Speed,Off,On,0.000000,FALSE,0,,,,
05:42:57.141 PM 03/25/2016,Teleop Enabled,10,FALSE,0,NO ERROR,-0.000000,6.731068,0.000000,-6.538568,TRUE,FALSE,FALSE,FALSE,FALSE,FALSE,Disabled,0.000000,0.000000,0.000000,TRUE,-0.026459,0.103195,0.000000,-0.020157,0.061401,0.000000,0.141000,-0.257000,0.248000,-1.520000,0.310000,1.470000,0.478509,Hold,0.354004,0.000000,Hold,-103.000000,2.000000,Suck,-2362.500000,2400.000000,Speed,-2385.000000,2400.000000,Speed,Off,On,0.000000,FALSE,0,,,,
05:42:57.246 PM 03/25/2016,Teleop Enabled,14,FALSE,0,NO ERROR,-0.000000,6.731068,0.000000,-6.538568,TRUE,FALSE,FALSE,FALSE,FALSE,FALSE,Disabled,0.000000,0.000000,0.000000,TRUE,-0.026459,0.103195,0.000000,-0.020157,0.061401,0.000000,-0.158000,0.220000,-0.177000,-1.520000,0.260000,1.360000,0.469221,Hold,0.354004,0.000000,Hold,-103.000000,2.000000,Suck,-2370.000000,2400.000000,Speed,-2377.500000,2400.000000,Speed,Off,On,0.000000,FALSE,0,,,,
05:42:57.346 PM 03/25/2016,Teleop Enabled,10,FALSE,0,NO ERROR,-0.000000,6.731068,0.000000,-6.538568,TRUE,FALSE,FALSE,FALSE,FALSE,FALSE,Disabled,0.000000,0.000000,0.000000,TRUE,-0.029007,0.107285,0.000000,0.020615,-0.031586,0.000000,0.111000,-0.160000,0.157000,-1.530000,0.170000,1.340000,0.468759,Hold,0.354004,0.000000,Hold,-103.000000,2.000000,Suck,-2385.000000,2400.000000,Speed,-2385.000000,2400.000000,Speed,Off,On,0.000000,FALSE,0,,,,
05:42:57.447 PM 03/25/2016,Teleop Enabled,10,FALSE,0,NO ERROR,-0.000000,6.731068,0.000000,-6.538568,TRUE,FALSE,FALSE,FALSE,FALSE,FALSE,Disabled,0.000000,0.000000,0.000000,TRUE,-0.029007,0.107285,0.000000,0.020615,-0.031586,0.000000,-0.201000,0.096000,-0.113000,-1.510000,0.140000,1.190000,0.482430,Hold,0.354004,0.000000,Hold,-103.000000,2.000000,Suck,-2362.500000,2400.000000,Speed,-2385.000000,2400.000000,Speed,Off,On,0.000000,FALSE,0,,,,
05:42:57.548 PM 03/25/2016,Teleop Enabled,10,FALSE,0,NO ERROR,-0.000000,6.731068,0.000000,-6.538568,TRUE,FALSE,FALSE,FALSE,FALSE,FALSE,Disabled,0.000000,0.000000,0.000000,TRUE,-0.031616,0.107986,0.000000,-0.079651,0.032059,0.000000,-0.054000,-0.099000,0.246000,-1.510000,-0.040000,1.190000,0.483442,Hold,0.354004,0.000000,Hold,-103.000000,2.000000,Suck,-2362.500000,2400.000000,Speed,-2385.000000,2400.000000,Speed,Off,On,0.000000,FALSE,0,,,,
05:42:57.648 PM 03/25/2016,Teleop Enabled,10,FALSE,0,NO ERROR,-0.000000,6.731068,0.000000,-6.538568,TRUE,FALSE,FALSE,FALSE,FALSE,FALSE,Disabled,0.000000,0.000000,0.000000,TRUE,-0.034821,0.105682,0.000000,-0.035950,-0.080093,0.000000,-0.065000,0.100000,-0.197000,-1.510000,-0.120000,1.120000,0.478333,Hold,0.354004,0.000000,Hold,-103.000000,2.000000,Suck,-2377.500000,2400.000000,Speed,-2377.500000,2400.000000,Speed,Off,On,0.000000,FALSE,0,,,,
05:42:57.749 PM 03/25/2016,Teleop Enabled,10,FALSE,0,NO ERROR,-0.000000,6.731068,0.000000,-6.538568,TRUE,FALSE,FALSE,FALSE,FALSE,FALSE,Disabled,0.000000,0.000000,0.000000,TRUE,-0.038284,0.104248,0.000000,-0.082138,0.000259,0.000000,0.047000,0.004000,0.047000,-1.520000,-0.070000,1.170000,0.478333,Hold,0.354004,0.000000,Hold,-103.000000,2.000000,Suck,-2370.000000,2400.000000,Speed,-2385.000000,2400.000000,Speed,Off,On,0.000000,FALSE,0,,,,
05:42:57.850 PM 03/25/2016,Teleop Enabled,10,FALSE,0,NO ERROR,-0.000000,6.731068,0.000000,-6.538568,TRUE,FALSE,FALSE,FALSE,FALSE,FALSE,Disabled,0.000000,0.000000,0.000000,TRUE,-0.039932,0.100616,0.000000,0.022781,-0.104401,0.000000,0.141000,0.039000,0.201000,-1.520000,0.070000,1.090000,0.475314,Hold,0.354004,0.000000,Hold,-103.000000,2.000000,Suck,-2362.500000,2400.000000,Speed,-2377.500000,2400.000000,Speed,Off,On,0.000000,FALSE,0,,,,
05:42:57.951 PM 03/25/2016,Teleop Enabled,11,FALSE,0,NO ERROR,-0.000000,6.731068,0.000000,-6.538568,TRUE,FALSE,FALSE,FALSE,FALSE,FALSE,Disabled,0.000000,0.000000,0.000000,TRUE,-0.039627,0.096939,0.000000,-0.039566,-0.047195,0.000000,0.102000,0.053000,0.052000,-1.510000,-0.160000,0.990000,0.471476,Hold,0.354004,0.000000,Hold,-103.000000,2.000000,Suck,-2377.500000,2400.000000,Speed,-2377.500000,2400.000000,Speed,Off,On,0.000000,FALSE,0,,,,
05:42:58.052 PM 03/25/2016,Teleop Enabled,9,FALSE,0,NO ERROR,-0.000000,6.731068,0.000000,-6.538568,TRUE,FALSE,FALSE,FALSE,FALSE,FALSE,Disabled,0.000000,0.000000,0.000000,TRUE,-0.041351,0.092590,0.000000,-0.023972,-0.081604,0.000000,-0.031000,0.091000,-0.073000,-1.520000,0.000000,0.950000,0.487239,Hold,0.354004,0.000000,Hold,-103.000000,2.000000,Suck,-2370.000000,2400.000000,Speed,-2385.000000,2400.000000,Speed,Off,On,0.000000,FALSE,0,,,,
05:42:58.153 PM 03/25/2016,Teleop Enabled,11,FALSE,0,NO ERROR,-0.000000,6.731068,0.000000,-6.538568,TRUE,FALSE,FALSE,FALSE,FALSE,FALSE,Disabled,0.000000,0.000000,0.000000,TRUE,-0.042221,0.090744,0.000000,-0.030060,-0.020782,0.000000,-0.055000,-0.054000,-0.261000,-1.520000,0.010000,0.970000,0.486416,Hold,0.354004,0.000000,Hold,-103.000000,2.000000,Suck,-2377.500000,2400.000000,Speed,-2385.000000,2400.000000,Speed,Off,On,0.000000,FALSE,0,,,,
05:42:58.254 PM 03/25/2016,Teleop Enabled,10,FALSE,0,NO ERROR,-0.000000,6.731068,0.000000,-6.538568,TRUE,FALSE,FALSE,FALSE,FALSE,FALSE,Disabled,0.000000,0.000000,0.000000,TRUE,-0.044510,0.088791,0.000000,-0.033203,-0.070618,0.000000,0.005000,-0.101000,0.208000,-1.530000,0.020000,0.910000,0.486946,Hold,0.354004,0.000000,Hold,-103.000000,2.000000,Suck,-2385.000000,2400.000000,Speed,-2385.000000,2400.000000,Speed,Off,On,0.000000,FALSE,0,,,,
05:42:58.354 PM 03/25/2016,Teleop Enabled,9,FALSE,0,NO ERROR,-0.000000,6.731068,0.000000,-6.538568,TRUE,FALSE,FALSE,FALSE,FALSE,FALSE,Disabled,0.000000,0.000000,0.000000,TRUE,-0.045288,0.083954,0.000000,-0.005737,-0.055038,0.000000,0.000000,-0.097000,-0.123000,-1.520000,0.000000,0.940000,0.480808,Hold,0.354004,0.000000,Hold,-103.000000,2.000000,Suck,-2377.500000,2400.000000,Speed,-2370.000000,2400.000000,Speed,Off,On,0.000000,FALSE,0,,,,
05:42:58.456 PM 03/25/2016,Teleop Enabled,11,FALSE,0,NO ERROR,-0.000000,6.731068,0.000000,-6.538568,TRUE,FALSE,FALSE,FALSE,FALSE,FALSE,Disabled,0.000000,0.000000,0.000000,TRUE,-0.045624,0.078506,0.000000,-0.010010,-0.146118,0.000000,0.015000,0.011000,0.276000,-1.520000,-0.110000,0.850000,0.470195,Hold,0.354004,0.000000,Hold,-103.000000,2.000000,Suck,-2370.000000,2400.000000,Speed,-2362.500000,2400.000000,Speed,Off,On,0.000000,FALSE,0,,,,
05:42:58.557 PM 03/25/2016,Teleop Enabled,10,FALSE,0,NO ERROR,-0.000000,6.731068,0.000000,-6.538568,TRUE,FALSE,FALSE,FALSE,FALSE,FALSE,Disabled,0.000000,0.000000,0.000000,TRUE,-0.045914,0.070389,0.000000,-0.027618,-0.159027,0.000000,-0.097000,0.060000,-0.144000,-1.530000,-0.200000,0.750000,0.466054,Hold,0.354004,0.000000,Hold,-103.000000,2.000000,Suck,-2377.500000,2400.000000,Speed,-2377.500000,2400.000000,Speed,Off,On,0.000000,FALSE,0,,,,
05:42:58.656 PM 03/25/2016,Teleop Enabled,10,FALSE,0,NO ERROR,-0.000000,6.731068,0.000000,-6.538568,TRUE,FALSE,FALSE,FALSE,FALSE,FALSE,Disabled,0.000000,0.000000,0.000000,TRUE,-0.048309,0.062653,0.000000,-0.024506,-0.180145,0.000000,0.179000,-0.073000,0.187000,-1.530000,-0.220000,0.810000,0.460322,Hold,0.354004,0.000000,Hold,-103.000000,2.000000,Suck,-2377.500000,2400.000000,Speed,-2377.500000,2400.000000,Speed,Off,On,0.000000,FALSE,0,,,,
05:42:58.757 PM 03/25/2016,Teleop Enabled,10,FALSE,0,NO ERROR,-0.000000,6.731068,0.000000,-6.538568,TRUE,FALSE,FALSE,FALSE,FALSE,FALSE,Disabled,0.000000,0.000000,0.000000,TRUE,-0.049042,0.052521,0.000000,-0.032990,-0.185547,0.000000,-0.120000,0.156000,-0.179000,-1.520000,-0.120000,0.690000,0.462490,Hold,0.354004,0.000000,Hold,-103.000000,2.000000,Suck,-2362.500000,2400.000000,Speed,-2370.000000,2400.000000,Speed,Off,On,0.000000,FALSE,0,,,,
05:42:58.856 PM 03/25/2016,Teleop Enabled,9,FALSE,0,NO ERROR,-0.000000,6.731068,0.000000,-6.538568,TRUE,FALSE,FALSE,FALSE,FALSE,FALSE,Disabled,0.000000,0.000000,0.000000,TRUE,-0.052551,0.045258,0.000000,-0.070984,-0.160172,0.000000,0.111000,-0.097000,0.032000,-1.520000,-0.210000,0.750000,0.451068,Hold,0.354004,0.000000,Hold,-103.000000,2.000000,Suck,-2325.000000,2400.000000,Speed,-2385.000000,2400.000000,Speed,Off,On,0.000000,FALSE,0,,,,
05:42:58.957 PM 03/25/2016,Teleop Enabled,10,FALSE,0,NO ERROR,-0.000000,6.731068,0.000000,-6.538568,TRUE,FALSE,FALSE,FALSE,FALSE,FALSE,Disabled,0.000000,0.000000,0.000000,TRUE,-0.055161,0.035889,0.000000,-0.055923,-0.189423,0.000000,0.081000,-0.099000,0.157000,-1.520000,-0.250000,0.770000,0.446541,Hold,0.354004,0.000000,Hold,-103.000000,2.000000,Suck,-2340.000000,2400.000000,Speed,-2385.000000,2400.000000,Speed,Off,On,0.000000,FALSE,0,,,,
05:42:59.057 PM 03/25/2016,Teleop Enabled,12,FALSE,0,NO ERROR,-0.000000,6.731068,0.000000,-6.538568,TRUE,FALSE,FALSE,FALSE,FALSE,FALSE,Disabled,0.000000,0.000000,0.000000,TRUE,-0.056458,0.024200,0.000000,-0.018021,-0.251282,0.000000,-0.080000,0.017000,-0.285000,-1.520000,-0.080000,0.770000,0.436465,Hold,0.354004,0.000000,Hold,-103.000000,2.000000,Suck,-2377.500000,2400.000000,Speed,-2377.500000,2400.000000,Speed,Off,On,0.000000,FALSE,0,,,,
05:42:59.158 PM 03/25/2016,Teleop Enabled,10,FALSE,0,NO ERROR,-0.000000,6.731068,0.000000,-6.538568,TRUE,FALSE,FALSE,FALSE,FALSE,FALSE,Disabled,0.000000,0.000000,0.000000,TRUE,-0.059555,0.027512,0.000000,-0.070557,0.127182,0.000000,-0.018000,-0.049000,0.102000,-1.520000,-0.080000,0.900000,0.450218,Hold,0.354004,0.000000,Hold,-103.000000,2.000000,Suck,-2385.000000,2400.000000,Speed,-2385.000000,2400.000000,Speed,Off,On,0.000000,FALSE,0,,,,
05:42:59.259 PM 03/25/2016,Teleop Enabled,11,FALSE,0,NO ERROR,-0.000000,6.731068,0.000000,-6.538568,TRUE,FALSE,FALSE,FALSE,FALSE,FALSE,Disabled,0.000000,0.000000,0.000000,TRUE,-0.061966,0.032471,0.000000,0.000000,0.069275,0.000000,-0.054000,0.043000,-0.029000,-1.520000,-0.010000,0.960000,0.434069,Hold,0.354004,0.000000,Hold,-103.000000,2.000000,Suck,-2385.000000,2400.000000,Speed,-2385.000000,2400.000000,Speed,Off,On,0.000000,FALSE,0,,,,
05:42:59.359 PM 03/25/2016,Teleop Enabled,11,FALSE,0,NO ERROR,-0.000000,6.731068,0.000000,-6.538568,TRUE,FALSE,FALSE,FALSE,FALSE,FALSE,Disabled,0.000000,0.000000,0.000000,TRUE,-0.061859,0.037354,0.000000,0.012695,0.123489,0.000000,-0.009000,-0.036000,0.018000,-1.520000,0.020000,1.000000,0.439887,Hold,0.354004,0.000000,Hold,-103.000000,2.000000,Suck,-2370.000000,2400.000000,Speed,-2377.500000,2400.000000,Speed,Off,On,0.000000,FALSE,0,,,,
05:42:59.459 PM 03/25/2016,Teleop Enabled,11,FALSE,0,NO ERROR,-0.000000,6.731068,0.000000,-6.538568,TRUE,FALSE,FALSE,FALSE,FALSE,FALSE,Disabled,0.000000,0.000000,0.000000,TRUE,-0.059967,0.041718,0.000000,0.068130,0.040482,0.000000,-0.060000,0.028000,-0.004000,-1.520000,0.000000,1.070000,0.449832,Hold,0.354004,0.000000,Hold,-103.000000,2.000000,Suck,-2362.500000,2400.000000,Speed,-2377.500000,2400.000000,Speed,Off,On,0.000000,FALSE,0,,,,
05:42:59.559 PM 03/25/2016,Teleop Enabled,10,FALSE,0,NO ERROR,-0.000000,6.731068,0.000000,-6.538568,TRUE,FALSE,FALSE,FALSE,FALSE,FALSE,Disabled,0.000000,0.000000,0.000000,TRUE,-0.058167,0.047165,0.000000,0.018509,0.175858,0.000000,-0.073000,0.112000,-0.039000,-1.520000,0.100000,1.240000,0.448094,Hold,0.354004,0.000000,Hold,-103.000000,2.000000,Suck,-2370.000000,2400.000000,Speed,-2370.000000,2400.000000,Speed,Off,On,0.000000,FALSE,0,,,,
05:42:59.659 PM 03/25/2016,Teleop Enabled,11,FALSE,0,NO ERROR,-0.000000,6.731068,0.000000,-6.538568,TRUE,FALSE,FALSE,FALSE,FALSE,FALSE,Disabled,0.000000,0.000000,0.000000,TRUE,-0.058212,0.055191,0.000000,0.020538,0.194931,0.000000,0.085000,-0.189000,-0.022000,-1.520000,0.110000,1.380000,0.452762,Hold,0.354004,0.000000,Hold,-103.000000,2.000000,Suck,-2385.000000,2400.000000,Speed,-2370.000000,2400.000000,Speed,Off,On,0.000000,FALSE,0,,,,
05:42:59.760 PM 03/25/2016,Teleop Enabled,10,FALSE,0,NO ERROR,-0.000000,6.731068,0.000000,-6.538568,TRUE,FALSE,FALSE,FALSE,FALSE,FALSE,Disabled,0.000000,0.000000,0.000000,TRUE,-0.055206,0.062607,0.000000,0.066803,0.167160,0.000000,0.017000,0.169000,-0.031000,-1.530000,0.160000,1.360000,0.468770,Hold,0.354004,0.000000,Hold,-103.000000,2.000000,Suck,-2392.500000,2400.000000,Speed,-2370.000000,2400.000000,Speed,Off,On,0.000000,FALSE,0,,,,
05:42:59.861 PM 03/25/2016,Teleop Enabled,10,FALSE,0,NO ERROR,-0.000000,6.731068,0.000000,-6.538568,TRUE,FALSE,FALSE,FALSE,FALSE,FALSE,Disabled,0.000000,0.000000,0.000000,TRUE,-0.050964,0.074783,0.000000,0.066422,0.171173,0.000000,0.037000,-0.118000,-0.130000,-1.530000,0.140000,1.490000,0.469055,Hold,0.354004,0.000000,Hold,-103.000000,2.000000,Suck,-2370.000000,2400.000000,Speed,-2385.000000,2400.000000,Speed,Off,On,0.000000,FALSE,0,,,,
05:42:59.961 PM 03/25/2016,Teleop Enabled,11,FALSE,0,NO ERROR,-0.000000,6.731068,0.000000,-6.538568,TRUE,FALSE,FALSE,FALSE,FALSE,FALSE,Disabled,0.000000,0.000000,0.000000,TRUE,-0.047058,0.084183,0.000000,0.068115,0.251343,0.000000,-0.115000,0.213000,-0.086000,-1.520000,0.110000,1.600000,0.472739,Hold,0.354004,0.000000,Hold,-103.000000,2.000000,Suck,-2370.000000,2400.000000,Speed,-2385.000000,2400.000000,Speed,Off,On,0.000000,FALSE,0,,,,
05:43:00.062 PM 03/25/2016,Teleop Enabled,10,FALSE,0,NO ERROR,-0.000000,6.731068,0.000000,-6.538568,TRUE,FALSE,FALSE,FALSE,FALSE,FALSE,Disabled,0.000000,0.000000,0.000000,TRUE,-0.046204,0.099106,0.000000,0.013718,0.272064,0.000000,0.080000,-0.178000,0.077000,-1.530000,0.150000,1.660000,0.478485,Hold,0.354004,0.000000,Hold,-103.000000,2.000000,Suck,-2355.000000,2400.000000,Speed,-2385.000000,2400.000000,Speed,Off,On,0.000000,FALSE,0,,,,
05:43:00.162 PM 03/25/2016,Teleop Enabled,11,FALSE,0,NO ERROR,-0.000000,6.731068,0.000000,-6.538568,TRUE,FALSE,FALSE,FALSE,FALSE,FALSE,Disabled,0.000000,0.000000,0.000000,TRUE,-0.044662,0.110001,0.000000,0.032028,0.233597,0.000000,0.029000,0.291000,-0.175000,-1.530000,0.180000,1.600000,0.483858,Hold,0.354004,0.000000,Hold,-103.000000,2.000000,Suck,-2370.000000,2400.000000,Speed,-2385.000000,2400.000000,Speed,Off,On,0.000000,FALSE,0,,,,
05:43:00.263 PM 03/25/2016,Teleop Enabled,10,FALSE,0,NO ERROR,-0.000000,6.731068,0.000000,-6.538568,TRUE,FALSE,FALSE,FALSE,FALSE,FALSE,Disabled,0.000000,0.000000,0.000000,TRUE,-0.042328,0.126160,0.000000,0.066544,0.319138,0.000000,0.081000,-0.184000,-0.019000,-1.540000,0.410000,1.690000,0.494035,Hold,0.354004,0.000000,Hold,-103.000000,2.000000,Suck,-2370.000000,2400.000000,Speed,-2385.000000,2400.000000,Speed,Off,On,0.000000,FALSE,0,,,,
05:43:00.363 PM 03/25/2016,Teleop Enabled,10,FALSE,0,NO ERROR,-0.000000,6.724651,0.000000,-6.532151,TRUE,FALSE,FALSE,FALSE,FALSE,FALSE,Disabled,0.000000,0.000000,0.000000,TRUE,-0.034912,0.138916,0.000000,0.155411,0.214203,0.000000,0.023000,0.239000,-0.182000,-1.540000,0.640000,1.730000,0.493140,Hold,0.354004,0.000000,Hold,-103.000000,2.000000,Suck,-2377.500000,2400.000000,Speed,-2392.500000,2400.000000,Speed,Off,On,0.000000,FALSE,0,,,,
05:43:00.462 PM 03/25/2016,Teleop Enabled,9,FALSE,0,NO ERROR,-0.000000,6.724651,0.000000,-6.532151,TRUE,FALSE,FALSE,FALSE,FALSE,FALSE,Disabled,0.000000,0.000000,0.000000,TRUE,-0.029541,0.150665,0.000000,0.106186,0.298386,0.000000,0.086000,-0.136000,0.161000,-1.550000,0.540000,1.800000,0.499013,Hold,0.354004,0.000000,Hold,-103.000000,2.000000,Suck,-2377.500000,2400.000000,Speed,-2392.500000,2400.000000,Speed,Off,On,0.000000,FALSE,0,,,,
05:43:00.563 PM 03/25/2016,Teleop Enabled,10,FALSE,0,NO ERROR,-0.000000,6.724651,0.000000,-6.532151,TRUE,FALSE,FALSE,FALSE,FALSE,FALSE,Disabled,0.000000,0.000000,0.000000,TRUE,-0.024414,0.160217,0.000000,0.000000,0.112839,0.000000,-0.069000,0.153000,-0.009000,-1.540000,0.590000,1.710000,0.489222,Hold,0.354004,0.000000,Hold,-103.000000,2.000000,Suck,-2355.000000,2400.000000,Speed,-2385.000000,2400.000000,Speed,Off,On,0.000000,FALSE,0,,,,
05:43:00.663 PM 03/25/2016,Teleop Enabled,10,FALSE,0,NO ERROR,-0.000000,6.724651,0.000000,-6.525735,TRUE,FALSE,FALSE,FALSE,FALSE,FALSE,Disabled,0.000000,0.000000,0.000000,TRUE,-0.026199,0.169861,0.000000,-0.061127,0.260910,0.000000,-0.117000,-0.108000,-0.147000,-1.540000,0.530000,1.670000,0.483142,Hold,0.354004,0.000000,Hold,-103.000000,2.000000,Suck,-2355.000000,2400.000000,Speed,-2385.000000,2400.000000,Speed,Off,On,0.000000,FALSE,0,,,,
05:43:00.762 PM 03/25/2016,Teleop Enabled,10,FALSE,0,NO ERROR,-0.000000,6.724651,0.000000,-6.525735,TRUE,FALSE,FALSE,FALSE,FALSE,FALSE,Disabled,0.000000,0.000000,0.000000,TRUE,-0.030807,0.179352,0.000000,-0.063721,0.058487,0.000000,-0.019000,0.045000,0.153000,-1.540000,0.270000,1.510000,0.483063,Hold,0.354004,0.000000,Hold,-103.000000,2.000000,Suck,-2362.500000,2400.000000,Speed,-2392.500000,2400.000000,Speed,Off,On,0.000000,FALSE,0,,,,
05:43:00.863 PM 03/25/2016,Teleop Enabled,9,FALSE,0,NO ERROR,-0.000000,6.724651,0.000000,-6.525735,TRUE,FALSE,FALSE,FALSE,FALSE,FALSE,Disabled,0.000000,0.000000,0.000000,TRUE,-0.033066,0.185806,0.000000,-0.047440,0.166153,0.000000,0.083000,0.069000,-0.105000,-1.530000,0.320000,1.490000,0.485934,Hold,0.354004,0.000000,Hold,-103.000000,2.000000,Suck,-2332.500000,2400.000000,Speed,-2385.000000,2400.000000,Speed,Off,On,0.000000,FALSE,0,,,,
05:43:00.963 PM 03/25/2016,Teleop Enabled,10,FALSE,0,NO ERROR,-0.000000,6.724651,0.000000,-6.525735,TRUE,FALSE,FALSE,FALSE,FALSE,FALSE,Disabled,0.000000,0.000000,0.000000,TRUE,-0.034821,0.193527,0.000000,-0.039124,0.115662,0.000000,0.047000,-0.106000,0.139000,-1.540000,0.330000,1.570000,0.476154,Hold,0.354004,0.000000,Hold,-103.000000,2.000000,Suck,-2325.000000,2400.000000,Speed,-2377.500000,2400.000000,Speed,Off,On,0.000000,FALSE,0,,,,
05:43:01.064 PM 03/25/2016,Teleop Enabled,10,FALSE,0,NO ERROR,-0.000000,6.724651,0.000000,-6.525735,TRUE,FALSE,FALSE,FALSE,FALSE,FALSE,Disabled,0.000000,0.000000,0.000000,TRUE,-0.035828,0.198380,0.000000,-0.021912,0.113602,0.000000,0.020000,-0.048000,-0.053000,-1.530000,0.190000,1.570000,0.476743,Hold,0.354004,0.000000,Hold,-103.000000,2.000000,Suck,-2355.000000,2400.000000,Speed,-2377.500000,2400.000000,Speed,Off,On,0.000000,FALSE,0,,,,
05:43:01.163 PM 03/25/2016,Teleop Enabled,10,FALSE,0,NO ERROR,-0.000000,6.724651,0.000000,-6.525735,TRUE,FALSE,FALSE,FALSE,FALSE,FALSE,Disabled,0.000000,0.000000,0.000000,TRUE,-0.038513,0.203201,0.000000,-0.073486,0.089859,0.000000,0.100000,0.181000,0.144000,-1.530000,0.060000,1.470000,0.484822,Hold,0.354004,0.000000,Hold,-103.000000,2.000000,Suck,-2340.000000,2400.000000,Speed,-2385.000000,2400.000000,Speed,Off,On,0.000000,FALSE,0,,,,
05:43:01.263 PM 03/25/2016,Teleop Enabled,10,FALSE,0,NO ERROR,-0.000000,6.724651,0.000000,-6.525735,TRUE,FALSE,FALSE,FALSE,FALSE,FALSE,Disabled,0.000000,0.000000,0.000000,TRUE,-0.041183,0.209991,0.000000,-0.060028,0.162460,0.000000,-0.084000,-0.118000,0.149000,-1.540000,0.170000,1.550000,0.489060,Hold,0.354004,0.000000,Hold,-103.000000,2.000000,Suck,-2332.500000,2400.000000,Speed,-2377.500000,2400.000000,Speed,Off,On,0.000000,FALSE,0,,,,
05:43:01.364 PM 03/25/2016,Teleop Enabled,10,FALSE,0,NO ERROR,-0.000000,6.724651,0.000000,-6.525735,TRUE,FALSE,FALSE,FALSE,FALSE,FALSE,Disabled,0.000000,0.000000,0.000000,TRUE,-0.044617,0.215958,0.000000,-0.056229,0.093094,0.000000,0.013000,-0.064000,0.095000,-1.530000,0.130000,1.420000,0.501880,Hold,0.354004,0.000000,Hold,-103.000000,2.000000,Suck,-2340.000000,2400.000000,Speed,-2377.500000,2400.000000,Speed,Off,On,0.000000,FALSE,0,,,,
05:43:01.464 PM 03/25/2016,Teleop Enabled,9,FALSE,0,NO ERROR,-0.000000,6.724651,0.000000,-6.525735,TRUE,FALSE,FALSE,FALSE,FALSE,FALSE,Disabled,0.000000,0.000000,0.000000,TRUE,-0.047562,0.222290,0.000000,-0.045731,0.187576,0.000000,-0.042000,-0.056000,-0.070000,-1.530000,0.130000,1.370000,0.510721,Hold,0.354004,0.000000,Hold,-103.000000,2.000000,Suck,-2347.500000,2400.000000,Speed,-2370.000000,2400.000000,Speed,Off,On,0.000000,FALSE,0,,,,
05:43:01.563 PM 03/25/2016,Teleop Enabled,10,FALSE,0,NO ERROR,-0.000000,6.724651,0.000000,-6.525735,TRUE,FALSE,FALSE,FALSE,FALSE,FALSE,Disabled,0.000000,0.000000,0.000000,TRUE,-0.052094,0.232132,0.000000,-0.076019,0.098984,0.000000,0.112000,-0.147000,0.007000,-1.540000,0.000000,1.310000,0.518880,Hold,0.354004,0.000000,Hold,-103.000000,2.000000,Suck,-2332.500000,2400.000000,Speed,-2370.000000,2400.000000,Speed,Off,On,0.000000,FALSE,0,,,,
05:43:01.664 PM 03/25/2016,Teleop Enabled,9,FALSE,0,NO ERROR,-0.000000,6.724651,0.000000,-6.525735,TRUE,FALSE,FALSE,FALSE,FALSE,FALSE,Disabled,0.000000,0.000000,0.000000,TRUE,-0.054993,0.236282,0.000000,-0.060806,0.121948,0.000000,-0.060000,0.216000,-0.159000,-1.530000,0.040000,1.310000,0.518253,Hold,0.354004,0.000000,Hold,-103.000000,2.000000,Suck,-2340.000000,2400.000000,Speed,-2362.500000,2400.000000,Speed,Off,On,0.000000,FALSE,0,,,,
05:43:01.764 PM 03/25/2016,Teleop Enabled,10,FALSE,0,NO ERROR,-0.000000,6.724651,0.000000,-6.525735,TRUE,FALSE,FALSE,FALSE,FALSE,FALSE,Disabled,0.000000,0.000000,0.000000,TRUE,-0.058273,0.242798,0.000000,-0.098953,0.145905,0.000000,0.047000,-0.140000,0.202000,-1.540000,-0.110000,1.330000,0.525479,Hold,0.354004,0.000000,Hold,-103.000000,2.000000,Suck,-2340.000000,2400.000000,Speed,-2362.500000,2400.000000,Speed,Off,On,0.000000,FALSE,0,,,,
05:43:01.864 PM 03/25/2016,Teleop Enabled,10,FALSE,0,NO ERROR,-0.000000,6.724651,0.000000,-6.525735,TRUE,FALSE,FALSE,FALSE,FALSE,FALSE,Disabled,0.000000,0.000000,0.000000,TRUE,-0.062057,0.245682,0.000000,-0.047791,0.010330,0.000000,0.071000,0.147000,0.085000,-1.530000,-0.290000,1.300000,0.521520,Hold,0.354004,0.000000,Hold,-103.000000,2.000000,Suck,-2332.500000,2400.000000,Speed,-2370.000000,2400.000000,Speed,Off,On,0.000000,FALSE,0,,,,
05:43:01.964 PM 03/25/2016,Teleop Enabled,9,FALSE,0,NO ERROR,-0.000000,6.724651,0.000000,-6.525735,TRUE,FALSE,FALSE,FALSE,FALSE,FALSE,Disabled,0.000000,0.000000,0.000000,TRUE,-0.064514,0.251007,0.000000,-0.079544,0.190445,0.000000,0.076000,-0.047000,-0.160000,-1.520000,-0.250000,1.410000,0.513950,Hold,0.354004,0.000000,Hold,-103.000000,2.000000,Suck,-2332.500000,2400.000000,Speed,-2362.500000,2400.000000,Speed,Off,On,0.000000,FALSE,0,,,,
05:43:02.065 PM 03/25/2016,Teleop Enabled,9,FALSE,0,NO ERROR,-0.000000,6.724651,0.000000,-6.525735,TRUE,FALSE,FALSE,FALSE,FALSE,FALSE,Disabled,0.000000,0.000000,0.000000,TRUE,-0.068008,0.259323,0.000000,-0.042801,0.059448,0.000000,0.120000,-0.132000,0.356000,-1.530000,-0.240000,1.430000,0.518501,Hold,0.354004,0.000000,Hold,-103.000000,2.000000,Suck,-2340.000000,2400.000000,Speed,-2362.500000,2400.000000,Speed,Off,On,0.000000,FALSE,0,,,,
05:43:02.164 PM 03/25/2016,Teleop Enabled,10,FALSE,0,NO ERROR,-0.000000,6.724651,0.000000,-6.525735,TRUE,FALSE,FALSE,FALSE,FALSE,FALSE,Disabled,0.000000,0.000000,0.000000,TRUE,-0.069565,0.261688,0.000000,-0.032761,0.103149,0.000000,-0.048000,0.208000,-0.153000,-1.520000,-0.120000,1.450000,0.521210,Hold,0.354004,0.000000,Hold,-103.000000,2.000000,Suck,-2332.500000,2400.000000,Speed,-2370.000000,2400.000000,Speed,Off,On,0.000000,FALSE,0,,,,
05:43:02.264 PM 03/25/2016,Teleop Enabled,10,FALSE,0,NO ERROR,-0.000000,6.724651,0.000000,-6.525735,TRUE,FALSE,FALSE,FALSE,FALSE,FALSE,Disabled,0.000000,0.000000,0.000000,TRUE,-0.072174,0.271408,0.000000,-0.051056,0.222626,0.000000,0.112000,-0.090000,-0.001000,-1.530000,-0.030000,1.670000,0.535087,Hold,0.354004,0.000000,Hold,-103.000000,2.000000,Suck,-2347.500000,2400.000000,Speed,-2370.000000,2400.000000,Speed,Off,On,0.000000,FALSE,0,,,,
05:43:02.365 PM 03/25/2016,Teleop Enabled,9,FALSE,0,NO ERROR,-0.000000,6.724651,0.000000,-6.525735,TRUE,FALSE,FALSE,FALSE,FALSE,FALSE,Disabled,0.000000,0.000000,0.000000,TRUE,-0.072891,0.280380,0.000000,0.003342,0.164261,0.000000,-0.041000,0.098000,-0.156000,-1.530000,0.030000,1.580000,0.528044,Hold,0.354004,0.000000,Hold,-103.000000,2.000000,Suck,-2362.500000,2400.000000,Speed,-2362.500000,2400.000000,Speed,Off,On,0.000000,FALSE,0,,,,
05:43:02.464 PM 03/25/2016,Teleop Enabled,10,FALSE,0,NO ERROR,-0.000000,6.724651,0.000000,-6.525735,TRUE,FALSE,FALSE,FALSE,FALSE,FALSE,Disabled,0.000000,0.000000,0.000000,TRUE,-0.073990,0.290344,0.000000,-0.043686,0.220413,0.000000,-0.026000,0.022000,-0.215000,-1.530000,0.070000,1.580000,0.518095,Hold,0.354004,0.000000,Hold,-103.000000,2.000000,Suck,-2370.000000,2400.000000,Speed,-2370.000000,2400.000000,Speed,Off,On,0.000000,FALSE,0,,,,
05:43:02.565 PM 03/25/2016,Teleop Enabled,10,FALSE,0,NO ERROR,-0.000000,6.724651,0.000000,-6.525735,TRUE,FALSE,FALSE,FALSE,FALSE,FALSE,Disabled,0.000000,0.000000,0.000000,TRUE,-0.073914,0.298111,0.000000,0.017685,0.115005,0.000000,-0.026000,0.022000,-0.215000,-1.520000,0.000000,1.590000,0.515502,Hold,0.354004,0.000000,Hold,-103.000000,2.000000,Suck,-2385.000000,2400.000000,Speed,-2385.000000,2400.000000,Speed,Off,On,0.000000,FALSE,0,,,,
05:43:02.665 PM 03/25/2016,Teleop Enabled,10,FALSE,0,NO ERROR,-0.000000,6.724651,0.000000,-6.525735,TRUE,FALSE,FALSE,FALSE,FALSE,FALSE,Disabled,0.000000,0.000000,0.000000,TRUE,-0.073624,0.306549,0.000000,-0.010483,0.202148,0.000000,-0.079000,0.028000,-0.091000,-1.520000,0.000000,1.590000,0.522949,Hold,0.354004,0.000000,Hold,-103.000000,2.000000,Suck,-2362.500000,2400.000000,Speed,-2392.500000,2400.000000,Speed,Off,On,0.000000,FALSE,0,,,,
05:43:02.765 PM 03/25/2016,Teleop Enabled,10,FALSE,0,NO ERROR,-0.000000,6.724651,0.000000,-6.525735,TRUE,FALSE,FALSE,FALSE,FALSE,FALSE,Disabled,0.000000,0.000000,0.000000,TRUE,-0.075562,0.315994,0.000000,-0.036606,0.170044,0.000000,-0.079000,0.028000,-0.091000,-1.520000,-0.010000,1.580000,0.522563,Hold,0.354004,0.000000,Hold,-103.000000,2.000000,Suck,-2347.500000,2400.000000,Speed,-2392.500000,2400.000000,Speed,Off,On,0.000000,FALSE,0,,,,
05:43:02.866 PM 03/25/2016,Teleop Enabled,10,FALSE,0,NO ERROR,-0.000000,6.724651,0.000000,-6.525735,TRUE,FALSE,FALSE,FALSE,FALSE,FALSE,Disabled,0.000000,0.000000,0.000000,TRUE,-0.076187,0.316071,0.000000,0.017380,-0.008209,0.000000,0.067000,-0.008000,0.247000,-1.520000,-0.100000,1.520000,0.513791,Hold,0.354004,0.000000,Hold,-103.000000,2.000000,Suck,-2347.500000,2400.000000,Speed,-2377.500000,2400.000000,Speed,Off,On,0.000000,FALSE,0,,,,
05:43:02.966 PM 03/25/2016,Teleop Enabled,10,FALSE,0,NO ERROR,-0.000000,6.724651,0.000000,-6.525735,TRUE,FALSE,FALSE,FALSE,FALSE,FALSE,Disabled,0.000000,0.000000,0.000000,TRUE,-0.076370,0.315430,0.000000,-0.018570,0.005920,0.000000,-0.019000,-0.093000,-0.055000,-1.510000,-0.170000,1.520000,0.530750,Hold,0.354004,0.000000,Hold,-103.000000,2.000000,Suck,-2332.500000,2400.000000,Speed,-2385.000000,2400.000000,Speed,Off,On,0.000000,FALSE,0,,,,
05:43:03.067 PM 03/25/2016,Teleop Enabled,11,FALSE,0,NO ERROR,-0.000000,6.724651,0.000000,-6.525735,TRUE,FALSE,FALSE,FALSE,FALSE,FALSE,Disabled,0.000000,0.000000,0.000000,TRUE,-0.078049,0.315720,0.000000,-0.064194,-0.043259,0.000000,0.033000,0.037000,-0.018000,-1.510000,-0.150000,1.540000,0.526364,Hold,0.354004,0.000000,Hold,-103.000000,2.000000,Suck,-2340.000000,2400.000000,Speed,-2377.500000,2400.000000,Speed,Off,On,0.000000,FALSE,0,,,,
05:43:03.168 PM 03/25/2016,Teleop Enabled,10,FALSE,0,NO ERROR,-0.000000,6.724651,0.000000,-6.525735,TRUE,FALSE,FALSE,FALSE,FALSE,FALSE,Disabled,0.000000,0.000000,0.000000,TRUE,-0.079971,0.308716,0.000000,-0.037735,-0.145721,0.000000,0.015000,-0.239000,0.148000,-1.520000,-0.090000,1.560000,0.507815,Hold,0.354004,0.000000,Hold,-103.000000,2.000000,Suck,-2340.000000,2400.000000,Speed,-2362.500000,2400.000000,Speed,Off,On,0.000000,FALSE,0,,,,
05:43:03.269 PM 03/25/2016,Teleop Enabled,10,FALSE,0,NO ERROR,-0.000000,6.724651,0.000000,-6.525735,TRUE,FALSE,FALSE,FALSE,FALSE,FALSE,Disabled,0.000000,0.000000,0.000000,TRUE,-0.082840,0.309311,0.000000,-0.051453,0.079636,0.000000,-0.063000,0.359000,-0.222000,-1.510000,-0.200000,1.480000,0.499908,Hold,0.354004,0.000000,Hold,-103.000000,2.000000,Suck,-2325.000000,2400.000000,Speed,-2370.000000,2400.000000,Speed,Off,On,0.000000,FALSE,0,,,,
05:43:03.370 PM 03/25/2016,Teleop Enabled,9,FALSE,0,NO ERROR,-0.000000,6.724651,0.000000,-6.525735,TRUE,FALSE,FALSE,FALSE,FALSE,FALSE,Disabled,0.000000,0.000000,0.000000,TRUE,-0.082840,0.309311,0.000000,-0.051453,0.079636,0.000000,-0.077000,-0.085000,-0.234000,-1.510000,-0.120000,1.550000,0.510852,Hold,0.354004,0.000000,Hold,-103.000000,2.000000,Suck,-2332.500000,2400.000000,Speed,-2377.500000,2400.000000,Speed,Off,On,0.000000,FALSE,0,,,,
05:43:03.471 PM 03/25/2016,Teleop Enabled,9,FALSE,0,NO ERROR,-0.000000,6.724651,0.000000,-6.525735,TRUE,FALSE,FALSE,FALSE,FALSE,FALSE,Disabled,0.000000,0.000000,0.000000,TRUE,-0.085098,0.310333,0.000000,-0.009476,0.053421,0.000000,0.082000,0.062000,0.138000,-1.520000,-0.140000,1.400000,0.502896,Hold,0.354004,0.000000,Hold,-103.000000,2.000000,Suck,-2355.000000,2400.000000,Speed,-2377.500000,2400.000000,Speed,Off,On,0.000000,FALSE,0,,,,
05:43:03.572 PM 03/25/2016,Teleop Enabled,11,FALSE,0,NO ERROR,-0.000000,6.724651,0.000000,-6.525735,TRUE,FALSE,FALSE,FALSE,FALSE,FALSE,Disabled,0.000000,0.000000,0.000000,TRUE,-0.085098,0.310333,0.000000,-0.009476,0.053421,0.000000,-0.064000,0.047000,-0.199000,-1.520000,-0.090000,1.440000,0.508986,Hold,0.354004,0.000000,Hold,-103.000000,2.000000,Suck,-2355.000000,2400.000000,Speed,-2370.000000,2400.000000,Speed,Off,On,0.000000,FALSE,0,,,,
05:43:03.673 PM 03/25/2016,Teleop Enabled,9,FALSE,0,NO ERROR,-0.000000,6.724651,0.000000,-6.525735,TRUE,FALSE,FALSE,FALSE,FALSE,FALSE,Disabled,0.000000,0.000000,0.000000,TRUE,-0.083878,0.314056,0.000000,0.046982,0.051651,0.000000,-0.005000,-0.055000,0.207000,-1.520000,-0.150000,1.540000,0.501457,Hold,0.354004,0.000000,Hold,-103.000000,2.000000,Suck,-2347.500000,2400.000000,Speed,-2370.000000,2400.000000,Speed,Off,On,0.000000,FALSE,0,,,,
05:43:03.773 PM 03/25/2016,Teleop Enabled,9,FALSE,0,NO ERROR,-0.000000,6.724651,0.000000,-6.525735,TRUE,FALSE,FALSE,FALSE,FALSE,FALSE,Disabled,0.000000,0.000000,0.000000,TRUE,-0.083878,0.314056,0.000000,0.046982,0.051651,0.000000,-0.146000,0.228000,-0.181000,-1.520000,-0.050000,1.550000,0.510053,Hold,0.354004,0.000000,Hold,-103.000000,2.000000,Suck,-2347.500000,2400.000000,Speed,-2385.000000,2400.000000,Speed,Off,On,0.000000,FALSE,0,,,,
05:43:03.874 PM 03/25/2016,Teleop Enabled,9,FALSE,0,NO ERROR,-0.000000,6.724651,0.000000,-6.525735,TRUE,FALSE,FALSE,FALSE,FALSE,FALSE,Disabled,0.000000,0.000000,0.000000,TRUE,-0.083450,0.320480,0.000000,0.022430,0.139206,0.000000,-0.099000,-0.112000,0.254000,-1.530000,0.010000,1.610000,0.510053,Hold,0.354004,0.000000,Hold,-103.000000,2.000000,Suck,-2355.000000,2400.000000,Speed,-2385.000000,2400.000000,Speed,Off,On,0.000000,FALSE,0,,,,
05:43:03.974 PM 03/25/2016,Teleop Enabled,10,FALSE,0,NO ERROR,-0.000000,6.724651,0.000000,-6.525735,TRUE,FALSE,FALSE,FALSE,FALSE,FALSE,Disabled,0.000000,0.000000,0.000000,TRUE,-0.080978,0.325211,0.000000,0.051437,0.086502,0.000000,0.175000,-0.006000,-0.028000,-1.520000,0.020000,1.510000,0.515478,Hold,0.354004,0.000000,Hold,-103.000000,2.000000,Suck,-2355.000000,2400.000000,Speed,-2385.000000,2400.000000,Speed,Off,On,0.000000,FALSE,0,,,,
05:43:04.075 PM 03/25/2016,Teleop Enabled,10,FALSE,0,NO ERROR,-0.000000,6.724651,0.000000,-6.525735,TRUE,FALSE,FALSE,FALSE,FALSE,FALSE,Disabled,0.000000,0.000000,0.000000,TRUE,-0.077805,0.326843,0.000000,0.059967,-0.017822,0.000000,0.044000,0.057000,-0.071000,-1.520000,-0.040000,1.490000,0.524763,Hold,0.354004,47.000000,Hold,-103.000000,139264.000000,Suck,-2355.000000,2400.000000,Speed,-2385.000000,2400.000000,Speed,Off,On,0.000000,FALSE,0,,,,
05:43:04.177 PM 03/25/2016,Teleop Enabled,10,FALSE,0,NO ERROR,-0.000000,6.724651,0.000000,-6.525735,TRUE,FALSE,FALSE,FALSE,FALSE,FALSE,Disabled,0.000000,0.000000,0.000000,TRUE,-0.074982,0.324890,0.000000,0.064270,-0.039581,0.000000,-0.012000,-0.012000,0.126000,-1.520000,-0.010000,1.460000,0.524043,Hold,3.756348,47.000000,Hold,-6400.000000,139264.000000,Suck,-2347.500000,2400.000000,Speed,-2370.000000,2400.000000,Speed,Off,On,0.000000,FALSE,0,,,,
05:43:04.278 PM 03/25/2016,Teleop Enabled,10,FALSE,0,NO ERROR,-0.000000,6.724651,0.000000,-6.525735,TRUE,FALSE,FALSE,FALSE,FALSE,FALSE,Disabled,0.000000,0.000000,0.000000,TRUE,-0.072250,0.321564,0.000000,0.036484,-0.106781,0.000000,0.279000,-0.007000,-0.014000,-1.510000,0.080000,1.370000,0.527304,Hold,5.774902,47.000000,Hold,-20423.000000,139264.000000,Suck,-2362.500000,2400.000000,Speed,-2370.000000,2400.000000,Speed,Off,On,0.000000,FALSE,0,,,,
05:43:04.381 PM 03/25/2016,Teleop Enabled,10,FALSE,0,NO ERROR,-0.000000,6.724651,0.000000,-6.544985,TRUE,FALSE,FALSE,FALSE,FALSE,FALSE,Disabled,0.000000,0.000000,0.000000,TRUE,-0.067673,0.317291,0.000000,0.108215,-0.049911,0.000000,-0.144000,0.115000,0.004000,-1.510000,0.340000,1.310000,0.514979,Hold,5.774902,47.000000,Hold,-20423.000000,139264.000000,Suck,-2377.500000,2400.000000,Speed,-2385.000000,2400.000000,Speed,Off,On,0.000000,FALSE,0,,,,
05:43:04.480 PM 03/25/2016,Teleop Enabled,10,FALSE,0,NO ERROR,-0.000000,6.724651,0.000000,-6.544985,TRUE,FALSE,FALSE,FALSE,FALSE,FALSE,Disabled,0.000000,0.000000,0.000000,TRUE,-0.063049,0.315826,0.000000,0.103287,-0.058701,0.000000,-0.036000,-0.167000,0.088000,-1.490000,0.200000,1.290000,0.537600,Hold,14.241211,47.000000,Hold,-34407.000000,139264.000000,Suck,-2392.500000,2400.000000,Speed,-2385.000000,2400.000000,Speed,Off,On,0.000000,FALSE,0,,,,
05:43:04.581 PM 03/25/2016,Teleop Enabled,10,FALSE,0,NO ERROR,-0.000000,6.724651,0.000000,-6.544985,TRUE,FALSE,FALSE,FALSE,FALSE,FALSE,Disabled,0.000000,0.000000,0.000000,TRUE,-0.057480,0.310806,0.000000,0.131790,-0.087006,0.000000,-0.067000,0.146000,0.047000,-1.500000,0.260000,1.380000,0.519616,Hold,14.241211,47.000000,Hold,-48478.000000,139264.000000,Suck,-2377.500000,2400.000000,Speed,-2377.500000,2400.000000,Speed,Off,On,0.000000,FALSE,0,,,,
05:43:04.680 PM 03/25/2016,Teleop Enabled,11,FALSE,0,NO ERROR,-0.000000,6.724651,0.000000,-6.544985,TRUE,FALSE,FALSE,FALSE,FALSE,FALSE,Disabled,0.000000,0.000000,0.000000,TRUE,-0.048691,0.308426,0.000000,0.175766,-0.063477,0.000000,0.111000,-0.086000,0.214000,-1.510000,0.360000,1.490000,0.533528,Hold,19.719238,47.000000,Hold,-48478.000000,139264.000000,Suck,-2370.000000,2400.000000,Speed,-2377.500000,2400.000000,Speed,Off,On,0.000000,FALSE,0,,,,
05:43:04.781 PM 03/25/2016,Teleop Enabled,10,FALSE,0,NO ERROR,-0.000000,6.647651,0.000000,-6.448735,TRUE,FALSE,FALSE,FALSE,FALSE,FALSE,Disabled,0.000000,0.000000,0.000000,TRUE,-0.040909,0.307205,0.000000,0.202393,0.002579,0.000000,0.014000,-0.035000,-0.218000,-1.500000,0.180000,1.490000,0.537951,Hold,25.945068,47.000000,Hold,-62964.000000,139264.000000,Suck,-2377.500000,2400.000000,Speed,-2385.000000,2400.000000,Speed,Off,On,0.000000,FALSE,0,,,,
05:43:04.881 PM 03/25/2016,Teleop Enabled,10,FALSE,0,NO ERROR,-0.000000,6.570651,0.000000,-6.435902,TRUE,FALSE,FALSE,FALSE,FALSE,FALSE,Disabled,0.000000,0.000000,0.000000,TRUE,-0.039154,0.307556,0.000000,0.012894,-0.020721,0.000000,0.109000,-0.145000,0.050000,-1.510000,0.200000,1.540000,0.523971,Hold,33.436279,47.000000,Hold,-78498.000000,139264.000000,Suck,-2385.000000,2400.000000,Speed,-2385.000000,2400.000000,Speed,Off,On,0.000000,FALSE,0,,,,
05:43:04.982 PM 03/25/2016,Teleop Enabled,9,FALSE,0,NO ERROR,-0.000000,6.570651,0.000000,-6.435902,TRUE,FALSE,FALSE,FALSE,FALSE,FALSE,Disabled,0.000000,0.000000,0.000000,TRUE,-0.040756,0.306473,0.000000,-0.075775,0.025101,0.000000,0.037000,0.024000,0.040000,-1.510000,-0.190000,1.500000,0.524560,Hold,42.059570,47.000000,Hold,-93718.000000,139264.000000,Suck,-2385.000000,2400.000000,Speed,-2385.000000,2400.000000,Speed,Off,On,0.000000,FALSE,0,,,,
05:43:05.083 PM 03/25/2016,Teleop Enabled,11,FALSE,0,NO ERROR,-0.000000,6.538568,0.000000,-6.429485,TRUE,FALSE,FALSE,FALSE,FALSE,FALSE,Disabled,0.000000,0.000000,0.000000,TRUE,-0.044571,0.307343,0.000000,-0.051544,-0.023468,0.000000,0.125000,-0.028000,0.109000,-1.500000,-0.150000,1.470000,0.537645,Hold,49.250977,47.000000,Hold,-110093.000000,139264.000000,Suck,-2385.000000,2400.000000,Speed,-2392.500000,2400.000000,Speed,Off,On,0.000000,FALSE,0,,,,
