Time,Robot Mode,Loop Time,Error Status,Error Code,Error Source,Left Motor Output,Left Motor Encoder,Right Motor Output,Right Motor Encoder,Is Level,Is Stalled,Ball Detector Photoeye,Vision Enabled,Vision Teleop Control,Vision Auto Control,Vision Current State,Vision X Output,Vision NavX Error,Vision NavX Target,NavX Connection Status,NavX Displacement X,NavX Displacement Y,NavX Displacement Z,NavX Velocity X,NavX Velocity Y,NavX Velocity Z,NavX Acceleration X,NavX Acceleration Y,NavX Acceleration Z,NavX Pitch,NavX Yaw,NavX Roll,Gyro Angle,Roller Arm State,Roller Arm Actual,Roller Arm Desired,Shooter Arm State,Shooter Arm Actual,Shooter Arm Desired,Shooter State,Actual RPM Left,Desired RPM Left,Control Mode Left,Actual RPM Right,Desired RPM Right,Control Mode Right,Ball Shooter Cylinder,Ball Halo Cylinder,Scaler Motor Output,Scaler Solenoid Fire,Auto To Run,Auto Current File,Auto File Status,Auto Current Command,Auto Trimmed Command
04:40:51.224 PM 03/25/2016,Teleop Enabled,11,TRUE,-44003,<LOCATION>WPI_CameraIssue HTTP Request with Authentication.vi<CALLSTACK>WPI_CameraIssue HTTP Request with Authentication.vi< <WPI_CameraIssue Get.vi< <WPI_CameraSet Image Appearance Property.vi< <WPI_CameraSet Image Size.vi< <Vision Processing.vi< <Robot Main.vi,-0.000000,0.000000,0.000000,0.000000,TRUE,FALSE,FALSE,FALSE,FALSE,FALSE,Disabled,0.000000,0.000000,0.000000,TRUE,-0.016052,0.061768,0.000000,0.000000,0.000000,0.000000,-0.002000,0.013000,0.004000,-0.210000,0.150000,1.150000,-0.633252,ResetBack,-0.001221,-0.000049,ResetBack,0.000000,-0.250000,Suck,0.000000,0.000000,Speed,0.000000,0.000000,Speed,Off,On,0.000000,FALSE,0,,,,
04:40:51.325 PM 03/25/2016,Teleop Enabled,11,FALSE,0,NO ERROR,-0.000000,0.000000,0.000000,0.000000,TRUE,FALSE,FALSE,FALSE,FALSE,FALSE,Disabled,0.000000,0.000000,0.000000,TRUE,-0.016052,0.061768,0.000000,0.000000,0.000000,0.000000,-0.045000,-0.006000,-0.065000,-0.200000,0.100000,1.170000,-0.618098,ResetBack,-1.225830,-0.000049,ResetBack,4498.000000,-0.250000,Suck,0.000000,2400.000000,Speed,0.000000,2400.000000,Speed,Off,On,0.000000,FALSE,0,,,,
04:40:51.425 PM 03/25/2016,Teleop Enabled,11,FALSE,0,NO ERROR,-0.000000,0.000000,0.000000,0.000000,TRUE,FALSE,FALSE,FALSE,FALSE,FALSE,Disabled,0.000000,0.000000,0.000000,TRUE,-0.016663,0.062195,0.000000,-0.010086,0.015411,0.000000,0.039000,0.047000,0.037000,-0.180000,0.040000,1.150000,-0.610848,ResetBack,-1.393555,-0.000049,ResetBack,8834.000000,-0.250000,Suck,-30.000000,2400.000000,Speed,-90.000000,2400.000000,Speed,Off,On,0.000000,FALSE,0,,,,
04:40:51.526 PM 03/25/2016,Teleop Enabled,10,FALSE,0,NO ERROR,-0.000000,0.000000,0.000000,0.000000,TRUE,FALSE,FALSE,FALSE,FALSE,FALSE,Disabled,0.000000,0.000000,0.000000,TRUE,-0.017639,0.063431,0.000000,-0.013123,0.035309,0.000000,-0.076000,-0.024000,0.045000,-0.170000,-0.060000,1.130000,-0.624721,ResetBack,-1.393555,-0.000049,ResetBack,8834.000000,-0.250000,Suck,-232.500000,2400.000000,Speed,-757.500000,2400.000000,Speed,Off,On,0.000000,FALSE,0,,,,
04:40:51.626 PM 03/25/2016,Teleop Enabled,11,FALSE,0,NO ERROR,-0.000000,0.000000,0.000000,0.000000,TRUE,FALSE,FALSE,FALSE,FALSE,FALSE,Disabled,0.000000,0.000000,0.000000,TRUE,-0.017609,0.063660,0.000000,0.019363,-0.016647,0.000000,0.060000,-0.007000,0.012000,-0.160000,0.070000,1.060000,-0.619588,Reset,-1.393555,0.000000,ResetBack,9688.000000,-0.250000,Suck,-667.500000,2400.000000,Speed,-1395.000000,2400.000000,Speed,Off,On,0.000000,FALSE,0,,,,
04:40:51.728 PM 03/25/2016,Teleop Enabled,11,FALSE,0,NO ERROR,-0.000000,0.000000,0.000000,0.000000,TRUE,FALSE,FALSE,FALSE,FALSE,FALSE,Disabled,0.000000,0.000000,0.000000,TRUE,-0.017456,0.063766,0.000000,-0.023666,0.019821,0.000000,0.093000,0.095000,-0.017000,-0.170000,-0.040000,1.100000,-0.641621,Hold,0.414307,0.000000,ResetBack,9896.000000,-0.250000,Suck,-1095.000000,2400.000000,Speed,-1830.000000,2400.000000,Speed,Off,On,0.000000,FALSE,0,,,,
04:40:51.828 PM 03/25/2016,Teleop Enabled,10,FALSE,0,NO ERROR,-0.000000,0.000000,0.000000,0.000000,TRUE,FALSE,FALSE,FALSE,FALSE,FALSE,Disabled,0.000000,0.000000,0.000000,TRUE,-0.017426,0.068115,0.000000,0.018021,0.065201,0.000000,0.055000,-0.065000,0.081000,-0.170000,0.270000,1.180000,-0.643187,Hold,0.414307,0.000000,ResetBack,10119.000000,-0.250000,Suck,-1455.000000,2400.000000,Speed,-2280.000000,2400.000000,Speed,Off,On,0.000000,FALSE,0,,,,
04:40:51.930 PM 03/25/2016,Teleop Enabled,11,FALSE,0,NO ERROR,-0.000000,0.000000,0.000000,0.000000,TRUE,FALSE,FALSE,FALSE,FALSE,FALSE,Disabled,0.000000,0.000000,0.000000,TRUE,-0.015625,0.069458,0.000000,0.054382,0.014557,0.000000,-0.054000,0.011000,0.008000,-0.180000,0.310000,0.980000,-0.639238,Hold,0.414307,0.000000,ResetBack,10333.000000,-0.250000,Suck,-1800.000000,2400.000000,Speed,-2460.000000,2400.000000,Speed,Off,On,0.000000,FALSE,0,,,,
04:40:52.030 PM 03/25/2016,Teleop Enabled,10,FALSE,0,NO ERROR,-0.000000,0.000000,0.000000,0.000000,TRUE,FALSE,FALSE,FALSE,FALSE,FALSE,Disabled,0.000000,0.000000,0.000000,TRUE,-0.012924,0.072006,0.000000,0.018250,0.070190,0.000000,0.042000,0.222000,0.055000,-0.170000,0.300000,0.930000,-0.635365,Hold,0.414307,0.000000,ResetBack,10497.000000,-0.250000,Suck,-2137.500000,2400.000000,Speed,-2377.500000,2400.000000,Speed,Off,On,0.000000,FALSE,0,,,,
04:40:52.131 PM 03/25/2016,Teleop Enabled,9,FALSE,0,NO ERROR,-0.000000,0.000000,0.000000,0.000000,TRUE,FALSE,FALSE,FALSE,FALSE,FALSE,Disabled,0.000000,0.000000,0.000000,TRUE,-0.012589,0.079742,0.000000,-0.008163,0.166901,0.000000,-0.168000,-0.062000,0.030000,-0.180000,0.370000,1.090000,-0.643073,Hold,0.414307,0.000000,ResetBack,10610.000000,-0.250000,Suck,-2325.000000,2400.000000,Speed,-2325.000000,2400.000000,Speed,Off,On,0.000000,FALSE,0,,,,
04:40:52.231 PM 03/25/2016,Teleop Enabled,9,FALSE,0,NO ERROR,-0.000000,0.000000,0.000000,0.000000,TRUE,FALSE,FALSE,FALSE,FALSE,FALSE,Disabled,0.000000,0.000000,0.000000,TRUE,-0.015961,0.086212,0.000000,-0.055511,0.106430,0.000000,0.007000,-0.220000,0.082000,-0.170000,0.150000,1.170000,-0.650361,Hold,0.414307,0.000000,ResetBack,10610.000000,-0.250000,Suck,-2295.000000,2400.000000,Speed,-2347.500000,2400.000000,Speed,Off,On,0.000000,FALSE,0,,,,
04:40:52.331 PM 03/25/2016,Teleop Enabled,10,FALSE,0,NO ERROR,-0.000000,0.000000,0.000000,0.000000,TRUE,FALSE,FALSE,FALSE,FALSE,FALSE,Disabled,0.000000,0.000000,0.000000,TRUE,-0.014999,0.085693,0.000000,0.081512,-0.078552,0.000000,0.008000,-0.211000,0.006000,-0.170000,0.070000,1.060000,-0.652482,Hold,0.414307,0.000000,ResetBack,11142.000000,-0.250000,Suck,-2220.000000,2400.000000,Speed,-2377.500000,2400.000000,Speed,Off,On,0.000000,FALSE,0,,,,
04:40:52.432 PM 03/25/2016,Teleop Enabled,9,FALSE,0,NO ERROR,-0.000000,0.000000,0.000000,0.000000,TRUE,FALSE,FALSE,FALSE,FALSE,FALSE,Disabled,0.000000,0.000000,0.000000,TRUE,-0.009140,0.079620,0.000000,0.142761,-0.086502,0.000000,0.134000,0.227000,-0.008000,-0.180000,0.200000,1.080000,-0.670586,Hold,0.414307,0.000000,ResetBack,11239.000000,-0.250000,Suck,-2220.000000,2400.000000,Speed,-2377.500000,2400.000000,Speed,Off,On,0.000000,FALSE,0,,,,
04:40:52.533 PM 03/25/2016,Teleop Enabled,9,FALSE,0,NO ERROR,-0.000000,0.000000,0.000000,0.000000,TRUE,FALSE,FALSE,FALSE,FALSE,FALSE,Disabled,0.000000,0.000000,0.000000,TRUE,-0.001129,0.078079,0.000000,0.154343,-0.005508,0.000000,-0.011000,0.143000,-0.064000,-0.160000,0.240000,1.010000,-0.661952,Hold,0.414307,0.000000,Reset,11325.000000,2.000000,Suck,-2242.500000,2400.000000,Speed,-2355.000000,2400.000000,Speed,Off,On,0.000000,FALSE,0,,,,
04:40:52.633 PM 03/25/2016,Teleop Enabled,10,FALSE,0,NO ERROR,-0.000000,0.000000,0.000000,0.000000,TRUE,FALSE,FALSE,FALSE,FALSE,FALSE,Disabled,0.000000,0.000000,0.000000,TRUE,0.006165,0.081375,0.000000,0.125732,0.144989,0.000000,-0.034000,0.320000,0.046000,-0.160000,0.230000,1.010000,-0.658052,Hold,0.414307,0.000000,Hold,-80.000000,2.000000,Suck,-2242.500000,2400.000000,Speed,-2362.500000,2400.000000,Speed,Off,On,0.000000,FALSE,0,,,,
04:40:52.733 PM 03/25/2016,Teleop Enabled,9,FALSE,0,NO ERROR,-0.000000,0.000000,0.000000,0.000000,TRUE,FALSE,FALSE,FALSE,FALSE,FALSE,Disabled,0.000000,0.000000,0.000000,TRUE,0.012283,0.093918,0.000000,0.108246,0.279388,0.000000,-0.131000,-0.078000,-0.020000,-0.170000,0.450000,0.950000,-0.665137,Hold,0.414307,0.000000,Hold,-81.000000,2.000000,Suck,-2235.000000,2400.000000,Speed,-2370.000000,2400.000000,Speed,Off,On,0.000000,FALSE,0,,,,
04:40:52.834 PM 03/25/2016,Teleop Enabled,11,FALSE,0,NO ERROR,-0.000000,0.000000,0.000000,0.000000,TRUE,FALSE,FALSE,FALSE,FALSE,FALSE,Disabled,0.000000,0.000000,0.000000,TRUE,0.017136,0.105927,0.000000,0.095978,0.203674,0.000000,-0.058000,-0.076000,-0.078000,-0.170000,0.260000,1.070000,-0.651439,Hold,0.414307,0.000000,Hold,-81.000000,2.000000,Suck,-2235.000000,2400.000000,Speed,-2370.000000,2400.000000,Speed,Off,On,0.000000,FALSE,0,,,,
04:40:52.935 PM 03/25/2016,Teleop Enabled,11,FALSE,0,NO ERROR,-0.000000,0.000000,0.000000,0.000000,TRUE,FALSE,FALSE,FALSE,FALSE,FALSE,Disabled,0.000000,0.000000,0.000000,TRUE,0.020096,0.114792,0.000000,0.056931,0.140823,0.000000,-0.102000,-0.155000,-0.031000,-0.170000,0.280000,1.000000,-0.659894,Hold,0.414307,0.000000,Hold,-81.000000,2.000000,Suck,-2235.000000,2400.000000,Speed,-2355.000000,2400.000000,Speed,Off,On,0.000000,FALSE,0,,,,
04:40:53.035 PM 03/25/2016,Teleop Enabled,9,FALSE,0,NO ERROR,-0.000000,0.000000,0.000000,0.000000,TRUE,FALSE,FALSE,FALSE,FALSE,FALSE,Disabled,0.000000,0.000000,0.000000,TRUE,0.023178,0.116058,0.000000,0.101761,-0.045425,0.000000,0.249000,-0.128000,0.045000,-0.170000,0.300000,0.950000,-0.663168,Hold,0.414307,0.000000,Hold,-81.000000,2.000000,Suck,-2235.000000,2400.000000,Speed,-2355.000000,2400.000000,Speed,Off,On,0.000000,FALSE,0,,,,
04:40:53.136 PM 03/25/2016,Teleop Enabled,9,FALSE,0,NO ERROR,-0.000000,0.000000,0.000000,0.000000,TRUE,FALSE,FALSE,FALSE,FALSE,FALSE,Disabled,0.000000,0.000000,0.000000,TRUE,0.031708,0.109802,0.000000,0.188248,-0.127579,0.000000,0.130000,0.115000,0.047000,-0.140000,0.250000,0.870000,-0.680256,Hold,0.414307,0.000000,Hold,-81.000000,2.000000,Suck,-2235.000000,2400.000000,Speed,-2362.500000,2400.000000,Speed,Off,On,0.000000,FALSE,0,,,,
04:40:53.237 PM 03/25/2016,Teleop Enabled,10,FALSE,0,NO ERROR,-0.000000,0.000000,0.000000,-0.089833,TRUE,FALSE,FALSE,FALSE,FALSE,FALSE,Disabled,0.000000,0.000000,0.000000,TRUE,0.043350,0.106613,0.000000,0.251144,-0.053101,0.000000,0.086000,0.184000,0.012000,-0.140000,0.450000,0.790000,-0.650884,Hold,0.414307,0.000000,Hold,-81.000000,2.000000,Suck,-2235.000000,2400.000000,Speed,-2362.500000,2400.000000,Speed,Off,On,0.000000,FALSE,0,,,,
04:40:53.338 PM 03/25/2016,Teleop Enabled,10,FALSE,0,NO ERROR,-0.000000,0.000000,0.000000,-0.121916,TRUE,FALSE,FALSE,FALSE,FALSE,FALSE,Disabled,0.000000,0.000000,0.000000,TRUE,0.048019,0.106308,0.000000,-0.055878,0.044083,0.000000,-0.231000,0.411000,-0.017000,-0.100000,0.330000,0.800000,-0.619932,Hold,0.414307,0.000000,Hold,-81.000000,2.000000,Suck,-2235.000000,2400.000000,Speed,-2355.000000,2400.000000,Speed,Off,On,0.000000,FALSE,0,,,,
04:40:53.440 PM 03/25/2016,Teleop Enabled,10,FALSE,0,NO ERROR,-0.000000,0.000000,0.000000,-0.198916,TRUE,FALSE,FALSE,FALSE,FALSE,FALSE,Disabled,0.000000,0.000000,0.000000,TRUE,0.040833,0.120377,0.000000,-0.139938,0.318756,0.000000,-0.114000,0.055000,-0.011000,-0.050000,0.390000,0.840000,-0.579059,Hold,0.414307,0.000000,Hold,-81.000000,2.000000,Suck,-2227.500000,2400.000000,Speed,-2362.500000,2400.000000,Speed,Off,On,0.000000,FALSE,0,,,,
04:40:53.540 PM 03/25/2016,Teleop Enabled,10,FALSE,0,NO ERROR,-0.000000,0.000000,0.000000,-0.198916,TRUE,FALSE,FALSE,FALSE,FALSE,FALSE,Disabled,0.000000,0.000000,0.000000,TRUE,0.032120,0.136490,0.000000,-0.181900,0.305099,0.000000,-0.130000,-0.029000,-0.040000,-0.050000,0.270000,0.870000,-0.569616,Hold,0.414307,0.000000,Hold,-81.000000,2.000000,Suck,-2235.000000,2400.000000,Speed,-2370.000000,2400.000000,Speed,Off,On,0.000000,FALSE,0,,,,
04:40:53.641 PM 03/25/2016,Teleop Enabled,10,FALSE,0,NO ERROR,-0.000000,0.000000,0.000000,-0.198916,TRUE,FALSE,FALSE,FALSE,FALSE,FALSE,Disabled,0.000000,0.000000,0.000000,TRUE,0.020279,0.150894,0.000000,-0.250809,0.248459,0.000000,0.060000,-0.297000,0.014000,-0.050000,0.410000,0.890000,-0.568662,Hold,0.414307,0.000000,Hold,-82.000000,2.000000,Suck,-2242.500000,2400.000000,Speed,-2370.000000,2400.000000,Speed,Off,On,0.000000,FALSE,0,,,,
04:40:53.741 PM 03/25/2016,Teleop Enabled,10,FALSE,0,NO ERROR,-0.000000,0.000000,0.000000,-0.198916,TRUE,FALSE,FALSE,FALSE,FALSE,FALSE,Disabled,0.000000,0.000000,0.000000,TRUE,0.008774,0.157211,0.000000,-0.187866,0.049286,0.000000,0.182000,-0.257000,0.087000,-0.050000,0.260000,0.920000,-0.576742,Hold,0.414307,0.000000,Hold,-82.000000,2.000000,Suck,-2242.500000,2400.000000,Speed,-2370.000000,2400.000000,Speed,Off,On,0.000000,FALSE,0,,,,
04:40:53.842 PM 03/25/2016,Teleop Enabled,9,FALSE,0,NO ERROR,-0.000000,0.000000,0.000000,-0.198916,TRUE,FALSE,FALSE,FALSE,FALSE,FALSE,Disabled,0.000000,0.000000,0.000000,TRUE,0.002518,0.155823,0.000000,-0.107971,-0.035614,0.000000,-0.029000,0.059000,0.060000,-0.050000,0.310000,0.840000,-0.575220,Hold,0.414307,0.000000,Hold,-82.000000,2.000000,Suck,-2242.500000,2400.000000,Speed,-2377.500000,2400.000000,Speed,Off,On,0.000000,FALSE,0,,,,
04:40:53.942 PM 03/25/2016,Teleop Enabled,9,FALSE,0,NO ERROR,-0.000000,0.000000,0.000000,-0.198916,TRUE,FALSE,FALSE,FALSE,FALSE,FALSE,Disabled,0.000000,0.000000,0.000000,TRUE,-0.002777,0.155594,0.000000,-0.086426,0.031616,0.000000,0.107000,0.063000,-0.047000,-0.050000,0.360000,0.950000,-0.579737,Hold,0.414307,0.000000,Hold,-82.000000,2.000000,Suck,-2235.000000,2400.000000,Speed,-2370.000000,2400.000000,Speed,Off,On,0.000000,FALSE,0,,,,
04:40:54.042 PM 03/25/2016,Teleop Enabled,9,FALSE,0,NO ERROR,-0.000000,0.000000,0.000000,-0.198916,TRUE,FALSE,FALSE,FALSE,FALSE,FALSE,Disabled,0.000000,0.000000,0.000000,TRUE,-0.005585,0.160034,0.000000,-0.079346,0.154922,0.000000,-0.012000,0.289000,0.143000,-0.050000,0.260000,0.900000,-0.589941,Hold,0.414307,0.000000,Hold,-82.000000,2.000000,Suck,-2235.000000,2400.000000,Speed,-2362.500000,2400.000000,Speed,Off,On,0.000000,FALSE,0,,,,
04:40:54.142 PM 03/25/2016,Teleop Enabled,9,FALSE,0,NO ERROR,-0.000000,0.000000,0.000000,-0.198916,TRUE,FALSE,FALSE,FALSE,FALSE,FALSE,Disabled,0.000000,0.000000,0.000000,TRUE,-0.012955,0.177551,0.000000,-0.169037,0.370209,0.000000,0.000000,0.288000,0.090000,-0.040000,0.220000,0.980000,-0.593160,Hold,0.414307,0.000000,Hold,-82.000000,2.000000,Suck,-2242.500000,2400.000000,Speed,-2362.500000,2400.000000,Speed,Off,On,0.000000,FALSE,0,,,,
04:40:54.241 PM 03/25/2016,Teleop Enabled,10,FALSE,0,NO ERROR,-0.000000,0.000000,0.000000,-0.198916,TRUE,FALSE,FALSE,FALSE,FALSE,FALSE,Disabled,0.000000,0.000000,0.000000,TRUE,-0.020325,0.196426,0.000000,-0.164902,0.372986,0.000000,0.007000,-0.034000,-0.029000,-0.050000,0.300000,0.990000,-0.584089,Hold,0.414307,0.000000,Hold,-82.000000,2.000000,Suck,-2242.500000,2400.000000,Speed,-2370.000000,2400.000000,Speed,Off,On,0.000000,FALSE,0,,,,
04:40:54.342 PM 03/25/2016,Teleop Enabled,10,FALSE,0,NO ERROR,-0.000000,0.000000,0.000000,-0.198916,TRUE,FALSE,FALSE,FALSE,FALSE,FALSE,Disabled,0.000000,0.000000,0.000000,TRUE,-0.030609,0.212021,0.000000,-0.225250,0.221893,0.000000,0.066000,-0.096000,0.127000,-0.040000,0.390000,0.990000,-0.577369,Hold,0.414307,0.000000,Hold,-82.000000,2.000000,Suck,-2242.500000,2400.000000,Speed,-2370.000000,2400.000000,Speed,Off,On,0.000000,FALSE,0,,,,
04:40:54.443 PM 03/25/2016,Teleop Enabled,11,FALSE,0,NO ERROR,-0.000000,0.000000,0.000000,-0.198916,TRUE,FALSE,FALSE,FALSE,FALSE,FALSE,Disabled,0.000000,0.000000,0.000000,TRUE,-0.038956,0.217697,0.000000,-0.107162,0.044113,0.000000,0.140000,-0.069000,-0.063000,-0.040000,0.480000,0.970000,-0.573978,Hold,0.414307,0.000000,Hold,-82.000000,2.000000,Suck,-2242.500000,2400.000000,Speed,-2370.000000,2400.000000,Speed,Off,On,0.000000,FALSE,0,,,,
04:40:54.544 PM 03/25/2016,Teleop Enabled,10,FALSE,0,NO ERROR,-0.000000,0.000000,0.000000,-0.198916,TRUE,FALSE,FALSE,FALSE,FALSE,FALSE,Disabled,0.000000,0.000000,0.000000,TRUE,-0.041733,0.217728,0.000000,-0.018112,-0.006271,0.000000,-0.053000,0.043000,0.069000,-0.040000,0.520000,0.900000,-0.581696,Hold,0.414307,0.000000,Hold,-82.000000,2.000000,Suck,-2250.000000,2400.000000,Speed,-2370.000000,2400.000000,Speed,Off,On,0.000000,FALSE,0,,,,
04:40:54.644 PM 03/25/2016,Teleop Enabled,9,FALSE,0,NO ERROR,-0.000000,0.000000,0.000000,-0.198916,TRUE,FALSE,FALSE,FALSE,FALSE,FALSE,Disabled,0.000000,0.000000,0.000000,TRUE,-0.042587,0.219360,0.000000,-0.003525,0.061203,0.000000,-0.105000,0.292000,0.144000,-0.040000,0.510000,0.890000,-0.563103,Hold,0.414307,0.000000,Hold,-82.000000,2.000000,Suck,-2242.500000,2400.000000,Speed,-2370.000000,2400.000000,Speed,Off,On,0.000000,FALSE,0,,,,
04:40:54.744 PM 03/25/2016,Teleop Enabled,10,FALSE,0,NO ERROR,-0.000000,0.000000,0.000000,-0.198916,TRUE,FALSE,FALSE,FALSE,FALSE,FALSE,Disabled,0.000000,0.000000,0.000000,TRUE,-0.045135,0.230408,0.000000,-0.080597,0.337021,0.000000,-0.086000,0.187000,0.087000,-0.040000,0.510000,0.890000,-0.564876,Hold,0.414307,0.000000,Hold,-82.000000,2.000000,Suck,-2235.000000,2400.000000,Speed,-2370.000000,2400.000000,Speed,Off,On,0.000000,FALSE,0,,,,
04:40:54.844 PM 03/25/2016,Teleop Enabled,10,FALSE,0,NO ERROR,-0.000000,0.000000,0.000000,-0.198916,TRUE,FALSE,FALSE,FALSE,FALSE,FALSE,Disabled,0.000000,0.000000,0.000000,TRUE,-0.051422,0.250977,0.000000,-0.145187,0.429428,0.000000,-0.089000,0.035000,-0.039000,-0.040000,0.430000,0.980000,-0.573902,Hold,0.414307,0.000000,Hold,-82.000000,2.000000,Suck,-2242.500000,2400.000000,Speed,-2377.500000,2400.000000,Speed,Off,On,0.000000,FALSE,0,,,,
04:40:54.945 PM 03/25/2016,Teleop Enabled,10,FALSE,0,NO ERROR,-0.000000,0.000000,0.000000,-0.198916,TRUE,FALSE,FALSE,FALSE,FALSE,FALSE,Disabled,0.000000,0.000000,0.000000,TRUE,-0.063477,0.276764,0.000000,-0.238205,0.412125,0.000000,-0.089000,0.035000,-0.039000,-0.040000,0.430000,0.980000,-0.566889,Hold,0.414307,0.000000,Hold,-82.000000,2.000000,Suck,-2250.000000,2400.000000,Speed,-2377.500000,2400.000000,Speed,Off,On,0.000000,FALSE,0,,,,
04:40:55.045 PM 03/25/2016,Teleop Enabled,11,FALSE,0,NO ERROR,-0.000000,0.000000,0.000000,-0.198916,TRUE,FALSE,FALSE,FALSE,FALSE,FALSE,Disabled,0.000000,0.000000,0.000000,TRUE,-0.075806,0.289612,0.000000,-0.216492,0.164856,0.000000,0.016000,-0.203000,0.054000,-0.020000,0.290000,1.080000,-0.558562,Hold,0.414307,0.000000,Hold,-82.000000,2.000000,Suck,-2250.000000,2400.000000,Speed,-2370.000000,2400.000000,Speed,Off,On,0.000000,FALSE,0,,,,
04:40:55.146 PM 03/25/2016,Teleop Enabled,9,FALSE,0,NO ERROR,-0.000000,0.000000,0.000000,-0.198916,TRUE,FALSE,FALSE,FALSE,FALSE,FALSE,Disabled,0.000000,0.000000,0.000000,TRUE,-0.082031,0.292908,0.000000,-0.096741,0.046738,0.000000,0.224000,-0.247000,0.045000,-0.020000,0.210000,1.070000,-0.566146,Hold,0.414307,0.000000,Hold,-82.000000,2.000000,Suck,-2250.000000,2400.000000,Speed,-2370.000000,2400.000000,Speed,Off,On,0.000000,FALSE,0,,,,
04:40:55.246 PM 03/25/2016,Teleop Enabled,10,FALSE,0,NO ERROR,-0.000000,0.000000,0.000000,-0.198916,TRUE,FALSE,FALSE,FALSE,FALSE,FALSE,Disabled,0.000000,0.000000,0.000000,TRUE,-0.085419,0.296753,0.000000,-0.057922,0.101517,0.000000,0.162000,0.071000,-0.106000,-0.030000,0.470000,0.920000,-0.573065,Hold,0.414307,0.000000,Hold,-82.000000,2.000000,Suck,-2242.500000,2400.000000,Speed,-2377.500000,2400.000000,Speed,Off,On,0.000000,FALSE,0,,,,
04:40:55.347 PM 03/25/2016,Teleop Enabled,10,FALSE,0,NO ERROR,-0.000000,0.000000,0.000000,-0.198916,TRUE,FALSE,FALSE,FALSE,FALSE,FALSE,Disabled,0.000000,0.000000,0.000000,TRUE,-0.088364,0.307220,0.000000,-0.107697,0.320007,0.000000,0.101000,0.155000,-0.002000,-0.030000,0.500000,0.980000,-0.562538,Hold,0.414307,0.000000,Hold,-82.000000,2.000000,Suck,-2242.500000,2400.000000,Speed,-2385.000000,2400.000000,Speed,Off,On,0.000000,FALSE,0,,,,
04:40:55.447 PM 03/25/2016,Teleop Enabled,11,FALSE,0,NO ERROR,-0.000000,0.000000,0.000000,-0.198916,TRUE,FALSE,FALSE,FALSE,FALSE,FALSE,Disabled,0.000000,0.000000,0.000000,TRUE,-0.096527,0.331207,0.000000,-0.199448,0.544647,0.000000,-0.059000,0.309000,-0.010000,-0.030000,0.420000,0.980000,-0.566277,Hold,0.414307,0.000000,Hold,-82.000000,2.000000,Suck,-2242.500000,2400.000000,Speed,-2377.500000,2400.000000,Speed,Off,On,0.000000,FALSE,0,,,,
04:40:55.547 PM 03/25/2016,Teleop Enabled,11,FALSE,0,NO ERROR,-0.000000,0.000000,0.000000,-0.198916,TRUE,FALSE,FALSE,FALSE,FALSE,FALSE,Disabled,0.000000,0.000000,0.000000,TRUE,-0.096527,0.331207,0.000000,-0.199448,0.544647,0.000000,-0.151000,0.108000,-0.082000,-0.030000,0.280000,1.020000,-0.547184,Hold,0.414307,0.000000,Hold,-82.000000,2.000000,Suck,-2242.500000,2400.000000,Speed,-2370.000000,2400.000000,Speed,Off,On,0.000000,FALSE,0,,,,
04:40:55.646 PM 03/25/2016,Teleop Enabled,10,FALSE,0,NO ERROR,-0.000000,0.000000,0.000000,-0.198916,TRUE,FALSE,FALSE,FALSE,FALSE,FALSE,Disabled,0.000000,0.000000,0.000000,TRUE,-0.108551,0.358536,0.000000,-0.255356,0.533707,0.000000,-0.278000,0.064000,-0.001000,-0.020000,0.230000,1.100000,-0.534939,Hold,0.414307,0.000000,Hold,-82.000000,2.000000,Suck,-2242.500000,2400.000000,Speed,-2370.000000,2400.000000,Speed,Off,On,0.000000,FALSE,0,,,,
04:40:55.747 PM 03/25/2016,Teleop Enabled,11,FALSE,0,NO ERROR,-0.000000,0.000000,0.000000,-0.198916,TRUE,FALSE,FALSE,FALSE,FALSE,FALSE,Disabled,0.000000,0.000000,0.000000,TRUE,-0.136581,0.396469,0.000000,-0.219788,0.169144,0.000000,-0.090000,-0.203000,0.001000,-0.030000,0.290000,1.090000,-0.545449,Hold,0.414307,0.000000,Hold,-82.000000,2.000000,Suck,-2235.000000,2400.000000,Speed,-2370.000000,2400.000000,Speed,Off,On,0.000000,FALSE,0,,,,
04:40:55.846 PM 03/25/2016,Teleop Enabled,11,FALSE,0,NO ERROR,-0.000000,0.000000,0.000000,-0.198916,TRUE,FALSE,FALSE,FALSE,FALSE,FALSE,Disabled,0.000000,0.000000,0.000000,TRUE,-0.136581,0.396469,0.000000,-0.219788,0.169144,0.000000,0.102000,-0.162000,0.078000,-0.020000,0.110000,1.090000,-0.545449,Hold,0.414307,0.000000,Hold,-82.000000,2.000000,Suck,-2250.000000,2400.000000,Speed,-2377.500000,2400.000000,Speed,Off,On,0.000000,FALSE,0,,,,
04:40:55.946 PM 03/25/2016,Teleop Enabled,10,FALSE,0,NO ERROR,-0.000000,0.000000,0.000000,-0.198916,TRUE,FALSE,FALSE,FALSE,FALSE,FALSE,Disabled,0.000000,0.000000,0.000000,TRUE,-0.147568,0.403931,0.000000,-0.194504,0.147491,0.000000,-0.051000,0.133000,0.007000,-0.010000,-0.040000,1.100000,-0.572742,Hold,0.414307,0.000000,Hold,-82.000000,2.000000,Suck,-2250.000000,2400.000000,Speed,-2355.000000,2400.000000,Speed,Off,On,0.000000,FALSE,0,,,,
04:40:56.047 PM 03/25/2016,Teleop Enabled,10,FALSE,0,NO ERROR,-0.000000,0.000000,0.000000,-0.198916,TRUE,FALSE,FALSE,FALSE,FALSE,FALSE,Disabled,0.000000,0.000000,0.000000,TRUE,-0.155273,0.411240,0.000000,-0.175797,0.198288,0.000000,0.073000,0.098000,0.017000,-0.010000,-0.020000,1.110000,-0.569089,Hold,0.414307,0.000000,Hold,-82.000000,2.000000,Suck,-2250.000000,2400.000000,Speed,-2347.500000,2400.000000,Speed,Off,On,0.000000,FALSE,0,,,,
04:40:56.148 PM 03/25/2016,Teleop Enabled,10,FALSE,0,NO ERROR,-0.000000,0.000000,0.000000,-0.198916,TRUE,FALSE,FALSE,FALSE,FALSE,FALSE,Disabled,0.000000,0.000000,0.000000,TRUE,-0.164139,0.425842,0.000000,-0.209351,0.401047,0.000000,0.098000,0.174000,-0.047000,-0.010000,0.000000,1.100000,-0.578594,Hold,0.414307,0.000000,Hold,-82.000000,2.000000,Suck,-2250.000000,2400.000000,Speed,-2347.500000,2400.000000,Speed,Off,On,0.000000,FALSE,0,,,,
04:40:56.248 PM 03/25/2016,Teleop Enabled,10,FALSE,0,NO ERROR,-0.000000,0.000000,0.000000,-0.198916,TRUE,FALSE,FALSE,FALSE,FALSE,FALSE,Disabled,0.000000,0.000000,0.000000,TRUE,-0.177628,0.453186,0.000000,-0.263733,0.431213,0.000000,0.026000,-0.064000,0.052000,-0.010000,-0.100000,1.090000,-0.574893,Hold,0.414307,0.000000,Hold,-82.000000,2.000000,Suck,-2250.000000,2400.000000,Speed,-2370.000000,2400.000000,Speed,Off,On,0.000000,FALSE,0,,,,
04:40:56.347 PM 03/25/2016,Teleop Enabled,10,FALSE,0,NO ERROR,-0.000000,0.000000,0.000000,-0.198916,TRUE,FALSE,FALSE,FALSE,FALSE,FALSE,Disabled,0.000000,0.000000,0.000000,TRUE,-0.190811,0.469223,0.000000,-0.275986,0.240448,0.000000,0.019000,-0.112000,-0.131000,-0.010000,-0.070000,1.060000,-0.588715,Hold,0.414307,0.000000,Hold,-82.000000,2.000000,Suck,-2250.000000,2400.000000,Speed,-2377.500000,2400.000000,Speed,Off,On,0.000000,FALSE,0,,,,
04:40:56.447 PM 03/25/2016,Teleop Enabled,11,FALSE,0,NO ERROR,-0.000000,0.000000,0.000000,-0.198916,TRUE,FALSE,FALSE,FALSE,FALSE,FALSE,Disabled,0.000000,0.000000,0.000000,TRUE,-0.192291,0.476669,0.000000,0.066864,0.075714,0.000000,-0.021000,-0.175000,0.058000,-0.010000,-0.020000,1.140000,-0.599260,Hold,0.414307,0.000000,Hold,-82.000000,2.000000,Suck,-2257.500000,2400.000000,Speed,-2370.000000,2400.000000,Speed,Off,On,0.000000,FALSE,0,,,,
04:40:56.547 PM 03/25/2016,Teleop Enabled,10,FALSE,0,NO ERROR,-0.000000,0.000000,0.000000,-0.198916,TRUE,FALSE,FALSE,FALSE,FALSE,FALSE,Disabled,0.000000,0.000000,0.000000,TRUE,-0.186325,0.478775,0.000000,0.118149,0.053619,0.000000,-0.098000,0.034000,0.157000,-0.010000,-0.140000,1.160000,-0.586726,Hold,0.414307,0.000000,Hold,-82.000000,2.000000,Suck,-2250.000000,2400.000000,Speed,-2370.000000,2400.000000,Speed,Off,On,0.000000,FALSE,0,,,,
04:40:56.648 PM 03/25/2016,Teleop Enabled,10,FALSE,0,NO ERROR,-0.000000,0.000000,0.000000,-0.198916,TRUE,FALSE,FALSE,FALSE,FALSE,FALSE,Disabled,0.000000,0.000000,0.000000,TRUE,-0.182831,0.487244,0.000000,0.000000,0.243362,0.000000,-0.176000,0.221000,-0.008000,0.000000,-0.260000,1.160000,-0.578832,Hold,0.414307,0.000000,Hold,-82.000000,2.000000,Suck,-2250.000000,2400.000000,Speed,-2377.500000,2400.000000,Speed,Off,On,0.000000,FALSE,0,,,,
04:40:56.747 PM 03/25/2016,Teleop Enabled,11,FALSE,0,NO ERROR,-0.000000,0.000000,0.000000,-0.198916,TRUE,FALSE,FALSE,FALSE,FALSE,FALSE,Disabled,0.000000,0.000000,0.000000,TRUE,-0.184860,0.504684,0.000000,-0.032318,0.384430,0.000000,-0.063000,0.170000,-0.002000,0.000000,-0.090000,1.200000,-0.568487,Hold,0.414307,0.000000,Hold,-82.000000,2.000000,Suck,-2250.000000,2400.000000,Speed,-2377.500000,2400.000000,Speed,Off,On,0.000000,FALSE,0,,,,
04:40:56.847 PM 03/25/2016,Teleop Enabled,10,FALSE,0,NO ERROR,-0.000000,0.000000,0.000000,-0.198916,TRUE,FALSE,FALSE,FALSE,FALSE,FALSE,Disabled,0.000000,0.000000,0.000000,TRUE,-0.188202,0.527023,0.000000,-0.094635,0.467209,0.000000,-0.166000,-0.178000,0.036000,0.000000,-0.120000,1.210000,-0.564080,Hold,0.414307,0.000000,Hold,-82.000000,2.000000,Suck,-2250.000000,2400.000000,Speed,-2362.500000,2400.000000,Speed,Off,On,0.000000,FALSE,0,,,,
04:40:56.948 PM 03/25/2016,Teleop Enabled,9,FALSE,0,NO ERROR,-0.000000,0.000000,0.000000,-0.198916,TRUE,FALSE,FALSE,FALSE,FALSE,FALSE,Disabled,0.000000,0.000000,0.000000,TRUE,-0.194962,0.546677,0.000000,-0.091248,0.225388,0.000000,-0.039000,-0.239000,-0.022000,-0.010000,-0.040000,1.120000,-0.569692,Hold,0.414307,0.000000,Hold,-82.000000,2.000000,Suck,-2242.500000,2400.000000,Speed,-2355.000000,2400.000000,Speed,Off,On,0.000000,FALSE,0,,,,
04:40:57.047 PM 03/25/2016,Teleop Enabled,10,FALSE,0,NO ERROR,-0.000000,0.000000,0.000000,-0.198916,TRUE,FALSE,FALSE,FALSE,FALSE,FALSE,Disabled,0.000000,0.000000,0.000000,TRUE,-0.198349,0.553024,0.000000,-0.021927,0.096100,0.000000,0.122000,-0.061000,-0.002000,-0.010000,-0.150000,1.080000,-0.584526,Hold,0.414307,0.000000,Hold,-82.000000,2.000000,Suck,-2242.500000,2400.000000,Speed,-2362.500000,2400.000000,Speed,Off,On,0.000000,FALSE,0,,,,
04:40:57.149 PM 03/25/2016,Teleop Enabled,9,FALSE,0,NO ERROR,-0.000000,0.000000,0.000000,-0.198916,TRUE,FALSE,FALSE,FALSE,FALSE,FALSE,Disabled,0.000000,0.000000,0.000000,TRUE,-0.197891,0.555267,0.000000,0.036591,0.023636,0.000000,0.095000,0.077000,0.181000,-0.010000,-0.050000,0.980000,-0.575761,Hold,0.414307,0.000000,Hold,-82.000000,2.000000,Suck,-2250.000000,2400.000000,Speed,-2362.500000,2400.000000,Speed,Off,On,0.000000,FALSE,0,,,,
04:40:57.250 PM 03/25/2016,Teleop Enabled,9,FALSE,0,NO ERROR,-0.000000,0.000000,0.000000,-0.198916,TRUE,FALSE,FALSE,FALSE,FALSE,FALSE,Disabled,0.000000,0.000000,0.000000,TRUE,-0.195602,0.559357,0.000000,0.003876,0.176727,0.000000,-0.278000,0.482000,0.063000,0.000000,0.050000,0.970000,-0.577720,Hold,0.414307,0.000000,Hold,-82.000000,2.000000,Suck,-2257.500000,2400.000000,Speed,-2362.500000,2400.000000,Speed,Off,On,0.000000,FALSE,0,,,,
04:40:57.348 PM 03/25/2016,Teleop Enabled,9,FALSE,0,NO ERROR,-0.000000,0.000000,0.000000,-0.198916,TRUE,FALSE,FALSE,FALSE,FALSE,FALSE,Disabled,0.000000,0.000000,0.000000,TRUE,-0.199631,0.577347,0.000000,-0.109558,0.453018,0.000000,-0.059000,0.059000,-0.048000,0.000000,-0.180000,1.100000,-0.566504,Hold,0.414307,0.000000,Hold,-82.000000,2.000000,Suck,-2250.000000,2400.000000,Speed,-2370.000000,2400.000000,Speed,Off,On,0.000000,FALSE,0,,,,
04:40:57.450 PM 03/25/2016,Teleop Enabled,10,FALSE,0,NO ERROR,-0.000000,0.000000,0.000000,-0.198916,TRUE,FALSE,FALSE,FALSE,FALSE,FALSE,Disabled,0.000000,0.000000,0.000000,TRUE,-0.204803,0.600754,0.000000,-0.107117,0.453720,0.000000,-0.169000,0.044000,0.059000,-0.010000,-0.110000,1.060000,-0.582051,Hold,0.414307,0.000000,Hold,-82.000000,2.000000,Suck,-2242.500000,2400.000000,Speed,-2370.000000,2400.000000,Speed,Off,On,0.000000,FALSE,0,,,,
04:40:57.550 PM 03/25/2016,Teleop Enabled,10,FALSE,0,NO ERROR,-0.000000,0.000000,0.000000,-0.198916,TRUE,FALSE,FALSE,FALSE,FALSE,FALSE,Disabled,0.000000,0.000000,0.000000,TRUE,-0.212769,0.622772,0.000000,-0.179337,0.395020,0.000000,-0.180000,-0.235000,0.101000,0.000000,-0.070000,1.060000,-0.571275,Hold,0.414307,0.000000,Hold,-82.000000,2.000000,Suck,-2242.500000,2400.000000,Speed,-2370.000000,2400.000000,Speed,Off,On,0.000000,FALSE,0,,,,
04:40:57.650 PM 03/25/2016,Teleop Enabled,9,FALSE,0,NO ERROR,-0.000000,0.000000,0.000000,-0.198916,TRUE,FALSE,FALSE,FALSE,FALSE,FALSE,Disabled,0.000000,0.000000,0.000000,TRUE,-0.225510,0.639954,0.000000,-0.156998,0.213257,0.000000,0.101000,-0.127000,-0.001000,0.000000,-0.240000,1.090000,-0.569031,Hold,0.414307,0.000000,Hold,-82.000000,2.000000,Suck,-2242.500000,2400.000000,Speed,-2355.000000,2400.000000,Speed,Off,On,0.000000,FALSE,0,,,,
04:40:57.749 PM 03/25/2016,Teleop Enabled,9,FALSE,0,NO ERROR,-0.000000,0.000000,0.000000,-0.198916,TRUE,FALSE,FALSE,FALSE,FALSE,FALSE,Disabled,0.000000,0.000000,0.000000,TRUE,-0.230591,0.649719,0.000000,-0.071823,0.236832,0.000000,-0.034000,0.114000,-0.040000,0.000000,-0.130000,1.030000,-0.567705,Hold,0.414307,0.000000,Hold,-82.000000,2.000000,Suck,-2250.000000,2400.000000,Speed,-2362.500000,2400.000000,Speed,Off,On,0.000000,FALSE,0,,,,
04:40:57.852 PM 03/25/2016,Teleop Enabled,9,FALSE,0,NO ERROR,-0.000000,0.000000,0.000000,-0.198916,TRUE,FALSE,FALSE,FALSE,FALSE,FALSE,Disabled,0.000000,0.000000,0.000000,TRUE,-0.235229,0.666199,0.000000,-0.106979,0.407623,0.000000,-0.178000,0.201000,0.077000,0.000000,0.000000,1.000000,-0.573974,Hold,0.414307,0.000000,Hold,-82.000000,2.000000,Suck,-2250.000000,2400.000000,Speed,-2377.500000,2400.000000,Speed,Off,On,0.000000,FALSE,0,,,,
04:40:57.953 PM 03/25/2016,Teleop Enabled,9,FALSE,0,NO ERROR,-0.000000,0.000000,0.000000,-0.198916,TRUE,FALSE,FALSE,FALSE,FALSE,FALSE,Disabled,0.000000,0.000000,0.000000,TRUE,-0.241776,0.687042,0.000000,-0.188156,0.596542,0.000000,-0.032000,0.193000,-0.026000,0.010000,-0.200000,1.080000,-0.587338,Hold,0.414307,0.000000,Hold,-82.000000,2.000000,Suck,-2257.500000,2400.000000,Speed,-2370.000000,2400.000000,Speed,Off,On,0.000000,FALSE,0,,,,
04:40:58.053 PM 03/25/2016,Teleop Enabled,10,FALSE,0,NO ERROR,-0.000000,0.000000,0.000000,-0.198916,TRUE,FALSE,FALSE,FALSE,FALSE,FALSE,Disabled,0.000000,0.000000,0.000000,TRUE,-0.253494,0.719498,0.000000,-0.288025,0.644897,0.000000,-0.020000,-0.125000,-0.035000,0.010000,-0.370000,1.160000,-0.577052,Hold,0.414307,0.000000,Hold,-82.000000,2.000000,Suck,-2257.500000,2400.000000,Speed,-2370.000000,2400.000000,Speed,Off,On,0.000000,FALSE,0,,,,
04:40:58.153 PM 03/25/2016,Teleop Enabled,9,FALSE,0,NO ERROR,-0.000000,0.000000,0.000000,-0.198916,TRUE,FALSE,FALSE,FALSE,FALSE,FALSE,Disabled,0.000000,0.000000,0.000000,TRUE,-0.270691,0.751236,0.000000,-0.283691,0.450897,0.000000,0.255000,-0.212000,-0.093000,0.010000,-0.310000,1.150000,-0.580966,Hold,0.414307,0.000000,Hold,-82.000000,2.000000,Suck,-2257.500000,2400.000000,Speed,-2377.500000,2400.000000,Speed,Off,On,0.000000,FALSE,0,,,,
04:40:58.253 PM 03/25/2016,Teleop Enabled,9,FALSE,0,NO ERROR,-0.000000,0.000000,0.000000,-0.198916,TRUE,FALSE,FALSE,FALSE,FALSE,FALSE,Disabled,0.000000,0.000000,0.000000,TRUE,-0.279846,0.767029,0.000000,-0.144638,0.218155,0.000000,0.156000,0.018000,0.022000,0.000000,-0.110000,1.020000,-0.595745,Hold,0.414307,0.000000,Hold,-82.000000,2.000000,Suck,-2257.500000,2400.000000,Speed,-2377.500000,2400.000000,Speed,Off,On,0.000000,FALSE,0,,,,
04:40:58.355 PM 03/25/2016,Teleop Enabled,9,FALSE,0,NO ERROR,-0.000000,0.000000,0.000000,-0.198916,TRUE,FALSE,FALSE,FALSE,FALSE,FALSE,Disabled,0.000000,0.000000,0.000000,TRUE,-0.284927,0.777069,0.000000,-0.092606,0.231079,0.000000,-0.039000,0.360000,0.000000,0.000000,-0.050000,1.030000,-0.604076,Hold,0.414307,0.000000,Hold,-82.000000,2.000000,Suck,-2250.000000,2400.000000,Speed,-2377.500000,2400.000000,Speed,Off,On,0.000000,FALSE,0,,,,
04:40:58.456 PM 03/25/2016,Teleop Enabled,9,FALSE,0,NO ERROR,-0.000000,0.000000,0.000000,-0.198916,TRUE,FALSE,FALSE,FALSE,FALSE,FALSE,Disabled,0.000000,0.000000,0.000000,TRUE,-0.292313,0.796616,0.000000,-0.184769,0.478394,0.000000,-0.077000,0.015000,0.065000,0.010000,-0.170000,1.120000,-0.604589,Hold,0.414307,0.000000,Hold,-82.000000,2.000000,Suck,-2250.000000,2400.000000,Speed,-2370.000000,2400.000000,Speed,Off,On,0.000000,FALSE,0,,,,
04:40:58.557 PM 03/25/2016,Teleop Enabled,9,FALSE,0,NO ERROR,-0.000000,0.000000,0.000000,-0.198916,TRUE,FALSE,FALSE,FALSE,FALSE,FALSE,Disabled,0.000000,0.000000,0.000000,TRUE,-0.301239,0.821701,0.000000,-0.146912,0.500412,0.000000,-0.045000,-0.082000,-0.031000,0.000000,-0.060000,1.150000,-0.593060,Hold,0.414307,0.000000,Hold,-82.000000,2.000000,Suck,-2257.500000,2400.000000,Speed,-2362.500000,2400.000000,Speed,Off,On,0.000000,FALSE,0,,,,
04:40:58.658 PM 03/25/2016,Teleop Enabled,11,FALSE,0,NO ERROR,-0.000000,0.000000,0.000000,-0.198916,TRUE,FALSE,FALSE,FALSE,FALSE,FALSE,Disabled,0.000000,0.000000,0.000000,TRUE,-0.310272,0.845764,0.000000,-0.173325,0.460342,0.000000,-0.051000,-0.313000,0.005000,0.000000,0.040000,1.130000,-0.601084,Hold,0.414307,0.000000,Hold,-82.000000,2.000000,Suck,-2257.500000,2400.000000,Speed,-2362.500000,2400.000000,Speed,Off,On,0.000000,FALSE,0,,,,
04:40:58.761 PM 03/25/2016,Teleop Enabled,11,FALSE,0,NO ERROR,-0.000000,0.000000,0.000000,-0.198916,TRUE,FALSE,FALSE,FALSE,FALSE,FALSE,Disabled,0.000000,0.000000,0.000000,TRUE,-0.320709,0.864212,0.000000,-0.092484,0.186768,0.000000,0.325000,-0.252000,-0.104000,0.010000,-0.180000,1.130000,-0.594922,Hold,0.414307,0.000000,Hold,-82.000000,2.000000,Suck,-2265.000000,2400.000000,Speed,-2370.000000,2400.000000,Speed,Off,On,0.000000,FALSE,0,,,,
04:40:58.861 PM 03/25/2016,Teleop Enabled,11,FALSE,0,NO ERROR,-0.000000,0.000000,0.000000,-0.198916,TRUE,FALSE,FALSE,FALSE,FALSE,FALSE,Disabled,0.000000,0.000000,0.000000,TRUE,-0.322571,0.872635,0.000000,-0.024139,0.221359,0.000000,-0.095000,0.213000,-0.070000,0.020000,-0.020000,1.060000,-0.590757,Hold,0.414307,0.000000,Hold,-82.000000,2.000000,Suck,-2257.500000,2400.000000,Speed,-2362.500000,2400.000000,Speed,Off,On,0.000000,FALSE,0,,,,
04:40:58.961 PM 03/25/2016,Teleop Enabled,11,FALSE,0,NO ERROR,-0.000000,0.000000,0.000000,-0.198916,TRUE,FALSE,FALSE,FALSE,FALSE,FALSE,Disabled,0.000000,0.000000,0.000000,TRUE,-0.325912,0.887863,0.000000,-0.089935,0.376785,0.000000,-0.036000,0.210000,-0.090000,0.020000,-0.050000,1.070000,-0.600720,Hold,0.414307,0.000000,Hold,-82.000000,2.000000,Suck,-2257.500000,2400.000000,Speed,-2370.000000,2400.000000,Speed,Off,On,0.000000,FALSE,0,,,,
04:40:59.061 PM 03/25/2016,Teleop Enabled,11,FALSE,0,NO ERROR,-0.000000,0.000000,0.000000,-0.198916,TRUE,FALSE,FALSE,FALSE,FALSE,FALSE,Disabled,0.000000,0.000000,0.000000,TRUE,-0.329041,0.905212,0.000000,-0.092010,0.472305,0.000000,-0.059000,0.097000,-0.089000,0.020000,0.020000,1.040000,-0.596513,Hold,0.414307,0.000000,Hold,-82.000000,2.000000,Suck,-2265.000000,2400.000000,Speed,-2370.000000,2400.000000,Speed,Off,On,0.000000,FALSE,0,,,,
04:40:59.161 PM 03/25/2016,Teleop Enabled,11,FALSE,0,NO ERROR,-0.000000,0.000000,0.000000,-0.198916,TRUE,FALSE,FALSE,FALSE,FALSE,FALSE,Disabled,0.000000,0.000000,0.000000,TRUE,-0.336792,0.934799,0.000000,-0.143784,0.426315,0.000000,0.048000,-0.250000,-0.036000,0.020000,0.160000,1.000000,-0.609353,Hold,0.414307,0.000000,Hold,-82.000000,2.000000,Suck,-2265.000000,2400.000000,Speed,-2362.500000,2400.000000,Speed,Off,On,0.000000,FALSE,0,,,,
04:40:59.261 PM 03/25/2016,Teleop Enabled,11,FALSE,0,NO ERROR,-0.000000,0.000000,0.000000,-0.198916,TRUE,FALSE,FALSE,FALSE,FALSE,FALSE,Disabled,0.000000,0.000000,0.000000,TRUE,-0.341446,0.949539,0.000000,-0.038483,0.199875,0.000000,0.147000,-0.160000,-0.034000,0.020000,0.150000,1.030000,-0.608231,Hold,0.414307,0.000000,Hold,-82.000000,2.000000,Suck,-2265.000000,2400.000000,Speed,-2355.000000,2400.000000,Speed,Off,On,0.000000,FALSE,0,,,,
04:40:59.361 PM 03/25/2016,Teleop Enabled,11,FALSE,0,NO ERROR,-0.000000,0.000000,0.000000,-0.198916,TRUE,FALSE,FALSE,FALSE,FALSE,FALSE,Disabled,0.000000,0.000000,0.000000,TRUE,-0.342072,0.957245,0.000000,-0.018570,0.154465,0.000000,0.009000,-0.058000,0.110000,0.030000,-0.090000,1.020000,-0.602434,Hold,0.414307,0.000000,Hold,-82.000000,2.000000,Suck,-2257.500000,2400.000000,Speed,-2362.500000,2400.000000,Speed,Off,On,0.000000,FALSE,0,,,,
04:40:59.462 PM 03/25/2016,Teleop Enabled,11,FALSE,0,NO ERROR,-0.000000,0.000000,0.000000,-0.198916,TRUE,FALSE,FALSE,FALSE,FALSE,FALSE,Disabled,0.000000,0.000000,0.000000,TRUE,-0.343170,0.967102,0.000000,-0.029327,0.258347,0.000000,-0.095000,0.255000,0.066000,0.030000,-0.130000,0.970000,-0.620900,Hold,0.414307,0.000000,Hold,-82.000000,2.000000,Suck,-2265.000000,2400.000000,Speed,-2377.500000,2400.000000,Speed,Off,On,0.000000,FALSE,0,,,,
04:40:59.562 PM 03/25/2016,Teleop Enabled,11,FALSE,0,NO ERROR,-0.000000,0.000000,0.000000,-0.198916,TRUE,FALSE,FALSE,FALSE,FALSE,FALSE,Disabled,0.000000,0.000000,0.000000,TRUE,-0.346741,0.987640,0.000000,-0.073364,0.483612,0.000000,0.045000,0.005000,-0.094000,0.030000,0.030000,1.010000,-0.631833,Hold,0.414307,0.000000,Hold,-82.000000,2.000000,Suck,-2257.500000,2400.000000,Speed,-2377.500000,2400.000000,Speed,Off,On,0.000000,FALSE,0,,,,
04:40:59.661 PM 03/25/2016,Teleop Enabled,11,FALSE,0,NO ERROR,-0.000000,0.000000,0.000000,-0.198916,TRUE,FALSE,FALSE,FALSE,FALSE,FALSE,Disabled,0.000000,0.000000,0.000000,TRUE,-0.353638,0.987595,0.000000,-0.185760,-0.015381,0.000000,0.084000,-0.210000,0.082000,0.030000,-0.090000,1.120000,-0.645697,Hold,0.414307,0.000000,Hold,-82.000000,2.000000,Suck,-2257.500000,2400.000000,Speed,-2370.000000,2400.000000,Speed,Off,On,0.000000,FALSE,0,,,,
04:40:59.762 PM 03/25/2016,Teleop Enabled,10,FALSE,0,NO ERROR,-0.000000,0.000000,0.000000,-0.198916,TRUE,FALSE,FALSE,FALSE,FALSE,FALSE,Disabled,0.000000,0.000000,0.000000,TRUE,-0.360550,0.981873,0.000000,-0.112015,-0.157898,0.000000,0.214000,-0.195000,-0.092000,0.030000,-0.040000,1.070000,-0.653377,Hold,0.414307,0.000000,Hold,-82.000000,2.000000,Suck,-2265.000000,2400.000000,Speed,-2362.500000,2400.000000,Speed,Off,On,0.000000,FALSE,0,,,,
04:40:59.862 PM 03/25/2016,Teleop Enabled,11,FALSE,0,NO ERROR,-0.000000,0.000000,0.000000,-0.198916,TRUE,FALSE,FALSE,FALSE,FALSE,FALSE,Disabled,0.000000,0.000000,0.000000,TRUE,-0.361404,0.968979,0.000000,0.029587,-0.306320,0.000000,0.051000,0.054000,0.003000,0.030000,0.070000,1.010000,-0.649153,Hold,0.414307,0.000000,Hold,-82.000000,2.000000,Suck,-2265.000000,2400.000000,Speed,-2362.500000,2400.000000,Speed,Off,On,0.000000,FALSE,0,,,,
04:40:59.962 PM 03/25/2016,Teleop Enabled,11,FALSE,0,NO ERROR,-0.000000,0.000000,0.000000,-0.198916,TRUE,FALSE,FALSE,FALSE,FALSE,FALSE,Disabled,0.000000,0.000000,0.000000,TRUE,-0.358627,0.954315,0.000000,0.043304,-0.279724,0.000000,-0.094000,0.310000,0.055000,0.030000,0.100000,0.930000,-0.644392,Hold,0.414307,0.000000,Hold,-82.000000,2.000000,Suck,-2250.000000,2400.000000,Speed,-2370.000000,2400.000000,Speed,Off,On,0.000000,FALSE,0,,,,
04:41:00.064 PM 03/25/2016,Teleop Enabled,11,FALSE,0,NO ERROR,-0.000000,0.000000,0.000000,-0.198916,TRUE,FALSE,FALSE,FALSE,FALSE,FALSE,Disabled,0.000000,0.000000,0.000000,TRUE,-0.356628,0.946808,0.000000,0.052917,-0.083008,0.000000,0.047000,-0.080000,-0.042000,0.030000,0.220000,1.020000,-0.637655,Hold,0.414307,0.000000,Hold,-82.000000,2.000000,Suck,-2257.500000,2400.000000,Speed,-2362.500000,2400.000000,Speed,Off,On,0.000000,FALSE,0,,,,
04:41:00.163 PM 03/25/2016,Teleop Enabled,10,FALSE,0,NO ERROR,-0.000000,0.000000,0.000000,-0.198916,TRUE,FALSE,FALSE,FALSE,FALSE,FALSE,Disabled,0.000000,0.000000,0.000000,TRUE,-0.353455,0.941864,0.000000,0.071793,-0.112946,0.000000,-0.118000,-0.069000,0.076000,0.020000,0.310000,1.000000,-0.643180,Hold,0.414307,0.000000,Hold,-82.000000,2.000000,Suck,-2257.500000,2400.000000,Speed,-2355.000000,2400.000000,Speed,Off,On,0.000000,FALSE,0,,,,
04:41:00.263 PM 03/25/2016,Teleop Enabled,11,FALSE,0,NO ERROR,-0.000000,0.000000,0.000000,-0.198916,TRUE,FALSE,FALSE,FALSE,FALSE,FALSE,Disabled,0.000000,0.000000,0.000000,TRUE,-0.353287,0.934387,0.000000,-0.033813,-0.166687,0.000000,-0.043000,-0.181000,0.026000,0.020000,0.080000,1.010000,-0.637021,Hold,0.414307,0.000000,Hold,-82.000000,2.000000,Suck,-2265.000000,2400.000000,Speed,-2362.500000,2400.000000,Speed,Off,On,0.000000,FALSE,0,,,,
04:41:00.363 PM 03/25/2016,Teleop Enabled,11,FALSE,0,NO ERROR,-0.000000,0.000000,0.000000,-0.198916,TRUE,FALSE,FALSE,FALSE,FALSE,FALSE,Disabled,0.000000,0.000000,0.000000,TRUE,-0.354843,0.921539,0.000000,0.003006,-0.318069,0.000000,0.083000,-0.147000,-0.015000,0.030000,0.010000,0.900000,-0.612128,Hold,0.414307,0.000000,Hold,-82.000000,2.000000,Suck,-2265.000000,2400.000000,Speed,-2355.000000,2400.000000,Speed,Off,On,0.000000,FALSE,0,,,,
04:41:00.463 PM 03/25/2016,Teleop Enabled,10,FALSE,0,NO ERROR,-0.000000,0.000000,0.000000,-0.198916,TRUE,FALSE,FALSE,FALSE,FALSE,FALSE,Disabled,0.000000,0.000000,0.000000,TRUE,-0.353577,0.904556,0.000000,0.006348,-0.306870,0.000000,-0.080000,0.196000,0.014000,0.050000,-0.120000,0.950000,-0.618414,Hold,0.414307,0.000000,Hold,-82.000000,2.000000,Suck,-2265.000000,2400.000000,Speed,-2362.500000,2400.000000,Speed,Off,On,0.000000,FALSE,0,,,,
04:41:00.563 PM 03/25/2016,Teleop Enabled,11,FALSE,0,NO ERROR,-0.000000,0.000000,0.000000,-0.198916,TRUE,FALSE,FALSE,FALSE,FALSE,FALSE,Disabled,0.000000,0.000000,0.000000,TRUE,-0.355865,0.895752,0.000000,-0.080612,-0.036987,0.000000,0.015000,0.135000,0.138000,0.050000,-0.010000,0.940000,-0.632250,Hold,0.414307,0.000000,Hold,-82.000000,2.000000,Suck,-2272.500000,2400.000000,Speed,-2370.000000,2400.000000,Speed,Off,On,0.000000,FALSE,0,,,,
04:41:00.663 PM 03/25/2016,Teleop Enabled,11,FALSE,0,NO ERROR,-0.000000,0.000000,0.000000,-0.198916,TRUE,FALSE,FALSE,FALSE,FALSE,FALSE,Disabled,0.000000,0.000000,0.000000,TRUE,-0.358292,0.894363,0.000000,-0.054794,-0.034012,0.000000,-0.179000,0.120000,0.056000,0.050000,0.100000,0.960000,-0.634611,Hold,0.414307,0.000000,Hold,-82.000000,2.000000,Suck,-2272.500000,2400.000000,Speed,-2362.500000,2400.000000,Speed,Off,On,0.000000,FALSE,0,,,,
04:41:00.763 PM 03/25/2016,Teleop Enabled,10,FALSE,0,NO ERROR,-0.000000,0.000000,0.000000,-0.198916,TRUE,FALSE,FALSE,FALSE,FALSE,FALSE,Disabled,0.000000,0.000000,0.000000,TRUE,-0.362061,0.892441,0.000000,-0.063461,-0.098572,0.000000,0.088000,-0.232000,-0.014000,0.040000,0.180000,0.960000,-0.631930,Hold,0.414307,0.000000,Hold,-82.000000,2.000000,Suck,-2272.500000,2400.000000,Speed,-2355.000000,2400.000000,Speed,Off,On,0.000000,FALSE,0,,,,
04:41:00.863 PM 03/25/2016,Teleop Enabled,11,FALSE,0,NO ERROR,-0.000000,0.000000,0.000000,-0.198916,TRUE,FALSE,FALSE,FALSE,FALSE,FALSE,Disabled,0.000000,0.000000,0.000000,TRUE,-0.361481,0.880478,0.000000,0.072250,-0.304199,0.000000,0.069000,-0.016000,0.022000,0.040000,0.290000,0.830000,-0.631035,Hold,0.414307,0.000000,Hold,-82.000000,2.000000,Suck,-2272.500000,2400.000000,Speed,-2362.500000,2400.000000,Speed,Off,On,0.000000,FALSE,0,,,,
04:41:00.964 PM 03/25/2016,Teleop Enabled,10,FALSE,0,NO ERROR,-0.000000,0.000000,0.000000,-0.198916,TRUE,FALSE,FALSE,FALSE,FALSE,FALSE,Disabled,0.000000,0.000000,0.000000,TRUE,-0.358337,0.882950,0.000000,0.053223,0.123108,0.000000,-0.132000,0.261000,0.086000,0.050000,0.200000,0.790000,-0.622914,Hold,0.414307,0.000000,Hold,-82.000000,2.000000,Suck,-2272.500000,2400.000000,Speed,-2377.500000,2400.000000,Speed,Off,On,0.000000,FALSE,0,,,,
04:41:01.064 PM 03/25/2016,Teleop Enabled,10,FALSE,0,NO ERROR,-0.000000,0.000000,0.000000,-0.198916,TRUE,FALSE,FALSE,FALSE,FALSE,FALSE,Disabled,0.000000,0.000000,0.000000,TRUE,-0.357132,0.894943,0.000000,0.030655,0.282837,0.000000,0.057000,0.009000,0.024000,0.040000,0.320000,0.840000,-0.615557,Hold,0.414307,0.000000,Hold,-82.000000,2.000000,Suck,-2280.000000,2400.000000,Speed,-2385.000000,2400.000000,Speed,Off,On,0.000000,FALSE,0,,,,
04:41:01.163 PM 03/25/2016,Teleop Enabled,11,FALSE,0,NO ERROR,-0.000000,0.000000,0.000000,-0.198916,TRUE,FALSE,FALSE,FALSE,FALSE,FALSE,Disabled,0.000000,0.000000,0.000000,TRUE,-0.357986,0.909988,0.000000,-0.044571,0.284241,0.000000,-0.107000,-0.239000,0.041000,0.040000,0.240000,0.890000,-0.627045,Hold,0.414307,0.000000,Hold,-82.000000,2.000000,Suck,-2280.000000,2400.000000,Speed,-2377.500000,2400.000000,Speed,Off,On,0.000000,FALSE,0,,,,
04:41:01.264 PM 03/25/2016,Teleop Enabled,13,FALSE,0,NO ERROR,-0.000000,0.000000,0.000000,-0.198916,TRUE,FALSE,FALSE,FALSE,FALSE,FALSE,Disabled,0.000000,0.000000,0.000000,TRUE,-0.357727,0.917465,0.000000,0.084106,0.061966,0.000000,0.286000,-0.247000,-0.040000,0.040000,0.360000,0.890000,-0.626990,Hold,0.414307,0.000000,Hold,-82.000000,2.000000,Suck,-2280.000000,2400.000000,Speed,-2377.500000,2400.000000,Speed,Off,On,0.000000,FALSE,0,,,,
04:41:01.364 PM 03/25/2016,Teleop Enabled,10,FALSE,0,NO ERROR,-0.000000,0.000000,0.000000,-0.198916,TRUE,FALSE,FALSE,FALSE,FALSE,FALSE,Disabled,0.000000,0.000000,0.000000,TRUE,-0.352478,0.920227,0.000000,0.092331,0.126648,0.000000,0.286000,-0.247000,-0.040000,0.060000,0.340000,0.890000,-0.625812,Hold,0.414307,0.000000,Hold,-82.000000,2.000000,Suck,-2280.000000,2400.000000,Speed,-2377.500000,2400.000000,Speed,Off,On,0.000000,FALSE,0,,,,
04:41:01.464 PM 03/25/2016,Teleop Enabled,11,FALSE,0,NO ERROR,-0.000000,0.000000,0.000000,-0.198916,TRUE,FALSE,FALSE,FALSE,FALSE,FALSE,Disabled,0.000000,0.000000,0.000000,TRUE,-0.350189,0.932602,0.000000,0.022614,0.307632,0.000000,0.081000,0.098000,-0.056000,0.060000,0.340000,0.890000,-0.622308,Hold,0.414307,0.000000,Hold,-82.000000,2.000000,Suck,-2280.000000,2400.000000,Speed,-2392.500000,2400.000000,Speed,Off,On,0.000000,FALSE,0,,,,
04:41:01.564 PM 03/25/2016,Teleop Enabled,12,FALSE,0,NO ERROR,-0.000000,0.000000,0.000000,-0.198916,TRUE,FALSE,FALSE,FALSE,FALSE,FALSE,Disabled,0.000000,0.000000,0.000000,TRUE,-0.349838,0.949158,0.000000,-0.027893,0.321426,0.000000,0.007000,-0.258000,-0.048000,0.060000,0.280000,0.970000,-0.607890,Hold,0.414307,0.000000,Hold,-82.000000,2.000000,Suck,-2287.500000,2400.000000,Speed,-2392.500000,2400.000000,Speed,Off,On,0.000000,FALSE,0,,,,
04:41:01.664 PM 03/25/2016,Teleop Enabled,9,FALSE,0,NO ERROR,-0.000000,0.000000,0.000000,-0.198916,TRUE,FALSE,FALSE,FALSE,FALSE,FALSE,Disabled,0.000000,0.000000,0.000000,TRUE,-0.349777,0.959183,0.000000,0.043182,0.109833,0.000000,0.139000,-0.092000,-0.093000,0.060000,0.280000,0.970000,-0.607983,Hold,0.414307,0.000000,Hold,-82.000000,2.000000,Suck,-2287.500000,2400.000000,Speed,-2362.500000,2400.000000,Speed,Off,On,0.000000,FALSE,0,,,,
04:41:01.765 PM 03/25/2016,Teleop Enabled,13,FALSE,0,NO ERROR,-0.000000,0.000000,0.000000,-0.198916,TRUE,FALSE,FALSE,FALSE,FALSE,FALSE,Disabled,0.000000,0.000000,0.000000,TRUE,-0.344879,0.962326,0.000000,0.117798,0.070389,0.000000,0.139000,-0.092000,-0.093000,0.060000,0.310000,0.800000,-0.612156,Hold,0.414307,0.000000,Hold,-82.000000,2.000000,Suck,-2280.000000,2400.000000,Speed,-2355.000000,2400.000000,Speed,Off,On,0.000000,FALSE,0,,,,
04:41:01.864 PM 03/25/2016,Teleop Enabled,11,FALSE,0,NO ERROR,-0.000000,0.000000,0.000000,-0.198916,TRUE,FALSE,FALSE,FALSE,FALSE,FALSE,Disabled,0.000000,0.000000,0.000000,TRUE,-0.342468,0.978180,0.000000,-0.000122,0.364639,0.000000,-0.123000,0.255000,0.074000,0.070000,0.290000,0.880000,-0.594179,Hold,0.414307,0.000000,Hold,-82.000000,2.000000,Suck,-2280.000000,2400.000000,Speed,-2362.500000,2400.000000,Speed,Off,On,0.000000,FALSE,0,,,,
04:41:01.965 PM 03/25/2016,Teleop Enabled,10,FALSE,0,NO ERROR,-0.000000,0.000000,0.000000,-0.198916,TRUE,FALSE,FALSE,FALSE,FALSE,FALSE,Disabled,0.000000,0.000000,0.000000,TRUE,-0.344055,0.996155,0.000000,-0.031403,0.296799,0.000000,-0.114000,0.109000,-0.047000,0.070000,0.290000,0.880000,-0.580691,Hold,0.414307,0.000000,Hold,-82.000000,2.000000,Suck,-2265.000000,2400.000000,Speed,-2362.500000,2400.000000,Speed,Off,On,0.000000,FALSE,0,,,,
04:41:02.065 PM 03/25/2016,Teleop Enabled,9,FALSE,0,NO ERROR,-0.000000,0.000000,0.000000,-0.198916,TRUE,FALSE,FALSE,FALSE,FALSE,FALSE,Disabled,0.000000,0.000000,0.000000,TRUE,-0.346603,1.006943,0.000000,-0.011261,0.141663,0.000000,-0.124000,-0.234000,0.061000,0.070000,0.310000,0.950000,-0.574752,Hold,0.414307,0.000000,Hold,-82.000000,2.000000,Suck,-2265.000000,2400.000000,Speed,-2377.500000,2400.000000,Speed,Off,On,0.000000,FALSE,0,,,,
04:41:02.166 PM 03/25/2016,Teleop Enabled,10,FALSE,0,NO ERROR,-0.000000,0.000000,0.000000,-0.198916,TRUE,FALSE,FALSE,FALSE,FALSE,FALSE,Disabled,0.000000,0.000000,0.000000,TRUE,-0.342224,1.009079,0.000000,0.116989,0.015076,0.000000,0.269000,-0.258000,-0.067000,0.090000,0.180000,0.950000,-0.545859,Hold,0.414307,0.000000,Hold,-82.000000,2.000000,Suck,-2280.000000,2400.000000,Speed,-2385.000000,2400.000000,Speed,Off,On,0.000000,FALSE,0,,,,
04:41:02.267 PM 03/25/2016,Teleop Enabled,10,FALSE,0,NO ERROR,-0.000000,0.000000,0.000000,-0.198916,TRUE,FALSE,FALSE,FALSE,FALSE,FALSE,Disabled,0.000000,0.000000,0.000000,TRUE,-0.342224,1.009079,0.000000,0.116989,0.015076,0.000000,0.140000,0.154000,0.059000,0.100000,0.190000,0.880000,-0.552221,Hold,0.414307,0.000000,Hold,-82.000000,2.000000,Suck,-2280.000000,2400.000000,Speed,-2385.000000,2400.000000,Speed,Off,On,0.000000,FALSE,0,,,,
04:41:02.368 PM 03/25/2016,Teleop Enabled,10,FALSE,0,NO ERROR,-0.000000,0.000000,0.000000,-0.198916,TRUE,FALSE,FALSE,FALSE,FALSE,FALSE,Disabled,0.000000,0.000000,0.000000,TRUE,-0.333221,1.030472,0.000000,0.046341,0.305374,0.000000,-0.073000,0.130000,0.048000,0.090000,0.310000,0.950000,-0.543497,Hold,0.414307,0.000000,Hold,-82.000000,2.000000,Suck,-2280.000000,2400.000000,Speed,-2377.500000,2400.000000,Speed,Off,On,0.000000,FALSE,0,,,,
04:41:02.468 PM 03/25/2016,Teleop Enabled,11,FALSE,0,NO ERROR,-0.000000,0.000000,0.000000,-0.198916,TRUE,FALSE,FALSE,FALSE,FALSE,FALSE,Disabled,0.000000,0.000000,0.000000,TRUE,-0.333221,1.030472,0.000000,0.046341,0.305374,0.000000,-0.088000,-0.184000,0.019000,0.100000,0.250000,1.000000,-0.546096,Hold,0.414307,0.000000,Hold,-82.000000,2.000000,Suck,-2272.500000,2400.000000,Speed,-2370.000000,2400.000000,Speed,Off,On,0.000000,FALSE,0,,,,
04:41:02.569 PM 03/25/2016,Teleop Enabled,9,FALSE,0,NO ERROR,-0.000000,0.000000,0.000000,-0.198916,TRUE,FALSE,FALSE,FALSE,FALSE,FALSE,Disabled,0.000000,0.000000,0.000000,TRUE,-0.331863,1.042297,0.000000,0.020309,0.209229,0.000000,0.249000,-0.191000,-0.083000,0.090000,0.220000,1.040000,-0.554658,Hold,0.414307,0.000000,Hold,-82.000000,2.000000,Suck,-2272.500000,2400.000000,Speed,-2355.000000,2400.000000,Speed,Off,On,0.000000,FALSE,0,,,,
04:41:02.671 PM 03/25/2016,Teleop Enabled,9,FALSE,0,NO ERROR,-0.000000,0.000000,0.000000,-0.198916,TRUE,FALSE,FALSE,FALSE,FALSE,FALSE,Disabled,0.000000,0.000000,0.000000,TRUE,-0.315170,1.045532,0.000000,0.203293,0.014801,0.000000,0.214000,-0.051000,-0.033000,0.090000,0.250000,1.120000,-0.549367,Hold,0.414307,0.000000,Hold,-82.000000,2.000000,Suck,-2280.000000,2400.000000,Speed,-2362.500000,2400.000000,Speed,Off,On,0.000000,FALSE,0,,,,
04:41:02.772 PM 03/25/2016,Teleop Enabled,9,FALSE,0,NO ERROR,-0.000000,0.000000,0.000000,-0.198916,TRUE,FALSE,FALSE,FALSE,FALSE,FALSE,Disabled,0.000000,0.000000,0.000000,TRUE,-0.307968,1.052444,0.000000,0.117020,0.000000,0.000000,-0.241000,0.500000,-0.037000,0.110000,0.210000,1.000000,-0.547797,Hold,0.414307,0.000000,Hold,-82.000000,2.000000,Suck,-2280.000000,2400.000000,Speed,-2370.000000,2400.000000,Speed,Off,On,0.000000,FALSE,0,,,,
04:41:02.872 PM 03/25/2016,Teleop Enabled,9,FALSE,0,NO ERROR,-0.000000,0.000000,0.000000,-0.198916,TRUE,FALSE,FALSE,FALSE,FALSE,FALSE,Disabled,0.000000,0.000000,0.000000,TRUE,-0.303528,1.049576,0.000000,0.116562,-0.134399,0.000000,-0.136000,0.093000,0.016000,0.100000,0.220000,1.090000,-0.547770,Hold,0.414307,0.000000,Hold,-82.000000,2.000000,Suck,-2287.500000,2400.000000,Speed,-2362.500000,2400.000000,Speed,Off,On,0.000000,FALSE,0,,,,
04:41:02.975 PM 03/25/2016,Teleop Enabled,9,FALSE,0,NO ERROR,-0.000000,0.000000,0.000000,-0.198916,TRUE,FALSE,FALSE,FALSE,FALSE,FALSE,Disabled,0.000000,0.000000,0.000000,TRUE,-0.303528,1.049576,0.000000,0.116562,-0.134399,0.000000,0.020000,-0.158000,-0.029000,0.090000,0.250000,1.160000,-0.550382,Hold,0.414307,0.000000,Hold,-82.000000,2.000000,Suck,-2280.000000,2400.000000,Speed,-2370.000000,2400.000000,Speed,Off,On,0.000000,FALSE,0,,,,
04:41:03.077 PM 03/25/2016,Teleop Enabled,9,FALSE,0,NO ERROR,-0.000000,0.000000,0.000000,-0.198916,TRUE,FALSE,FALSE,FALSE,FALSE,FALSE,Disabled,0.000000,0.000000,0.000000,TRUE,-0.295898,1.039001,0.000000,0.213120,-0.258636,0.000000,0.003000,-0.107000,-0.011000,0.100000,0.370000,1.160000,-0.561220,Hold,0.414307,0.000000,Hold,-82.000000,2.000000,Suck,-2272.500000,2400.000000,Speed,-2362.500000,2400.000000,Speed,Off,On,0.000000,FALSE,0,,,,
04:41:03.177 PM 03/25/2016,Teleop Enabled,9,FALSE,0,NO ERROR,-0.000000,0.000000,0.000000,-0.198916,TRUE,FALSE,FALSE,FALSE,FALSE,FALSE,Disabled,0.000000,0.000000,0.000000,TRUE,-0.281555,1.022354,0.000000,0.264877,-0.238541,0.000000,-0.029000,0.284000,0.138000,0.110000,0.430000,1.110000,-0.561220,Hold,0.414307,0.000000,Hold,-82.000000,2.000000,Suck,-2272.500000,2400.000000,Speed,-2355.000000,2400.000000,Speed,Off,On,0.000000,FALSE,0,,,,
04:41:03.278 PM 03/25/2016,Teleop Enabled,10,FALSE,0,NO ERROR,-0.000000,0.000000,0.000000,-0.198916,TRUE,FALSE,FALSE,FALSE,FALSE,FALSE,Disabled,0.000000,0.000000,0.000000,TRUE,-0.271286,1.019821,0.000000,0.199844,0.050735,0.000000,-0.020000,-0.036000,0.054000,0.100000,0.670000,1.190000,-0.571155,Hold,0.414307,0.000000,Hold,-82.000000,2.000000,Suck,-2272.500000,2400.000000,Speed,-2377.500000,2400.000000,Speed,Off,On,0.000000,FALSE,0,,,,
04:41:03.379 PM 03/25/2016,Teleop Enabled,10,FALSE,0,NO ERROR,-0.000000,0.000000,0.000000,-0.198916,TRUE,FALSE,FALSE,FALSE,FALSE,FALSE,Disabled,0.000000,0.000000,0.000000,TRUE,-0.262375,1.021118,0.000000,0.173309,-0.028519,0.000000,0.065000,-0.294000,0.098000,0.110000,0.590000,1.190000,-0.553415,Hold,0.414307,0.000000,Hold,-82.000000,2.000000,Suck,-2272.500000,2400.000000,Speed,-2385.000000,2400.000000,Speed,Off,On,0.000000,FALSE,0,,,,
04:41:03.479 PM 03/25/2016,Teleop Enabled,9,FALSE,0,NO ERROR,-0.000000,0.000000,0.000000,-0.198916,TRUE,FALSE,FALSE,FALSE,FALSE,FALSE,Disabled,0.000000,0.000000,0.000000,TRUE,-0.252045,1.013260,0.000000,0.242249,-0.215210,0.000000,0.076000,-0.229000,-0.106000,0.100000,0.540000,1.170000,-0.548475,Hold,0.414307,0.000000,Hold,-82.000000,2.000000,Suck,-2280.000000,2400.000000,Speed,-2377.500000,2400.000000,Speed,Off,On,0.000000,FALSE,0,,,,
04:41:03.580 PM 03/25/2016,Teleop Enabled,11,FALSE,0,NO ERROR,-0.000000,0.000000,0.000000,-0.198916,TRUE,FALSE,FALSE,FALSE,FALSE,FALSE,Disabled,0.000000,0.000000,0.000000,TRUE,-0.236862,0.998474,0.000000,0.355118,-0.291840,0.000000,-0.045000,-0.013000,-0.005000,0.120000,0.690000,1.060000,-0.538072,Hold,0.414307,0.000000,Hold,-82.000000,2.000000,Suck,-2295.000000,2400.000000,Speed,-2370.000000,2400.000000,Speed,Off,On,0.000000,FALSE,0,,,,
04:41:03.680 PM 03/25/2016,Teleop Enabled,11,FALSE,0,NO ERROR,-0.000000,0.000000,0.000000,-0.198916,TRUE,FALSE,FALSE,FALSE,FALSE,FALSE,Disabled,0.000000,0.000000,0.000000,TRUE,-0.220291,0.988220,0.000000,0.298538,-0.103790,0.000000,0.059000,0.107000,-0.035000,0.110000,0.850000,1.100000,-0.518108,Hold,0.414307,0.000000,Hold,-82.000000,2.000000,Suck,-2295.000000,2400.000000,Speed,-2377.500000,2400.000000,Speed,Off,On,0.000000,FALSE,0,,,,
04:41:03.780 PM 03/25/2016,Teleop Enabled,11,FALSE,0,NO ERROR,-0.000000,0.000000,0.000000,-0.198916,TRUE,FALSE,FALSE,FALSE,FALSE,FALSE,Disabled,0.000000,0.000000,0.000000,TRUE,-0.207214,0.985352,0.000000,0.226654,-0.077805,0.000000,0.059000,-0.122000,0.067000,0.120000,0.760000,1.130000,-0.525166,Hold,0.414307,0.000000,Hold,-82.000000,2.000000,Suck,-2280.000000,2400.000000,Speed,-2385.000000,2400.000000,Speed,Off,On,0.000000,FALSE,0,,,,
04:41:03.880 PM 03/25/2016,Teleop Enabled,10,FALSE,0,NO ERROR,-0.000000,0.000000,0.000000,-0.198916,TRUE,FALSE,FALSE,FALSE,FALSE,FALSE,Disabled,0.000000,0.000000,0.000000,TRUE,-0.193390,0.975601,0.000000,0.322266,-0.288925,0.000000,0.116000,-0.103000,-0.048000,0.120000,0.820000,1.060000,-0.530509,Hold,0.414307,0.000000,Hold,-82.000000,2.000000,Suck,-2287.500000,2400.000000,Speed,-2377.500000,2400.000000,Speed,Off,On,0.000000,FALSE,0,,,,
04:41:03.980 PM 03/25/2016,Teleop Enabled,11,FALSE,0,NO ERROR,-0.000000,0.000000,0.000000,-0.198916,TRUE,FALSE,FALSE,FALSE,FALSE,FALSE,Disabled,0.000000,0.000000,0.000000,TRUE,-0.174103,0.959473,0.000000,0.408371,-0.320938,0.000000,-0.150000,0.297000,0.058000,0.130000,0.910000,1.000000,-0.524636,Hold,0.414307,0.000000,Hold,-82.000000,2.000000,Suck,-2295.000000,2400.000000,Speed,-2370.000000,2400.000000,Speed,Off,On,0.000000,FALSE,0,,,,
04:41:04.081 PM 03/25/2016,Teleop Enabled,11,FALSE,0,NO ERROR,-0.000000,0.000000,0.000000,-0.198916,TRUE,FALSE,FALSE,FALSE,FALSE,FALSE,Disabled,0.000000,0.000000,0.000000,TRUE,-0.156601,0.949646,0.000000,0.324463,-0.100525,0.000000,-0.193000,0.274000,-0.042000,0.130000,0.910000,1.060000,-0.523765,Hold,0.414307,0.000000,Hold,-82.000000,2.000000,Suck,-2287.500000,2400.000000,Speed,-2385.000000,2400.000000,Speed,Off,On,0.000000,FALSE,0,,,,
04:41:04.181 PM 03/25/2016,Teleop Enabled,11,FALSE,0,NO ERROR,-0.000000,0.000000,0.000000,-0.198916,TRUE,FALSE,FALSE,FALSE,FALSE,FALSE,Disabled,0.000000,0.000000,0.000000,TRUE,-0.143585,0.948730,0.000000,0.223633,-0.031296,0.000000,-0.180000,-0.160000,-0.013000,0.120000,0.820000,1.040000,-0.537452,Hold,0.414307,0.000000,Hold,-82.000000,2.000000,Suck,-2295.000000,2400.000000,Speed,-2392.500000,2400.000000,Speed,Off,On,0.000000,FALSE,0,,,,
04:41:04.282 PM 03/25/2016,Teleop Enabled,11,FALSE,0,NO ERROR,-0.000000,0.000000,0.000000,-0.198916,TRUE,FALSE,FALSE,FALSE,FALSE,FALSE,Disabled,0.000000,0.000000,0.000000,TRUE,-0.128693,0.939606,0.000000,0.303925,-0.252716,0.000000,0.112000,-0.036000,0.039000,0.130000,0.720000,0.960000,-0.528099,Hold,0.414307,0.000000,Hold,-82.000000,2.000000,Suck,-2302.500000,2400.000000,Speed,-2385.000000,2400.000000,Speed,Off,On,0.000000,FALSE,0,,,,
04:41:04.382 PM 03/25/2016,Teleop Enabled,10,FALSE,0,NO ERROR,-0.000000,0.000000,0.000000,-0.198916,TRUE,FALSE,FALSE,FALSE,FALSE,FALSE,Disabled,0.000000,0.000000,0.000000,TRUE,-0.113647,0.930008,0.000000,0.267899,-0.129074,0.000000,-0.092000,0.307000,0.001000,0.130000,0.600000,1.050000,-0.534323,Hold,0.414307,0.000000,Hold,-82.000000,2.000000,Suck,-2302.500000,2400.000000,Speed,-2377.500000,2400.000000,Speed,Off,On,0.000000,FALSE,0,,,,
04:41:04.483 PM 03/25/2016,Teleop Enabled,11,FALSE,0,NO ERROR,-0.000000,0.000000,0.000000,-0.198916,TRUE,FALSE,FALSE,FALSE,FALSE,FALSE,Disabled,0.000000,0.000000,0.000000,TRUE,-0.102463,0.928131,0.000000,0.201019,-0.015137,0.000000,-0.175000,0.100000,0.117000,0.150000,0.530000,1.090000,-0.536213,Hold,0.414307,0.000000,Hold,-82.000000,2.000000,Suck,-2287.500000,2400.000000,Speed,-2377.500000,2400.000000,Speed,Off,On,0.000000,FALSE,0,,,,
