Time,Robot Mode,Loop Time,Error Status,Error Code,Error Source,Left Motor Output,Left Motor Encoder,Right Motor Output,Right Motor Encoder,Is Level,Is Stalled,Ball Detector Photoeye,Vision Enabled,Vision Teleop Control,Vision Auto Control,Vision Current State,Vision X Output,Vision NavX Error,Vision NavX Target,NavX Connection Status,NavX Displacement X,NavX Displacement Y,NavX Displacement Z,NavX Velocity X,NavX Velocity Y,NavX Velocity Z,NavX Acceleration X,NavX Acceleration Y,NavX Acceleration Z,NavX Pitch,NavX Yaw,NavX Roll,Gyro Angle,Roller Arm State,Roller Arm Actual,Roller Arm Desired,Shooter Arm State,Shooter Arm Actual,Shooter Arm Desired,Shooter State,Actual RPM Left,Desired RPM Left,Control Mode Left,Actual RPM Right,Desired RPM Right,Control Mode Right,Ball Shooter Cylinder,Ball Halo Cylinder,Scaler Motor Output,Scaler Solenoid Fire,Auto To Run,Auto Current File,Auto File Status,Auto Current Command,Auto Trimmed Command
11:36:17.425 AM 03/25/2016,Autonomous Enabled,9,TRUE,-44003,<LOCATION>WPI_CameraIssue HTTP Request with Authentication.vi<CALLSTACK>WPI_CameraIssue HTTP Request with Authentication.vi< <WPI_CameraIssue Get.vi< <WPI_CameraSet Image Appearance Property.vi< <WPI_CameraSet Image Size.vi< <Vision Processing.vi< <Robot Main.vi,0.000000,0.000000,0.000000,0.000000,TRUE,TRUE,TRUE,FALSE,FALSE,FALSE,Disabled,0.000000,0.000000,0.000000,TRUE,0.000000,0.000000,0.000000,0.000000,0.000000,0.000000,0.001000,0.004000,0.005000,-0.770000,0.280000,1.460000,-0.606265,ResetBack,0.000000,-0.000049,ResetBack,0.000000,-0.250000,LowGoal,0.000000,-2181.818182,Speed,0.000000,-2181.818182,Speed,Off,Off,0.000000,FALSE,13,Read: /home/lvuser/scripts/auto_13.bee,File good!,WAIT 1500,WAIT
11:36:17.527 AM 03/25/2016,Autonomous Enabled,10,TRUE,7,Read from Text File in DoesScriptNumberContainNull.vi->Disabled.vi->Robot Main.vi<APPEND> /home/lvuser/scripts/auto_12.bee,0.000000,0.000000,0.000000,0.000000,TRUE,FALSE,TRUE,FALSE,FALSE,FALSE,Disabled,0.000000,0.000000,0.000000,TRUE,0.000046,0.000061,0.000000,0.006073,0.003540,0.000000,0.003000,0.006000,-0.091000,-0.770000,0.300000,1.370000,-0.608954,ResetBack,-0.267090,-0.000049,ResetBack,0.000000,-0.250000,LowGoal,232.500000,-2181.818182,Speed,180.000000,-2181.818182,Speed,Off,Off,0.000000,FALSE,13,Read: /home/lvuser/scripts/auto_13.bee,File good!,WAIT 1500,WAIT
11:36:17.630 AM 03/25/2016,Autonomous Enabled,11,TRUE,7,Read from Text File in DoesScriptNumberContainNull.vi->Disabled.vi->Robot Main.vi<APPEND> /home/lvuser/scripts/auto_12.bee,0.000000,0.000000,0.000000,0.000000,TRUE,FALSE,TRUE,FALSE,FALSE,FALSE,Disabled,0.000000,0.000000,0.000000,TRUE,0.000931,0.000031,0.000000,0.022278,-0.003113,0.000000,0.086000,-0.012000,0.101000,-0.770000,0.330000,1.360000,-0.622748,ResetBack,-0.440186,-0.000049,ResetBack,2126.000000,-0.250000,LowGoal,832.500000,0.000000,Speed,727.500000,0.000000,Speed,Off,Off,0.000000,FALSE,13,Read: /home/lvuser/scripts/auto_13.bee,File good!,WAIT 1500,WAIT
11:36:17.731 AM 03/25/2016,Autonomous Enabled,10,TRUE,7,Read from Text File in DoesScriptNumberContainNull.vi->Disabled.vi->Robot Main.vi<APPEND> /home/lvuser/scripts/auto_12.bee,0.000000,0.000000,0.000000,0.000000,TRUE,FALSE,TRUE,FALSE,FALSE,FALSE,Disabled,0.000000,0.000000,0.000000,TRUE,0.003265,-0.000137,0.000000,0.054642,0.000214,0.000000,-0.021000,-0.007000,0.065000,-0.770000,0.330000,1.340000,-0.641311,Reset,-0.522705,-0.000049,ResetBack,2816.000000,-0.250000,LowGoal,952.500000,-2181.818182,Speed,727.500000,-2181.818182,Speed,Off,Off,0.000000,FALSE,13,Read: /home/lvuser/scripts/auto_13.bee,File good!,WAIT 1500,WAIT
11:36:17.831 AM 03/25/2016,Autonomous Enabled,9,TRUE,7,Read from Text File in DoesScriptNumberContainNull.vi->Disabled.vi->Robot Main.vi<APPEND> /home/lvuser/scripts/auto_12.bee,0.000000,0.000000,0.000000,0.000000,TRUE,FALSE,TRUE,FALSE,FALSE,FALSE,Disabled,0.000000,0.000000,0.000000,TRUE,0.004791,-0.000336,0.000000,-0.002594,0.005829,0.000000,-0.006000,-0.020000,0.010000,-0.780000,0.410000,1.360000,-0.627413,Hold,-0.522705,0.000000,ResetBack,3689.000000,-0.250000,LowGoal,1380.000000,-2181.818182,Speed,952.500000,-2181.818182,Speed,Off,Off,0.000000,FALSE,13,Read: /home/lvuser/scripts/auto_13.bee,File good!,WAIT 1500,WAIT
11:36:17.931 AM 03/25/2016,Autonomous Enabled,10,TRUE,7,Read from Text File in DoesScriptNumberContainNull.vi->Disabled.vi->Robot Main.vi<APPEND> /home/lvuser/scripts/auto_12.bee,0.000000,0.000000,0.000000,0.000000,TRUE,FALSE,TRUE,FALSE,FALSE,FALSE,Disabled,0.000000,0.000000,0.000000,TRUE,0.003632,0.001251,0.000000,-0.027557,0.069870,0.000000,-0.013000,0.203000,0.020000,-0.770000,0.410000,1.450000,-0.629210,Hold,0.140869,0.000000,ResetBack,3689.000000,-0.250000,LowGoal,1380.000000,-2181.818182,Speed,1387.500000,-2181.818182,Speed,Off,Off,0.000000,FALSE,13,Read: /home/lvuser/scripts/auto_13.bee,File good!,WAIT 1500,WAIT
11:36:18.032 AM 03/25/2016,Autonomous Enabled,9,TRUE,7,Read from Text File in DoesScriptNumberContainNull.vi->Disabled.vi->Robot Main.vi<APPEND> /home/lvuser/scripts/auto_12.bee,0.000000,0.000000,0.000000,0.000000,TRUE,FALSE,TRUE,FALSE,FALSE,FALSE,Disabled,0.000000,0.000000,0.000000,TRUE,0.000748,0.004883,0.000000,-0.083008,0.077698,0.000000,-0.135000,0.210000,-0.226000,-0.780000,0.390000,1.240000,-0.636264,Hold,0.343262,0.000000,ResetBack,3747.000000,-0.250000,LowGoal,1897.500000,-2181.818182,Speed,1867.500000,-2181.818182,Speed,Off,Off,0.000000,FALSE,13,Read: /home/lvuser/scripts/auto_13.bee,File good!,WAIT 1500,WAIT
11:36:18.132 AM 03/25/2016,Autonomous Enabled,11,TRUE,7,Read from Text File in DoesScriptNumberContainNull.vi->Disabled.vi->Robot Main.vi<APPEND> /home/lvuser/scripts/auto_12.bee,0.000000,0.000000,0.000000,0.000000,TRUE,FALSE,TRUE,FALSE,FALSE,FALSE,Disabled,0.000000,0.000000,0.000000,TRUE,-0.006195,0.013397,0.000000,-0.161743,0.215164,0.000000,0.064000,-0.113000,0.367000,-0.770000,0.250000,1.380000,-0.637817,Hold,0.344727,0.000000,ResetBack,4347.000000,-0.250000,LowGoal,2235.000000,-2181.818182,Speed,2287.500000,-2181.818182,Speed,Off,Off,0.000000,FALSE,13,Read: /home/lvuser/scripts/auto_13.bee,File good!,WAIT 1500,WAIT
11:36:18.234 AM 03/25/2016,Autonomous Enabled,10,TRUE,7,Read from Text File in DoesScriptNumberContainNull.vi->Disabled.vi->Robot Main.vi<APPEND> /home/lvuser/scripts/auto_12.bee,0.000000,0.000000,0.000000,0.000000,TRUE,FALSE,TRUE,FALSE,FALSE,FALSE,Disabled,0.000000,0.000000,0.000000,TRUE,-0.011993,0.022797,0.000000,-0.066055,0.197845,0.000000,0.103000,0.070000,0.290000,-0.780000,0.420000,1.180000,-0.626549,Hold,0.345459,0.000000,ResetBack,4937.000000,-0.250000,LowGoal,2250.000000,-2181.818182,Speed,2295.000000,-2181.818182,Speed,Off,Off,0.000000,FALSE,13,Read: /home/lvuser/scripts/auto_13.bee,File good!,WAIT 1500,WAIT
11:36:18.334 AM 03/25/2016,Autonomous Enabled,11,TRUE,7,Read from Text File in DoesScriptNumberContainNull.vi->Disabled.vi->Robot Main.vi<APPEND> /home/lvuser/scripts/auto_12.bee,0.000000,0.000000,0.000000,0.000000,TRUE,FALSE,TRUE,FALSE,FALSE,FALSE,Disabled,0.000000,0.000000,0.000000,TRUE,-0.012848,0.035858,0.000000,-0.001984,0.300842,0.000000,-0.068000,0.091000,0.089000,-0.780000,0.780000,1.220000,-0.627482,Hold,0.345947,0.000000,ResetBack,4983.000000,-0.250000,LowGoal,2160.000000,-2181.818182,Speed,2190.000000,-2181.818182,Speed,Off,Off,0.000000,FALSE,13,Read: /home/lvuser/scripts/auto_13.bee,File good!,WAIT 1500,WAIT
11:36:18.434 AM 03/25/2016,Autonomous Enabled,10,TRUE,7,Read from Text File in DoesScriptNumberContainNull.vi->Disabled.vi->Robot Main.vi<APPEND> /home/lvuser/scripts/auto_12.bee,0.000000,0.000000,0.000000,0.000000,TRUE,FALSE,TRUE,FALSE,FALSE,FALSE,Disabled,0.000000,0.000000,0.000000,TRUE,-0.014099,0.052475,0.000000,-0.027237,0.364761,0.000000,0.021000,0.170000,0.159000,-0.790000,0.900000,0.840000,-0.625048,Hold,0.346436,0.000000,ResetBack,4987.000000,-0.250000,LowGoal,2122.500000,-2181.818182,Speed,2167.500000,-2181.818182,Speed,Off,Off,0.000000,FALSE,13,Read: /home/lvuser/scripts/auto_13.bee,File good!,WAIT 1500,WAIT
11:36:18.534 AM 03/25/2016,Autonomous Enabled,11,TRUE,7,Read from Text File in DoesScriptNumberContainNull.vi->Disabled.vi->Robot Main.vi<APPEND> /home/lvuser/scripts/auto_12.bee,0.000000,0.000000,0.000000,0.000000,TRUE,FALSE,TRUE,FALSE,FALSE,FALSE,Disabled,0.000000,0.000000,0.000000,TRUE,-0.015701,0.073227,0.000000,-0.036072,0.445099,0.000000,-0.020000,0.231000,0.197000,-0.800000,1.220000,0.830000,-0.615887,Hold,0.346680,0.000000,ResetBack,4987.000000,-0.250000,LowGoal,2130.000000,-2181.818182,Speed,2190.000000,-2181.818182,Speed,Off,Off,0.000000,FALSE,13,Read: /home/lvuser/scripts/auto_13.bee,File good!,WAIT 1500,WAIT
11:36:18.634 AM 03/25/2016,Autonomous Enabled,11,TRUE,7,Read from Text File in DoesScriptNumberContainNull.vi->Disabled.vi->Robot Main.vi<APPEND> /home/lvuser/scripts/auto_12.bee,0.000000,0.000000,0.000000,0.000000,TRUE,FALSE,TRUE,FALSE,FALSE,FALSE,Disabled,0.000000,0.000000,0.000000,TRUE,-0.018082,0.099838,0.000000,-0.071823,0.574432,0.000000,-0.036000,0.021000,0.026000,-0.800000,1.090000,1.100000,-0.617533,Hold,0.346924,0.000000,ResetBack,4988.000000,-0.250000,LowGoal,2122.500000,-2181.818182,Speed,2205.000000,-2181.818182,Speed,Off,Off,0.000000,FALSE,13,Read: /home/lvuser/scripts/auto_13.bee,File good!,WAIT 1500,WAIT
11:36:18.734 AM 03/25/2016,Autonomous Enabled,10,TRUE,7,Read from Text File in DoesScriptNumberContainNull.vi->Disabled.vi->Robot Main.vi<APPEND> /home/lvuser/scripts/auto_12.bee,0.000000,0.000000,0.000000,0.000000,TRUE,FALSE,TRUE,FALSE,FALSE,FALSE,Disabled,0.000000,0.000000,0.000000,TRUE,-0.020645,0.123657,0.000000,0.000000,0.000000,0.000000,-0.012000,-0.063000,-0.182000,-0.790000,0.850000,1.490000,-0.620173,Hold,0.347412,0.000000,Reset,4989.000000,2.000000,LowGoal,2130.000000,-2181.818182,Speed,2197.500000,-2181.818182,Speed,Off,Off,0.000000,FALSE,13,Read: /home/lvuser/scripts/auto_13.bee,File good!,WAIT 1500,WAIT
11:36:18.834 AM 03/25/2016,Autonomous Enabled,11,TRUE,7,Read from Text File in DoesScriptNumberContainNull.vi->Disabled.vi->Robot Main.vi<APPEND> /home/lvuser/scripts/auto_12.bee,0.000000,0.000000,0.000000,0.000000,TRUE,FALSE,TRUE,FALSE,FALSE,FALSE,Disabled,0.000000,0.000000,0.000000,TRUE,-0.021866,0.120361,0.000000,-0.048203,-0.115051,0.000000,-0.089000,-0.195000,-0.263000,-0.780000,0.460000,1.530000,-0.628164,Hold,0.347656,0.000000,Hold,-261.000000,2.000000,LowGoal,2130.000000,-2181.818182,Speed,2190.000000,-2181.818182,Speed,Off,Off,0.000000,FALSE,13,Read: /home/lvuser/scripts/auto_13.bee,File good!,WAIT 1500,WAIT
11:36:18.934 AM 03/25/2016,Autonomous Enabled,10,TRUE,7,Read from Text File in DoesScriptNumberContainNull.vi->Disabled.vi->Robot Main.vi<APPEND> /home/lvuser/scripts/auto_12.bee,0.000000,0.000000,0.000000,0.000000,TRUE,FALSE,TRUE,FALSE,FALSE,FALSE,Disabled,0.000000,0.000000,0.000000,TRUE,-0.027740,0.107071,0.000000,-0.125366,-0.307510,0.000000,-0.060000,-0.194000,-0.160000,-0.770000,0.170000,1.480000,-0.616600,Hold,0.347656,0.000000,Hold,-164.000000,2.000000,LowGoal,2115.000000,-2181.818182,Speed,2182.500000,-2181.818182,Speed,Off,Off,0.000000,FALSE,13,Read: /home/lvuser/scripts/auto_13.bee,File good!,WAIT 1500,WAIT
11:36:19.034 AM 03/25/2016,Autonomous Enabled,11,TRUE,7,Read from Text File in DoesScriptNumberContainNull.vi->Disabled.vi->Robot Main.vi<APPEND> /home/lvuser/scripts/auto_12.bee,0.000000,0.000000,0.000000,0.000000,TRUE,FALSE,TRUE,FALSE,FALSE,FALSE,Disabled,0.000000,0.000000,0.000000,TRUE,-0.035568,0.084198,0.000000,-0.170120,-0.551315,0.000000,0.025000,-0.149000,-0.118000,0.000000,-0.020000,1.060000,-0.001208,Hold,0.347900,0.000000,Hold,-164.000000,2.000000,LowGoal,2137.500000,-2181.818182,Speed,2190.000000,-2181.818182,Speed,Off,Off,0.000000,FALSE,13,Read: /home/lvuser/scripts/auto_13.bee,File good!,WAIT 750,WAIT
11:36:19.134 AM 03/25/2016,Autonomous Enabled,11,TRUE,7,Read from Text File in DoesScriptNumberContainNull.vi->Disabled.vi->Robot Main.vi<APPEND> /home/lvuser/scripts/auto_12.bee,0.000000,0.000000,0.000000,0.000000,TRUE,FALSE,TRUE,FALSE,FALSE,FALSE,Disabled,0.000000,0.000000,0.000000,TRUE,-0.044952,0.049362,0.000000,-0.184860,-0.789017,0.000000,0.082000,-0.223000,-0.128000,0.000000,-0.080000,0.640000,0.014538,Hold,0.348145,58.000000,Hold,-164.000000,151552.000000,LowGoal,2167.500000,-2181.818182,Speed,2182.500000,-2181.818182,Speed,Off,Off,0.000000,FALSE,13,Read: /home/lvuser/scripts/auto_13.bee,File good!,WAIT 750,WAIT
11:36:19.234 AM 03/25/2016,Autonomous Enabled,10,TRUE,7,Read from Text File in DoesScriptNumberContainNull.vi->Disabled.vi->Robot Main.vi<APPEND> /home/lvuser/scripts/auto_12.bee,0.000000,0.000000,0.000000,0.000000,TRUE,FALSE,TRUE,FALSE,FALSE,FALSE,Disabled,0.000000,0.000000,0.000000,TRUE,-0.051300,0.005325,0.000000,-0.104309,-0.886673,0.000000,0.113000,-0.092000,0.100000,0.000000,0.120000,0.490000,0.008875,Hold,3.815430,58.000000,Hold,-164.000000,151552.000000,LowGoal,2160.000000,-2181.818182,Speed,2190.000000,-2181.818182,Speed,Off,Off,0.000000,FALSE,13,Read: /home/lvuser/scripts/auto_13.bee,File good!,WAIT 750,WAIT
11:36:19.334 AM 03/25/2016,Autonomous Enabled,11,TRUE,7,Read from Text File in DoesScriptNumberContainNull.vi->Disabled.vi->Robot Main.vi<APPEND> /home/lvuser/scripts/auto_12.bee,0.000000,0.000000,0.000000,0.000000,TRUE,FALSE,TRUE,FALSE,FALSE,FALSE,Disabled,0.000000,0.000000,0.000000,TRUE,-0.054306,-0.041077,0.000000,-0.022095,-0.940857,0.000000,0.018000,-0.063000,0.080000,0.000000,0.410000,0.340000,0.020173,Hold,5.885498,58.000000,Hold,-8939.000000,151552.000000,LowGoal,2137.500000,-2181.818182,Speed,2182.500000,-2181.818182,Speed,Off,Off,0.000000,FALSE,13,Read: /home/lvuser/scripts/auto_13.bee,File good!,WAIT 750,WAIT
11:36:19.434 AM 03/25/2016,Autonomous Enabled,10,TRUE,7,Read from Text File in DoesScriptNumberContainNull.vi->Disabled.vi->Robot Main.vi<APPEND> /home/lvuser/scripts/auto_12.bee,0.000000,0.000000,0.000000,0.000000,TRUE,FALSE,TRUE,FALSE,FALSE,FALSE,Disabled,0.000000,0.000000,0.000000,TRUE,-0.053696,-0.090515,0.000000,0.019653,-1.032135,0.000000,0.004000,-0.147000,0.012000,-0.010000,0.570000,0.130000,0.033014,Hold,9.613770,58.000000,Hold,-21090.000000,151552.000000,LowGoal,2152.500000,-2181.818182,Speed,2175.000000,-2181.818182,Speed,Off,Off,0.000000,FALSE,13,Read: /home/lvuser/scripts/auto_13.bee,File good!,WAIT 750,WAIT
11:36:19.534 AM 03/25/2016,Autonomous Enabled,10,TRUE,7,Read from Text File in DoesScriptNumberContainNull.vi->Disabled.vi->Robot Main.vi<APPEND> /home/lvuser/scripts/auto_12.bee,0.000000,0.000000,0.000000,0.000000,TRUE,FALSE,TRUE,FALSE,FALSE,FALSE,Disabled,0.000000,0.000000,0.000000,TRUE,-0.052170,-0.144409,0.000000,0.071884,-1.092300,0.000000,0.134000,-0.049000,0.138000,-0.020000,0.700000,-0.170000,0.046729,Hold,14.110352,58.000000,Hold,-32679.000000,151552.000000,LowGoal,2167.500000,-2181.818182,Speed,2182.500000,-2181.818182,Speed,Off,Off,0.000000,FALSE,13,Read: /home/lvuser/scripts/auto_13.bee,File good!,WAIT 750,WAIT
11:36:19.634 AM 03/25/2016,Autonomous Enabled,10,TRUE,7,Read from Text File in DoesScriptNumberContainNull.vi->Disabled.vi->Robot Main.vi<APPEND> /home/lvuser/scripts/auto_12.bee,0.000000,0.000000,0.000000,0.000000,TRUE,FALSE,TRUE,FALSE,FALSE,FALSE,Disabled,0.000000,0.000000,0.000000,TRUE,-0.044678,-0.199341,0.000000,0.167953,-1.100616,0.000000,-0.032000,-0.017000,-0.015000,-0.020000,0.700000,-0.170000,0.046065,Hold,19.281006,58.000000,Hold,-43046.000000,151552.000000,LowGoal,2152.500000,-2181.818182,Speed,2175.000000,-2181.818182,Speed,Off,Off,0.000000,FALSE,13,Read: /home/lvuser/scripts/auto_13.bee,File good!,WAIT 750,WAIT
11:36:19.734 AM 03/25/2016,Autonomous Enabled,10,TRUE,7,Read from Text File in DoesScriptNumberContainNull.vi->Disabled.vi->Robot Main.vi<APPEND> /home/lvuser/scripts/auto_12.bee,0.000000,0.000000,0.000000,0.000000,TRUE,FALSE,TRUE,FALSE,FALSE,FALSE,Disabled,0.000000,0.000000,0.000000,TRUE,-0.032135,-0.269043,0.000000,0.254471,-1.230026,0.000000,-0.032000,-0.017000,-0.015000,-0.010000,0.950000,-0.330000,0.047862,Hold,25.398682,58.000000,Hold,-55207.000000,151552.000000,LowGoal,2115.000000,-2181.818182,Speed,2182.500000,-2181.818182,Speed,Off,Off,0.000000,FALSE,13,Read: /home/lvuser/scripts/auto_13.bee,File good!,WAIT 750,WAIT
11:36:19.835 AM 03/25/2016,Autonomous Enabled,10,TRUE,7,Read from Text File in DoesScriptNumberContainNull.vi->Disabled.vi->Robot Main.vi<APPEND> /home/lvuser/scripts/auto_12.bee,0.000000,0.000000,0.000000,0.044917,TRUE,FALSE,TRUE,FALSE,FALSE,FALSE,Disabled,0.000000,0.000000,0.000000,TRUE,-0.013916,-0.333084,0.000000,0.462509,-1.314087,0.000000,0.057000,-0.118000,0.018000,-0.030000,1.410000,-0.410000,0.030763,Hold,32.397705,58.000000,Hold,-69009.000000,151552.000000,LowGoal,2107.500000,-2181.818182,Speed,2182.500000,-2181.818182,Speed,Off,Off,0.000000,FALSE,13,Read: /home/lvuser/scripts/auto_13.bee,File good!,DRIVE_STRAIGHT_TARGET 206 1000 10000 75,DRIVE_STRAIGHT_TARGET
11:36:19.935 AM 03/25/2016,Autonomous Enabled,11,TRUE,7,Read from Text File in DoesScriptNumberContainNull.vi->Disabled.vi->Robot Main.vi<APPEND> /home/lvuser/scripts/auto_12.bee,0.000000,-0.757165,0.000000,0.872665,TRUE,FALSE,TRUE,FALSE,FALSE,FALSE,Disabled,0.000000,0.000000,0.000000,TRUE,0.005310,-0.388870,0.000000,0.468628,-1.455032,0.000000,1.218000,-0.483000,-0.004000,0.050000,2.020000,-0.450000,0.032343,Hold,40.448242,58.000000,Hold,-69009.000000,151552.000000,LowGoal,2130.000000,-2181.818182,Speed,2167.500000,-2181.818182,Speed,Off,Off,0.000000,FALSE,13,Read: /home/lvuser/scripts/auto_13.bee,File good!,DRIVE_STRAIGHT_TARGET 206 1000 10000 75,DRIVE_STRAIGHT_TARGET
11:36:20.035 AM 03/25/2016,Autonomous Enabled,11,TRUE,7,Read from Text File in DoesScriptNumberContainNull.vi->Disabled.vi->Robot Main.vi<APPEND> /home/lvuser/scripts/auto_12.bee,0.000000,-2.996576,0.000000,3.054326,TRUE,FALSE,TRUE,FALSE,FALSE,FALSE,Disabled,0.000000,0.000000,0.000000,TRUE,0.046036,-0.472061,0.000000,0.944962,-1.778900,0.000000,1.218000,-0.483000,-0.004000,0.050000,2.020000,-0.450000,0.093039,Hold,51.627441,58.000000,Hold,-87420.000000,151552.000000,LowGoal,2137.500000,-2181.818182,Speed,2167.500000,-2181.818182,Speed,Off,Off,0.000000,FALSE,13,Read: /home/lvuser/scripts/auto_13.bee,File good!,DRIVE_STRAIGHT_TARGET 206 1000 10000 75,DRIVE_STRAIGHT_TARGET
11:36:20.135 AM 03/25/2016,Autonomous Enabled,10,TRUE,7,Read from Text File in DoesScriptNumberContainNull.vi->Disabled.vi->Robot Main.vi<APPEND> /home/lvuser/scripts/auto_12.bee,0.000000,-6.147152,0.000000,6.307569,FALSE,FALSE,TRUE,FALSE,FALSE,FALSE,Disabled,0.000000,0.000000,0.000000,TRUE,0.108536,-0.586563,0.000000,1.074905,-2.012070,0.000000,0.140000,-0.201000,-0.160000,0.040000,3.830000,-0.430000,-0.115525,Hold,57.403809,58.000000,Hold,-102847.000000,151552.000000,LowGoal,2107.500000,-2181.818182,Speed,2152.500000,-2181.818182,Speed,Off,Off,0.000000,FALSE,13,Read: /home/lvuser/scripts/auto_13.bee,File good!,DRIVE_STRAIGHT_TARGET 206 1000 10000 75,DRIVE_STRAIGHT_TARGET
11:36:20.235 AM 03/25/2016,Autonomous Enabled,11,TRUE,7,Read from Text File in DoesScriptNumberContainNull.vi->Disabled.vi->Robot Main.vi<APPEND> /home/lvuser/scripts/auto_12.bee,0.000000,-9.945810,0.000000,10.138310,TRUE,FALSE,TRUE,FALSE,FALSE,FALSE,Disabled,0.000000,0.000000,0.000000,TRUE,0.151108,-0.670349,0.000000,1.056946,-2.138153,0.000000,0.128000,-0.281000,0.093000,-0.150000,2.850000,-0.490000,-0.230445,Hold,61.820068,58.000000,Hold,-117216.000000,151552.000000,LowGoal,2100.000000,-2181.818182,Speed,2145.000000,-2181.818182,Speed,Off,Off,0.000000,FALSE,13,Read: /home/lvuser/scripts/auto_13.bee,File good!,DRIVE_STRAIGHT_TARGET 206 1000 10000 75,DRIVE_STRAIGHT_TARGET
11:36:20.335 AM 03/25/2016,Autonomous Enabled,10,TRUE,7,Read from Text File in DoesScriptNumberContainNull.vi->Disabled.vi->Robot Main.vi<APPEND> /home/lvuser/scripts/auto_12.bee,0.000000,-13.924134,0.000000,14.232133,FALSE,FALSE,TRUE,FALSE,FALSE,FALSE,Disabled,0.000000,0.000000,0.000000,TRUE,0.212952,-0.805206,0.000000,0.996109,-2.281235,0.000000,-0.167000,-0.198000,-0.119000,-0.260000,3.200000,-0.350000,-0.337639,Hold,61.629883,58.000000,Hold,-135819.000000,151552.000000,LowGoal,2137.500000,-2181.818182,Speed,2160.000000,-2181.818182,Speed,Off,Off,0.000000,FALSE,13,Read: /home/lvuser/scripts/auto_13.bee,File good!,DRIVE_STRAIGHT_TARGET 206 1000 10000 75,DRIVE_STRAIGHT_TARGET
11:36:20.436 AM 03/25/2016,Autonomous Enabled,11,TRUE,7,Read from Text File in DoesScriptNumberContainNull.vi->Disabled.vi->Robot Main.vi<APPEND> /home/lvuser/scripts/auto_12.bee,0.000000,-18.030791,0.000000,18.325957,FALSE,FALSE,TRUE,FALSE,FALSE,FALSE,Disabled,0.000000,0.000000,0.000000,TRUE,0.263916,-0.917084,0.000000,1.021729,-2.185822,0.000000,-0.152000,0.034000,0.303000,-0.350000,4.240000,-0.290000,-0.468281,Hold,61.597168,58.000000,Hold,-152319.000000,151552.000000,LowGoal,2167.500000,-2181.818182,Speed,2167.500000,-2181.818182,Speed,Off,Off,0.000000,FALSE,13,Read: /home/lvuser/scripts/auto_13.bee,File good!,DRIVE_STRAIGHT_TARGET 206 1000 10000 75,DRIVE_STRAIGHT_TARGET
11:36:20.538 AM 03/25/2016,Autonomous Enabled,11,TRUE,7,Read from Text File in DoesScriptNumberContainNull.vi->Disabled.vi->Robot Main.vi<APPEND> /home/lvuser/scripts/auto_12.bee,0.000000,-22.413364,0.000000,22.625114,FALSE,FALSE,TRUE,FALSE,FALSE,FALSE,Disabled,0.000000,0.000000,0.000000,TRUE,0.263916,-0.917084,0.000000,1.021729,-2.185822,0.000000,-0.103000,0.165000,0.174000,-0.490000,3.970000,-0.010000,-0.418071,Hold,61.592529,58.000000,Hold,-151321.000000,151552.000000,LowGoal,2152.500000,-2181.818182,Speed,2167.500000,-2181.818182,Speed,Off,Off,0.000000,FALSE,13,Read: /home/lvuser/scripts/auto_13.bee,File good!,DRIVE_STRAIGHT_TARGET 206 1000 10000 75,DRIVE_STRAIGHT_TARGET
11:36:20.639 AM 03/25/2016,Autonomous Enabled,11,TRUE,7,Read from Text File in DoesScriptNumberContainNull.vi->Disabled.vi->Robot Main.vi<APPEND> /home/lvuser/scripts/auto_12.bee,0.000000,-26.667604,0.000000,26.693271,FALSE,FALSE,TRUE,FALSE,FALSE,FALSE,Disabled,0.000000,0.000000,0.000000,TRUE,0.313889,-1.023376,0.000000,0.984421,-2.095291,0.000000,-0.095000,0.009000,0.107000,-0.420000,4.110000,0.070000,-0.211170,Hold,61.592529,58.000000,Hold,-151321.000000,151552.000000,LowGoal,2130.000000,-2181.818182,Speed,2167.500000,-2181.818182,Speed,Off,Off,0.000000,FALSE,13,Read: /home/lvuser/scripts/auto_13.bee,File good!,DRIVE_STRAIGHT_TARGET 206 1000 10000 75,DRIVE_STRAIGHT_TARGET
11:36:20.739 AM 03/25/2016,Autonomous Enabled,10,TRUE,7,Read from Text File in DoesScriptNumberContainNull.vi->Disabled.vi->Robot Main.vi<APPEND> /home/lvuser/scripts/auto_12.bee,0.000000,-30.825595,0.000000,30.806345,FALSE,FALSE,TRUE,FALSE,FALSE,FALSE,Disabled,0.000000,0.000000,0.000000,TRUE,0.396072,-1.232635,0.000000,0.000000,-2.111938,0.000000,-0.159000,-0.043000,-0.173000,-0.210000,3.840000,-0.220000,0.019901,Hold,61.592285,58.000000,Hold,-151557.000000,151552.000000,LowGoal,2122.500000,-2181.818182,Speed,2175.000000,-2181.818182,Speed,Off,Off,0.000000,FALSE,13,Read: /home/lvuser/scripts/auto_13.bee,File good!,DRIVE_STRAIGHT_TARGET 206 1000 10000 75,DRIVE_STRAIGHT_TARGET
11:36:20.840 AM 03/25/2016,Autonomous Enabled,11,TRUE,7,Read from Text File in DoesScriptNumberContainNull.vi->Disabled.vi->Robot Main.vi<APPEND> /home/lvuser/scripts/auto_12.bee,0.000000,-35.041335,0.000000,35.099085,FALSE,FALSE,TRUE,FALSE,FALSE,FALSE,Disabled,0.000000,0.000000,0.000000,TRUE,0.396072,-1.232635,0.000000,0.000000,-2.111938,0.000000,-0.013000,-0.144000,-0.102000,0.000000,3.840000,-0.210000,0.090271,Hold,61.592285,58.000000,Hold,-151556.000000,151552.000000,LowGoal,2122.500000,-2181.818182,Speed,2175.000000,-2181.818182,Speed,Off,Off,0.000000,FALSE,13,Read: /home/lvuser/scripts/auto_13.bee,File good!,DRIVE_STRAIGHT_TARGET 206 1000 10000 75,DRIVE_STRAIGHT_TARGET
11:36:20.941 AM 03/25/2016,Autonomous Enabled,8,TRUE,7,Read from Text File in DoesScriptNumberContainNull.vi->Disabled.vi->Robot Main.vi<APPEND> /home/lvuser/scripts/auto_12.bee,0.000000,-39.378991,0.000000,39.385408,FALSE,FALSE,TRUE,FALSE,FALSE,FALSE,Disabled,0.000000,0.000000,0.000000,TRUE,0.395065,-1.340851,0.000000,-0.052292,-2.176025,0.000000,-0.087000,-0.060000,0.034000,0.020000,3.330000,-0.290000,0.090271,Hold,61.592285,58.000000,Hold,-151556.000000,151552.000000,LowGoal,2130.000000,-2181.818182,Speed,2167.500000,-2181.818182,Speed,Off,Off,0.000000,FALSE,13,Read: /home/lvuser/scripts/auto_13.bee,File good!,DRIVE_STRAIGHT_TARGET 206 1000 10000 75,DRIVE_STRAIGHT_TARGET
11:36:21.042 AM 03/25/2016,Autonomous Enabled,9,TRUE,7,Read from Text File in DoesScriptNumberContainNull.vi->Disabled.vi->Robot Main.vi<APPEND> /home/lvuser/scripts/auto_12.bee,0.000000,-39.378991,0.000000,39.385408,FALSE,FALSE,TRUE,FALSE,FALSE,FALSE,Disabled,0.000000,0.000000,0.000000,TRUE,0.389099,-1.470673,0.000000,-0.126083,-2.123245,0.000000,-0.074000,0.162000,0.219000,-0.060000,3.100000,-0.280000,0.007994,Hold,61.592285,58.000000,Hold,-151556.000000,151552.000000,LowGoal,2130.000000,-2181.818182,Speed,2182.500000,-2181.818182,Speed,Off,Off,0.000000,FALSE,13,Read: /home/lvuser/scripts/auto_13.bee,File good!,DRIVE_STRAIGHT_TARGET 206 1000 10000 75,DRIVE_STRAIGHT_TARGET
11:36:21.142 AM 03/25/2016,Autonomous Enabled,10,TRUE,7,Read from Text File in DoesScriptNumberContainNull.vi->Disabled.vi->Robot Main.vi<APPEND> /home/lvuser/scripts/auto_12.bee,0.000000,-43.639648,0.000000,43.710231,TRUE,FALSE,TRUE,FALSE,FALSE,FALSE,Disabled,0.000000,0.000000,0.000000,TRUE,0.382370,-1.554169,0.000000,-0.190369,-2.079956,0.000000,0.037000,-0.028000,0.006000,-0.160000,2.790000,-0.360000,-0.091944,Hold,61.589111,58.000000,Hold,-151493.000000,151552.000000,LowGoal,2152.500000,-2181.818182,Speed,2175.000000,-2181.818182,Speed,Off,Off,0.000000,FALSE,13,Read: /home/lvuser/scripts/auto_13.bee,File good!,DRIVE_STRAIGHT_TARGET 206 1000 10000 75,DRIVE_STRAIGHT_TARGET
11:36:21.243 AM 03/25/2016,Autonomous Enabled,9,TRUE,7,Read from Text File in DoesScriptNumberContainNull.vi->Disabled.vi->Robot Main.vi<APPEND> /home/lvuser/scripts/auto_12.bee,0.000000,-48.041471,0.000000,48.112054,FALSE,FALSE,TRUE,FALSE,FALSE,FALSE,Disabled,0.000000,0.000000,0.000000,TRUE,0.372086,-1.682007,0.000000,-0.186081,-2.176758,0.000000,-0.108000,0.049000,0.313000,-0.090000,3.390000,-0.460000,-0.072411,Hold,61.353760,58.000000,Hold,-151493.000000,151552.000000,LowGoal,2152.500000,-2181.818182,Speed,2167.500000,-2181.818182,Speed,Off,Off,0.000000,FALSE,13,Read: /home/lvuser/scripts/auto_13.bee,File good!,DRIVE_STRAIGHT_TARGET 206 1000 10000 75,DRIVE_STRAIGHT_TARGET
11:36:21.343 AM 03/25/2016,Autonomous Enabled,10,TRUE,7,Read from Text File in DoesScriptNumberContainNull.vi->Disabled.vi->Robot Main.vi<APPEND> /home/lvuser/scripts/auto_12.bee,0.000000,-52.122461,0.000000,52.103211,FALSE,FALSE,TRUE,FALSE,FALSE,FALSE,Disabled,0.000000,0.000000,0.000000,TRUE,0.360123,-1.791733,0.000000,-0.246490,-2.209045,0.000000,-0.041000,0.032000,0.044000,0.000000,4.480000,-0.380000,0.032804,Hold,61.387207,58.000000,Hold,-151493.000000,151552.000000,LowGoal,2145.000000,-2181.818182,Speed,2175.000000,-2181.818182,Speed,Off,Off,0.000000,FALSE,13,Read: /home/lvuser/scripts/auto_13.bee,File good!,DRIVE_STRAIGHT_TARGET 206 1000 10000 75,DRIVE_STRAIGHT_TARGET
11:36:21.443 AM 03/25/2016,Autonomous Enabled,10,TRUE,7,Read from Text File in DoesScriptNumberContainNull.vi->Disabled.vi->Robot Main.vi<APPEND> /home/lvuser/scripts/auto_12.bee,0.000000,-56.261202,0.000000,56.126452,FALSE,FALSE,TRUE,FALSE,FALSE,FALSE,Disabled,0.000000,0.000000,0.000000,TRUE,0.343597,-1.901184,0.000000,-0.416580,-2.183533,0.000000,-0.297000,-0.074000,0.024000,0.090000,6.700000,-0.240000,0.093125,Hold,61.386230,58.000000,Hold,-151493.000000,151552.000000,LowGoal,2130.000000,-2181.818182,Speed,2175.000000,-2181.818182,Speed,Off,Off,0.000000,FALSE,13,Read: /home/lvuser/scripts/auto_13.bee,File good!,DRIVE_STRAIGHT_TARGET 206 1000 10000 75,DRIVE_STRAIGHT_TARGET
11:36:21.543 AM 03/25/2016,Autonomous Enabled,10,TRUE,7,Read from Text File in DoesScriptNumberContainNull.vi->Disabled.vi->Robot Main.vi<APPEND> /home/lvuser/scripts/auto_12.bee,0.000000,-60.008526,0.000000,59.982860,FALSE,FALSE,TRUE,FALSE,FALSE,FALSE,Disabled,0.000000,0.000000,0.000000,TRUE,0.316574,-2.010651,0.000000,-0.583099,-2.177979,0.000000,0.045000,0.077000,0.051000,0.160000,8.240000,-0.220000,0.127698,Hold,61.081299,58.000000,Hold,-151515.000000,151552.000000,LowGoal,2130.000000,-2181.818182,Speed,2175.000000,-2181.818182,Speed,Off,Off,0.000000,FALSE,13,Read: /home/lvuser/scripts/auto_13.bee,File good!,DRIVE_STRAIGHT_TARGET 206 1000 10000 75,DRIVE_STRAIGHT_TARGET
11:36:21.643 AM 03/25/2016,Autonomous Enabled,11,TRUE,7,Read from Text File in DoesScriptNumberContainNull.vi->Disabled.vi->Robot Main.vi<APPEND> /home/lvuser/scripts/auto_12.bee,0.000000,-63.807184,0.000000,63.704518,FALSE,FALSE,TRUE,FALSE,FALSE,FALSE,Disabled,0.000000,0.000000,0.000000,TRUE,0.288391,-2.118011,0.000000,-0.545425,-2.128754,0.000000,0.042000,-0.027000,0.239000,0.190000,8.190000,0.020000,0.189926,Hold,61.216553,58.000000,Hold,-151520.000000,151552.000000,LowGoal,2152.500000,-2181.818182,Speed,2175.000000,-2181.818182,Speed,Off,Off,0.000000,FALSE,13,Read: /home/lvuser/scripts/auto_13.bee,File good!,DRIVE_STRAIGHT_TARGET 206 1000 10000 75,DRIVE_STRAIGHT_TARGET
11:36:21.745 AM 03/25/2016,Autonomous Enabled,10,TRUE,7,Read from Text File in DoesScriptNumberContainNull.vi->Disabled.vi->Robot Main.vi<APPEND> /home/lvuser/scripts/auto_12.bee,0.000000,-67.631509,0.000000,67.586592,FALSE,FALSE,TRUE,FALSE,FALSE,FALSE,Disabled,0.000000,0.000000,0.000000,TRUE,0.253738,-2.243195,0.000000,-0.629639,-2.046570,0.000000,-0.001000,0.030000,0.113000,0.120000,7.080000,0.320000,0.177732,Hold,61.216553,58.000000,Hold,-151651.000000,151552.000000,LowGoal,2152.500000,-2181.818182,Speed,2160.000000,-2181.818182,Speed,Off,Off,0.000000,FALSE,13,Read: /home/lvuser/scripts/auto_13.bee,File good!,DRIVE_STRAIGHT_TARGET 206 1000 10000 75,DRIVE_STRAIGHT_TARGET
11:36:21.846 AM 03/25/2016,Autonomous Enabled,10,TRUE,7,Read from Text File in DoesScriptNumberContainNull.vi->Disabled.vi->Robot Main.vi<APPEND> /home/lvuser/scripts/auto_12.bee,0.000000,-71.160667,0.000000,71.083667,FALSE,FALSE,TRUE,FALSE,FALSE,FALSE,Disabled,0.000000,0.000000,0.000000,TRUE,0.220901,-2.343170,0.000000,-0.651047,-1.946609,0.000000,0.107000,-0.062000,-0.733000,0.270000,6.030000,0.090000,0.248336,Hold,61.216797,58.000000,Hold,-151650.000000,151552.000000,LowGoal,2145.000000,-2181.818182,Speed,2145.000000,-2181.818182,Speed,Off,Off,0.000000,FALSE,13,Read: /home/lvuser/scripts/auto_13.bee,File good!,DRIVE_STRAIGHT_TARGET 206 1000 10000 75,DRIVE_STRAIGHT_TARGET
11:36:21.946 AM 03/25/2016,Autonomous Enabled,10,FALSE,0,NO ERROR,0.000000,-74.747575,0.000000,74.702659,FALSE,FALSE,TRUE,FALSE,FALSE,FALSE,Disabled,0.000000,0.000000,0.000000,TRUE,0.191055,-2.441086,0.000000,-0.580734,-1.954086,0.000000,-0.059000,0.211000,0.046000,0.260000,6.080000,0.080000,0.294105,Hold,61.216797,58.000000,Hold,-151650.000000,151552.000000,LowGoal,2145.000000,-2181.818182,Speed,2145.000000,-2181.818182,Speed,Off,Off,0.000000,FALSE,13,Read: /home/lvuser/scripts/auto_13.bee,File good!,DRIVE_STRAIGHT_TARGET 206 1000 10000 75,DRIVE_STRAIGHT_TARGET
11:36:22.049 AM 03/25/2016,Autonomous Enabled,12,FALSE,0,NO ERROR,0.000000,-78.636066,0.000000,78.693816,FALSE,FALSE,TRUE,FALSE,FALSE,FALSE,Disabled,0.000000,0.000000,0.000000,TRUE,0.166245,-2.515884,0.000000,-0.640442,-1.840973,0.000000,-0.011000,0.090000,-0.464000,0.040000,3.700000,0.170000,0.133141,Hold,61.260498,58.000000,Hold,-151692.000000,151552.000000,LowGoal,2145.000000,-2181.818182,Speed,2160.000000,-2181.818182,Speed,Off,Off,0.000000,FALSE,13,Read: /home/lvuser/scripts/auto_13.bee,File good!,DRIVE_STRAIGHT_TARGET 206 1000 10000 75,DRIVE_STRAIGHT_TARGET
11:36:22.149 AM 03/25/2016,Autonomous Enabled,10,FALSE,0,NO ERROR,0.000000,-82.511724,0.000000,82.665723,TRUE,FALSE,TRUE,FALSE,FALSE,FALSE,Disabled,0.000000,0.000000,0.000000,TRUE,0.129715,-2.624680,0.000000,-0.590607,-1.794998,0.000000,-0.014000,0.068000,0.182000,-0.330000,-1.200000,0.360000,-0.134594,Hold,60.954346,58.000000,Hold,-151692.000000,151552.000000,LowGoal,2145.000000,-2181.818182,Speed,2160.000000,-2181.818182,Speed,Off,Off,0.000000,FALSE,13,Read: /home/lvuser/scripts/auto_13.bee,File good!,DRIVE_STRAIGHT_TARGET 206 1000 10000 75,DRIVE_STRAIGHT_TARGET
11:36:22.252 AM 03/25/2016,Autonomous Enabled,10,FALSE,0,NO ERROR,0.000000,-87.003380,0.000000,87.240796,TRUE,FALSE,TRUE,FALSE,FALSE,FALSE,Disabled,0.000000,0.000000,0.000000,TRUE,0.099609,-2.713013,0.000000,-0.622604,-1.722076,0.000000,-0.045000,0.269000,0.288000,-0.310000,-1.470000,0.590000,-0.255159,Hold,61.256348,58.000000,Hold,-151618.000000,151552.000000,LowGoal,2145.000000,-2181.818182,Speed,2175.000000,-2181.818182,Speed,Off,Off,0.000000,FALSE,13,Read: /home/lvuser/scripts/auto_13.bee,File good!,DRIVE_STRAIGHT_TARGET 206 1000 10000 75,DRIVE_STRAIGHT_TARGET
11:36:22.352 AM 03/25/2016,Autonomous Enabled,10,FALSE,0,NO ERROR,0.000000,-91.469369,0.000000,91.687536,TRUE,FALSE,TRUE,FALSE,FALSE,FALSE,Disabled,0.000000,0.000000,0.000000,TRUE,0.066376,-2.794006,0.000000,-0.699402,-1.593231,0.000000,0.140000,0.103000,-0.040000,-0.400000,-2.570000,0.700000,-0.324416,Hold,61.157471,58.000000,Hold,-151618.000000,151552.000000,LowGoal,2137.500000,-2181.818182,Speed,2175.000000,-2181.818182,Speed,Off,Off,0.000000,FALSE,13,Read: /home/lvuser/scripts/auto_13.bee,File good!,DRIVE_STRAIGHT_TARGET 206 1000 10000 75,DRIVE_STRAIGHT_TARGET
11:36:22.452 AM 03/25/2016,Autonomous Enabled,10,FALSE,0,NO ERROR,0.000000,-95.928942,0.000000,96.057275,FALSE,FALSE,TRUE,FALSE,FALSE,FALSE,Disabled,0.000000,0.000000,0.000000,TRUE,0.035675,-2.870865,0.000000,-0.571823,-1.490494,0.000000,0.016000,0.004000,-0.388000,-0.430000,-3.670000,1.120000,-0.360818,Hold,61.105957,58.000000,Hold,-151647.000000,151552.000000,LowGoal,2145.000000,-2181.818182,Speed,2175.000000,-2181.818182,Speed,Off,Off,0.000000,FALSE,13,Read: /home/lvuser/scripts/auto_13.bee,File good!,DRIVE_STRAIGHT_TARGET 206 1000 10000 75,DRIVE_STRAIGHT_TARGET
11:36:22.554 AM 03/25/2016,Autonomous Enabled,10,FALSE,0,NO ERROR,0.000000,-100.433432,0.000000,100.536098,FALSE,FALSE,TRUE,FALSE,FALSE,FALSE,Disabled,0.000000,0.000000,0.000000,TRUE,0.029999,-2.944550,0.000000,-0.001297,-1.432449,0.000000,0.093000,0.196000,0.614000,-0.290000,-7.510000,1.390000,-0.214361,Hold,61.084473,58.000000,Hold,-151620.000000,151552.000000,LowGoal,2122.500000,-2181.818182,Speed,2175.000000,-2181.818182,Speed,Off,Off,0.000000,FALSE,13,Read: /home/lvuser/scripts/auto_13.bee,File good!,DRIVE_STRAIGHT_TARGET 206 1000 10000 75,DRIVE_STRAIGHT_TARGET
11:36:22.654 AM 03/25/2016,Autonomous Enabled,10,FALSE,0,NO ERROR,0.000000,-105.226671,0.000000,105.220254,FALSE,FALSE,TRUE,FALSE,FALSE,FALSE,Disabled,0.000000,0.000000,0.000000,TRUE,0.030853,-3.010513,0.000000,-0.028534,-1.219238,0.000000,0.095000,0.018000,0.279000,-0.250000,-6.620000,1.270000,-0.200143,Hold,61.655762,58.000000,Hold,-151564.000000,151552.000000,LowGoal,2137.500000,-2181.818182,Speed,2175.000000,-2181.818182,Speed,Off,Off,0.000000,FALSE,13,Read: /home/lvuser/scripts/auto_13.bee,File good!,DRIVE_STRAIGHT_TARGET 206 1000 10000 75,DRIVE_STRAIGHT_TARGET
11:36:22.755 AM 03/25/2016,Autonomous Enabled,10,FALSE,0,NO ERROR,0.000000,-110.180326,0.000000,110.276575,FALSE,FALSE,TRUE,FALSE,FALSE,FALSE,Disabled,0.000000,0.000000,0.000000,TRUE,0.029251,-3.080811,0.000000,-0.008835,-1.137695,0.000000,-0.047000,-0.006000,0.046000,-0.380000,-4.640000,1.160000,-0.260877,Hold,61.173584,58.000000,Hold,-151564.000000,151552.000000,LowGoal,2145.000000,-2181.818182,Speed,2152.500000,-2181.818182,Speed,Off,Off,0.000000,FALSE,13,Read: /home/lvuser/scripts/auto_13.bee,File good!,DRIVE_STRAIGHT_TARGET 206 1000 10000 75,DRIVE_STRAIGHT_TARGET
11:36:22.855 AM 03/25/2016,Autonomous Enabled,10,FALSE,0,NO ERROR,0.000000,-115.268730,0.000000,115.268730,TRUE,FALSE,TRUE,FALSE,FALSE,FALSE,Disabled,0.000000,0.000000,0.000000,TRUE,0.028656,-3.125595,0.000000,0.006119,-1.101624,0.000000,0.111000,-0.108000,0.086000,-0.230000,-0.590000,0.960000,-0.195048,Hold,60.919678,58.000000,Hold,-151564.000000,151552.000000,LowGoal,2160.000000,-2181.818182,Speed,2167.500000,-2181.818182,Speed,Off,Off,0.000000,FALSE,13,Read: /home/lvuser/scripts/auto_13.bee,File good!,DRIVE_STRAIGHT_TARGET 206 1000 10000 75,DRIVE_STRAIGHT_TARGET
11:36:22.956 AM 03/25/2016,Autonomous Enabled,11,FALSE,0,NO ERROR,0.000000,-120.055553,0.000000,120.094053,TRUE,FALSE,TRUE,FALSE,FALSE,FALSE,Disabled,0.000000,0.000000,0.000000,TRUE,0.031860,-3.192184,0.000000,0.026764,-1.082077,0.000000,-0.210000,0.034000,0.502000,-0.200000,1.170000,0.980000,-0.166131,Hold,60.950439,58.000000,Hold,-151564.000000,151552.000000,LowGoal,2160.000000,-2181.818182,Speed,2190.000000,-2181.818182,Speed,Off,Off,0.000000,FALSE,13,Read: /home/lvuser/scripts/auto_13.bee,File good!,DRIVE_STRAIGHT_TARGET 206 1000 10000 75,DRIVE_STRAIGHT_TARGET
11:36:23.056 AM 03/25/2016,Autonomous Enabled,11,FALSE,0,NO ERROR,0.000000,-124.560042,0.000000,124.752542,TRUE,FALSE,TRUE,FALSE,FALSE,FALSE,Disabled,0.000000,0.000000,0.000000,TRUE,0.028946,-3.245956,0.000000,-0.039459,-1.080536,0.000000,0.182000,0.039000,0.163000,-0.200000,0.390000,0.920000,-0.132184,Hold,60.904785,58.000000,Hold,-151564.000000,151552.000000,LowGoal,2160.000000,-2181.818182,Speed,2182.500000,-2181.818182,Speed,Off,Off,0.000000,FALSE,13,Read: /home/lvuser/scripts/auto_13.bee,File good!,DRIVE_STRAIGHT_TARGET 206 1000 10000 75,DRIVE_STRAIGHT_TARGET
11:36:23.156 AM 03/25/2016,Autonomous Enabled,10,FALSE,0,NO ERROR,0.000000,-129.205698,0.000000,129.295531,TRUE,FALSE,TRUE,FALSE,FALSE,FALSE,Disabled,0.000000,0.000000,0.000000,TRUE,0.028305,-3.308731,0.000000,-0.001297,-1.028244,0.000000,0.016000,-0.049000,-0.073000,-0.300000,0.810000,0.850000,-0.224393,Hold,61.056885,58.000000,Hold,-151564.000000,151552.000000,LowGoal,2160.000000,-2181.818182,Speed,2152.500000,-2181.818182,Speed,Off,Off,0.000000,FALSE,13,Read: /home/lvuser/scripts/auto_13.bee,File good!,DRIVE_STRAIGHT_TARGET 206 1000 10000 75,DRIVE_STRAIGHT_TARGET
11:36:23.256 AM 03/25/2016,Autonomous Enabled,11,FALSE,0,NO ERROR,0.000000,-133.485605,0.000000,133.652437,TRUE,FALSE,TRUE,FALSE,FALSE,FALSE,Disabled,0.000000,0.000000,0.000000,TRUE,0.026978,-3.370239,0.000000,-0.055923,-1.036545,0.000000,-0.050000,-0.165000,-0.224000,-0.420000,0.230000,0.920000,-0.349237,Hold,61.056885,58.000000,Hold,-151564.000000,151552.000000,LowGoal,2145.000000,-2181.818182,Speed,2152.500000,-2181.818182,Speed,Off,Off,0.000000,FALSE,13,Read: /home/lvuser/scripts/auto_13.bee,File good!,DRIVE_STRAIGHT_TARGET 206 1000 10000 75,DRIVE_STRAIGHT_TARGET
11:36:23.356 AM 03/25/2016,Autonomous Enabled,10,FALSE,0,NO ERROR,0.000000,-137.996511,0.000000,138.176177,TRUE,FALSE,TRUE,FALSE,FALSE,FALSE,Disabled,0.000000,0.000000,0.000000,TRUE,0.022217,-3.423569,0.000000,-0.106003,-1.083313,0.000000,-0.079000,-0.134000,-0.051000,-0.420000,0.230000,0.920000,-0.465978,Hold,61.056885,58.000000,Hold,-151564.000000,151552.000000,LowGoal,2130.000000,-2181.818182,Speed,2167.500000,-2181.818182,Speed,Off,Off,0.000000,FALSE,13,Read: /home/lvuser/scripts/auto_13.bee,File good!,DRIVE_STRAIGHT_TARGET 206 1000 10000 75,DRIVE_STRAIGHT_TARGET
11:36:23.456 AM 03/25/2016,Autonomous Enabled,11,FALSE,0,NO ERROR,0.000000,-142.655000,0.000000,142.725583,TRUE,FALSE,TRUE,FALSE,FALSE,FALSE,Disabled,0.000000,0.000000,0.000000,TRUE,0.014511,-3.481094,0.000000,-0.174515,-1.183304,0.000000,-0.015000,-0.083000,0.083000,-0.310000,-0.370000,0.810000,-0.329897,Hold,61.056885,58.000000,Hold,-151564.000000,151552.000000,LowGoal,2152.500000,-2181.818182,Speed,2160.000000,-2181.818182,Speed,Off,Off,0.000000,FALSE,13,Read: /home/lvuser/scripts/auto_13.bee,File good!,DRIVE_STRAIGHT_TARGET 206 1000 10000 75,DRIVE_STRAIGHT_TARGET
11:36:23.556 AM 03/25/2016,Autonomous Enabled,11,FALSE,0,NO ERROR,0.000000,-146.979823,0.000000,146.966990,TRUE,FALSE,TRUE,FALSE,FALSE,FALSE,Disabled,0.000000,0.000000,0.000000,TRUE,0.007965,-3.541183,0.000000,-0.079391,-1.181702,0.000000,0.246000,0.050000,-0.025000,-0.280000,-0.160000,0.940000,-0.242177,Hold,61.056885,58.000000,Hold,-151564.000000,151552.000000,LowGoal,2160.000000,-2181.818182,Speed,2160.000000,-2181.818182,Speed,Off,Off,0.000000,FALSE,13,Read: /home/lvuser/scripts/auto_13.bee,File good!,DRIVE_STRAIGHT_TARGET 206 1000 10000 75,DRIVE_STRAIGHT_TARGET
11:36:23.656 AM 03/25/2016,Autonomous Enabled,10,FALSE,0,NO ERROR,0.000000,-151.278980,0.000000,151.266146,TRUE,FALSE,TRUE,FALSE,FALSE,FALSE,Disabled,0.000000,0.000000,0.000000,TRUE,0.009659,-3.598862,0.000000,0.122345,-1.129364,0.000000,0.247000,0.107000,0.080000,-0.280000,-0.160000,0.940000,-0.236968,Hold,61.056885,58.000000,Hold,-151564.000000,151552.000000,LowGoal,2152.500000,-2181.818182,Speed,2160.000000,-2181.818182,Speed,Off,Off,0.000000,FALSE,13,Read: /home/lvuser/scripts/auto_13.bee,File good!,DRIVE_STRAIGHT_TARGET 206 1000 10000 75,DRIVE_STRAIGHT_TARGET
11:36:23.756 AM 03/25/2016,Autonomous Enabled,11,FALSE,0,NO ERROR,0.000000,-155.565303,0.000000,155.590969,TRUE,FALSE,TRUE,FALSE,FALSE,FALSE,Disabled,0.000000,0.000000,0.000000,TRUE,0.020355,-3.654449,0.000000,0.207977,-1.100845,0.000000,0.070000,0.001000,0.141000,-0.380000,0.330000,1.170000,-0.304601,Hold,61.056885,58.000000,Hold,-151564.000000,151552.000000,LowGoal,2152.500000,-2181.818182,Speed,2160.000000,-2181.818182,Speed,Off,Off,0.000000,FALSE,13,Read: /home/lvuser/scripts/auto_13.bee,File good!,DRIVE_STRAIGHT_TARGET 206 1000 10000 75,DRIVE_STRAIGHT_TARGET
11:36:23.856 AM 03/25/2016,Autonomous Enabled,10,FALSE,0,NO ERROR,0.000000,-159.902959,0.000000,159.864460,TRUE,FALSE,TRUE,FALSE,FALSE,FALSE,Disabled,0.000000,0.000000,0.000000,TRUE,0.026840,-3.709717,0.000000,0.058121,-1.134735,0.000000,0.017000,-0.027000,0.142000,-0.350000,0.240000,1.030000,-0.297062,Hold,61.056885,58.000000,Hold,-151564.000000,151552.000000,LowGoal,2145.000000,-2181.818182,Speed,2160.000000,-2181.818182,Speed,Off,Off,0.000000,FALSE,13,Read: /home/lvuser/scripts/auto_13.bee,File good!,DRIVE_STRAIGHT_TARGET 206 1000 10000 75,DRIVE_STRAIGHT_TARGET
11:36:23.957 AM 03/25/2016,Autonomous Enabled,10,FALSE,0,NO ERROR,0.000000,-164.266283,0.000000,164.189283,TRUE,FALSE,TRUE,FALSE,FALSE,FALSE,Disabled,0.000000,0.000000,0.000000,TRUE,0.028824,-3.768326,0.000000,0.039658,-1.199692,0.000000,0.023000,0.005000,-0.027000,-0.310000,0.060000,1.060000,-0.261541,Hold,61.056885,58.000000,Hold,-151564.000000,151552.000000,LowGoal,2137.500000,-2181.818182,Speed,2167.500000,-2181.818182,Speed,Off,Off,0.000000,FALSE,13,Read: /home/lvuser/scripts/auto_13.bee,File good!,DRIVE_STRAIGHT_TARGET 206 1000 10000 75,DRIVE_STRAIGHT_TARGET
11:36:24.058 AM 03/25/2016,Autonomous Enabled,9,FALSE,0,NO ERROR,0.000000,-168.494856,0.000000,168.405023,TRUE,FALSE,TRUE,FALSE,FALSE,FALSE,Disabled,0.000000,0.000000,0.000000,TRUE,0.030106,-3.780823,0.000000,0.033905,-0.030670,0.000000,0.184000,-0.030000,-0.039000,-0.230000,0.180000,1.210000,-0.187141,Hold,61.056885,58.000000,Hold,-151564.000000,151552.000000,LowGoal,2160.000000,-2181.818182,Speed,2160.000000,-2181.818182,Speed,Off,Off,0.000000,FALSE,13,Read: /home/lvuser/scripts/auto_13.bee,File good!,DRIVE_STRAIGHT_TARGET 206 1000 10000 75,DRIVE_STRAIGHT_TARGET
11:36:24.159 AM 03/25/2016,Autonomous Enabled,10,FALSE,0,NO ERROR,0.000000,-172.787596,0.000000,172.723429,TRUE,FALSE,TRUE,FALSE,FALSE,FALSE,Disabled,0.000000,0.000000,0.000000,TRUE,0.035034,-3.783096,0.000000,0.110916,-0.054535,0.000000,0.117000,-0.050000,-0.053000,-0.300000,0.050000,1.340000,-0.179457,Hold,61.056885,58.000000,Hold,-151564.000000,151552.000000,LowGoal,2182.500000,-2181.818182,Speed,2160.000000,-2181.818182,Speed,Off,Off,0.000000,FALSE,13,Read: /home/lvuser/scripts/auto_13.bee,File good!,DRIVE_STRAIGHT_TARGET 206 1000 10000 75,DRIVE_STRAIGHT_TARGET
11:36:24.260 AM 03/25/2016,Autonomous Enabled,10,FALSE,0,NO ERROR,0.000000,-177.157336,0.000000,177.150919,TRUE,FALSE,TRUE,FALSE,FALSE,FALSE,Disabled,0.000000,0.000000,0.000000,TRUE,0.042831,-3.786285,0.000000,0.185257,-0.069214,0.000000,0.145000,-0.029000,0.094000,-0.300000,0.050000,1.340000,-0.310853,Hold,61.056885,58.000000,Hold,-151564.000000,151552.000000,LowGoal,2175.000000,-2181.818182,Speed,2160.000000,-2181.818182,Speed,Off,Off,0.000000,FALSE,13,Read: /home/lvuser/scripts/auto_13.bee,File good!,DRIVE_STRAIGHT_TARGET 206 1000 10000 75,DRIVE_STRAIGHT_TARGET
11:36:24.360 AM 03/25/2016,Autonomous Enabled,10,FALSE,0,NO ERROR,0.000000,-181.501409,0.000000,181.514242,TRUE,FALSE,TRUE,FALSE,FALSE,FALSE,Disabled,0.000000,0.000000,0.000000,TRUE,0.059830,-3.793259,0.000000,0.350464,-0.143585,0.000000,0.158000,0.030000,0.267000,-0.550000,0.520000,1.670000,-0.447144,Hold,61.056885,58.000000,Hold,-151564.000000,151552.000000,LowGoal,2167.500000,-2181.818182,Speed,2167.500000,-2181.818182,Speed,Off,Off,0.000000,FALSE,13,Read: /home/lvuser/scripts/auto_13.bee,File good!,DRIVE_STRAIGHT_TARGET 206 1000 10000 75,DRIVE_STRAIGHT_TARGET
11:36:24.460 AM 03/25/2016,Autonomous Enabled,9,FALSE,0,NO ERROR,0.000000,-186.025148,0.000000,185.922482,TRUE,FALSE,TRUE,FALSE,FALSE,FALSE,Disabled,0.000000,0.000000,0.000000,TRUE,0.080185,-3.801071,0.000000,0.423157,-0.161865,0.000000,0.158000,0.030000,0.267000,-0.540000,0.500000,1.470000,-0.510765,Hold,61.056885,58.000000,Hold,-151564.000000,151552.000000,LowGoal,2160.000000,-2181.818182,Speed,2152.500000,-2181.818182,Speed,Off,Off,0.000000,FALSE,13,Read: /home/lvuser/scripts/auto_13.bee,File good!,DRIVE_STRAIGHT_TARGET 206 1000 10000 75,DRIVE_STRAIGHT_TARGET
11:36:24.561 AM 03/25/2016,Autonomous Enabled,9,FALSE,0,NO ERROR,0.000000,-190.279388,0.000000,190.157472,TRUE,FALSE,TRUE,FALSE,FALSE,FALSE,Disabled,0.000000,0.000000,0.000000,TRUE,0.098022,-3.807922,0.000000,0.460083,-0.180344,0.000000,-0.047000,0.016000,-0.146000,-0.340000,0.250000,1.280000,-0.321934,Hold,61.056885,58.000000,Hold,-151564.000000,151552.000000,LowGoal,2167.500000,-2181.818182,Speed,2167.500000,-2181.818182,Speed,Off,Off,0.000000,FALSE,13,Read: /home/lvuser/scripts/auto_13.bee,File good!,DRIVE_STRAIGHT_TARGET 206 1000 10000 75,DRIVE_STRAIGHT_TARGET
11:36:24.660 AM 03/25/2016,Autonomous Enabled,6,FALSE,0,NO ERROR,0.000000,-194.758211,0.000000,194.540045,TRUE,FALSE,TRUE,FALSE,FALSE,FALSE,Disabled,0.000000,0.000000,0.000000,TRUE,0.126144,-3.818253,0.000000,0.479385,-0.172791,0.000000,-0.047000,0.016000,-0.146000,-0.340000,0.250000,1.280000,-0.182390,Hold,61.056885,58.000000,Hold,-151564.000000,151552.000000,LowGoal,2175.000000,-2181.818182,Speed,2175.000000,-2181.818182,Speed,Off,Off,0.000000,FALSE,13,Read: /home/lvuser/scripts/auto_13.bee,File good!,DRIVE_STRAIGHT_TARGET 206 1000 10000 75,DRIVE_STRAIGHT_TARGET
11:36:24.760 AM 03/25/2016,Autonomous Enabled,9,FALSE,0,NO ERROR,0.000000,-198.999618,0.000000,198.877702,TRUE,FALSE,TRUE,FALSE,FALSE,FALSE,Disabled,0.000000,0.000000,0.000000,TRUE,0.150970,-3.825989,0.000000,0.504303,-0.134232,0.000000,-0.023000,0.115000,0.026000,-0.230000,-0.010000,1.170000,-0.147269,Hold,61.056885,58.000000,Hold,-151564.000000,151552.000000,LowGoal,2167.500000,-2181.818182,Speed,2160.000000,-2181.818182,Speed,Off,Off,0.000000,FALSE,13,Read: /home/lvuser/scripts/auto_13.bee,File good!,DRIVE_STRAIGHT_TARGET 206 1000 10000 75,DRIVE_STRAIGHT_TARGET
11:36:24.862 AM 03/25/2016,Autonomous Enabled,10,FALSE,0,NO ERROR,0.000000,-203.510524,0.000000,203.330858,TRUE,FALSE,TRUE,FALSE,FALSE,FALSE,Disabled,0.000000,0.000000,0.000000,TRUE,0.175705,-3.829651,0.000000,0.485565,-0.035248,0.000000,-0.023000,0.115000,0.026000,-0.240000,-0.220000,1.200000,-0.224107,Hold,61.056885,58.000000,Hold,-151564.000000,151552.000000,LowGoal,2167.500000,-2181.818182,Speed,2152.500000,-2181.818182,Speed,Off,Off,0.000000,FALSE,13,Read: /home/lvuser/scripts/auto_13.bee,File good!,DRIVE_STRAIGHT_TARGET 206 1000 10000 75,DRIVE_STRAIGHT_TARGET
11:36:24.962 AM 03/25/2016,Autonomous Enabled,9,FALSE,0,NO ERROR,0.000000,-207.873847,0.000000,207.585098,TRUE,FALSE,TRUE,FALSE,FALSE,FALSE,Disabled,0.000000,0.000000,0.000000,TRUE,0.199875,-3.828995,0.000000,0.485962,0.036255,0.000000,0.023000,0.034000,0.037000,-0.340000,0.280000,1.300000,-0.253424,Hold,61.056885,2.000000,Hold,-151564.000000,126976.000000,LowGoal,2167.500000,-1454.545455,Speed,2152.500000,-1454.545455,Speed,Off,Off,0.000000,FALSE,13,Read: /home/lvuser/scripts/auto_13.bee,File good!,SET_HEADING 59 50,SET_HEADING
11:36:25.062 AM 03/25/2016,Autonomous Enabled,8,FALSE,0,NO ERROR,0.000000,-210.607341,0.000000,208.323013,FALSE,FALSE,TRUE,FALSE,FALSE,FALSE,Disabled,0.000000,0.000000,0.000000,TRUE,0.211380,-3.821960,0.000000,0.019791,0.256897,0.000000,0.038000,0.100000,0.073000,1.700000,-4.350000,2.000000,2.043785,Hold,57.266846,2.000000,Hold,-151564.000000,126976.000000,LowGoal,2070.000000,-1454.545455,Speed,2055.000000,-1454.545455,Speed,Off,Off,0.000000,FALSE,13,Read: /home/lvuser/scripts/auto_13.bee,File good!,SET_HEADING 59 50,SET_HEADING
11:36:25.162 AM 03/25/2016,Autonomous Enabled,11,FALSE,0,NO ERROR,0.000000,-212.647836,0.000000,208.271680,FALSE,FALSE,TRUE,FALSE,FALSE,FALSE,Disabled,0.000000,0.000000,0.000000,TRUE,0.204330,-3.805679,0.000000,-0.194458,0.313782,0.000000,-0.338000,0.174000,-0.532000,1.700000,-4.350000,2.000000,6.675296,Hold,47.551270,2.000000,Hold,-143827.000000,126976.000000,LowGoal,1312.500000,-1454.545455,Speed,1395.000000,-1454.545455,Speed,Off,Off,0.000000,FALSE,13,Read: /home/lvuser/scripts/auto_13.bee,File good!,SET_HEADING 59 50,SET_HEADING
11:36:25.262 AM 03/25/2016,Autonomous Enabled,9,FALSE,0,NO ERROR,0.000000,-213.847750,0.000000,207.803264,FALSE,FALSE,TRUE,FALSE,FALSE,FALSE,Disabled,0.000000,0.000000,0.000000,TRUE,0.187576,-3.804138,0.000000,-0.377289,-0.118851,0.000000,-0.159000,-0.415000,0.095000,7.050000,-3.980000,1.500000,9.698678,Hold,34.029297,2.000000,Hold,-133729.000000,126976.000000,LowGoal,1192.500000,-1454.545455,Speed,1200.000000,-1454.545455,Speed,Off,Off,0.000000,FALSE,13,Read: /home/lvuser/scripts/auto_13.bee,File good!,SET_HEADING 59 50,SET_HEADING
11:36:25.362 AM 03/25/2016,Autonomous Enabled,9,FALSE,0,NO ERROR,0.000000,-214.585665,0.000000,207.405432,FALSE,FALSE,TRUE,FALSE,FALSE,FALSE,Disabled,0.000000,0.000000,0.000000,TRUE,0.174072,-3.799561,0.000000,-0.226822,0.165863,0.000000,0.156000,0.463000,-0.359000,9.200000,-3.980000,0.020000,12.079110,Hold,34.029297,2.000000,Hold,-128426.000000,126976.000000,LowGoal,1357.500000,-1454.545455,Speed,1395.000000,-1454.545455,Speed,Off,Off,0.000000,FALSE,13,Read: /home/lvuser/scripts/auto_13.bee,File good!,SET_HEADING 59 50,SET_HEADING
11:36:25.463 AM 03/25/2016,Autonomous Enabled,11,FALSE,0,NO ERROR,0.000000,-215.182413,0.000000,206.763766,TRUE,FALSE,TRUE,FALSE,FALSE,FALSE,Disabled,0.000000,0.000000,0.000000,TRUE,0.162903,-3.801025,0.000000,-0.201614,-0.062531,0.000000,-0.027000,-0.360000,0.538000,11.870000,-2.970000,0.880000,14.514142,Hold,19.269287,2.000000,Hold,-126978.000000,126976.000000,LowGoal,1462.500000,-1454.545455,Speed,1485.000000,-1454.545455,Speed,Off,Off,0.000000,FALSE,13,Read: /home/lvuser/scripts/auto_13.bee,File good!,SET_HEADING 59 50,SET_HEADING
11:36:25.564 AM 03/25/2016,Autonomous Enabled,9,FALSE,0,NO ERROR,0.000000,-215.682912,0.000000,205.859019,TRUE,FALSE,TRUE,FALSE,FALSE,FALSE,Disabled,0.000000,0.000000,0.000000,TRUE,0.151459,-3.801773,0.000000,-0.231277,-0.087631,0.000000,-0.099000,0.185000,-0.261000,14.320000,-2.700000,0.710000,17.632025,Hold,0.555664,2.000000,Hold,-126978.000000,126976.000000,LowGoal,1440.000000,-1454.545455,Speed,1455.000000,-1454.545455,Speed,Off,Off,0.000000,FALSE,13,Read: /home/lvuser/scripts/auto_13.bee,File good!,SET_HEADING 59 50,SET_HEADING
11:36:25.665 AM 03/25/2016,Autonomous Enabled,9,FALSE,0,NO ERROR,0.000000,-216.247578,0.000000,205.089020,TRUE,FALSE,TRUE,FALSE,FALSE,FALSE,Disabled,0.000000,0.000000,0.000000,TRUE,0.146759,-3.807114,0.000000,-0.020966,-0.155441,0.000000,0.243000,-0.107000,0.431000,17.180000,-2.900000,0.780000,20.342868,Hold,0.555664,2.000000,Hold,-127128.000000,126976.000000,LowGoal,1410.000000,-1454.545455,Speed,1410.000000,-1454.545455,Speed,Off,Off,0.000000,FALSE,13,Read: /home/lvuser/scripts/auto_13.bee,File good!,SET_HEADING 59 50,SET_HEADING
11:36:25.770 AM 03/25/2016,Autonomous Enabled,11,FALSE,0,NO ERROR,0.000000,-216.780160,0.000000,204.440939,TRUE,FALSE,TRUE,FALSE,FALSE,FALSE,Disabled,0.000000,0.000000,0.000000,TRUE,0.145477,-3.822800,0.000000,-0.024765,-0.379654,0.000000,-0.014000,-0.264000,0.418000,19.850000,-2.490000,0.640000,22.922356,Hold,0.769287,2.000000,Hold,-127127.000000,126976.000000,LowGoal,1402.500000,-1454.545455,Speed,1402.500000,-1454.545455,Speed,Off,Off,0.000000,FALSE,13,Read: /home/lvuser/scripts/auto_13.bee,File good!,SET_HEADING 59 50,SET_HEADING
11:36:25.870 AM 03/25/2016,Autonomous Enabled,13,FALSE,0,NO ERROR,0.000000,-217.216492,0.000000,203.831357,TRUE,FALSE,TRUE,FALSE,FALSE,FALSE,Disabled,0.000000,0.000000,0.000000,TRUE,0.148636,-3.841660,0.000000,0.112305,-0.383423,0.000000,0.135000,-0.032000,-0.053000,22.190000,-2.330000,0.330000,25.102769,Hold,0.818115,2.000000,Hold,-127127.000000,126976.000000,LowGoal,1410.000000,-1454.545455,Speed,1417.500000,-1454.545455,Speed,Off,Off,0.000000,FALSE,13,Read: /home/lvuser/scripts/auto_13.bee,File good!,SET_HEADING 59 50,SET_HEADING
11:36:25.971 AM 03/25/2016,Autonomous Enabled,13,FALSE,0,NO ERROR,0.000000,-217.614324,0.000000,203.260275,TRUE,FALSE,TRUE,FALSE,FALSE,FALSE,Disabled,0.000000,0.000000,0.000000,TRUE,0.148636,-3.841660,0.000000,0.112305,-0.383423,0.000000,0.043000,-0.131000,0.151000,24.270000,-2.130000,0.600000,27.150110,Hold,0.818115,2.000000,Hold,-127127.000000,126976.000000,LowGoal,1410.000000,-1454.545455,Speed,1425.000000,-1454.545455,Speed,Off,Off,0.000000,FALSE,13,Read: /home/lvuser/scripts/auto_13.bee,File good!,SET_HEADING 59 50,SET_HEADING
11:36:26.072 AM 03/25/2016,Autonomous Enabled,11,FALSE,0,NO ERROR,0.000000,-218.018574,0.000000,202.689193,TRUE,FALSE,TRUE,FALSE,FALSE,FALSE,Disabled,0.000000,0.000000,0.000000,TRUE,0.162079,-3.886414,0.000000,0.186920,-0.493179,0.000000,0.138000,-0.097000,0.148000,26.170000,-2.100000,0.470000,29.114389,Hold,0.818115,2.000000,Hold,-127127.000000,126976.000000,LowGoal,1410.000000,-1454.545455,Speed,1417.500000,-1454.545455,Speed,Off,Off,0.000000,FALSE,13,Read: /home/lvuser/scripts/auto_13.bee,File good!,SET_HEADING 59 50,SET_HEADING
11:36:26.172 AM 03/25/2016,Autonomous Enabled,10,FALSE,0,NO ERROR,0.000000,-218.358656,0.000000,202.111694,TRUE,FALSE,TRUE,FALSE,FALSE,FALSE,Disabled,0.000000,0.000000,0.000000,TRUE,0.162079,-3.886414,0.000000,0.186920,-0.493179,0.000000,-0.030000,-0.111000,0.100000,28.060000,-1.810000,0.540000,31.041743,Hold,0.818359,2.000000,Hold,-127127.000000,126976.000000,LowGoal,1402.500000,-1454.545455,Speed,1417.500000,-1454.545455,Speed,Off,Off,0.000000,FALSE,13,Read: /home/lvuser/scripts/auto_13.bee,File good!,SET_HEADING 59 50,SET_HEADING
11:36:26.274 AM 03/25/2016,Autonomous Enabled,11,FALSE,0,NO ERROR,0.000000,-218.717989,0.000000,201.489279,TRUE,FALSE,TRUE,FALSE,FALSE,FALSE,Disabled,0.000000,0.000000,0.000000,TRUE,0.181198,-3.945068,0.000000,0.194321,-0.570221,0.000000,-0.042000,-0.027000,-0.087000,29.900000,-1.780000,0.620000,33.495798,Hold,0.818359,2.000000,Hold,-127126.000000,126976.000000,LowGoal,1410.000000,-1454.545455,Speed,1425.000000,-1454.545455,Speed,Off,Off,0.000000,FALSE,13,Read: /home/lvuser/scripts/auto_13.bee,File good!,SET_HEADING 59 50,SET_HEADING
11:36:26.374 AM 03/25/2016,Autonomous Enabled,11,FALSE,0,NO ERROR,0.000000,-219.083738,0.000000,200.847614,TRUE,FALSE,TRUE,FALSE,FALSE,FALSE,Disabled,0.000000,0.000000,0.000000,TRUE,0.181198,-3.945068,0.000000,0.194321,-0.570221,0.000000,0.125000,-0.042000,0.000000,31.850000,-1.660000,0.520000,35.580807,Hold,0.818359,2.000000,Hold,-127126.000000,126976.000000,LowGoal,1410.000000,-1454.545455,Speed,1432.500000,-1454.545455,Speed,Off,Off,0.000000,FALSE,13,Read: /home/lvuser/scripts/auto_13.bee,File good!,SET_HEADING 59 50,SET_HEADING
11:36:26.475 AM 03/25/2016,Autonomous Enabled,10,FALSE,0,NO ERROR,0.000000,-219.436654,0.000000,200.238032,TRUE,FALSE,TRUE,FALSE,FALSE,FALSE,Disabled,0.000000,0.000000,0.000000,TRUE,0.193283,-3.973953,0.000000,0.263062,-0.578720,0.000000,0.019000,-0.015000,0.022000,33.820000,-1.410000,0.580000,37.551207,Hold,0.818359,2.000000,Hold,-127126.000000,126976.000000,LowGoal,1432.500000,-1454.545455,Speed,1432.500000,-1454.545455,Speed,Off,Off,0.000000,FALSE,13,Read: /home/lvuser/scripts/auto_13.bee,File good!,SET_HEADING 59 50,SET_HEADING
11:36:26.576 AM 03/25/2016,Autonomous Enabled,10,FALSE,0,NO ERROR,0.000000,-219.789569,0.000000,199.705450,TRUE,FALSE,TRUE,FALSE,FALSE,FALSE,Disabled,0.000000,0.000000,0.000000,TRUE,0.219040,-3.971436,0.000000,0.276001,0.035187,0.000000,0.094000,-0.037000,-0.023000,35.690000,-1.230000,0.560000,39.364230,Hold,0.818359,2.000000,Hold,-127126.000000,126976.000000,LowGoal,1432.500000,-1454.545455,Speed,1432.500000,-1454.545455,Speed,Off,Off,0.000000,FALSE,13,Read: /home/lvuser/scripts/auto_13.bee,File good!,SET_HEADING 59 50,SET_HEADING
11:36:26.676 AM 03/25/2016,Autonomous Enabled,10,FALSE,0,NO ERROR,0.000000,-220.148902,0.000000,199.217784,TRUE,FALSE,TRUE,FALSE,FALSE,FALSE,Disabled,0.000000,0.000000,0.000000,TRUE,0.219040,-3.971436,0.000000,0.276001,0.035187,0.000000,-0.003000,-0.031000,0.032000,37.760000,-1.270000,0.640000,41.097617,Hold,0.818359,2.000000,Hold,-127126.000000,126976.000000,LowGoal,1425.000000,-1454.545455,Speed,1432.500000,-1454.545455,Speed,Off,Off,0.000000,FALSE,13,Read: /home/lvuser/scripts/auto_13.bee,File good!,SET_HEADING 59 50,SET_HEADING
11:36:26.778 AM 03/25/2016,Autonomous Enabled,11,FALSE,0,NO ERROR,0.000000,-220.546734,0.000000,198.762202,TRUE,FALSE,TRUE,FALSE,FALSE,FALSE,Disabled,0.000000,0.000000,0.000000,TRUE,0.249298,-3.975372,0.000000,0.330017,-0.064423,0.000000,0.037000,-0.155000,-0.040000,39.440000,-1.090000,0.560000,42.859494,Hold,0.818359,2.000000,Hold,-127126.000000,126976.000000,LowGoal,1425.000000,-1454.545455,Speed,1432.500000,-1454.545455,Speed,Off,Off,0.000000,FALSE,13,Read: /home/lvuser/scripts/auto_13.bee,File good!,SET_HEADING 59 50,SET_HEADING
11:36:26.881 AM 03/25/2016,Autonomous Enabled,12,FALSE,0,NO ERROR,0.000000,-220.950983,0.000000,198.313036,TRUE,FALSE,TRUE,FALSE,FALSE,FALSE,Disabled,0.000000,0.000000,0.000000,TRUE,0.249298,-3.975372,0.000000,0.330017,-0.064423,0.000000,-0.038000,0.017000,-0.053000,41.110000,-1.030000,0.640000,44.609924,Hold,0.818359,2.000000,Hold,-127126.000000,126976.000000,LowGoal,1425.000000,-1454.545455,Speed,1425.000000,-1454.545455,Speed,Off,Off,0.000000,FALSE,13,Read: /home/lvuser/scripts/auto_13.bee,File good!,SET_HEADING 59 50,SET_HEADING
11:36:26.981 AM 03/25/2016,Autonomous Enabled,9,FALSE,0,NO ERROR,0.000000,-220.950983,0.000000,198.313036,TRUE,FALSE,TRUE,FALSE,FALSE,FALSE,Disabled,0.000000,0.000000,0.000000,TRUE,0.265717,-3.977829,0.000000,0.323318,-0.042267,0.000000,0.014000,0.029000,-0.032000,42.800000,-1.090000,0.620000,44.609924,Hold,0.818359,2.000000,Hold,-127126.000000,126976.000000,LowGoal,1425.000000,-1454.545455,Speed,1432.500000,-1454.545455,Speed,Off,Off,0.000000,FALSE,13,Read: /home/lvuser/scripts/auto_13.bee,File good!,SET_HEADING 59 50,SET_HEADING
11:36:27.082 AM 03/25/2016,Autonomous Enabled,9,FALSE,0,NO ERROR,0.000000,-221.425816,0.000000,197.863871,TRUE,FALSE,TRUE,FALSE,FALSE,FALSE,Disabled,0.000000,0.000000,0.000000,TRUE,0.285538,-3.979187,0.000000,0.339279,-0.026108,0.000000,0.016000,0.040000,0.085000,44.550000,-1.100000,0.640000,46.457690,Hold,0.818359,2.000000,Hold,-127126.000000,126976.000000,LowGoal,1425.000000,-1454.545455,Speed,1432.500000,-1454.545455,Speed,Off,Off,0.000000,FALSE,13,Read: /home/lvuser/scripts/auto_13.bee,File good!,SET_HEADING 59 50,SET_HEADING
