Time,Robot Mode,Loop Time,Error Status,Error Code,Error Source,Left Motor Output,Left Motor Encoder,Right Motor Output,Right Motor Encoder,Is Level,Is Stalled,Ball Detector Photoeye,Vision Enabled,Vision Teleop Control,Vision Auto Control,Vision Current State,Vision X Output,Vision NavX Error,Vision NavX Target,NavX Connection Status,NavX Displacement X,NavX Displacement Y,NavX Displacement Z,NavX Velocity X,NavX Velocity Y,NavX Velocity Z,NavX Acceleration X,NavX Acceleration Y,NavX Acceleration Z,NavX Pitch,NavX Yaw,NavX Roll,Gyro Angle,Roller Arm State,Roller Arm Actual,Roller Arm Desired,Shooter Arm State,Shooter Arm Actual,Shooter Arm Desired,Shooter State,Actual RPM Left,Desired RPM Left,Control Mode Left,Actual RPM Right,Desired RPM Right,Control Mode Right,Ball Shooter Cylinder,Ball Halo Cylinder,Scaler Motor Output,Scaler Solenoid Fire,Auto To Run,Auto Current File,Auto File Status,Auto Current Command,Auto Trimmed Command
12:42:43.551 PM 03/25/2016,Autonomous Enabled,11,TRUE,-44003,<LOCATION>WPI_CameraIssue HTTP Request with Authentication.vi<CALLSTACK>WPI_CameraIssue HTTP Request with Authentication.vi< <WPI_CameraIssue Get.vi< <WPI_CameraSet Image Appearance Property.vi< <WPI_CameraSet Image Size.vi< <Vision Processing.vi< <Robot Main.vi,0.000000,0.000000,0.000000,0.000000,TRUE,TRUE,TRUE,FALSE,FALSE,FALSE,Disabled,0.000000,0.000000,0.000000,TRUE,0.000000,0.000000,0.000000,0.000000,0.000000,0.000000,-0.004000,0.001000,0.006000,-1.690000,0.110000,1.420000,8.589189,ResetBack,0.000000,-0.000049,ResetBack,0.000000,-0.250000,LowGoal,0.000000,-2181.818182,Speed,0.000000,-2181.818182,Speed,Off,Off,0.000000,FALSE,13,Read: /home/lvuser/scripts/auto_13.bee,File good!,WAIT 1500,WAIT
12:42:43.651 PM 03/25/2016,Autonomous Enabled,10,TRUE,7,Read from Text File in DoesScriptNumberContainNull.vi->Disabled.vi->Robot Main.vi<APPEND> /home/lvuser/scripts/auto_246.bee,0.000000,0.000000,0.000000,0.000000,TRUE,TRUE,TRUE,FALSE,FALSE,FALSE,Disabled,0.000000,0.000000,0.000000,TRUE,-0.000107,0.000076,0.000000,-0.011292,0.007935,0.000000,-0.118000,0.080000,0.065000,-1.690000,0.090000,1.420000,8.613976,ResetBack,-1.527832,-0.000049,ResetBack,1396.000000,-0.250000,LowGoal,82.500000,0.000000,Speed,15.000000,0.000000,Speed,Off,Off,0.000000,FALSE,13,Read: /home/lvuser/scripts/auto_13.bee,File good!,WAIT 1500,WAIT
12:42:43.751 PM 03/25/2016,Autonomous Enabled,10,TRUE,7,Read from Text File in DoesScriptNumberContainNull.vi->Disabled.vi->Robot Main.vi<APPEND> /home/lvuser/scripts/auto_246.bee,0.000000,0.000000,0.000000,0.000000,TRUE,FALSE,TRUE,FALSE,FALSE,FALSE,Disabled,0.000000,0.000000,0.000000,TRUE,-0.000076,-0.000870,0.000000,0.009644,-0.036957,0.000000,0.013000,-0.004000,-0.013000,-1.700000,0.120000,1.430000,8.619081,ResetBack,-2.132080,-0.000049,ResetBack,5196.000000,-0.250000,LowGoal,480.000000,0.000000,Speed,457.500000,0.000000,Speed,Off,Off,0.000000,FALSE,13,Read: /home/lvuser/scripts/auto_13.bee,File good!,WAIT 1500,WAIT
12:42:43.851 PM 03/25/2016,Autonomous Enabled,10,TRUE,7,Read from Text File in DoesScriptNumberContainNull.vi->Disabled.vi->Robot Main.vi<APPEND> /home/lvuser/scripts/auto_246.bee,0.000000,0.000000,0.000000,0.000000,TRUE,FALSE,TRUE,FALSE,FALSE,FALSE,Disabled,0.000000,0.000000,0.000000,TRUE,0.000031,-0.000961,0.000000,0.003754,0.011978,0.000000,0.027000,-0.005000,-0.005000,-1.700000,0.150000,1.390000,8.614788,ResetBack,-2.162842,-0.000049,ResetBack,11335.000000,-0.250000,LowGoal,570.000000,-2181.818182,Speed,547.500000,-2181.818182,Speed,Off,Off,0.000000,FALSE,13,Read: /home/lvuser/scripts/auto_13.bee,File good!,WAIT 1500,WAIT
12:42:43.951 PM 03/25/2016,Autonomous Enabled,11,TRUE,7,Read from Text File in DoesScriptNumberContainNull.vi->Disabled.vi->Robot Main.vi<APPEND> /home/lvuser/scripts/auto_246.bee,0.000000,0.000000,0.000000,0.000000,TRUE,FALSE,TRUE,FALSE,FALSE,FALSE,Disabled,0.000000,0.000000,0.000000,TRUE,-0.000198,0.000015,0.000000,-0.021500,0.024658,0.000000,-0.025000,0.021000,0.038000,-1.700000,0.120000,1.430000,8.619563,Reset,-2.175049,0.000000,ResetBack,11335.000000,-0.250000,LowGoal,540.000000,-2181.818182,Speed,465.000000,-2181.818182,Speed,Off,Off,0.000000,FALSE,13,Read: /home/lvuser/scripts/auto_13.bee,File good!,WAIT 1500,WAIT
12:42:44.051 PM 03/25/2016,Autonomous Enabled,10,TRUE,7,Read from Text File in DoesScriptNumberContainNull.vi->Disabled.vi->Robot Main.vi<APPEND> /home/lvuser/scripts/auto_246.bee,0.000000,0.000000,0.000000,0.000000,TRUE,FALSE,TRUE,FALSE,FALSE,FALSE,Disabled,0.000000,0.000000,0.000000,TRUE,-0.000763,0.001572,0.000000,-0.020508,0.032761,0.000000,-0.006000,-0.009000,0.024000,-1.700000,0.090000,1.460000,8.621343,Hold,0.346924,0.000000,ResetBack,17289.000000,-0.250000,LowGoal,1020.000000,-2181.818182,Speed,945.000000,-2181.818182,Speed,Off,Off,0.000000,FALSE,13,Read: /home/lvuser/scripts/auto_13.bee,File good!,WAIT 1500,WAIT
12:42:44.151 PM 03/25/2016,Autonomous Enabled,11,TRUE,7,Read from Text File in DoesScriptNumberContainNull.vi->Disabled.vi->Robot Main.vi<APPEND> /home/lvuser/scripts/auto_246.bee,0.000000,0.000000,0.000000,0.000000,TRUE,FALSE,TRUE,FALSE,FALSE,FALSE,Disabled,0.000000,0.000000,0.000000,TRUE,-0.002441,0.003647,0.000000,-0.033218,0.019348,0.000000,-0.076000,0.168000,0.107000,-1.720000,0.150000,1.410000,8.657417,Hold,0.462158,0.000000,ResetBack,21999.000000,-0.250000,LowGoal,1620.000000,-2181.818182,Speed,1560.000000,-2181.818182,Speed,Off,Off,0.000000,FALSE,13,Read: /home/lvuser/scripts/auto_13.bee,File good!,WAIT 1500,WAIT
12:42:44.251 PM 03/25/2016,Autonomous Enabled,9,TRUE,7,Read from Text File in DoesScriptNumberContainNull.vi->Disabled.vi->Robot Main.vi<APPEND> /home/lvuser/scripts/auto_246.bee,0.000000,0.000000,0.000000,0.000000,TRUE,FALSE,TRUE,FALSE,FALSE,FALSE,Disabled,0.000000,0.000000,0.000000,TRUE,-0.006775,0.005798,0.000000,-0.132141,0.054291,0.000000,-0.128000,0.117000,-0.091000,-1.700000,0.090000,1.430000,8.637709,Hold,0.462158,0.000000,ResetBack,24436.000000,-0.250000,LowGoal,2092.500000,-2181.818182,Speed,2070.000000,-2181.818182,Speed,Off,Off,0.000000,FALSE,13,Read: /home/lvuser/scripts/auto_13.bee,File good!,WAIT 1500,WAIT
12:42:44.351 PM 03/25/2016,Autonomous Enabled,9,TRUE,7,Read from Text File in DoesScriptNumberContainNull.vi->Disabled.vi->Robot Main.vi<APPEND> /home/lvuser/scripts/auto_246.bee,0.000000,0.000000,0.000000,0.000000,TRUE,FALSE,TRUE,FALSE,FALSE,FALSE,Disabled,0.000000,0.000000,0.000000,TRUE,-0.009933,0.008987,0.000000,0.008682,0.099121,0.000000,0.037000,0.181000,-0.168000,-1.700000,0.090000,1.420000,8.659369,Hold,0.462158,0.000000,ResetBack,26560.000000,-0.250000,LowGoal,2250.000000,-2181.818182,Speed,2265.000000,-2181.818182,Speed,Off,Off,0.000000,FALSE,13,Read: /home/lvuser/scripts/auto_13.bee,File good!,WAIT 1500,WAIT
12:42:44.450 PM 03/25/2016,Autonomous Enabled,11,TRUE,7,Read from Text File in DoesScriptNumberContainNull.vi->Disabled.vi->Robot Main.vi<APPEND> /home/lvuser/scripts/auto_246.bee,0.000000,0.000000,0.000000,0.000000,TRUE,FALSE,TRUE,FALSE,FALSE,FALSE,Disabled,0.000000,0.000000,0.000000,TRUE,-0.009369,0.019577,0.000000,0.000717,0.280991,0.000000,-0.097000,0.080000,0.017000,-1.690000,-0.030000,1.500000,8.662168,Hold,0.462158,0.000000,ResetBack,28769.000000,-0.250000,LowGoal,2212.500000,-2181.818182,Speed,2137.500000,-2181.818182,Speed,Off,Off,0.000000,FALSE,13,Read: /home/lvuser/scripts/auto_13.bee,File good!,WAIT 1500,WAIT
12:42:44.551 PM 03/25/2016,Autonomous Enabled,9,TRUE,7,Read from Text File in DoesScriptNumberContainNull.vi->Disabled.vi->Robot Main.vi<APPEND> /home/lvuser/scripts/auto_246.bee,0.000000,0.000000,0.000000,0.000000,TRUE,FALSE,TRUE,FALSE,FALSE,FALSE,Disabled,0.000000,0.000000,0.000000,TRUE,-0.011261,0.037354,0.000000,-0.062897,0.411041,0.000000,-0.026000,0.120000,0.050000,-1.690000,-0.190000,1.580000,8.673439,Hold,0.462402,0.000000,ResetBack,29270.000000,-0.250000,LowGoal,2152.500000,-2181.818182,Speed,2092.500000,-2181.818182,Speed,Off,Off,0.000000,FALSE,13,Read: /home/lvuser/scripts/auto_13.bee,File good!,WAIT 1500,WAIT
12:42:44.652 PM 03/25/2016,Autonomous Enabled,10,TRUE,7,Read from Text File in DoesScriptNumberContainNull.vi->Disabled.vi->Robot Main.vi<APPEND> /home/lvuser/scripts/auto_246.bee,0.000000,0.000000,0.000000,0.000000,TRUE,FALSE,TRUE,FALSE,FALSE,FALSE,Disabled,0.000000,0.000000,0.000000,TRUE,-0.014786,0.064606,0.000000,-0.033295,0.456421,0.000000,0.046000,-0.060000,-0.085000,-1.690000,-0.190000,1.570000,8.681405,Hold,0.462402,0.000000,ResetBack,29270.000000,-0.250000,LowGoal,2152.500000,-2181.818182,Speed,2137.500000,-2181.818182,Speed,Off,Off,0.000000,FALSE,13,Read: /home/lvuser/scripts/auto_13.bee,File good!,WAIT 1500,WAIT
12:42:44.753 PM 03/25/2016,Autonomous Enabled,11,TRUE,7,Read from Text File in DoesScriptNumberContainNull.vi->Disabled.vi->Robot Main.vi<APPEND> /home/lvuser/scripts/auto_246.bee,0.000000,0.000000,0.000000,0.000000,TRUE,FALSE,TRUE,FALSE,FALSE,FALSE,Disabled,0.000000,0.000000,0.000000,TRUE,-0.013824,0.082565,0.000000,0.066422,0.448074,0.000000,0.152000,0.049000,-0.074000,-1.690000,-0.190000,1.410000,8.698907,Hold,0.462402,0.000000,ResetBack,29295.000000,-0.250000,LowGoal,2167.500000,-2181.818182,Speed,2167.500000,-2181.818182,Speed,Off,Off,0.000000,FALSE,13,Read: /home/lvuser/scripts/auto_13.bee,File good!,WAIT 1500,WAIT
12:42:44.855 PM 03/25/2016,Autonomous Enabled,11,TRUE,7,Read from Text File in DoesScriptNumberContainNull.vi->Disabled.vi->Robot Main.vi<APPEND> /home/lvuser/scripts/auto_246.bee,0.000000,0.000000,0.000000,0.000000,TRUE,FALSE,TRUE,FALSE,FALSE,FALSE,Disabled,0.000000,0.000000,0.000000,TRUE,-0.006104,0.104980,0.000000,0.207306,0.447571,0.000000,0.066000,-0.002000,-0.148000,-1.690000,-0.100000,1.270000,8.705854,Hold,0.462402,0.000000,Reset,29427.000000,2.000000,LowGoal,2175.000000,-2181.818182,Speed,2145.000000,-2181.818182,Speed,Off,Off,0.000000,FALSE,13,Read: /home/lvuser/scripts/auto_13.bee,File good!,WAIT 1500,WAIT
12:42:44.956 PM 03/25/2016,Autonomous Enabled,9,TRUE,7,Read from Text File in DoesScriptNumberContainNull.vi->Disabled.vi->Robot Main.vi<APPEND> /home/lvuser/scripts/auto_246.bee,0.000000,0.000000,0.000000,0.000000,TRUE,FALSE,TRUE,FALSE,FALSE,FALSE,Disabled,0.000000,0.000000,0.000000,TRUE,0.006012,0.127457,0.000000,0.263199,0.456238,0.000000,0.039000,-0.176000,-0.209000,-1.690000,-0.050000,1.270000,8.702746,Hold,0.462402,0.000000,Hold,-244.000000,2.000000,LowGoal,2152.500000,-2181.818182,Speed,2137.500000,-2181.818182,Speed,Off,Off,0.000000,FALSE,13,Read: /home/lvuser/scripts/auto_13.bee,File good!,WAIT 1500,WAIT
12:42:45.056 PM 03/25/2016,Autonomous Enabled,10,TRUE,7,Read from Text File in DoesScriptNumberContainNull.vi->Disabled.vi->Robot Main.vi<APPEND> /home/lvuser/scripts/auto_246.bee,0.000000,0.000000,0.000000,0.000000,TRUE,FALSE,TRUE,FALSE,FALSE,FALSE,Disabled,0.000000,0.000000,0.000000,TRUE,0.018845,0.148270,0.000000,0.245789,0.402527,0.000000,-0.028000,0.009000,0.073000,-1.690000,-0.070000,1.290000,8.704370,Hold,0.462402,0.000000,Hold,-149.000000,2.000000,LowGoal,2130.000000,-2181.818182,Speed,2145.000000,-2181.818182,Speed,Off,Off,0.000000,FALSE,13,Read: /home/lvuser/scripts/auto_13.bee,File good!,WAIT 1500,WAIT
12:42:45.156 PM 03/25/2016,Autonomous Enabled,10,TRUE,7,Read from Text File in DoesScriptNumberContainNull.vi->Disabled.vi->Robot Main.vi<APPEND> /home/lvuser/scripts/auto_246.bee,0.000000,0.000000,0.000000,0.000000,TRUE,FALSE,TRUE,FALSE,FALSE,FALSE,Disabled,0.000000,0.000000,0.000000,TRUE,0.031250,0.149170,0.000000,0.254395,0.037079,0.000000,0.058000,-0.061000,0.212000,-1.690000,0.040000,1.250000,0.005274,Hold,0.462402,58.000000,Hold,-151.000000,2.000000,LowGoal,2122.500000,-2181.818182,Speed,2152.500000,-2181.818182,Speed,Off,Off,0.000000,FALSE,13,Read: /home/lvuser/scripts/auto_13.bee,File good!,WAIT 750,WAIT
12:42:45.256 PM 03/25/2016,Autonomous Enabled,10,TRUE,7,Read from Text File in DoesScriptNumberContainNull.vi->Disabled.vi->Robot Main.vi<APPEND> /home/lvuser/scripts/auto_246.bee,0.000000,0.000000,0.000000,0.000000,TRUE,FALSE,TRUE,FALSE,FALSE,FALSE,Disabled,0.000000,0.000000,0.000000,TRUE,0.044632,0.150513,0.000000,0.271454,-0.001480,0.000000,0.008000,-0.076000,-0.005000,0.000000,-0.020000,1.270000,0.004857,Hold,3.264893,58.000000,Hold,-151.000000,151552.000000,LowGoal,2130.000000,-2181.818182,Speed,2137.500000,-2181.818182,Speed,Off,Off,0.000000,FALSE,13,Read: /home/lvuser/scripts/auto_13.bee,File good!,WAIT 750,WAIT
12:42:45.356 PM 03/25/2016,Autonomous Enabled,10,TRUE,7,Read from Text File in DoesScriptNumberContainNull.vi->Disabled.vi->Robot Main.vi<APPEND> /home/lvuser/scripts/auto_246.bee,0.000000,0.000000,0.000000,0.000000,TRUE,FALSE,TRUE,FALSE,FALSE,FALSE,Disabled,0.000000,0.000000,0.000000,TRUE,0.054321,0.148346,0.000000,0.000000,-0.034348,0.000000,0.077000,-0.110000,0.106000,0.020000,0.000000,1.310000,0.027475,Hold,5.824219,58.000000,Hold,-183.000000,151552.000000,LowGoal,2130.000000,-2181.818182,Speed,2122.500000,-2181.818182,Speed,Off,Off,0.000000,FALSE,13,Read: /home/lvuser/scripts/auto_13.bee,File good!,WAIT 750,WAIT
12:42:45.456 PM 03/25/2016,Autonomous Enabled,10,TRUE,7,Read from Text File in DoesScriptNumberContainNull.vi->Disabled.vi->Robot Main.vi<APPEND> /home/lvuser/scripts/auto_246.bee,0.000000,0.000000,0.000000,0.000000,TRUE,FALSE,TRUE,FALSE,FALSE,FALSE,Disabled,0.000000,0.000000,0.000000,TRUE,0.054962,0.145264,0.000000,-0.007126,-0.058014,0.000000,0.018000,0.080000,0.112000,0.000000,-0.050000,1.290000,0.018146,Hold,9.511230,58.000000,Hold,-9395.000000,151552.000000,LowGoal,2122.500000,-2181.818182,Speed,2137.500000,-2181.818182,Speed,Off,Off,0.000000,FALSE,13,Read: /home/lvuser/scripts/auto_13.bee,File good!,WAIT 750,WAIT
12:42:45.557 PM 03/25/2016,Autonomous Enabled,9,TRUE,7,Read from Text File in DoesScriptNumberContainNull.vi->Disabled.vi->Robot Main.vi<APPEND> /home/lvuser/scripts/auto_246.bee,0.000000,0.000000,0.000000,0.000000,TRUE,FALSE,TRUE,FALSE,FALSE,FALSE,Disabled,0.000000,0.000000,0.000000,TRUE,0.055130,0.143677,0.000000,0.014465,-0.006149,0.000000,-0.021000,-0.013000,-0.091000,0.010000,0.020000,1.290000,0.040405,Hold,13.927246,58.000000,Hold,-20559.000000,151552.000000,LowGoal,2122.500000,-2181.818182,Speed,2152.500000,-2181.818182,Speed,Off,Off,0.000000,FALSE,13,Read: /home/lvuser/scripts/auto_13.bee,File good!,WAIT 750,WAIT
12:42:45.657 PM 03/25/2016,Autonomous Enabled,10,TRUE,7,Read from Text File in DoesScriptNumberContainNull.vi->Disabled.vi->Robot Main.vi<APPEND> /home/lvuser/scripts/auto_246.bee,0.000000,0.000000,0.000000,0.000000,TRUE,FALSE,TRUE,FALSE,FALSE,FALSE,Disabled,0.000000,0.000000,0.000000,TRUE,0.054077,0.146347,0.000000,-0.049805,0.100571,0.000000,0.010000,0.127000,0.001000,0.010000,-0.100000,1.280000,0.044044,Hold,19.119141,58.000000,Hold,-31558.000000,151552.000000,LowGoal,2130.000000,-2181.818182,Speed,2145.000000,-2181.818182,Speed,Off,Off,0.000000,FALSE,13,Read: /home/lvuser/scripts/auto_13.bee,File good!,WAIT 750,WAIT
12:42:45.757 PM 03/25/2016,Autonomous Enabled,9,TRUE,7,Read from Text File in DoesScriptNumberContainNull.vi->Disabled.vi->Robot Main.vi<APPEND> /home/lvuser/scripts/auto_246.bee,0.000000,0.000000,0.000000,0.000000,TRUE,FALSE,TRUE,FALSE,FALSE,FALSE,Disabled,0.000000,0.000000,0.000000,TRUE,0.052917,0.154953,0.000000,0.006332,0.210663,0.000000,0.105000,-0.076000,-0.168000,0.020000,0.060000,1.350000,0.076039,Hold,25.176270,58.000000,Hold,-40815.000000,151552.000000,LowGoal,2130.000000,-2181.818182,Speed,2130.000000,-2181.818182,Speed,Off,Off,0.000000,FALSE,13,Read: /home/lvuser/scripts/auto_13.bee,File good!,WAIT 750,WAIT
12:42:45.857 PM 03/25/2016,Autonomous Enabled,10,TRUE,7,Read from Text File in DoesScriptNumberContainNull.vi->Disabled.vi->Robot Main.vi<APPEND> /home/lvuser/scripts/auto_246.bee,0.000000,0.000000,0.000000,0.000000,TRUE,FALSE,TRUE,FALSE,FALSE,FALSE,Disabled,0.000000,0.000000,0.000000,TRUE,0.054825,0.164444,0.000000,0.043533,0.173721,0.000000,-0.023000,-0.018000,-0.021000,0.010000,0.030000,1.310000,0.083406,Hold,32.252686,58.000000,Hold,-51798.000000,151552.000000,LowGoal,2122.500000,-2181.818182,Speed,2137.500000,-2181.818182,Speed,Off,Off,0.000000,FALSE,13,Read: /home/lvuser/scripts/auto_13.bee,File good!,WAIT 750,WAIT
12:42:45.958 PM 03/25/2016,Autonomous Enabled,9,TRUE,7,Read from Text File in DoesScriptNumberContainNull.vi->Disabled.vi->Robot Main.vi<APPEND> /home/lvuser/scripts/auto_246.bee,0.000000,0.000000,0.000000,0.000000,TRUE,FALSE,TRUE,FALSE,FALSE,FALSE,Disabled,0.000000,0.000000,0.000000,TRUE,0.057617,0.170502,0.000000,0.083313,0.087128,0.000000,0.090000,-0.144000,0.027000,0.010000,0.000000,1.370000,0.068180,Hold,32.252686,58.000000,Hold,-51798.000000,151552.000000,LowGoal,2130.000000,-2181.818182,Speed,2145.000000,-2181.818182,Speed,Off,Off,0.000000,FALSE,13,Read: /home/lvuser/scripts/auto_13.bee,File good!,DRIVE_STRAIGHT_TARGET 206 1000 10000 75,DRIVE_STRAIGHT_TARGET
12:42:46.058 PM 03/25/2016,Autonomous Enabled,9,TRUE,7,Read from Text File in DoesScriptNumberContainNull.vi->Disabled.vi->Robot Main.vi<APPEND> /home/lvuser/scripts/auto_246.bee,0.000000,-0.808498,0.000000,0.769998,TRUE,FALSE,TRUE,FALSE,FALSE,FALSE,Disabled,0.000000,0.000000,0.000000,TRUE,0.067017,0.173370,0.000000,0.304840,0.067413,0.000000,0.995000,0.192000,-0.140000,-0.220000,1.750000,1.120000,0.015478,Hold,40.416016,58.000000,Hold,-64597.000000,151552.000000,LowGoal,2137.500000,-2181.818182,Speed,2130.000000,-2181.818182,Speed,Off,Off,0.000000,FALSE,13,Read: /home/lvuser/scripts/auto_13.bee,File good!,DRIVE_STRAIGHT_TARGET 206 1000 10000 75,DRIVE_STRAIGHT_TARGET
12:42:46.159 PM 03/25/2016,Autonomous Enabled,11,TRUE,7,Read from Text File in DoesScriptNumberContainNull.vi->Disabled.vi->Robot Main.vi<APPEND> /home/lvuser/scripts/auto_246.bee,0.000000,-3.067159,0.000000,3.144159,FALSE,FALSE,TRUE,FALSE,FALSE,FALSE,Disabled,0.000000,0.000000,0.000000,TRUE,0.101700,0.175659,0.000000,0.848038,0.000000,0.000000,0.226000,-0.238000,-0.275000,-0.330000,4.380000,1.270000,-0.230328,Hold,57.801758,58.000000,Hold,-64597.000000,151552.000000,LowGoal,2115.000000,-2181.818182,Speed,2100.000000,-2181.818182,Speed,Off,Off,0.000000,FALSE,13,Read: /home/lvuser/scripts/auto_13.bee,File good!,DRIVE_STRAIGHT_TARGET 206 1000 10000 75,DRIVE_STRAIGHT_TARGET
12:42:46.259 PM 03/25/2016,Autonomous Enabled,10,TRUE,7,Read from Text File in DoesScriptNumberContainNull.vi->Disabled.vi->Robot Main.vi<APPEND> /home/lvuser/scripts/auto_246.bee,0.000000,-6.435902,0.000000,6.467985,FALSE,FALSE,TRUE,FALSE,FALSE,FALSE,Disabled,0.000000,0.000000,0.000000,TRUE,0.149185,0.173325,0.000000,0.966278,-0.059906,0.000000,0.026000,0.010000,-0.322000,-0.290000,3.610000,1.440000,-0.158540,Hold,57.801758,58.000000,Hold,-80808.000000,151552.000000,LowGoal,2107.500000,-2181.818182,Speed,2107.500000,-2181.818182,Speed,Off,Off,0.000000,FALSE,13,Read: /home/lvuser/scripts/auto_13.bee,File good!,DRIVE_STRAIGHT_TARGET 206 1000 10000 75,DRIVE_STRAIGHT_TARGET
12:42:46.359 PM 03/25/2016,Autonomous Enabled,10,TRUE,7,Read from Text File in DoesScriptNumberContainNull.vi->Disabled.vi->Robot Main.vi<APPEND> /home/lvuser/scripts/auto_246.bee,0.000000,-10.427059,0.000000,10.433476,FALSE,FALSE,TRUE,FALSE,FALSE,FALSE,Disabled,0.000000,0.000000,0.000000,TRUE,0.187851,0.171875,0.000000,0.972427,-0.020706,0.000000,0.051000,-0.054000,0.394000,-0.120000,3.860000,1.370000,-0.022494,Hold,62.235352,58.000000,Hold,-93193.000000,151552.000000,LowGoal,2122.500000,-2181.818182,Speed,2107.500000,-2181.818182,Speed,Off,Off,0.000000,FALSE,13,Read: /home/lvuser/scripts/auto_13.bee,File good!,DRIVE_STRAIGHT_TARGET 206 1000 10000 75,DRIVE_STRAIGHT_TARGET
12:42:46.461 PM 03/25/2016,Autonomous Enabled,9,TRUE,7,Read from Text File in DoesScriptNumberContainNull.vi->Disabled.vi->Robot Main.vi<APPEND> /home/lvuser/scripts/auto_246.bee,0.000000,-14.816049,0.000000,14.777549,FALSE,FALSE,TRUE,FALSE,FALSE,FALSE,Disabled,0.000000,0.000000,0.000000,TRUE,0.242737,0.168579,0.000000,0.880829,-0.050232,0.000000,0.074000,0.002000,-0.371000,0.020000,3.180000,1.490000,0.146526,Hold,62.394775,58.000000,Hold,-105400.000000,151552.000000,LowGoal,2137.500000,-2181.818182,Speed,2130.000000,-2181.818182,Speed,Off,Off,0.000000,FALSE,13,Read: /home/lvuser/scripts/auto_13.bee,File good!,DRIVE_STRAIGHT_TARGET 206 1000 10000 75,DRIVE_STRAIGHT_TARGET
12:42:46.561 PM 03/25/2016,Autonomous Enabled,9,TRUE,7,Read from Text File in DoesScriptNumberContainNull.vi->Disabled.vi->Robot Main.vi<APPEND> /home/lvuser/scripts/auto_246.bee,0.000000,-19.378288,0.000000,19.269205,FALSE,FALSE,TRUE,FALSE,FALSE,FALSE,Disabled,0.000000,0.000000,0.000000,TRUE,0.295670,0.168884,0.000000,0.882736,0.071198,0.000000,0.210000,0.116000,-0.213000,0.130000,3.330000,1.410000,0.259603,Hold,62.240723,58.000000,Hold,-120769.000000,151552.000000,LowGoal,2137.500000,-2181.818182,Speed,2137.500000,-2181.818182,Speed,Off,Off,0.000000,FALSE,13,Read: /home/lvuser/scripts/auto_13.bee,File good!,DRIVE_STRAIGHT_TARGET 206 1000 10000 75,DRIVE_STRAIGHT_TARGET
12:42:46.663 PM 03/25/2016,Autonomous Enabled,9,TRUE,7,Read from Text File in DoesScriptNumberContainNull.vi->Disabled.vi->Robot Main.vi<APPEND> /home/lvuser/scripts/auto_246.bee,0.000000,-23.767278,0.000000,23.600445,FALSE,FALSE,TRUE,FALSE,FALSE,FALSE,Disabled,0.000000,0.000000,0.000000,TRUE,0.341568,0.175385,0.000000,0.870789,0.162338,0.000000,-0.350000,0.048000,0.195000,0.220000,3.410000,1.450000,0.355582,Hold,61.875488,58.000000,Hold,-132599.000000,151552.000000,LowGoal,2137.500000,-2181.818182,Speed,2137.500000,-2181.818182,Speed,Off,Off,0.000000,FALSE,13,Read: /home/lvuser/scripts/auto_13.bee,File good!,DRIVE_STRAIGHT_TARGET 206 1000 10000 75,DRIVE_STRAIGHT_TARGET
12:42:46.762 PM 03/25/2016,Autonomous Enabled,10,TRUE,7,Read from Text File in DoesScriptNumberContainNull.vi->Disabled.vi->Robot Main.vi<APPEND> /home/lvuser/scripts/auto_246.bee,0.000000,-28.111351,0.000000,27.970185,FALSE,FALSE,TRUE,FALSE,FALSE,FALSE,Disabled,0.000000,0.000000,0.000000,TRUE,0.385071,0.185135,0.000000,0.873428,0.214767,0.000000,-0.474000,0.093000,0.191000,0.130000,3.350000,1.380000,0.276530,Hold,61.656006,58.000000,Hold,-132599.000000,151552.000000,LowGoal,2122.500000,-2181.818182,Speed,2130.000000,-2181.818182,Speed,Off,Off,0.000000,FALSE,13,Read: /home/lvuser/scripts/auto_13.bee,File good!,DRIVE_STRAIGHT_TARGET 206 1000 10000 75,DRIVE_STRAIGHT_TARGET
12:42:46.863 PM 03/25/2016,Autonomous Enabled,10,TRUE,7,Read from Text File in DoesScriptNumberContainNull.vi->Disabled.vi->Robot Main.vi<APPEND> /home/lvuser/scripts/auto_246.bee,0.000000,-32.513174,0.000000,32.461841,FALSE,FALSE,TRUE,FALSE,FALSE,FALSE,Disabled,0.000000,0.000000,0.000000,TRUE,0.418243,0.190750,0.000000,0.832321,0.000000,0.000000,-0.048000,0.024000,-0.097000,0.050000,3.030000,1.340000,0.166764,Hold,61.660645,58.000000,Hold,-142405.000000,151552.000000,LowGoal,2115.000000,-2181.818182,Speed,2115.000000,-2181.818182,Speed,Off,Off,0.000000,FALSE,13,Read: /home/lvuser/scripts/auto_13.bee,File good!,DRIVE_STRAIGHT_TARGET 206 1000 10000 75,DRIVE_STRAIGHT_TARGET
12:42:46.964 PM 03/25/2016,Autonomous Enabled,11,TRUE,7,Read from Text File in DoesScriptNumberContainNull.vi->Disabled.vi->Robot Main.vi<APPEND> /home/lvuser/scripts/auto_246.bee,0.000000,-37.107497,0.000000,37.011247,TRUE,FALSE,TRUE,FALSE,FALSE,FALSE,Disabled,0.000000,0.000000,0.000000,TRUE,0.466171,0.190292,0.000000,0.765610,-0.022583,0.000000,0.159000,0.019000,0.121000,-0.010000,2.450000,1.380000,0.104547,Hold,61.681152,58.000000,Hold,-152647.000000,151552.000000,LowGoal,2077.500000,-2181.818182,Speed,2107.500000,-2181.818182,Speed,Off,Off,0.000000,FALSE,13,Read: /home/lvuser/scripts/auto_13.bee,File good!,DRIVE_STRAIGHT_TARGET 206 1000 10000 75,DRIVE_STRAIGHT_TARGET
12:42:47.064 PM 03/25/2016,Autonomous Enabled,10,TRUE,7,Read from Text File in DoesScriptNumberContainNull.vi->Disabled.vi->Robot Main.vi<APPEND> /home/lvuser/scripts/auto_246.bee,0.000000,-41.393820,0.000000,41.336070,TRUE,FALSE,TRUE,FALSE,FALSE,FALSE,Disabled,0.000000,0.000000,0.000000,TRUE,0.503998,0.188065,0.000000,0.736923,-0.069000,0.000000,-0.132000,-0.105000,0.045000,-0.110000,2.130000,1.350000,0.002823,Hold,61.670898,58.000000,Hold,-151517.000000,151552.000000,LowGoal,2115.000000,-2181.818182,Speed,2130.000000,-2181.818182,Speed,Off,Off,0.000000,FALSE,13,Read: /home/lvuser/scripts/auto_13.bee,File good!,DRIVE_STRAIGHT_TARGET 206 1000 10000 75,DRIVE_STRAIGHT_TARGET
12:42:47.164 PM 03/25/2016,Autonomous Enabled,11,TRUE,7,Read from Text File in DoesScriptNumberContainNull.vi->Disabled.vi->Robot Main.vi<APPEND> /home/lvuser/scripts/auto_246.bee,0.000000,-45.789226,0.000000,45.635227,TRUE,FALSE,TRUE,FALSE,FALSE,FALSE,Disabled,0.000000,0.000000,0.000000,TRUE,0.536194,0.181152,0.000000,0.578903,-0.189468,0.000000,-0.076000,-0.076000,0.042000,-0.090000,2.550000,1.170000,-0.019354,Hold,61.670898,58.000000,Hold,-151539.000000,151552.000000,LowGoal,2160.000000,-2181.818182,Speed,2130.000000,-2181.818182,Speed,Off,Off,0.000000,FALSE,13,Read: /home/lvuser/scripts/auto_13.bee,File good!,DRIVE_STRAIGHT_TARGET 206 1000 10000 75,DRIVE_STRAIGHT_TARGET
12:42:47.264 PM 03/25/2016,Autonomous Enabled,11,TRUE,7,Read from Text File in DoesScriptNumberContainNull.vi->Disabled.vi->Robot Main.vi<APPEND> /home/lvuser/scripts/auto_246.bee,0.000000,-49.972883,0.000000,49.876633,FALSE,FALSE,TRUE,FALSE,FALSE,FALSE,Disabled,0.000000,0.000000,0.000000,TRUE,0.561127,0.169861,0.000000,0.440186,-0.249527,0.000000,-0.139000,0.076000,0.115000,-0.080000,3.940000,1.140000,-0.088935,Hold,61.610840,58.000000,Hold,-151532.000000,151552.000000,LowGoal,2175.000000,-2181.818182,Speed,2130.000000,-2181.818182,Speed,Off,Off,0.000000,FALSE,13,Read: /home/lvuser/scripts/auto_13.bee,File good!,DRIVE_STRAIGHT_TARGET 206 1000 10000 75,DRIVE_STRAIGHT_TARGET
12:42:47.363 PM 03/25/2016,Autonomous Enabled,10,TRUE,7,Read from Text File in DoesScriptNumberContainNull.vi->Disabled.vi->Robot Main.vi<APPEND> /home/lvuser/scripts/auto_246.bee,0.000000,-54.233540,0.000000,54.175790,FALSE,FALSE,TRUE,FALSE,FALSE,FALSE,Disabled,0.000000,0.000000,0.000000,TRUE,0.568985,0.158173,0.000000,-0.022079,-0.212662,0.000000,-0.112000,0.101000,-0.009000,0.000000,6.430000,1.050000,-0.057890,Hold,61.534912,58.000000,Hold,-151532.000000,151552.000000,LowGoal,2152.500000,-2181.818182,Speed,2130.000000,-2181.818182,Speed,Off,Off,0.000000,FALSE,13,Read: /home/lvuser/scripts/auto_13.bee,File good!,DRIVE_STRAIGHT_TARGET 206 1000 10000 75,DRIVE_STRAIGHT_TARGET
12:42:47.464 PM 03/25/2016,Autonomous Enabled,10,TRUE,7,Read from Text File in DoesScriptNumberContainNull.vi->Disabled.vi->Robot Main.vi<APPEND> /home/lvuser/scripts/auto_246.bee,0.000000,-58.397947,0.000000,58.263197,FALSE,FALSE,TRUE,FALSE,FALSE,FALSE,Disabled,0.000000,0.000000,0.000000,TRUE,0.565109,0.151337,0.000000,-0.123123,0.000000,0.000000,-0.100000,-0.006000,-0.131000,0.050000,8.770000,0.890000,-0.049163,Hold,61.695312,58.000000,Hold,-151532.000000,151552.000000,LowGoal,2092.500000,-2181.818182,Speed,2137.500000,-2181.818182,Speed,Off,Off,0.000000,FALSE,13,Read: /home/lvuser/scripts/auto_13.bee,File good!,DRIVE_STRAIGHT_TARGET 206 1000 10000 75,DRIVE_STRAIGHT_TARGET
12:42:47.564 PM 03/25/2016,Autonomous Enabled,11,TRUE,7,Read from Text File in DoesScriptNumberContainNull.vi->Disabled.vi->Robot Main.vi<APPEND> /home/lvuser/scripts/auto_246.bee,0.000000,-62.395521,0.000000,62.299271,FALSE,FALSE,TRUE,FALSE,FALSE,FALSE,Disabled,0.000000,0.000000,0.000000,TRUE,0.558441,0.150894,0.000000,-0.131897,-0.018005,0.000000,-0.132000,-0.040000,0.381000,0.020000,8.810000,0.960000,-0.076769,Hold,61.690918,58.000000,Hold,-151535.000000,151552.000000,LowGoal,1957.500000,-2181.818182,Speed,2130.000000,-2181.818182,Speed,Off,Off,0.000000,FALSE,13,Read: /home/lvuser/scripts/auto_13.bee,File good!,DRIVE_STRAIGHT_TARGET 206 1000 10000 75,DRIVE_STRAIGHT_TARGET
12:42:47.664 PM 03/25/2016,Autonomous Enabled,10,TRUE,7,Read from Text File in DoesScriptNumberContainNull.vi->Disabled.vi->Robot Main.vi<APPEND> /home/lvuser/scripts/auto_246.bee,0.000000,-66.239095,0.000000,66.085095,FALSE,FALSE,TRUE,FALSE,FALSE,FALSE,Disabled,0.000000,0.000000,0.000000,TRUE,0.546951,0.150452,0.000000,-0.194290,0.009048,0.000000,-0.067000,-0.011000,0.639000,0.070000,7.770000,0.890000,-0.024346,Hold,61.702393,58.000000,Hold,-151592.000000,151552.000000,LowGoal,2070.000000,-2181.818182,Speed,2122.500000,-2181.818182,Speed,Off,Off,0.000000,FALSE,13,Read: /home/lvuser/scripts/auto_13.bee,File good!,DRIVE_STRAIGHT_TARGET 206 1000 10000 75,DRIVE_STRAIGHT_TARGET
12:42:47.766 PM 03/25/2016,Autonomous Enabled,10,TRUE,7,Read from Text File in DoesScriptNumberContainNull.vi->Disabled.vi->Robot Main.vi<APPEND> /home/lvuser/scripts/auto_246.bee,0.000000,-69.922253,0.000000,69.697670,FALSE,FALSE,TRUE,FALSE,FALSE,FALSE,Disabled,0.000000,0.000000,0.000000,TRUE,0.539856,0.149689,0.000000,-0.138718,-0.049606,0.000000,0.371000,-0.144000,-0.337000,0.130000,6.880000,0.860000,0.063887,Hold,61.724854,58.000000,Hold,-151593.000000,151552.000000,LowGoal,2190.000000,-2181.818182,Speed,2130.000000,-2181.818182,Speed,Off,Off,0.000000,FALSE,13,Read: /home/lvuser/scripts/auto_13.bee,File good!,DRIVE_STRAIGHT_TARGET 206 1000 10000 75,DRIVE_STRAIGHT_TARGET
12:42:47.866 PM 03/25/2016,Autonomous Enabled,9,TRUE,7,Read from Text File in DoesScriptNumberContainNull.vi->Disabled.vi->Robot Main.vi<APPEND> /home/lvuser/scripts/auto_246.bee,0.000000,-73.887744,0.000000,73.752994,FALSE,FALSE,TRUE,FALSE,FALSE,FALSE,Disabled,0.000000,0.000000,0.000000,TRUE,0.542450,0.140640,0.000000,0.112366,-0.196213,0.000000,-0.135000,0.076000,0.535000,-0.070000,7.200000,1.160000,-0.086026,Hold,61.715820,58.000000,Hold,-151694.000000,151552.000000,LowGoal,2160.000000,-2181.818182,Speed,2145.000000,-2181.818182,Speed,Off,Off,0.000000,FALSE,13,Read: /home/lvuser/scripts/auto_13.bee,File good!,DRIVE_STRAIGHT_TARGET 206 1000 10000 75,DRIVE_STRAIGHT_TARGET
12:42:47.966 PM 03/25/2016,Autonomous Enabled,11,TRUE,7,Read from Text File in DoesScriptNumberContainNull.vi->Disabled.vi->Robot Main.vi<APPEND> /home/lvuser/scripts/auto_246.bee,0.000000,-78.000818,0.000000,77.846818,FALSE,FALSE,TRUE,FALSE,FALSE,FALSE,Disabled,0.000000,0.000000,0.000000,TRUE,0.546036,0.134262,0.000000,0.092514,-0.165222,0.000000,-0.135000,0.076000,0.535000,-0.160000,5.930000,1.250000,-0.176114,Hold,61.703857,58.000000,Hold,-151680.000000,151552.000000,LowGoal,2130.000000,-2181.818182,Speed,2130.000000,-2181.818182,Speed,Off,Off,0.000000,FALSE,13,Read: /home/lvuser/scripts/auto_13.bee,File good!,DRIVE_STRAIGHT_TARGET 206 1000 10000 75,DRIVE_STRAIGHT_TARGET
12:42:48.065 PM 03/25/2016,Autonomous Enabled,11,TRUE,7,Read from Text File in DoesScriptNumberContainNull.vi->Disabled.vi->Robot Main.vi<APPEND> /home/lvuser/scripts/auto_246.bee,0.000000,-82.113891,0.000000,81.991975,TRUE,FALSE,TRUE,FALSE,FALSE,FALSE,Disabled,0.000000,0.000000,0.000000,TRUE,0.556396,0.121384,0.000000,0.194901,-0.249985,0.000000,0.187000,-0.061000,-0.212000,-0.220000,1.090000,1.530000,-0.123240,Hold,61.417236,58.000000,Hold,-151680.000000,151552.000000,LowGoal,2130.000000,-2181.818182,Speed,2130.000000,-2181.818182,Speed,Off,Off,0.000000,FALSE,13,Read: /home/lvuser/scripts/auto_13.bee,File good!,DRIVE_STRAIGHT_TARGET 206 1000 10000 75,DRIVE_STRAIGHT_TARGET
12:42:48.166 PM 03/25/2016,Autonomous Enabled,11,TRUE,7,Read from Text File in DoesScriptNumberContainNull.vi->Disabled.vi->Robot Main.vi<APPEND> /home/lvuser/scripts/auto_246.bee,0.000000,-86.817297,0.000000,86.579881,TRUE,FALSE,TRUE,FALSE,FALSE,FALSE,Disabled,0.000000,0.000000,0.000000,TRUE,0.560638,0.103943,0.000000,-0.006897,-0.397629,0.000000,-0.156000,-0.329000,-0.131000,-0.220000,1.090000,1.530000,0.022342,Hold,61.867676,58.000000,Hold,-151642.000000,151552.000000,LowGoal,2122.500000,-2181.818182,Speed,2137.500000,-2181.818182,Speed,Off,Off,0.000000,FALSE,13,Read: /home/lvuser/scripts/auto_13.bee,File good!,DRIVE_STRAIGHT_TARGET 206 1000 10000 75,DRIVE_STRAIGHT_TARGET
12:42:48.266 PM 03/25/2016,Autonomous Enabled,11,TRUE,7,Read from Text File in DoesScriptNumberContainNull.vi->Disabled.vi->Robot Main.vi<APPEND> /home/lvuser/scripts/auto_246.bee,0.000000,-91.353870,0.000000,91.065120,TRUE,FALSE,TRUE,FALSE,FALSE,FALSE,Disabled,0.000000,0.000000,0.000000,TRUE,0.552719,0.084106,0.000000,-0.236710,-0.378342,0.000000,-0.073000,0.094000,-0.254000,0.000000,-1.840000,1.390000,0.097273,Hold,61.808838,58.000000,Hold,-151660.000000,151552.000000,LowGoal,2107.500000,-2181.818182,Speed,2137.500000,-2181.818182,Speed,Off,Off,0.000000,FALSE,13,Read: /home/lvuser/scripts/auto_13.bee,File good!,DRIVE_STRAIGHT_TARGET 206 1000 10000 75,DRIVE_STRAIGHT_TARGET
12:42:48.365 PM 03/25/2016,Autonomous Enabled,10,TRUE,7,Read from Text File in DoesScriptNumberContainNull.vi->Disabled.vi->Robot Main.vi<APPEND> /home/lvuser/scripts/auto_246.bee,0.000000,-95.864776,0.000000,95.576027,TRUE,FALSE,TRUE,FALSE,FALSE,FALSE,Disabled,0.000000,0.000000,0.000000,TRUE,0.539719,0.063370,0.000000,-0.184601,-0.324219,0.000000,-0.073000,0.094000,-0.254000,0.000000,-1.840000,1.390000,0.172262,Hold,61.808838,58.000000,Hold,-151668.000000,151552.000000,LowGoal,2130.000000,-2181.818182,Speed,2145.000000,-2181.818182,Speed,Off,Off,0.000000,FALSE,13,Read: /home/lvuser/scripts/auto_13.bee,File good!,DRIVE_STRAIGHT_TARGET 206 1000 10000 75,DRIVE_STRAIGHT_TARGET
12:42:48.466 PM 03/25/2016,Autonomous Enabled,11,TRUE,7,Read from Text File in DoesScriptNumberContainNull.vi->Disabled.vi->Robot Main.vi<APPEND> /home/lvuser/scripts/auto_11.bee,0.000000,-100.523265,0.000000,100.285849,FALSE,FALSE,TRUE,FALSE,FALSE,FALSE,Disabled,0.000000,0.000000,0.000000,TRUE,0.533127,0.050354,0.000000,-0.153336,-0.315048,0.000000,0.338000,-0.057000,0.554000,0.020000,-3.440000,1.650000,0.160695,Hold,61.808594,58.000000,Hold,-151580.000000,151552.000000,LowGoal,2145.000000,-2181.818182,Speed,2145.000000,-2181.818182,Speed,Off,Off,0.000000,FALSE,13,Read: /home/lvuser/scripts/auto_13.bee,File good!,DRIVE_STRAIGHT_TARGET 206 1000 10000 75,DRIVE_STRAIGHT_TARGET
12:42:48.566 PM 03/25/2016,Autonomous Enabled,9,TRUE,7,Read from Text File in DoesScriptNumberContainNull.vi->Disabled.vi->Robot Main.vi<APPEND> /home/lvuser/scripts/auto_11.bee,0.000000,-105.335754,0.000000,105.162504,FALSE,FALSE,TRUE,FALSE,FALSE,FALSE,Disabled,0.000000,0.000000,0.000000,TRUE,0.528488,0.034805,0.000000,-0.113739,-0.375427,0.000000,0.338000,-0.057000,0.554000,-0.050000,-7.180000,1.580000,0.090983,Hold,62.059082,58.000000,Hold,-151547.000000,151552.000000,LowGoal,2130.000000,-2181.818182,Speed,2145.000000,-2181.818182,Speed,Off,Off,0.000000,FALSE,13,Read: /home/lvuser/scripts/auto_13.bee,File good!,DRIVE_STRAIGHT_TARGET 206 1000 10000 75,DRIVE_STRAIGHT_TARGET
12:42:48.666 PM 03/25/2016,Autonomous Enabled,11,TRUE,7,Read from Text File in DoesScriptNumberContainNull.vi->Disabled.vi->Robot Main.vi<APPEND> /home/lvuser/scripts/auto_11.bee,0.000000,-110.590991,0.000000,110.379242,FALSE,FALSE,TRUE,FALSE,FALSE,FALSE,Disabled,0.000000,0.000000,0.000000,TRUE,0.528488,0.034805,0.000000,-0.113739,-0.375427,0.000000,-0.225000,0.083000,-0.147000,-0.030000,-5.170000,1.330000,0.110248,Hold,61.690430,58.000000,Hold,-151547.000000,151552.000000,LowGoal,1860.000000,-2181.818182,Speed,2145.000000,-2181.818182,Speed,Off,Off,0.000000,FALSE,13,Read: /home/lvuser/scripts/auto_13.bee,File good!,DRIVE_STRAIGHT_TARGET 206 1000 10000 75,DRIVE_STRAIGHT_TARGET
12:42:48.767 PM 03/25/2016,Autonomous Enabled,11,TRUE,7,Read from Text File in DoesScriptNumberContainNull.vi->Disabled.vi->Robot Main.vi<APPEND> /home/lvuser/scripts/auto_11.bee,0.000000,-115.621646,0.000000,115.255897,TRUE,FALSE,TRUE,FALSE,FALSE,FALSE,Disabled,0.000000,0.000000,0.000000,TRUE,0.497604,-0.002808,0.000000,-0.416321,-0.287766,0.000000,-0.114000,0.042000,-0.076000,-0.020000,-2.450000,1.180000,0.099882,Hold,61.678223,58.000000,Hold,-151547.000000,151552.000000,LowGoal,1807.500000,-2181.818182,Speed,2130.000000,-2181.818182,Speed,Off,Off,0.000000,FALSE,13,Read: /home/lvuser/scripts/auto_13.bee,File good!,DRIVE_STRAIGHT_TARGET 206 1000 10000 75,DRIVE_STRAIGHT_TARGET
12:42:48.867 PM 03/25/2016,Autonomous Enabled,12,TRUE,7,Read from Text File in DoesScriptNumberContainNull.vi->Disabled.vi->Robot Main.vi<APPEND> /home/lvuser/scripts/auto_11.bee,0.000000,-120.254469,0.000000,119.991386,TRUE,FALSE,TRUE,FALSE,FALSE,FALSE,Disabled,0.000000,0.000000,0.000000,TRUE,0.473526,-0.002899,0.000000,-0.542374,-0.000702,0.000000,-0.029000,0.001000,0.061000,0.050000,0.530000,1.220000,0.289371,Hold,61.680664,58.000000,Hold,-151547.000000,151552.000000,LowGoal,2160.000000,-2181.818182,Speed,2122.500000,-2181.818182,Speed,Off,Off,0.000000,FALSE,13,Read: /home/lvuser/scripts/auto_13.bee,File good!,DRIVE_STRAIGHT_TARGET 206 1000 10000 75,DRIVE_STRAIGHT_TARGET
12:42:48.967 PM 03/25/2016,Autonomous Enabled,11,TRUE,7,Read from Text File in DoesScriptNumberContainNull.vi->Disabled.vi->Robot Main.vi<APPEND> /home/lvuser/scripts/auto_11.bee,0.000000,-124.733292,0.000000,124.502292,TRUE,FALSE,TRUE,FALSE,FALSE,FALSE,Disabled,0.000000,0.000000,0.000000,TRUE,0.473526,-0.002899,0.000000,-0.542374,-0.000702,0.000000,-0.116000,-0.123000,0.086000,0.210000,1.270000,1.200000,0.077034,Hold,61.636963,58.000000,Hold,-151547.000000,151552.000000,LowGoal,2220.000000,-2181.818182,Speed,2145.000000,-2181.818182,Speed,Off,Off,0.000000,FALSE,13,Read: /home/lvuser/scripts/auto_13.bee,File good!,DRIVE_STRAIGHT_TARGET 206 1000 10000 75,DRIVE_STRAIGHT_TARGET
12:42:49.068 PM 03/25/2016,Autonomous Enabled,11,TRUE,7,Read from Text File in DoesScriptNumberContainNull.vi->Disabled.vi->Robot Main.vi<APPEND> /home/lvuser/scripts/auto_11.bee,0.000000,-129.212115,0.000000,129.000365,TRUE,FALSE,TRUE,FALSE,FALSE,FALSE,Disabled,0.000000,0.000000,0.000000,TRUE,0.446976,-0.004547,0.000000,-0.514862,-0.041061,0.000000,0.043000,0.034000,0.489000,-0.010000,0.820000,1.310000,-0.023761,Hold,61.650879,58.000000,Hold,-151547.000000,151552.000000,LowGoal,2137.500000,-2181.818182,Speed,2160.000000,-2181.818182,Speed,Off,Off,0.000000,FALSE,13,Read: /home/lvuser/scripts/auto_13.bee,File good!,DRIVE_STRAIGHT_TARGET 206 1000 10000 75,DRIVE_STRAIGHT_TARGET
12:42:49.168 PM 03/25/2016,Autonomous Enabled,11,TRUE,7,Read from Text File in DoesScriptNumberContainNull.vi->Disabled.vi->Robot Main.vi<APPEND> /home/lvuser/scripts/auto_11.bee,0.000000,-133.504854,0.000000,133.286688,TRUE,FALSE,TRUE,FALSE,FALSE,FALSE,Disabled,0.000000,0.000000,0.000000,TRUE,0.427933,-0.006058,0.000000,-0.447617,-0.019791,0.000000,-0.120000,-0.071000,0.344000,-0.130000,1.040000,1.180000,-0.171729,Hold,61.650879,58.000000,Hold,-151547.000000,151552.000000,LowGoal,2040.000000,-2181.818182,Speed,2137.500000,-2181.818182,Speed,Off,Off,0.000000,FALSE,13,Read: /home/lvuser/scripts/auto_13.bee,File good!,DRIVE_STRAIGHT_TARGET 206 1000 10000 75,DRIVE_STRAIGHT_TARGET
12:42:49.268 PM 03/25/2016,Autonomous Enabled,10,TRUE,7,Read from Text File in DoesScriptNumberContainNull.vi->Disabled.vi->Robot Main.vi<APPEND> /home/lvuser/scripts/auto_11.bee,0.000000,-137.861761,0.000000,137.630761,TRUE,FALSE,TRUE,FALSE,FALSE,FALSE,Disabled,0.000000,0.000000,0.000000,TRUE,0.399658,-0.009155,0.000000,-0.556351,-0.094574,0.000000,0.013000,-0.038000,-0.111000,-0.240000,0.760000,1.160000,-0.202405,Hold,61.650879,58.000000,Hold,-151547.000000,151552.000000,LowGoal,2092.500000,-2181.818182,Speed,2137.500000,-2181.818182,Speed,Off,Off,0.000000,FALSE,13,Read: /home/lvuser/scripts/auto_13.bee,File good!,DRIVE_STRAIGHT_TARGET 206 1000 10000 75,DRIVE_STRAIGHT_TARGET
12:42:49.369 PM 03/25/2016,Autonomous Enabled,10,TRUE,7,Read from Text File in DoesScriptNumberContainNull.vi->Disabled.vi->Robot Main.vi<APPEND> /home/lvuser/scripts/auto_11.bee,0.000000,-142.302084,0.000000,141.994085,TRUE,FALSE,TRUE,FALSE,FALSE,FALSE,Disabled,0.000000,0.000000,0.000000,TRUE,0.370590,-0.014755,0.000000,-0.577423,-0.132797,0.000000,0.135000,-0.039000,-0.148000,-0.270000,0.370000,1.070000,-0.152182,Hold,61.650879,58.000000,Hold,-151547.000000,151552.000000,LowGoal,2152.500000,-2181.818182,Speed,2145.000000,-2181.818182,Speed,Off,Off,0.000000,FALSE,13,Read: /home/lvuser/scripts/auto_13.bee,File good!,DRIVE_STRAIGHT_TARGET 206 1000 10000 75,DRIVE_STRAIGHT_TARGET
12:42:49.470 PM 03/25/2016,Autonomous Enabled,10,TRUE,7,Read from Text File in DoesScriptNumberContainNull.vi->Disabled.vi->Robot Main.vi<APPEND> /home/lvuser/scripts/auto_11.bee,0.000000,-146.742407,0.000000,146.402324,TRUE,FALSE,TRUE,FALSE,FALSE,FALSE,Disabled,0.000000,0.000000,0.000000,TRUE,0.354156,-0.022339,0.000000,-0.004944,-0.154968,0.000000,0.003000,-0.006000,-0.045000,-0.210000,0.470000,1.090000,-0.110589,Hold,61.650879,58.000000,Hold,-151547.000000,151552.000000,LowGoal,2145.000000,-2181.818182,Speed,2137.500000,-2181.818182,Speed,Off,Off,0.000000,FALSE,13,Read: /home/lvuser/scripts/auto_13.bee,File good!,DRIVE_STRAIGHT_TARGET 206 1000 10000 75,DRIVE_STRAIGHT_TARGET
12:42:49.572 PM 03/25/2016,Autonomous Enabled,9,TRUE,7,Read from Text File in DoesScriptNumberContainNull.vi->Disabled.vi->Robot Main.vi<APPEND> /home/lvuser/scripts/auto_11.bee,0.000000,-151.240480,0.000000,150.874731,TRUE,FALSE,TRUE,FALSE,FALSE,FALSE,Disabled,0.000000,0.000000,0.000000,TRUE,0.354645,-0.029160,0.000000,0.022141,-0.105881,0.000000,-0.036000,0.065000,0.066000,-0.180000,0.550000,1.230000,-0.080694,Hold,61.650879,58.000000,Hold,-151547.000000,151552.000000,LowGoal,2137.500000,-2181.818182,Speed,2145.000000,-2181.818182,Speed,Off,Off,0.000000,FALSE,13,Read: /home/lvuser/scripts/auto_13.bee,File good!,DRIVE_STRAIGHT_TARGET 206 1000 10000 75,DRIVE_STRAIGHT_TARGET
12:42:49.672 PM 03/25/2016,Autonomous Enabled,10,TRUE,7,Read from Text File in DoesScriptNumberContainNull.vi->Disabled.vi->Robot Main.vi<APPEND> /home/lvuser/scripts/auto_11.bee,0.000000,-155.719303,0.000000,150.874731,TRUE,FALSE,TRUE,FALSE,FALSE,FALSE,Disabled,0.000000,0.000000,0.000000,TRUE,0.354294,-0.033051,0.000000,-0.023453,-0.058533,0.000000,-0.039000,0.062000,0.122000,-0.140000,0.580000,1.290000,-0.080694,Hold,61.650879,58.000000,Hold,-151547.000000,151552.000000,LowGoal,2130.000000,-2181.818182,Speed,2160.000000,-2181.818182,Speed,Off,Off,0.000000,FALSE,13,Read: /home/lvuser/scripts/auto_13.bee,File good!,DRIVE_STRAIGHT_TARGET 206 1000 10000 75,DRIVE_STRAIGHT_TARGET
12:42:49.773 PM 03/25/2016,Autonomous Enabled,9,TRUE,7,Read from Text File in DoesScriptNumberContainNull.vi->Disabled.vi->Robot Main.vi<APPEND> /home/lvuser/scripts/auto_11.bee,0.000000,-155.719303,0.000000,155.385637,TRUE,FALSE,TRUE,FALSE,FALSE,FALSE,Disabled,0.000000,0.000000,0.000000,TRUE,0.351578,-0.034042,0.000000,-0.079636,0.000000,0.000000,0.047000,-0.045000,-0.151000,-0.130000,0.820000,1.330000,-0.056905,Hold,61.650879,58.000000,Hold,-151547.000000,151552.000000,LowGoal,2137.500000,-2181.818182,Speed,2167.500000,-2181.818182,Speed,Off,Off,0.000000,FALSE,13,Read: /home/lvuser/scripts/auto_13.bee,File good!,DRIVE_STRAIGHT_TARGET 206 1000 10000 75,DRIVE_STRAIGHT_TARGET
12:42:49.875 PM 03/25/2016,Autonomous Enabled,9,TRUE,7,Read from Text File in DoesScriptNumberContainNull.vi->Disabled.vi->Robot Main.vi<APPEND> /home/lvuser/scripts/auto_11.bee,0.000000,-160.358542,0.000000,159.877293,TRUE,FALSE,TRUE,FALSE,FALSE,FALSE,Disabled,0.000000,0.000000,0.000000,TRUE,0.349182,-0.034454,0.000000,-0.002213,-0.012878,0.000000,0.095000,0.042000,-0.150000,-0.090000,0.690000,1.180000,-0.013849,Hold,61.650879,58.000000,Hold,-151547.000000,151552.000000,LowGoal,2137.500000,-2181.818182,Speed,2160.000000,-2181.818182,Speed,Off,Off,0.000000,FALSE,13,Read: /home/lvuser/scripts/auto_13.bee,File good!,DRIVE_STRAIGHT_TARGET 206 1000 10000 75,DRIVE_STRAIGHT_TARGET
12:42:49.975 PM 03/25/2016,Autonomous Enabled,10,TRUE,7,Read from Text File in DoesScriptNumberContainNull.vi->Disabled.vi->Robot Main.vi<APPEND> /home/lvuser/scripts/auto_11.bee,0.000000,-164.907948,0.000000,164.336866,TRUE,FALSE,TRUE,FALSE,FALSE,FALSE,Disabled,0.000000,0.000000,0.000000,TRUE,0.352005,-0.033859,0.000000,0.109787,0.038712,0.000000,0.000000,0.105000,-0.024000,-0.010000,0.860000,1.080000,0.070710,Hold,61.650879,58.000000,Hold,-151547.000000,151552.000000,LowGoal,2145.000000,-2181.818182,Speed,2152.500000,-2181.818182,Speed,Off,Off,0.000000,FALSE,13,Read: /home/lvuser/scripts/auto_13.bee,File good!,DRIVE_STRAIGHT_TARGET 206 1000 10000 75,DRIVE_STRAIGHT_TARGET
12:42:50.075 PM 03/25/2016,Autonomous Enabled,9,TRUE,7,Read from Text File in DoesScriptNumberContainNull.vi->Disabled.vi->Robot Main.vi<APPEND> /home/lvuser/scripts/auto_11.bee,0.000000,-169.502270,0.000000,168.976105,TRUE,FALSE,TRUE,FALSE,FALSE,FALSE,Disabled,0.000000,0.000000,0.000000,TRUE,0.363266,-0.028809,0.000000,0.225708,0.116455,0.000000,-0.048000,-0.026000,0.067000,-0.070000,0.620000,1.300000,0.008899,Hold,61.650879,58.000000,Hold,-151547.000000,151552.000000,LowGoal,2152.500000,-2181.818182,Speed,2152.500000,-2181.818182,Speed,Off,Off,0.000000,FALSE,13,Read: /home/lvuser/scripts/auto_13.bee,File good!,DRIVE_STRAIGHT_TARGET 206 1000 10000 75,DRIVE_STRAIGHT_TARGET
12:42:50.175 PM 03/25/2016,Autonomous Enabled,9,TRUE,7,Read from Text File in DoesScriptNumberContainNull.vi->Disabled.vi->Robot Main.vi<APPEND> /home/lvuser/scripts/auto_11.bee,0.000000,-173.782177,0.000000,173.339428,TRUE,FALSE,TRUE,FALSE,FALSE,FALSE,Disabled,0.000000,0.000000,0.000000,TRUE,0.375443,-0.021881,0.000000,0.268295,0.145279,0.000000,-0.012000,0.011000,-0.295000,-0.160000,0.960000,1.380000,-0.066703,Hold,61.650879,58.000000,Hold,-151547.000000,151552.000000,LowGoal,2152.500000,-2181.818182,Speed,2160.000000,-2181.818182,Speed,Off,Off,0.000000,FALSE,13,Read: /home/lvuser/scripts/auto_13.bee,File good!,DRIVE_STRAIGHT_TARGET 206 1000 10000 75,DRIVE_STRAIGHT_TARGET
12:42:50.275 PM 03/25/2016,Autonomous Enabled,9,TRUE,7,Read from Text File in DoesScriptNumberContainNull.vi->Disabled.vi->Robot Main.vi<APPEND> /home/lvuser/scripts/auto_11.bee,0.000000,-178.350833,0.000000,177.831084,TRUE,FALSE,TRUE,FALSE,FALSE,FALSE,Disabled,0.000000,0.000000,0.000000,TRUE,0.387665,-0.022659,0.000000,0.217590,-0.048401,0.000000,-0.209000,-0.135000,-0.268000,-0.200000,1.150000,1.330000,-0.086401,Hold,61.650879,58.000000,Hold,-151547.000000,151552.000000,LowGoal,2145.000000,-2181.818182,Speed,2160.000000,-2181.818182,Speed,Off,Off,0.000000,FALSE,13,Read: /home/lvuser/scripts/auto_13.bee,File good!,DRIVE_STRAIGHT_TARGET 206 1000 10000 75,DRIVE_STRAIGHT_TARGET
12:42:50.376 PM 03/25/2016,Autonomous Enabled,10,TRUE,7,Read from Text File in DoesScriptNumberContainNull.vi->Disabled.vi->Robot Main.vi<APPEND> /home/lvuser/scripts/auto_11.bee,0.000000,-182.765489,0.000000,182.181574,TRUE,FALSE,TRUE,FALSE,FALSE,FALSE,Disabled,0.000000,0.000000,0.000000,TRUE,0.394012,-0.028015,0.000000,0.086731,-0.141037,0.000000,-0.017000,-0.114000,-0.185000,-0.230000,1.260000,1.220000,-0.123240,Hold,61.650879,58.000000,Hold,-151547.000000,151552.000000,LowGoal,2137.500000,-2181.818182,Speed,2160.000000,-2181.818182,Speed,Off,Off,0.000000,FALSE,13,Read: /home/lvuser/scripts/auto_13.bee,File good!,DRIVE_STRAIGHT_TARGET 206 1000 10000 75,DRIVE_STRAIGHT_TARGET
12:42:50.476 PM 03/25/2016,Autonomous Enabled,10,TRUE,7,Read from Text File in DoesScriptNumberContainNull.vi->Disabled.vi->Robot Main.vi<APPEND> /home/lvuser/scripts/auto_11.bee,0.000000,-187.218646,0.000000,186.564147,TRUE,FALSE,TRUE,FALSE,FALSE,FALSE,Disabled,0.000000,0.000000,0.000000,TRUE,0.396851,-0.036606,0.000000,0.035217,-0.156342,0.000000,-0.078000,0.050000,0.464000,-0.160000,1.090000,1.280000,-0.030546,Hold,61.650879,58.000000,Hold,-151547.000000,151552.000000,LowGoal,2130.000000,-2181.818182,Speed,2152.500000,-2181.818182,Speed,Off,Off,0.000000,FALSE,13,Read: /home/lvuser/scripts/auto_13.bee,File good!,DRIVE_STRAIGHT_TARGET 206 1000 10000 75,DRIVE_STRAIGHT_TARGET
12:42:50.576 PM 03/25/2016,Autonomous Enabled,10,TRUE,7,Read from Text File in DoesScriptNumberContainNull.vi->Disabled.vi->Robot Main.vi<APPEND> /home/lvuser/scripts/auto_11.bee,0.000000,-191.652552,0.000000,191.010887,TRUE,FALSE,TRUE,FALSE,FALSE,FALSE,Disabled,0.000000,0.000000,0.000000,TRUE,0.399490,-0.042999,0.000000,0.100769,-0.100204,0.000000,0.191000,0.074000,0.540000,-0.090000,0.960000,1.330000,0.022776,Hold,61.650879,58.000000,Hold,-151547.000000,151552.000000,LowGoal,2130.000000,-2181.818182,Speed,2152.500000,-2181.818182,Speed,Off,Off,0.000000,FALSE,13,Read: /home/lvuser/scripts/auto_13.bee,File good!,DRIVE_STRAIGHT_TARGET 206 1000 10000 75,DRIVE_STRAIGHT_TARGET
12:42:50.676 PM 03/25/2016,Autonomous Enabled,9,TRUE,7,Read from Text File in DoesScriptNumberContainNull.vi->Disabled.vi->Robot Main.vi<APPEND> /home/lvuser/scripts/auto_11.bee,0.000000,-196.105708,0.000000,195.464043,TRUE,FALSE,TRUE,FALSE,FALSE,FALSE,Disabled,0.000000,0.000000,0.000000,TRUE,0.407578,-0.045258,0.000000,0.282455,-0.025452,0.000000,0.150000,0.130000,0.025000,-0.130000,0.930000,1.500000,-0.007539,Hold,61.650879,58.000000,Hold,-151547.000000,151552.000000,LowGoal,2137.500000,-2181.818182,Speed,2152.500000,-2181.818182,Speed,Off,Off,0.000000,FALSE,13,Read: /home/lvuser/scripts/auto_13.bee,File good!,DRIVE_STRAIGHT_TARGET 206 1000 10000 75,DRIVE_STRAIGHT_TARGET
12:42:50.776 PM 03/25/2016,Autonomous Enabled,10,TRUE,7,Read from Text File in DoesScriptNumberContainNull.vi->Disabled.vi->Robot Main.vi<APPEND> /home/lvuser/scripts/auto_12.bee,0.000000,-200.655114,0.000000,199.987782,TRUE,FALSE,TRUE,FALSE,FALSE,FALSE,Disabled,0.000000,0.000000,0.000000,TRUE,0.427216,-0.046768,0.000000,0.289963,-0.088028,0.000000,-0.210000,-0.134000,-0.051000,-0.170000,1.160000,1.420000,-0.057580,Hold,61.650879,58.000000,Hold,-151547.000000,151552.000000,LowGoal,2160.000000,-2181.818182,Speed,2152.500000,-2181.818182,Speed,Off,Off,0.000000,FALSE,13,Read: /home/lvuser/scripts/auto_13.bee,File good!,DRIVE_STRAIGHT_TARGET 206 1000 10000 75,DRIVE_STRAIGHT_TARGET
12:42:50.876 PM 03/25/2016,Autonomous Enabled,9,TRUE,7,Read from Text File in DoesScriptNumberContainNull.vi->Disabled.vi->Robot Main.vi<APPEND> /home/lvuser/scripts/auto_12.bee,0.000000,-205.089020,0.000000,204.402439,TRUE,FALSE,TRUE,FALSE,FALSE,FALSE,Disabled,0.000000,0.000000,0.000000,TRUE,0.434708,-0.056534,0.000000,-0.008453,-0.196198,0.000000,-0.053000,-0.051000,0.036000,-0.220000,0.340000,1.470000,-0.130707,Hold,61.650879,58.000000,Hold,-151547.000000,151552.000000,LowGoal,2167.500000,-2181.818182,Speed,2160.000000,-2181.818182,Speed,Off,Off,0.000000,FALSE,13,Read: /home/lvuser/scripts/auto_13.bee,File good!,SET_HEADING 59 50,SET_HEADING
12:42:50.976 PM 03/25/2016,Autonomous Enabled,10,TRUE,7,Read from Text File in DoesScriptNumberContainNull.vi->Disabled.vi->Robot Main.vi<APPEND> /home/lvuser/scripts/auto_12.bee,0.000000,-209.407427,0.000000,208.271680,TRUE,FALSE,TRUE,FALSE,FALSE,FALSE,Disabled,0.000000,0.000000,0.000000,TRUE,0.435837,-0.067612,0.000000,0.090591,-0.242538,0.000000,-0.051000,-0.058000,0.278000,-0.130000,0.470000,1.430000,-0.039070,Hold,61.648682,2.000000,Hold,-151547.000000,126976.000000,LowGoal,2160.000000,-1454.545455,Speed,2160.000000,-1454.545455,Speed,Off,Off,0.000000,FALSE,13,Read: /home/lvuser/scripts/auto_13.bee,File good!,SET_HEADING 59 50,SET_HEADING
12:42:51.076 PM 03/25/2016,Autonomous Enabled,10,TRUE,7,Read from Text File in DoesScriptNumberContainNull.vi->Disabled.vi->Robot Main.vi<APPEND> /home/lvuser/scripts/auto_12.bee,0.000000,-212.365503,0.000000,208.919761,FALSE,FALSE,TRUE,FALSE,FALSE,FALSE,Disabled,0.000000,0.000000,0.000000,TRUE,0.429169,-0.070587,0.000000,-0.310577,0.009338,0.000000,-0.240000,0.334000,-0.609000,3.540000,-4.840000,2.710000,3.137782,Hold,56.898193,2.000000,Hold,-147789.000000,126976.000000,LowGoal,2032.500000,-1454.545455,Speed,2047.500000,-1454.545455,Speed,Off,Off,0.000000,FALSE,13,Read: /home/lvuser/scripts/auto_13.bee,File good!,SET_HEADING 59 50,SET_HEADING
12:42:51.176 PM 03/25/2016,Autonomous Enabled,9,TRUE,7,Read from Text File in DoesScriptNumberContainNull.vi->Disabled.vi->Robot Main.vi<APPEND> /home/lvuser/scripts/auto_12.bee,0.000000,-214.476582,0.000000,208.797845,FALSE,FALSE,TRUE,FALSE,FALSE,FALSE,Disabled,0.000000,0.000000,0.000000,TRUE,0.408722,-0.066757,0.000000,-0.443726,0.048126,0.000000,-0.118000,-0.242000,-0.026000,7.430000,-5.060000,2.340000,8.181639,Hold,46.436523,2.000000,Hold,-137539.000000,126976.000000,LowGoal,1380.000000,-1454.545455,Speed,1365.000000,-1454.545455,Speed,Off,Off,0.000000,FALSE,13,Read: /home/lvuser/scripts/auto_13.bee,File good!,SET_HEADING 59 50,SET_HEADING
12:42:51.276 PM 03/25/2016,Autonomous Enabled,10,TRUE,7,Read from Text File in DoesScriptNumberContainNull.vi->Disabled.vi->Robot Main.vi<APPEND> /home/lvuser/scripts/auto_12.bee,0.000000,-215.753495,0.000000,208.181847,FALSE,FALSE,TRUE,FALSE,FALSE,FALSE,Disabled,0.000000,0.000000,0.000000,TRUE,0.375381,-0.082138,0.000000,-0.534103,-0.301010,0.000000,0.366000,0.375000,-0.377000,11.260000,-4.370000,0.610000,11.478153,Hold,31.496094,2.000000,Hold,-132176.000000,126976.000000,LowGoal,1222.500000,-1454.545455,Speed,1177.500000,-1454.545455,Speed,Off,Off,0.000000,FALSE,13,Read: /home/lvuser/scripts/auto_13.bee,File good!,SET_HEADING 59 50,SET_HEADING
12:42:51.376 PM 03/25/2016,Autonomous Enabled,10,TRUE,7,Read from Text File in DoesScriptNumberContainNull.vi->Disabled.vi->Robot Main.vi<APPEND> /home/lvuser/scripts/auto_12.bee,0.000000,-216.664660,0.000000,207.764764,FALSE,FALSE,TRUE,FALSE,FALSE,FALSE,Disabled,0.000000,0.000000,0.000000,TRUE,0.354019,-0.089203,0.000000,-0.397949,-0.133957,0.000000,-0.065000,-0.596000,0.413000,13.930000,-3.550000,1.390000,14.248562,Hold,20.122314,2.000000,Hold,-132176.000000,126976.000000,LowGoal,1372.500000,-1454.545455,Speed,1410.000000,-1454.545455,Speed,Off,Off,0.000000,FALSE,13,Read: /home/lvuser/scripts/auto_13.bee,File good!,SET_HEADING 59 50,SET_HEADING
12:42:51.476 PM 03/25/2016,Autonomous Enabled,10,TRUE,7,Read from Text File in DoesScriptNumberContainNull.vi->Disabled.vi->Robot Main.vi<APPEND> /home/lvuser/scripts/auto_12.bee,0.000000,-217.428242,0.000000,207.225765,FALSE,FALSE,TRUE,FALSE,FALSE,FALSE,Disabled,0.000000,0.000000,0.000000,TRUE,0.333740,-0.107925,0.000000,-0.362213,-0.406235,0.000000,0.349000,0.221000,-0.314000,16.470000,-3.140000,0.390000,16.902809,Hold,8.475342,2.000000,Hold,-127546.000000,126976.000000,LowGoal,1447.500000,-1454.545455,Speed,1485.000000,-1454.545455,Speed,Off,Off,0.000000,FALSE,13,Read: /home/lvuser/scripts/auto_13.bee,File good!,SET_HEADING 59 50,SET_HEADING
12:42:51.576 PM 03/25/2016,Autonomous Enabled,10,TRUE,7,Read from Text File in DoesScriptNumberContainNull.vi->Disabled.vi->Robot Main.vi<APPEND> /home/lvuser/scripts/auto_12.bee,0.000000,-218.281656,0.000000,206.398017,TRUE,FALSE,TRUE,FALSE,FALSE,FALSE,Disabled,0.000000,0.000000,0.000000,TRUE,0.320892,-0.121445,0.000000,-0.336029,-0.344833,0.000000,0.158000,-0.409000,0.621000,21.010000,-2.900000,0.380000,20.355791,Hold,0.594238,2.000000,Hold,-127178.000000,126976.000000,LowGoal,1425.000000,-1454.545455,Speed,1410.000000,-1454.545455,Speed,Off,Off,0.000000,FALSE,13,Read: /home/lvuser/scripts/auto_13.bee,File good!,SET_HEADING 59 50,SET_HEADING
12:42:51.676 PM 03/25/2016,Autonomous Enabled,9,TRUE,7,Read from Text File in DoesScriptNumberContainNull.vi->Disabled.vi->Robot Main.vi<APPEND> /home/lvuser/scripts/auto_12.bee,0.000000,-218.833488,0.000000,205.525353,TRUE,FALSE,TRUE,FALSE,FALSE,FALSE,Disabled,0.000000,0.000000,0.000000,TRUE,0.303268,-0.143295,0.000000,-0.163162,-0.277466,0.000000,0.189000,0.030000,-0.603000,22.670000,-2.760000,1.120000,23.391828,Hold,0.820801,2.000000,Hold,-127096.000000,126976.000000,LowGoal,1410.000000,-1454.545455,Speed,1387.500000,-1454.545455,Speed,Off,Off,0.000000,FALSE,13,Read: /home/lvuser/scripts/auto_13.bee,File good!,SET_HEADING 59 50,SET_HEADING
12:42:51.776 PM 03/25/2016,Autonomous Enabled,9,TRUE,7,Read from Text File in DoesScriptNumberContainNull.vi->Disabled.vi->Robot Main.vi<APPEND> /home/lvuser/scripts/auto_12.bee,0.000000,-219.738236,0.000000,204.736105,TRUE,FALSE,TRUE,FALSE,FALSE,FALSE,Disabled,0.000000,0.000000,0.000000,TRUE,0.294876,-0.160629,0.000000,-0.229950,-0.441025,0.000000,-0.241000,-0.575000,0.258000,26.670000,-2.180000,-0.290000,27.010294,Hold,0.854248,2.000000,Hold,-127096.000000,126976.000000,LowGoal,1402.500000,-1454.545455,Speed,1410.000000,-1454.545455,Speed,Off,Off,0.000000,FALSE,13,Read: /home/lvuser/scripts/auto_13.bee,File good!,SET_HEADING 59 50,SET_HEADING
12:42:51.876 PM 03/25/2016,Autonomous Enabled,9,TRUE,7,Read from Text File in DoesScriptNumberContainNull.vi->Disabled.vi->Robot Main.vi<APPEND> /home/lvuser/scripts/auto_12.bee,0.000000,-220.476151,0.000000,203.998190,TRUE,FALSE,TRUE,FALSE,FALSE,FALSE,Disabled,0.000000,0.000000,0.000000,TRUE,0.284592,-0.185562,0.000000,-0.126038,-0.435547,0.000000,0.264000,0.162000,-0.207000,30.210000,-1.900000,0.560000,30.091108,Hold,0.854492,2.000000,Hold,-127096.000000,126976.000000,LowGoal,1410.000000,-1454.545455,Speed,1417.500000,-1454.545455,Speed,Off,Off,0.000000,FALSE,13,Read: /home/lvuser/scripts/auto_13.bee,File good!,SET_HEADING 59 50,SET_HEADING
12:42:51.976 PM 03/25/2016,Autonomous Enabled,10,TRUE,7,Read from Text File in DoesScriptNumberContainNull.vi->Disabled.vi->Robot Main.vi<APPEND> /home/lvuser/scripts/auto_12.bee,0.000000,-221.226899,0.000000,203.305191,TRUE,FALSE,TRUE,FALSE,FALSE,FALSE,Disabled,0.000000,0.000000,0.000000,TRUE,0.281998,-0.202393,0.000000,-0.061310,-0.465134,0.000000,-0.177000,-0.101000,0.047000,31.850000,-1.940000,0.090000,33.605274,Hold,0.854492,2.000000,Hold,-127096.000000,126976.000000,LowGoal,1417.500000,-1454.545455,Speed,1410.000000,-1454.545455,Speed,Off,Off,0.000000,FALSE,13,Read: /home/lvuser/scripts/auto_13.bee,File good!,SET_HEADING 59 50,SET_HEADING
12:42:52.076 PM 03/25/2016,Autonomous Enabled,8,TRUE,7,Read from Text File in DoesScriptNumberContainNull.vi->Disabled.vi->Robot Main.vi<APPEND> /home/lvuser/scripts/auto_12.bee,0.000000,-221.836481,0.000000,202.772609,TRUE,FALSE,TRUE,FALSE,FALSE,FALSE,Disabled,0.000000,0.000000,0.000000,TRUE,0.276199,-0.232346,0.000000,-0.057877,-0.449036,0.000000,0.114000,0.069000,-0.088000,34.930000,-1.630000,0.250000,35.937835,Hold,0.854492,2.000000,Hold,-127096.000000,126976.000000,LowGoal,1410.000000,-1454.545455,Speed,1402.500000,-1454.545455,Speed,Off,Off,0.000000,FALSE,13,Read: /home/lvuser/scripts/auto_13.bee,File good!,SET_HEADING 59 50,SET_HEADING
12:42:52.176 PM 03/25/2016,Autonomous Enabled,9,TRUE,7,Read from Text File in DoesScriptNumberContainNull.vi->Disabled.vi->Robot Main.vi<APPEND> /home/lvuser/scripts/auto_12.bee,0.000000,-222.343397,0.000000,202.291360,TRUE,FALSE,TRUE,FALSE,FALSE,FALSE,Disabled,0.000000,0.000000,0.000000,TRUE,0.275711,-0.249069,0.000000,-0.017776,-0.404388,0.000000,0.070000,-0.031000,-0.065000,36.440000,-1.640000,0.140000,38.019942,Hold,0.854492,2.000000,Hold,-127096.000000,126976.000000,LowGoal,1410.000000,-1454.545455,Speed,1410.000000,-1454.545455,Speed,Off,Off,0.000000,FALSE,13,Read: /home/lvuser/scripts/auto_13.bee,File good!,SET_HEADING 59 50,SET_HEADING
12:42:52.275 PM 03/25/2016,Autonomous Enabled,10,TRUE,7,Read from Text File in DoesScriptNumberContainNull.vi->Disabled.vi->Robot Main.vi<APPEND> /home/lvuser/scripts/auto_12.bee,0.000000,-222.882395,0.000000,201.855028,TRUE,FALSE,TRUE,FALSE,FALSE,FALSE,Disabled,0.000000,0.000000,0.000000,TRUE,0.275772,-0.270081,0.000000,0.008011,-0.401184,0.000000,0.071000,-0.063000,-0.001000,37.960000,-1.570000,0.210000,40.017641,Hold,0.854492,2.000000,Hold,-127096.000000,126976.000000,LowGoal,1425.000000,-1454.545455,Speed,1410.000000,-1454.545455,Speed,Off,Off,0.000000,FALSE,13,Read: /home/lvuser/scripts/auto_13.bee,File good!,SET_HEADING 59 50,SET_HEADING
