Time,Robot Mode,Loop Time,Error Status,Error Code,Error Source,Left Motor Output,Left Motor Encoder,Right Motor Output,Right Motor Encoder,Is Level,Is Stalled,Ball Detector Photoeye,Vision Enabled,Vision Teleop Control,Vision Auto Control,Vision Current State,Vision X Output,Vision NavX Error,Vision NavX Target,NavX Connection Status,NavX Displacement X,NavX Displacement Y,NavX Displacement Z,NavX Velocity X,NavX Velocity Y,NavX Velocity Z,NavX Acceleration X,NavX Acceleration Y,NavX Acceleration Z,NavX Pitch,NavX Yaw,NavX Roll,Gyro Angle,Roller Arm State,Roller Arm Actual,Roller Arm Desired,Shooter Arm State,Shooter Arm Actual,Shooter Arm Desired,Shooter State,Actual RPM Left,Desired RPM Left,Control Mode Left,Actual RPM Right,Desired RPM Right,Control Mode Right,Ball Shooter Cylinder,Ball Halo Cylinder,Scaler Motor Output,Scaler Solenoid Fire,Auto To Run,Auto Current File,Auto File Status,Auto Current Command,Auto Trimmed Command
06:08:21.099 PM 03/25/2016,Autonomous Enabled,9,TRUE,-44003,<LOCATION>WPI_CameraIssue HTTP Request with Authentication.vi<CALLSTACK>WPI_CameraIssue HTTP Request with Authentication.vi< <WPI_CameraIssue Get.vi< <WPI_CameraSet Image Appearance Property.vi< <WPI_CameraSet Image Size.vi< <Vision Processing.vi< <Robot Main.vi,0.000000,0.000000,0.000000,0.000000,TRUE,FALSE,TRUE,TRUE,FALSE,FALSE,Disabled,0.000000,0.000000,0.000000,TRUE,0.000000,0.000000,0.000000,0.000000,0.000000,0.000000,0.000000,-0.002000,0.012000,-0.350000,0.120000,1.430000,-1.292298,ResetBack,0.000000,-0.000049,ResetBack,0.000000,-0.250000,LowGoal,0.000000,-2181.818182,Speed,0.000000,-2181.818182,Speed,Off,Off,0.000000,FALSE,13,Read: /home/lvuser/scripts/auto_13.bee,File good!,WAIT 1500,WAIT
06:08:21.199 PM 03/25/2016,Autonomous Enabled,9,TRUE,7,Read from Text File in DoesScriptNumberContainNull.vi->Disabled.vi->Robot Main.vi<APPEND> /home/lvuser/scripts/auto_11.bee,0.000000,0.000000,0.000000,0.000000,TRUE,FALSE,TRUE,TRUE,FALSE,FALSE,Disabled,0.000000,0.000000,0.000000,TRUE,0.000031,0.000443,0.000000,0.007324,0.000000,0.000000,-0.108000,0.036000,0.047000,-0.350000,0.100000,1.440000,-1.306413,ResetBack,-0.514648,-0.000049,ResetBack,503.000000,-0.250000,LowGoal,67.500000,-2181.818182,Speed,97.500000,-2181.818182,Speed,Off,Off,0.000000,FALSE,13,Read: /home/lvuser/scripts/auto_13.bee,File good!,WAIT 1500,WAIT
06:08:21.299 PM 03/25/2016,Autonomous Enabled,10,TRUE,7,Read from Text File in DoesScriptNumberContainNull.vi->Disabled.vi->Robot Main.vi<APPEND> /home/lvuser/scripts/auto_11.bee,0.000000,0.000000,0.000000,0.000000,TRUE,FALSE,TRUE,TRUE,FALSE,FALSE,Disabled,0.000000,0.000000,0.000000,TRUE,-0.000626,0.001160,0.000000,-0.019516,0.034760,0.000000,-0.038000,-0.021000,-0.048000,-0.360000,0.120000,1.490000,-1.303562,ResetBack,-0.558350,-0.000049,ResetBack,3375.000000,-0.250000,LowGoal,637.500000,-2181.818182,Speed,742.500000,-2181.818182,Speed,Off,Off,0.000000,FALSE,13,Read: /home/lvuser/scripts/auto_13.bee,File good!,WAIT 1500,WAIT
06:08:21.400 PM 03/25/2016,Autonomous Enabled,10,TRUE,7,Read from Text File in DoesScriptNumberContainNull.vi->Disabled.vi->Robot Main.vi<APPEND> /home/lvuser/scripts/auto_11.bee,0.000000,0.000000,0.000000,0.000000,TRUE,FALSE,TRUE,TRUE,FALSE,FALSE,Disabled,0.000000,0.000000,0.000000,TRUE,-0.002197,0.004242,0.000000,-0.031235,0.065048,0.000000,-0.041000,0.070000,0.030000,-0.350000,0.030000,1.520000,-1.295744,Reset,-0.558838,0.000000,ResetBack,7376.000000,-0.250000,LowGoal,1155.000000,-2181.818182,Speed,1395.000000,-2181.818182,Speed,Off,Off,0.000000,FALSE,13,Read: /home/lvuser/scripts/auto_13.bee,File good!,WAIT 1500,WAIT
06:08:21.500 PM 03/25/2016,Autonomous Enabled,9,TRUE,7,Read from Text File in DoesScriptNumberContainNull.vi->Disabled.vi->Robot Main.vi<APPEND> /home/lvuser/scripts/auto_11.bee,0.000000,0.000000,0.000000,0.000000,TRUE,FALSE,TRUE,TRUE,FALSE,FALSE,Disabled,0.000000,0.000000,0.000000,TRUE,-0.001999,0.007553,0.000000,0.013931,0.060577,0.000000,-0.012000,-0.028000,0.025000,-0.350000,0.020000,1.620000,-1.295311,Hold,0.295654,0.000000,ResetBack,11886.000000,-0.250000,LowGoal,1717.500000,-2181.818182,Speed,1942.500000,-2181.818182,Speed,Off,Off,0.000000,FALSE,13,Read: /home/lvuser/scripts/auto_13.bee,File good!,WAIT 1500,WAIT
06:08:21.600 PM 03/25/2016,Autonomous Enabled,9,TRUE,7,Read from Text File in DoesScriptNumberContainNull.vi->Disabled.vi->Robot Main.vi<APPEND> /home/lvuser/scripts/auto_11.bee,0.000000,0.000000,0.000000,0.000000,TRUE,FALSE,TRUE,TRUE,FALSE,FALSE,Disabled,0.000000,0.000000,0.000000,TRUE,-0.002136,0.010666,0.000000,-0.000580,0.065598,0.000000,-0.026000,0.059000,0.034000,-0.360000,0.150000,1.660000,-1.298774,Hold,0.295654,0.000000,ResetBack,17561.000000,-0.250000,LowGoal,2160.000000,-2181.818182,Speed,2250.000000,-2181.818182,Speed,Off,Off,0.000000,FALSE,13,Read: /home/lvuser/scripts/auto_13.bee,File good!,WAIT 1500,WAIT
06:08:21.702 PM 03/25/2016,Autonomous Enabled,10,TRUE,7,Read from Text File in DoesScriptNumberContainNull.vi->Disabled.vi->Robot Main.vi<APPEND> /home/lvuser/scripts/auto_11.bee,0.000000,0.000000,0.000000,0.000000,TRUE,FALSE,TRUE,TRUE,FALSE,FALSE,Disabled,0.000000,0.000000,0.000000,TRUE,-0.002136,0.010666,0.000000,-0.000580,0.065598,0.000000,0.023000,0.047000,-0.208000,-0.360000,0.190000,1.690000,-1.287500,Hold,0.295654,0.000000,ResetBack,24446.000000,-0.250000,LowGoal,2272.500000,-2181.818182,Speed,2242.500000,-2181.818182,Speed,Off,Off,0.000000,FALSE,13,Read: /home/lvuser/scripts/auto_13.bee,File good!,WAIT 1500,WAIT
06:08:21.804 PM 03/25/2016,Autonomous Enabled,11,TRUE,7,Read from Text File in DoesScriptNumberContainNull.vi->Disabled.vi->Robot Main.vi<APPEND> /home/lvuser/scripts/auto_11.bee,0.000000,0.000000,0.000000,0.000000,TRUE,FALSE,TRUE,TRUE,FALSE,FALSE,Disabled,0.000000,0.000000,0.000000,TRUE,-0.003586,0.015472,0.000000,-0.074661,0.072830,0.000000,-0.101000,0.042000,-0.119000,-0.350000,-0.110000,1.830000,-1.267402,Hold,0.295654,0.000000,ResetBack,24446.000000,-0.250000,LowGoal,2145.000000,-2181.818182,Speed,2130.000000,-2181.818182,Speed,Off,Off,0.000000,FALSE,13,Read: /home/lvuser/scripts/auto_13.bee,File good!,WAIT 1500,WAIT
06:08:21.904 PM 03/25/2016,Autonomous Enabled,11,TRUE,7,Read from Text File in DoesScriptNumberContainNull.vi->Disabled.vi->Robot Main.vi<APPEND> /home/lvuser/scripts/auto_11.bee,0.000000,0.000000,0.000000,0.000000,TRUE,FALSE,TRUE,TRUE,FALSE,FALSE,Disabled,0.000000,0.000000,0.000000,TRUE,-0.007751,0.016068,0.000000,-0.079666,-0.001846,0.000000,-0.135000,-0.083000,-0.137000,-0.350000,-0.020000,1.780000,-1.272008,Hold,0.295654,0.000000,ResetBack,31996.000000,-0.250000,LowGoal,2062.500000,-2181.818182,Speed,2115.000000,-2181.818182,Speed,Off,Off,0.000000,FALSE,13,Read: /home/lvuser/scripts/auto_13.bee,File good!,WAIT 1500,WAIT
06:08:22.004 PM 03/25/2016,Autonomous Enabled,10,TRUE,7,Read from Text File in DoesScriptNumberContainNull.vi->Disabled.vi->Robot Main.vi<APPEND> /home/lvuser/scripts/auto_11.bee,0.000000,0.000000,0.000000,0.000000,TRUE,FALSE,TRUE,TRUE,FALSE,FALSE,Disabled,0.000000,0.000000,0.000000,TRUE,-0.012512,0.014679,0.000000,-0.096359,-0.050629,0.000000,-0.035000,-0.152000,0.094000,-0.340000,-0.170000,1.830000,-1.286704,Hold,0.295654,0.000000,ResetBack,36285.000000,-0.250000,LowGoal,2115.000000,-2181.818182,Speed,2130.000000,-2181.818182,Speed,Off,Off,0.000000,FALSE,13,Read: /home/lvuser/scripts/auto_13.bee,File good!,WAIT 1500,WAIT
06:08:22.104 PM 03/25/2016,Autonomous Enabled,10,TRUE,7,Read from Text File in DoesScriptNumberContainNull.vi->Disabled.vi->Robot Main.vi<APPEND> /home/lvuser/scripts/auto_11.bee,0.000000,0.000000,0.000000,0.000000,TRUE,FALSE,TRUE,TRUE,FALSE,FALSE,Disabled,0.000000,0.000000,0.000000,TRUE,-0.017166,0.006104,0.000000,-0.079971,-0.255524,0.000000,0.053000,-0.084000,0.175000,-0.350000,-0.140000,1.680000,-1.286704,Hold,0.295654,0.000000,ResetBack,37610.000000,-0.250000,LowGoal,2160.000000,-2181.818182,Speed,2137.500000,-2181.818182,Speed,Off,Off,0.000000,FALSE,13,Read: /home/lvuser/scripts/auto_13.bee,File good!,WAIT 1500,WAIT
06:08:22.205 PM 03/25/2016,Autonomous Enabled,10,TRUE,7,Read from Text File in DoesScriptNumberContainNull.vi->Disabled.vi->Robot Main.vi<APPEND> /home/lvuser/scripts/auto_11.bee,0.000000,0.000000,0.000000,0.000000,TRUE,FALSE,TRUE,TRUE,FALSE,FALSE,Disabled,0.000000,0.000000,0.000000,TRUE,-0.020447,-0.009048,0.000000,-0.053177,-0.321350,0.000000,0.000000,0.001000,0.385000,-0.350000,-0.230000,1.780000,-1.302871,Hold,0.295654,0.000000,ResetBack,37756.000000,-0.250000,LowGoal,2152.500000,-2181.818182,Speed,2130.000000,-2181.818182,Speed,Off,Off,0.000000,FALSE,13,Read: /home/lvuser/scripts/auto_13.bee,File good!,WAIT 1500,WAIT
06:08:22.304 PM 03/25/2016,Autonomous Enabled,9,TRUE,7,Read from Text File in DoesScriptNumberContainNull.vi->Disabled.vi->Robot Main.vi<APPEND> /home/lvuser/scripts/auto_11.bee,0.000000,0.000000,0.000000,0.000000,TRUE,FALSE,TRUE,TRUE,FALSE,FALSE,Disabled,0.000000,0.000000,0.000000,TRUE,-0.019791,-0.025162,0.000000,0.038437,-0.334106,0.000000,0.036000,-0.001000,0.198000,-0.350000,-0.250000,1.780000,-1.297497,Hold,0.295654,0.000000,Reset,37781.000000,2.000000,LowGoal,2130.000000,-2181.818182,Speed,2130.000000,-2181.818182,Speed,Off,Off,0.000000,FALSE,13,Read: /home/lvuser/scripts/auto_13.bee,File good!,WAIT 1500,WAIT
06:08:22.405 PM 03/25/2016,Autonomous Enabled,9,TRUE,7,Read from Text File in DoesScriptNumberContainNull.vi->Disabled.vi->Robot Main.vi<APPEND> /home/lvuser/scripts/auto_11.bee,0.000000,0.000000,0.000000,0.000000,TRUE,FALSE,TRUE,TRUE,FALSE,FALSE,Disabled,0.000000,0.000000,0.000000,TRUE,-0.016235,-0.041794,0.000000,0.081314,-0.304474,0.000000,-0.031000,0.169000,0.266000,-0.350000,-0.100000,1.620000,-1.290481,Hold,0.295654,0.000000,Hold,-72.000000,2.000000,LowGoal,2137.500000,-2181.818182,Speed,2137.500000,-2181.818182,Speed,Off,Off,0.000000,FALSE,13,Read: /home/lvuser/scripts/auto_13.bee,File good!,WAIT 1500,WAIT
06:08:22.505 PM 03/25/2016,Autonomous Enabled,10,TRUE,7,Read from Text File in DoesScriptNumberContainNull.vi->Disabled.vi->Robot Main.vi<APPEND> /home/lvuser/scripts/auto_11.bee,0.000000,0.000000,0.000000,0.000000,TRUE,FALSE,TRUE,TRUE,FALSE,FALSE,Disabled,0.000000,0.000000,0.000000,TRUE,-0.013718,-0.051758,0.000000,0.009491,-0.139389,0.000000,-0.096000,0.052000,0.139000,-0.350000,-0.270000,1.690000,-1.293238,Hold,0.295654,0.000000,Hold,-72.000000,2.000000,LowGoal,2152.500000,-2181.818182,Speed,2130.000000,-2181.818182,Speed,Off,Off,0.000000,FALSE,13,Read: /home/lvuser/scripts/auto_13.bee,File good!,WAIT 1500,WAIT
06:08:22.606 PM 03/25/2016,Autonomous Enabled,10,TRUE,7,Read from Text File in DoesScriptNumberContainNull.vi->Disabled.vi->Robot Main.vi<APPEND> /home/lvuser/scripts/auto_11.bee,0.000000,0.000000,0.000000,0.000000,TRUE,FALSE,TRUE,TRUE,FALSE,FALSE,Disabled,0.000000,0.000000,0.000000,TRUE,-0.014175,-0.055954,0.000000,0.007980,-0.050720,0.000000,0.092000,0.116000,0.160000,-0.350000,-0.100000,1.520000,-1.288088,Hold,0.295654,0.000000,Hold,-72.000000,2.000000,LowGoal,2152.500000,-2181.818182,Speed,2137.500000,-2181.818182,Speed,Off,Off,0.000000,FALSE,13,Read: /home/lvuser/scripts/auto_13.bee,File good!,WAIT 1500,WAIT
06:08:22.707 PM 03/25/2016,Autonomous Enabled,10,TRUE,7,Read from Text File in DoesScriptNumberContainNull.vi->Disabled.vi->Robot Main.vi<APPEND> /home/lvuser/scripts/auto_11.bee,0.000000,0.000000,0.000000,0.000000,TRUE,FALSE,TRUE,TRUE,FALSE,FALSE,Disabled,0.000000,0.000000,0.000000,TRUE,-0.012344,-0.056152,0.000000,0.041565,0.023987,0.000000,0.035000,0.117000,0.092000,-0.350000,-0.180000,1.570000,-1.271647,Hold,0.295654,58.000000,Hold,-72.000000,151552.000000,LowGoal,2137.500000,-2181.818182,Speed,2137.500000,-2181.818182,Speed,Off,Off,0.000000,FALSE,13,Read: /home/lvuser/scripts/auto_13.bee,File good!,WAIT 750,WAIT
06:08:22.809 PM 03/25/2016,Autonomous Enabled,10,TRUE,7,Read from Text File in DoesScriptNumberContainNull.vi->Disabled.vi->Robot Main.vi<APPEND> /home/lvuser/scripts/auto_11.bee,0.000000,0.000000,0.000000,0.000000,TRUE,FALSE,TRUE,TRUE,FALSE,FALSE,Disabled,0.000000,0.000000,0.000000,TRUE,-0.010803,-0.053024,0.000000,0.017166,0.074387,0.000000,-0.023000,0.008000,-0.107000,0.000000,-0.360000,1.650000,0.005518,Hold,3.326904,58.000000,Hold,-4311.000000,151552.000000,LowGoal,2115.000000,-2181.818182,Speed,2137.500000,-2181.818182,Speed,Off,Off,0.000000,FALSE,13,Read: /home/lvuser/scripts/auto_13.bee,File good!,WAIT 750,WAIT
06:08:22.909 PM 03/25/2016,Autonomous Enabled,10,TRUE,7,Read from Text File in DoesScriptNumberContainNull.vi->Disabled.vi->Robot Main.vi<APPEND> /home/lvuser/scripts/auto_11.bee,0.000000,0.000000,0.000000,0.000000,TRUE,FALSE,TRUE,TRUE,FALSE,FALSE,Disabled,0.000000,0.000000,0.000000,TRUE,-0.008789,-0.051773,0.000000,0.057251,-0.030548,0.000000,0.025000,-0.014000,0.296000,0.000000,-0.220000,1.510000,0.007608,Hold,6.187988,58.000000,Hold,-18491.000000,151552.000000,LowGoal,2092.500000,-2181.818182,Speed,2137.500000,-2181.818182,Speed,Off,Off,0.000000,FALSE,13,Read: /home/lvuser/scripts/auto_13.bee,File good!,WAIT 750,WAIT
06:08:23.011 PM 03/25/2016,Autonomous Enabled,9,TRUE,7,Read from Text File in DoesScriptNumberContainNull.vi->Disabled.vi->Robot Main.vi<APPEND> /home/lvuser/scripts/auto_11.bee,0.000000,0.000000,0.000000,0.000000,TRUE,FALSE,TRUE,TRUE,FALSE,FALSE,Disabled,0.000000,0.000000,0.000000,TRUE,-0.005096,-0.055038,0.000000,0.088303,-0.061859,0.000000,0.047000,-0.044000,0.332000,0.000000,-0.180000,1.610000,0.000954,Hold,10.477783,58.000000,Hold,-31514.000000,151552.000000,LowGoal,2115.000000,-2181.818182,Speed,2137.500000,-2181.818182,Speed,Off,Off,0.000000,FALSE,13,Read: /home/lvuser/scripts/auto_13.bee,File good!,WAIT 750,WAIT
06:08:23.112 PM 03/25/2016,Autonomous Enabled,11,TRUE,7,Read from Text File in DoesScriptNumberContainNull.vi->Disabled.vi->Robot Main.vi<APPEND> /home/lvuser/scripts/auto_11.bee,0.000000,0.000000,0.000000,0.000000,TRUE,FALSE,TRUE,TRUE,FALSE,FALSE,Disabled,0.000000,0.000000,0.000000,TRUE,0.001694,-0.061325,0.000000,0.175613,-0.174820,0.000000,0.171000,-0.041000,0.129000,0.000000,-0.150000,1.600000,0.003921,Hold,15.479004,58.000000,Hold,-31514.000000,151552.000000,LowGoal,2122.500000,-2181.818182,Speed,2137.500000,-2181.818182,Speed,Off,Off,0.000000,FALSE,13,Read: /home/lvuser/scripts/auto_13.bee,File good!,WAIT 750,WAIT
06:08:23.213 PM 03/25/2016,Autonomous Enabled,9,TRUE,7,Read from Text File in DoesScriptNumberContainNull.vi->Disabled.vi->Robot Main.vi<APPEND> /home/lvuser/scripts/auto_11.bee,0.000000,0.000000,0.000000,0.000000,TRUE,FALSE,TRUE,TRUE,FALSE,FALSE,Disabled,0.000000,0.000000,0.000000,TRUE,0.013565,-0.071243,0.000000,0.225143,-0.195557,0.000000,-0.235000,0.040000,0.111000,0.000000,-0.050000,1.570000,0.013147,Hold,15.479004,58.000000,Hold,-45039.000000,151552.000000,LowGoal,2107.500000,-2181.818182,Speed,2137.500000,-2181.818182,Speed,Off,Off,0.000000,FALSE,13,Read: /home/lvuser/scripts/auto_13.bee,File good!,WAIT 750,WAIT
06:08:23.314 PM 03/25/2016,Autonomous Enabled,10,TRUE,7,Read from Text File in DoesScriptNumberContainNull.vi->Disabled.vi->Robot Main.vi<APPEND> /home/lvuser/scripts/auto_11.bee,0.000000,0.000000,0.000000,0.000000,TRUE,FALSE,TRUE,TRUE,FALSE,FALSE,Disabled,0.000000,0.000000,0.000000,TRUE,0.022537,-0.077850,0.000000,0.168335,-0.085358,0.000000,0.021000,0.088000,-0.168000,0.000000,0.050000,1.650000,0.024191,Hold,21.414551,58.000000,Hold,-59624.000000,151552.000000,LowGoal,2100.000000,-2181.818182,Speed,2122.500000,-2181.818182,Speed,Off,Off,0.000000,FALSE,13,Read: /home/lvuser/scripts/auto_13.bee,File good!,WAIT 750,WAIT
06:08:23.415 PM 03/25/2016,Autonomous Enabled,9,TRUE,7,Read from Text File in DoesScriptNumberContainNull.vi->Disabled.vi->Robot Main.vi<APPEND> /home/lvuser/scripts/auto_11.bee,0.000000,0.000000,0.000000,0.000000,TRUE,FALSE,TRUE,TRUE,FALSE,FALSE,Disabled,0.000000,0.000000,0.000000,TRUE,0.031754,-0.077774,0.000000,0.183014,0.081894,0.000000,-0.008000,0.232000,-0.281000,0.000000,-0.100000,1.750000,0.037806,Hold,28.303467,58.000000,Hold,-76006.000000,151552.000000,LowGoal,2115.000000,-2181.818182,Speed,2130.000000,-2181.818182,Speed,Off,Off,0.000000,FALSE,13,Read: /home/lvuser/scripts/auto_13.bee,File good!,WAIT 750,WAIT
06:08:23.516 PM 03/25/2016,Autonomous Enabled,9,TRUE,7,Read from Text File in DoesScriptNumberContainNull.vi->Disabled.vi->Robot Main.vi<APPEND> /home/lvuser/scripts/auto_11.bee,0.000000,0.000000,0.000000,0.025667,TRUE,FALSE,TRUE,TRUE,FALSE,FALSE,Disabled,0.000000,0.000000,0.000000,TRUE,0.035156,-0.068390,0.000000,-0.015350,0.221069,0.000000,-0.109000,-0.057000,-0.098000,-0.010000,-0.100000,1.570000,0.020686,Hold,44.231445,58.000000,Hold,-76006.000000,151552.000000,LowGoal,2145.000000,-2181.818182,Speed,2137.500000,-2181.818182,Speed,Off,Off,0.000000,FALSE,13,Read: /home/lvuser/scripts/auto_13.bee,File good!,DRIVE_STRAIGHT_TARGET 206 1000 10000 75,DRIVE_STRAIGHT_TARGET
06:08:23.617 PM 03/25/2016,Autonomous Enabled,10,TRUE,7,Read from Text File in DoesScriptNumberContainNull.vi->Disabled.vi->Robot Main.vi<APPEND> /home/lvuser/scripts/auto_12.bee,0.000000,-0.141166,0.000000,0.128333,TRUE,FALSE,TRUE,TRUE,FALSE,FALSE,Disabled,0.000000,0.000000,0.000000,TRUE,0.033279,-0.056595,0.000000,-0.021805,0.274551,0.000000,-0.077000,0.134000,-0.101000,-0.010000,-0.430000,1.520000,0.032460,Hold,44.231445,58.000000,Hold,-91642.000000,151552.000000,LowGoal,2115.000000,-2181.818182,Speed,2137.500000,-2181.818182,Speed,Off,Off,0.000000,FALSE,13,Read: /home/lvuser/scripts/auto_13.bee,File good!,DRIVE_STRAIGHT_TARGET 206 1000 10000 75,DRIVE_STRAIGHT_TARGET
06:08:23.717 PM 03/25/2016,Autonomous Enabled,9,TRUE,7,Read from Text File in DoesScriptNumberContainNull.vi->Disabled.vi->Robot Main.vi<APPEND> /home/lvuser/scripts/auto_12.bee,0.000000,-2.091828,0.000000,2.265078,TRUE,FALSE,TRUE,TRUE,FALSE,FALSE,Disabled,0.000000,0.000000,0.000000,TRUE,0.044098,-0.039993,0.000000,0.386368,0.336151,0.000000,0.515000,0.025000,-0.080000,-0.050000,2.820000,1.300000,0.058530,Hold,57.477051,58.000000,Hold,-108331.000000,151552.000000,LowGoal,2100.000000,-2181.818182,Speed,2137.500000,-2181.818182,Speed,Off,Off,0.000000,FALSE,13,Read: /home/lvuser/scripts/auto_13.bee,File good!,DRIVE_STRAIGHT_TARGET 206 1000 10000 75,DRIVE_STRAIGHT_TARGET
06:08:23.818 PM 03/25/2016,Autonomous Enabled,11,TRUE,7,Read from Text File in DoesScriptNumberContainNull.vi->Disabled.vi->Robot Main.vi<APPEND> /home/lvuser/scripts/auto_12.bee,0.000000,-5.248821,0.000000,5.422071,TRUE,FALSE,TRUE,TRUE,FALSE,FALSE,Disabled,0.000000,0.000000,0.000000,TRUE,0.071991,-0.024551,0.000000,0.669968,0.235519,0.000000,0.059000,-0.013000,0.320000,-0.220000,2.460000,1.170000,-0.107384,Hold,61.912842,58.000000,Hold,-122798.000000,151552.000000,LowGoal,2100.000000,-2181.818182,Speed,2100.000000,-2181.818182,Speed,Off,Off,0.000000,FALSE,13,Read: /home/lvuser/scripts/auto_13.bee,File good!,DRIVE_STRAIGHT_TARGET 206 1000 10000 75,DRIVE_STRAIGHT_TARGET
06:08:23.917 PM 03/25/2016,Autonomous Enabled,9,TRUE,7,Read from Text File in DoesScriptNumberContainNull.vi->Disabled.vi->Robot Main.vi<APPEND> /home/lvuser/scripts/auto_12.bee,0.000000,-9.220728,0.000000,9.727644,FALSE,FALSE,TRUE,TRUE,FALSE,FALSE,Disabled,0.000000,0.000000,0.000000,TRUE,0.117264,-0.015717,0.000000,0.791107,0.128464,0.000000,-0.014000,0.039000,0.683000,-0.330000,3.830000,1.150000,-0.217301,Hold,62.598389,58.000000,Hold,-122798.000000,151552.000000,LowGoal,2100.000000,-2181.818182,Speed,2107.500000,-2181.818182,Speed,Off,Off,0.000000,FALSE,13,Read: /home/lvuser/scripts/auto_13.bee,File good!,DRIVE_STRAIGHT_TARGET 206 1000 10000 75,DRIVE_STRAIGHT_TARGET
06:08:24.018 PM 03/25/2016,Autonomous Enabled,11,TRUE,7,Read from Text File in DoesScriptNumberContainNull.vi->Disabled.vi->Robot Main.vi<APPEND> /home/lvuser/scripts/auto_12.bee,0.000000,-13.288886,0.000000,13.699551,TRUE,FALSE,TRUE,TRUE,FALSE,FALSE,Disabled,0.000000,0.000000,0.000000,TRUE,0.155045,-0.011658,0.000000,0.729919,0.003616,0.000000,0.004000,0.012000,0.011000,-0.510000,2.920000,1.110000,-0.417813,Hold,62.581543,58.000000,Hold,-135774.000000,151552.000000,LowGoal,2085.000000,-2181.818182,Speed,2137.500000,-2181.818182,Speed,Off,Off,0.000000,FALSE,13,Read: /home/lvuser/scripts/auto_13.bee,File good!,DRIVE_STRAIGHT_TARGET 206 1000 10000 75,DRIVE_STRAIGHT_TARGET
06:08:24.120 PM 03/25/2016,Autonomous Enabled,11,TRUE,7,Read from Text File in DoesScriptNumberContainNull.vi->Disabled.vi->Robot Main.vi<APPEND> /home/lvuser/scripts/auto_12.bee,0.000000,-17.665042,0.000000,18.197624,FALSE,FALSE,TRUE,TRUE,FALSE,FALSE,Disabled,0.000000,0.000000,0.000000,TRUE,0.191513,-0.009995,0.000000,0.722946,0.054474,0.000000,-0.188000,0.091000,-0.166000,-0.740000,3.380000,1.100000,-0.680174,Hold,62.581543,58.000000,Hold,-143974.000000,151552.000000,LowGoal,2107.500000,-2181.818182,Speed,2137.500000,-2181.818182,Speed,Off,Off,0.000000,FALSE,13,Read: /home/lvuser/scripts/auto_13.bee,File good!,DRIVE_STRAIGHT_TARGET 206 1000 10000 75,DRIVE_STRAIGHT_TARGET
06:08:24.220 PM 03/25/2016,Autonomous Enabled,10,TRUE,7,Read from Text File in DoesScriptNumberContainNull.vi->Disabled.vi->Robot Main.vi<APPEND> /home/lvuser/scripts/auto_12.bee,0.000000,-22.111782,0.000000,22.618697,TRUE,FALSE,TRUE,TRUE,FALSE,FALSE,Disabled,0.000000,0.000000,0.000000,TRUE,0.225388,-0.004150,0.000000,0.624374,0.159622,0.000000,-0.148000,0.068000,-0.122000,-0.850000,2.970000,1.150000,-0.798639,Hold,62.581543,58.000000,Hold,-147465.000000,151552.000000,LowGoal,2122.500000,-2181.818182,Speed,2130.000000,-2181.818182,Speed,Off,Off,0.000000,FALSE,13,Read: /home/lvuser/scripts/auto_13.bee,File good!,DRIVE_STRAIGHT_TARGET 206 1000 10000 75,DRIVE_STRAIGHT_TARGET
06:08:24.321 PM 03/25/2016,Autonomous Enabled,11,TRUE,7,Read from Text File in DoesScriptNumberContainNull.vi->Disabled.vi->Robot Main.vi<APPEND> /home/lvuser/scripts/auto_12.bee,0.000000,-26.571355,0.000000,26.982020,TRUE,FALSE,TRUE,TRUE,FALSE,FALSE,Disabled,0.000000,0.000000,0.000000,TRUE,0.251282,0.006683,0.000000,0.470200,0.251907,0.000000,-0.044000,0.039000,0.190000,-0.720000,2.860000,1.250000,-0.693920,Hold,62.581543,58.000000,Hold,-148125.000000,151552.000000,LowGoal,2122.500000,-2181.818182,Speed,2130.000000,-2181.818182,Speed,Off,Off,0.000000,FALSE,13,Read: /home/lvuser/scripts/auto_13.bee,File good!,DRIVE_STRAIGHT_TARGET 206 1000 10000 75,DRIVE_STRAIGHT_TARGET
06:08:24.423 PM 03/25/2016,Autonomous Enabled,11,TRUE,7,Read from Text File in DoesScriptNumberContainNull.vi->Disabled.vi->Robot Main.vi<APPEND> /home/lvuser/scripts/auto_12.bee,0.000000,-31.114344,0.000000,31.396677,TRUE,FALSE,TRUE,TRUE,FALSE,FALSE,Disabled,0.000000,0.000000,0.000000,TRUE,0.274826,0.018982,0.000000,0.476059,0.229294,0.000000,-0.002000,0.051000,0.238000,-0.480000,2.930000,1.150000,-0.443925,Hold,62.581543,58.000000,Hold,-148845.000000,151552.000000,LowGoal,2115.000000,-2181.818182,Speed,2137.500000,-2181.818182,Speed,Off,Off,0.000000,FALSE,13,Read: /home/lvuser/scripts/auto_13.bee,File good!,DRIVE_STRAIGHT_TARGET 206 1000 10000 75,DRIVE_STRAIGHT_TARGET
06:08:24.523 PM 03/25/2016,Autonomous Enabled,11,TRUE,7,Read from Text File in DoesScriptNumberContainNull.vi->Disabled.vi->Robot Main.vi<APPEND> /home/lvuser/scripts/auto_12.bee,0.000000,-35.625250,0.000000,35.849833,TRUE,FALSE,TRUE,TRUE,FALSE,FALSE,Disabled,0.000000,0.000000,0.000000,TRUE,0.300903,0.030182,0.000000,0.554214,0.195358,0.000000,0.025000,-0.100000,-0.052000,-0.320000,2.410000,1.110000,-0.285932,Hold,62.581543,58.000000,Hold,-148853.000000,151552.000000,LowGoal,2092.500000,-2181.818182,Speed,2145.000000,-2181.818182,Speed,Off,Off,0.000000,FALSE,13,Read: /home/lvuser/scripts/auto_13.bee,File good!,DRIVE_STRAIGHT_TARGET 206 1000 10000 75,DRIVE_STRAIGHT_TARGET
06:08:24.624 PM 03/25/2016,Autonomous Enabled,11,TRUE,7,Read from Text File in DoesScriptNumberContainNull.vi->Disabled.vi->Robot Main.vi<APPEND> /home/lvuser/scripts/auto_12.bee,0.000000,-40.091240,0.000000,40.367156,TRUE,FALSE,TRUE,TRUE,FALSE,FALSE,Disabled,0.000000,0.000000,0.000000,TRUE,0.327026,0.037888,0.000000,0.482193,0.142181,0.000000,-0.150000,0.021000,-0.098000,-0.250000,2.090000,1.070000,-0.213235,Hold,62.581543,58.000000,Hold,-148853.000000,151552.000000,LowGoal,2092.500000,-2181.818182,Speed,2130.000000,-2181.818182,Speed,Off,Off,0.000000,FALSE,13,Read: /home/lvuser/scripts/auto_13.bee,File good!,DRIVE_STRAIGHT_TARGET 206 1000 10000 75,DRIVE_STRAIGHT_TARGET
06:08:24.724 PM 03/25/2016,Autonomous Enabled,10,TRUE,7,Read from Text File in DoesScriptNumberContainNull.vi->Disabled.vi->Robot Main.vi<APPEND> /home/lvuser/scripts/auto_12.bee,0.000000,-44.608562,0.000000,44.845978,FALSE,FALSE,TRUE,TRUE,FALSE,FALSE,Disabled,0.000000,0.000000,0.000000,TRUE,0.347549,0.046738,0.000000,0.361084,0.220001,0.000000,-0.257000,0.108000,-0.161000,-0.210000,3.040000,1.090000,-0.192401,Hold,62.559082,58.000000,Hold,-148861.000000,151552.000000,LowGoal,2107.500000,-2181.818182,Speed,2137.500000,-2181.818182,Speed,Off,Off,0.000000,FALSE,13,Read: /home/lvuser/scripts/auto_13.bee,File good!,DRIVE_STRAIGHT_TARGET 206 1000 10000 75,DRIVE_STRAIGHT_TARGET
06:08:24.824 PM 03/25/2016,Autonomous Enabled,10,TRUE,7,Read from Text File in DoesScriptNumberContainNull.vi->Disabled.vi->Robot Main.vi<APPEND> /home/lvuser/scripts/auto_12.bee,0.000000,-48.882052,0.000000,49.055302,FALSE,FALSE,TRUE,TRUE,FALSE,FALSE,Disabled,0.000000,0.000000,0.000000,TRUE,0.361984,0.060333,0.000000,0.235229,0.286118,0.000000,-0.148000,0.090000,0.054000,-0.140000,3.360000,0.510000,-0.130518,Hold,61.143799,58.000000,Hold,-148897.000000,151552.000000,LowGoal,2122.500000,-2181.818182,Speed,2130.000000,-2181.818182,Speed,Off,Off,0.000000,FALSE,13,Read: /home/lvuser/scripts/auto_13.bee,File good!,DRIVE_STRAIGHT_TARGET 206 1000 10000 75,DRIVE_STRAIGHT_TARGET
06:08:24.924 PM 03/25/2016,Autonomous Enabled,9,TRUE,7,Read from Text File in DoesScriptNumberContainNull.vi->Disabled.vi->Robot Main.vi<APPEND> /home/lvuser/scripts/auto_12.bee,0.000000,-53.213292,0.000000,53.437875,FALSE,FALSE,TRUE,TRUE,FALSE,FALSE,Disabled,0.000000,0.000000,0.000000,TRUE,0.368286,0.077042,0.000000,0.114319,0.239777,0.000000,-0.280000,0.162000,-0.138000,-0.190000,5.260000,0.640000,-0.231013,Hold,60.769287,58.000000,Hold,-151998.000000,151552.000000,LowGoal,2047.500000,-2181.818182,Speed,2100.000000,-2181.818182,Speed,Off,Off,0.000000,FALSE,13,Read: /home/lvuser/scripts/auto_13.bee,File good!,DRIVE_STRAIGHT_TARGET 206 1000 10000 75,DRIVE_STRAIGHT_TARGET
06:08:25.024 PM 03/25/2016,Autonomous Enabled,10,TRUE,7,Read from Text File in DoesScriptNumberContainNull.vi->Disabled.vi->Robot Main.vi<APPEND> /home/lvuser/scripts/auto_12.bee,0.000000,-57.518865,0.000000,57.749865,FALSE,FALSE,TRUE,TRUE,FALSE,FALSE,Disabled,0.000000,0.000000,0.000000,TRUE,0.367813,0.090790,0.000000,-0.049225,0.279770,0.000000,-0.033000,0.130000,0.047000,-0.230000,7.890000,0.540000,-0.325246,Hold,61.186035,58.000000,Hold,-151742.000000,151552.000000,LowGoal,2047.500000,-2181.818182,Speed,2122.500000,-2181.818182,Speed,Off,Off,0.000000,FALSE,13,Read: /home/lvuser/scripts/auto_13.bee,File good!,DRIVE_STRAIGHT_TARGET 206 1000 10000 75,DRIVE_STRAIGHT_TARGET
06:08:25.124 PM 03/25/2016,Autonomous Enabled,11,TRUE,7,Read from Text File in DoesScriptNumberContainNull.vi->Disabled.vi->Robot Main.vi<APPEND> /home/lvuser/scripts/auto_12.bee,0.000000,-61.503606,0.000000,61.798772,FALSE,FALSE,TRUE,TRUE,FALSE,FALSE,Disabled,0.000000,0.000000,0.000000,TRUE,0.364410,0.107010,0.000000,-0.072235,0.364441,0.000000,0.031000,0.101000,0.008000,-0.340000,9.140000,0.580000,-0.454390,Hold,61.099365,58.000000,Hold,-151576.000000,151552.000000,LowGoal,2040.000000,-2181.818182,Speed,2152.500000,-2181.818182,Speed,Off,Off,0.000000,FALSE,13,Read: /home/lvuser/scripts/auto_13.bee,File good!,DRIVE_STRAIGHT_TARGET 206 1000 10000 75,DRIVE_STRAIGHT_TARGET
06:08:25.225 PM 03/25/2016,Autonomous Enabled,9,TRUE,7,Read from Text File in DoesScriptNumberContainNull.vi->Disabled.vi->Robot Main.vi<APPEND> /home/lvuser/scripts/auto_12.bee,0.000000,-65.571763,0.000000,65.822013,FALSE,FALSE,TRUE,TRUE,FALSE,FALSE,Disabled,0.000000,0.000000,0.000000,TRUE,0.359467,0.131393,0.000000,-0.099304,0.529572,0.000000,-0.159000,-0.038000,0.283000,-0.300000,8.300000,0.730000,-0.421015,Hold,61.235352,58.000000,Hold,-151612.000000,151552.000000,LowGoal,2122.500000,-2181.818182,Speed,2115.000000,-2181.818182,Speed,Off,Off,0.000000,FALSE,13,Read: /home/lvuser/scripts/auto_13.bee,File good!,DRIVE_STRAIGHT_TARGET 206 1000 10000 75,DRIVE_STRAIGHT_TARGET
06:08:25.325 PM 03/25/2016,Autonomous Enabled,10,TRUE,7,Read from Text File in DoesScriptNumberContainNull.vi->Disabled.vi->Robot Main.vi<APPEND> /home/lvuser/scripts/auto_12.bee,0.000000,-69.325505,0.000000,69.518004,FALSE,FALSE,TRUE,TRUE,FALSE,FALSE,Disabled,0.000000,0.000000,0.000000,TRUE,0.352417,0.158661,0.000000,-0.182205,0.580841,0.000000,-0.005000,-0.001000,-0.394000,-0.280000,6.070000,0.700000,-0.429432,Hold,61.267334,58.000000,Hold,-151612.000000,151552.000000,LowGoal,2160.000000,-2181.818182,Speed,2107.500000,-2181.818182,Speed,Off,Off,0.000000,FALSE,13,Read: /home/lvuser/scripts/auto_13.bee,File good!,DRIVE_STRAIGHT_TARGET 206 1000 10000 75,DRIVE_STRAIGHT_TARGET
06:08:25.425 PM 03/25/2016,Autonomous Enabled,10,TRUE,7,Read from Text File in DoesScriptNumberContainNull.vi->Disabled.vi->Robot Main.vi<APPEND> /home/lvuser/scripts/auto_12.bee,0.000000,-72.963746,0.000000,73.310245,FALSE,FALSE,TRUE,TRUE,FALSE,FALSE,Disabled,0.000000,0.000000,0.000000,TRUE,0.344696,0.181931,0.000000,-0.129410,0.000000,0.000000,0.282000,0.175000,-0.384000,-0.570000,5.140000,1.060000,-0.647228,Hold,61.253906,58.000000,Hold,-151612.000000,151552.000000,LowGoal,2137.500000,-2181.818182,Speed,2130.000000,-2181.818182,Speed,Off,Off,0.000000,FALSE,13,Read: /home/lvuser/scripts/auto_13.bee,File good!,DRIVE_STRAIGHT_TARGET 206 1000 10000 75,DRIVE_STRAIGHT_TARGET
06:08:25.525 PM 03/25/2016,Autonomous Enabled,11,TRUE,7,Read from Text File in DoesScriptNumberContainNull.vi->Disabled.vi->Robot Main.vi<APPEND> /home/lvuser/scripts/auto_12.bee,0.000000,-77.211569,0.000000,77.551652,FALSE,FALSE,TRUE,TRUE,FALSE,FALSE,Disabled,0.000000,0.000000,0.000000,TRUE,0.339828,0.185791,0.000000,-0.109482,0.108276,0.000000,-0.001000,-0.017000,0.269000,-0.570000,4.550000,1.220000,-0.651125,Hold,61.380615,58.000000,Hold,-151613.000000,151552.000000,LowGoal,2107.500000,-2181.818182,Speed,2130.000000,-2181.818182,Speed,Off,Off,0.000000,FALSE,13,Read: /home/lvuser/scripts/auto_13.bee,File good!,DRIVE_STRAIGHT_TARGET 206 1000 10000 75,DRIVE_STRAIGHT_TARGET
06:08:25.625 PM 03/25/2016,Autonomous Enabled,10,TRUE,7,Read from Text File in DoesScriptNumberContainNull.vi->Disabled.vi->Robot Main.vi<APPEND> /home/lvuser/scripts/auto_12.bee,0.000000,-81.485059,0.000000,81.709642,TRUE,FALSE,TRUE,TRUE,FALSE,FALSE,Disabled,0.000000,0.000000,0.000000,TRUE,0.333771,0.186371,0.000000,-0.085297,-0.025772,0.000000,0.228000,-0.145000,-0.080000,-0.490000,1.360000,1.200000,-0.526674,Hold,61.205566,58.000000,Hold,-151613.000000,151552.000000,LowGoal,2107.500000,-2181.818182,Speed,2130.000000,-2181.818182,Speed,Off,Off,0.000000,FALSE,13,Read: /home/lvuser/scripts/auto_13.bee,File good!,DRIVE_STRAIGHT_TARGET 206 1000 10000 75,DRIVE_STRAIGHT_TARGET
06:08:25.727 PM 03/25/2016,Autonomous Enabled,11,TRUE,7,Read from Text File in DoesScriptNumberContainNull.vi->Disabled.vi->Robot Main.vi<APPEND> /home/lvuser/scripts/auto_12.bee,0.000000,-85.957466,0.000000,86.246215,TRUE,FALSE,TRUE,TRUE,FALSE,FALSE,Disabled,0.000000,0.000000,0.000000,TRUE,0.334030,0.181244,0.000000,0.015411,-0.137817,0.000000,0.071000,0.002000,0.002000,-0.580000,-1.180000,1.300000,-0.601611,Hold,61.478760,58.000000,Hold,-151633.000000,151552.000000,LowGoal,2130.000000,-2181.818182,Speed,2137.500000,-2181.818182,Speed,Off,Off,0.000000,FALSE,13,Read: /home/lvuser/scripts/auto_13.bee,File good!,DRIVE_STRAIGHT_TARGET 206 1000 10000 75,DRIVE_STRAIGHT_TARGET
06:08:25.827 PM 03/25/2016,Autonomous Enabled,10,TRUE,7,Read from Text File in DoesScriptNumberContainNull.vi->Disabled.vi->Robot Main.vi<APPEND> /home/lvuser/scripts/auto_12.bee,0.000000,-90.461955,0.000000,90.769954,FALSE,FALSE,TRUE,TRUE,FALSE,FALSE,Disabled,0.000000,0.000000,0.000000,TRUE,0.334274,0.180466,0.000000,-0.014511,-0.010284,0.000000,-0.095000,0.073000,0.000000,-0.590000,-3.280000,1.220000,-0.568466,Hold,61.453125,58.000000,Hold,-151636.000000,151552.000000,LowGoal,2115.000000,-2181.818182,Speed,2137.500000,-2181.818182,Speed,Off,Off,0.000000,FALSE,13,Read: /home/lvuser/scripts/auto_13.bee,File good!,DRIVE_STRAIGHT_TARGET 206 1000 10000 75,DRIVE_STRAIGHT_TARGET
06:08:25.928 PM 03/25/2016,Autonomous Enabled,10,FALSE,0,NO ERROR,0.000000,-95.223111,0.000000,95.402777,FALSE,FALSE,TRUE,TRUE,FALSE,FALSE,Disabled,0.000000,0.000000,0.000000,TRUE,0.331741,0.180161,0.000000,-0.053528,-0.005127,0.000000,0.159000,-0.077000,-0.426000,-0.490000,-6.020000,1.540000,-0.514091,Hold,61.455811,58.000000,Hold,-151636.000000,151552.000000,LowGoal,2107.500000,-2181.818182,Speed,2137.500000,-2181.818182,Speed,Off,Off,0.000000,FALSE,13,Read: /home/lvuser/scripts/auto_13.bee,File good!,DRIVE_STRAIGHT_TARGET 206 1000 10000 75,DRIVE_STRAIGHT_TARGET
06:08:26.029 PM 03/25/2016,Autonomous Enabled,10,FALSE,0,NO ERROR,0.000000,-100.029183,0.000000,100.170349,FALSE,FALSE,TRUE,TRUE,FALSE,FALSE,Disabled,0.000000,0.000000,0.000000,TRUE,0.330078,0.180313,0.000000,-0.022476,0.034637,0.000000,-0.280000,0.337000,1.056000,-0.400000,-6.730000,1.510000,-0.393429,Hold,61.356201,58.000000,Hold,-151597.000000,151552.000000,LowGoal,2002.500000,-2181.818182,Speed,2130.000000,-2181.818182,Speed,Off,Off,0.000000,FALSE,13,Read: /home/lvuser/scripts/auto_13.bee,File good!,DRIVE_STRAIGHT_TARGET 206 1000 10000 75,DRIVE_STRAIGHT_TARGET
06:08:26.129 PM 03/25/2016,Autonomous Enabled,9,FALSE,0,NO ERROR,0.000000,-104.816005,0.000000,104.950755,FALSE,FALSE,TRUE,TRUE,FALSE,FALSE,Disabled,0.000000,0.000000,0.000000,TRUE,0.322952,0.186752,0.000000,-0.132858,0.123718,0.000000,-0.280000,0.337000,1.056000,-0.400000,-6.730000,1.510000,-0.222665,Hold,61.588135,58.000000,Hold,-151590.000000,151552.000000,LowGoal,2025.000000,-2181.818182,Speed,2137.500000,-2181.818182,Speed,Off,Off,0.000000,FALSE,13,Read: /home/lvuser/scripts/auto_13.bee,File good!,DRIVE_STRAIGHT_TARGET 206 1000 10000 75,DRIVE_STRAIGHT_TARGET
06:08:26.229 PM 03/25/2016,Autonomous Enabled,10,FALSE,0,NO ERROR,0.000000,-110.026326,0.000000,110.090493,FALSE,FALSE,TRUE,TRUE,FALSE,FALSE,Disabled,0.000000,0.000000,0.000000,TRUE,0.315201,0.194824,0.000000,-0.194077,0.177689,0.000000,0.079000,0.049000,-0.488000,-0.210000,-7.060000,1.080000,-0.305796,Hold,61.340576,58.000000,Hold,-151588.000000,151552.000000,LowGoal,2002.500000,-2181.818182,Speed,2130.000000,-2181.818182,Speed,Off,Off,0.000000,FALSE,13,Read: /home/lvuser/scripts/auto_13.bee,File good!,DRIVE_STRAIGHT_TARGET 206 1000 10000 75,DRIVE_STRAIGHT_TARGET
06:08:26.331 PM 03/25/2016,Autonomous Enabled,10,FALSE,0,NO ERROR,0.000000,-115.114731,0.000000,115.024898,FALSE,FALSE,TRUE,TRUE,FALSE,FALSE,Disabled,0.000000,0.000000,0.000000,TRUE,0.307785,0.202988,0.000000,-0.110947,0.128876,0.000000,0.117000,0.035000,-0.101000,-0.280000,-3.420000,1.200000,-0.085813,Hold,61.371582,58.000000,Hold,-151588.000000,151552.000000,LowGoal,2100.000000,-2181.818182,Speed,2137.500000,-2181.818182,Speed,Off,Off,0.000000,FALSE,13,Read: /home/lvuser/scripts/auto_13.bee,File good!,DRIVE_STRAIGHT_TARGET 206 1000 10000 75,DRIVE_STRAIGHT_TARGET
06:08:26.431 PM 03/25/2016,Autonomous Enabled,11,FALSE,0,NO ERROR,0.000000,-120.029886,0.000000,119.978553,TRUE,FALSE,TRUE,TRUE,FALSE,FALSE,Disabled,0.000000,0.000000,0.000000,TRUE,0.299393,0.208191,0.000000,-0.236038,0.094742,0.000000,-0.193000,-0.077000,-0.057000,-0.010000,-0.390000,1.150000,0.129024,Hold,61.373779,58.000000,Hold,-151588.000000,151552.000000,LowGoal,2152.500000,-2181.818182,Speed,2137.500000,-2181.818182,Speed,Off,Off,0.000000,FALSE,13,Read: /home/lvuser/scripts/auto_13.bee,File good!,DRIVE_STRAIGHT_TARGET 206 1000 10000 75,DRIVE_STRAIGHT_TARGET
06:08:26.532 PM 03/25/2016,Autonomous Enabled,10,FALSE,0,NO ERROR,0.000000,-124.611375,0.000000,124.534375,TRUE,FALSE,TRUE,TRUE,FALSE,FALSE,Disabled,0.000000,0.000000,0.000000,TRUE,0.290863,0.211395,0.000000,0.005814,0.062622,0.000000,-0.193000,-0.077000,-0.057000,0.220000,0.790000,1.030000,0.031620,Hold,61.079834,58.000000,Hold,-151588.000000,151552.000000,LowGoal,2107.500000,-2181.818182,Speed,2145.000000,-2181.818182,Speed,Off,Off,0.000000,FALSE,13,Read: /home/lvuser/scripts/auto_13.bee,File good!,DRIVE_STRAIGHT_TARGET 206 1000 10000 75,DRIVE_STRAIGHT_TARGET
06:08:26.633 PM 03/25/2016,Autonomous Enabled,10,FALSE,0,NO ERROR,0.000000,-129.000365,0.000000,129.141531,TRUE,FALSE,TRUE,TRUE,FALSE,FALSE,Disabled,0.000000,0.000000,0.000000,TRUE,0.291199,0.215698,0.000000,-0.001190,0.117142,0.000000,0.046000,-0.028000,-0.087000,-0.050000,0.110000,1.050000,-0.231708,Hold,61.202393,58.000000,Hold,-151588.000000,151552.000000,LowGoal,2100.000000,-2181.818182,Speed,2137.500000,-2181.818182,Speed,Off,Off,0.000000,FALSE,13,Read: /home/lvuser/scripts/auto_13.bee,File good!,DRIVE_STRAIGHT_TARGET 206 1000 10000 75,DRIVE_STRAIGHT_TARGET
06:08:26.733 PM 03/25/2016,Autonomous Enabled,12,FALSE,0,NO ERROR,0.000000,-133.543354,0.000000,133.716604,TRUE,FALSE,TRUE,TRUE,FALSE,FALSE,Disabled,0.000000,0.000000,0.000000,TRUE,0.291489,0.223236,0.000000,0.022629,0.164581,0.000000,-0.071000,0.052000,0.245000,-0.300000,0.410000,1.150000,-0.508276,Hold,61.202393,58.000000,Hold,-151588.000000,151552.000000,LowGoal,2137.500000,-2181.818182,Speed,2137.500000,-2181.818182,Speed,Off,Off,0.000000,FALSE,13,Read: /home/lvuser/scripts/auto_13.bee,File good!,DRIVE_STRAIGHT_TARGET 206 1000 10000 75,DRIVE_STRAIGHT_TARGET
06:08:26.834 PM 03/25/2016,Autonomous Enabled,10,FALSE,0,NO ERROR,0.000000,-138.022177,0.000000,138.214677,TRUE,FALSE,TRUE,TRUE,FALSE,FALSE,Disabled,0.000000,0.000000,0.000000,TRUE,0.294861,0.228317,0.000000,0.068161,-0.009247,0.000000,0.083000,0.046000,-0.022000,-0.540000,0.480000,1.200000,-0.768499,Hold,61.202393,58.000000,Hold,-151588.000000,151552.000000,LowGoal,2152.500000,-2181.818182,Speed,2137.500000,-2181.818182,Speed,Off,Off,0.000000,FALSE,13,Read: /home/lvuser/scripts/auto_13.bee,File good!,DRIVE_STRAIGHT_TARGET 206 1000 10000 75,DRIVE_STRAIGHT_TARGET
06:08:26.935 PM 03/25/2016,Autonomous Enabled,10,FALSE,0,NO ERROR,0.000000,-142.571583,0.000000,142.873166,TRUE,FALSE,TRUE,TRUE,FALSE,FALSE,Disabled,0.000000,0.000000,0.000000,TRUE,0.294235,0.228409,0.000000,-0.018478,0.010193,0.000000,-0.006000,-0.017000,-0.142000,-0.760000,0.350000,1.120000,-0.804505,Hold,61.202393,58.000000,Hold,-151588.000000,151552.000000,LowGoal,2137.500000,-2181.818182,Speed,2137.500000,-2181.818182,Speed,Off,Off,0.000000,FALSE,13,Read: /home/lvuser/scripts/auto_13.bee,File good!,DRIVE_STRAIGHT_TARGET 206 1000 10000 75,DRIVE_STRAIGHT_TARGET
06:08:27.036 PM 03/25/2016,Autonomous Enabled,10,FALSE,0,NO ERROR,0.000000,-147.165906,0.000000,147.153073,TRUE,FALSE,TRUE,TRUE,FALSE,FALSE,Disabled,0.000000,0.000000,0.000000,TRUE,0.293488,0.228363,0.000000,-0.017014,0.000000,0.000000,-0.098000,0.006000,0.148000,-0.590000,0.650000,1.070000,-0.649900,Hold,61.202393,58.000000,Hold,-151588.000000,151552.000000,LowGoal,2107.500000,-2181.818182,Speed,2137.500000,-2181.818182,Speed,Off,Off,0.000000,FALSE,13,Read: /home/lvuser/scripts/auto_13.bee,File good!,DRIVE_STRAIGHT_TARGET 206 1000 10000 75,DRIVE_STRAIGHT_TARGET
06:08:27.136 PM 03/25/2016,Autonomous Enabled,9,FALSE,0,NO ERROR,0.000000,-151.612645,0.000000,151.612645,TRUE,FALSE,TRUE,TRUE,FALSE,FALSE,Disabled,0.000000,0.000000,0.000000,TRUE,0.292130,0.228409,0.000000,-0.023575,0.002502,0.000000,-0.098000,0.006000,0.148000,-0.590000,0.650000,1.070000,-0.533479,Hold,61.202393,58.000000,Hold,-151588.000000,151552.000000,LowGoal,2115.000000,-2181.818182,Speed,2137.500000,-2181.818182,Speed,Off,Off,0.000000,FALSE,13,Read: /home/lvuser/scripts/auto_13.bee,File good!,DRIVE_STRAIGHT_TARGET 206 1000 10000 75,DRIVE_STRAIGHT_TARGET
06:08:27.237 PM 03/25/2016,Autonomous Enabled,9,FALSE,0,NO ERROR,0.000000,-156.008052,0.000000,155.975969,TRUE,FALSE,TRUE,TRUE,FALSE,FALSE,Disabled,0.000000,0.000000,0.000000,TRUE,0.291840,0.227737,0.000000,0.001083,-0.029678,0.000000,0.003000,0.018000,0.234000,-0.520000,0.660000,1.090000,-0.499997,Hold,61.202393,58.000000,Hold,-151588.000000,151552.000000,LowGoal,2122.500000,-2181.818182,Speed,2137.500000,-2181.818182,Speed,Off,Off,0.000000,FALSE,13,Read: /home/lvuser/scripts/auto_13.bee,File good!,DRIVE_STRAIGHT_TARGET 206 1000 10000 75,DRIVE_STRAIGHT_TARGET
06:08:27.338 PM 03/25/2016,Autonomous Enabled,10,FALSE,0,NO ERROR,0.000000,-160.435541,0.000000,160.377792,TRUE,FALSE,TRUE,TRUE,FALSE,FALSE,Disabled,0.000000,0.000000,0.000000,TRUE,0.293167,0.226547,0.000000,0.046417,-0.012039,0.000000,0.090000,0.039000,0.013000,-0.480000,0.780000,1.060000,-0.537132,Hold,61.202393,58.000000,Hold,-151588.000000,151552.000000,LowGoal,2130.000000,-2181.818182,Speed,2130.000000,-2181.818182,Speed,Off,Off,0.000000,FALSE,13,Read: /home/lvuser/scripts/auto_13.bee,File good!,DRIVE_STRAIGHT_TARGET 206 1000 10000 75,DRIVE_STRAIGHT_TARGET
06:08:27.439 PM 03/25/2016,Autonomous Enabled,9,FALSE,0,NO ERROR,0.000000,-164.997781,0.000000,164.818115,TRUE,FALSE,TRUE,TRUE,FALSE,FALSE,Disabled,0.000000,0.000000,0.000000,TRUE,0.294754,0.227081,0.000000,0.018677,0.030502,0.000000,-0.039000,0.014000,-0.177000,-0.550000,0.570000,1.160000,-0.605191,Hold,61.202393,58.000000,Hold,-151588.000000,151552.000000,LowGoal,2122.500000,-2181.818182,Speed,2137.500000,-2181.818182,Speed,Off,Off,0.000000,FALSE,13,Read: /home/lvuser/scripts/auto_13.bee,File good!,DRIVE_STRAIGHT_TARGET 206 1000 10000 75,DRIVE_STRAIGHT_TARGET
06:08:27.540 PM 03/25/2016,Autonomous Enabled,9,FALSE,0,NO ERROR,0.000000,-169.444520,0.000000,169.303354,TRUE,FALSE,TRUE,TRUE,FALSE,FALSE,Disabled,0.000000,0.000000,0.000000,TRUE,0.296417,0.229523,0.000000,0.042389,0.060028,0.000000,0.038000,0.033000,-0.270000,-0.550000,0.590000,1.140000,-0.527896,Hold,61.202393,58.000000,Hold,-151588.000000,151552.000000,LowGoal,2107.500000,-2181.818182,Speed,2145.000000,-2181.818182,Speed,Off,Off,0.000000,FALSE,13,Read: /home/lvuser/scripts/auto_13.bee,File good!,DRIVE_STRAIGHT_TARGET 206 1000 10000 75,DRIVE_STRAIGHT_TARGET
06:08:27.639 PM 03/25/2016,Autonomous Enabled,11,FALSE,0,NO ERROR,0.000000,-173.929760,0.000000,173.724427,TRUE,FALSE,TRUE,TRUE,FALSE,FALSE,Disabled,0.000000,0.000000,0.000000,TRUE,0.298004,0.233505,0.000000,0.030426,0.089890,0.000000,-0.067000,0.036000,0.064000,-0.480000,0.630000,1.160000,-0.492871,Hold,61.202393,58.000000,Hold,-151588.000000,151552.000000,LowGoal,2122.500000,-2181.818182,Speed,2137.500000,-2181.818182,Speed,Off,Off,0.000000,FALSE,13,Read: /home/lvuser/scripts/auto_13.bee,File good!,DRIVE_STRAIGHT_TARGET 206 1000 10000 75,DRIVE_STRAIGHT_TARGET
06:08:27.740 PM 03/25/2016,Autonomous Enabled,9,FALSE,0,NO ERROR,0.000000,-178.447083,0.000000,178.254583,TRUE,FALSE,TRUE,TRUE,FALSE,FALSE,Disabled,0.000000,0.000000,0.000000,TRUE,0.299316,0.238831,0.000000,0.057037,0.107849,0.000000,0.035000,0.057000,0.152000,-0.450000,0.590000,1.170000,-0.480733,Hold,61.202393,58.000000,Hold,-151588.000000,151552.000000,LowGoal,2122.500000,-2181.818182,Speed,2137.500000,-2181.818182,Speed,Off,Off,0.000000,FALSE,13,Read: /home/lvuser/scripts/auto_13.bee,File good!,DRIVE_STRAIGHT_TARGET 206 1000 10000 75,DRIVE_STRAIGHT_TARGET
06:08:27.840 PM 03/25/2016,Autonomous Enabled,9,FALSE,0,NO ERROR,0.000000,-183.002905,0.000000,182.746239,TRUE,FALSE,TRUE,TRUE,FALSE,FALSE,Disabled,0.000000,0.000000,0.000000,TRUE,0.301697,0.243286,0.000000,0.020966,0.085754,0.000000,-0.080000,-0.077000,-0.222000,-0.470000,0.520000,1.260000,-0.614373,Hold,61.202393,58.000000,Hold,-151588.000000,151552.000000,LowGoal,2100.000000,-2181.818182,Speed,2137.500000,-2181.818182,Speed,Off,Off,0.000000,FALSE,13,Read: /home/lvuser/scripts/auto_13.bee,File good!,DRIVE_STRAIGHT_TARGET 206 1000 10000 75,DRIVE_STRAIGHT_TARGET
06:08:27.942 PM 03/25/2016,Autonomous Enabled,10,FALSE,0,NO ERROR,0.000000,-187.366229,0.000000,187.128812,TRUE,FALSE,TRUE,TRUE,FALSE,FALSE,Disabled,0.000000,0.000000,0.000000,TRUE,0.302307,0.245834,0.000000,0.010941,0.036682,0.000000,-0.001000,-0.123000,-0.114000,-0.580000,0.630000,1.330000,-0.674001,Hold,61.202393,58.000000,Hold,-151588.000000,151552.000000,LowGoal,2100.000000,-2181.818182,Speed,2145.000000,-2181.818182,Speed,Off,Off,0.000000,FALSE,13,Read: /home/lvuser/scripts/auto_13.bee,File good!,DRIVE_STRAIGHT_TARGET 206 1000 10000 75,DRIVE_STRAIGHT_TARGET
06:08:28.043 PM 03/25/2016,Autonomous Enabled,10,FALSE,0,NO ERROR,0.000000,-191.819385,0.000000,191.447219,TRUE,FALSE,TRUE,TRUE,FALSE,FALSE,Disabled,0.000000,0.000000,0.000000,TRUE,0.305222,0.247330,0.000000,0.088287,0.018402,0.000000,0.084000,0.046000,0.053000,-0.590000,0.480000,1.320000,-0.547250,Hold,61.202393,58.000000,Hold,-151588.000000,151552.000000,LowGoal,2115.000000,-2181.818182,Speed,2152.500000,-2181.818182,Speed,Off,Off,0.000000,FALSE,13,Read: /home/lvuser/scripts/auto_13.bee,File good!,DRIVE_STRAIGHT_TARGET 206 1000 10000 75,DRIVE_STRAIGHT_TARGET
06:08:28.143 PM 03/25/2016,Autonomous Enabled,9,FALSE,0,NO ERROR,0.000000,-196.362374,0.000000,195.913209,TRUE,FALSE,TRUE,TRUE,FALSE,FALSE,Disabled,0.000000,0.000000,0.000000,TRUE,0.305222,0.247330,0.000000,0.088287,0.018402,0.000000,-0.127000,-0.064000,0.021000,-0.460000,0.870000,1.300000,-0.455354,Hold,61.202393,58.000000,Hold,-151588.000000,151552.000000,LowGoal,2122.500000,-2181.818182,Speed,2160.000000,-2181.818182,Speed,Off,Off,0.000000,FALSE,13,Read: /home/lvuser/scripts/auto_13.bee,File good!,DRIVE_STRAIGHT_TARGET 206 1000 10000 75,DRIVE_STRAIGHT_TARGET
06:08:28.243 PM 03/25/2016,Autonomous Enabled,9,FALSE,0,NO ERROR,0.000000,-200.834780,0.000000,200.424115,TRUE,FALSE,TRUE,TRUE,FALSE,FALSE,Disabled,0.000000,0.000000,0.000000,TRUE,0.307831,0.247986,0.000000,0.041687,0.019913,0.000000,-0.005000,0.021000,-0.009000,-0.390000,0.690000,1.260000,-0.474915,Hold,61.202393,58.000000,Hold,-151588.000000,151552.000000,LowGoal,2137.500000,-2181.818182,Speed,2160.000000,-2181.818182,Speed,Off,Off,0.000000,FALSE,13,Read: /home/lvuser/scripts/auto_13.bee,File good!,DRIVE_STRAIGHT_TARGET 206 1000 10000 75,DRIVE_STRAIGHT_TARGET
06:08:28.344 PM 03/25/2016,Autonomous Enabled,10,FALSE,0,NO ERROR,0.000000,-205.294353,0.000000,204.935021,TRUE,FALSE,TRUE,TRUE,FALSE,FALSE,Disabled,0.000000,0.000000,0.000000,TRUE,0.306549,0.249741,0.000000,-0.047409,0.032593,0.000000,-0.029000,-0.017000,-0.095000,-0.430000,0.630000,1.180000,-0.583118,Hold,61.202393,58.000000,Hold,-151588.000000,151552.000000,LowGoal,2145.000000,-2181.818182,Speed,2160.000000,-2181.818182,Speed,Off,Off,0.000000,FALSE,13,Read: /home/lvuser/scripts/auto_13.bee,File good!,DRIVE_STRAIGHT_TARGET 206 1000 10000 75,DRIVE_STRAIGHT_TARGET
06:08:28.444 PM 03/25/2016,Autonomous Enabled,10,FALSE,0,NO ERROR,0.000000,-209.227761,0.000000,208.149763,TRUE,FALSE,TRUE,TRUE,FALSE,FALSE,Disabled,0.000000,0.000000,0.000000,TRUE,0.303955,0.252441,0.000000,-0.047211,0.072296,0.000000,-0.048000,-0.011000,-0.172000,-0.690000,0.580000,1.100000,-0.741868,Hold,61.202393,2.000000,Hold,-151588.000000,126976.000000,LowGoal,2130.000000,-1454.545455,Speed,2167.500000,-1454.545455,Speed,Off,Off,0.000000,FALSE,13,Read: /home/lvuser/scripts/auto_13.bee,File good!,SET_HEADING 59 50,SET_HEADING
06:08:28.545 PM 03/25/2016,Autonomous Enabled,9,FALSE,0,NO ERROR,0.000000,-212.019004,0.000000,208.720845,TRUE,FALSE,TRUE,TRUE,FALSE,FALSE,Disabled,0.000000,0.000000,0.000000,TRUE,0.275955,0.271942,0.000000,-0.748566,0.454132,0.000000,-1.087000,0.620000,0.379000,-0.690000,0.580000,1.100000,2.771690,Hold,56.567383,2.000000,Hold,-146320.000000,126976.000000,LowGoal,2025.000000,-1454.545455,Speed,2010.000000,-1454.545455,Speed,Off,Off,0.000000,FALSE,13,Read: /home/lvuser/scripts/auto_13.bee,File good!,SET_HEADING 59 50,SET_HEADING
06:08:28.645 PM 03/25/2016,Autonomous Enabled,11,FALSE,0,NO ERROR,0.000000,-213.976083,0.000000,208.412846,FALSE,FALSE,TRUE,TRUE,FALSE,FALSE,Disabled,0.000000,0.000000,0.000000,TRUE,0.231094,0.297623,0.000000,-0.959320,0.432510,0.000000,-0.384000,0.314000,-0.424000,3.590000,-5.390000,2.650000,8.032638,Hold,46.019775,2.000000,Hold,-135482.000000,126976.000000,LowGoal,1365.000000,-1454.545455,Speed,1305.000000,-1454.545455,Speed,Off,Off,0.000000,FALSE,13,Read: /home/lvuser/scripts/auto_13.bee,File good!,SET_HEADING 59 50,SET_HEADING
06:08:28.747 PM 03/25/2016,Autonomous Enabled,9,FALSE,0,NO ERROR,0.000000,-215.073330,0.000000,207.694181,FALSE,FALSE,TRUE,TRUE,FALSE,FALSE,Disabled,0.000000,0.000000,0.000000,TRUE,0.164780,0.304047,0.000000,-1.077621,0.078033,0.000000,-0.316000,-0.563000,0.903000,10.680000,-4.170000,-0.040000,11.135471,Hold,46.019775,2.000000,Hold,-135482.000000,126976.000000,LowGoal,1177.500000,-1454.545455,Speed,1177.500000,-1454.545455,Speed,Off,Off,0.000000,FALSE,13,Read: /home/lvuser/scripts/auto_13.bee,File good!,SET_HEADING 59 50,SET_HEADING
06:08:28.846 PM 03/25/2016,Autonomous Enabled,11,FALSE,0,NO ERROR,0.000000,-215.965245,0.000000,207.052516,FALSE,FALSE,TRUE,TRUE,FALSE,FALSE,Disabled,0.000000,0.000000,0.000000,TRUE,0.164780,0.304047,0.000000,-1.077621,0.078033,0.000000,0.196000,0.461000,-0.439000,14.300000,-3.360000,0.530000,14.339928,Hold,31.148193,2.000000,Hold,-129940.000000,126976.000000,LowGoal,1327.500000,-1454.545455,Speed,1410.000000,-1454.545455,Speed,Off,Off,0.000000,FALSE,13,Read: /home/lvuser/scripts/auto_13.bee,File good!,SET_HEADING 59 50,SET_HEADING
06:08:28.948 PM 03/25/2016,Autonomous Enabled,9,FALSE,0,NO ERROR,0.000000,-216.638993,0.000000,206.314601,FALSE,FALSE,TRUE,TRUE,FALSE,FALSE,Disabled,0.000000,0.000000,0.000000,TRUE,0.061615,0.321533,0.000000,-1.010361,0.108475,0.000000,0.008000,-0.342000,0.161000,16.470000,-3.440000,0.270000,17.216144,Hold,16.399658,2.000000,Hold,-129940.000000,126976.000000,LowGoal,1440.000000,-1454.545455,Speed,1470.000000,-1454.545455,Speed,Off,Off,0.000000,FALSE,13,Read: /home/lvuser/scripts/auto_13.bee,File good!,SET_HEADING 59 50,SET_HEADING
06:08:29.049 PM 03/25/2016,Autonomous Enabled,10,FALSE,0,NO ERROR,0.000000,-217.075326,0.000000,205.300770,FALSE,FALSE,TRUE,TRUE,FALSE,FALSE,Disabled,0.000000,0.000000,0.000000,TRUE,0.014465,0.325790,0.000000,-0.883560,0.061172,0.000000,0.229000,0.054000,-0.058000,16.470000,-3.440000,0.270000,20.486684,Hold,5.770752,2.000000,Hold,-127036.000000,126976.000000,LowGoal,1440.000000,-1454.545455,Speed,1410.000000,-1454.545455,Speed,Off,Off,0.000000,FALSE,13,Read: /home/lvuser/scripts/auto_13.bee,File good!,SET_HEADING 59 50,SET_HEADING
06:08:29.148 PM 03/25/2016,Autonomous Enabled,9,FALSE,0,NO ERROR,0.000000,-217.749074,0.000000,204.440939,TRUE,FALSE,TRUE,TRUE,FALSE,FALSE,Disabled,0.000000,0.000000,0.000000,TRUE,0.014465,0.325790,0.000000,-0.883560,0.061172,0.000000,0.086000,0.109000,-0.449000,23.160000,-2.770000,0.070000,23.598409,Hold,0.386475,2.000000,Hold,-127036.000000,126976.000000,LowGoal,1350.000000,-1454.545455,Speed,1372.500000,-1454.545455,Speed,Off,Off,0.000000,FALSE,13,Read: /home/lvuser/scripts/auto_13.bee,File good!,SET_HEADING 59 50,SET_HEADING
06:08:29.249 PM 03/25/2016,Autonomous Enabled,9,FALSE,0,NO ERROR,0.000000,-218.159740,0.000000,203.818523,TRUE,FALSE,TRUE,TRUE,FALSE,FALSE,Disabled,0.000000,0.000000,0.000000,TRUE,-0.027573,0.327667,0.000000,-0.859741,-0.068253,0.000000,-0.087000,-0.423000,0.358000,25.220000,-2.560000,0.160000,26.279032,Hold,0.695557,2.000000,Hold,-127036.000000,126976.000000,LowGoal,1327.500000,-1454.545455,Speed,1357.500000,-1454.545455,Speed,Off,Off,0.000000,FALSE,13,Read: /home/lvuser/scripts/auto_13.bee,File good!,SET_HEADING 59 50,SET_HEADING
06:08:29.349 PM 03/25/2016,Autonomous Enabled,10,FALSE,0,NO ERROR,0.000000,-218.512656,0.000000,203.330858,TRUE,FALSE,TRUE,TRUE,FALSE,FALSE,Disabled,0.000000,0.000000,0.000000,TRUE,-0.062958,0.321381,0.000000,0.000000,-0.038147,0.000000,0.166000,-0.077000,-0.156000,26.850000,-2.370000,0.220000,27.962264,Hold,0.873047,2.000000,Hold,-127036.000000,126976.000000,LowGoal,1327.500000,-1454.545455,Speed,1357.500000,-1454.545455,Speed,Off,Off,0.000000,FALSE,13,Read: /home/lvuser/scripts/auto_13.bee,File good!,SET_HEADING 59 50,SET_HEADING
06:08:29.451 PM 03/25/2016,Autonomous Enabled,10,FALSE,0,NO ERROR,0.000000,-218.807822,0.000000,203.022859,TRUE,FALSE,TRUE,TRUE,FALSE,FALSE,Disabled,0.000000,0.000000,0.000000,TRUE,-0.059586,0.320358,0.000000,0.104080,-0.030548,0.000000,0.094000,-0.056000,0.198000,26.850000,-2.370000,0.220000,29.184696,Hold,1.095947,2.000000,Hold,-127036.000000,126976.000000,LowGoal,1350.000000,-1454.545455,Speed,1365.000000,-1454.545455,Speed,Off,Off,0.000000,FALSE,13,Read: /home/lvuser/scripts/auto_13.bee,File good!,SET_HEADING 59 50,SET_HEADING
06:08:29.551 PM 03/25/2016,Autonomous Enabled,10,FALSE,0,NO ERROR,0.000000,-219.058071,0.000000,202.766193,TRUE,FALSE,TRUE,TRUE,FALSE,FALSE,Disabled,0.000000,0.000000,0.000000,TRUE,-0.054428,0.319778,0.000000,0.068680,0.020538,0.000000,0.106000,0.042000,-0.178000,28.020000,-2.180000,0.180000,30.217660,Hold,1.095947,2.000000,Hold,-127036.000000,126976.000000,LowGoal,1365.000000,-1454.545455,Speed,1380.000000,-1454.545455,Speed,Off,Off,0.000000,FALSE,13,Read: /home/lvuser/scripts/auto_13.bee,File good!,SET_HEADING 59 50,SET_HEADING
06:08:29.651 PM 03/25/2016,Autonomous Enabled,11,FALSE,0,NO ERROR,0.000000,-219.301904,0.000000,202.554443,TRUE,FALSE,TRUE,TRUE,FALSE,FALSE,Disabled,0.000000,0.000000,0.000000,TRUE,-0.054428,0.319778,0.000000,0.068680,0.020538,0.000000,0.095000,0.040000,-0.119000,29.040000,-1.950000,0.170000,31.162150,Hold,1.095947,2.000000,Hold,-127036.000000,126976.000000,LowGoal,1365.000000,-1454.545455,Speed,1402.500000,-1454.545455,Speed,Off,Off,0.000000,FALSE,13,Read: /home/lvuser/scripts/auto_13.bee,File good!,SET_HEADING 59 50,SET_HEADING
06:08:29.753 PM 03/25/2016,Autonomous Enabled,11,FALSE,0,NO ERROR,0.000000,-219.532903,0.000000,202.361943,TRUE,FALSE,TRUE,TRUE,FALSE,FALSE,Disabled,0.000000,0.000000,0.000000,TRUE,-0.049286,0.321198,0.000000,0.116486,0.027802,0.000000,0.008000,-0.116000,0.078000,29.940000,-1.850000,0.260000,31.970073,Hold,1.095947,2.000000,Hold,-127036.000000,126976.000000,LowGoal,1387.500000,-1454.545455,Speed,1395.000000,-1454.545455,Speed,Off,Off,0.000000,FALSE,13,Read: /home/lvuser/scripts/auto_13.bee,File good!,SET_HEADING 59 50,SET_HEADING
06:08:29.854 PM 03/25/2016,Autonomous Enabled,10,FALSE,0,NO ERROR,0.000000,-219.706153,0.000000,202.214360,TRUE,FALSE,TRUE,TRUE,FALSE,FALSE,Disabled,0.000000,0.000000,0.000000,TRUE,-0.041458,0.323013,0.000000,0.171829,0.060806,0.000000,0.198000,0.091000,-0.018000,30.710000,-1.710000,0.340000,32.678555,Hold,1.095947,2.000000,Hold,-127036.000000,126976.000000,LowGoal,1380.000000,-1454.545455,Speed,1387.500000,-1454.545455,Speed,Off,Off,0.000000,FALSE,13,Read: /home/lvuser/scripts/auto_13.bee,File good!,SET_HEADING 59 50,SET_HEADING
06:08:29.955 PM 03/25/2016,Autonomous Enabled,10,FALSE,0,NO ERROR,0.000000,-219.706153,0.000000,202.214360,TRUE,FALSE,TRUE,TRUE,FALSE,FALSE,Disabled,0.000000,0.000000,0.000000,TRUE,-0.034515,0.325668,0.000000,0.155365,0.058792,0.000000,0.102000,-0.004000,-0.001000,31.410000,-1.830000,0.390000,32.678555,Hold,1.095947,2.000000,Hold,-127036.000000,126976.000000,LowGoal,1380.000000,-1454.545455,Speed,1402.500000,-1454.545455,Speed,Off,Off,0.000000,FALSE,13,Read: /home/lvuser/scripts/auto_13.bee,File good!,SET_HEADING 59 50,SET_HEADING
06:08:30.057 PM 03/25/2016,Autonomous Enabled,10,FALSE,0,NO ERROR,0.000000,-219.860153,0.000000,202.066777,TRUE,FALSE,TRUE,TRUE,FALSE,FALSE,Disabled,0.000000,0.000000,0.000000,TRUE,-0.024796,0.329178,0.000000,0.136108,0.072662,0.000000,0.024000,-0.078000,-0.058000,31.960000,-1.780000,0.440000,33.248261,Hold,1.095947,2.000000,Hold,-127036.000000,126976.000000,LowGoal,1387.500000,-1454.545455,Speed,1395.000000,-1454.545455,Speed,Off,Off,0.000000,FALSE,13,Read: /home/lvuser/scripts/auto_13.bee,File good!,SET_HEADING 59 50,SET_HEADING
06:08:30.158 PM 03/25/2016,Autonomous Enabled,11,FALSE,0,NO ERROR,0.000000,-219.975652,0.000000,201.951278,TRUE,FALSE,TRUE,TRUE,FALSE,FALSE,Disabled,0.000000,0.000000,0.000000,TRUE,-0.015564,0.331619,0.000000,0.213791,0.000000,0.000000,0.038000,0.002000,0.042000,32.440000,-1.680000,0.390000,33.746863,Hold,1.095947,2.000000,Hold,-127036.000000,126976.000000,LowGoal,1395.000000,-1454.545455,Speed,1387.500000,-1454.545455,Speed,Off,Off,0.000000,FALSE,13,Read: /home/lvuser/scripts/auto_13.bee,File good!,SET_HEADING 59 50,SET_HEADING
06:08:30.259 PM 03/25/2016,Autonomous Enabled,9,FALSE,0,NO ERROR,0.000000,-220.039819,0.000000,201.855028,TRUE,FALSE,TRUE,TRUE,FALSE,FALSE,Disabled,0.000000,0.000000,0.000000,TRUE,-0.003372,0.330872,0.000000,0.281845,-0.019669,0.000000,-0.101000,0.000000,0.016000,32.790000,-1.550000,0.530000,34.085184,Hold,1.095947,2.000000,Hold,-127036.000000,126976.000000,LowGoal,1395.000000,-1454.545455,Speed,1380.000000,-1454.545455,Speed,Off,Off,0.000000,FALSE,13,Read: /home/lvuser/scripts/auto_13.bee,File good!,SET_HEADING 59 50,SET_HEADING
06:08:30.358 PM 03/25/2016,Autonomous Enabled,10,FALSE,0,NO ERROR,0.000000,-220.091152,0.000000,201.752362,TRUE,FALSE,TRUE,TRUE,FALSE,FALSE,Disabled,0.000000,0.000000,0.000000,TRUE,0.009018,0.331207,0.000000,0.270996,0.002060,0.000000,-0.013000,0.080000,-0.047000,33.110000,-1.460000,0.570000,34.350168,Hold,1.095947,2.000000,Hold,-127036.000000,126976.000000,LowGoal,1395.000000,-1454.545455,Speed,1387.500000,-1454.545455,Speed,Off,Off,0.000000,FALSE,13,Read: /home/lvuser/scripts/auto_13.bee,File good!,SET_HEADING 59 50,SET_HEADING
06:08:30.459 PM 03/25/2016,Autonomous Enabled,10,FALSE,0,NO ERROR,0.000000,-220.174568,0.000000,201.656112,TRUE,FALSE,TRUE,TRUE,FALSE,FALSE,Disabled,0.000000,0.000000,0.000000,TRUE,0.014481,0.332001,0.000000,-0.022018,0.023911,0.000000,-0.024000,-0.127000,0.013000,33.440000,-1.640000,0.610000,34.670684,Hold,1.095947,2.000000,Hold,-127036.000000,126976.000000,LowGoal,1395.000000,-1454.545455,Speed,1395.000000,-1454.545455,Speed,Off,Off,0.000000,FALSE,13,Read: /home/lvuser/scripts/auto_13.bee,File good!,SET_HEADING 59 50,SET_HEADING
06:08:30.559 PM 03/25/2016,Autonomous Enabled,11,FALSE,0,NO ERROR,0.000000,-220.270818,0.000000,201.585529,TRUE,FALSE,TRUE,TRUE,FALSE,FALSE,Disabled,0.000000,0.000000,0.000000,TRUE,0.012909,0.333130,0.000000,-0.033966,0.044891,0.000000,-0.001000,-0.008000,-0.017000,33.730000,-1.550000,0.630000,34.978342,Hold,1.095947,2.000000,Hold,-127036.000000,126976.000000,LowGoal,1395.000000,-1454.545455,Speed,1395.000000,-1454.545455,Speed,Off,Off,0.000000,FALSE,13,Read: /home/lvuser/scripts/auto_13.bee,File good!,SET_HEADING 59 50,SET_HEADING
06:08:30.659 PM 03/25/2016,Autonomous Enabled,11,FALSE,0,NO ERROR,0.000000,-220.418401,0.000000,201.547029,TRUE,FALSE,TRUE,TRUE,FALSE,FALSE,Disabled,0.000000,0.000000,0.000000,TRUE,0.014160,0.334488,0.000000,0.084381,0.001312,0.000000,0.061000,0.006000,-0.038000,34.090000,-1.310000,0.740000,35.426667,Hold,1.095947,2.000000,Hold,-127036.000000,126976.000000,LowGoal,1395.000000,-1454.545455,Speed,1387.500000,-1454.545455,Speed,Off,Off,0.000000,FALSE,13,Read: /home/lvuser/scripts/auto_13.bee,File good!,SET_HEADING 59 50,SET_HEADING
06:08:30.760 PM 03/25/2016,Autonomous Enabled,11,FALSE,0,NO ERROR,0.000000,-220.553151,0.000000,201.527779,TRUE,FALSE,TRUE,TRUE,FALSE,FALSE,Disabled,0.000000,0.000000,0.000000,TRUE,0.019241,0.334961,0.000000,0.115829,0.021683,0.000000,-0.054000,0.018000,-0.012000,34.390000,-1.210000,0.820000,35.749052,Hold,1.095947,2.000000,Hold,-127036.000000,126976.000000,LowGoal,1387.500000,-1454.545455,Speed,1402.500000,-1454.545455,Speed,Off,Off,0.000000,FALSE,13,Read: /home/lvuser/scripts/auto_13.bee,File good!,SET_HEADING 59 50,SET_HEADING
