Time,Robot Mode,Loop Time,Error Status,Error Code,Error Source,Left Motor Output,Left Motor Encoder,Right Motor Output,Right Motor Encoder,Is Level,Is Stalled,Ball Detector Photoeye,Vision Enabled,Vision Teleop Control,Vision Auto Control,Vision Current State,Vision X Output,Vision NavX Error,Vision NavX Target,NavX Connection Status,NavX Displacement X,NavX Displacement Y,NavX Displacement Z,NavX Velocity X,NavX Velocity Y,NavX Velocity Z,NavX Acceleration X,NavX Acceleration Y,NavX Acceleration Z,NavX Pitch,NavX Yaw,NavX Roll,Gyro Angle,Roller Arm State,Roller Arm Actual,Roller Arm Desired,Shooter Arm State,Shooter Arm Actual,Shooter Arm Desired,Shooter State,Actual RPM Left,Desired RPM Left,Control Mode Left,Actual RPM Right,Desired RPM Right,Control Mode Right,Ball Shooter Cylinder,Ball Halo Cylinder,Scaler Motor Output,Scaler Solenoid Fire,Auto To Run,Auto Current File,Auto File Status,Auto Current Command,Auto Trimmed Command
02:22:10.761 PM 03/25/2016,Autonomous Enabled,18,TRUE,-44003,<LOCATION>WPI_CameraIssue HTTP Request with Authentication.vi<CALLSTACK>WPI_CameraIssue HTTP Request with Authentication.vi< <WPI_CameraIssue Get.vi< <WPI_CameraSet Image Appearance Property.vi< <WPI_CameraSet Image Size.vi< <Vision Processing.vi< <Robot Main.vi,0.000000,0.000000,0.000000,0.000000,TRUE,FALSE,TRUE,TRUE,FALSE,FALSE,Disabled,0.000000,0.000000,0.000000,TRUE,0.000000,0.000122,0.000000,0.000000,0.000000,0.000000,0.001000,0.000000,0.011000,-2.310000,0.200000,1.560000,28.277764,ResetBack,0.000000,-0.000049,ResetBack,0.000000,-0.250000,LowGoal,0.000000,0.000000,Speed,0.000000,0.000000,Speed,Off,Off,0.000000,FALSE,13,,,,
02:22:10.862 PM 03/25/2016,Autonomous Enabled,11,TRUE,7,Read from Text File in DoesScriptNumberContainNull.vi->Disabled.vi->Robot Main.vi<APPEND> /home/lvuser/scripts/auto_11.bee,0.000000,0.000000,0.000000,0.000000,TRUE,FALSE,TRUE,TRUE,FALSE,FALSE,Disabled,0.000000,0.000000,0.000000,TRUE,0.000000,0.000122,0.000000,0.000000,0.000000,0.000000,0.001000,0.000000,0.008000,-2.310000,0.200000,1.560000,28.282663,ResetBack,-0.811279,-0.000049,ResetBack,0.000000,-0.250000,LowGoal,0.000000,-2181.818182,Speed,0.000000,-2181.818182,Speed,Off,Off,0.000000,FALSE,13,Read: /home/lvuser/scripts/auto_13.bee,File good!,WAIT 1500,WAIT
02:22:10.963 PM 03/25/2016,Autonomous Enabled,10,TRUE,7,Read from Text File in DoesScriptNumberContainNull.vi->Disabled.vi->Robot Main.vi<APPEND> /home/lvuser/scripts/auto_11.bee,0.000000,0.000000,0.000000,0.000000,TRUE,FALSE,TRUE,TRUE,FALSE,FALSE,Disabled,0.000000,0.000000,0.000000,TRUE,0.000000,0.000122,0.000000,0.000000,0.000000,0.000000,0.016000,-0.014000,-0.008000,-2.310000,0.200000,1.540000,28.295917,ResetBack,-2.046631,-0.000049,ResetBack,2503.000000,-0.250000,LowGoal,90.000000,-2181.818182,Speed,60.000000,-2181.818182,Speed,Off,Off,0.000000,FALSE,13,Read: /home/lvuser/scripts/auto_13.bee,File good!,WAIT 1500,WAIT
02:22:11.063 PM 03/25/2016,Autonomous Enabled,9,TRUE,7,Read from Text File in DoesScriptNumberContainNull.vi->Disabled.vi->Robot Main.vi<APPEND> /home/lvuser/scripts/auto_11.bee,0.000000,0.000000,0.000000,0.000000,TRUE,FALSE,TRUE,TRUE,FALSE,FALSE,Disabled,0.000000,0.000000,0.000000,TRUE,-0.000336,-0.000427,0.000000,-0.015244,-0.022003,0.000000,-0.037000,-0.046000,-0.034000,-2.310000,0.170000,1.580000,28.282257,ResetBack,-2.284912,-0.000049,ResetBack,5716.000000,-0.250000,LowGoal,735.000000,-2181.818182,Speed,705.000000,-2181.818182,Speed,Off,Off,0.000000,FALSE,13,Read: /home/lvuser/scripts/auto_13.bee,File good!,WAIT 1500,WAIT
02:22:11.166 PM 03/25/2016,Autonomous Enabled,9,TRUE,7,Read from Text File in DoesScriptNumberContainNull.vi->Disabled.vi->Robot Main.vi<APPEND> /home/lvuser/scripts/auto_11.bee,0.000000,0.000000,0.000000,0.000000,TRUE,FALSE,TRUE,TRUE,FALSE,FALSE,Disabled,0.000000,0.000000,0.000000,TRUE,0.000977,-0.005264,0.000000,-0.001724,-0.078705,0.000000,0.020000,0.008000,0.132000,-2.330000,0.220000,1.600000,28.310448,Reset,-2.340576,0.000000,ResetBack,10101.000000,-0.250000,LowGoal,1282.500000,-2181.818182,Speed,1372.500000,-2181.818182,Speed,Off,Off,0.000000,FALSE,13,Read: /home/lvuser/scripts/auto_13.bee,File good!,WAIT 1500,WAIT
02:22:11.266 PM 03/25/2016,Autonomous Enabled,9,TRUE,7,Read from Text File in DoesScriptNumberContainNull.vi->Disabled.vi->Robot Main.vi<APPEND> /home/lvuser/scripts/auto_11.bee,0.000000,0.000000,0.000000,0.000000,TRUE,FALSE,TRUE,TRUE,FALSE,FALSE,Disabled,0.000000,0.000000,0.000000,TRUE,0.000977,-0.005264,0.000000,-0.001724,-0.078705,0.000000,-0.013000,0.004000,0.107000,-2.300000,0.160000,1.610000,28.303697,Hold,0.283447,0.000000,ResetBack,10101.000000,-0.250000,LowGoal,1830.000000,-2181.818182,Speed,1905.000000,-2181.818182,Speed,Off,Off,0.000000,FALSE,13,Read: /home/lvuser/scripts/auto_13.bee,File good!,WAIT 1500,WAIT
02:22:11.367 PM 03/25/2016,Autonomous Enabled,9,TRUE,7,Read from Text File in DoesScriptNumberContainNull.vi->Disabled.vi->Robot Main.vi<APPEND> /home/lvuser/scripts/auto_11.bee,0.000000,0.000000,0.000000,0.000000,TRUE,FALSE,TRUE,TRUE,FALSE,FALSE,Disabled,0.000000,0.000000,0.000000,TRUE,0.000565,-0.009369,0.000000,-0.003540,-0.100037,0.000000,0.025000,-0.143000,0.117000,-2.320000,0.190000,1.610000,28.322094,Hold,0.283447,0.000000,ResetBack,14921.000000,-0.250000,LowGoal,2197.500000,-2181.818182,Speed,2235.000000,-2181.818182,Speed,Off,Off,0.000000,FALSE,13,Read: /home/lvuser/scripts/auto_13.bee,File good!,WAIT 1500,WAIT
02:22:11.468 PM 03/25/2016,Autonomous Enabled,11,TRUE,7,Read from Text File in DoesScriptNumberContainNull.vi->Disabled.vi->Robot Main.vi<APPEND> /home/lvuser/scripts/auto_11.bee,0.000000,0.000000,0.000000,0.000000,TRUE,FALSE,TRUE,TRUE,FALSE,FALSE,Disabled,0.000000,0.000000,0.000000,TRUE,0.000427,-0.016571,0.000000,-0.012878,-0.167969,0.000000,0.016000,-0.022000,0.030000,-2.310000,0.220000,1.590000,28.321740,Hold,0.283447,0.000000,ResetBack,21063.000000,-0.250000,LowGoal,2250.000000,-2181.818182,Speed,2220.000000,-2181.818182,Speed,Off,Off,0.000000,FALSE,13,Read: /home/lvuser/scripts/auto_13.bee,File good!,WAIT 1500,WAIT
02:22:11.569 PM 03/25/2016,Autonomous Enabled,11,TRUE,7,Read from Text File in DoesScriptNumberContainNull.vi->Disabled.vi->Robot Main.vi<APPEND> /home/lvuser/scripts/auto_11.bee,0.000000,0.000000,0.000000,0.000000,TRUE,FALSE,TRUE,TRUE,FALSE,FALSE,Disabled,0.000000,0.000000,0.000000,TRUE,-0.000381,-0.026199,0.000000,-0.032822,-0.156006,0.000000,-0.085000,0.030000,-0.183000,-2.320000,0.230000,1.560000,28.303022,Hold,0.283447,0.000000,ResetBack,27909.000000,-0.250000,LowGoal,2160.000000,-2181.818182,Speed,2122.500000,-2181.818182,Speed,Off,Off,0.000000,FALSE,13,Read: /home/lvuser/scripts/auto_13.bee,File good!,WAIT 1500,WAIT
02:22:11.669 PM 03/25/2016,Autonomous Enabled,8,TRUE,7,Read from Text File in DoesScriptNumberContainNull.vi->Disabled.vi->Robot Main.vi<APPEND> /home/lvuser/scripts/auto_11.bee,0.000000,0.000000,0.000000,0.000000,TRUE,FALSE,TRUE,TRUE,FALSE,FALSE,Disabled,0.000000,0.000000,0.000000,TRUE,-0.002762,-0.031250,0.000000,-0.064255,-0.084732,0.000000,0.022000,0.041000,-0.455000,-2.330000,0.100000,1.390000,28.306310,Hold,0.283447,0.000000,ResetBack,32306.000000,-0.250000,LowGoal,2100.000000,-2181.818182,Speed,2092.500000,-2181.818182,Speed,Off,Off,0.000000,FALSE,13,Read: /home/lvuser/scripts/auto_13.bee,File good!,WAIT 1500,WAIT
02:22:11.770 PM 03/25/2016,Autonomous Enabled,10,TRUE,7,Read from Text File in DoesScriptNumberContainNull.vi->Disabled.vi->Robot Main.vi<APPEND> /home/lvuser/scripts/auto_11.bee,0.000000,0.000000,0.000000,0.000000,TRUE,FALSE,TRUE,TRUE,FALSE,FALSE,Disabled,0.000000,0.000000,0.000000,TRUE,-0.007126,-0.032333,0.000000,-0.086807,0.023315,0.000000,0.035000,0.000000,-0.050000,-2.300000,0.130000,1.470000,28.293249,Hold,0.283447,0.000000,ResetBack,33569.000000,-0.250000,LowGoal,2115.000000,-2181.818182,Speed,2115.000000,-2181.818182,Speed,Off,Off,0.000000,FALSE,13,Read: /home/lvuser/scripts/auto_13.bee,File good!,WAIT 1500,WAIT
02:22:11.871 PM 03/25/2016,Autonomous Enabled,10,TRUE,7,Read from Text File in DoesScriptNumberContainNull.vi->Disabled.vi->Robot Main.vi<APPEND> /home/lvuser/scripts/auto_11.bee,0.000000,0.000000,0.000000,0.000000,TRUE,FALSE,TRUE,TRUE,FALSE,FALSE,Disabled,0.000000,0.000000,0.000000,TRUE,-0.011261,-0.032516,0.000000,-0.084732,-0.029297,0.000000,0.021000,-0.021000,0.068000,-2.320000,0.060000,1.380000,28.283775,Hold,0.283447,0.000000,ResetBack,35112.000000,-0.250000,LowGoal,2145.000000,-2181.818182,Speed,2145.000000,-2181.818182,Speed,Off,Off,0.000000,FALSE,13,Read: /home/lvuser/scripts/auto_13.bee,File good!,WAIT 1500,WAIT
02:22:11.974 PM 03/25/2016,Autonomous Enabled,8,TRUE,7,Read from Text File in DoesScriptNumberContainNull.vi->Disabled.vi->Robot Main.vi<APPEND> /home/lvuser/scripts/auto_11.bee,0.000000,0.000000,0.000000,0.000000,TRUE,FALSE,TRUE,TRUE,FALSE,FALSE,Disabled,0.000000,0.000000,0.000000,TRUE,-0.014755,-0.036896,0.000000,-0.057831,-0.141342,0.000000,-0.028000,-0.245000,0.083000,-2.330000,0.090000,1.520000,28.298162,Hold,0.283447,0.000000,ResetBack,35112.000000,-0.250000,LowGoal,2160.000000,-2181.818182,Speed,2145.000000,-2181.818182,Speed,Off,Off,0.000000,FALSE,13,Read: /home/lvuser/scripts/auto_13.bee,File good!,WAIT 1500,WAIT
02:22:12.074 PM 03/25/2016,Autonomous Enabled,11,TRUE,7,Read from Text File in DoesScriptNumberContainNull.vi->Disabled.vi->Robot Main.vi<APPEND> /home/lvuser/scripts/auto_11.bee,0.000000,0.000000,0.000000,0.000000,TRUE,FALSE,TRUE,TRUE,FALSE,FALSE,Disabled,0.000000,0.000000,0.000000,TRUE,-0.017166,-0.050064,0.000000,-0.036560,-0.352509,0.000000,0.137000,-0.199000,0.105000,-2.330000,0.060000,1.620000,28.298162,Hold,0.283447,0.000000,Reset,35487.000000,2.000000,LowGoal,2152.500000,-2181.818182,Speed,2137.500000,-2181.818182,Speed,Off,Off,0.000000,FALSE,13,Read: /home/lvuser/scripts/auto_13.bee,File good!,WAIT 1500,WAIT
02:22:12.174 PM 03/25/2016,Autonomous Enabled,7,TRUE,7,Read from Text File in DoesScriptNumberContainNull.vi->Disabled.vi->Robot Main.vi<APPEND> /home/lvuser/scripts/auto_11.bee,0.000000,0.000000,0.000000,0.000000,TRUE,FALSE,TRUE,TRUE,FALSE,FALSE,Disabled,0.000000,0.000000,0.000000,TRUE,-0.015945,-0.074219,0.000000,0.052597,-0.554108,0.000000,0.009000,-0.126000,0.205000,-2.330000,0.180000,1.550000,28.301525,Hold,0.283447,0.000000,Hold,-258.000000,2.000000,LowGoal,2137.500000,-2181.818182,Speed,2130.000000,-2181.818182,Speed,Off,Off,0.000000,FALSE,13,Read: /home/lvuser/scripts/auto_13.bee,File good!,WAIT 1500,WAIT
02:22:12.279 PM 03/25/2016,Autonomous Enabled,9,TRUE,7,Read from Text File in DoesScriptNumberContainNull.vi->Disabled.vi->Robot Main.vi<APPEND> /home/lvuser/scripts/auto_11.bee,0.000000,0.000000,0.000000,0.000000,TRUE,FALSE,TRUE,TRUE,FALSE,FALSE,Disabled,0.000000,0.000000,0.000000,TRUE,-0.014984,-0.106262,0.000000,0.028931,-0.712326,0.000000,0.091000,-0.042000,0.294000,-2.330000,0.160000,1.720000,28.307732,Hold,0.283447,0.000000,Hold,-187.000000,2.000000,LowGoal,2145.000000,-2181.818182,Speed,2122.500000,-2181.818182,Speed,Off,Off,0.000000,FALSE,13,Read: /home/lvuser/scripts/auto_13.bee,File good!,WAIT 1500,WAIT
02:22:12.380 PM 03/25/2016,Autonomous Enabled,9,TRUE,7,Read from Text File in DoesScriptNumberContainNull.vi->Disabled.vi->Robot Main.vi<APPEND> /home/lvuser/scripts/auto_11.bee,0.000000,0.000000,0.000000,0.000000,TRUE,FALSE,TRUE,TRUE,FALSE,FALSE,Disabled,0.000000,0.000000,0.000000,TRUE,-0.014023,-0.144440,0.000000,-0.002258,-0.799515,0.000000,-0.029000,-0.061000,0.179000,-2.330000,0.140000,1.600000,28.304017,Hold,0.283447,0.000000,Hold,-187.000000,2.000000,LowGoal,2167.500000,-2181.818182,Speed,2115.000000,-2181.818182,Speed,Off,Off,0.000000,FALSE,13,Read: /home/lvuser/scripts/auto_13.bee,File good!,NAVX_ZERO_YAW,NAVX_ZERO_YAW
02:22:12.481 PM 03/25/2016,Autonomous Enabled,10,TRUE,7,Read from Text File in DoesScriptNumberContainNull.vi->Disabled.vi->Robot Main.vi<APPEND> /home/lvuser/scripts/auto_11.bee,0.000000,0.000000,0.000000,0.000000,TRUE,FALSE,TRUE,TRUE,FALSE,FALSE,Disabled,0.000000,0.000000,0.000000,TRUE,-0.013779,-0.183929,0.000000,0.010941,-0.744766,0.000000,0.000000,0.212000,0.136000,0.000000,0.170000,1.480000,0.016022,Hold,0.283447,58.000000,Hold,-187.000000,151552.000000,LowGoal,2160.000000,-2181.818182,Speed,2122.500000,-2181.818182,Speed,Off,Off,0.000000,FALSE,13,Read: /home/lvuser/scripts/auto_13.bee,File good!,WAIT 750,WAIT
02:22:12.582 PM 03/25/2016,Autonomous Enabled,11,TRUE,7,Read from Text File in DoesScriptNumberContainNull.vi->Disabled.vi->Robot Main.vi<APPEND> /home/lvuser/scripts/auto_11.bee,0.000000,0.000000,0.000000,0.000000,TRUE,FALSE,TRUE,TRUE,FALSE,FALSE,Disabled,0.000000,0.000000,0.000000,TRUE,-0.012802,-0.215225,0.000000,0.026291,-0.542450,0.000000,-0.122000,0.288000,-0.065000,0.000000,0.230000,1.400000,0.027871,Hold,3.339111,58.000000,Hold,-7207.000000,151552.000000,LowGoal,2145.000000,-2181.818182,Speed,2130.000000,-2181.818182,Speed,Off,Off,0.000000,FALSE,13,Read: /home/lvuser/scripts/auto_13.bee,File good!,WAIT 750,WAIT
02:22:12.683 PM 03/25/2016,Autonomous Enabled,9,TRUE,7,Read from Text File in DoesScriptNumberContainNull.vi->Disabled.vi->Robot Main.vi<APPEND> /home/lvuser/scripts/auto_11.bee,0.000000,0.000000,0.000000,0.000000,TRUE,FALSE,TRUE,TRUE,FALSE,FALSE,Disabled,0.000000,0.000000,0.000000,TRUE,-0.015228,-0.233459,0.000000,-0.093689,-0.256119,0.000000,0.023000,0.172000,-0.288000,-0.010000,0.260000,1.580000,0.037138,Hold,6.888428,58.000000,Hold,-7207.000000,151552.000000,LowGoal,2145.000000,-2181.818182,Speed,2122.500000,-2181.818182,Speed,Off,Off,0.000000,FALSE,13,Read: /home/lvuser/scripts/auto_13.bee,File good!,WAIT 750,WAIT
02:22:12.787 PM 03/25/2016,Autonomous Enabled,10,TRUE,7,Read from Text File in DoesScriptNumberContainNull.vi->Disabled.vi->Robot Main.vi<APPEND> /home/lvuser/scripts/auto_12.bee,0.000000,0.000000,0.000000,0.000000,TRUE,FALSE,TRUE,TRUE,FALSE,FALSE,Disabled,0.000000,0.000000,0.000000,TRUE,-0.018600,-0.244980,0.000000,-0.023392,-0.224380,0.000000,-0.013000,-0.173000,0.067000,-0.030000,0.300000,1.590000,0.015956,Hold,10.212891,58.000000,Hold,-19050.000000,151552.000000,LowGoal,2145.000000,-2181.818182,Speed,2122.500000,-2181.818182,Speed,Off,Off,0.000000,FALSE,13,Read: /home/lvuser/scripts/auto_13.bee,File good!,WAIT 750,WAIT
02:22:12.887 PM 03/25/2016,Autonomous Enabled,9,TRUE,7,Read from Text File in DoesScriptNumberContainNull.vi->Disabled.vi->Robot Main.vi<APPEND> /home/lvuser/scripts/auto_12.bee,0.000000,0.000000,0.000000,0.000000,TRUE,FALSE,TRUE,TRUE,FALSE,FALSE,Disabled,0.000000,0.000000,0.000000,TRUE,-0.019623,-0.263550,0.000000,-0.005203,-0.385406,0.000000,0.043000,-0.120000,0.073000,-0.010000,0.240000,1.510000,0.042189,Hold,15.066406,58.000000,Hold,-30556.000000,151552.000000,LowGoal,2152.500000,-2181.818182,Speed,2130.000000,-2181.818182,Speed,Off,Off,0.000000,FALSE,13,Read: /home/lvuser/scripts/auto_13.bee,File good!,WAIT 750,WAIT
02:22:12.989 PM 03/25/2016,Autonomous Enabled,11,TRUE,7,Read from Text File in DoesScriptNumberContainNull.vi->Disabled.vi->Robot Main.vi<APPEND> /home/lvuser/scripts/auto_12.bee,0.000000,0.000000,0.000000,0.000000,TRUE,FALSE,TRUE,TRUE,FALSE,FALSE,Disabled,0.000000,0.000000,0.000000,TRUE,-0.019821,-0.281235,0.000000,-0.006439,-0.472443,0.000000,0.012000,-0.035000,0.126000,-0.020000,0.180000,1.590000,0.027647,Hold,20.656738,58.000000,Hold,-40265.000000,151552.000000,LowGoal,2145.000000,-2181.818182,Speed,2130.000000,-2181.818182,Speed,Off,Off,0.000000,FALSE,13,Read: /home/lvuser/scripts/auto_13.bee,File good!,WAIT 750,WAIT
02:22:13.089 PM 03/25/2016,Autonomous Enabled,11,TRUE,7,Read from Text File in DoesScriptNumberContainNull.vi->Disabled.vi->Robot Main.vi<APPEND> /home/lvuser/scripts/auto_12.bee,0.000000,0.000000,0.000000,0.000000,TRUE,FALSE,TRUE,TRUE,FALSE,FALSE,Disabled,0.000000,0.000000,0.000000,TRUE,-0.020935,-0.306229,0.000000,-0.042694,-0.528214,0.000000,-0.049000,-0.110000,0.020000,-0.010000,0.190000,1.630000,0.044096,Hold,27.286133,58.000000,Hold,-52082.000000,151552.000000,LowGoal,2115.000000,-2181.818182,Speed,2130.000000,-2181.818182,Speed,Off,Off,0.000000,FALSE,13,Read: /home/lvuser/scripts/auto_13.bee,File good!,WAIT 750,WAIT
02:22:13.189 PM 03/25/2016,Autonomous Enabled,11,TRUE,7,Read from Text File in DoesScriptNumberContainNull.vi->Disabled.vi->Robot Main.vi<APPEND> /home/lvuser/scripts/auto_12.bee,0.000000,0.000000,0.000000,0.000000,TRUE,FALSE,TRUE,TRUE,FALSE,FALSE,Disabled,0.000000,0.000000,0.000000,TRUE,-0.021927,-0.341278,0.000000,0.003204,-0.596436,0.000000,-0.066000,0.094000,0.314000,-0.020000,0.120000,1.500000,0.050210,Hold,34.864258,58.000000,Hold,-65007.000000,151552.000000,LowGoal,2115.000000,-2181.818182,Speed,2130.000000,-2181.818182,Speed,Off,Off,0.000000,FALSE,13,Read: /home/lvuser/scripts/auto_13.bee,File good!,DRIVE_STRAIGHT_TARGET 206 1000 10000 75,DRIVE_STRAIGHT_TARGET
02:22:13.290 PM 03/25/2016,Autonomous Enabled,11,TRUE,7,Read from Text File in DoesScriptNumberContainNull.vi->Disabled.vi->Robot Main.vi<APPEND> /home/lvuser/scripts/auto_12.bee,0.000000,0.000000,0.000000,0.000000,TRUE,FALSE,TRUE,TRUE,FALSE,FALSE,Disabled,0.000000,0.000000,0.000000,TRUE,-0.022385,-0.370148,0.000000,0.010071,-0.578720,0.000000,0.078000,-0.031000,0.002000,-0.040000,0.100000,1.620000,0.030962,Hold,44.103516,58.000000,Hold,-82383.000000,151552.000000,LowGoal,2115.000000,-2181.818182,Speed,2122.500000,-2181.818182,Speed,Off,Off,0.000000,FALSE,13,Read: /home/lvuser/scripts/auto_13.bee,File good!,DRIVE_STRAIGHT_TARGET 206 1000 10000 75,DRIVE_STRAIGHT_TARGET
02:22:13.391 PM 03/25/2016,Autonomous Enabled,11,TRUE,7,Read from Text File in DoesScriptNumberContainNull.vi->Disabled.vi->Robot Main.vi<APPEND> /home/lvuser/scripts/auto_12.bee,0.000000,-1.161414,0.000000,1.302580,TRUE,FALSE,TRUE,TRUE,FALSE,FALSE,Disabled,0.000000,0.000000,0.000000,TRUE,-0.019547,-0.398483,0.000000,0.188187,-0.536743,0.000000,1.647000,0.043000,-0.711000,0.000000,0.970000,1.390000,0.143107,Hold,54.835205,58.000000,Hold,-82383.000000,151552.000000,LowGoal,2100.000000,-2181.818182,Speed,2107.500000,-2181.818182,Speed,Off,Off,0.000000,FALSE,13,Read: /home/lvuser/scripts/auto_13.bee,File good!,DRIVE_STRAIGHT_TARGET 206 1000 10000 75,DRIVE_STRAIGHT_TARGET
02:22:13.492 PM 03/25/2016,Autonomous Enabled,10,TRUE,7,Read from Text File in DoesScriptNumberContainNull.vi->Disabled.vi->Robot Main.vi<APPEND> /home/lvuser/scripts/auto_12.bee,0.000000,-4.074574,0.000000,4.151574,FALSE,FALSE,TRUE,TRUE,FALSE,FALSE,Disabled,0.000000,0.000000,0.000000,TRUE,0.006485,-0.421448,0.000000,0.642029,-0.418442,0.000000,0.178000,0.106000,-0.100000,-0.020000,4.140000,1.290000,0.127130,Hold,61.061523,58.000000,Hold,-97364.000000,151552.000000,LowGoal,2085.000000,-2181.818182,Speed,2085.000000,-2181.818182,Speed,Off,Off,0.000000,FALSE,13,Read: /home/lvuser/scripts/auto_13.bee,File good!,DRIVE_STRAIGHT_TARGET 206 1000 10000 75,DRIVE_STRAIGHT_TARGET
02:22:13.593 PM 03/25/2016,Autonomous Enabled,9,TRUE,7,Read from Text File in DoesScriptNumberContainNull.vi->Disabled.vi->Robot Main.vi<APPEND> /home/lvuser/scripts/auto_12.bee,0.000000,-7.744899,0.000000,7.898898,FALSE,FALSE,TRUE,TRUE,FALSE,FALSE,Disabled,0.000000,0.000000,0.000000,TRUE,0.042892,-0.442108,0.000000,0.766602,-0.449615,0.000000,-0.145000,-0.158000,-0.220000,-0.180000,3.210000,1.370000,0.002727,Hold,61.061523,58.000000,Hold,-110096.000000,151552.000000,LowGoal,2100.000000,-2181.818182,Speed,2107.500000,-2181.818182,Speed,Off,Off,0.000000,FALSE,13,Read: /home/lvuser/scripts/auto_13.bee,File good!,DRIVE_STRAIGHT_TARGET 206 1000 10000 75,DRIVE_STRAIGHT_TARGET
02:22:13.695 PM 03/25/2016,Autonomous Enabled,11,TRUE,7,Read from Text File in DoesScriptNumberContainNull.vi->Disabled.vi->Robot Main.vi<APPEND> /home/lvuser/scripts/auto_12.bee,0.000000,-11.922139,0.000000,12.140305,TRUE,FALSE,TRUE,TRUE,FALSE,FALSE,Disabled,0.000000,0.000000,0.000000,TRUE,0.081970,-0.452011,0.000000,0.786118,-0.016815,0.000000,-0.062000,0.101000,-0.115000,-0.180000,2.980000,1.410000,0.017598,Hold,62.221924,58.000000,Hold,-124304.000000,151552.000000,LowGoal,2115.000000,-2181.818182,Speed,2130.000000,-2181.818182,Speed,Off,Off,0.000000,FALSE,13,Read: /home/lvuser/scripts/auto_13.bee,File good!,DRIVE_STRAIGHT_TARGET 206 1000 10000 75,DRIVE_STRAIGHT_TARGET
02:22:13.796 PM 03/25/2016,Autonomous Enabled,10,TRUE,7,Read from Text File in DoesScriptNumberContainNull.vi->Disabled.vi->Robot Main.vi<APPEND> /home/lvuser/scripts/auto_12.bee,0.000000,-16.349628,0.000000,16.561378,FALSE,FALSE,TRUE,TRUE,FALSE,FALSE,Disabled,0.000000,0.000000,0.000000,TRUE,0.117188,-0.454132,0.000000,0.611557,-0.053497,0.000000,-0.078000,0.019000,0.524000,-0.260000,3.960000,1.430000,-0.095042,Hold,61.806396,58.000000,Hold,-136641.000000,151552.000000,LowGoal,2122.500000,-2181.818182,Speed,2137.500000,-2181.818182,Speed,Off,Off,0.000000,FALSE,13,Read: /home/lvuser/scripts/auto_13.bee,File good!,DRIVE_STRAIGHT_TARGET 206 1000 10000 75,DRIVE_STRAIGHT_TARGET
02:22:13.896 PM 03/25/2016,Autonomous Enabled,10,TRUE,7,Read from Text File in DoesScriptNumberContainNull.vi->Disabled.vi->Robot Main.vi<APPEND> /home/lvuser/scripts/auto_12.bee,0.000000,-20.712952,0.000000,20.937534,FALSE,FALSE,TRUE,TRUE,FALSE,FALSE,Disabled,0.000000,0.000000,0.000000,TRUE,0.147034,-0.457047,0.000000,0.602081,-0.062393,0.000000,-0.169000,0.004000,0.011000,-0.400000,3.550000,1.500000,-0.218513,Hold,61.431396,58.000000,Hold,-136641.000000,151552.000000,LowGoal,2100.000000,-2181.818182,Speed,2107.500000,-2181.818182,Speed,Off,Off,0.000000,FALSE,13,Read: /home/lvuser/scripts/auto_13.bee,File good!,DRIVE_STRAIGHT_TARGET 206 1000 10000 75,DRIVE_STRAIGHT_TARGET
02:22:13.997 PM 03/25/2016,Autonomous Enabled,9,TRUE,7,Read from Text File in DoesScriptNumberContainNull.vi->Disabled.vi->Robot Main.vi<APPEND> /home/lvuser/scripts/auto_12.bee,0.000000,-25.108358,0.000000,25.300858,FALSE,FALSE,TRUE,TRUE,FALSE,FALSE,Disabled,0.000000,0.000000,0.000000,TRUE,0.173264,-0.457748,0.000000,0.479950,0.034210,0.000000,-0.150000,0.264000,-0.193000,-0.360000,3.500000,1.860000,-0.174386,Hold,61.466309,58.000000,Hold,-149044.000000,151552.000000,LowGoal,2010.000000,-2181.818182,Speed,2107.500000,-2181.818182,Speed,Off,Off,0.000000,FALSE,13,Read: /home/lvuser/scripts/auto_13.bee,File good!,DRIVE_STRAIGHT_TARGET 206 1000 10000 75,DRIVE_STRAIGHT_TARGET
02:22:14.097 PM 03/25/2016,Autonomous Enabled,10,TRUE,7,Read from Text File in DoesScriptNumberContainNull.vi->Disabled.vi->Robot Main.vi<APPEND> /home/lvuser/scripts/auto_12.bee,0.000000,-29.811764,0.000000,29.927263,FALSE,FALSE,TRUE,TRUE,FALSE,FALSE,Disabled,0.000000,0.000000,0.000000,TRUE,0.197617,-0.450897,0.000000,0.350937,0.114777,0.000000,-0.225000,0.048000,0.118000,-0.300000,3.220000,1.940000,-0.105738,Hold,61.450928,58.000000,Hold,-151940.000000,151552.000000,LowGoal,2010.000000,-2181.818182,Speed,2085.000000,-2181.818182,Speed,Off,Off,0.000000,FALSE,13,Read: /home/lvuser/scripts/auto_13.bee,File good!,DRIVE_STRAIGHT_TARGET 206 1000 10000 75,DRIVE_STRAIGHT_TARGET
02:22:14.198 PM 03/25/2016,Autonomous Enabled,8,TRUE,7,Read from Text File in DoesScriptNumberContainNull.vi->Disabled.vi->Robot Main.vi<APPEND> /home/lvuser/scripts/auto_12.bee,0.000000,-34.264920,0.000000,34.515169,FALSE,FALSE,TRUE,TRUE,FALSE,FALSE,Disabled,0.000000,0.000000,0.000000,TRUE,0.213943,-0.445770,0.000000,0.338806,0.078049,0.000000,-0.046000,-0.029000,0.205000,-0.300000,3.130000,1.760000,-0.120011,Hold,61.450928,58.000000,Hold,-151940.000000,151552.000000,LowGoal,2092.500000,-2181.818182,Speed,2130.000000,-2181.818182,Speed,Off,Off,0.000000,FALSE,13,Read: /home/lvuser/scripts/auto_13.bee,File good!,DRIVE_STRAIGHT_TARGET 206 1000 10000 75,DRIVE_STRAIGHT_TARGET
02:22:14.299 PM 03/25/2016,Autonomous Enabled,9,TRUE,7,Read from Text File in DoesScriptNumberContainNull.vi->Disabled.vi->Robot Main.vi<APPEND> /home/lvuser/scripts/auto_12.bee,0.000000,-38.711659,0.000000,38.949076,TRUE,FALSE,TRUE,TRUE,FALSE,FALSE,Disabled,0.000000,0.000000,0.000000,TRUE,0.229080,-0.443146,0.000000,0.263412,0.034119,0.000000,0.006000,-0.150000,-0.196000,-0.310000,2.500000,1.640000,-0.140866,Hold,61.450928,58.000000,Hold,-151543.000000,151552.000000,LowGoal,2137.500000,-2181.818182,Speed,2152.500000,-2181.818182,Speed,Off,Off,0.000000,FALSE,13,Read: /home/lvuser/scripts/auto_13.bee,File good!,DRIVE_STRAIGHT_TARGET 206 1000 10000 75,DRIVE_STRAIGHT_TARGET
02:22:14.400 PM 03/25/2016,Autonomous Enabled,8,TRUE,7,Read from Text File in DoesScriptNumberContainNull.vi->Disabled.vi->Robot Main.vi<APPEND> /home/lvuser/scripts/auto_12.bee,0.000000,-43.190482,0.000000,43.357315,TRUE,FALSE,TRUE,TRUE,FALSE,FALSE,Disabled,0.000000,0.000000,0.000000,TRUE,0.243576,-0.443405,0.000000,0.309875,0.000000,0.000000,0.075000,0.022000,0.005000,-0.370000,2.730000,1.480000,-0.191985,Hold,61.450928,58.000000,Hold,-151383.000000,151552.000000,LowGoal,2122.500000,-2181.818182,Speed,2130.000000,-2181.818182,Speed,Off,Off,0.000000,FALSE,13,Read: /home/lvuser/scripts/auto_13.bee,File good!,DRIVE_STRAIGHT_TARGET 206 1000 10000 75,DRIVE_STRAIGHT_TARGET
02:22:14.500 PM 03/25/2016,Autonomous Enabled,9,TRUE,7,Read from Text File in DoesScriptNumberContainNull.vi->Disabled.vi->Robot Main.vi<APPEND> /home/lvuser/scripts/auto_12.bee,0.000000,-47.528139,0.000000,47.656472,FALSE,FALSE,TRUE,TRUE,FALSE,FALSE,Disabled,0.000000,0.000000,0.000000,TRUE,0.257355,-0.443253,0.000000,0.235352,0.011932,0.000000,0.043000,-0.002000,0.230000,-0.190000,3.010000,1.520000,-0.020046,Hold,61.441650,58.000000,Hold,-151587.000000,151552.000000,LowGoal,2107.500000,-2181.818182,Speed,2115.000000,-2181.818182,Speed,Off,Off,0.000000,FALSE,13,Read: /home/lvuser/scripts/auto_13.bee,File good!,DRIVE_STRAIGHT_TARGET 206 1000 10000 75,DRIVE_STRAIGHT_TARGET
02:22:14.600 PM 03/25/2016,Autonomous Enabled,10,TRUE,7,Read from Text File in DoesScriptNumberContainNull.vi->Disabled.vi->Robot Main.vi<APPEND> /home/lvuser/scripts/auto_12.bee,0.000000,-51.782379,0.000000,51.891462,FALSE,FALSE,TRUE,TRUE,FALSE,FALSE,Disabled,0.000000,0.000000,0.000000,TRUE,0.269836,-0.443405,0.000000,0.249832,-0.018234,0.000000,-0.090000,0.000000,0.122000,-0.040000,5.090000,1.400000,0.069646,Hold,61.426270,58.000000,Hold,-151578.000000,151552.000000,LowGoal,2115.000000,-2181.818182,Speed,2122.500000,-2181.818182,Speed,Off,Off,0.000000,FALSE,13,Read: /home/lvuser/scripts/auto_13.bee,File good!,DRIVE_STRAIGHT_TARGET 206 1000 10000 75,DRIVE_STRAIGHT_TARGET
02:22:14.701 PM 03/25/2016,Autonomous Enabled,9,TRUE,7,Read from Text File in DoesScriptNumberContainNull.vi->Disabled.vi->Robot Main.vi<APPEND> /home/lvuser/scripts/auto_12.bee,0.000000,-55.978869,0.000000,56.100785,FALSE,FALSE,TRUE,TRUE,FALSE,FALSE,Disabled,0.000000,0.000000,0.000000,TRUE,0.278976,-0.444611,0.000000,0.115631,-0.017899,0.000000,-0.239000,-0.005000,-0.306000,0.040000,6.420000,1.130000,0.126252,Hold,61.495117,58.000000,Hold,-151578.000000,151552.000000,LowGoal,2145.000000,-2181.818182,Speed,2122.500000,-2181.818182,Speed,Off,Off,0.000000,FALSE,13,Read: /home/lvuser/scripts/auto_13.bee,File good!,DRIVE_STRAIGHT_TARGET 206 1000 10000 75,DRIVE_STRAIGHT_TARGET
02:22:14.803 PM 03/25/2016,Autonomous Enabled,9,TRUE,7,Read from Text File in DoesScriptNumberContainNull.vi->Disabled.vi->Robot Main.vi<APPEND> /home/lvuser/scripts/auto_12.bee,0.000000,-60.079110,0.000000,60.188193,FALSE,FALSE,TRUE,TRUE,FALSE,FALSE,Disabled,0.000000,0.000000,0.000000,TRUE,0.281967,-0.442978,0.000000,0.034882,0.077972,0.000000,0.003000,0.133000,-0.023000,0.080000,8.850000,1.030000,0.137365,Hold,61.528076,58.000000,Hold,-151578.000000,151552.000000,LowGoal,2130.000000,-2181.818182,Speed,2122.500000,-2181.818182,Speed,Off,Off,0.000000,FALSE,13,Read: /home/lvuser/scripts/auto_13.bee,File good!,DRIVE_STRAIGHT_TARGET 206 1000 10000 75,DRIVE_STRAIGHT_TARGET
02:22:14.903 PM 03/25/2016,Autonomous Enabled,10,FALSE,0,NO ERROR,0.000000,-63.999684,0.000000,64.121600,FALSE,FALSE,TRUE,TRUE,FALSE,FALSE,Disabled,0.000000,0.000000,0.000000,TRUE,0.284698,-0.437317,0.000000,0.074173,0.115692,0.000000,-0.240000,0.060000,0.235000,0.080000,9.440000,1.040000,0.145999,Hold,61.501953,58.000000,Hold,-151594.000000,151552.000000,LowGoal,2115.000000,-2181.818182,Speed,2130.000000,-2181.818182,Speed,Off,Off,0.000000,FALSE,13,Read: /home/lvuser/scripts/auto_13.bee,File good!,DRIVE_STRAIGHT_TARGET 206 1000 10000 75,DRIVE_STRAIGHT_TARGET
02:22:15.002 PM 03/25/2016,Autonomous Enabled,9,FALSE,0,NO ERROR,0.000000,-67.939508,0.000000,67.984424,FALSE,FALSE,TRUE,TRUE,FALSE,FALSE,Disabled,0.000000,0.000000,0.000000,TRUE,0.285187,-0.431259,0.000000,0.001678,0.115097,0.000000,0.050000,-0.058000,0.315000,0.260000,8.450000,1.010000,0.309452,Hold,61.507080,58.000000,Hold,-151625.000000,151552.000000,LowGoal,2130.000000,-2181.818182,Speed,2137.500000,-2181.818182,Speed,Off,Off,0.000000,FALSE,13,Read: /home/lvuser/scripts/auto_13.bee,File good!,DRIVE_STRAIGHT_TARGET 206 1000 10000 75,DRIVE_STRAIGHT_TARGET
02:22:15.102 PM 03/25/2016,Autonomous Enabled,9,FALSE,0,NO ERROR,0.000000,-71.635499,0.000000,71.750999,FALSE,FALSE,TRUE,TRUE,FALSE,FALSE,Disabled,0.000000,0.000000,0.000000,TRUE,0.283081,-0.428238,0.000000,-0.056564,0.011108,0.000000,0.260000,-0.009000,-0.182000,0.240000,6.400000,0.720000,0.269143,Hold,61.507080,58.000000,Hold,-151627.000000,151552.000000,LowGoal,2115.000000,-2181.818182,Speed,2130.000000,-2181.818182,Speed,Off,Off,0.000000,FALSE,13,Read: /home/lvuser/scripts/auto_13.bee,File good!,DRIVE_STRAIGHT_TARGET 206 1000 10000 75,DRIVE_STRAIGHT_TARGET
02:22:15.202 PM 03/25/2016,Autonomous Enabled,9,FALSE,0,NO ERROR,0.000000,-75.389240,0.000000,75.754990,FALSE,FALSE,TRUE,TRUE,FALSE,FALSE,Disabled,0.000000,0.000000,0.000000,TRUE,0.286957,-0.427582,0.000000,0.141418,0.035278,0.000000,0.130000,0.062000,0.226000,-0.210000,5.380000,1.000000,-0.046605,Hold,61.507080,58.000000,Hold,-151644.000000,151552.000000,LowGoal,2100.000000,-2181.818182,Speed,2130.000000,-2181.818182,Speed,Off,Off,0.000000,FALSE,13,Read: /home/lvuser/scripts/auto_13.bee,File good!,DRIVE_STRAIGHT_TARGET 206 1000 10000 75,DRIVE_STRAIGHT_TARGET
02:22:15.303 PM 03/25/2016,Autonomous Enabled,11,FALSE,0,NO ERROR,0.000000,-79.637064,0.000000,80.022063,FALSE,FALSE,TRUE,TRUE,FALSE,FALSE,Disabled,0.000000,0.000000,0.000000,TRUE,0.296417,-0.423355,0.000000,0.206757,0.101685,0.000000,-0.080000,-0.016000,-0.176000,-0.520000,4.240000,1.120000,-0.408501,Hold,61.568848,58.000000,Hold,-151647.000000,151552.000000,LowGoal,2100.000000,-2181.818182,Speed,2122.500000,-2181.818182,Speed,Off,Off,0.000000,FALSE,13,Read: /home/lvuser/scripts/auto_13.bee,File good!,DRIVE_STRAIGHT_TARGET 206 1000 10000 75,DRIVE_STRAIGHT_TARGET
02:22:15.404 PM 03/25/2016,Autonomous Enabled,10,FALSE,0,NO ERROR,0.000000,-83.795054,0.000000,84.244220,TRUE,FALSE,TRUE,TRUE,FALSE,FALSE,Disabled,0.000000,0.000000,0.000000,TRUE,0.306213,-0.424240,0.000000,0.194550,-0.062912,0.000000,0.088000,-0.015000,0.072000,-0.620000,0.610000,1.320000,-0.485714,Hold,61.321289,58.000000,Hold,-151647.000000,151552.000000,LowGoal,2137.500000,-2181.818182,Speed,2115.000000,-2181.818182,Speed,Off,Off,0.000000,FALSE,13,Read: /home/lvuser/scripts/auto_13.bee,File good!,DRIVE_STRAIGHT_TARGET 206 1000 10000 75,DRIVE_STRAIGHT_TARGET
02:22:15.504 PM 03/25/2016,Autonomous Enabled,9,FALSE,0,NO ERROR,0.000000,-88.395793,0.000000,88.710209,TRUE,FALSE,TRUE,TRUE,FALSE,FALSE,Disabled,0.000000,0.000000,0.000000,TRUE,0.316284,-0.427704,0.000000,0.200470,-0.051636,0.000000,-0.026000,-0.002000,-0.009000,-0.610000,-1.070000,1.480000,-0.430454,Hold,61.605713,58.000000,Hold,-151647.000000,151552.000000,LowGoal,2152.500000,-2181.818182,Speed,2115.000000,-2181.818182,Speed,Off,Off,0.000000,FALSE,13,Read: /home/lvuser/scripts/auto_13.bee,File good!,DRIVE_STRAIGHT_TARGET 206 1000 10000 75,DRIVE_STRAIGHT_TARGET
02:22:15.605 PM 03/25/2016,Autonomous Enabled,10,FALSE,0,NO ERROR,0.000000,-92.887449,0.000000,93.208282,FALSE,FALSE,TRUE,TRUE,FALSE,FALSE,Disabled,0.000000,0.000000,0.000000,TRUE,0.326065,-0.428146,0.000000,0.201706,-0.032028,0.000000,-0.017000,-0.030000,-0.175000,-0.420000,-3.000000,1.360000,-0.203373,Hold,61.481934,58.000000,Hold,-151697.000000,151552.000000,LowGoal,2145.000000,-2181.818182,Speed,2122.500000,-2181.818182,Speed,Off,Off,0.000000,FALSE,13,Read: /home/lvuser/scripts/auto_13.bee,File good!,DRIVE_STRAIGHT_TARGET 206 1000 10000 75,DRIVE_STRAIGHT_TARGET
02:22:15.706 PM 03/25/2016,Autonomous Enabled,9,FALSE,0,NO ERROR,0.000000,-97.603688,0.000000,97.821855,FALSE,FALSE,TRUE,TRUE,FALSE,FALSE,Disabled,0.000000,0.000000,0.000000,TRUE,0.337494,-0.429062,0.000000,0.283615,-0.003113,0.000000,-0.082000,-0.047000,-0.749000,-0.380000,-4.540000,1.740000,-0.184831,Hold,61.481689,58.000000,Hold,-151635.000000,151552.000000,LowGoal,2152.500000,-2181.818182,Speed,2130.000000,-2181.818182,Speed,Off,Off,0.000000,FALSE,13,Read: /home/lvuser/scripts/auto_13.bee,File good!,DRIVE_STRAIGHT_TARGET 206 1000 10000 75,DRIVE_STRAIGHT_TARGET
02:22:15.806 PM 03/25/2016,Autonomous Enabled,10,FALSE,0,NO ERROR,0.000000,-102.429010,0.000000,102.672843,FALSE,FALSE,TRUE,TRUE,FALSE,FALSE,Disabled,0.000000,0.000000,0.000000,TRUE,0.352493,-0.429001,0.000000,0.186584,0.002457,0.000000,-0.056000,-0.448000,0.266000,-0.430000,-6.400000,1.630000,-0.192745,Hold,61.441650,58.000000,Hold,-151614.000000,151552.000000,LowGoal,2152.500000,-2181.818182,Speed,2137.500000,-2181.818182,Speed,Off,Off,0.000000,FALSE,13,Read: /home/lvuser/scripts/auto_13.bee,File good!,DRIVE_STRAIGHT_TARGET 206 1000 10000 75,DRIVE_STRAIGHT_TARGET
02:22:15.906 PM 03/25/2016,Autonomous Enabled,11,FALSE,0,NO ERROR,0.000000,-107.331332,0.000000,107.459665,FALSE,FALSE,TRUE,TRUE,FALSE,FALSE,Disabled,0.000000,0.000000,0.000000,TRUE,0.356262,-0.434708,0.000000,-0.002686,-0.141891,0.000000,-0.026000,-0.174000,-0.288000,-0.410000,-6.650000,1.320000,-0.177791,Hold,61.642334,58.000000,Hold,-151588.000000,151552.000000,LowGoal,2130.000000,-2181.818182,Speed,2137.500000,-2181.818182,Speed,Off,Off,0.000000,FALSE,13,Read: /home/lvuser/scripts/auto_13.bee,File good!,DRIVE_STRAIGHT_TARGET 206 1000 10000 75,DRIVE_STRAIGHT_TARGET
02:22:16.007 PM 03/25/2016,Autonomous Enabled,10,FALSE,0,NO ERROR,0.000000,-112.310654,0.000000,112.580153,FALSE,FALSE,TRUE,TRUE,FALSE,FALSE,Disabled,0.000000,0.000000,0.000000,TRUE,0.356140,-0.444122,0.000000,-0.021027,-0.176819,0.000000,-0.009000,0.061000,-0.325000,-0.370000,-3.120000,1.370000,-0.191492,Hold,61.321533,58.000000,Hold,-151588.000000,151552.000000,LowGoal,1980.000000,-2181.818182,Speed,2145.000000,-2181.818182,Speed,Off,Off,0.000000,FALSE,13,Read: /home/lvuser/scripts/auto_13.bee,File good!,DRIVE_STRAIGHT_TARGET 206 1000 10000 75,DRIVE_STRAIGHT_TARGET
02:22:16.107 PM 03/25/2016,Autonomous Enabled,11,FALSE,0,NO ERROR,0.000000,-117.437559,0.000000,117.597975,TRUE,FALSE,TRUE,TRUE,FALSE,FALSE,Disabled,0.000000,0.000000,0.000000,TRUE,0.353470,-0.453369,0.000000,-0.101471,-0.198639,0.000000,-0.197000,0.192000,0.688000,-0.310000,-1.090000,1.290000,-0.141606,Hold,61.370361,58.000000,Hold,-151588.000000,151552.000000,LowGoal,2115.000000,-2181.818182,Speed,2152.500000,-2181.818182,Speed,Off,Off,0.000000,FALSE,13,Read: /home/lvuser/scripts/auto_13.bee,File good!,DRIVE_STRAIGHT_TARGET 206 1000 10000 75,DRIVE_STRAIGHT_TARGET
02:22:16.207 PM 03/25/2016,Autonomous Enabled,9,FALSE,0,NO ERROR,0.000000,-122.166631,0.000000,122.391214,TRUE,FALSE,TRUE,TRUE,FALSE,FALSE,Disabled,0.000000,0.000000,0.000000,TRUE,0.343063,-0.460281,0.000000,-0.272430,-0.120895,0.000000,-0.201000,-0.018000,-0.062000,-0.300000,1.000000,1.180000,-0.121195,Hold,61.340332,58.000000,Hold,-151588.000000,151552.000000,LowGoal,2190.000000,-2181.818182,Speed,2152.500000,-2181.818182,Speed,Off,Off,0.000000,FALSE,13,Read: /home/lvuser/scripts/auto_13.bee,File good!,DRIVE_STRAIGHT_TARGET 206 1000 10000 75,DRIVE_STRAIGHT_TARGET
02:22:16.307 PM 03/25/2016,Autonomous Enabled,11,FALSE,0,NO ERROR,0.000000,-126.626204,0.000000,126.921370,TRUE,FALSE,TRUE,TRUE,FALSE,FALSE,Disabled,0.000000,0.000000,0.000000,TRUE,0.324905,-0.466980,0.000000,-0.379166,-0.141235,0.000000,-0.118000,0.062000,0.025000,-0.370000,-0.100000,1.040000,-0.160864,Hold,61.205566,58.000000,Hold,-151588.000000,151552.000000,LowGoal,2145.000000,-2181.818182,Speed,2152.500000,-2181.818182,Speed,Off,Off,0.000000,FALSE,13,Read: /home/lvuser/scripts/auto_13.bee,File good!,DRIVE_STRAIGHT_TARGET 206 1000 10000 75,DRIVE_STRAIGHT_TARGET
02:22:16.407 PM 03/25/2016,Autonomous Enabled,10,FALSE,0,NO ERROR,0.000000,-131.149943,0.000000,131.483609,TRUE,FALSE,TRUE,TRUE,FALSE,FALSE,Disabled,0.000000,0.000000,0.000000,TRUE,0.305237,-0.472931,0.000000,-0.386948,-0.100052,0.000000,0.000000,0.017000,0.159000,-0.410000,0.360000,1.170000,-0.212950,Hold,61.410156,58.000000,Hold,-151588.000000,151552.000000,LowGoal,2122.500000,-2181.818182,Speed,2152.500000,-2181.818182,Speed,Off,Off,0.000000,FALSE,13,Read: /home/lvuser/scripts/auto_13.bee,File good!,DRIVE_STRAIGHT_TARGET 206 1000 10000 75,DRIVE_STRAIGHT_TARGET
02:22:16.507 PM 03/25/2016,Autonomous Enabled,10,FALSE,0,NO ERROR,0.000000,-135.583850,0.000000,135.859766,TRUE,FALSE,TRUE,TRUE,FALSE,FALSE,Disabled,0.000000,0.000000,0.000000,TRUE,0.283936,-0.473846,0.000000,-0.453659,0.008194,0.000000,0.021000,0.085000,0.018000,-0.450000,0.020000,1.140000,-0.272664,Hold,61.410156,58.000000,Hold,-151588.000000,151552.000000,LowGoal,2130.000000,-2181.818182,Speed,2152.500000,-2181.818182,Speed,Off,Off,0.000000,FALSE,13,Read: /home/lvuser/scripts/auto_13.bee,File good!,DRIVE_STRAIGHT_TARGET 206 1000 10000 75,DRIVE_STRAIGHT_TARGET
02:22:16.607 PM 03/25/2016,Autonomous Enabled,10,FALSE,0,NO ERROR,0.000000,-140.081922,0.000000,140.364255,TRUE,FALSE,TRUE,TRUE,FALSE,FALSE,Disabled,0.000000,0.000000,0.000000,TRUE,0.260788,-0.473465,0.000000,-0.454178,-0.006317,0.000000,-0.046000,-0.097000,0.072000,-0.370000,0.090000,1.200000,-0.165222,Hold,61.410156,58.000000,Hold,-151588.000000,151552.000000,LowGoal,2115.000000,-2181.818182,Speed,2145.000000,-2181.818182,Speed,Off,Off,0.000000,FALSE,13,Read: /home/lvuser/scripts/auto_13.bee,File good!,DRIVE_STRAIGHT_TARGET 206 1000 10000 75,DRIVE_STRAIGHT_TARGET
02:22:16.707 PM 03/25/2016,Autonomous Enabled,10,FALSE,0,NO ERROR,0.000000,-144.586412,0.000000,144.836661,TRUE,FALSE,TRUE,TRUE,FALSE,FALSE,Disabled,0.000000,0.000000,0.000000,TRUE,0.239731,-0.476379,0.000000,-0.372421,-0.085770,0.000000,0.140000,-0.004000,-0.023000,-0.360000,0.300000,1.210000,-0.142408,Hold,61.410156,58.000000,Hold,-151588.000000,151552.000000,LowGoal,2107.500000,-2181.818182,Speed,2152.500000,-2181.818182,Speed,Off,Off,0.000000,FALSE,13,Read: /home/lvuser/scripts/auto_13.bee,File good!,DRIVE_STRAIGHT_TARGET 206 1000 10000 75,DRIVE_STRAIGHT_TARGET
02:22:16.808 PM 03/25/2016,Autonomous Enabled,11,FALSE,0,NO ERROR,0.000000,-149.129401,0.000000,149.463067,TRUE,FALSE,TRUE,TRUE,FALSE,FALSE,Disabled,0.000000,0.000000,0.000000,TRUE,0.218491,-0.481964,0.000000,-0.371155,-0.088654,0.000000,-0.195000,0.123000,0.119000,-0.410000,0.080000,1.270000,-0.192308,Hold,61.410156,58.000000,Hold,-151588.000000,151552.000000,LowGoal,2107.500000,-2181.818182,Speed,2152.500000,-2181.818182,Speed,Off,Off,0.000000,FALSE,13,Read: /home/lvuser/scripts/auto_13.bee,File good!,DRIVE_STRAIGHT_TARGET 206 1000 10000 75,DRIVE_STRAIGHT_TARGET
02:22:16.908 PM 03/25/2016,Autonomous Enabled,11,FALSE,0,NO ERROR,0.000000,-153.736557,0.000000,154.038140,TRUE,FALSE,TRUE,TRUE,FALSE,FALSE,Disabled,0.000000,0.000000,0.000000,TRUE,0.198883,-0.485092,0.000000,-0.408600,-0.056946,0.000000,0.032000,-0.010000,0.020000,-0.410000,0.080000,1.270000,-0.330603,Hold,61.410156,58.000000,Hold,-151588.000000,151552.000000,LowGoal,2107.500000,-2181.818182,Speed,2152.500000,-2181.818182,Speed,Off,Off,0.000000,FALSE,13,Read: /home/lvuser/scripts/auto_13.bee,File good!,DRIVE_STRAIGHT_TARGET 206 1000 10000 75,DRIVE_STRAIGHT_TARGET
02:22:17.008 PM 03/25/2016,Autonomous Enabled,11,FALSE,0,NO ERROR,0.000000,-158.247463,0.000000,158.510546,TRUE,FALSE,TRUE,TRUE,FALSE,FALSE,Disabled,0.000000,0.000000,0.000000,TRUE,0.178024,-0.487625,0.000000,-0.432678,-0.037918,0.000000,0.032000,-0.010000,0.020000,-0.560000,0.050000,1.220000,-0.357124,Hold,61.410156,58.000000,Hold,-151588.000000,151552.000000,LowGoal,2115.000000,-2181.818182,Speed,2152.500000,-2181.818182,Speed,Off,Off,0.000000,FALSE,13,Read: /home/lvuser/scripts/auto_13.bee,File good!,DRIVE_STRAIGHT_TARGET 206 1000 10000 75,DRIVE_STRAIGHT_TARGET
02:22:17.109 PM 03/25/2016,Autonomous Enabled,11,FALSE,0,NO ERROR,0.000000,-162.713453,0.000000,162.886702,TRUE,FALSE,TRUE,TRUE,FALSE,FALSE,Disabled,0.000000,0.000000,0.000000,TRUE,0.152069,-0.490906,0.000000,-0.475342,-0.072479,0.000000,0.006000,0.012000,-0.183000,-0.450000,0.010000,1.180000,-0.204216,Hold,61.410156,58.000000,Hold,-151588.000000,151552.000000,LowGoal,2122.500000,-2181.818182,Speed,2145.000000,-2181.818182,Speed,Off,Off,0.000000,FALSE,13,Read: /home/lvuser/scripts/auto_13.bee,File good!,DRIVE_STRAIGHT_TARGET 206 1000 10000 75,DRIVE_STRAIGHT_TARGET
02:22:17.210 PM 03/25/2016,Autonomous Enabled,10,FALSE,0,NO ERROR,0.000000,-167.083193,0.000000,167.294942,TRUE,FALSE,TRUE,TRUE,FALSE,FALSE,Disabled,0.000000,0.000000,0.000000,TRUE,0.132935,-0.493240,0.000000,-0.473984,-0.049423,0.000000,0.011000,0.019000,0.063000,-0.380000,0.070000,1.270000,-0.123695,Hold,61.410156,58.000000,Hold,-151588.000000,151552.000000,LowGoal,2122.500000,-2181.818182,Speed,2152.500000,-2181.818182,Speed,Off,Off,0.000000,FALSE,13,Read: /home/lvuser/scripts/auto_13.bee,File good!,DRIVE_STRAIGHT_TARGET 206 1000 10000 75,DRIVE_STRAIGHT_TARGET
02:22:17.311 PM 03/25/2016,Autonomous Enabled,11,FALSE,0,NO ERROR,0.000000,-171.536349,0.000000,171.735265,TRUE,FALSE,TRUE,TRUE,FALSE,FALSE,Disabled,0.000000,0.000000,0.000000,TRUE,0.109177,-0.495132,0.000000,-0.459183,-0.026001,0.000000,0.011000,0.019000,0.063000,-0.390000,0.020000,1.320000,-0.102547,Hold,61.410156,58.000000,Hold,-151588.000000,151552.000000,LowGoal,2122.500000,-2181.818182,Speed,2145.000000,-2181.818182,Speed,Off,Off,0.000000,FALSE,13,Read: /home/lvuser/scripts/auto_13.bee,File good!,DRIVE_STRAIGHT_TARGET 206 1000 10000 75,DRIVE_STRAIGHT_TARGET
02:22:17.412 PM 03/25/2016,Autonomous Enabled,10,FALSE,0,NO ERROR,0.000000,-175.963839,0.000000,176.182005,TRUE,FALSE,TRUE,TRUE,FALSE,FALSE,Disabled,0.000000,0.000000,0.000000,TRUE,0.086365,-0.496826,0.000000,-0.458023,-0.057388,0.000000,0.020000,0.096000,-0.028000,-0.390000,0.020000,1.320000,-0.160014,Hold,61.410156,58.000000,Hold,-151588.000000,151552.000000,LowGoal,2122.500000,-2181.818182,Speed,2145.000000,-2181.818182,Speed,Off,Off,0.000000,FALSE,13,Read: /home/lvuser/scripts/auto_13.bee,File good!,DRIVE_STRAIGHT_TARGET 206 1000 10000 75,DRIVE_STRAIGHT_TARGET
02:22:17.512 PM 03/25/2016,Autonomous Enabled,7,FALSE,0,NO ERROR,0.000000,-180.333578,0.000000,180.506828,TRUE,FALSE,TRUE,TRUE,FALSE,FALSE,Disabled,0.000000,0.000000,0.000000,TRUE,0.063843,-0.497925,0.000000,-0.455551,-0.004257,0.000000,0.069000,0.018000,-0.249000,-0.510000,-0.130000,1.340000,-0.211948,Hold,61.410156,58.000000,Hold,-151588.000000,151552.000000,LowGoal,2122.500000,-2181.818182,Speed,2145.000000,-2181.818182,Speed,Off,Off,0.000000,FALSE,13,Read: /home/lvuser/scripts/auto_13.bee,File good!,DRIVE_STRAIGHT_TARGET 206 1000 10000 75,DRIVE_STRAIGHT_TARGET
02:22:17.612 PM 03/25/2016,Autonomous Enabled,11,FALSE,0,NO ERROR,0.000000,-184.818818,0.000000,184.959984,TRUE,FALSE,TRUE,TRUE,FALSE,FALSE,Disabled,0.000000,0.000000,0.000000,TRUE,0.042984,-0.498138,0.000000,-0.383911,-0.005417,0.000000,0.069000,0.018000,-0.249000,-0.510000,-0.130000,1.340000,-0.131316,Hold,61.410156,58.000000,Hold,-151588.000000,151552.000000,LowGoal,2130.000000,-2181.818182,Speed,2122.500000,-2181.818182,Speed,Off,Off,0.000000,FALSE,13,Read: /home/lvuser/scripts/auto_13.bee,File good!,DRIVE_STRAIGHT_TARGET 206 1000 10000 75,DRIVE_STRAIGHT_TARGET
02:22:17.712 PM 03/25/2016,Autonomous Enabled,10,FALSE,0,NO ERROR,0.000000,-189.329724,0.000000,189.490140,TRUE,FALSE,TRUE,TRUE,FALSE,FALSE,Disabled,0.000000,0.000000,0.000000,TRUE,0.022736,-0.499008,0.000000,-0.338562,0.000000,0.000000,-0.148000,0.019000,-0.003000,-0.430000,0.160000,1.370000,-0.099920,Hold,61.410156,58.000000,Hold,-151588.000000,151552.000000,LowGoal,2145.000000,-2181.818182,Speed,2115.000000,-2181.818182,Speed,Off,Off,0.000000,FALSE,13,Read: /home/lvuser/scripts/auto_13.bee,File good!,DRIVE_STRAIGHT_TARGET 206 1000 10000 75,DRIVE_STRAIGHT_TARGET
02:22:17.812 PM 03/25/2016,Autonomous Enabled,10,FALSE,0,NO ERROR,0.000000,-193.827797,0.000000,194.065213,TRUE,FALSE,TRUE,TRUE,FALSE,FALSE,Disabled,0.000000,0.000000,0.000000,TRUE,0.004440,-0.499023,0.000000,-0.378769,-0.020187,0.000000,-0.148000,0.019000,-0.003000,-0.410000,0.090000,1.470000,-0.075884,Hold,61.410156,58.000000,Hold,-151588.000000,151552.000000,LowGoal,2152.500000,-2181.818182,Speed,2130.000000,-2181.818182,Speed,Off,Off,0.000000,FALSE,13,Read: /home/lvuser/scripts/auto_13.bee,File good!,DRIVE_STRAIGHT_TARGET 206 1000 10000 75,DRIVE_STRAIGHT_TARGET
02:22:17.912 PM 03/25/2016,Autonomous Enabled,11,FALSE,0,NO ERROR,0.000000,-198.306620,0.000000,198.531202,TRUE,FALSE,TRUE,TRUE,FALSE,FALSE,Disabled,0.000000,0.000000,0.000000,TRUE,-0.017593,-0.498718,0.000000,-0.454605,0.032806,0.000000,-0.167000,0.084000,0.041000,-0.420000,0.040000,1.400000,-0.099924,Hold,61.410156,58.000000,Hold,-151588.000000,151552.000000,LowGoal,2145.000000,-2181.818182,Speed,2130.000000,-2181.818182,Speed,Off,Off,0.000000,FALSE,13,Read: /home/lvuser/scripts/auto_13.bee,File good!,DRIVE_STRAIGHT_TARGET 206 1000 10000 75,DRIVE_STRAIGHT_TARGET
02:22:18.015 PM 03/25/2016,Autonomous Enabled,6,FALSE,0,NO ERROR,0.000000,-202.734109,0.000000,202.952275,TRUE,FALSE,TRUE,TRUE,FALSE,FALSE,Disabled,0.000000,0.000000,0.000000,TRUE,-0.039093,-0.493729,0.000000,-0.399780,0.127350,0.000000,-0.026000,0.136000,0.083000,-0.460000,-0.130000,1.290000,-0.167556,Hold,61.410156,58.000000,Hold,-151588.000000,151552.000000,LowGoal,2145.000000,-2181.818182,Speed,2137.500000,-2181.818182,Speed,Off,Off,0.000000,FALSE,13,Read: /home/lvuser/scripts/auto_13.bee,File good!,DRIVE_STRAIGHT_TARGET 206 1000 10000 75,DRIVE_STRAIGHT_TARGET
02:22:18.116 PM 03/25/2016,Autonomous Enabled,10,FALSE,0,NO ERROR,0.000000,-207.277099,0.000000,207.424682,TRUE,FALSE,TRUE,TRUE,FALSE,FALSE,Disabled,0.000000,0.000000,0.000000,TRUE,-0.060959,-0.493179,0.000000,-0.463394,-0.034470,0.000000,-0.058000,-0.007000,0.093000,-0.530000,0.260000,1.430000,-0.065712,Hold,61.410156,2.000000,Hold,-151588.000000,151552.000000,LowGoal,2145.000000,-2181.818182,Speed,2137.500000,-2181.818182,Speed,Off,Off,0.000000,FALSE,13,Read: /home/lvuser/scripts/auto_13.bee,File good!,SET_HEADING 59 50,SET_HEADING
02:22:18.216 PM 03/25/2016,Autonomous Enabled,11,FALSE,0,NO ERROR,0.000000,-210.395591,0.000000,208.457763,TRUE,FALSE,TRUE,TRUE,FALSE,FALSE,Disabled,0.000000,0.000000,0.000000,TRUE,-0.090530,-0.492477,0.000000,-0.806808,0.086517,0.000000,-0.120000,0.060000,-0.003000,-0.440000,0.110000,1.310000,1.883534,Hold,55.666504,2.000000,Hold,-151588.000000,126976.000000,LowGoal,2137.500000,-1454.545455,Speed,2122.500000,-1454.545455,Speed,Off,Off,0.000000,FALSE,13,Read: /home/lvuser/scripts/auto_13.bee,File good!,SET_HEADING 59 50,SET_HEADING
02:22:18.316 PM 03/25/2016,Autonomous Enabled,10,FALSE,0,NO ERROR,0.000000,-212.744086,0.000000,208.355096,FALSE,FALSE,TRUE,TRUE,FALSE,FALSE,Disabled,0.000000,0.000000,0.000000,TRUE,-0.140152,-0.479797,0.000000,-1.041550,0.318115,0.000000,-0.313000,0.259000,0.094000,1.670000,-4.760000,2.100000,7.181200,Hold,46.640381,2.000000,Hold,-151588.000000,126976.000000,LowGoal,2017.500000,-1454.545455,Speed,2032.500000,-1454.545455,Speed,Off,Off,0.000000,FALSE,13,Read: /home/lvuser/scripts/auto_13.bee,File good!,SET_HEADING 59 50,SET_HEADING
02:22:18.416 PM 03/25/2016,Autonomous Enabled,11,FALSE,0,NO ERROR,0.000000,-214.534332,0.000000,207.578681,FALSE,FALSE,TRUE,TRUE,FALSE,FALSE,Disabled,0.000000,0.000000,0.000000,TRUE,-0.197693,-0.474197,0.000000,-1.272583,-0.191910,0.000000,-0.266000,-0.159000,-0.241000,6.820000,-5.710000,2.590000,12.085802,Hold,30.311279,2.000000,Hold,-142886.000000,126976.000000,LowGoal,1410.000000,-1454.545455,Speed,1395.000000,-1454.545455,Speed,Off,Off,0.000000,FALSE,13,Read: /home/lvuser/scripts/auto_13.bee,File good!,SET_HEADING 59 50,SET_HEADING
02:22:18.516 PM 03/25/2016,Autonomous Enabled,9,FALSE,0,NO ERROR,0.000000,-215.445496,0.000000,206.834350,FALSE,FALSE,TRUE,TRUE,FALSE,FALSE,Disabled,0.000000,0.000000,0.000000,TRUE,-0.197693,-0.474197,0.000000,-1.272583,-0.191910,0.000000,0.385000,-0.008000,0.065000,10.820000,-3.730000,0.020000,15.462983,Hold,17.188232,2.000000,Hold,-135215.000000,126976.000000,LowGoal,1230.000000,-1454.545455,Speed,1177.500000,-1454.545455,Speed,Off,Off,0.000000,FALSE,13,Read: /home/lvuser/scripts/auto_13.bee,File good!,SET_HEADING 59 50,SET_HEADING
02:22:18.616 PM 03/25/2016,Autonomous Enabled,9,FALSE,0,NO ERROR,0.000000,-216.119245,0.000000,205.961685,FALSE,FALSE,TRUE,TRUE,FALSE,FALSE,Disabled,0.000000,0.000000,0.000000,TRUE,-0.257324,-0.480255,0.000000,-1.130875,0.035156,0.000000,-0.048000,0.090000,-0.392000,14.620000,-4.410000,1.470000,15.462983,Hold,7.037354,2.000000,Hold,-130474.000000,126976.000000,LowGoal,1342.500000,-1454.545455,Speed,1387.500000,-1454.545455,Speed,Off,Off,0.000000,FALSE,13,Read: /home/lvuser/scripts/auto_13.bee,File good!,SET_HEADING 59 50,SET_HEADING
02:22:18.716 PM 03/25/2016,Autonomous Enabled,10,FALSE,0,NO ERROR,0.000000,-216.119245,0.000000,205.961685,FALSE,FALSE,TRUE,TRUE,FALSE,FALSE,Disabled,0.000000,0.000000,0.000000,TRUE,-0.328384,-0.486786,0.000000,-1.233231,-0.314468,0.000000,0.056000,0.173000,-0.307000,17.660000,-3.560000,-0.780000,19.363563,Hold,0.369873,2.000000,Hold,-127376.000000,126976.000000,LowGoal,1462.500000,-1454.545455,Speed,1470.000000,-1454.545455,Speed,Off,Off,0.000000,FALSE,13,Read: /home/lvuser/scripts/auto_13.bee,File good!,SET_HEADING 59 50,SET_HEADING
02:22:18.816 PM 03/25/2016,Autonomous Enabled,11,FALSE,0,NO ERROR,0.000000,-216.709577,0.000000,204.902938,FALSE,FALSE,TRUE,TRUE,FALSE,FALSE,Disabled,0.000000,0.000000,0.000000,TRUE,-0.386734,-0.497986,0.000000,-1.086151,-0.255402,0.000000,0.295000,0.088000,-0.302000,20.950000,-3.040000,0.190000,22.705361,Hold,0.558838,2.000000,Hold,-127110.000000,126976.000000,LowGoal,1432.500000,-1454.545455,Speed,1425.000000,-1454.545455,Speed,Off,Off,0.000000,FALSE,13,Read: /home/lvuser/scripts/auto_13.bee,File good!,SET_HEADING 59 50,SET_HEADING
02:22:18.916 PM 03/25/2016,Autonomous Enabled,10,FALSE,0,NO ERROR,0.000000,-217.319158,0.000000,204.184273,FALSE,FALSE,TRUE,TRUE,FALSE,FALSE,Disabled,0.000000,0.000000,0.000000,TRUE,-0.438431,-0.511368,0.000000,-1.069778,-0.295731,0.000000,-0.225000,-0.274000,0.178000,24.350000,-3.230000,-0.430000,25.408778,Hold,0.632324,2.000000,Hold,-127110.000000,126976.000000,LowGoal,1402.500000,-1454.545455,Speed,1380.000000,-1454.545455,Speed,Off,Off,0.000000,FALSE,13,Read: /home/lvuser/scripts/auto_13.bee,File good!,SET_HEADING 59 50,SET_HEADING
02:22:19.016 PM 03/25/2016,Autonomous Enabled,10,FALSE,0,NO ERROR,0.000000,-217.684908,0.000000,203.908357,TRUE,FALSE,TRUE,TRUE,FALSE,FALSE,Disabled,0.000000,0.000000,0.000000,TRUE,-0.493256,-0.527771,0.000000,-1.060028,-0.310181,0.000000,0.096000,-0.004000,-0.117000,25.230000,-2.770000,-0.070000,26.722978,Hold,0.635254,2.000000,Hold,-127110.000000,126976.000000,LowGoal,1402.500000,-1454.545455,Speed,1395.000000,-1454.545455,Speed,Off,Off,0.000000,FALSE,13,Read: /home/lvuser/scripts/auto_13.bee,File good!,SET_HEADING 59 50,SET_HEADING
02:22:19.117 PM 03/25/2016,Autonomous Enabled,9,FALSE,0,NO ERROR,0.000000,-217.973657,0.000000,203.664524,TRUE,FALSE,TRUE,TRUE,FALSE,FALSE,Disabled,0.000000,0.000000,0.000000,TRUE,-0.543472,-0.544250,0.000000,-0.985291,-0.338821,0.000000,0.025000,-0.018000,-0.022000,26.060000,-2.800000,-0.090000,27.764296,Hold,0.635254,2.000000,Hold,-127110.000000,126976.000000,LowGoal,1410.000000,-1454.545455,Speed,1402.500000,-1454.545455,Speed,Off,Off,0.000000,FALSE,13,Read: /home/lvuser/scripts/auto_13.bee,File good!,SET_HEADING 59 50,SET_HEADING
02:22:19.218 PM 03/25/2016,Autonomous Enabled,11,FALSE,0,NO ERROR,0.000000,-218.217490,0.000000,203.555441,TRUE,FALSE,TRUE,TRUE,FALSE,FALSE,Disabled,0.000000,0.000000,0.000000,TRUE,-0.598969,-0.565414,0.000000,-0.898819,-0.374008,0.000000,-0.155000,0.017000,0.004000,27.020000,-2.490000,-0.070000,28.466633,Hold,0.636719,2.000000,Hold,-127110.000000,126976.000000,LowGoal,1417.500000,-1454.545455,Speed,1395.000000,-1454.545455,Speed,Off,Off,0.000000,FALSE,13,Read: /home/lvuser/scripts/auto_13.bee,File good!,SET_HEADING 59 50,SET_HEADING
02:22:19.319 PM 03/25/2016,Autonomous Enabled,11,FALSE,0,NO ERROR,0.000000,-218.442073,0.000000,203.452774,TRUE,FALSE,TRUE,TRUE,FALSE,FALSE,Disabled,0.000000,0.000000,0.000000,TRUE,-0.645309,-0.585266,0.000000,-0.909973,-0.406799,0.000000,0.262000,-0.018000,0.000000,27.480000,-2.610000,0.070000,29.112833,Hold,0.637207,2.000000,Hold,-127110.000000,126976.000000,LowGoal,1402.500000,-1454.545455,Speed,1387.500000,-1454.545455,Speed,Off,Off,0.000000,FALSE,13,Read: /home/lvuser/scripts/auto_13.bee,File good!,SET_HEADING 59 50,SET_HEADING
02:22:19.421 PM 03/25/2016,Autonomous Enabled,11,FALSE,0,NO ERROR,0.000000,-218.673072,0.000000,203.407858,TRUE,FALSE,TRUE,TRUE,FALSE,FALSE,Disabled,0.000000,0.000000,0.000000,TRUE,-0.689377,-0.605637,0.000000,-0.894943,-0.399643,0.000000,0.072000,0.038000,0.022000,28.130000,-2.410000,0.050000,29.705321,Hold,0.637451,2.000000,Hold,-127110.000000,126976.000000,LowGoal,1387.500000,-1454.545455,Speed,1387.500000,-1454.545455,Speed,Off,Off,0.000000,FALSE,13,Read: /home/lvuser/scripts/auto_13.bee,File good!,SET_HEADING 59 50,SET_HEADING
02:22:19.521 PM 03/25/2016,Autonomous Enabled,11,FALSE,0,NO ERROR,0.000000,-218.884821,0.000000,203.369358,TRUE,FALSE,TRUE,TRUE,FALSE,FALSE,Disabled,0.000000,0.000000,0.000000,TRUE,-0.732529,-0.624557,0.000000,-0.838058,-0.376083,0.000000,-0.041000,0.065000,-0.050000,28.590000,-2.240000,0.230000,30.216076,Hold,0.637695,2.000000,Hold,-127110.000000,126976.000000,LowGoal,1387.500000,-1454.545455,Speed,1395.000000,-1454.545455,Speed,Off,Off,0.000000,FALSE,13,Read: /home/lvuser/scripts/auto_13.bee,File good!,SET_HEADING 59 50,SET_HEADING
02:22:19.622 PM 03/25/2016,Autonomous Enabled,11,FALSE,0,NO ERROR,0.000000,-219.077321,0.000000,203.362941,TRUE,FALSE,TRUE,TRUE,FALSE,FALSE,Disabled,0.000000,0.000000,0.000000,TRUE,-0.773758,-0.643494,0.000000,-0.810516,-0.384628,0.000000,-0.003000,0.091000,0.039000,28.990000,-1.910000,0.260000,30.660541,Hold,0.637695,2.000000,Hold,-127110.000000,126976.000000,LowGoal,1410.000000,-1454.545455,Speed,1395.000000,-1454.545455,Speed,Off,Off,0.000000,FALSE,13,Read: /home/lvuser/scripts/auto_13.bee,File good!,SET_HEADING 59 50,SET_HEADING
02:22:19.722 PM 03/25/2016,Autonomous Enabled,9,FALSE,0,NO ERROR,0.000000,-219.276237,0.000000,203.362941,TRUE,FALSE,TRUE,TRUE,FALSE,FALSE,Disabled,0.000000,0.000000,0.000000,TRUE,-0.814346,-0.660995,0.000000,-0.809952,-0.340988,0.000000,0.126000,0.005000,0.022000,29.340000,-1.850000,0.310000,31.115059,Hold,0.637939,2.000000,Hold,-127110.000000,126976.000000,LowGoal,1410.000000,-1454.545455,Speed,1395.000000,-1454.545455,Speed,Off,Off,0.000000,FALSE,13,Read: /home/lvuser/scripts/auto_13.bee,File good!,SET_HEADING 59 50,SET_HEADING
02:22:19.823 PM 03/25/2016,Autonomous Enabled,10,FALSE,0,NO ERROR,0.000000,-219.539320,0.000000,203.362941,TRUE,FALSE,TRUE,TRUE,FALSE,FALSE,Disabled,0.000000,0.000000,0.000000,TRUE,-0.852692,-0.678925,0.000000,-0.753387,-0.365967,0.000000,0.007000,-0.006000,-0.008000,29.700000,-1.730000,0.410000,31.615989,Hold,0.637939,2.000000,Hold,-127110.000000,126976.000000,LowGoal,1395.000000,-1454.545455,Speed,1387.500000,-1454.545455,Speed,Off,Off,0.000000,FALSE,13,Read: /home/lvuser/scripts/auto_13.bee,File good!,SET_HEADING 59 50,SET_HEADING
02:22:19.922 PM 03/25/2016,Autonomous Enabled,11,FALSE,0,NO ERROR,0.000000,-219.744653,0.000000,203.362941,TRUE,FALSE,TRUE,TRUE,FALSE,FALSE,Disabled,0.000000,0.000000,0.000000,TRUE,-0.889404,-0.697693,0.000000,-0.708206,-0.375931,0.000000,0.114000,-0.104000,0.020000,30.200000,-1.460000,0.540000,32.068097,Hold,0.637939,2.000000,Hold,-127110.000000,126976.000000,LowGoal,1387.500000,-1454.545455,Speed,1395.000000,-1454.545455,Speed,Off,Off,0.000000,FALSE,13,Read: /home/lvuser/scripts/auto_13.bee,File good!,SET_HEADING 59 50,SET_HEADING
02:22:20.023 PM 03/25/2016,Autonomous Enabled,12,FALSE,0,NO ERROR,0.000000,-219.917902,0.000000,203.362941,TRUE,FALSE,TRUE,TRUE,FALSE,FALSE,Disabled,0.000000,0.000000,0.000000,TRUE,-0.921692,-0.717224,0.000000,-0.601074,-0.401077,0.000000,0.028000,0.034000,0.048000,30.550000,-1.130000,0.660000,32.443683,Hold,0.637939,2.000000,Hold,-127110.000000,126976.000000,LowGoal,1395.000000,-1454.545455,Speed,1395.000000,-1454.545455,Speed,Off,Off,0.000000,FALSE,13,Read: /home/lvuser/scripts/auto_13.bee,File good!,SET_HEADING 59 50,SET_HEADING
02:22:20.123 PM 03/25/2016,Autonomous Enabled,11,FALSE,0,NO ERROR,0.000000,-220.052652,0.000000,203.362941,TRUE,FALSE,TRUE,TRUE,FALSE,FALSE,Disabled,0.000000,0.000000,0.000000,TRUE,-0.956665,-0.740967,0.000000,-0.552261,-0.386124,0.000000,-0.096000,0.093000,0.055000,30.800000,-0.950000,0.730000,32.712578,Hold,0.637939,2.000000,Hold,-127110.000000,126976.000000,LowGoal,1395.000000,-1454.545455,Speed,1395.000000,-1454.545455,Speed,Off,Off,0.000000,FALSE,13,Read: /home/lvuser/scripts/auto_13.bee,File good!,SET_HEADING 59 50,SET_HEADING
02:22:20.223 PM 03/25/2016,Autonomous Enabled,11,FALSE,0,NO ERROR,0.000000,-220.174568,0.000000,203.362941,TRUE,FALSE,TRUE,TRUE,FALSE,FALSE,Disabled,0.000000,0.000000,0.000000,TRUE,-0.979904,-0.754059,0.000000,-0.590912,-0.308670,0.000000,0.091000,0.076000,0.000000,31.030000,-1.050000,0.710000,32.957740,Hold,0.637939,2.000000,Hold,-127110.000000,126976.000000,LowGoal,1395.000000,-1454.545455,Speed,1387.500000,-1454.545455,Speed,Off,Off,0.000000,FALSE,13,Read: /home/lvuser/scripts/auto_13.bee,File good!,SET_HEADING 59 50,SET_HEADING
02:22:20.324 PM 03/25/2016,Autonomous Enabled,10,FALSE,0,NO ERROR,0.000000,-220.322151,0.000000,203.362941,TRUE,FALSE,TRUE,TRUE,FALSE,FALSE,Disabled,0.000000,0.000000,0.000000,TRUE,-1.013641,-0.770676,0.000000,-0.530273,-0.283188,0.000000,-0.018000,-0.003000,0.018000,31.280000,-0.830000,0.870000,33.222431,Hold,0.638184,2.000000,Hold,-127110.000000,126976.000000,LowGoal,1410.000000,-1454.545455,Speed,1387.500000,-1454.545455,Speed,Off,Off,0.000000,FALSE,13,Read: /home/lvuser/scripts/auto_13.bee,File good!,SET_HEADING 59 50,SET_HEADING
02:22:20.425 PM 03/25/2016,Autonomous Enabled,11,FALSE,0,NO ERROR,0.000000,-220.495401,0.000000,203.362941,TRUE,FALSE,TRUE,TRUE,FALSE,FALSE,Disabled,0.000000,0.000000,0.000000,TRUE,-1.036301,-0.781738,0.000000,-0.560272,-0.267731,0.000000,0.120000,-0.011000,0.056000,31.600000,-0.790000,0.950000,33.563960,Hold,0.638184,2.000000,Hold,-127110.000000,126976.000000,LowGoal,1402.500000,-1454.545455,Speed,1395.000000,-1454.545455,Speed,Off,Off,0.000000,FALSE,13,Read: /home/lvuser/scripts/auto_13.bee,File good!,SET_HEADING 59 50,SET_HEADING
02:22:20.526 PM 03/25/2016,Autonomous Enabled,9,FALSE,0,NO ERROR,0.000000,-220.687901,0.000000,203.362941,TRUE,FALSE,TRUE,TRUE,FALSE,FALSE,Disabled,0.000000,0.000000,0.000000,TRUE,-1.067917,-0.796555,0.000000,-0.522720,-0.238403,0.000000,-0.055000,-0.031000,0.048000,31.980000,-0.720000,0.990000,33.978004,Hold,0.638184,2.000000,Hold,-127110.000000,126976.000000,LowGoal,1387.500000,-1454.545455,Speed,1395.000000,-1454.545455,Speed,Off,Off,0.000000,FALSE,13,Read: /home/lvuser/scripts/auto_13.bee,File good!,SET_HEADING 59 50,SET_HEADING
02:22:20.627 PM 03/25/2016,Autonomous Enabled,10,FALSE,0,NO ERROR,0.000000,-220.912483,0.000000,203.362941,TRUE,FALSE,TRUE,TRUE,FALSE,FALSE,Disabled,0.000000,0.000000,0.000000,TRUE,-1.094666,-0.810165,0.000000,-0.545563,-0.303680,0.000000,-0.130000,0.027000,0.080000,32.420000,-0.790000,0.940000,34.448708,Hold,0.638428,2.000000,Hold,-127110.000000,126976.000000,LowGoal,1402.500000,-1454.545455,Speed,1395.000000,-1454.545455,Speed,Off,Off,0.000000,FALSE,13,Read: /home/lvuser/scripts/auto_13.bee,File good!,SET_HEADING 59 50,SET_HEADING
