Time,Robot Mode,Loop Time,Error Status,Error Code,Error Source,Left Motor Output,Left Motor Encoder,Right Motor Output,Right Motor Encoder,Is Level,Is Stalled,Ball Detector Photoeye,Vision Enabled,Vision Teleop Control,Vision Auto Control,Vision Current State,Vision X Output,Vision NavX Error,Vision NavX Target,NavX Connection Status,NavX Displacement X,NavX Displacement Y,NavX Displacement Z,NavX Velocity X,NavX Velocity Y,NavX Velocity Z,NavX Acceleration X,NavX Acceleration Y,NavX Acceleration Z,NavX Pitch,NavX Yaw,NavX Roll,Gyro Angle,Roller Arm State,Roller Arm Actual,Roller Arm Desired,Shooter Arm State,Shooter Arm Actual,Shooter Arm Desired,Shooter State,Actual RPM Left,Desired RPM Left,Control Mode Left,Actual RPM Right,Desired RPM Right,Control Mode Right,Ball Shooter Cylinder,Ball Halo Cylinder,Scaler Motor Output,Scaler Solenoid Fire,Auto To Run,Auto Current File,Auto File Status,Auto Current Command,Auto Trimmed Command
03:19:23.114 PM 03/25/2016,Autonomous Enabled,9,TRUE,-44003,<LOCATION>WPI_CameraIssue HTTP Request with Authentication.vi<CALLSTACK>WPI_CameraIssue HTTP Request with Authentication.vi< <WPI_CameraIssue Get.vi< <WPI_CameraSet Image Appearance Property.vi< <WPI_CameraSet Image Size.vi< <Vision Processing.vi< <Robot Main.vi,0.000000,0.000000,0.000000,0.000000,TRUE,FALSE,TRUE,TRUE,FALSE,FALSE,Disabled,0.000000,0.000000,0.000000,TRUE,0.000000,0.000000,0.000000,0.000000,0.000000,0.000000,0.002000,0.016000,0.000000,-0.640000,0.140000,1.510000,6.320320,ResetBack,-0.241699,-0.000049,ResetBack,0.000000,-0.250000,LowGoal,0.000000,-2181.818182,Speed,0.000000,-2181.818182,Speed,Off,Off,0.000000,FALSE,13,Read: /home/lvuser/scripts/auto_13.bee,File good!,WAIT 1500,WAIT
03:19:23.214 PM 03/25/2016,Autonomous Enabled,11,TRUE,7,Read from Text File in DoesScriptNumberContainNull.vi->Disabled.vi->Robot Main.vi<APPEND> /home/lvuser/scripts/auto_11.bee,0.000000,0.000000,0.000000,0.000000,TRUE,FALSE,TRUE,TRUE,FALSE,FALSE,Disabled,0.000000,0.000000,0.000000,TRUE,-0.000214,-0.000259,0.000000,-0.000183,-0.016281,0.000000,-0.004000,-0.003000,0.110000,-0.660000,0.200000,1.530000,6.312361,ResetBack,-2.083984,-0.000049,ResetBack,1145.000000,-0.250000,LowGoal,82.500000,-2181.818182,Speed,60.000000,-2181.818182,Speed,Off,Off,0.000000,FALSE,13,Read: /home/lvuser/scripts/auto_13.bee,File good!,WAIT 1500,WAIT
03:19:23.314 PM 03/25/2016,Autonomous Enabled,11,TRUE,7,Read from Text File in DoesScriptNumberContainNull.vi->Disabled.vi->Robot Main.vi<APPEND> /home/lvuser/scripts/auto_11.bee,0.000000,0.000000,0.000000,0.000000,TRUE,FALSE,TRUE,TRUE,FALSE,FALSE,Disabled,0.000000,0.000000,0.000000,TRUE,-0.000763,-0.000229,0.000000,-0.003067,-0.005356,0.000000,-0.027000,0.004000,0.127000,-0.640000,0.150000,1.490000,6.334734,ResetBack,-2.484619,-0.000049,ResetBack,4165.000000,-0.250000,LowGoal,720.000000,-2181.818182,Speed,690.000000,-2181.818182,Speed,Off,Off,0.000000,FALSE,13,Read: /home/lvuser/scripts/auto_13.bee,File good!,WAIT 1500,WAIT
03:19:23.414 PM 03/25/2016,Autonomous Enabled,11,TRUE,7,Read from Text File in DoesScriptNumberContainNull.vi->Disabled.vi->Robot Main.vi<APPEND> /home/lvuser/scripts/auto_11.bee,0.000000,0.000000,0.000000,0.000000,TRUE,FALSE,TRUE,TRUE,FALSE,FALSE,Disabled,0.000000,0.000000,0.000000,TRUE,0.000687,-0.000076,0.000000,0.032791,0.008667,0.000000,0.071000,0.050000,0.046000,-0.650000,0.370000,1.470000,6.331646,ResetBack,-2.491943,-0.000049,ResetBack,8597.000000,-0.250000,LowGoal,1267.500000,-2181.818182,Speed,1342.500000,-2181.818182,Speed,Off,Off,0.000000,FALSE,13,Read: /home/lvuser/scripts/auto_13.bee,File good!,WAIT 1500,WAIT
03:19:23.514 PM 03/25/2016,Autonomous Enabled,11,TRUE,7,Read from Text File in DoesScriptNumberContainNull.vi->Disabled.vi->Robot Main.vi<APPEND> /home/lvuser/scripts/auto_11.bee,0.000000,0.000000,0.000000,0.000000,TRUE,FALSE,TRUE,TRUE,FALSE,FALSE,Disabled,0.000000,0.000000,0.000000,TRUE,0.003174,-0.000534,0.000000,0.045517,-0.039139,0.000000,0.002000,-0.016000,0.111000,-0.650000,0.300000,1.550000,6.350745,Reset,-2.495850,0.000000,ResetBack,13414.000000,-0.250000,LowGoal,1822.500000,-2181.818182,Speed,1897.500000,-2181.818182,Speed,Off,Off,0.000000,FALSE,13,Read: /home/lvuser/scripts/auto_13.bee,File good!,WAIT 1500,WAIT
03:19:23.614 PM 03/25/2016,Autonomous Enabled,11,TRUE,7,Read from Text File in DoesScriptNumberContainNull.vi->Disabled.vi->Robot Main.vi<APPEND> /home/lvuser/scripts/auto_11.bee,0.000000,0.000000,0.000000,0.000000,TRUE,FALSE,TRUE,TRUE,FALSE,FALSE,Disabled,0.000000,0.000000,0.000000,TRUE,0.006775,-0.001266,0.000000,0.096191,-0.019363,0.000000,-0.065000,-0.081000,0.471000,-0.660000,0.360000,1.620000,6.362557,Hold,0.374512,0.000000,ResetBack,13414.000000,-0.250000,LowGoal,2190.000000,-2181.818182,Speed,2220.000000,-2181.818182,Speed,Off,Off,0.000000,FALSE,13,Read: /home/lvuser/scripts/auto_13.bee,File good!,WAIT 1500,WAIT
03:19:23.715 PM 03/25/2016,Autonomous Enabled,11,TRUE,7,Read from Text File in DoesScriptNumberContainNull.vi->Disabled.vi->Robot Main.vi<APPEND> /home/lvuser/scripts/auto_11.bee,0.000000,0.000000,0.000000,0.000000,TRUE,FALSE,TRUE,TRUE,FALSE,FALSE,Disabled,0.000000,0.000000,0.000000,TRUE,0.008987,-0.004456,0.000000,0.004028,-0.090500,0.000000,-0.066000,-0.127000,0.088000,-0.650000,0.250000,1.560000,6.366361,Hold,0.374512,0.000000,ResetBack,19535.000000,-0.250000,LowGoal,2212.500000,-2181.818182,Speed,2250.000000,-2181.818182,Speed,Off,Off,0.000000,FALSE,13,Read: /home/lvuser/scripts/auto_13.bee,File good!,WAIT 1500,WAIT
03:19:23.816 PM 03/25/2016,Autonomous Enabled,11,TRUE,7,Read from Text File in DoesScriptNumberContainNull.vi->Disabled.vi->Robot Main.vi<APPEND> /home/lvuser/scripts/auto_11.bee,0.000000,0.000000,0.000000,0.000000,TRUE,FALSE,TRUE,TRUE,FALSE,FALSE,Disabled,0.000000,0.000000,0.000000,TRUE,0.007874,-0.010803,0.000000,-0.034164,-0.148239,0.000000,0.061000,-0.053000,0.263000,-0.650000,0.250000,1.560000,6.362711,Hold,0.374512,0.000000,ResetBack,26743.000000,-0.250000,LowGoal,2137.500000,-2181.818182,Speed,2137.500000,-2181.818182,Speed,Off,Off,0.000000,FALSE,13,Read: /home/lvuser/scripts/auto_13.bee,File good!,WAIT 1500,WAIT
03:19:23.916 PM 03/25/2016,Autonomous Enabled,11,TRUE,7,Read from Text File in DoesScriptNumberContainNull.vi->Disabled.vi->Robot Main.vi<APPEND> /home/lvuser/scripts/auto_11.bee,0.000000,0.000000,0.000000,0.000000,TRUE,FALSE,TRUE,TRUE,FALSE,FALSE,Disabled,0.000000,0.000000,0.000000,TRUE,0.007874,-0.010803,0.000000,-0.034164,-0.148239,0.000000,0.061000,-0.053000,0.263000,-0.650000,0.140000,1.570000,6.410202,Hold,0.374512,0.000000,ResetBack,34212.000000,-0.250000,LowGoal,2115.000000,-2181.818182,Speed,2122.500000,-2181.818182,Speed,Off,Off,0.000000,FALSE,13,Read: /home/lvuser/scripts/auto_13.bee,File good!,WAIT 1500,WAIT
03:19:24.017 PM 03/25/2016,Autonomous Enabled,9,TRUE,7,Read from Text File in DoesScriptNumberContainNull.vi->Disabled.vi->Robot Main.vi<APPEND> /home/lvuser/scripts/auto_11.bee,0.000000,0.000000,0.000000,0.000000,TRUE,FALSE,TRUE,TRUE,FALSE,FALSE,Disabled,0.000000,0.000000,0.000000,TRUE,0.008148,-0.036255,0.000000,-0.015503,-0.269943,0.000000,-0.055000,-0.097000,0.283000,-0.630000,0.350000,1.490000,6.360037,Hold,0.374512,0.000000,ResetBack,38238.000000,-0.250000,LowGoal,2122.500000,-2181.818182,Speed,2152.500000,-2181.818182,Speed,Off,Off,0.000000,FALSE,13,Read: /home/lvuser/scripts/auto_13.bee,File good!,WAIT 1500,WAIT
03:19:24.118 PM 03/25/2016,Autonomous Enabled,11,TRUE,7,Read from Text File in DoesScriptNumberContainNull.vi->Disabled.vi->Robot Main.vi<APPEND> /home/lvuser/scripts/auto_11.bee,0.000000,0.000000,0.000000,0.000000,TRUE,FALSE,TRUE,TRUE,FALSE,FALSE,Disabled,0.000000,0.000000,0.000000,TRUE,0.008148,-0.036255,0.000000,-0.015503,-0.269943,0.000000,-0.109000,-0.123000,0.043000,-0.650000,0.160000,1.450000,6.381821,Hold,0.374512,0.000000,ResetBack,39357.000000,-0.250000,LowGoal,2130.000000,-2181.818182,Speed,2145.000000,-2181.818182,Speed,Off,Off,0.000000,FALSE,13,Read: /home/lvuser/scripts/auto_13.bee,File good!,WAIT 1500,WAIT
03:19:24.222 PM 03/25/2016,Autonomous Enabled,11,TRUE,7,Read from Text File in DoesScriptNumberContainNull.vi->Disabled.vi->Robot Main.vi<APPEND> /home/lvuser/scripts/auto_11.bee,0.000000,0.000000,0.000000,0.000000,TRUE,FALSE,TRUE,TRUE,FALSE,FALSE,Disabled,0.000000,0.000000,0.000000,TRUE,0.010788,-0.068436,0.000000,0.051346,-0.282211,0.000000,0.100000,-0.001000,-0.086000,-0.650000,0.360000,1.590000,6.392885,Hold,0.374512,0.000000,ResetBack,39604.000000,-0.250000,LowGoal,2137.500000,-2181.818182,Speed,2137.500000,-2181.818182,Speed,Off,Off,0.000000,FALSE,13,Read: /home/lvuser/scripts/auto_13.bee,File good!,WAIT 1500,WAIT
03:19:24.320 PM 03/25/2016,Autonomous Enabled,9,TRUE,7,Read from Text File in DoesScriptNumberContainNull.vi->Disabled.vi->Robot Main.vi<APPEND> /home/lvuser/scripts/auto_11.bee,0.000000,0.000000,0.000000,0.000000,TRUE,FALSE,TRUE,TRUE,FALSE,FALSE,Disabled,0.000000,0.000000,0.000000,TRUE,0.009720,-0.083847,0.000000,-0.029556,-0.299957,0.000000,-0.244000,-0.054000,-0.038000,-0.650000,0.360000,1.590000,6.400125,Hold,0.374512,0.000000,ResetBack,39604.000000,-0.250000,LowGoal,2130.000000,-2181.818182,Speed,2130.000000,-2181.818182,Speed,Off,Off,0.000000,FALSE,13,Read: /home/lvuser/scripts/auto_13.bee,File good!,WAIT 1500,WAIT
03:19:24.421 PM 03/25/2016,Autonomous Enabled,10,TRUE,7,Read from Text File in DoesScriptNumberContainNull.vi->Disabled.vi->Robot Main.vi<APPEND> /home/lvuser/scripts/auto_11.bee,0.000000,0.000000,0.000000,0.000000,TRUE,FALSE,TRUE,TRUE,FALSE,FALSE,Disabled,0.000000,0.000000,0.000000,TRUE,0.011246,-0.096954,0.000000,0.087341,-0.254898,0.000000,0.037000,0.059000,0.082000,-0.640000,0.120000,1.520000,6.406225,Hold,0.374512,0.000000,Reset,39617.000000,2.000000,LowGoal,2115.000000,-2181.818182,Speed,2130.000000,-2181.818182,Speed,Off,Off,0.000000,FALSE,13,Read: /home/lvuser/scripts/auto_13.bee,File good!,WAIT 1500,WAIT
03:19:24.523 PM 03/25/2016,Autonomous Enabled,9,TRUE,7,Read from Text File in DoesScriptNumberContainNull.vi->Disabled.vi->Robot Main.vi<APPEND> /home/lvuser/scripts/auto_11.bee,0.000000,0.000000,0.000000,0.000000,TRUE,FALSE,TRUE,TRUE,FALSE,FALSE,Disabled,0.000000,0.000000,0.000000,TRUE,0.016586,-0.110260,0.000000,0.056366,-0.218918,0.000000,0.112000,0.049000,0.123000,-0.650000,0.350000,1.630000,6.411255,Hold,0.374512,0.000000,Hold,-185.000000,2.000000,LowGoal,2115.000000,-2181.818182,Speed,2137.500000,-2181.818182,Speed,Off,Off,0.000000,FALSE,13,Read: /home/lvuser/scripts/auto_13.bee,File good!,WAIT 1500,WAIT
03:19:24.624 PM 03/25/2016,Autonomous Enabled,10,TRUE,7,Read from Text File in DoesScriptNumberContainNull.vi->Disabled.vi->Robot Main.vi<APPEND> /home/lvuser/scripts/auto_11.bee,0.000000,0.000000,0.000000,0.000000,TRUE,FALSE,TRUE,TRUE,FALSE,FALSE,Disabled,0.000000,0.000000,0.000000,TRUE,0.018311,-0.118378,0.000000,0.042618,-0.182571,0.000000,-0.026000,-0.087000,-0.023000,-0.650000,0.200000,1.520000,6.424333,Hold,0.374512,0.000000,Hold,-161.000000,2.000000,LowGoal,2115.000000,-2181.818182,Speed,2130.000000,-2181.818182,Speed,Off,Off,0.000000,FALSE,13,Read: /home/lvuser/scripts/auto_13.bee,File good!,WAIT 1500,WAIT
03:19:24.724 PM 03/25/2016,Autonomous Enabled,10,TRUE,7,Read from Text File in DoesScriptNumberContainNull.vi->Disabled.vi->Robot Main.vi<APPEND> /home/lvuser/scripts/auto_11.bee,0.000000,0.000000,0.000000,0.000000,TRUE,FALSE,TRUE,TRUE,FALSE,FALSE,Disabled,0.000000,0.000000,0.000000,TRUE,0.019638,-0.128754,0.000000,0.007263,-0.243393,0.000000,-0.022000,-0.022000,0.203000,-0.650000,0.190000,1.550000,0.011326,Hold,0.374512,58.000000,Hold,-159.000000,2.000000,LowGoal,2130.000000,-2181.818182,Speed,2137.500000,-2181.818182,Speed,Off,Off,0.000000,FALSE,13,Read: /home/lvuser/scripts/auto_13.bee,File good!,WAIT 750,WAIT
03:19:24.825 PM 03/25/2016,Autonomous Enabled,9,TRUE,7,Read from Text File in DoesScriptNumberContainNull.vi->Disabled.vi->Robot Main.vi<APPEND> /home/lvuser/scripts/auto_11.bee,0.000000,0.000000,0.000000,0.000000,TRUE,FALSE,TRUE,TRUE,FALSE,FALSE,Disabled,0.000000,0.000000,0.000000,TRUE,0.020386,-0.142242,0.000000,0.019333,-0.291031,0.000000,0.030000,-0.008000,0.070000,0.000000,0.300000,1.470000,0.015237,Hold,3.451904,58.000000,Hold,-159.000000,151552.000000,LowGoal,2137.500000,-2181.818182,Speed,2137.500000,-2181.818182,Speed,Off,Off,0.000000,FALSE,13,Read: /home/lvuser/scripts/auto_13.bee,File good!,WAIT 750,WAIT
03:19:24.926 PM 03/25/2016,Autonomous Enabled,10,TRUE,7,Read from Text File in DoesScriptNumberContainNull.vi->Disabled.vi->Robot Main.vi<APPEND> /home/lvuser/scripts/auto_12.bee,0.000000,0.000000,0.000000,0.000000,TRUE,FALSE,TRUE,TRUE,FALSE,FALSE,Disabled,0.000000,0.000000,0.000000,TRUE,0.022491,-0.158752,0.000000,0.064285,-0.344574,0.000000,0.057000,-0.006000,0.168000,0.000000,0.280000,1.550000,0.017870,Hold,6.300781,58.000000,Hold,-6921.000000,151552.000000,LowGoal,2137.500000,-2181.818182,Speed,2137.500000,-2181.818182,Speed,Off,Off,0.000000,FALSE,13,Read: /home/lvuser/scripts/auto_13.bee,File good!,WAIT 750,WAIT
03:19:25.027 PM 03/25/2016,Autonomous Enabled,9,TRUE,7,Read from Text File in DoesScriptNumberContainNull.vi->Disabled.vi->Robot Main.vi<APPEND> /home/lvuser/scripts/auto_12.bee,0.000000,0.000000,0.000000,0.000000,TRUE,FALSE,TRUE,TRUE,FALSE,FALSE,Disabled,0.000000,0.000000,0.000000,TRUE,0.029297,-0.177185,0.000000,0.123764,-0.288467,0.000000,0.072000,0.000000,-0.182000,0.000000,0.260000,1.530000,0.003811,Hold,10.510254,58.000000,Hold,-6921.000000,151552.000000,LowGoal,2137.500000,-2181.818182,Speed,2130.000000,-2181.818182,Speed,Off,Off,0.000000,FALSE,13,Read: /home/lvuser/scripts/auto_13.bee,File good!,WAIT 750,WAIT
03:19:25.127 PM 03/25/2016,Autonomous Enabled,11,TRUE,7,Read from Text File in DoesScriptNumberContainNull.vi->Disabled.vi->Robot Main.vi<APPEND> /home/lvuser/scripts/auto_12.bee,0.000000,0.000000,0.000000,0.000000,TRUE,FALSE,TRUE,TRUE,FALSE,FALSE,Disabled,0.000000,0.000000,0.000000,TRUE,0.032364,-0.189484,0.000000,-0.015900,-0.240524,0.000000,0.006000,0.103000,-0.249000,0.000000,0.330000,1.380000,-0.000096,Hold,15.510010,58.000000,Hold,-19109.000000,151552.000000,LowGoal,2137.500000,-2181.818182,Speed,2145.000000,-2181.818182,Speed,Off,Off,0.000000,FALSE,13,Read: /home/lvuser/scripts/auto_13.bee,File good!,WAIT 750,WAIT
03:19:25.227 PM 03/25/2016,Autonomous Enabled,10,TRUE,7,Read from Text File in DoesScriptNumberContainNull.vi->Disabled.vi->Robot Main.vi<APPEND> /home/lvuser/scripts/auto_12.bee,0.000000,0.000000,0.000000,0.000000,TRUE,FALSE,TRUE,TRUE,FALSE,FALSE,Disabled,0.000000,0.000000,0.000000,TRUE,0.029587,-0.199783,0.000000,-0.072556,-0.240829,0.000000,-0.143000,-0.072000,-0.304000,0.000000,0.180000,1.410000,0.044653,Hold,21.387695,58.000000,Hold,-30662.000000,151552.000000,LowGoal,2115.000000,-2181.818182,Speed,2145.000000,-2181.818182,Speed,Off,Off,0.000000,FALSE,13,Read: /home/lvuser/scripts/auto_13.bee,File good!,WAIT 750,WAIT
03:19:25.328 PM 03/25/2016,Autonomous Enabled,10,TRUE,7,Read from Text File in DoesScriptNumberContainNull.vi->Disabled.vi->Robot Main.vi<APPEND> /home/lvuser/scripts/auto_12.bee,0.000000,0.000000,0.000000,0.000000,TRUE,FALSE,TRUE,TRUE,FALSE,FALSE,Disabled,0.000000,0.000000,0.000000,TRUE,0.029587,-0.199783,0.000000,-0.072556,-0.240829,0.000000,0.043000,0.043000,-0.062000,0.030000,0.160000,1.440000,-0.003236,Hold,26.756104,58.000000,Hold,-40627.000000,151552.000000,LowGoal,2100.000000,-2181.818182,Speed,2160.000000,-2181.818182,Speed,Off,Off,0.000000,FALSE,13,Read: /home/lvuser/scripts/auto_13.bee,File good!,WAIT 750,WAIT
03:19:25.430 PM 03/25/2016,Autonomous Enabled,10,TRUE,7,Read from Text File in DoesScriptNumberContainNull.vi->Disabled.vi->Robot Main.vi<APPEND> /home/lvuser/scripts/auto_12.bee,0.000000,0.000000,0.000000,0.000000,TRUE,FALSE,TRUE,TRUE,FALSE,FALSE,Disabled,0.000000,0.000000,0.000000,TRUE,0.026505,-0.228775,0.000000,-0.038010,-0.290176,0.000000,0.051000,-0.055000,0.164000,0.000000,0.260000,1.560000,0.013626,Hold,34.415283,58.000000,Hold,-52472.000000,151552.000000,LowGoal,2107.500000,-2181.818182,Speed,2152.500000,-2181.818182,Speed,Off,Off,0.000000,FALSE,13,Read: /home/lvuser/scripts/auto_13.bee,File good!,WAIT 750,WAIT
03:19:25.531 PM 03/25/2016,Autonomous Enabled,10,TRUE,7,Read from Text File in DoesScriptNumberContainNull.vi->Disabled.vi->Robot Main.vi<APPEND> /home/lvuser/scripts/auto_12.bee,0.000000,-0.032083,0.000000,0.019250,TRUE,FALSE,TRUE,TRUE,FALSE,FALSE,Disabled,0.000000,0.000000,0.000000,TRUE,0.026505,-0.228775,0.000000,-0.038010,-0.290176,0.000000,0.140000,0.023000,0.290000,0.000000,0.170000,1.600000,0.054723,Hold,43.649902,58.000000,Hold,-65350.000000,151552.000000,LowGoal,2107.500000,-2181.818182,Speed,2160.000000,-2181.818182,Speed,Off,Off,0.000000,FALSE,13,Read: /home/lvuser/scripts/auto_13.bee,File good!,DRIVE_STRAIGHT_TARGET 206 1000 10000 75,DRIVE_STRAIGHT_TARGET
03:19:25.631 PM 03/25/2016,Autonomous Enabled,11,TRUE,7,Read from Text File in DoesScriptNumberContainNull.vi->Disabled.vi->Robot Main.vi<APPEND> /home/lvuser/scripts/auto_12.bee,0.000000,-2.034079,0.000000,2.239411,TRUE,FALSE,TRUE,TRUE,FALSE,FALSE,Disabled,0.000000,0.000000,0.000000,TRUE,0.043304,-0.260193,0.000000,0.432816,-0.322021,0.000000,0.061000,-0.068000,0.096000,0.010000,0.130000,1.590000,0.038615,Hold,55.179688,58.000000,Hold,-82269.000000,151552.000000,LowGoal,2137.500000,-2181.818182,Speed,2152.500000,-2181.818182,Speed,Off,Off,0.000000,FALSE,13,Read: /home/lvuser/scripts/auto_13.bee,File good!,DRIVE_STRAIGHT_TARGET 206 1000 10000 75,DRIVE_STRAIGHT_TARGET
03:19:25.731 PM 03/25/2016,Autonomous Enabled,10,TRUE,7,Read from Text File in DoesScriptNumberContainNull.vi->Disabled.vi->Robot Main.vi<APPEND> /home/lvuser/scripts/auto_12.bee,0.000000,-5.242404,0.000000,5.422071,FALSE,FALSE,TRUE,TRUE,FALSE,FALSE,Disabled,0.000000,0.000000,0.000000,TRUE,0.043304,-0.260193,0.000000,0.432816,-0.322021,0.000000,0.622000,-0.101000,0.085000,-0.060000,3.460000,1.690000,0.018666,Hold,61.383301,58.000000,Hold,-82269.000000,151552.000000,LowGoal,2130.000000,-2181.818182,Speed,2115.000000,-2181.818182,Speed,Off,Off,0.000000,FALSE,13,Read: /home/lvuser/scripts/auto_13.bee,File good!,DRIVE_STRAIGHT_TARGET 206 1000 10000 75,DRIVE_STRAIGHT_TARGET
03:19:25.831 PM 03/25/2016,Autonomous Enabled,11,TRUE,7,Read from Text File in DoesScriptNumberContainNull.vi->Disabled.vi->Robot Main.vi<APPEND> /home/lvuser/scripts/auto_12.bee,0.000000,-9.156562,0.000000,9.349061,FALSE,FALSE,TRUE,TRUE,FALSE,FALSE,Disabled,0.000000,0.000000,0.000000,TRUE,0.119431,-0.288345,0.000000,0.829208,-0.226151,0.000000,0.103000,0.181000,0.282000,-0.070000,3.160000,1.560000,0.070276,Hold,62.000000,58.000000,Hold,-96364.000000,151552.000000,LowGoal,2122.500000,-2181.818182,Speed,2100.000000,-2181.818182,Speed,Off,Off,0.000000,FALSE,13,Read: /home/lvuser/scripts/auto_13.bee,File good!,DRIVE_STRAIGHT_TARGET 206 1000 10000 75,DRIVE_STRAIGHT_TARGET
03:19:25.931 PM 03/25/2016,Autonomous Enabled,10,TRUE,7,Read from Text File in DoesScriptNumberContainNull.vi->Disabled.vi->Robot Main.vi<APPEND> /home/lvuser/scripts/auto_12.bee,0.000000,-9.156562,0.000000,9.349061,FALSE,FALSE,TRUE,TRUE,FALSE,FALSE,Disabled,0.000000,0.000000,0.000000,TRUE,0.119431,-0.288345,0.000000,0.829208,-0.226151,0.000000,-0.092000,-0.002000,0.076000,-0.030000,4.330000,1.540000,0.070276,Hold,61.630371,58.000000,Hold,-109109.000000,151552.000000,LowGoal,2122.500000,-2181.818182,Speed,2130.000000,-2181.818182,Speed,Off,Off,0.000000,FALSE,13,Read: /home/lvuser/scripts/auto_13.bee,File good!,DRIVE_STRAIGHT_TARGET 206 1000 10000 75,DRIVE_STRAIGHT_TARGET
03:19:26.032 PM 03/25/2016,Autonomous Enabled,11,TRUE,7,Read from Text File in DoesScriptNumberContainNull.vi->Disabled.vi->Robot Main.vi<APPEND> /home/lvuser/scripts/auto_12.bee,0.000000,-13.455719,0.000000,13.628968,FALSE,FALSE,TRUE,TRUE,FALSE,FALSE,Disabled,0.000000,0.000000,0.000000,TRUE,0.160141,-0.296097,0.000000,0.808014,-0.063156,0.000000,-0.117000,0.264000,-0.471000,-0.100000,3.250000,1.420000,0.036501,Hold,61.572266,58.000000,Hold,-125056.000000,151552.000000,LowGoal,2122.500000,-2181.818182,Speed,2145.000000,-2181.818182,Speed,Off,Off,0.000000,FALSE,13,Read: /home/lvuser/scripts/auto_13.bee,File good!,DRIVE_STRAIGHT_TARGET 206 1000 10000 75,DRIVE_STRAIGHT_TARGET
03:19:26.132 PM 03/25/2016,Autonomous Enabled,11,TRUE,7,Read from Text File in DoesScriptNumberContainNull.vi->Disabled.vi->Robot Main.vi<APPEND> /home/lvuser/scripts/auto_12.bee,0.000000,-17.921708,0.000000,18.248957,FALSE,FALSE,TRUE,TRUE,FALSE,FALSE,Disabled,0.000000,0.000000,0.000000,TRUE,0.194931,-0.292358,0.000000,0.603622,0.186081,0.000000,-0.100000,0.264000,0.369000,-0.280000,3.440000,1.550000,-0.171643,Hold,61.558105,58.000000,Hold,-143182.000000,151552.000000,LowGoal,2130.000000,-2181.818182,Speed,2137.500000,-2181.818182,Speed,Off,Off,0.000000,FALSE,13,Read: /home/lvuser/scripts/auto_13.bee,File good!,DRIVE_STRAIGHT_TARGET 206 1000 10000 75,DRIVE_STRAIGHT_TARGET
03:19:26.233 PM 03/25/2016,Autonomous Enabled,9,TRUE,7,Read from Text File in DoesScriptNumberContainNull.vi->Disabled.vi->Robot Main.vi<APPEND> /home/lvuser/scripts/auto_12.bee,0.000000,-22.426198,0.000000,22.734197,FALSE,FALSE,TRUE,TRUE,FALSE,FALSE,Disabled,0.000000,0.000000,0.000000,TRUE,0.223907,-0.277359,0.000000,0.571106,0.341232,0.000000,-0.196000,0.042000,-0.127000,-0.360000,3.300000,1.460000,-0.251703,Hold,61.554443,58.000000,Hold,-150969.000000,151552.000000,LowGoal,2077.500000,-2181.818182,Speed,2137.500000,-2181.818182,Speed,Off,Off,0.000000,FALSE,13,Read: /home/lvuser/scripts/auto_13.bee,File good!,DRIVE_STRAIGHT_TARGET 206 1000 10000 75,DRIVE_STRAIGHT_TARGET
03:19:26.335 PM 03/25/2016,Autonomous Enabled,9,TRUE,7,Read from Text File in DoesScriptNumberContainNull.vi->Disabled.vi->Robot Main.vi<APPEND> /home/lvuser/scripts/auto_12.bee,0.000000,-27.116770,0.000000,27.379853,FALSE,FALSE,TRUE,TRUE,FALSE,FALSE,Disabled,0.000000,0.000000,0.000000,TRUE,0.254166,-0.258606,0.000000,0.501541,0.264084,0.000000,-0.125000,0.014000,-0.226000,-0.390000,3.220000,1.490000,-0.295767,Hold,61.526855,58.000000,Hold,-150969.000000,151552.000000,LowGoal,2025.000000,-2181.818182,Speed,2137.500000,-2181.818182,Speed,Off,Off,0.000000,FALSE,13,Read: /home/lvuser/scripts/auto_13.bee,File good!,DRIVE_STRAIGHT_TARGET 206 1000 10000 75,DRIVE_STRAIGHT_TARGET
03:19:26.436 PM 03/25/2016,Autonomous Enabled,10,TRUE,7,Read from Text File in DoesScriptNumberContainNull.vi->Disabled.vi->Robot Main.vi<APPEND> /home/lvuser/scripts/auto_12.bee,0.000000,-31.512176,0.000000,31.756009,TRUE,FALSE,TRUE,TRUE,FALSE,FALSE,Disabled,0.000000,0.000000,0.000000,TRUE,0.276428,-0.245438,0.000000,0.418655,0.272156,0.000000,-0.112000,0.103000,0.054000,-0.280000,2.870000,1.550000,-0.192601,Hold,61.526855,58.000000,Hold,-151736.000000,151552.000000,LowGoal,2115.000000,-2181.818182,Speed,2130.000000,-2181.818182,Speed,Off,Off,0.000000,FALSE,13,Read: /home/lvuser/scripts/auto_13.bee,File good!,DRIVE_STRAIGHT_TARGET 206 1000 10000 75,DRIVE_STRAIGHT_TARGET
03:19:26.536 PM 03/25/2016,Autonomous Enabled,9,TRUE,7,Read from Text File in DoesScriptNumberContainNull.vi->Disabled.vi->Robot Main.vi<APPEND> /home/lvuser/scripts/auto_12.bee,0.000000,-35.958916,0.000000,36.144999,TRUE,FALSE,TRUE,TRUE,FALSE,FALSE,Disabled,0.000000,0.000000,0.000000,TRUE,0.294907,-0.229706,0.000000,0.344635,0.335617,0.000000,0.108000,0.037000,0.219000,-0.220000,2.800000,1.500000,-0.135055,Hold,61.526855,58.000000,Hold,-151685.000000,151552.000000,LowGoal,2167.500000,-2181.818182,Speed,2137.500000,-2181.818182,Speed,Off,Off,0.000000,FALSE,13,Read: /home/lvuser/scripts/auto_13.bee,File good!,DRIVE_STRAIGHT_TARGET 206 1000 10000 75,DRIVE_STRAIGHT_TARGET
03:19:26.636 PM 03/25/2016,Autonomous Enabled,11,TRUE,7,Read from Text File in DoesScriptNumberContainNull.vi->Disabled.vi->Robot Main.vi<APPEND> /home/lvuser/scripts/auto_12.bee,0.000000,-40.322239,0.000000,40.668738,TRUE,FALSE,TRUE,TRUE,FALSE,FALSE,Disabled,0.000000,0.000000,0.000000,TRUE,0.312256,-0.211945,0.000000,0.343445,0.364319,0.000000,-0.104000,0.016000,-0.056000,-0.240000,2.520000,1.420000,-0.154154,Hold,61.526855,58.000000,Hold,-151531.000000,151552.000000,LowGoal,2145.000000,-2181.818182,Speed,2137.500000,-2181.818182,Speed,Off,Off,0.000000,FALSE,13,Read: /home/lvuser/scripts/auto_13.bee,File good!,DRIVE_STRAIGHT_TARGET 206 1000 10000 75,DRIVE_STRAIGHT_TARGET
03:19:26.738 PM 03/25/2016,Autonomous Enabled,9,TRUE,7,Read from Text File in DoesScriptNumberContainNull.vi->Disabled.vi->Robot Main.vi<APPEND> /home/lvuser/scripts/auto_12.bee,0.000000,-44.929395,0.000000,45.230978,TRUE,FALSE,TRUE,TRUE,FALSE,FALSE,Disabled,0.000000,0.000000,0.000000,TRUE,0.327179,-0.191742,0.000000,0.256195,0.457870,0.000000,-0.040000,0.119000,0.139000,-0.350000,2.740000,1.470000,-0.287206,Hold,61.526855,58.000000,Hold,-151531.000000,151552.000000,LowGoal,2122.500000,-2181.818182,Speed,2137.500000,-2181.818182,Speed,Off,Off,0.000000,FALSE,13,Read: /home/lvuser/scripts/auto_13.bee,File good!,DRIVE_STRAIGHT_TARGET 206 1000 10000 75,DRIVE_STRAIGHT_TARGET
03:19:26.840 PM 03/25/2016,Autonomous Enabled,10,FALSE,0,NO ERROR,0.000000,-49.196468,0.000000,49.491634,FALSE,FALSE,TRUE,TRUE,FALSE,FALSE,Disabled,0.000000,0.000000,0.000000,TRUE,0.338028,-0.166138,0.000000,0.185135,0.523880,0.000000,-0.111000,0.096000,-0.165000,-0.310000,4.280000,1.340000,-0.293110,Hold,61.374756,58.000000,Hold,-151507.000000,151552.000000,LowGoal,2107.500000,-2181.818182,Speed,2137.500000,-2181.818182,Speed,Off,Off,0.000000,FALSE,13,Read: /home/lvuser/scripts/auto_13.bee,File good!,DRIVE_STRAIGHT_TARGET 206 1000 10000 75,DRIVE_STRAIGHT_TARGET
03:19:26.940 PM 03/25/2016,Autonomous Enabled,11,FALSE,0,NO ERROR,0.000000,-53.476375,0.000000,53.694541,FALSE,FALSE,TRUE,TRUE,FALSE,FALSE,Disabled,0.000000,0.000000,0.000000,TRUE,0.348618,-0.132370,0.000000,0.193588,0.558060,0.000000,-0.006000,-0.040000,0.058000,-0.200000,5.680000,1.380000,-0.217745,Hold,61.223877,58.000000,Hold,-151507.000000,151552.000000,LowGoal,2085.000000,-2181.818182,Speed,2137.500000,-2181.818182,Speed,Off,Off,0.000000,FALSE,13,Read: /home/lvuser/scripts/auto_13.bee,File good!,DRIVE_STRAIGHT_TARGET 206 1000 10000 75,DRIVE_STRAIGHT_TARGET
03:19:27.040 PM 03/25/2016,Autonomous Enabled,11,FALSE,0,NO ERROR,0.000000,-57.781948,0.000000,57.961614,FALSE,FALSE,TRUE,TRUE,FALSE,FALSE,Disabled,0.000000,0.000000,0.000000,TRUE,0.359390,-0.105560,0.000000,0.192520,0.522003,0.000000,-0.120000,-0.027000,-0.006000,-0.030000,8.360000,1.290000,-0.060162,Hold,61.469238,58.000000,Hold,-151507.000000,151552.000000,LowGoal,2017.500000,-2181.818182,Speed,2145.000000,-2181.818182,Speed,Off,Off,0.000000,FALSE,13,Read: /home/lvuser/scripts/auto_13.bee,File good!,DRIVE_STRAIGHT_TARGET 206 1000 10000 75,DRIVE_STRAIGHT_TARGET
03:19:27.140 PM 03/25/2016,Autonomous Enabled,11,FALSE,0,NO ERROR,0.000000,-61.785939,0.000000,62.016938,FALSE,FALSE,TRUE,TRUE,FALSE,FALSE,Disabled,0.000000,0.000000,0.000000,TRUE,0.366104,-0.100571,0.000000,0.102661,-0.006668,0.000000,0.084000,0.153000,0.427000,-0.050000,9.780000,1.110000,-0.127120,Hold,61.469238,58.000000,Hold,-151507.000000,151552.000000,LowGoal,2017.500000,-2181.818182,Speed,2145.000000,-2181.818182,Speed,Off,Off,0.000000,FALSE,13,Read: /home/lvuser/scripts/auto_13.bee,File good!,DRIVE_STRAIGHT_TARGET 206 1000 10000 75,DRIVE_STRAIGHT_TARGET
03:19:27.241 PM 03/25/2016,Autonomous Enabled,10,FALSE,0,NO ERROR,0.000000,-65.732180,0.000000,65.950346,FALSE,FALSE,TRUE,TRUE,FALSE,FALSE,Disabled,0.000000,0.000000,0.000000,TRUE,0.370041,-0.099747,0.000000,0.081146,0.027756,0.000000,0.004000,0.045000,0.255000,0.000000,8.500000,1.300000,-0.070961,Hold,61.323486,58.000000,Hold,-151675.000000,151552.000000,LowGoal,2107.500000,-2181.818182,Speed,2137.500000,-2181.818182,Speed,Off,Off,0.000000,FALSE,13,Read: /home/lvuser/scripts/auto_13.bee,File good!,DRIVE_STRAIGHT_TARGET 206 1000 10000 75,DRIVE_STRAIGHT_TARGET
03:19:27.340 PM 03/25/2016,Autonomous Enabled,11,FALSE,0,NO ERROR,0.000000,-69.704087,0.000000,69.954336,FALSE,FALSE,TRUE,TRUE,FALSE,FALSE,Disabled,0.000000,0.000000,0.000000,TRUE,0.374176,-0.098587,0.000000,0.034805,-0.025955,0.000000,0.047000,-0.128000,0.185000,-0.040000,7.200000,1.310000,-0.056957,Hold,61.401611,58.000000,Hold,-151641.000000,151552.000000,LowGoal,2145.000000,-2181.818182,Speed,2137.500000,-2181.818182,Speed,Off,Off,0.000000,FALSE,13,Read: /home/lvuser/scripts/auto_13.bee,File good!,DRIVE_STRAIGHT_TARGET 206 1000 10000 75,DRIVE_STRAIGHT_TARGET
03:19:27.440 PM 03/25/2016,Autonomous Enabled,11,FALSE,0,NO ERROR,0.000000,-73.496328,0.000000,73.688828,FALSE,FALSE,TRUE,TRUE,FALSE,FALSE,Disabled,0.000000,0.000000,0.000000,TRUE,0.378555,-0.103043,0.000000,0.171219,-0.137863,0.000000,0.239000,-0.042000,-0.557000,-0.100000,5.500000,1.390000,-0.039972,Hold,61.388916,58.000000,Hold,-151648.000000,151552.000000,LowGoal,2130.000000,-2181.818182,Speed,2152.500000,-2181.818182,Speed,Off,Off,0.000000,FALSE,13,Read: /home/lvuser/scripts/auto_13.bee,File good!,DRIVE_STRAIGHT_TARGET 206 1000 10000 75,DRIVE_STRAIGHT_TARGET
03:19:27.541 PM 03/25/2016,Autonomous Enabled,11,FALSE,0,NO ERROR,0.000000,-77.679985,0.000000,77.962318,FALSE,FALSE,TRUE,TRUE,FALSE,FALSE,Disabled,0.000000,0.000000,0.000000,TRUE,0.392532,-0.112686,0.000000,0.318893,-0.223358,0.000000,0.010000,-0.144000,0.312000,-0.150000,5.180000,1.440000,-0.103291,Hold,61.531250,58.000000,Hold,-151606.000000,151552.000000,LowGoal,2115.000000,-2181.818182,Speed,2137.500000,-2181.818182,Speed,Off,Off,0.000000,FALSE,13,Read: /home/lvuser/scripts/auto_13.bee,File good!,DRIVE_STRAIGHT_TARGET 206 1000 10000 75,DRIVE_STRAIGHT_TARGET
03:19:27.642 PM 03/25/2016,Autonomous Enabled,10,FALSE,0,NO ERROR,0.000000,-81.908558,0.000000,82.165225,TRUE,FALSE,TRUE,TRUE,FALSE,FALSE,Disabled,0.000000,0.000000,0.000000,TRUE,0.413239,-0.126801,0.000000,0.361633,-0.194931,0.000000,0.238000,0.035000,-0.207000,-0.170000,1.900000,1.410000,-0.095882,Hold,61.274170,58.000000,Hold,-151689.000000,151552.000000,LowGoal,2122.500000,-2181.818182,Speed,2122.500000,-2181.818182,Speed,Off,Off,0.000000,FALSE,13,Read: /home/lvuser/scripts/auto_13.bee,File good!,DRIVE_STRAIGHT_TARGET 206 1000 10000 75,DRIVE_STRAIGHT_TARGET
03:19:27.743 PM 03/25/2016,Autonomous Enabled,11,FALSE,0,NO ERROR,0.000000,-86.316798,0.000000,86.733881,TRUE,FALSE,TRUE,TRUE,FALSE,FALSE,Disabled,0.000000,0.000000,0.000000,TRUE,0.430740,-0.135300,0.000000,0.445541,-0.219620,0.000000,-0.041000,-0.084000,0.174000,-0.320000,-0.090000,1.540000,-0.199613,Hold,61.547607,58.000000,Hold,-151742.000000,151552.000000,LowGoal,2122.500000,-2181.818182,Speed,2130.000000,-2181.818182,Speed,Off,Off,0.000000,FALSE,13,Read: /home/lvuser/scripts/auto_13.bee,File good!,DRIVE_STRAIGHT_TARGET 206 1000 10000 75,DRIVE_STRAIGHT_TARGET
03:19:27.844 PM 03/25/2016,Autonomous Enabled,9,FALSE,0,NO ERROR,0.000000,-90.853371,0.000000,91.302536,TRUE,FALSE,TRUE,TRUE,FALSE,FALSE,Disabled,0.000000,0.000000,0.000000,TRUE,0.451263,-0.146515,0.000000,0.355286,-0.198578,0.000000,-0.022000,0.012000,0.004000,-0.520000,-2.260000,1.490000,-0.351182,Hold,61.511719,58.000000,Hold,-151742.000000,151552.000000,LowGoal,2107.500000,-2181.818182,Speed,2145.000000,-2181.818182,Speed,Off,Off,0.000000,FALSE,13,Read: /home/lvuser/scripts/auto_13.bee,File good!,DRIVE_STRAIGHT_TARGET 206 1000 10000 75,DRIVE_STRAIGHT_TARGET
03:19:27.945 PM 03/25/2016,Autonomous Enabled,9,FALSE,0,NO ERROR,0.000000,-95.268027,0.000000,95.819859,FALSE,FALSE,TRUE,TRUE,FALSE,FALSE,Disabled,0.000000,0.000000,0.000000,TRUE,0.469223,-0.156418,0.000000,0.382675,-0.194778,0.000000,0.088000,0.087000,-0.317000,-0.840000,-3.760000,1.770000,-0.663291,Hold,61.511719,58.000000,Hold,-151636.000000,151552.000000,LowGoal,2145.000000,-2181.818182,Speed,2137.500000,-2181.818182,Speed,Off,Off,0.000000,FALSE,13,Read: /home/lvuser/scripts/auto_13.bee,File good!,DRIVE_STRAIGHT_TARGET 206 1000 10000 75,DRIVE_STRAIGHT_TARGET
03:19:28.045 PM 03/25/2016,Autonomous Enabled,9,FALSE,0,NO ERROR,0.000000,-100.003516,0.000000,100.581015,FALSE,FALSE,TRUE,TRUE,FALSE,FALSE,Disabled,0.000000,0.000000,0.000000,TRUE,0.490341,-0.165253,0.000000,0.461319,-0.191971,0.000000,-0.108000,0.224000,1.024000,-1.030000,-4.550000,2.070000,-0.900380,Hold,61.478027,58.000000,Hold,-151607.000000,151552.000000,LowGoal,2160.000000,-2181.818182,Speed,2137.500000,-2181.818182,Speed,Off,Off,0.000000,FALSE,13,Read: /home/lvuser/scripts/auto_13.bee,File good!,DRIVE_STRAIGHT_TARGET 206 1000 10000 75,DRIVE_STRAIGHT_TARGET
03:19:28.146 PM 03/25/2016,Autonomous Enabled,11,FALSE,0,NO ERROR,0.000000,-104.989254,0.000000,105.329337,FALSE,FALSE,TRUE,TRUE,FALSE,FALSE,Disabled,0.000000,0.000000,0.000000,TRUE,0.516052,-0.172409,0.000000,0.413376,-0.098312,0.000000,-0.101000,-0.088000,-1.120000,-0.400000,-6.440000,1.740000,-0.421101,Hold,61.872803,58.000000,Hold,-151588.000000,151552.000000,LowGoal,2152.500000,-2181.818182,Speed,2145.000000,-2181.818182,Speed,Off,Off,0.000000,FALSE,13,Read: /home/lvuser/scripts/auto_13.bee,File good!,DRIVE_STRAIGHT_TARGET 206 1000 10000 75,DRIVE_STRAIGHT_TARGET
03:19:28.246 PM 03/25/2016,Autonomous Enabled,9,FALSE,0,NO ERROR,0.000000,-110.180326,0.000000,110.456242,FALSE,FALSE,TRUE,TRUE,FALSE,FALSE,Disabled,0.000000,0.000000,0.000000,TRUE,0.536591,-0.179108,0.000000,0.392868,-0.162445,0.000000,-0.228000,0.185000,0.847000,-0.450000,-3.470000,1.660000,-0.300067,Hold,61.314941,58.000000,Hold,-151585.000000,151552.000000,LowGoal,1935.000000,-2181.818182,Speed,2145.000000,-2181.818182,Speed,Off,Off,0.000000,FALSE,13,Read: /home/lvuser/scripts/auto_13.bee,File good!,DRIVE_STRAIGHT_TARGET 206 1000 10000 75,DRIVE_STRAIGHT_TARGET
03:19:28.347 PM 03/25/2016,Autonomous Enabled,10,FALSE,0,NO ERROR,0.000000,-115.345730,0.000000,115.647313,TRUE,FALSE,TRUE,TRUE,FALSE,FALSE,Disabled,0.000000,0.000000,0.000000,TRUE,0.553543,-0.183823,0.000000,0.327103,-0.090286,0.000000,0.050000,0.048000,0.255000,-0.500000,-0.770000,1.680000,-0.351489,Hold,61.289795,58.000000,Hold,-151585.000000,151552.000000,LowGoal,2010.000000,-2181.818182,Speed,2137.500000,-2181.818182,Speed,Off,Off,0.000000,FALSE,13,Read: /home/lvuser/scripts/auto_13.bee,File good!,DRIVE_STRAIGHT_TARGET 206 1000 10000 75,DRIVE_STRAIGHT_TARGET
03:19:28.448 PM 03/25/2016,Autonomous Enabled,10,FALSE,0,NO ERROR,0.000000,-120.318635,0.000000,120.517552,TRUE,FALSE,TRUE,TRUE,FALSE,FALSE,Disabled,0.000000,0.000000,0.000000,TRUE,0.567657,-0.187927,0.000000,0.227859,-0.073288,0.000000,0.003000,0.057000,0.140000,-0.480000,1.280000,1.570000,-0.384589,Hold,61.214111,58.000000,Hold,-151585.000000,151552.000000,LowGoal,2212.500000,-2181.818182,Speed,2145.000000,-2181.818182,Speed,Off,Off,0.000000,FALSE,13,Read: /home/lvuser/scripts/auto_13.bee,File good!,DRIVE_STRAIGHT_TARGET 206 1000 10000 75,DRIVE_STRAIGHT_TARGET
03:19:28.548 PM 03/25/2016,Autonomous Enabled,10,FALSE,0,NO ERROR,0.000000,-124.951458,0.000000,125.163207,TRUE,FALSE,TRUE,TRUE,FALSE,FALSE,Disabled,0.000000,0.000000,0.000000,TRUE,0.579865,-0.190720,0.000000,0.279419,-0.063171,0.000000,0.058000,-0.012000,0.136000,-0.380000,0.770000,1.430000,-0.241995,Hold,60.894531,58.000000,Hold,-151585.000000,151552.000000,LowGoal,2167.500000,-2181.818182,Speed,2160.000000,-2181.818182,Speed,Off,Off,0.000000,FALSE,13,Read: /home/lvuser/scripts/auto_13.bee,File good!,DRIVE_STRAIGHT_TARGET 206 1000 10000 75,DRIVE_STRAIGHT_TARGET
03:19:28.649 PM 03/25/2016,Autonomous Enabled,11,FALSE,0,NO ERROR,0.000000,-129.552197,0.000000,129.725447,TRUE,FALSE,TRUE,TRUE,FALSE,FALSE,Disabled,0.000000,0.000000,0.000000,TRUE,0.593475,-0.195145,0.000000,0.264252,-0.111404,0.000000,-0.158000,-0.065000,0.025000,-0.390000,0.660000,1.340000,-0.234696,Hold,61.160645,58.000000,Hold,-151585.000000,151552.000000,LowGoal,2100.000000,-2181.818182,Speed,2145.000000,-2181.818182,Speed,Off,Off,0.000000,FALSE,13,Read: /home/lvuser/scripts/auto_13.bee,File good!,DRIVE_STRAIGHT_TARGET 206 1000 10000 75,DRIVE_STRAIGHT_TARGET
03:19:28.749 PM 03/25/2016,Autonomous Enabled,10,FALSE,0,NO ERROR,0.000000,-134.114436,0.000000,134.351852,TRUE,FALSE,TRUE,TRUE,FALSE,FALSE,Disabled,0.000000,0.000000,0.000000,TRUE,0.602524,-0.201691,0.000000,0.125854,-0.133026,0.000000,-0.082000,0.091000,0.032000,-0.480000,0.480000,1.290000,-0.301916,Hold,61.160645,58.000000,Hold,-151585.000000,151552.000000,LowGoal,2107.500000,-2181.818182,Speed,2137.500000,-2181.818182,Speed,Off,Off,0.000000,FALSE,13,Read: /home/lvuser/scripts/auto_13.bee,File good!,DRIVE_STRAIGHT_TARGET 206 1000 10000 75,DRIVE_STRAIGHT_TARGET
03:19:28.849 PM 03/25/2016,Autonomous Enabled,10,FALSE,0,NO ERROR,0.000000,-138.522676,0.000000,138.862759,TRUE,FALSE,TRUE,TRUE,FALSE,FALSE,Disabled,0.000000,0.000000,0.000000,TRUE,0.608444,-0.207153,0.000000,0.144882,-0.092545,0.000000,-0.063000,0.063000,-0.092000,-0.630000,0.530000,1.390000,-0.474949,Hold,61.160645,58.000000,Hold,-151585.000000,151552.000000,LowGoal,2130.000000,-2181.818182,Speed,2137.500000,-2181.818182,Speed,Off,Off,0.000000,FALSE,13,Read: /home/lvuser/scripts/auto_13.bee,File good!,DRIVE_STRAIGHT_TARGET 206 1000 10000 75,DRIVE_STRAIGHT_TARGET
03:19:28.950 PM 03/25/2016,Autonomous Enabled,10,FALSE,0,NO ERROR,0.000000,-143.052832,0.000000,143.335165,TRUE,FALSE,TRUE,TRUE,FALSE,FALSE,Disabled,0.000000,0.000000,0.000000,TRUE,0.615143,-0.210281,0.000000,0.116623,-0.040588,0.000000,0.000000,-0.005000,-0.013000,-0.620000,0.350000,1.430000,-0.481507,Hold,61.160645,58.000000,Hold,-151585.000000,151552.000000,LowGoal,2130.000000,-2181.818182,Speed,2137.500000,-2181.818182,Speed,Off,Off,0.000000,FALSE,13,Read: /home/lvuser/scripts/auto_13.bee,File good!,DRIVE_STRAIGHT_TARGET 206 1000 10000 75,DRIVE_STRAIGHT_TARGET
03:19:29.050 PM 03/25/2016,Autonomous Enabled,10,FALSE,0,NO ERROR,0.000000,-147.775488,0.000000,147.974404,TRUE,FALSE,TRUE,TRUE,FALSE,FALSE,Disabled,0.000000,0.000000,0.000000,TRUE,0.623154,-0.213089,0.000000,0.148621,-0.051941,0.000000,0.086000,0.033000,-0.059000,-0.460000,0.340000,1.470000,-0.322933,Hold,61.160645,58.000000,Hold,-151585.000000,151552.000000,LowGoal,2122.500000,-2181.818182,Speed,2137.500000,-2181.818182,Speed,Off,Off,0.000000,FALSE,13,Read: /home/lvuser/scripts/auto_13.bee,File good!,DRIVE_STRAIGHT_TARGET 206 1000 10000 75,DRIVE_STRAIGHT_TARGET
03:19:29.150 PM 03/25/2016,Autonomous Enabled,10,FALSE,0,NO ERROR,0.000000,-152.228644,0.000000,152.408310,TRUE,FALSE,TRUE,TRUE,FALSE,FALSE,Disabled,0.000000,0.000000,0.000000,TRUE,0.630936,-0.215332,0.000000,0.122025,0.000000,0.000000,-0.078000,0.041000,-0.026000,-0.360000,0.320000,1.460000,-0.192329,Hold,61.160645,58.000000,Hold,-151585.000000,151552.000000,LowGoal,2122.500000,-2181.818182,Speed,2137.500000,-2181.818182,Speed,Off,Off,0.000000,FALSE,13,Read: /home/lvuser/scripts/auto_13.bee,File good!,DRIVE_STRAIGHT_TARGET 206 1000 10000 75,DRIVE_STRAIGHT_TARGET
03:19:29.250 PM 03/25/2016,Autonomous Enabled,10,FALSE,0,NO ERROR,0.000000,-156.656134,0.000000,156.778050,TRUE,FALSE,TRUE,TRUE,FALSE,FALSE,Disabled,0.000000,0.000000,0.000000,TRUE,0.635422,-0.214096,0.000000,0.075027,0.044083,0.000000,-0.052000,0.076000,-0.055000,-0.370000,0.020000,1.380000,-0.229963,Hold,61.160645,58.000000,Hold,-151585.000000,151552.000000,LowGoal,2122.500000,-2181.818182,Speed,2137.500000,-2181.818182,Speed,Off,Off,0.000000,FALSE,13,Read: /home/lvuser/scripts/auto_13.bee,File good!,DRIVE_STRAIGHT_TARGET 206 1000 10000 75,DRIVE_STRAIGHT_TARGET
03:19:29.350 PM 03/25/2016,Autonomous Enabled,11,FALSE,0,NO ERROR,0.000000,-161.167040,0.000000,161.288956,TRUE,FALSE,TRUE,TRUE,FALSE,FALSE,Disabled,0.000000,0.000000,0.000000,TRUE,0.638092,-0.210236,0.000000,0.042404,0.104340,0.000000,-0.146000,0.051000,0.068000,-0.430000,0.230000,1.550000,-0.265807,Hold,61.160645,58.000000,Hold,-151585.000000,151552.000000,LowGoal,2130.000000,-2181.818182,Speed,2137.500000,-2181.818182,Speed,Off,Off,0.000000,FALSE,13,Read: /home/lvuser/scripts/auto_13.bee,File good!,DRIVE_STRAIGHT_TARGET 206 1000 10000 75,DRIVE_STRAIGHT_TARGET
03:19:29.450 PM 03/25/2016,Autonomous Enabled,10,FALSE,0,NO ERROR,0.000000,-165.633029,0.000000,165.774196,TRUE,FALSE,TRUE,TRUE,FALSE,FALSE,Disabled,0.000000,0.000000,0.000000,TRUE,0.636795,-0.203552,0.000000,-0.054031,0.143280,0.000000,0.040000,0.038000,0.106000,-0.460000,0.120000,1.630000,-0.303045,Hold,61.160645,58.000000,Hold,-151585.000000,151552.000000,LowGoal,2137.500000,-2181.818182,Speed,2137.500000,-2181.818182,Speed,Off,Off,0.000000,FALSE,13,Read: /home/lvuser/scripts/auto_13.bee,File good!,DRIVE_STRAIGHT_TARGET 206 1000 10000 75,DRIVE_STRAIGHT_TARGET
03:19:29.551 PM 03/25/2016,Autonomous Enabled,8,FALSE,0,NO ERROR,0.000000,-170.111852,0.000000,170.201685,TRUE,FALSE,TRUE,TRUE,FALSE,FALSE,Disabled,0.000000,0.000000,0.000000,TRUE,0.633820,-0.196045,0.000000,-0.040176,0.143509,0.000000,0.191000,-0.099000,0.090000,-0.460000,0.120000,1.630000,-0.154051,Hold,61.160645,58.000000,Hold,-151585.000000,151552.000000,LowGoal,2145.000000,-2181.818182,Speed,2145.000000,-2181.818182,Speed,Off,Off,0.000000,FALSE,13,Read: /home/lvuser/scripts/auto_13.bee,File good!,DRIVE_STRAIGHT_TARGET 206 1000 10000 75,DRIVE_STRAIGHT_TARGET
03:19:29.650 PM 03/25/2016,Autonomous Enabled,9,FALSE,0,NO ERROR,0.000000,-174.674092,0.000000,174.693341,TRUE,FALSE,TRUE,TRUE,FALSE,FALSE,Disabled,0.000000,0.000000,0.000000,TRUE,0.637222,-0.192352,0.000000,0.098083,-0.001434,0.000000,0.130000,-0.083000,-0.041000,-0.290000,0.180000,1.500000,-0.107749,Hold,61.160645,58.000000,Hold,-151585.000000,151552.000000,LowGoal,2137.500000,-2181.818182,Speed,2137.500000,-2181.818182,Speed,Off,Off,0.000000,FALSE,13,Read: /home/lvuser/scripts/auto_13.bee,File good!,DRIVE_STRAIGHT_TARGET 206 1000 10000 75,DRIVE_STRAIGHT_TARGET
03:19:29.751 PM 03/25/2016,Autonomous Enabled,11,FALSE,0,NO ERROR,0.000000,-179.069498,0.000000,179.165748,TRUE,FALSE,TRUE,TRUE,FALSE,FALSE,Disabled,0.000000,0.000000,0.000000,TRUE,0.640884,-0.194046,0.000000,0.069412,-0.085632,0.000000,-0.009000,-0.106000,-0.175000,-0.320000,0.030000,1.400000,-0.124831,Hold,61.160645,58.000000,Hold,-151585.000000,151552.000000,LowGoal,2130.000000,-2181.818182,Speed,2137.500000,-2181.818182,Speed,Off,Off,0.000000,FALSE,13,Read: /home/lvuser/scripts/auto_13.bee,File good!,DRIVE_STRAIGHT_TARGET 206 1000 10000 75,DRIVE_STRAIGHT_TARGET
03:19:29.852 PM 03/25/2016,Autonomous Enabled,10,FALSE,0,NO ERROR,0.000000,-183.535487,0.000000,183.695904,TRUE,FALSE,TRUE,TRUE,FALSE,FALSE,Disabled,0.000000,0.000000,0.000000,TRUE,0.639679,-0.199402,0.000000,-0.031723,-0.089264,0.000000,0.025000,0.058000,0.211000,-0.510000,0.000000,1.510000,-0.321724,Hold,61.160645,58.000000,Hold,-151585.000000,151552.000000,LowGoal,2137.500000,-2181.818182,Speed,2145.000000,-2181.818182,Speed,Off,Off,0.000000,FALSE,13,Read: /home/lvuser/scripts/auto_13.bee,File good!,DRIVE_STRAIGHT_TARGET 206 1000 10000 75,DRIVE_STRAIGHT_TARGET
03:19:29.952 PM 03/25/2016,Autonomous Enabled,10,FALSE,0,NO ERROR,0.000000,-187.982227,0.000000,188.129810,TRUE,FALSE,TRUE,TRUE,FALSE,FALSE,Disabled,0.000000,0.000000,0.000000,TRUE,0.641663,-0.202133,0.000000,0.094559,-0.034225,0.000000,0.049000,-0.014000,-0.088000,-0.610000,0.240000,1.570000,-0.421813,Hold,61.160645,58.000000,Hold,-151585.000000,151552.000000,LowGoal,2115.000000,-2181.818182,Speed,2137.500000,-2181.818182,Speed,Off,Off,0.000000,FALSE,13,Read: /home/lvuser/scripts/auto_13.bee,File good!,DRIVE_STRAIGHT_TARGET 206 1000 10000 75,DRIVE_STRAIGHT_TARGET
03:19:30.053 PM 03/25/2016,Autonomous Enabled,10,FALSE,0,NO ERROR,0.000000,-192.473883,0.000000,192.525216,TRUE,FALSE,TRUE,TRUE,FALSE,FALSE,Disabled,0.000000,0.000000,0.000000,TRUE,0.646820,-0.203262,0.000000,0.092010,-0.029037,0.000000,-0.021000,-0.011000,0.044000,-0.550000,0.150000,1.520000,-0.363131,Hold,61.160645,58.000000,Hold,-151585.000000,151552.000000,LowGoal,2100.000000,-2181.818182,Speed,2137.500000,-2181.818182,Speed,Off,Off,0.000000,FALSE,13,Read: /home/lvuser/scripts/auto_13.bee,File good!,DRIVE_STRAIGHT_TARGET 206 1000 10000 75,DRIVE_STRAIGHT_TARGET
03:19:30.153 PM 03/25/2016,Autonomous Enabled,9,FALSE,0,NO ERROR,0.000000,-196.971956,0.000000,196.965539,TRUE,FALSE,TRUE,TRUE,FALSE,FALSE,Disabled,0.000000,0.000000,0.000000,TRUE,0.652939,-0.205261,0.000000,0.116058,-0.027634,0.000000,-0.047000,-0.055000,0.125000,-0.370000,0.370000,1.570000,-0.173684,Hold,61.160645,58.000000,Hold,-151585.000000,151552.000000,LowGoal,2100.000000,-2181.818182,Speed,2145.000000,-2181.818182,Speed,Off,Off,0.000000,FALSE,13,Read: /home/lvuser/scripts/auto_13.bee,File good!,DRIVE_STRAIGHT_TARGET 206 1000 10000 75,DRIVE_STRAIGHT_TARGET
03:19:30.253 PM 03/25/2016,Autonomous Enabled,10,FALSE,0,NO ERROR,0.000000,-201.373779,0.000000,201.393029,TRUE,FALSE,TRUE,TRUE,FALSE,FALSE,Disabled,0.000000,0.000000,0.000000,TRUE,0.657486,-0.208069,0.000000,0.116348,-0.092621,0.000000,-0.058000,-0.036000,-0.115000,-0.380000,0.060000,1.550000,-0.146326,Hold,61.160645,58.000000,Hold,-151585.000000,151552.000000,LowGoal,2115.000000,-2181.818182,Speed,2137.500000,-2181.818182,Speed,Off,Off,0.000000,FALSE,13,Read: /home/lvuser/scripts/auto_13.bee,File good!,DRIVE_STRAIGHT_TARGET 206 1000 10000 75,DRIVE_STRAIGHT_TARGET
03:19:30.353 PM 03/25/2016,Autonomous Enabled,9,FALSE,0,NO ERROR,0.000000,-205.910352,0.000000,205.903935,TRUE,FALSE,TRUE,TRUE,FALSE,FALSE,Disabled,0.000000,0.000000,0.000000,TRUE,0.664429,-0.212769,0.000000,0.133301,-0.002533,0.000000,0.053000,-0.063000,0.230000,-0.460000,0.170000,1.620000,-0.235030,Hold,61.160645,58.000000,Hold,-151585.000000,151552.000000,LowGoal,2115.000000,-2181.818182,Speed,2137.500000,-2181.818182,Speed,Off,Off,0.000000,FALSE,13,Read: /home/lvuser/scripts/auto_13.bee,File good!,DRIVE_STRAIGHT_TARGET 206 1000 10000 75,DRIVE_STRAIGHT_TARGET
03:19:30.453 PM 03/25/2016,Autonomous Enabled,10,FALSE,0,NO ERROR,0.000000,-210.183842,0.000000,209.555010,TRUE,FALSE,TRUE,TRUE,FALSE,FALSE,Disabled,0.000000,0.000000,0.000000,TRUE,0.673065,-0.214493,0.000000,0.178833,-0.054794,0.000000,-0.094000,-0.028000,-0.012000,-0.560000,-0.060000,1.630000,-0.347640,Hold,61.160645,2.000000,Hold,-151585.000000,126976.000000,LowGoal,2107.500000,-1454.545455,Speed,2137.500000,-1454.545455,Speed,Off,Off,0.000000,FALSE,13,Read: /home/lvuser/scripts/auto_13.bee,File good!,SET_HEADING 59 50,SET_HEADING
03:19:30.554 PM 03/25/2016,Autonomous Enabled,10,FALSE,0,NO ERROR,0.000000,-213.007169,0.000000,210.177425,FALSE,FALSE,TRUE,TRUE,FALSE,FALSE,Disabled,0.000000,0.000000,0.000000,TRUE,0.662430,-0.202499,0.000000,-0.480621,0.435196,0.000000,-0.391000,0.477000,-0.280000,3.620000,-5.730000,2.830000,2.681071,Hold,56.872070,2.000000,Hold,-151585.000000,126976.000000,LowGoal,1995.000000,-1454.545455,Speed,2010.000000,-1454.545455,Speed,Off,Off,0.000000,FALSE,13,Read: /home/lvuser/scripts/auto_13.bee,File good!,SET_HEADING 59 50,SET_HEADING
03:19:30.654 PM 03/25/2016,Autonomous Enabled,9,FALSE,0,NO ERROR,0.000000,-215.124664,0.000000,209.907926,FALSE,FALSE,TRUE,TRUE,FALSE,FALSE,Disabled,0.000000,0.000000,0.000000,TRUE,0.631088,-0.175385,0.000000,-0.695251,0.497360,0.000000,-0.253000,-0.622000,0.594000,8.780000,-4.240000,1.710000,9.059877,Hold,46.339844,2.000000,Hold,-142786.000000,126976.000000,LowGoal,1335.000000,-1454.545455,Speed,1342.500000,-1454.545455,Speed,Off,Off,0.000000,FALSE,13,Read: /home/lvuser/scripts/auto_13.bee,File good!,SET_HEADING 59 50,SET_HEADING
03:19:30.753 PM 03/25/2016,Autonomous Enabled,9,FALSE,0,NO ERROR,0.000000,-216.318161,0.000000,209.234177,FALSE,FALSE,TRUE,TRUE,FALSE,FALSE,Disabled,0.000000,0.000000,0.000000,TRUE,0.588501,-0.165436,0.000000,-0.874878,0.152664,0.000000,-0.253000,-0.622000,0.594000,11.540000,-4.720000,0.760000,12.043308,Hold,32.152832,2.000000,Hold,-133745.000000,126976.000000,LowGoal,1200.000000,-1454.545455,Speed,1177.500000,-1454.545455,Speed,Off,Off,0.000000,FALSE,13,Read: /home/lvuser/scripts/auto_13.bee,File good!,SET_HEADING 59 50,SET_HEADING
03:19:30.853 PM 03/25/2016,Autonomous Enabled,11,FALSE,0,NO ERROR,0.000000,-217.280659,0.000000,208.598929,FALSE,FALSE,TRUE,TRUE,FALSE,FALSE,Disabled,0.000000,0.000000,0.000000,TRUE,0.550079,-0.143250,0.000000,-0.733154,0.537598,0.000000,-0.164000,-0.353000,0.488000,11.540000,-4.720000,0.760000,15.314826,Hold,16.852783,2.000000,Hold,-128014.000000,126976.000000,LowGoal,1387.500000,-1454.545455,Speed,1395.000000,-1454.545455,Speed,Off,Off,0.000000,FALSE,13,Read: /home/lvuser/scripts/auto_13.bee,File good!,SET_HEADING 59 50,SET_HEADING
03:19:30.953 PM 03/25/2016,Autonomous Enabled,11,FALSE,0,NO ERROR,0.000000,-218.012157,0.000000,207.726264,FALSE,FALSE,TRUE,TRUE,FALSE,FALSE,Disabled,0.000000,0.000000,0.000000,TRUE,0.511154,-0.125427,0.000000,-0.765305,0.370850,0.000000,-0.139000,0.268000,-0.086000,17.860000,-3.720000,0.940000,18.625093,Hold,6.282715,2.000000,Hold,-127051.000000,126976.000000,LowGoal,1455.000000,-1454.545455,Speed,1485.000000,-1454.545455,Speed,Off,Off,0.000000,FALSE,13,Read: /home/lvuser/scripts/auto_13.bee,File good!,SET_HEADING 59 50,SET_HEADING
03:19:31.053 PM 03/25/2016,Autonomous Enabled,7,FALSE,0,NO ERROR,0.000000,-218.576822,0.000000,206.629017,FALSE,FALSE,TRUE,TRUE,FALSE,FALSE,Disabled,0.000000,0.000000,0.000000,TRUE,0.465988,-0.090576,0.000000,-0.644485,0.623825,0.000000,-0.139000,0.268000,-0.086000,20.600000,-4.010000,0.990000,22.212900,Hold,0.462158,2.000000,Hold,-127088.000000,126976.000000,LowGoal,1432.500000,-1454.545455,Speed,1417.500000,-1454.545455,Speed,Off,Off,0.000000,FALSE,13,Read: /home/lvuser/scripts/auto_13.bee,File good!,SET_HEADING 59 50,SET_HEADING
03:19:31.154 PM 03/25/2016,Autonomous Enabled,9,FALSE,0,NO ERROR,0.000000,-219.500820,0.000000,205.666519,FALSE,FALSE,TRUE,TRUE,FALSE,FALSE,Disabled,0.000000,0.000000,0.000000,TRUE,0.441956,-0.066498,0.000000,-0.629547,0.541641,0.000000,0.033000,0.033000,-0.391000,24.970000,-3.530000,0.200000,26.149902,Hold,0.658203,2.000000,Hold,-127088.000000,126976.000000,LowGoal,1402.500000,-1454.545455,Speed,1365.000000,-1454.545455,Speed,Off,Off,0.000000,FALSE,13,Read: /home/lvuser/scripts/auto_13.bee,File good!,SET_HEADING 59 50,SET_HEADING
03:19:31.253 PM 03/25/2016,Autonomous Enabled,9,FALSE,0,NO ERROR,0.000000,-220.129652,0.000000,204.986354,FALSE,FALSE,TRUE,TRUE,FALSE,FALSE,Disabled,0.000000,0.000000,0.000000,TRUE,0.401840,-0.041138,0.000000,-0.603180,0.484665,0.000000,-0.235000,-0.478000,0.028000,27.040000,-3.280000,0.140000,28.921010,Hold,0.754150,2.000000,Hold,-127088.000000,126976.000000,LowGoal,1402.500000,-1454.545455,Speed,1372.500000,-1454.545455,Speed,Off,Off,0.000000,FALSE,13,Read: /home/lvuser/scripts/auto_13.bee,File good!,SET_HEADING 59 50,SET_HEADING
03:19:31.353 PM 03/25/2016,Autonomous Enabled,11,FALSE,0,NO ERROR,0.000000,-220.771317,0.000000,204.344689,FALSE,FALSE,TRUE,TRUE,FALSE,FALSE,Disabled,0.000000,0.000000,0.000000,TRUE,0.372986,-0.013779,0.000000,-0.582184,0.523956,0.000000,0.068000,0.318000,-0.070000,30.130000,-3.150000,0.240000,31.599303,Hold,0.770264,2.000000,Hold,-127088.000000,126976.000000,LowGoal,1402.500000,-1454.545455,Speed,1395.000000,-1454.545455,Speed,Off,Off,0.000000,FALSE,13,Read: /home/lvuser/scripts/auto_13.bee,File good!,SET_HEADING 59 50,SET_HEADING
03:19:31.453 PM 03/25/2016,Autonomous Enabled,9,FALSE,0,NO ERROR,0.000000,-221.348816,0.000000,203.876273,TRUE,FALSE,TRUE,TRUE,FALSE,FALSE,Disabled,0.000000,0.000000,0.000000,TRUE,0.350861,0.007278,0.000000,-0.526688,0.532898,0.000000,0.003000,0.067000,-0.004000,32.210000,-2.760000,0.180000,33.811071,Hold,0.771729,2.000000,Hold,-127088.000000,126976.000000,LowGoal,1402.500000,-1454.545455,Speed,1410.000000,-1454.545455,Speed,Off,Off,0.000000,FALSE,13,Read: /home/lvuser/scripts/auto_13.bee,File good!,SET_HEADING 59 50,SET_HEADING
03:19:31.553 PM 03/25/2016,Autonomous Enabled,11,FALSE,0,NO ERROR,0.000000,-221.894231,0.000000,203.446358,TRUE,FALSE,TRUE,TRUE,FALSE,FALSE,Disabled,0.000000,0.000000,0.000000,TRUE,0.322632,0.039246,0.000000,-0.446167,0.507446,0.000000,0.088000,0.082000,0.063000,34.090000,-2.550000,0.090000,35.801196,Hold,0.771729,2.000000,Hold,-127088.000000,126976.000000,LowGoal,1410.000000,-1454.545455,Speed,1402.500000,-1454.545455,Speed,Off,Off,0.000000,FALSE,13,Read: /home/lvuser/scripts/auto_13.bee,File good!,SET_HEADING 59 50,SET_HEADING
03:19:31.654 PM 03/25/2016,Autonomous Enabled,7,FALSE,0,NO ERROR,0.000000,-222.439647,0.000000,203.093442,TRUE,FALSE,TRUE,TRUE,FALSE,FALSE,Disabled,0.000000,0.000000,0.000000,TRUE,0.322632,0.039246,0.000000,-0.446167,0.507446,0.000000,0.045000,0.132000,-0.086000,35.850000,-2.390000,0.220000,37.662377,Hold,0.771973,2.000000,Hold,-127088.000000,126976.000000,LowGoal,1417.500000,-1454.545455,Speed,1395.000000,-1454.545455,Speed,Off,Off,0.000000,FALSE,13,Read: /home/lvuser/scripts/auto_13.bee,File good!,SET_HEADING 59 50,SET_HEADING
03:19:31.753 PM 03/25/2016,Autonomous Enabled,9,FALSE,0,NO ERROR,0.000000,-222.991479,0.000000,202.753359,TRUE,FALSE,TRUE,TRUE,FALSE,FALSE,Disabled,0.000000,0.000000,0.000000,TRUE,0.278946,0.097641,0.000000,-0.402847,0.589355,0.000000,0.004000,0.052000,0.058000,37.520000,-2.040000,0.220000,39.424141,Hold,0.771973,2.000000,Hold,-127088.000000,126976.000000,LowGoal,1425.000000,-1454.545455,Speed,1402.500000,-1454.545455,Speed,Off,Off,0.000000,FALSE,13,Read: /home/lvuser/scripts/auto_13.bee,File good!,SET_HEADING 59 50,SET_HEADING
03:19:31.853 PM 03/25/2016,Autonomous Enabled,9,FALSE,0,NO ERROR,0.000000,-223.504811,0.000000,202.406860,TRUE,FALSE,TRUE,TRUE,FALSE,FALSE,Disabled,0.000000,0.000000,0.000000,TRUE,0.278946,0.097641,0.000000,-0.402847,0.589355,0.000000,0.089000,-0.087000,-0.019000,39.220000,-2.060000,0.260000,41.204026,Hold,0.771973,2.000000,Hold,-127088.000000,126976.000000,LowGoal,1410.000000,-1454.545455,Speed,1395.000000,-1454.545455,Speed,Off,Off,0.000000,FALSE,13,Read: /home/lvuser/scripts/auto_13.bee,File good!,SET_HEADING 59 50,SET_HEADING
03:19:31.953 PM 03/25/2016,Autonomous Enabled,10,FALSE,0,NO ERROR,0.000000,-223.966810,0.000000,202.086027,TRUE,FALSE,TRUE,TRUE,FALSE,FALSE,Disabled,0.000000,0.000000,0.000000,TRUE,0.243820,0.157272,0.000000,-0.353928,0.618149,0.000000,-0.022000,-0.032000,0.033000,39.220000,-2.060000,0.260000,42.830817,Hold,0.772217,2.000000,Hold,-127088.000000,126976.000000,LowGoal,1410.000000,-1454.545455,Speed,1402.500000,-1454.545455,Speed,Off,Off,0.000000,FALSE,13,Read: /home/lvuser/scripts/auto_13.bee,File good!,SET_HEADING 59 50,SET_HEADING
03:19:32.053 PM 03/25/2016,Autonomous Enabled,9,FALSE,0,NO ERROR,0.000000,-224.492975,0.000000,201.733112,TRUE,FALSE,TRUE,TRUE,FALSE,FALSE,Disabled,0.000000,0.000000,0.000000,TRUE,0.243820,0.157272,0.000000,-0.353928,0.618149,0.000000,0.064000,0.064000,-0.035000,41.100000,-1.790000,0.210000,44.604595,Hold,0.772217,2.000000,Hold,-127088.000000,126976.000000,LowGoal,1410.000000,-1454.545455,Speed,1402.500000,-1454.545455,Speed,Off,Off,0.000000,FALSE,13,Read: /home/lvuser/scripts/auto_13.bee,File good!,SET_HEADING 59 50,SET_HEADING
03:19:32.155 PM 03/25/2016,Autonomous Enabled,9,FALSE,0,NO ERROR,0.000000,-225.108974,0.000000,201.322446,TRUE,FALSE,TRUE,TRUE,FALSE,FALSE,Disabled,0.000000,0.000000,0.000000,TRUE,0.226898,0.188324,0.000000,-0.325607,0.606613,0.000000,0.087000,-0.155000,-0.042000,42.810000,-1.680000,0.340000,46.611868,Hold,0.772217,2.000000,Hold,-127088.000000,126976.000000,LowGoal,1410.000000,-1454.545455,Speed,1417.500000,-1454.545455,Speed,Off,Off,0.000000,FALSE,13,Read: /home/lvuser/scripts/auto_13.bee,File good!,SET_HEADING 59 50,SET_HEADING
03:19:32.256 PM 03/25/2016,Autonomous Enabled,9,FALSE,0,NO ERROR,0.000000,-225.737805,0.000000,200.892530,TRUE,FALSE,TRUE,TRUE,FALSE,FALSE,Disabled,0.000000,0.000000,0.000000,TRUE,0.206558,0.226715,0.000000,-0.269821,0.541306,0.000000,0.024000,0.071000,0.030000,44.770000,-1.340000,0.280000,49.241318,Hold,0.772217,2.000000,Hold,-127088.000000,126976.000000,LowGoal,1410.000000,-1454.545455,Speed,1410.000000,-1454.545455,Speed,Off,Off,0.000000,FALSE,13,Read: /home/lvuser/scripts/auto_13.bee,File good!,SET_HEADING 59 50,SET_HEADING
03:19:32.357 PM 03/25/2016,Autonomous Enabled,9,FALSE,0,NO ERROR,0.000000,-226.373054,0.000000,200.392031,TRUE,FALSE,TRUE,TRUE,FALSE,FALSE,Disabled,0.000000,0.000000,0.000000,TRUE,0.195999,0.247421,0.000000,-0.259201,0.498169,0.000000,0.004000,-0.048000,0.082000,46.860000,-1.240000,0.390000,51.586286,Hold,0.772461,2.000000,Hold,-127088.000000,126976.000000,LowGoal,1410.000000,-1454.545455,Speed,1395.000000,-1454.545455,Speed,Off,Off,0.000000,FALSE,13,Read: /home/lvuser/scripts/auto_13.bee,File good!,SET_HEADING 59 50,SET_HEADING
03:19:32.456 PM 03/25/2016,Autonomous Enabled,9,FALSE,0,NO ERROR,0.000000,-226.809386,0.000000,199.897949,TRUE,FALSE,TRUE,TRUE,FALSE,FALSE,Disabled,0.000000,0.000000,0.000000,TRUE,0.183807,0.270721,0.000000,-0.240631,0.469284,0.000000,-0.026000,-0.041000,-0.100000,49.070000,-0.980000,0.360000,53.495115,Hold,0.772461,2.000000,Hold,-127088.000000,126976.000000,LowGoal,1410.000000,-1454.545455,Speed,1395.000000,-1454.545455,Speed,Off,Off,0.000000,FALSE,13,Read: /home/lvuser/scripts/auto_13.bee,File good!,SET_HEADING 59 50,SET_HEADING
03:19:32.556 PM 03/25/2016,Autonomous Enabled,10,FALSE,0,NO ERROR,0.000000,-227.303468,0.000000,199.307617,TRUE,FALSE,TRUE,TRUE,FALSE,FALSE,Disabled,0.000000,0.000000,0.000000,TRUE,0.170319,0.293106,0.000000,-0.274994,0.423828,0.000000,0.006000,0.070000,0.077000,51.250000,-0.750000,0.240000,53.495115,Hold,0.772461,2.000000,Hold,-127088.000000,126976.000000,LowGoal,1410.000000,-1454.545455,Speed,1395.000000,-1454.545455,Speed,Off,Off,0.000000,FALSE,13,Read: /home/lvuser/scripts/auto_13.bee,File good!,SET_HEADING 59 50,SET_HEADING
03:19:32.657 PM 03/25/2016,Autonomous Enabled,9,FALSE,0,NO ERROR,0.000000,-227.303468,0.000000,199.307617,TRUE,FALSE,TRUE,TRUE,FALSE,FALSE,Disabled,0.000000,0.000000,0.000000,TRUE,0.158340,0.317688,0.000000,-0.229813,0.573944,0.000000,0.050000,0.009000,-0.062000,53.030000,-0.800000,0.540000,55.756201,Hold,0.772461,2.000000,Hold,-127088.000000,126976.000000,LowGoal,1410.000000,-1454.545455,Speed,1410.000000,-1454.545455,Speed,Off,Off,0.000000,FALSE,13,Read: /home/lvuser/scripts/auto_13.bee,File good!,SET_HEADING 59 50,SET_HEADING
03:19:32.757 PM 03/25/2016,Autonomous Enabled,10,FALSE,0,NO ERROR,0.000000,-227.970800,0.000000,198.646702,TRUE,FALSE,TRUE,TRUE,FALSE,FALSE,Disabled,0.000000,0.000000,0.000000,TRUE,0.149399,0.352982,0.000000,0.000000,0.584946,0.000000,0.005000,0.022000,0.147000,55.560000,-0.650000,0.380000,58.391435,Hold,0.772461,2.000000,Hold,-127088.000000,126976.000000,LowGoal,1410.000000,-1454.545455,Speed,1402.500000,-1454.545455,Speed,Off,Off,0.000000,FALSE,13,Read: /home/lvuser/scripts/auto_13.bee,File good!,SET_HEADING 59 50,SET_HEADING
03:19:32.856 PM 03/25/2016,Autonomous Enabled,11,FALSE,0,NO ERROR,0.000000,-228.676632,0.000000,197.934454,TRUE,FALSE,TRUE,TRUE,FALSE,FALSE,Disabled,0.000000,0.000000,0.000000,TRUE,0.149841,0.376785,0.000000,0.018082,0.595764,0.000000,0.152000,-0.060000,0.139000,58.390000,-0.650000,0.560000,61.360934,Hold,0.772461,2.000000,Hold,-127088.000000,126976.000000,LowGoal,1402.500000,-1454.545455,Speed,1402.500000,-1454.545455,Speed,Off,Off,0.000000,FALSE,13,Read: /home/lvuser/scripts/auto_13.bee,File good!,DRIVE_STRAIGHT_TARGET 102 1000 10000 75,DRIVE_STRAIGHT_TARGET
03:19:32.956 PM 03/25/2016,Autonomous Enabled,9,FALSE,0,NO ERROR,0.000000,-0.551832,0.000000,0.391416,TRUE,FALSE,TRUE,TRUE,FALSE,FALSE,Disabled,0.000000,0.000000,0.000000,TRUE,0.151031,0.407516,0.000000,-0.001648,0.639465,0.000000,0.455000,-1.417000,-0.233000,61.320000,0.370000,0.260000,64.070268,Hold,0.772461,2.000000,Hold,-127088.000000,126976.000000,LowGoal,1410.000000,-1454.545455,Speed,1402.500000,-1454.545455,Speed,Off,Off,0.000000,FALSE,13,Read: /home/lvuser/scripts/auto_13.bee,File good!,DRIVE_STRAIGHT_TARGET 102 1000 10000 75,DRIVE_STRAIGHT_TARGET
