Time,Robot Mode,Loop Time,Error Status,Error Code,Error Source,Left Motor Output,Left Motor Encoder,Right Motor Output,Right Motor Encoder,Is Level,Is Stalled,Ball Detector Photoeye,Vision Enabled,Vision Teleop Control,Vision Auto Control,Vision Current State,Vision X Output,Vision NavX Error,Vision NavX Target,NavX Connection Status,NavX Displacement X,NavX Displacement Y,NavX Displacement Z,NavX Velocity X,NavX Velocity Y,NavX Velocity Z,NavX Acceleration X,NavX Acceleration Y,NavX Acceleration Z,NavX Pitch,NavX Yaw,NavX Roll,Gyro Angle,Roller Arm State,Roller Arm Actual,Roller Arm Desired,Shooter Arm State,Shooter Arm Actual,Shooter Arm Desired,Shooter State,Actual RPM Left,Desired RPM Left,Control Mode Left,Actual RPM Right,Desired RPM Right,Control Mode Right,Ball Shooter Cylinder,Ball Halo Cylinder,Scaler Motor Output,Scaler Solenoid Fire,Auto To Run,Auto Current File,Auto File Status,Auto Current Command,Auto Trimmed Command,Shooter Amps Left,Shooter Amps Right, Vision After Offset
11:04:19.008 AM 04/15/2016,Autonomous Enabled,10,TRUE,-44003,<LOCATION>WPI_CameraIssue HTTP Request with Authentication.vi<CALLSTACK>WPI_CameraIssue HTTP Request with Authentication.vi< <WPI_CameraIssue Get.vi< <WPI_CameraSet Image Appearance Property.vi< <WPI_CameraSet Image Size.vi< <Vision Processing.vi< <Robot Main.vi,0.000000,0.000000,-0.000000,0.000000,TRUE,FALSE,TRUE,TRUE,FALSE,FALSE,Disabled,0.000000,0.000000,0.000000,TRUE,0.000000,0.000000,0.000000,0.000000,0.000000,0.000000,0.000000,0.000000,0.009000,1.020000,-10.440000,0.350000,-6.790384,ResetBack,0.000000,-0.000049,ResetBack,0.000000,-0.250000,LowGoal,0.000000,-2181.818182,Speed,0.000000,-2181.818182,Speed,Off,Off,0.000000,FALSE,50,Read: /home/lvuser/scripts/auto_50.bee,File good!,WAIT 1500,WAIT,0.000000,0.000000,-0.033000
11:04:19.108 AM 04/15/2016,Autonomous Enabled,9,FALSE,0,NO ERROR,0.000000,0.000000,-0.000000,0.000000,TRUE,FALSE,TRUE,TRUE,FALSE,FALSE,Disabled,0.000000,0.000000,0.000000,TRUE,0.000031,-0.000015,0.000000,0.003052,0.002106,0.000000,-0.038000,0.007000,-0.010000,1.030000,-10.440000,0.330000,-6.790897,ResetBack,-1.081543,-0.000049,ResetBack,0.000000,-0.250000,LowGoal,105.000000,-2181.818182,Speed,97.500000,-2181.818182,Speed,Off,Off,0.000000,FALSE,50,Read: /home/lvuser/scripts/auto_50.bee,File good!,WAIT 1500,WAIT,0.000000,0.000000,-0.033000
11:04:19.208 AM 04/15/2016,Autonomous Enabled,10,FALSE,0,NO ERROR,0.000000,0.000000,-0.000000,0.000000,TRUE,FALSE,TRUE,TRUE,FALSE,FALSE,Disabled,0.000000,0.000000,0.000000,TRUE,0.000000,-0.000015,0.000000,0.001999,0.000000,0.000000,0.019000,-0.001000,-0.016000,1.060000,-10.440000,0.280000,-6.799076,ResetBack,-1.330566,-0.000049,ResetBack,0.000000,-0.250000,LowGoal,772.500000,-2181.818182,Speed,750.000000,-2181.818182,Speed,Off,Off,0.000000,FALSE,50,Read: /home/lvuser/scripts/auto_50.bee,File good!,WAIT 1500,WAIT,0.000000,0.000000,-0.033000
11:04:19.308 AM 04/15/2016,Autonomous Enabled,11,FALSE,0,NO ERROR,0.000000,0.000000,-0.000000,0.000000,TRUE,FALSE,TRUE,TRUE,FALSE,FALSE,Disabled,0.000000,0.000000,0.000000,TRUE,0.000824,-0.000671,0.000000,0.026932,-0.011200,0.000000,0.021000,0.025000,-0.029000,0.970000,-10.450000,0.440000,-6.821398,ResetBack,-1.576172,-0.000049,ResetBack,0.000000,-0.250000,LowGoal,1417.500000,-2181.818182,Speed,1380.000000,-2181.818182,Speed,Off,Off,0.000000,FALSE,50,Read: /home/lvuser/scripts/auto_50.bee,File good!,WAIT 1500,WAIT,0.000000,0.000000,-0.033000
11:04:19.413 AM 04/15/2016,Autonomous Enabled,11,FALSE,0,NO ERROR,0.000000,0.000000,-0.000000,0.000000,TRUE,FALSE,TRUE,TRUE,FALSE,FALSE,Disabled,0.000000,0.000000,0.000000,TRUE,0.002121,-0.000122,0.000000,0.024048,0.030792,0.000000,0.025000,0.047000,-0.051000,0.980000,-10.440000,0.410000,-6.826999,Reset,-1.576660,0.000000,ResetBack,0.000000,-0.250000,LowGoal,1860.000000,-2181.818182,Speed,1882.500000,-2181.818182,Speed,Off,Off,0.000000,FALSE,50,Read: /home/lvuser/scripts/auto_50.bee,File good!,WAIT 1500,WAIT,0.000000,0.000000,-0.033000
11:04:19.513 AM 04/15/2016,Autonomous Enabled,11,FALSE,0,NO ERROR,0.000000,0.000000,-0.000000,0.000000,TRUE,FALSE,TRUE,TRUE,FALSE,FALSE,Disabled,0.000000,0.000000,0.000000,TRUE,0.003586,0.002808,0.000000,0.041000,0.090973,0.000000,0.060000,0.056000,-0.020000,0.970000,-10.450000,0.410000,-6.821842,Hold,0.144531,0.000000,ResetBack,0.000000,-0.250000,LowGoal,2227.500000,-2181.818182,Speed,2197.500000,-2181.818182,Speed,Off,Off,0.000000,FALSE,50,Read: /home/lvuser/scripts/auto_50.bee,File good!,WAIT 1500,WAIT,0.000000,0.000000,-0.033000
11:04:19.613 AM 04/15/2016,Autonomous Enabled,11,FALSE,0,NO ERROR,0.000000,0.000000,-0.000000,0.000000,TRUE,FALSE,TRUE,TRUE,FALSE,FALSE,Disabled,0.000000,0.000000,0.000000,TRUE,0.006836,0.006409,0.000000,0.076111,0.000000,0.000000,0.015000,-0.034000,0.112000,1.000000,-10.450000,0.390000,-6.824031,Hold,0.144531,0.000000,ResetBack,0.000000,-0.250000,LowGoal,2257.500000,-2181.818182,Speed,2190.000000,-2181.818182,Speed,Off,Off,0.000000,FALSE,50,Read: /home/lvuser/scripts/auto_50.bee,File good!,WAIT 1500,WAIT,0.000000,0.000000,-0.033000
11:04:19.713 AM 04/15/2016,Autonomous Enabled,11,FALSE,0,NO ERROR,0.000000,0.000000,-0.000000,0.000000,TRUE,FALSE,TRUE,TRUE,FALSE,FALSE,Disabled,0.000000,0.000000,0.000000,TRUE,0.011856,0.005188,0.000000,0.124115,-0.053406,0.000000,0.014000,-0.125000,0.021000,1.000000,-10.450000,0.500000,-6.825997,Hold,0.144531,0.000000,ResetBack,0.000000,-0.250000,LowGoal,2167.500000,-2181.818182,Speed,2122.500000,-2181.818182,Speed,Off,Off,0.000000,FALSE,50,Read: /home/lvuser/scripts/auto_50.bee,File good!,WAIT 1500,WAIT,0.000000,0.000000,-0.033000
11:04:19.813 AM 04/15/2016,Autonomous Enabled,11,FALSE,0,NO ERROR,0.000000,0.000000,-0.000000,0.000000,TRUE,FALSE,TRUE,TRUE,FALSE,FALSE,Disabled,0.000000,0.000000,0.000000,TRUE,0.013519,-0.001663,0.000000,0.015594,-0.137543,0.000000,-0.041000,-0.003000,0.016000,0.980000,-10.450000,0.500000,-6.828779,Hold,0.144531,0.000000,ResetBack,0.000000,-0.250000,LowGoal,2145.000000,-2181.818182,Speed,2092.500000,-2181.818182,Speed,Off,Off,0.000000,FALSE,50,Read: /home/lvuser/scripts/auto_50.bee,File good!,WAIT 1500,WAIT,0.000000,0.000000,-0.033000
11:04:19.913 AM 04/15/2016,Autonomous Enabled,11,FALSE,0,NO ERROR,0.000000,0.000000,-0.000000,0.000000,TRUE,FALSE,TRUE,TRUE,FALSE,FALSE,Disabled,0.000000,0.000000,0.000000,TRUE,0.013214,-0.001450,0.000000,-0.031326,0.009979,0.000000,-0.127000,-0.004000,0.093000,1.010000,-10.450000,0.310000,-6.834015,Hold,0.144531,0.000000,ResetBack,0.000000,-0.250000,LowGoal,2160.000000,-2181.818182,Speed,2107.500000,-2181.818182,Speed,Off,Off,0.000000,FALSE,50,Read: /home/lvuser/scripts/auto_50.bee,File good!,WAIT 1500,WAIT,0.000000,0.000000,-0.033000
11:04:20.013 AM 04/15/2016,Autonomous Enabled,11,FALSE,0,NO ERROR,0.000000,0.000000,-0.000000,0.000000,TRUE,FALSE,TRUE,TRUE,FALSE,FALSE,Disabled,0.000000,0.000000,0.000000,TRUE,0.009262,0.000992,0.000000,-0.092621,0.077759,0.000000,-0.029000,0.067000,0.045000,1.050000,-10.450000,0.200000,-6.842921,Hold,0.144531,0.000000,ResetBack,0.000000,-0.250000,LowGoal,2160.000000,-2181.818182,Speed,2122.500000,-2181.818182,Speed,Off,Off,0.000000,FALSE,50,Read: /home/lvuser/scripts/auto_50.bee,File good!,WAIT 1500,WAIT,0.000000,0.000000,-0.033000
11:04:20.113 AM 04/15/2016,Autonomous Enabled,10,FALSE,0,NO ERROR,0.000000,0.000000,-0.000000,0.000000,TRUE,FALSE,TRUE,TRUE,FALSE,FALSE,Disabled,0.000000,0.000000,0.000000,TRUE,0.004822,0.006516,0.000000,-0.098557,0.130692,0.000000,-0.010000,0.038000,-0.013000,1.040000,-10.450000,0.340000,-6.844446,Hold,0.144531,0.000000,ResetBack,0.000000,-0.250000,LowGoal,2137.500000,-2181.818182,Speed,2115.000000,-2181.818182,Speed,Off,Off,0.000000,FALSE,50,Read: /home/lvuser/scripts/auto_50.bee,File good!,WAIT 1500,WAIT,0.000000,0.000000,-0.033000
11:04:20.213 AM 04/15/2016,Autonomous Enabled,11,FALSE,0,NO ERROR,0.000000,0.000000,-0.000000,0.000000,TRUE,FALSE,TRUE,TRUE,FALSE,FALSE,Disabled,0.000000,0.000000,0.000000,TRUE,-0.001648,0.012894,0.000000,-0.144150,0.000000,0.000000,0.002000,0.001000,-0.012000,1.030000,-10.450000,0.260000,-6.848746,Hold,0.144531,0.000000,ResetBack,0.000000,-0.250000,LowGoal,2122.500000,-2181.818182,Speed,2107.500000,-2181.818182,Speed,Off,Off,0.000000,FALSE,50,Read: /home/lvuser/scripts/auto_50.bee,File good!,WAIT 1500,WAIT,0.000000,0.000000,-0.033000
11:04:20.313 AM 04/15/2016,Autonomous Enabled,11,FALSE,0,NO ERROR,0.000000,0.000000,-0.000000,0.000000,TRUE,FALSE,TRUE,TRUE,FALSE,FALSE,Disabled,0.000000,0.000000,0.000000,TRUE,-0.008072,0.013702,0.000000,-0.112183,0.037796,0.000000,0.054000,0.055000,-0.103000,1.020000,-10.450000,0.270000,-6.850715,Hold,0.144531,0.000000,Reset,0.000000,2.000000,LowGoal,2122.500000,-2181.818182,Speed,2107.500000,-2181.818182,Speed,Off,Off,0.000000,FALSE,50,Read: /home/lvuser/scripts/auto_50.bee,File good!,WAIT 1500,WAIT,0.000000,0.000000,-0.033000
11:04:20.414 AM 04/15/2016,Autonomous Enabled,11,FALSE,0,NO ERROR,0.000000,0.000000,-0.000000,0.000000,TRUE,FALSE,TRUE,TRUE,FALSE,FALSE,Disabled,0.000000,0.000000,0.000000,TRUE,-0.013260,0.013672,0.000000,-0.098969,-0.030746,0.000000,0.065000,0.020000,-0.053000,1.040000,-10.450000,0.270000,-6.869745,Hold,0.144531,0.000000,Hold,0.000000,2.000000,LowGoal,2130.000000,-2181.818182,Speed,2115.000000,-2181.818182,Speed,Off,Off,0.000000,FALSE,50,Read: /home/lvuser/scripts/auto_50.bee,File good!,WAIT 1500,WAIT,0.000000,0.000000,-0.033000
11:04:20.514 AM 04/15/2016,Autonomous Enabled,11,FALSE,0,NO ERROR,0.000000,0.000000,-0.000000,0.000000,TRUE,FALSE,TRUE,TRUE,FALSE,FALSE,Disabled,0.000000,0.000000,0.000000,TRUE,-0.016693,0.011780,0.000000,-0.037323,-0.052719,0.000000,0.065000,-0.026000,-0.029000,1.090000,-10.440000,0.190000,-6.861755,Hold,0.144531,0.000000,Hold,0.000000,2.000000,LowGoal,2137.500000,-2181.818182,Speed,2115.000000,-2181.818182,Speed,Off,Off,0.000000,FALSE,50,Read: /home/lvuser/scripts/auto_50.bee,File good!,WAIT 1500,WAIT,0.000000,0.000000,-0.033000
11:04:20.614 AM 04/15/2016,Autonomous Enabled,8,FALSE,0,NO ERROR,0.000000,0.000000,-0.000000,0.000000,TRUE,FALSE,TRUE,TRUE,FALSE,FALSE,Disabled,0.000000,0.000000,0.000000,TRUE,-0.017014,0.009079,0.000000,0.002945,-0.047867,0.000000,-0.040000,-0.010000,0.108000,1.060000,-10.440000,0.310000,-0.001549,Hold,0.144531,0.000000,Hold,0.000000,2.000000,LowGoal,2137.500000,-2181.818182,Speed,2122.500000,-2181.818182,Speed,Off,Off,0.000000,FALSE,50,Read: /home/lvuser/scripts/auto_50.bee,File good!,DRIVE_STRAIGHT_NAVX_RAMPARTS 200 10000 200,DRIVE_STRAIGHT_NAVX_RAMPARTS,0.000000,0.000000,-0.033000
11:04:20.714 AM 04/15/2016,Autonomous Enabled,11,FALSE,0,NO ERROR,-0.562500,-0.449166,0.562500,0.564665,TRUE,FALSE,TRUE,TRUE,FALSE,FALSE,Disabled,0.000000,0.000000,0.000000,TRUE,-0.017807,0.008331,0.000000,-0.027618,-0.012421,0.000000,0.979000,-0.033000,-0.091000,1.090000,0.000000,0.160000,0.009798,Hold,0.144775,0.000000,Hold,0.000000,2.000000,LowGoal,2137.500000,-1818.181818,Speed,2115.000000,-1818.181818,Speed,Off,Off,0.000000,FALSE,50,Read: /home/lvuser/scripts/auto_50.bee,File good!,DRIVE_STRAIGHT_NAVX_RAMPARTS 200 10000 200,DRIVE_STRAIGHT_NAVX_RAMPARTS,0.000000,0.000000,-0.033000
11:04:20.814 AM 04/15/2016,Autonomous Enabled,11,FALSE,0,NO ERROR,-0.562500,-2.637244,0.562500,2.823327,FALSE,FALSE,TRUE,TRUE,FALSE,FALSE,Disabled,0.000000,0.000000,0.000000,TRUE,-0.003708,0.004883,0.000000,0.402466,-0.086304,0.000000,0.376000,-0.029000,-0.292000,0.870000,0.000000,5.100000,0.024866,Hold,0.147461,0.000000,Hold,0.000000,2.000000,LowGoal,2010.000000,-1818.181818,Speed,2077.500000,-1818.181818,Speed,Off,Off,0.000000,FALSE,50,Read: /home/lvuser/scripts/auto_50.bee,File good!,DRIVE_STRAIGHT_NAVX_RAMPARTS 200 10000 200,DRIVE_STRAIGHT_NAVX_RAMPARTS,0.000000,0.000000,-0.033000
11:04:20.914 AM 04/15/2016,Autonomous Enabled,9,FALSE,0,NO ERROR,-0.562500,-5.736487,0.562500,5.961069,FALSE,FALSE,TRUE,TRUE,FALSE,FALSE,Disabled,0.000000,0.000000,0.000000,TRUE,0.025314,-0.000275,0.000000,0.677460,-0.124008,0.000000,0.238000,-0.013000,0.145000,0.910000,-0.200000,3.630000,-0.119526,Hold,0.147705,0.000000,Hold,0.000000,2.000000,LowGoal,1762.500000,-1818.181818,Speed,1792.500000,-1818.181818,Speed,Off,Off,0.000000,FALSE,50,Read: /home/lvuser/scripts/auto_50.bee,File good!,DRIVE_STRAIGHT_NAVX_RAMPARTS 200 10000 200,DRIVE_STRAIGHT_NAVX_RAMPARTS,0.000000,0.000000,-0.033000
11:04:21.014 AM 04/15/2016,Autonomous Enabled,9,FALSE,0,NO ERROR,-0.562500,-9.734061,0.562500,10.074143,FALSE,FALSE,TRUE,TRUE,FALSE,FALSE,Disabled,0.000000,0.000000,0.000000,TRUE,0.074020,-0.009171,0.000000,0.847549,-0.161087,0.000000,-0.068000,0.027000,-0.008000,0.970000,-0.450000,4.250000,-0.370578,Hold,0.148682,0.000000,Hold,0.000000,2.000000,LowGoal,1687.500000,-1818.181818,Speed,1672.500000,-1818.181818,Speed,Off,Off,0.000000,FALSE,50,Read: /home/lvuser/scripts/auto_50.bee,File good!,DRIVE_STRAIGHT_NAVX_RAMPARTS 200 10000 200,DRIVE_STRAIGHT_NAVX_RAMPARTS,0.000000,0.000000,-0.033000
11:04:21.114 AM 04/15/2016,Autonomous Enabled,11,FALSE,0,NO ERROR,-0.562500,-13.866384,0.562500,14.398966,FALSE,FALSE,TRUE,TRUE,FALSE,FALSE,Disabled,0.000000,0.000000,0.000000,TRUE,0.106049,-0.014297,0.000000,0.762283,-0.109070,0.000000,-0.098000,0.041000,-0.048000,1.050000,-0.640000,4.050000,-0.641555,Hold,0.149414,0.000000,Hold,0.000000,2.000000,LowGoal,1762.500000,-1818.181818,Speed,1695.000000,-1818.181818,Speed,Off,Off,0.000000,FALSE,50,Read: /home/lvuser/scripts/auto_50.bee,File good!,DRIVE_STRAIGHT_NAVX_RAMPARTS 200 10000 200,DRIVE_STRAIGHT_NAVX_RAMPARTS,0.000000,0.000000,-0.033000
11:04:21.215 AM 04/15/2016,Autonomous Enabled,10,FALSE,0,NO ERROR,-0.562500,-18.332374,0.528703,18.813623,FALSE,FALSE,TRUE,TRUE,FALSE,FALSE,Disabled,0.000000,0.000000,0.000000,TRUE,0.151031,-0.020905,0.000000,0.772858,-0.124557,0.000000,-0.063000,0.092000,-0.052000,1.050000,-0.640000,4.050000,-0.833054,Hold,0.149414,0.000000,Hold,0.000000,2.000000,LowGoal,1792.500000,-1818.181818,Speed,1747.500000,-1818.181818,Speed,Off,Off,0.000000,FALSE,50,Read: /home/lvuser/scripts/auto_50.bee,File good!,DRIVE_STRAIGHT_NAVX_RAMPARTS 200 10000 200,DRIVE_STRAIGHT_NAVX_RAMPARTS,0.000000,0.000000,-0.033000
11:04:21.316 AM 04/15/2016,Autonomous Enabled,9,FALSE,0,NO ERROR,-0.562500,-22.945946,0.529460,23.459278,FALSE,FALSE,TRUE,TRUE,FALSE,FALSE,Disabled,0.000000,0.000000,0.000000,TRUE,0.187561,-0.025909,0.000000,0.706558,-0.093506,0.000000,-0.078000,-0.028000,0.203000,1.090000,-0.880000,3.450000,-0.799104,Hold,0.149414,0.000000,Hold,0.000000,2.000000,LowGoal,1785.000000,-1818.181818,Speed,1755.000000,-1818.181818,Speed,Off,Off,0.000000,FALSE,50,Read: /home/lvuser/scripts/auto_50.bee,File good!,DRIVE_STRAIGHT_NAVX_RAMPARTS 200 10000 200,DRIVE_STRAIGHT_NAVX_RAMPARTS,0.000000,0.000000,-0.033000
11:04:21.417 AM 04/15/2016,Autonomous Enabled,9,FALSE,0,NO ERROR,-0.562500,-27.642935,0.533250,28.034351,FALSE,FALSE,TRUE,TRUE,FALSE,FALSE,Disabled,0.000000,0.000000,0.000000,TRUE,0.221085,-0.031586,0.000000,0.656586,-0.120544,0.000000,-0.019000,0.003000,-0.097000,1.160000,-0.820000,3.200000,-0.723636,Hold,0.149414,0.000000,Hold,0.000000,2.000000,LowGoal,1777.500000,-1818.181818,Speed,1740.000000,-1818.181818,Speed,Off,Off,0.000000,FALSE,50,Read: /home/lvuser/scripts/auto_50.bee,File good!,DRIVE_STRAIGHT_NAVX_RAMPARTS 200 10000 200,DRIVE_STRAIGHT_NAVX_RAMPARTS,0.000000,0.000000,-0.033000
11:04:21.517 AM 04/15/2016,Autonomous Enabled,12,FALSE,0,NO ERROR,-0.562500,-32.327091,0.535151,32.628674,TRUE,FALSE,TRUE,TRUE,FALSE,FALSE,Disabled,0.000000,0.000000,0.000000,TRUE,0.252502,-0.035980,0.000000,0.597000,0.000000,0.000000,-0.063000,-0.039000,-0.069000,1.210000,-0.700000,2.330000,-0.679379,Hold,0.149414,0.000000,Hold,0.000000,2.000000,LowGoal,1770.000000,-1818.181818,Speed,1732.500000,-1818.181818,Speed,Off,Off,0.000000,FALSE,50,Read: /home/lvuser/scripts/auto_50.bee,File good!,DRIVE_STRAIGHT_NAVX_RAMPARTS 200 10000 200,DRIVE_STRAIGHT_NAVX_RAMPARTS,0.000000,0.000000,-0.033000
11:04:21.619 AM 04/15/2016,Autonomous Enabled,10,FALSE,0,NO ERROR,-0.562500,-36.863664,0.535912,37.190913,TRUE,FALSE,TRUE,TRUE,FALSE,FALSE,Disabled,0.000000,0.000000,0.000000,TRUE,0.280823,-0.036575,0.000000,0.555328,-0.014328,0.000000,0.024000,0.023000,-0.011000,1.190000,-0.670000,2.130000,-0.644991,Hold,0.149414,0.000000,Hold,0.000000,2.000000,LowGoal,1785.000000,-1818.181818,Speed,1740.000000,-1818.181818,Speed,Off,Off,0.000000,FALSE,50,Read: /home/lvuser/scripts/auto_50.bee,File good!,DRIVE_STRAIGHT_NAVX_RAMPARTS 200 10000 200,DRIVE_STRAIGHT_NAVX_RAMPARTS,0.000000,0.000000,-0.033000
11:04:21.720 AM 04/15/2016,Autonomous Enabled,10,FALSE,0,NO ERROR,-0.562500,-41.464403,0.541637,41.759569,TRUE,FALSE,TRUE,TRUE,FALSE,FALSE,Disabled,0.000000,0.000000,0.000000,TRUE,0.306961,-0.037674,0.000000,0.498337,-0.028549,0.000000,0.006000,-0.021000,0.089000,1.190000,-0.670000,2.130000,-0.525624,Hold,0.149414,0.000000,Hold,0.000000,2.000000,LowGoal,1792.500000,-1818.181818,Speed,1740.000000,-1818.181818,Speed,Off,Off,0.000000,FALSE,50,Read: /home/lvuser/scripts/auto_50.bee,File good!,DRIVE_STRAIGHT_NAVX_RAMPARTS 200 10000 200,DRIVE_STRAIGHT_NAVX_RAMPARTS,0.000000,0.000000,-0.033000
11:04:21.821 AM 04/15/2016,Autonomous Enabled,11,FALSE,0,NO ERROR,-0.562500,-46.103642,0.546239,46.289725,TRUE,FALSE,TRUE,TRUE,FALSE,FALSE,Disabled,0.000000,0.000000,0.000000,TRUE,0.331940,-0.039612,0.000000,0.482635,-0.036911,0.000000,-0.080000,0.045000,0.041000,1.220000,-0.400000,2.080000,-0.355589,Hold,0.149414,0.000000,Hold,0.000000,2.000000,LowGoal,1777.500000,-1818.181818,Speed,1747.500000,-1818.181818,Speed,Off,Off,0.000000,FALSE,50,Read: /home/lvuser/scripts/auto_50.bee,File good!,DRIVE_STRAIGHT_NAVX_RAMPARTS 200 10000 200,DRIVE_STRAIGHT_NAVX_RAMPARTS,0.000000,0.000000,-0.033000
11:04:21.922 AM 04/15/2016,Autonomous Enabled,10,FALSE,0,NO ERROR,-0.562500,-50.935381,0.545471,51.089381,TRUE,FALSE,TRUE,TRUE,FALSE,FALSE,Disabled,0.000000,0.000000,0.000000,TRUE,0.353577,-0.040588,0.000000,0.391800,-0.021164,0.000000,-0.157000,-0.054000,0.079000,1.220000,-0.400000,2.080000,-0.474894,Hold,0.149414,0.000000,Hold,0.000000,2.000000,LowGoal,1777.500000,-1818.181818,Speed,1740.000000,-1818.181818,Speed,Off,Off,0.000000,FALSE,50,Read: /home/lvuser/scripts/auto_50.bee,File good!,DRIVE_STRAIGHT_NAVX_RAMPARTS 200 10000 200,DRIVE_STRAIGHT_NAVX_RAMPARTS,0.000000,0.000000,-0.033000
11:04:22.023 AM 04/15/2016,Autonomous Enabled,14,FALSE,0,NO ERROR,-0.562500,-55.176788,0.539343,55.504037,FALSE,FALSE,TRUE,TRUE,FALSE,FALSE,Disabled,0.000000,0.000000,0.000000,TRUE,0.371964,-0.042313,0.000000,0.251175,-0.028885,0.000000,-0.064000,-0.014000,-0.042000,1.030000,-0.530000,5.010000,-0.758575,Hold,0.149414,0.000000,Hold,0.000000,2.000000,LowGoal,1785.000000,-1818.181818,Speed,1740.000000,-1818.181818,Speed,Off,Off,0.000000,FALSE,50,Read: /home/lvuser/scripts/auto_50.bee,File good!,DRIVE_STRAIGHT_NAVX_RAMPARTS 200 10000 200,DRIVE_STRAIGHT_NAVX_RAMPARTS,0.000000,0.000000,-0.033000
11:04:22.124 AM 04/15/2016,Autonomous Enabled,10,FALSE,0,NO ERROR,-0.562500,-59.546527,0.533250,59.841693,FALSE,FALSE,TRUE,TRUE,FALSE,FALSE,Disabled,0.000000,0.000000,0.000000,TRUE,0.383118,-0.043915,0.000000,0.211945,-0.039032,0.000000,-0.024000,0.040000,0.013000,1.000000,-0.700000,7.100000,-0.840025,Hold,0.149414,0.000000,Hold,0.000000,2.000000,LowGoal,1770.000000,-1818.181818,Speed,1740.000000,-1818.181818,Speed,Off,Off,0.000000,FALSE,50,Read: /home/lvuser/scripts/auto_50.bee,File good!,DRIVE_STRAIGHT_NAVX_RAMPARTS 200 10000 200,DRIVE_STRAIGHT_NAVX_RAMPARTS,0.000000,0.000000,-0.033000
11:04:22.225 AM 04/15/2016,Autonomous Enabled,9,FALSE,0,NO ERROR,-0.562500,-63.499185,0.532491,63.845684,FALSE,FALSE,TRUE,TRUE,FALSE,FALSE,Disabled,0.000000,0.000000,0.000000,TRUE,0.392532,-0.045685,0.000000,0.182892,-0.048798,0.000000,-0.024000,0.040000,0.013000,1.040000,-0.740000,9.610000,-0.817852,Hold,0.149414,0.000000,Hold,0.000000,2.000000,LowGoal,1770.000000,-1818.181818,Speed,1740.000000,-1818.181818,Speed,Off,Off,0.000000,FALSE,50,Read: /home/lvuser/scripts/auto_50.bee,File good!,DRIVE_STRAIGHT_NAVX_RAMPARTS 200 10000 200,DRIVE_STRAIGHT_NAVX_RAMPARTS,0.000000,0.000000,-0.033000
11:04:22.326 AM 04/15/2016,Autonomous Enabled,13,FALSE,0,NO ERROR,-0.562500,-67.464676,0.572686,67.432592,FALSE,FALSE,TRUE,TRUE,FALSE,FALSE,Disabled,0.000000,0.000000,0.000000,TRUE,0.396088,-0.046356,0.000000,-0.130417,0.066208,0.000000,-0.775000,0.092000,0.034000,1.260000,-0.730000,9.600000,0.243895,Hold,0.150879,0.000000,Hold,0.000000,2.000000,LowGoal,1770.000000,-1818.181818,Speed,1732.500000,-1818.181818,Speed,Off,Off,0.000000,FALSE,50,Read: /home/lvuser/scripts/auto_50.bee,File good!,DRIVE_STRAIGHT_NAVX_RAMPARTS 200 10000 200,DRIVE_STRAIGHT_NAVX_RAMPARTS,0.000000,0.000000,-0.033000
11:04:22.426 AM 04/15/2016,Autonomous Enabled,11,FALSE,0,NO ERROR,-0.562500,-70.705085,0.609461,71.167084,FALSE,FALSE,TRUE,TRUE,FALSE,FALSE,Disabled,0.000000,0.000000,0.000000,TRUE,0.376694,-0.042801,0.000000,-0.357040,-0.067154,0.000000,0.693000,-0.838000,1.399000,0.970000,1.180000,19.020000,0.724703,Hold,0.281738,0.000000,Hold,0.000000,2.000000,LowGoal,1770.000000,-1818.181818,Speed,1725.000000,-1818.181818,Speed,Off,Off,0.000000,FALSE,50,Read: /home/lvuser/scripts/auto_50.bee,File good!,DRIVE_STRAIGHT_NAVX_RAMPARTS 200 10000 200,DRIVE_STRAIGHT_NAVX_RAMPARTS,0.000000,0.000000,-0.033000
11:04:22.527 AM 04/15/2016,Autonomous Enabled,10,FALSE,0,NO ERROR,-0.562500,-73.284579,0.563280,74.086660,FALSE,FALSE,TRUE,TRUE,FALSE,FALSE,Disabled,0.000000,0.000000,0.000000,TRUE,0.369858,-0.056137,0.000000,0.001404,-0.204239,0.000000,0.693000,-0.838000,1.399000,0.970000,1.180000,19.020000,-0.650757,Hold,0.281738,0.000000,Hold,0.000000,2.000000,LowGoal,1762.500000,-1818.181818,Speed,1710.000000,-1818.181818,Speed,Off,Off,0.000000,FALSE,50,Read: /home/lvuser/scripts/auto_50.bee,File good!,DRIVE_STRAIGHT_NAVX_RAMPARTS 200 10000 200,DRIVE_STRAIGHT_NAVX_RAMPARTS,0.000000,0.000000,-0.033000
11:04:22.629 AM 04/15/2016,Autonomous Enabled,11,FALSE,0,NO ERROR,-0.562500,-76.242655,0.524553,77.025487,FALSE,FALSE,TRUE,TRUE,FALSE,FALSE,Disabled,0.000000,0.000000,0.000000,TRUE,0.377029,-0.063477,0.000000,0.206909,-0.119156,0.000000,-0.030000,0.017000,0.184000,0.570000,-0.880000,29.100000,-1.268524,Hold,0.345215,0.000000,Hold,0.000000,2.000000,LowGoal,1762.500000,-1818.181818,Speed,1710.000000,-1818.181818,Speed,Off,Off,0.000000,FALSE,50,Read: /home/lvuser/scripts/auto_50.bee,File good!,DRIVE_STRAIGHT_NAVX_RAMPARTS 200 10000 200,DRIVE_STRAIGHT_NAVX_RAMPARTS,0.000000,0.000000,-0.033000
11:04:22.729 AM 04/15/2016,Autonomous Enabled,10,FALSE,0,NO ERROR,-0.562500,-78.982565,0.523423,79.887313,FALSE,FALSE,TRUE,TRUE,FALSE,FALSE,Disabled,0.000000,0.000000,0.000000,TRUE,0.390320,-0.070190,0.000000,0.343536,-0.165787,0.000000,0.186000,-0.037000,-0.218000,0.570000,-0.880000,29.100000,-1.592710,Hold,0.345215,0.000000,Hold,0.000000,2.000000,LowGoal,1770.000000,-1818.181818,Speed,1725.000000,-1818.181818,Speed,Off,Off,0.000000,FALSE,50,Read: /home/lvuser/scripts/auto_50.bee,File good!,DRIVE_STRAIGHT_NAVX_RAMPARTS 200 10000 200,DRIVE_STRAIGHT_NAVX_RAMPARTS,0.000000,0.000000,-0.033000
11:04:22.829 AM 04/15/2016,Autonomous Enabled,9,FALSE,0,NO ERROR,-0.562500,-81.433726,0.521168,82.242224,FALSE,FALSE,TRUE,TRUE,FALSE,FALSE,Disabled,0.000000,0.000000,0.000000,TRUE,0.410522,-0.080048,0.000000,0.101669,-0.075012,0.000000,0.186000,-0.037000,-0.218000,0.100000,-1.150000,25.710000,-1.195804,Hold,0.345215,0.000000,Hold,0.000000,2.000000,LowGoal,1770.000000,-1818.181818,Speed,1725.000000,-1818.181818,Speed,Off,Off,0.000000,FALSE,50,Read: /home/lvuser/scripts/auto_50.bee,File good!,DRIVE_STRAIGHT_NAVX_RAMPARTS 200 10000 200,DRIVE_STRAIGHT_NAVX_RAMPARTS,0.000000,0.000000,-0.033000
11:04:22.929 AM 04/15/2016,Autonomous Enabled,7,FALSE,0,NO ERROR,-0.562500,-84.398219,0.486841,85.219551,FALSE,FALSE,TRUE,TRUE,FALSE,FALSE,Disabled,0.000000,0.000000,0.000000,TRUE,0.395584,-0.084808,0.000000,-0.297394,-0.183350,0.000000,-1.633000,0.163000,0.662000,0.080000,-0.320000,13.640000,-3.131681,Hold,0.345215,0.000000,Hold,0.000000,2.000000,LowGoal,1762.500000,-1818.181818,Speed,1717.500000,-1818.181818,Speed,Off,Off,0.000000,FALSE,50,Read: /home/lvuser/scripts/auto_50.bee,File good!,DRIVE_STRAIGHT_NAVX_RAMPARTS 200 10000 200,DRIVE_STRAIGHT_NAVX_RAMPARTS,0.000000,0.000000,-0.033000
11:04:23.030 AM 04/15/2016,Autonomous Enabled,10,FALSE,0,NO ERROR,-0.562500,-89.037458,0.371295,89.255625,FALSE,FALSE,TRUE,TRUE,FALSE,FALSE,Disabled,0.000000,0.000000,0.000000,TRUE,0.389450,-0.092377,0.000000,0.004593,-0.188599,0.000000,-0.106000,-0.057000,-0.951000,-0.150000,-2.700000,7.160000,-6.538650,Hold,0.345215,0.000000,Hold,0.000000,2.000000,LowGoal,1755.000000,-1818.181818,Speed,1725.000000,-1818.181818,Speed,Off,Off,0.000000,FALSE,50,Read: /home/lvuser/scripts/auto_50.bee,File good!,DRIVE_STRAIGHT_NAVX_RAMPARTS 200 10000 200,DRIVE_STRAIGHT_NAVX_RAMPARTS,0.000000,0.000000,-0.033000
11:04:23.130 AM 04/15/2016,Autonomous Enabled,9,FALSE,0,NO ERROR,-0.562500,-91.661869,0.241631,91.565619,TRUE,FALSE,TRUE,TRUE,FALSE,FALSE,Disabled,0.000000,0.000000,0.000000,TRUE,0.396637,-0.112305,0.000000,0.028549,-0.435043,0.000000,0.139000,-0.085000,-1.100000,0.360000,-6.860000,0.690000,-13.462561,Hold,0.349854,0.000000,Hold,0.000000,2.000000,LowGoal,1770.000000,-1818.181818,Speed,1732.500000,-1818.181818,Speed,Off,Off,0.000000,FALSE,50,Read: /home/lvuser/scripts/auto_50.bee,File good!,DRIVE_STRAIGHT_NAVX_RAMPARTS 200 10000 200,DRIVE_STRAIGHT_NAVX_RAMPARTS,0.000000,0.000000,-0.033000
11:04:23.231 AM 04/15/2016,Autonomous Enabled,9,FALSE,0,NO ERROR,-0.562500,-94.254196,0.119329,94.055280,FALSE,FALSE,TRUE,TRUE,FALSE,FALSE,Disabled,0.000000,0.000000,0.000000,TRUE,0.397491,-0.145172,0.000000,-0.054230,-0.761963,0.000000,1.278000,-1.145000,-1.405000,-4.170000,-12.560000,3.820000,-18.410191,Hold,0.351074,0.000000,Hold,0.000000,2.000000,LowGoal,1762.500000,-1818.181818,Speed,1732.500000,-1818.181818,Speed,Off,Off,0.000000,FALSE,50,Read: /home/lvuser/scripts/auto_50.bee,File good!,DRIVE_STRAIGHT_NAVX_RAMPARTS 200 10000 200,DRIVE_STRAIGHT_NAVX_RAMPARTS,0.000000,0.000000,-0.033000
11:04:23.331 AM 04/15/2016,Autonomous Enabled,9,FALSE,0,NO ERROR,-0.562500,-96.647607,0.038189,95.569610,FALSE,FALSE,TRUE,TRUE,FALSE,FALSE,Disabled,0.000000,0.000000,0.000000,TRUE,0.388931,-0.181168,0.000000,-0.317276,-0.448624,0.000000,-0.187000,-0.118000,-0.347000,-2.660000,-18.070000,11.670000,-21.192987,Hold,0.578857,0.000000,Hold,0.000000,2.000000,LowGoal,1755.000000,-1818.181818,Speed,1725.000000,-1818.181818,Speed,Off,Off,0.000000,FALSE,50,Read: /home/lvuser/scripts/auto_50.bee,File good!,DRIVE_STRAIGHT_NAVX_RAMPARTS 200 10000 200,DRIVE_STRAIGHT_NAVX_RAMPARTS,0.000000,0.000000,-0.033000
11:04:23.432 AM 04/15/2016,Autonomous Enabled,10,FALSE,0,NO ERROR,-0.562500,-98.579019,0.060831,95.402777,FALSE,FALSE,TRUE,TRUE,FALSE,FALSE,Disabled,0.000000,0.000000,0.000000,TRUE,0.388931,-0.181168,0.000000,-0.317276,-0.448624,0.000000,0.340000,0.666000,0.632000,-2.870000,-20.510000,18.550000,-18.726273,Hold,0.590576,0.000000,Hold,0.000000,2.000000,LowGoal,1740.000000,-1818.181818,Speed,1725.000000,-1818.181818,Speed,Off,Off,0.000000,FALSE,50,Read: /home/lvuser/scripts/auto_50.bee,File good!,DRIVE_STRAIGHT_NAVX_RAMPARTS 200 10000 200,DRIVE_STRAIGHT_NAVX_RAMPARTS,0.000000,0.000000,-0.033000
11:04:23.535 AM 04/15/2016,Autonomous Enabled,12,FALSE,0,NO ERROR,-0.562500,-100.805598,0.090276,95.479777,FALSE,FALSE,TRUE,TRUE,FALSE,FALSE,Disabled,0.000000,0.000000,0.000000,TRUE,0.384232,-0.203629,0.000000,0.050003,-0.626511,0.000000,0.099000,0.188000,-0.032000,-2.340000,-19.200000,21.690000,-15.072566,Hold,0.590576,0.000000,Hold,0.000000,2.000000,LowGoal,1717.500000,-1818.181818,Speed,1717.500000,-1818.181818,Speed,Off,Off,0.000000,FALSE,50,Read: /home/lvuser/scripts/auto_50.bee,File good!,DRIVE_STRAIGHT_NAVX_RAMPARTS 200 10000 200,DRIVE_STRAIGHT_NAVX_RAMPARTS,0.000000,0.000000,-0.033000
11:04:23.638 AM 04/15/2016,Autonomous Enabled,10,FALSE,0,NO ERROR,-0.562500,-103.859924,0.165910,95.499027,FALSE,FALSE,TRUE,TRUE,FALSE,FALSE,Disabled,0.000000,0.000000,0.000000,TRUE,0.385666,-0.233093,0.000000,-0.005280,-0.432053,0.000000,0.187000,-0.026000,-0.071000,0.660000,-15.620000,24.610000,-10.892660,Hold,0.590576,0.000000,Hold,0.000000,2.000000,LowGoal,1740.000000,-1818.181818,Speed,1710.000000,-1818.181818,Speed,Off,Off,0.000000,FALSE,50,Read: /home/lvuser/scripts/auto_50.bee,File good!,DRIVE_STRAIGHT_NAVX_RAMPARTS 200 10000 200,DRIVE_STRAIGHT_NAVX_RAMPARTS,0.000000,0.000000,-0.033000
11:04:23.740 AM 04/15/2016,Autonomous Enabled,13,FALSE,0,NO ERROR,-0.562500,-106.824417,0.320560,95.980276,FALSE,FALSE,TRUE,TRUE,FALSE,FALSE,Disabled,0.000000,0.000000,0.000000,TRUE,0.404373,-0.290436,0.000000,0.300400,-0.805237,0.000000,0.044000,-0.334000,-0.148000,0.640000,-10.660000,29.480000,-6.030973,Hold,0.590576,0.000000,Hold,0.000000,2.000000,LowGoal,1770.000000,-1818.181818,Speed,1725.000000,-1818.181818,Speed,Off,Off,0.000000,FALSE,50,Read: /home/lvuser/scripts/auto_50.bee,File good!,DRIVE_STRAIGHT_NAVX_RAMPARTS 200 10000 200,DRIVE_STRAIGHT_NAVX_RAMPARTS,0.000000,0.000000,-0.033000
11:04:23.841 AM 04/15/2016,Autonomous Enabled,10,FALSE,0,NO ERROR,-0.562500,-110.154659,0.585347,97.712772,FALSE,FALSE,TRUE,TRUE,FALSE,FALSE,Disabled,0.000000,0.000000,0.000000,TRUE,0.404373,-0.290436,0.000000,0.300400,-0.805237,0.000000,0.151000,-0.014000,0.088000,-0.480000,-4.650000,31.830000,0.301575,Hold,0.590576,0.000000,Hold,0.000000,2.000000,LowGoal,1777.500000,-1818.181818,Speed,1725.000000,-1818.181818,Speed,Off,Off,0.000000,FALSE,50,Read: /home/lvuser/scripts/auto_50.bee,File good!,DRIVE_STRAIGHT_NAVX_RAMPARTS 200 10000 200,DRIVE_STRAIGHT_NAVX_RAMPARTS,0.000000,0.000000,-0.033000
11:04:23.945 AM 04/15/2016,Autonomous Enabled,10,FALSE,0,NO ERROR,-0.562500,-113.241069,0.725768,100.388515,FALSE,FALSE,TRUE,TRUE,FALSE,FALSE,Disabled,0.000000,0.000000,0.000000,TRUE,0.414444,-0.331940,0.000000,-0.060715,-1.004974,0.000000,-0.817000,-0.034000,-0.088000,1.180000,3.150000,28.590000,1.108036,Hold,0.590820,0.000000,Hold,0.000000,2.000000,LowGoal,1777.500000,-1818.181818,Speed,1732.500000,-1818.181818,Speed,Off,Off,0.000000,FALSE,50,Read: /home/lvuser/scripts/auto_50.bee,File good!,DRIVE_STRAIGHT_NAVX_RAMPARTS 200 10000 200,DRIVE_STRAIGHT_NAVX_RAMPARTS,0.000000,0.000000,-0.033000
11:04:24.046 AM 04/15/2016,Autonomous Enabled,10,FALSE,0,NO ERROR,-0.562500,-115.814146,0.546239,103.455675,FALSE,FALSE,TRUE,TRUE,FALSE,FALSE,Disabled,0.000000,0.000000,0.000000,TRUE,0.394943,-0.383560,0.000000,-0.528366,-1.082306,0.000000,0.096000,-0.246000,-0.649000,1.210000,2.000000,20.370000,-1.616708,Hold,0.590820,0.000000,Hold,0.000000,2.000000,LowGoal,1762.500000,-1818.181818,Speed,1725.000000,-1818.181818,Speed,Off,Off,0.000000,FALSE,50,Read: /home/lvuser/scripts/auto_50.bee,File good!,DRIVE_STRAIGHT_NAVX_RAMPARTS 200 10000 200,DRIVE_STRAIGHT_NAVX_RAMPARTS,0.000000,0.000000,-0.033000
11:04:24.147 AM 04/15/2016,Autonomous Enabled,10,FALSE,0,NO ERROR,-0.562500,-118.021474,0.668895,107.247916,FALSE,FALSE,TRUE,TRUE,FALSE,FALSE,Disabled,0.000000,0.000000,0.000000,TRUE,0.370941,-0.440613,0.000000,-0.348404,-1.038147,0.000000,-0.081000,0.093000,0.073000,-0.520000,1.080000,10.110000,1.295941,Hold,0.590820,0.000000,Hold,0.000000,2.000000,LowGoal,1747.500000,-1818.181818,Speed,1695.000000,-1818.181818,Speed,Off,Off,0.000000,FALSE,50,Read: /home/lvuser/scripts/auto_50.bee,File good!,DRIVE_STRAIGHT_NAVX_RAMPARTS 200 10000 200,DRIVE_STRAIGHT_NAVX_RAMPARTS,0.000000,0.000000,-0.033000
11:04:24.248 AM 04/15/2016,Autonomous Enabled,11,FALSE,0,NO ERROR,-0.562500,-121.114300,0.588933,110.866907,FALSE,FALSE,TRUE,TRUE,FALSE,FALSE,Disabled,0.000000,0.000000,0.000000,TRUE,0.351608,-0.493851,0.000000,-0.516281,-1.205124,0.000000,0.476000,-0.477000,-0.443000,-0.010000,2.710000,-4.270000,-1.793259,Hold,0.590820,0.000000,Hold,0.000000,2.000000,LowGoal,1747.500000,-1818.181818,Speed,1702.500000,-1818.181818,Speed,Off,Off,0.000000,FALSE,50,Read: /home/lvuser/scripts/auto_50.bee,File good!,DRIVE_STRAIGHT_NAVX_RAMPARTS 200 10000 200,DRIVE_STRAIGHT_NAVX_RAMPARTS,0.000000,0.000000,-0.033000
11:04:24.350 AM 04/15/2016,Autonomous Enabled,10,FALSE,0,NO ERROR,-0.562500,-125.593123,0.505891,115.884729,FALSE,FALSE,TRUE,TRUE,FALSE,FALSE,Disabled,0.000000,0.000000,0.000000,TRUE,0.338699,-0.565247,0.000000,0.090012,-1.506363,0.000000,0.216000,1.357000,1.040000,1.160000,-0.750000,-15.880000,-2.993366,Hold,0.624023,0.000000,Hold,0.000000,2.000000,LowGoal,1747.500000,-1818.181818,Speed,1717.500000,-1818.181818,Speed,Off,Off,0.000000,FALSE,50,Read: /home/lvuser/scripts/auto_50.bee,File good!,DRIVE_STRAIGHT_NAVX_RAMPARTS 200 10000 200,DRIVE_STRAIGHT_NAVX_RAMPARTS,0.000000,0.000000,-0.033000
11:04:24.452 AM 04/15/2016,Autonomous Enabled,11,FALSE,0,NO ERROR,-0.562500,-130.726444,0.489020,120.716468,FALSE,FALSE,TRUE,TRUE,FALSE,FALSE,Disabled,0.000000,0.000000,0.000000,TRUE,0.356079,-0.628403,0.000000,0.340118,-1.238022,0.000000,0.848000,0.021000,-0.381000,3.800000,-1.580000,-14.300000,-3.392758,Hold,0.725342,0.000000,Hold,0.000000,2.000000,LowGoal,1747.500000,-1818.181818,Speed,1717.500000,-1818.181818,Speed,Off,Off,0.000000,FALSE,50,Read: /home/lvuser/scripts/auto_50.bee,File good!,DRIVE_STRAIGHT_NAVX_RAMPARTS 200 10000 200,DRIVE_STRAIGHT_NAVX_RAMPARTS,0.000000,0.000000,-0.033000
11:04:24.553 AM 04/15/2016,Autonomous Enabled,9,FALSE,0,NO ERROR,-0.562500,-136.238348,0.476376,126.292538,FALSE,FALSE,TRUE,TRUE,FALSE,FALSE,Disabled,0.000000,0.000000,0.000000,TRUE,0.388840,-0.704681,0.000000,0.617645,-1.356598,0.000000,0.162000,-0.380000,-0.963000,1.740000,-1.800000,-10.510000,-4.408784,Hold,1.056885,0.000000,Hold,0.000000,2.000000,LowGoal,1762.500000,-1818.181818,Speed,1732.500000,-1818.181818,Speed,Off,Off,0.000000,FALSE,50,Read: /home/lvuser/scripts/auto_50.bee,File good!,DRIVE_STRAIGHT_NAVX_RAMPARTS 200 10000 200,DRIVE_STRAIGHT_NAVX_RAMPARTS,0.000000,0.000000,-0.033000
11:04:24.652 AM 04/15/2016,Autonomous Enabled,12,FALSE,0,NO ERROR,-0.562500,-136.238348,0.423723,126.292538,FALSE,FALSE,TRUE,TRUE,FALSE,FALSE,Disabled,0.000000,0.000000,0.000000,TRUE,0.408295,-0.771240,0.000000,0.095078,-1.518417,0.000000,1.073000,0.254000,0.354000,1.980000,-3.380000,-5.620000,-4.408784,Hold,1.005859,0.000000,Hold,-1.000000,2.000000,LowGoal,1777.500000,-1818.181818,Speed,1747.500000,-1818.181818,Speed,Off,Off,0.000000,FALSE,50,Read: /home/lvuser/scripts/auto_50.bee,File good!,DRIVE_STRAIGHT_NAVX_RAMPARTS 200 10000 200,DRIVE_STRAIGHT_NAVX_RAMPARTS,0.000000,0.000000,-0.033000
11:04:24.752 AM 04/15/2016,Autonomous Enabled,9,FALSE,0,NO ERROR,-0.562500,-140.402755,0.407631,130.867611,FALSE,FALSE,TRUE,TRUE,FALSE,FALSE,Disabled,0.000000,0.000000,0.000000,TRUE,0.419678,-0.835709,0.000000,0.299057,-1.106781,0.000000,0.331000,0.118000,-0.689000,1.340000,-4.220000,-4.550000,-5.235766,Hold,1.088867,0.000000,Hold,-3.000000,2.000000,LowGoal,1777.500000,-1818.181818,Speed,1740.000000,-1818.181818,Speed,Off,Off,0.000000,FALSE,50,Read: /home/lvuser/scripts/auto_50.bee,File good!,DRIVE_STRAIGHT_NAVX_RAMPARTS 200 10000 200,DRIVE_STRAIGHT_NAVX_RAMPARTS,0.000000,0.000000,-0.033000
11:04:24.852 AM 04/15/2016,Autonomous Enabled,10,FALSE,0,NO ERROR,-0.562500,-145.574576,0.448445,135.571016,TRUE,FALSE,TRUE,TRUE,FALSE,FALSE,Disabled,0.000000,0.000000,0.000000,TRUE,0.435120,-0.891266,0.000000,0.235107,-1.231613,0.000000,-0.007000,0.515000,0.579000,2.300000,-3.890000,0.700000,-5.233411,Hold,1.415771,0.000000,Hold,-3.000000,2.000000,LowGoal,1770.000000,-1818.181818,Speed,1740.000000,-1818.181818,Speed,Off,Off,0.000000,FALSE,50,Read: /home/lvuser/scripts/auto_50.bee,File good!,DRIVE_STRAIGHT_NAVX_RAMPARTS 200 10000 200,DRIVE_STRAIGHT_NAVX_RAMPARTS,0.000000,0.000000,-0.033000
11:04:24.952 AM 04/15/2016,Autonomous Enabled,9,FALSE,0,NO ERROR,-0.562500,-150.457648,0.472079,139.619924,TRUE,FALSE,TRUE,TRUE,FALSE,FALSE,Disabled,0.000000,0.000000,0.000000,TRUE,0.447647,-0.951691,0.000000,0.288895,-1.266663,0.000000,-0.241000,0.025000,-0.085000,1.760000,-2.710000,2.240000,-4.069448,Hold,1.417236,0.000000,Hold,-3.000000,2.000000,LowGoal,1792.500000,-1818.181818,Speed,1747.500000,-1818.181818,Speed,Off,Off,0.000000,FALSE,50,Read: /home/lvuser/scripts/auto_50.bee,File good!,DRIVE_STRAIGHT_NAVX_RAMPARTS 200 10000 200,DRIVE_STRAIGHT_NAVX_RAMPARTS,0.000000,0.000000,-0.033000
11:04:25.052 AM 04/15/2016,Autonomous Enabled,10,FALSE,0,NO ERROR,-0.250000,-154.962138,-0.250000,143.758664,TRUE,FALSE,TRUE,TRUE,FALSE,FALSE,Disabled,0.000000,0.000000,0.000000,TRUE,0.455261,-1.014862,0.000000,0.111053,-1.261673,0.000000,0.086000,-0.036000,-0.759000,1.880000,-1.720000,1.570000,-2.994853,Hold,1.476562,0.000000,Hold,-3.000000,2.000000,LowGoal,1800.000000,-1818.181818,Speed,1755.000000,-1818.181818,Speed,Off,Off,0.000000,FALSE,50,Read: /home/lvuser/scripts/auto_50.bee,File good!,SET_HEADING 0,SET_HEADING,0.000000,0.000000,-0.033000
11:04:25.152 AM 04/15/2016,Autonomous Enabled,9,FALSE,0,NO ERROR,0.000000,-158.715879,-0.000000,145.811992,TRUE,FALSE,TRUE,TRUE,FALSE,FALSE,Disabled,0.000000,0.000000,0.000000,TRUE,0.461914,-1.078049,0.000000,0.056610,-1.246017,0.000000,-0.945000,0.215000,0.268000,1.730000,-0.600000,1.540000,-1.022154,Hold,1.442871,0.000000,Hold,-3.000000,2.000000,LowGoal,1785.000000,-1818.181818,Speed,1747.500000,-1818.181818,Speed,Off,Off,0.000000,FALSE,50,Read: /home/lvuser/scripts/auto_50.bee,File good!,WAIT 500,WAIT,0.000000,0.000000,-0.033000
11:04:25.252 AM 04/15/2016,Autonomous Enabled,10,FALSE,0,NO ERROR,0.000000,-160.903957,-0.000000,146.261158,FALSE,FALSE,TRUE,TRUE,FALSE,FALSE,Disabled,0.000000,0.000000,0.000000,TRUE,0.443420,-1.143951,0.000000,-0.467941,-1.010330,0.000000,-0.316000,-0.104000,-0.634000,3.110000,5.220000,-3.660000,4.212063,Hold,1.442871,0.000000,Hold,-3.000000,2.000000,LowGoal,1770.000000,-1818.181818,Speed,1740.000000,-1818.181818,Speed,Off,Off,0.000000,FALSE,50,Read: /home/lvuser/scripts/auto_50.bee,File good!,WAIT 500,WAIT,0.000000,0.000000,-0.033000
11:04:25.352 AM 04/15/2016,Autonomous Enabled,10,FALSE,0,NO ERROR,0.000000,-161.815122,-0.000000,146.671824,TRUE,FALSE,TRUE,TRUE,FALSE,FALSE,Disabled,0.000000,0.000000,0.000000,TRUE,0.416626,-1.192719,0.000000,-0.773254,-1.378601,0.000000,-0.358000,-0.450000,0.461000,0.270000,6.680000,-2.250000,5.475764,Hold,1.436768,0.000000,Hold,-3.000000,2.000000,LowGoal,1785.000000,-1818.181818,Speed,1747.500000,-1818.181818,Speed,Off,Off,0.000000,FALSE,50,Read: /home/lvuser/scripts/auto_50.bee,File good!,WAIT 500,WAIT,0.000000,0.000000,-0.033000
11:04:25.452 AM 04/15/2016,Autonomous Enabled,12,FALSE,0,NO ERROR,0.000000,-161.802288,-0.000000,146.511407,TRUE,FALSE,TRUE,TRUE,FALSE,FALSE,Disabled,0.000000,0.000000,0.000000,TRUE,0.366226,-1.278183,0.000000,-0.791473,-1.266556,0.000000,0.258000,0.088000,0.356000,1.560000,7.690000,-2.840000,6.689541,Hold,1.435059,0.000000,Hold,-3.000000,2.000000,LowGoal,1800.000000,-1818.181818,Speed,1755.000000,-1818.181818,Speed,Off,Off,0.000000,FALSE,50,Read: /home/lvuser/scripts/auto_50.bee,File good!,WAIT 500,WAIT,0.000000,0.000000,-0.033000
11:04:25.552 AM 04/15/2016,Autonomous Enabled,12,FALSE,0,NO ERROR,0.000000,-161.815122,-0.000000,146.427991,TRUE,FALSE,TRUE,TRUE,FALSE,FALSE,Disabled,0.000000,0.000000,0.000000,TRUE,0.328613,-1.341873,0.000000,-0.786514,-1.348068,0.000000,0.056000,-0.039000,0.310000,0.930000,7.750000,-2.440000,6.632770,Hold,1.434814,0.000000,Hold,-3.000000,2.000000,LowGoal,1800.000000,-1818.181818,Speed,1755.000000,-1818.181818,Speed,Off,Off,0.000000,FALSE,50,Read: /home/lvuser/scripts/auto_50.bee,File good!,WAIT 500,WAIT,0.000000,0.000000,-0.033000
11:04:25.652 AM 04/15/2016,Autonomous Enabled,12,FALSE,0,NO ERROR,0.000000,-161.834372,-0.000000,146.427991,TRUE,FALSE,TRUE,TRUE,FALSE,FALSE,Disabled,0.000000,0.000000,0.000000,TRUE,0.292664,-1.409592,0.000000,-0.652298,-1.321777,0.000000,0.069000,0.121000,-0.056000,1.260000,7.450000,-2.230000,6.397309,Hold,1.434814,0.000000,Hold,-3.000000,2.000000,LowGoal,1800.000000,-1818.181818,Speed,1755.000000,-1818.181818,Speed,Off,Off,0.000000,FALSE,50,Read: /home/lvuser/scripts/auto_50.bee,File good!,WAIT 500,WAIT,0.000000,0.000000,-0.033000
11:04:25.753 AM 04/15/2016,Autonomous Enabled,11,FALSE,0,NO ERROR,0.000000,-161.834372,-0.000000,146.427991,TRUE,FALSE,TRUE,TRUE,FALSE,FALSE,Disabled,0.000000,0.000000,0.000000,TRUE,0.241318,-1.516144,0.000000,-0.611801,-1.317780,0.000000,0.069000,0.121000,-0.056000,1.210000,7.550000,-1.870000,6.484378,Hold,1.434814,0.000000,Hold,-3.000000,2.000000,LowGoal,1792.500000,-2181.818182,Speed,1755.000000,-2181.818182,Speed,Off,Off,0.000000,FALSE,50,Read: /home/lvuser/scripts/auto_50.bee,File good!,STOP_ALL,STOP_ALL,0.000000,0.000000,-0.033000
11:04:25.852 AM 04/15/2016,Autonomous Enabled,9,FALSE,0,NO ERROR,0.000000,-161.834372,-0.000000,146.427991,TRUE,FALSE,TRUE,TRUE,FALSE,FALSE,Disabled,0.000000,0.000000,0.000000,TRUE,0.223099,-1.555405,0.000000,-0.607468,-1.315079,0.000000,0.041000,-0.081000,-0.015000,1.190000,7.580000,-1.860000,6.507099,Hold,1.434570,0.000000,Hold,-3.000000,2.000000,LowGoal,1815.000000,-2181.818182,Speed,1785.000000,-2181.818182,Speed,Off,Off,0.000000,FALSE,50,Read: /home/lvuser/scripts/auto_50.bee,File good!,STOP_ALL,STOP_ALL,0.000000,0.000000,-0.033000
11:04:25.952 AM 04/15/2016,Autonomous Enabled,11,FALSE,0,NO ERROR,0.000000,-161.834372,-0.000000,146.427991,TRUE,FALSE,TRUE,TRUE,FALSE,FALSE,Disabled,0.000000,0.000000,0.000000,TRUE,0.193497,-1.621292,0.000000,-0.570679,-1.288300,0.000000,0.059000,0.069000,-0.020000,1.240000,7.560000,-1.680000,6.502738,Hold,1.434570,0.000000,Hold,-3.000000,2.000000,LowGoal,2055.000000,-2181.818182,Speed,1987.500000,-2181.818182,Speed,Off,Off,0.000000,FALSE,50,Read: /home/lvuser/scripts/auto_50.bee,File good!,STOP_ALL,STOP_ALL,0.000000,0.000000,-0.033000
11:04:26.052 AM 04/15/2016,Autonomous Enabled,9,FALSE,0,NO ERROR,0.000000,-161.834372,-0.000000,146.427991,TRUE,FALSE,TRUE,TRUE,FALSE,FALSE,Disabled,0.000000,0.000000,0.000000,TRUE,0.167145,-1.685028,0.000000,-0.480621,-1.286606,0.000000,-0.013000,-0.035000,-0.034000,1.190000,7.550000,-1.460000,6.506184,Hold,1.434570,0.000000,Hold,-3.000000,2.000000,LowGoal,2242.500000,-2181.818182,Speed,2212.500000,-2181.818182,Speed,Off,Off,0.000000,FALSE,50,Read: /home/lvuser/scripts/auto_50.bee,File good!,STOP_ALL,STOP_ALL,0.000000,0.000000,-0.033000
11:04:26.152 AM 04/15/2016,Autonomous Enabled,9,FALSE,0,NO ERROR,0.000000,-161.834372,-0.000000,146.427991,TRUE,FALSE,TRUE,TRUE,FALSE,FALSE,Disabled,0.000000,0.000000,0.000000,TRUE,0.143066,-1.750656,0.000000,-0.491318,-1.337311,0.000000,0.027000,0.014000,0.043000,1.200000,7.560000,-1.530000,6.498076,Hold,1.434570,0.000000,Hold,-3.000000,2.000000,LowGoal,2197.500000,-2181.818182,Speed,2175.000000,-2181.818182,Speed,Off,Off,0.000000,FALSE,50,Read: /home/lvuser/scripts/auto_50.bee,File good!,STOP_ALL,STOP_ALL,0.000000,0.000000,-0.033000
11:04:26.252 AM 04/15/2016,Autonomous Enabled,11,FALSE,0,NO ERROR,0.000000,-161.834372,-0.000000,146.427991,TRUE,FALSE,TRUE,TRUE,FALSE,FALSE,Disabled,0.000000,0.000000,0.000000,TRUE,0.119614,-1.777557,0.000000,-0.440567,-0.011688,0.000000,0.063000,-0.084000,-0.057000,1.230000,7.570000,-1.380000,6.500307,Hold,1.434570,0.000000,Hold,-3.000000,2.000000,LowGoal,2152.500000,-2181.818182,Speed,2122.500000,-2181.818182,Speed,Off,Off,0.000000,FALSE,50,Read: /home/lvuser/scripts/auto_50.bee,File good!,STOP_ALL,STOP_ALL,0.000000,0.000000,-0.033000
11:04:26.353 AM 04/15/2016,Autonomous Enabled,11,FALSE,0,NO ERROR,0.000000,-161.834372,-0.000000,146.427991,TRUE,FALSE,TRUE,TRUE,FALSE,FALSE,Disabled,0.000000,0.000000,0.000000,TRUE,0.111206,-1.779434,0.000000,0.000000,-0.032379,0.000000,-0.018000,0.099000,0.036000,1.240000,7.560000,-1.190000,6.496513,Hold,1.434570,0.000000,Hold,-3.000000,2.000000,LowGoal,2145.000000,-2181.818182,Speed,2115.000000,-2181.818182,Speed,Off,Off,0.000000,FALSE,50,Read: /home/lvuser/scripts/auto_50.bee,File good!,STOP_ALL,STOP_ALL,0.000000,0.000000,-0.033000
11:04:26.453 AM 04/15/2016,Autonomous Enabled,11,FALSE,0,NO ERROR,0.000000,-161.834372,-0.000000,146.427991,TRUE,FALSE,TRUE,TRUE,FALSE,FALSE,Disabled,0.000000,0.000000,0.000000,TRUE,0.111023,-1.778290,0.000000,0.001022,0.064972,0.000000,0.051000,0.128000,0.000000,1.240000,7.560000,-0.870000,6.489959,Hold,1.434570,0.000000,Hold,-3.000000,2.000000,LowGoal,2160.000000,-2181.818182,Speed,2130.000000,-2181.818182,Speed,Off,Off,0.000000,FALSE,50,Read: /home/lvuser/scripts/auto_50.bee,File good!,STOP_ALL,STOP_ALL,0.000000,0.000000,-0.033000
11:04:26.553 AM 04/15/2016,Autonomous Enabled,11,FALSE,0,NO ERROR,0.000000,-161.834372,-0.000000,146.427991,TRUE,FALSE,TRUE,TRUE,FALSE,FALSE,Disabled,0.000000,0.000000,0.000000,TRUE,0.111374,-1.768707,0.000000,0.000000,0.234024,0.000000,-0.080000,0.095000,-0.089000,1.240000,7.550000,-0.830000,6.498820,Hold,1.434326,0.000000,Hold,-3.000000,2.000000,LowGoal,2167.500000,-2181.818182,Speed,2130.000000,-2181.818182,Speed,Off,Off,0.000000,FALSE,50,Read: /home/lvuser/scripts/auto_50.bee,File good!,STOP_ALL,STOP_ALL,0.000000,0.000000,-0.033000
11:04:26.653 AM 04/15/2016,Autonomous Enabled,11,FALSE,0,NO ERROR,0.000000,-161.834372,-0.000000,146.427991,TRUE,FALSE,TRUE,TRUE,FALSE,FALSE,Disabled,0.000000,0.000000,0.000000,TRUE,0.110031,-1.753876,0.000000,-0.049194,0.342209,0.000000,-0.041000,0.139000,-0.073000,1.260000,7.560000,-0.890000,6.517637,Hold,1.434326,0.000000,Hold,-3.000000,2.000000,LowGoal,2160.000000,-2181.818182,Speed,2130.000000,-2181.818182,Speed,Off,Off,0.000000,FALSE,50,Read: /home/lvuser/scripts/auto_50.bee,File good!,STOP_ALL,STOP_ALL,0.000000,0.000000,-0.033000
11:04:26.754 AM 04/15/2016,Autonomous Enabled,10,FALSE,0,NO ERROR,0.000000,-161.834372,-0.000000,146.427991,TRUE,FALSE,TRUE,TRUE,FALSE,FALSE,Disabled,0.000000,0.000000,0.000000,TRUE,0.107010,-1.733185,0.000000,-0.056671,0.455338,0.000000,0.045000,0.076000,-0.117000,1.260000,7.560000,-0.940000,6.519575,Hold,1.434326,0.000000,Hold,-3.000000,2.000000,LowGoal,2167.500000,-2181.818182,Speed,2130.000000,-2181.818182,Speed,Off,Off,0.000000,FALSE,50,Read: /home/lvuser/scripts/auto_50.bee,File good!,STOP_ALL,STOP_ALL,0.000000,0.000000,-0.033000
11:04:26.855 AM 04/15/2016,Autonomous Enabled,10,FALSE,0,NO ERROR,0.000000,-161.834372,-0.000000,146.427991,TRUE,FALSE,TRUE,TRUE,FALSE,FALSE,Disabled,0.000000,0.000000,0.000000,TRUE,0.104874,-1.707626,0.000000,-0.037231,0.543564,0.000000,0.034000,0.032000,-0.107000,1.300000,7.560000,-0.990000,6.523427,Hold,1.434326,0.000000,Hold,-3.000000,2.000000,LowGoal,2175.000000,-2181.818182,Speed,2130.000000,-2181.818182,Speed,Off,Off,0.000000,FALSE,50,Read: /home/lvuser/scripts/auto_50.bee,File good!,STOP_ALL,STOP_ALL,0.000000,0.000000,-0.033000
11:04:26.956 AM 04/15/2016,Autonomous Enabled,11,FALSE,0,NO ERROR,0.000000,-161.834372,-0.000000,146.427991,TRUE,FALSE,TRUE,TRUE,FALSE,FALSE,Disabled,0.000000,0.000000,0.000000,TRUE,0.103882,-1.679123,0.000000,0.000000,0.594452,0.000000,0.003000,0.073000,-0.099000,1.270000,7.560000,-0.990000,6.520832,Hold,1.434326,0.000000,Hold,-3.000000,2.000000,LowGoal,2175.000000,-2181.818182,Speed,2130.000000,-2181.818182,Speed,Off,Off,0.000000,FALSE,50,Read: /home/lvuser/scripts/auto_50.bee,File good!,STOP_ALL,STOP_ALL,0.000000,0.000000,-0.033000
11:04:27.057 AM 04/15/2016,Autonomous Enabled,11,FALSE,0,NO ERROR,0.000000,-161.834372,-0.000000,146.427991,TRUE,FALSE,TRUE,TRUE,FALSE,FALSE,Disabled,0.000000,0.000000,0.000000,TRUE,0.103897,-1.647293,0.000000,0.000000,0.665894,0.000000,0.011000,0.074000,-0.105000,1.300000,7.570000,-1.070000,6.531824,Hold,1.434326,0.000000,Hold,-3.000000,2.000000,LowGoal,2175.000000,-2181.818182,Speed,2130.000000,-2181.818182,Speed,Off,Off,0.000000,FALSE,50,Read: /home/lvuser/scripts/auto_50.bee,File good!,STOP_ALL,STOP_ALL,0.000000,0.000000,-0.033000
11:04:27.160 AM 04/15/2016,Autonomous Enabled,9,FALSE,0,NO ERROR,0.000000,-161.834372,-0.000000,146.427991,TRUE,FALSE,TRUE,TRUE,FALSE,FALSE,Disabled,0.000000,0.000000,0.000000,TRUE,0.103958,-1.612152,0.000000,0.003433,0.726852,0.000000,-0.042000,0.129000,-0.097000,1.280000,7.570000,-1.030000,6.546451,Hold,1.434326,0.000000,Hold,-3.000000,2.000000,LowGoal,2175.000000,-2181.818182,Speed,2130.000000,-2181.818182,Speed,Off,Off,0.000000,FALSE,50,Read: /home/lvuser/scripts/auto_50.bee,File good!,STOP_ALL,STOP_ALL,0.000000,0.000000,-0.033000
11:04:27.261 AM 04/15/2016,Autonomous Enabled,9,FALSE,0,NO ERROR,0.000000,-161.834372,-0.000000,146.427991,TRUE,FALSE,TRUE,TRUE,FALSE,FALSE,Disabled,0.000000,0.000000,0.000000,TRUE,0.102707,-1.572632,0.000000,-0.053696,0.831100,0.000000,-0.061000,0.110000,-0.056000,1.280000,7.570000,-1.030000,6.556366,Hold,1.434326,0.000000,Hold,-3.000000,2.000000,LowGoal,2167.500000,-2181.818182,Speed,2130.000000,-2181.818182,Speed,Off,Off,0.000000,FALSE,50,Read: /home/lvuser/scripts/auto_50.bee,File good!,STOP_ALL,STOP_ALL,0.000000,0.000000,-0.033000
11:04:27.361 AM 04/15/2016,Autonomous Enabled,10,FALSE,0,NO ERROR,0.000000,-161.834372,-0.000000,146.427991,TRUE,FALSE,TRUE,TRUE,FALSE,FALSE,Disabled,0.000000,0.000000,0.000000,TRUE,0.099228,-1.518463,0.000000,-0.038147,0.947159,0.000000,0.042000,0.100000,-0.071000,1.290000,7.560000,-0.870000,6.562246,Hold,1.434326,0.000000,Hold,-3.000000,2.000000,LowGoal,2152.500000,-2181.818182,Speed,2130.000000,-2181.818182,Speed,Off,Off,0.000000,FALSE,50,Read: /home/lvuser/scripts/auto_50.bee,File good!,STOP_ALL,STOP_ALL,0.000000,0.000000,-0.033000
11:04:27.462 AM 04/15/2016,Autonomous Enabled,9,FALSE,0,NO ERROR,0.000000,-161.834372,-0.000000,146.427991,TRUE,FALSE,TRUE,TRUE,FALSE,FALSE,Disabled,0.000000,0.000000,0.000000,TRUE,0.097839,-1.468933,0.000000,-0.017853,1.010452,0.000000,0.042000,0.100000,-0.071000,1.270000,7.560000,-0.620000,6.563017,Hold,1.434326,0.000000,Hold,-3.000000,2.000000,LowGoal,2160.000000,-2181.818182,Speed,2130.000000,-2181.818182,Speed,Off,Off,0.000000,FALSE,50,Read: /home/lvuser/scripts/auto_50.bee,File good!,STOP_ALL,STOP_ALL,0.000000,0.000000,-0.033000
11:04:27.561 AM 04/15/2016,Autonomous Enabled,10,FALSE,0,NO ERROR,0.000000,-161.834372,-0.000000,146.427991,TRUE,FALSE,TRUE,TRUE,FALSE,FALSE,Disabled,0.000000,0.000000,0.000000,TRUE,0.098709,-1.417404,0.000000,0.043823,1.047485,0.000000,-0.007000,0.017000,-0.121000,1.280000,7.550000,-0.380000,6.576932,Hold,1.434326,0.000000,Hold,-3.000000,2.000000,LowGoal,2175.000000,-2181.818182,Speed,2130.000000,-2181.818182,Speed,Off,Off,0.000000,FALSE,50,Read: /home/lvuser/scripts/auto_50.bee,File good!,STOP_ALL,STOP_ALL,0.000000,0.000000,-0.033000
11:04:27.662 AM 04/15/2016,Autonomous Enabled,10,FALSE,0,NO ERROR,0.000000,-161.834372,-0.000000,146.427991,TRUE,FALSE,TRUE,TRUE,FALSE,FALSE,Disabled,0.000000,0.000000,0.000000,TRUE,0.102646,-1.406921,0.000000,0.109940,-0.001678,0.000000,0.038000,0.059000,-0.084000,1.250000,7.550000,-0.170000,6.575055,Hold,1.434326,0.000000,Hold,-3.000000,2.000000,LowGoal,2175.000000,-2181.818182,Speed,2130.000000,-2181.818182,Speed,Off,Off,0.000000,FALSE,50,Read: /home/lvuser/scripts/auto_50.bee,File good!,STOP_ALL,STOP_ALL,0.000000,0.000000,-0.033000
11:04:27.763 AM 04/15/2016,Autonomous Enabled,11,FALSE,0,NO ERROR,0.000000,-161.834372,-0.000000,146.427991,TRUE,FALSE,TRUE,TRUE,FALSE,FALSE,Disabled,0.000000,0.000000,0.000000,TRUE,0.109024,-1.406036,0.000000,0.132889,0.025131,0.000000,-0.012000,-0.034000,-0.057000,1.260000,7.550000,-0.090000,6.589710,Hold,1.434326,0.000000,Hold,-3.000000,2.000000,LowGoal,2160.000000,-2181.818182,Speed,2130.000000,-2181.818182,Speed,Off,Off,0.000000,FALSE,50,Read: /home/lvuser/scripts/auto_50.bee,File good!,STOP_ALL,STOP_ALL,0.000000,0.000000,-0.033000
11:04:27.863 AM 04/15/2016,Autonomous Enabled,11,FALSE,0,NO ERROR,0.000000,-161.834372,-0.000000,146.427991,TRUE,FALSE,TRUE,TRUE,FALSE,FALSE,Disabled,0.000000,0.000000,0.000000,TRUE,0.108292,-1.405838,0.000000,-0.026749,-0.006821,0.000000,0.033000,0.000000,0.018000,1.260000,7.560000,-0.170000,6.604672,Hold,1.434326,0.000000,Hold,-3.000000,2.000000,LowGoal,2160.000000,-2181.818182,Speed,2137.500000,-2181.818182,Speed,Off,Off,0.000000,FALSE,50,Read: /home/lvuser/scripts/auto_50.bee,File good!,STOP_ALL,STOP_ALL,0.000000,0.000000,-0.033000
11:04:27.964 AM 04/15/2016,Autonomous Enabled,10,FALSE,0,NO ERROR,0.000000,-161.834372,-0.000000,146.427991,TRUE,FALSE,TRUE,TRUE,FALSE,FALSE,Disabled,0.000000,0.000000,0.000000,TRUE,0.106934,-1.406876,0.000000,-0.021210,-0.037445,0.000000,0.033000,0.000000,0.018000,1.300000,7.560000,-0.280000,6.615967,Hold,1.434326,0.000000,Hold,-3.000000,2.000000,LowGoal,2160.000000,-2181.818182,Speed,2130.000000,-2181.818182,Speed,Off,Off,0.000000,FALSE,50,Read: /home/lvuser/scripts/auto_50.bee,File good!,STOP_ALL,STOP_ALL,0.000000,0.000000,-0.033000
11:04:28.064 AM 04/15/2016,Autonomous Enabled,15,FALSE,0,NO ERROR,0.000000,-161.834372,-0.000000,146.427991,TRUE,FALSE,TRUE,TRUE,FALSE,FALSE,Disabled,0.000000,0.000000,0.000000,TRUE,0.107224,-1.410446,0.000000,0.033356,-0.100800,0.000000,0.048000,-0.089000,-0.059000,1.320000,7.560000,-0.290000,6.623496,Hold,1.434326,0.000000,Hold,-3.000000,2.000000,LowGoal,2152.500000,-2181.818182,Speed,2137.500000,-2181.818182,Speed,Off,Off,0.000000,FALSE,50,Read: /home/lvuser/scripts/auto_50.bee,File good!,STOP_ALL,STOP_ALL,0.000000,0.000000,-0.033000
11:04:28.164 AM 04/15/2016,Autonomous Enabled,10,FALSE,0,NO ERROR,0.000000,-161.834372,-0.000000,146.427991,TRUE,FALSE,TRUE,TRUE,FALSE,FALSE,Disabled,0.000000,0.000000,0.000000,TRUE,0.110489,-1.417252,0.000000,0.084167,-0.150131,0.000000,-0.027000,0.001000,0.123000,1.320000,7.560000,-0.130000,6.624112,Hold,1.434326,0.000000,Hold,-3.000000,2.000000,LowGoal,2152.500000,-2181.818182,Speed,2130.000000,-2181.818182,Speed,Off,Off,0.000000,FALSE,50,Read: /home/lvuser/scripts/auto_50.bee,File good!,STOP_ALL,STOP_ALL,0.000000,0.000000,-0.033000
11:04:28.265 AM 04/15/2016,Autonomous Enabled,14,FALSE,0,NO ERROR,0.000000,-161.834372,-0.000000,146.427991,TRUE,FALSE,TRUE,TRUE,FALSE,FALSE,Disabled,0.000000,0.000000,0.000000,TRUE,0.114929,-1.425430,0.000000,0.096649,-0.179550,0.000000,-0.027000,0.001000,0.123000,1.340000,7.560000,-0.150000,6.616996,Hold,1.434326,0.000000,Hold,-3.000000,2.000000,LowGoal,2152.500000,-2181.818182,Speed,2130.000000,-2181.818182,Speed,Off,Off,0.000000,FALSE,50,Read: /home/lvuser/scripts/auto_50.bee,File good!,STOP_ALL,STOP_ALL,0.000000,0.000000,-0.033000
11:04:28.365 AM 04/15/2016,Autonomous Enabled,10,FALSE,0,NO ERROR,0.000000,-161.834372,-0.000000,146.427991,TRUE,FALSE,TRUE,TRUE,FALSE,FALSE,Disabled,0.000000,0.000000,0.000000,TRUE,0.118210,-1.436310,0.000000,-0.002472,-0.238235,0.000000,-0.043000,-0.067000,0.122000,1.370000,7.570000,-0.250000,6.611798,Hold,1.434326,0.000000,Hold,-3.000000,2.000000,LowGoal,2160.000000,-2181.818182,Speed,2130.000000,-2181.818182,Speed,Off,Off,0.000000,FALSE,50,Read: /home/lvuser/scripts/auto_50.bee,File good!,STOP_ALL,STOP_ALL,0.000000,0.000000,-0.033000
11:04:28.465 AM 04/15/2016,Autonomous Enabled,8,FALSE,0,NO ERROR,0.000000,-161.834372,-0.000000,146.427991,TRUE,FALSE,TRUE,TRUE,FALSE,FALSE,Disabled,0.000000,0.000000,0.000000,TRUE,0.116699,-1.449905,0.000000,-0.055908,-0.292221,0.000000,-0.043000,-0.067000,0.122000,1.380000,7.570000,-0.340000,6.623272,Hold,1.434326,0.000000,Hold,-3.000000,2.000000,LowGoal,2160.000000,-2181.818182,Speed,2137.500000,-2181.818182,Speed,Off,Off,0.000000,FALSE,50,Read: /home/lvuser/scripts/auto_50.bee,File good!,STOP_ALL,STOP_ALL,0.000000,0.000000,-0.033000
11:04:28.565 AM 04/15/2016,Autonomous Enabled,12,FALSE,0,NO ERROR,0.000000,-161.834372,-0.000000,146.427991,TRUE,FALSE,TRUE,TRUE,FALSE,FALSE,Disabled,0.000000,0.000000,0.000000,TRUE,0.116699,-1.449905,0.000000,-0.055908,-0.292221,0.000000,-0.008000,-0.013000,0.120000,1.390000,7.570000,-0.310000,6.611867,Hold,1.434326,0.000000,Hold,-3.000000,2.000000,LowGoal,2160.000000,-2181.818182,Speed,2137.500000,-2181.818182,Speed,Off,Off,0.000000,FALSE,50,Read: /home/lvuser/scripts/auto_50.bee,File good!,STOP_ALL,STOP_ALL,0.000000,0.000000,-0.033000
11:04:28.667 AM 04/15/2016,Autonomous Enabled,17,FALSE,0,NO ERROR,0.000000,-161.834372,-0.000000,146.427991,TRUE,FALSE,TRUE,TRUE,FALSE,FALSE,Disabled,0.000000,0.000000,0.000000,TRUE,0.109482,-1.486664,0.000000,-0.039703,-0.385651,0.000000,0.028000,-0.010000,0.093000,1.400000,7.560000,-0.160000,6.621843,Hold,1.434326,0.000000,Hold,-3.000000,2.000000,LowGoal,2152.500000,-2181.818182,Speed,2130.000000,-2181.818182,Speed,Off,Off,0.000000,FALSE,50,Read: /home/lvuser/scripts/auto_50.bee,File good!,STOP_ALL,STOP_ALL,0.000000,0.000000,-0.033000
11:04:28.768 AM 04/15/2016,Autonomous Enabled,10,FALSE,0,NO ERROR,0.000000,-161.834372,-0.000000,146.427991,TRUE,FALSE,TRUE,TRUE,FALSE,FALSE,Disabled,0.000000,0.000000,0.000000,TRUE,0.107910,-1.508865,0.000000,-0.022018,-0.485031,0.000000,0.016000,-0.078000,0.106000,1.400000,7.560000,-0.160000,6.620459,Hold,1.434326,0.000000,Hold,-3.000000,2.000000,LowGoal,2160.000000,-2181.818182,Speed,2137.500000,-2181.818182,Speed,Off,Off,0.000000,FALSE,50,Read: /home/lvuser/scripts/auto_50.bee,File good!,STOP_ALL,STOP_ALL,0.000000,0.000000,-0.033000
11:04:28.869 AM 04/15/2016,Autonomous Enabled,10,FALSE,0,NO ERROR,0.000000,-161.834372,-0.000000,146.427991,TRUE,FALSE,TRUE,TRUE,FALSE,FALSE,Disabled,0.000000,0.000000,0.000000,TRUE,0.107712,-1.535690,0.000000,0.000000,-0.549835,0.000000,0.009000,-0.144000,0.016000,1.400000,7.560000,-0.030000,6.623289,Hold,1.434326,0.000000,Hold,-3.000000,2.000000,LowGoal,2160.000000,-2181.818182,Speed,2137.500000,-2181.818182,Speed,Off,Off,0.000000,FALSE,50,Read: /home/lvuser/scripts/auto_50.bee,File good!,STOP_ALL,STOP_ALL,0.000000,0.000000,-0.033000
11:04:28.970 AM 04/15/2016,Autonomous Enabled,10,FALSE,0,NO ERROR,0.000000,-161.834372,-0.000000,146.427991,TRUE,FALSE,TRUE,TRUE,FALSE,FALSE,Disabled,0.000000,0.000000,0.000000,TRUE,0.107773,-1.536194,0.000000,0.010132,-0.026642,0.000000,0.000000,0.018000,0.038000,1.410000,7.570000,-0.050000,6.644929,Hold,1.434326,0.000000,Hold,-3.000000,2.000000,LowGoal,2145.000000,-2181.818182,Speed,2130.000000,-2181.818182,Speed,Off,Off,0.000000,FALSE,50,Read: /home/lvuser/scripts/auto_50.bee,File good!,STOP_ALL,STOP_ALL,0.000000,0.000000,-0.033000
11:04:29.072 AM 04/15/2016,Autonomous Enabled,12,FALSE,0,NO ERROR,0.000000,-161.834372,-0.000000,146.427991,TRUE,FALSE,TRUE,TRUE,FALSE,FALSE,Disabled,0.000000,0.000000,0.000000,TRUE,0.108612,-1.537140,0.000000,0.020844,0.000000,0.000000,0.000000,-0.095000,-0.067000,1.450000,7.570000,-0.070000,6.640763,Hold,1.434326,0.000000,Hold,-3.000000,2.000000,LowGoal,2137.500000,-2181.818182,Speed,2130.000000,-2181.818182,Speed,Off,Off,0.000000,FALSE,50,Read: /home/lvuser/scripts/auto_50.bee,File good!,STOP_ALL,STOP_ALL,0.000000,0.000000,-0.033000
11:04:29.173 AM 04/15/2016,Autonomous Enabled,8,FALSE,0,NO ERROR,0.000000,-161.834372,-0.000000,146.427991,TRUE,FALSE,TRUE,TRUE,FALSE,FALSE,Disabled,0.000000,0.000000,0.000000,TRUE,0.109863,-1.536072,0.000000,0.028519,0.045746,0.000000,0.007000,-0.003000,0.058000,1.410000,7.570000,0.020000,6.641972,Hold,1.434326,0.000000,Hold,-3.000000,2.000000,LowGoal,2152.500000,-2181.818182,Speed,2137.500000,-2181.818182,Speed,Off,Off,0.000000,FALSE,50,Read: /home/lvuser/scripts/auto_50.bee,File good!,STOP_ALL,STOP_ALL,0.000000,0.000000,-0.033000
11:04:29.273 AM 04/15/2016,Autonomous Enabled,12,FALSE,0,NO ERROR,0.000000,-161.834372,-0.000000,146.427991,TRUE,FALSE,TRUE,TRUE,FALSE,FALSE,Disabled,0.000000,0.000000,0.000000,TRUE,0.110138,-1.529572,0.000000,0.000000,0.143280,0.000000,-0.027000,0.105000,-0.084000,1.410000,7.570000,0.020000,6.635596,Hold,1.434326,0.000000,Hold,-3.000000,2.000000,LowGoal,2160.000000,-2181.818182,Speed,2137.500000,-2181.818182,Speed,Off,Off,0.000000,FALSE,50,Read: /home/lvuser/scripts/auto_50.bee,File good!,STOP_ALL,STOP_ALL,0.000000,0.000000,-0.033000
