Time,Robot Mode,Loop Time,Error Status,Error Code,Error Source,Left Motor Output,Left Motor Encoder,Right Motor Output,Right Motor Encoder,Is Level,Is Stalled,Ball Detector Photoeye,Vision Enabled,Vision Teleop Control,Vision Auto Control,Vision Current State,Vision X Output,Vision NavX Error,Vision NavX Target,NavX Connection Status,NavX Displacement X,NavX Displacement Y,NavX Displacement Z,NavX Velocity X,NavX Velocity Y,NavX Velocity Z,NavX Acceleration X,NavX Acceleration Y,NavX Acceleration Z,NavX Pitch,NavX Yaw,NavX Roll,Gyro Angle,Roller Arm State,Roller Arm Actual,Roller Arm Desired,Shooter Arm State,Shooter Arm Actual,Shooter Arm Desired,Shooter State,Actual RPM Left,Desired RPM Left,Control Mode Left,Actual RPM Right,Desired RPM Right,Control Mode Right,Ball Shooter Cylinder,Ball Halo Cylinder,Scaler Motor Output,Scaler Solenoid Fire,Auto To Run,Auto Current File,Auto File Status,Auto Current Command,Auto Trimmed Command,Shooter Amps Left,Shooter Amps Right, Vision After Offset
01:31:21.039 PM 04/15/2016,Autonomous Enabled,10,TRUE,-44003,<LOCATION>WPI_CameraIssue HTTP Request with Authentication.vi<CALLSTACK>WPI_CameraIssue HTTP Request with Authentication.vi< <WPI_CameraIssue Get.vi< <WPI_CameraSet Image Appearance Property.vi< <WPI_CameraSet Image Size.vi< <Vision Processing.vi< <Robot Main.vi,0.000000,0.000000,-0.000000,0.000000,TRUE,FALSE,TRUE,TRUE,FALSE,FALSE,Disabled,0.000000,0.000000,0.000000,TRUE,-0.000610,0.000259,0.000000,-0.028366,0.013870,0.000000,0.002000,0.003000,0.027000,1.400000,-0.700000,0.250000,-1.579907,ResetBack,-0.738770,-0.000049,ResetBack,2193.000000,-0.250000,LowGoal,120.000000,-2181.818182,Speed,105.000000,-2181.818182,Speed,Off,Off,0.000000,FALSE,55,Read: /home/lvuser/scripts/auto_55.bee,File good!,WAIT 1500,WAIT,0.000000,0.000000,-0.033000
01:31:21.138 PM 04/15/2016,Autonomous Enabled,11,TRUE,7,Read from Text File in DoesScriptNumberContainNull.vi->Disabled.vi->Robot Main.vi<APPEND> /home/lvuser/scripts/auto_60.bee,0.000000,0.000000,-0.000000,0.000000,TRUE,FALSE,TRUE,TRUE,FALSE,FALSE,Disabled,0.000000,0.000000,0.000000,TRUE,-0.001602,0.000473,0.000000,-0.026978,0.000000,0.000000,0.015000,0.037000,0.174000,1.390000,-0.700000,0.270000,-1.579800,ResetBack,-0.823975,-0.000049,ResetBack,2193.000000,-0.250000,LowGoal,637.500000,-2181.818182,Speed,727.500000,-2181.818182,Speed,Off,Off,0.000000,FALSE,55,Read: /home/lvuser/scripts/auto_55.bee,File good!,WAIT 1500,WAIT,0.000000,0.000000,-0.033000
01:31:21.238 PM 04/15/2016,Autonomous Enabled,9,TRUE,7,Read from Text File in DoesScriptNumberContainNull.vi->Disabled.vi->Robot Main.vi<APPEND> /home/lvuser/scripts/auto_60.bee,0.000000,0.000000,-0.000000,0.000000,TRUE,FALSE,TRUE,TRUE,FALSE,FALSE,Disabled,0.000000,0.000000,0.000000,TRUE,-0.002625,0.001038,0.000000,0.000336,0.015427,0.000000,0.015000,0.037000,0.174000,1.400000,-0.700000,0.320000,-1.578347,ResetBack,-0.823975,-0.000049,ResetBack,6315.000000,-0.250000,LowGoal,1297.500000,-2181.818182,Speed,1365.000000,-2181.818182,Speed,Off,Off,0.000000,FALSE,55,Read: /home/lvuser/scripts/auto_55.bee,File good!,WAIT 1500,WAIT,0.000000,0.000000,-0.033000
01:31:21.339 PM 04/15/2016,Autonomous Enabled,9,TRUE,7,Read from Text File in DoesScriptNumberContainNull.vi->Disabled.vi->Robot Main.vi<APPEND> /home/lvuser/scripts/auto_60.bee,0.000000,0.000000,-0.000000,0.000000,TRUE,FALSE,TRUE,TRUE,FALSE,FALSE,Disabled,0.000000,0.000000,0.000000,TRUE,-0.002594,0.001892,0.000000,0.006760,0.019470,0.000000,0.022000,-0.012000,-0.035000,1.350000,-0.700000,0.330000,-1.583883,Reset,-0.824219,0.000000,ResetBack,7234.000000,-0.250000,LowGoal,1837.500000,-2181.818182,Speed,1882.500000,-2181.818182,Speed,Off,Off,0.000000,FALSE,55,Read: /home/lvuser/scripts/auto_55.bee,File good!,WAIT 1500,WAIT,0.000000,0.000000,-0.033000
01:31:21.442 PM 04/15/2016,Autonomous Enabled,12,TRUE,7,Read from Text File in DoesScriptNumberContainNull.vi->Disabled.vi->Robot Main.vi<APPEND> /home/lvuser/scripts/auto_60.bee,0.000000,0.000000,-0.000000,0.000000,TRUE,FALSE,TRUE,TRUE,FALSE,FALSE,Disabled,0.000000,0.000000,0.000000,TRUE,-0.002090,0.002335,0.000000,0.004929,0.015244,0.000000,0.005000,0.074000,-0.128000,1.350000,-0.700000,0.330000,-1.579873,Hold,0.000000,0.000000,ResetBack,7254.000000,-0.250000,LowGoal,2205.000000,-2181.818182,Speed,2167.500000,-2181.818182,Speed,Off,Off,0.000000,FALSE,55,Read: /home/lvuser/scripts/auto_55.bee,File good!,WAIT 1500,WAIT,0.000000,0.000000,-0.033000
01:31:21.542 PM 04/15/2016,Autonomous Enabled,9,TRUE,7,Read from Text File in DoesScriptNumberContainNull.vi->Disabled.vi->Robot Main.vi<APPEND> /home/lvuser/scripts/auto_60.bee,0.000000,0.000000,-0.000000,0.000000,TRUE,FALSE,TRUE,TRUE,FALSE,FALSE,Disabled,0.000000,0.000000,0.000000,TRUE,-0.000671,0.005814,0.000000,0.031845,0.087402,0.000000,0.005000,0.074000,-0.128000,1.340000,-0.700000,0.350000,-1.577232,Hold,0.000000,0.000000,ResetBack,7320.000000,-0.250000,LowGoal,2250.000000,-2181.818182,Speed,2212.500000,-2181.818182,Speed,Off,Off,0.000000,FALSE,55,Read: /home/lvuser/scripts/auto_55.bee,File good!,WAIT 1500,WAIT,0.000000,0.000000,-0.033000
01:31:21.643 PM 04/15/2016,Autonomous Enabled,11,TRUE,7,Read from Text File in DoesScriptNumberContainNull.vi->Disabled.vi->Robot Main.vi<APPEND> /home/lvuser/scripts/auto_60.bee,0.000000,0.000000,-0.000000,0.000000,TRUE,FALSE,TRUE,TRUE,FALSE,FALSE,Disabled,0.000000,0.000000,0.000000,TRUE,-0.000366,0.011703,0.000000,0.000000,0.136505,0.000000,-0.054000,0.046000,-0.106000,1.330000,-0.700000,0.400000,-1.590014,Hold,0.000000,0.000000,ResetBack,7760.000000,-0.250000,LowGoal,2167.500000,-2181.818182,Speed,2130.000000,-2181.818182,Speed,Off,Off,0.000000,FALSE,55,Read: /home/lvuser/scripts/auto_55.bee,File good!,WAIT 1500,WAIT,0.000000,0.000000,-0.033000
01:31:21.742 PM 04/15/2016,Autonomous Enabled,10,TRUE,7,Read from Text File in DoesScriptNumberContainNull.vi->Disabled.vi->Robot Main.vi<APPEND> /home/lvuser/scripts/auto_60.bee,0.000000,0.000000,-0.000000,0.000000,TRUE,FALSE,TRUE,TRUE,FALSE,FALSE,Disabled,0.000000,0.000000,0.000000,TRUE,0.000626,0.015930,0.000000,0.030029,0.001724,0.000000,0.038000,0.035000,0.013000,1.340000,-0.700000,0.380000,-1.583002,Hold,0.000000,0.000000,ResetBack,8259.000000,-0.250000,LowGoal,2130.000000,-2181.818182,Speed,2100.000000,-2181.818182,Speed,Off,Off,0.000000,FALSE,55,Read: /home/lvuser/scripts/auto_55.bee,File good!,WAIT 1500,WAIT,0.000000,0.000000,-0.033000
01:31:21.843 PM 04/15/2016,Autonomous Enabled,11,TRUE,7,Read from Text File in DoesScriptNumberContainNull.vi->Disabled.vi->Robot Main.vi<APPEND> /home/lvuser/scripts/auto_60.bee,0.000000,0.000000,-0.000000,0.000000,TRUE,FALSE,TRUE,TRUE,FALSE,FALSE,Disabled,0.000000,0.000000,0.000000,TRUE,0.000320,0.015381,0.000000,-0.016724,-0.013153,0.000000,0.004000,-0.024000,-0.053000,1.340000,-0.700000,0.460000,-1.581380,Hold,0.000000,0.000000,ResetBack,8259.000000,-0.250000,LowGoal,2130.000000,-2181.818182,Speed,2122.500000,-2181.818182,Speed,Off,Off,0.000000,FALSE,55,Read: /home/lvuser/scripts/auto_55.bee,File good!,WAIT 1500,WAIT,0.000000,0.000000,-0.033000
01:31:21.944 PM 04/15/2016,Autonomous Enabled,9,TRUE,7,Read from Text File in DoesScriptNumberContainNull.vi->Disabled.vi->Robot Main.vi<APPEND> /home/lvuser/scripts/auto_60.bee,0.000000,0.000000,-0.000000,0.000000,TRUE,FALSE,TRUE,TRUE,FALSE,FALSE,Disabled,0.000000,0.000000,0.000000,TRUE,0.000320,0.015381,0.000000,-0.016724,-0.013153,0.000000,-0.020000,0.038000,-0.007000,1.390000,-0.700000,0.330000,-1.590847,Hold,0.000000,0.000000,ResetBack,8597.000000,-0.250000,LowGoal,2130.000000,-2181.818182,Speed,2130.000000,-2181.818182,Speed,Off,Off,0.000000,FALSE,55,Read: /home/lvuser/scripts/auto_55.bee,File good!,WAIT 1500,WAIT,0.000000,0.000000,-0.033000
01:31:22.047 PM 04/15/2016,Autonomous Enabled,9,TRUE,7,Read from Text File in DoesScriptNumberContainNull.vi->Disabled.vi->Robot Main.vi<APPEND> /home/lvuser/scripts/auto_60.bee,0.000000,0.000000,-0.000000,0.000000,TRUE,FALSE,TRUE,TRUE,FALSE,FALSE,Disabled,0.000000,0.000000,0.000000,TRUE,-0.001602,0.012848,0.000000,-0.028503,-0.058365,0.000000,0.007000,-0.094000,-0.015000,1.380000,-0.700000,0.290000,-1.588820,Hold,0.000000,0.000000,ResetBack,8728.000000,-0.250000,LowGoal,2115.000000,-2181.818182,Speed,2122.500000,-2181.818182,Speed,Off,Off,0.000000,FALSE,55,Read: /home/lvuser/scripts/auto_55.bee,File good!,WAIT 1500,WAIT,0.000000,0.000000,-0.033000
01:31:22.148 PM 04/15/2016,Autonomous Enabled,12,TRUE,7,Read from Text File in DoesScriptNumberContainNull.vi->Disabled.vi->Robot Main.vi<APPEND> /home/lvuser/scripts/auto_60.bee,0.000000,0.000000,-0.000000,0.000000,TRUE,FALSE,TRUE,TRUE,FALSE,FALSE,Disabled,0.000000,0.000000,0.000000,TRUE,-0.004166,0.009613,0.000000,-0.039169,-0.076340,0.000000,0.004000,0.016000,0.000000,1.380000,-0.700000,0.290000,-1.585890,Hold,0.000000,0.000000,ResetBack,8728.000000,-0.250000,LowGoal,2145.000000,-2181.818182,Speed,2122.500000,-2181.818182,Speed,Off,Off,0.000000,FALSE,55,Read: /home/lvuser/scripts/auto_55.bee,File good!,WAIT 1500,WAIT,0.000000,0.000000,-0.033000
01:31:22.248 PM 04/15/2016,Autonomous Enabled,11,TRUE,7,Read from Text File in DoesScriptNumberContainNull.vi->Disabled.vi->Robot Main.vi<APPEND> /home/lvuser/scripts/auto_60.bee,0.000000,0.000000,-0.000000,0.000000,TRUE,FALSE,TRUE,TRUE,FALSE,FALSE,Disabled,0.000000,0.000000,0.000000,TRUE,-0.004593,0.009888,0.000000,-0.006836,-0.003098,0.000000,0.004000,0.016000,0.000000,1.350000,-0.690000,0.380000,-1.582561,Hold,0.000000,0.000000,Reset,8948.000000,2.000000,LowGoal,2145.000000,-2181.818182,Speed,2122.500000,-2181.818182,Speed,Off,Off,0.000000,FALSE,55,Read: /home/lvuser/scripts/auto_55.bee,File good!,WAIT 1500,WAIT,0.000000,0.000000,-0.033000
01:31:22.348 PM 04/15/2016,Autonomous Enabled,11,TRUE,7,Read from Text File in DoesScriptNumberContainNull.vi->Disabled.vi->Robot Main.vi<APPEND> /home/lvuser/scripts/auto_60.bee,0.000000,0.000000,-0.000000,0.000000,TRUE,FALSE,TRUE,TRUE,FALSE,FALSE,Disabled,0.000000,0.000000,0.000000,TRUE,-0.004593,0.009216,0.000000,0.001160,0.000000,0.000000,0.004000,-0.058000,-0.005000,1.350000,-0.690000,0.380000,-1.593243,Hold,0.000000,0.000000,Hold,8948.000000,2.000000,LowGoal,2145.000000,-2181.818182,Speed,2122.500000,-2181.818182,Speed,Off,Off,0.000000,FALSE,55,Read: /home/lvuser/scripts/auto_55.bee,File good!,WAIT 1500,WAIT,0.000000,0.000000,-0.033000
01:31:22.451 PM 04/15/2016,Autonomous Enabled,10,TRUE,7,Read from Text File in DoesScriptNumberContainNull.vi->Disabled.vi->Robot Main.vi<APPEND> /home/lvuser/scripts/auto_60.bee,0.000000,0.000000,-0.000000,0.000000,TRUE,FALSE,TRUE,TRUE,FALSE,FALSE,Disabled,0.000000,0.000000,0.000000,TRUE,-0.004593,0.009216,0.000000,0.001160,0.000000,0.000000,0.052000,0.028000,0.055000,1.370000,-0.680000,0.340000,-1.586771,Hold,0.000000,0.000000,Hold,-193.000000,2.000000,LowGoal,2137.500000,-2181.818182,Speed,2122.500000,-2181.818182,Speed,Off,Off,0.000000,FALSE,55,Read: /home/lvuser/scripts/auto_55.bee,File good!,WAIT 1500,WAIT,0.000000,0.000000,-0.033000
01:31:22.552 PM 04/15/2016,Autonomous Enabled,10,TRUE,7,Read from Text File in DoesScriptNumberContainNull.vi->Disabled.vi->Robot Main.vi<APPEND> /home/lvuser/scripts/auto_60.bee,0.000000,0.000000,-0.000000,0.000000,TRUE,FALSE,TRUE,TRUE,FALSE,FALSE,Disabled,0.000000,0.000000,0.000000,TRUE,-0.002579,0.009216,0.000000,0.048492,-0.009323,0.000000,0.026000,-0.071000,0.006000,1.370000,-0.680000,0.340000,-1.587178,Hold,0.000000,0.000000,Hold,-190.000000,2.000000,LowGoal,2137.500000,-2181.818182,Speed,2122.500000,-2181.818182,Speed,Off,Off,0.000000,FALSE,55,Read: /home/lvuser/scripts/auto_55.bee,File good!,NAVX_ZERO_YAW,NAVX_ZERO_YAW,0.000000,0.000000,-0.033000
01:31:22.655 PM 04/15/2016,Autonomous Enabled,10,TRUE,7,Read from Text File in DoesScriptNumberContainNull.vi->Disabled.vi->Robot Main.vi<APPEND> /home/lvuser/scripts/auto_60.bee,-0.562500,-0.218166,0.562500,0.237416,TRUE,FALSE,TRUE,TRUE,FALSE,FALSE,Disabled,0.000000,0.000000,0.000000,TRUE,-0.001038,0.007401,0.000000,0.000000,-0.049896,0.000000,0.031000,0.000000,0.019000,1.330000,0.000000,0.410000,-0.001312,Hold,0.000000,0.000000,Hold,-188.000000,2.000000,LowGoal,2145.000000,-1818.181818,Speed,2122.500000,-1818.181818,Speed,Off,Off,0.000000,FALSE,55,Read: /home/lvuser/scripts/auto_55.bee,File good!,DRIVE_STRAIGHT_TARGET 42 0 10000 75,DRIVE_STRAIGHT_TARGET,0.000000,0.000000,-0.033000
01:31:22.754 PM 04/15/2016,Autonomous Enabled,10,TRUE,7,Read from Text File in DoesScriptNumberContainNull.vi->Disabled.vi->Robot Main.vi<APPEND> /home/lvuser/scripts/auto_60.bee,-0.562500,-0.218166,0.562500,0.237416,TRUE,FALSE,TRUE,TRUE,FALSE,FALSE,Disabled,0.000000,0.000000,0.000000,TRUE,-0.000977,0.006485,0.000000,-0.012161,0.007706,0.000000,-0.063000,0.006000,0.036000,1.330000,0.010000,0.990000,-0.001312,Hold,0.000000,0.000000,Hold,-188.000000,2.000000,LowGoal,2077.500000,-1818.181818,Speed,2062.500000,-1818.181818,Speed,Off,Off,0.000000,FALSE,55,Read: /home/lvuser/scripts/auto_55.bee,File good!,DRIVE_STRAIGHT_TARGET 42 0 10000 75,DRIVE_STRAIGHT_TARGET,0.000000,0.000000,-0.033000
01:31:22.854 PM 04/15/2016,Autonomous Enabled,9,TRUE,7,Read from Text File in DoesScriptNumberContainNull.vi->Disabled.vi->Robot Main.vi<APPEND> /home/lvuser/scripts/auto_60.bee,-0.562500,-2.091828,0.562500,2.220161,FALSE,FALSE,TRUE,TRUE,FALSE,FALSE,Disabled,0.000000,0.000000,0.000000,TRUE,0.016724,0.004395,0.000000,0.517639,-0.028656,0.000000,0.315000,0.079000,-0.377000,1.260000,-0.180000,4.830000,-0.124555,Hold,0.000000,0.000000,Hold,-187.000000,2.000000,LowGoal,1755.000000,-1818.181818,Speed,1762.500000,-1818.181818,Speed,Off,Off,0.000000,FALSE,55,Read: /home/lvuser/scripts/auto_55.bee,File good!,DRIVE_STRAIGHT_TARGET 42 0 10000 75,DRIVE_STRAIGHT_TARGET,0.000000,0.000000,-0.033000
01:31:22.955 PM 04/15/2016,Autonomous Enabled,9,TRUE,7,Read from Text File in DoesScriptNumberContainNull.vi->Disabled.vi->Robot Main.vi<APPEND> /home/lvuser/scripts/auto_60.bee,-0.562500,-4.863822,0.562500,5.081988,FALSE,FALSE,TRUE,TRUE,FALSE,FALSE,Disabled,0.000000,0.000000,0.000000,TRUE,0.042053,0.003128,0.000000,0.685654,-0.032715,0.000000,0.209000,0.025000,0.187000,1.330000,-0.300000,4.030000,-0.242852,Hold,0.000000,0.000000,Hold,-187.000000,2.000000,LowGoal,1672.500000,-1818.181818,Speed,1672.500000,-1818.181818,Speed,Off,Off,0.000000,FALSE,55,Read: /home/lvuser/scripts/auto_55.bee,File good!,DRIVE_STRAIGHT_TARGET 42 0 10000 75,DRIVE_STRAIGHT_TARGET,0.000000,0.000000,-0.033000
01:31:23.056 PM 04/15/2016,Autonomous Enabled,11,TRUE,7,Read from Text File in DoesScriptNumberContainNull.vi->Disabled.vi->Robot Main.vi<APPEND> /home/lvuser/scripts/auto_60.bee,-0.562500,-8.559813,0.562500,8.822896,FALSE,FALSE,TRUE,TRUE,FALSE,FALSE,Disabled,0.000000,0.000000,0.000000,TRUE,0.089340,0.001419,0.000000,0.804077,-0.031967,0.000000,-0.144000,0.024000,0.033000,1.330000,-0.540000,4.500000,-0.411059,Hold,0.000000,0.000000,Hold,-186.000000,2.000000,LowGoal,1762.500000,-1818.181818,Speed,1717.500000,-1818.181818,Speed,Off,Off,0.000000,FALSE,55,Read: /home/lvuser/scripts/auto_55.bee,File good!,DRIVE_STRAIGHT_TARGET 42 0 10000 75,DRIVE_STRAIGHT_TARGET,0.000000,0.000000,-0.033000
01:31:23.157 PM 04/15/2016,Autonomous Enabled,8,TRUE,7,Read from Text File in DoesScriptNumberContainNull.vi->Disabled.vi->Robot Main.vi<APPEND> /home/lvuser/scripts/auto_60.bee,-0.578604,-12.589471,0.546624,12.916720,FALSE,FALSE,TRUE,TRUE,FALSE,FALSE,Disabled,0.000000,0.000000,0.000000,TRUE,0.127274,0.000565,0.000000,0.743210,-0.011826,0.000000,0.100000,-0.123000,-0.096000,1.380000,-0.630000,4.110000,-0.542244,Hold,0.000000,0.000000,Hold,-186.000000,2.000000,LowGoal,1762.500000,-1818.181818,Speed,1755.000000,-1818.181818,Speed,Off,Off,0.000000,FALSE,55,Read: /home/lvuser/scripts/auto_55.bee,File good!,DRIVE_STRAIGHT_TARGET 42 0 10000 75,DRIVE_STRAIGHT_TARGET,0.000000,0.000000,-0.033000
01:31:23.257 PM 04/15/2016,Autonomous Enabled,10,TRUE,7,Read from Text File in DoesScriptNumberContainNull.vi->Disabled.vi->Robot Main.vi<APPEND> /home/lvuser/scripts/auto_60.bee,-0.582169,-16.753877,0.543169,17.183793,FALSE,FALSE,TRUE,TRUE,FALSE,FALSE,Disabled,0.000000,0.000000,0.000000,TRUE,0.163712,-0.000854,0.000000,0.702637,-0.025879,0.000000,-0.027000,0.003000,-0.106000,1.340000,-0.860000,3.890000,-0.842411,Hold,0.000000,0.000000,Hold,-186.000000,2.000000,LowGoal,1770.000000,-1818.181818,Speed,1747.500000,-1818.181818,Speed,Off,Off,0.000000,FALSE,55,Read: /home/lvuser/scripts/auto_55.bee,File good!,DRIVE_STRAIGHT_TARGET 42 0 10000 75,DRIVE_STRAIGHT_TARGET,0.000000,0.000000,-0.033000
01:31:23.357 PM 04/15/2016,Autonomous Enabled,10,TRUE,7,Read from Text File in DoesScriptNumberContainNull.vi->Disabled.vi->Robot Main.vi<APPEND> /home/lvuser/scripts/auto_60.bee,-0.583757,-21.059451,0.541637,21.502200,FALSE,FALSE,TRUE,TRUE,FALSE,FALSE,Disabled,0.000000,0.000000,0.000000,TRUE,0.197083,-0.000473,0.000000,0.643860,0.008774,0.000000,-0.013000,-0.016000,-0.100000,1.450000,-1.060000,3.500000,-0.984854,Hold,0.000000,0.000000,Hold,-185.000000,2.000000,LowGoal,1747.500000,-1818.181818,Speed,1747.500000,-1818.181818,Speed,Off,Off,0.000000,FALSE,55,Read: /home/lvuser/scripts/auto_55.bee,File good!,DRIVE_STRAIGHT_TARGET 42 0 10000 75,DRIVE_STRAIGHT_TARGET,0.000000,0.000000,-0.033000
01:31:23.458 PM 04/15/2016,Autonomous Enabled,10,TRUE,7,Read from Text File in DoesScriptNumberContainNull.vi->Disabled.vi->Robot Main.vi<APPEND> /home/lvuser/scripts/auto_60.bee,-0.583558,-25.403524,0.541828,25.794940,FALSE,FALSE,TRUE,TRUE,FALSE,FALSE,Disabled,0.000000,0.000000,0.000000,TRUE,0.229004,0.000214,0.000000,0.628036,0.020828,0.000000,-0.029000,0.026000,0.043000,1.480000,-1.100000,3.300000,-1.030633,Hold,0.000000,0.000000,Hold,-184.000000,2.000000,LowGoal,1755.000000,-1818.181818,Speed,1740.000000,-1818.181818,Speed,Off,Off,0.000000,FALSE,55,Read: /home/lvuser/scripts/auto_55.bee,File good!,DRIVE_STRAIGHT_TARGET 42 0 10000 75,DRIVE_STRAIGHT_TARGET,0.000000,0.000000,-0.033000
01:31:23.558 PM 04/15/2016,Autonomous Enabled,9,TRUE,7,Read from Text File in DoesScriptNumberContainNull.vi->Disabled.vi->Robot Main.vi<APPEND> /home/lvuser/scripts/auto_60.bee,-0.580385,-29.940097,0.544895,30.280179,FALSE,FALSE,TRUE,TRUE,FALSE,FALSE,Disabled,0.000000,0.000000,0.000000,TRUE,0.259232,0.001755,0.000000,0.600220,0.035156,0.000000,-0.098000,-0.049000,0.088000,1.510000,-0.990000,3.090000,-0.944153,Hold,0.000000,0.000000,Hold,-184.000000,2.000000,LowGoal,1755.000000,-1818.181818,Speed,1740.000000,-1818.181818,Speed,Off,Off,0.000000,FALSE,55,Read: /home/lvuser/scripts/auto_55.bee,File good!,DRIVE_STRAIGHT_TARGET 42 0 10000 75,DRIVE_STRAIGHT_TARGET,0.000000,0.000000,-0.033000
01:31:23.659 PM 04/15/2016,Autonomous Enabled,10,TRUE,7,Read from Text File in DoesScriptNumberContainNull.vi->Disabled.vi->Robot Main.vi<APPEND> /home/lvuser/scripts/auto_60.bee,-0.576233,-34.380420,0.548933,34.630669,TRUE,FALSE,TRUE,TRUE,FALSE,FALSE,Disabled,0.000000,0.000000,0.000000,TRUE,0.287094,0.002365,0.000000,0.537201,0.011795,0.000000,-0.019000,-0.038000,-0.018000,1.480000,-0.810000,2.910000,-0.748354,Hold,0.000000,0.000000,Hold,-183.000000,2.000000,LowGoal,1762.500000,-1818.181818,Speed,1740.000000,-1818.181818,Speed,Off,Off,0.000000,FALSE,55,Read: /home/lvuser/scripts/auto_55.bee,File good!,DRIVE_STRAIGHT_TARGET 42 0 10000 75,DRIVE_STRAIGHT_TARGET,0.000000,0.000000,-0.033000
01:31:23.761 PM 04/15/2016,Autonomous Enabled,10,TRUE,7,Read from Text File in DoesScriptNumberContainNull.vi->Disabled.vi->Robot Main.vi<APPEND> /home/lvuser/scripts/auto_60.bee,-0.573867,-38.852826,0.551247,39.045325,TRUE,FALSE,TRUE,TRUE,FALSE,FALSE,Disabled,0.000000,0.000000,0.000000,TRUE,0.312195,0.002319,0.000000,0.464539,-0.002609,0.000000,-0.096000,-0.050000,0.000000,1.420000,-0.640000,2.520000,-0.573754,Hold,0.000000,0.000000,Hold,-183.000000,2.000000,LowGoal,1755.000000,-1818.181818,Speed,1740.000000,-1818.181818,Speed,Off,Off,0.000000,FALSE,55,Read: /home/lvuser/scripts/auto_55.bee,File good!,DRIVE_STRAIGHT_TARGET 42 0 10000 75,DRIVE_STRAIGHT_TARGET,0.000000,0.000000,-0.033000
01:31:23.863 PM 04/15/2016,Autonomous Enabled,10,TRUE,7,Read from Text File in DoesScriptNumberContainNull.vi->Disabled.vi->Robot Main.vi<APPEND> /home/lvuser/scripts/auto_60.bee,0.000000,-43.440732,-0.000000,43.613981,TRUE,FALSE,TRUE,TRUE,FALSE,FALSE,Disabled,0.000000,0.000000,0.000000,TRUE,0.333572,0.001938,0.000000,0.406448,0.000427,0.000000,-0.012000,-0.019000,0.008000,1.430000,-0.570000,2.110000,-0.497522,Hold,0.000000,58.000000,Hold,-182.000000,2.000000,LowGoal,1770.000000,-1818.181818,Speed,1740.000000,-1818.181818,Speed,Off,Off,0.000000,FALSE,55,Read: /home/lvuser/scripts/auto_55.bee,File good!,WAIT 1000,WAIT,0.000000,0.000000,-0.033000
01:31:23.965 PM 04/15/2016,Autonomous Enabled,12,TRUE,7,Read from Text File in DoesScriptNumberContainNull.vi->Disabled.vi->Robot Main.vi<APPEND> /home/lvuser/scripts/auto_60.bee,0.000000,-45.936809,-0.000000,46.033059,TRUE,FALSE,TRUE,TRUE,FALSE,FALSE,Disabled,0.000000,0.000000,0.000000,TRUE,0.346695,0.001709,0.000000,-0.040222,0.010406,0.000000,-0.536000,0.066000,0.255000,1.550000,-0.550000,-2.160000,-0.510593,Hold,3.192139,58.000000,Hold,-182.000000,2.000000,LowGoal,1777.500000,-1818.181818,Speed,1747.500000,-1818.181818,Speed,Off,Off,0.000000,FALSE,55,Read: /home/lvuser/scripts/auto_55.bee,File good!,WAIT 1000,WAIT,0.000000,0.000000,-0.033000
01:31:24.065 PM 04/15/2016,Autonomous Enabled,10,TRUE,7,Read from Text File in DoesScriptNumberContainNull.vi->Disabled.vi->Robot Main.vi<APPEND> /home/lvuser/scripts/auto_60.bee,0.000000,-47.111057,-0.000000,47.232973,TRUE,FALSE,TRUE,TRUE,FALSE,FALSE,Disabled,0.000000,0.000000,0.000000,TRUE,0.331024,0.003571,0.000000,-0.448105,0.032272,0.000000,-0.326000,0.003000,-0.694000,1.440000,-0.570000,-1.850000,-0.579957,Hold,6.340332,58.000000,Hold,-182.000000,2.000000,LowGoal,1777.500000,-1818.181818,Speed,1747.500000,-1818.181818,Speed,Off,Off,0.000000,FALSE,55,Read: /home/lvuser/scripts/auto_55.bee,File good!,WAIT 1000,WAIT,0.000000,0.000000,-0.033000
01:31:24.166 PM 04/15/2016,Autonomous Enabled,11,TRUE,7,Read from Text File in DoesScriptNumberContainNull.vi->Disabled.vi->Robot Main.vi<APPEND> /home/lvuser/scripts/auto_60.bee,0.000000,-47.380556,-0.000000,47.476806,TRUE,FALSE,TRUE,TRUE,FALSE,FALSE,Disabled,0.000000,0.000000,0.000000,TRUE,0.292343,0.004623,0.000000,-0.722214,0.021179,0.000000,0.059000,-0.015000,-0.260000,1.400000,-0.530000,-1.700000,-0.582588,Hold,11.153076,58.000000,Hold,-182.000000,2.000000,LowGoal,1777.500000,-1818.181818,Speed,1747.500000,-1818.181818,Speed,Off,Off,0.000000,FALSE,55,Read: /home/lvuser/scripts/auto_55.bee,File good!,WAIT 1000,WAIT,0.000000,0.000000,-0.033000
01:31:24.269 PM 04/15/2016,Autonomous Enabled,11,TRUE,7,Read from Text File in DoesScriptNumberContainNull.vi->Disabled.vi->Robot Main.vi<APPEND> /home/lvuser/scripts/auto_60.bee,0.000000,-47.374139,-0.000000,47.419056,TRUE,FALSE,TRUE,TRUE,FALSE,FALSE,Disabled,0.000000,0.000000,0.000000,TRUE,0.256851,0.005615,0.000000,-0.703369,0.022812,0.000000,0.061000,-0.016000,-0.319000,1.420000,-0.510000,-1.610000,-0.583001,Hold,17.457275,58.000000,Hold,-180.000000,2.000000,LowGoal,1770.000000,-1818.181818,Speed,1747.500000,-1818.181818,Speed,Off,Off,0.000000,FALSE,55,Read: /home/lvuser/scripts/auto_55.bee,File good!,WAIT 1000,WAIT,0.000000,0.000000,-0.033000
01:31:24.369 PM 04/15/2016,Autonomous Enabled,10,TRUE,7,Read from Text File in DoesScriptNumberContainNull.vi->Disabled.vi->Robot Main.vi<APPEND> /home/lvuser/scripts/auto_60.bee,0.000000,-47.207306,-0.000000,47.245806,TRUE,FALSE,TRUE,TRUE,FALSE,FALSE,Disabled,0.000000,0.000000,0.000000,TRUE,0.224091,0.005951,0.000000,-0.612595,0.005127,0.000000,0.007000,-0.025000,-0.235000,1.430000,-0.520000,-1.440000,-0.576542,Hold,21.885986,58.000000,Hold,-179.000000,2.000000,LowGoal,1762.500000,-1818.181818,Speed,1747.500000,-1818.181818,Speed,Off,Off,0.000000,FALSE,55,Read: /home/lvuser/scripts/auto_55.bee,File good!,WAIT 1000,WAIT,0.000000,0.000000,-0.033000
01:31:24.469 PM 04/15/2016,Autonomous Enabled,11,TRUE,7,Read from Text File in DoesScriptNumberContainNull.vi->Disabled.vi->Robot Main.vi<APPEND> /home/lvuser/scripts/auto_60.bee,0.000000,-47.194473,-0.000000,47.232973,TRUE,FALSE,TRUE,TRUE,FALSE,FALSE,Disabled,0.000000,0.000000,0.000000,TRUE,0.218292,0.006531,0.000000,0.019409,0.020676,0.000000,0.071000,0.005000,-0.112000,1.460000,-0.530000,-1.080000,-0.579303,Hold,28.512451,58.000000,Hold,-179.000000,2.000000,LowGoal,1770.000000,-1818.181818,Speed,1755.000000,-1818.181818,Speed,Off,Off,0.000000,FALSE,55,Read: /home/lvuser/scripts/auto_55.bee,File good!,WAIT 1000,WAIT,0.000000,0.000000,-0.033000
01:31:24.570 PM 04/15/2016,Autonomous Enabled,9,TRUE,7,Read from Text File in DoesScriptNumberContainNull.vi->Disabled.vi->Robot Main.vi<APPEND> /home/lvuser/scripts/auto_60.bee,0.000000,-47.194473,-0.000000,47.226556,TRUE,FALSE,TRUE,TRUE,FALSE,FALSE,Disabled,0.000000,0.000000,0.000000,TRUE,0.221466,0.007355,0.000000,0.088928,0.012573,0.000000,0.038000,0.000000,-0.095000,1.420000,-0.520000,-0.980000,-0.561571,Hold,34.487061,58.000000,Hold,-179.000000,2.000000,LowGoal,1785.000000,-1818.181818,Speed,1747.500000,-1818.181818,Speed,Off,Off,0.000000,FALSE,55,Read: /home/lvuser/scripts/auto_55.bee,File good!,WAIT 1000,WAIT,0.000000,0.000000,-0.033000
01:31:24.670 PM 04/15/2016,Autonomous Enabled,10,TRUE,7,Read from Text File in DoesScriptNumberContainNull.vi->Disabled.vi->Robot Main.vi<APPEND> /home/lvuser/scripts/auto_60.bee,0.000000,-47.200890,-0.000000,47.232973,TRUE,FALSE,TRUE,TRUE,FALSE,FALSE,Disabled,0.000000,0.000000,0.000000,TRUE,0.227631,0.008240,0.000000,0.154861,0.011993,0.000000,0.109000,-0.222000,0.137000,1.380000,-0.510000,-0.810000,-0.550159,Hold,46.909912,58.000000,Hold,-178.000000,2.000000,LowGoal,1777.500000,-1818.181818,Speed,1747.500000,-1818.181818,Speed,Off,Off,0.000000,FALSE,55,Read: /home/lvuser/scripts/auto_55.bee,File good!,WAIT 1000,WAIT,0.000000,0.000000,-0.033000
01:31:24.772 PM 04/15/2016,Autonomous Enabled,9,TRUE,7,Read from Text File in DoesScriptNumberContainNull.vi->Disabled.vi->Robot Main.vi<APPEND> /home/lvuser/scripts/auto_60.bee,0.000000,-47.200890,-0.000000,47.232973,TRUE,FALSE,TRUE,TRUE,FALSE,FALSE,Disabled,0.000000,0.000000,0.000000,TRUE,0.238022,0.004410,0.000000,0.212250,-0.106812,0.000000,0.177000,-0.033000,-0.144000,1.350000,-0.550000,-0.600000,-0.597494,Hold,50.989746,58.000000,Hold,-177.000000,2.000000,LowGoal,1762.500000,-1818.181818,Speed,1755.000000,-1818.181818,Speed,Off,Off,0.000000,FALSE,55,Read: /home/lvuser/scripts/auto_55.bee,File good!,WAIT 1000,WAIT,0.000000,0.000000,-0.033000
01:31:24.872 PM 04/15/2016,Autonomous Enabled,9,TRUE,7,Read from Text File in DoesScriptNumberContainNull.vi->Disabled.vi->Robot Main.vi<APPEND> /home/lvuser/scripts/auto_60.bee,-0.562500,-47.194473,0.562500,47.226556,TRUE,FALSE,TRUE,TRUE,FALSE,FALSE,Disabled,0.000000,0.000000,0.000000,TRUE,0.250687,-0.001465,0.000000,0.252823,-0.126846,0.000000,0.153000,0.005000,0.128000,1.260000,-0.570000,-0.600000,-0.599938,Hold,53.989990,58.000000,Hold,-177.000000,2.000000,LowGoal,1777.500000,-1818.181818,Speed,1747.500000,-1818.181818,Speed,Off,Off,0.000000,FALSE,55,Read: /home/lvuser/scripts/auto_55.bee,File good!,DRIVE_STRAIGHT_TARGET 78 0 10000 75,DRIVE_STRAIGHT_TARGET,0.000000,0.000000,-0.033000
01:31:24.973 PM 04/15/2016,Autonomous Enabled,9,TRUE,7,Read from Text File in DoesScriptNumberContainNull.vi->Disabled.vi->Robot Main.vi<APPEND> /home/lvuser/scripts/auto_60.bee,-0.562500,-0.615999,0.562500,0.635249,TRUE,FALSE,TRUE,TRUE,FALSE,FALSE,Disabled,0.000000,0.000000,0.000000,TRUE,0.272705,-0.004379,0.000000,0.554092,-0.007736,0.000000,1.116000,0.059000,-0.282000,1.180000,-0.480000,0.930000,-0.506531,Hold,58.453857,58.000000,Hold,-177.000000,2.000000,LowGoal,1785.000000,-1818.181818,Speed,1747.500000,-1818.181818,Speed,Off,Off,0.000000,FALSE,55,Read: /home/lvuser/scripts/auto_55.bee,File good!,DRIVE_STRAIGHT_TARGET 78 0 10000 75,DRIVE_STRAIGHT_TARGET,0.000000,0.000000,-0.033000
01:31:25.074 PM 04/15/2016,Autonomous Enabled,10,TRUE,7,Read from Text File in DoesScriptNumberContainNull.vi->Disabled.vi->Robot Main.vi<APPEND> /home/lvuser/scripts/auto_60.bee,-0.562500,-2.759160,0.562500,2.778410,FALSE,FALSE,TRUE,TRUE,FALSE,FALSE,Disabled,0.000000,0.000000,0.000000,TRUE,0.308273,-0.002090,0.000000,0.830780,0.040344,0.000000,0.348000,0.010000,-0.635000,1.020000,-0.510000,4.550000,-0.588602,Hold,59.456543,58.000000,Hold,-176.000000,2.000000,LowGoal,1755.000000,-1818.181818,Speed,1732.500000,-1818.181818,Speed,Off,Off,0.000000,FALSE,55,Read: /home/lvuser/scripts/auto_55.bee,File good!,DRIVE_STRAIGHT_TARGET 78 0 10000 75,DRIVE_STRAIGHT_TARGET,0.000000,0.000000,-0.033000
01:31:25.175 PM 04/15/2016,Autonomous Enabled,9,TRUE,7,Read from Text File in DoesScriptNumberContainNull.vi->Disabled.vi->Robot Main.vi<APPEND> /home/lvuser/scripts/auto_60.bee,-0.562500,-5.774986,0.562500,5.774986,FALSE,FALSE,TRUE,TRUE,FALSE,FALSE,Disabled,0.000000,0.000000,0.000000,TRUE,0.355530,-0.000595,0.000000,0.976944,0.008743,0.000000,0.130000,0.129000,-0.147000,1.010000,-0.490000,6.070000,-0.500283,Hold,59.089111,58.000000,Hold,-176.000000,2.000000,LowGoal,1725.000000,-1818.181818,Speed,1710.000000,-1818.181818,Speed,Off,Off,0.000000,FALSE,55,Read: /home/lvuser/scripts/auto_55.bee,File good!,DRIVE_STRAIGHT_TARGET 78 0 10000 75,DRIVE_STRAIGHT_TARGET,0.000000,0.000000,-0.033000
01:31:25.276 PM 04/15/2016,Autonomous Enabled,9,TRUE,7,Read from Text File in DoesScriptNumberContainNull.vi->Disabled.vi->Robot Main.vi<APPEND> /home/lvuser/scripts/auto_60.bee,-0.562500,-9.297728,0.562500,9.329812,FALSE,FALSE,TRUE,TRUE,FALSE,FALSE,Disabled,0.000000,0.000000,0.000000,TRUE,0.406494,0.001343,0.000000,1.020844,0.027542,0.000000,-0.072000,0.004000,0.278000,1.040000,-0.450000,8.550000,-0.492943,Hold,59.008545,58.000000,Hold,-176.000000,2.000000,LowGoal,1740.000000,-1818.181818,Speed,1725.000000,-1818.181818,Speed,Off,Off,0.000000,FALSE,55,Read: /home/lvuser/scripts/auto_55.bee,File good!,DRIVE_STRAIGHT_TARGET 78 0 10000 75,DRIVE_STRAIGHT_TARGET,0.000000,0.000000,-0.033000
01:31:25.377 PM 04/15/2016,Autonomous Enabled,9,TRUE,7,Read from Text File in DoesScriptNumberContainNull.vi->Disabled.vi->Robot Main.vi<APPEND> /home/lvuser/scripts/auto_60.bee,-0.572292,-12.987303,0.552792,13.173386,FALSE,FALSE,TRUE,TRUE,FALSE,FALSE,Disabled,0.000000,0.000000,0.000000,TRUE,0.436447,0.002411,0.000000,0.000000,0.010101,0.000000,-0.187000,0.088000,0.205000,0.890000,-0.500000,11.340000,-0.629138,Hold,59.008545,58.000000,Hold,-176.000000,2.000000,LowGoal,1755.000000,-1818.181818,Speed,1740.000000,-1818.181818,Speed,Off,Off,0.000000,FALSE,55,Read: /home/lvuser/scripts/auto_55.bee,File good!,DRIVE_STRAIGHT_TARGET 78 0 10000 75,DRIVE_STRAIGHT_TARGET,0.000000,0.000000,-0.033000
01:31:25.477 PM 04/15/2016,Autonomous Enabled,10,TRUE,7,Read from Text File in DoesScriptNumberContainNull.vi->Disabled.vi->Robot Main.vi<APPEND> /home/lvuser/scripts/auto_60.bee,-0.574655,-16.651211,0.550475,16.939960,FALSE,FALSE,TRUE,TRUE,FALSE,FALSE,Disabled,0.000000,0.000000,0.000000,TRUE,0.433990,0.003433,0.000000,-0.031143,0.003433,0.000000,0.007000,0.029000,0.030000,0.800000,-0.620000,15.370000,-0.803486,Hold,59.069580,58.000000,Hold,-176.000000,2.000000,LowGoal,1770.000000,-1818.181818,Speed,1740.000000,-1818.181818,Speed,Off,Off,0.000000,FALSE,55,Read: /home/lvuser/scripts/auto_55.bee,File good!,DRIVE_STRAIGHT_TARGET 78 0 10000 75,DRIVE_STRAIGHT_TARGET,0.000000,0.000000,-0.033000
01:31:25.578 PM 04/15/2016,Autonomous Enabled,10,TRUE,7,Read from Text File in DoesScriptNumberContainNull.vi->Disabled.vi->Robot Main.vi<APPEND> /home/lvuser/scripts/auto_60.bee,-0.573079,-20.404952,0.552019,20.578202,FALSE,FALSE,TRUE,TRUE,FALSE,FALSE,Disabled,0.000000,0.000000,0.000000,TRUE,0.432434,0.004730,0.000000,-0.045715,0.059402,0.000000,0.028000,-0.096000,-0.199000,0.760000,-0.540000,18.960000,-0.754833,Hold,59.884277,58.000000,Hold,-176.000000,2.000000,LowGoal,1762.500000,-1818.181818,Speed,1732.500000,-1818.181818,Speed,Off,Off,0.000000,FALSE,55,Read: /home/lvuser/scripts/auto_55.bee,File good!,DRIVE_STRAIGHT_TARGET 78 0 10000 75,DRIVE_STRAIGHT_TARGET,0.000000,0.000000,-0.033000
01:31:25.678 PM 04/15/2016,Autonomous Enabled,10,TRUE,7,Read from Text File in DoesScriptNumberContainNull.vi->Disabled.vi->Robot Main.vi<APPEND> /home/lvuser/scripts/auto_60.bee,-0.575049,-23.953361,0.550089,24.107360,FALSE,FALSE,TRUE,TRUE,FALSE,FALSE,Disabled,0.000000,0.000000,0.000000,TRUE,0.428680,0.007248,0.000000,-0.153687,0.039413,0.000000,-0.315000,-0.022000,0.337000,0.800000,-0.640000,20.390000,-0.867514,Hold,60.008057,58.000000,Hold,-175.000000,2.000000,LowGoal,1755.000000,-1818.181818,Speed,1732.500000,-1818.181818,Speed,Off,Off,0.000000,FALSE,55,Read: /home/lvuser/scripts/auto_55.bee,File good!,DRIVE_STRAIGHT_TARGET 78 0 10000 75,DRIVE_STRAIGHT_TARGET,0.000000,0.000000,-0.033000
01:31:25.779 PM 04/15/2016,Autonomous Enabled,9,TRUE,7,Read from Text File in DoesScriptNumberContainNull.vi->Disabled.vi->Robot Main.vi<APPEND> /home/lvuser/scripts/auto_60.bee,-0.574852,-27.200186,0.550282,27.334936,FALSE,FALSE,TRUE,TRUE,FALSE,FALSE,Disabled,0.000000,0.000000,0.000000,TRUE,0.421738,0.009613,0.000000,-0.114136,0.045151,0.000000,-0.137000,-0.055000,0.001000,0.920000,-0.640000,21.890000,-0.900160,Hold,60.012939,58.000000,Hold,-175.000000,2.000000,LowGoal,1762.500000,-1818.181818,Speed,1732.500000,-1818.181818,Speed,Off,Off,0.000000,FALSE,55,Read: /home/lvuser/scripts/auto_55.bee,File good!,DRIVE_STRAIGHT_TARGET 78 0 10000 75,DRIVE_STRAIGHT_TARGET,0.000000,0.000000,-0.033000
01:31:25.879 PM 04/15/2016,Autonomous Enabled,10,TRUE,7,Read from Text File in DoesScriptNumberContainNull.vi->Disabled.vi->Robot Main.vi<APPEND> /home/lvuser/scripts/auto_60.bee,-0.573670,-30.370012,0.551440,30.511179,FALSE,FALSE,TRUE,TRUE,FALSE,FALSE,Disabled,0.000000,0.000000,0.000000,TRUE,0.411285,0.011307,0.000000,-0.219696,0.000000,0.000000,0.090000,0.018000,-0.134000,0.820000,-0.580000,22.600000,-0.890018,Hold,60.175781,58.000000,Hold,-175.000000,2.000000,LowGoal,1770.000000,-1818.181818,Speed,1732.500000,-1818.181818,Speed,Off,Off,0.000000,FALSE,55,Read: /home/lvuser/scripts/auto_55.bee,File good!,DRIVE_STRAIGHT_TARGET 78 0 10000 75,DRIVE_STRAIGHT_TARGET,0.000000,0.000000,-0.033000
01:31:25.979 PM 04/15/2016,Autonomous Enabled,10,TRUE,7,Read from Text File in DoesScriptNumberContainNull.vi->Disabled.vi->Robot Main.vi<APPEND> /home/lvuser/scripts/auto_60.bee,-0.577023,-33.507755,0.548163,33.693838,FALSE,FALSE,TRUE,TRUE,FALSE,FALSE,Disabled,0.000000,0.000000,0.000000,TRUE,0.400620,0.011230,0.000000,-0.242798,-0.010788,0.000000,-0.035000,0.011000,-0.091000,0.760000,-0.680000,24.160000,-0.990369,Hold,60.550781,58.000000,Hold,-175.000000,2.000000,LowGoal,1762.500000,-1818.181818,Speed,1732.500000,-1818.181818,Speed,Off,Off,0.000000,FALSE,55,Read: /home/lvuser/scripts/auto_55.bee,File good!,DRIVE_STRAIGHT_TARGET 78 0 10000 75,DRIVE_STRAIGHT_TARGET,0.000000,0.000000,-0.033000
01:31:26.081 PM 04/15/2016,Autonomous Enabled,9,TRUE,7,Read from Text File in DoesScriptNumberContainNull.vi->Disabled.vi->Robot Main.vi<APPEND> /home/lvuser/scripts/auto_60.bee,-0.577418,-36.382415,0.547778,36.671164,FALSE,FALSE,TRUE,TRUE,FALSE,FALSE,Disabled,0.000000,0.000000,0.000000,TRUE,0.386444,0.011307,0.000000,-0.299774,0.009262,0.000000,-0.016000,-0.067000,-0.192000,0.640000,-0.730000,24.600000,-1.175651,Hold,60.879883,58.000000,Hold,-175.000000,2.000000,LowGoal,1747.500000,-1818.181818,Speed,1725.000000,-1818.181818,Speed,Off,Off,0.000000,FALSE,55,Read: /home/lvuser/scripts/auto_55.bee,File good!,DRIVE_STRAIGHT_TARGET 78 0 10000 75,DRIVE_STRAIGHT_TARGET,0.000000,0.000000,-0.033000
01:31:26.181 PM 04/15/2016,Autonomous Enabled,9,TRUE,7,Read from Text File in DoesScriptNumberContainNull.vi->Disabled.vi->Robot Main.vi<APPEND> /home/lvuser/scripts/auto_60.bee,-0.579989,-39.026075,0.545279,39.520158,FALSE,FALSE,TRUE,TRUE,FALSE,FALSE,Disabled,0.000000,0.000000,0.000000,TRUE,0.375076,0.011810,0.000000,0.000000,0.031403,0.000000,-0.030000,0.064000,0.177000,0.620000,-0.920000,23.740000,-1.348626,Hold,60.880127,58.000000,Hold,-175.000000,2.000000,LowGoal,1725.000000,-1818.181818,Speed,1725.000000,-1818.181818,Speed,Off,Off,0.000000,FALSE,55,Read: /home/lvuser/scripts/auto_55.bee,File good!,DRIVE_STRAIGHT_TARGET 78 0 10000 75,DRIVE_STRAIGHT_TARGET,0.000000,0.000000,-0.033000
01:31:26.284 PM 04/15/2016,Autonomous Enabled,11,TRUE,7,Read from Text File in DoesScriptNumberContainNull.vi->Disabled.vi->Robot Main.vi<APPEND> /home/lvuser/scripts/auto_60.bee,-0.583757,-41.804486,0.541637,42.234401,FALSE,FALSE,TRUE,TRUE,FALSE,FALSE,Disabled,0.000000,0.000000,0.000000,TRUE,0.375946,0.013718,0.000000,0.037735,0.040741,0.000000,0.047000,0.057000,-0.095000,0.650000,-1.050000,21.130000,-1.439272,Hold,60.880127,58.000000,Hold,-175.000000,2.000000,LowGoal,1732.500000,-1818.181818,Speed,1717.500000,-1818.181818,Speed,Off,Off,0.000000,FALSE,55,Read: /home/lvuser/scripts/auto_55.bee,File good!,DRIVE_STRAIGHT_TARGET 78 0 10000 75,DRIVE_STRAIGHT_TARGET,0.000000,0.000000,-0.033000
01:31:26.383 PM 04/15/2016,Autonomous Enabled,10,TRUE,7,Read from Text File in DoesScriptNumberContainNull.vi->Disabled.vi->Robot Main.vi<APPEND> /home/lvuser/scripts/auto_60.bee,-0.584950,-44.627812,0.540490,45.102645,FALSE,FALSE,TRUE,TRUE,FALSE,FALSE,Disabled,0.000000,0.000000,0.000000,TRUE,0.378998,0.017105,0.000000,0.067795,0.086929,0.000000,0.171000,0.047000,-0.252000,0.830000,-1.140000,16.340000,-1.472585,Hold,60.880127,58.000000,Hold,-175.000000,2.000000,LowGoal,1740.000000,-1818.181818,Speed,1725.000000,-1818.181818,Speed,Off,Off,0.000000,FALSE,55,Read: /home/lvuser/scripts/auto_55.bee,File good!,DRIVE_STRAIGHT_TARGET 78 0 10000 75,DRIVE_STRAIGHT_TARGET,0.000000,0.000000,-0.033000
01:31:26.484 PM 04/15/2016,Autonomous Enabled,11,TRUE,7,Read from Text File in DoesScriptNumberContainNull.vi->Disabled.vi->Robot Main.vi<APPEND> /home/lvuser/scripts/auto_60.bee,-0.588335,-47.643639,0.537245,48.099221,FALSE,FALSE,TRUE,TRUE,FALSE,FALSE,Disabled,0.000000,0.000000,0.000000,TRUE,0.386490,0.022476,0.000000,0.203217,0.120071,0.000000,0.489000,-0.193000,-0.912000,0.960000,-1.280000,10.660000,-1.523652,Hold,60.880127,58.000000,Hold,-175.000000,2.000000,LowGoal,1747.500000,-1818.181818,Speed,1725.000000,-1818.181818,Speed,Off,Off,0.000000,FALSE,55,Read: /home/lvuser/scripts/auto_55.bee,File good!,DRIVE_STRAIGHT_TARGET 78 0 10000 75,DRIVE_STRAIGHT_TARGET,0.000000,0.000000,-0.033000
01:31:26.585 PM 04/15/2016,Autonomous Enabled,11,TRUE,7,Read from Text File in DoesScriptNumberContainNull.vi->Disabled.vi->Robot Main.vi<APPEND> /home/lvuser/scripts/auto_60.bee,-0.587139,-51.038047,0.538389,51.390963,TRUE,FALSE,TRUE,TRUE,FALSE,FALSE,Disabled,0.000000,0.000000,0.000000,TRUE,0.408829,0.027969,0.000000,0.484756,0.095901,0.000000,0.184000,-0.001000,-0.869000,1.430000,-1.280000,0.300000,-1.352974,Hold,60.875000,58.000000,Hold,-175.000000,2.000000,LowGoal,1755.000000,-1818.181818,Speed,1732.500000,-1818.181818,Speed,Off,Off,0.000000,FALSE,55,Read: /home/lvuser/scripts/auto_55.bee,File good!,DRIVE_STRAIGHT_TARGET 78 0 10000 75,DRIVE_STRAIGHT_TARGET,0.000000,0.000000,-0.033000
01:31:26.686 PM 04/15/2016,Autonomous Enabled,11,TRUE,7,Read from Text File in DoesScriptNumberContainNull.vi->Disabled.vi->Robot Main.vi<APPEND> /home/lvuser/scripts/auto_60.bee,-0.583757,-55.722203,0.541637,55.863369,FALSE,FALSE,TRUE,TRUE,FALSE,FALSE,Disabled,0.000000,0.000000,0.000000,TRUE,0.436325,0.030579,0.000000,0.561279,0.093994,0.000000,-0.711000,-1.603000,1.153000,2.470000,-0.760000,-12.900000,-0.977876,Hold,60.280029,58.000000,Hold,-175.000000,2.000000,LowGoal,1755.000000,-1818.181818,Speed,1732.500000,-1818.181818,Speed,Off,Off,0.000000,FALSE,55,Read: /home/lvuser/scripts/auto_55.bee,File good!,DRIVE_STRAIGHT_TARGET 78 0 10000 75,DRIVE_STRAIGHT_TARGET,0.000000,0.000000,-0.033000
01:31:26.786 PM 04/15/2016,Autonomous Enabled,11,TRUE,7,Read from Text File in DoesScriptNumberContainNull.vi->Disabled.vi->Robot Main.vi<APPEND> /home/lvuser/scripts/auto_60.bee,-0.579197,-61.850105,0.546047,61.888605,FALSE,FALSE,TRUE,TRUE,FALSE,FALSE,Disabled,0.000000,0.000000,0.000000,TRUE,0.443802,0.024139,0.000000,-0.107254,-0.155746,0.000000,-0.947000,0.171000,-0.676000,1.490000,-1.020000,-6.160000,-1.063530,Hold,58.326660,58.000000,Hold,-269.000000,2.000000,LowGoal,1747.500000,-1818.181818,Speed,1740.000000,-1818.181818,Speed,Off,Off,0.000000,FALSE,55,Read: /home/lvuser/scripts/auto_55.bee,File good!,DRIVE_STRAIGHT_TARGET 78 0 10000 75,DRIVE_STRAIGHT_TARGET,0.000000,0.000000,-0.033000
01:31:26.887 PM 04/15/2016,Autonomous Enabled,10,TRUE,7,Read from Text File in DoesScriptNumberContainNull.vi->Disabled.vi->Robot Main.vi<APPEND> /home/lvuser/scripts/auto_60.bee,-0.585149,-66.957760,0.540299,66.970593,TRUE,FALSE,TRUE,TRUE,FALSE,FALSE,Disabled,0.000000,0.000000,0.000000,TRUE,0.423065,0.017303,0.000000,-0.359283,-0.172897,0.000000,-0.152000,-0.027000,-1.457000,1.290000,-1.170000,-0.960000,-1.257474,Hold,58.126709,58.000000,Hold,-266.000000,2.000000,LowGoal,1747.500000,-1818.181818,Speed,1740.000000,-1818.181818,Speed,Off,Off,0.000000,FALSE,55,Read: /home/lvuser/scripts/auto_55.bee,File good!,DRIVE_STRAIGHT_TARGET 78 0 10000 75,DRIVE_STRAIGHT_TARGET,0.000000,0.000000,-0.033000
01:31:26.987 PM 04/15/2016,Autonomous Enabled,11,TRUE,7,Read from Text File in DoesScriptNumberContainNull.vi->Disabled.vi->Robot Main.vi<APPEND> /home/lvuser/scripts/auto_60.bee,-0.583757,-72.212998,0.541637,72.123165,TRUE,FALSE,TRUE,TRUE,FALSE,FALSE,Disabled,0.000000,0.000000,0.000000,TRUE,0.402924,0.010284,0.000000,-0.412857,-0.096771,0.000000,-0.172000,-0.154000,-1.386000,1.340000,-1.240000,-1.210000,-1.310251,Hold,58.261963,58.000000,Hold,-26.000000,2.000000,LowGoal,1762.500000,-1818.181818,Speed,1747.500000,-1818.181818,Speed,Off,Off,0.000000,FALSE,55,Read: /home/lvuser/scripts/auto_55.bee,File good!,DRIVE_STRAIGHT_TARGET 78 0 10000 75,DRIVE_STRAIGHT_TARGET,0.000000,0.000000,-0.033000
01:31:27.088 PM 04/15/2016,Autonomous Enabled,10,TRUE,7,Read from Text File in DoesScriptNumberContainNull.vi->Disabled.vi->Robot Main.vi<APPEND> /home/lvuser/scripts/auto_60.bee,-0.587936,-77.102486,0.537626,76.807320,TRUE,FALSE,TRUE,TRUE,FALSE,FALSE,Disabled,0.000000,0.000000,0.000000,TRUE,0.380920,0.002884,0.000000,-0.420944,-0.181061,0.000000,0.464000,-0.225000,-0.100000,1.670000,-1.330000,-2.710000,-1.396047,Hold,60.999756,58.000000,Hold,-48.000000,2.000000,LowGoal,1770.000000,-1818.181818,Speed,1755.000000,-1818.181818,Speed,Off,Off,0.000000,FALSE,55,Read: /home/lvuser/scripts/auto_55.bee,File good!,DRIVE_STRAIGHT_TARGET 78 0 10000 75,DRIVE_STRAIGHT_TARGET,0.000000,0.000000,-0.033000
01:31:27.189 PM 04/15/2016,Autonomous Enabled,11,TRUE,7,Read from Text File in DoesScriptNumberContainNull.vi->Disabled.vi->Robot Main.vi<APPEND> /home/lvuser/scripts/auto_60.bee,0.000000,-81.959892,-0.000000,81.600559,TRUE,FALSE,TRUE,TRUE,FALSE,TRUE,Disabled,0.000000,0.000000,0.000000,TRUE,0.362198,-0.011978,0.000000,-0.542694,-0.325043,0.000000,-0.867000,-0.275000,-0.151000,1.500000,-0.900000,1.240000,-1.097374,Hold,60.982178,50.000000,Hold,-55.000000,70451.200000,LowGoal,1770.000000,-3272.727273,Speed,1747.500000,-3272.727273,Speed,Off,Off,0.000000,FALSE,55,Read: /home/lvuser/scripts/auto_55.bee,File good!,SEARCH_FOR_GOAL,SEARCH_FOR_GOAL,0.000000,0.000000,-0.033000
01:31:27.289 PM 04/15/2016,Autonomous Enabled,10,TRUE,7,Read from Text File in DoesScriptNumberContainNull.vi->Disabled.vi->Robot Main.vi<APPEND> /home/lvuser/scripts/auto_60.bee,0.000000,-83.493471,-0.000000,83.089222,FALSE,FALSE,TRUE,TRUE,FALSE,TRUE,Disabled,0.000000,0.000000,0.000000,TRUE,0.316727,-0.032532,0.000000,-1.141937,-0.431091,0.000000,-0.369000,-0.533000,0.045000,1.610000,-1.130000,-3.940000,-1.358223,Hold,57.079834,50.000000,Hold,-55.000000,70451.200000,LowGoal,1792.500000,-3272.727273,Speed,1732.500000,-3272.727273,Speed,Off,Off,0.000000,FALSE,55,Read: /home/lvuser/scripts/auto_55.bee,File good!,SEARCH_FOR_GOAL,SEARCH_FOR_GOAL,0.000000,0.000000,-0.033000
01:31:27.389 PM 04/15/2016,Autonomous Enabled,11,TRUE,7,Read from Text File in DoesScriptNumberContainNull.vi->Disabled.vi->Robot Main.vi<APPEND> /home/lvuser/scripts/auto_60.bee,0.000000,-84.455969,-0.000000,84.096637,FALSE,FALSE,TRUE,TRUE,FALSE,TRUE,Disabled,0.000000,0.000000,0.000000,TRUE,0.248322,-0.060287,0.000000,-1.444763,-0.606689,0.000000,-0.130000,-0.088000,0.194000,1.530000,-1.210000,-5.570000,-1.456808,Hold,56.075684,50.000000,Hold,-10765.000000,70451.200000,LowGoal,2122.500000,-3272.727273,Speed,1905.000000,-3272.727273,Speed,Off,Off,0.000000,FALSE,55,Read: /home/lvuser/scripts/auto_55.bee,File good!,SEARCH_FOR_GOAL,SEARCH_FOR_GOAL,0.000000,0.000000,-0.033000
01:31:27.490 PM 04/15/2016,Autonomous Enabled,11,TRUE,7,Read from Text File in DoesScriptNumberContainNull.vi->Disabled.vi->Robot Main.vi<APPEND> /home/lvuser/scripts/auto_60.bee,0.000000,-84.962885,-0.000000,84.590719,FALSE,FALSE,TRUE,TRUE,FALSE,TRUE,Disabled,0.000000,0.000000,0.000000,TRUE,0.171814,-0.090759,0.000000,-1.592270,-0.595245,0.000000,0.080000,-0.145000,0.604000,1.430000,-1.210000,-3.870000,-1.447413,Hold,56.000000,50.000000,Hold,-29154.000000,70451.200000,LowGoal,2497.500000,-3272.727273,Speed,2295.000000,-3272.727273,Speed,Off,Off,0.000000,FALSE,55,Read: /home/lvuser/scripts/auto_55.bee,File good!,SEARCH_FOR_GOAL,SEARCH_FOR_GOAL,0.000000,0.000000,-0.033000
01:31:27.591 PM 04/15/2016,Autonomous Enabled,10,TRUE,7,Read from Text File in DoesScriptNumberContainNull.vi->Disabled.vi->Robot Main.vi<APPEND> /home/lvuser/scripts/auto_60.bee,0.000000,-84.956468,-0.000000,84.590719,FALSE,FALSE,TRUE,TRUE,FALSE,TRUE,Disabled,0.000000,0.000000,0.000000,TRUE,0.093872,-0.123016,0.000000,-1.523514,-0.651184,0.000000,0.137000,0.079000,-0.089000,1.310000,-1.250000,-4.250000,-1.508760,Hold,55.597656,50.000000,Hold,-48706.000000,70451.200000,LowGoal,2812.500000,-3272.727273,Speed,2625.000000,-3272.727273,Speed,Off,Off,0.000000,FALSE,55,Read: /home/lvuser/scripts/auto_55.bee,File good!,SEARCH_FOR_GOAL,SEARCH_FOR_GOAL,0.000000,0.000000,-0.033000
01:31:27.692 PM 04/15/2016,Autonomous Enabled,9,TRUE,7,Read from Text File in DoesScriptNumberContainNull.vi->Disabled.vi->Robot Main.vi<APPEND> /home/lvuser/scripts/auto_60.bee,0.000000,-84.956468,-0.000000,84.590719,FALSE,FALSE,TRUE,TRUE,FALSE,TRUE,Disabled,0.000000,0.000000,0.000000,TRUE,0.020187,-0.154022,0.000000,-1.452911,-0.585648,0.000000,0.108000,-0.026000,0.038000,1.380000,-1.210000,-3.790000,-1.468902,Hold,55.598633,50.000000,Hold,-66993.000000,70451.200000,LowGoal,3060.000000,-3272.727273,Speed,2910.000000,-3272.727273,Speed,Off,Off,0.000000,FALSE,55,Read: /home/lvuser/scripts/auto_55.bee,File good!,SEARCH_FOR_GOAL,SEARCH_FOR_GOAL,0.000000,0.000000,-0.033000
01:31:27.791 PM 04/15/2016,Autonomous Enabled,11,TRUE,7,Read from Text File in DoesScriptNumberContainNull.vi->Disabled.vi->Robot Main.vi<APPEND> /home/lvuser/scripts/auto_60.bee,0.000000,-84.975718,-0.000000,84.597136,FALSE,FALSE,TRUE,TRUE,FALSE,TRUE,Disabled,0.000000,0.000000,0.000000,TRUE,-0.049347,-0.182693,0.000000,-1.332748,-0.572372,0.000000,-0.029000,0.014000,-0.091000,1.300000,-1.270000,-3.710000,-1.477498,Hold,55.585938,50.000000,Hold,-70315.000000,70451.200000,LowGoal,3217.500000,-3272.727273,Speed,3150.000000,-3272.727273,Speed,Off,Off,0.000000,FALSE,55,Read: /home/lvuser/scripts/auto_55.bee,File good!,SEARCH_FOR_GOAL,SEARCH_FOR_GOAL,0.000000,0.000000,-0.033000
01:31:27.892 PM 04/15/2016,Autonomous Enabled,9,TRUE,7,Read from Text File in DoesScriptNumberContainNull.vi->Disabled.vi->Robot Main.vi<APPEND> /home/lvuser/scripts/auto_60.bee,0.000000,-85.001385,-0.000000,84.674135,FALSE,FALSE,TRUE,TRUE,FALSE,TRUE,Disabled,0.000000,0.000000,0.000000,TRUE,-0.117401,-0.188187,0.000000,-1.408249,0.005600,0.000000,0.012000,-0.031000,0.203000,1.360000,-1.290000,-3.290000,-1.527828,Hold,55.583984,50.000000,Hold,-70315.000000,70451.200000,LowGoal,3285.000000,-3272.727273,Speed,3262.500000,-3272.727273,Speed,Off,Off,0.000000,FALSE,55,Read: /home/lvuser/scripts/auto_55.bee,File good!,SEARCH_FOR_GOAL,SEARCH_FOR_GOAL,0.000000,0.000000,-0.033000
01:31:27.992 PM 04/15/2016,Autonomous Enabled,8,TRUE,7,Read from Text File in DoesScriptNumberContainNull.vi->Disabled.vi->Robot Main.vi<APPEND> /home/lvuser/scripts/auto_60.bee,0.000000,-84.950051,-0.000000,84.565052,FALSE,FALSE,TRUE,TRUE,FALSE,TRUE,Disabled,0.000000,0.000000,0.000000,TRUE,-0.201813,-0.188309,0.000000,-1.369446,-0.014587,0.000000,0.193000,-0.057000,0.115000,1.360000,-1.290000,-3.290000,-1.516564,Hold,55.583984,50.000000,Hold,-70469.000000,70451.200000,LowGoal,3262.500000,-3272.727273,Speed,3270.000000,-3272.727273,Speed,Off,Off,0.000000,FALSE,55,Read: /home/lvuser/scripts/auto_55.bee,File good!,SEARCH_FOR_GOAL,SEARCH_FOR_GOAL,0.000000,0.000000,-0.033000
01:31:28.093 PM 04/15/2016,Autonomous Enabled,3,TRUE,7,Read from Text File in DoesScriptNumberContainNull.vi->Disabled.vi->Robot Main.vi<APPEND> /home/lvuser/scripts/auto_60.bee,0.000000,-84.950051,-0.000000,84.558636,FALSE,FALSE,TRUE,TRUE,FALSE,TRUE,Disabled,0.000000,0.000000,0.000000,TRUE,-0.266708,-0.190170,0.000000,-1.268036,-0.050674,0.000000,0.193000,-0.057000,0.115000,1.330000,-1.270000,-3.270000,-1.495833,Hold,55.583984,50.000000,Hold,-70603.000000,70451.200000,LowGoal,3240.000000,-3272.727273,Speed,3247.500000,-3272.727273,Speed,Off,Off,0.000000,FALSE,55,Read: /home/lvuser/scripts/auto_55.bee,File good!,SEARCH_FOR_GOAL,SEARCH_FOR_GOAL,0.000000,0.000000,-0.033000
01:31:28.193 PM 04/15/2016,Autonomous Enabled,18,TRUE,7,Read from Text File in DoesScriptNumberContainNull.vi->Disabled.vi->Robot Main.vi<APPEND> /home/lvuser/scripts/auto_60.bee,0.000000,-84.950051,-0.000000,84.558636,TRUE,FALSE,TRUE,TRUE,FALSE,TRUE,Disabled,0.000000,0.000000,0.000000,TRUE,-0.329880,-0.192429,0.000000,-1.264877,-0.037003,0.000000,-0.025000,0.000000,-0.005000,1.330000,-1.270000,-2.660000,-1.514381,Hold,55.583984,50.000000,Hold,-70535.000000,70451.200000,LowGoal,3255.000000,-3272.727273,Speed,3232.500000,-3272.727273,Speed,Off,Off,0.000000,FALSE,55,Read: /home/lvuser/scripts/auto_55.bee,File good!,SEARCH_FOR_GOAL,SEARCH_FOR_GOAL,0.000000,0.000000,-0.033000
01:31:28.293 PM 04/15/2016,Autonomous Enabled,9,TRUE,7,Read from Text File in DoesScriptNumberContainNull.vi->Disabled.vi->Robot Main.vi<APPEND> /home/lvuser/scripts/auto_60.bee,0.639553,-84.950051,0.639553,84.590719,TRUE,FALSE,TRUE,TRUE,FALSE,TRUE,PID,-0.684375,27.977625,-29.237625,TRUE,-0.390549,-0.194305,0.000000,-1.185669,-0.030960,0.000000,0.079000,0.001000,-0.046000,1.310000,-1.270000,-2.410000,-1.501847,Hold,55.583984,50.000000,Hold,-70537.000000,70451.200000,LowGoal,3262.500000,-3272.727273,Speed,3232.500000,-3272.727273,Speed,Off,Off,0.000000,FALSE,55,Read: /home/lvuser/scripts/auto_55.bee,File good!,SEARCH_FOR_GOAL,SEARCH_FOR_GOAL,0.000000,0.000000,-0.717375
01:31:28.393 PM 04/15/2016,Autonomous Enabled,10,TRUE,7,Read from Text File in DoesScriptNumberContainNull.vi->Disabled.vi->Robot Main.vi<APPEND> /home/lvuser/scripts/auto_60.bee,0.576795,-83.256055,0.576795,86.509298,FALSE,FALSE,TRUE,TRUE,FALSE,TRUE,PID,-0.684375,27.977625,-29.237625,TRUE,-0.452942,-0.201309,0.000000,-1.314987,-0.265823,0.000000,0.116000,-0.091000,0.066000,0.450000,-6.220000,-3.050000,-5.564561,Hold,55.583984,50.000000,Hold,-70538.000000,70451.200000,LowGoal,3255.000000,-3272.727273,Speed,3225.000000,-3272.727273,Speed,Off,Off,0.000000,FALSE,55,Read: /home/lvuser/scripts/auto_55.bee,File good!,SEARCH_FOR_GOAL,SEARCH_FOR_GOAL,0.000000,0.000000,-0.717375
01:31:28.494 PM 04/15/2016,Autonomous Enabled,8,TRUE,7,Read from Text File in DoesScriptNumberContainNull.vi->Disabled.vi->Robot Main.vi<APPEND> /home/lvuser/scripts/auto_60.bee,0.402394,-80.682978,0.402394,89.165791,FALSE,FALSE,TRUE,TRUE,FALSE,TRUE,PID,-0.684375,27.977625,-29.237625,TRUE,-0.517166,-0.218048,0.000000,-1.249710,-0.393433,0.000000,0.125000,0.028000,0.107000,0.390000,-14.490000,-3.190000,-16.216442,Hold,55.583984,50.000000,Hold,-70538.000000,70451.200000,LowGoal,3210.000000,-3272.727273,Speed,3172.500000,-3272.727273,Speed,Off,Off,0.000000,FALSE,55,Read: /home/lvuser/scripts/auto_55.bee,File good!,SEARCH_FOR_GOAL,SEARCH_FOR_GOAL,0.000000,0.000000,-0.717375
01:31:28.593 PM 04/15/2016,Autonomous Enabled,5,TRUE,7,Read from Text File in DoesScriptNumberContainNull.vi->Disabled.vi->Robot Main.vi<APPEND> /home/lvuser/scripts/auto_60.bee,0.254364,-78.340900,0.254364,91.623369,FALSE,FALSE,TRUE,TRUE,FALSE,TRUE,PID,-0.684375,27.977625,-29.237625,TRUE,-0.577026,-0.234375,0.000000,-1.171356,-0.246765,0.000000,0.125000,0.028000,0.107000,0.390000,-14.490000,-3.190000,-26.916549,Hold,55.583984,50.000000,Hold,-70538.000000,70451.200000,LowGoal,3210.000000,-3272.727273,Speed,3165.000000,-3272.727273,Speed,Off,Off,0.000000,FALSE,55,Read: /home/lvuser/scripts/auto_55.bee,File good!,SEARCH_FOR_GOAL,SEARCH_FOR_GOAL,0.000000,0.000000,-0.717375
01:31:28.694 PM 04/15/2016,Autonomous Enabled,8,TRUE,7,Read from Text File in DoesScriptNumberContainNull.vi->Disabled.vi->Robot Main.vi<APPEND> /home/lvuser/scripts/auto_60.bee,-0.239639,-76.884320,-0.239639,93.079949,TRUE,FALSE,TRUE,TRUE,FALSE,TRUE,PID,-0.684375,27.977625,-29.237625,TRUE,-0.631836,-0.244751,0.000000,-1.042450,-0.209305,0.000000,0.162000,0.115000,0.113000,1.480000,-33.480000,-1.580000,-34.491578,Hold,55.583984,50.000000,Hold,-70538.000000,70451.200000,LowGoal,3232.500000,-3272.727273,Speed,3217.500000,-3272.727273,Speed,Off,Off,0.000000,FALSE,55,Read: /home/lvuser/scripts/auto_55.bee,File good!,SEARCH_FOR_GOAL,SEARCH_FOR_GOAL,0.000000,0.000000,-0.717375
01:31:28.795 PM 04/15/2016,Autonomous Enabled,8,TRUE,7,Read from Text File in DoesScriptNumberContainNull.vi->Disabled.vi->Robot Main.vi<APPEND> /home/lvuser/scripts/auto_60.bee,-0.268743,-77.237236,-0.268743,92.727033,TRUE,FALSE,TRUE,TRUE,FALSE,TRUE,PID,-0.684375,27.977625,-29.237625,TRUE,-0.683151,-0.247437,0.000000,-1.039444,0.132080,0.000000,-0.098000,0.047000,0.073000,2.600000,-34.710000,-0.700000,-36.113388,Hold,55.583984,50.000000,Hold,-70538.000000,70451.200000,LowGoal,3247.500000,-3272.727273,Speed,3247.500000,-3272.727273,Speed,Off,Off,0.000000,FALSE,55,Read: /home/lvuser/scripts/auto_55.bee,File good!,SEARCH_FOR_GOAL,SEARCH_FOR_GOAL,0.000000,0.000000,-0.717375
01:31:28.895 PM 04/15/2016,Autonomous Enabled,7,TRUE,7,Read from Text File in DoesScriptNumberContainNull.vi->Disabled.vi->Robot Main.vi<APPEND> /home/lvuser/scripts/auto_60.bee,-0.227081,-78.045734,-0.227081,91.828702,TRUE,FALSE,TRUE,TRUE,FALSE,TRUE,PID,-0.684375,27.977625,-29.237625,TRUE,-0.736267,-0.238571,0.000000,-1.061813,0.173141,0.000000,-0.098000,0.047000,0.073000,2.580000,-30.700000,-0.740000,-32.582253,Hold,55.583984,50.000000,Hold,-70538.000000,70451.200000,LowGoal,3232.500000,-3272.727273,Speed,3232.500000,-3272.727273,Speed,Off,Off,0.000000,FALSE,55,Read: /home/lvuser/scripts/auto_55.bee,File good!,SEARCH_FOR_GOAL,SEARCH_FOR_GOAL,0.000000,0.000000,-0.717375
01:31:28.995 PM 04/15/2016,Autonomous Enabled,9,TRUE,7,Read from Text File in DoesScriptNumberContainNull.vi->Disabled.vi->Robot Main.vi<APPEND> /home/lvuser/scripts/auto_60.bee,0.000000,-78.514150,-0.000000,91.257620,TRUE,FALSE,TRUE,TRUE,FALSE,TRUE,Suspended,-0.684375,27.977625,-29.237625,TRUE,-0.788025,-0.232788,0.000000,-1.020569,0.079880,0.000000,-0.086000,-0.095000,-0.050000,2.200000,-28.360000,-1.060000,-29.970432,Hold,55.583984,50.000000,Hold,-70538.000000,70451.200000,LowGoal,3240.000000,-3272.727273,Speed,3217.500000,-3272.727273,Speed,Off,Off,0.000000,FALSE,55,Read: /home/lvuser/scripts/auto_55.bee,File good!,SEARCH_FOR_GOAL,SEARCH_FOR_GOAL,0.000000,0.000000,-0.717375
01:31:29.095 PM 04/15/2016,Autonomous Enabled,9,TRUE,7,Read from Text File in DoesScriptNumberContainNull.vi->Disabled.vi->Robot Main.vi<APPEND> /home/lvuser/scripts/auto_60.bee,0.000000,-78.315234,-0.000000,91.411620,TRUE,FALSE,TRUE,TRUE,FALSE,TRUE,Suspended,-0.684375,27.977625,-29.237625,TRUE,-0.838913,-0.232071,0.000000,-1.018753,-0.006866,0.000000,0.146000,0.029000,0.051000,1.810000,-28.670000,-1.240000,-29.978051,Hold,55.583984,50.000000,Hold,-70538.000000,70451.200000,LowGoal,3255.000000,-3272.727273,Speed,3217.500000,-3272.727273,Speed,Off,Off,0.000000,FALSE,55,Read: /home/lvuser/scripts/auto_55.bee,File good!,SEARCH_FOR_GOAL,SEARCH_FOR_GOAL,0.000000,0.000000,-0.717375
01:31:29.196 PM 04/15/2016,Autonomous Enabled,10,TRUE,7,Read from Text File in DoesScriptNumberContainNull.vi->Disabled.vi->Robot Main.vi<APPEND> /home/lvuser/scripts/auto_60.bee,0.000000,-78.238234,-0.000000,91.514286,TRUE,FALSE,TRUE,TRUE,FALSE,TRUE,Suspended,-0.684375,27.977625,-29.237625,TRUE,-0.896896,-0.231461,0.000000,-0.939133,0.032928,0.000000,0.146000,0.029000,0.051000,1.930000,-29.340000,-0.810000,-30.840171,Hold,55.583984,50.000000,Hold,-70538.000000,70451.200000,LowGoal,3270.000000,-3272.727273,Speed,3232.500000,-3272.727273,Speed,Off,Off,0.000000,FALSE,55,Read: /home/lvuser/scripts/auto_55.bee,File good!,SEARCH_FOR_GOAL,SEARCH_FOR_GOAL,0.000000,0.000000,-0.717375
01:31:29.296 PM 04/15/2016,Autonomous Enabled,9,TRUE,7,Read from Text File in DoesScriptNumberContainNull.vi->Disabled.vi->Robot Main.vi<APPEND> /home/lvuser/scripts/auto_60.bee,0.000000,-78.238234,-0.000000,91.514286,TRUE,FALSE,TRUE,TRUE,FALSE,TRUE,Suspended,0.031250,0.068250,-29.208250,TRUE,-0.944397,-0.230103,0.000000,-0.956863,0.010086,0.000000,0.078000,-0.004000,-0.026000,1.860000,-29.040000,-0.820000,-30.476839,Hold,55.583984,50.000000,Hold,-70538.000000,70451.200000,LowGoal,3277.500000,-3272.727273,Speed,3247.500000,-3272.727273,Speed,Off,Off,0.000000,FALSE,55,Read: /home/lvuser/scripts/auto_55.bee,File good!,SEARCH_FOR_GOAL,SEARCH_FOR_GOAL,0.000000,0.000000,-0.001750
01:31:29.398 PM 04/15/2016,Autonomous Enabled,9,TRUE,7,Read from Text File in DoesScriptNumberContainNull.vi->Disabled.vi->Robot Main.vi<APPEND> /home/lvuser/scripts/auto_60.bee,0.000000,-78.244650,-0.000000,91.514286,TRUE,FALSE,TRUE,TRUE,FALSE,TRUE,Suspended,0.031250,0.068250,-29.208250,TRUE,-0.993927,-0.230637,0.000000,-1.004089,-0.019058,0.000000,-0.128000,-0.042000,0.023000,1.860000,-29.040000,-0.820000,-30.626322,Hold,55.583984,50.000000,Hold,-70538.000000,70451.200000,Shoot,3277.500000,-3272.727273,Speed,3240.000000,-3272.727273,Speed,Off,On,0.000000,FALSE,55,Read: /home/lvuser/scripts/auto_55.bee,File good!,SEARCH_FOR_GOAL,SEARCH_FOR_GOAL,0.000000,0.000000,-0.001750
01:31:29.499 PM 04/15/2016,Autonomous Enabled,11,TRUE,7,Read from Text File in DoesScriptNumberContainNull.vi->Disabled.vi->Robot Main.vi<APPEND> /home/lvuser/scripts/auto_60.bee,0.000000,-78.244650,-0.000000,91.514286,TRUE,FALSE,TRUE,TRUE,FALSE,TRUE,Suspended,0.031250,0.068250,-29.208250,TRUE,-0.993927,-0.230637,0.000000,-1.004089,-0.019058,0.000000,0.109000,0.041000,0.022000,1.900000,-29.170000,-0.880000,-30.550906,Hold,55.583984,50.000000,Hold,-70538.000000,70451.200000,Shoot,3277.500000,-3272.727273,Speed,3240.000000,-3272.727273,Speed,Off,On,0.000000,FALSE,55,Read: /home/lvuser/scripts/auto_55.bee,File good!,SEARCH_FOR_GOAL,SEARCH_FOR_GOAL,0.000000,0.000000,-0.001750
01:31:29.599 PM 04/15/2016,Autonomous Enabled,11,TRUE,7,Read from Text File in DoesScriptNumberContainNull.vi->Disabled.vi->Robot Main.vi<APPEND> /home/lvuser/scripts/auto_60.bee,0.000000,-78.244650,-0.000000,91.514286,TRUE,FALSE,TRUE,TRUE,FALSE,FALSE,Disabled,0.031250,0.068250,-29.208250,TRUE,-1.042465,-0.231354,0.000000,-0.939133,-0.010468,0.000000,-0.062000,-0.075000,-0.022000,1.800000,-29.100000,-0.960000,-30.562921,Hold,55.583984,50.000000,Hold,-70538.000000,70451.200000,Shoot,3262.500000,-3272.727273,Speed,3232.500000,-3272.727273,Speed,On,On,0.000000,FALSE,55,Read: /home/lvuser/scripts/auto_55.bee,File good!,WAIT 500,WAIT,0.000000,0.000000,-0.001750
