Time,Robot Mode,Loop Time,Error Status,Error Code,Error Source,Left Motor Output,Left Motor Encoder,Right Motor Output,Right Motor Encoder,Is Level,Is Stalled,Ball Detector Photoeye,Vision Enabled,Vision Teleop Control,Vision Auto Control,Vision Current State,Vision X Output,Vision NavX Error,Vision NavX Target,NavX Connection Status,NavX Displacement X,NavX Displacement Y,NavX Displacement Z,NavX Velocity X,NavX Velocity Y,NavX Velocity Z,NavX Acceleration X,NavX Acceleration Y,NavX Acceleration Z,NavX Pitch,NavX Yaw,NavX Roll,Gyro Angle,Roller Arm State,Roller Arm Actual,Roller Arm Desired,Shooter Arm State,Shooter Arm Actual,Shooter Arm Desired,Shooter State,Actual RPM Left,Desired RPM Left,Control Mode Left,Actual RPM Right,Desired RPM Right,Control Mode Right,Ball Shooter Cylinder,Ball Halo Cylinder,Scaler Motor Output,Scaler Solenoid Fire,Auto To Run,Auto Current File,Auto File Status,Auto Current Command,Auto Trimmed Command,Shooter Amps Left,Shooter Amps Right, Vision After Offset
07:13:56.666 PM 04/15/2016,Autonomous Enabled,11,TRUE,-44003,<LOCATION>WPI_CameraIssue HTTP Request with Authentication.vi<CALLSTACK>WPI_CameraIssue HTTP Request with Authentication.vi< <WPI_CameraIssue Get.vi< <WPI_CameraSet Image Appearance Property.vi< <WPI_CameraSet Image Size.vi< <Vision Processing.vi< <Robot Main.vi,0.000000,0.000000,-0.000000,0.000000,TRUE,FALSE,TRUE,TRUE,FALSE,FALSE,Disabled,0.000000,0.000000,0.000000,TRUE,0.000000,0.000000,0.000000,0.000000,0.000000,0.000000,0.000000,0.000000,0.008000,1.370000,-0.840000,0.360000,4.280377,ResetBack,-0.250000,-0.000049,ResetBack,0.000000,-0.250000,LowGoal,0.000000,-2181.818182,Speed,15.000000,-2181.818182,Speed,Off,Off,0.000000,FALSE,53,Read: /home/lvuser/scripts/auto_53.bee,File good!,WAIT 1500,WAIT,0.000000,0.000000,-0.033000
07:13:56.766 PM 04/15/2016,Autonomous Enabled,12,FALSE,0,NO ERROR,0.000000,0.000000,-0.000000,0.000000,TRUE,FALSE,TRUE,TRUE,FALSE,FALSE,Disabled,0.000000,0.000000,0.000000,TRUE,0.000183,0.000000,0.000000,0.012924,0.000000,0.000000,0.007000,-0.048000,0.085000,1.370000,-0.840000,0.410000,4.286549,ResetBack,-0.323486,-0.000049,ResetBack,3798.000000,-0.250000,LowGoal,585.000000,-2181.818182,Speed,495.000000,-2181.818182,Speed,Off,Off,0.000000,FALSE,53,Read: /home/lvuser/scripts/auto_53.bee,File good!,WAIT 1500,WAIT,0.000000,0.000000,-0.033000
07:13:56.866 PM 04/15/2016,Autonomous Enabled,10,FALSE,0,NO ERROR,0.000000,0.000000,-0.000000,0.000000,TRUE,FALSE,TRUE,TRUE,FALSE,FALSE,Disabled,0.000000,0.000000,0.000000,TRUE,0.000198,-0.000641,0.000000,-0.005615,-0.016876,0.000000,0.021000,-0.048000,0.034000,1.370000,-0.840000,0.430000,4.294812,ResetBack,-0.325684,-0.000049,ResetBack,6156.000000,-0.250000,LowGoal,1147.500000,-2181.818182,Speed,1162.500000,-2181.818182,Speed,Off,Off,0.000000,FALSE,53,Read: /home/lvuser/scripts/auto_53.bee,File good!,WAIT 1500,WAIT,0.000000,0.000000,-0.033000
07:13:56.967 PM 04/15/2016,Autonomous Enabled,10,FALSE,0,NO ERROR,0.000000,0.000000,-0.000000,0.000000,TRUE,FALSE,TRUE,TRUE,FALSE,FALSE,Disabled,0.000000,0.000000,0.000000,TRUE,0.000275,-0.001816,0.000000,0.005310,-0.021820,0.000000,-0.029000,0.034000,-0.008000,1.380000,-0.840000,0.420000,4.300963,Reset,-0.350830,-0.000049,ResetBack,6167.000000,-0.250000,LowGoal,1740.000000,-2181.818182,Speed,1702.500000,-2181.818182,Speed,Off,Off,0.000000,FALSE,53,Read: /home/lvuser/scripts/auto_53.bee,File good!,WAIT 1500,WAIT,0.000000,0.000000,-0.033000
07:13:57.068 PM 04/15/2016,Autonomous Enabled,10,FALSE,0,NO ERROR,0.000000,0.000000,-0.000000,0.000000,TRUE,FALSE,TRUE,TRUE,FALSE,FALSE,Disabled,0.000000,0.000000,0.000000,TRUE,0.000137,-0.002426,0.000000,-0.001984,-0.010986,0.000000,0.045000,0.017000,0.116000,1.390000,-0.850000,0.390000,4.292460,Hold,-0.350830,0.000000,ResetBack,6167.000000,-0.250000,LowGoal,2167.500000,-2181.818182,Speed,2115.000000,-2181.818182,Speed,Off,Off,0.000000,FALSE,53,Read: /home/lvuser/scripts/auto_53.bee,File good!,WAIT 1500,WAIT,0.000000,0.000000,-0.033000
07:13:57.170 PM 04/15/2016,Autonomous Enabled,13,FALSE,0,NO ERROR,0.000000,0.000000,-0.000000,0.000000,TRUE,FALSE,TRUE,TRUE,FALSE,FALSE,Disabled,0.000000,0.000000,0.000000,TRUE,0.000977,-0.002548,0.000000,0.017029,0.008392,0.000000,-0.014000,0.067000,0.045000,1.370000,-0.850000,0.380000,4.301222,Hold,0.359863,0.000000,ResetBack,6444.000000,-0.250000,LowGoal,2265.000000,-2181.818182,Speed,2220.000000,-2181.818182,Speed,Off,Off,0.000000,FALSE,53,Read: /home/lvuser/scripts/auto_53.bee,File good!,WAIT 1500,WAIT,0.000000,0.000000,-0.033000
07:13:57.272 PM 04/15/2016,Autonomous Enabled,11,FALSE,0,NO ERROR,0.000000,0.000000,-0.000000,0.000000,TRUE,FALSE,TRUE,TRUE,FALSE,FALSE,Disabled,0.000000,0.000000,0.000000,TRUE,0.001907,-0.001373,0.000000,0.022400,0.035568,0.000000,-0.095000,-0.042000,-0.082000,1.380000,-0.840000,0.480000,4.313735,Hold,0.359863,0.000000,ResetBack,6593.000000,-0.250000,LowGoal,2175.000000,-2181.818182,Speed,2145.000000,-2181.818182,Speed,Off,Off,0.000000,FALSE,53,Read: /home/lvuser/scripts/auto_53.bee,File good!,WAIT 1500,WAIT,0.000000,0.000000,-0.033000
07:13:57.373 PM 04/15/2016,Autonomous Enabled,11,FALSE,0,NO ERROR,0.000000,0.000000,-0.000000,0.000000,TRUE,FALSE,TRUE,TRUE,FALSE,FALSE,Disabled,0.000000,0.000000,0.000000,TRUE,0.001190,-0.000046,0.000000,-0.040497,0.033203,0.000000,-0.063000,0.093000,-0.001000,1.350000,-0.850000,0.510000,4.324500,Hold,0.359863,0.000000,ResetBack,6632.000000,-0.250000,LowGoal,2122.500000,-2181.818182,Speed,2085.000000,-2181.818182,Speed,Off,Off,0.000000,FALSE,53,Read: /home/lvuser/scripts/auto_53.bee,File good!,WAIT 1500,WAIT,0.000000,0.000000,-0.033000
07:13:57.472 PM 04/15/2016,Autonomous Enabled,10,FALSE,0,NO ERROR,0.000000,0.000000,-0.000000,0.000000,TRUE,FALSE,TRUE,TRUE,FALSE,FALSE,Disabled,0.000000,0.000000,0.000000,TRUE,-0.001633,0.002365,0.000000,-0.064285,0.043839,0.000000,0.006000,-0.021000,-0.136000,1.320000,-0.850000,0.540000,4.327846,Hold,0.359863,0.000000,ResetBack,6654.000000,-0.250000,LowGoal,2122.500000,-2181.818182,Speed,2100.000000,-2181.818182,Speed,Off,Off,0.000000,FALSE,53,Read: /home/lvuser/scripts/auto_53.bee,File good!,WAIT 1500,WAIT,0.000000,0.000000,-0.033000
07:13:57.573 PM 04/15/2016,Autonomous Enabled,10,FALSE,0,NO ERROR,0.000000,0.000000,-0.000000,0.000000,TRUE,FALSE,TRUE,TRUE,FALSE,FALSE,Disabled,0.000000,0.000000,0.000000,TRUE,-0.004715,0.004913,0.000000,-0.045929,0.064972,0.000000,0.069000,-0.139000,0.072000,1.330000,-0.850000,0.630000,4.352271,Hold,0.359863,0.000000,ResetBack,6674.000000,-0.250000,LowGoal,2137.500000,-2181.818182,Speed,2115.000000,-2181.818182,Speed,Off,Off,0.000000,FALSE,53,Read: /home/lvuser/scripts/auto_53.bee,File good!,WAIT 1500,WAIT,0.000000,0.000000,-0.033000
07:13:57.675 PM 04/15/2016,Autonomous Enabled,10,FALSE,0,NO ERROR,0.000000,0.000000,-0.000000,0.000000,TRUE,FALSE,TRUE,TRUE,FALSE,FALSE,Disabled,0.000000,0.000000,0.000000,TRUE,-0.006104,0.006134,0.000000,0.000000,0.001602,0.000000,-0.018000,-0.014000,0.165000,1.280000,-0.850000,0.590000,4.351342,Hold,0.359863,0.000000,ResetBack,6674.000000,-0.250000,LowGoal,2145.000000,-2181.818182,Speed,2107.500000,-2181.818182,Speed,Off,Off,0.000000,FALSE,53,Read: /home/lvuser/scripts/auto_53.bee,File good!,WAIT 1500,WAIT,0.000000,0.000000,-0.033000
07:13:57.775 PM 04/15/2016,Autonomous Enabled,10,FALSE,0,NO ERROR,0.000000,0.000000,-0.000000,0.000000,TRUE,FALSE,TRUE,TRUE,FALSE,FALSE,Disabled,0.000000,0.000000,0.000000,TRUE,-0.006165,0.005798,0.000000,0.007370,-0.010773,0.000000,0.056000,-0.025000,0.128000,1.290000,-0.850000,0.530000,4.354347,Hold,0.359863,0.000000,ResetBack,6674.000000,-0.250000,LowGoal,2130.000000,-2181.818182,Speed,2107.500000,-2181.818182,Speed,Off,Off,0.000000,FALSE,53,Read: /home/lvuser/scripts/auto_53.bee,File good!,WAIT 1500,WAIT,0.000000,0.000000,-0.033000
07:13:57.875 PM 04/15/2016,Autonomous Enabled,9,FALSE,0,NO ERROR,0.000000,0.000000,-0.000000,0.000000,TRUE,FALSE,TRUE,TRUE,FALSE,FALSE,Disabled,0.000000,0.000000,0.000000,TRUE,-0.005524,0.003357,0.000000,0.007706,-0.072983,0.000000,-0.006000,-0.050000,0.207000,1.270000,-0.850000,0.620000,4.369835,Hold,0.359863,0.000000,Reset,6721.000000,2.000000,LowGoal,2137.500000,-2181.818182,Speed,2107.500000,-2181.818182,Speed,Off,Off,0.000000,FALSE,53,Read: /home/lvuser/scripts/auto_53.bee,File good!,WAIT 1500,WAIT,0.000000,0.000000,-0.033000
07:13:57.975 PM 04/15/2016,Autonomous Enabled,7,FALSE,0,NO ERROR,0.000000,0.000000,-0.000000,0.000000,TRUE,FALSE,TRUE,TRUE,FALSE,FALSE,Disabled,0.000000,0.000000,0.000000,TRUE,-0.006104,0.000519,0.000000,-0.033081,-0.062561,0.000000,-0.006000,-0.055000,0.032000,1.290000,-0.860000,0.600000,4.380586,Hold,0.359863,0.000000,Hold,6957.000000,2.000000,LowGoal,2145.000000,-2181.818182,Speed,2115.000000,-2181.818182,Speed,Off,Off,0.000000,FALSE,53,Read: /home/lvuser/scripts/auto_53.bee,File good!,WAIT 1500,WAIT,0.000000,0.000000,-0.033000
07:13:58.076 PM 04/15/2016,Autonomous Enabled,9,FALSE,0,NO ERROR,0.000000,0.000000,-0.000000,0.000000,TRUE,FALSE,TRUE,TRUE,FALSE,FALSE,Disabled,0.000000,0.000000,0.000000,TRUE,-0.007935,-0.004044,0.000000,-0.041061,-0.103500,0.000000,0.008000,0.032000,-0.113000,1.250000,-0.860000,0.660000,4.376083,Hold,0.359863,0.000000,Hold,-173.000000,2.000000,LowGoal,2145.000000,-2181.818182,Speed,2115.000000,-2181.818182,Speed,Off,Off,0.000000,FALSE,53,Read: /home/lvuser/scripts/auto_53.bee,File good!,WAIT 1500,WAIT,0.000000,0.000000,-0.033000
07:13:58.177 PM 04/15/2016,Autonomous Enabled,9,FALSE,0,NO ERROR,0.000000,0.000000,-0.000000,0.000000,TRUE,FALSE,TRUE,TRUE,FALSE,FALSE,Disabled,0.000000,0.000000,0.000000,TRUE,-0.011627,-0.009659,0.000000,-0.079834,-0.092087,0.000000,0.104000,0.102000,0.049000,1.210000,-0.860000,0.670000,4.375126,Hold,0.359863,0.000000,Hold,-169.000000,2.000000,LowGoal,2145.000000,-2181.818182,Speed,2107.500000,-2181.818182,Speed,Off,Off,0.000000,FALSE,53,Read: /home/lvuser/scripts/auto_53.bee,File good!,WAIT 1500,WAIT,0.000000,0.000000,-0.033000
07:13:58.277 PM 04/15/2016,Autonomous Enabled,9,FALSE,0,NO ERROR,-0.562500,0.000000,0.562500,0.000000,TRUE,FALSE,TRUE,TRUE,FALSE,FALSE,Disabled,0.000000,0.000000,0.000000,TRUE,-0.014297,-0.013199,0.000000,-0.049011,-0.061234,0.000000,-0.033000,0.065000,-0.069000,1.270000,0.000000,0.590000,4.383234,Hold,0.359863,0.000000,Hold,-168.000000,2.000000,LowGoal,2137.500000,-2181.818182,Speed,2115.000000,-2181.818182,Speed,Off,Off,0.000000,FALSE,53,Read: /home/lvuser/scripts/auto_53.bee,File good!,DRIVE_STRAIGHT_NAVX_RAMPARTS 200 5000 10,DRIVE_STRAIGHT_NAVX_RAMPARTS,0.000000,0.000000,-0.033000
07:13:58.379 PM 04/15/2016,Autonomous Enabled,8,FALSE,0,NO ERROR,-0.562500,-0.692998,0.562500,0.757165,TRUE,FALSE,TRUE,TRUE,FALSE,FALSE,Disabled,0.000000,0.000000,0.000000,TRUE,-0.016342,-0.016296,0.000000,0.036407,-0.072433,0.000000,1.276000,-0.122000,-0.018000,1.140000,-0.010000,2.300000,0.028580,Hold,0.359863,0.000000,Hold,-167.000000,2.000000,LowGoal,2122.500000,-1818.181818,Speed,2115.000000,-1818.181818,Speed,Off,Off,0.000000,FALSE,53,Read: /home/lvuser/scripts/auto_53.bee,File good!,DRIVE_STRAIGHT_NAVX_RAMPARTS 200 5000 10,DRIVE_STRAIGHT_NAVX_RAMPARTS,0.000000,0.000000,-0.033000
07:13:58.478 PM 04/15/2016,Autonomous Enabled,10,FALSE,0,NO ERROR,-0.562500,-3.047910,0.562500,3.221159,FALSE,FALSE,TRUE,TRUE,FALSE,FALSE,Disabled,0.000000,0.000000,0.000000,TRUE,0.006042,-0.021957,0.000000,0.573593,-0.125381,0.000000,0.260000,-0.005000,-0.353000,1.100000,-0.150000,5.470000,-0.105866,Hold,0.360352,0.000000,Hold,-167.000000,2.000000,LowGoal,2070.000000,-1818.181818,Speed,2032.500000,-1818.181818,Speed,Off,Off,0.000000,FALSE,53,Read: /home/lvuser/scripts/auto_53.bee,File good!,DRIVE_STRAIGHT_NAVX_RAMPARTS 200 5000 10,DRIVE_STRAIGHT_NAVX_RAMPARTS,0.000000,0.000000,-0.033000
07:13:58.579 PM 04/15/2016,Autonomous Enabled,8,FALSE,0,NO ERROR,-0.562500,-6.262652,0.562500,6.557818,FALSE,FALSE,TRUE,TRUE,FALSE,FALSE,Disabled,0.000000,0.000000,0.000000,TRUE,0.040817,-0.028900,0.000000,0.742325,-0.137680,0.000000,0.222000,-0.078000,0.146000,1.230000,-0.390000,3.550000,-0.217139,Hold,0.361328,0.000000,Hold,-165.000000,2.000000,LowGoal,1815.000000,-1818.181818,Speed,1807.500000,-1818.181818,Speed,Off,Off,0.000000,FALSE,53,Read: /home/lvuser/scripts/auto_53.bee,File good!,DRIVE_STRAIGHT_NAVX_RAMPARTS 200 5000 10,DRIVE_STRAIGHT_NAVX_RAMPARTS,0.000000,0.000000,-0.033000
07:13:58.681 PM 04/15/2016,Autonomous Enabled,7,FALSE,0,NO ERROR,-0.562500,-10.632392,0.562500,10.991724,FALSE,FALSE,TRUE,TRUE,FALSE,FALSE,Disabled,0.000000,0.000000,0.000000,TRUE,0.081345,-0.033737,0.000000,0.815521,0.000000,0.000000,-0.151000,0.049000,0.144000,1.270000,-0.590000,4.720000,-0.467940,Hold,0.361572,0.000000,Hold,-165.000000,2.000000,LowGoal,1672.500000,-1818.181818,Speed,1672.500000,-1818.181818,Speed,Off,Off,0.000000,FALSE,53,Read: /home/lvuser/scripts/auto_53.bee,File good!,DRIVE_STRAIGHT_NAVX_RAMPARTS 200 5000 10,DRIVE_STRAIGHT_NAVX_RAMPARTS,0.000000,0.000000,-0.033000
07:13:58.781 PM 04/15/2016,Autonomous Enabled,11,FALSE,0,NO ERROR,-0.562500,-14.809632,0.530596,15.284464,FALSE,FALSE,TRUE,TRUE,FALSE,FALSE,Disabled,0.000000,0.000000,0.000000,TRUE,0.127090,-0.032333,0.000000,0.758972,0.035339,0.000000,0.030000,-0.045000,-0.166000,1.290000,-0.820000,3.940000,-0.729901,Hold,0.372070,0.000000,Hold,-165.000000,2.000000,LowGoal,1725.000000,-1818.181818,Speed,1710.000000,-1818.181818,Speed,Off,Off,0.000000,FALSE,53,Read: /home/lvuser/scripts/auto_53.bee,File good!,DRIVE_STRAIGHT_NAVX_RAMPARTS 200 5000 10,DRIVE_STRAIGHT_NAVX_RAMPARTS,0.000000,0.000000,-0.033000
07:13:58.881 PM 04/15/2016,Autonomous Enabled,11,FALSE,0,NO ERROR,-0.562500,-19.307705,0.529082,19.801787,FALSE,FALSE,TRUE,TRUE,FALSE,FALSE,Disabled,0.000000,0.000000,0.000000,TRUE,0.164108,-0.030655,0.000000,0.694321,0.044174,0.000000,-0.181000,-0.052000,0.129000,1.320000,-0.860000,4.160000,-0.802378,Hold,0.372314,0.000000,Hold,-164.000000,2.000000,LowGoal,1792.500000,-1818.181818,Speed,1755.000000,-1818.181818,Speed,Off,Off,0.000000,FALSE,53,Read: /home/lvuser/scripts/auto_53.bee,File good!,DRIVE_STRAIGHT_NAVX_RAMPARTS 200 5000 10,DRIVE_STRAIGHT_NAVX_RAMPARTS,0.000000,0.000000,-0.033000
07:13:58.982 PM 04/15/2016,Autonomous Enabled,9,FALSE,0,NO ERROR,-0.562500,-23.760861,0.534390,24.229277,FALSE,FALSE,TRUE,TRUE,FALSE,FALSE,Disabled,0.000000,0.000000,0.000000,TRUE,0.196960,-0.027969,0.000000,0.642044,0.054504,0.000000,-0.044000,0.007000,0.101000,1.310000,-0.730000,3.360000,-0.735055,Hold,0.372314,0.000000,Hold,-164.000000,2.000000,LowGoal,1800.000000,-1818.181818,Speed,1762.500000,-1818.181818,Speed,Off,Off,0.000000,FALSE,53,Read: /home/lvuser/scripts/auto_53.bee,File good!,DRIVE_STRAIGHT_NAVX_RAMPARTS 200 5000 10,DRIVE_STRAIGHT_NAVX_RAMPARTS,0.000000,0.000000,-0.033000
07:13:59.084 PM 04/15/2016,Autonomous Enabled,10,FALSE,0,NO ERROR,-0.562500,-28.489933,0.537436,28.778683,FALSE,FALSE,TRUE,TRUE,FALSE,FALSE,Disabled,0.000000,0.000000,0.000000,TRUE,0.228302,-0.025604,0.000000,0.626846,0.039169,0.000000,-0.040000,-0.017000,-0.152000,1.190000,-0.690000,3.280000,-0.610841,Hold,0.372314,0.000000,Hold,-164.000000,2.000000,LowGoal,1785.000000,-1818.181818,Speed,1747.500000,-1818.181818,Speed,Off,Off,0.000000,FALSE,53,Read: /home/lvuser/scripts/auto_53.bee,File good!,DRIVE_STRAIGHT_NAVX_RAMPARTS 200 5000 10,DRIVE_STRAIGHT_NAVX_RAMPARTS,0.000000,0.000000,-0.033000
07:13:59.185 PM 04/15/2016,Autonomous Enabled,13,FALSE,0,NO ERROR,-0.562500,-32.994423,0.535151,33.385839,TRUE,FALSE,TRUE,TRUE,FALSE,FALSE,Disabled,0.000000,0.000000,0.000000,TRUE,0.257416,-0.023895,0.000000,0.553482,0.029388,0.000000,-0.024000,0.014000,-0.133000,1.220000,-0.710000,2.920000,-0.579596,Hold,0.372314,0.000000,Hold,-164.000000,2.000000,LowGoal,1770.000000,-1818.181818,Speed,1747.500000,-1818.181818,Speed,Off,Off,0.000000,FALSE,53,Read: /home/lvuser/scripts/auto_53.bee,File good!,DRIVE_STRAIGHT_NAVX_RAMPARTS 200 5000 10,DRIVE_STRAIGHT_NAVX_RAMPARTS,0.000000,0.000000,-0.033000
07:13:59.285 PM 04/15/2016,Autonomous Enabled,11,FALSE,0,NO ERROR,-0.562500,-37.556662,0.537436,37.941661,TRUE,FALSE,TRUE,TRUE,FALSE,FALSE,Disabled,0.000000,0.000000,0.000000,TRUE,0.283554,-0.022568,0.000000,0.484482,0.030060,0.000000,-0.078000,0.031000,0.023000,1.240000,-0.680000,2.650000,-0.607064,Hold,0.372314,0.000000,Hold,-164.000000,2.000000,LowGoal,1777.500000,-1818.181818,Speed,1747.500000,-1818.181818,Speed,Off,Off,0.000000,FALSE,53,Read: /home/lvuser/scripts/auto_53.bee,File good!,DRIVE_STRAIGHT_NAVX_RAMPARTS 200 5000 10,DRIVE_STRAIGHT_NAVX_RAMPARTS,0.000000,0.000000,-0.033000
07:13:59.384 PM 04/15/2016,Autonomous Enabled,10,FALSE,0,NO ERROR,-0.562500,-42.144568,0.542403,42.420484,TRUE,FALSE,TRUE,TRUE,FALSE,FALSE,Disabled,0.000000,0.000000,0.000000,TRUE,0.305862,-0.019974,0.000000,0.428635,0.066223,0.000000,-0.044000,-0.054000,-0.022000,1.290000,-0.490000,2.390000,-0.430895,Hold,0.372314,0.000000,Hold,-164.000000,2.000000,LowGoal,1800.000000,-1818.181818,Speed,1747.500000,-1818.181818,Speed,Off,Off,0.000000,FALSE,53,Read: /home/lvuser/scripts/auto_53.bee,File good!,DRIVE_STRAIGHT_NAVX_RAMPARTS 200 5000 10,DRIVE_STRAIGHT_NAVX_RAMPARTS,0.000000,0.000000,-0.033000
07:13:59.484 PM 04/15/2016,Autonomous Enabled,11,FALSE,0,NO ERROR,-0.562500,-46.809474,0.545855,47.066140,TRUE,FALSE,TRUE,TRUE,FALSE,FALSE,Disabled,0.000000,0.000000,0.000000,TRUE,0.325668,-0.017059,0.000000,0.376740,0.059860,0.000000,0.023000,-0.077000,-0.085000,1.260000,-0.420000,2.250000,-0.353382,Hold,0.372314,0.000000,Hold,-164.000000,2.000000,LowGoal,1800.000000,-1818.181818,Speed,1747.500000,-1818.181818,Speed,Off,Off,0.000000,FALSE,53,Read: /home/lvuser/scripts/auto_53.bee,File good!,DRIVE_STRAIGHT_NAVX_RAMPARTS 200 5000 10,DRIVE_STRAIGHT_NAVX_RAMPARTS,0.000000,0.000000,-0.033000
07:13:59.586 PM 04/15/2016,Autonomous Enabled,11,FALSE,0,NO ERROR,-0.562500,-51.493630,0.545087,51.750296,FALSE,FALSE,TRUE,TRUE,FALSE,FALSE,Disabled,0.000000,0.000000,0.000000,TRUE,0.347092,-0.015137,0.000000,0.303925,0.007492,0.000000,-0.261000,-0.135000,-0.026000,1.190000,-0.440000,4.980000,-0.423121,Hold,0.372314,0.000000,Hold,-164.000000,2.000000,LowGoal,1785.000000,-1818.181818,Speed,1747.500000,-1818.181818,Speed,Off,Off,0.000000,FALSE,53,Read: /home/lvuser/scripts/auto_53.bee,File good!,DRIVE_STRAIGHT_NAVX_RAMPARTS 200 5000 10,DRIVE_STRAIGHT_NAVX_RAMPARTS,0.000000,0.000000,-0.033000
07:13:59.686 PM 04/15/2016,Autonomous Enabled,9,FALSE,0,NO ERROR,-0.562500,-56.004536,0.547393,56.087952,FALSE,FALSE,TRUE,TRUE,FALSE,FALSE,Disabled,0.000000,0.000000,0.000000,TRUE,0.358719,-0.014908,0.000000,0.187744,0.023636,0.000000,-0.017000,-0.005000,-0.172000,1.060000,-0.360000,7.070000,-0.403013,Hold,0.372314,0.000000,Hold,-164.000000,2.000000,LowGoal,1777.500000,-1818.181818,Speed,1755.000000,-1818.181818,Speed,Off,Off,0.000000,FALSE,53,Read: /home/lvuser/scripts/auto_53.bee,File good!,DRIVE_STRAIGHT_NAVX_RAMPARTS 200 5000 10,DRIVE_STRAIGHT_NAVX_RAMPARTS,0.000000,0.000000,-0.033000
07:13:59.786 PM 04/15/2016,Autonomous Enabled,9,FALSE,0,NO ERROR,-0.562500,-60.297276,0.550089,60.399942,FALSE,FALSE,TRUE,TRUE,FALSE,FALSE,Disabled,0.000000,0.000000,0.000000,TRUE,0.366135,-0.015259,0.000000,0.122772,-0.039551,0.000000,-0.022000,-0.008000,0.150000,1.080000,-0.310000,9.570000,-0.373986,Hold,0.372314,0.000000,Hold,-164.000000,2.000000,LowGoal,1777.500000,-1818.181818,Speed,1747.500000,-1818.181818,Speed,Off,Off,0.000000,FALSE,53,Read: /home/lvuser/scripts/auto_53.bee,File good!,DRIVE_STRAIGHT_NAVX_RAMPARTS 200 5000 10,DRIVE_STRAIGHT_NAVX_RAMPARTS,0.000000,0.000000,-0.033000
07:13:59.886 PM 04/15/2016,Autonomous Enabled,11,FALSE,0,NO ERROR,-0.562500,-64.365433,0.555890,64.416766,FALSE,FALSE,TRUE,TRUE,FALSE,FALSE,Disabled,0.000000,0.000000,0.000000,TRUE,0.372055,-0.016510,0.000000,0.141800,0.000000,0.000000,-0.047000,0.056000,0.432000,1.080000,-0.310000,9.570000,-0.233643,Hold,0.372314,0.000000,Hold,-164.000000,2.000000,LowGoal,1770.000000,-1818.181818,Speed,1747.500000,-1818.181818,Speed,Off,Off,0.000000,FALSE,53,Read: /home/lvuser/scripts/auto_53.bee,File good!,DRIVE_STRAIGHT_NAVX_RAMPARTS 200 5000 10,DRIVE_STRAIGHT_NAVX_RAMPARTS,0.000000,0.000000,-0.033000
07:13:59.986 PM 04/15/2016,Autonomous Enabled,11,FALSE,0,NO ERROR,-0.562500,-68.228257,0.568365,68.228257,FALSE,FALSE,TRUE,TRUE,FALSE,FALSE,Disabled,0.000000,0.000000,0.000000,TRUE,0.368164,-0.014938,0.000000,-0.511246,0.074982,0.000000,-0.662000,-0.169000,-1.082000,0.980000,0.210000,10.370000,0.030257,Hold,0.372314,0.000000,Hold,-163.000000,2.000000,LowGoal,1770.000000,-1818.181818,Speed,1747.500000,-1818.181818,Speed,Off,Off,0.000000,FALSE,53,Read: /home/lvuser/scripts/auto_53.bee,File good!,DRIVE_STRAIGHT_NAVX_RAMPARTS 200 5000 10,DRIVE_STRAIGHT_NAVX_RAMPARTS,0.000000,0.000000,-0.033000
07:14:00.086 PM 04/15/2016,Autonomous Enabled,11,FALSE,0,NO ERROR,-0.562500,-71.475083,0.580979,71.699666,FALSE,FALSE,TRUE,TRUE,FALSE,FALSE,Disabled,0.000000,0.000000,0.000000,TRUE,0.332123,-0.013367,0.000000,-0.657394,-0.006485,0.000000,0.558000,-0.221000,1.344000,0.850000,0.420000,20.610000,0.228734,Hold,0.556885,0.000000,Hold,-223.000000,2.000000,LowGoal,1762.500000,-1818.181818,Speed,1740.000000,-1818.181818,Speed,Off,Off,0.000000,FALSE,53,Read: /home/lvuser/scripts/auto_53.bee,File good!,DRIVE_STRAIGHT_NAVX_RAMPARTS 200 5000 10,DRIVE_STRAIGHT_NAVX_RAMPARTS,0.000000,0.000000,-0.033000
07:14:00.186 PM 04/15/2016,Autonomous Enabled,10,FALSE,0,NO ERROR,-0.562500,-73.996827,0.562500,74.401076,FALSE,FALSE,TRUE,TRUE,FALSE,FALSE,Disabled,0.000000,0.000000,0.000000,TRUE,0.306030,-0.016739,0.000000,-0.434021,-0.035187,0.000000,0.220000,-0.072000,-0.409000,0.850000,0.420000,20.610000,-0.188136,Hold,0.561035,0.000000,Hold,-31.000000,2.000000,LowGoal,1747.500000,-1818.181818,Speed,1725.000000,-1818.181818,Speed,Off,Off,0.000000,FALSE,53,Read: /home/lvuser/scripts/auto_53.bee,File good!,DRIVE_STRAIGHT_NAVX_RAMPARTS 200 5000 10,DRIVE_STRAIGHT_NAVX_RAMPARTS,0.000000,0.000000,-0.033000
07:14:00.286 PM 04/15/2016,Autonomous Enabled,11,FALSE,0,NO ERROR,-0.562500,-76.871487,0.551633,77.346319,FALSE,FALSE,TRUE,TRUE,FALSE,FALSE,Disabled,0.000000,0.000000,0.000000,TRUE,0.289749,-0.018158,0.000000,-0.314468,-0.044968,0.000000,0.109000,-0.007000,0.407000,0.720000,-0.080000,25.710000,-0.611994,Hold,0.667969,0.000000,Hold,-38.000000,2.000000,LowGoal,1755.000000,-1818.181818,Speed,1710.000000,-1818.181818,Speed,Off,Off,0.000000,FALSE,53,Read: /home/lvuser/scripts/auto_53.bee,File good!,DRIVE_STRAIGHT_NAVX_RAMPARTS 200 5000 10,DRIVE_STRAIGHT_NAVX_RAMPARTS,0.000000,0.000000,-0.033000
07:14:00.386 PM 04/15/2016,Autonomous Enabled,11,FALSE,0,NO ERROR,-0.562500,-79.585731,0.530217,80.182479,FALSE,FALSE,TRUE,TRUE,FALSE,FALSE,Disabled,0.000000,0.000000,0.000000,TRUE,0.278244,-0.021835,0.000000,-0.150085,-0.082916,0.000000,0.169000,0.023000,-0.222000,0.330000,-0.340000,24.570000,-1.067971,Hold,0.667969,0.000000,Hold,-40.000000,2.000000,LowGoal,1755.000000,-1818.181818,Speed,1710.000000,-1818.181818,Speed,Off,Off,0.000000,FALSE,53,Read: /home/lvuser/scripts/auto_53.bee,File good!,DRIVE_STRAIGHT_NAVX_RAMPARTS 200 5000 10,DRIVE_STRAIGHT_NAVX_RAMPARTS,0.000000,0.000000,-0.033000
07:14:00.486 PM 04/15/2016,Autonomous Enabled,11,FALSE,0,NO ERROR,-0.562500,-82.158808,0.562890,82.678557,FALSE,FALSE,TRUE,TRUE,FALSE,FALSE,Disabled,0.000000,0.000000,0.000000,TRUE,0.248566,-0.031586,0.000000,-1.059311,-0.106491,0.000000,-0.893000,0.404000,0.705000,0.420000,-0.960000,18.310000,-0.489294,Hold,0.667969,0.000000,Hold,-40.000000,2.000000,LowGoal,1762.500000,-1818.181818,Speed,1717.500000,-1818.181818,Speed,Off,Off,0.000000,FALSE,53,Read: /home/lvuser/scripts/auto_53.bee,File good!,DRIVE_STRAIGHT_NAVX_RAMPARTS 200 5000 10,DRIVE_STRAIGHT_NAVX_RAMPARTS,0.000000,0.000000,-0.033000
07:14:00.586 PM 04/15/2016,Autonomous Enabled,10,FALSE,0,NO ERROR,-0.562500,-85.681550,0.542403,86.631214,FALSE,FALSE,TRUE,TRUE,FALSE,FALSE,Disabled,0.000000,0.000000,0.000000,TRUE,0.202240,-0.034256,0.000000,-1.130753,-0.103363,0.000000,-0.047000,0.193000,-0.652000,2.170000,-0.650000,4.340000,-0.623275,Hold,0.667969,0.000000,Hold,-142.000000,2.000000,LowGoal,1755.000000,-1818.181818,Speed,1710.000000,-1818.181818,Speed,Off,Off,0.000000,FALSE,53,Read: /home/lvuser/scripts/auto_53.bee,File good!,DRIVE_STRAIGHT_NAVX_RAMPARTS 200 5000 10,DRIVE_STRAIGHT_NAVX_RAMPARTS,0.000000,0.000000,-0.033000
07:14:00.686 PM 04/15/2016,Autonomous Enabled,11,FALSE,0,NO ERROR,-0.562500,-90.109039,0.523423,89.826707,FALSE,FALSE,TRUE,TRUE,FALSE,FALSE,Disabled,0.000000,0.000000,0.000000,TRUE,0.136673,-0.044785,0.000000,-1.078766,-0.316666,0.000000,-0.223000,-0.146000,0.125000,2.170000,-0.650000,4.340000,-1.495578,Hold,0.667969,0.000000,Hold,-78.000000,2.000000,LowGoal,1740.000000,-1818.181818,Speed,1725.000000,-1818.181818,Speed,Off,Off,0.000000,FALSE,53,Read: /home/lvuser/scripts/auto_53.bee,File good!,DRIVE_STRAIGHT_NAVX_RAMPARTS 200 5000 10,DRIVE_STRAIGHT_NAVX_RAMPARTS,0.000000,0.000000,-0.033000
07:14:00.786 PM 04/15/2016,Autonomous Enabled,13,FALSE,0,NO ERROR,-0.562500,-91.264037,0.398388,92.168784,FALSE,FALSE,TRUE,TRUE,FALSE,FALSE,Disabled,0.000000,0.000000,0.000000,TRUE,0.081467,-0.054871,0.000000,-1.142670,-0.228760,0.000000,-0.066000,-0.443000,-0.312000,-1.390000,-1.490000,3.100000,-5.611297,Hold,0.667969,0.000000,Hold,-78.000000,2.000000,LowGoal,1762.500000,-1818.181818,Speed,1732.500000,-1818.181818,Speed,Off,Off,0.000000,FALSE,53,Read: /home/lvuser/scripts/auto_53.bee,File good!,DRIVE_STRAIGHT_NAVX_RAMPARTS 200 5000 10,DRIVE_STRAIGHT_NAVX_RAMPARTS,0.000000,0.000000,-0.033000
07:14:00.886 PM 04/15/2016,Autonomous Enabled,10,FALSE,0,NO ERROR,-0.562500,-93.772947,0.228522,95.088361,FALSE,FALSE,TRUE,TRUE,FALSE,FALSE,Disabled,0.000000,0.000000,0.000000,TRUE,0.027054,-0.066635,0.000000,-0.986038,-0.040619,0.000000,-0.066000,-0.443000,-0.312000,-4.590000,-6.840000,14.310000,-10.778278,Hold,0.667969,0.000000,Hold,-78.000000,2.000000,LowGoal,1732.500000,-1818.181818,Speed,1725.000000,-1818.181818,Speed,Off,Off,0.000000,FALSE,53,Read: /home/lvuser/scripts/auto_53.bee,File good!,DRIVE_STRAIGHT_NAVX_RAMPARTS 200 5000 10,DRIVE_STRAIGHT_NAVX_RAMPARTS,0.000000,0.000000,-0.033000
07:14:00.987 PM 04/15/2016,Autonomous Enabled,11,FALSE,0,NO ERROR,-0.562500,-95.473360,0.164641,96.801607,FALSE,FALSE,TRUE,TRUE,FALSE,FALSE,Disabled,0.000000,0.000000,0.000000,TRUE,-0.014389,-0.074661,0.000000,-0.680237,-0.162048,0.000000,0.118000,-0.257000,1.268000,-2.310000,-11.580000,25.760000,-10.959539,Hold,0.667969,0.000000,Hold,-78.000000,2.000000,LowGoal,1732.500000,-1818.181818,Speed,1732.500000,-1818.181818,Speed,Off,Off,0.000000,FALSE,53,Read: /home/lvuser/scripts/auto_53.bee,File good!,DRIVE_STRAIGHT_NAVX_RAMPARTS 200 5000 10,DRIVE_STRAIGHT_NAVX_RAMPARTS,0.000000,0.000000,-0.033000
07:14:01.086 PM 04/15/2016,Autonomous Enabled,10,FALSE,0,NO ERROR,-0.562500,-98.681686,0.232768,98.052854,FALSE,FALSE,TRUE,TRUE,FALSE,FALSE,Disabled,0.000000,0.000000,0.000000,TRUE,-0.042908,-0.082993,0.000000,-0.541992,-0.211136,0.000000,0.338000,0.018000,-0.764000,-0.850000,-12.430000,32.870000,-7.327117,Hold,0.949951,0.000000,Hold,-78.000000,2.000000,LowGoal,1740.000000,-1818.181818,Speed,1725.000000,-1818.181818,Speed,Off,Off,0.000000,FALSE,53,Read: /home/lvuser/scripts/auto_53.bee,File good!,DRIVE_STRAIGHT_NAVX_RAMPARTS 200 5000 10,DRIVE_STRAIGHT_NAVX_RAMPARTS,0.000000,0.000000,-0.033000
07:14:01.187 PM 04/15/2016,Autonomous Enabled,11,FALSE,0,NO ERROR,-0.562500,-101.633346,0.391200,98.771519,FALSE,FALSE,TRUE,TRUE,FALSE,FALSE,Disabled,0.000000,0.000000,0.000000,TRUE,-0.069092,-0.093445,0.000000,-0.309937,-0.230881,0.000000,0.102000,0.257000,0.485000,-0.010000,-7.820000,34.770000,-3.019161,Hold,0.954590,0.000000,Hold,-78.000000,2.000000,LowGoal,1762.500000,-1818.181818,Speed,1732.500000,-1818.181818,Speed,Off,Off,0.000000,FALSE,53,Read: /home/lvuser/scripts/auto_53.bee,File good!,DRIVE_STRAIGHT_NAVX_RAMPARTS 200 5000 10,DRIVE_STRAIGHT_NAVX_RAMPARTS,0.000000,0.000000,-0.033000
07:14:01.287 PM 04/15/2016,Autonomous Enabled,10,FALSE,0,NO ERROR,-0.562500,-105.085504,0.575444,100.812014,FALSE,FALSE,TRUE,TRUE,FALSE,FALSE,Disabled,0.000000,0.000000,0.000000,TRUE,-0.077377,-0.101974,0.000000,-0.189392,-0.087021,0.000000,0.311000,-0.280000,-0.621000,0.620000,-2.870000,32.630000,0.432909,Hold,0.956787,0.000000,Hold,-77.000000,2.000000,LowGoal,1770.000000,-1818.181818,Speed,1740.000000,-1818.181818,Speed,Off,Off,0.000000,FALSE,53,Read: /home/lvuser/scripts/auto_53.bee,File good!,DRIVE_STRAIGHT_NAVX_RAMPARTS 200 5000 10,DRIVE_STRAIGHT_NAVX_RAMPARTS,0.000000,0.000000,-0.033000
07:14:01.387 PM 04/15/2016,Autonomous Enabled,11,FALSE,0,NO ERROR,-0.562500,-108.255330,0.622931,103.994673,FALSE,FALSE,TRUE,TRUE,FALSE,FALSE,Disabled,0.000000,0.000000,0.000000,TRUE,-0.095612,-0.113556,0.000000,-0.588104,-0.368790,0.000000,0.300000,0.200000,-0.613000,1.780000,1.220000,26.080000,2.007070,Hold,1.159424,0.000000,Hold,-73.000000,2.000000,LowGoal,1770.000000,-1818.181818,Speed,1732.500000,-1818.181818,Speed,Off,Off,0.000000,FALSE,53,Read: /home/lvuser/scripts/auto_53.bee,File good!,DRIVE_STRAIGHT_NAVX_RAMPARTS 200 5000 10,DRIVE_STRAIGHT_NAVX_RAMPARTS,0.000000,0.000000,-0.033000
07:14:01.487 PM 04/15/2016,Autonomous Enabled,10,FALSE,0,NO ERROR,-0.562500,-111.367406,0.507742,106.458668,FALSE,FALSE,TRUE,TRUE,FALSE,FALSE,Disabled,0.000000,0.000000,0.000000,TRUE,-0.119492,-0.130798,0.000000,-0.240463,-0.199417,0.000000,-0.066000,-0.202000,-0.359000,2.070000,0.070000,11.710000,0.100147,Hold,1.183838,0.000000,Hold,-73.000000,2.000000,LowGoal,1747.500000,-1818.181818,Speed,1725.000000,-1818.181818,Speed,Off,Off,0.000000,FALSE,53,Read: /home/lvuser/scripts/auto_53.bee,File good!,DRIVE_STRAIGHT_NAVX_RAMPARTS 200 5000 10,DRIVE_STRAIGHT_NAVX_RAMPARTS,0.000000,0.000000,-0.033000
07:14:01.587 PM 04/15/2016,Autonomous Enabled,11,FALSE,0,NO ERROR,-0.562500,-114.498732,0.608244,110.058409,FALSE,FALSE,TRUE,TRUE,FALSE,FALSE,Disabled,0.000000,0.000000,0.000000,TRUE,-0.119492,-0.130798,0.000000,-0.240463,-0.199417,0.000000,0.406000,0.616000,0.234000,0.650000,-0.570000,-5.710000,2.068874,Hold,0.986816,0.000000,Hold,-73.000000,2.000000,LowGoal,1740.000000,-1818.181818,Speed,1710.000000,-1818.181818,Speed,Off,Off,0.000000,FALSE,53,Read: /home/lvuser/scripts/auto_53.bee,File good!,DRIVE_STRAIGHT_NAVX_RAMPARTS 200 5000 10,DRIVE_STRAIGHT_NAVX_RAMPARTS,0.000000,0.000000,-0.033000
07:14:01.687 PM 04/15/2016,Autonomous Enabled,13,FALSE,0,NO ERROR,-0.562500,-119.696220,0.626219,115.185314,FALSE,FALSE,TRUE,TRUE,FALSE,FALSE,Disabled,0.000000,0.000000,0.000000,TRUE,-0.116348,-0.147614,0.000000,0.463867,-0.605896,0.000000,-0.472000,0.100000,-0.325000,1.190000,1.510000,-12.800000,2.198504,Hold,1.178223,0.000000,Hold,-75.000000,2.000000,LowGoal,1732.500000,-1818.181818,Speed,1717.500000,-1818.181818,Speed,Off,Off,0.000000,FALSE,53,Read: /home/lvuser/scripts/auto_53.bee,File good!,DRIVE_STRAIGHT_NAVX_RAMPARTS 200 5000 10,DRIVE_STRAIGHT_NAVX_RAMPARTS,0.000000,0.000000,-0.033000
07:14:01.787 PM 04/15/2016,Autonomous Enabled,10,FALSE,0,NO ERROR,-0.562500,-124.810291,0.610273,121.120717,FALSE,FALSE,TRUE,TRUE,FALSE,FALSE,Disabled,0.000000,0.000000,0.000000,TRUE,-0.101044,-0.176910,0.000000,0.217789,-0.553497,0.000000,0.332000,0.082000,-1.251000,0.670000,1.410000,-13.140000,1.740296,Hold,0.985596,0.000000,Hold,-75.000000,2.000000,LowGoal,1755.000000,-1818.181818,Speed,1725.000000,-1818.181818,Speed,Off,Off,0.000000,FALSE,53,Read: /home/lvuser/scripts/auto_53.bee,File good!,DRIVE_STRAIGHT_NAVX_RAMPARTS 200 5000 10,DRIVE_STRAIGHT_NAVX_RAMPARTS,0.000000,0.000000,-0.033000
07:14:01.887 PM 04/15/2016,Autonomous Enabled,11,FALSE,0,NO ERROR,-0.562500,-130.283695,0.580187,126.953453,FALSE,FALSE,TRUE,TRUE,FALSE,FALSE,Disabled,0.000000,0.000000,0.000000,TRUE,-0.081223,-0.201843,0.000000,0.416565,-0.454010,0.000000,0.396000,0.149000,0.080000,1.230000,1.000000,-8.930000,0.772211,Hold,1.084961,0.000000,Hold,-106.000000,2.000000,LowGoal,1785.000000,-1818.181818,Speed,1747.500000,-1818.181818,Speed,Off,Off,0.000000,FALSE,53,Read: /home/lvuser/scripts/auto_53.bee,File good!,DRIVE_STRAIGHT_NAVX_RAMPARTS 200 5000 10,DRIVE_STRAIGHT_NAVX_RAMPARTS,0.000000,0.000000,-0.033000
07:14:01.988 PM 04/15/2016,Autonomous Enabled,10,FALSE,0,NO ERROR,-0.562500,-0.943248,0.562500,0.962498,FALSE,FALSE,TRUE,TRUE,FALSE,FALSE,Disabled,0.000000,0.000000,0.000000,TRUE,-0.069550,-0.218689,0.000000,0.060547,-0.247665,0.000000,0.032000,-0.427000,-0.487000,1.990000,0.090000,-5.860000,-0.272103,Hold,1.112549,0.000000,Hold,187.000000,2.000000,LowGoal,1777.500000,-1818.181818,Speed,1747.500000,-1818.181818,Speed,Off,Off,0.000000,FALSE,53,Read: /home/lvuser/scripts/auto_53.bee,File good!,DRIVE_STRAIGHT_TARGET 12 0 10000 75,DRIVE_STRAIGHT_TARGET,0.000000,0.000000,-0.033000
07:14:02.088 PM 04/15/2016,Autonomous Enabled,10,FALSE,0,NO ERROR,-0.562500,-5.749320,0.562500,5.678737,TRUE,FALSE,TRUE,TRUE,FALSE,FALSE,Disabled,0.000000,0.000000,0.000000,TRUE,-0.056900,-0.238739,0.000000,0.429794,-0.384125,0.000000,0.022000,0.147000,-0.659000,0.700000,-0.970000,-2.310000,-1.525621,Hold,2.435303,0.000000,Hold,-24.000000,2.000000,LowGoal,1732.500000,-1818.181818,Speed,1732.500000,-1818.181818,Speed,Off,Off,0.000000,FALSE,53,Read: /home/lvuser/scripts/auto_53.bee,File good!,DRIVE_STRAIGHT_TARGET 12 0 10000 75,DRIVE_STRAIGHT_TARGET,0.000000,0.000000,-0.033000
07:14:02.188 PM 04/15/2016,Autonomous Enabled,10,FALSE,0,NO ERROR,-0.562500,-10.439892,0.562500,10.401392,TRUE,FALSE,TRUE,TRUE,FALSE,FALSE,Disabled,0.000000,0.000000,0.000000,TRUE,-0.038147,-0.257462,0.000000,0.300583,-0.356796,0.000000,-0.075000,0.630000,0.190000,1.670000,-1.980000,0.950000,-1.163392,Hold,1.581055,0.000000,Hold,-47.000000,2.000000,LowGoal,1755.000000,-1818.181818,Speed,1747.500000,-1818.181818,Speed,Off,Off,0.000000,FALSE,53,Read: /home/lvuser/scripts/auto_53.bee,File good!,DRIVE_STRAIGHT_TARGET 12 0 10000 75,DRIVE_STRAIGHT_TARGET,0.000000,0.000000,-0.033000
07:14:02.288 PM 04/15/2016,Autonomous Enabled,10,FALSE,0,NO ERROR,-0.250000,-14.777549,-0.250000,14.167967,FALSE,FALSE,TRUE,TRUE,FALSE,FALSE,Disabled,0.000000,0.000000,0.000000,TRUE,-0.023773,-0.265060,0.000000,0.343719,-0.124832,0.000000,-0.306000,-0.049000,0.985000,1.630000,-1.660000,3.260000,-1.163392,Hold,2.211670,0.000000,Hold,-48.000000,2.000000,LowGoal,1807.500000,-1818.181818,Speed,1755.000000,-1818.181818,Speed,Off,Off,0.000000,FALSE,53,Read: /home/lvuser/scripts/auto_53.bee,File good!,SET_HEADING 0,SET_HEADING,0.000000,0.000000,-0.033000
07:14:02.388 PM 04/15/2016,Autonomous Enabled,11,FALSE,0,NO ERROR,-0.250000,-14.777549,-0.250000,14.167967,TRUE,FALSE,TRUE,TRUE,FALSE,FALSE,Disabled,0.000000,0.000000,0.000000,TRUE,-0.011978,-0.274902,0.000000,0.230270,-0.236130,0.000000,-0.216000,0.196000,-0.567000,1.330000,-2.160000,2.570000,-1.633205,Hold,1.700195,0.000000,Hold,-52.000000,2.000000,LowGoal,1777.500000,-1818.181818,Speed,1747.500000,-1818.181818,Speed,Off,Off,0.000000,FALSE,53,Read: /home/lvuser/scripts/auto_53.bee,File good!,SET_HEADING 0,SET_HEADING,0.000000,0.000000,-0.033000
07:14:02.493 PM 04/15/2016,Autonomous Enabled,10,FALSE,0,NO ERROR,0.250000,-19.211455,0.250000,15.245964,FALSE,FALSE,TRUE,TRUE,FALSE,FALSE,Disabled,0.000000,0.000000,0.000000,TRUE,-0.014053,-0.282379,0.000000,-0.303864,-0.041595,0.000000,-0.224000,0.036000,-0.587000,3.270000,1.690000,-2.020000,1.810758,Hold,1.700195,0.000000,Hold,-52.000000,2.000000,LowGoal,1740.000000,-1818.181818,Speed,1740.000000,-1818.181818,Speed,Off,Off,0.000000,FALSE,53,Read: /home/lvuser/scripts/auto_53.bee,File good!,SET_HEADING 0,SET_HEADING,0.000000,0.000000,-0.033000
07:14:02.593 PM 04/15/2016,Autonomous Enabled,8,FALSE,0,NO ERROR,0.250000,-19.211455,0.250000,15.245964,FALSE,FALSE,TRUE,TRUE,FALSE,FALSE,Disabled,0.000000,0.000000,0.000000,TRUE,-0.034912,-0.282578,0.000000,-0.492523,-0.030655,0.000000,-1.159000,-0.721000,0.735000,2.160000,6.670000,-3.220000,7.282098,Hold,1.700195,0.000000,Hold,-115.000000,2.000000,LowGoal,1740.000000,-1818.181818,Speed,1740.000000,-1818.181818,Speed,Off,Off,0.000000,FALSE,53,Read: /home/lvuser/scripts/auto_53.bee,File good!,SET_HEADING 0,SET_HEADING,0.000000,0.000000,-0.033000
07:14:02.694 PM 04/15/2016,Autonomous Enabled,5,FALSE,0,NO ERROR,0.250000,-18.807206,0.250000,16.259795,TRUE,FALSE,TRUE,TRUE,FALSE,FALSE,Disabled,0.000000,0.000000,0.000000,TRUE,-0.078751,-0.300934,0.000000,-0.980743,-0.462250,0.000000,0.147000,0.316000,-0.152000,1.450000,3.120000,-1.750000,4.584052,Hold,1.659668,0.000000,Hold,-104.000000,2.000000,LowGoal,1785.000000,-1818.181818,Speed,1740.000000,-1818.181818,Speed,Off,Off,0.000000,FALSE,53,Read: /home/lvuser/scripts/auto_53.bee,File good!,SET_HEADING 0,SET_HEADING,0.000000,0.000000,-0.033000
07:14:02.794 PM 04/15/2016,Autonomous Enabled,9,FALSE,0,NO ERROR,0.000000,-17.953791,-0.000000,16.773127,TRUE,FALSE,TRUE,TRUE,FALSE,TRUE,Disabled,0.000000,0.000000,0.000000,TRUE,-0.124313,-0.316574,0.000000,-0.855530,-0.272064,0.000000,0.176000,-0.338000,0.263000,1.010000,0.500000,-2.680000,1.790543,Hold,1.629639,50.000000,Hold,-103.000000,2.000000,LowGoal,1807.500000,-1818.181818,Speed,1747.500000,-1818.181818,Speed,Off,Off,0.000000,FALSE,53,Read: /home/lvuser/scripts/auto_53.bee,File good!,SEARCH_FOR_GOAL,SEARCH_FOR_GOAL,0.000000,0.000000,-0.033000
07:14:02.895 PM 04/15/2016,Autonomous Enabled,9,FALSE,0,NO ERROR,0.000000,-17.459709,-0.000000,17.530292,TRUE,FALSE,TRUE,TRUE,FALSE,TRUE,Disabled,0.000000,0.000000,0.000000,TRUE,-0.173187,-0.341278,0.000000,-0.816803,-0.375626,0.000000,0.149000,0.436000,0.019000,1.960000,-2.410000,-1.830000,-1.879292,Hold,3.452637,50.000000,Hold,-101.000000,70451.200000,LowGoal,1800.000000,-3272.727273,Speed,1755.000000,-3272.727273,Speed,Off,Off,0.000000,FALSE,53,Read: /home/lvuser/scripts/auto_53.bee,File good!,SEARCH_FOR_GOAL,SEARCH_FOR_GOAL,0.000000,0.000000,-0.033000
07:14:02.996 PM 04/15/2016,Autonomous Enabled,9,FALSE,0,NO ERROR,0.000000,-17.472542,-0.000000,17.523876,TRUE,FALSE,TRUE,TRUE,FALSE,TRUE,Disabled,0.000000,0.000000,0.000000,TRUE,-0.209915,-0.352646,0.000000,-0.681931,-0.247543,0.000000,0.016000,-0.198000,-0.064000,1.780000,-2.440000,-1.710000,-1.942866,Hold,5.839844,50.000000,Hold,-6387.000000,70451.200000,LowGoal,1860.000000,-3272.727273,Speed,1815.000000,-3272.727273,Speed,Off,Off,0.000000,FALSE,53,Read: /home/lvuser/scripts/auto_53.bee,File good!,SEARCH_FOR_GOAL,SEARCH_FOR_GOAL,0.000000,0.000000,-0.033000
07:14:03.097 PM 04/15/2016,Autonomous Enabled,9,FALSE,0,NO ERROR,0.000000,-17.478959,-0.000000,17.453293,TRUE,FALSE,TRUE,TRUE,FALSE,TRUE,Disabled,0.000000,0.000000,0.000000,TRUE,-0.216370,-0.367401,0.000000,0.019638,-0.257767,0.000000,0.059000,0.044000,-0.018000,1.910000,-1.920000,-1.550000,-1.514729,Hold,9.071045,50.000000,Hold,-6387.000000,70451.200000,LowGoal,2167.500000,-3272.727273,Speed,2145.000000,-3272.727273,Speed,Off,Off,0.000000,FALSE,53,Read: /home/lvuser/scripts/auto_53.bee,File good!,SEARCH_FOR_GOAL,SEARCH_FOR_GOAL,0.000000,0.000000,-0.033000
07:14:03.197 PM 04/15/2016,Autonomous Enabled,10,FALSE,0,NO ERROR,0.000000,-17.478959,-0.000000,17.453293,TRUE,FALSE,TRUE,TRUE,FALSE,TRUE,Disabled,0.000000,0.000000,0.000000,TRUE,-0.214310,-0.380875,0.000000,0.039795,-0.316849,0.000000,-0.043000,0.179000,0.040000,1.490000,-2.010000,-1.460000,-1.602328,Hold,12.998535,50.000000,Hold,-21806.000000,70451.200000,LowGoal,2580.000000,-3272.727273,Speed,2430.000000,-3272.727273,Speed,Off,Off,0.000000,FALSE,53,Read: /home/lvuser/scripts/auto_53.bee,File good!,SEARCH_FOR_GOAL,SEARCH_FOR_GOAL,0.000000,0.000000,-0.033000
07:14:03.297 PM 04/15/2016,Autonomous Enabled,9,FALSE,0,NO ERROR,0.000000,-17.478959,-0.000000,17.401959,TRUE,FALSE,TRUE,TRUE,FALSE,TRUE,Disabled,0.000000,0.000000,0.000000,TRUE,-0.212067,-0.395050,0.000000,0.059860,-0.271713,0.000000,-0.099000,0.069000,0.011000,1.660000,-1.920000,-1.290000,-1.497533,Hold,17.510986,50.000000,Hold,-35415.000000,70451.200000,LowGoal,2895.000000,-3272.727273,Speed,2722.500000,-3272.727273,Speed,Off,Off,0.000000,FALSE,53,Read: /home/lvuser/scripts/auto_53.bee,File good!,SEARCH_FOR_GOAL,SEARCH_FOR_GOAL,0.000000,0.000000,-0.033000
07:14:03.397 PM 04/15/2016,Autonomous Enabled,8,FALSE,0,NO ERROR,0.000000,-17.478959,-0.000000,17.389126,TRUE,FALSE,TRUE,TRUE,FALSE,TRUE,Disabled,0.000000,0.000000,0.000000,TRUE,-0.209229,-0.405411,0.000000,0.070297,0.000000,0.000000,0.016000,-0.007000,0.041000,1.660000,-1.920000,-1.260000,-1.514991,Hold,21.838135,50.000000,Hold,-50340.000000,70451.200000,LowGoal,3142.500000,-3272.727273,Speed,2970.000000,-3272.727273,Speed,Off,Off,0.000000,FALSE,53,Read: /home/lvuser/scripts/auto_53.bee,File good!,SEARCH_FOR_GOAL,SEARCH_FOR_GOAL,0.000000,0.000000,-0.033000
07:14:03.498 PM 04/15/2016,Autonomous Enabled,9,FALSE,0,NO ERROR,0.000000,-17.478959,-0.000000,17.389126,TRUE,FALSE,TRUE,TRUE,FALSE,TRUE,Disabled,0.000000,0.000000,0.000000,TRUE,-0.206055,-0.405685,0.000000,0.057831,-0.020721,0.000000,-0.078000,-0.017000,-0.093000,1.580000,-1.920000,-1.250000,-1.498291,Hold,28.269531,50.000000,Hold,-67629.000000,70451.200000,LowGoal,3270.000000,-3272.727273,Speed,3165.000000,-3272.727273,Speed,Off,Off,0.000000,FALSE,53,Read: /home/lvuser/scripts/auto_53.bee,File good!,SEARCH_FOR_GOAL,SEARCH_FOR_GOAL,0.000000,0.000000,-0.033000
07:14:03.598 PM 04/15/2016,Autonomous Enabled,10,FALSE,0,NO ERROR,0.000000,-17.478959,-0.000000,17.389126,TRUE,FALSE,TRUE,TRUE,FALSE,TRUE,Disabled,0.000000,0.000000,0.000000,TRUE,-0.203995,-0.407684,0.000000,0.059448,-0.062103,0.000000,0.144000,0.020000,0.175000,1.570000,-1.930000,-1.230000,-1.499165,Hold,35.311523,50.000000,Hold,-71372.000000,70451.200000,LowGoal,3262.500000,-3272.727273,Speed,3247.500000,-3272.727273,Speed,Off,Off,0.000000,FALSE,53,Read: /home/lvuser/scripts/auto_53.bee,File good!,SEARCH_FOR_GOAL,SEARCH_FOR_GOAL,0.000000,0.000000,-0.033000
07:14:03.699 PM 04/15/2016,Autonomous Enabled,11,FALSE,0,NO ERROR,0.000000,-17.697125,-0.000000,17.530292,TRUE,FALSE,TRUE,TRUE,FALSE,TRUE,Disabled,0.000000,0.000000,0.000000,TRUE,-0.200897,-0.412491,0.000000,0.017746,-0.127228,0.000000,-0.106000,-0.034000,-0.204000,1.370000,-2.360000,-1.200000,-1.914376,Hold,45.269043,50.000000,Hold,-70855.000000,70451.200000,LowGoal,3240.000000,-3272.727273,Speed,3225.000000,-3272.727273,Speed,Off,Off,0.000000,FALSE,53,Read: /home/lvuser/scripts/auto_53.bee,File good!,SEARCH_FOR_GOAL,SEARCH_FOR_GOAL,0.000000,0.000000,-0.033000
07:14:03.801 PM 04/15/2016,Autonomous Enabled,8,FALSE,0,NO ERROR,0.558420,-17.742042,0.558420,17.588042,TRUE,FALSE,TRUE,TRUE,FALSE,TRUE,PID,-0.575000,23.712000,-26.142000,TRUE,-0.203125,-0.417267,0.000000,-0.074188,-0.058807,0.000000,-0.030000,0.000000,-0.337000,1.670000,-2.510000,-1.370000,-2.132407,Hold,53.325439,50.000000,Hold,-70855.000000,70451.200000,LowGoal,3255.000000,-3272.727273,Speed,3217.500000,-3272.727273,Speed,Off,Off,0.000000,FALSE,53,Read: /home/lvuser/scripts/auto_53.bee,File good!,SEARCH_FOR_GOAL,SEARCH_FOR_GOAL,0.000000,0.000000,-0.608000
07:14:03.903 PM 04/15/2016,Autonomous Enabled,11,FALSE,0,NO ERROR,0.507870,-17.164543,0.507870,18.236124,TRUE,FALSE,TRUE,TRUE,FALSE,TRUE,PID,-0.575000,23.712000,-26.142000,TRUE,-0.207703,-0.421738,0.000000,-0.137756,-0.089890,0.000000,-0.311000,-0.175000,0.312000,1.550000,-2.360000,-1.670000,-1.930232,Hold,55.229736,50.000000,Hold,-70662.000000,70451.200000,LowGoal,3247.500000,-3272.727273,Speed,3210.000000,-3272.727273,Speed,Off,Off,0.000000,FALSE,53,Read: /home/lvuser/scripts/auto_53.bee,File good!,SEARCH_FOR_GOAL,SEARCH_FOR_GOAL,0.000000,0.000000,-0.608000
07:14:04.004 PM 04/15/2016,Autonomous Enabled,9,FALSE,0,NO ERROR,0.395044,-15.271631,0.395044,19.981453,TRUE,FALSE,TRUE,TRUE,FALSE,TRUE,PID,-0.575000,23.712000,-26.142000,TRUE,-0.214386,-0.431671,0.000000,-0.082352,-0.257950,0.000000,0.014000,-0.012000,0.068000,0.330000,-8.310000,-2.020000,-7.861226,Hold,55.293945,50.000000,Hold,-70668.000000,70451.200000,LowGoal,3202.500000,-3272.727273,Speed,3157.500000,-3272.727273,Speed,Off,Off,0.000000,FALSE,53,Read: /home/lvuser/scripts/auto_53.bee,File good!,SEARCH_FOR_GOAL,SEARCH_FOR_GOAL,0.000000,0.000000,-0.608000
07:14:04.104 PM 04/15/2016,Autonomous Enabled,9,FALSE,0,NO ERROR,0.243690,-13.057886,0.243690,22.304281,TRUE,FALSE,TRUE,TRUE,FALSE,TRUE,PID,-0.575000,23.712000,-26.142000,TRUE,-0.216782,-0.440247,0.000000,-0.044418,-0.081390,0.000000,-0.025000,0.209000,-0.001000,1.380000,-19.270000,-1.240000,-19.303332,Hold,55.208252,50.000000,Hold,-70486.000000,70451.200000,LowGoal,3180.000000,-3272.727273,Speed,3172.500000,-3272.727273,Speed,Off,Off,0.000000,FALSE,53,Read: /home/lvuser/scripts/auto_53.bee,File good!,SEARCH_FOR_GOAL,SEARCH_FOR_GOAL,0.000000,0.000000,-0.608000
07:14:04.205 PM 04/15/2016,Autonomous Enabled,9,FALSE,0,NO ERROR,-0.237632,-11.216307,-0.237632,24.107360,TRUE,FALSE,TRUE,TRUE,FALSE,TRUE,PID,-0.575000,23.712000,-26.142000,TRUE,-0.215424,-0.445389,0.000000,0.106674,-0.146210,0.000000,0.065000,0.130000,0.004000,0.610000,-26.980000,-1.010000,-27.433487,Hold,55.202393,50.000000,Hold,-70615.000000,70451.200000,LowGoal,3195.000000,-3272.727273,Speed,3225.000000,-3272.727273,Speed,Off,Off,0.000000,FALSE,53,Read: /home/lvuser/scripts/auto_53.bee,File good!,SEARCH_FOR_GOAL,SEARCH_FOR_GOAL,0.000000,0.000000,-0.608000
07:14:04.305 PM 04/15/2016,Autonomous Enabled,12,FALSE,0,NO ERROR,-0.266876,-10.645225,-0.266876,24.652776,TRUE,FALSE,TRUE,TRUE,FALSE,TRUE,PID,-0.575000,23.712000,-26.142000,TRUE,-0.206497,-0.448746,0.000000,0.204498,0.047119,0.000000,-0.102000,0.416000,0.091000,1.740000,-31.260000,-0.280000,-32.008919,Hold,55.190674,50.000000,Hold,-70547.000000,70451.200000,LowGoal,3225.000000,-3272.727273,Speed,3247.500000,-3272.727273,Speed,Off,Off,0.000000,FALSE,53,Read: /home/lvuser/scripts/auto_53.bee,File good!,SEARCH_FOR_GOAL,SEARCH_FOR_GOAL,0.000000,0.000000,-0.608000
07:14:04.405 PM 04/15/2016,Autonomous Enabled,10,FALSE,0,NO ERROR,-0.228341,-11.293307,-0.228341,23.863528,TRUE,FALSE,TRUE,TRUE,FALSE,TRUE,PID,-0.575000,23.712000,-26.142000,TRUE,-0.197922,-0.435196,0.000000,0.199814,0.313736,0.000000,0.104000,-0.091000,-0.130000,2.290000,-29.100000,0.260000,-29.899898,Hold,55.150146,50.000000,Hold,-70546.000000,70451.200000,LowGoal,3247.500000,-3272.727273,Speed,3240.000000,-3272.727273,Speed,Off,Off,0.000000,FALSE,53,Read: /home/lvuser/scripts/auto_53.bee,File good!,SEARCH_FOR_GOAL,SEARCH_FOR_GOAL,0.000000,0.000000,-0.608000
07:14:04.507 PM 04/15/2016,Autonomous Enabled,11,FALSE,0,NO ERROR,0.000000,-12.050472,-0.000000,22.997280,TRUE,FALSE,TRUE,TRUE,FALSE,TRUE,Suspended,-0.575000,23.712000,-26.142000,TRUE,-0.186111,-0.429657,0.000000,0.230591,-0.004791,0.000000,-0.045000,-0.101000,-0.153000,2.220000,-25.720000,0.070000,-26.328660,Hold,55.150146,50.000000,Hold,-70546.000000,70451.200000,LowGoal,3277.500000,-3272.727273,Speed,3225.000000,-3272.727273,Speed,Off,Off,0.000000,FALSE,53,Read: /home/lvuser/scripts/auto_53.bee,File good!,SEARCH_FOR_GOAL,SEARCH_FOR_GOAL,0.000000,0.000000,-0.608000
07:14:04.607 PM 04/15/2016,Autonomous Enabled,9,FALSE,0,NO ERROR,0.000000,-12.319971,-0.000000,22.734197,TRUE,FALSE,TRUE,TRUE,FALSE,TRUE,Suspended,-0.575000,23.712000,-26.142000,TRUE,-0.174927,-0.433731,0.000000,0.221588,-0.142426,0.000000,0.074000,-0.171000,0.033000,1.600000,-24.050000,-0.170000,-24.567110,Hold,55.147705,50.000000,Hold,-70546.000000,70451.200000,LowGoal,3292.500000,-3272.727273,Speed,3232.500000,-3272.727273,Speed,Off,Off,0.000000,FALSE,53,Read: /home/lvuser/scripts/auto_53.bee,File good!,SEARCH_FOR_GOAL,SEARCH_FOR_GOAL,0.000000,0.000000,-0.608000
07:14:04.706 PM 04/15/2016,Autonomous Enabled,12,FALSE,0,NO ERROR,0.000000,-12.230138,-0.000000,22.824030,TRUE,FALSE,TRUE,TRUE,FALSE,TRUE,Suspended,-0.575000,23.712000,-26.142000,TRUE,-0.161819,-0.444275,0.000000,0.226089,-0.167236,0.000000,0.029000,-0.043000,0.003000,1.710000,-24.680000,-0.310000,-25.149178,Hold,55.147705,50.000000,Hold,-70546.000000,70451.200000,LowGoal,3285.000000,-3272.727273,Speed,3232.500000,-3272.727273,Speed,Off,Off,0.000000,FALSE,53,Read: /home/lvuser/scripts/auto_53.bee,File good!,SEARCH_FOR_GOAL,SEARCH_FOR_GOAL,0.000000,0.000000,-0.608000
07:14:04.807 PM 04/15/2016,Autonomous Enabled,10,FALSE,0,NO ERROR,0.000000,-12.230138,-0.000000,22.824030,TRUE,FALSE,TRUE,TRUE,FALSE,TRUE,Suspended,0.015625,0.677625,-25.277625,TRUE,-0.154709,-0.451813,0.000000,0.000000,-0.179520,0.000000,0.001000,0.006000,0.016000,1.790000,-24.610000,-0.330000,-25.133776,Hold,55.147705,50.000000,Hold,-70546.000000,70451.200000,LowGoal,3270.000000,-3272.727273,Speed,3247.500000,-3272.727273,Speed,Off,Off,0.000000,FALSE,53,Read: /home/lvuser/scripts/auto_53.bee,File good!,SEARCH_FOR_GOAL,SEARCH_FOR_GOAL,0.000000,0.000000,-0.017375
07:14:04.906 PM 04/15/2016,Autonomous Enabled,9,FALSE,0,NO ERROR,0.000000,-12.230138,-0.000000,22.824030,TRUE,FALSE,TRUE,TRUE,FALSE,TRUE,Suspended,0.015625,0.677625,-25.277625,TRUE,-0.152985,-0.462143,0.000000,0.064285,-0.177582,0.000000,0.027000,0.003000,0.036000,1.750000,-24.610000,-0.280000,-25.152015,Hold,55.147461,50.000000,Hold,-70546.000000,70451.200000,Shoot,3262.500000,-3272.727273,Speed,3255.000000,-3272.727273,Speed,Off,Off,0.000000,FALSE,53,Read: /home/lvuser/scripts/auto_53.bee,File good!,SEARCH_FOR_GOAL,SEARCH_FOR_GOAL,0.000000,0.000000,-0.017375
07:14:05.007 PM 04/15/2016,Autonomous Enabled,10,FALSE,0,NO ERROR,0.000000,-12.230138,-0.000000,22.824030,TRUE,FALSE,TRUE,TRUE,FALSE,TRUE,Suspended,0.015625,0.677625,-25.277625,TRUE,-0.148727,-0.471298,0.000000,0.101303,-0.185013,0.000000,-0.047000,-0.024000,0.024000,1.730000,-24.630000,-0.280000,-25.154355,Hold,55.147461,50.000000,Hold,-70546.000000,70451.200000,Shoot,3262.500000,-3272.727273,Speed,3255.000000,-3272.727273,Speed,Off,On,0.000000,FALSE,53,Read: /home/lvuser/scripts/auto_53.bee,File good!,SEARCH_FOR_GOAL,SEARCH_FOR_GOAL,0.000000,0.000000,-0.017375
07:14:05.106 PM 04/15/2016,Autonomous Enabled,11,FALSE,0,NO ERROR,0.000000,-12.230138,-0.000000,22.824030,TRUE,FALSE,TRUE,TRUE,FALSE,FALSE,Disabled,0.015625,0.677625,-25.277625,TRUE,-0.145737,-0.479950,0.000000,0.022827,-0.166656,0.000000,0.088000,0.050000,0.054000,1.700000,-24.630000,-0.270000,-25.237562,Hold,55.147461,50.000000,Hold,-70546.000000,70451.200000,Shoot,3262.500000,-3272.727273,Speed,3255.000000,-3272.727273,Speed,Off,On,0.000000,FALSE,53,Read: /home/lvuser/scripts/auto_53.bee,File good!,WAIT 500,WAIT,0.000000,0.000000,-0.017375
07:14:05.206 PM 04/15/2016,Autonomous Enabled,9,FALSE,0,NO ERROR,0.000000,-12.230138,-0.000000,22.824030,TRUE,FALSE,TRUE,TRUE,FALSE,FALSE,Disabled,0.015625,0.677625,-25.277625,TRUE,-0.143082,-0.488281,0.000000,0.069458,-0.164627,0.000000,0.052000,0.023000,0.025000,1.670000,-24.620000,-0.180000,-25.233982,Hold,55.147461,50.000000,Hold,-70546.000000,70451.200000,Shoot,3277.500000,-3272.727273,Speed,3247.500000,-3272.727273,Speed,Off,On,0.000000,FALSE,53,Read: /home/lvuser/scripts/auto_53.bee,File good!,WAIT 500,WAIT,0.000000,0.000000,-0.017375
07:14:05.306 PM 04/15/2016,Autonomous Enabled,11,FALSE,0,NO ERROR,0.000000,-12.230138,-0.000000,22.824030,TRUE,FALSE,TRUE,TRUE,FALSE,FALSE,Disabled,0.015625,0.677625,-25.277625,TRUE,-0.138824,-0.494705,0.000000,0.089127,-0.110672,0.000000,-0.034000,0.082000,0.047000,1.670000,-24.620000,-0.270000,-25.229472,Hold,55.147461,50.000000,Hold,-70546.000000,70451.200000,Shoot,3277.500000,-3272.727273,Speed,3255.000000,-3272.727273,Speed,On,On,0.000000,FALSE,53,Read: /home/lvuser/scripts/auto_53.bee,File good!,WAIT 500,WAIT,0.000000,0.000000,-0.017375
07:14:05.406 PM 04/15/2016,Autonomous Enabled,10,FALSE,0,NO ERROR,0.000000,-12.178805,-0.000000,22.824030,TRUE,FALSE,FALSE,TRUE,FALSE,FALSE,Disabled,0.015625,0.677625,-25.277625,TRUE,-0.133072,-0.500824,0.000000,0.163879,-0.139984,0.000000,0.158000,-0.109000,0.041000,1.620000,-24.620000,-0.230000,-25.197708,Hold,55.147461,50.000000,Hold,-70546.000000,70451.200000,Shoot,3240.000000,-3272.727273,Speed,3127.500000,-3272.727273,Speed,On,On,0.000000,FALSE,53,Read: /home/lvuser/scripts/auto_53.bee,File good!,WAIT 500,WAIT,0.000000,0.000000,-0.017375
07:14:05.506 PM 04/15/2016,Autonomous Enabled,10,FALSE,0,NO ERROR,0.000000,-12.178805,-0.000000,22.824030,TRUE,FALSE,FALSE,TRUE,FALSE,FALSE,Disabled,0.015625,0.677625,-25.277625,TRUE,-0.120224,-0.509903,0.000000,0.302383,-0.197357,0.000000,-0.159000,0.117000,-0.108000,1.590000,-24.650000,-0.200000,-25.212893,Hold,55.147461,50.000000,Hold,-70545.000000,70451.200000,Shoot,2400.000000,-3272.727273,Speed,2385.000000,-3272.727273,Speed,On,On,0.000000,FALSE,53,Read: /home/lvuser/scripts/auto_53.bee,File good!,WAIT 500,WAIT,0.000000,0.000000,-0.017375
07:14:05.606 PM 04/15/2016,Autonomous Enabled,10,FALSE,0,NO ERROR,0.000000,-12.178805,-0.000000,22.824030,TRUE,FALSE,FALSE,TRUE,FALSE,FALSE,Disabled,0.015625,0.677625,-25.277625,TRUE,-0.106598,-0.519394,0.000000,0.262756,-0.204391,0.000000,0.023000,-0.004000,-0.033000,1.620000,-24.660000,-0.250000,-25.215457,Hold,55.147461,50.000000,Hold,-70545.000000,70451.200000,Shoot,2595.000000,-3272.727273,Speed,2557.500000,-3272.727273,Speed,On,On,0.000000,FALSE,53,Read: /home/lvuser/scripts/auto_53.bee,File good!,WAIT 500,WAIT,0.000000,0.000000,-0.017375
07:14:05.706 PM 04/15/2016,Autonomous Enabled,10,FALSE,0,NO ERROR,0.000000,-12.178805,-0.000000,22.824030,TRUE,FALSE,FALSE,TRUE,FALSE,FALSE,Disabled,0.015625,0.677625,-25.277625,TRUE,-0.091492,-0.531830,0.000000,0.246262,-0.222977,0.000000,-0.001000,-0.054000,-0.092000,1.600000,-24.650000,-0.240000,-25.203395,Hold,55.147461,50.000000,Hold,-70545.000000,70451.200000,Shoot,2940.000000,-3272.727273,Speed,2872.500000,-3272.727273,Speed,On,On,0.000000,FALSE,53,Read: /home/lvuser/scripts/auto_53.bee,File good!,WAIT 500,WAIT,0.000000,0.000000,-0.017375
07:14:05.806 PM 04/15/2016,Autonomous Enabled,10,FALSE,0,NO ERROR,0.000000,-12.178805,-0.000000,22.824030,TRUE,FALSE,FALSE,TRUE,FALSE,FALSE,Disabled,0.031250,0.677625,-25.277625,TRUE,-0.081848,-0.542694,0.000000,0.160477,-0.209991,0.000000,-0.090000,0.013000,-0.012000,1.600000,-24.650000,-0.240000,-25.203625,Hold,55.147461,50.000000,Hold,-70545.000000,70451.200000,Shoot,3210.000000,-3272.727273,Speed,3135.000000,-3272.727273,Speed,On,On,0.000000,FALSE,53,Read: /home/lvuser/scripts/auto_53.bee,File good!,WAIT 500,WAIT,0.000000,0.000000,-0.001750
07:14:05.906 PM 04/15/2016,Autonomous Enabled,11,FALSE,0,NO ERROR,0.000000,-12.178805,-0.000000,22.824030,TRUE,FALSE,FALSE,TRUE,FALSE,FALSE,Disabled,0.031250,0.677625,-25.277625,TRUE,-0.074570,-0.545563,0.000000,0.147629,-0.032455,0.000000,0.043000,0.084000,-0.072000,1.590000,-24.650000,-0.270000,-25.204255,Hold,55.147461,50.000000,Hold,-70545.000000,70451.200000,Shoot,3322.500000,-3272.727273,Speed,3292.500000,-3272.727273,Speed,On,On,0.000000,FALSE,53,Read: /home/lvuser/scripts/auto_53.bee,File good!,WAIT 500,WAIT,0.000000,0.000000,-0.001750
07:14:06.006 PM 04/15/2016,Autonomous Enabled,10,FALSE,0,NO ERROR,0.000000,-12.178805,-0.000000,22.824030,TRUE,FALSE,FALSE,TRUE,FALSE,FALSE,Disabled,0.031250,0.677625,-25.277625,TRUE,-0.065811,-0.546356,0.000000,0.201477,-0.000946,0.000000,0.044000,-0.081000,0.010000,1.570000,-24.650000,-0.200000,-25.203429,Hold,55.147461,50.000000,Hold,-70545.000000,70451.200000,Shoot,3285.000000,-3272.727273,Speed,3285.000000,-3272.727273,Speed,On,On,0.000000,FALSE,53,Read: /home/lvuser/scripts/auto_53.bee,File good!,WAIT 500,WAIT,0.000000,0.000000,-0.001750
07:14:06.106 PM 04/15/2016,Autonomous Enabled,10,FALSE,0,NO ERROR,0.000000,-12.178805,-0.000000,22.824030,TRUE,FALSE,FALSE,TRUE,FALSE,FALSE,Disabled,0.031250,0.677625,-25.277625,TRUE,-0.055161,-0.547043,0.000000,0.224091,-0.021866,0.000000,0.008000,-0.020000,-0.036000,1.560000,-24.650000,-0.230000,-25.200947,Hold,55.147461,50.000000,Hold,-70545.000000,70451.200000,Shoot,3255.000000,-3272.727273,Speed,3255.000000,-3272.727273,Speed,On,On,0.000000,FALSE,53,Read: /home/lvuser/scripts/auto_53.bee,File good!,WAIT 500,WAIT,0.000000,0.000000,-0.001750
07:14:06.206 PM 04/15/2016,Autonomous Enabled,10,FALSE,0,NO ERROR,0.000000,-12.178805,-0.000000,22.824030,TRUE,FALSE,FALSE,TRUE,FALSE,FALSE,Disabled,0.031250,0.677625,-25.277625,TRUE,-0.055161,-0.547043,0.000000,0.224091,-0.021866,0.000000,0.008000,-0.020000,-0.036000,1.560000,-24.650000,-0.230000,-25.192726,Hold,55.147461,50.000000,Hold,-70545.000000,70451.200000,Shoot,3270.000000,-3272.727273,Speed,3255.000000,-3272.727273,Speed,On,On,0.000000,FALSE,53,Read: /home/lvuser/scripts/auto_53.bee,File good!,STOP_ALL,STOP_ALL,0.000000,0.000000,-0.001750
07:14:06.307 PM 04/15/2016,Autonomous Enabled,10,FALSE,0,NO ERROR,0.000000,-12.178805,-0.000000,22.824030,TRUE,FALSE,FALSE,TRUE,FALSE,FALSE,Disabled,0.031250,0.677625,-25.277625,TRUE,-0.042953,-0.547974,0.000000,0.053604,0.003342,0.000000,0.065000,-0.015000,-0.064000,1.530000,-24.650000,-0.180000,-25.182467,Hold,55.147461,50.000000,Hold,-70545.000000,70451.200000,Shoot,3285.000000,-3272.727273,Speed,3255.000000,-3272.727273,Speed,On,On,0.000000,FALSE,53,Read: /home/lvuser/scripts/auto_53.bee,File good!,STOP_ALL,STOP_ALL,0.000000,0.000000,-0.001750
07:14:06.407 PM 04/15/2016,Autonomous Enabled,10,FALSE,0,NO ERROR,0.000000,-12.178805,-0.000000,22.824030,TRUE,FALSE,FALSE,TRUE,FALSE,FALSE,Disabled,0.031250,0.677625,-25.277625,TRUE,-0.039001,-0.547104,0.000000,0.095627,0.032913,0.000000,0.003000,0.059000,-0.019000,1.540000,-24.650000,-0.200000,-25.170925,Hold,55.147461,50.000000,Hold,-70545.000000,70451.200000,Shoot,3277.500000,-3272.727273,Speed,3262.500000,-3272.727273,Speed,On,On,0.000000,FALSE,53,Read: /home/lvuser/scripts/auto_53.bee,File good!,STOP_ALL,STOP_ALL,0.000000,0.000000,-0.001750
07:14:06.507 PM 04/15/2016,Autonomous Enabled,11,FALSE,0,NO ERROR,0.000000,-12.178805,-0.000000,22.824030,TRUE,FALSE,FALSE,TRUE,FALSE,FALSE,Disabled,0.031250,0.677625,-25.277625,TRUE,-0.034302,-0.545288,0.000000,0.134476,0.043152,0.000000,0.085000,-0.053000,0.011000,1.540000,-24.650000,-0.200000,-25.157629,Hold,55.147217,50.000000,Hold,-70544.000000,70451.200000,Shoot,3255.000000,-3272.727273,Speed,3262.500000,-3272.727273,Speed,On,On,0.000000,FALSE,53,Read: /home/lvuser/scripts/auto_53.bee,File good!,STOP_ALL,STOP_ALL,0.000000,0.000000,-0.001750
07:14:06.607 PM 04/15/2016,Autonomous Enabled,10,FALSE,0,NO ERROR,0.000000,-12.178805,-0.000000,22.824030,TRUE,FALSE,FALSE,TRUE,FALSE,FALSE,Disabled,0.031250,0.677625,-25.277625,TRUE,-0.024429,-0.543808,0.000000,0.188751,0.019806,0.000000,0.085000,-0.053000,0.011000,1.520000,-24.650000,-0.140000,-25.159778,Hold,55.147217,50.000000,Hold,-70544.000000,70451.200000,Dwell,3240.000000,-3272.727273,Speed,3262.500000,-3272.727273,Speed,Off,On,0.000000,FALSE,53,Read: /home/lvuser/scripts/auto_53.bee,File good!,STOP_ALL,STOP_ALL,0.000000,0.000000,-0.001750
07:14:06.707 PM 04/15/2016,Autonomous Enabled,8,FALSE,0,NO ERROR,0.000000,-12.178805,-0.000000,22.824030,TRUE,FALSE,FALSE,TRUE,FALSE,FALSE,Disabled,0.031250,0.677625,-25.277625,TRUE,-0.013824,-0.542206,0.000000,0.230774,0.041260,0.000000,0.112000,-0.006000,0.006000,1.520000,-24.650000,-0.070000,-25.141914,Hold,55.147217,50.000000,Hold,-70544.000000,70451.200000,Dwell,3255.000000,-3272.727273,Speed,3262.500000,-3272.727273,Speed,Off,On,0.000000,FALSE,53,Read: /home/lvuser/scripts/auto_53.bee,File good!,STOP_ALL,STOP_ALL,0.000000,0.000000,-0.001750
07:14:06.807 PM 04/15/2016,Autonomous Enabled,11,FALSE,0,NO ERROR,0.000000,-12.178805,-0.000000,22.824030,TRUE,FALSE,FALSE,TRUE,FALSE,FALSE,Disabled,0.025000,0.677625,-25.277625,TRUE,-0.000946,-0.540237,0.000000,0.282639,0.000000,0.000000,-0.072000,0.011000,-0.030000,1.520000,-24.650000,-0.070000,-25.130172,Hold,55.147217,50.000000,Hold,-70544.000000,70451.200000,Dwell,3277.500000,-3272.727273,Speed,3262.500000,-3272.727273,Speed,Off,On,0.000000,FALSE,53,Read: /home/lvuser/scripts/auto_53.bee,File good!,STOP_ALL,STOP_ALL,0.000000,0.000000,-0.008000
