Time,Robot Mode,Loop Time,Error Status,Error Code,Error Source,Left Motor Output,Left Motor Encoder,Right Motor Output,Right Motor Encoder,Is Level,Is Stalled,Ball Detector Photoeye,Vision Enabled,Vision Teleop Control,Vision Auto Control,Vision Current State,Vision X Output,Vision NavX Error,Vision NavX Target,NavX Connection Status,NavX Displacement X,NavX Displacement Y,NavX Displacement Z,NavX Velocity X,NavX Velocity Y,NavX Velocity Z,NavX Acceleration X,NavX Acceleration Y,NavX Acceleration Z,NavX Pitch,NavX Yaw,NavX Roll,Gyro Angle,Roller Arm State,Roller Arm Actual,Roller Arm Desired,Shooter Arm State,Shooter Arm Actual,Shooter Arm Desired,Shooter State,Actual RPM Left,Desired RPM Left,Control Mode Left,Actual RPM Right,Desired RPM Right,Control Mode Right,Ball Shooter Cylinder,Ball Halo Cylinder,Scaler Motor Output,Scaler Solenoid Fire,Auto To Run,Auto Current File,Auto File Status,Auto Current Command,Auto Trimmed Command,Shooter Amps Left,Shooter Amps Right, Vision After Offset
05:07:38.803 PM 04/16/2016,Autonomous Enabled,9,TRUE,-44003,<LOCATION>WPI_CameraIssue HTTP Request with Authentication.vi<CALLSTACK>WPI_CameraIssue HTTP Request with Authentication.vi< <WPI_CameraIssue Get.vi< <WPI_CameraSet Image Appearance Property.vi< <WPI_CameraSet Image Size.vi< <Vision Processing.vi< <Robot Main.vi,0.000000,0.000000,0.000000,0.000000,TRUE,FALSE,TRUE,TRUE,FALSE,FALSE,Disabled,0.000000,0.000000,0.000000,TRUE,0.000000,0.000000,0.000000,0.000000,0.000000,0.000000,0.001000,0.004000,0.007000,1.650000,-1.370000,0.030000,9.564449,ResetBack,0.000000,-0.000049,ResetBack,0.000000,-0.250000,LowGoal,0.000000,-2181.818182,Speed,0.000000,-2181.818182,Speed,Off,Off,0.000000,FALSE,45,,,,,0.000000,0.000000,-0.033000
05:07:38.903 PM 04/16/2016,Autonomous Enabled,12,TRUE,7,Read from Text File in DoesScriptNumberContainNull.vi->Disabled.vi->Robot Main.vi<APPEND> /home/lvuser/scripts/auto_42.bee,0.000000,0.000000,-0.000000,0.000000,TRUE,FALSE,TRUE,TRUE,FALSE,FALSE,Disabled,0.000000,0.000000,0.000000,TRUE,0.000000,0.000000,0.000000,0.000000,0.000000,0.000000,-0.134000,0.031000,0.015000,1.640000,-1.370000,0.080000,9.565637,ResetBack,-0.950928,-0.000049,ResetBack,1393.000000,-0.250000,LowGoal,45.000000,-2181.818182,Speed,15.000000,-2181.818182,Speed,Off,Off,0.000000,FALSE,45,Read: /home/lvuser/scripts/auto_45.bee,File good!,WAIT 1500,WAIT,0.000000,0.000000,-0.033000
05:07:39.003 PM 04/16/2016,Autonomous Enabled,9,TRUE,7,Read from Text File in DoesScriptNumberContainNull.vi->Disabled.vi->Robot Main.vi<APPEND> /home/lvuser/scripts/auto_42.bee,0.000000,0.000000,-0.000000,0.000000,TRUE,FALSE,TRUE,TRUE,FALSE,FALSE,Disabled,0.000000,0.000000,0.000000,TRUE,-0.000870,-0.000092,0.000000,-0.017822,-0.011841,0.000000,-0.071000,0.057000,0.013000,1.650000,-1.370000,0.040000,9.573317,ResetBack,-0.951416,-0.000049,ResetBack,6620.000000,-0.250000,LowGoal,547.500000,-2181.818182,Speed,480.000000,-2181.818182,Speed,Off,Off,0.000000,FALSE,45,Read: /home/lvuser/scripts/auto_45.bee,File good!,WAIT 1500,WAIT,0.000000,0.000000,-0.033000
05:07:39.102 PM 04/16/2016,Autonomous Enabled,11,TRUE,7,Read from Text File in DoesScriptNumberContainNull.vi->Disabled.vi->Robot Main.vi<APPEND> /home/lvuser/scripts/auto_42.bee,0.000000,0.000000,-0.000000,0.000000,TRUE,FALSE,TRUE,TRUE,FALSE,FALSE,Disabled,0.000000,0.000000,0.000000,TRUE,-0.002670,0.000015,0.000000,-0.050507,0.004944,0.000000,-0.084000,0.015000,-0.012000,1.660000,-1.380000,0.050000,9.576140,ResetBack,-0.951416,-0.000049,ResetBack,6620.000000,-0.250000,LowGoal,1147.500000,-2181.818182,Speed,1147.500000,-2181.818182,Speed,Off,Off,0.000000,FALSE,45,Read: /home/lvuser/scripts/auto_45.bee,File good!,WAIT 1500,WAIT,0.000000,0.000000,-0.033000
05:07:39.203 PM 04/16/2016,Autonomous Enabled,10,TRUE,7,Read from Text File in DoesScriptNumberContainNull.vi->Disabled.vi->Robot Main.vi<APPEND> /home/lvuser/scripts/auto_42.bee,0.000000,0.000000,-0.000000,0.000000,TRUE,FALSE,TRUE,TRUE,FALSE,FALSE,Disabled,0.000000,0.000000,0.000000,TRUE,-0.007034,0.000732,0.000000,-0.086960,0.010788,0.000000,-0.031000,0.017000,-0.037000,1.690000,-1.370000,0.030000,9.574057,Reset,-0.952637,-0.000049,ResetBack,7127.000000,-0.250000,LowGoal,1642.500000,-2181.818182,Speed,1702.500000,-2181.818182,Speed,Off,Off,0.000000,FALSE,45,Read: /home/lvuser/scripts/auto_45.bee,File good!,WAIT 1500,WAIT,0.000000,0.000000,-0.033000
05:07:39.308 PM 04/16/2016,Autonomous Enabled,11,TRUE,7,Read from Text File in DoesScriptNumberContainNull.vi->Disabled.vi->Robot Main.vi<APPEND> /home/lvuser/scripts/auto_42.bee,0.000000,0.000000,-0.000000,0.000000,TRUE,FALSE,TRUE,TRUE,FALSE,FALSE,Disabled,0.000000,0.000000,0.000000,TRUE,-0.012665,0.002121,0.000000,-0.101364,0.051788,0.000000,-0.049000,0.083000,-0.068000,1.650000,-1.370000,0.010000,9.582412,Hold,-0.965088,0.000000,ResetBack,7127.000000,-0.250000,LowGoal,2047.500000,-2181.818182,Speed,2115.000000,-2181.818182,Speed,Off,Off,0.000000,FALSE,45,Read: /home/lvuser/scripts/auto_45.bee,File good!,WAIT 1500,WAIT,0.000000,0.000000,-0.033000
05:07:39.408 PM 04/16/2016,Autonomous Enabled,8,TRUE,7,Read from Text File in DoesScriptNumberContainNull.vi->Disabled.vi->Robot Main.vi<APPEND> /home/lvuser/scripts/auto_42.bee,0.000000,0.000000,-0.000000,0.000000,TRUE,FALSE,TRUE,TRUE,FALSE,FALSE,Disabled,0.000000,0.000000,0.000000,TRUE,-0.014816,0.006943,0.000000,-0.009537,0.127304,0.000000,-0.052000,0.190000,-0.007000,1.630000,-1.370000,0.060000,9.583331,Hold,0.009033,0.000000,ResetBack,7248.000000,-0.250000,LowGoal,2205.000000,-2181.818182,Speed,2115.000000,-2181.818182,Speed,Off,Off,0.000000,FALSE,45,Read: /home/lvuser/scripts/auto_45.bee,File good!,WAIT 1500,WAIT,0.000000,0.000000,-0.033000
05:07:39.509 PM 04/16/2016,Autonomous Enabled,10,TRUE,7,Read from Text File in DoesScriptNumberContainNull.vi->Disabled.vi->Robot Main.vi<APPEND> /home/lvuser/scripts/auto_42.bee,0.000000,0.000000,-0.000000,0.000000,TRUE,FALSE,TRUE,TRUE,FALSE,FALSE,Disabled,0.000000,0.000000,0.000000,TRUE,-0.017914,0.017883,0.000000,-0.098236,0.262543,0.000000,-0.074000,0.081000,0.043000,1.640000,-1.370000,0.090000,9.587118,Hold,0.009277,0.000000,ResetBack,7248.000000,-0.250000,LowGoal,2145.000000,-2181.818182,Speed,2167.500000,-2181.818182,Speed,Off,Off,0.000000,FALSE,45,Read: /home/lvuser/scripts/auto_45.bee,File good!,WAIT 1500,WAIT,0.000000,0.000000,-0.033000
05:07:39.609 PM 04/16/2016,Autonomous Enabled,10,TRUE,7,Read from Text File in DoesScriptNumberContainNull.vi->Disabled.vi->Robot Main.vi<APPEND> /home/lvuser/scripts/auto_42.bee,0.000000,0.000000,-0.000000,0.000000,TRUE,FALSE,TRUE,TRUE,FALSE,FALSE,Disabled,0.000000,0.000000,0.000000,TRUE,-0.024139,0.032715,0.000000,-0.141312,0.314301,0.000000,0.015000,-0.004000,-0.070000,1.650000,-1.370000,0.040000,9.594299,Hold,0.009277,0.000000,ResetBack,7798.000000,-0.250000,LowGoal,2077.500000,-2181.818182,Speed,2167.500000,-2181.818182,Speed,Off,Off,0.000000,FALSE,45,Read: /home/lvuser/scripts/auto_45.bee,File good!,WAIT 1500,WAIT,0.000000,0.000000,-0.033000
05:07:39.712 PM 04/16/2016,Autonomous Enabled,10,TRUE,7,Read from Text File in DoesScriptNumberContainNull.vi->Disabled.vi->Robot Main.vi<APPEND> /home/lvuser/scripts/auto_42.bee,0.000000,0.000000,-0.000000,0.000000,TRUE,FALSE,TRUE,TRUE,FALSE,FALSE,Disabled,0.000000,0.000000,0.000000,TRUE,-0.030838,0.048584,0.000000,-0.135040,0.326462,0.000000,-0.088000,-0.051000,0.000000,1.640000,-1.370000,0.110000,9.585648,Hold,0.009277,0.000000,ResetBack,8074.000000,-0.250000,LowGoal,2092.500000,-2181.818182,Speed,2130.000000,-2181.818182,Speed,Off,Off,0.000000,FALSE,45,Read: /home/lvuser/scripts/auto_45.bee,File good!,WAIT 1500,WAIT,0.000000,0.000000,-0.033000
05:07:39.814 PM 04/16/2016,Autonomous Enabled,10,TRUE,7,Read from Text File in DoesScriptNumberContainNull.vi->Disabled.vi->Robot Main.vi<APPEND> /home/lvuser/scripts/auto_42.bee,0.000000,0.000000,-0.000000,0.000000,TRUE,FALSE,TRUE,TRUE,FALSE,FALSE,Disabled,0.000000,0.000000,0.000000,TRUE,-0.038345,0.065552,0.000000,-0.145004,0.356659,0.000000,-0.003000,-0.010000,-0.017000,1.650000,-1.370000,0.090000,9.586388,Hold,0.009277,0.000000,ResetBack,8230.000000,-0.250000,LowGoal,2122.500000,-2181.818182,Speed,2122.500000,-2181.818182,Speed,Off,Off,0.000000,FALSE,45,Read: /home/lvuser/scripts/auto_45.bee,File good!,WAIT 1500,WAIT,0.000000,0.000000,-0.033000
05:07:39.915 PM 04/16/2016,Autonomous Enabled,10,TRUE,7,Read from Text File in DoesScriptNumberContainNull.vi->Disabled.vi->Robot Main.vi<APPEND> /home/lvuser/scripts/auto_42.bee,0.000000,0.000000,-0.000000,0.000000,TRUE,FALSE,TRUE,TRUE,FALSE,FALSE,Disabled,0.000000,0.000000,0.000000,TRUE,-0.045593,0.083649,0.000000,-0.149490,0.372635,0.000000,-0.083000,0.061000,0.045000,1.650000,-1.370000,0.040000,9.573864,Hold,0.009277,0.000000,ResetBack,8244.000000,-0.250000,LowGoal,2122.500000,-2181.818182,Speed,2137.500000,-2181.818182,Speed,Off,Off,0.000000,FALSE,45,Read: /home/lvuser/scripts/auto_45.bee,File good!,WAIT 1500,WAIT,0.000000,0.000000,-0.033000
05:07:40.015 PM 04/16/2016,Autonomous Enabled,10,TRUE,7,Read from Text File in DoesScriptNumberContainNull.vi->Disabled.vi->Robot Main.vi<APPEND> /home/lvuser/scripts/auto_42.bee,0.000000,0.000000,-0.000000,0.000000,TRUE,FALSE,TRUE,TRUE,FALSE,FALSE,Disabled,0.000000,0.000000,0.000000,TRUE,-0.045883,0.102829,0.000000,0.006042,0.392731,0.000000,-0.038000,0.067000,-0.032000,1.650000,-1.370000,0.040000,9.584467,Hold,0.009277,0.000000,ResetBack,8255.000000,-0.250000,LowGoal,2107.500000,-2181.818182,Speed,2137.500000,-2181.818182,Speed,Off,Off,0.000000,FALSE,45,Read: /home/lvuser/scripts/auto_45.bee,File good!,WAIT 1500,WAIT,0.000000,0.000000,-0.033000
05:07:40.115 PM 04/16/2016,Autonomous Enabled,10,TRUE,7,Read from Text File in DoesScriptNumberContainNull.vi->Disabled.vi->Robot Main.vi<APPEND> /home/lvuser/scripts/auto_42.bee,0.000000,0.000000,-0.000000,0.000000,TRUE,FALSE,TRUE,TRUE,FALSE,FALSE,Disabled,0.000000,0.000000,0.000000,TRUE,-0.045624,0.128265,0.000000,0.014297,0.431244,0.000000,-0.006000,-0.061000,-0.096000,1.670000,-1.370000,0.000000,9.587937,Hold,0.009277,0.000000,ResetBack,8277.000000,-0.250000,LowGoal,2092.500000,-2181.818182,Speed,2137.500000,-2181.818182,Speed,Off,Off,0.000000,FALSE,45,Read: /home/lvuser/scripts/auto_45.bee,File good!,WAIT 1500,WAIT,0.000000,0.000000,-0.033000
05:07:40.216 PM 04/16/2016,Autonomous Enabled,10,TRUE,7,Read from Text File in DoesScriptNumberContainNull.vi->Disabled.vi->Robot Main.vi<APPEND> /home/lvuser/scripts/auto_42.bee,0.000000,0.000000,-0.000000,0.000000,TRUE,FALSE,TRUE,TRUE,FALSE,FALSE,Disabled,0.000000,0.000000,0.000000,TRUE,-0.044342,0.147812,0.000000,0.036697,0.363571,0.000000,-0.027000,-0.024000,0.009000,1.630000,-1.380000,0.110000,9.589817,Hold,0.009277,0.000000,Reset,8277.000000,2.000000,LowGoal,2100.000000,-2181.818182,Speed,2130.000000,-2181.818182,Speed,Off,Off,0.000000,FALSE,45,Read: /home/lvuser/scripts/auto_45.bee,File good!,WAIT 1500,WAIT,0.000000,0.000000,-0.033000
05:07:40.316 PM 04/16/2016,Autonomous Enabled,11,TRUE,7,Read from Text File in DoesScriptNumberContainNull.vi->Disabled.vi->Robot Main.vi<APPEND> /home/lvuser/scripts/auto_42.bee,0.000000,0.000000,-0.000000,0.000000,TRUE,FALSE,TRUE,TRUE,FALSE,FALSE,Disabled,0.000000,0.000000,0.000000,TRUE,-0.040771,0.164246,0.000000,0.086456,0.301453,0.000000,-0.027000,-0.024000,0.009000,1.620000,-1.380000,0.160000,9.584027,Hold,0.009277,0.000000,Hold,2.000000,2.000000,LowGoal,2115.000000,-2181.818182,Speed,2137.500000,-2181.818182,Speed,Off,Off,0.000000,FALSE,45,Read: /home/lvuser/scripts/auto_45.bee,File good!,WAIT 1500,WAIT,0.000000,0.000000,-0.033000
05:07:40.416 PM 04/16/2016,Autonomous Enabled,10,TRUE,7,Read from Text File in DoesScriptNumberContainNull.vi->Disabled.vi->Robot Main.vi<APPEND> /home/lvuser/scripts/auto_42.bee,0.000000,0.000000,-0.000000,0.000000,TRUE,FALSE,TRUE,TRUE,FALSE,FALSE,Disabled,0.000000,0.000000,0.000000,TRUE,-0.035507,0.169937,0.000000,0.122147,-0.006866,0.000000,0.033000,-0.043000,0.036000,1.600000,-1.380000,0.240000,-0.001838,Hold,0.009277,0.000000,Hold,-194.000000,2.000000,LowGoal,2115.000000,-2181.818182,Speed,2137.500000,-2181.818182,Speed,Off,Off,0.000000,FALSE,45,Read: /home/lvuser/scripts/auto_45.bee,File good!,NAVX_ZERO_YAW,NAVX_ZERO_YAW,0.000000,0.000000,-0.033000
05:07:40.516 PM 04/16/2016,Autonomous Enabled,10,TRUE,7,Read from Text File in DoesScriptNumberContainNull.vi->Disabled.vi->Robot Main.vi<APPEND> /home/lvuser/scripts/auto_42.bee,-0.562500,-0.154000,0.562500,0.320833,TRUE,FALSE,TRUE,TRUE,FALSE,FALSE,Disabled,0.000000,0.000000,0.000000,TRUE,-0.029526,0.168686,0.000000,0.096817,-0.022186,0.000000,0.017000,-0.058000,0.102000,1.600000,-1.380000,0.240000,-0.006314,Hold,0.009277,0.000000,Hold,-194.000000,2.000000,LowGoal,2115.000000,-2181.818182,Speed,2130.000000,-2181.818182,Speed,Off,Off,0.000000,FALSE,45,Read: /home/lvuser/scripts/auto_45.bee,File good!,DRIVE_STRAIGHT_TARGET 42 0 10000 75,DRIVE_STRAIGHT_TARGET,0.000000,0.000000,-0.033000
05:07:40.617 PM 04/16/2016,Autonomous Enabled,9,TRUE,7,Read from Text File in DoesScriptNumberContainNull.vi->Disabled.vi->Robot Main.vi<APPEND> /home/lvuser/scripts/auto_42.bee,-0.562500,-2.309995,0.562500,2.399828,TRUE,FALSE,TRUE,TRUE,FALSE,FALSE,Disabled,0.000000,0.000000,0.000000,TRUE,-0.006271,0.166977,0.000000,0.630936,-0.027161,0.000000,-0.071000,0.022000,0.021000,1.550000,-0.020000,0.500000,-0.158661,Hold,0.009277,0.000000,Hold,-194.000000,2.000000,LowGoal,2115.000000,-1818.181818,Speed,2130.000000,-1818.181818,Speed,Off,Off,0.000000,FALSE,45,Read: /home/lvuser/scripts/auto_45.bee,File good!,DRIVE_STRAIGHT_TARGET 42 0 10000 75,DRIVE_STRAIGHT_TARGET,0.000000,0.000000,-0.033000
05:07:40.716 PM 04/16/2016,Autonomous Enabled,9,TRUE,7,Read from Text File in DoesScriptNumberContainNull.vi->Disabled.vi->Robot Main.vi<APPEND> /home/lvuser/scripts/auto_42.bee,-0.562500,-5.389987,0.562500,5.422071,FALSE,FALSE,TRUE,TRUE,FALSE,FALSE,Disabled,0.000000,0.000000,0.000000,TRUE,0.033127,0.166794,0.000000,0.878784,0.000656,0.000000,0.217000,0.096000,-0.363000,1.340000,-0.160000,5.050000,-0.090505,Hold,0.009277,0.000000,Hold,-194.000000,2.000000,LowGoal,2055.000000,-1818.181818,Speed,2055.000000,-1818.181818,Speed,Off,Off,0.000000,FALSE,45,Read: /home/lvuser/scripts/auto_45.bee,File good!,DRIVE_STRAIGHT_TARGET 42 0 10000 75,DRIVE_STRAIGHT_TARGET,0.000000,0.000000,-0.033000
05:07:40.817 PM 04/16/2016,Autonomous Enabled,10,TRUE,7,Read from Text File in DoesScriptNumberContainNull.vi->Disabled.vi->Robot Main.vi<APPEND> /home/lvuser/scripts/auto_42.bee,-0.562500,-9.349061,0.562500,9.406811,FALSE,FALSE,TRUE,TRUE,FALSE,FALSE,Disabled,0.000000,0.000000,0.000000,TRUE,0.081970,0.167770,0.000000,1.018723,0.019867,0.000000,0.183000,0.076000,0.163000,1.400000,-0.140000,4.100000,0.066317,Hold,0.009277,0.000000,Hold,-194.000000,2.000000,LowGoal,1762.500000,-1818.181818,Speed,1852.500000,-1818.181818,Speed,Off,Off,0.000000,FALSE,45,Read: /home/lvuser/scripts/auto_45.bee,File good!,DRIVE_STRAIGHT_TARGET 42 0 10000 75,DRIVE_STRAIGHT_TARGET,0.000000,0.000000,-0.033000
05:07:40.916 PM 04/16/2016,Autonomous Enabled,10,TRUE,7,Read from Text File in DoesScriptNumberContainNull.vi->Disabled.vi->Robot Main.vi<APPEND> /home/lvuser/scripts/auto_42.bee,-0.562500,-13.628968,0.562500,13.686718,FALSE,FALSE,TRUE,TRUE,FALSE,FALSE,Disabled,0.000000,0.000000,0.000000,TRUE,0.081970,0.167770,0.000000,1.018723,0.019867,0.000000,-0.021000,-0.061000,-0.094000,1.400000,-0.010000,4.290000,0.017447,Hold,0.009277,0.000000,Hold,-194.000000,2.000000,LowGoal,1597.500000,-1818.181818,Speed,1695.000000,-1818.181818,Speed,Off,Off,0.000000,FALSE,45,Read: /home/lvuser/scripts/auto_45.bee,File good!,DRIVE_STRAIGHT_TARGET 42 0 10000 75,DRIVE_STRAIGHT_TARGET,0.000000,0.000000,-0.033000
05:07:41.019 PM 04/16/2016,Autonomous Enabled,10,TRUE,7,Read from Text File in DoesScriptNumberContainNull.vi->Disabled.vi->Robot Main.vi<APPEND> /home/lvuser/scripts/auto_42.bee,-0.565624,-18.120624,0.559384,18.261791,FALSE,FALSE,TRUE,TRUE,FALSE,FALSE,Disabled,0.000000,0.000000,0.000000,TRUE,0.131119,0.167908,0.000000,0.940918,0.002167,0.000000,0.050000,0.000000,-0.100000,1.410000,-0.120000,3.770000,-0.094977,Hold,0.009277,0.000000,Hold,-194.000000,2.000000,LowGoal,1695.000000,-1818.181818,Speed,1702.500000,-1818.181818,Speed,Off,Off,0.000000,FALSE,45,Read: /home/lvuser/scripts/auto_45.bee,File good!,DRIVE_STRAIGHT_TARGET 42 0 10000 75,DRIVE_STRAIGHT_TARGET,0.000000,0.000000,-0.033000
05:07:41.119 PM 04/16/2016,Autonomous Enabled,11,TRUE,7,Read from Text File in DoesScriptNumberContainNull.vi->Disabled.vi->Robot Main.vi<APPEND> /home/lvuser/scripts/auto_44.bee,-0.568561,-22.779113,0.556471,22.894613,FALSE,FALSE,TRUE,TRUE,FALSE,FALSE,Disabled,0.000000,0.000000,0.000000,TRUE,0.222397,0.169205,0.000000,0.841400,0.025894,0.000000,-0.189000,-0.035000,0.007000,1.450000,-0.170000,3.840000,-0.328664,Hold,0.009521,0.000000,Hold,-194.000000,2.000000,LowGoal,1755.000000,-1818.181818,Speed,1755.000000,-1818.181818,Speed,Off,Off,0.000000,FALSE,45,Read: /home/lvuser/scripts/auto_45.bee,File good!,DRIVE_STRAIGHT_TARGET 42 0 10000 75,DRIVE_STRAIGHT_TARGET,0.000000,0.000000,-0.033000
05:07:41.219 PM 04/16/2016,Autonomous Enabled,10,TRUE,7,Read from Text File in DoesScriptNumberContainNull.vi->Disabled.vi->Robot Main.vi<APPEND> /home/lvuser/scripts/auto_44.bee,-0.570720,-27.424769,0.554340,27.540269,FALSE,FALSE,TRUE,TRUE,FALSE,FALSE,Disabled,0.000000,0.000000,0.000000,TRUE,0.222397,0.169205,0.000000,0.841400,0.025894,0.000000,-0.001000,0.024000,-0.046000,1.510000,-0.350000,3.410000,-0.375456,Hold,0.009521,0.000000,Hold,-194.000000,2.000000,LowGoal,1740.000000,-1818.181818,Speed,1770.000000,-1818.181818,Speed,Off,Off,0.000000,FALSE,45,Read: /home/lvuser/scripts/auto_45.bee,File good!,DRIVE_STRAIGHT_TARGET 42 0 10000 75,DRIVE_STRAIGHT_TARGET,0.000000,0.000000,-0.033000
05:07:41.319 PM 04/16/2016,Autonomous Enabled,9,TRUE,7,Read from Text File in DoesScriptNumberContainNull.vi->Disabled.vi->Robot Main.vi<APPEND> /home/lvuser/scripts/auto_44.bee,-0.570720,-32.057592,0.554340,32.185925,FALSE,FALSE,TRUE,TRUE,FALSE,FALSE,Disabled,0.000000,0.000000,0.000000,TRUE,0.262802,0.171066,0.000000,0.787872,0.040298,0.000000,0.008000,0.056000,0.048000,1.610000,-0.410000,3.160000,-0.387367,Hold,0.009521,0.000000,Hold,-193.000000,2.000000,LowGoal,1717.500000,-1818.181818,Speed,1755.000000,-1818.181818,Speed,Off,Off,0.000000,FALSE,45,Read: /home/lvuser/scripts/auto_45.bee,File good!,DRIVE_STRAIGHT_TARGET 42 0 10000 75,DRIVE_STRAIGHT_TARGET,0.000000,0.000000,-0.033000
05:07:41.420 PM 04/16/2016,Autonomous Enabled,10,TRUE,7,Read from Text File in DoesScriptNumberContainNull.vi->Disabled.vi->Robot Main.vi<APPEND> /home/lvuser/scripts/auto_44.bee,-0.570523,-36.716081,0.554533,36.767414,TRUE,FALSE,TRUE,TRUE,FALSE,FALSE,Disabled,0.000000,0.000000,0.000000,TRUE,0.308380,0.172821,0.000000,0.748520,0.019073,0.000000,-0.105000,0.091000,0.020000,1.570000,-0.410000,2.710000,-0.355289,Hold,0.009521,0.000000,Hold,-193.000000,2.000000,LowGoal,1717.500000,-1818.181818,Speed,1747.500000,-1818.181818,Speed,Off,Off,0.000000,FALSE,45,Read: /home/lvuser/scripts/auto_45.bee,File good!,DRIVE_STRAIGHT_TARGET 42 0 10000 75,DRIVE_STRAIGHT_TARGET,0.000000,0.000000,-0.033000
05:07:41.523 PM 04/16/2016,Autonomous Enabled,10,TRUE,7,Read from Text File in DoesScriptNumberContainNull.vi->Disabled.vi->Robot Main.vi<APPEND> /home/lvuser/scripts/auto_44.bee,-0.569346,-41.361737,0.555696,41.438736,TRUE,FALSE,TRUE,TRUE,FALSE,FALSE,Disabled,0.000000,0.000000,0.000000,TRUE,0.345230,0.174240,0.000000,0.748383,0.021545,0.000000,0.022000,-0.048000,-0.056000,1.540000,-0.350000,2.500000,-0.373549,Hold,0.009521,0.000000,Hold,-193.000000,2.000000,LowGoal,1732.500000,-1818.181818,Speed,1740.000000,-1818.181818,Speed,Off,Off,0.000000,FALSE,45,Read: /home/lvuser/scripts/auto_45.bee,File good!,DRIVE_STRAIGHT_TARGET 42 0 10000 75,DRIVE_STRAIGHT_TARGET,0.000000,0.000000,-0.033000
05:07:41.622 PM 04/16/2016,Autonomous Enabled,10,TRUE,7,Read from Text File in DoesScriptNumberContainNull.vi->Disabled.vi->Robot Main.vi<APPEND> /home/lvuser/scripts/auto_44.bee,0.000000,-41.361737,-0.000000,41.438736,TRUE,FALSE,TRUE,TRUE,FALSE,FALSE,Disabled,0.000000,0.000000,0.000000,TRUE,0.374817,0.174271,0.000000,0.722290,-0.012970,0.000000,-0.045000,-0.065000,0.008000,1.480000,-0.400000,2.090000,-0.373549,Hold,0.009521,58.000000,Hold,-193.000000,2.000000,LowGoal,1725.000000,-1818.181818,Speed,1755.000000,-1818.181818,Speed,Off,Off,0.000000,FALSE,45,Read: /home/lvuser/scripts/auto_45.bee,File good!,WAIT 1000,WAIT,0.000000,0.000000,-0.033000
05:07:41.724 PM 04/16/2016,Autonomous Enabled,10,TRUE,7,Read from Text File in DoesScriptNumberContainNull.vi->Disabled.vi->Robot Main.vi<APPEND> /home/lvuser/scripts/auto_44.bee,0.000000,-45.230978,-0.000000,45.372144,TRUE,FALSE,TRUE,TRUE,FALSE,FALSE,Disabled,0.000000,0.000000,0.000000,TRUE,0.408951,0.173447,0.000000,0.655136,-0.007965,0.000000,-0.087000,-0.065000,-0.020000,1.550000,-0.460000,1.840000,-0.448696,Hold,2.417969,58.000000,Hold,-193.000000,2.000000,LowGoal,1725.000000,-1818.181818,Speed,1755.000000,-1818.181818,Speed,Off,Off,0.000000,FALSE,45,Read: /home/lvuser/scripts/auto_45.bee,File good!,WAIT 1000,WAIT,0.000000,0.000000,-0.033000
05:07:41.825 PM 04/16/2016,Autonomous Enabled,11,TRUE,7,Read from Text File in DoesScriptNumberContainNull.vi->Disabled.vi->Robot Main.vi<APPEND> /home/lvuser/scripts/auto_44.bee,0.000000,-47.066140,-0.000000,47.220140,TRUE,FALSE,TRUE,TRUE,FALSE,FALSE,Disabled,0.000000,0.000000,0.000000,TRUE,0.414902,0.174759,0.000000,-0.343719,0.055466,0.000000,-0.419000,0.010000,-1.090000,1.420000,-0.460000,-1.940000,-0.546096,Hold,6.766357,58.000000,Hold,-197.000000,2.000000,LowGoal,1717.500000,-1818.181818,Speed,1755.000000,-1818.181818,Speed,Off,Off,0.000000,FALSE,45,Read: /home/lvuser/scripts/auto_45.bee,File good!,WAIT 1000,WAIT,0.000000,0.000000,-0.033000
05:07:41.928 PM 04/16/2016,Autonomous Enabled,10,TRUE,7,Read from Text File in DoesScriptNumberContainNull.vi->Disabled.vi->Robot Main.vi<APPEND> /home/lvuser/scripts/auto_44.bee,0.000000,-47.547389,-0.000000,47.617972,TRUE,FALSE,TRUE,TRUE,FALSE,FALSE,Disabled,0.000000,0.000000,0.000000,TRUE,0.387390,0.177078,0.000000,-0.659286,0.030930,0.000000,-0.049000,0.173000,-0.193000,1.590000,-0.400000,-1.320000,-0.536499,Hold,11.341553,58.000000,Hold,-196.000000,2.000000,LowGoal,1725.000000,-1818.181818,Speed,1755.000000,-1818.181818,Speed,Off,Off,0.000000,FALSE,45,Read: /home/lvuser/scripts/auto_45.bee,File good!,WAIT 1000,WAIT,0.000000,0.000000,-0.033000
05:07:42.028 PM 04/16/2016,Autonomous Enabled,10,TRUE,7,Read from Text File in DoesScriptNumberContainNull.vi->Disabled.vi->Robot Main.vi<APPEND> /home/lvuser/scripts/auto_44.bee,0.000000,-47.431889,-0.000000,47.566639,TRUE,FALSE,TRUE,TRUE,FALSE,FALSE,Disabled,0.000000,0.000000,0.000000,TRUE,0.354034,0.180054,0.000000,-0.653931,0.043350,0.000000,-0.035000,0.030000,0.779000,1.650000,-0.370000,-1.300000,-0.503254,Hold,15.498535,58.000000,Hold,-194.000000,2.000000,LowGoal,1740.000000,-1818.181818,Speed,1755.000000,-1818.181818,Speed,Off,Off,0.000000,FALSE,45,Read: /home/lvuser/scripts/auto_45.bee,File good!,WAIT 1000,WAIT,0.000000,0.000000,-0.033000
05:07:42.129 PM 04/16/2016,Autonomous Enabled,9,TRUE,7,Read from Text File in DoesScriptNumberContainNull.vi->Disabled.vi->Robot Main.vi<APPEND> /home/lvuser/scripts/auto_44.bee,0.000000,-47.290723,-0.000000,47.406222,TRUE,FALSE,TRUE,TRUE,FALSE,FALSE,Disabled,0.000000,0.000000,0.000000,TRUE,0.321884,0.181519,0.000000,-0.597015,0.013458,0.000000,0.069000,0.012000,0.467000,1.640000,-0.400000,-1.000000,-0.507151,Hold,20.761963,58.000000,Hold,-192.000000,2.000000,LowGoal,1740.000000,-1818.181818,Speed,1755.000000,-1818.181818,Speed,Off,Off,0.000000,FALSE,45,Read: /home/lvuser/scripts/auto_45.bee,File good!,WAIT 1000,WAIT,0.000000,0.000000,-0.033000
05:07:42.230 PM 04/16/2016,Autonomous Enabled,10,TRUE,7,Read from Text File in DoesScriptNumberContainNull.vi->Disabled.vi->Robot Main.vi<APPEND> /home/lvuser/scripts/auto_44.bee,0.000000,-47.213723,-0.000000,47.322806,TRUE,FALSE,TRUE,TRUE,FALSE,FALSE,Disabled,0.000000,0.000000,0.000000,TRUE,0.294510,0.181351,0.000000,-0.510193,-0.014175,0.000000,0.083000,0.043000,0.203000,1.530000,-0.440000,-0.820000,-0.527524,Hold,26.916016,58.000000,Hold,-192.000000,2.000000,LowGoal,1732.500000,-1818.181818,Speed,1747.500000,-1818.181818,Speed,Off,Off,0.000000,FALSE,45,Read: /home/lvuser/scripts/auto_45.bee,File good!,WAIT 1000,WAIT,0.000000,0.000000,-0.033000
05:07:42.331 PM 04/16/2016,Autonomous Enabled,10,TRUE,7,Read from Text File in DoesScriptNumberContainNull.vi->Disabled.vi->Robot Main.vi<APPEND> /home/lvuser/scripts/auto_44.bee,0.000000,-47.207306,-0.000000,47.316389,TRUE,FALSE,TRUE,TRUE,FALSE,FALSE,Disabled,0.000000,0.000000,0.000000,TRUE,0.275345,0.181030,0.000000,0.000000,-0.018341,0.000000,0.014000,0.003000,0.142000,1.470000,-0.440000,-0.670000,-0.538898,Hold,34.145752,58.000000,Hold,-191.000000,2.000000,LowGoal,1732.500000,-1818.181818,Speed,1755.000000,-1818.181818,Speed,Off,Off,0.000000,FALSE,45,Read: /home/lvuser/scripts/auto_45.bee,File good!,WAIT 1000,WAIT,0.000000,0.000000,-0.033000
05:07:42.432 PM 04/16/2016,Autonomous Enabled,10,TRUE,7,Read from Text File in DoesScriptNumberContainNull.vi->Disabled.vi->Robot Main.vi<APPEND> /home/lvuser/scripts/auto_44.bee,0.000000,-47.207306,-0.000000,47.316389,TRUE,FALSE,TRUE,TRUE,FALSE,FALSE,Disabled,0.000000,0.000000,0.000000,TRUE,0.275894,0.179825,0.000000,0.024490,-0.043869,0.000000,0.023000,0.030000,0.221000,1.480000,-0.450000,-0.670000,-0.511234,Hold,44.433594,58.000000,Hold,-190.000000,2.000000,LowGoal,1732.500000,-1818.181818,Speed,1762.500000,-1818.181818,Speed,Off,Off,0.000000,FALSE,45,Read: /home/lvuser/scripts/auto_45.bee,File good!,WAIT 1000,WAIT,0.000000,0.000000,-0.033000
05:07:42.532 PM 04/16/2016,Autonomous Enabled,9,TRUE,7,Read from Text File in DoesScriptNumberContainNull.vi->Disabled.vi->Robot Main.vi<APPEND> /home/lvuser/scripts/auto_44.bee,0.000000,-47.213723,-0.000000,47.316389,TRUE,FALSE,TRUE,TRUE,FALSE,FALSE,Disabled,0.000000,0.000000,0.000000,TRUE,0.278305,0.179672,0.000000,0.069229,0.077942,0.000000,-0.218000,0.141000,0.261000,1.520000,-0.480000,-0.470000,-0.584450,Hold,50.812744,58.000000,Hold,-189.000000,2.000000,LowGoal,1732.500000,-1818.181818,Speed,1762.500000,-1818.181818,Speed,Off,Off,0.000000,FALSE,45,Read: /home/lvuser/scripts/auto_45.bee,File good!,WAIT 1000,WAIT,0.000000,0.000000,-0.033000
05:07:42.633 PM 04/16/2016,Autonomous Enabled,10,TRUE,7,Read from Text File in DoesScriptNumberContainNull.vi->Disabled.vi->Robot Main.vi<APPEND> /home/lvuser/scripts/auto_44.bee,0.000000,-47.213723,-0.000000,47.316389,TRUE,FALSE,TRUE,TRUE,FALSE,FALSE,Disabled,0.000000,0.000000,0.000000,TRUE,0.280106,0.186249,0.000000,0.063889,0.119202,0.000000,0.085000,0.071000,0.182000,1.550000,-0.390000,-0.620000,-0.437714,Hold,54.328369,58.000000,Hold,-188.000000,2.000000,LowGoal,1717.500000,-1818.181818,Speed,1762.500000,-1818.181818,Speed,Off,Off,0.000000,FALSE,45,Read: /home/lvuser/scripts/auto_45.bee,File good!,DRIVE_STRAIGHT_TARGET 78 0 10000 75,DRIVE_STRAIGHT_TARGET,0.000000,0.000000,-0.033000
05:07:42.733 PM 04/16/2016,Autonomous Enabled,10,TRUE,7,Read from Text File in DoesScriptNumberContainNull.vi->Disabled.vi->Robot Main.vi<APPEND> /home/lvuser/scripts/auto_44.bee,-0.562500,0.012833,0.562500,-0.006417,TRUE,FALSE,TRUE,TRUE,FALSE,FALSE,Disabled,0.000000,0.000000,0.000000,TRUE,0.284332,0.192810,0.000000,0.105362,0.126205,0.000000,0.027000,-0.049000,-0.055000,1.540000,-0.480000,-0.550000,-0.537166,Hold,59.650635,58.000000,Hold,-187.000000,2.000000,LowGoal,1717.500000,-1818.181818,Speed,1762.500000,-1818.181818,Speed,Off,Off,0.000000,FALSE,45,Read: /home/lvuser/scripts/auto_45.bee,File good!,DRIVE_STRAIGHT_TARGET 78 0 10000 75,DRIVE_STRAIGHT_TARGET,0.000000,0.000000,-0.033000
05:07:42.833 PM 04/16/2016,Autonomous Enabled,9,TRUE,7,Read from Text File in DoesScriptNumberContainNull.vi->Disabled.vi->Robot Main.vi<APPEND> /home/lvuser/scripts/auto_44.bee,-0.562500,-1.283330,0.562500,1.238414,FALSE,FALSE,TRUE,TRUE,FALSE,FALSE,Disabled,0.000000,0.000000,0.000000,TRUE,0.294830,0.198990,0.000000,0.466873,0.118484,0.000000,0.033000,0.095000,0.313000,1.420000,-0.560000,3.590000,-0.564232,Hold,59.755127,58.000000,Hold,-187.000000,2.000000,LowGoal,1717.500000,-1818.181818,Speed,1747.500000,-1818.181818,Speed,Off,Off,0.000000,FALSE,45,Read: /home/lvuser/scripts/auto_45.bee,File good!,DRIVE_STRAIGHT_TARGET 78 0 10000 75,DRIVE_STRAIGHT_TARGET,0.000000,0.000000,-0.033000
05:07:42.933 PM 04/16/2016,Autonomous Enabled,10,TRUE,7,Read from Text File in DoesScriptNumberContainNull.vi->Disabled.vi->Robot Main.vi<APPEND> /home/lvuser/scripts/auto_44.bee,-0.562500,-4.042491,0.562500,3.939824,FALSE,FALSE,TRUE,TRUE,FALSE,FALSE,Disabled,0.000000,0.000000,0.000000,TRUE,0.329086,0.204895,0.000000,0.812073,0.097504,0.000000,0.345000,-0.041000,0.196000,1.190000,-0.460000,5.250000,-0.431804,Hold,59.294678,58.000000,Hold,-187.000000,2.000000,LowGoal,1695.000000,-1818.181818,Speed,1732.500000,-1818.181818,Speed,Off,Off,0.000000,FALSE,45,Read: /home/lvuser/scripts/auto_45.bee,File good!,DRIVE_STRAIGHT_TARGET 78 0 10000 75,DRIVE_STRAIGHT_TARGET,0.000000,0.000000,-0.033000
05:07:43.033 PM 04/16/2016,Autonomous Enabled,10,TRUE,7,Read from Text File in DoesScriptNumberContainNull.vi->Disabled.vi->Robot Main.vi<APPEND> /home/lvuser/scripts/auto_44.bee,-0.562500,-7.501066,0.562500,7.494649,FALSE,FALSE,TRUE,TRUE,FALSE,FALSE,Disabled,0.000000,0.000000,0.000000,TRUE,0.356018,0.209305,0.000000,0.005096,0.090057,0.000000,0.090000,-0.116000,-0.340000,1.080000,-0.470000,7.980000,-0.485525,Hold,59.168701,58.000000,Hold,-187.000000,2.000000,LowGoal,1702.500000,-1818.181818,Speed,1732.500000,-1818.181818,Speed,Off,Off,0.000000,FALSE,45,Read: /home/lvuser/scripts/auto_45.bee,File good!,DRIVE_STRAIGHT_TARGET 78 0 10000 75,DRIVE_STRAIGHT_TARGET,0.000000,0.000000,-0.033000
05:07:43.134 PM 04/16/2016,Autonomous Enabled,11,TRUE,7,Read from Text File in DoesScriptNumberContainNull.vi->Disabled.vi->Robot Main.vi<APPEND> /home/lvuser/scripts/auto_44.bee,-0.562500,-11.306140,0.562500,11.318974,FALSE,FALSE,TRUE,TRUE,FALSE,FALSE,Disabled,0.000000,0.000000,0.000000,TRUE,0.357925,0.213654,0.000000,0.022751,0.055969,0.000000,-0.069000,0.045000,0.114000,1.000000,-0.500000,10.350000,-0.561856,Hold,59.168701,58.000000,Hold,-187.000000,2.000000,LowGoal,1725.000000,-1818.181818,Speed,1747.500000,-1818.181818,Speed,Off,Off,0.000000,FALSE,45,Read: /home/lvuser/scripts/auto_45.bee,File good!,DRIVE_STRAIGHT_TARGET 78 0 10000 75,DRIVE_STRAIGHT_TARGET,0.000000,0.000000,-0.033000
05:07:43.234 PM 04/16/2016,Autonomous Enabled,9,TRUE,7,Read from Text File in DoesScriptNumberContainNull.vi->Disabled.vi->Robot Main.vi<APPEND> /home/lvuser/scripts/auto_44.bee,-0.574458,-15.207464,0.550668,15.252381,FALSE,FALSE,TRUE,TRUE,FALSE,FALSE,Disabled,0.000000,0.000000,0.000000,TRUE,0.357483,0.216309,0.000000,-0.020050,0.061676,0.000000,0.103000,-0.016000,-0.178000,0.900000,-0.600000,14.500000,-0.674910,Hold,59.541016,58.000000,Hold,-187.000000,2.000000,LowGoal,1725.000000,-1818.181818,Speed,1747.500000,-1818.181818,Speed,Off,Off,0.000000,FALSE,45,Read: /home/lvuser/scripts/auto_45.bee,File good!,DRIVE_STRAIGHT_TARGET 78 0 10000 75,DRIVE_STRAIGHT_TARGET,0.000000,0.000000,-0.033000
05:07:43.334 PM 04/16/2016,Autonomous Enabled,10,TRUE,7,Read from Text File in DoesScriptNumberContainNull.vi->Disabled.vi->Robot Main.vi<APPEND> /home/lvuser/scripts/auto_44.bee,-0.574064,-18.954789,0.551054,19.025372,FALSE,FALSE,TRUE,TRUE,FALSE,FALSE,Disabled,0.000000,0.000000,0.000000,TRUE,0.358536,0.221481,0.000000,0.005417,0.112671,0.000000,-0.012000,0.060000,-0.396000,0.860000,-0.590000,17.960000,-0.770840,Hold,60.402100,58.000000,Hold,-187.000000,2.000000,LowGoal,1725.000000,-1818.181818,Speed,1740.000000,-1818.181818,Speed,Off,Off,0.000000,FALSE,45,Read: /home/lvuser/scripts/auto_45.bee,File good!,DRIVE_STRAIGHT_TARGET 78 0 10000 75,DRIVE_STRAIGHT_TARGET,0.000000,0.000000,-0.033000
05:07:43.434 PM 04/16/2016,Autonomous Enabled,9,FALSE,0,NO ERROR,-0.573473,-22.804780,0.551633,22.727780,FALSE,FALSE,TRUE,TRUE,FALSE,FALSE,Disabled,0.000000,0.000000,0.000000,TRUE,0.356766,0.226990,0.000000,-0.124756,0.109314,0.000000,-0.410000,0.070000,0.619000,0.900000,-0.620000,20.130000,-0.827064,Hold,60.739502,58.000000,Hold,-187.000000,2.000000,LowGoal,1717.500000,-1818.181818,Speed,1740.000000,-1818.181818,Speed,Off,Off,0.000000,FALSE,45,Read: /home/lvuser/scripts/auto_45.bee,File good!,DRIVE_STRAIGHT_TARGET 78 0 10000 75,DRIVE_STRAIGHT_TARGET,0.000000,0.000000,-0.033000
05:07:43.534 PM 04/16/2016,Autonomous Enabled,10,FALSE,0,NO ERROR,-0.571309,-26.327522,0.553759,26.141439,FALSE,FALSE,TRUE,TRUE,FALSE,FALSE,Disabled,0.000000,0.000000,0.000000,TRUE,0.347824,0.233551,0.000000,-0.157166,0.118942,0.000000,-0.227000,0.072000,0.368000,0.780000,-0.430000,21.840000,-0.733286,Hold,60.819092,58.000000,Hold,-187.000000,2.000000,LowGoal,1710.000000,-1818.181818,Speed,1740.000000,-1818.181818,Speed,Off,Off,0.000000,FALSE,45,Read: /home/lvuser/scripts/auto_45.bee,File good!,DRIVE_STRAIGHT_TARGET 78 0 10000 75,DRIVE_STRAIGHT_TARGET,0.000000,0.000000,-0.033000
05:07:43.634 PM 04/16/2016,Autonomous Enabled,10,FALSE,0,NO ERROR,-0.570916,-29.612847,0.554146,29.478098,FALSE,FALSE,TRUE,TRUE,FALSE,FALSE,Disabled,0.000000,0.000000,0.000000,TRUE,0.335083,0.237305,0.000000,-0.309586,0.001495,0.000000,-0.033000,0.030000,-0.292000,0.780000,-0.420000,22.830000,-0.743045,Hold,60.819092,58.000000,Hold,-187.000000,2.000000,LowGoal,1710.000000,-1818.181818,Speed,1747.500000,-1818.181818,Speed,Off,Off,0.000000,FALSE,45,Read: /home/lvuser/scripts/auto_45.bee,File good!,DRIVE_STRAIGHT_TARGET 78 0 10000 75,DRIVE_STRAIGHT_TARGET,0.000000,0.000000,-0.033000
05:07:43.735 PM 04/16/2016,Autonomous Enabled,10,FALSE,0,NO ERROR,-0.570720,-33.084256,0.554340,32.949506,FALSE,FALSE,TRUE,TRUE,FALSE,FALSE,Disabled,0.000000,0.000000,0.000000,TRUE,0.318405,0.238235,0.000000,-0.396332,0.022842,0.000000,0.084000,-0.020000,-0.038000,0.820000,-0.410000,23.820000,-0.736663,Hold,60.819336,58.000000,Hold,-187.000000,2.000000,LowGoal,1725.000000,-1818.181818,Speed,1740.000000,-1818.181818,Speed,Off,Off,0.000000,FALSE,45,Read: /home/lvuser/scripts/auto_45.bee,File good!,DRIVE_STRAIGHT_TARGET 78 0 10000 75,DRIVE_STRAIGHT_TARGET,0.000000,0.000000,-0.033000
05:07:43.836 PM 04/16/2016,Autonomous Enabled,9,FALSE,0,NO ERROR,-0.573276,-36.170665,0.551826,36.138582,FALSE,FALSE,TRUE,TRUE,FALSE,FALSE,Disabled,0.000000,0.000000,0.000000,TRUE,0.297501,0.238876,0.000000,-0.446838,-0.006424,0.000000,0.006000,0.014000,-0.125000,0.730000,-0.530000,24.310000,-0.841499,Hold,60.819336,58.000000,Hold,-187.000000,2.000000,LowGoal,1725.000000,-1818.181818,Speed,1740.000000,-1818.181818,Speed,Off,Off,0.000000,FALSE,45,Read: /home/lvuser/scripts/auto_45.bee,File good!,DRIVE_STRAIGHT_TARGET 78 0 10000 75,DRIVE_STRAIGHT_TARGET,0.000000,0.000000,-0.033000
05:07:43.936 PM 04/16/2016,Autonomous Enabled,10,FALSE,0,NO ERROR,-0.574852,-39.212158,0.550282,39.167242,FALSE,FALSE,TRUE,TRUE,FALSE,FALSE,Disabled,0.000000,0.000000,0.000000,TRUE,0.275650,0.237991,0.000000,-0.432861,-0.020538,0.000000,-0.020000,-0.024000,0.204000,0.720000,-0.630000,23.050000,-0.988221,Hold,60.819336,58.000000,Hold,-187.000000,2.000000,LowGoal,1710.000000,-1818.181818,Speed,1747.500000,-1818.181818,Speed,Off,Off,0.000000,FALSE,45,Read: /home/lvuser/scripts/auto_45.bee,File good!,DRIVE_STRAIGHT_TARGET 78 0 10000 75,DRIVE_STRAIGHT_TARGET,0.000000,0.000000,-0.033000
05:07:44.037 PM 04/16/2016,Autonomous Enabled,10,FALSE,0,NO ERROR,-0.573670,-42.279318,0.551440,42.234401,FALSE,FALSE,TRUE,TRUE,FALSE,FALSE,Disabled,0.000000,0.000000,0.000000,TRUE,0.255386,0.236938,0.000000,-0.365356,-0.021454,0.000000,0.049000,0.019000,0.041000,0.740000,-0.590000,21.400000,-0.985962,Hold,60.819336,58.000000,Hold,-185.000000,2.000000,LowGoal,1702.500000,-1818.181818,Speed,1747.500000,-1818.181818,Speed,Off,Off,0.000000,FALSE,45,Read: /home/lvuser/scripts/auto_45.bee,File good!,DRIVE_STRAIGHT_TARGET 78 0 10000 75,DRIVE_STRAIGHT_TARGET,0.000000,0.000000,-0.033000
05:07:44.137 PM 04/16/2016,Autonomous Enabled,10,FALSE,0,NO ERROR,-0.571113,-45.333644,0.553953,45.243811,FALSE,FALSE,TRUE,TRUE,FALSE,FALSE,Disabled,0.000000,0.000000,0.000000,TRUE,0.236496,0.236465,0.000000,-0.266190,-0.013458,0.000000,0.040000,0.049000,-0.261000,0.890000,-0.440000,17.720000,-0.765573,Hold,60.819336,58.000000,Hold,-185.000000,2.000000,LowGoal,1702.500000,-1818.181818,Speed,1740.000000,-1818.181818,Speed,Off,Off,0.000000,FALSE,45,Read: /home/lvuser/scripts/auto_45.bee,File good!,DRIVE_STRAIGHT_TARGET 78 0 10000 75,DRIVE_STRAIGHT_TARGET,0.000000,0.000000,-0.033000
05:07:44.237 PM 04/16/2016,Autonomous Enabled,10,FALSE,0,NO ERROR,-0.571113,-48.464970,0.553953,48.278887,FALSE,FALSE,TRUE,TRUE,FALSE,FALSE,Disabled,0.000000,0.000000,0.000000,TRUE,0.226501,0.236252,0.000000,-0.158676,-0.008514,0.000000,0.014000,0.056000,0.102000,0.900000,-0.380000,12.420000,-0.597738,Hold,60.739258,58.000000,Hold,-185.000000,2.000000,LowGoal,1717.500000,-1818.181818,Speed,1740.000000,-1818.181818,Speed,Off,Off,0.000000,FALSE,45,Read: /home/lvuser/scripts/auto_45.bee,File good!,DRIVE_STRAIGHT_TARGET 78 0 10000 75,DRIVE_STRAIGHT_TARGET,0.000000,0.000000,-0.033000
05:07:44.337 PM 04/16/2016,Autonomous Enabled,10,FALSE,0,NO ERROR,-0.570720,-52.051878,0.554340,51.891462,TRUE,FALSE,TRUE,TRUE,FALSE,FALSE,Disabled,0.000000,0.000000,0.000000,TRUE,0.220352,0.237350,0.000000,-0.072098,0.036179,0.000000,0.133000,0.071000,-1.084000,1.250000,-0.430000,2.560000,-0.415999,Hold,60.287598,58.000000,Hold,-184.000000,2.000000,LowGoal,1710.000000,-1818.181818,Speed,1747.500000,-1818.181818,Speed,Off,Off,0.000000,FALSE,45,Read: /home/lvuser/scripts/auto_45.bee,File good!,DRIVE_STRAIGHT_TARGET 78 0 10000 75,DRIVE_STRAIGHT_TARGET,0.000000,0.000000,-0.033000
05:07:44.438 PM 04/16/2016,Autonomous Enabled,9,FALSE,0,NO ERROR,-0.564452,-56.755284,0.560552,56.428035,FALSE,FALSE,TRUE,TRUE,FALSE,FALSE,Disabled,0.000000,0.000000,0.000000,TRUE,0.221909,0.237122,0.000000,0.112640,-0.066284,0.000000,-1.898000,-0.756000,-0.343000,1.870000,-0.270000,-11.500000,-0.205603,Hold,59.639160,58.000000,Hold,-184.000000,2.000000,LowGoal,1710.000000,-1818.181818,Speed,1747.500000,-1818.181818,Speed,Off,Off,0.000000,FALSE,45,Read: /home/lvuser/scripts/auto_45.bee,File good!,DRIVE_STRAIGHT_TARGET 78 0 10000 75,DRIVE_STRAIGHT_TARGET,0.000000,0.000000,-0.033000
05:07:44.537 PM 04/16/2016,Autonomous Enabled,11,FALSE,0,NO ERROR,-0.576035,-62.536687,0.549125,62.530270,TRUE,FALSE,TRUE,TRUE,FALSE,FALSE,Disabled,0.000000,0.000000,0.000000,TRUE,0.215668,0.239456,0.000000,-0.033295,0.128143,0.000000,0.206000,-0.417000,-1.159000,1.190000,-0.750000,-1.610000,-0.729815,Hold,59.013672,58.000000,Hold,-184.000000,2.000000,LowGoal,1710.000000,-1818.181818,Speed,1732.500000,-1818.181818,Speed,Off,Off,0.000000,FALSE,45,Read: /home/lvuser/scripts/auto_45.bee,File good!,DRIVE_STRAIGHT_TARGET 78 0 10000 75,DRIVE_STRAIGHT_TARGET,0.000000,0.000000,-0.033000
05:07:44.637 PM 04/16/2016,Autonomous Enabled,9,FALSE,0,NO ERROR,-0.580583,-67.509592,0.544703,67.490342,FALSE,FALSE,TRUE,TRUE,FALSE,FALSE,Disabled,0.000000,0.000000,0.000000,TRUE,0.216034,0.245804,0.000000,0.040558,0.219223,0.000000,0.041000,-0.164000,-1.415000,0.780000,-0.970000,3.850000,-1.130037,Hold,59.013672,58.000000,Hold,-99.000000,2.000000,LowGoal,1665.000000,-1818.181818,Speed,1717.500000,-1818.181818,Speed,Off,Off,0.000000,FALSE,45,Read: /home/lvuser/scripts/auto_45.bee,File good!,DRIVE_STRAIGHT_TARGET 78 0 10000 75,DRIVE_STRAIGHT_TARGET,0.000000,0.000000,-0.033000
05:07:44.737 PM 04/16/2016,Autonomous Enabled,9,FALSE,0,NO ERROR,-0.590331,-72.533830,0.535341,72.334914,TRUE,FALSE,TRUE,TRUE,FALSE,FALSE,Disabled,0.000000,0.000000,0.000000,TRUE,0.212860,0.251358,0.000000,-0.197723,-0.209290,0.000000,0.673000,-0.132000,0.991000,1.500000,-1.400000,-0.600000,-1.393809,Hold,58.291260,58.000000,Hold,-138.000000,2.000000,LowGoal,1702.500000,-1818.181818,Speed,1732.500000,-1818.181818,Speed,Off,Off,0.000000,FALSE,45,Read: /home/lvuser/scripts/auto_45.bee,File good!,DRIVE_STRAIGHT_TARGET 78 0 10000 75,DRIVE_STRAIGHT_TARGET,0.000000,0.000000,-0.033000
05:07:44.838 PM 04/16/2016,Autonomous Enabled,10,FALSE,0,NO ERROR,-0.599153,-77.692818,0.527003,77.416902,TRUE,FALSE,TRUE,TRUE,FALSE,FALSE,Disabled,0.000000,0.000000,0.000000,TRUE,0.211212,0.241165,0.000000,-0.068253,-0.052094,0.000000,-0.059000,0.160000,-0.114000,1.500000,-1.400000,-0.600000,-1.841066,Hold,61.598877,58.000000,Hold,-129.000000,2.000000,LowGoal,1732.500000,-1818.181818,Speed,1740.000000,-1818.181818,Speed,Off,Off,0.000000,FALSE,45,Read: /home/lvuser/scripts/auto_45.bee,File good!,DRIVE_STRAIGHT_TARGET 78 0 10000 75,DRIVE_STRAIGHT_TARGET,0.000000,0.000000,-0.033000
05:07:44.939 PM 04/16/2016,Autonomous Enabled,10,FALSE,0,NO ERROR,0.000000,-82.524557,-0.000000,82.152391,TRUE,FALSE,TRUE,TRUE,FALSE,TRUE,Disabled,0.000000,0.000000,0.000000,TRUE,0.207764,0.241119,0.000000,-0.121063,0.014542,0.000000,-1.526000,0.026000,0.948000,2.030000,-1.620000,2.100000,-1.643398,Hold,61.120361,50.000000,Hold,-129.000000,71680.000000,LowGoal,1710.000000,-3272.727273,Speed,1747.500000,-3272.727273,Speed,Off,Off,0.000000,FALSE,45,Read: /home/lvuser/scripts/auto_45.bee,File good!,SEARCH_FOR_GOAL,SEARCH_FOR_GOAL,0.000000,0.000000,-0.033000
05:07:45.038 PM 04/16/2016,Autonomous Enabled,9,FALSE,0,NO ERROR,0.000000,-83.974720,-0.000000,83.647471,FALSE,FALSE,TRUE,TRUE,FALSE,TRUE,Disabled,0.000000,0.000000,0.000000,TRUE,0.174225,0.243423,0.000000,-0.885590,0.060471,0.000000,-0.263000,0.035000,-0.750000,1.880000,-1.680000,-4.680000,-1.773306,Hold,57.944336,50.000000,Hold,-460.000000,71680.000000,LowGoal,1695.000000,-3272.727273,Speed,1740.000000,-3272.727273,Speed,Off,Off,0.000000,FALSE,45,Read: /home/lvuser/scripts/auto_45.bee,File good!,SEARCH_FOR_GOAL,SEARCH_FOR_GOAL,0.000000,0.000000,-0.033000
05:07:45.139 PM 04/16/2016,Autonomous Enabled,10,FALSE,0,NO ERROR,0.000000,-84.783218,-0.000000,84.532969,FALSE,FALSE,TRUE,TRUE,FALSE,TRUE,Disabled,0.000000,0.000000,0.000000,TRUE,0.119614,0.247253,0.000000,-1.252594,0.074173,0.000000,-0.149000,0.141000,0.044000,2.010000,-1.860000,-4.830000,-2.026531,Hold,57.979980,50.000000,Hold,-14764.000000,71680.000000,LowGoal,1927.500000,-3272.727273,Speed,1942.500000,-3272.727273,Speed,Off,Off,0.000000,FALSE,45,Read: /home/lvuser/scripts/auto_45.bee,File good!,SEARCH_FOR_GOAL,SEARCH_FOR_GOAL,0.000000,0.000000,-0.033000
05:07:45.239 PM 04/16/2016,Autonomous Enabled,9,FALSE,0,NO ERROR,0.000000,-84.840968,-0.000000,84.648469,FALSE,FALSE,TRUE,TRUE,FALSE,TRUE,Disabled,0.000000,0.000000,0.000000,TRUE,0.038406,0.253357,0.000000,-1.402374,0.105270,0.000000,0.014000,-0.049000,-0.435000,2.080000,-2.090000,-3.190000,-2.254015,Hold,56.016846,50.000000,Hold,-34361.000000,71680.000000,LowGoal,2302.500000,-3272.727273,Speed,2317.500000,-3272.727273,Speed,Off,Off,0.000000,FALSE,45,Read: /home/lvuser/scripts/auto_45.bee,File good!,SEARCH_FOR_GOAL,SEARCH_FOR_GOAL,0.000000,0.000000,-0.033000
05:07:45.340 PM 04/16/2016,Autonomous Enabled,8,FALSE,0,NO ERROR,0.000000,-84.840968,-0.000000,84.648469,TRUE,FALSE,TRUE,TRUE,FALSE,TRUE,Disabled,0.000000,0.000000,0.000000,TRUE,-0.029007,0.255707,0.000000,-1.322235,-0.008530,0.000000,-0.071000,-0.094000,-0.069000,2.000000,-2.180000,-2.960000,-2.343301,Hold,56.006104,50.000000,Hold,-53099.000000,71680.000000,LowGoal,2617.500000,-3272.727273,Speed,2640.000000,-3272.727273,Speed,Off,Off,0.000000,FALSE,45,Read: /home/lvuser/scripts/auto_45.bee,File good!,SEARCH_FOR_GOAL,SEARCH_FOR_GOAL,0.000000,0.000000,-0.033000
05:07:45.440 PM 04/16/2016,Autonomous Enabled,10,FALSE,0,NO ERROR,0.000000,-84.828135,-0.000000,84.642052,TRUE,FALSE,TRUE,TRUE,FALSE,TRUE,Disabled,0.000000,0.000000,0.000000,TRUE,-0.093964,0.255203,0.000000,-1.262558,-0.020645,0.000000,-0.035000,0.019000,0.076000,1.940000,-1.990000,-2.670000,-2.172740,Hold,56.005127,50.000000,Hold,-71231.000000,71680.000000,LowGoal,2827.500000,-3272.727273,Speed,2902.500000,-3272.727273,Speed,Off,Off,0.000000,FALSE,45,Read: /home/lvuser/scripts/auto_45.bee,File good!,SEARCH_FOR_GOAL,SEARCH_FOR_GOAL,0.000000,0.000000,-0.033000
05:07:45.540 PM 04/16/2016,Autonomous Enabled,11,FALSE,0,NO ERROR,0.000000,-84.789635,-0.000000,84.597136,TRUE,FALSE,TRUE,TRUE,FALSE,TRUE,Disabled,0.000000,0.000000,0.000000,TRUE,-0.154846,0.253830,0.000000,-1.155579,-0.042572,0.000000,0.132000,-0.126000,0.204000,1.820000,-2.070000,-2.680000,-2.234334,Hold,56.005127,50.000000,Hold,-71231.000000,71680.000000,LowGoal,3075.000000,-3272.727273,Speed,3112.500000,-3272.727273,Speed,Off,Off,0.000000,FALSE,45,Read: /home/lvuser/scripts/auto_45.bee,File good!,SEARCH_FOR_GOAL,SEARCH_FOR_GOAL,0.000000,0.000000,-0.033000
05:07:45.640 PM 04/16/2016,Autonomous Enabled,11,FALSE,0,NO ERROR,0.000000,-84.847385,-0.000000,84.667719,TRUE,FALSE,TRUE,TRUE,FALSE,TRUE,Disabled,0.000000,0.000000,0.000000,TRUE,-0.217911,0.251129,0.000000,-1.019485,-0.022888,0.000000,0.132000,-0.126000,0.204000,1.810000,-2.080000,-2.490000,-2.213572,Hold,55.963867,50.000000,Hold,-71934.000000,71680.000000,LowGoal,3180.000000,-3272.727273,Speed,3225.000000,-3272.727273,Speed,Off,Off,0.000000,FALSE,45,Read: /home/lvuser/scripts/auto_45.bee,File good!,SEARCH_FOR_GOAL,SEARCH_FOR_GOAL,0.000000,0.000000,-0.033000
05:07:45.740 PM 04/16/2016,Autonomous Enabled,10,FALSE,0,NO ERROR,0.000000,-84.930801,-0.000000,84.744718,TRUE,FALSE,TRUE,TRUE,FALSE,TRUE,PID,-0.259375,11.402625,-13.402625,TRUE,-0.261017,0.251068,0.000000,-1.109634,0.006592,0.000000,-0.002000,0.101000,-0.158000,1.790000,-2.030000,-2.360000,-2.186527,Hold,55.965088,50.000000,Hold,-71934.000000,71680.000000,LowGoal,3210.000000,-3272.727273,Speed,3240.000000,-3272.727273,Speed,Off,Off,0.000000,FALSE,45,Read: /home/lvuser/scripts/auto_45.bee,File good!,SEARCH_FOR_GOAL,SEARCH_FOR_GOAL,0.000000,0.000000,-0.292375
05:07:45.840 PM 04/16/2016,Autonomous Enabled,10,FALSE,0,NO ERROR,0.349615,-84.186470,0.349615,85.206717,TRUE,FALSE,TRUE,TRUE,FALSE,TRUE,PID,-0.259375,11.402625,-13.402625,TRUE,-0.328537,0.251419,0.000000,-1.136093,-0.023193,0.000000,-0.002000,0.101000,-0.158000,1.760000,-2.170000,-2.300000,-2.364545,Hold,55.750000,50.000000,Hold,-71718.000000,71680.000000,LowGoal,3187.500000,-3272.727273,Speed,3240.000000,-3272.727273,Speed,Off,Off,0.000000,FALSE,45,Read: /home/lvuser/scripts/auto_45.bee,File good!,SEARCH_FOR_GOAL,SEARCH_FOR_GOAL,0.000000,0.000000,-0.292375
05:07:45.940 PM 04/16/2016,Autonomous Enabled,9,FALSE,0,NO ERROR,0.305293,-83.204722,0.305293,86.252632,TRUE,FALSE,TRUE,TRUE,FALSE,TRUE,PID,-0.259375,11.402625,-13.402625,TRUE,-0.375900,0.245331,0.000000,-1.165146,-0.201584,0.000000,-0.141000,0.075000,-0.126000,0.970000,-6.230000,-2.700000,-6.638429,Hold,55.750000,50.000000,Hold,-71722.000000,71680.000000,LowGoal,3165.000000,-3272.727273,Speed,3225.000000,-3272.727273,Speed,Off,Off,0.000000,FALSE,45,Read: /home/lvuser/scripts/auto_45.bee,File good!,SEARCH_FOR_GOAL,SEARCH_FOR_GOAL,0.000000,0.000000,-0.292375
05:07:46.041 PM 04/16/2016,Autonomous Enabled,9,FALSE,0,NO ERROR,0.237079,-81.934225,0.237079,87.414046,TRUE,FALSE,TRUE,TRUE,FALSE,TRUE,PID,-0.259375,11.402625,-13.402625,TRUE,-0.433899,0.238419,0.000000,-1.147812,-0.028290,0.000000,-0.031000,0.385000,0.002000,0.970000,-6.230000,-2.700000,-11.978808,Hold,55.749756,50.000000,Hold,-71849.000000,71680.000000,LowGoal,3157.500000,-3272.727273,Speed,3187.500000,-3272.727273,Speed,Off,Off,0.000000,FALSE,45,Read: /home/lvuser/scripts/auto_45.bee,File good!,SEARCH_FOR_GOAL,SEARCH_FOR_GOAL,0.000000,0.000000,-0.292375
05:07:46.141 PM 04/16/2016,Autonomous Enabled,9,FALSE,0,NO ERROR,-0.217592,-81.023061,-0.217592,88.164794,TRUE,FALSE,TRUE,TRUE,FALSE,TRUE,PID,-0.259375,11.402625,-13.402625,TRUE,-0.500580,0.235748,0.000000,-1.051285,-0.166733,0.000000,-0.031000,0.385000,0.002000,2.230000,-12.260000,-1.810000,-16.172498,Hold,55.748535,50.000000,Hold,-71725.000000,71680.000000,LowGoal,3157.500000,-3272.727273,Speed,3187.500000,-3272.727273,Speed,Off,Off,0.000000,FALSE,45,Read: /home/lvuser/scripts/auto_45.bee,File good!,SEARCH_FOR_GOAL,SEARCH_FOR_GOAL,0.000000,0.000000,-0.292375
05:07:46.241 PM 04/16/2016,Autonomous Enabled,11,FALSE,0,NO ERROR,-0.235800,-81.677559,-0.235800,87.548795,TRUE,FALSE,TRUE,TRUE,FALSE,TRUE,PID,-0.259375,11.402625,-13.402625,TRUE,-0.500580,0.235748,0.000000,-1.051285,-0.166733,0.000000,0.333000,-0.295000,0.209000,1.100000,-16.050000,-1.740000,-16.170301,Hold,55.749268,50.000000,Hold,-71753.000000,71680.000000,LowGoal,3172.500000,-3272.727273,Speed,3210.000000,-3272.727273,Speed,Off,Off,0.000000,FALSE,45,Read: /home/lvuser/scripts/auto_45.bee,File good!,SEARCH_FOR_GOAL,SEARCH_FOR_GOAL,0.000000,0.000000,-0.292375
05:07:46.341 PM 04/16/2016,Autonomous Enabled,11,FALSE,0,NO ERROR,0.000000,-82.434724,-0.000000,86.688964,TRUE,FALSE,TRUE,TRUE,FALSE,TRUE,Suspended,-0.259375,11.402625,-13.402625,TRUE,-0.597794,0.241562,0.000000,-0.922394,0.116516,0.000000,0.125000,0.151000,0.064000,2.690000,-16.250000,-0.900000,-12.773557,Hold,55.740967,50.000000,Hold,-71753.000000,71680.000000,LowGoal,3172.500000,-3272.727273,Speed,3225.000000,-3272.727273,Speed,Off,Off,0.000000,FALSE,45,Read: /home/lvuser/scripts/auto_45.bee,File good!,SEARCH_FOR_GOAL,SEARCH_FOR_GOAL,0.000000,0.000000,-0.292375
05:07:46.441 PM 04/16/2016,Autonomous Enabled,10,FALSE,0,NO ERROR,0.000000,-82.569474,-0.000000,86.560631,TRUE,FALSE,TRUE,TRUE,FALSE,TRUE,Suspended,-0.259375,11.402625,-13.402625,TRUE,-0.597794,0.241562,0.000000,-0.922394,0.116516,0.000000,0.181000,0.036000,-0.072000,2.330000,-12.370000,-1.010000,-11.542126,Hold,55.740967,50.000000,Hold,-71753.000000,71680.000000,LowGoal,3172.500000,-3272.727273,Speed,3225.000000,-3272.727273,Speed,Off,Off,0.000000,FALSE,45,Read: /home/lvuser/scripts/auto_45.bee,File good!,SEARCH_FOR_GOAL,SEARCH_FOR_GOAL,0.000000,0.000000,-0.292375
05:07:46.542 PM 04/16/2016,Autonomous Enabled,9,FALSE,0,NO ERROR,0.000000,-82.492474,-0.000000,86.740297,TRUE,FALSE,TRUE,TRUE,FALSE,TRUE,Suspended,-0.259375,11.402625,-13.402625,TRUE,-0.689163,0.245850,0.000000,-0.884827,0.009201,0.000000,-0.087000,-0.117000,0.000000,1.750000,-11.050000,-1.200000,-12.412842,Hold,55.740967,50.000000,Hold,-71754.000000,71680.000000,LowGoal,3180.000000,-3272.727273,Speed,3225.000000,-3272.727273,Speed,Off,Off,0.000000,FALSE,45,Read: /home/lvuser/scripts/auto_45.bee,File good!,SEARCH_FOR_GOAL,SEARCH_FOR_GOAL,0.000000,0.000000,-0.292375
05:07:46.642 PM 04/16/2016,Autonomous Enabled,10,FALSE,0,NO ERROR,0.000000,-82.492474,-0.000000,86.746714,TRUE,FALSE,TRUE,TRUE,FALSE,TRUE,Suspended,-0.259375,11.402625,-13.402625,TRUE,-0.689163,0.245850,0.000000,-0.884827,0.009201,0.000000,0.089000,0.025000,0.169000,1.830000,-11.940000,-0.990000,-12.368574,Hold,55.740967,50.000000,Hold,-71754.000000,71680.000000,LowGoal,3187.500000,-3272.727273,Speed,3232.500000,-3272.727273,Speed,Off,Off,0.000000,FALSE,45,Read: /home/lvuser/scripts/auto_45.bee,File good!,SEARCH_FOR_GOAL,SEARCH_FOR_GOAL,0.000000,0.000000,-0.292375
05:07:46.742 PM 04/16/2016,Autonomous Enabled,10,FALSE,0,NO ERROR,0.000000,-82.492474,-0.000000,86.746714,TRUE,FALSE,TRUE,TRUE,FALSE,TRUE,Enable,-0.003125,1.408875,-13.358875,TRUE,-0.731659,0.247559,0.000000,-0.834671,0.038498,0.000000,-0.022000,0.120000,-0.072000,1.840000,-11.910000,-0.950000,-12.412043,Hold,55.740967,50.000000,Hold,-71754.000000,71680.000000,LowGoal,3195.000000,-3272.727273,Speed,3247.500000,-3272.727273,Speed,Off,Off,0.000000,FALSE,45,Read: /home/lvuser/scripts/auto_45.bee,File good!,SEARCH_FOR_GOAL,SEARCH_FOR_GOAL,0.000000,0.000000,-0.036125
05:07:46.843 PM 04/16/2016,Autonomous Enabled,11,FALSE,0,NO ERROR,0.219011,-82.492474,0.219011,86.746714,TRUE,FALSE,TRUE,TRUE,FALSE,TRUE,PID,-0.003125,1.408875,-13.358875,TRUE,-0.774323,0.248978,0.000000,-0.864807,0.015396,0.000000,-0.006000,-0.288000,0.171000,1.830000,-11.960000,-0.890000,-12.412043,Hold,55.740967,50.000000,Hold,-71754.000000,71680.000000,LowGoal,3187.500000,-3272.727273,Speed,3247.500000,-3272.727273,Speed,Off,Off,0.000000,FALSE,45,Read: /home/lvuser/scripts/auto_45.bee,File good!,SEARCH_FOR_GOAL,SEARCH_FOR_GOAL,0.000000,0.000000,-0.036125
05:07:46.943 PM 04/16/2016,Autonomous Enabled,9,FALSE,0,NO ERROR,0.211587,-82.075391,0.211587,87.125296,TRUE,FALSE,TRUE,TRUE,FALSE,TRUE,PID,-0.003125,1.408875,-13.358875,TRUE,-0.817963,0.247940,0.000000,-0.864349,-0.039841,0.000000,-0.171000,0.164000,-0.167000,1.760000,-11.990000,-0.850000,-12.434902,Hold,55.740967,50.000000,Hold,-71754.000000,71680.000000,LowGoal,3195.000000,-3272.727273,Speed,3247.500000,-3272.727273,Speed,Off,Off,0.000000,FALSE,45,Read: /home/lvuser/scripts/auto_45.bee,File good!,SEARCH_FOR_GOAL,SEARCH_FOR_GOAL,0.000000,0.000000,-0.036125
05:07:47.044 PM 04/16/2016,Autonomous Enabled,10,FALSE,0,NO ERROR,0.000000,-81.408060,-0.000000,87.786211,TRUE,FALSE,TRUE,TRUE,FALSE,TRUE,Suspended,-0.003125,1.408875,-13.358875,TRUE,-0.872742,0.241669,0.000000,-0.944214,-0.123611,0.000000,-0.163000,0.014000,-0.044000,1.400000,-14.240000,-1.050000,-14.395886,Hold,55.740967,50.000000,Hold,-71754.000000,71680.000000,LowGoal,3187.500000,-3272.727273,Speed,3240.000000,-3272.727273,Speed,Off,Off,0.000000,FALSE,45,Read: /home/lvuser/scripts/auto_45.bee,File good!,SEARCH_FOR_GOAL,SEARCH_FOR_GOAL,0.000000,0.000000,-0.036125
05:07:47.144 PM 04/16/2016,Autonomous Enabled,10,FALSE,0,NO ERROR,0.000000,-81.234810,-0.000000,87.882461,TRUE,FALSE,TRUE,TRUE,FALSE,TRUE,Suspended,-0.003125,1.408875,-13.358875,TRUE,-0.920212,0.237335,0.000000,-0.913620,-0.043304,0.000000,0.029000,0.236000,0.020000,1.820000,-15.590000,-0.610000,-16.259605,Hold,55.740967,50.000000,Hold,-71754.000000,71680.000000,LowGoal,3187.500000,-3272.727273,Speed,3240.000000,-3272.727273,Speed,Off,Off,0.000000,FALSE,45,Read: /home/lvuser/scripts/auto_45.bee,File good!,SEARCH_FOR_GOAL,SEARCH_FOR_GOAL,0.000000,0.000000,-0.036125
05:07:47.244 PM 04/16/2016,Autonomous Enabled,9,FALSE,0,NO ERROR,0.000000,-81.241227,-0.000000,87.792628,TRUE,FALSE,TRUE,TRUE,FALSE,TRUE,Suspended,-0.003125,1.408875,-13.358875,TRUE,-0.963791,0.236526,0.000000,-0.853104,-0.039322,0.000000,-0.022000,-0.051000,0.092000,1.770000,-14.850000,-0.710000,-15.426358,Hold,55.740967,50.000000,Hold,-71754.000000,71680.000000,LowGoal,3187.500000,-3272.727273,Speed,3247.500000,-3272.727273,Speed,Off,Off,0.000000,FALSE,45,Read: /home/lvuser/scripts/auto_45.bee,File good!,SEARCH_FOR_GOAL,SEARCH_FOR_GOAL,0.000000,0.000000,-0.036125
05:07:47.344 PM 04/16/2016,Autonomous Enabled,10,FALSE,0,NO ERROR,0.000000,-81.241227,-0.000000,87.792628,TRUE,FALSE,TRUE,TRUE,FALSE,TRUE,Suspended,-0.003125,1.408875,-13.358875,TRUE,-1.006058,0.234421,0.000000,-0.831421,-0.021606,0.000000,0.037000,0.126000,0.004000,1.720000,-14.930000,-0.640000,-15.517372,Hold,55.740967,50.000000,Hold,-71754.000000,71680.000000,LowGoal,3187.500000,-3272.727273,Speed,3247.500000,-3272.727273,Speed,Off,Off,0.000000,FALSE,45,Read: /home/lvuser/scripts/auto_45.bee,File good!,SEARCH_FOR_GOAL,SEARCH_FOR_GOAL,0.000000,0.000000,-0.036125
05:07:47.444 PM 04/16/2016,Autonomous Enabled,10,FALSE,0,NO ERROR,0.000000,-81.241227,-0.000000,87.792628,TRUE,FALSE,TRUE,TRUE,FALSE,TRUE,Suspended,-0.003125,1.408875,-13.358875,TRUE,-1.047195,0.234695,0.000000,-0.824387,0.014771,0.000000,0.071000,0.058000,0.021000,1.690000,-14.910000,-0.630000,-15.494758,Hold,55.740967,50.000000,Hold,-71754.000000,71680.000000,LowGoal,3202.500000,-3272.727273,Speed,3255.000000,-3272.727273,Speed,Off,Off,0.000000,FALSE,45,Read: /home/lvuser/scripts/auto_45.bee,File good!,SEARCH_FOR_GOAL,SEARCH_FOR_GOAL,0.000000,0.000000,-0.036125
05:07:47.545 PM 04/16/2016,Autonomous Enabled,11,FALSE,0,NO ERROR,0.000000,-81.241227,-0.000000,87.792628,TRUE,FALSE,TRUE,TRUE,FALSE,TRUE,Suspended,-0.003125,1.408875,-13.358875,TRUE,-1.093903,0.236969,0.000000,-0.744797,0.046112,0.000000,-0.038000,-0.057000,0.058000,1.700000,-14.910000,-0.570000,-15.477208,Hold,55.740967,50.000000,Hold,-71754.000000,71680.000000,LowGoal,3195.000000,-3272.727273,Speed,3255.000000,-3272.727273,Speed,Off,Off,0.000000,FALSE,45,Read: /home/lvuser/scripts/auto_45.bee,File good!,SEARCH_FOR_GOAL,SEARCH_FOR_GOAL,0.000000,0.000000,-0.036125
05:07:47.648 PM 04/16/2016,Autonomous Enabled,12,FALSE,0,NO ERROR,0.000000,-81.241227,-0.000000,87.792628,TRUE,FALSE,TRUE,TRUE,FALSE,TRUE,Suspended,-0.003125,1.408875,-13.358875,TRUE,-1.131073,0.240158,0.000000,-0.743622,0.078018,0.000000,-0.088000,0.217000,-0.147000,1.650000,-14.910000,-0.490000,-15.490145,Hold,55.740967,50.000000,Hold,-71754.000000,71680.000000,LowGoal,3187.500000,-3272.727273,Speed,3255.000000,-3272.727273,Speed,Off,Off,0.000000,FALSE,45,Read: /home/lvuser/scripts/auto_45.bee,File good!,SEARCH_FOR_GOAL,SEARCH_FOR_GOAL,0.000000,0.000000,-0.036125
05:07:47.749 PM 04/16/2016,Autonomous Enabled,11,FALSE,0,NO ERROR,0.000000,-81.241227,-0.000000,87.792628,TRUE,FALSE,TRUE,TRUE,FALSE,TRUE,PID,0.075000,-1.638000,-13.282000,TRUE,-1.168793,0.244217,0.000000,-0.747025,0.070557,0.000000,0.155000,-0.225000,0.158000,1.690000,-14.910000,-0.460000,-15.493288,Hold,55.740967,50.000000,Hold,-71754.000000,71680.000000,LowGoal,3195.000000,-3272.727273,Speed,3255.000000,-3272.727273,Speed,Off,Off,0.000000,FALSE,45,Read: /home/lvuser/scripts/auto_45.bee,File good!,SEARCH_FOR_GOAL,SEARCH_FOR_GOAL,0.000000,0.000000,0.042000
05:07:47.850 PM 04/16/2016,Autonomous Enabled,10,FALSE,0,NO ERROR,-0.220994,-81.247643,-0.220994,87.792628,TRUE,FALSE,TRUE,TRUE,FALSE,TRUE,PID,0.075000,-1.638000,-13.282000,TRUE,-1.204681,0.247131,0.000000,-0.697495,0.052597,0.000000,-0.208000,0.031000,-0.125000,1.650000,-14.920000,-0.430000,-15.495742,Hold,55.740967,50.000000,Hold,-71754.000000,71680.000000,LowGoal,3187.500000,-3272.727273,Speed,3255.000000,-3272.727273,Speed,Off,Off,0.000000,FALSE,45,Read: /home/lvuser/scripts/auto_45.bee,File good!,SEARCH_FOR_GOAL,SEARCH_FOR_GOAL,0.000000,0.000000,0.042000
05:07:47.951 PM 04/16/2016,Autonomous Enabled,11,FALSE,0,NO ERROR,0.205232,-81.947058,0.205232,87.099630,TRUE,FALSE,TRUE,TRUE,FALSE,TRUE,Suspended,0.075000,-1.638000,-13.282000,TRUE,-1.240860,0.249649,0.000000,-0.726410,0.088852,0.000000,0.060000,0.074000,0.038000,2.020000,-14.230000,-0.280000,-15.070242,Hold,55.740967,50.000000,Hold,-71754.000000,71680.000000,LowGoal,3187.500000,-3272.727273,Speed,3255.000000,-3272.727273,Speed,Off,Off,0.000000,FALSE,45,Read: /home/lvuser/scripts/auto_45.bee,File good!,SEARCH_FOR_GOAL,SEARCH_FOR_GOAL,0.000000,0.000000,0.042000
05:07:48.052 PM 04/16/2016,Autonomous Enabled,10,FALSE,0,NO ERROR,0.000000,-82.518140,-0.000000,86.567048,TRUE,FALSE,TRUE,TRUE,FALSE,TRUE,Suspended,0.075000,-1.638000,-13.282000,TRUE,-1.278351,0.256104,0.000000,-0.773972,0.120193,0.000000,-0.053000,-0.207000,-0.075000,2.010000,-11.440000,-0.430000,-11.729326,Hold,55.740967,50.000000,Hold,-71754.000000,71680.000000,LowGoal,3187.500000,-3272.727273,Speed,3247.500000,-3272.727273,Speed,Off,Off,0.000000,FALSE,45,Read: /home/lvuser/scripts/auto_45.bee,File good!,SEARCH_FOR_GOAL,SEARCH_FOR_GOAL,0.000000,0.000000,0.042000
05:07:48.153 PM 04/16/2016,Autonomous Enabled,10,FALSE,0,NO ERROR,0.000000,-82.344891,-0.000000,86.740297,TRUE,FALSE,TRUE,TRUE,FALSE,TRUE,Suspended,0.075000,-1.638000,-13.282000,TRUE,-1.320099,0.255112,0.000000,-0.884705,-0.122131,0.000000,-0.009000,-0.197000,-0.066000,1.350000,-11.540000,-0.790000,-12.528044,Hold,55.740967,50.000000,Hold,-71754.000000,71680.000000,LowGoal,3187.500000,-3272.727273,Speed,3247.500000,-3272.727273,Speed,Off,Off,0.000000,FALSE,45,Read: /home/lvuser/scripts/auto_45.bee,File good!,SEARCH_FOR_GOAL,SEARCH_FOR_GOAL,0.000000,0.000000,0.042000
