Time,Robot Mode,Loop Time,Error Status,Error Code,Error Source,Left Motor Output,Left Motor Encoder,Right Motor Output,Right Motor Encoder,Is Level,Is Stalled,Ball Detector Photoeye,Vision Enabled,Vision Teleop Control,Vision Auto Control,Vision Current State,Vision X Output,Vision NavX Error,Vision NavX Target,NavX Connection Status,NavX Displacement X,NavX Displacement Y,NavX Displacement Z,NavX Velocity X,NavX Velocity Y,NavX Velocity Z,NavX Acceleration X,NavX Acceleration Y,NavX Acceleration Z,NavX Pitch,NavX Yaw,NavX Roll,Gyro Angle,Roller Arm State,Roller Arm Actual,Roller Arm Desired,Shooter Arm State,Shooter Arm Actual,Shooter Arm Desired,Shooter State,Actual RPM Left,Desired RPM Left,Control Mode Left,Actual RPM Right,Desired RPM Right,Control Mode Right,Ball Shooter Cylinder,Ball Halo Cylinder,Scaler Motor Output,Scaler Solenoid Fire,Auto To Run,Auto Current File,Auto File Status,Auto Current Command,Auto Trimmed Command,Shooter Amps Left,Shooter Amps Right, Vision After Offset
07:58:51.703 PM 04/16/2016,Autonomous Enabled,11,TRUE,-44003,<LOCATION>WPI_CameraIssue HTTP Request with Authentication.vi<CALLSTACK>WPI_CameraIssue HTTP Request with Authentication.vi< <WPI_CameraIssue Get.vi< <WPI_CameraSet Image Appearance Property.vi< <WPI_CameraSet Image Size.vi< <Vision Processing.vi< <Robot Main.vi,0.000000,0.000000,-0.000000,0.000000,TRUE,FALSE,TRUE,TRUE,FALSE,FALSE,Disabled,0.000000,0.000000,0.000000,TRUE,-0.000076,0.000031,0.000000,-0.008026,0.003693,0.000000,-0.023000,-0.064000,0.097000,1.710000,-2.670000,0.100000,15.716372,ResetBack,-0.006592,-0.000049,ResetBack,0.000000,-0.250000,LowGoal,0.000000,-2181.818182,Speed,0.000000,-2181.818182,Speed,Off,Off,0.000000,FALSE,43,Read: /home/lvuser/scripts/auto_43.bee,File good!,WAIT 1500,WAIT,0.000000,0.000000,-0.033000
07:58:51.803 PM 04/16/2016,Autonomous Enabled,10,TRUE,7,Read from Text File in DoesScriptNumberContainNull.vi->Disabled.vi->Robot Main.vi<APPEND> /home/lvuser/scripts/auto_42.bee,0.000000,0.000000,-0.000000,0.000000,TRUE,FALSE,TRUE,TRUE,FALSE,FALSE,Disabled,0.000000,0.000000,0.000000,TRUE,-0.000824,-0.000046,0.000000,-0.003937,-0.000336,0.000000,-0.002000,0.042000,0.015000,1.720000,-2.670000,0.100000,15.716982,ResetBack,-0.289062,-0.000049,ResetBack,1572.000000,-0.250000,LowGoal,210.000000,-2181.818182,Speed,240.000000,-2181.818182,Speed,Off,Off,0.000000,FALSE,43,Read: /home/lvuser/scripts/auto_43.bee,File good!,WAIT 1500,WAIT,0.000000,0.000000,-0.033000
07:58:51.903 PM 04/16/2016,Autonomous Enabled,11,TRUE,7,Read from Text File in DoesScriptNumberContainNull.vi->Disabled.vi->Robot Main.vi<APPEND> /home/lvuser/scripts/auto_42.bee,0.000000,0.000000,-0.000000,0.000000,TRUE,FALSE,TRUE,TRUE,FALSE,FALSE,Disabled,0.000000,0.000000,0.000000,TRUE,-0.001556,-0.000336,0.000000,-0.016525,-0.018845,0.000000,0.130000,-0.004000,0.034000,1.710000,-2.680000,0.110000,15.723058,ResetBack,-0.289307,-0.000049,ResetBack,7656.000000,-0.250000,LowGoal,892.500000,-2181.818182,Speed,907.500000,-2181.818182,Speed,Off,Off,0.000000,FALSE,43,Read: /home/lvuser/scripts/auto_43.bee,File good!,WAIT 1500,WAIT,0.000000,0.000000,-0.033000
07:58:52.003 PM 04/16/2016,Autonomous Enabled,10,TRUE,7,Read from Text File in DoesScriptNumberContainNull.vi->Disabled.vi->Robot Main.vi<APPEND> /home/lvuser/scripts/auto_42.bee,0.000000,0.000000,-0.000000,0.000000,TRUE,FALSE,TRUE,TRUE,FALSE,FALSE,Disabled,0.000000,0.000000,0.000000,TRUE,-0.000427,-0.001495,0.000000,0.036697,-0.004578,0.000000,0.044000,0.087000,-0.009000,1.650000,-2.680000,0.150000,15.723791,Reset,-0.289551,0.000000,ResetBack,8653.000000,-0.250000,LowGoal,1290.000000,-2181.818182,Speed,1470.000000,-2181.818182,Speed,Off,Off,0.000000,FALSE,43,Read: /home/lvuser/scripts/auto_43.bee,File good!,WAIT 1500,WAIT,0.000000,0.000000,-0.033000
07:58:52.104 PM 04/16/2016,Autonomous Enabled,11,TRUE,7,Read from Text File in DoesScriptNumberContainNull.vi->Disabled.vi->Robot Main.vi<APPEND> /home/lvuser/scripts/auto_42.bee,0.000000,0.000000,-0.000000,0.000000,TRUE,FALSE,TRUE,TRUE,FALSE,FALSE,Disabled,0.000000,0.000000,0.000000,TRUE,0.000717,-0.000763,0.000000,0.000000,0.000000,0.000000,0.076000,0.071000,-0.044000,1.630000,-2.680000,0.140000,15.728903,Hold,0.217529,0.000000,ResetBack,8669.000000,-0.250000,LowGoal,1710.000000,-2181.818182,Speed,2002.500000,-2181.818182,Speed,Off,Off,0.000000,FALSE,43,Read: /home/lvuser/scripts/auto_43.bee,File good!,WAIT 1500,WAIT,0.000000,0.000000,-0.033000
07:58:52.204 PM 04/16/2016,Autonomous Enabled,10,TRUE,7,Read from Text File in DoesScriptNumberContainNull.vi->Disabled.vi->Robot Main.vi<APPEND> /home/lvuser/scripts/auto_42.bee,0.000000,0.000000,-0.000000,0.000000,TRUE,FALSE,TRUE,TRUE,FALSE,FALSE,Disabled,0.000000,0.000000,0.000000,TRUE,0.002426,-0.000534,0.000000,0.058182,-0.000824,0.000000,0.068000,-0.018000,-0.097000,1.550000,-2.680000,0.190000,15.733055,Hold,0.217773,0.000000,ResetBack,8993.000000,-0.250000,LowGoal,2077.500000,-2181.818182,Speed,2175.000000,-2181.818182,Speed,Off,Off,0.000000,FALSE,43,Read: /home/lvuser/scripts/auto_43.bee,File good!,WAIT 1500,WAIT,0.000000,0.000000,-0.033000
07:58:52.305 PM 04/16/2016,Autonomous Enabled,11,TRUE,7,Read from Text File in DoesScriptNumberContainNull.vi->Disabled.vi->Robot Main.vi<APPEND> /home/lvuser/scripts/auto_42.bee,0.000000,0.000000,-0.000000,0.000000,TRUE,FALSE,TRUE,TRUE,FALSE,FALSE,Disabled,0.000000,0.000000,0.000000,TRUE,0.006317,-0.000244,0.000000,0.080536,0.012711,0.000000,0.033000,0.062000,-0.112000,1.550000,-2.680000,0.190000,15.734250,Hold,0.217773,0.000000,ResetBack,8993.000000,-0.250000,LowGoal,2190.000000,-2181.818182,Speed,2175.000000,-2181.818182,Speed,Off,Off,0.000000,FALSE,43,Read: /home/lvuser/scripts/auto_43.bee,File good!,WAIT 1500,WAIT,0.000000,0.000000,-0.033000
07:58:52.405 PM 04/16/2016,Autonomous Enabled,10,TRUE,7,Read from Text File in DoesScriptNumberContainNull.vi->Disabled.vi->Robot Main.vi<APPEND> /home/lvuser/scripts/auto_42.bee,0.000000,0.000000,-0.000000,0.000000,TRUE,FALSE,TRUE,TRUE,FALSE,FALSE,Disabled,0.000000,0.000000,0.000000,TRUE,0.012390,0.001450,0.000000,0.124039,0.041626,0.000000,0.033000,0.062000,-0.112000,1.580000,-2.680000,-0.020000,15.713512,Hold,0.217773,0.000000,ResetBack,9193.000000,-0.250000,LowGoal,2130.000000,-2181.818182,Speed,2130.000000,-2181.818182,Speed,Off,Off,0.000000,FALSE,43,Read: /home/lvuser/scripts/auto_43.bee,File good!,WAIT 1500,WAIT,0.000000,0.000000,-0.033000
07:58:52.505 PM 04/16/2016,Autonomous Enabled,10,TRUE,7,Read from Text File in DoesScriptNumberContainNull.vi->Disabled.vi->Robot Main.vi<APPEND> /home/lvuser/scripts/auto_42.bee,0.000000,0.000000,-0.000000,0.000000,TRUE,FALSE,TRUE,TRUE,FALSE,FALSE,Disabled,0.000000,0.000000,0.000000,TRUE,0.019211,0.004471,0.000000,0.171402,0.058731,0.000000,-0.073000,0.048000,-0.097000,1.590000,-2.690000,0.050000,15.703625,Hold,0.217773,0.000000,ResetBack,9303.000000,-0.250000,LowGoal,2062.500000,-2181.818182,Speed,2107.500000,-2181.818182,Speed,Off,Off,0.000000,FALSE,43,Read: /home/lvuser/scripts/auto_43.bee,File good!,WAIT 1500,WAIT,0.000000,0.000000,-0.033000
07:58:52.605 PM 04/16/2016,Autonomous Enabled,10,TRUE,7,Read from Text File in DoesScriptNumberContainNull.vi->Disabled.vi->Robot Main.vi<APPEND> /home/lvuser/scripts/auto_42.bee,0.000000,0.000000,-0.000000,0.000000,TRUE,FALSE,TRUE,TRUE,FALSE,FALSE,Disabled,0.000000,0.000000,0.000000,TRUE,0.029327,0.003998,0.000000,0.210526,-0.050568,0.000000,-0.034000,-0.006000,0.107000,1.620000,-2.690000,0.110000,15.699425,Hold,0.217773,0.000000,ResetBack,9457.000000,-0.250000,LowGoal,2062.500000,-2181.818182,Speed,2115.000000,-2181.818182,Speed,Off,Off,0.000000,FALSE,43,Read: /home/lvuser/scripts/auto_43.bee,File good!,WAIT 1500,WAIT,0.000000,0.000000,-0.033000
07:58:52.706 PM 04/16/2016,Autonomous Enabled,10,TRUE,7,Read from Text File in DoesScriptNumberContainNull.vi->Disabled.vi->Robot Main.vi<APPEND> /home/lvuser/scripts/auto_42.bee,0.000000,0.000000,-0.000000,0.000000,TRUE,FALSE,TRUE,TRUE,FALSE,FALSE,Disabled,0.000000,0.000000,0.000000,TRUE,0.038635,0.001144,0.000000,0.193146,-0.058395,0.000000,0.028000,0.112000,0.011000,1.610000,-2.690000,0.140000,15.696795,Hold,0.217773,0.000000,ResetBack,9587.000000,-0.250000,LowGoal,2077.500000,-2181.818182,Speed,2115.000000,-2181.818182,Speed,Off,Off,0.000000,FALSE,43,Read: /home/lvuser/scripts/auto_43.bee,File good!,WAIT 1500,WAIT,0.000000,0.000000,-0.033000
07:58:52.807 PM 04/16/2016,Autonomous Enabled,11,TRUE,7,Read from Text File in DoesScriptNumberContainNull.vi->Disabled.vi->Robot Main.vi<APPEND> /home/lvuser/scripts/auto_42.bee,0.000000,0.000000,-0.000000,0.000000,TRUE,FALSE,TRUE,TRUE,FALSE,FALSE,Disabled,0.000000,0.000000,0.000000,TRUE,0.049484,-0.000626,0.000000,0.227325,-0.019974,0.000000,-0.069000,0.067000,-0.187000,1.610000,-2.690000,0.140000,15.680115,Hold,0.217773,0.000000,ResetBack,9619.000000,-0.250000,LowGoal,2077.500000,-2181.818182,Speed,2115.000000,-2181.818182,Speed,Off,Off,0.000000,FALSE,43,Read: /home/lvuser/scripts/auto_43.bee,File good!,WAIT 1500,WAIT,0.000000,0.000000,-0.033000
07:58:52.907 PM 04/16/2016,Autonomous Enabled,9,TRUE,7,Read from Text File in DoesScriptNumberContainNull.vi->Disabled.vi->Robot Main.vi<APPEND> /home/lvuser/scripts/auto_42.bee,0.000000,0.000000,-0.000000,0.000000,TRUE,FALSE,TRUE,TRUE,FALSE,FALSE,Disabled,0.000000,0.000000,0.000000,TRUE,0.058533,0.000641,0.000000,0.153809,0.039474,0.000000,-0.069000,0.067000,-0.187000,1.510000,-2.690000,0.350000,15.694650,Hold,0.217773,0.000000,Reset,9619.000000,2.000000,LowGoal,2077.500000,-2181.818182,Speed,2122.500000,-2181.818182,Speed,Off,Off,0.000000,FALSE,43,Read: /home/lvuser/scripts/auto_43.bee,File good!,WAIT 1500,WAIT,0.000000,0.000000,-0.033000
07:58:53.008 PM 04/16/2016,Autonomous Enabled,10,TRUE,7,Read from Text File in DoesScriptNumberContainNull.vi->Disabled.vi->Robot Main.vi<APPEND> /home/lvuser/scripts/auto_42.bee,0.000000,0.000000,-0.000000,0.000000,TRUE,FALSE,TRUE,TRUE,FALSE,FALSE,Disabled,0.000000,0.000000,0.000000,TRUE,0.065033,0.003326,0.000000,0.121140,0.043350,0.000000,0.096000,0.025000,0.006000,1.510000,-2.690000,0.350000,15.703346,Hold,0.217773,0.000000,Hold,1.000000,2.000000,LowGoal,2085.000000,-2181.818182,Speed,2130.000000,-2181.818182,Speed,Off,Off,0.000000,FALSE,43,Read: /home/lvuser/scripts/auto_43.bee,File good!,WAIT 1500,WAIT,0.000000,0.000000,-0.033000
07:58:53.112 PM 04/16/2016,Autonomous Enabled,9,TRUE,7,Read from Text File in DoesScriptNumberContainNull.vi->Disabled.vi->Robot Main.vi<APPEND> /home/lvuser/scripts/auto_42.bee,0.000000,0.000000,-0.000000,0.000000,TRUE,FALSE,TRUE,TRUE,FALSE,FALSE,Disabled,0.000000,0.000000,0.000000,TRUE,0.073135,0.004684,0.000000,0.185501,0.000000,0.000000,0.096000,0.025000,0.006000,1.600000,-2.690000,0.280000,15.715192,Hold,0.217773,0.000000,Hold,-179.000000,2.000000,LowGoal,2085.000000,-2181.818182,Speed,2130.000000,-2181.818182,Speed,Off,Off,0.000000,FALSE,43,Read: /home/lvuser/scripts/auto_43.bee,File good!,WAIT 1500,WAIT,0.000000,0.000000,-0.033000
07:58:53.213 PM 04/16/2016,Autonomous Enabled,11,TRUE,7,Read from Text File in DoesScriptNumberContainNull.vi->Disabled.vi->Robot Main.vi<APPEND> /home/lvuser/scripts/auto_42.bee,0.000000,0.000000,-0.000000,0.000000,TRUE,FALSE,TRUE,TRUE,FALSE,FALSE,Disabled,0.000000,0.000000,0.000000,TRUE,0.083450,0.003738,0.000000,0.219757,-0.038620,0.000000,0.051000,-0.086000,-0.024000,1.710000,-2.690000,0.170000,15.707219,Hold,0.217773,0.000000,Hold,-179.000000,2.000000,LowGoal,2077.500000,-2181.818182,Speed,2122.500000,-2181.818182,Speed,Off,Off,0.000000,FALSE,43,Read: /home/lvuser/scripts/auto_43.bee,File good!,NAVX_ZERO_YAW,NAVX_ZERO_YAW,0.000000,0.000000,-0.033000
07:58:53.317 PM 04/16/2016,Autonomous Enabled,12,TRUE,7,Read from Text File in DoesScriptNumberContainNull.vi->Disabled.vi->Robot Main.vi<APPEND> /home/lvuser/scripts/auto_42.bee,-0.562500,-0.455582,0.562500,0.442749,TRUE,FALSE,TRUE,TRUE,FALSE,FALSE,Disabled,0.000000,0.000000,0.000000,TRUE,0.099457,-0.000687,0.000000,0.302689,-0.087936,0.000000,0.051000,-0.086000,-0.024000,1.710000,-2.690000,0.170000,-0.021031,Hold,0.217773,0.000000,Hold,-179.000000,2.000000,LowGoal,2085.000000,-1818.181818,Speed,2122.500000,-1818.181818,Speed,Off,Off,0.000000,FALSE,43,Read: /home/lvuser/scripts/auto_43.bee,File good!,DRIVE_STRAIGHT_NAVX_RAMPARTS 200 5000 10,DRIVE_STRAIGHT_NAVX_RAMPARTS,0.000000,0.000000,-0.033000
07:58:53.417 PM 04/16/2016,Autonomous Enabled,9,TRUE,7,Read from Text File in DoesScriptNumberContainNull.vi->Disabled.vi->Robot Main.vi<APPEND> /home/lvuser/scripts/auto_42.bee,-0.562500,-2.451161,0.562500,2.534577,TRUE,FALSE,TRUE,TRUE,FALSE,FALSE,Disabled,0.000000,0.000000,0.000000,TRUE,0.131836,-0.004974,0.000000,0.793610,-0.100784,0.000000,1.198000,0.017000,-0.237000,1.650000,0.000000,0.200000,-0.213693,Hold,0.217773,0.000000,Hold,-181.000000,2.000000,LowGoal,2062.500000,-1818.181818,Speed,2077.500000,-1818.181818,Speed,Off,Off,0.000000,FALSE,43,Read: /home/lvuser/scripts/auto_43.bee,File good!,DRIVE_STRAIGHT_NAVX_RAMPARTS 200 5000 10,DRIVE_STRAIGHT_NAVX_RAMPARTS,0.000000,0.000000,-0.033000
07:58:53.520 PM 04/16/2016,Autonomous Enabled,10,TRUE,7,Read from Text File in DoesScriptNumberContainNull.vi->Disabled.vi->Robot Main.vi<APPEND> /home/lvuser/scripts/auto_42.bee,-0.562500,-5.466987,0.562500,5.614570,FALSE,FALSE,TRUE,TRUE,FALSE,FALSE,Disabled,0.000000,0.000000,0.000000,TRUE,0.180145,-0.006805,0.000000,1.040527,-0.041840,0.000000,0.370000,-0.013000,-0.372000,1.470000,-0.220000,4.890000,-0.263610,Hold,0.217773,0.000000,Hold,-181.000000,2.000000,LowGoal,1740.000000,-1818.181818,Speed,1837.500000,-1818.181818,Speed,Off,Off,0.000000,FALSE,43,Read: /home/lvuser/scripts/auto_43.bee,File good!,DRIVE_STRAIGHT_NAVX_RAMPARTS 200 5000 10,DRIVE_STRAIGHT_NAVX_RAMPARTS,0.000000,0.000000,-0.033000
07:58:53.623 PM 04/16/2016,Autonomous Enabled,7,TRUE,7,Read from Text File in DoesScriptNumberContainNull.vi->Disabled.vi->Robot Main.vi<APPEND> /home/lvuser/scripts/auto_42.bee,-0.562500,-9.464561,0.562500,9.580061,FALSE,FALSE,TRUE,TRUE,FALSE,FALSE,Disabled,0.000000,0.000000,0.000000,TRUE,0.237335,-0.008698,0.000000,1.183411,-0.037094,0.000000,0.261000,0.089000,0.107000,1.510000,-0.330000,3.500000,-0.261011,Hold,0.217773,0.000000,Hold,-181.000000,2.000000,LowGoal,1552.500000,-1818.181818,Speed,1665.000000,-1818.181818,Speed,Off,Off,0.000000,FALSE,43,Read: /home/lvuser/scripts/auto_43.bee,File good!,DRIVE_STRAIGHT_NAVX_RAMPARTS 200 5000 10,DRIVE_STRAIGHT_NAVX_RAMPARTS,0.000000,0.000000,-0.033000
07:58:53.724 PM 04/16/2016,Autonomous Enabled,9,TRUE,7,Read from Text File in DoesScriptNumberContainNull.vi->Disabled.vi->Robot Main.vi<APPEND> /home/lvuser/scripts/auto_42.bee,-0.562500,-13.603302,0.562500,13.872801,FALSE,FALSE,TRUE,TRUE,FALSE,FALSE,Disabled,0.000000,0.000000,0.000000,TRUE,0.295761,-0.011017,0.000000,1.148132,-0.039001,0.000000,0.020000,-0.072000,-0.204000,1.420000,-0.330000,4.050000,-0.482919,Hold,0.217773,0.000000,Hold,-181.000000,2.000000,LowGoal,1642.500000,-1818.181818,Speed,1687.500000,-1818.181818,Speed,Off,Off,0.000000,FALSE,43,Read: /home/lvuser/scripts/auto_43.bee,File good!,DRIVE_STRAIGHT_NAVX_RAMPARTS 200 5000 10,DRIVE_STRAIGHT_NAVX_RAMPARTS,0.000000,0.000000,-0.033000
07:58:53.824 PM 04/16/2016,Autonomous Enabled,10,TRUE,7,Read from Text File in DoesScriptNumberContainNull.vi->Disabled.vi->Robot Main.vi<APPEND> /home/lvuser/scripts/auto_42.bee,-0.562500,-17.863958,0.529838,18.358040,FALSE,FALSE,TRUE,TRUE,FALSE,FALSE,Disabled,0.000000,0.000000,0.000000,TRUE,0.352585,-0.013031,0.000000,1.140869,-0.027191,0.000000,0.007000,-0.024000,-0.273000,1.390000,-0.550000,4.470000,-0.870929,Hold,0.217773,0.000000,Hold,-181.000000,2.000000,LowGoal,1732.500000,-1818.181818,Speed,1747.500000,-1818.181818,Speed,Off,Off,0.000000,FALSE,43,Read: /home/lvuser/scripts/auto_43.bee,File good!,DRIVE_STRAIGHT_NAVX_RAMPARTS 200 5000 10,DRIVE_STRAIGHT_NAVX_RAMPARTS,0.000000,0.000000,-0.033000
07:58:53.924 PM 04/16/2016,Autonomous Enabled,13,FALSE,0,NO ERROR,-0.562500,-22.541697,0.516673,23.055029,TRUE,FALSE,TRUE,TRUE,FALSE,FALSE,Disabled,0.000000,0.000000,0.000000,TRUE,0.352585,-0.013031,0.000000,1.140869,-0.027191,0.000000,0.069000,-0.042000,0.102000,1.380000,-1.000000,2.790000,-1.260376,Hold,0.217773,0.000000,Hold,-181.000000,2.000000,LowGoal,1725.000000,-1818.181818,Speed,1755.000000,-1818.181818,Speed,Off,Off,0.000000,FALSE,43,Read: /home/lvuser/scripts/auto_43.bee,File good!,DRIVE_STRAIGHT_NAVX_RAMPARTS 200 5000 10,DRIVE_STRAIGHT_NAVX_RAMPARTS,0.000000,0.000000,-0.033000
07:58:54.025 PM 04/16/2016,Autonomous Enabled,10,FALSE,0,NO ERROR,-0.562500,-27.142437,0.518170,27.578769,FALSE,FALSE,TRUE,TRUE,FALSE,FALSE,Disabled,0.000000,0.000000,0.000000,TRUE,0.422501,-0.014893,0.000000,1.157318,-0.045898,0.000000,-0.073000,0.016000,0.214000,1.450000,-1.260000,3.010000,-1.134306,Hold,0.217773,0.000000,Hold,-181.000000,2.000000,LowGoal,1702.500000,-1818.181818,Speed,1747.500000,-1818.181818,Speed,Off,Off,0.000000,FALSE,43,Read: /home/lvuser/scripts/auto_43.bee,File good!,DRIVE_STRAIGHT_NAVX_RAMPARTS 200 5000 10,DRIVE_STRAIGHT_NAVX_RAMPARTS,0.000000,0.000000,-0.033000
07:58:54.126 PM 04/16/2016,Autonomous Enabled,10,FALSE,0,NO ERROR,-0.562500,-32.115342,0.532112,32.307841,TRUE,FALSE,TRUE,TRUE,FALSE,FALSE,Disabled,0.000000,0.000000,0.000000,TRUE,0.477966,-0.016876,0.000000,1.087006,-0.046814,0.000000,0.141000,-0.089000,-0.382000,1.500000,-1.070000,2.660000,-0.695686,Hold,0.217773,0.000000,Hold,-181.000000,2.000000,LowGoal,1710.000000,-1818.181818,Speed,1747.500000,-1818.181818,Speed,Off,Off,0.000000,FALSE,43,Read: /home/lvuser/scripts/auto_43.bee,File good!,DRIVE_STRAIGHT_NAVX_RAMPARTS 200 5000 10,DRIVE_STRAIGHT_NAVX_RAMPARTS,0.000000,0.000000,-0.033000
07:58:54.229 PM 04/16/2016,Autonomous Enabled,10,FALSE,0,NO ERROR,-0.562500,-36.703248,0.542403,36.825164,TRUE,FALSE,TRUE,TRUE,FALSE,FALSE,Disabled,0.000000,0.000000,0.000000,TRUE,0.532913,-0.020126,0.000000,1.087311,-0.065948,0.000000,-0.081000,-0.012000,-0.059000,1.350000,-0.590000,2.850000,-0.490871,Hold,0.217773,0.000000,Hold,-181.000000,2.000000,LowGoal,1710.000000,-1818.181818,Speed,1747.500000,-1818.181818,Speed,Off,Off,0.000000,FALSE,43,Read: /home/lvuser/scripts/auto_43.bee,File good!,DRIVE_STRAIGHT_NAVX_RAMPARTS 200 5000 10,DRIVE_STRAIGHT_NAVX_RAMPARTS,0.000000,0.000000,-0.033000
07:58:54.330 PM 04/16/2016,Autonomous Enabled,10,FALSE,0,NO ERROR,-0.562500,-41.233404,0.544319,41.425903,TRUE,FALSE,TRUE,TRUE,FALSE,FALSE,Disabled,0.000000,0.000000,0.000000,TRUE,0.584641,-0.023285,0.000000,1.009491,-0.065063,0.000000,0.060000,-0.057000,-0.085000,1.440000,-0.440000,2.620000,-0.509974,Hold,0.217773,0.000000,Hold,-181.000000,2.000000,LowGoal,1710.000000,-1818.181818,Speed,1747.500000,-1818.181818,Speed,Off,Off,0.000000,FALSE,43,Read: /home/lvuser/scripts/auto_43.bee,File good!,DRIVE_STRAIGHT_NAVX_RAMPARTS 200 5000 10,DRIVE_STRAIGHT_NAVX_RAMPARTS,0.000000,0.000000,-0.033000
07:58:54.430 PM 04/16/2016,Autonomous Enabled,9,FALSE,0,NO ERROR,-0.562500,-45.859809,0.541254,46.065142,TRUE,FALSE,TRUE,TRUE,FALSE,FALSE,Disabled,0.000000,0.000000,0.000000,TRUE,0.634399,-0.027176,0.000000,0.961884,-0.081284,0.000000,-0.075000,-0.019000,-0.040000,1.450000,-0.490000,2.590000,-0.509974,Hold,0.217773,0.000000,Hold,-181.000000,2.000000,LowGoal,1710.000000,-1818.181818,Speed,1747.500000,-1818.181818,Speed,Off,Off,0.000000,FALSE,43,Read: /home/lvuser/scripts/auto_43.bee,File good!,DRIVE_STRAIGHT_NAVX_RAMPARTS 200 5000 10,DRIVE_STRAIGHT_NAVX_RAMPARTS,0.000000,0.000000,-0.033000
07:58:54.531 PM 04/16/2016,Autonomous Enabled,11,FALSE,0,NO ERROR,-0.562500,-45.859809,0.536673,46.065142,TRUE,FALSE,TRUE,TRUE,FALSE,FALSE,Disabled,0.000000,0.000000,0.000000,TRUE,0.671280,-0.028824,0.000000,0.000000,0.015701,0.000000,0.017000,0.046000,-0.134000,1.610000,-0.630000,2.480000,-0.620438,Hold,0.217773,0.000000,Hold,-181.000000,2.000000,LowGoal,1717.500000,-1818.181818,Speed,1747.500000,-1818.181818,Speed,Off,Off,0.000000,FALSE,43,Read: /home/lvuser/scripts/auto_43.bee,File good!,DRIVE_STRAIGHT_NAVX_RAMPARTS 200 5000 10,DRIVE_STRAIGHT_NAVX_RAMPARTS,0.000000,0.000000,-0.033000
07:58:54.632 PM 04/16/2016,Autonomous Enabled,9,FALSE,0,NO ERROR,-0.562500,-50.717215,0.536293,50.845548,FALSE,FALSE,TRUE,TRUE,FALSE,FALSE,Disabled,0.000000,0.000000,0.000000,TRUE,0.670197,-0.026672,0.000000,-0.065460,0.050034,0.000000,-0.218000,-0.069000,-0.020000,1.640000,-0.690000,5.120000,-0.746109,Hold,0.217773,0.000000,Hold,-181.000000,2.000000,LowGoal,1717.500000,-1818.181818,Speed,1747.500000,-1818.181818,Speed,Off,Off,0.000000,FALSE,43,Read: /home/lvuser/scripts/auto_43.bee,File good!,DRIVE_STRAIGHT_NAVX_RAMPARTS 200 5000 10,DRIVE_STRAIGHT_NAVX_RAMPARTS,0.000000,0.000000,-0.033000
07:58:54.732 PM 04/16/2016,Autonomous Enabled,10,FALSE,0,NO ERROR,-0.562500,-55.138288,0.535151,55.407787,FALSE,FALSE,TRUE,TRUE,FALSE,FALSE,Disabled,0.000000,0.000000,0.000000,TRUE,0.663727,-0.025696,0.000000,-0.136139,0.009674,0.000000,0.012000,-0.002000,0.192000,1.370000,-0.740000,7.740000,-0.825312,Hold,0.217773,0.000000,Hold,-181.000000,2.000000,LowGoal,1717.500000,-1818.181818,Speed,1747.500000,-1818.181818,Speed,Off,Off,0.000000,FALSE,43,Read: /home/lvuser/scripts/auto_43.bee,File good!,DRIVE_STRAIGHT_NAVX_RAMPARTS 200 5000 10,DRIVE_STRAIGHT_NAVX_RAMPARTS,0.000000,0.000000,-0.033000
07:58:54.832 PM 04/16/2016,Autonomous Enabled,10,FALSE,0,NO ERROR,-0.562500,-59.739027,0.687307,59.296278,FALSE,FALSE,TRUE,TRUE,FALSE,FALSE,Disabled,0.000000,0.000000,0.000000,TRUE,0.652237,-0.024414,0.000000,-0.357498,0.052872,0.000000,-0.429000,0.162000,0.193000,0.660000,2.360000,10.430000,0.693517,Hold,0.217773,0.000000,Hold,-181.000000,2.000000,LowGoal,1717.500000,-1818.181818,Speed,1747.500000,-1818.181818,Speed,Off,Off,0.000000,FALSE,43,Read: /home/lvuser/scripts/auto_43.bee,File good!,DRIVE_STRAIGHT_NAVX_RAMPARTS 200 5000 10,DRIVE_STRAIGHT_NAVX_RAMPARTS,0.000000,0.000000,-0.033000
07:58:54.933 PM 04/16/2016,Autonomous Enabled,10,FALSE,0,NO ERROR,-0.562500,-63.159102,0.682144,63.319519,FALSE,FALSE,TRUE,TRUE,FALSE,FALSE,Disabled,0.000000,0.000000,0.000000,TRUE,0.625671,-0.020737,0.000000,-0.577118,0.017990,0.000000,0.042000,-0.255000,-0.298000,-0.210000,3.220000,15.980000,2.858280,Hold,0.217773,0.000000,Hold,-181.000000,2.000000,LowGoal,1695.000000,-1818.181818,Speed,1732.500000,-1818.181818,Speed,Off,Off,0.000000,FALSE,43,Read: /home/lvuser/scripts/auto_43.bee,File good!,DRIVE_STRAIGHT_NAVX_RAMPARTS 200 5000 10,DRIVE_STRAIGHT_NAVX_RAMPARTS,0.000000,0.000000,-0.033000
07:58:55.033 PM 04/16/2016,Autonomous Enabled,11,FALSE,0,NO ERROR,-0.562500,-65.995262,0.601369,68.080674,FALSE,FALSE,TRUE,TRUE,FALSE,FALSE,Disabled,0.000000,0.000000,0.000000,TRUE,0.599930,-0.026962,0.000000,-0.429565,-0.204010,0.000000,0.152000,0.168000,0.269000,1.180000,1.460000,19.090000,1.823358,Hold,0.217773,0.000000,Hold,-181.000000,2.000000,LowGoal,1687.500000,-1818.181818,Speed,1725.000000,-1818.181818,Speed,Off,Off,0.000000,FALSE,43,Read: /home/lvuser/scripts/auto_43.bee,File good!,DRIVE_STRAIGHT_NAVX_RAMPARTS 200 5000 10,DRIVE_STRAIGHT_NAVX_RAMPARTS,0.000000,0.000000,-0.033000
07:58:55.133 PM 04/16/2016,Autonomous Enabled,9,FALSE,0,NO ERROR,-0.562500,-69.267755,0.631993,71.519999,FALSE,FALSE,TRUE,TRUE,FALSE,FALSE,Disabled,0.000000,0.000000,0.000000,TRUE,0.585480,-0.028107,0.000000,-0.100052,0.063660,0.000000,0.025000,-0.251000,-0.176000,2.230000,0.790000,14.180000,1.095666,Hold,0.217773,0.000000,Hold,-181.000000,2.000000,LowGoal,1687.500000,-1818.181818,Speed,1717.500000,-1818.181818,Speed,Off,Off,0.000000,FALSE,43,Read: /home/lvuser/scripts/auto_43.bee,File good!,DRIVE_STRAIGHT_NAVX_RAMPARTS 200 5000 10,DRIVE_STRAIGHT_NAVX_RAMPARTS,0.000000,0.000000,-0.033000
07:58:55.233 PM 04/16/2016,Autonomous Enabled,10,FALSE,0,NO ERROR,-0.562500,-71.571333,0.726211,74.805325,FALSE,FALSE,TRUE,TRUE,FALSE,FALSE,Disabled,0.000000,0.000000,0.000000,TRUE,0.584778,-0.040207,0.000000,-0.040863,-0.348862,0.000000,0.739000,-0.878000,-2.405000,0.670000,3.290000,10.540000,2.261082,Hold,0.242676,0.000000,Hold,-181.000000,2.000000,LowGoal,1687.500000,-1818.181818,Speed,1710.000000,-1818.181818,Speed,Off,Off,0.000000,FALSE,43,Read: /home/lvuser/scripts/auto_43.bee,File good!,DRIVE_STRAIGHT_NAVX_RAMPARTS 200 5000 10,DRIVE_STRAIGHT_NAVX_RAMPARTS,0.000000,0.000000,-0.033000
07:58:55.333 PM 04/16/2016,Autonomous Enabled,10,FALSE,0,NO ERROR,-0.562500,-74.240660,0.829338,78.783649,FALSE,FALSE,TRUE,TRUE,FALSE,FALSE,Disabled,0.000000,0.000000,0.000000,TRUE,0.593414,-0.063538,0.000000,0.170990,-0.606110,0.000000,-0.769000,-0.383000,0.854000,1.940000,5.450000,16.320000,5.459663,Hold,0.245850,0.000000,Hold,-135.000000,2.000000,LowGoal,1650.000000,-1818.181818,Speed,1710.000000,-1818.181818,Speed,Off,Off,0.000000,FALSE,43,Read: /home/lvuser/scripts/auto_43.bee,File good!,DRIVE_STRAIGHT_NAVX_RAMPARTS 200 5000 10,DRIVE_STRAIGHT_NAVX_RAMPARTS,0.000000,0.000000,-0.033000
07:58:55.433 PM 04/16/2016,Autonomous Enabled,11,FALSE,0,NO ERROR,-0.562500,-76.518571,1.000000,81.818725,FALSE,FALSE,TRUE,TRUE,FALSE,FALSE,Disabled,0.000000,0.000000,0.000000,TRUE,0.591843,-0.100296,0.000000,-0.010010,-0.713684,0.000000,0.224000,0.064000,-0.562000,1.420000,8.910000,20.720000,8.058571,Hold,0.252197,0.000000,Hold,-183.000000,2.000000,LowGoal,1642.500000,-1818.181818,Speed,1702.500000,-1818.181818,Speed,Off,Off,0.000000,FALSE,43,Read: /home/lvuser/scripts/auto_43.bee,File good!,DRIVE_STRAIGHT_NAVX_RAMPARTS 200 5000 10,DRIVE_STRAIGHT_NAVX_RAMPARTS,0.000000,0.000000,-0.033000
07:58:55.533 PM 04/16/2016,Autonomous Enabled,7,FALSE,0,NO ERROR,-0.562500,-79.001815,1.000000,88.062127,FALSE,FALSE,TRUE,TRUE,FALSE,FALSE,Disabled,0.000000,0.000000,0.000000,TRUE,0.594452,-0.138153,0.000000,0.053177,-0.845261,0.000000,0.318000,-0.575000,0.511000,2.770000,13.270000,22.080000,12.943860,Hold,0.252686,0.000000,Hold,-182.000000,2.000000,LowGoal,1642.500000,-1818.181818,Speed,1680.000000,-1818.181818,Speed,Off,Off,0.000000,FALSE,43,Read: /home/lvuser/scripts/auto_43.bee,File good!,DRIVE_STRAIGHT_NAVX_RAMPARTS 200 5000 10,DRIVE_STRAIGHT_NAVX_RAMPARTS,0.000000,0.000000,-0.033000
07:58:55.634 PM 04/16/2016,Autonomous Enabled,10,FALSE,0,NO ERROR,-0.562500,-81.286143,1.000000,91.418036,FALSE,FALSE,TRUE,TRUE,FALSE,FALSE,Disabled,0.000000,0.000000,0.000000,TRUE,0.600906,-0.179901,0.000000,0.149796,-0.617935,0.000000,0.081000,0.145000,-0.169000,2.390000,15.830000,18.980000,14.784537,Hold,0.252686,0.000000,Hold,-180.000000,2.000000,LowGoal,1665.000000,-1818.181818,Speed,1687.500000,-1818.181818,Speed,Off,Off,0.000000,FALSE,43,Read: /home/lvuser/scripts/auto_43.bee,File good!,DRIVE_STRAIGHT_NAVX_RAMPARTS 200 5000 10,DRIVE_STRAIGHT_NAVX_RAMPARTS,0.000000,0.000000,-0.033000
07:58:55.734 PM 04/16/2016,Autonomous Enabled,11,FALSE,0,NO ERROR,-0.562500,-84.006804,1.000000,98.399353,FALSE,FALSE,TRUE,TRUE,FALSE,FALSE,Disabled,0.000000,0.000000,0.000000,TRUE,0.609634,-0.206802,0.000000,0.113037,-0.515884,0.000000,-0.231000,-0.360000,-0.001000,0.910000,22.670000,11.770000,20.360573,Hold,0.252686,0.000000,Hold,-178.000000,2.000000,LowGoal,1642.500000,-1818.181818,Speed,1665.000000,-1818.181818,Speed,Off,Off,0.000000,FALSE,43,Read: /home/lvuser/scripts/auto_43.bee,File good!,DRIVE_STRAIGHT_NAVX_RAMPARTS 200 5000 10,DRIVE_STRAIGHT_NAVX_RAMPARTS,0.000000,0.000000,-0.033000
07:58:55.834 PM 04/16/2016,Autonomous Enabled,10,FALSE,0,NO ERROR,-0.562500,-86.457964,1.000000,104.572172,FALSE,FALSE,TRUE,TRUE,FALSE,FALSE,Disabled,0.000000,0.000000,0.000000,TRUE,0.612320,-0.240784,0.000000,0.113525,-0.756165,0.000000,0.879000,0.412000,1.103000,2.120000,27.350000,6.480000,26.165610,Hold,0.252930,0.000000,Hold,-178.000000,2.000000,LowGoal,1635.000000,-1818.181818,Speed,1687.500000,-1818.181818,Speed,Off,Off,0.000000,FALSE,43,Read: /home/lvuser/scripts/auto_43.bee,File good!,DRIVE_STRAIGHT_NAVX_RAMPARTS 200 5000 10,DRIVE_STRAIGHT_NAVX_RAMPARTS,0.000000,0.000000,-0.033000
07:58:55.934 PM 04/16/2016,Autonomous Enabled,11,FALSE,0,NO ERROR,-0.562500,-90.096206,1.000000,109.346161,FALSE,FALSE,TRUE,TRUE,FALSE,FALSE,Disabled,0.000000,0.000000,0.000000,TRUE,0.635849,-0.282837,0.000000,0.406601,-0.684219,0.000000,-0.099000,0.473000,0.479000,-0.740000,30.240000,10.860000,29.088962,Hold,0.253662,0.000000,Hold,-177.000000,2.000000,LowGoal,1635.000000,-1818.181818,Speed,1710.000000,-1818.181818,Speed,Off,Off,0.000000,FALSE,43,Read: /home/lvuser/scripts/auto_43.bee,File good!,DRIVE_STRAIGHT_NAVX_RAMPARTS 200 5000 10,DRIVE_STRAIGHT_NAVX_RAMPARTS,0.000000,0.000000,-0.033000
07:58:56.035 PM 04/16/2016,Autonomous Enabled,10,FALSE,0,NO ERROR,-0.562500,-93.086366,1.000000,116.969143,FALSE,FALSE,TRUE,TRUE,FALSE,FALSE,Disabled,0.000000,0.000000,0.000000,TRUE,0.648682,-0.307602,0.000000,0.262329,-0.683029,0.000000,0.065000,-0.288000,-0.290000,0.220000,29.290000,12.750000,29.210791,Hold,0.253906,0.000000,Hold,-177.000000,2.000000,LowGoal,1635.000000,-1818.181818,Speed,1702.500000,-1818.181818,Speed,Off,Off,0.000000,FALSE,43,Read: /home/lvuser/scripts/auto_43.bee,File good!,DRIVE_STRAIGHT_NAVX_RAMPARTS 200 5000 10,DRIVE_STRAIGHT_NAVX_RAMPARTS,0.000000,0.000000,-0.033000
07:58:56.136 PM 04/16/2016,Autonomous Enabled,10,FALSE,0,NO ERROR,-0.562500,-95.672276,1.000000,122.975129,FALSE,FALSE,TRUE,TRUE,FALSE,FALSE,Disabled,0.000000,0.000000,0.000000,TRUE,0.660263,-0.348953,0.000000,0.272858,-0.954529,0.000000,-0.217000,0.466000,0.761000,1.170000,23.280000,9.890000,24.903290,Hold,0.253906,0.000000,Hold,-174.000000,2.000000,LowGoal,1657.500000,-1818.181818,Speed,1717.500000,-1818.181818,Speed,Off,Off,0.000000,FALSE,43,Read: /home/lvuser/scripts/auto_43.bee,File good!,DRIVE_STRAIGHT_NAVX_RAMPARTS 200 5000 10,DRIVE_STRAIGHT_NAVX_RAMPARTS,0.000000,0.000000,-0.033000
07:58:56.237 PM 04/16/2016,Autonomous Enabled,10,FALSE,0,NO ERROR,-0.562500,-98.136271,1.000000,129.224948,FALSE,FALSE,TRUE,TRUE,FALSE,FALSE,Disabled,0.000000,0.000000,0.000000,TRUE,0.681015,-0.401077,0.000000,0.519547,-0.781387,0.000000,0.210000,0.068000,0.538000,0.020000,18.620000,5.010000,19.043206,Hold,0.463379,0.000000,Hold,-170.000000,2.000000,LowGoal,1672.500000,-1818.181818,Speed,1717.500000,-1818.181818,Speed,Off,Off,0.000000,FALSE,43,Read: /home/lvuser/scripts/auto_43.bee,File good!,DRIVE_STRAIGHT_NAVX_RAMPARTS 200 5000 10,DRIVE_STRAIGHT_NAVX_RAMPARTS,0.000000,0.000000,-0.033000
07:58:56.338 PM 04/16/2016,Autonomous Enabled,9,FALSE,0,NO ERROR,-0.562500,-101.126430,1.000000,135.635183,TRUE,FALSE,TRUE,TRUE,FALSE,FALSE,Disabled,0.000000,0.000000,0.000000,TRUE,0.705490,-0.432770,0.000000,0.677185,-0.820206,0.000000,0.119000,0.048000,-0.807000,0.490000,14.490000,1.910000,15.011182,Hold,0.613037,0.000000,Hold,-170.000000,2.000000,LowGoal,1657.500000,-1818.181818,Speed,1702.500000,-1818.181818,Speed,Off,Off,0.000000,FALSE,43,Read: /home/lvuser/scripts/auto_43.bee,File good!,DRIVE_STRAIGHT_NAVX_RAMPARTS 200 5000 10,DRIVE_STRAIGHT_NAVX_RAMPARTS,0.000000,0.000000,-0.033000
07:58:56.439 PM 04/16/2016,Autonomous Enabled,9,FALSE,0,NO ERROR,-0.562500,-104.822422,1.000000,144.092330,FALSE,FALSE,TRUE,TRUE,FALSE,FALSE,Disabled,0.000000,0.000000,0.000000,TRUE,0.753708,-0.481781,0.000000,0.903473,-0.838272,0.000000,0.316000,-0.237000,-0.955000,2.680000,11.540000,3.780000,11.942255,Hold,1.168213,0.000000,Hold,-170.000000,2.000000,LowGoal,1650.000000,-1818.181818,Speed,1702.500000,-1818.181818,Speed,Off,Off,0.000000,FALSE,43,Read: /home/lvuser/scripts/auto_43.bee,File good!,DRIVE_STRAIGHT_NAVX_RAMPARTS 200 5000 10,DRIVE_STRAIGHT_NAVX_RAMPARTS,0.000000,0.000000,-0.033000
07:58:56.539 PM 04/16/2016,Autonomous Enabled,11,FALSE,0,NO ERROR,-0.562500,-108.268163,0.820365,150.425565,FALSE,FALSE,TRUE,TRUE,FALSE,FALSE,Disabled,0.000000,0.000000,0.000000,TRUE,0.804382,-0.524353,0.000000,1.109146,-0.703064,0.000000,0.414000,-0.053000,-0.681000,4.530000,5.990000,-4.840000,7.095856,Hold,0.786865,0.000000,Hold,-169.000000,2.000000,LowGoal,1687.500000,-1818.181818,Speed,1725.000000,-1818.181818,Speed,Off,Off,0.000000,FALSE,43,Read: /home/lvuser/scripts/auto_43.bee,File good!,DRIVE_STRAIGHT_NAVX_RAMPARTS 200 5000 10,DRIVE_STRAIGHT_NAVX_RAMPARTS,0.000000,0.000000,-0.033000
07:58:56.639 PM 04/16/2016,Autonomous Enabled,10,FALSE,0,NO ERROR,-0.562500,-112.605820,0.526815,157.477465,FALSE,FALSE,TRUE,TRUE,FALSE,FALSE,Disabled,0.000000,0.000000,0.000000,TRUE,0.866852,-0.565643,0.000000,1.312439,-0.843079,0.000000,0.044000,1.123000,1.067000,1.360000,0.280000,-12.420000,-0.608128,Hold,1.784180,0.000000,Hold,-165.000000,2.000000,LowGoal,1695.000000,-1818.181818,Speed,1710.000000,-1818.181818,Speed,Off,Off,0.000000,FALSE,43,Read: /home/lvuser/scripts/auto_43.bee,File good!,DRIVE_STRAIGHT_NAVX_RAMPARTS 200 5000 10,DRIVE_STRAIGHT_NAVX_RAMPARTS,0.000000,0.000000,-0.033000
07:58:56.740 PM 04/16/2016,Autonomous Enabled,10,FALSE,0,NO ERROR,-0.562500,-117.322059,0.434624,163.695201,FALSE,FALSE,TRUE,TRUE,FALSE,FALSE,Disabled,0.000000,0.000000,0.000000,TRUE,0.935455,-0.596024,0.000000,1.375046,-0.666031,0.000000,0.205000,0.039000,-0.574000,5.290000,-3.490000,-9.020000,-3.631048,Hold,1.818604,0.000000,Hold,-267.000000,2.000000,LowGoal,1672.500000,-1818.181818,Speed,1717.500000,-1818.181818,Speed,Off,Off,0.000000,FALSE,43,Read: /home/lvuser/scripts/auto_43.bee,File good!,DRIVE_STRAIGHT_NAVX_RAMPARTS 200 5000 10,DRIVE_STRAIGHT_NAVX_RAMPARTS,0.000000,0.000000,-0.033000
07:58:56.841 PM 04/16/2016,Autonomous Enabled,10,FALSE,0,NO ERROR,-0.562500,-122.378380,0.522671,169.194271,FALSE,FALSE,TRUE,TRUE,FALSE,FALSE,Disabled,0.000000,0.000000,0.000000,TRUE,1.004623,-0.629593,0.000000,1.365219,-0.635468,0.000000,0.145000,0.516000,-0.132000,2.010000,-1.040000,-3.050000,-2.005497,Hold,1.453369,0.000000,Hold,-179.000000,2.000000,LowGoal,1672.500000,-1818.181818,Speed,1747.500000,-1818.181818,Speed,Off,Off,0.000000,FALSE,43,Read: /home/lvuser/scripts/auto_43.bee,File good!,DRIVE_STRAIGHT_NAVX_RAMPARTS 200 5000 10,DRIVE_STRAIGHT_NAVX_RAMPARTS,0.000000,0.000000,-0.033000
07:58:56.941 PM 04/16/2016,Autonomous Enabled,9,FALSE,0,NO ERROR,-0.562500,-128.506283,0.532112,174.975674,TRUE,FALSE,TRUE,TRUE,FALSE,FALSE,Disabled,0.000000,0.000000,0.000000,TRUE,1.062927,-0.657394,0.000000,0.866592,-0.765030,0.000000,-0.589000,0.157000,0.972000,0.940000,-0.670000,2.940000,-1.145893,Hold,1.440430,0.000000,Hold,-176.000000,2.000000,LowGoal,1717.500000,-1818.181818,Speed,1755.000000,-1818.181818,Speed,Off,Off,0.000000,FALSE,43,Read: /home/lvuser/scripts/auto_43.bee,File good!,DRIVE_STRAIGHT_NAVX_RAMPARTS 200 5000 10,DRIVE_STRAIGHT_NAVX_RAMPARTS,0.000000,0.000000,-0.033000
07:58:57.042 PM 04/16/2016,Autonomous Enabled,10,FALSE,0,NO ERROR,-0.562500,-0.968914,0.562500,0.949664,TRUE,FALSE,TRUE,TRUE,FALSE,FALSE,Disabled,0.000000,0.000000,0.000000,TRUE,1.091675,-0.699570,0.000000,0.556381,-0.831345,0.000000,0.032000,0.217000,-0.859000,0.110000,-0.160000,0.130000,-0.712372,Hold,1.430908,0.000000,Hold,-183.000000,2.000000,LowGoal,1732.500000,-1818.181818,Speed,1762.500000,-1818.181818,Speed,Off,Off,0.000000,FALSE,43,Read: /home/lvuser/scripts/auto_43.bee,File good!,DRIVE_STRAIGHT_TARGET 12 0 10000 75,DRIVE_STRAIGHT_TARGET,0.000000,0.000000,-0.033000
07:58:57.143 PM 04/16/2016,Autonomous Enabled,11,FALSE,0,NO ERROR,-0.562500,-4.741906,0.562500,4.825322,TRUE,FALSE,TRUE,TRUE,FALSE,FALSE,Disabled,0.000000,0.000000,0.000000,TRUE,1.122467,-0.734940,0.000000,0.713058,-0.636948,0.000000,-0.191000,0.207000,-0.030000,2.040000,0.320000,2.530000,-0.390118,Hold,2.545654,0.000000,Hold,-183.000000,2.000000,LowGoal,1687.500000,-1818.181818,Speed,1747.500000,-1818.181818,Speed,Off,Off,0.000000,FALSE,43,Read: /home/lvuser/scripts/auto_43.bee,File good!,DRIVE_STRAIGHT_TARGET 12 0 10000 75,DRIVE_STRAIGHT_TARGET,0.000000,0.000000,-0.033000
07:58:57.243 PM 04/16/2016,Autonomous Enabled,10,FALSE,0,NO ERROR,-0.562500,-9.021812,0.562500,9.265645,FALSE,FALSE,TRUE,TRUE,FALSE,FALSE,Disabled,0.000000,0.000000,0.000000,TRUE,1.166946,-0.768250,0.000000,0.754333,-0.561569,0.000000,0.131000,-0.260000,0.610000,2.180000,0.880000,3.040000,0.492737,Hold,1.276123,0.000000,Hold,-165.000000,2.000000,LowGoal,1680.000000,-1818.181818,Speed,1725.000000,-1818.181818,Speed,Off,Off,0.000000,FALSE,43,Read: /home/lvuser/scripts/auto_43.bee,File good!,DRIVE_STRAIGHT_TARGET 12 0 10000 75,DRIVE_STRAIGHT_TARGET,0.000000,0.000000,-0.033000
07:58:57.343 PM 04/16/2016,Autonomous Enabled,9,FALSE,0,NO ERROR,0.000000,-12.923136,-0.000000,13.160553,TRUE,FALSE,TRUE,TRUE,FALSE,TRUE,Disabled,0.000000,0.000000,0.000000,TRUE,1.209930,-0.799026,0.000000,0.953796,-0.615372,0.000000,0.178000,-0.145000,-0.190000,2.100000,0.920000,1.020000,0.576432,Hold,0.839111,0.000000,Hold,-159.000000,2.000000,LowGoal,1695.000000,-1818.181818,Speed,1725.000000,-1818.181818,Speed,Off,Off,0.000000,FALSE,43,Read: /home/lvuser/scripts/auto_43.bee,File good!,SEARCH_FOR_GOAL,SEARCH_FOR_GOAL,0.000000,0.000000,-0.033000
07:58:57.444 PM 04/16/2016,Autonomous Enabled,9,FALSE,0,NO ERROR,0.000000,-15.438464,-0.000000,16.246962,TRUE,FALSE,TRUE,TRUE,FALSE,TRUE,Disabled,0.000000,0.000000,0.000000,TRUE,1.249588,-0.831253,0.000000,0.439468,-0.653168,0.000000,0.127000,-0.175000,0.325000,2.200000,0.240000,-2.570000,0.002238,Hold,0.845459,50.000000,Hold,-158.000000,71680.000000,LowGoal,1695.000000,-3272.727273,Speed,1732.500000,-3272.727273,Speed,Off,Off,0.000000,FALSE,43,Read: /home/lvuser/scripts/auto_43.bee,File good!,SEARCH_FOR_GOAL,SEARCH_FOR_GOAL,0.000000,0.000000,-0.033000
07:58:57.544 PM 04/16/2016,Autonomous Enabled,10,FALSE,0,NO ERROR,0.000000,-16.388128,-0.000000,17.376293,FALSE,FALSE,TRUE,TRUE,FALSE,TRUE,Disabled,0.000000,0.000000,0.000000,TRUE,1.266846,-0.864258,0.000000,0.264130,-0.651047,0.000000,-0.226000,0.024000,-0.238000,2.150000,0.120000,-3.910000,-0.362247,Hold,3.085449,50.000000,Hold,-4309.000000,71680.000000,LowGoal,1725.000000,-3272.727273,Speed,1770.000000,-3272.727273,Speed,Off,Off,0.000000,FALSE,43,Read: /home/lvuser/scripts/auto_43.bee,File good!,SEARCH_FOR_GOAL,SEARCH_FOR_GOAL,0.000000,0.000000,-0.033000
07:58:57.645 PM 04/16/2016,Autonomous Enabled,11,FALSE,0,NO ERROR,0.000000,-16.850127,-0.000000,17.902458,TRUE,FALSE,TRUE,TRUE,FALSE,TRUE,Disabled,0.000000,0.000000,0.000000,TRUE,1.273285,-0.895081,0.000000,0.059525,-0.590286,0.000000,-0.043000,0.109000,-0.175000,2.150000,0.050000,-2.100000,-0.571093,Hold,7.412354,50.000000,Hold,-21286.000000,71680.000000,LowGoal,2017.500000,-3272.727273,Speed,2070.000000,-3272.727273,Speed,Off,Off,0.000000,FALSE,43,Read: /home/lvuser/scripts/auto_43.bee,File good!,SEARCH_FOR_GOAL,SEARCH_FOR_GOAL,0.000000,0.000000,-0.033000
07:58:57.746 PM 04/16/2016,Autonomous Enabled,10,FALSE,0,NO ERROR,0.000000,-16.779544,-0.000000,17.870375,TRUE,FALSE,TRUE,TRUE,FALSE,TRUE,Disabled,0.000000,0.000000,0.000000,TRUE,1.274841,-0.922424,0.000000,0.036560,-0.543106,0.000000,0.236000,-0.097000,0.238000,2.030000,-0.370000,-2.880000,-0.918888,Hold,10.498291,50.000000,Hold,-39608.000000,71680.000000,LowGoal,2340.000000,-3272.727273,Speed,2407.500000,-3272.727273,Speed,Off,Off,0.000000,FALSE,43,Read: /home/lvuser/scripts/auto_43.bee,File good!,SEARCH_FOR_GOAL,SEARCH_FOR_GOAL,0.000000,0.000000,-0.033000
07:58:57.846 PM 04/16/2016,Autonomous Enabled,10,FALSE,0,NO ERROR,0.000000,-16.779544,-0.000000,17.851125,TRUE,FALSE,TRUE,TRUE,FALSE,TRUE,Disabled,0.000000,0.000000,0.000000,TRUE,1.280441,-0.934006,0.000000,0.139343,-0.015320,0.000000,-0.064000,0.150000,0.251000,1.930000,-0.250000,-2.280000,-0.808189,Hold,14.557617,50.000000,Hold,-39608.000000,71680.000000,LowGoal,2617.500000,-3272.727273,Speed,2692.500000,-3272.727273,Speed,Off,Off,0.000000,FALSE,43,Read: /home/lvuser/scripts/auto_43.bee,File good!,SEARCH_FOR_GOAL,SEARCH_FOR_GOAL,0.000000,0.000000,-0.033000
07:58:57.946 PM 04/16/2016,Autonomous Enabled,9,FALSE,0,NO ERROR,0.000000,-16.779544,-0.000000,17.799792,TRUE,FALSE,TRUE,TRUE,FALSE,TRUE,Disabled,0.000000,0.000000,0.000000,TRUE,1.288437,-0.933304,0.000000,0.196365,0.032669,0.000000,0.022000,-0.050000,0.124000,1.960000,-0.180000,-2.180000,-0.736332,Hold,18.045654,50.000000,Hold,-58700.000000,71680.000000,LowGoal,2842.500000,-3272.727273,Speed,2932.500000,-3272.727273,Speed,Off,Off,0.000000,FALSE,43,Read: /home/lvuser/scripts/auto_43.bee,File good!,SEARCH_FOR_GOAL,SEARCH_FOR_GOAL,0.000000,0.000000,-0.033000
07:58:58.050 PM 04/16/2016,Autonomous Enabled,11,FALSE,0,NO ERROR,0.000000,-16.779544,-0.000000,17.870375,TRUE,FALSE,TRUE,TRUE,FALSE,TRUE,Disabled,0.000000,0.000000,0.000000,TRUE,1.300644,-0.932983,0.000000,0.261154,-0.007233,0.000000,0.082000,-0.249000,-0.300000,1.850000,-0.240000,-1.840000,-0.779533,Hold,23.313232,50.000000,Hold,-73904.000000,71680.000000,LowGoal,3015.000000,-3272.727273,Speed,3120.000000,-3272.727273,Speed,Off,Off,0.000000,FALSE,43,Read: /home/lvuser/scripts/auto_43.bee,File good!,SEARCH_FOR_GOAL,SEARCH_FOR_GOAL,0.000000,0.000000,-0.033000
07:58:58.150 PM 04/16/2016,Autonomous Enabled,11,FALSE,0,NO ERROR,0.000000,-16.869377,-0.000000,17.928125,TRUE,FALSE,TRUE,TRUE,FALSE,TRUE,Disabled,0.000000,0.000000,0.000000,TRUE,1.305618,-0.935120,0.000000,-0.022995,-0.044830,0.000000,-0.074000,0.017000,-0.162000,1.850000,-0.240000,-1.840000,-0.774080,Hold,30.217041,50.000000,Hold,-71831.000000,71680.000000,LowGoal,3135.000000,-3272.727273,Speed,3202.500000,-3272.727273,Speed,Off,Off,0.000000,FALSE,43,Read: /home/lvuser/scripts/auto_43.bee,File good!,SEARCH_FOR_GOAL,SEARCH_FOR_GOAL,0.000000,0.000000,-0.033000
07:58:58.251 PM 04/16/2016,Autonomous Enabled,10,FALSE,0,NO ERROR,0.000000,-16.869377,-0.000000,17.928125,TRUE,FALSE,TRUE,TRUE,FALSE,TRUE,Disabled,0.000000,0.000000,0.000000,TRUE,1.304382,-0.934097,0.000000,-0.021194,0.039505,0.000000,-0.002000,0.042000,-0.007000,1.800000,-0.210000,-2.060000,-0.827212,Hold,38.765869,50.000000,Hold,-71851.000000,71680.000000,LowGoal,3180.000000,-3272.727273,Speed,3202.500000,-3272.727273,Speed,Off,Off,0.000000,FALSE,43,Read: /home/lvuser/scripts/auto_43.bee,File good!,SEARCH_FOR_GOAL,SEARCH_FOR_GOAL,0.000000,0.000000,-0.033000
07:58:58.352 PM 04/16/2016,Autonomous Enabled,11,FALSE,0,NO ERROR,0.000000,-16.869377,-0.000000,17.928125,TRUE,FALSE,TRUE,TRUE,FALSE,TRUE,Disabled,0.000000,0.000000,0.000000,TRUE,1.308151,-0.933167,0.000000,0.157715,-0.010574,0.000000,-0.002000,0.042000,-0.007000,1.650000,-0.280000,-1.990000,-0.826204,Hold,48.840576,50.000000,Hold,-71848.000000,71680.000000,LowGoal,3165.000000,-3272.727273,Speed,3195.000000,-3272.727273,Speed,Off,Off,0.000000,FALSE,43,Read: /home/lvuser/scripts/auto_43.bee,File good!,SEARCH_FOR_GOAL,SEARCH_FOR_GOAL,0.000000,0.000000,-0.033000
07:58:58.454 PM 04/16/2016,Autonomous Enabled,10,FALSE,0,NO ERROR,0.311636,-16.869377,0.311636,17.953791,TRUE,FALSE,TRUE,TRUE,FALSE,TRUE,PID,-0.187500,8.599500,-8.859500,TRUE,1.315887,-0.935257,0.000000,0.122635,-0.044037,0.000000,-0.035000,0.080000,0.138000,1.670000,-0.120000,-1.980000,-0.654238,Hold,55.701416,50.000000,Hold,-71716.000000,71680.000000,LowGoal,3157.500000,-3272.727273,Speed,3195.000000,-3272.727273,Speed,Off,Off,0.000000,FALSE,43,Read: /home/lvuser/scripts/auto_43.bee,File good!,SEARCH_FOR_GOAL,SEARCH_FOR_GOAL,0.000000,0.000000,-0.220500
07:58:58.555 PM 04/16/2016,Autonomous Enabled,9,FALSE,0,NO ERROR,0.296882,-16.067296,0.296882,18.871373,TRUE,FALSE,TRUE,TRUE,FALSE,TRUE,PID,-0.187500,8.599500,-8.859500,TRUE,1.319717,-0.939224,0.000000,0.078949,-0.132736,0.000000,-0.064000,-0.069000,-0.061000,1.120000,-2.120000,-2.160000,-1.982456,Hold,56.511719,50.000000,Hold,-71716.000000,71680.000000,LowGoal,3165.000000,-3272.727273,Speed,3187.500000,-3272.727273,Speed,Off,Off,0.000000,FALSE,43,Read: /home/lvuser/scripts/auto_43.bee,File good!,SEARCH_FOR_GOAL,SEARCH_FOR_GOAL,0.000000,0.000000,-0.220500
07:58:58.656 PM 04/16/2016,Autonomous Enabled,9,FALSE,0,NO ERROR,0.241198,-14.963632,0.241198,19.872370,TRUE,FALSE,TRUE,TRUE,FALSE,TRUE,PID,-0.187500,8.599500,-8.859500,TRUE,1.321732,-0.942383,0.000000,0.018555,0.002930,0.000000,0.035000,-0.218000,-0.174000,1.730000,-6.390000,-1.650000,-6.474684,Hold,56.510986,50.000000,Hold,-71840.000000,71680.000000,LowGoal,3150.000000,-3272.727273,Speed,3172.500000,-3272.727273,Speed,Off,Off,0.000000,FALSE,43,Read: /home/lvuser/scripts/auto_43.bee,File good!,SEARCH_FOR_GOAL,SEARCH_FOR_GOAL,0.000000,0.000000,-0.220500
07:58:58.757 PM 04/16/2016,Autonomous Enabled,10,FALSE,0,NO ERROR,0.000000,-14.052467,-0.000000,20.719368,TRUE,FALSE,TRUE,TRUE,FALSE,TRUE,Suspended,-0.187500,8.599500,-8.859500,TRUE,1.325134,-0.945206,0.000000,0.114166,-0.087662,0.000000,-0.044000,0.050000,-0.004000,1.380000,-9.420000,-1.520000,-11.069487,Hold,56.503174,50.000000,Hold,-71714.000000,71680.000000,LowGoal,3142.500000,-3272.727273,Speed,3172.500000,-3272.727273,Speed,Off,Off,0.000000,FALSE,43,Read: /home/lvuser/scripts/auto_43.bee,File good!,SEARCH_FOR_GOAL,SEARCH_FOR_GOAL,0.000000,0.000000,-0.220500
07:58:58.859 PM 04/16/2016,Autonomous Enabled,12,FALSE,0,NO ERROR,0.000000,-13.988301,-0.000000,20.796368,TRUE,FALSE,TRUE,TRUE,FALSE,TRUE,Suspended,-0.187500,8.599500,-8.859500,TRUE,1.332016,-0.948792,0.000000,0.156769,0.006348,0.000000,0.032000,0.198000,0.240000,2.120000,-11.400000,-0.830000,-12.420068,Hold,56.503174,50.000000,Hold,-71758.000000,71680.000000,LowGoal,3150.000000,-3272.727273,Speed,3180.000000,-3272.727273,Speed,Off,Off,0.000000,FALSE,43,Read: /home/lvuser/scripts/auto_43.bee,File good!,SEARCH_FOR_GOAL,SEARCH_FOR_GOAL,0.000000,0.000000,-0.220500
07:58:58.959 PM 04/16/2016,Autonomous Enabled,11,FALSE,0,NO ERROR,0.000000,-14.001134,-0.000000,20.674452,TRUE,FALSE,TRUE,TRUE,FALSE,TRUE,Suspended,-0.187500,8.599500,-8.859500,TRUE,1.340347,-0.945663,0.000000,0.179184,0.047958,0.000000,-0.027000,-0.089000,0.026000,2.120000,-11.400000,-0.830000,-11.430577,Hold,56.445068,50.000000,Hold,-71753.000000,71680.000000,LowGoal,3157.500000,-3272.727273,Speed,3195.000000,-3272.727273,Speed,Off,Off,0.000000,FALSE,43,Read: /home/lvuser/scripts/auto_43.bee,File good!,SEARCH_FOR_GOAL,SEARCH_FOR_GOAL,0.000000,0.000000,-0.220500
07:58:59.061 PM 04/16/2016,Autonomous Enabled,11,FALSE,0,NO ERROR,0.000000,-14.007551,-0.000000,20.648785,TRUE,FALSE,TRUE,TRUE,FALSE,TRUE,Suspended,-0.187500,8.599500,-8.859500,TRUE,1.350174,-0.944809,0.000000,0.185699,0.000000,0.000000,0.004000,0.001000,0.003000,1.840000,-10.390000,-1.000000,-11.424762,Hold,56.445068,50.000000,Hold,-71752.000000,71680.000000,LowGoal,3165.000000,-3272.727273,Speed,3202.500000,-3272.727273,Speed,Off,Off,0.000000,FALSE,43,Read: /home/lvuser/scripts/auto_43.bee,File good!,SEARCH_FOR_GOAL,SEARCH_FOR_GOAL,0.000000,0.000000,-0.220500
07:58:59.161 PM 04/16/2016,Autonomous Enabled,9,FALSE,0,NO ERROR,0.000000,-14.007551,-0.000000,20.648785,TRUE,FALSE,TRUE,TRUE,FALSE,TRUE,Suspended,-0.187500,8.599500,-8.859500,TRUE,1.358582,-0.945938,0.000000,0.213806,-0.047913,0.000000,-0.108000,-0.009000,-0.003000,1.860000,-10.390000,-0.820000,-11.426918,Hold,56.444824,50.000000,Hold,-71752.000000,71680.000000,LowGoal,3165.000000,-3272.727273,Speed,3202.500000,-3272.727273,Speed,Off,Off,0.000000,FALSE,43,Read: /home/lvuser/scripts/auto_43.bee,File good!,SEARCH_FOR_GOAL,SEARCH_FOR_GOAL,0.000000,0.000000,-0.220500
07:58:59.262 PM 04/16/2016,Autonomous Enabled,11,FALSE,0,NO ERROR,0.000000,-14.007551,-0.000000,20.648785,TRUE,FALSE,TRUE,TRUE,FALSE,TRUE,Suspended,-0.187500,8.599500,-8.859500,TRUE,1.368713,-0.948730,0.000000,0.171036,-0.034454,0.000000,-0.108000,-0.009000,-0.003000,1.810000,-10.400000,-0.830000,-11.455202,Hold,56.444824,50.000000,Hold,-71752.000000,71680.000000,LowGoal,3157.500000,-3272.727273,Speed,3202.500000,-3272.727273,Speed,Off,Off,0.000000,FALSE,43,Read: /home/lvuser/scripts/auto_43.bee,File good!,SEARCH_FOR_GOAL,SEARCH_FOR_GOAL,0.000000,0.000000,-0.220500
07:58:59.363 PM 04/16/2016,Autonomous Enabled,6,FALSE,0,NO ERROR,0.000000,-14.007551,-0.000000,20.648785,TRUE,FALSE,TRUE,TRUE,FALSE,TRUE,Suspended,0.100000,8.599500,-8.859500,TRUE,1.379776,-0.949768,0.000000,0.260452,0.000000,0.000000,0.035000,-0.048000,0.010000,1.810000,-10.400000,-0.830000,-11.450620,Hold,56.444824,50.000000,Hold,-71752.000000,71680.000000,LowGoal,3202.500000,-3272.727273,Speed,3202.500000,-3272.727273,Speed,Off,Off,0.000000,FALSE,43,Read: /home/lvuser/scripts/auto_43.bee,File good!,SEARCH_FOR_GOAL,SEARCH_FOR_GOAL,0.000000,0.000000,0.067000
07:58:59.463 PM 04/16/2016,Autonomous Enabled,11,FALSE,0,NO ERROR,-0.232842,-14.020384,-0.232842,20.648785,TRUE,FALSE,TRUE,TRUE,FALSE,TRUE,PID,0.100000,-2.613000,-7.787000,TRUE,1.382294,-0.950424,0.000000,-0.002426,-0.018860,0.000000,-0.005000,-0.037000,-0.075000,1.860000,-10.400000,-0.770000,-11.451026,Hold,56.444824,50.000000,Hold,-71751.000000,71680.000000,LowGoal,3225.000000,-3272.727273,Speed,3202.500000,-3272.727273,Speed,Off,Off,0.000000,FALSE,43,Read: /home/lvuser/scripts/auto_43.bee,File good!,SEARCH_FOR_GOAL,SEARCH_FOR_GOAL,0.000000,0.000000,0.067000
07:58:59.563 PM 04/16/2016,Autonomous Enabled,9,FALSE,0,NO ERROR,-0.224712,-14.796799,-0.224712,19.833870,TRUE,FALSE,TRUE,TRUE,FALSE,TRUE,PID,0.100000,-2.613000,-7.787000,TRUE,1.381104,-0.948181,0.000000,-0.017136,0.110687,0.000000,-0.042000,0.139000,-0.085000,1.820000,-10.400000,-0.710000,-10.566829,Hold,56.444580,50.000000,Hold,-71751.000000,71680.000000,LowGoal,3225.000000,-3272.727273,Speed,3202.500000,-3272.727273,Speed,Off,Off,0.000000,FALSE,43,Read: /home/lvuser/scripts/auto_43.bee,File good!,SEARCH_FOR_GOAL,SEARCH_FOR_GOAL,0.000000,0.000000,0.067000
07:58:59.663 PM 04/16/2016,Autonomous Enabled,9,FALSE,0,NO ERROR,0.000000,-15.457714,-0.000000,19.108789,TRUE,FALSE,TRUE,TRUE,FALSE,TRUE,Suspended,0.100000,-2.613000,-7.787000,TRUE,1.381317,-0.942917,0.000000,0.013016,0.096878,0.000000,-0.030000,-0.064000,-0.143000,2.220000,-9.110000,-0.480000,-7.625221,Hold,56.444580,50.000000,Hold,-71751.000000,71680.000000,LowGoal,3202.500000,-3272.727273,Speed,3202.500000,-3272.727273,Speed,Off,Off,0.000000,FALSE,43,Read: /home/lvuser/scripts/auto_43.bee,File good!,SEARCH_FOR_GOAL,SEARCH_FOR_GOAL,0.000000,0.000000,0.067000
07:58:59.763 PM 04/16/2016,Autonomous Enabled,10,FALSE,0,NO ERROR,0.000000,-15.509047,-0.000000,19.057455,TRUE,FALSE,TRUE,TRUE,FALSE,TRUE,Suspended,0.100000,-2.613000,-7.787000,TRUE,1.383163,-0.942856,0.000000,0.045380,-0.069397,0.000000,0.070000,-0.124000,-0.103000,2.150000,-6.390000,-0.640000,-6.659467,Hold,56.444580,50.000000,Hold,-71751.000000,71680.000000,LowGoal,3202.500000,-3272.727273,Speed,3202.500000,-3272.727273,Speed,Off,Off,0.000000,FALSE,43,Read: /home/lvuser/scripts/auto_43.bee,File good!,SEARCH_FOR_GOAL,SEARCH_FOR_GOAL,0.000000,0.000000,0.067000
07:58:59.863 PM 04/16/2016,Autonomous Enabled,9,FALSE,0,NO ERROR,0.000000,-15.406381,-0.000000,19.249955,TRUE,FALSE,TRUE,TRUE,FALSE,TRUE,Suspended,0.100000,-2.613000,-7.787000,TRUE,1.386475,-0.944397,0.000000,0.075073,-0.022202,0.000000,0.072000,0.118000,-0.058000,1.470000,-5.960000,-0.810000,-7.482710,Hold,56.444580,50.000000,Hold,-71751.000000,71680.000000,LowGoal,3210.000000,-3272.727273,Speed,3202.500000,-3272.727273,Speed,Off,Off,0.000000,FALSE,43,Read: /home/lvuser/scripts/auto_43.bee,File good!,SEARCH_FOR_GOAL,SEARCH_FOR_GOAL,0.000000,0.000000,0.067000
07:58:59.963 PM 04/16/2016,Autonomous Enabled,9,FALSE,0,NO ERROR,0.000000,-15.406381,-0.000000,19.256372,TRUE,FALSE,TRUE,TRUE,FALSE,TRUE,Suspended,0.100000,-2.613000,-7.787000,TRUE,1.386475,-0.944397,0.000000,0.075073,-0.022202,0.000000,0.052000,-0.015000,0.053000,1.700000,-6.560000,-0.620000,-7.452240,Hold,56.444580,50.000000,Hold,-71751.000000,71680.000000,LowGoal,3217.500000,-3272.727273,Speed,3210.000000,-3272.727273,Speed,Off,Off,0.000000,FALSE,43,Read: /home/lvuser/scripts/auto_43.bee,File good!,SEARCH_FOR_GOAL,SEARCH_FOR_GOAL,0.000000,0.000000,0.067000
07:59:00.063 PM 04/16/2016,Autonomous Enabled,10,FALSE,0,NO ERROR,0.000000,-15.406381,-0.000000,19.256372,TRUE,FALSE,TRUE,TRUE,FALSE,TRUE,Suspended,0.100000,-2.613000,-7.787000,TRUE,1.393661,-0.946564,0.000000,0.067261,-0.008865,0.000000,0.044000,-0.005000,0.057000,1.700000,-6.560000,-0.620000,-7.486992,Hold,56.444580,50.000000,Hold,-71751.000000,71680.000000,LowGoal,3217.500000,-3272.727273,Speed,3217.500000,-3272.727273,Speed,Off,Off,0.000000,FALSE,43,Read: /home/lvuser/scripts/auto_43.bee,File good!,SEARCH_FOR_GOAL,SEARCH_FOR_GOAL,0.000000,0.000000,0.067000
07:59:00.163 PM 04/16/2016,Autonomous Enabled,10,FALSE,0,NO ERROR,0.000000,-15.406381,-0.000000,19.256372,TRUE,FALSE,TRUE,TRUE,FALSE,TRUE,Suspended,0.100000,-2.613000,-7.787000,TRUE,1.398209,-0.947205,0.000000,0.111877,-0.033295,0.000000,-0.052000,0.044000,-0.007000,1.690000,-6.590000,-0.650000,-7.489671,Hold,56.444580,50.000000,Hold,-71751.000000,71680.000000,LowGoal,3217.500000,-3272.727273,Speed,3210.000000,-3272.727273,Speed,Off,Off,0.000000,FALSE,43,Read: /home/lvuser/scripts/auto_43.bee,File good!,SEARCH_FOR_GOAL,SEARCH_FOR_GOAL,0.000000,0.000000,0.067000
07:59:00.266 PM 04/16/2016,Autonomous Enabled,10,FALSE,0,NO ERROR,0.000000,-15.406381,-0.000000,19.256372,TRUE,FALSE,TRUE,TRUE,FALSE,TRUE,Suspended,0.100000,-2.613000,-7.787000,TRUE,1.404602,-0.949783,0.000000,0.145386,-0.063599,0.000000,0.142000,-0.013000,0.059000,1.650000,-6.590000,-0.630000,-7.469893,Hold,56.444580,50.000000,Hold,-71751.000000,71680.000000,LowGoal,3217.500000,-3272.727273,Speed,3210.000000,-3272.727273,Speed,Off,Off,0.000000,FALSE,43,Read: /home/lvuser/scripts/auto_43.bee,File good!,SEARCH_FOR_GOAL,SEARCH_FOR_GOAL,0.000000,0.000000,0.067000
07:59:00.368 PM 04/16/2016,Autonomous Enabled,9,FALSE,0,NO ERROR,0.000000,-15.406381,-0.000000,19.256372,TRUE,FALSE,TRUE,TRUE,FALSE,TRUE,Suspended,0.000000,-2.613000,-7.787000,TRUE,1.404602,-0.949783,0.000000,0.145386,-0.063599,0.000000,0.142000,-0.013000,0.059000,1.660000,-6.580000,-0.620000,-7.466640,Hold,56.444580,50.000000,Hold,-71751.000000,71680.000000,LowGoal,3217.500000,-3272.727273,Speed,3217.500000,-3272.727273,Speed,Off,Off,0.000000,FALSE,43,Read: /home/lvuser/scripts/auto_43.bee,File good!,SEARCH_FOR_GOAL,SEARCH_FOR_GOAL,0.000000,0.000000,-0.033000
07:59:00.468 PM 04/16/2016,Autonomous Enabled,10,FALSE,0,NO ERROR,0.217121,-15.335797,0.217121,19.326955,TRUE,FALSE,TRUE,TRUE,FALSE,TRUE,PID,0.000000,1.287000,-7.867000,TRUE,1.410522,-0.950607,0.000000,0.033646,-0.029022,0.000000,0.160000,-0.039000,-0.157000,1.630000,-6.580000,-0.610000,-7.480365,Hold,56.444580,50.000000,Hold,-71750.000000,71680.000000,LowGoal,3217.500000,-3272.727273,Speed,3217.500000,-3272.727273,Speed,Off,Off,0.000000,FALSE,43,Read: /home/lvuser/scripts/auto_43.bee,File good!,SEARCH_FOR_GOAL,SEARCH_FOR_GOAL,0.000000,0.000000,-0.033000
07:59:00.568 PM 04/16/2016,Autonomous Enabled,11,FALSE,0,NO ERROR,0.211106,-14.546549,0.211106,20.129036,TRUE,FALSE,TRUE,TRUE,FALSE,TRUE,PID,0.000000,1.287000,-7.867000,TRUE,1.410522,-0.950607,0.000000,0.033646,-0.029022,0.000000,0.017000,-0.070000,0.023000,1.580000,-6.600000,-0.540000,-8.849261,Hold,56.444580,50.000000,Hold,-71750.000000,71680.000000,LowGoal,3217.500000,-3272.727273,Speed,3210.000000,-3272.727273,Speed,Off,Off,0.000000,FALSE,43,Read: /home/lvuser/scripts/auto_43.bee,File good!,SEARCH_FOR_GOAL,SEARCH_FOR_GOAL,0.000000,0.000000,-0.033000
07:59:00.668 PM 04/16/2016,Autonomous Enabled,9,FALSE,0,NO ERROR,0.000000,-14.546549,-0.000000,20.129036,TRUE,FALSE,TRUE,TRUE,FALSE,TRUE,Suspended,0.000000,1.287000,-7.867000,TRUE,1.411652,-0.955673,0.000000,-0.000732,-0.154648,0.000000,0.035000,0.295000,-0.026000,1.210000,-8.230000,-0.760000,-8.849261,Hold,56.444580,50.000000,Hold,-71750.000000,71680.000000,LowGoal,3217.500000,-3272.727273,Speed,3202.500000,-3272.727273,Speed,Off,Off,0.000000,FALSE,43,Read: /home/lvuser/scripts/auto_43.bee,File good!,SEARCH_FOR_GOAL,SEARCH_FOR_GOAL,0.000000,0.000000,-0.033000
07:59:00.769 PM 04/16/2016,Autonomous Enabled,11,FALSE,0,NO ERROR,0.000000,-14.123050,-0.000000,20.507619,TRUE,FALSE,TRUE,TRUE,FALSE,TRUE,Suspended,0.000000,1.287000,-7.867000,TRUE,1.412994,-0.959152,0.000000,0.067062,-0.048645,0.000000,0.144000,0.085000,-0.022000,1.400000,-10.380000,-0.530000,-11.332495,Hold,56.444580,50.000000,Hold,-71750.000000,71680.000000,LowGoal,3217.500000,-3272.727273,Speed,3202.500000,-3272.727273,Speed,Off,Off,0.000000,FALSE,43,Read: /home/lvuser/scripts/auto_43.bee,File good!,SEARCH_FOR_GOAL,SEARCH_FOR_GOAL,0.000000,0.000000,-0.033000
07:59:00.868 PM 04/16/2016,Autonomous Enabled,10,FALSE,0,NO ERROR,0.000000,-14.212883,-0.000000,20.437036,TRUE,FALSE,TRUE,TRUE,FALSE,TRUE,Suspended,0.000000,1.287000,-7.867000,TRUE,1.419083,-0.958588,0.000000,0.121750,0.018753,0.000000,-0.104000,-0.008000,0.002000,1.750000,-9.640000,-0.450000,-10.732354,Hold,56.444580,50.000000,Hold,-71750.000000,71680.000000,LowGoal,3217.500000,-3272.727273,Speed,3210.000000,-3272.727273,Speed,Off,Off,0.000000,FALSE,43,Read: /home/lvuser/scripts/auto_43.bee,File good!,SEARCH_FOR_GOAL,SEARCH_FOR_GOAL,0.000000,0.000000,-0.033000
07:59:00.968 PM 04/16/2016,Autonomous Enabled,10,FALSE,0,NO ERROR,0.000000,-14.251383,-0.000000,20.417786,TRUE,FALSE,TRUE,TRUE,FALSE,TRUE,Suspended,0.000000,1.287000,-7.867000,TRUE,1.424576,-0.959198,0.000000,0.092056,-0.020599,0.000000,-0.166000,0.033000,-0.013000,1.630000,-9.620000,-0.570000,-10.653041,Hold,56.444580,50.000000,Hold,-71750.000000,71680.000000,LowGoal,3225.000000,-3272.727273,Speed,3210.000000,-3272.727273,Speed,Off,Off,0.000000,FALSE,43,Read: /home/lvuser/scripts/auto_43.bee,File good!,SEARCH_FOR_GOAL,SEARCH_FOR_GOAL,0.000000,0.000000,-0.033000
07:59:01.068 PM 04/16/2016,Autonomous Enabled,11,FALSE,0,NO ERROR,0.000000,-14.251383,-0.000000,20.417786,TRUE,FALSE,TRUE,TRUE,FALSE,TRUE,Suspended,0.000000,1.287000,-7.867000,TRUE,1.428894,-0.960297,0.000000,0.100784,-0.035156,0.000000,0.084000,-0.017000,-0.036000,1.620000,-9.600000,-0.500000,-10.642882,Hold,56.444580,50.000000,Hold,-71750.000000,71680.000000,LowGoal,3225.000000,-3272.727273,Speed,3217.500000,-3272.727273,Speed,Off,Off,0.000000,FALSE,43,Read: /home/lvuser/scripts/auto_43.bee,File good!,SEARCH_FOR_GOAL,SEARCH_FOR_GOAL,0.000000,0.000000,-0.033000
07:59:01.168 PM 04/16/2016,Autonomous Enabled,11,FALSE,0,NO ERROR,0.000000,-14.251383,-0.000000,20.417786,TRUE,FALSE,TRUE,TRUE,FALSE,TRUE,Suspended,0.000000,1.287000,-7.867000,TRUE,1.435379,-0.962570,0.000000,0.148529,-0.045090,0.000000,0.016000,0.086000,0.004000,1.600000,-9.620000,-0.480000,-10.663802,Hold,56.444580,50.000000,Hold,-71750.000000,71680.000000,LowGoal,3225.000000,-3272.727273,Speed,3210.000000,-3272.727273,Speed,Off,Off,0.000000,FALSE,43,Read: /home/lvuser/scripts/auto_43.bee,File good!,SEARCH_FOR_GOAL,SEARCH_FOR_GOAL,0.000000,0.000000,-0.033000
07:59:01.269 PM 04/16/2016,Autonomous Enabled,11,FALSE,0,NO ERROR,0.000000,-14.251383,-0.000000,20.417786,TRUE,FALSE,TRUE,TRUE,FALSE,TRUE,Suspended,0.000000,1.287000,-7.867000,TRUE,1.448242,-0.963608,0.000000,0.249313,0.003998,0.000000,-0.082000,0.065000,-0.052000,1.550000,-9.610000,-0.400000,-10.663720,Hold,56.444580,50.000000,Hold,-71749.000000,71680.000000,LowGoal,3217.500000,-3272.727273,Speed,3210.000000,-3272.727273,Speed,Off,Off,0.000000,FALSE,43,Read: /home/lvuser/scripts/auto_43.bee,File good!,SEARCH_FOR_GOAL,SEARCH_FOR_GOAL,0.000000,0.000000,-0.033000
07:59:01.368 PM 04/16/2016,Autonomous Enabled,11,FALSE,0,NO ERROR,0.000000,-14.251383,-0.000000,20.417786,TRUE,FALSE,TRUE,TRUE,FALSE,TRUE,Suspended,0.081250,1.287000,-7.867000,TRUE,1.461578,-0.963623,0.000000,0.273071,0.004593,0.000000,-0.126000,-0.088000,-0.045000,1.570000,-9.610000,-0.320000,-10.662522,Hold,56.444580,50.000000,Hold,-71749.000000,71680.000000,LowGoal,3217.500000,-3272.727273,Speed,3210.000000,-3272.727273,Speed,Off,Off,0.000000,FALSE,43,Read: /home/lvuser/scripts/auto_43.bee,File good!,SEARCH_FOR_GOAL,SEARCH_FOR_GOAL,0.000000,0.000000,0.048250
07:59:01.468 PM 04/16/2016,Autonomous Enabled,10,FALSE,0,NO ERROR,-0.224223,-14.251383,-0.224223,20.417786,TRUE,FALSE,TRUE,TRUE,FALSE,TRUE,PID,0.081250,-1.881750,-7.728250,TRUE,1.472076,-0.964142,0.000000,0.185440,-0.017410,0.000000,-0.029000,-0.052000,0.034000,1.540000,-9.610000,-0.360000,-10.677528,Hold,56.444580,50.000000,Hold,-71749.000000,71680.000000,LowGoal,3225.000000,-3272.727273,Speed,3210.000000,-3272.727273,Speed,Off,Off,0.000000,FALSE,43,Read: /home/lvuser/scripts/auto_43.bee,File good!,SEARCH_FOR_GOAL,SEARCH_FOR_GOAL,0.000000,0.000000,0.048250
