Time,Robot Mode,Loop Time,Error Status,Error Code,Error Source,Left Motor Output,Left Motor Encoder,Right Motor Output,Right Motor Encoder,Is Level,Is Stalled,Ball Detector Photoeye,Vision Enabled,Vision Teleop Control,Vision Auto Control,Vision Current State,Vision X Output,Vision NavX Error,Vision NavX Target,NavX Connection Status,NavX Displacement X,NavX Displacement Y,NavX Displacement Z,NavX Velocity X,NavX Velocity Y,NavX Velocity Z,NavX Acceleration X,NavX Acceleration Y,NavX Acceleration Z,NavX Pitch,NavX Yaw,NavX Roll,Gyro Angle,Roller Arm State,Roller Arm Actual,Roller Arm Desired,Shooter Arm State,Shooter Arm Actual,Shooter Arm Desired,Shooter State,Actual RPM Left,Desired RPM Left,Control Mode Left,Actual RPM Right,Desired RPM Right,Control Mode Right,Ball Shooter Cylinder,Ball Halo Cylinder,Scaler Motor Output,Scaler Solenoid Fire,Auto To Run,Auto Current File,Auto File Status,Auto Current Command,Auto Trimmed Command,Shooter Amps Left,Shooter Amps Right, Vision After Offset
03:31:37.373 PM 04/15/2016,Teleop Enabled,8,FALSE,0,NO ERROR,-0.000000,0.000000,-0.000000,0.000000,TRUE,FALSE,FALSE,FALSE,FALSE,FALSE,Disabled,0.000000,0.000000,0.000000,TRUE,-0.222885,0.086365,0.000000,0.000000,0.000000,0.000000,0.001000,0.000000,0.005000,2.620000,0.000000,-0.920000,-0.223883,ResetBack,1.057617,-0.000049,ResetBack,-8070.000000,-0.250000,Suck,0.000000,1818.181818,Speed,0.000000,1818.181818,Speed,Off,On,0.000000,FALSE,0,,,,,0.000000,0.000000,-0.033000
03:31:37.473 PM 04/15/2016,Teleop Enabled,9,FALSE,0,NO ERROR,-0.000000,-0.250249,-0.000000,0.000000,TRUE,FALSE,FALSE,FALSE,FALSE,FALSE,Disabled,0.000000,0.000000,0.000000,TRUE,-0.222931,0.086319,0.000000,0.038223,0.016602,0.000000,0.002000,0.000000,0.003000,2.540000,0.030000,-0.980000,-0.367269,ResetBack,0.962891,-0.000049,ResetBack,-8070.000000,-0.250000,Suck,0.000000,1818.181818,Speed,-7.500000,1818.181818,Speed,Off,On,0.000000,FALSE,0,,,,,0.000000,0.000000,-0.033000
03:31:37.573 PM 04/15/2016,Teleop Enabled,10,FALSE,0,NO ERROR,-0.000000,-0.230999,-0.000000,0.000000,TRUE,FALSE,FALSE,FALSE,FALSE,FALSE,Disabled,0.000000,0.000000,0.000000,TRUE,-0.222931,0.086319,0.000000,0.038223,0.016602,0.000000,0.027000,0.086000,-0.038000,2.540000,0.060000,-0.940000,-0.338531,ResetBack,0.593994,-0.000049,ResetBack,-6049.000000,-0.250000,Suck,-330.000000,1818.181818,Speed,-300.000000,1818.181818,Speed,Off,On,0.000000,FALSE,0,,,,,0.000000,0.000000,-0.033000
03:31:37.673 PM 04/15/2016,Teleop Enabled,7,FALSE,0,NO ERROR,-0.000000,-0.230999,-0.000000,0.000000,TRUE,FALSE,FALSE,FALSE,FALSE,FALSE,Disabled,0.000000,0.000000,0.000000,TRUE,-0.221054,0.089844,0.000000,0.026367,0.016693,0.000000,0.053000,-0.022000,0.020000,2.540000,0.060000,-0.940000,-0.371342,ResetBack,0.534424,-0.000049,ResetBack,-1464.000000,-0.250000,Suck,-997.500000,1818.181818,Speed,-960.000000,1818.181818,Speed,Off,On,0.000000,FALSE,0,,,,,0.000000,0.000000,-0.033000
03:31:37.774 PM 04/15/2016,Teleop Enabled,8,FALSE,0,NO ERROR,-0.000000,-0.230999,-0.000000,0.000000,TRUE,FALSE,FALSE,FALSE,FALSE,FALSE,Disabled,0.000000,0.000000,0.000000,TRUE,-0.219772,0.090469,0.000000,0.019379,0.013779,0.000000,0.028000,-0.008000,0.035000,2.540000,0.040000,-0.880000,-0.356236,Reset,0.500732,0.000000,ResetBack,-439.000000,-0.250000,Suck,-1582.500000,1818.181818,Speed,-1507.500000,1818.181818,Speed,Off,On,0.000000,FALSE,0,,,,,0.000000,0.000000,-0.033000
03:31:37.874 PM 04/15/2016,Teleop Enabled,10,FALSE,0,NO ERROR,-0.000000,-0.230999,-0.000000,0.000000,TRUE,FALSE,FALSE,FALSE,FALSE,FALSE,Disabled,0.000000,0.000000,0.000000,TRUE,-0.218781,0.092087,0.000000,0.014008,0.040054,0.000000,-0.001000,0.062000,-0.055000,2.540000,0.060000,-0.910000,-0.369497,Hold,0.054932,0.000000,ResetBack,-98.000000,-0.250000,Suck,-1897.500000,1818.181818,Speed,-1837.500000,1818.181818,Speed,Off,On,0.000000,FALSE,0,,,,,0.000000,0.000000,-0.033000
03:31:37.974 PM 04/15/2016,Teleop Enabled,9,FALSE,0,NO ERROR,-0.000000,-0.230999,-0.000000,0.000000,TRUE,FALSE,FALSE,FALSE,FALSE,FALSE,Disabled,0.000000,0.000000,0.000000,TRUE,-0.218094,0.093674,0.000000,0.022736,0.026306,0.000000,0.045000,-0.008000,-0.052000,2.550000,0.050000,-0.870000,-0.386437,Hold,0.055176,0.000000,ResetBack,-98.000000,-0.250000,Suck,-1890.000000,1818.181818,Speed,-1852.500000,1818.181818,Speed,Off,On,0.000000,FALSE,0,,,,,0.000000,0.000000,-0.033000
03:31:38.074 PM 04/15/2016,Teleop Enabled,8,FALSE,0,NO ERROR,-0.000000,-0.230999,-0.000000,0.000000,TRUE,FALSE,FALSE,FALSE,FALSE,FALSE,Disabled,0.000000,0.000000,0.000000,TRUE,-0.218094,0.093674,0.000000,0.022736,0.026306,0.000000,0.023000,0.017000,-0.009000,2.570000,0.040000,-0.810000,-0.404638,Hold,0.055176,0.000000,ResetBack,-79.000000,-0.250000,Suck,-1792.500000,1818.181818,Speed,-1792.500000,1818.181818,Speed,Off,On,0.000000,FALSE,0,,,,,0.000000,0.000000,-0.033000
03:31:38.175 PM 04/15/2016,Teleop Enabled,9,FALSE,0,NO ERROR,-0.000000,-0.230999,-0.000000,0.000000,TRUE,FALSE,FALSE,FALSE,FALSE,FALSE,Disabled,0.000000,0.000000,0.000000,TRUE,-0.216965,0.093567,0.000000,-0.003998,0.000397,0.000000,-0.020000,0.016000,-0.029000,2.580000,0.050000,-0.860000,-0.395591,Hold,0.055176,0.000000,ResetBack,-66.000000,-0.250000,Suck,-1747.500000,1818.181818,Speed,-1755.000000,1818.181818,Speed,Off,On,0.000000,FALSE,0,,,,,0.000000,0.000000,-0.033000
03:31:38.275 PM 04/15/2016,Teleop Enabled,10,FALSE,0,NO ERROR,-0.000000,-0.230999,-0.000000,0.000000,TRUE,FALSE,FALSE,FALSE,FALSE,FALSE,Disabled,0.000000,0.000000,0.000000,TRUE,-0.217773,0.093475,0.000000,0.000000,0.010483,0.000000,-0.019000,0.030000,-0.019000,2.550000,0.050000,-0.880000,-0.399929,Hold,0.055176,0.000000,ResetBack,-57.000000,-0.250000,Suck,-1777.500000,1818.181818,Speed,-1755.000000,1818.181818,Speed,Off,On,0.000000,FALSE,0,,,,,0.000000,0.000000,-0.033000
03:31:38.377 PM 04/15/2016,Teleop Enabled,10,FALSE,0,NO ERROR,-0.000000,-0.230999,-0.000000,0.000000,TRUE,FALSE,FALSE,FALSE,FALSE,FALSE,Disabled,0.000000,0.000000,0.000000,TRUE,-0.218124,0.094894,0.000000,-0.008636,0.020279,0.000000,0.083000,-0.098000,-0.034000,2.550000,0.050000,-0.920000,-0.404790,Hold,0.055176,0.000000,ResetBack,-47.000000,-0.250000,Suck,-1792.500000,1818.181818,Speed,-1762.500000,1818.181818,Speed,Off,On,0.000000,FALSE,0,,,,,0.000000,0.000000,-0.033000
03:31:38.479 PM 04/15/2016,Teleop Enabled,11,FALSE,0,NO ERROR,-0.000000,-0.230999,-0.000000,0.000000,TRUE,FALSE,FALSE,FALSE,FALSE,FALSE,Disabled,0.000000,0.000000,0.000000,TRUE,-0.217911,0.095291,0.000000,-0.007706,0.017288,0.000000,0.017000,-0.003000,0.004000,2.510000,0.040000,-0.780000,-0.416229,Hold,0.055176,0.000000,ResetBack,-29.000000,-0.250000,Suck,-1777.500000,1818.181818,Speed,-1770.000000,1818.181818,Speed,Off,On,0.000000,FALSE,0,,,,,0.000000,0.000000,-0.033000
03:31:38.580 PM 04/15/2016,Teleop Enabled,9,FALSE,0,NO ERROR,-0.000000,-0.230999,-0.000000,0.000000,TRUE,FALSE,FALSE,FALSE,FALSE,FALSE,Disabled,0.000000,0.000000,0.000000,TRUE,-0.218826,0.095444,0.000000,-0.020523,-0.000748,0.000000,0.018000,-0.018000,0.015000,2.570000,0.050000,-1.010000,-0.416229,Hold,0.055176,0.000000,ResetBack,-9.000000,-0.250000,Suck,-1785.000000,1818.181818,Speed,-1770.000000,1818.181818,Speed,Off,On,0.000000,FALSE,0,,,,,0.000000,0.000000,-0.033000
03:31:38.682 PM 04/15/2016,Teleop Enabled,11,FALSE,0,NO ERROR,-0.000000,-0.230999,-0.000000,0.000000,TRUE,FALSE,FALSE,FALSE,FALSE,FALSE,Disabled,0.000000,0.000000,0.000000,TRUE,-0.218918,0.095474,0.000000,-0.005310,0.000000,0.000000,-0.029000,-0.007000,-0.055000,2.580000,0.050000,-0.970000,-0.412787,Hold,0.055176,0.000000,Reset,-9.000000,2.000000,Suck,-1785.000000,1818.181818,Speed,-1770.000000,1818.181818,Speed,Off,On,0.000000,FALSE,0,,,,,0.000000,0.000000,-0.033000
03:31:38.783 PM 04/15/2016,Teleop Enabled,9,FALSE,0,NO ERROR,-0.000000,-0.230999,-0.000000,0.000000,TRUE,FALSE,FALSE,FALSE,FALSE,FALSE,Disabled,0.000000,0.000000,0.000000,TRUE,-0.219711,0.095245,0.000000,-0.019913,-0.000443,0.000000,0.067000,0.040000,-0.003000,2.570000,0.060000,-1.020000,-0.413455,Hold,0.055176,0.000000,Hold,-144.000000,2.000000,Suck,-1777.500000,1818.181818,Speed,-1770.000000,1818.181818,Speed,Off,On,0.000000,FALSE,0,,,,,0.000000,0.000000,-0.033000
03:31:38.882 PM 04/15/2016,Teleop Enabled,10,FALSE,0,NO ERROR,-0.000000,-0.230999,-0.000000,0.000000,TRUE,FALSE,FALSE,FALSE,FALSE,FALSE,Disabled,0.000000,0.000000,0.000000,TRUE,-0.218658,0.095459,0.000000,0.018906,0.004379,0.000000,-0.009000,0.022000,-0.011000,2.590000,0.050000,-0.980000,-0.416608,Hold,0.055176,0.000000,Hold,-173.000000,2.000000,Suck,-1785.000000,1818.181818,Speed,-1777.500000,1818.181818,Speed,Off,On,0.000000,FALSE,0,,,,,0.000000,0.000000,-0.033000
03:31:38.982 PM 04/15/2016,Teleop Enabled,10,FALSE,0,NO ERROR,-0.000000,-0.230999,-0.000000,0.000000,TRUE,FALSE,FALSE,FALSE,FALSE,FALSE,Disabled,0.000000,0.000000,0.000000,TRUE,-0.218323,0.095764,0.000000,0.007568,0.016800,0.000000,0.117000,-0.008000,0.043000,2.560000,0.050000,-0.960000,-0.420233,Hold,0.055176,0.000000,Hold,-170.000000,2.000000,Suck,-1785.000000,1818.181818,Speed,-1777.500000,1818.181818,Speed,Off,On,0.000000,FALSE,0,,,,,0.000000,0.000000,-0.033000
03:31:39.083 PM 04/15/2016,Teleop Enabled,10,FALSE,0,NO ERROR,-0.000000,-0.230999,-0.000000,0.000000,TRUE,FALSE,FALSE,FALSE,FALSE,FALSE,Disabled,0.000000,0.000000,0.000000,TRUE,-0.216309,0.096390,0.000000,0.039093,0.006989,0.000000,-0.002000,0.044000,0.038000,2.560000,0.050000,-0.960000,-0.432106,Hold,0.055176,0.000000,Hold,-168.000000,2.000000,Suck,-1785.000000,1818.181818,Speed,-1785.000000,1818.181818,Speed,Off,On,0.000000,FALSE,0,,,,,0.000000,0.000000,-0.033000
03:31:39.184 PM 04/15/2016,Teleop Enabled,11,FALSE,0,NO ERROR,-0.000000,-0.230999,-0.000000,0.000000,TRUE,FALSE,FALSE,FALSE,FALSE,FALSE,Disabled,0.000000,0.000000,0.000000,TRUE,-0.215393,0.096832,0.000000,0.007782,0.008423,0.000000,0.068000,0.080000,0.064000,2.550000,0.050000,-0.970000,-0.421641,Hold,0.055176,0.000000,Hold,-167.000000,2.000000,Suck,-1785.000000,1818.181818,Speed,-1785.000000,1818.181818,Speed,Off,On,0.000000,FALSE,0,,,,,0.000000,0.000000,-0.033000
03:31:39.284 PM 04/15/2016,Teleop Enabled,9,FALSE,0,NO ERROR,-0.000000,-0.230999,-0.000000,0.000000,TRUE,FALSE,FALSE,FALSE,FALSE,FALSE,Disabled,0.000000,0.000000,0.000000,TRUE,-0.215012,0.098495,0.000000,-0.011154,0.021927,0.000000,-0.092000,0.016000,-0.052000,2.610000,0.050000,-1.010000,-0.422915,Hold,0.055176,0.000000,Hold,-167.000000,2.000000,Suck,-1777.500000,1818.181818,Speed,-1777.500000,1818.181818,Speed,Off,On,0.000000,FALSE,0,,,,,0.000000,0.000000,-0.033000
03:31:39.384 PM 04/15/2016,Teleop Enabled,10,FALSE,0,NO ERROR,-0.000000,-0.230999,-0.000000,0.000000,TRUE,FALSE,FALSE,FALSE,FALSE,FALSE,Disabled,0.000000,0.000000,0.000000,TRUE,-0.216309,0.099609,0.000000,0.000000,0.016190,0.000000,0.096000,0.041000,0.030000,2.600000,0.060000,-1.070000,-0.418391,Hold,0.055176,0.000000,Hold,-167.000000,2.000000,Suck,-1785.000000,1818.181818,Speed,-1785.000000,1818.181818,Speed,Off,On,0.000000,FALSE,0,,,,,0.000000,0.000000,-0.033000
03:31:39.484 PM 04/15/2016,Teleop Enabled,9,FALSE,0,NO ERROR,-0.000000,-0.230999,-0.000000,0.000000,TRUE,FALSE,FALSE,FALSE,FALSE,FALSE,Disabled,0.000000,0.000000,0.000000,TRUE,-0.215973,0.101257,0.000000,0.000565,0.030197,0.000000,-0.011000,0.010000,0.052000,2.600000,0.070000,-1.090000,-0.410370,Hold,0.055176,0.000000,Hold,-166.000000,2.000000,Suck,-1800.000000,1818.181818,Speed,-1785.000000,1818.181818,Speed,Off,On,0.000000,FALSE,0,,,,,0.000000,0.000000,-0.033000
03:31:39.584 PM 04/15/2016,Teleop Enabled,10,FALSE,0,NO ERROR,-0.000000,-0.230999,-0.000000,0.000000,TRUE,FALSE,FALSE,FALSE,FALSE,FALSE,Disabled,0.000000,0.000000,0.000000,TRUE,-0.216156,0.102325,0.000000,-0.014633,0.033798,0.000000,0.054000,0.013000,-0.037000,2.610000,0.070000,-1.110000,-0.399888,Hold,0.055176,0.000000,Hold,-166.000000,2.000000,Suck,-1807.500000,1818.181818,Speed,-1777.500000,1818.181818,Speed,Off,On,0.000000,FALSE,0,,,,,0.000000,0.000000,-0.033000
03:31:39.684 PM 04/15/2016,Teleop Enabled,10,FALSE,0,NO ERROR,-0.000000,-0.230999,-0.000000,0.000000,TRUE,FALSE,FALSE,FALSE,FALSE,FALSE,Disabled,0.000000,0.000000,0.000000,TRUE,-0.216507,0.103531,0.000000,0.002731,0.012085,0.000000,-0.020000,-0.016000,-0.066000,2.630000,0.070000,-1.100000,-0.380196,Hold,0.055176,0.000000,Hold,-166.000000,2.000000,Suck,-1792.500000,1818.181818,Speed,-1785.000000,1818.181818,Speed,Off,On,0.000000,FALSE,0,,,,,0.000000,0.000000,-0.033000
03:31:39.784 PM 04/15/2016,Teleop Enabled,9,FALSE,0,NO ERROR,-0.000000,-0.230999,-0.000000,0.000000,TRUE,FALSE,FALSE,FALSE,FALSE,FALSE,Disabled,0.000000,0.000000,0.000000,TRUE,-0.216553,0.103516,0.000000,-0.002365,-0.001770,0.000000,0.036000,0.027000,-0.023000,2.630000,0.060000,-1.080000,-0.380805,Hold,0.055176,0.000000,Hold,-165.000000,2.000000,Suck,-1792.500000,1818.181818,Speed,-1785.000000,1818.181818,Speed,Off,On,0.000000,FALSE,0,,,,,0.000000,0.000000,-0.033000
03:31:39.885 PM 04/15/2016,Teleop Enabled,10,FALSE,0,NO ERROR,-0.000000,-0.230999,-0.000000,0.000000,TRUE,FALSE,FALSE,FALSE,FALSE,FALSE,Disabled,0.000000,0.000000,0.000000,TRUE,-0.215500,0.103577,0.000000,0.026077,-0.001602,0.000000,-0.026000,0.031000,0.125000,2.610000,0.050000,-0.900000,-0.382324,Hold,0.055176,0.000000,Hold,-165.000000,2.000000,Suck,-1792.500000,1818.181818,Speed,-1777.500000,1818.181818,Speed,Off,On,0.000000,FALSE,0,,,,,0.000000,0.000000,-0.033000
03:31:39.985 PM 04/15/2016,Teleop Enabled,10,FALSE,0,NO ERROR,-0.000000,-0.230999,-0.000000,0.000000,TRUE,FALSE,FALSE,FALSE,FALSE,FALSE,Disabled,0.000000,0.000000,0.000000,TRUE,-0.215286,0.103470,0.000000,0.000916,-0.009537,0.000000,0.077000,-0.084000,0.001000,2.630000,0.060000,-0.990000,-0.374113,Hold,0.055176,45.000000,Hold,-165.000000,139264.000000,Suck,-1792.500000,1818.181818,Speed,-1785.000000,1818.181818,Speed,Off,On,0.000000,FALSE,0,,,,,0.000000,0.000000,-0.033000
03:31:40.086 PM 04/15/2016,Teleop Enabled,10,FALSE,0,NO ERROR,-0.000000,-0.230999,-0.000000,0.000000,TRUE,FALSE,FALSE,FALSE,FALSE,FALSE,Disabled,0.000000,0.000000,0.000000,TRUE,-0.214996,0.103378,0.000000,0.004227,0.008850,0.000000,0.006000,0.000000,0.000000,2.620000,0.060000,-0.960000,-0.367152,Hold,3.192139,45.000000,Hold,-1004.000000,139264.000000,Suck,-1800.000000,1818.181818,Speed,-1785.000000,1818.181818,Speed,Off,On,0.000000,FALSE,0,,,,,0.000000,0.000000,-0.033000
03:31:40.186 PM 04/15/2016,Teleop Enabled,12,FALSE,0,NO ERROR,-0.000000,-0.230999,-0.000000,0.000000,TRUE,FALSE,FALSE,FALSE,FALSE,FALSE,Disabled,0.000000,0.000000,0.000000,TRUE,-0.215744,0.103485,0.000000,-0.021576,-0.003510,0.000000,0.036000,-0.039000,0.032000,2.630000,0.070000,-0.980000,-0.379411,Hold,5.822998,45.000000,Hold,-17946.000000,139264.000000,Suck,-1800.000000,1818.181818,Speed,-1777.500000,1818.181818,Speed,Off,On,0.000000,FALSE,0,,,,,0.000000,0.000000,-0.033000
03:31:40.287 PM 04/15/2016,Teleop Enabled,9,FALSE,0,NO ERROR,-0.000000,-0.230999,-0.000000,0.000000,TRUE,FALSE,FALSE,FALSE,FALSE,FALSE,Disabled,0.000000,0.000000,0.000000,TRUE,-0.216003,0.103424,0.000000,-0.001266,0.013748,0.000000,-0.060000,0.000000,0.018000,2.650000,0.060000,-0.760000,-0.392789,Hold,9.797852,45.000000,Hold,-36533.000000,139264.000000,Suck,-1800.000000,1818.181818,Speed,-1785.000000,1818.181818,Speed,Off,On,0.000000,FALSE,0,,,,,0.000000,0.000000,-0.033000
03:31:40.388 PM 04/15/2016,Teleop Enabled,11,FALSE,0,NO ERROR,-0.000000,-0.230999,-0.000000,0.000000,TRUE,FALSE,FALSE,FALSE,FALSE,FALSE,Disabled,0.000000,0.000000,0.000000,TRUE,-0.216370,0.102783,0.000000,0.000000,-0.025146,0.000000,-0.037000,0.000000,-0.009000,2.580000,0.040000,-0.940000,-0.410122,Hold,14.596680,45.000000,Hold,-53424.000000,139264.000000,Suck,-1785.000000,1818.181818,Speed,-1777.500000,1818.181818,Speed,Off,On,0.000000,FALSE,0,,,,,0.000000,0.000000,-0.033000
03:31:40.488 PM 04/15/2016,Teleop Enabled,10,FALSE,0,NO ERROR,-0.000000,-0.230999,-0.000000,0.000000,TRUE,FALSE,FALSE,FALSE,FALSE,FALSE,Disabled,0.000000,0.000000,0.000000,TRUE,-0.215851,0.100891,0.000000,0.026917,-0.037308,0.000000,0.039000,-0.014000,-0.021000,2.550000,0.030000,-0.750000,-0.400617,Hold,20.310547,45.000000,Hold,-73050.000000,139264.000000,Suck,-1770.000000,1818.181818,Speed,-1777.500000,1818.181818,Speed,Off,On,0.000000,FALSE,0,,,,,0.000000,0.000000,-0.033000
03:31:40.589 PM 04/15/2016,Teleop Enabled,10,FALSE,0,NO ERROR,-0.000000,-0.230999,-0.000000,0.000000,TRUE,FALSE,FALSE,FALSE,FALSE,FALSE,Disabled,0.000000,0.000000,0.000000,TRUE,-0.212540,0.098282,0.000000,0.075912,-0.050827,0.000000,0.150000,0.043000,0.040000,2.560000,0.020000,-0.960000,-0.399499,Hold,26.866943,45.000000,Hold,-96791.000000,139264.000000,Suck,-1777.500000,1818.181818,Speed,-1777.500000,1818.181818,Speed,Off,On,0.000000,FALSE,0,,,,,0.000000,0.000000,-0.033000
03:31:40.692 PM 04/15/2016,Teleop Enabled,9,FALSE,0,NO ERROR,-0.000000,-0.230999,-0.000000,0.000000,TRUE,FALSE,FALSE,FALSE,FALSE,FALSE,Disabled,0.000000,0.000000,0.000000,TRUE,-0.208450,0.096985,0.000000,0.061020,-0.003799,0.000000,-0.007000,0.030000,0.024000,2.560000,0.050000,-0.790000,-0.424874,Hold,34.622314,45.000000,Hold,-96791.000000,139264.000000,Suck,-1785.000000,1818.181818,Speed,-1777.500000,1818.181818,Speed,Off,On,0.000000,FALSE,0,,,,,0.000000,0.000000,-0.033000
03:31:40.792 PM 04/15/2016,Teleop Enabled,10,FALSE,0,NO ERROR,-0.000000,-0.230999,-0.000000,0.000000,TRUE,FALSE,FALSE,FALSE,FALSE,FALSE,Disabled,0.000000,0.000000,0.000000,TRUE,-0.206665,0.096619,0.000000,0.000000,-0.004333,0.000000,-0.009000,-0.031000,0.016000,2.560000,0.060000,-1.180000,-0.356911,Hold,43.796387,45.000000,Hold,-121358.000000,139264.000000,Suck,-1800.000000,1818.181818,Speed,-1777.500000,1818.181818,Speed,Off,On,0.000000,FALSE,0,,,,,0.000000,0.000000,-0.033000
03:31:40.893 PM 04/15/2016,Teleop Enabled,11,FALSE,0,NO ERROR,-0.000000,-0.275916,-0.000000,0.096250,TRUE,FALSE,FALSE,FALSE,FALSE,FALSE,Disabled,0.000000,0.000000,0.000000,TRUE,-0.200745,0.096588,0.000000,0.081726,0.017334,0.000000,-0.001000,0.010000,0.226000,2.560000,0.040000,-0.880000,-0.417100,Hold,49.293213,45.000000,Hold,-141610.000000,139264.000000,Suck,-1777.500000,1818.181818,Speed,-1762.500000,1818.181818,Speed,Off,On,0.000000,FALSE,0,,,,,0.000000,0.000000,-0.033000
03:31:40.993 PM 04/15/2016,Teleop Enabled,10,FALSE,0,NO ERROR,-0.000000,-0.288749,-0.000000,0.096250,TRUE,FALSE,FALSE,FALSE,FALSE,FALSE,Disabled,0.000000,0.000000,0.000000,TRUE,-0.197769,0.097000,0.000000,0.061874,0.013062,0.000000,0.008000,0.096000,-0.085000,2.610000,0.230000,-1.240000,-0.214058,Hold,49.293213,45.000000,Hold,-138561.000000,139264.000000,Suck,-1762.500000,1818.181818,Speed,-1755.000000,1818.181818,Speed,Off,On,0.000000,FALSE,0,,,,,0.000000,0.000000,-0.033000
03:31:41.093 PM 04/15/2016,Teleop Enabled,9,FALSE,0,NO ERROR,-0.000000,-0.288749,-0.000000,0.096250,TRUE,FALSE,FALSE,FALSE,FALSE,FALSE,Disabled,0.000000,0.000000,0.000000,TRUE,-0.197144,0.097519,0.000000,-0.004181,-0.006958,0.000000,0.052000,-0.025000,0.029000,2.560000,0.260000,-0.950000,-0.208075,Hold,50.294434,45.000000,Hold,-138725.000000,139264.000000,Suck,-1777.500000,1818.181818,Speed,-1755.000000,1818.181818,Speed,Off,On,0.000000,FALSE,0,,,,,0.000000,0.000000,-0.033000
03:31:41.194 PM 04/15/2016,Teleop Enabled,10,FALSE,0,NO ERROR,-0.000000,-0.288749,-0.000000,0.096250,TRUE,FALSE,FALSE,FALSE,FALSE,FALSE,Disabled,0.000000,0.000000,0.000000,TRUE,-0.197006,0.096558,0.000000,0.006012,-0.026993,0.000000,-0.037000,-0.067000,-0.037000,2.550000,0.220000,-1.140000,-0.276723,Hold,50.163574,45.000000,Hold,-138740.000000,139264.000000,Suck,-1792.500000,1818.181818,Speed,-1762.500000,1818.181818,Speed,Off,On,0.000000,FALSE,0,,,,,0.000000,0.000000,-0.033000
03:31:41.294 PM 04/15/2016,Teleop Enabled,10,FALSE,0,NO ERROR,-0.000000,-0.288749,-0.000000,0.089833,TRUE,FALSE,FALSE,FALSE,FALSE,FALSE,Disabled,0.000000,0.000000,0.000000,TRUE,-0.197693,0.095139,0.000000,-0.020889,-0.018661,0.000000,-0.041000,0.047000,0.063000,2.550000,0.190000,-1.050000,-0.313906,Hold,50.163330,45.000000,Hold,-138740.000000,139264.000000,Suck,-1792.500000,1818.181818,Speed,-1762.500000,1818.181818,Speed,Off,On,0.000000,FALSE,0,,,,,0.000000,0.000000,-0.033000
03:31:41.395 PM 04/15/2016,Teleop Enabled,11,FALSE,0,NO ERROR,-0.000000,-0.288749,-0.000000,0.083416,TRUE,FALSE,FALSE,FALSE,FALSE,FALSE,Disabled,0.000000,0.000000,0.000000,TRUE,-0.197586,0.094940,0.000000,0.024734,0.000000,0.000000,0.041000,0.004000,0.020000,2.620000,0.190000,-0.930000,-0.319218,Hold,50.136230,45.000000,Hold,-138846.000000,139264.000000,Suck,-1785.000000,1818.181818,Speed,-1762.500000,1818.181818,Speed,Off,On,0.000000,FALSE,0,,,,,0.000000,0.000000,-0.033000
03:31:41.498 PM 04/15/2016,Teleop Enabled,10,FALSE,0,NO ERROR,-0.000000,-0.288749,-0.000000,0.083416,TRUE,FALSE,FALSE,FALSE,FALSE,FALSE,Disabled,0.000000,0.000000,0.000000,TRUE,-0.196609,0.094940,0.000000,0.011749,0.000000,0.000000,-0.088000,-0.004000,0.100000,2.590000,0.180000,-0.910000,-0.346487,Hold,50.136230,45.000000,Hold,-138991.000000,139264.000000,Suck,-1777.500000,1818.181818,Speed,-1770.000000,1818.181818,Speed,Off,On,0.000000,FALSE,0,,,,,0.000000,0.000000,-0.033000
03:31:41.599 PM 04/15/2016,Teleop Enabled,12,FALSE,0,NO ERROR,-0.000000,-0.288749,-0.000000,0.083416,TRUE,FALSE,FALSE,FALSE,FALSE,FALSE,Disabled,0.000000,0.000000,0.000000,TRUE,-0.196365,0.094574,0.000000,-0.005936,-0.002579,0.000000,-0.014000,-0.053000,-0.042000,2.620000,0.170000,-1.000000,-0.344776,Hold,50.136230,45.000000,Hold,-139105.000000,139264.000000,Suck,-1792.500000,1818.181818,Speed,-1770.000000,1818.181818,Speed,Off,On,0.000000,FALSE,0,,,,,0.000000,0.000000,-0.033000
03:31:41.700 PM 04/15/2016,Teleop Enabled,11,FALSE,0,NO ERROR,-0.000000,-0.288749,-0.000000,0.083416,TRUE,FALSE,FALSE,FALSE,FALSE,FALSE,Disabled,0.000000,0.000000,0.000000,TRUE,-0.196686,0.094131,0.000000,-0.004761,-0.011139,0.000000,0.003000,0.022000,-0.005000,2.650000,0.180000,-1.040000,-0.342824,Hold,50.136230,45.000000,Hold,-139214.000000,139264.000000,Suck,-1785.000000,1818.181818,Speed,-1762.500000,1818.181818,Speed,Off,On,0.000000,FALSE,0,,,,,0.000000,0.000000,-0.033000
03:31:41.800 PM 04/15/2016,Teleop Enabled,11,FALSE,0,NO ERROR,-0.000000,-0.288749,-0.000000,0.083416,TRUE,FALSE,FALSE,FALSE,FALSE,FALSE,Disabled,0.000000,0.000000,0.000000,TRUE,-0.196548,0.093613,0.000000,0.007553,-0.017426,0.000000,-0.026000,-0.035000,0.023000,2.620000,0.170000,-0.890000,-0.353885,Hold,50.136230,45.000000,Hold,-139214.000000,139264.000000,Suck,-1785.000000,1818.181818,Speed,-1770.000000,1818.181818,Speed,Off,On,0.000000,FALSE,0,,,,,0.000000,0.000000,-0.033000
03:31:41.901 PM 04/15/2016,Teleop Enabled,12,FALSE,0,NO ERROR,-0.000000,-0.288749,-0.000000,0.083416,TRUE,FALSE,FALSE,FALSE,FALSE,FALSE,Disabled,0.000000,0.000000,0.000000,TRUE,-0.196045,0.093155,0.000000,0.007950,0.000000,0.000000,-0.053000,0.044000,0.029000,2.630000,0.170000,-0.900000,-0.361920,Hold,50.136230,45.000000,Hold,-139329.000000,139264.000000,Suck,-1792.500000,1818.181818,Speed,-1770.000000,1818.181818,Speed,Off,On,0.000000,FALSE,0,,,,,0.000000,0.000000,-0.033000
03:31:42.001 PM 04/15/2016,Teleop Enabled,10,FALSE,0,NO ERROR,-0.000000,-0.288749,-0.000000,0.083416,TRUE,FALSE,FALSE,FALSE,FALSE,FALSE,Disabled,0.000000,0.000000,0.000000,TRUE,-0.196701,0.093506,0.000000,-0.014618,0.001633,0.000000,-0.047000,-0.006000,0.022000,2.620000,0.170000,-0.960000,-0.365424,Hold,50.136230,45.000000,Hold,-139351.000000,139264.000000,Suck,-1785.000000,1818.181818,Speed,-1770.000000,1818.181818,Speed,Off,On,0.000000,FALSE,0,,,,,0.000000,0.000000,-0.033000
03:31:42.102 PM 04/15/2016,Teleop Enabled,10,FALSE,0,NO ERROR,-0.000000,-0.288749,-0.000000,0.083416,TRUE,FALSE,FALSE,FALSE,FALSE,FALSE,Disabled,0.000000,0.000000,0.000000,TRUE,-0.197723,0.093307,0.000000,-0.010391,-0.003128,0.000000,-0.007000,0.004000,-0.001000,2.610000,0.170000,-0.930000,-0.371301,Hold,50.136230,45.000000,Hold,-139351.000000,139264.000000,Suck,-1792.500000,1818.181818,Speed,-1770.000000,1818.181818,Speed,Off,On,0.000000,FALSE,0,,,,,0.000000,0.000000,-0.033000
03:31:42.203 PM 04/15/2016,Teleop Enabled,10,FALSE,0,NO ERROR,-0.000000,-0.288749,-0.000000,0.083416,TRUE,FALSE,FALSE,FALSE,FALSE,FALSE,Disabled,0.000000,0.000000,0.000000,TRUE,-0.198654,0.093491,0.000000,-0.036163,0.012970,0.000000,-0.018000,0.039000,-0.008000,2.590000,0.160000,-0.960000,-0.381535,Hold,50.136230,45.000000,Hold,-139375.000000,8192.000000,Suck,-1792.500000,1818.181818,Speed,-1762.500000,1818.181818,Speed,Off,On,0.000000,FALSE,0,,,,,0.000000,0.000000,-0.033000
03:31:42.303 PM 04/15/2016,Teleop Enabled,9,FALSE,0,NO ERROR,-0.000000,-0.288749,-0.000000,0.077000,TRUE,FALSE,FALSE,FALSE,FALSE,FALSE,Disabled,0.000000,0.000000,0.000000,TRUE,-0.200439,0.094772,0.000000,-0.036011,0.029343,0.000000,0.033000,-0.056000,0.222000,2.610000,0.170000,-1.020000,-0.387047,Hold,50.136230,0.000000,Hold,-139219.000000,8192.000000,Suck,-1792.500000,1818.181818,Speed,-1770.000000,1818.181818,Speed,Off,On,0.000000,FALSE,0,,,,,0.000000,0.000000,-0.033000
03:31:42.404 PM 04/15/2016,Teleop Enabled,9,FALSE,0,NO ERROR,-0.000000,-0.288749,-0.000000,0.077000,TRUE,FALSE,FALSE,FALSE,FALSE,FALSE,Disabled,0.000000,0.000000,0.000000,TRUE,-0.202560,0.095688,0.000000,-0.012405,0.015488,0.000000,0.112000,0.016000,-0.140000,2.680000,0.000000,-1.840000,-0.528426,Hold,47.166748,0.000000,Hold,-136635.000000,8192.000000,Suck,-1785.000000,1818.181818,Speed,-1770.000000,1818.181818,Speed,Off,On,0.000000,FALSE,0,,,,,0.000000,0.000000,-0.033000
03:31:42.504 PM 04/15/2016,Teleop Enabled,10,FALSE,0,NO ERROR,-0.000000,-0.295166,-0.000000,0.109083,TRUE,FALSE,FALSE,FALSE,FALSE,FALSE,Disabled,0.000000,0.000000,0.000000,TRUE,-0.202515,0.095963,0.000000,0.004684,0.004684,0.000000,0.019000,-0.029000,-0.006000,2.680000,-0.020000,-1.160000,-0.627262,Hold,37.180908,0.000000,Hold,-124998.000000,8192.000000,Suck,-1770.000000,1818.181818,Speed,-1747.500000,1818.181818,Speed,Off,On,0.000000,FALSE,0,,,,,0.000000,0.000000,-0.033000
03:31:42.605 PM 04/15/2016,Teleop Enabled,10,FALSE,0,NO ERROR,-0.000000,-0.295166,-0.000000,0.109083,TRUE,FALSE,FALSE,FALSE,FALSE,FALSE,Disabled,0.000000,0.000000,0.000000,TRUE,-0.202545,0.095795,0.000000,-0.015869,-0.008957,0.000000,-0.083000,-0.020000,-0.002000,2.750000,0.280000,-1.210000,-0.309434,Hold,22.870605,0.000000,Hold,-113122.000000,8192.000000,Suck,-1762.500000,1818.181818,Speed,-1740.000000,1818.181818,Speed,Off,On,0.000000,FALSE,0,,,,,0.000000,0.000000,-0.033000
03:31:42.705 PM 04/15/2016,Teleop Enabled,11,FALSE,0,NO ERROR,-0.000000,-0.295166,-0.000000,0.109083,TRUE,FALSE,FALSE,FALSE,FALSE,FALSE,Disabled,0.000000,0.000000,0.000000,TRUE,-0.205948,0.094498,0.000000,-0.084717,-0.036667,0.000000,-0.117000,0.098000,-0.045000,2.670000,0.350000,-1.180000,-0.233970,Hold,9.208984,0.000000,Hold,-100345.000000,8192.000000,Suck,-1785.000000,1818.181818,Speed,-1762.500000,1818.181818,Speed,Off,On,0.000000,FALSE,0,,,,,0.000000,0.000000,-0.033000
03:31:42.806 PM 04/15/2016,Teleop Enabled,9,FALSE,0,NO ERROR,-0.000000,-0.237416,-0.000000,0.006417,TRUE,FALSE,FALSE,FALSE,FALSE,FALSE,Disabled,0.000000,0.000000,0.000000,TRUE,-0.216766,0.090958,0.000000,-0.205261,-0.074753,0.000000,0.170000,-0.024000,-0.451000,2.710000,0.330000,-1.660000,-0.246611,Hold,0.918701,0.000000,Hold,-100345.000000,8192.000000,Suck,-1800.000000,1818.181818,Speed,-1777.500000,1818.181818,Speed,Off,On,0.000000,FALSE,0,,,,,0.000000,0.000000,-0.033000
03:31:42.906 PM 04/15/2016,Teleop Enabled,10,FALSE,0,NO ERROR,-0.000000,-0.237416,-0.000000,0.006417,TRUE,FALSE,FALSE,FALSE,FALSE,FALSE,Disabled,0.000000,0.000000,0.000000,TRUE,-0.222839,0.088150,0.000000,-0.155258,-0.060272,0.000000,0.132000,-0.021000,0.245000,2.670000,-0.040000,-0.940000,-0.647562,Hold,1.591553,0.000000,Hold,-86783.000000,8192.000000,Suck,-1792.500000,1818.181818,Speed,-1777.500000,1818.181818,Speed,Off,On,0.000000,FALSE,0,,,,,0.000000,0.000000,-0.033000
03:31:43.006 PM 04/15/2016,Teleop Enabled,11,FALSE,0,NO ERROR,-0.000000,-0.230999,-0.000000,-0.025667,TRUE,FALSE,FALSE,FALSE,FALSE,FALSE,Disabled,0.000000,0.000000,0.000000,TRUE,-0.229111,0.084290,0.000000,-0.081284,-0.062775,0.000000,0.072000,0.039000,-0.018000,2.640000,0.140000,-0.580000,-0.467475,Hold,1.448242,0.000000,Hold,-71430.000000,8192.000000,Suck,-1785.000000,1818.181818,Speed,-1770.000000,1818.181818,Speed,Off,On,0.000000,FALSE,0,,,,,0.000000,0.000000,-0.033000
03:31:43.106 PM 04/15/2016,Teleop Enabled,11,FALSE,0,NO ERROR,-0.000000,-0.230999,-0.000000,-0.025667,TRUE,FALSE,FALSE,FALSE,FALSE,FALSE,Disabled,0.000000,0.000000,0.000000,TRUE,-0.231567,0.083267,0.000000,-0.057068,0.001251,0.000000,0.075000,0.029000,0.125000,2.580000,0.030000,-0.590000,-0.565330,Hold,1.415039,0.000000,Hold,-55851.000000,8192.000000,Suck,-1792.500000,1818.181818,Speed,-1770.000000,1818.181818,Speed,Off,On,0.000000,FALSE,0,,,,,0.000000,0.000000,-0.033000
03:31:43.206 PM 04/15/2016,Teleop Enabled,11,FALSE,0,NO ERROR,-0.000000,-0.230999,-0.000000,-0.025667,TRUE,FALSE,FALSE,FALSE,FALSE,FALSE,Disabled,0.000000,0.000000,0.000000,TRUE,-0.232910,0.083237,0.000000,-0.006989,-0.002670,0.000000,0.075000,0.029000,0.125000,2.660000,0.060000,-0.630000,-0.565767,Hold,1.411621,0.000000,Hold,-38557.000000,8192.000000,Suck,-1800.000000,1818.181818,Speed,-1777.500000,1818.181818,Speed,Off,On,0.000000,FALSE,0,,,,,0.000000,0.000000,-0.033000
03:31:43.307 PM 04/15/2016,Teleop Enabled,11,FALSE,0,NO ERROR,-0.000000,-0.230999,-0.000000,-0.019250,TRUE,FALSE,FALSE,FALSE,FALSE,FALSE,Disabled,0.000000,0.000000,0.000000,TRUE,-0.234924,0.083481,0.000000,-0.051331,0.000000,0.000000,0.068000,-0.013000,0.000000,2.660000,0.060000,-0.630000,-0.559898,Hold,1.409424,0.000000,Hold,-20363.000000,8192.000000,Suck,-1800.000000,1818.181818,Speed,-1777.500000,1818.181818,Speed,Off,On,0.000000,FALSE,0,,,,,0.000000,0.000000,-0.033000
03:31:43.408 PM 04/15/2016,Teleop Enabled,10,FALSE,0,NO ERROR,-0.000000,-0.230999,-0.000000,-0.019250,TRUE,FALSE,FALSE,FALSE,FALSE,FALSE,Disabled,0.000000,0.000000,0.000000,TRUE,-0.239105,0.082977,0.000000,-0.124191,-0.007690,0.000000,0.068000,-0.013000,0.000000,2.690000,0.070000,-0.780000,-0.528612,Hold,1.407715,0.000000,Hold,-20363.000000,8192.000000,Suck,-1792.500000,1818.181818,Speed,-1777.500000,1818.181818,Speed,Off,On,0.000000,FALSE,0,,,,,0.000000,0.000000,-0.033000
03:31:43.508 PM 04/15/2016,Teleop Enabled,10,FALSE,0,NO ERROR,-0.000000,-0.230999,-0.000000,-0.025667,TRUE,FALSE,FALSE,FALSE,FALSE,FALSE,Disabled,0.000000,0.000000,0.000000,TRUE,-0.244125,0.082062,0.000000,-0.043945,-0.030655,0.000000,0.076000,0.025000,0.142000,2.690000,0.140000,-0.960000,-0.586787,Hold,1.406982,0.000000,Hold,-7624.000000,8192.000000,Suck,-1792.500000,1818.181818,Speed,-1777.500000,1818.181818,Speed,Off,On,0.000000,FALSE,0,,,,,0.000000,0.000000,-0.033000
03:31:43.608 PM 04/15/2016,Teleop Enabled,9,FALSE,0,NO ERROR,-0.000000,-0.230999,-0.000000,-0.025667,TRUE,FALSE,FALSE,FALSE,FALSE,FALSE,Disabled,0.000000,0.000000,0.000000,TRUE,-0.246414,0.081100,0.000000,-0.048706,0.000000,0.000000,0.032000,-0.028000,0.039000,2.670000,0.040000,-0.850000,-0.551897,Hold,1.406738,0.000000,Hold,-7689.000000,8192.000000,Suck,-1792.500000,1818.181818,Speed,-1770.000000,1818.181818,Speed,Off,On,0.000000,FALSE,0,,,,,0.000000,0.000000,-0.033000
03:31:43.708 PM 04/15/2016,Teleop Enabled,9,FALSE,0,NO ERROR,-0.000000,-0.230999,-0.000000,-0.025667,TRUE,FALSE,FALSE,FALSE,FALSE,FALSE,Disabled,0.000000,0.000000,0.000000,TRUE,-0.248322,0.080521,0.000000,0.000000,-0.017075,0.000000,-0.045000,0.004000,0.045000,2.650000,0.090000,-0.690000,-0.553006,Hold,1.406250,0.000000,Hold,-7716.000000,8192.000000,Suck,-1792.500000,1818.181818,Speed,-1762.500000,1818.181818,Speed,Off,On,0.000000,FALSE,0,,,,,0.000000,0.000000,-0.033000
03:31:43.808 PM 04/15/2016,Teleop Enabled,9,FALSE,0,NO ERROR,-0.000000,-0.230999,-0.000000,-0.025667,TRUE,FALSE,FALSE,FALSE,FALSE,FALSE,Disabled,0.000000,0.000000,0.000000,TRUE,-0.249191,0.080521,0.000000,-0.025452,-0.002731,0.000000,-0.019000,0.044000,0.019000,2.620000,0.070000,-0.660000,-0.602420,Hold,1.405762,0.000000,Hold,-7864.000000,8192.000000,Suck,-1785.000000,1818.181818,Speed,-1777.500000,1818.181818,Speed,Off,On,0.000000,FALSE,0,,,,,0.000000,0.000000,-0.033000
03:31:43.909 PM 04/15/2016,Teleop Enabled,9,FALSE,0,NO ERROR,-0.000000,-0.230999,-0.000000,-0.025667,TRUE,FALSE,FALSE,FALSE,FALSE,FALSE,Disabled,0.000000,0.000000,0.000000,TRUE,-0.251266,0.080826,0.000000,0.000000,0.020172,0.000000,-0.062000,-0.022000,0.022000,2.630000,0.050000,-0.790000,-0.571929,Hold,1.404785,0.000000,Hold,-8083.000000,8192.000000,Suck,-1792.500000,1818.181818,Speed,-1777.500000,1818.181818,Speed,Off,On,0.000000,FALSE,0,,,,,0.000000,0.000000,-0.033000
03:31:44.009 PM 04/15/2016,Teleop Enabled,10,FALSE,0,NO ERROR,-0.000000,-0.230999,-0.000000,-0.025667,TRUE,FALSE,FALSE,FALSE,FALSE,FALSE,Disabled,0.000000,0.000000,0.000000,TRUE,-0.251389,0.081665,0.000000,-0.002640,0.004974,0.000000,-0.014000,0.018000,-0.010000,2.660000,0.070000,-0.920000,-0.599659,Hold,1.403564,0.000000,Hold,-8348.000000,8192.000000,Suck,-1792.500000,1818.181818,Speed,-1770.000000,1818.181818,Speed,Off,On,0.000000,FALSE,0,,,,,0.000000,0.000000,-0.033000
03:31:44.109 PM 04/15/2016,Teleop Enabled,10,FALSE,0,NO ERROR,-0.000000,-0.230999,-0.000000,-0.025667,TRUE,FALSE,FALSE,FALSE,FALSE,FALSE,Disabled,0.000000,0.000000,0.000000,TRUE,-0.251389,0.081665,0.000000,-0.002640,0.004974,0.000000,-0.062000,0.039000,-0.026000,2.680000,0.060000,-0.960000,-0.589311,Hold,1.403076,0.000000,Hold,-8348.000000,8192.000000,Suck,-1792.500000,1818.181818,Speed,-1770.000000,1818.181818,Speed,Off,On,0.000000,FALSE,0,,,,,0.000000,0.000000,-0.033000
03:31:44.209 PM 04/15/2016,Teleop Enabled,9,FALSE,0,NO ERROR,-0.000000,-0.230999,-0.000000,-0.025667,TRUE,FALSE,FALSE,FALSE,FALSE,FALSE,Disabled,0.000000,0.000000,0.000000,TRUE,-0.252045,0.082535,0.000000,-0.012619,0.000000,0.000000,-0.023000,0.009000,0.044000,2.670000,0.070000,-0.950000,-0.583830,Hold,1.401123,0.000000,Hold,-8562.000000,8192.000000,Suck,-1777.500000,1818.181818,Speed,-1770.000000,1818.181818,Speed,Off,On,0.000000,FALSE,0,,,,,0.000000,0.000000,-0.033000
03:31:44.309 PM 04/15/2016,Teleop Enabled,11,FALSE,0,NO ERROR,-0.000000,-0.230999,-0.000000,-0.025667,TRUE,FALSE,FALSE,FALSE,FALSE,FALSE,Disabled,0.000000,0.000000,0.000000,TRUE,-0.253235,0.082260,0.000000,-0.014832,-0.015747,0.000000,-0.034000,0.073000,-0.019000,2.630000,0.070000,-0.940000,-0.598107,Hold,1.381592,0.000000,Hold,-8668.000000,8192.000000,Suck,-1777.500000,1818.181818,Speed,-1770.000000,1818.181818,Speed,Off,On,0.000000,FALSE,0,,,,,0.000000,0.000000,-0.033000
03:31:44.409 PM 04/15/2016,Teleop Enabled,11,FALSE,0,NO ERROR,-0.000000,-0.230999,-0.000000,-0.025667,TRUE,FALSE,FALSE,FALSE,FALSE,FALSE,Disabled,0.000000,0.000000,0.000000,TRUE,-0.253250,0.082047,0.000000,0.018112,-0.008774,0.000000,-0.085000,0.046000,0.051000,2.650000,0.060000,-0.870000,-0.598107,Hold,1.380615,0.000000,Hold,-8666.000000,8192.000000,Suck,-1785.000000,1818.181818,Speed,-1762.500000,1818.181818,Speed,Off,On,0.000000,FALSE,0,,,,,0.000000,0.000000,-0.033000
03:31:44.509 PM 04/15/2016,Teleop Enabled,10,FALSE,0,NO ERROR,-0.000000,-0.230999,-0.000000,-0.025667,TRUE,FALSE,FALSE,FALSE,FALSE,FALSE,Disabled,0.000000,0.000000,0.000000,TRUE,-0.253891,0.081940,0.000000,-0.009430,-0.005005,0.000000,0.068000,-0.046000,-0.006000,2.630000,0.060000,-0.880000,-0.601759,Hold,1.380127,0.000000,Hold,-8571.000000,8192.000000,Suck,-1777.500000,1818.181818,Speed,-1762.500000,1818.181818,Speed,Off,On,0.000000,FALSE,0,,,,,0.000000,0.000000,-0.033000
03:31:44.609 PM 04/15/2016,Teleop Enabled,9,FALSE,0,NO ERROR,-0.000000,-0.230999,-0.000000,-0.025667,TRUE,FALSE,FALSE,FALSE,FALSE,FALSE,Disabled,0.000000,0.000000,0.000000,TRUE,-0.254166,0.081650,0.000000,0.000259,-0.003189,0.000000,0.021000,0.020000,-0.059000,2.640000,0.060000,-0.850000,-0.610527,Hold,1.379639,0.000000,Hold,-8393.000000,8192.000000,Suck,-1785.000000,1818.181818,Speed,-1777.500000,1818.181818,Speed,Off,On,0.000000,FALSE,0,,,,,0.000000,0.000000,-0.033000
03:31:44.709 PM 04/15/2016,Teleop Enabled,10,FALSE,0,NO ERROR,-0.000000,-0.230999,-0.000000,-0.025667,TRUE,FALSE,FALSE,FALSE,FALSE,FALSE,Disabled,0.000000,0.000000,0.000000,TRUE,-0.254242,0.081818,0.000000,-0.004715,-0.005402,0.000000,0.105000,-0.083000,0.027000,2.680000,0.060000,-0.880000,-0.610021,Hold,1.376709,0.000000,Hold,-8146.000000,8192.000000,Suck,-1785.000000,1818.181818,Speed,-1785.000000,1818.181818,Speed,Off,On,0.000000,FALSE,0,,,,,0.000000,0.000000,-0.033000
03:31:44.809 PM 04/15/2016,Teleop Enabled,10,FALSE,0,NO ERROR,-0.000000,-0.230999,-0.000000,-0.025667,TRUE,FALSE,FALSE,FALSE,FALSE,FALSE,Disabled,0.000000,0.000000,0.000000,TRUE,-0.252747,0.080521,0.000000,0.043900,-0.022598,0.000000,0.014000,0.032000,0.010000,2.690000,0.060000,-0.830000,-0.597091,Hold,1.374268,0.000000,Hold,-8146.000000,8192.000000,Suck,-1777.500000,1818.181818,Speed,-1785.000000,1818.181818,Speed,Off,On,0.000000,FALSE,0,,,,,0.000000,0.000000,-0.033000
03:31:44.910 PM 04/15/2016,Teleop Enabled,11,FALSE,0,NO ERROR,-0.000000,-0.230999,-0.000000,-0.025667,TRUE,FALSE,FALSE,FALSE,FALSE,FALSE,Disabled,0.000000,0.000000,0.000000,TRUE,-0.251892,0.079468,0.000000,0.002808,-0.017471,0.000000,-0.033000,-0.059000,-0.055000,2.700000,0.060000,-0.910000,-0.604403,Hold,1.373779,0.000000,Hold,-7951.000000,8192.000000,Suck,-1785.000000,1818.181818,Speed,-1785.000000,1818.181818,Speed,Off,On,0.000000,FALSE,0,,,,,0.000000,0.000000,-0.033000
03:31:45.010 PM 04/15/2016,Teleop Enabled,8,FALSE,0,NO ERROR,-0.000000,-0.230999,-0.000000,-0.025667,TRUE,FALSE,FALSE,FALSE,FALSE,FALSE,Disabled,0.000000,0.000000,0.000000,TRUE,-0.250854,0.077362,0.000000,0.031555,-0.054642,0.000000,-0.052000,0.000000,0.032000,2.670000,0.050000,-0.830000,-0.607928,Hold,1.373535,0.000000,Hold,-7779.000000,8192.000000,Suck,-1792.500000,1818.181818,Speed,-1777.500000,1818.181818,Speed,Off,On,0.000000,FALSE,0,,,,,0.000000,0.000000,-0.033000
03:31:45.110 PM 04/15/2016,Teleop Enabled,11,FALSE,0,NO ERROR,-0.000000,-0.230999,-0.000000,-0.025667,TRUE,FALSE,FALSE,FALSE,FALSE,FALSE,Disabled,0.000000,0.000000,0.000000,TRUE,-0.249680,0.075012,0.000000,0.016418,-0.039154,0.000000,-0.053000,0.002000,-0.035000,2.650000,0.050000,-0.790000,-0.619574,Hold,1.373291,0.000000,Hold,-7710.000000,8192.000000,Suck,-1800.000000,1818.181818,Speed,-1777.500000,1818.181818,Speed,Off,On,0.000000,FALSE,0,,,,,0.000000,0.000000,-0.033000
03:31:45.210 PM 04/15/2016,Teleop Enabled,9,FALSE,0,NO ERROR,-0.000000,-0.230999,-0.000000,-0.025667,TRUE,FALSE,FALSE,FALSE,FALSE,FALSE,Disabled,0.000000,0.000000,0.000000,TRUE,-0.249329,0.074738,0.000000,0.004730,0.000000,0.000000,-0.038000,0.019000,0.028000,2.610000,0.040000,-0.890000,-0.610242,Hold,1.373047,0.000000,Hold,-7757.000000,8192.000000,Suck,-1800.000000,1818.181818,Speed,-1777.500000,1818.181818,Speed,Off,On,0.000000,FALSE,0,,,,,0.000000,0.000000,-0.033000
03:31:45.310 PM 04/15/2016,Teleop Enabled,9,FALSE,0,NO ERROR,-0.000000,-0.230999,-0.000000,-0.025667,TRUE,FALSE,FALSE,FALSE,FALSE,FALSE,Disabled,0.000000,0.000000,0.000000,TRUE,-0.249863,0.075287,0.000000,-0.009094,0.024673,0.000000,0.003000,0.017000,0.004000,2.680000,0.050000,-0.970000,-0.616731,Hold,1.373047,0.000000,Hold,-7892.000000,8192.000000,Suck,-1792.500000,1818.181818,Speed,-1777.500000,1818.181818,Speed,Off,On,0.000000,FALSE,0,,,,,0.000000,0.000000,-0.033000
03:31:45.411 PM 04/15/2016,Teleop Enabled,10,FALSE,0,NO ERROR,-0.000000,-0.230999,-0.000000,-0.025667,TRUE,FALSE,FALSE,FALSE,FALSE,FALSE,Disabled,0.000000,0.000000,0.000000,TRUE,-0.249542,0.076248,0.000000,0.017288,0.002289,0.000000,-0.004000,0.001000,0.006000,2.660000,0.050000,-0.900000,-0.624955,Hold,1.372803,0.000000,Hold,-8042.000000,8192.000000,Suck,-1807.500000,1818.181818,Speed,-1770.000000,1818.181818,Speed,Off,On,0.000000,FALSE,0,,,,,0.000000,0.000000,-0.033000
03:31:45.511 PM 04/15/2016,Teleop Enabled,9,FALSE,0,NO ERROR,-0.000000,-0.230999,-0.000000,-0.025667,TRUE,FALSE,FALSE,FALSE,FALSE,FALSE,Disabled,0.000000,0.000000,0.000000,TRUE,-0.249191,0.075729,0.000000,0.001129,-0.029556,0.000000,0.001000,-0.034000,-0.019000,2.640000,0.050000,-0.930000,-0.626353,Hold,1.372803,0.000000,Hold,-8042.000000,8192.000000,Suck,-1807.500000,1818.181818,Speed,-1762.500000,1818.181818,Speed,Off,On,0.000000,FALSE,0,,,,,0.000000,0.000000,-0.033000
03:31:45.611 PM 04/15/2016,Teleop Enabled,10,FALSE,0,NO ERROR,-0.000000,-0.230999,-0.000000,-0.025667,TRUE,FALSE,FALSE,FALSE,FALSE,FALSE,Disabled,0.000000,0.000000,0.000000,TRUE,-0.248001,0.075394,0.000000,0.028076,0.000000,0.000000,0.029000,0.003000,0.005000,2.630000,0.050000,-0.890000,-0.613244,Hold,1.372803,0.000000,EmergencyManualControl,-8224.000000,0.004724,Suck,-1800.000000,1818.181818,Speed,-1770.000000,1818.181818,Speed,Off,On,0.000000,FALSE,0,,,,,0.000000,0.000000,-0.033000
03:31:45.711 PM 04/15/2016,Teleop Enabled,11,FALSE,0,NO ERROR,-0.000000,-0.230999,-0.000000,-0.025667,TRUE,FALSE,FALSE,FALSE,FALSE,FALSE,Disabled,0.000000,0.000000,0.000000,TRUE,-0.245804,0.075150,0.000000,0.000000,-0.011566,0.000000,0.018000,0.014000,-0.023000,2.620000,0.050000,-0.860000,-0.621330,Hold,1.372559,0.000000,EmergencyManualControl,-7653.000000,0.004724,Suck,-1777.500000,1818.181818,Speed,-1762.500000,1818.181818,Speed,Off,On,0.000000,FALSE,0,,,,,0.000000,0.000000,-0.033000
03:31:45.812 PM 04/15/2016,Teleop Enabled,10,FALSE,0,NO ERROR,-0.000000,-0.230999,-0.000000,-0.025667,TRUE,FALSE,FALSE,FALSE,FALSE,FALSE,Disabled,0.000000,0.000000,0.000000,TRUE,-0.245392,0.075272,0.000000,0.016342,-0.002487,0.000000,-0.065000,-0.007000,-0.016000,2.620000,0.050000,-0.820000,-0.619898,Hold,1.372559,0.000000,EmergencyManualControl,-7581.000000,0.004724,Suck,-1777.500000,1818.181818,Speed,-1762.500000,1818.181818,Speed,Off,On,0.000000,FALSE,0,,,,,0.000000,0.000000,-0.033000
03:31:45.912 PM 04/15/2016,Teleop Enabled,10,FALSE,0,NO ERROR,-0.000000,-0.230999,-0.000000,-0.025667,TRUE,FALSE,FALSE,FALSE,FALSE,FALSE,Disabled,0.000000,0.000000,0.000000,TRUE,-0.245560,0.075287,0.000000,-0.010391,0.003983,0.000000,0.022000,0.027000,-0.013000,2.620000,0.050000,-0.830000,-0.628067,Hold,1.372314,0.000000,EmergencyManualControl,-7581.000000,0.004724,Suck,-1785.000000,1818.181818,Speed,-1777.500000,1818.181818,Speed,Off,On,0.000000,FALSE,0,,,,,0.000000,0.000000,-0.033000
03:31:46.012 PM 04/15/2016,Teleop Enabled,10,FALSE,0,NO ERROR,-0.000000,-0.230999,-0.000000,-0.025667,TRUE,FALSE,FALSE,FALSE,FALSE,FALSE,Disabled,0.000000,0.000000,0.000000,TRUE,-0.245468,0.075317,0.000000,0.007751,-0.011887,0.000000,-0.017000,-0.029000,-0.036000,2.650000,0.050000,-0.850000,-0.614324,Hold,1.372314,0.000000,EmergencyManualControl,-7581.000000,0.004724,Suck,-1792.500000,1818.181818,Speed,-1785.000000,1818.181818,Speed,Off,On,0.000000,FALSE,0,,,,,0.000000,0.000000,-0.033000
03:31:46.113 PM 04/15/2016,Teleop Enabled,9,FALSE,0,NO ERROR,-0.000000,-0.230999,-0.000000,-0.025667,TRUE,FALSE,FALSE,FALSE,FALSE,FALSE,Disabled,0.000000,0.000000,0.000000,TRUE,-0.245636,0.074753,0.000000,-0.003128,0.000000,0.000000,-0.026000,0.006000,-0.026000,2.660000,0.050000,-0.920000,-0.610001,Hold,1.372070,0.000000,EmergencyManualControl,-7581.000000,0.004724,Suck,-1785.000000,1818.181818,Speed,-1785.000000,1818.181818,Speed,Off,On,0.000000,FALSE,0,,,,,0.000000,0.000000,-0.033000
03:31:46.214 PM 04/15/2016,Teleop Enabled,10,FALSE,0,NO ERROR,-0.000000,-0.230999,-0.000000,-0.025667,TRUE,FALSE,FALSE,FALSE,FALSE,FALSE,Disabled,0.000000,0.000000,0.000000,TRUE,-0.246414,0.075302,0.000000,-0.001282,0.016495,0.000000,0.066000,-0.029000,-0.005000,2.640000,0.040000,-0.820000,-0.619196,Hold,1.372070,0.000000,EmergencyManualControl,-7581.000000,0.004724,Suck,-1777.500000,1818.181818,Speed,-1785.000000,1818.181818,Speed,Off,On,0.000000,FALSE,0,,,,,0.000000,0.000000,-0.033000
03:31:46.314 PM 04/15/2016,Teleop Enabled,5,FALSE,0,NO ERROR,-0.000000,-0.230999,-0.000000,-0.025667,TRUE,FALSE,FALSE,FALSE,FALSE,FALSE,Disabled,0.000000,0.000000,0.000000,TRUE,-0.246078,0.075516,0.000000,0.002441,0.007095,0.000000,0.004000,0.024000,-0.003000,2.630000,0.040000,-0.810000,-0.601002,Hold,1.371826,0.000000,EmergencyManualControl,-7581.000000,0.004724,Suck,-1792.500000,1818.181818,Speed,-1777.500000,1818.181818,Speed,Off,On,0.000000,FALSE,0,,,,,0.000000,0.000000,-0.033000
03:31:46.414 PM 04/15/2016,Teleop Enabled,9,FALSE,0,NO ERROR,-0.000000,-0.230999,-0.000000,-0.025667,TRUE,FALSE,FALSE,FALSE,FALSE,FALSE,Disabled,0.000000,0.000000,0.000000,TRUE,-0.245972,0.076462,0.000000,-0.000290,0.021164,0.000000,0.063000,-0.039000,0.003000,2.610000,0.050000,-0.800000,-0.594643,Hold,1.371582,0.000000,EmergencyManualControl,-7581.000000,0.004724,Suck,-1807.500000,1818.181818,Speed,-1777.500000,1818.181818,Speed,Off,On,0.000000,FALSE,0,,,,,0.000000,0.000000,-0.033000
03:31:46.515 PM 04/15/2016,Teleop Enabled,10,FALSE,0,NO ERROR,-0.000000,-0.230999,-0.000000,-0.025667,TRUE,FALSE,FALSE,FALSE,FALSE,FALSE,Disabled,0.000000,0.000000,0.000000,TRUE,-0.245270,0.077133,0.000000,-0.003830,0.017624,0.000000,-0.083000,0.018000,0.009000,2.600000,0.040000,-0.850000,-0.598179,Hold,1.371582,0.000000,EmergencyManualControl,-7581.000000,0.004724,Suck,-1807.500000,1818.181818,Speed,-1785.000000,1818.181818,Speed,Off,On,0.000000,FALSE,0,,,,,0.000000,0.000000,-0.033000
03:31:46.615 PM 04/15/2016,Teleop Enabled,10,FALSE,0,NO ERROR,-0.000000,-0.230999,-0.000000,-0.025667,TRUE,FALSE,FALSE,FALSE,FALSE,FALSE,Disabled,0.000000,0.000000,0.000000,TRUE,-0.247131,0.078690,0.000000,-0.053345,0.031555,0.000000,0.019000,-0.003000,0.003000,2.660000,0.040000,-0.880000,-0.575372,Hold,1.371338,0.000000,EmergencyManualControl,-7581.000000,0.004724,Suck,-1792.500000,1818.181818,Speed,-1785.000000,1818.181818,Speed,Off,On,0.000000,FALSE,0,,,,,0.000000,0.000000,-0.033000
03:31:46.715 PM 04/15/2016,Teleop Enabled,10,FALSE,0,NO ERROR,-0.000000,-0.230999,-0.000000,-0.025667,TRUE,FALSE,FALSE,FALSE,FALSE,FALSE,Disabled,0.000000,0.000000,0.000000,TRUE,-0.249283,0.079147,0.000000,-0.031097,0.000000,0.000000,0.042000,-0.008000,0.038000,2.610000,0.040000,-0.870000,-0.577589,Hold,1.370850,0.000000,EmergencyManualControl,-7581.000000,0.004724,Suck,-1785.000000,1818.181818,Speed,-1785.000000,1818.181818,Speed,Off,On,0.000000,FALSE,0,,,,,0.000000,0.000000,-0.033000
03:31:46.815 PM 04/15/2016,Teleop Enabled,8,FALSE,0,NO ERROR,-0.000000,-0.230999,-0.000000,-0.025667,TRUE,FALSE,FALSE,FALSE,FALSE,FALSE,Disabled,0.000000,0.000000,0.000000,TRUE,-0.250351,0.079422,0.000000,0.000000,0.014587,0.000000,-0.002000,0.012000,-0.007000,2.610000,0.040000,-0.800000,-0.572504,Hold,1.364746,0.000000,EmergencyManualControl,-7581.000000,0.004724,Suck,-1785.000000,1818.181818,Speed,-1777.500000,1818.181818,Speed,Off,On,0.000000,FALSE,0,,,,,0.000000,0.000000,-0.033000
03:31:46.916 PM 04/15/2016,Teleop Enabled,10,FALSE,0,NO ERROR,-0.000000,-0.230999,-0.000000,-0.025667,TRUE,FALSE,FALSE,FALSE,FALSE,FALSE,Disabled,0.000000,0.000000,0.000000,TRUE,-0.250427,0.079330,0.000000,0.002197,-0.007431,0.000000,0.021000,0.014000,0.007000,2.600000,0.040000,-0.830000,-0.579159,Hold,1.357910,0.000000,EmergencyManualControl,-7581.000000,0.004724,Suck,-1792.500000,1818.181818,Speed,-1777.500000,1818.181818,Speed,Off,On,0.000000,FALSE,0,,,,,0.000000,0.000000,-0.033000
03:31:47.020 PM 04/15/2016,Teleop Enabled,12,FALSE,0,NO ERROR,-0.000000,-0.230999,-0.000000,-0.025667,TRUE,FALSE,FALSE,FALSE,FALSE,FALSE,Disabled,0.000000,0.000000,0.000000,TRUE,-0.250351,0.079559,0.000000,0.000259,0.017456,0.000000,-0.014000,0.017000,-0.003000,2.600000,0.050000,-0.840000,-0.591872,Hold,1.356201,0.000000,EmergencyManualControl,-7581.000000,0.004724,Suck,-1792.500000,1818.181818,Speed,-1777.500000,1818.181818,Speed,Off,On,0.000000,FALSE,0,,,,,0.000000,0.000000,-0.033000
03:31:47.120 PM 04/15/2016,Teleop Enabled,9,FALSE,0,NO ERROR,-0.000000,-0.230999,-0.000000,-0.025667,TRUE,FALSE,FALSE,FALSE,FALSE,FALSE,Disabled,0.000000,0.000000,0.000000,TRUE,-0.249695,0.080078,0.000000,0.029617,-0.012070,0.000000,0.035000,0.016000,0.043000,2.590000,0.040000,-0.730000,-0.595229,Hold,1.355713,0.000000,EmergencyManualControl,-7581.000000,0.004724,Suck,-1785.000000,1818.181818,Speed,-1785.000000,1818.181818,Speed,Off,On,0.000000,FALSE,0,,,,,0.000000,0.000000,-0.033000
03:31:47.222 PM 04/15/2016,Teleop Enabled,11,FALSE,0,NO ERROR,-0.000000,-0.230999,-0.000000,-0.025667,TRUE,FALSE,FALSE,FALSE,FALSE,FALSE,Disabled,0.000000,0.000000,0.000000,TRUE,-0.247299,0.079681,0.000000,0.051895,0.000000,0.000000,-0.047000,0.007000,-0.003000,2.590000,0.040000,-0.710000,-0.590912,Hold,1.355469,0.000000,EmergencyManualControl,-7581.000000,0.004724,Suck,-1777.500000,1818.181818,Speed,-1777.500000,1818.181818,Speed,Off,On,0.000000,FALSE,0,,,,,0.000000,0.000000,-0.033000
03:31:47.323 PM 04/15/2016,Teleop Enabled,10,FALSE,0,NO ERROR,-0.000000,-0.230999,-0.000000,-0.025667,TRUE,FALSE,FALSE,FALSE,FALSE,FALSE,Disabled,0.000000,0.000000,0.000000,TRUE,-0.245178,0.079208,0.000000,0.038940,-0.022781,0.000000,0.025000,-0.006000,-0.059000,2.610000,0.040000,-0.850000,-0.590526,Hold,1.355225,0.000000,EmergencyManualControl,-7581.000000,0.004724,Suck,-1792.500000,1818.181818,Speed,-1777.500000,1818.181818,Speed,Off,On,0.000000,FALSE,0,,,,,0.000000,0.000000,-0.033000
03:31:47.424 PM 04/15/2016,Teleop Enabled,10,FALSE,0,NO ERROR,-0.000000,-0.230999,-0.000000,-0.025667,TRUE,FALSE,FALSE,FALSE,FALSE,FALSE,Disabled,0.000000,0.000000,0.000000,TRUE,-0.243073,0.078964,0.000000,0.036041,0.001038,0.000000,-0.051000,0.022000,0.016000,2.600000,0.040000,-0.850000,-0.593370,Hold,1.354980,0.000000,EmergencyManualControl,-7581.000000,0.004724,Suck,-1792.500000,1818.181818,Speed,-1785.000000,1818.181818,Speed,Off,On,0.000000,FALSE,0,,,,,0.000000,0.000000,-0.033000
03:31:47.525 PM 04/15/2016,Teleop Enabled,11,FALSE,0,NO ERROR,-0.000000,-0.230999,-0.000000,-0.025667,TRUE,FALSE,FALSE,FALSE,FALSE,FALSE,Disabled,0.000000,0.000000,0.000000,TRUE,-0.240601,0.078964,0.000000,0.059875,-0.009827,0.000000,0.050000,-0.047000,-0.026000,2.580000,0.040000,-0.790000,-0.603181,Hold,1.354736,0.000000,EmergencyManualControl,-7581.000000,0.004724,Suck,-1785.000000,1818.181818,Speed,-1777.500000,1818.181818,Speed,Off,On,0.000000,FALSE,0,,,,,0.000000,0.000000,-0.033000
03:31:47.626 PM 04/15/2016,Teleop Enabled,11,FALSE,0,NO ERROR,-0.000000,-0.230999,-0.000000,-0.025667,TRUE,FALSE,FALSE,FALSE,FALSE,FALSE,Disabled,0.000000,0.000000,0.000000,TRUE,-0.236893,0.077759,0.000000,0.069504,-0.023148,0.000000,-0.060000,-0.008000,0.039000,2.590000,0.040000,-0.810000,-0.609009,Hold,1.354736,0.000000,EmergencyManualControl,-7581.000000,0.004724,Suck,-1785.000000,1818.181818,Speed,-1785.000000,1818.181818,Speed,Off,On,0.000000,FALSE,0,,,,,0.000000,0.000000,-0.033000
03:31:47.727 PM 04/15/2016,Teleop Enabled,11,FALSE,0,NO ERROR,-0.000000,-0.230999,-0.000000,-0.025667,TRUE,FALSE,FALSE,FALSE,FALSE,FALSE,Disabled,0.000000,0.000000,0.000000,TRUE,-0.234680,0.077301,0.000000,0.053284,-0.006729,0.000000,-0.018000,0.009000,0.042000,2.580000,0.040000,-0.850000,-0.604658,Hold,1.354492,0.000000,EmergencyManualControl,-7581.000000,0.004724,Suck,-1807.500000,1818.181818,Speed,-1785.000000,1818.181818,Speed,Off,On,0.000000,FALSE,0,,,,,0.000000,0.000000,-0.033000
03:31:47.828 PM 04/15/2016,Teleop Enabled,12,FALSE,0,NO ERROR,-0.000000,-0.230999,-0.000000,-0.025667,TRUE,FALSE,FALSE,FALSE,FALSE,FALSE,Disabled,0.000000,0.000000,0.000000,TRUE,-0.235229,0.076538,0.000000,-0.009201,-0.015656,0.000000,-0.010000,0.035000,0.023000,2.610000,0.040000,-0.900000,-0.602923,Hold,1.354004,0.000000,EmergencyManualControl,-7581.000000,0.004724,Suck,-1807.500000,1818.181818,Speed,-1785.000000,1818.181818,Speed,Off,On,0.000000,FALSE,0,,,,,0.000000,0.000000,-0.033000
03:31:47.928 PM 04/15/2016,Teleop Enabled,9,FALSE,0,NO ERROR,-0.000000,-0.230999,-0.000000,-0.025667,TRUE,FALSE,FALSE,FALSE,FALSE,FALSE,Disabled,0.000000,0.000000,0.000000,TRUE,-0.235016,0.076080,0.000000,0.017471,-0.008392,0.000000,0.024000,0.018000,0.011000,2.600000,0.040000,-0.840000,-0.591841,Hold,1.353760,0.000000,EmergencyManualControl,-7581.000000,0.004724,Suck,-1800.000000,1818.181818,Speed,-1792.500000,1818.181818,Speed,Off,On,0.000000,FALSE,0,,,,,0.000000,0.000000,-0.033000
03:31:48.028 PM 04/15/2016,Teleop Enabled,9,FALSE,0,NO ERROR,-0.000000,-0.230999,-0.000000,-0.025667,TRUE,FALSE,FALSE,FALSE,FALSE,FALSE,Disabled,0.000000,0.000000,0.000000,TRUE,-0.233719,0.075638,0.000000,0.025650,-0.015732,0.000000,-0.008000,-0.028000,0.018000,2.610000,0.040000,-0.820000,-0.586123,Hold,1.353516,0.000000,EmergencyManualControl,-7581.000000,0.004724,Suck,-1800.000000,1818.181818,Speed,-1785.000000,1818.181818,Speed,Off,On,0.000000,FALSE,0,,,,,0.000000,0.000000,-0.033000
03:31:48.130 PM 04/15/2016,Teleop Enabled,10,FALSE,0,NO ERROR,-0.000000,-0.230999,-0.000000,-0.025667,TRUE,FALSE,FALSE,FALSE,FALSE,FALSE,Disabled,0.000000,0.000000,0.000000,TRUE,-0.233063,0.074020,0.000000,0.029358,-0.047745,0.000000,0.000000,-0.004000,0.040000,2.570000,0.040000,-0.820000,-0.583803,Hold,1.353027,0.000000,EmergencyManualControl,-7581.000000,0.004724,Suck,-1792.500000,1818.181818,Speed,-1785.000000,1818.181818,Speed,Off,On,0.000000,FALSE,0,,,,,0.000000,0.000000,-0.033000
03:31:48.230 PM 04/15/2016,Teleop Enabled,9,FALSE,0,NO ERROR,-0.000000,-0.230999,-0.000000,-0.025667,TRUE,FALSE,FALSE,FALSE,FALSE,FALSE,Disabled,0.000000,0.000000,0.000000,TRUE,-0.231552,0.071533,0.000000,0.013733,-0.039612,0.000000,0.005000,0.019000,0.032000,2.610000,0.050000,-0.960000,-0.601473,Hold,1.352783,0.000000,EmergencyManualControl,-7581.000000,0.004724,Suck,-1777.500000,1818.181818,Speed,-1792.500000,1818.181818,Speed,Off,On,0.000000,FALSE,0,,,,,0.000000,0.000000,-0.033000
03:31:48.331 PM 04/15/2016,Teleop Enabled,9,FALSE,0,NO ERROR,-0.000000,-0.230999,-0.000000,-0.025667,TRUE,FALSE,FALSE,FALSE,FALSE,FALSE,Disabled,0.000000,0.000000,0.000000,TRUE,-0.231171,0.071106,0.000000,0.015045,-0.007568,0.000000,0.017000,-0.022000,-0.089000,2.610000,0.040000,-0.920000,-0.603887,Hold,1.352051,0.000000,EmergencyManualControl,-7581.000000,0.004724,Suck,-1785.000000,1818.181818,Speed,-1785.000000,1818.181818,Speed,Off,On,0.000000,FALSE,0,,,,,0.000000,0.000000,-0.033000
03:31:48.431 PM 04/15/2016,Teleop Enabled,10,FALSE,0,NO ERROR,-0.000000,-0.230999,-0.000000,-0.025667,TRUE,FALSE,FALSE,FALSE,FALSE,FALSE,Disabled,0.000000,0.000000,0.000000,TRUE,-0.230972,0.070099,0.000000,-0.016571,-0.012283,0.000000,-0.028000,0.063000,-0.034000,2.610000,0.040000,-0.990000,-0.595105,Hold,1.351562,0.000000,EmergencyManualControl,-7581.000000,0.004724,Suck,-1792.500000,1818.181818,Speed,-1785.000000,1818.181818,Speed,Off,On,0.000000,FALSE,0,,,,,0.000000,0.000000,-0.033000
03:31:48.531 PM 04/15/2016,Teleop Enabled,9,FALSE,0,NO ERROR,-0.000000,-0.230999,-0.000000,-0.025667,TRUE,FALSE,FALSE,FALSE,FALSE,FALSE,Disabled,0.000000,0.000000,0.000000,TRUE,-0.231781,0.070221,0.000000,-0.022751,0.009521,0.000000,-0.038000,0.024000,0.000000,2.580000,0.040000,-0.970000,-0.598113,Hold,1.351562,0.000000,EmergencyManualControl,-7581.000000,0.009449,Suck,-1785.000000,1818.181818,Speed,-1785.000000,1818.181818,Speed,Off,On,0.000000,FALSE,0,,,,,0.000000,0.000000,-0.033000
03:31:48.633 PM 04/15/2016,Teleop Enabled,9,FALSE,0,NO ERROR,-0.000000,-0.230999,-0.000000,-0.025667,TRUE,FALSE,FALSE,FALSE,FALSE,FALSE,Disabled,0.000000,0.000000,0.000000,TRUE,-0.232895,0.071167,0.000000,0.004257,0.008698,0.000000,-0.013000,-0.003000,-0.001000,2.610000,0.040000,-0.990000,-0.602368,Hold,1.351074,0.000000,EmergencyManualControl,-7581.000000,0.086614,Suck,-1792.500000,1818.181818,Speed,-1785.000000,1818.181818,Speed,Off,On,0.000000,FALSE,0,,,,,0.000000,0.000000,-0.033000
03:31:48.732 PM 04/15/2016,Teleop Enabled,10,FALSE,0,NO ERROR,-0.000000,-0.230999,-0.000000,-0.025667,TRUE,FALSE,FALSE,FALSE,FALSE,FALSE,Disabled,0.000000,0.000000,0.000000,TRUE,-0.232605,0.071274,0.000000,0.006760,0.004150,0.000000,-0.045000,0.098000,0.071000,2.590000,0.040000,-0.980000,-0.602045,Hold,1.350586,0.000000,EmergencyManualControl,-7581.000000,0.173228,Suck,-1792.500000,1818.181818,Speed,-1792.500000,1818.181818,Speed,Off,On,0.000000,FALSE,0,,,,,0.000000,0.000000,-0.033000
03:31:48.834 PM 04/15/2016,Teleop Enabled,10,FALSE,0,NO ERROR,-0.000000,-0.230999,-0.000000,-0.025667,TRUE,FALSE,FALSE,FALSE,FALSE,FALSE,Disabled,0.000000,0.000000,0.000000,TRUE,-0.232697,0.072662,0.000000,0.004105,0.034027,0.000000,0.037000,0.011000,0.029000,2.590000,0.050000,-1.010000,-0.616824,Hold,1.350586,0.000000,EmergencyManualControl,-9205.000000,0.200000,Suck,-1785.000000,1818.181818,Speed,-1785.000000,1818.181818,Speed,Off,On,0.000000,FALSE,0,,,,,0.000000,0.000000,-0.033000
03:31:48.935 PM 04/15/2016,Teleop Enabled,9,FALSE,0,NO ERROR,-0.000000,-0.230999,-0.000000,-0.025667,TRUE,FALSE,FALSE,FALSE,FALSE,FALSE,Disabled,0.000000,0.000000,0.000000,TRUE,-0.231934,0.073730,0.000000,0.022720,0.025955,0.000000,-0.026000,-0.035000,0.029000,2.610000,0.040000,-0.960000,-0.612617,Hold,1.349854,0.000000,EmergencyManualControl,-9205.000000,0.200000,Suck,-1792.500000,1818.181818,Speed,-1785.000000,1818.181818,Speed,Off,On,0.000000,FALSE,0,,,,,0.000000,0.000000,-0.033000
03:31:49.035 PM 04/15/2016,Teleop Enabled,9,FALSE,0,NO ERROR,-0.000000,-0.230999,-0.000000,-0.025667,TRUE,FALSE,FALSE,FALSE,FALSE,FALSE,Disabled,0.000000,0.000000,0.000000,TRUE,-0.231400,0.074646,0.000000,0.000000,0.030411,0.000000,0.050000,-0.008000,-0.044000,2.620000,0.040000,-0.900000,-0.609956,Hold,1.349365,0.000000,EmergencyManualControl,-22090.000000,0.200000,Suck,-1807.500000,1818.181818,Speed,-1785.000000,1818.181818,Speed,Off,On,0.000000,FALSE,0,,,,,0.000000,0.000000,-0.033000
03:31:49.136 PM 04/15/2016,Teleop Enabled,11,FALSE,0,NO ERROR,-0.000000,-0.230999,-0.000000,-0.025667,TRUE,FALSE,FALSE,FALSE,FALSE,FALSE,Disabled,0.000000,0.000000,0.000000,TRUE,-0.232132,0.076004,0.000000,-0.033264,0.002853,0.000000,-0.010000,0.000000,0.000000,2.630000,0.050000,-1.010000,-0.606864,Hold,1.348877,0.000000,EmergencyManualControl,-29607.000000,0.200000,Suck,-1785.000000,1818.181818,Speed,-1777.500000,1818.181818,Speed,Off,On,0.000000,FALSE,0,,,,,0.000000,0.000000,-0.033000
03:31:49.236 PM 04/15/2016,Teleop Enabled,11,FALSE,0,NO ERROR,-0.000000,-0.230999,-0.000000,-0.025667,TRUE,FALSE,FALSE,FALSE,FALSE,FALSE,Disabled,0.000000,0.000000,0.000000,TRUE,-0.234039,0.076187,0.000000,-0.039795,0.005844,0.000000,-0.013000,0.062000,-0.010000,2.630000,0.050000,-0.950000,-0.613581,Hold,1.348145,0.000000,EmergencyManualControl,-29607.000000,0.200000,Suck,-1785.000000,1818.181818,Speed,-1785.000000,1818.181818,Speed,Off,On,0.000000,FALSE,0,,,,,0.000000,0.000000,-0.033000
03:31:49.338 PM 04/15/2016,Teleop Enabled,11,FALSE,0,NO ERROR,-0.000000,-0.230999,-0.000000,-0.025667,TRUE,FALSE,FALSE,FALSE,FALSE,FALSE,Disabled,0.000000,0.000000,0.000000,TRUE,-0.236496,0.076355,0.000000,-0.051483,-0.002213,0.000000,-0.013000,0.062000,-0.010000,2.600000,0.050000,-0.980000,-0.614386,Hold,1.347168,0.000000,EmergencyManualControl,-35947.000000,0.200000,Suck,-1792.500000,1818.181818,Speed,-1785.000000,1818.181818,Speed,Off,On,0.000000,FALSE,0,,,,,0.000000,0.000000,-0.033000
03:31:49.439 PM 04/15/2016,Teleop Enabled,11,FALSE,0,NO ERROR,-0.000000,-0.230999,-0.000000,-0.025667,TRUE,FALSE,FALSE,FALSE,FALSE,FALSE,Disabled,0.000000,0.000000,0.000000,TRUE,-0.237991,0.076462,0.000000,-0.018677,-0.003311,0.000000,0.014000,0.084000,-0.034000,2.660000,0.040000,-0.810000,-0.618765,Hold,1.346924,0.000000,EmergencyManualControl,-43444.000000,0.200000,Suck,-1792.500000,1818.181818,Speed,-1785.000000,1818.181818,Speed,Off,On,0.000000,FALSE,0,,,,,0.000000,0.000000,-0.033000
03:31:49.541 PM 04/15/2016,Teleop Enabled,10,FALSE,0,NO ERROR,-0.000000,-0.230999,-0.000000,-0.025667,TRUE,FALSE,FALSE,FALSE,FALSE,FALSE,Disabled,0.000000,0.000000,0.000000,TRUE,-0.239624,0.075775,0.000000,-0.019257,-0.022324,0.000000,-0.068000,0.024000,0.050000,2.630000,0.040000,-0.960000,-0.623062,Hold,1.346436,0.000000,EmergencyManualControl,-43444.000000,0.200000,Suck,-1785.000000,1818.181818,Speed,-1785.000000,1818.181818,Speed,Off,On,0.000000,FALSE,0,,,,,0.000000,0.000000,-0.033000
