Time,Robot Mode,Loop Time,Error Status,Error Code,Error Source,Left Motor Output,Left Motor Encoder,Right Motor Output,Right Motor Encoder,Is Level,Is Stalled,Ball Detector Photoeye,Vision Enabled,Vision Teleop Control,Vision Auto Control,Vision Current State,Vision X Output,Vision NavX Error,Vision NavX Target,NavX Connection Status,NavX Displacement X,NavX Displacement Y,NavX Displacement Z,NavX Velocity X,NavX Velocity Y,NavX Velocity Z,NavX Acceleration X,NavX Acceleration Y,NavX Acceleration Z,NavX Pitch,NavX Yaw,NavX Roll,Gyro Angle,Roller Arm State,Roller Arm Actual,Roller Arm Desired,Shooter Arm State,Shooter Arm Actual,Shooter Arm Desired,Shooter State,Actual RPM Left,Desired RPM Left,Control Mode Left,Actual RPM Right,Desired RPM Right,Control Mode Right,Ball Shooter Cylinder,Ball Halo Cylinder,Scaler Motor Output,Scaler Solenoid Fire,Auto To Run,Auto Current File,Auto File Status,Auto Current Command,Auto Trimmed Command,Shooter Amps Left,Shooter Amps Right, Vision After Offset
08:32:33.802 PM 04/16/2016,Autonomous Enabled,11,TRUE,-44003,<LOCATION>WPI_CameraIssue HTTP Request with Authentication.vi<CALLSTACK>WPI_CameraIssue HTTP Request with Authentication.vi< <WPI_CameraIssue Get.vi< <WPI_CameraSet Image Appearance Property.vi< <WPI_CameraSet Image Size.vi< <Vision Processing.vi< <Robot Main.vi,0.000000,0.000000,-0.000000,0.000000,TRUE,FALSE,TRUE,TRUE,FALSE,FALSE,Disabled,0.000000,0.000000,0.000000,TRUE,0.000000,0.000000,0.000000,0.000000,0.000000,0.000000,0.074000,-0.026000,-0.014000,1.670000,-1.260000,0.260000,2.702752,ResetBack,-0.020752,-0.000049,ResetBack,0.000000,-0.250000,LowGoal,0.000000,-2181.818182,Speed,0.000000,-2181.818182,Speed,Off,Off,0.000000,FALSE,43,Read: /home/lvuser/scripts/auto_43.bee,File good!,WAIT 1500,WAIT,0.000000,0.000000,-0.033000
08:32:33.901 PM 04/16/2016,Autonomous Enabled,10,TRUE,7,Read from Text File in DoesScriptNumberContainNull.vi->Disabled.vi->Robot Main.vi<APPEND> /home/lvuser/scripts/auto_42.bee,0.000000,0.000000,-0.000000,0.000000,TRUE,FALSE,TRUE,TRUE,FALSE,FALSE,Disabled,0.000000,0.000000,0.000000,TRUE,0.001404,-0.000168,0.000000,0.029007,0.000000,0.000000,0.010000,-0.013000,0.010000,1.670000,-1.260000,0.310000,2.700673,ResetBack,-0.177246,-0.000049,ResetBack,2605.000000,-0.250000,LowGoal,292.500000,-2181.818182,Speed,270.000000,-2181.818182,Speed,Off,Off,0.000000,FALSE,43,Read: /home/lvuser/scripts/auto_43.bee,File good!,WAIT 1500,WAIT,0.000000,0.000000,-0.033000
08:32:34.004 PM 04/16/2016,Autonomous Enabled,10,TRUE,7,Read from Text File in DoesScriptNumberContainNull.vi->Disabled.vi->Robot Main.vi<APPEND> /home/lvuser/scripts/auto_42.bee,0.000000,0.000000,-0.000000,0.000000,TRUE,FALSE,TRUE,TRUE,FALSE,FALSE,Disabled,0.000000,0.000000,0.000000,TRUE,0.001831,-0.000214,0.000000,0.014359,0.003525,0.000000,-0.034000,-0.073000,0.028000,1.650000,-1.260000,0.360000,2.712034,ResetBack,-0.177246,-0.000049,ResetBack,7300.000000,-0.250000,LowGoal,885.000000,-2181.818182,Speed,930.000000,-2181.818182,Speed,Off,Off,0.000000,FALSE,43,Read: /home/lvuser/scripts/auto_43.bee,File good!,WAIT 1500,WAIT,0.000000,0.000000,-0.033000
08:32:34.103 PM 04/16/2016,Autonomous Enabled,12,TRUE,7,Read from Text File in DoesScriptNumberContainNull.vi->Disabled.vi->Robot Main.vi<APPEND> /home/lvuser/scripts/auto_42.bee,0.000000,0.000000,-0.000000,0.000000,TRUE,FALSE,TRUE,TRUE,FALSE,FALSE,Disabled,0.000000,0.000000,0.000000,TRUE,0.002869,-0.000702,0.000000,0.016754,-0.006592,0.000000,-0.067000,-0.006000,0.010000,1.680000,-1.270000,0.370000,2.692941,Reset,-0.177734,0.000000,ResetBack,7510.000000,-0.250000,LowGoal,1365.000000,-2181.818182,Speed,1507.500000,-2181.818182,Speed,Off,Off,0.000000,FALSE,43,Read: /home/lvuser/scripts/auto_43.bee,File good!,WAIT 1500,WAIT,0.000000,0.000000,-0.033000
08:32:34.205 PM 04/16/2016,Autonomous Enabled,11,TRUE,7,Read from Text File in DoesScriptNumberContainNull.vi->Disabled.vi->Robot Main.vi<APPEND> /home/lvuser/scripts/auto_42.bee,0.000000,0.000000,-0.000000,0.000000,TRUE,FALSE,TRUE,TRUE,FALSE,FALSE,Disabled,0.000000,0.000000,0.000000,TRUE,0.002274,-0.000504,0.000000,-0.017151,0.004929,0.000000,-0.012000,-0.051000,0.070000,1.710000,-1.270000,0.280000,2.678920,Hold,0.182373,0.000000,ResetBack,7583.000000,-0.250000,LowGoal,1777.500000,-2181.818182,Speed,1980.000000,-2181.818182,Speed,Off,Off,0.000000,FALSE,43,Read: /home/lvuser/scripts/auto_43.bee,File good!,WAIT 1500,WAIT,0.000000,0.000000,-0.033000
08:32:34.305 PM 04/16/2016,Autonomous Enabled,10,TRUE,7,Read from Text File in DoesScriptNumberContainNull.vi->Disabled.vi->Robot Main.vi<APPEND> /home/lvuser/scripts/auto_42.bee,0.000000,0.000000,-0.000000,0.000000,TRUE,FALSE,TRUE,TRUE,FALSE,FALSE,Disabled,0.000000,0.000000,0.000000,TRUE,0.001968,-0.001831,0.000000,0.012665,-0.054779,0.000000,0.108000,-0.076000,-0.020000,1.720000,-1.260000,0.220000,2.666936,Hold,0.182373,0.000000,ResetBack,7583.000000,-0.250000,LowGoal,2107.500000,-2181.818182,Speed,2212.500000,-2181.818182,Speed,Off,Off,0.000000,FALSE,43,Read: /home/lvuser/scripts/auto_43.bee,File good!,WAIT 1500,WAIT,0.000000,0.000000,-0.033000
08:32:34.404 PM 04/16/2016,Autonomous Enabled,10,TRUE,7,Read from Text File in DoesScriptNumberContainNull.vi->Disabled.vi->Robot Main.vi<APPEND> /home/lvuser/scripts/auto_42.bee,0.000000,0.000000,-0.000000,0.000000,TRUE,FALSE,TRUE,TRUE,FALSE,FALSE,Disabled,0.000000,0.000000,0.000000,TRUE,0.004593,-0.006744,0.000000,0.073914,-0.128616,0.000000,0.035000,-0.021000,0.032000,1.660000,-1.270000,0.290000,2.644212,Hold,0.182373,0.000000,ResetBack,7699.000000,-0.250000,LowGoal,2197.500000,-2181.818182,Speed,2182.500000,-2181.818182,Speed,Off,Off,0.000000,FALSE,43,Read: /home/lvuser/scripts/auto_43.bee,File good!,WAIT 1500,WAIT,0.000000,0.000000,-0.033000
08:32:34.505 PM 04/16/2016,Autonomous Enabled,10,TRUE,7,Read from Text File in DoesScriptNumberContainNull.vi->Disabled.vi->Robot Main.vi<APPEND> /home/lvuser/scripts/auto_42.bee,0.000000,0.000000,-0.000000,0.000000,TRUE,FALSE,TRUE,TRUE,FALSE,FALSE,Disabled,0.000000,0.000000,0.000000,TRUE,0.008347,-0.015076,0.000000,0.000000,-0.189804,0.000000,0.053000,-0.065000,0.055000,1.650000,-1.270000,0.270000,2.642635,Hold,0.182617,0.000000,ResetBack,8317.000000,-0.250000,LowGoal,2137.500000,-2181.818182,Speed,2122.500000,-2181.818182,Speed,Off,Off,0.000000,FALSE,43,Read: /home/lvuser/scripts/auto_43.bee,File good!,WAIT 1500,WAIT,0.000000,0.000000,-0.033000
08:32:34.606 PM 04/16/2016,Autonomous Enabled,10,TRUE,7,Read from Text File in DoesScriptNumberContainNull.vi->Disabled.vi->Robot Main.vi<APPEND> /home/lvuser/scripts/auto_42.bee,0.000000,0.000000,-0.000000,0.000000,TRUE,FALSE,TRUE,TRUE,FALSE,FALSE,Disabled,0.000000,0.000000,0.000000,TRUE,0.009140,-0.024506,0.000000,0.021896,-0.162872,0.000000,-0.131000,0.118000,-0.024000,1.620000,-1.260000,0.330000,2.659934,Hold,0.182617,0.000000,ResetBack,8457.000000,-0.250000,LowGoal,2085.000000,-2181.818182,Speed,2115.000000,-2181.818182,Speed,Off,Off,0.000000,FALSE,43,Read: /home/lvuser/scripts/auto_43.bee,File good!,WAIT 1500,WAIT,0.000000,0.000000,-0.033000
08:32:34.706 PM 04/16/2016,Autonomous Enabled,10,TRUE,7,Read from Text File in DoesScriptNumberContainNull.vi->Disabled.vi->Robot Main.vi<APPEND> /home/lvuser/scripts/auto_42.bee,0.000000,0.000000,-0.000000,0.000000,TRUE,FALSE,TRUE,TRUE,FALSE,FALSE,Disabled,0.000000,0.000000,0.000000,TRUE,0.008362,-0.031433,0.000000,0.004715,-0.106934,0.000000,0.058000,0.051000,-0.098000,1.600000,-1.270000,0.350000,2.659596,Hold,0.182617,0.000000,ResetBack,8473.000000,-0.250000,LowGoal,2092.500000,-2181.818182,Speed,2130.000000,-2181.818182,Speed,Off,Off,0.000000,FALSE,43,Read: /home/lvuser/scripts/auto_43.bee,File good!,WAIT 1500,WAIT,0.000000,0.000000,-0.033000
08:32:34.806 PM 04/16/2016,Autonomous Enabled,9,TRUE,7,Read from Text File in DoesScriptNumberContainNull.vi->Disabled.vi->Robot Main.vi<APPEND> /home/lvuser/scripts/auto_42.bee,0.000000,0.000000,-0.000000,0.000000,TRUE,FALSE,TRUE,TRUE,FALSE,FALSE,Disabled,0.000000,0.000000,0.000000,TRUE,0.009384,-0.035049,0.000000,0.014496,-0.084488,0.000000,0.011000,-0.048000,-0.094000,1.600000,-1.270000,0.350000,2.660316,Hold,0.182617,0.000000,ResetBack,8632.000000,-0.250000,LowGoal,2100.000000,-2181.818182,Speed,2130.000000,-2181.818182,Speed,Off,Off,0.000000,FALSE,43,Read: /home/lvuser/scripts/auto_43.bee,File good!,WAIT 1500,WAIT,0.000000,0.000000,-0.033000
08:32:34.906 PM 04/16/2016,Autonomous Enabled,10,TRUE,7,Read from Text File in DoesScriptNumberContainNull.vi->Disabled.vi->Robot Main.vi<APPEND> /home/lvuser/scripts/auto_42.bee,0.000000,0.000000,-0.000000,0.000000,TRUE,FALSE,TRUE,TRUE,FALSE,FALSE,Disabled,0.000000,0.000000,0.000000,TRUE,0.009186,-0.040054,0.000000,-0.001419,-0.072357,0.000000,0.094000,-0.016000,0.002000,1.630000,-1.270000,0.330000,2.657755,Hold,0.182617,0.000000,ResetBack,8632.000000,-0.250000,LowGoal,2092.500000,-2181.818182,Speed,2130.000000,-2181.818182,Speed,Off,Off,0.000000,FALSE,43,Read: /home/lvuser/scripts/auto_43.bee,File good!,WAIT 1500,WAIT,0.000000,0.000000,-0.033000
08:32:35.006 PM 04/16/2016,Autonomous Enabled,11,TRUE,7,Read from Text File in DoesScriptNumberContainNull.vi->Disabled.vi->Robot Main.vi<APPEND> /home/lvuser/scripts/auto_42.bee,0.000000,0.000000,-0.000000,0.000000,TRUE,FALSE,TRUE,TRUE,FALSE,FALSE,Disabled,0.000000,0.000000,0.000000,TRUE,0.009689,-0.043671,0.000000,0.024063,-0.070084,0.000000,0.011000,0.035000,-0.015000,1.600000,-1.270000,0.370000,2.642525,Hold,0.182617,0.000000,Reset,8664.000000,2.000000,LowGoal,2085.000000,-2181.818182,Speed,2130.000000,-2181.818182,Speed,Off,Off,0.000000,FALSE,43,Read: /home/lvuser/scripts/auto_43.bee,File good!,WAIT 1500,WAIT,0.000000,0.000000,-0.033000
08:32:35.107 PM 04/16/2016,Autonomous Enabled,11,TRUE,7,Read from Text File in DoesScriptNumberContainNull.vi->Disabled.vi->Robot Main.vi<APPEND> /home/lvuser/scripts/auto_42.bee,0.000000,0.000000,-0.000000,0.000000,TRUE,FALSE,TRUE,TRUE,FALSE,FALSE,Disabled,0.000000,0.000000,0.000000,TRUE,0.012390,-0.045807,0.000000,0.069427,0.000000,0.000000,0.011000,0.035000,-0.015000,1.580000,-1.280000,0.450000,2.630176,Hold,0.182617,0.000000,Hold,8664.000000,2.000000,LowGoal,2092.500000,-2181.818182,Speed,2130.000000,-2181.818182,Speed,Off,Off,0.000000,FALSE,43,Read: /home/lvuser/scripts/auto_43.bee,File good!,WAIT 1500,WAIT,0.000000,0.000000,-0.033000
08:32:35.208 PM 04/16/2016,Autonomous Enabled,10,TRUE,7,Read from Text File in DoesScriptNumberContainNull.vi->Disabled.vi->Robot Main.vi<APPEND> /home/lvuser/scripts/auto_42.bee,0.000000,0.000000,-0.000000,0.000000,TRUE,FALSE,TRUE,TRUE,FALSE,FALSE,Disabled,0.000000,0.000000,0.000000,TRUE,0.014099,-0.044510,0.000000,0.022339,0.025528,0.000000,-0.091000,0.136000,0.019000,1.630000,-1.280000,0.400000,2.628985,Hold,0.182617,0.000000,Hold,-56.000000,2.000000,LowGoal,2092.500000,-2181.818182,Speed,2130.000000,-2181.818182,Speed,Off,Off,0.000000,FALSE,43,Read: /home/lvuser/scripts/auto_43.bee,File good!,WAIT 1500,WAIT,0.000000,0.000000,-0.033000
08:32:35.314 PM 04/16/2016,Autonomous Enabled,10,TRUE,7,Read from Text File in DoesScriptNumberContainNull.vi->Disabled.vi->Robot Main.vi<APPEND> /home/lvuser/scripts/auto_42.bee,0.000000,0.000000,-0.000000,0.000000,TRUE,FALSE,TRUE,TRUE,FALSE,FALSE,Disabled,0.000000,0.000000,0.000000,TRUE,0.014755,-0.045105,0.000000,0.010254,-0.033936,0.000000,0.099000,-0.041000,0.104000,1.630000,-1.280000,0.340000,2.626383,Hold,0.182617,0.000000,Hold,-219.000000,2.000000,LowGoal,2077.500000,-2181.818182,Speed,2130.000000,-2181.818182,Speed,Off,Off,0.000000,FALSE,43,Read: /home/lvuser/scripts/auto_43.bee,File good!,WAIT 1500,WAIT,0.000000,0.000000,-0.033000
08:32:35.414 PM 04/16/2016,Autonomous Enabled,10,TRUE,7,Read from Text File in DoesScriptNumberContainNull.vi->Disabled.vi->Robot Main.vi<APPEND> /home/lvuser/scripts/auto_42.bee,-0.562500,0.000000,0.562500,0.000000,TRUE,FALSE,TRUE,TRUE,FALSE,FALSE,Disabled,0.000000,0.000000,0.000000,TRUE,0.016571,-0.048569,0.000000,0.000000,-0.083527,0.000000,0.004000,0.042000,-0.007000,1.540000,0.000000,0.440000,0.006324,Hold,0.182617,0.000000,Hold,-216.000000,2.000000,LowGoal,2070.000000,-2181.818182,Speed,2137.500000,-2181.818182,Speed,Off,Off,0.000000,FALSE,43,Read: /home/lvuser/scripts/auto_43.bee,File good!,DRIVE_STRAIGHT_NAVX_RAMPARTS 200 5000 10,DRIVE_STRAIGHT_NAVX_RAMPARTS,0.000000,0.000000,-0.033000
08:32:35.515 PM 04/16/2016,Autonomous Enabled,10,TRUE,7,Read from Text File in DoesScriptNumberContainNull.vi->Disabled.vi->Robot Main.vi<APPEND> /home/lvuser/scripts/auto_42.bee,-0.562500,-1.501496,0.562500,1.732496,TRUE,FALSE,TRUE,TRUE,FALSE,FALSE,Disabled,0.000000,0.000000,0.000000,TRUE,0.027130,-0.052353,0.000000,0.455841,-0.058273,0.000000,0.297000,0.065000,-0.042000,1.540000,0.000000,0.440000,-0.150113,Hold,0.182617,0.000000,Hold,-213.000000,2.000000,LowGoal,2025.000000,-1818.181818,Speed,2130.000000,-1818.181818,Speed,Off,Off,0.000000,FALSE,43,Read: /home/lvuser/scripts/auto_43.bee,File good!,DRIVE_STRAIGHT_NAVX_RAMPARTS 200 5000 10,DRIVE_STRAIGHT_NAVX_RAMPARTS,0.000000,0.000000,-0.033000
08:32:35.616 PM 04/16/2016,Autonomous Enabled,10,TRUE,7,Read from Text File in DoesScriptNumberContainNull.vi->Disabled.vi->Robot Main.vi<APPEND> /home/lvuser/scripts/auto_42.bee,-0.562500,-4.344073,0.562500,4.696989,FALSE,FALSE,TRUE,TRUE,FALSE,FALSE,Disabled,0.000000,0.000000,0.000000,TRUE,0.063828,-0.053680,0.000000,0.723480,-0.032303,0.000000,0.297000,0.065000,-0.042000,1.470000,-0.450000,5.130000,-0.324027,Hold,0.182617,0.000000,Hold,-212.000000,2.000000,LowGoal,2025.000000,-1818.181818,Speed,2062.500000,-1818.181818,Speed,Off,Off,0.000000,FALSE,43,Read: /home/lvuser/scripts/auto_43.bee,File good!,DRIVE_STRAIGHT_NAVX_RAMPARTS 200 5000 10,DRIVE_STRAIGHT_NAVX_RAMPARTS,0.000000,0.000000,-0.033000
08:32:35.717 PM 04/16/2016,Autonomous Enabled,9,TRUE,7,Read from Text File in DoesScriptNumberContainNull.vi->Disabled.vi->Robot Main.vi<APPEND> /home/lvuser/scripts/auto_42.bee,-0.562500,-8.007981,0.562500,8.546980,FALSE,FALSE,TRUE,TRUE,FALSE,FALSE,Disabled,0.000000,0.000000,0.000000,TRUE,0.105759,-0.054718,0.000000,0.910538,-0.010345,0.000000,0.166000,0.045000,0.251000,1.470000,-0.450000,5.130000,-0.654733,Hold,0.182617,0.000000,Hold,-211.000000,2.000000,LowGoal,1732.500000,-1818.181818,Speed,1785.000000,-1818.181818,Speed,Off,Off,0.000000,FALSE,43,Read: /home/lvuser/scripts/auto_43.bee,File good!,DRIVE_STRAIGHT_NAVX_RAMPARTS 200 5000 10,DRIVE_STRAIGHT_NAVX_RAMPARTS,0.000000,0.000000,-0.033000
08:32:35.817 PM 04/16/2016,Autonomous Enabled,10,TRUE,7,Read from Text File in DoesScriptNumberContainNull.vi->Disabled.vi->Robot Main.vi<APPEND> /home/lvuser/scripts/auto_42.bee,-0.562500,-12.319971,0.562500,13.102803,FALSE,FALSE,TRUE,TRUE,FALSE,FALSE,Disabled,0.000000,0.000000,0.000000,TRUE,0.151382,-0.055893,0.000000,0.894623,-0.021698,0.000000,-0.020000,-0.032000,-0.146000,1.400000,-0.880000,3.850000,-1.110070,Hold,0.182617,0.000000,Hold,-211.000000,2.000000,LowGoal,1612.500000,-1818.181818,Speed,1680.000000,-1818.181818,Speed,Off,Off,0.000000,FALSE,43,Read: /home/lvuser/scripts/auto_43.bee,File good!,DRIVE_STRAIGHT_NAVX_RAMPARTS 200 5000 10,DRIVE_STRAIGHT_NAVX_RAMPARTS,0.000000,0.000000,-0.033000
08:32:35.919 PM 04/16/2016,Autonomous Enabled,10,TRUE,7,Read from Text File in DoesScriptNumberContainNull.vi->Disabled.vi->Robot Main.vi<APPEND> /home/lvuser/scripts/auto_42.bee,-0.562500,-16.741044,0.509596,17.729209,FALSE,FALSE,TRUE,TRUE,FALSE,FALSE,Disabled,0.000000,0.000000,0.000000,TRUE,0.195908,-0.056732,0.000000,0.893570,-0.028137,0.000000,-0.001000,0.066000,0.064000,1.440000,-1.220000,4.620000,-1.339265,Hold,0.182617,0.000000,Hold,-210.000000,2.000000,LowGoal,1687.500000,-1818.181818,Speed,1702.500000,-1818.181818,Speed,Off,Off,0.000000,FALSE,43,Read: /home/lvuser/scripts/auto_43.bee,File good!,DRIVE_STRAIGHT_NAVX_RAMPARTS 200 5000 10,DRIVE_STRAIGHT_NAVX_RAMPARTS,0.000000,0.000000,-0.033000
08:32:36.020 PM 04/16/2016,Autonomous Enabled,10,TRUE,7,Read from Text File in DoesScriptNumberContainNull.vi->Disabled.vi->Robot Main.vi<APPEND> /home/lvuser/scripts/auto_42.bee,-0.562500,-21.470116,0.505521,22.291448,FALSE,FALSE,TRUE,TRUE,FALSE,FALSE,Disabled,0.000000,0.000000,0.000000,TRUE,0.239426,-0.058319,0.000000,0.848526,-0.035248,0.000000,-0.005000,0.029000,0.160000,1.340000,-1.430000,3.570000,-1.466919,Hold,0.182617,0.000000,Hold,-209.000000,2.000000,LowGoal,1740.000000,-1818.181818,Speed,1755.000000,-1818.181818,Speed,Off,Off,0.000000,FALSE,43,Read: /home/lvuser/scripts/auto_43.bee,File good!,DRIVE_STRAIGHT_NAVX_RAMPARTS 200 5000 10,DRIVE_STRAIGHT_NAVX_RAMPARTS,0.000000,0.000000,-0.033000
08:32:36.121 PM 04/16/2016,Autonomous Enabled,9,TRUE,7,Read from Text File in DoesScriptNumberContainNull.vi->Disabled.vi->Robot Main.vi<APPEND> /home/lvuser/scripts/auto_42.bee,-0.562500,-26.250522,0.514806,26.975604,FALSE,FALSE,TRUE,TRUE,FALSE,FALSE,Disabled,0.000000,0.000000,0.000000,TRUE,0.280731,-0.059982,0.000000,0.815460,-0.041962,0.000000,-0.025000,0.047000,-0.052000,1.290000,-1.480000,3.700000,-1.231355,Hold,0.182617,0.000000,Hold,-207.000000,2.000000,LowGoal,1740.000000,-1818.181818,Speed,1755.000000,-1818.181818,Speed,Off,Off,0.000000,FALSE,43,Read: /home/lvuser/scripts/auto_43.bee,File good!,DRIVE_STRAIGHT_NAVX_RAMPARTS 200 5000 10,DRIVE_STRAIGHT_NAVX_RAMPARTS,0.000000,0.000000,-0.033000
08:32:36.220 PM 04/16/2016,Autonomous Enabled,11,TRUE,7,Read from Text File in DoesScriptNumberContainNull.vi->Disabled.vi->Robot Main.vi<APPEND> /home/lvuser/scripts/auto_42.bee,-0.562500,-31.114344,0.518919,31.685426,FALSE,FALSE,TRUE,TRUE,FALSE,FALSE,Disabled,0.000000,0.000000,0.000000,TRUE,0.320099,-0.061447,0.000000,0.776184,0.000000,0.000000,-0.077000,0.041000,-0.177000,1.230000,-1.210000,3.100000,-1.043391,Hold,0.182617,0.000000,Hold,-206.000000,2.000000,LowGoal,1717.500000,-1818.181818,Speed,1740.000000,-1818.181818,Speed,Off,Off,0.000000,FALSE,43,Read: /home/lvuser/scripts/auto_43.bee,File good!,DRIVE_STRAIGHT_NAVX_RAMPARTS 200 5000 10,DRIVE_STRAIGHT_NAVX_RAMPARTS,0.000000,0.000000,-0.033000
08:32:36.323 PM 04/16/2016,Autonomous Enabled,10,TRUE,7,Read from Text File in DoesScriptNumberContainNull.vi->Disabled.vi->Robot Main.vi<APPEND> /home/lvuser/scripts/auto_42.bee,-0.562500,-35.824166,0.527192,36.286165,FALSE,FALSE,TRUE,TRUE,FALSE,FALSE,Disabled,0.000000,0.000000,0.000000,TRUE,0.358994,-0.062180,0.000000,0.761826,-0.008102,0.000000,0.082000,-0.050000,0.053000,1.320000,-1.000000,3.100000,-0.864406,Hold,0.182617,0.000000,Hold,-205.000000,2.000000,LowGoal,1717.500000,-1818.181818,Speed,1740.000000,-1818.181818,Speed,Off,Off,0.000000,FALSE,43,Read: /home/lvuser/scripts/auto_43.bee,File good!,DRIVE_STRAIGHT_NAVX_RAMPARTS 200 5000 10,DRIVE_STRAIGHT_NAVX_RAMPARTS,0.000000,0.000000,-0.033000
08:32:36.424 PM 04/16/2016,Autonomous Enabled,10,FALSE,0,NO ERROR,-0.562500,-40.521155,0.536293,40.918988,FALSE,FALSE,TRUE,TRUE,FALSE,FALSE,Disabled,0.000000,0.000000,0.000000,TRUE,0.358994,-0.062180,0.000000,0.761826,-0.008102,0.000000,0.028000,0.024000,0.063000,1.390000,-0.840000,3.090000,-0.615767,Hold,0.182617,0.000000,Hold,-205.000000,2.000000,LowGoal,1717.500000,-1818.181818,Speed,1740.000000,-1818.181818,Speed,Off,Off,0.000000,FALSE,43,Read: /home/lvuser/scripts/auto_43.bee,File good!,DRIVE_STRAIGHT_NAVX_RAMPARTS 200 5000 10,DRIVE_STRAIGHT_NAVX_RAMPARTS,0.000000,0.000000,-0.033000
08:32:36.525 PM 04/16/2016,Autonomous Enabled,9,FALSE,0,NO ERROR,-0.562500,-45.436310,0.548163,45.583893,FALSE,FALSE,TRUE,TRUE,FALSE,FALSE,Disabled,0.000000,0.000000,0.000000,TRUE,0.403671,-0.062607,0.000000,0.716629,-0.015152,0.000000,-0.044000,0.010000,0.070000,1.300000,-0.530000,3.210000,-0.310381,Hold,0.182617,0.000000,Hold,-204.000000,2.000000,LowGoal,1717.500000,-1818.181818,Speed,1747.500000,-1818.181818,Speed,Off,Off,0.000000,FALSE,43,Read: /home/lvuser/scripts/auto_43.bee,File good!,DRIVE_STRAIGHT_NAVX_RAMPARTS 200 5000 10,DRIVE_STRAIGHT_NAVX_RAMPARTS,0.000000,0.000000,-0.033000
08:32:36.626 PM 04/16/2016,Autonomous Enabled,11,FALSE,0,NO ERROR,-0.562500,-50.139716,0.548933,50.370716,FALSE,FALSE,TRUE,TRUE,FALSE,FALSE,Disabled,0.000000,0.000000,0.000000,TRUE,0.417435,-0.063629,0.000000,-0.026108,-0.017044,0.000000,0.025000,-0.061000,-0.026000,1.330000,-0.320000,3.160000,-0.316302,Hold,0.182617,0.000000,Hold,-204.000000,2.000000,LowGoal,1725.000000,-1818.181818,Speed,1747.500000,-1818.181818,Speed,Off,Off,0.000000,FALSE,43,Read: /home/lvuser/scripts/auto_43.bee,File good!,DRIVE_STRAIGHT_NAVX_RAMPARTS 200 5000 10,DRIVE_STRAIGHT_NAVX_RAMPARTS,0.000000,0.000000,-0.033000
08:32:36.726 PM 04/16/2016,Autonomous Enabled,9,FALSE,0,NO ERROR,-0.562500,-54.984288,0.544703,55.208871,FALSE,FALSE,TRUE,TRUE,FALSE,FALSE,Disabled,0.000000,0.000000,0.000000,TRUE,0.415390,-0.065643,0.000000,-0.056137,-0.054947,0.000000,-0.227000,-0.045000,-0.034000,1.390000,-0.360000,5.410000,-0.568473,Hold,0.182617,0.000000,Hold,-204.000000,2.000000,LowGoal,1725.000000,-1818.181818,Speed,1755.000000,-1818.181818,Speed,Off,Off,0.000000,FALSE,43,Read: /home/lvuser/scripts/auto_43.bee,File good!,DRIVE_STRAIGHT_NAVX_RAMPARTS 200 5000 10,DRIVE_STRAIGHT_NAVX_RAMPARTS,0.000000,0.000000,-0.033000
08:32:36.828 PM 04/16/2016,Autonomous Enabled,10,FALSE,0,NO ERROR,-0.562500,-59.649194,0.548548,59.469528,FALSE,FALSE,TRUE,TRUE,FALSE,FALSE,Disabled,0.000000,0.000000,0.000000,TRUE,0.407837,-0.068359,0.000000,-0.170761,-0.036240,0.000000,-0.063000,0.005000,0.027000,1.340000,-0.560000,7.190000,0.594106,Hold,0.182617,0.000000,Hold,-203.000000,2.000000,LowGoal,1725.000000,-1818.181818,Speed,1755.000000,-1818.181818,Speed,Off,Off,0.000000,FALSE,43,Read: /home/lvuser/scripts/auto_43.bee,File good!,DRIVE_STRAIGHT_NAVX_RAMPARTS 200 5000 10,DRIVE_STRAIGHT_NAVX_RAMPARTS,0.000000,0.000000,-0.033000
08:32:36.929 PM 04/16/2016,Autonomous Enabled,10,FALSE,0,NO ERROR,-0.562500,-63.531268,0.711661,63.556935,FALSE,FALSE,TRUE,TRUE,FALSE,FALSE,Disabled,0.000000,0.000000,0.000000,TRUE,0.395523,-0.066559,0.000000,-0.352463,0.126740,0.000000,-0.604000,0.020000,0.313000,1.020000,1.350000,10.180000,3.300859,Hold,0.182617,0.000000,Hold,-203.000000,2.000000,LowGoal,1725.000000,-1818.181818,Speed,1755.000000,-1818.181818,Speed,Off,Off,0.000000,FALSE,43,Read: /home/lvuser/scripts/auto_43.bee,File good!,DRIVE_STRAIGHT_NAVX_RAMPARTS 200 5000 10,DRIVE_STRAIGHT_NAVX_RAMPARTS,0.000000,0.000000,-0.033000
08:32:37.030 PM 04/16/2016,Autonomous Enabled,11,FALSE,0,NO ERROR,-0.562500,-66.457261,0.690328,68.722339,FALSE,FALSE,TRUE,TRUE,FALSE,FALSE,Disabled,0.000000,0.000000,0.000000,TRUE,0.365967,-0.059341,0.000000,-0.654816,0.092377,0.000000,-0.020000,-0.332000,-0.199000,-0.420000,3.870000,14.940000,3.300859,Hold,0.182617,0.000000,Hold,-202.000000,2.000000,LowGoal,1717.500000,-1818.181818,Speed,1747.500000,-1818.181818,Speed,Off,Off,0.000000,FALSE,43,Read: /home/lvuser/scripts/auto_43.bee,File good!,DRIVE_STRAIGHT_NAVX_RAMPARTS 200 5000 10,DRIVE_STRAIGHT_NAVX_RAMPARTS,0.000000,0.000000,-0.033000
08:32:37.131 PM 04/16/2016,Autonomous Enabled,10,FALSE,0,NO ERROR,-0.562500,-66.457261,0.610680,68.722339,FALSE,FALSE,TRUE,TRUE,FALSE,FALSE,Disabled,0.000000,0.000000,0.000000,TRUE,0.329285,-0.062622,0.000000,-0.523224,-0.122955,0.000000,-0.042000,0.003000,0.330000,1.300000,1.480000,19.030000,2.519144,Hold,0.182617,0.000000,Hold,-202.000000,2.000000,LowGoal,1710.000000,-1818.181818,Speed,1740.000000,-1818.181818,Speed,Off,Off,0.000000,FALSE,43,Read: /home/lvuser/scripts/auto_43.bee,File good!,DRIVE_STRAIGHT_NAVX_RAMPARTS 200 5000 10,DRIVE_STRAIGHT_NAVX_RAMPARTS,0.000000,0.000000,-0.033000
08:32:37.231 PM 04/16/2016,Autonomous Enabled,9,FALSE,0,NO ERROR,-0.562500,-69.761837,0.655776,72.636497,FALSE,FALSE,TRUE,TRUE,FALSE,FALSE,Disabled,0.000000,0.000000,0.000000,TRUE,0.310104,-0.058350,0.000000,-0.264725,0.175293,0.000000,1.490000,1.841000,1.526000,2.970000,1.180000,14.050000,1.440445,Hold,0.189209,0.000000,Hold,-202.000000,2.000000,LowGoal,1717.500000,-1818.181818,Speed,1740.000000,-1818.181818,Speed,Off,Off,0.000000,FALSE,43,Read: /home/lvuser/scripts/auto_43.bee,File good!,DRIVE_STRAIGHT_NAVX_RAMPARTS 200 5000 10,DRIVE_STRAIGHT_NAVX_RAMPARTS,0.000000,0.000000,-0.033000
08:32:37.332 PM 04/16/2016,Autonomous Enabled,9,FALSE,0,NO ERROR,-0.562500,-72.071831,0.797449,75.710073,FALSE,FALSE,TRUE,TRUE,FALSE,FALSE,Disabled,0.000000,0.000000,0.000000,TRUE,0.315170,-0.033524,0.000000,0.298767,0.516800,0.000000,0.042000,-0.127000,-0.288000,0.470000,3.650000,12.540000,2.548663,Hold,0.204102,0.000000,Hold,-278.000000,2.000000,LowGoal,1702.500000,-1818.181818,Speed,1725.000000,-1818.181818,Speed,Off,Off,0.000000,FALSE,43,Read: /home/lvuser/scripts/auto_43.bee,File good!,DRIVE_STRAIGHT_NAVX_RAMPARTS 200 5000 10,DRIVE_STRAIGHT_NAVX_RAMPARTS,0.000000,0.000000,-0.033000
08:32:37.432 PM 04/16/2016,Autonomous Enabled,9,FALSE,0,NO ERROR,-0.562500,-74.439576,0.922253,80.849811,FALSE,FALSE,TRUE,TRUE,FALSE,FALSE,Disabled,0.000000,0.000000,0.000000,TRUE,0.334000,-0.010071,0.000000,0.421997,0.395599,0.000000,-0.442000,-1.442000,0.485000,2.880000,7.610000,16.540000,7.238663,Hold,0.206543,0.000000,Hold,-162.000000,2.000000,LowGoal,1650.000000,-1818.181818,Speed,1710.000000,-1818.181818,Speed,Off,Off,0.000000,FALSE,43,Read: /home/lvuser/scripts/auto_43.bee,File good!,DRIVE_STRAIGHT_NAVX_RAMPARTS 200 5000 10,DRIVE_STRAIGHT_NAVX_RAMPARTS,0.000000,0.000000,-0.033000
08:32:37.533 PM 04/16/2016,Autonomous Enabled,10,FALSE,0,NO ERROR,-0.562500,-76.313238,0.815192,84.064553,FALSE,FALSE,TRUE,TRUE,FALSE,FALSE,Disabled,0.000000,0.000000,0.000000,TRUE,0.354004,-0.009140,0.000000,0.521912,0.113556,0.000000,0.440000,0.091000,-0.577000,2.940000,6.260000,23.900000,7.208761,Hold,0.211914,0.000000,Hold,-162.000000,2.000000,LowGoal,1657.500000,-1818.181818,Speed,1717.500000,-1818.181818,Speed,Off,Off,0.000000,FALSE,43,Read: /home/lvuser/scripts/auto_43.bee,File good!,DRIVE_STRAIGHT_NAVX_RAMPARTS 200 5000 10,DRIVE_STRAIGHT_NAVX_RAMPARTS,0.000000,0.000000,-0.033000
08:32:37.634 PM 04/16/2016,Autonomous Enabled,10,FALSE,0,NO ERROR,-0.562500,-79.489481,0.916768,88.421460,FALSE,FALSE,TRUE,TRUE,FALSE,FALSE,Disabled,0.000000,0.000000,0.000000,TRUE,0.386993,-0.001648,0.000000,0.699966,0.118057,0.000000,-0.330000,0.567000,0.555000,-0.300000,7.750000,27.620000,5.664647,Hold,0.212158,0.000000,Hold,-162.000000,2.000000,LowGoal,1650.000000,-1818.181818,Speed,1702.500000,-1818.181818,Speed,Off,Off,0.000000,FALSE,43,Read: /home/lvuser/scripts/auto_43.bee,File good!,DRIVE_STRAIGHT_NAVX_RAMPARTS 200 5000 10,DRIVE_STRAIGHT_NAVX_RAMPARTS,0.000000,0.000000,-0.033000
08:32:37.734 PM 04/16/2016,Autonomous Enabled,10,FALSE,0,NO ERROR,-0.562500,-82.672140,0.811441,94.581445,FALSE,FALSE,TRUE,TRUE,FALSE,FALSE,Disabled,0.000000,0.000000,0.000000,TRUE,0.417053,0.013016,0.000000,0.570358,0.271149,0.000000,0.360000,-0.708000,-0.570000,1.480000,7.170000,27.830000,6.597318,Hold,0.212402,0.000000,Hold,-162.000000,2.000000,LowGoal,1672.500000,-1818.181818,Speed,1710.000000,-1818.181818,Speed,Off,Off,0.000000,FALSE,43,Read: /home/lvuser/scripts/auto_43.bee,File good!,DRIVE_STRAIGHT_NAVX_RAMPARTS 200 5000 10,DRIVE_STRAIGHT_NAVX_RAMPARTS,0.000000,0.000000,-0.033000
08:32:37.835 PM 04/16/2016,Autonomous Enabled,10,FALSE,0,NO ERROR,-0.562500,-85.373550,0.655776,100.176766,FALSE,FALSE,TRUE,TRUE,FALSE,FALSE,Disabled,0.000000,0.000000,0.000000,TRUE,0.469955,0.015228,0.000000,1.270401,0.174988,0.000000,0.236000,0.527000,0.323000,1.690000,2.830000,24.600000,3.849544,Hold,0.212402,0.000000,Hold,-160.000000,2.000000,LowGoal,1695.000000,-1818.181818,Speed,1740.000000,-1818.181818,Speed,Off,Off,0.000000,FALSE,43,Read: /home/lvuser/scripts/auto_43.bee,File good!,DRIVE_STRAIGHT_NAVX_RAMPARTS 200 5000 10,DRIVE_STRAIGHT_NAVX_RAMPARTS,0.000000,0.000000,-0.033000
08:32:37.935 PM 04/16/2016,Autonomous Enabled,10,FALSE,0,NO ERROR,-0.562500,-89.300541,0.762094,104.758255,FALSE,FALSE,TRUE,TRUE,FALSE,FALSE,Disabled,0.000000,0.000000,0.000000,TRUE,0.532349,0.025742,0.000000,1.228729,0.240967,0.000000,-0.112000,0.137000,-0.499000,-3.400000,3.500000,10.610000,2.433593,Hold,0.922607,0.000000,Hold,-157.000000,2.000000,LowGoal,1695.000000,-1818.181818,Speed,1725.000000,-1818.181818,Speed,Off,Off,0.000000,FALSE,43,Read: /home/lvuser/scripts/auto_43.bee,File good!,DRIVE_STRAIGHT_NAVX_RAMPARTS 200 5000 10,DRIVE_STRAIGHT_NAVX_RAMPARTS,0.000000,0.000000,-0.033000
08:32:38.036 PM 04/16/2016,Autonomous Enabled,10,FALSE,0,NO ERROR,-0.562500,-92.553784,0.791886,109.391078,FALSE,FALSE,TRUE,TRUE,FALSE,FALSE,Disabled,0.000000,0.000000,0.000000,TRUE,0.592773,0.047440,0.000000,1.665588,0.627228,0.000000,-0.707000,-1.593000,0.415000,1.470000,5.350000,6.010000,4.917577,Hold,0.821777,0.000000,Hold,-158.000000,2.000000,LowGoal,1695.000000,-1818.181818,Speed,1710.000000,-1818.181818,Speed,Off,Off,0.000000,FALSE,43,Read: /home/lvuser/scripts/auto_43.bee,File good!,DRIVE_STRAIGHT_NAVX_RAMPARTS 200 5000 10,DRIVE_STRAIGHT_NAVX_RAMPARTS,0.000000,0.000000,-0.033000
08:32:38.136 PM 04/16/2016,Autonomous Enabled,10,FALSE,0,NO ERROR,-0.562500,-96.269025,0.761186,114.004650,TRUE,FALSE,TRUE,TRUE,FALSE,FALSE,Disabled,0.000000,0.000000,0.000000,TRUE,0.690109,0.055725,0.000000,1.772949,0.282501,0.000000,-0.233000,0.176000,0.465000,0.810000,5.150000,-2.260000,5.097344,Hold,0.920166,0.000000,Hold,-158.000000,2.000000,LowGoal,1680.000000,-1818.181818,Speed,1717.500000,-1818.181818,Speed,Off,Off,0.000000,FALSE,43,Read: /home/lvuser/scripts/auto_43.bee,File good!,DRIVE_STRAIGHT_NAVX_RAMPARTS 200 5000 10,DRIVE_STRAIGHT_NAVX_RAMPARTS,0.000000,0.000000,-0.033000
08:32:38.236 PM 04/16/2016,Autonomous Enabled,9,FALSE,0,NO ERROR,-0.562500,-100.317932,0.675289,120.402052,FALSE,FALSE,TRUE,TRUE,FALSE,FALSE,Disabled,0.000000,0.000000,0.000000,TRUE,0.780731,0.069763,0.000000,1.936218,0.103409,0.000000,0.023000,0.528000,0.801000,4.890000,2.760000,-3.820000,3.735434,Hold,0.848877,0.000000,Hold,-158.000000,2.000000,LowGoal,1672.500000,-1818.181818,Speed,1732.500000,-1818.181818,Speed,Off,Off,0.000000,FALSE,43,Read: /home/lvuser/scripts/auto_43.bee,File good!,DRIVE_STRAIGHT_NAVX_RAMPARTS 200 5000 10,DRIVE_STRAIGHT_NAVX_RAMPARTS,0.000000,0.000000,-0.033000
08:32:38.337 PM 04/16/2016,Autonomous Enabled,9,FALSE,0,NO ERROR,-0.562500,-105.162504,0.509967,127.036870,FALSE,FALSE,TRUE,TRUE,FALSE,FALSE,Disabled,0.000000,0.000000,0.000000,TRUE,0.880585,0.085419,0.000000,2.040802,0.404221,0.000000,-0.211000,-0.281000,-0.607000,8.100000,-0.730000,-0.520000,0.049711,Hold,0.832031,0.000000,Hold,-158.000000,2.000000,LowGoal,1710.000000,-1818.181818,Speed,1740.000000,-1818.181818,Speed,Off,Off,0.000000,FALSE,43,Read: /home/lvuser/scripts/auto_43.bee,File good!,DRIVE_STRAIGHT_NAVX_RAMPARTS 200 5000 10,DRIVE_STRAIGHT_NAVX_RAMPARTS,0.000000,0.000000,-0.033000
08:32:38.438 PM 04/16/2016,Autonomous Enabled,9,FALSE,0,NO ERROR,-0.562500,-110.372825,0.496687,132.965856,FALSE,FALSE,TRUE,TRUE,FALSE,FALSE,Disabled,0.000000,0.000000,0.000000,TRUE,0.978699,0.105209,0.000000,1.896378,0.506714,0.000000,-0.464000,0.556000,1.110000,5.940000,-1.780000,-4.350000,-2.536050,Hold,0.833008,0.000000,Hold,-158.000000,2.000000,LowGoal,1732.500000,-1818.181818,Speed,1747.500000,-1818.181818,Speed,Off,Off,0.000000,FALSE,43,Read: /home/lvuser/scripts/auto_43.bee,File good!,DRIVE_STRAIGHT_NAVX_RAMPARTS 200 5000 10,DRIVE_STRAIGHT_NAVX_RAMPARTS,0.000000,0.000000,-0.033000
08:32:38.538 PM 04/16/2016,Autonomous Enabled,10,FALSE,0,NO ERROR,-0.562500,-114.736148,0.434967,137.277846,FALSE,FALSE,TRUE,TRUE,FALSE,FALSE,Disabled,0.000000,0.000000,0.000000,TRUE,1.063690,0.130692,0.000000,1.640656,0.498260,0.000000,-0.078000,0.685000,-0.524000,1.310000,-2.950000,-12.310000,-2.404954,Hold,0.822510,0.000000,Hold,-156.000000,2.000000,LowGoal,1732.500000,-1818.181818,Speed,1755.000000,-1818.181818,Speed,Off,Off,0.000000,FALSE,43,Read: /home/lvuser/scripts/auto_43.bee,File good!,DRIVE_STRAIGHT_NAVX_RAMPARTS 200 5000 10,DRIVE_STRAIGHT_NAVX_RAMPARTS,0.000000,0.000000,-0.033000
08:32:38.639 PM 04/16/2016,Autonomous Enabled,10,FALSE,0,NO ERROR,-0.562500,-119.606387,0.368765,141.461503,FALSE,FALSE,TRUE,TRUE,FALSE,FALSE,Disabled,0.000000,0.000000,0.000000,TRUE,1.144852,0.167267,0.000000,1.610550,0.757004,0.000000,-0.005000,0.033000,-0.880000,1.000000,-5.170000,-11.920000,-4.240922,Hold,1.245361,0.000000,Hold,-102.000000,2.000000,LowGoal,1695.000000,-1818.181818,Speed,1747.500000,-1818.181818,Speed,Off,Off,0.000000,FALSE,43,Read: /home/lvuser/scripts/auto_43.bee,File good!,DRIVE_STRAIGHT_NAVX_RAMPARTS 200 5000 10,DRIVE_STRAIGHT_NAVX_RAMPARTS,0.000000,0.000000,-0.033000
08:32:38.741 PM 04/16/2016,Autonomous Enabled,12,FALSE,0,NO ERROR,-0.562500,-125.374957,0.425756,146.434408,TRUE,FALSE,TRUE,TRUE,FALSE,FALSE,Disabled,0.000000,0.000000,0.000000,TRUE,1.238327,0.206696,0.000000,1.388580,0.629349,0.000000,-0.366000,0.467000,-0.714000,2.070000,-4.050000,-1.620000,-4.901466,Hold,1.300781,0.000000,Hold,-161.000000,2.000000,LowGoal,1680.000000,-1818.181818,Speed,1747.500000,-1818.181818,Speed,Off,Off,0.000000,FALSE,43,Read: /home/lvuser/scripts/auto_43.bee,File good!,DRIVE_STRAIGHT_NAVX_RAMPARTS 200 5000 10,DRIVE_STRAIGHT_NAVX_RAMPARTS,0.000000,0.000000,-0.033000
08:32:38.842 PM 04/16/2016,Autonomous Enabled,11,FALSE,0,NO ERROR,-0.562500,-131.387359,0.487204,151.311063,TRUE,FALSE,TRUE,TRUE,FALSE,FALSE,Disabled,0.000000,0.000000,0.000000,TRUE,1.300537,0.240356,0.000000,0.995636,0.754196,0.000000,0.393000,0.418000,-1.181000,1.710000,-2.240000,2.610000,-2.642576,Hold,1.286377,0.000000,Hold,-153.000000,2.000000,LowGoal,1695.000000,-1818.181818,Speed,1762.500000,-1818.181818,Speed,Off,Off,0.000000,FALSE,43,Read: /home/lvuser/scripts/auto_43.bee,File good!,DRIVE_STRAIGHT_NAVX_RAMPARTS 200 5000 10,DRIVE_STRAIGHT_NAVX_RAMPARTS,0.000000,0.000000,-0.033000
08:32:38.942 PM 04/16/2016,Autonomous Enabled,11,FALSE,0,NO ERROR,0.000000,-136.321765,-0.000000,155.571720,TRUE,FALSE,TRUE,TRUE,FALSE,FALSE,Disabled,0.000000,0.000000,0.000000,TRUE,1.354630,0.284439,0.000000,1.143677,0.906067,0.000000,0.268000,0.205000,-0.862000,2.480000,-0.640000,-0.920000,-0.904246,Hold,3.033691,0.000000,Hold,-167.000000,2.000000,LowGoal,1717.500000,-1818.181818,Speed,1762.500000,-1818.181818,Speed,Off,Off,0.000000,FALSE,43,Read: /home/lvuser/scripts/auto_43.bee,File good!,DRIVE_STRAIGHT_TARGET 12 0 10000 75,DRIVE_STRAIGHT_TARGET,0.000000,0.000000,-0.033000
08:32:39.043 PM 04/16/2016,Autonomous Enabled,10,FALSE,0,NO ERROR,-0.562500,-1.187081,0.562500,1.302580,FALSE,FALSE,TRUE,TRUE,FALSE,FALSE,Disabled,0.000000,0.000000,0.000000,TRUE,1.427322,0.328278,0.000000,1.407639,0.887726,0.000000,-0.478000,-0.088000,-0.018000,1.570000,-0.700000,4.590000,-0.406273,Hold,3.579346,0.000000,Hold,-157.000000,2.000000,LowGoal,1710.000000,-1818.181818,Speed,1747.500000,-1818.181818,Speed,Off,Off,0.000000,FALSE,43,Read: /home/lvuser/scripts/auto_43.bee,File good!,DRIVE_STRAIGHT_TARGET 12 0 10000 75,DRIVE_STRAIGHT_TARGET,0.000000,0.000000,-0.033000
08:32:39.142 PM 04/16/2016,Autonomous Enabled,10,FALSE,0,NO ERROR,-0.562500,-4.972905,0.562500,5.588904,FALSE,FALSE,TRUE,TRUE,FALSE,FALSE,Disabled,0.000000,0.000000,0.000000,TRUE,1.489975,0.372330,0.000000,1.294159,0.930084,0.000000,0.042000,0.176000,0.858000,1.820000,-1.370000,3.350000,-1.135879,Hold,1.030518,0.000000,Hold,-157.000000,2.000000,LowGoal,1695.000000,-1818.181818,Speed,1740.000000,-1818.181818,Speed,Off,Off,0.000000,FALSE,43,Read: /home/lvuser/scripts/auto_43.bee,File good!,DRIVE_STRAIGHT_TARGET 12 0 10000 75,DRIVE_STRAIGHT_TARGET,0.000000,0.000000,-0.033000
08:32:39.243 PM 04/16/2016,Autonomous Enabled,11,FALSE,0,NO ERROR,-0.562500,-8.829313,0.562500,9.477395,TRUE,FALSE,TRUE,TRUE,FALSE,FALSE,Disabled,0.000000,0.000000,0.000000,TRUE,1.557556,0.424438,0.000000,1.412216,1.037399,0.000000,0.249000,-0.038000,-0.709000,1.740000,-1.430000,2.100000,-1.273299,Hold,0.641357,0.000000,Hold,-157.000000,2.000000,LowGoal,1702.500000,-1818.181818,Speed,1740.000000,-1818.181818,Speed,Off,Off,0.000000,FALSE,43,Read: /home/lvuser/scripts/auto_43.bee,File good!,DRIVE_STRAIGHT_TARGET 12 0 10000 75,DRIVE_STRAIGHT_TARGET,0.000000,0.000000,-0.033000
08:32:39.343 PM 04/16/2016,Autonomous Enabled,10,FALSE,0,NO ERROR,-0.250000,-13.346635,-0.250000,13.949801,FALSE,FALSE,TRUE,TRUE,FALSE,FALSE,Disabled,0.000000,0.000000,0.000000,TRUE,1.617264,0.465591,0.000000,1.502029,1.018570,0.000000,-0.339000,0.117000,0.857000,1.780000,-1.420000,3.710000,-1.293434,Hold,0.641357,0.000000,Hold,-157.000000,2.000000,LowGoal,1725.000000,-1818.181818,Speed,1732.500000,-1818.181818,Speed,Off,Off,0.000000,FALSE,43,Read: /home/lvuser/scripts/auto_43.bee,File good!,SET_HEADING 0,SET_HEADING,0.000000,0.000000,-0.033000
08:32:39.443 PM 04/16/2016,Autonomous Enabled,10,FALSE,0,NO ERROR,0.250000,-16.574211,0.250000,14.161550,FALSE,FALSE,TRUE,TRUE,FALSE,FALSE,Disabled,0.000000,0.000000,0.000000,TRUE,1.685623,0.531708,0.000000,0.834488,1.199310,0.000000,-0.352000,0.396000,0.244000,3.070000,2.170000,-2.220000,0.940056,Hold,1.155518,0.000000,Hold,-157.000000,2.000000,LowGoal,1740.000000,-1818.181818,Speed,1747.500000,-1818.181818,Speed,Off,Off,0.000000,FALSE,43,Read: /home/lvuser/scripts/auto_43.bee,File good!,SET_HEADING 0,SET_HEADING,0.000000,0.000000,-0.033000
08:32:39.544 PM 04/16/2016,Autonomous Enabled,10,FALSE,0,NO ERROR,0.250000,-18.107791,0.250000,14.905882,TRUE,FALSE,TRUE,TRUE,FALSE,FALSE,Disabled,0.000000,0.000000,0.000000,TRUE,1.717880,0.599075,0.000000,0.538773,1.355026,0.000000,-1.021000,-0.615000,0.210000,2.580000,6.950000,-2.350000,6.593260,Hold,1.193359,0.000000,Hold,-157.000000,2.000000,LowGoal,1740.000000,-1818.181818,Speed,1755.000000,-1818.181818,Speed,Off,Off,0.000000,FALSE,43,Read: /home/lvuser/scripts/auto_43.bee,File good!,SET_HEADING 0,SET_HEADING,0.000000,0.000000,-0.033000
08:32:39.644 PM 04/16/2016,Autonomous Enabled,10,FALSE,0,NO ERROR,0.250000,-17.934541,0.250000,16.067296,TRUE,FALSE,TRUE,TRUE,FALSE,FALSE,Disabled,0.000000,0.000000,0.000000,TRUE,1.726242,0.651398,0.000000,0.072296,0.891418,0.000000,0.033000,0.219000,-0.191000,0.720000,4.050000,-1.780000,5.163758,Hold,1.020020,0.000000,Hold,-157.000000,2.000000,LowGoal,1732.500000,-1818.181818,Speed,1747.500000,-1818.181818,Speed,Off,Off,0.000000,FALSE,43,Read: /home/lvuser/scripts/auto_43.bee,File good!,SET_HEADING 0,SET_HEADING,0.000000,0.000000,-0.033000
08:32:39.745 PM 04/16/2016,Autonomous Enabled,11,FALSE,0,NO ERROR,0.250000,-16.984877,0.250000,16.676878,TRUE,FALSE,TRUE,TRUE,FALSE,FALSE,Disabled,0.000000,0.000000,0.000000,TRUE,1.732788,0.704330,0.000000,0.203690,1.148376,0.000000,0.000000,-0.287000,-0.068000,1.380000,1.120000,-2.400000,1.823805,Hold,0.950439,0.000000,Hold,-157.000000,2.000000,LowGoal,1732.500000,-1818.181818,Speed,1762.500000,-1818.181818,Speed,Off,Off,0.000000,FALSE,43,Read: /home/lvuser/scripts/auto_43.bee,File good!,SET_HEADING 0,SET_HEADING,0.000000,0.000000,-0.033000
08:32:39.846 PM 04/16/2016,Autonomous Enabled,10,FALSE,0,NO ERROR,-0.250000,-16.375295,-0.250000,17.523876,TRUE,FALSE,TRUE,TRUE,FALSE,FALSE,Disabled,0.000000,0.000000,0.000000,TRUE,1.743546,0.755219,0.000000,0.203629,0.999374,0.000000,-0.089000,0.347000,0.210000,1.810000,-1.760000,-1.610000,-1.103326,Hold,0.890137,0.000000,Hold,-157.000000,2.000000,LowGoal,1725.000000,-1818.181818,Speed,1762.500000,-1818.181818,Speed,Off,Off,0.000000,FALSE,43,Read: /home/lvuser/scripts/auto_43.bee,File good!,SET_HEADING 0,SET_HEADING,0.000000,0.000000,-0.033000
08:32:39.945 PM 04/16/2016,Autonomous Enabled,10,FALSE,0,NO ERROR,-0.250000,-16.394545,-0.250000,17.241543,TRUE,FALSE,TRUE,TRUE,FALSE,FALSE,Disabled,0.000000,0.000000,0.000000,TRUE,1.756210,0.821121,0.000000,0.290344,1.118256,0.000000,0.209000,0.213000,0.188000,1.700000,-3.610000,-1.610000,-3.659553,Hold,0.890137,0.000000,Hold,-157.000000,2.000000,LowGoal,1725.000000,-1818.181818,Speed,1762.500000,-1818.181818,Speed,Off,Off,0.000000,FALSE,43,Read: /home/lvuser/scripts/auto_43.bee,File good!,SET_HEADING 0,SET_HEADING,0.000000,0.000000,-0.033000
08:32:40.046 PM 04/16/2016,Autonomous Enabled,6,FALSE,0,NO ERROR,0.000000,-17.421209,-0.000000,16.137879,TRUE,FALSE,TRUE,TRUE,FALSE,FALSE,Disabled,0.000000,0.000000,0.000000,TRUE,1.773300,0.878235,0.000000,0.342163,1.132278,0.000000,0.095000,-0.044000,0.050000,1.940000,0.770000,-0.990000,0.823322,Hold,0.890137,0.000000,Hold,-157.000000,2.000000,LowGoal,1732.500000,-1818.181818,Speed,1755.000000,-1818.181818,Speed,Off,Off,0.000000,FALSE,43,Read: /home/lvuser/scripts/auto_43.bee,File good!,WAIT_FOR_PID,WAIT_FOR_PID,0.000000,0.000000,-0.033000
08:32:40.146 PM 04/16/2016,Autonomous Enabled,10,FALSE,0,NO ERROR,0.000000,-17.806208,-0.000000,15.637380,TRUE,FALSE,TRUE,TRUE,FALSE,TRUE,Disabled,0.000000,0.000000,0.000000,TRUE,1.789368,0.933441,0.000000,0.263733,1.022797,0.000000,0.015000,-0.166000,0.086000,1.770000,3.330000,-1.290000,3.665595,Hold,0.890137,50.000000,Hold,-157.000000,71680.000000,LowGoal,1732.500000,-3272.727273,Speed,1755.000000,-3272.727273,Speed,Off,Off,0.000000,FALSE,43,Read: /home/lvuser/scripts/auto_43.bee,File good!,SEARCH_FOR_GOAL,SEARCH_FOR_GOAL,0.000000,0.000000,-0.033000
08:32:40.246 PM 04/16/2016,Autonomous Enabled,10,FALSE,0,NO ERROR,0.000000,-17.677875,-0.000000,15.727213,TRUE,FALSE,TRUE,TRUE,FALSE,TRUE,Disabled,0.000000,0.000000,0.000000,TRUE,1.803406,0.981644,0.000000,0.311554,0.996689,0.000000,-0.046000,0.006000,0.077000,1.410000,2.380000,-1.290000,2.615053,Hold,2.447754,50.000000,Hold,-6572.000000,71680.000000,LowGoal,1755.000000,-3272.727273,Speed,1800.000000,-3272.727273,Speed,Off,Off,0.000000,FALSE,43,Read: /home/lvuser/scripts/auto_43.bee,File good!,SEARCH_FOR_GOAL,SEARCH_FOR_GOAL,0.000000,0.000000,-0.033000
08:32:40.345 PM 04/16/2016,Autonomous Enabled,11,FALSE,0,NO ERROR,0.000000,-17.632959,-0.000000,15.727213,TRUE,FALSE,TRUE,TRUE,FALSE,TRUE,Disabled,0.000000,0.000000,0.000000,TRUE,1.817642,1.030487,0.000000,0.267593,0.948822,0.000000,-0.007000,0.028000,-0.002000,1.420000,2.540000,-1.250000,2.747488,Hold,4.126221,50.000000,Hold,-23837.000000,71680.000000,LowGoal,2085.000000,-3272.727273,Speed,2062.500000,-3272.727273,Speed,Off,Off,0.000000,FALSE,43,Read: /home/lvuser/scripts/auto_43.bee,File good!,SEARCH_FOR_GOAL,SEARCH_FOR_GOAL,0.000000,0.000000,-0.033000
08:32:40.446 PM 04/16/2016,Autonomous Enabled,8,FALSE,0,NO ERROR,0.000000,-17.632959,-0.000000,15.727213,TRUE,FALSE,TRUE,TRUE,FALSE,TRUE,Disabled,0.000000,0.000000,0.000000,TRUE,1.831970,1.077560,0.000000,0.320450,0.923569,0.000000,-0.085000,-0.002000,0.025000,1.460000,2.490000,-1.060000,2.732782,Hold,6.629150,50.000000,Hold,-23837.000000,71680.000000,LowGoal,2347.500000,-3272.727273,Speed,2527.500000,-3272.727273,Speed,Off,Off,0.000000,FALSE,43,Read: /home/lvuser/scripts/auto_43.bee,File good!,SEARCH_FOR_GOAL,SEARCH_FOR_GOAL,0.000000,0.000000,-0.033000
08:32:40.546 PM 04/16/2016,Autonomous Enabled,11,FALSE,0,NO ERROR,0.000000,-17.632959,-0.000000,15.727213,TRUE,FALSE,TRUE,TRUE,FALSE,TRUE,Disabled,0.000000,0.000000,0.000000,TRUE,1.848221,1.078110,0.000000,0.349380,0.016998,0.000000,-0.004000,0.071000,-0.082000,1.430000,2.560000,-0.900000,2.841315,Hold,9.807861,50.000000,Hold,-39205.000000,71680.000000,LowGoal,2625.000000,-3272.727273,Speed,2782.500000,-3272.727273,Speed,Off,Off,0.000000,FALSE,43,Read: /home/lvuser/scripts/auto_43.bee,File good!,SEARCH_FOR_GOAL,SEARCH_FOR_GOAL,0.000000,0.000000,-0.033000
08:32:40.646 PM 04/16/2016,Autonomous Enabled,10,FALSE,0,NO ERROR,0.000000,-17.632959,-0.000000,15.727213,TRUE,FALSE,TRUE,TRUE,FALSE,TRUE,Disabled,0.000000,0.000000,0.000000,TRUE,1.866562,1.079193,0.000000,0.373718,0.021545,0.000000,-0.037000,0.015000,-0.118000,1.450000,2.430000,-0.880000,2.695533,Hold,13.738525,50.000000,Hold,-55314.000000,71680.000000,LowGoal,2842.500000,-3272.727273,Speed,3060.000000,-3272.727273,Speed,Off,Off,0.000000,FALSE,43,Read: /home/lvuser/scripts/auto_43.bee,File good!,SEARCH_FOR_GOAL,SEARCH_FOR_GOAL,0.000000,0.000000,-0.033000
08:32:40.746 PM 04/16/2016,Autonomous Enabled,11,FALSE,0,NO ERROR,0.000000,-17.632959,-0.000000,15.727213,TRUE,FALSE,TRUE,TRUE,FALSE,TRUE,Disabled,0.000000,0.000000,0.000000,TRUE,1.885040,1.080399,0.000000,0.364777,0.042465,0.000000,0.327000,-0.188000,0.127000,1.540000,2.490000,-0.980000,2.733429,Hold,18.451172,50.000000,Hold,-73490.000000,71680.000000,LowGoal,3007.500000,-3272.727273,Speed,3255.000000,-3272.727273,Speed,Off,Off,0.000000,FALSE,43,Read: /home/lvuser/scripts/auto_43.bee,File good!,SEARCH_FOR_GOAL,SEARCH_FOR_GOAL,0.000000,0.000000,-0.033000
08:32:40.846 PM 04/16/2016,Autonomous Enabled,10,FALSE,0,NO ERROR,0.000000,-17.857542,-0.000000,15.900463,TRUE,FALSE,TRUE,TRUE,FALSE,TRUE,Disabled,0.000000,0.000000,0.000000,TRUE,1.908768,1.082443,0.000000,0.503845,0.070236,0.000000,-0.176000,0.053000,-0.373000,1.720000,2.820000,-0.680000,2.940354,Hold,22.831055,50.000000,Hold,-71707.000000,71680.000000,LowGoal,3112.500000,-3272.727273,Speed,3277.500000,-3272.727273,Speed,Off,Off,0.000000,FALSE,43,Read: /home/lvuser/scripts/auto_43.bee,File good!,SEARCH_FOR_GOAL,SEARCH_FOR_GOAL,0.000000,0.000000,-0.033000
08:32:40.946 PM 04/16/2016,Autonomous Enabled,10,FALSE,0,NO ERROR,0.000000,-17.844708,-0.000000,15.951796,TRUE,FALSE,TRUE,TRUE,FALSE,TRUE,Disabled,0.000000,0.000000,0.000000,TRUE,1.929550,1.084503,0.000000,0.368500,0.018356,0.000000,0.154000,-0.113000,-0.232000,1.440000,2.940000,-1.270000,3.316065,Hold,30.396240,50.000000,Hold,-71691.000000,71680.000000,LowGoal,3180.000000,-3272.727273,Speed,3255.000000,-3272.727273,Speed,Off,Off,0.000000,FALSE,43,Read: /home/lvuser/scripts/auto_43.bee,File good!,SEARCH_FOR_GOAL,SEARCH_FOR_GOAL,0.000000,0.000000,-0.033000
08:32:41.045 PM 04/16/2016,Autonomous Enabled,10,FALSE,0,NO ERROR,0.000000,-17.703542,-0.000000,15.945379,TRUE,FALSE,TRUE,TRUE,FALSE,TRUE,Disabled,0.000000,0.000000,0.000000,TRUE,1.951050,1.084885,0.000000,0.449081,0.008469,0.000000,0.003000,-0.012000,-0.209000,1.460000,2.670000,-0.900000,2.939480,Hold,30.396240,50.000000,Hold,-71691.000000,71680.000000,LowGoal,3172.500000,-3272.727273,Speed,3262.500000,-3272.727273,Speed,Off,Off,0.000000,FALSE,43,Read: /home/lvuser/scripts/auto_43.bee,File good!,SEARCH_FOR_GOAL,SEARCH_FOR_GOAL,0.000000,0.000000,-0.033000
08:32:41.146 PM 04/16/2016,Autonomous Enabled,11,FALSE,0,NO ERROR,0.000000,-17.690709,-0.000000,15.849130,TRUE,FALSE,TRUE,TRUE,FALSE,TRUE,Disabled,0.000000,0.000000,0.000000,TRUE,1.979218,1.084457,0.000000,0.483704,0.002090,0.000000,0.093000,0.136000,0.025000,1.570000,2.790000,-0.820000,3.072345,Hold,49.563965,50.000000,Hold,-71691.000000,71680.000000,LowGoal,3150.000000,-3272.727273,Speed,3270.000000,-3272.727273,Speed,Off,Off,0.000000,FALSE,43,Read: /home/lvuser/scripts/auto_43.bee,File good!,SEARCH_FOR_GOAL,SEARCH_FOR_GOAL,0.000000,0.000000,-0.033000
08:32:41.246 PM 04/16/2016,Autonomous Enabled,12,FALSE,0,NO ERROR,0.000000,-17.716375,-0.000000,15.919713,TRUE,FALSE,TRUE,TRUE,FALSE,TRUE,Disabled,0.000000,0.000000,0.000000,TRUE,2.005524,1.084015,0.000000,0.526138,-0.020218,0.000000,0.063000,-0.022000,0.003000,1.460000,2.820000,-0.980000,3.122355,Hold,56.015869,50.000000,Hold,-71851.000000,71680.000000,LowGoal,3157.500000,-3272.727273,Speed,3270.000000,-3272.727273,Speed,Off,Off,0.000000,FALSE,43,Read: /home/lvuser/scripts/auto_43.bee,File good!,SEARCH_FOR_GOAL,SEARCH_FOR_GOAL,0.000000,0.000000,-0.033000
08:32:41.346 PM 04/16/2016,Autonomous Enabled,7,FALSE,0,NO ERROR,0.000000,-17.799792,-0.000000,15.971046,TRUE,FALSE,TRUE,TRUE,FALSE,TRUE,Disabled,0.000000,0.000000,0.000000,TRUE,2.024857,1.083908,0.000000,0.438797,0.006882,0.000000,-0.015000,0.032000,-0.152000,1.540000,2.940000,-0.960000,3.232989,Hold,56.596680,50.000000,Hold,-71691.000000,71680.000000,LowGoal,3195.000000,-3272.727273,Speed,3262.500000,-3272.727273,Speed,Off,Off,0.000000,FALSE,43,Read: /home/lvuser/scripts/auto_43.bee,File good!,SEARCH_FOR_GOAL,SEARCH_FOR_GOAL,0.000000,0.000000,-0.033000
08:32:41.446 PM 04/16/2016,Autonomous Enabled,11,FALSE,0,NO ERROR,0.000000,-17.799792,-0.000000,15.971046,TRUE,FALSE,TRUE,TRUE,FALSE,TRUE,Disabled,0.000000,0.000000,0.000000,TRUE,2.047104,1.085373,0.000000,0.473724,0.032135,0.000000,0.022000,-0.034000,-0.051000,1.540000,2.940000,-0.960000,3.122534,Hold,56.269775,50.000000,Hold,-71802.000000,71680.000000,LowGoal,3187.500000,-3272.727273,Speed,3262.500000,-3272.727273,Speed,Off,Off,0.000000,FALSE,43,Read: /home/lvuser/scripts/auto_43.bee,File good!,SEARCH_FOR_GOAL,SEARCH_FOR_GOAL,0.000000,0.000000,-0.033000
08:32:41.546 PM 04/16/2016,Autonomous Enabled,7,FALSE,0,NO ERROR,0.000000,-17.799792,-0.000000,15.971046,TRUE,FALSE,TRUE,TRUE,FALSE,TRUE,Disabled,0.000000,0.000000,0.000000,TRUE,2.076294,1.086594,0.000000,0.479187,0.020432,0.000000,-0.020000,0.080000,-0.042000,1.570000,2.830000,-0.990000,3.157194,Hold,56.269775,50.000000,Hold,-71727.000000,71680.000000,LowGoal,3187.500000,-3272.727273,Speed,3270.000000,-3272.727273,Speed,Off,Off,0.000000,FALSE,43,Read: /home/lvuser/scripts/auto_43.bee,File good!,SEARCH_FOR_GOAL,SEARCH_FOR_GOAL,0.000000,0.000000,-0.033000
08:32:41.646 PM 04/16/2016,Autonomous Enabled,11,FALSE,0,NO ERROR,0.000000,-17.799792,-0.000000,15.971046,TRUE,FALSE,TRUE,TRUE,FALSE,TRUE,Disabled,0.000000,0.000000,0.000000,TRUE,2.105392,1.087555,0.000000,0.495651,0.006989,0.000000,-0.020000,0.080000,-0.042000,1.460000,2.870000,-0.840000,3.156395,Hold,56.269531,50.000000,Hold,-71744.000000,71680.000000,LowGoal,3180.000000,-3272.727273,Speed,3270.000000,-3272.727273,Speed,Off,Off,0.000000,FALSE,43,Read: /home/lvuser/scripts/auto_43.bee,File good!,SEARCH_FOR_GOAL,SEARCH_FOR_GOAL,0.000000,0.000000,-0.033000
08:32:41.745 PM 04/16/2016,Autonomous Enabled,12,FALSE,0,NO ERROR,0.000000,-17.799792,-0.000000,15.971046,TRUE,FALSE,TRUE,TRUE,FALSE,TRUE,Disabled,0.000000,0.000000,0.000000,TRUE,2.125305,1.088257,0.000000,0.496689,0.028244,0.000000,-0.070000,0.187000,-0.081000,1.580000,2.840000,-0.850000,3.134997,Hold,56.269531,50.000000,Hold,-71744.000000,71680.000000,LowGoal,3210.000000,-3272.727273,Speed,3270.000000,-3272.727273,Speed,Off,Off,0.000000,FALSE,43,Read: /home/lvuser/scripts/auto_43.bee,File good!,SEARCH_FOR_GOAL,SEARCH_FOR_GOAL,0.000000,0.000000,-0.033000
08:32:41.846 PM 04/16/2016,Autonomous Enabled,11,FALSE,0,NO ERROR,0.000000,-17.799792,-0.000000,15.971046,TRUE,FALSE,TRUE,TRUE,FALSE,TRUE,Disabled,0.000000,0.000000,0.000000,TRUE,2.125305,1.088257,0.000000,0.496689,0.028244,0.000000,0.007000,-0.173000,0.009000,1.500000,2.880000,-0.840000,3.159053,Hold,56.269287,50.000000,Hold,-71744.000000,71680.000000,LowGoal,3240.000000,-3272.727273,Speed,3270.000000,-3272.727273,Speed,Off,Off,0.000000,FALSE,43,Read: /home/lvuser/scripts/auto_43.bee,File good!,SEARCH_FOR_GOAL,SEARCH_FOR_GOAL,0.000000,0.000000,-0.033000
08:32:41.947 PM 04/16/2016,Autonomous Enabled,10,FALSE,0,NO ERROR,0.000000,-17.799792,-0.000000,15.971046,TRUE,FALSE,TRUE,TRUE,FALSE,TRUE,Disabled,0.000000,0.000000,0.000000,TRUE,2.149841,1.088852,0.000000,0.481735,0.001144,0.000000,-0.081000,0.227000,-0.003000,1.500000,2.850000,-0.770000,3.130834,Hold,56.269287,50.000000,Hold,-71744.000000,71680.000000,LowGoal,3240.000000,-3272.727273,Speed,3270.000000,-3272.727273,Speed,Off,Off,0.000000,FALSE,43,Read: /home/lvuser/scripts/auto_43.bee,File good!,SEARCH_FOR_GOAL,SEARCH_FOR_GOAL,0.000000,0.000000,-0.033000
08:32:42.047 PM 04/16/2016,Autonomous Enabled,10,FALSE,0,NO ERROR,0.000000,-17.799792,-0.000000,15.971046,TRUE,FALSE,TRUE,TRUE,FALSE,TRUE,Disabled,0.000000,0.000000,0.000000,TRUE,2.193192,1.092651,0.000000,0.386230,0.043121,0.000000,0.012000,-0.029000,0.084000,1.500000,2.880000,-0.790000,3.147700,Hold,56.269287,50.000000,Hold,-71744.000000,71680.000000,LowGoal,3232.500000,-3272.727273,Speed,3270.000000,-3272.727273,Speed,Off,Off,0.000000,FALSE,43,Read: /home/lvuser/scripts/auto_43.bee,File good!,SEARCH_FOR_GOAL,SEARCH_FOR_GOAL,0.000000,0.000000,-0.033000
08:32:42.147 PM 04/16/2016,Autonomous Enabled,11,FALSE,0,NO ERROR,0.336801,-17.626542,0.336801,16.073712,TRUE,FALSE,TRUE,TRUE,FALSE,TRUE,PID,-0.234375,10.427625,-7.577625,TRUE,2.193192,1.092651,0.000000,0.386230,0.043121,0.000000,-0.016000,0.088000,0.016000,1.500000,2.880000,-0.790000,3.135692,Hold,56.269287,50.000000,Hold,-71744.000000,71680.000000,LowGoal,3225.000000,-3272.727273,Speed,3277.500000,-3272.727273,Speed,Off,Off,0.000000,FALSE,43,Read: /home/lvuser/scripts/auto_43.bee,File good!,SEARCH_FOR_GOAL,SEARCH_FOR_GOAL,0.000000,0.000000,-0.267375
08:32:42.249 PM 04/16/2016,Autonomous Enabled,10,FALSE,0,NO ERROR,0.325151,-16.664044,0.325151,17.158127,TRUE,FALSE,TRUE,TRUE,FALSE,TRUE,PID,-0.234375,10.427625,-7.577625,TRUE,2.192932,1.094696,0.000000,-0.002228,0.045059,0.000000,-0.351000,-0.073000,0.036000,1.530000,2.850000,-0.770000,0.326065,Hold,56.269287,50.000000,Hold,-71744.000000,71680.000000,LowGoal,3217.500000,-3272.727273,Speed,3277.500000,-3272.727273,Speed,Off,Off,0.000000,FALSE,43,Read: /home/lvuser/scripts/auto_43.bee,File good!,SEARCH_FOR_GOAL,SEARCH_FOR_GOAL,0.000000,0.000000,-0.267375
08:32:42.349 PM 04/16/2016,Autonomous Enabled,11,FALSE,0,NO ERROR,0.259815,-15.707963,0.259815,18.082124,TRUE,FALSE,TRUE,TRUE,FALSE,TRUE,PID,-0.234375,10.427625,-7.577625,TRUE,2.188309,1.093765,0.000000,-0.088837,-0.074799,0.000000,-0.064000,0.026000,0.082000,1.050000,0.370000,-1.010000,-3.703769,Hold,56.269287,50.000000,Hold,-71745.000000,71680.000000,LowGoal,3217.500000,-3272.727273,Speed,3270.000000,-3272.727273,Speed,Off,Off,0.000000,FALSE,43,Read: /home/lvuser/scripts/auto_43.bee,File good!,SEARCH_FOR_GOAL,SEARCH_FOR_GOAL,0.000000,0.000000,-0.267375
08:32:42.450 PM 04/16/2016,Autonomous Enabled,9,FALSE,0,NO ERROR,0.214805,-14.989298,0.214805,18.730206,TRUE,FALSE,TRUE,TRUE,FALSE,TRUE,PID,-0.234375,10.427625,-7.577625,TRUE,2.184570,1.089203,0.000000,-0.068893,-0.107071,0.000000,-0.027000,-0.017000,-0.033000,1.140000,-4.220000,-0.760000,-6.754523,Hold,56.269287,50.000000,Hold,-71745.000000,71680.000000,LowGoal,3202.500000,-3272.727273,Speed,3247.500000,-3272.727273,Speed,Off,Off,0.000000,FALSE,43,Read: /home/lvuser/scripts/auto_43.bee,File good!,SEARCH_FOR_GOAL,SEARCH_FOR_GOAL,0.000000,0.000000,-0.267375
08:32:42.556 PM 04/16/2016,Autonomous Enabled,10,FALSE,0,NO ERROR,0.000000,-14.694132,-0.000000,18.941956,TRUE,FALSE,TRUE,TRUE,FALSE,TRUE,Suspended,-0.234375,10.427625,-7.577625,TRUE,2.180603,1.084595,0.000000,-0.080948,-0.075333,0.000000,-0.072000,0.223000,-0.041000,1.260000,-6.940000,-0.620000,-8.336695,Hold,56.269287,50.000000,Hold,-71745.000000,71680.000000,LowGoal,3187.500000,-3272.727273,Speed,3255.000000,-3272.727273,Speed,Off,Off,0.000000,FALSE,43,Read: /home/lvuser/scripts/auto_43.bee,File good!,SEARCH_FOR_GOAL,SEARCH_FOR_GOAL,0.000000,0.000000,-0.267375
08:32:42.659 PM 04/16/2016,Autonomous Enabled,10,FALSE,0,NO ERROR,0.000000,-14.745466,-0.000000,18.736623,TRUE,FALSE,TRUE,TRUE,FALSE,TRUE,Suspended,-0.234375,10.427625,-7.577625,TRUE,2.171295,1.084213,0.000000,-0.112122,0.002228,0.000000,0.163000,-0.051000,0.059000,1.540000,-7.940000,-0.460000,-7.639370,Hold,56.269287,50.000000,Hold,-71745.000000,71680.000000,LowGoal,3142.500000,-3272.727273,Speed,3262.500000,-3272.727273,Speed,Off,Off,0.000000,FALSE,43,Read: /home/lvuser/scripts/auto_43.bee,File good!,SEARCH_FOR_GOAL,SEARCH_FOR_GOAL,0.000000,0.000000,-0.267375
08:32:42.759 PM 04/16/2016,Autonomous Enabled,10,FALSE,0,NO ERROR,0.000000,-14.751882,-0.000000,18.710956,TRUE,FALSE,TRUE,TRUE,FALSE,TRUE,Suspended,-0.234375,10.427625,-7.577625,TRUE,2.164505,1.083389,0.000000,-0.163132,-0.046783,0.000000,-0.063000,0.039000,-0.002000,1.620000,-7.410000,-0.260000,-7.566536,Hold,56.269287,50.000000,Hold,-71745.000000,71680.000000,LowGoal,3150.000000,-3272.727273,Speed,3270.000000,-3272.727273,Speed,Off,Off,0.000000,FALSE,43,Read: /home/lvuser/scripts/auto_43.bee,File good!,SEARCH_FOR_GOAL,SEARCH_FOR_GOAL,0.000000,0.000000,-0.267375
08:32:42.860 PM 04/16/2016,Autonomous Enabled,11,FALSE,0,NO ERROR,0.000000,-14.751882,-0.000000,18.710956,TRUE,FALSE,TRUE,TRUE,FALSE,TRUE,Suspended,-0.234375,10.427625,-7.577625,TRUE,2.153229,1.080383,0.000000,-0.247498,-0.043823,0.000000,-0.146000,-0.058000,0.040000,1.570000,-7.410000,-0.340000,-7.528286,Hold,56.269287,50.000000,Hold,-71745.000000,71680.000000,LowGoal,3157.500000,-3272.727273,Speed,3270.000000,-3272.727273,Speed,Off,Off,0.000000,FALSE,43,Read: /home/lvuser/scripts/auto_43.bee,File good!,SEARCH_FOR_GOAL,SEARCH_FOR_GOAL,0.000000,0.000000,-0.267375
08:32:42.960 PM 04/16/2016,Autonomous Enabled,10,FALSE,0,NO ERROR,0.000000,-14.751882,-0.000000,18.710956,TRUE,FALSE,TRUE,TRUE,FALSE,TRUE,Suspended,-0.234375,10.427625,-7.577625,TRUE,2.153229,1.080383,0.000000,-0.247498,-0.043823,0.000000,0.025000,-0.092000,0.112000,1.700000,-7.360000,-0.370000,-7.528286,Hold,56.269287,50.000000,Hold,-71745.000000,71680.000000,LowGoal,3165.000000,-3272.727273,Speed,3270.000000,-3272.727273,Speed,Off,Off,0.000000,FALSE,43,Read: /home/lvuser/scripts/auto_43.bee,File good!,SEARCH_FOR_GOAL,SEARCH_FOR_GOAL,0.000000,0.000000,-0.267375
08:32:43.061 PM 04/16/2016,Autonomous Enabled,10,FALSE,0,NO ERROR,0.000000,-14.751882,-0.000000,18.710956,TRUE,FALSE,TRUE,TRUE,FALSE,TRUE,Suspended,0.025000,10.427625,-7.577625,TRUE,2.137100,1.077240,0.000000,-0.289505,-0.055115,0.000000,-0.166000,0.115000,-0.046000,1.590000,-7.380000,-0.300000,-7.557864,Hold,56.269287,50.000000,Hold,-71745.000000,71680.000000,LowGoal,3180.000000,-3272.727273,Speed,3270.000000,-3272.727273,Speed,Off,Off,0.000000,FALSE,43,Read: /home/lvuser/scripts/auto_43.bee,File good!,SEARCH_FOR_GOAL,SEARCH_FOR_GOAL,0.000000,0.000000,-0.008000
08:32:43.162 PM 04/16/2016,Autonomous Enabled,11,FALSE,0,NO ERROR,0.000000,-14.751882,-0.000000,18.710956,TRUE,FALSE,TRUE,TRUE,FALSE,TRUE,Suspended,0.025000,0.312000,-7.702000,TRUE,2.120132,1.073959,0.000000,-0.372604,-0.082458,0.000000,0.065000,-0.019000,0.001000,1.590000,-7.390000,-0.410000,-7.562188,Hold,56.269043,50.000000,Hold,-71745.000000,71680.000000,LowGoal,3165.000000,-3272.727273,Speed,3277.500000,-3272.727273,Speed,Off,Off,0.000000,FALSE,43,Read: /home/lvuser/scripts/auto_43.bee,File good!,SEARCH_FOR_GOAL,SEARCH_FOR_GOAL,0.000000,0.000000,-0.008000
08:32:43.262 PM 04/16/2016,Autonomous Enabled,11,FALSE,0,NO ERROR,0.000000,-14.751882,-0.000000,18.710956,TRUE,FALSE,TRUE,TRUE,FALSE,TRUE,Suspended,0.025000,0.312000,-7.702000,TRUE,2.102112,1.068954,0.000000,-0.347687,-0.106537,0.000000,0.025000,0.052000,-0.005000,1.590000,-7.380000,-0.390000,-7.533381,Hold,56.269043,50.000000,Hold,-71745.000000,71680.000000,LowGoal,3157.500000,-3272.727273,Speed,3270.000000,-3272.727273,Speed,Off,Off,0.000000,FALSE,43,Read: /home/lvuser/scripts/auto_43.bee,File good!,SEARCH_FOR_GOAL,SEARCH_FOR_GOAL,0.000000,0.000000,-0.008000
08:32:43.363 PM 04/16/2016,Autonomous Enabled,11,FALSE,0,NO ERROR,0.000000,-14.751882,-0.000000,18.710956,TRUE,FALSE,TRUE,TRUE,FALSE,FALSE,Disabled,0.025000,0.312000,-7.702000,TRUE,2.087860,1.065567,0.000000,-0.380432,-0.074234,0.000000,0.049000,-0.137000,0.078000,1.610000,-7.380000,-0.350000,-7.527787,Hold,56.269043,50.000000,Hold,-71745.000000,71680.000000,Shoot,3165.000000,-3272.727273,Speed,3270.000000,-3272.727273,Speed,Off,On,0.000000,FALSE,43,Read: /home/lvuser/scripts/auto_43.bee,File good!,WAIT 500,WAIT,0.000000,0.000000,-0.008000
08:32:43.463 PM 04/16/2016,Autonomous Enabled,11,FALSE,0,NO ERROR,0.000000,-14.751882,-0.000000,18.710956,TRUE,FALSE,TRUE,TRUE,FALSE,FALSE,Disabled,0.025000,0.312000,-7.702000,TRUE,2.062729,1.062027,0.000000,-0.440430,-0.067520,0.000000,-0.618000,-0.007000,-0.215000,1.470000,-7.390000,-0.250000,-7.520069,Hold,56.269043,50.000000,Hold,-71745.000000,71680.000000,Shoot,3172.500000,-3272.727273,Speed,3270.000000,-3272.727273,Speed,Off,On,0.000000,FALSE,43,Read: /home/lvuser/scripts/auto_43.bee,File good!,WAIT 500,WAIT,0.000000,0.000000,-0.008000
08:32:43.563 PM 04/16/2016,Autonomous Enabled,11,FALSE,0,NO ERROR,0.000000,-14.751882,-0.000000,18.710956,TRUE,FALSE,TRUE,TRUE,FALSE,FALSE,Disabled,0.025000,0.312000,-7.702000,TRUE,2.028412,1.055191,0.000000,-0.622421,-0.135544,0.000000,0.043000,-0.093000,-0.116000,1.500000,-7.380000,-0.340000,-7.525312,Hold,56.269043,50.000000,Hold,-71746.000000,71680.000000,Shoot,3165.000000,-3272.727273,Speed,3270.000000,-3272.727273,Speed,On,On,0.000000,FALSE,43,Read: /home/lvuser/scripts/auto_43.bee,File good!,WAIT 500,WAIT,0.000000,0.000000,-0.008000
