Time,Robot Mode,Loop Time,Error Status,Error Code,Error Source,Left Motor Output,Left Motor Encoder,Right Motor Output,Right Motor Encoder,Is Level,Is Stalled,Ball Detector Photoeye,Vision Enabled,Vision Teleop Control,Vision Auto Control,Vision Current State,Vision X Output,Vision NavX Error,Vision NavX Target,NavX Connection Status,NavX Displacement X,NavX Displacement Y,NavX Displacement Z,NavX Velocity X,NavX Velocity Y,NavX Velocity Z,NavX Acceleration X,NavX Acceleration Y,NavX Acceleration Z,NavX Pitch,NavX Yaw,NavX Roll,Gyro Angle,Roller Arm State,Roller Arm Actual,Roller Arm Desired,Shooter Arm State,Shooter Arm Actual,Shooter Arm Desired,Shooter State,Actual RPM Left,Desired RPM Left,Control Mode Left,Actual RPM Right,Desired RPM Right,Control Mode Right,Ball Shooter Cylinder,Ball Halo Cylinder,Scaler Motor Output,Scaler Solenoid Fire,Auto To Run,Auto Current File,Auto File Status,Auto Current Command,Auto Trimmed Command,Shooter Amps Left,Shooter Amps Right, Vision After Offset
03:42:14.743 PM 04/16/2016,Autonomous Enabled,9,TRUE,-44003,<LOCATION>WPI_CameraIssue HTTP Request with Authentication.vi<CALLSTACK>WPI_CameraIssue HTTP Request with Authentication.vi< <WPI_CameraIssue Get.vi< <WPI_CameraSet Image Appearance Property.vi< <WPI_CameraSet Image Size.vi< <Vision Processing.vi< <Robot Main.vi,0.000000,0.000000,-0.000000,0.000000,TRUE,FALSE,TRUE,TRUE,FALSE,FALSE,Disabled,0.000000,0.000000,0.000000,TRUE,0.000000,0.000000,0.000000,0.000000,0.000000,0.000000,-0.049000,-0.034000,0.022000,1.160000,-1.700000,0.360000,-1.663661,ResetBack,0.000000,-0.000049,ResetBack,0.000000,-0.250000,LowGoal,0.000000,-2181.818182,Speed,0.000000,-2181.818182,Speed,Off,Off,0.000000,FALSE,53,Read: /home/lvuser/scripts/auto_53.bee,File good!,WAIT 1500,WAIT,0.000000,0.000000,-0.033000
03:42:14.843 PM 04/16/2016,Autonomous Enabled,9,FALSE,0,NO ERROR,0.000000,0.000000,-0.000000,0.000000,TRUE,FALSE,TRUE,TRUE,FALSE,FALSE,Disabled,0.000000,0.000000,0.000000,TRUE,-0.000793,-0.000214,0.000000,-0.026840,0.000000,0.000000,-0.049000,-0.034000,0.022000,1.160000,-1.700000,0.340000,-1.667097,ResetBack,-0.003418,-0.000049,ResetBack,3176.000000,-0.250000,LowGoal,232.500000,-2181.818182,Speed,330.000000,-2181.818182,Speed,Off,Off,0.000000,FALSE,53,Read: /home/lvuser/scripts/auto_53.bee,File good!,WAIT 1500,WAIT,0.000000,0.000000,-0.033000
03:42:14.943 PM 04/16/2016,Autonomous Enabled,9,FALSE,0,NO ERROR,0.000000,0.000000,-0.000000,0.000000,TRUE,FALSE,TRUE,TRUE,FALSE,FALSE,Disabled,0.000000,0.000000,0.000000,TRUE,-0.003403,0.001129,0.000000,-0.069962,0.039062,0.000000,0.004000,0.034000,-0.053000,1.160000,-1.700000,0.340000,-1.677958,ResetBack,-0.215820,-0.000049,ResetBack,3176.000000,-0.250000,LowGoal,855.000000,-2181.818182,Speed,1042.500000,-2181.818182,Speed,Off,Off,0.000000,FALSE,53,Read: /home/lvuser/scripts/auto_53.bee,File good!,WAIT 1500,WAIT,0.000000,0.000000,-0.033000
03:42:15.044 PM 04/16/2016,Autonomous Enabled,13,FALSE,0,NO ERROR,0.000000,0.000000,-0.000000,0.000000,TRUE,FALSE,TRUE,TRUE,FALSE,FALSE,Disabled,0.000000,0.000000,0.000000,TRUE,-0.007645,0.002823,0.000000,-0.103027,0.036301,0.000000,-0.106000,0.025000,0.013000,1.220000,-1.690000,0.290000,-1.675496,Reset,-0.229004,-0.000049,ResetBack,5914.000000,-0.250000,LowGoal,1395.000000,-2181.818182,Speed,1515.000000,-2181.818182,Speed,Off,Off,0.000000,FALSE,53,Read: /home/lvuser/scripts/auto_53.bee,File good!,WAIT 1500,WAIT,0.000000,0.000000,-0.033000
03:42:15.146 PM 04/16/2016,Autonomous Enabled,10,FALSE,0,NO ERROR,0.000000,0.000000,-0.000000,0.000000,TRUE,FALSE,TRUE,TRUE,FALSE,FALSE,Disabled,0.000000,0.000000,0.000000,TRUE,-0.012680,0.002182,0.000000,-0.111771,-0.013474,0.000000,-0.038000,-0.007000,0.029000,1.230000,-1.690000,0.270000,-1.677187,Hold,-0.231445,0.000000,ResetBack,5914.000000,-0.250000,LowGoal,1837.500000,-2181.818182,Speed,2002.500000,-2181.818182,Speed,Off,Off,0.000000,FALSE,53,Read: /home/lvuser/scripts/auto_53.bee,File good!,WAIT 1500,WAIT,0.000000,0.000000,-0.033000
03:42:15.247 PM 04/16/2016,Autonomous Enabled,8,FALSE,0,NO ERROR,0.000000,0.000000,-0.000000,0.000000,TRUE,FALSE,TRUE,TRUE,FALSE,FALSE,Disabled,0.000000,0.000000,0.000000,TRUE,-0.012680,0.002182,0.000000,-0.111771,-0.013474,0.000000,-0.031000,0.033000,0.008000,1.260000,-1.690000,0.210000,-1.677287,Hold,0.219238,0.000000,ResetBack,6192.000000,-0.250000,LowGoal,2145.000000,-2181.818182,Speed,2220.000000,-2181.818182,Speed,Off,Off,0.000000,FALSE,53,Read: /home/lvuser/scripts/auto_53.bee,File good!,WAIT 1500,WAIT,0.000000,0.000000,-0.033000
03:42:15.347 PM 04/16/2016,Autonomous Enabled,11,FALSE,0,NO ERROR,0.000000,0.000000,-0.000000,0.000000,TRUE,FALSE,TRUE,TRUE,FALSE,FALSE,Disabled,0.000000,0.000000,0.000000,TRUE,-0.023605,0.002808,0.000000,-0.066406,0.000000,0.000000,0.022000,0.000000,-0.013000,1.260000,-1.690000,0.180000,-1.670563,Hold,0.219238,0.000000,ResetBack,6240.000000,-0.250000,LowGoal,2175.000000,-2181.818182,Speed,2182.500000,-2181.818182,Speed,Off,Off,0.000000,FALSE,53,Read: /home/lvuser/scripts/auto_53.bee,File good!,WAIT 1500,WAIT,0.000000,0.000000,-0.033000
03:42:15.449 PM 04/16/2016,Autonomous Enabled,13,FALSE,0,NO ERROR,0.000000,0.000000,-0.000000,0.000000,TRUE,FALSE,TRUE,TRUE,FALSE,FALSE,Disabled,0.000000,0.000000,0.000000,TRUE,-0.026138,0.003815,0.000000,-0.056885,0.039322,0.000000,0.031000,0.039000,-0.058000,1.250000,-1.690000,0.240000,-1.671599,Hold,0.219238,0.000000,ResetBack,6491.000000,-0.250000,LowGoal,2092.500000,-2181.818182,Speed,2182.500000,-2181.818182,Speed,Off,Off,0.000000,FALSE,53,Read: /home/lvuser/scripts/auto_53.bee,File good!,WAIT 1500,WAIT,0.000000,0.000000,-0.033000
03:42:15.548 PM 04/16/2016,Autonomous Enabled,10,FALSE,0,NO ERROR,0.000000,0.000000,-0.000000,0.000000,TRUE,FALSE,TRUE,TRUE,FALSE,FALSE,Disabled,0.000000,0.000000,0.000000,TRUE,-0.026138,0.003815,0.000000,-0.056885,0.039322,0.000000,-0.051000,0.052000,0.098000,1.220000,-1.690000,0.250000,-1.665265,Hold,0.219238,0.000000,ResetBack,6502.000000,-0.250000,LowGoal,2070.000000,-2181.818182,Speed,2130.000000,-2181.818182,Speed,Off,Off,0.000000,FALSE,53,Read: /home/lvuser/scripts/auto_53.bee,File good!,WAIT 1500,WAIT,0.000000,0.000000,-0.033000
03:42:15.651 PM 04/16/2016,Autonomous Enabled,13,FALSE,0,NO ERROR,0.000000,0.000000,-0.000000,0.000000,TRUE,FALSE,TRUE,TRUE,FALSE,FALSE,Disabled,0.000000,0.000000,0.000000,TRUE,-0.031860,0.011322,0.000000,-0.019089,0.099152,0.000000,0.008000,0.039000,-0.023000,1.220000,-1.690000,0.250000,-1.675854,Hold,0.219238,0.000000,ResetBack,6511.000000,-0.250000,LowGoal,2100.000000,-2181.818182,Speed,2115.000000,-2181.818182,Speed,Off,Off,0.000000,FALSE,53,Read: /home/lvuser/scripts/auto_53.bee,File good!,WAIT 1500,WAIT,0.000000,0.000000,-0.033000
03:42:15.750 PM 04/16/2016,Autonomous Enabled,11,FALSE,0,NO ERROR,0.000000,0.000000,-0.000000,0.000000,TRUE,FALSE,TRUE,TRUE,FALSE,FALSE,Disabled,0.000000,0.000000,0.000000,TRUE,-0.032288,0.012375,0.000000,-0.011307,0.005905,0.000000,0.042000,0.018000,0.006000,1.250000,-1.690000,0.200000,-1.685914,Hold,0.219238,0.000000,ResetBack,6534.000000,-0.250000,LowGoal,2100.000000,-2181.818182,Speed,2130.000000,-2181.818182,Speed,Off,Off,0.000000,FALSE,53,Read: /home/lvuser/scripts/auto_53.bee,File good!,WAIT 1500,WAIT,0.000000,0.000000,-0.033000
03:42:15.853 PM 04/16/2016,Autonomous Enabled,11,FALSE,0,NO ERROR,0.000000,0.000000,-0.000000,0.000000,TRUE,FALSE,TRUE,TRUE,FALSE,FALSE,Disabled,0.000000,0.000000,0.000000,TRUE,-0.032806,0.013153,0.000000,-0.012009,0.021683,0.000000,-0.027000,0.046000,-0.012000,1.230000,-1.700000,0.250000,-1.685225,Hold,0.219238,0.000000,ResetBack,6534.000000,-0.250000,LowGoal,2115.000000,-2181.818182,Speed,2137.500000,-2181.818182,Speed,Off,Off,0.000000,FALSE,53,Read: /home/lvuser/scripts/auto_53.bee,File good!,WAIT 1500,WAIT,0.000000,0.000000,-0.033000
03:42:15.952 PM 04/16/2016,Autonomous Enabled,10,FALSE,0,NO ERROR,0.000000,0.000000,-0.000000,0.000000,TRUE,FALSE,TRUE,TRUE,FALSE,FALSE,Disabled,0.000000,0.000000,0.000000,TRUE,-0.032806,0.013153,0.000000,-0.012009,0.021683,0.000000,-0.014000,0.087000,0.052000,1.240000,-1.700000,0.260000,-1.666301,Hold,0.219238,0.000000,Reset,6632.000000,2.000000,LowGoal,2115.000000,-2181.818182,Speed,2137.500000,-2181.818182,Speed,Off,Off,0.000000,FALSE,53,Read: /home/lvuser/scripts/auto_53.bee,File good!,WAIT 1500,WAIT,0.000000,0.000000,-0.033000
03:42:16.054 PM 04/16/2016,Autonomous Enabled,10,FALSE,0,NO ERROR,0.000000,0.000000,-0.000000,0.000000,TRUE,FALSE,TRUE,TRUE,FALSE,FALSE,Disabled,0.000000,0.000000,0.000000,TRUE,-0.032608,0.017395,0.000000,0.027100,0.093979,0.000000,0.045000,0.076000,-0.042000,1.200000,-1.700000,0.300000,-1.679838,Hold,0.219238,0.000000,Hold,6646.000000,2.000000,LowGoal,2100.000000,-2181.818182,Speed,2137.500000,-2181.818182,Speed,Off,Off,0.000000,FALSE,53,Read: /home/lvuser/scripts/auto_53.bee,File good!,WAIT 1500,WAIT,0.000000,0.000000,-0.033000
03:42:16.158 PM 04/16/2016,Autonomous Enabled,13,FALSE,0,NO ERROR,0.000000,0.000000,-0.000000,0.000000,TRUE,FALSE,TRUE,TRUE,FALSE,FALSE,Disabled,0.000000,0.000000,0.000000,TRUE,-0.030899,0.022293,0.000000,0.026672,0.085373,0.000000,-0.032000,-0.032000,0.019000,1.180000,-1.700000,0.370000,-1.670911,Hold,0.219238,0.000000,Hold,-203.000000,2.000000,LowGoal,2085.000000,-2181.818182,Speed,2130.000000,-2181.818182,Speed,Off,Off,0.000000,FALSE,53,Read: /home/lvuser/scripts/auto_53.bee,File good!,WAIT 1500,WAIT,0.000000,0.000000,-0.033000
03:42:16.260 PM 04/16/2016,Autonomous Enabled,11,FALSE,0,NO ERROR,0.000000,0.000000,-0.000000,0.000000,TRUE,FALSE,TRUE,TRUE,FALSE,FALSE,Disabled,0.000000,0.000000,0.000000,TRUE,-0.029510,0.024689,0.000000,0.029892,0.007172,0.000000,-0.015000,-0.066000,0.165000,1.200000,-1.700000,0.360000,-1.662718,Hold,0.219482,0.000000,Hold,-197.000000,2.000000,LowGoal,2100.000000,-2181.818182,Speed,2137.500000,-2181.818182,Speed,Off,Off,0.000000,FALSE,53,Read: /home/lvuser/scripts/auto_53.bee,File good!,WAIT 1500,WAIT,0.000000,0.000000,-0.033000
03:42:16.359 PM 04/16/2016,Autonomous Enabled,10,FALSE,0,NO ERROR,-0.562500,0.000000,0.562500,0.000000,TRUE,FALSE,TRUE,TRUE,FALSE,FALSE,Disabled,0.000000,0.000000,0.000000,TRUE,-0.027954,0.022369,0.000000,0.048721,-0.090424,0.000000,0.065000,-0.126000,0.142000,1.230000,-1.700000,0.330000,0.010744,Hold,0.219482,0.000000,Hold,-193.000000,2.000000,LowGoal,2100.000000,-2181.818182,Speed,2137.500000,-2181.818182,Speed,Off,Off,0.000000,FALSE,53,Read: /home/lvuser/scripts/auto_53.bee,File good!,DRIVE_STRAIGHT_NAVX_RAMPARTS 200 5000 10,DRIVE_STRAIGHT_NAVX_RAMPARTS,0.000000,0.000000,-0.033000
03:42:16.460 PM 04/16/2016,Autonomous Enabled,10,FALSE,0,NO ERROR,-0.562500,-1.835162,0.562500,1.886496,TRUE,FALSE,TRUE,TRUE,FALSE,FALSE,Disabled,0.000000,0.000000,0.000000,TRUE,-0.024521,0.015549,0.000000,0.069901,-0.151276,0.000000,-0.028000,0.013000,0.099000,1.210000,0.000000,0.340000,-0.018838,Hold,0.219482,0.000000,Hold,-191.000000,2.000000,LowGoal,2107.500000,-1818.181818,Speed,2137.500000,-1818.181818,Speed,Off,Off,0.000000,FALSE,53,Read: /home/lvuser/scripts/auto_53.bee,File good!,DRIVE_STRAIGHT_NAVX_RAMPARTS 200 5000 10,DRIVE_STRAIGHT_NAVX_RAMPARTS,0.000000,0.000000,-0.033000
03:42:16.561 PM 04/16/2016,Autonomous Enabled,10,FALSE,0,NO ERROR,-0.562500,-4.754739,0.562500,4.902322,FALSE,FALSE,TRUE,TRUE,FALSE,FALSE,Disabled,0.000000,0.000000,0.000000,TRUE,-0.008743,0.007294,0.000000,0.516190,-0.180389,0.000000,0.288000,-0.028000,-0.177000,0.990000,-0.070000,5.420000,-0.018838,Hold,0.219482,0.000000,Hold,-191.000000,2.000000,LowGoal,2017.500000,-1818.181818,Speed,2070.000000,-1818.181818,Speed,Off,Off,0.000000,FALSE,53,Read: /home/lvuser/scripts/auto_53.bee,File good!,DRIVE_STRAIGHT_NAVX_RAMPARTS 200 5000 10,DRIVE_STRAIGHT_NAVX_RAMPARTS,0.000000,0.000000,-0.033000
03:42:16.660 PM 04/16/2016,Autonomous Enabled,9,FALSE,0,NO ERROR,-0.562500,-4.754739,0.562500,4.902322,FALSE,FALSE,TRUE,TRUE,FALSE,FALSE,Disabled,0.000000,0.000000,0.000000,TRUE,0.024826,-0.002563,0.000000,0.756943,-0.204117,0.000000,0.200000,0.045000,0.283000,1.000000,-0.160000,5.080000,-0.138487,Hold,0.219482,0.000000,Hold,-191.000000,2.000000,LowGoal,1665.000000,-1818.181818,Speed,1762.500000,-1818.181818,Speed,Off,Off,0.000000,FALSE,53,Read: /home/lvuser/scripts/auto_53.bee,File good!,DRIVE_STRAIGHT_NAVX_RAMPARTS 200 5000 10,DRIVE_STRAIGHT_NAVX_RAMPARTS,0.000000,0.000000,-0.033000
03:42:16.760 PM 04/16/2016,Autonomous Enabled,10,FALSE,0,NO ERROR,-0.562500,-8.425064,0.562500,8.566230,FALSE,FALSE,TRUE,TRUE,FALSE,FALSE,Disabled,0.000000,0.000000,0.000000,TRUE,0.068314,-0.013123,0.000000,0.951584,-0.220734,0.000000,0.035000,-0.036000,-0.223000,1.030000,-0.210000,3.790000,-0.152443,Hold,0.219482,0.000000,Hold,-191.000000,2.000000,LowGoal,1582.500000,-1818.181818,Speed,1665.000000,-1818.181818,Speed,Off,Off,0.000000,FALSE,53,Read: /home/lvuser/scripts/auto_53.bee,File good!,DRIVE_STRAIGHT_NAVX_RAMPARTS 200 5000 10,DRIVE_STRAIGHT_NAVX_RAMPARTS,0.000000,0.000000,-0.033000
03:42:16.860 PM 04/16/2016,Autonomous Enabled,9,FALSE,0,NO ERROR,-0.562500,-12.801220,0.549318,12.935970,FALSE,FALSE,TRUE,TRUE,FALSE,FALSE,Disabled,0.000000,0.000000,0.000000,TRUE,0.116135,-0.024139,0.000000,0.932968,-0.210709,0.000000,-0.090000,-0.004000,0.299000,1.040000,-0.290000,4.190000,-0.237261,Hold,0.219482,0.000000,Hold,-190.000000,2.000000,LowGoal,1687.500000,-1818.181818,Speed,1710.000000,-1818.181818,Speed,Off,Off,0.000000,FALSE,53,Read: /home/lvuser/scripts/auto_53.bee,File good!,DRIVE_STRAIGHT_NAVX_RAMPARTS 200 5000 10,DRIVE_STRAIGHT_NAVX_RAMPARTS,0.000000,0.000000,-0.033000
03:42:16.961 PM 04/16/2016,Autonomous Enabled,10,FALSE,0,NO ERROR,-0.562500,-17.164543,0.550089,17.324959,FALSE,FALSE,TRUE,TRUE,FALSE,FALSE,Disabled,0.000000,0.000000,0.000000,TRUE,0.134186,-0.024323,0.000000,-0.004913,-0.004822,0.000000,0.017000,-0.072000,0.045000,1.060000,-0.330000,3.570000,-0.307441,Hold,0.219482,0.000000,Hold,-189.000000,2.000000,LowGoal,1762.500000,-1818.181818,Speed,1755.000000,-1818.181818,Speed,Off,Off,0.000000,FALSE,53,Read: /home/lvuser/scripts/auto_53.bee,File good!,DRIVE_STRAIGHT_NAVX_RAMPARTS 200 5000 10,DRIVE_STRAIGHT_NAVX_RAMPARTS,0.000000,0.000000,-0.033000
03:42:17.061 PM 04/16/2016,Autonomous Enabled,10,FALSE,0,NO ERROR,-0.562500,-21.855116,0.547008,21.964199,FALSE,FALSE,TRUE,TRUE,FALSE,FALSE,Disabled,0.000000,0.000000,0.000000,TRUE,0.131760,-0.025009,0.000000,-0.094131,-0.004608,0.000000,-0.006000,-0.017000,-0.004000,1.140000,-0.360000,3.620000,-0.298848,Hold,0.219727,0.000000,Hold,-189.000000,2.000000,LowGoal,1717.500000,-1818.181818,Speed,1755.000000,-1818.181818,Speed,Off,Off,0.000000,FALSE,53,Read: /home/lvuser/scripts/auto_53.bee,File good!,DRIVE_STRAIGHT_NAVX_RAMPARTS 200 5000 10,DRIVE_STRAIGHT_NAVX_RAMPARTS,0.000000,0.000000,-0.033000
03:42:17.161 PM 04/16/2016,Autonomous Enabled,9,FALSE,0,NO ERROR,-0.562500,-26.359605,0.541254,26.475105,TRUE,FALSE,TRUE,TRUE,FALSE,FALSE,Disabled,0.000000,0.000000,0.000000,TRUE,0.125244,-0.024994,0.000000,-0.157669,0.014206,0.000000,-0.005000,-0.012000,0.002000,1.180000,-0.490000,2.740000,-0.419954,Hold,0.219971,0.000000,Hold,-189.000000,2.000000,LowGoal,1702.500000,-1818.181818,Speed,1747.500000,-1818.181818,Speed,Off,Off,0.000000,FALSE,53,Read: /home/lvuser/scripts/auto_53.bee,File good!,DRIVE_STRAIGHT_NAVX_RAMPARTS 200 5000 10,DRIVE_STRAIGHT_NAVX_RAMPARTS,0.000000,0.000000,-0.033000
03:42:17.261 PM 04/16/2016,Autonomous Enabled,10,FALSE,0,NO ERROR,-0.562500,-30.966761,0.537054,31.165677,TRUE,FALSE,TRUE,TRUE,FALSE,FALSE,Disabled,0.000000,0.000000,0.000000,TRUE,0.116364,-0.023483,0.000000,-0.195038,0.033737,0.000000,-0.086000,0.016000,0.036000,1.170000,-0.630000,2.600000,-0.576449,Hold,0.219971,0.000000,Hold,-188.000000,2.000000,LowGoal,1710.000000,-1818.181818,Speed,1740.000000,-1818.181818,Speed,Off,Off,0.000000,FALSE,53,Read: /home/lvuser/scripts/auto_53.bee,File good!,DRIVE_STRAIGHT_NAVX_RAMPARTS 200 5000 10,DRIVE_STRAIGHT_NAVX_RAMPARTS,0.000000,0.000000,-0.033000
03:42:17.361 PM 04/16/2016,Autonomous Enabled,10,FALSE,0,NO ERROR,-0.562500,-35.663750,0.538962,35.817750,TRUE,FALSE,TRUE,TRUE,FALSE,FALSE,Disabled,0.000000,0.000000,0.000000,TRUE,0.104843,-0.022751,0.000000,-0.246368,0.008850,0.000000,-0.045000,-0.090000,-0.091000,1.170000,-0.660000,2.460000,-0.633314,Hold,0.219971,0.000000,Hold,-187.000000,2.000000,LowGoal,1725.000000,-1818.181818,Speed,1740.000000,-1818.181818,Speed,Off,Off,0.000000,FALSE,53,Read: /home/lvuser/scripts/auto_53.bee,File good!,DRIVE_STRAIGHT_NAVX_RAMPARTS 200 5000 10,DRIVE_STRAIGHT_NAVX_RAMPARTS,0.000000,0.000000,-0.033000
03:42:17.461 PM 04/16/2016,Autonomous Enabled,9,FALSE,0,NO ERROR,-0.562500,-40.174656,0.541254,40.335072,TRUE,FALSE,TRUE,TRUE,FALSE,FALSE,Disabled,0.000000,0.000000,0.000000,TRUE,0.089600,-0.022385,0.000000,-0.358002,0.018860,0.000000,-0.082000,-0.057000,-0.004000,1.180000,-0.570000,2.270000,-0.547181,Hold,0.219971,0.000000,Hold,-187.000000,2.000000,LowGoal,1717.500000,-1818.181818,Speed,1747.500000,-1818.181818,Speed,Off,Off,0.000000,FALSE,53,Read: /home/lvuser/scripts/auto_53.bee,File good!,DRIVE_STRAIGHT_NAVX_RAMPARTS 200 5000 10,DRIVE_STRAIGHT_NAVX_RAMPARTS,0.000000,0.000000,-0.033000
03:42:17.561 PM 04/16/2016,Autonomous Enabled,9,FALSE,0,NO ERROR,-0.562500,-44.724062,0.544703,44.858812,TRUE,FALSE,TRUE,TRUE,FALSE,FALSE,Disabled,0.000000,0.000000,0.000000,TRUE,0.071426,-0.021103,0.000000,-0.364990,0.039154,0.000000,-0.080000,0.025000,-0.051000,1.250000,-0.460000,2.320000,-0.476526,Hold,0.219971,0.000000,Hold,-187.000000,2.000000,LowGoal,1717.500000,-1818.181818,Speed,1747.500000,-1818.181818,Speed,Off,Off,0.000000,FALSE,53,Read: /home/lvuser/scripts/auto_53.bee,File good!,DRIVE_STRAIGHT_NAVX_RAMPARTS 200 5000 10,DRIVE_STRAIGHT_NAVX_RAMPARTS,0.000000,0.000000,-0.033000
03:42:17.661 PM 04/16/2016,Autonomous Enabled,10,FALSE,0,NO ERROR,-0.562500,-49.350468,0.538198,49.498051,FALSE,FALSE,TRUE,TRUE,FALSE,FALSE,Disabled,0.000000,0.000000,0.000000,TRUE,0.051804,-0.019012,0.000000,-0.407715,0.037704,0.000000,-0.138000,-0.066000,-0.273000,1.040000,-0.580000,4.730000,-0.489453,Hold,0.219971,0.000000,Hold,-186.000000,2.000000,LowGoal,1717.500000,-1818.181818,Speed,1747.500000,-1818.181818,Speed,Off,Off,0.000000,FALSE,53,Read: /home/lvuser/scripts/auto_53.bee,File good!,DRIVE_STRAIGHT_NAVX_RAMPARTS 200 5000 10,DRIVE_STRAIGHT_NAVX_RAMPARTS,0.000000,0.000000,-0.033000
03:42:17.762 PM 04/16/2016,Autonomous Enabled,10,FALSE,0,NO ERROR,-0.562500,-53.790791,0.534770,54.073124,FALSE,FALSE,TRUE,TRUE,FALSE,FALSE,Disabled,0.000000,0.000000,0.000000,TRUE,0.020493,-0.017258,0.000000,-0.573105,0.040009,0.000000,-0.172000,0.034000,-0.084000,1.030000,-0.670000,6.500000,-0.677458,Hold,0.219971,0.000000,Hold,-186.000000,2.000000,LowGoal,1717.500000,-1818.181818,Speed,1740.000000,-1818.181818,Speed,Off,Off,0.000000,FALSE,53,Read: /home/lvuser/scripts/auto_53.bee,File good!,DRIVE_STRAIGHT_NAVX_RAMPARTS 200 5000 10,DRIVE_STRAIGHT_NAVX_RAMPARTS,0.000000,0.000000,-0.033000
03:42:17.862 PM 04/16/2016,Autonomous Enabled,11,FALSE,0,NO ERROR,-0.562500,-58.192614,0.533250,58.410780,FALSE,FALSE,TRUE,TRUE,FALSE,FALSE,Disabled,0.000000,0.000000,0.000000,TRUE,-0.011063,-0.014008,0.000000,-0.654968,0.081177,0.000000,-0.185000,0.036000,0.037000,1.050000,-0.760000,9.410000,-0.854288,Hold,0.219971,0.000000,Hold,-186.000000,2.000000,LowGoal,1717.500000,-1818.181818,Speed,1740.000000,-1818.181818,Speed,Off,Off,0.000000,FALSE,53,Read: /home/lvuser/scripts/auto_53.bee,File good!,DRIVE_STRAIGHT_NAVX_RAMPARTS 200 5000 10,DRIVE_STRAIGHT_NAVX_RAMPARTS,0.000000,0.000000,-0.033000
03:42:17.962 PM 04/16/2016,Autonomous Enabled,9,FALSE,0,NO ERROR,-0.562500,-62.267188,0.535151,62.434021,FALSE,FALSE,TRUE,TRUE,FALSE,FALSE,Disabled,0.000000,0.000000,0.000000,TRUE,-0.046463,-0.010559,0.000000,-0.707657,0.050156,0.000000,0.037000,-0.156000,-0.267000,1.080000,-0.770000,10.000000,-0.875308,Hold,0.219971,0.000000,Hold,-186.000000,2.000000,LowGoal,1710.000000,-1818.181818,Speed,1740.000000,-1818.181818,Speed,Off,Off,0.000000,FALSE,53,Read: /home/lvuser/scripts/auto_53.bee,File good!,DRIVE_STRAIGHT_NAVX_RAMPARTS 200 5000 10,DRIVE_STRAIGHT_NAVX_RAMPARTS,0.000000,0.000000,-0.033000
03:42:18.062 PM 04/16/2016,Autonomous Enabled,10,FALSE,0,NO ERROR,-0.562500,-66.335345,0.531733,66.393095,FALSE,FALSE,TRUE,TRUE,FALSE,FALSE,Disabled,0.000000,0.000000,0.000000,TRUE,-0.087280,-0.007950,0.000000,-0.889526,0.055695,0.000000,-0.058000,-0.002000,-0.391000,1.030000,-0.640000,14.870000,-0.683699,Hold,0.219971,0.000000,Hold,-185.000000,2.000000,LowGoal,1717.500000,-1818.181818,Speed,1740.000000,-1818.181818,Speed,Off,Off,0.000000,FALSE,53,Read: /home/lvuser/scripts/auto_53.bee,File good!,DRIVE_STRAIGHT_NAVX_RAMPARTS 200 5000 10,DRIVE_STRAIGHT_NAVX_RAMPARTS,0.000000,0.000000,-0.033000
03:42:18.162 PM 04/16/2016,Autonomous Enabled,9,FALSE,0,NO ERROR,-0.562500,-70.082669,0.534390,70.384252,FALSE,FALSE,TRUE,TRUE,FALSE,FALSE,Disabled,0.000000,0.000000,0.000000,TRUE,-0.133209,-0.006119,0.000000,-0.956940,0.051331,0.000000,-0.069000,0.125000,-0.082000,0.700000,-0.790000,18.700000,-1.139404,Hold,0.220215,0.000000,Hold,-185.000000,2.000000,LowGoal,1710.000000,-1818.181818,Speed,1740.000000,-1818.181818,Speed,Off,Off,0.000000,FALSE,53,Read: /home/lvuser/scripts/auto_53.bee,File good!,DRIVE_STRAIGHT_NAVX_RAMPARTS 200 5000 10,DRIVE_STRAIGHT_NAVX_RAMPARTS,0.000000,0.000000,-0.033000
03:42:18.262 PM 04/16/2016,Autonomous Enabled,9,FALSE,0,NO ERROR,-0.562500,-73.021496,0.535151,73.213995,FALSE,FALSE,TRUE,TRUE,FALSE,FALSE,Disabled,0.000000,0.000000,0.000000,TRUE,-0.180344,-0.001541,0.000000,-0.886292,0.071747,0.000000,0.172000,-0.005000,0.380000,0.920000,-0.660000,15.190000,-0.840353,Hold,0.220215,0.000000,Hold,-185.000000,2.000000,LowGoal,1710.000000,-1818.181818,Speed,1740.000000,-1818.181818,Speed,Off,Off,0.000000,FALSE,53,Read: /home/lvuser/scripts/auto_53.bee,File good!,DRIVE_STRAIGHT_NAVX_RAMPARTS 200 5000 10,DRIVE_STRAIGHT_NAVX_RAMPARTS,0.000000,0.000000,-0.033000
03:42:18.363 PM 04/16/2016,Autonomous Enabled,10,FALSE,0,NO ERROR,-0.562500,-76.589154,0.573867,76.409488,FALSE,FALSE,TRUE,TRUE,FALSE,FALSE,Disabled,0.000000,0.000000,0.000000,TRUE,-0.221283,-0.000275,0.000000,-0.863205,0.014297,0.000000,-0.606000,0.203000,0.634000,1.640000,0.290000,9.600000,-0.175002,Hold,0.220215,0.000000,Hold,-184.000000,2.000000,LowGoal,1702.500000,-1818.181818,Speed,1732.500000,-1818.181818,Speed,Off,Off,0.000000,FALSE,53,Read: /home/lvuser/scripts/auto_53.bee,File good!,DRIVE_STRAIGHT_NAVX_RAMPARTS 200 5000 10,DRIVE_STRAIGHT_NAVX_RAMPARTS,0.000000,0.000000,-0.033000
03:42:18.464 PM 04/16/2016,Autonomous Enabled,10,FALSE,0,NO ERROR,-0.562500,-80.240229,0.597745,79.919396,FALSE,FALSE,TRUE,TRUE,FALSE,FALSE,Disabled,0.000000,0.000000,0.000000,TRUE,-0.270004,0.003922,0.000000,-0.870941,0.099075,0.000000,0.073000,-0.057000,-0.993000,2.150000,0.890000,11.790000,0.875202,Hold,0.220215,0.000000,Hold,-184.000000,2.000000,LowGoal,1710.000000,-1818.181818,Speed,1732.500000,-1818.181818,Speed,Off,Off,0.000000,FALSE,53,Read: /home/lvuser/scripts/auto_53.bee,File good!,DRIVE_STRAIGHT_NAVX_RAMPARTS 200 5000 10,DRIVE_STRAIGHT_NAVX_RAMPARTS,0.000000,0.000000,-0.033000
03:42:18.565 PM 04/16/2016,Autonomous Enabled,10,FALSE,0,NO ERROR,-0.562500,-83.987554,0.577023,84.045303,FALSE,FALSE,TRUE,TRUE,FALSE,FALSE,Disabled,0.000000,0.000000,0.000000,TRUE,-0.310913,0.008362,0.000000,-0.842728,0.044739,0.000000,-0.392000,-0.215000,0.955000,2.470000,0.560000,13.910000,0.932971,Hold,0.220459,0.000000,Hold,-184.000000,2.000000,LowGoal,1725.000000,-1818.181818,Speed,1740.000000,-1818.181818,Speed,Off,Off,0.000000,FALSE,53,Read: /home/lvuser/scripts/auto_53.bee,File good!,DRIVE_STRAIGHT_NAVX_RAMPARTS 200 5000 10,DRIVE_STRAIGHT_NAVX_RAMPARTS,0.000000,0.000000,-0.033000
03:42:18.665 PM 04/16/2016,Autonomous Enabled,10,FALSE,0,NO ERROR,-0.562500,-87.234379,0.542786,87.555212,FALSE,FALSE,TRUE,TRUE,FALSE,FALSE,Disabled,0.000000,0.000000,0.000000,TRUE,-0.353149,0.009750,0.000000,-0.715836,0.086212,0.000000,0.059000,-0.070000,-0.996000,4.960000,-0.700000,11.090000,0.322368,Hold,0.343262,0.000000,Hold,-184.000000,2.000000,LowGoal,1717.500000,-1818.181818,Speed,1740.000000,-1818.181818,Speed,Off,Off,0.000000,FALSE,53,Read: /home/lvuser/scripts/auto_53.bee,File good!,DRIVE_STRAIGHT_NAVX_RAMPARTS 200 5000 10,DRIVE_STRAIGHT_NAVX_RAMPARTS,0.000000,0.000000,-0.033000
03:42:18.764 PM 04/16/2016,Autonomous Enabled,9,FALSE,0,NO ERROR,-0.562500,-91.289703,0.585347,90.866204,FALSE,FALSE,TRUE,TRUE,FALSE,FALSE,Disabled,0.000000,0.000000,0.000000,TRUE,-0.388123,0.015747,0.000000,-0.648956,0.235809,0.000000,-0.214000,-0.116000,0.082000,4.330000,0.900000,4.430000,1.217530,Hold,0.460693,0.000000,Hold,-183.000000,2.000000,LowGoal,1710.000000,-1818.181818,Speed,1747.500000,-1818.181818,Speed,Off,Off,0.000000,FALSE,53,Read: /home/lvuser/scripts/auto_53.bee,File good!,DRIVE_STRAIGHT_NAVX_RAMPARTS 200 5000 10,DRIVE_STRAIGHT_NAVX_RAMPARTS,0.000000,0.000000,-0.033000
03:42:18.866 PM 04/16/2016,Autonomous Enabled,9,FALSE,0,NO ERROR,-0.562500,-95.319360,0.606623,94.652029,FALSE,FALSE,TRUE,TRUE,FALSE,FALSE,Disabled,0.000000,0.000000,0.000000,TRUE,-0.417282,0.023087,0.000000,-0.532288,-0.003250,0.000000,-0.108000,-0.472000,0.151000,5.190000,0.860000,-2.770000,2.246097,Hold,0.460693,0.000000,Hold,-183.000000,2.000000,LowGoal,1702.500000,-1818.181818,Speed,1740.000000,-1818.181818,Speed,Off,Off,0.000000,FALSE,53,Read: /home/lvuser/scripts/auto_53.bee,File good!,DRIVE_STRAIGHT_NAVX_RAMPARTS 200 5000 10,DRIVE_STRAIGHT_NAVX_RAMPARTS,0.000000,0.000000,-0.033000
03:42:18.966 PM 04/16/2016,Autonomous Enabled,10,FALSE,0,NO ERROR,-0.562500,-99.130852,0.563280,98.777936,FALSE,FALSE,TRUE,TRUE,FALSE,FALSE,Disabled,0.000000,0.000000,0.000000,TRUE,-0.444016,0.021652,0.000000,-0.334564,0.179092,0.000000,0.169000,0.650000,0.316000,1.960000,0.020000,-13.610000,1.796650,Hold,0.460693,0.000000,Hold,-182.000000,2.000000,LowGoal,1695.000000,-1818.181818,Speed,1725.000000,-1818.181818,Speed,Off,Off,0.000000,FALSE,53,Read: /home/lvuser/scripts/auto_53.bee,File good!,DRIVE_STRAIGHT_NAVX_RAMPARTS 200 5000 10,DRIVE_STRAIGHT_NAVX_RAMPARTS,0.000000,0.000000,-0.033000
03:42:19.066 PM 04/16/2016,Autonomous Enabled,11,FALSE,0,NO ERROR,-0.562500,-104.488756,0.560941,104.007507,FALSE,FALSE,TRUE,TRUE,FALSE,FALSE,Disabled,0.000000,0.000000,0.000000,TRUE,-0.449783,0.032349,0.000000,-0.051575,0.104599,0.000000,-0.354000,0.016000,-0.361000,1.220000,0.020000,-12.720000,1.753643,Hold,0.668213,0.000000,Hold,-181.000000,2.000000,LowGoal,1710.000000,-1818.181818,Speed,1732.500000,-1818.181818,Speed,Off,Off,0.000000,FALSE,53,Read: /home/lvuser/scripts/auto_53.bee,File good!,DRIVE_STRAIGHT_NAVX_RAMPARTS 200 5000 10,DRIVE_STRAIGHT_NAVX_RAMPARTS,0.000000,0.000000,-0.033000
03:42:19.167 PM 04/16/2016,Autonomous Enabled,11,FALSE,0,NO ERROR,-0.562500,-110.706491,0.559773,110.032743,FALSE,FALSE,TRUE,TRUE,FALSE,FALSE,Disabled,0.000000,0.000000,0.000000,TRUE,-0.460785,0.036469,0.000000,-0.293976,0.063324,0.000000,-0.274000,0.079000,-0.579000,1.490000,-0.070000,-6.680000,1.659330,Hold,1.040771,0.000000,Hold,-181.000000,2.000000,LowGoal,1732.500000,-1818.181818,Speed,1762.500000,-1818.181818,Speed,Off,Off,0.000000,FALSE,53,Read: /home/lvuser/scripts/auto_53.bee,File good!,DRIVE_STRAIGHT_NAVX_RAMPARTS 200 5000 10,DRIVE_STRAIGHT_NAVX_RAMPARTS,0.000000,0.000000,-0.033000
03:42:19.267 PM 04/16/2016,Autonomous Enabled,6,FALSE,0,NO ERROR,-0.562500,-116.327478,0.552792,115.775646,FALSE,FALSE,TRUE,TRUE,FALSE,FALSE,Disabled,0.000000,0.000000,0.000000,TRUE,-0.484116,0.042465,0.000000,-0.579987,0.149994,0.000000,0.360000,0.233000,-0.095000,1.590000,-0.250000,-3.200000,1.382421,Hold,0.785400,0.000000,Hold,-181.000000,2.000000,LowGoal,1755.000000,-1818.181818,Speed,1770.000000,-1818.181818,Speed,Off,Off,0.000000,FALSE,53,Read: /home/lvuser/scripts/auto_53.bee,File good!,DRIVE_STRAIGHT_NAVX_RAMPARTS 200 5000 10,DRIVE_STRAIGHT_NAVX_RAMPARTS,0.000000,0.000000,-0.033000
03:42:19.367 PM 04/16/2016,Autonomous Enabled,9,FALSE,0,NO ERROR,-0.562500,-0.898331,0.562500,0.975331,FALSE,FALSE,TRUE,TRUE,FALSE,FALSE,Disabled,0.000000,0.000000,0.000000,TRUE,-0.510727,0.057877,0.000000,-0.388824,0.304031,0.000000,-1.383000,-0.166000,0.956000,1.590000,-0.250000,-3.200000,1.459132,Hold,2.658936,0.000000,Hold,-176.000000,2.000000,LowGoal,1747.500000,-1818.181818,Speed,1762.500000,-1818.181818,Speed,Off,Off,0.000000,FALSE,53,Read: /home/lvuser/scripts/auto_53.bee,File good!,DRIVE_STRAIGHT_TARGET 12 0 10000 75,DRIVE_STRAIGHT_TARGET,0.000000,0.000000,-0.033000
03:42:19.467 PM 04/16/2016,Autonomous Enabled,10,FALSE,0,NO ERROR,-0.562500,-5.723653,0.562500,5.851986,TRUE,FALSE,TRUE,TRUE,FALSE,FALSE,Disabled,0.000000,0.000000,0.000000,TRUE,-0.549210,0.073364,0.000000,-0.819778,0.309387,0.000000,0.143000,0.052000,-0.941000,1.580000,-0.210000,1.670000,1.101794,Hold,1.487305,0.000000,Hold,-175.000000,2.000000,LowGoal,1747.500000,-1818.181818,Speed,1755.000000,-1818.181818,Speed,Off,Off,0.000000,FALSE,53,Read: /home/lvuser/scripts/auto_53.bee,File good!,DRIVE_STRAIGHT_TARGET 12 0 10000 75,DRIVE_STRAIGHT_TARGET,0.000000,0.000000,-0.033000
03:42:19.568 PM 04/16/2016,Autonomous Enabled,10,FALSE,0,NO ERROR,-0.562500,-10.196059,0.562500,10.240976,TRUE,FALSE,TRUE,TRUE,FALSE,FALSE,Disabled,0.000000,0.000000,0.000000,TRUE,-0.588867,0.089050,0.000000,-0.806229,0.311401,0.000000,0.135000,-0.049000,-0.219000,1.640000,-0.450000,0.220000,1.099202,Hold,1.243164,0.000000,Hold,-174.000000,2.000000,LowGoal,1732.500000,-1818.181818,Speed,1747.500000,-1818.181818,Speed,Off,Off,0.000000,FALSE,53,Read: /home/lvuser/scripts/auto_53.bee,File good!,DRIVE_STRAIGHT_TARGET 12 0 10000 75,DRIVE_STRAIGHT_TARGET,0.000000,0.000000,-0.033000
03:42:19.669 PM 04/16/2016,Autonomous Enabled,11,FALSE,0,NO ERROR,0.000000,-14.431050,-0.000000,14.649216,TRUE,FALSE,TRUE,TRUE,FALSE,TRUE,Disabled,0.000000,0.000000,0.000000,TRUE,-0.626572,0.105606,0.000000,-0.762039,0.354858,0.000000,-0.112000,0.050000,0.703000,1.680000,-0.650000,0.960000,0.939292,Hold,1.213379,50.000000,Hold,-174.000000,70451.200000,LowGoal,1725.000000,-3272.727273,Speed,1740.000000,-3272.727273,Speed,Off,Off,0.000000,FALSE,53,Read: /home/lvuser/scripts/auto_53.bee,File good!,SEARCH_FOR_GOAL,SEARCH_FOR_GOAL,0.000000,0.000000,-0.033000
03:42:19.770 PM 04/16/2016,Autonomous Enabled,11,FALSE,0,NO ERROR,0.000000,-16.304712,-0.000000,16.497211,FALSE,FALSE,TRUE,TRUE,FALSE,TRUE,Disabled,0.000000,0.000000,0.000000,TRUE,-0.683289,0.122604,0.000000,-1.424744,0.312988,0.000000,-0.405000,0.021000,-0.004000,1.830000,-0.510000,-4.840000,1.043932,Hold,2.916016,50.000000,Hold,-6924.000000,70451.200000,LowGoal,1800.000000,-3272.727273,Speed,1777.500000,-3272.727273,Speed,Off,Off,0.000000,FALSE,53,Read: /home/lvuser/scripts/auto_53.bee,File good!,SEARCH_FOR_GOAL,SEARCH_FOR_GOAL,0.000000,0.000000,-0.033000
03:42:19.871 PM 04/16/2016,Autonomous Enabled,12,FALSE,0,NO ERROR,0.000000,-17.312126,-0.000000,17.408376,FALSE,FALSE,TRUE,TRUE,FALSE,TRUE,Disabled,0.000000,0.000000,0.000000,TRUE,-0.763870,0.137848,0.000000,-1.716843,0.295074,0.000000,-0.162000,0.063000,0.848000,1.650000,-0.450000,-3.700000,1.027679,Hold,7.240479,50.000000,Hold,-25365.000000,70451.200000,LowGoal,2077.500000,-3272.727273,Speed,2107.500000,-3272.727273,Speed,Off,Off,0.000000,FALSE,53,Read: /home/lvuser/scripts/auto_53.bee,File good!,SEARCH_FOR_GOAL,SEARCH_FOR_GOAL,0.000000,0.000000,-0.033000
03:42:19.973 PM 04/16/2016,Autonomous Enabled,11,FALSE,0,NO ERROR,0.000000,-17.485376,-0.000000,17.588042,FALSE,FALSE,TRUE,TRUE,FALSE,TRUE,Disabled,0.000000,0.000000,0.000000,TRUE,-0.854111,0.154144,0.000000,-1.843765,0.344238,0.000000,0.104000,-0.054000,-0.169000,1.650000,-0.450000,-3.700000,0.855025,Hold,10.531006,50.000000,Hold,-25365.000000,70451.200000,LowGoal,2430.000000,-3272.727273,Speed,2482.500000,-3272.727273,Speed,Off,Off,0.000000,FALSE,53,Read: /home/lvuser/scripts/auto_53.bee,File good!,SEARCH_FOR_GOAL,SEARCH_FOR_GOAL,0.000000,0.000000,-0.033000
03:42:20.073 PM 04/16/2016,Autonomous Enabled,11,FALSE,0,NO ERROR,0.000000,-17.485376,-0.000000,17.588042,FALSE,FALSE,TRUE,TRUE,FALSE,TRUE,Disabled,0.000000,0.000000,0.000000,TRUE,-0.944748,0.170334,0.000000,-1.788498,0.306564,0.000000,-0.076000,-0.002000,-0.358000,1.790000,-0.630000,-3.480000,0.839612,Hold,14.389893,50.000000,Hold,-45652.000000,70451.200000,LowGoal,2730.000000,-3272.727273,Speed,2730.000000,-3272.727273,Speed,Off,Off,0.000000,FALSE,53,Read: /home/lvuser/scripts/auto_53.bee,File good!,SEARCH_FOR_GOAL,SEARCH_FOR_GOAL,0.000000,0.000000,-0.033000
03:42:20.174 PM 04/16/2016,Autonomous Enabled,9,FALSE,0,NO ERROR,0.000000,-17.453293,-0.000000,17.575209,FALSE,FALSE,TRUE,TRUE,FALSE,TRUE,Disabled,0.000000,0.000000,0.000000,TRUE,-1.050842,0.184906,0.000000,-1.733368,0.000000,0.000000,-0.076000,-0.002000,-0.358000,1.650000,-0.590000,-3.170000,0.892363,Hold,18.759766,50.000000,Hold,-64212.000000,70451.200000,LowGoal,2977.500000,-3272.727273,Speed,2985.000000,-3272.727273,Speed,Off,Off,0.000000,FALSE,53,Read: /home/lvuser/scripts/auto_53.bee,File good!,SEARCH_FOR_GOAL,SEARCH_FOR_GOAL,0.000000,0.000000,-0.033000
03:42:20.275 PM 04/16/2016,Autonomous Enabled,8,FALSE,0,NO ERROR,0.000000,-17.491792,-0.000000,17.588042,FALSE,FALSE,TRUE,TRUE,FALSE,TRUE,Disabled,0.000000,0.000000,0.000000,TRUE,-1.131577,0.183472,0.000000,-1.531647,-0.040878,0.000000,0.268000,-0.074000,-0.076000,1.650000,-0.590000,-3.170000,0.970708,Hold,18.759766,50.000000,Hold,-71793.000000,70451.200000,LowGoal,3165.000000,-3272.727273,Speed,3187.500000,-3272.727273,Speed,Off,Off,0.000000,FALSE,53,Read: /home/lvuser/scripts/auto_53.bee,File good!,SEARCH_FOR_GOAL,SEARCH_FOR_GOAL,0.000000,0.000000,-0.033000
03:42:20.376 PM 04/16/2016,Autonomous Enabled,10,FALSE,0,NO ERROR,0.000000,-17.600876,-0.000000,17.697125,TRUE,FALSE,TRUE,TRUE,FALSE,TRUE,Disabled,0.000000,0.000000,0.000000,TRUE,-1.210129,0.180695,0.000000,-1.598053,-0.051743,0.000000,0.055000,-0.067000,-0.255000,1.550000,-0.550000,-2.750000,0.934066,Hold,24.003662,50.000000,Hold,-70618.000000,70451.200000,LowGoal,3210.000000,-3272.727273,Speed,3255.000000,-3272.727273,Speed,Off,Off,0.000000,FALSE,53,Read: /home/lvuser/scripts/auto_53.bee,File good!,SEARCH_FOR_GOAL,SEARCH_FOR_GOAL,0.000000,0.000000,-0.033000
03:42:20.477 PM 04/16/2016,Autonomous Enabled,9,FALSE,0,NO ERROR,0.000000,-17.555959,-0.000000,17.671459,TRUE,FALSE,TRUE,TRUE,FALSE,TRUE,Disabled,0.000000,0.000000,0.000000,TRUE,-1.289368,0.179764,0.000000,-1.580231,-0.003357,0.000000,-0.017000,0.044000,-0.236000,1.580000,-0.620000,-2.490000,0.865580,Hold,29.364258,50.000000,Hold,-70877.000000,70451.200000,LowGoal,3202.500000,-3272.727273,Speed,3247.500000,-3272.727273,Speed,Off,Off,0.000000,FALSE,53,Read: /home/lvuser/scripts/auto_53.bee,File good!,SEARCH_FOR_GOAL,SEARCH_FOR_GOAL,0.000000,0.000000,-0.033000
03:42:20.577 PM 04/16/2016,Autonomous Enabled,10,FALSE,0,NO ERROR,0.000000,-17.549542,-0.000000,17.588042,TRUE,FALSE,TRUE,TRUE,FALSE,TRUE,Disabled,0.000000,0.000000,0.000000,TRUE,-1.365372,0.179459,0.000000,-1.465256,-0.017456,0.000000,0.244000,0.004000,-0.087000,1.650000,-0.560000,-2.250000,0.946628,Hold,37.522461,50.000000,Hold,-71055.000000,70451.200000,LowGoal,3180.000000,-3272.727273,Speed,3225.000000,-3272.727273,Speed,Off,Off,0.000000,FALSE,53,Read: /home/lvuser/scripts/auto_53.bee,File good!,SEARCH_FOR_GOAL,SEARCH_FOR_GOAL,0.000000,0.000000,-0.033000
03:42:20.677 PM 04/16/2016,Autonomous Enabled,9,FALSE,0,NO ERROR,0.000000,-17.600876,-0.000000,17.697125,TRUE,FALSE,TRUE,TRUE,FALSE,TRUE,Disabled,0.000000,0.000000,0.000000,TRUE,-1.433044,0.179230,0.000000,-1.320511,0.004364,0.000000,0.261000,0.046000,0.150000,1.550000,-0.530000,-2.280000,0.998782,Hold,47.793213,50.000000,Hold,-71055.000000,70451.200000,LowGoal,3180.000000,-3272.727273,Speed,3225.000000,-3272.727273,Speed,Off,Off,0.000000,FALSE,53,Read: /home/lvuser/scripts/auto_53.bee,File good!,SEARCH_FOR_GOAL,SEARCH_FOR_GOAL,0.000000,0.000000,-0.033000
03:42:20.777 PM 04/16/2016,Autonomous Enabled,9,FALSE,0,NO ERROR,0.000000,-17.665042,-0.000000,17.748458,TRUE,FALSE,TRUE,TRUE,FALSE,TRUE,Disabled,0.000000,0.000000,0.000000,TRUE,-1.503799,0.180023,0.000000,-1.500809,0.025253,0.000000,-0.072000,-0.140000,-0.145000,1.590000,-0.510000,-2.340000,1.010962,Hold,54.966553,50.000000,Hold,-70497.000000,70451.200000,LowGoal,3195.000000,-3272.727273,Speed,3240.000000,-3272.727273,Speed,Off,Off,0.000000,FALSE,53,Read: /home/lvuser/scripts/auto_53.bee,File good!,SEARCH_FOR_GOAL,SEARCH_FOR_GOAL,0.000000,0.000000,-0.033000
03:42:20.878 PM 04/16/2016,Autonomous Enabled,9,FALSE,0,NO ERROR,0.000000,-17.665042,-0.000000,17.748458,TRUE,FALSE,TRUE,TRUE,FALSE,TRUE,Disabled,0.000000,0.000000,0.000000,TRUE,-1.578323,0.180710,0.000000,-1.460312,-0.006927,0.000000,-0.027000,0.137000,-0.191000,1.590000,-0.510000,-2.340000,0.968392,Hold,56.321533,50.000000,Hold,-70551.000000,70451.200000,LowGoal,3195.000000,-3272.727273,Speed,3247.500000,-3272.727273,Speed,Off,Off,0.000000,FALSE,53,Read: /home/lvuser/scripts/auto_53.bee,File good!,SEARCH_FOR_GOAL,SEARCH_FOR_GOAL,0.000000,0.000000,-0.033000
03:42:20.978 PM 04/16/2016,Autonomous Enabled,10,FALSE,0,NO ERROR,0.000000,-17.665042,-0.000000,17.748458,TRUE,FALSE,TRUE,TRUE,FALSE,TRUE,Disabled,0.000000,0.000000,0.000000,TRUE,-1.578323,0.180710,0.000000,-1.460312,-0.006927,0.000000,0.018000,-0.078000,0.070000,1.560000,-0.540000,-1.940000,0.967297,Hold,56.321533,50.000000,Hold,-70551.000000,70451.200000,LowGoal,3195.000000,-3272.727273,Speed,3247.500000,-3272.727273,Speed,Off,Off,0.000000,FALSE,53,Read: /home/lvuser/scripts/auto_53.bee,File good!,SEARCH_FOR_GOAL,SEARCH_FOR_GOAL,0.000000,0.000000,-0.033000
03:42:21.079 PM 04/16/2016,Autonomous Enabled,12,FALSE,0,NO ERROR,0.000000,-17.671459,-0.000000,17.748458,TRUE,FALSE,TRUE,TRUE,FALSE,TRUE,Disabled,0.000000,0.000000,0.000000,TRUE,-1.666748,0.180740,0.000000,-1.488785,0.000122,0.000000,0.052000,0.005000,0.012000,1.570000,-0.540000,-1.820000,0.960429,Hold,56.315918,50.000000,Hold,-70495.000000,70451.200000,LowGoal,3195.000000,-3272.727273,Speed,3247.500000,-3272.727273,Speed,Off,Off,0.000000,FALSE,53,Read: /home/lvuser/scripts/auto_53.bee,File good!,SEARCH_FOR_GOAL,SEARCH_FOR_GOAL,0.000000,0.000000,-0.033000
03:42:21.181 PM 04/16/2016,Autonomous Enabled,10,FALSE,0,NO ERROR,0.000000,-17.671459,-0.000000,17.748458,TRUE,FALSE,TRUE,TRUE,FALSE,TRUE,Disabled,0.000000,0.000000,0.000000,TRUE,-1.741547,0.179871,0.000000,-1.498138,-0.036179,0.000000,0.092000,-0.111000,0.057000,1.580000,-0.550000,-1.750000,0.956281,Hold,56.282959,50.000000,Hold,-70520.000000,70451.200000,LowGoal,3195.000000,-3272.727273,Speed,3255.000000,-3272.727273,Speed,Off,Off,0.000000,FALSE,53,Read: /home/lvuser/scripts/auto_53.bee,File good!,SEARCH_FOR_GOAL,SEARCH_FOR_GOAL,0.000000,0.000000,-0.033000
03:42:21.285 PM 04/16/2016,Autonomous Enabled,10,FALSE,0,NO ERROR,0.000000,-17.677875,-0.000000,17.748458,TRUE,FALSE,TRUE,TRUE,FALSE,TRUE,Disabled,0.000000,0.000000,0.000000,TRUE,-1.885071,0.177460,0.000000,-1.392929,0.039001,0.000000,0.025000,0.004000,-0.035000,1.550000,-0.560000,-1.610000,0.959141,Hold,56.245850,50.000000,Hold,-70520.000000,70451.200000,LowGoal,3195.000000,-3272.727273,Speed,3255.000000,-3272.727273,Speed,Off,Off,0.000000,FALSE,53,Read: /home/lvuser/scripts/auto_53.bee,File good!,SEARCH_FOR_GOAL,SEARCH_FOR_GOAL,0.000000,0.000000,-0.033000
03:42:21.387 PM 04/16/2016,Autonomous Enabled,12,FALSE,0,NO ERROR,0.000000,-17.677875,-0.000000,17.748458,TRUE,FALSE,TRUE,TRUE,FALSE,TRUE,Disabled,0.000000,0.000000,0.000000,TRUE,-1.954880,0.180618,0.000000,-1.384979,0.058655,0.000000,0.015000,0.132000,-0.085000,1.560000,-0.560000,-1.500000,0.970371,Hold,56.241699,50.000000,Hold,-70519.000000,70451.200000,LowGoal,3195.000000,-3272.727273,Speed,3255.000000,-3272.727273,Speed,Off,Off,0.000000,FALSE,53,Read: /home/lvuser/scripts/auto_53.bee,File good!,SEARCH_FOR_GOAL,SEARCH_FOR_GOAL,0.000000,0.000000,-0.033000
03:42:21.488 PM 04/16/2016,Autonomous Enabled,11,FALSE,0,NO ERROR,0.000000,-17.677875,-0.000000,17.748458,TRUE,FALSE,TRUE,TRUE,FALSE,TRUE,Disabled,0.000000,0.000000,0.000000,TRUE,-2.020142,0.182617,0.000000,-1.258514,0.037933,0.000000,0.164000,-0.133000,0.128000,1.550000,-0.560000,-1.420000,0.975831,Hold,56.241455,50.000000,Hold,-70519.000000,70451.200000,LowGoal,3202.500000,-3272.727273,Speed,3255.000000,-3272.727273,Speed,Off,Off,0.000000,FALSE,53,Read: /home/lvuser/scripts/auto_53.bee,File good!,SEARCH_FOR_GOAL,SEARCH_FOR_GOAL,0.000000,0.000000,-0.033000
03:42:21.590 PM 04/16/2016,Autonomous Enabled,11,FALSE,0,NO ERROR,0.693866,-17.677875,0.693866,17.748458,TRUE,FALSE,TRUE,TRUE,FALSE,TRUE,PID,-0.753125,30.658875,-31.208875,TRUE,-2.081116,0.185211,0.000000,-1.216888,0.075775,0.000000,0.103000,-0.033000,-0.057000,1.570000,-0.570000,-1.340000,0.953713,Hold,56.241455,50.000000,Hold,-70519.000000,70451.200000,LowGoal,3195.000000,-3272.727273,Speed,3255.000000,-3272.727273,Speed,Off,Off,0.000000,FALSE,53,Read: /home/lvuser/scripts/auto_53.bee,File good!,SEARCH_FOR_GOAL,SEARCH_FOR_GOAL,0.000000,0.000000,-0.786125
03:42:21.691 PM 04/16/2016,Autonomous Enabled,11,FALSE,0,NO ERROR,0.683492,-15.669463,0.683492,19.923703,TRUE,FALSE,TRUE,TRUE,FALSE,TRUE,PID,-0.753125,30.658875,-31.208875,TRUE,-2.147461,0.181992,0.000000,-1.395920,-0.262756,0.000000,0.039000,0.146000,-0.032000,1.560000,-0.570000,-1.240000,-4.858754,Hold,56.241211,50.000000,Hold,-70519.000000,70451.200000,LowGoal,3187.500000,-3272.727273,Speed,3225.000000,-3272.727273,Speed,Off,Off,0.000000,FALSE,53,Read: /home/lvuser/scripts/auto_53.bee,File good!,SEARCH_FOR_GOAL,SEARCH_FOR_GOAL,0.000000,0.000000,-0.786125
03:42:21.790 PM 04/16/2016,Autonomous Enabled,11,FALSE,0,NO ERROR,0.466299,-12.647220,0.466299,19.923703,TRUE,FALSE,TRUE,TRUE,FALSE,TRUE,PID,-0.753125,30.658875,-31.208875,TRUE,-2.147461,0.181992,0.000000,-1.395920,-0.262756,0.000000,0.204000,-0.199000,0.200000,0.430000,-5.950000,-2.010000,-4.858754,Hold,56.241211,50.000000,Hold,-70522.000000,70451.200000,LowGoal,3120.000000,-3272.727273,Speed,3172.500000,-3272.727273,Speed,Off,Off,0.000000,FALSE,53,Read: /home/lvuser/scripts/auto_53.bee,File good!,SEARCH_FOR_GOAL,SEARCH_FOR_GOAL,0.000000,0.000000,-0.786125
03:42:21.890 PM 04/16/2016,Autonomous Enabled,11,FALSE,0,NO ERROR,0.284607,-12.647220,0.284607,22.958780,TRUE,FALSE,TRUE,TRUE,FALSE,TRUE,PID,-0.753125,30.658875,-31.208875,TRUE,-2.228806,0.161942,0.000000,-1.295837,-0.389023,0.000000,0.172000,-0.180000,0.022000,0.260000,-17.470000,-1.950000,-16.986552,Hold,56.207520,50.000000,Hold,-70522.000000,70451.200000,LowGoal,3135.000000,-3272.727273,Speed,3180.000000,-3272.727273,Speed,Off,Off,0.000000,FALSE,53,Read: /home/lvuser/scripts/auto_53.bee,File good!,SEARCH_FOR_GOAL,SEARCH_FOR_GOAL,0.000000,0.000000,-0.786125
03:42:21.991 PM 04/16/2016,Autonomous Enabled,11,FALSE,0,NO ERROR,-0.231615,-10.093393,-0.231615,25.544690,TRUE,FALSE,TRUE,TRUE,FALSE,TRUE,PID,-0.753125,30.658875,-31.208875,TRUE,-2.288177,0.144974,0.000000,-1.113068,-0.290649,0.000000,0.094000,0.243000,-0.189000,0.600000,-28.650000,-1.350000,-28.637315,Hold,56.207275,50.000000,Hold,-70522.000000,70451.200000,LowGoal,3217.500000,-3272.727273,Speed,3232.500000,-3272.727273,Speed,Off,Off,0.000000,FALSE,53,Read: /home/lvuser/scripts/auto_53.bee,File good!,SEARCH_FOR_GOAL,SEARCH_FOR_GOAL,0.000000,0.000000,-0.786125
03:42:22.092 PM 04/16/2016,Autonomous Enabled,11,FALSE,0,NO ERROR,-0.284771,-8.964062,-0.284771,26.667604,TRUE,FALSE,TRUE,TRUE,FALSE,TRUE,PID,-0.753125,30.658875,-31.208875,TRUE,-2.342209,0.137665,0.000000,-1.076111,-0.047012,0.000000,0.074000,0.172000,0.069000,1.380000,-36.160000,-0.460000,-36.370089,Hold,56.207275,50.000000,Hold,-70522.000000,70451.200000,LowGoal,3240.000000,-3272.727273,Speed,3262.500000,-3272.727273,Speed,Off,Off,0.000000,FALSE,53,Read: /home/lvuser/scripts/auto_53.bee,File good!,SEARCH_FOR_GOAL,SEARCH_FOR_GOAL,0.000000,0.000000,-0.786125
03:42:22.192 PM 04/16/2016,Autonomous Enabled,11,FALSE,0,NO ERROR,-0.240604,-8.964062,-0.240604,26.667604,TRUE,FALSE,TRUE,TRUE,FALSE,TRUE,PID,-0.753125,30.658875,-31.208875,TRUE,-2.392868,0.144516,0.000000,-0.997360,0.236786,0.000000,0.135000,0.035000,0.135000,2.240000,-36.910000,0.430000,-36.889286,Hold,56.207031,50.000000,Hold,-70522.000000,70451.200000,LowGoal,3195.000000,-3272.727273,Speed,3255.000000,-3272.727273,Speed,Off,Off,0.000000,FALSE,53,Read: /home/lvuser/scripts/auto_53.bee,File good!,SEARCH_FOR_GOAL,SEARCH_FOR_GOAL,0.000000,0.000000,-0.786125
03:42:22.293 PM 04/16/2016,Autonomous Enabled,11,FALSE,0,NO ERROR,0.208950,-9.952227,0.208950,25.647357,TRUE,FALSE,TRUE,TRUE,FALSE,TRUE,PID,-0.753125,30.658875,-31.208875,TRUE,-2.442719,0.156891,0.000000,-1.026993,0.246368,0.000000,-0.199000,-0.049000,-0.115000,2.450000,-32.160000,0.040000,-32.645582,Hold,56.171143,50.000000,Hold,-70522.000000,70451.200000,LowGoal,3172.500000,-3272.727273,Speed,3240.000000,-3272.727273,Speed,Off,Off,0.000000,FALSE,53,Read: /home/lvuser/scripts/auto_53.bee,File good!,SEARCH_FOR_GOAL,SEARCH_FOR_GOAL,0.000000,0.000000,-0.786125
03:42:22.393 PM 04/16/2016,Autonomous Enabled,9,FALSE,0,NO ERROR,0.218076,-10.510475,0.218076,25.005692,TRUE,FALSE,TRUE,TRUE,FALSE,TRUE,PID,-0.753125,30.658875,-31.208875,TRUE,-2.495972,0.166077,0.000000,-1.087830,0.127213,0.000000,-0.226000,-0.033000,-0.056000,1.920000,-30.270000,-0.080000,-30.015258,Hold,56.170898,50.000000,Hold,-70522.000000,70451.200000,LowGoal,3187.500000,-3272.727273,Speed,3232.500000,-3272.727273,Speed,Off,Off,0.000000,FALSE,53,Read: /home/lvuser/scripts/auto_53.bee,File good!,SEARCH_FOR_GOAL,SEARCH_FOR_GOAL,0.000000,0.000000,-0.786125
03:42:22.493 PM 04/16/2016,Autonomous Enabled,11,FALSE,0,NO ERROR,0.000000,-9.753311,-0.000000,25.788523,TRUE,FALSE,TRUE,TRUE,FALSE,TRUE,Suspended,-0.753125,30.658875,-31.208875,TRUE,-2.553619,0.166229,0.000000,-1.175491,-0.078644,0.000000,-0.058000,0.004000,-0.058000,1.470000,-30.610000,-0.490000,-30.575424,Hold,56.170898,50.000000,Hold,-70522.000000,70451.200000,LowGoal,3195.000000,-3272.727273,Speed,3232.500000,-3272.727273,Speed,Off,Off,0.000000,FALSE,53,Read: /home/lvuser/scripts/auto_53.bee,File good!,SEARCH_FOR_GOAL,SEARCH_FOR_GOAL,0.000000,0.000000,-0.786125
03:42:22.594 PM 04/16/2016,Autonomous Enabled,11,FALSE,0,NO ERROR,0.000000,-9.342645,-0.000000,26.244105,TRUE,FALSE,TRUE,TRUE,FALSE,TRUE,Suspended,0.015625,0.677625,-34.787625,TRUE,-2.612030,0.161423,0.000000,-1.152756,-0.035385,0.000000,0.007000,0.257000,0.157000,1.560000,-34.080000,-0.170000,-33.856864,Hold,56.170898,50.000000,Hold,-70522.000000,70451.200000,LowGoal,3202.500000,-3272.727273,Speed,3240.000000,-3272.727273,Speed,Off,Off,0.000000,FALSE,53,Read: /home/lvuser/scripts/auto_53.bee,File good!,SEARCH_FOR_GOAL,SEARCH_FOR_GOAL,0.000000,0.000000,-0.017375
03:42:22.696 PM 04/16/2016,Autonomous Enabled,9,FALSE,0,NO ERROR,0.000000,-9.342645,-0.000000,26.250522,TRUE,FALSE,TRUE,TRUE,FALSE,TRUE,Suspended,0.015625,0.677625,-34.787625,TRUE,-2.657715,0.164886,0.000000,0.000000,0.100876,0.000000,0.061000,-0.234000,-0.039000,1.890000,-33.410000,0.080000,-33.275636,Hold,56.170410,50.000000,Hold,-70522.000000,70451.200000,Shoot,3202.500000,-3272.727273,Speed,3255.000000,-3272.727273,Speed,Off,Off,0.000000,FALSE,53,Read: /home/lvuser/scripts/auto_53.bee,File good!,SEARCH_FOR_GOAL,SEARCH_FOR_GOAL,0.000000,0.000000,-0.017375
03:42:22.798 PM 04/16/2016,Autonomous Enabled,12,FALSE,0,NO ERROR,0.000000,-9.342645,-0.000000,26.192772,TRUE,FALSE,TRUE,TRUE,FALSE,TRUE,Suspended,0.015625,0.677625,-34.787625,TRUE,-2.656540,0.166534,0.000000,0.039001,-0.000214,0.000000,0.020000,0.099000,-0.032000,1.610000,-33.070000,-0.190000,-32.990478,Hold,56.170410,50.000000,Hold,-70522.000000,70451.200000,Shoot,3202.500000,-3272.727273,Speed,3255.000000,-3272.727273,Speed,Off,On,0.000000,FALSE,53,Read: /home/lvuser/scripts/auto_53.bee,File good!,SEARCH_FOR_GOAL,SEARCH_FOR_GOAL,0.000000,0.000000,-0.017375
03:42:22.899 PM 04/16/2016,Autonomous Enabled,9,FALSE,0,NO ERROR,0.000000,-9.342645,-0.000000,26.192772,TRUE,FALSE,TRUE,TRUE,FALSE,FALSE,Disabled,0.015625,0.677625,-34.787625,TRUE,-2.655197,0.168182,0.000000,0.029236,0.074890,0.000000,-0.078000,-0.020000,-0.105000,1.680000,-33.230000,-0.110000,-33.017737,Hold,56.169678,50.000000,Hold,-70522.000000,70451.200000,Shoot,3202.500000,-3272.727273,Speed,3255.000000,-3272.727273,Speed,Off,On,0.000000,FALSE,53,Read: /home/lvuser/scripts/auto_53.bee,File good!,WAIT 500,WAIT,0.000000,0.000000,-0.017375
03:42:23.000 PM 04/16/2016,Autonomous Enabled,9,FALSE,0,NO ERROR,0.000000,-9.342645,-0.000000,26.192772,TRUE,FALSE,TRUE,TRUE,FALSE,FALSE,Disabled,0.015625,0.677625,-34.787625,TRUE,-2.653931,0.174744,0.000000,0.000000,0.122650,0.000000,-0.011000,-0.032000,-0.048000,1.600000,-33.160000,0.040000,-32.949918,Hold,56.169678,50.000000,Hold,-70521.000000,70451.200000,Shoot,3210.000000,-3272.727273,Speed,3247.500000,-3272.727273,Speed,On,On,0.000000,FALSE,53,Read: /home/lvuser/scripts/auto_53.bee,File good!,WAIT 500,WAIT,0.000000,0.000000,-0.017375
03:42:23.099 PM 04/16/2016,Autonomous Enabled,9,FALSE,0,NO ERROR,0.000000,-9.342645,-0.000000,26.186355,TRUE,FALSE,FALSE,TRUE,FALSE,FALSE,Disabled,0.015625,0.677625,-34.787625,TRUE,-2.655670,0.179672,0.000000,-0.117188,0.066986,0.000000,0.029000,-0.008000,-0.089000,1.630000,-33.180000,-0.160000,-32.952152,Hold,56.168945,50.000000,Hold,-70521.000000,70451.200000,Shoot,3202.500000,-3272.727273,Speed,3165.000000,-3272.727273,Speed,On,On,0.000000,FALSE,53,Read: /home/lvuser/scripts/auto_53.bee,File good!,WAIT 500,WAIT,0.000000,0.000000,-0.017375
03:42:23.199 PM 04/16/2016,Autonomous Enabled,9,FALSE,0,NO ERROR,0.000000,-9.342645,-0.000000,26.186355,TRUE,FALSE,FALSE,TRUE,FALSE,FALSE,Disabled,0.015625,0.677625,-34.787625,TRUE,-2.663544,0.182999,0.000000,-0.163757,0.088013,0.000000,-0.046000,0.025000,-0.114000,1.590000,-33.300000,0.150000,-33.068036,Hold,56.168457,50.000000,Hold,-70520.000000,70451.200000,Shoot,2332.500000,-3272.727273,Speed,2347.500000,-3272.727273,Speed,On,On,0.000000,FALSE,53,Read: /home/lvuser/scripts/auto_53.bee,File good!,WAIT 500,WAIT,0.000000,0.000000,-0.017375
03:42:23.299 PM 04/16/2016,Autonomous Enabled,13,FALSE,0,NO ERROR,0.000000,-9.342645,-0.000000,26.186355,TRUE,FALSE,FALSE,TRUE,FALSE,FALSE,Disabled,0.015625,0.677625,-34.787625,TRUE,-2.671921,0.187622,0.000000,-0.182892,0.069153,0.000000,0.026000,-0.076000,-0.042000,1.580000,-33.150000,0.000000,-32.905881,Hold,56.160645,50.000000,Hold,-70519.000000,70451.200000,Shoot,2430.000000,-3272.727273,Speed,2445.000000,-3272.727273,Speed,On,On,0.000000,FALSE,53,Read: /home/lvuser/scripts/auto_53.bee,File good!,WAIT 500,WAIT,0.000000,0.000000,-0.017375
03:42:23.401 PM 04/16/2016,Autonomous Enabled,9,FALSE,0,NO ERROR,0.000000,-9.342645,-0.000000,26.186355,TRUE,FALSE,FALSE,TRUE,FALSE,FALSE,Disabled,0.015625,0.677625,-34.787625,TRUE,-2.681808,0.188446,0.000000,-0.204254,-0.007980,0.000000,-0.235000,-0.011000,-0.073000,1.630000,-33.230000,-0.090000,-32.990685,Hold,56.160400,50.000000,Hold,-70519.000000,70451.200000,Shoot,2737.500000,-3272.727273,Speed,2797.500000,-3272.727273,Speed,On,On,0.000000,FALSE,53,Read: /home/lvuser/scripts/auto_53.bee,File good!,WAIT 500,WAIT,0.000000,0.000000,-0.017375
03:42:23.501 PM 04/16/2016,Autonomous Enabled,11,FALSE,0,NO ERROR,0.000000,-9.342645,-0.000000,26.186355,TRUE,FALSE,FALSE,TRUE,FALSE,FALSE,Disabled,0.015625,0.677625,-34.787625,TRUE,-2.694275,0.188110,0.000000,-0.266663,-0.009796,0.000000,0.037000,-0.026000,0.059000,1.600000,-33.150000,-0.200000,-32.917489,Hold,56.160400,50.000000,Hold,-70519.000000,70451.200000,Shoot,3000.000000,-3272.727273,Speed,3097.500000,-3272.727273,Speed,On,On,0.000000,FALSE,53,Read: /home/lvuser/scripts/auto_53.bee,File good!,WAIT 500,WAIT,0.000000,0.000000,-0.017375
03:42:23.601 PM 04/16/2016,Autonomous Enabled,10,FALSE,0,NO ERROR,0.000000,-9.342645,-0.000000,26.186355,TRUE,FALSE,FALSE,TRUE,FALSE,FALSE,Disabled,0.350000,0.677625,-34.787625,TRUE,-2.708511,0.187714,0.000000,-0.308746,-0.023788,0.000000,-0.016000,-0.091000,0.111000,1.620000,-33.200000,-0.200000,-32.945395,Hold,56.160400,50.000000,Hold,-70519.000000,70451.200000,Shoot,3195.000000,-3272.727273,Speed,3285.000000,-3272.727273,Speed,On,On,0.000000,FALSE,53,Read: /home/lvuser/scripts/auto_53.bee,File good!,WAIT 500,WAIT,0.000000,0.000000,0.317000
03:42:23.701 PM 04/16/2016,Autonomous Enabled,10,FALSE,0,NO ERROR,0.000000,-9.342645,-0.000000,26.186355,TRUE,FALSE,FALSE,TRUE,FALSE,FALSE,Disabled,0.350000,0.677625,-34.787625,TRUE,-2.724335,0.184769,0.000000,-0.322998,-0.078506,0.000000,-0.037000,-0.037000,0.122000,1.610000,-33.180000,-0.240000,-32.916446,Hold,56.160400,50.000000,Hold,-70519.000000,70451.200000,Shoot,3247.500000,-3272.727273,Speed,3292.500000,-3272.727273,Speed,On,On,0.000000,FALSE,53,Read: /home/lvuser/scripts/auto_53.bee,File good!,WAIT 500,WAIT,0.000000,0.000000,0.317000
03:42:23.801 PM 04/16/2016,Autonomous Enabled,10,FALSE,0,NO ERROR,0.000000,-9.342645,-0.000000,26.186355,TRUE,FALSE,FALSE,TRUE,FALSE,FALSE,Disabled,0.350000,0.677625,-34.787625,TRUE,-2.742584,0.179810,0.000000,-0.397736,-0.114807,0.000000,-0.095000,-0.120000,0.002000,1.600000,-33.190000,-0.310000,-32.916257,Hold,56.160400,50.000000,Hold,-70519.000000,70451.200000,Shoot,3217.500000,-3272.727273,Speed,3262.500000,-3272.727273,Speed,On,On,0.000000,FALSE,53,Read: /home/lvuser/scripts/auto_53.bee,File good!,WAIT 500,WAIT,0.000000,0.000000,0.317000
03:42:23.901 PM 04/16/2016,Autonomous Enabled,9,FALSE,0,NO ERROR,0.000000,-9.342645,-0.000000,26.186355,TRUE,FALSE,FALSE,TRUE,FALSE,FALSE,Disabled,0.350000,0.677625,-34.787625,TRUE,-2.764145,0.172134,0.000000,-0.432053,-0.171219,0.000000,0.000000,0.015000,0.114000,1.590000,-33.190000,-0.340000,-32.910318,Hold,56.160400,50.000000,Hold,-70519.000000,70451.200000,Shoot,3195.000000,-3272.727273,Speed,3255.000000,-3272.727273,Speed,On,On,0.000000,FALSE,53,Read: /home/lvuser/scripts/auto_53.bee,File good!,WAIT 500,WAIT,0.000000,0.000000,0.317000
03:42:24.001 PM 04/16/2016,Autonomous Enabled,9,FALSE,0,NO ERROR,0.000000,-9.342645,-0.000000,26.186355,TRUE,FALSE,FALSE,TRUE,FALSE,FALSE,Disabled,0.350000,0.677625,-34.787625,TRUE,-2.785782,0.162766,0.000000,-0.437668,-0.197342,0.000000,0.000000,0.015000,0.114000,1.590000,-33.190000,-0.340000,-32.919696,Hold,56.160400,50.000000,Hold,-70518.000000,70451.200000,Shoot,3202.500000,-3272.727273,Speed,3262.500000,-3272.727273,Speed,On,On,0.000000,FALSE,53,Read: /home/lvuser/scripts/auto_53.bee,File good!,STOP_ALL,STOP_ALL,0.000000,0.000000,0.317000
03:42:24.101 PM 04/16/2016,Autonomous Enabled,9,FALSE,0,NO ERROR,0.000000,-9.342645,-0.000000,26.186355,TRUE,FALSE,FALSE,TRUE,FALSE,FALSE,Disabled,0.350000,0.677625,-34.787625,TRUE,-2.814911,0.150879,0.000000,-0.516769,-0.205124,0.000000,-0.008000,0.153000,-0.166000,1.590000,-33.190000,-0.270000,-32.907502,Hold,56.160400,50.000000,Hold,-70518.000000,70451.200000,Shoot,3210.000000,-3272.727273,Speed,3262.500000,-3272.727273,Speed,On,On,0.000000,FALSE,53,Read: /home/lvuser/scripts/auto_53.bee,File good!,STOP_ALL,STOP_ALL,0.000000,0.000000,0.317000
03:42:24.201 PM 04/16/2016,Autonomous Enabled,10,FALSE,0,NO ERROR,0.000000,-9.342645,-0.000000,26.186355,TRUE,FALSE,FALSE,TRUE,FALSE,FALSE,Disabled,0.350000,0.677625,-34.787625,TRUE,-2.840317,0.140671,0.000000,-0.501801,-0.203400,0.000000,0.145000,-0.147000,0.207000,1.520000,-33.180000,-0.220000,-32.915854,Hold,56.160400,50.000000,Hold,-70518.000000,70451.200000,Shoot,3217.500000,-3272.727273,Speed,3262.500000,-3272.727273,Speed,On,On,0.000000,FALSE,53,Read: /home/lvuser/scripts/auto_53.bee,File good!,STOP_ALL,STOP_ALL,0.000000,0.000000,0.317000
03:42:24.301 PM 04/16/2016,Autonomous Enabled,9,FALSE,0,NO ERROR,0.000000,-9.342645,-0.000000,26.186355,TRUE,FALSE,FALSE,TRUE,FALSE,FALSE,Disabled,0.350000,0.677625,-34.787625,TRUE,-2.864059,0.130890,0.000000,-0.461700,-0.175964,0.000000,0.062000,0.005000,0.193000,1.560000,-33.190000,-0.100000,-32.917951,Hold,56.160400,50.000000,Hold,-70518.000000,70451.200000,Dwell,3210.000000,-3272.727273,Speed,3270.000000,-3272.727273,Speed,Off,On,0.000000,FALSE,53,Read: /home/lvuser/scripts/auto_53.bee,File good!,STOP_ALL,STOP_ALL,0.000000,0.000000,0.317000
03:42:24.401 PM 04/16/2016,Autonomous Enabled,9,FALSE,0,NO ERROR,0.000000,-9.342645,-0.000000,26.186355,TRUE,FALSE,FALSE,TRUE,FALSE,FALSE,Disabled,0.350000,0.677625,-34.787625,TRUE,-2.887665,0.128052,0.000000,-0.492966,-0.059814,0.000000,-0.008000,-0.047000,0.122000,1.520000,-33.190000,-0.140000,-32.903919,Hold,56.160400,50.000000,Hold,-70518.000000,70451.200000,Dwell,3202.500000,-3272.727273,Speed,3262.500000,-3272.727273,Speed,Off,On,0.000000,FALSE,53,Read: /home/lvuser/scripts/auto_53.bee,File good!,STOP_ALL,STOP_ALL,0.000000,0.000000,0.317000
03:42:24.501 PM 04/16/2016,Autonomous Enabled,10,FALSE,0,NO ERROR,0.000000,-9.342645,-0.000000,26.186355,TRUE,FALSE,FALSE,TRUE,FALSE,FALSE,Disabled,0.350000,0.677625,-34.787625,TRUE,-2.913620,0.123581,0.000000,-0.526550,-0.099884,0.000000,0.020000,-0.076000,-0.063000,1.490000,-33.190000,-0.170000,-32.899323,Hold,56.160400,50.000000,Hold,-70518.000000,70451.200000,Dwell,3210.000000,-3272.727273,Speed,3262.500000,-3272.727273,Speed,Off,On,0.000000,FALSE,53,Read: /home/lvuser/scripts/auto_53.bee,File good!,STOP_ALL,STOP_ALL,0.000000,0.000000,0.317000
03:42:24.601 PM 04/16/2016,Autonomous Enabled,9,FALSE,0,NO ERROR,0.000000,-9.342645,-0.000000,26.186355,TRUE,FALSE,FALSE,TRUE,FALSE,FALSE,Disabled,0.350000,0.677625,-34.787625,TRUE,-2.945892,0.117752,0.000000,-0.554138,-0.087402,0.000000,0.016000,-0.084000,-0.004000,1.470000,-33.190000,-0.130000,-32.900228,Hold,56.160400,50.000000,Hold,-70518.000000,70451.200000,Dwell,3210.000000,-3272.727273,Speed,3262.500000,-3272.727273,Speed,Off,On,0.000000,FALSE,53,Read: /home/lvuser/scripts/auto_53.bee,File good!,STOP_ALL,STOP_ALL,0.000000,0.000000,0.317000
03:42:24.701 PM 04/16/2016,Autonomous Enabled,10,FALSE,0,NO ERROR,0.000000,-9.342645,-0.000000,26.186355,TRUE,FALSE,FALSE,TRUE,FALSE,FALSE,Disabled,0.350000,0.677625,-34.787625,TRUE,-2.945374,0.112823,0.000000,0.019913,-0.104706,0.000000,0.038000,-0.105000,0.035000,1.470000,-33.190000,-0.180000,-32.902669,Hold,56.160400,50.000000,Hold,-70518.000000,70451.200000,Dwell,3210.000000,-3272.727273,Speed,3270.000000,-3272.727273,Speed,Off,On,0.000000,FALSE,53,Read: /home/lvuser/scripts/auto_53.bee,File good!,STOP_ALL,STOP_ALL,0.000000,0.000000,0.317000
03:42:24.801 PM 04/16/2016,Autonomous Enabled,10,FALSE,0,NO ERROR,0.000000,-9.342645,-0.000000,26.186355,TRUE,FALSE,FALSE,TRUE,FALSE,FALSE,Disabled,0.350000,0.677625,-34.787625,TRUE,-2.944397,0.106842,0.000000,-0.000565,-0.129745,0.000000,-0.093000,-0.103000,0.172000,1.500000,-33.190000,-0.140000,-32.909282,Hold,56.160400,50.000000,Hold,-70518.000000,70451.200000,Dwell,3210.000000,-3272.727273,Speed,3270.000000,-3272.727273,Speed,Off,On,0.000000,FALSE,53,Read: /home/lvuser/scripts/auto_53.bee,File good!,STOP_ALL,STOP_ALL,0.000000,0.000000,0.317000
03:42:24.901 PM 04/16/2016,Autonomous Enabled,10,FALSE,0,NO ERROR,0.000000,-9.342645,-0.000000,26.186355,TRUE,FALSE,FALSE,TRUE,FALSE,FALSE,Disabled,0.350000,0.677625,-34.787625,TRUE,-2.946838,0.100800,0.000000,-0.087982,-0.124741,0.000000,0.133000,-0.224000,0.128000,1.510000,-33.190000,-0.260000,-32.910074,Hold,56.160400,50.000000,Hold,-70518.000000,70451.200000,Dwell,3210.000000,-3272.727273,Speed,3270.000000,-3272.727273,Speed,Off,On,0.000000,FALSE,53,Read: /home/lvuser/scripts/auto_53.bee,File good!,STOP_ALL,STOP_ALL,0.000000,0.000000,0.317000
03:42:25.001 PM 04/16/2016,Autonomous Enabled,9,FALSE,0,NO ERROR,0.000000,-9.342645,-0.000000,26.186355,TRUE,FALSE,FALSE,TRUE,FALSE,FALSE,Disabled,0.350000,0.677625,-34.787625,TRUE,-2.949677,0.093063,0.000000,-0.041016,-0.170761,0.000000,0.101000,0.025000,-0.160000,1.570000,-33.190000,-0.300000,-32.901478,Hold,56.160400,50.000000,Hold,-70518.000000,70451.200000,Dwell,3210.000000,-3272.727273,Speed,3270.000000,-3272.727273,Speed,Off,On,0.000000,FALSE,53,Read: /home/lvuser/scripts/auto_53.bee,File good!,STOP_ALL,STOP_ALL,0.000000,0.000000,0.317000
