Time,Robot Mode,Loop Time,Error Status,Error Code,Error Source,Left Motor Output,Left Motor Encoder,Right Motor Output,Right Motor Encoder,Is Level,Is Stalled,Ball Detector Photoeye,Vision Enabled,Vision Teleop Control,Vision Auto Control,Vision Current State,Vision X Output,Vision NavX Error,Vision NavX Target,NavX Connection Status,NavX Displacement X,NavX Displacement Y,NavX Displacement Z,NavX Velocity X,NavX Velocity Y,NavX Velocity Z,NavX Acceleration X,NavX Acceleration Y,NavX Acceleration Z,NavX Pitch,NavX Yaw,NavX Roll,Gyro Angle,Roller Arm State,Roller Arm Actual,Roller Arm Desired,Shooter Arm State,Shooter Arm Actual,Shooter Arm Desired,Shooter State,Actual RPM Left,Desired RPM Left,Control Mode Left,Actual RPM Right,Desired RPM Right,Control Mode Right,Ball Shooter Cylinder,Ball Halo Cylinder,Scaler Motor Output,Scaler Solenoid Fire,Auto To Run,Auto Current File,Auto File Status,Auto Current Command,Auto Trimmed Command,Shooter Amps Left,Shooter Amps Right
05:40:11.615 PM 04/14/2016,Autonomous Enabled,8,TRUE,-44003,<LOCATION>WPI_CameraIssue HTTP Request with Authentication.vi<CALLSTACK>WPI_CameraIssue HTTP Request with Authentication.vi< <WPI_CameraIssue Get.vi< <WPI_CameraSet Image Appearance Property.vi< <WPI_CameraSet Image Size.vi< <Vision Processing.vi< <Robot Main.vi,0.000000,0.000000,-0.000000,0.000000,TRUE,FALSE,TRUE,TRUE,FALSE,FALSE,Disabled,0.000000,0.000000,0.000000,TRUE,0.000000,-0.000046,0.000000,0.000000,-0.004623,0.000000,0.048000,0.011000,0.017000,1.090000,-1.740000,0.350000,-11.287962,ResetBack,-0.251953,-0.000049,ResetBack,0.000000,-0.250000,LowGoal,0.000000,-2181.818182,Speed,0.000000,-2181.818182,Speed,Off,Off,0.000000,FALSE,33,Read: /home/lvuser/scripts/auto_33.bee,File good!,WAIT 1500,WAIT,0.000000,0.000000
05:40:11.715 PM 04/14/2016,Autonomous Enabled,13,TRUE,7,Read from Text File in DoesScriptNumberContainNull.vi->Disabled.vi->Robot Main.vi<APPEND> /home/lvuser/scripts/auto_32.bee,0.000000,0.000000,-0.000000,0.000000,TRUE,FALSE,TRUE,TRUE,FALSE,FALSE,Disabled,0.000000,0.000000,0.000000,TRUE,0.000671,-0.000183,0.000000,0.009094,0.000000,0.000000,0.048000,0.011000,0.017000,1.120000,-1.750000,0.350000,-11.288089,ResetBack,-0.255127,-0.000049,ResetBack,799.000000,-0.250000,LowGoal,367.500000,-2181.818182,Speed,322.500000,-2181.818182,Speed,Off,Off,0.000000,FALSE,33,Read: /home/lvuser/scripts/auto_33.bee,File good!,WAIT 1500,WAIT,0.000000,0.000000
05:40:11.816 PM 04/14/2016,Autonomous Enabled,10,TRUE,7,Read from Text File in DoesScriptNumberContainNull.vi->Disabled.vi->Robot Main.vi<APPEND> /home/lvuser/scripts/auto_32.bee,0.000000,0.000000,-0.000000,0.000000,TRUE,FALSE,TRUE,TRUE,FALSE,FALSE,Disabled,0.000000,0.000000,0.000000,TRUE,0.000977,0.000015,0.000000,0.009689,0.007172,0.000000,0.000000,0.026000,0.037000,1.130000,-1.750000,0.320000,-11.296348,ResetBack,-0.256836,-0.000049,ResetBack,1113.000000,-0.250000,LowGoal,1057.500000,-2181.818182,Speed,1020.000000,-2181.818182,Speed,Off,Off,0.000000,FALSE,33,Read: /home/lvuser/scripts/auto_33.bee,File good!,WAIT 1500,WAIT,0.000000,0.000000
05:40:11.917 PM 04/14/2016,Autonomous Enabled,9,TRUE,7,Read from Text File in DoesScriptNumberContainNull.vi->Disabled.vi->Robot Main.vi<APPEND> /home/lvuser/scripts/auto_32.bee,0.000000,0.000000,-0.000000,0.000000,TRUE,FALSE,TRUE,TRUE,FALSE,FALSE,Disabled,0.000000,0.000000,0.000000,TRUE,0.001450,0.000229,0.000000,0.005783,0.000565,0.000000,-0.031000,-0.004000,-0.081000,1.110000,-1.750000,0.380000,-11.312532,Reset,-0.269531,0.000000,ResetBack,1113.000000,-0.250000,LowGoal,1530.000000,-2181.818182,Speed,1597.500000,-2181.818182,Speed,Off,Off,0.000000,FALSE,33,Read: /home/lvuser/scripts/auto_33.bee,File good!,WAIT 1500,WAIT,0.000000,0.000000
05:40:12.017 PM 04/14/2016,Autonomous Enabled,10,TRUE,7,Read from Text File in DoesScriptNumberContainNull.vi->Disabled.vi->Robot Main.vi<APPEND> /home/lvuser/scripts/auto_32.bee,0.000000,0.000000,-0.000000,0.000000,TRUE,FALSE,TRUE,TRUE,FALSE,FALSE,Disabled,0.000000,0.000000,0.000000,TRUE,0.000168,0.001343,0.000000,-0.061813,0.051636,0.000000,-0.031000,-0.004000,-0.081000,1.130000,-1.740000,0.310000,-11.323266,Hold,0.044189,0.000000,ResetBack,1611.000000,-0.250000,LowGoal,2032.500000,-2181.818182,Speed,2055.000000,-2181.818182,Speed,Off,Off,0.000000,FALSE,33,Read: /home/lvuser/scripts/auto_33.bee,File good!,WAIT 1500,WAIT,0.000000,0.000000
05:40:12.118 PM 04/14/2016,Autonomous Enabled,11,TRUE,7,Read from Text File in DoesScriptNumberContainNull.vi->Disabled.vi->Robot Main.vi<APPEND> /home/lvuser/scripts/auto_32.bee,0.000000,0.000000,-0.000000,0.000000,TRUE,FALSE,TRUE,TRUE,FALSE,FALSE,Disabled,0.000000,0.000000,0.000000,TRUE,-0.004471,0.005981,0.000000,-0.101379,0.112793,0.000000,-0.072000,0.071000,-0.001000,1.130000,-1.740000,0.310000,-11.324522,Hold,0.044434,0.000000,ResetBack,2744.000000,-0.250000,LowGoal,2280.000000,-2181.818182,Speed,2235.000000,-2181.818182,Speed,Off,Off,0.000000,FALSE,33,Read: /home/lvuser/scripts/auto_33.bee,File good!,WAIT 1500,WAIT,0.000000,0.000000
05:40:12.218 PM 04/14/2016,Autonomous Enabled,12,TRUE,7,Read from Text File in DoesScriptNumberContainNull.vi->Disabled.vi->Robot Main.vi<APPEND> /home/lvuser/scripts/auto_32.bee,0.000000,0.000000,-0.000000,0.000000,TRUE,FALSE,TRUE,TRUE,FALSE,FALSE,Disabled,0.000000,0.000000,0.000000,TRUE,-0.010239,0.011047,0.000000,-0.121140,0.072403,0.000000,-0.019000,0.017000,0.093000,1.150000,-1.740000,0.250000,-11.332316,Hold,0.044434,0.000000,ResetBack,3143.000000,-0.250000,LowGoal,2227.500000,-2181.818182,Speed,2182.500000,-2181.818182,Speed,Off,Off,0.000000,FALSE,33,Read: /home/lvuser/scripts/auto_33.bee,File good!,WAIT 1500,WAIT,0.000000,0.000000
05:40:12.319 PM 04/14/2016,Autonomous Enabled,10,TRUE,7,Read from Text File in DoesScriptNumberContainNull.vi->Disabled.vi->Robot Main.vi<APPEND> /home/lvuser/scripts/auto_32.bee,0.000000,0.000000,-0.000000,0.000000,TRUE,FALSE,TRUE,TRUE,FALSE,FALSE,Disabled,0.000000,0.000000,0.000000,TRUE,-0.017746,0.013535,0.000000,-0.185333,0.064606,0.000000,-0.027000,-0.080000,0.119000,1.100000,-1.740000,0.210000,-11.348279,Hold,0.044678,0.000000,ResetBack,3156.000000,-0.250000,LowGoal,2137.500000,-2181.818182,Speed,2122.500000,-2181.818182,Speed,Off,Off,0.000000,FALSE,33,Read: /home/lvuser/scripts/auto_33.bee,File good!,WAIT 1500,WAIT,0.000000,0.000000
05:40:12.420 PM 04/14/2016,Autonomous Enabled,11,TRUE,7,Read from Text File in DoesScriptNumberContainNull.vi->Disabled.vi->Robot Main.vi<APPEND> /home/lvuser/scripts/auto_32.bee,0.000000,0.000000,-0.000000,0.000000,TRUE,FALSE,TRUE,TRUE,FALSE,FALSE,Disabled,0.000000,0.000000,0.000000,TRUE,-0.028610,0.019287,0.000000,-0.239899,0.139053,0.000000,-0.064000,0.114000,0.060000,1.050000,-1.740000,0.210000,-11.353240,Hold,0.044678,0.000000,ResetBack,3183.000000,-0.250000,LowGoal,2115.000000,-2181.818182,Speed,2115.000000,-2181.818182,Speed,Off,Off,0.000000,FALSE,33,Read: /home/lvuser/scripts/auto_33.bee,File good!,WAIT 1500,WAIT,0.000000,0.000000
05:40:12.520 PM 04/14/2016,Autonomous Enabled,13,TRUE,7,Read from Text File in DoesScriptNumberContainNull.vi->Disabled.vi->Robot Main.vi<APPEND> /home/lvuser/scripts/auto_32.bee,0.000000,0.000000,-0.000000,0.000000,TRUE,FALSE,TRUE,TRUE,FALSE,FALSE,Disabled,0.000000,0.000000,0.000000,TRUE,-0.041733,0.029129,0.000000,-0.271591,0.232422,0.000000,-0.023000,0.095000,0.024000,1.050000,-1.740000,0.210000,-11.373747,Hold,0.044678,0.000000,ResetBack,3183.000000,-0.250000,LowGoal,2130.000000,-2181.818182,Speed,2137.500000,-2181.818182,Speed,Off,Off,0.000000,FALSE,33,Read: /home/lvuser/scripts/auto_33.bee,File good!,WAIT 1500,WAIT,0.000000,0.000000
05:40:12.620 PM 04/14/2016,Autonomous Enabled,11,TRUE,7,Read from Text File in DoesScriptNumberContainNull.vi->Disabled.vi->Robot Main.vi<APPEND> /home/lvuser/scripts/auto_32.bee,0.000000,0.000000,-0.000000,0.000000,TRUE,FALSE,TRUE,TRUE,FALSE,FALSE,Disabled,0.000000,0.000000,0.000000,TRUE,-0.041733,0.029129,0.000000,-0.271591,0.232422,0.000000,-0.058000,0.051000,-0.050000,1.200000,-1.740000,0.210000,-11.367241,Hold,0.044678,0.000000,ResetBack,3210.000000,-0.250000,LowGoal,2145.000000,-2181.818182,Speed,2145.000000,-2181.818182,Speed,Off,Off,0.000000,FALSE,33,Read: /home/lvuser/scripts/auto_33.bee,File good!,WAIT 1500,WAIT,0.000000,0.000000
05:40:12.722 PM 04/14/2016,Autonomous Enabled,13,TRUE,7,Read from Text File in DoesScriptNumberContainNull.vi->Disabled.vi->Robot Main.vi<APPEND> /home/lvuser/scripts/auto_32.bee,0.000000,0.000000,-0.000000,0.000000,TRUE,FALSE,TRUE,TRUE,FALSE,FALSE,Disabled,0.000000,0.000000,0.000000,TRUE,-0.046936,0.055328,0.000000,0.018692,0.257797,0.000000,0.030000,-0.003000,0.008000,1.200000,-1.740000,0.210000,-11.365988,Hold,0.044678,0.000000,ResetBack,3238.000000,-0.250000,LowGoal,2145.000000,-2181.818182,Speed,2137.500000,-2181.818182,Speed,Off,Off,0.000000,FALSE,33,Read: /home/lvuser/scripts/auto_33.bee,File good!,WAIT 1500,WAIT,0.000000,0.000000
05:40:12.823 PM 04/14/2016,Autonomous Enabled,14,TRUE,7,Read from Text File in DoesScriptNumberContainNull.vi->Disabled.vi->Robot Main.vi<APPEND> /home/lvuser/scripts/auto_32.bee,0.000000,0.000000,-0.000000,0.000000,TRUE,FALSE,TRUE,TRUE,FALSE,FALSE,Disabled,0.000000,0.000000,0.000000,TRUE,-0.044128,0.067261,0.000000,0.078125,0.214890,0.000000,0.064000,-0.025000,-0.077000,1.130000,-1.740000,0.270000,-11.370157,Hold,0.044678,0.000000,Reset,3297.000000,2.000000,LowGoal,2145.000000,-2181.818182,Speed,2137.500000,-2181.818182,Speed,Off,Off,0.000000,FALSE,33,Read: /home/lvuser/scripts/auto_33.bee,File good!,WAIT 1500,WAIT,0.000000,0.000000
05:40:12.923 PM 04/14/2016,Autonomous Enabled,13,TRUE,7,Read from Text File in DoesScriptNumberContainNull.vi->Disabled.vi->Robot Main.vi<APPEND> /home/lvuser/scripts/auto_32.bee,0.000000,0.000000,-0.000000,0.000000,TRUE,FALSE,TRUE,TRUE,FALSE,FALSE,Disabled,0.000000,0.000000,0.000000,TRUE,-0.041382,0.077972,0.000000,0.000000,0.142914,0.000000,0.036000,-0.026000,-0.003000,1.180000,-1.740000,0.250000,-11.395632,Hold,0.044678,0.000000,Hold,-183.000000,2.000000,LowGoal,2137.500000,-2181.818182,Speed,2137.500000,-2181.818182,Speed,Off,Off,0.000000,FALSE,33,Read: /home/lvuser/scripts/auto_33.bee,File good!,WAIT 1500,WAIT,0.000000,0.000000
05:40:13.023 PM 04/14/2016,Autonomous Enabled,12,TRUE,7,Read from Text File in DoesScriptNumberContainNull.vi->Disabled.vi->Robot Main.vi<APPEND> /home/lvuser/scripts/auto_32.bee,0.000000,0.000000,-0.000000,0.000000,TRUE,FALSE,TRUE,TRUE,FALSE,FALSE,Disabled,0.000000,0.000000,0.000000,TRUE,-0.041382,0.077972,0.000000,0.000000,0.142914,0.000000,0.016000,-0.126000,0.010000,1.120000,-1.740000,0.280000,-11.399804,Hold,0.044922,0.000000,Hold,-183.000000,2.000000,LowGoal,2145.000000,-2181.818182,Speed,2137.500000,-2181.818182,Speed,Off,Off,0.000000,FALSE,33,Read: /home/lvuser/scripts/auto_33.bee,File good!,WAIT 1500,WAIT,0.000000,0.000000
05:40:13.124 PM 04/14/2016,Autonomous Enabled,12,TRUE,7,Read from Text File in DoesScriptNumberContainNull.vi->Disabled.vi->Robot Main.vi<APPEND> /home/lvuser/scripts/auto_32.bee,0.000000,0.000000,-0.000000,0.000000,TRUE,FALSE,TRUE,TRUE,FALSE,FALSE,Disabled,0.000000,0.000000,0.000000,TRUE,-0.040710,0.082748,0.000000,0.027100,0.068161,0.000000,0.062000,-0.057000,0.029000,1.120000,-1.740000,0.270000,-11.398654,Hold,0.044922,0.000000,Hold,-183.000000,2.000000,LowGoal,2145.000000,-2181.818182,Speed,2137.500000,-2181.818182,Speed,Off,Off,0.000000,FALSE,33,Read: /home/lvuser/scripts/auto_33.bee,File good!,NAVX_ZERO_YAW,NAVX_ZERO_YAW,0.000000,0.000000
05:40:13.224 PM 04/14/2016,Autonomous Enabled,11,TRUE,7,Read from Text File in DoesScriptNumberContainNull.vi->Disabled.vi->Robot Main.vi<APPEND> /home/lvuser/scripts/auto_32.bee,-0.562500,0.000000,0.562500,0.000000,TRUE,FALSE,TRUE,TRUE,FALSE,FALSE,Disabled,0.000000,0.000000,0.000000,TRUE,-0.038635,0.084564,0.000000,0.065109,0.031387,0.000000,0.088000,0.003000,-0.051000,1.120000,-1.740000,0.270000,-0.012276,Hold,0.044922,0.000000,Hold,-183.000000,2.000000,LowGoal,2145.000000,-2181.818182,Speed,2137.500000,-2181.818182,Speed,Off,Off,0.000000,FALSE,33,Read: /home/lvuser/scripts/auto_33.bee,File good!,DRIVE_STRAIGHT_NAVX_RAMPARTS 200 5000 10,DRIVE_STRAIGHT_NAVX_RAMPARTS,0.000000,0.000000
05:40:13.324 PM 04/14/2016,Autonomous Enabled,6,TRUE,7,Read from Text File in DoesScriptNumberContainNull.vi->Disabled.vi->Robot Main.vi<APPEND> /home/lvuser/scripts/auto_32.bee,-0.562500,-1.950662,0.562500,2.066162,TRUE,FALSE,TRUE,TRUE,FALSE,FALSE,Disabled,0.000000,0.000000,0.000000,TRUE,-0.037079,0.085266,0.000000,-0.003036,0.000000,0.000000,0.015000,-0.029000,0.097000,1.170000,0.000000,0.200000,-0.304718,Hold,0.044922,0.000000,Hold,-183.000000,2.000000,LowGoal,2145.000000,-1818.181818,Speed,2137.500000,-1818.181818,Speed,Off,Off,0.000000,FALSE,33,Read: /home/lvuser/scripts/auto_33.bee,File good!,DRIVE_STRAIGHT_NAVX_RAMPARTS 200 5000 10,DRIVE_STRAIGHT_NAVX_RAMPARTS,0.000000,0.000000
05:40:13.425 PM 04/14/2016,Autonomous Enabled,10,TRUE,7,Read from Text File in DoesScriptNumberContainNull.vi->Disabled.vi->Robot Main.vi<APPEND> /home/lvuser/scripts/auto_32.bee,-0.562500,-4.703406,0.562500,4.883072,FALSE,FALSE,TRUE,TRUE,FALSE,FALSE,Disabled,0.000000,0.000000,0.000000,TRUE,-0.028900,0.084137,0.000000,0.228546,-0.034973,0.000000,0.216000,0.187000,-0.311000,0.930000,-0.300000,4.750000,-0.419462,Hold,0.044922,0.000000,Hold,-183.000000,2.000000,LowGoal,1770.000000,-1818.181818,Speed,2032.500000,-1818.181818,Speed,Off,Off,0.000000,FALSE,33,Read: /home/lvuser/scripts/auto_33.bee,File good!,DRIVE_STRAIGHT_NAVX_RAMPARTS 200 5000 10,DRIVE_STRAIGHT_NAVX_RAMPARTS,0.000000,0.000000
05:40:13.526 PM 04/14/2016,Autonomous Enabled,12,TRUE,7,Read from Text File in DoesScriptNumberContainNull.vi->Disabled.vi->Robot Main.vi<APPEND> /home/lvuser/scripts/auto_32.bee,-0.562500,-8.238981,0.562500,8.348064,FALSE,FALSE,TRUE,TRUE,FALSE,FALSE,Disabled,0.000000,0.000000,0.000000,TRUE,-0.010483,0.083099,0.000000,0.436371,-0.041153,0.000000,0.164000,-0.017000,0.376000,0.850000,-0.410000,3.490000,-0.348105,Hold,0.045166,0.000000,Hold,-183.000000,2.000000,LowGoal,1687.500000,-1818.181818,Speed,1785.000000,-1818.181818,Speed,Off,Off,0.000000,FALSE,33,Read: /home/lvuser/scripts/auto_33.bee,File good!,DRIVE_STRAIGHT_NAVX_RAMPARTS 200 5000 10,DRIVE_STRAIGHT_NAVX_RAMPARTS,0.000000,0.000000
05:40:13.626 PM 04/14/2016,Autonomous Enabled,10,TRUE,7,Read from Text File in DoesScriptNumberContainNull.vi->Disabled.vi->Robot Main.vi<APPEND> /home/lvuser/scripts/auto_32.bee,-0.562500,-12.518887,0.562500,12.435471,FALSE,FALSE,TRUE,TRUE,FALSE,FALSE,Disabled,0.000000,0.000000,0.000000,TRUE,0.016281,0.082932,0.000000,0.599457,0.017807,0.000000,0.028000,-0.072000,-0.280000,0.940000,-0.270000,3.690000,-0.067498,Hold,0.045166,0.000000,Hold,-183.000000,2.000000,LowGoal,1687.500000,-1818.181818,Speed,1665.000000,-1818.181818,Speed,Off,Off,0.000000,FALSE,33,Read: /home/lvuser/scripts/auto_33.bee,File good!,DRIVE_STRAIGHT_NAVX_RAMPARTS 200 5000 10,DRIVE_STRAIGHT_NAVX_RAMPARTS,0.000000,0.000000
05:40:13.729 PM 04/14/2016,Autonomous Enabled,9,TRUE,7,Read from Text File in DoesScriptNumberContainNull.vi->Disabled.vi->Robot Main.vi<APPEND> /home/lvuser/scripts/auto_32.bee,-0.562500,-16.631961,0.563671,16.490795,FALSE,FALSE,TRUE,TRUE,FALSE,FALSE,Disabled,0.000000,0.000000,0.000000,TRUE,0.047012,0.082733,0.000000,0.601379,0.000595,0.000000,-0.114000,-0.011000,0.032000,0.900000,-0.010000,4.010000,0.072197,Hold,0.045166,0.000000,Hold,-183.000000,2.000000,LowGoal,1770.000000,-1818.181818,Speed,1732.500000,-1818.181818,Speed,Off,Off,0.000000,FALSE,33,Read: /home/lvuser/scripts/auto_33.bee,File good!,DRIVE_STRAIGHT_NAVX_RAMPARTS 200 5000 10,DRIVE_STRAIGHT_NAVX_RAMPARTS,0.000000,0.000000
05:40:13.831 PM 04/14/2016,Autonomous Enabled,9,TRUE,7,Read from Text File in DoesScriptNumberContainNull.vi->Disabled.vi->Robot Main.vi<APPEND> /home/lvuser/scripts/auto_32.bee,-0.562500,-21.078701,0.567581,20.860535,FALSE,FALSE,TRUE,TRUE,FALSE,FALSE,Disabled,0.000000,0.000000,0.000000,TRUE,0.080582,0.082092,0.000000,0.566650,-0.001175,0.000000,0.070000,-0.079000,0.123000,0.950000,0.070000,3.040000,0.191065,Hold,0.045166,0.000000,Hold,-183.000000,2.000000,LowGoal,1815.000000,-1818.181818,Speed,1777.500000,-1818.181818,Speed,Off,Off,0.000000,FALSE,33,Read: /home/lvuser/scripts/auto_33.bee,File good!,DRIVE_STRAIGHT_NAVX_RAMPARTS 200 5000 10,DRIVE_STRAIGHT_NAVX_RAMPARTS,0.000000,0.000000
05:40:13.929 PM 04/14/2016,Autonomous Enabled,10,TRUE,7,Read from Text File in DoesScriptNumberContainNull.vi->Disabled.vi->Robot Main.vi<APPEND> /home/lvuser/scripts/auto_32.bee,-0.562500,-21.078701,0.572292,20.860535,FALSE,FALSE,TRUE,TRUE,FALSE,FALSE,Disabled,0.000000,0.000000,0.000000,TRUE,0.108322,0.081223,0.000000,0.528336,-0.015747,0.000000,-0.022000,0.055000,0.108000,0.850000,0.180000,3.270000,0.191065,Hold,0.045166,0.000000,Hold,-183.000000,2.000000,LowGoal,1800.000000,-1818.181818,Speed,1777.500000,-1818.181818,Speed,Off,Off,0.000000,FALSE,33,Read: /home/lvuser/scripts/auto_33.bee,File good!,DRIVE_STRAIGHT_NAVX_RAMPARTS 200 5000 10,DRIVE_STRAIGHT_NAVX_RAMPARTS,0.000000,0.000000
05:40:14.029 PM 04/14/2016,Autonomous Enabled,9,TRUE,7,Read from Text File in DoesScriptNumberContainNull.vi->Disabled.vi->Robot Main.vi<APPEND> /home/lvuser/scripts/auto_32.bee,-0.562500,-25.506190,0.573473,25.358607,TRUE,FALSE,TRUE,TRUE,FALSE,FALSE,Disabled,0.000000,0.000000,0.000000,TRUE,0.133987,0.080612,0.000000,0.498566,-0.014191,0.000000,-0.076000,0.039000,-0.007000,0.910000,0.260000,2.750000,0.308037,Hold,0.045166,0.000000,Hold,-183.000000,2.000000,LowGoal,1770.000000,-1818.181818,Speed,1755.000000,-1818.181818,Speed,Off,Off,0.000000,FALSE,33,Read: /home/lvuser/scripts/auto_33.bee,File good!,DRIVE_STRAIGHT_NAVX_RAMPARTS 200 5000 10,DRIVE_STRAIGHT_NAVX_RAMPARTS,0.000000,0.000000
05:40:14.130 PM 04/14/2016,Autonomous Enabled,9,TRUE,7,Read from Text File in DoesScriptNumberContainNull.vi->Disabled.vi->Robot Main.vi<APPEND> /home/lvuser/scripts/auto_32.bee,-0.562500,-30.139013,0.580583,29.766847,TRUE,FALSE,TRUE,TRUE,FALSE,FALSE,Disabled,0.000000,0.000000,0.000000,TRUE,0.156662,0.080200,0.000000,0.418976,0.000000,0.000000,-0.087000,-0.006000,-0.090000,0.960000,0.340000,2.720000,0.385608,Hold,0.045166,0.000000,Hold,-183.000000,2.000000,LowGoal,1770.000000,-1818.181818,Speed,1755.000000,-1818.181818,Speed,Off,Off,0.000000,FALSE,33,Read: /home/lvuser/scripts/auto_33.bee,File good!,DRIVE_STRAIGHT_NAVX_RAMPARTS 200 5000 10,DRIVE_STRAIGHT_NAVX_RAMPARTS,0.000000,0.000000
05:40:14.231 PM 04/14/2016,Autonomous Enabled,9,TRUE,7,Read from Text File in DoesScriptNumberContainNull.vi->Disabled.vi->Robot Main.vi<APPEND> /home/lvuser/scripts/auto_32.bee,-0.562500,-34.656336,0.589333,34.181503,TRUE,FALSE,TRUE,TRUE,FALSE,FALSE,Disabled,0.000000,0.000000,0.000000,TRUE,0.178650,0.079742,0.000000,0.350418,-0.005325,0.000000,-0.075000,0.070000,-0.103000,0.960000,0.570000,2.550000,0.600799,Hold,0.045166,0.000000,Hold,-183.000000,2.000000,LowGoal,1770.000000,-1818.181818,Speed,1762.500000,-1818.181818,Speed,Off,Off,0.000000,FALSE,33,Read: /home/lvuser/scripts/auto_33.bee,File good!,DRIVE_STRAIGHT_NAVX_RAMPARTS 200 5000 10,DRIVE_STRAIGHT_NAVX_RAMPARTS,0.000000,0.000000
05:40:14.332 PM 04/14/2016,Autonomous Enabled,9,TRUE,7,Read from Text File in DoesScriptNumberContainNull.vi->Disabled.vi->Robot Main.vi<APPEND> /home/lvuser/scripts/auto_32.bee,-0.562500,-39.103075,0.589333,38.525577,TRUE,FALSE,TRUE,TRUE,FALSE,FALSE,Disabled,0.000000,0.000000,0.000000,TRUE,0.191162,0.080231,0.000000,0.301056,0.018295,0.000000,-0.117000,0.001000,-0.001000,1.010000,0.680000,2.530000,0.759449,Hold,0.045166,0.000000,Hold,-183.000000,2.000000,LowGoal,1777.500000,-1818.181818,Speed,1755.000000,-1818.181818,Speed,Off,Off,0.000000,FALSE,33,Read: /home/lvuser/scripts/auto_33.bee,File good!,DRIVE_STRAIGHT_NAVX_RAMPARTS 200 5000 10,DRIVE_STRAIGHT_NAVX_RAMPARTS,0.000000,0.000000
05:40:14.432 PM 04/14/2016,Autonomous Enabled,9,TRUE,7,Read from Text File in DoesScriptNumberContainNull.vi->Disabled.vi->Robot Main.vi<APPEND> /home/lvuser/scripts/auto_32.bee,-0.562500,-43.479232,0.584552,43.023649,TRUE,FALSE,TRUE,TRUE,FALSE,FALSE,Disabled,0.000000,0.000000,0.000000,TRUE,0.206482,0.079391,0.000000,0.209213,-0.018936,0.000000,-0.059000,0.038000,0.034000,0.850000,0.640000,2.290000,0.735757,Hold,0.045166,0.000000,Hold,-183.000000,2.000000,LowGoal,1777.500000,-1818.181818,Speed,1755.000000,-1818.181818,Speed,Off,Off,0.000000,FALSE,33,Read: /home/lvuser/scripts/auto_33.bee,File good!,DRIVE_STRAIGHT_NAVX_RAMPARTS 200 5000 10,DRIVE_STRAIGHT_NAVX_RAMPARTS,0.000000,0.000000
05:40:14.532 PM 04/14/2016,Autonomous Enabled,9,TRUE,7,Read from Text File in DoesScriptNumberContainNull.vi->Disabled.vi->Robot Main.vi<APPEND> /home/lvuser/scripts/auto_32.bee,-0.562500,-48.028638,0.577418,47.611555,TRUE,FALSE,TRUE,TRUE,FALSE,FALSE,Disabled,0.000000,0.000000,0.000000,TRUE,0.214096,0.078964,0.000000,0.190308,-0.014664,0.000000,0.027000,0.088000,0.353000,0.900000,0.420000,2.780000,0.520749,Hold,0.045166,0.000000,Hold,-183.000000,2.000000,LowGoal,1777.500000,-1818.181818,Speed,1755.000000,-1818.181818,Speed,Off,Off,0.000000,FALSE,33,Read: /home/lvuser/scripts/auto_33.bee,File good!,DRIVE_STRAIGHT_NAVX_RAMPARTS 200 5000 10,DRIVE_STRAIGHT_NAVX_RAMPARTS,0.000000,0.000000
05:40:14.632 PM 04/14/2016,Autonomous Enabled,10,TRUE,7,Read from Text File in DoesScriptNumberContainNull.vi->Disabled.vi->Robot Main.vi<APPEND> /home/lvuser/scripts/auto_32.bee,-0.562500,-52.764127,0.575444,52.430461,FALSE,FALSE,TRUE,TRUE,FALSE,FALSE,Disabled,0.000000,0.000000,0.000000,TRUE,0.222626,0.080750,0.000000,0.054932,0.041245,0.000000,-0.154000,-0.020000,0.037000,0.960000,0.340000,5.150000,0.356494,Hold,0.045166,0.000000,Hold,-183.000000,2.000000,LowGoal,1770.000000,-1818.181818,Speed,1762.500000,-1818.181818,Speed,Off,Off,0.000000,FALSE,33,Read: /home/lvuser/scripts/auto_33.bee,File good!,DRIVE_STRAIGHT_NAVX_RAMPARTS 200 5000 10,DRIVE_STRAIGHT_NAVX_RAMPARTS,0.000000,0.000000
05:40:14.732 PM 04/14/2016,Autonomous Enabled,9,FALSE,0,NO ERROR,-0.562500,-57.332783,0.580583,56.986283,FALSE,FALSE,TRUE,TRUE,FALSE,FALSE,Disabled,0.000000,0.000000,0.000000,TRUE,0.221542,0.081116,0.000000,-0.076477,-0.016998,0.000000,0.023000,-0.023000,-0.101000,0.930000,0.410000,8.320000,0.323910,Hold,0.045166,0.000000,Hold,-183.000000,2.000000,LowGoal,1777.500000,-1818.181818,Speed,1755.000000,-1818.181818,Speed,Off,Off,0.000000,FALSE,33,Read: /home/lvuser/scripts/auto_33.bee,File good!,DRIVE_STRAIGHT_NAVX_RAMPARTS 200 5000 10,DRIVE_STRAIGHT_NAVX_RAMPARTS,0.000000,0.000000
05:40:14.832 PM 04/14/2016,Autonomous Enabled,8,FALSE,0,NO ERROR,-0.562500,-61.323940,0.580583,61.112190,FALSE,FALSE,TRUE,TRUE,FALSE,FALSE,Disabled,0.000000,0.000000,0.000000,TRUE,0.216278,0.079758,0.000000,-0.073822,-0.019043,0.000000,-0.036000,0.034000,-0.259000,0.800000,0.460000,9.880000,0.386283,Hold,0.045166,0.000000,Hold,-183.000000,2.000000,LowGoal,1770.000000,-1818.181818,Speed,1755.000000,-1818.181818,Speed,Off,Off,0.000000,FALSE,33,Read: /home/lvuser/scripts/auto_33.bee,File good!,DRIVE_STRAIGHT_NAVX_RAMPARTS 200 5000 10,DRIVE_STRAIGHT_NAVX_RAMPARTS,0.000000,0.000000
05:40:14.932 PM 04/14/2016,Autonomous Enabled,10,FALSE,0,NO ERROR,-0.562500,-65.231681,0.573473,65.090514,FALSE,FALSE,TRUE,TRUE,FALSE,FALSE,Disabled,0.000000,0.000000,0.000000,TRUE,0.212692,0.079269,0.000000,-0.144318,-0.025101,0.000000,-0.346000,-0.057000,0.254000,1.040000,0.190000,9.800000,0.159170,Hold,0.045166,0.000000,Hold,-183.000000,2.000000,LowGoal,1770.000000,-1818.181818,Speed,1747.500000,-1818.181818,Speed,Off,Off,0.000000,FALSE,33,Read: /home/lvuser/scripts/auto_33.bee,File good!,DRIVE_STRAIGHT_NAVX_RAMPARTS 200 5000 10,DRIVE_STRAIGHT_NAVX_RAMPARTS,0.000000,0.000000
05:40:15.031 PM 04/14/2016,Autonomous Enabled,9,FALSE,0,NO ERROR,-0.562500,-69.267755,0.576628,69.216421,FALSE,FALSE,TRUE,TRUE,FALSE,FALSE,Disabled,0.000000,0.000000,0.000000,TRUE,0.201233,0.079559,0.000000,-0.226852,0.070770,0.000000,-0.088000,-0.115000,0.359000,0.610000,0.360000,18.670000,0.017437,Hold,0.045166,0.000000,Hold,-183.000000,2.000000,LowGoal,1785.000000,-1818.181818,Speed,1747.500000,-1818.181818,Speed,Off,Off,0.000000,FALSE,33,Read: /home/lvuser/scripts/auto_33.bee,File good!,DRIVE_STRAIGHT_NAVX_RAMPARTS 200 5000 10,DRIVE_STRAIGHT_NAVX_RAMPARTS,0.000000,0.000000
05:40:15.132 PM 04/14/2016,Autonomous Enabled,10,FALSE,0,NO ERROR,-0.562500,-72.392664,0.552019,72.309248,FALSE,FALSE,TRUE,TRUE,FALSE,FALSE,Disabled,0.000000,0.000000,0.000000,TRUE,0.187302,0.082855,0.000000,-0.310699,0.059570,0.000000,0.174000,0.048000,-0.337000,0.850000,-0.190000,16.670000,-0.306828,Hold,0.045166,0.000000,Hold,-183.000000,2.000000,LowGoal,1785.000000,-1818.181818,Speed,1747.500000,-1818.181818,Speed,Off,Off,0.000000,FALSE,33,Read: /home/lvuser/scripts/auto_33.bee,File good!,DRIVE_STRAIGHT_NAVX_RAMPARTS 200 5000 10,DRIVE_STRAIGHT_NAVX_RAMPARTS,0.000000,0.000000
05:40:15.234 PM 04/14/2016,Autonomous Enabled,9,FALSE,0,NO ERROR,-0.562500,-75.363574,0.549704,75.260907,FALSE,FALSE,TRUE,TRUE,FALSE,FALSE,Disabled,0.000000,0.000000,0.000000,TRUE,0.174606,0.088501,0.000000,-0.184219,0.114792,0.000000,-0.500000,0.024000,0.694000,1.430000,-0.330000,11.400000,-0.399151,Hold,0.045166,0.000000,Hold,-183.000000,2.000000,LowGoal,1770.000000,-1818.181818,Speed,1740.000000,-1818.181818,Speed,Off,Off,0.000000,FALSE,33,Read: /home/lvuser/scripts/auto_33.bee,File good!,DRIVE_STRAIGHT_NAVX_RAMPARTS 200 5000 10,DRIVE_STRAIGHT_NAVX_RAMPARTS,0.000000,0.000000
05:40:15.334 PM 04/14/2016,Autonomous Enabled,9,FALSE,0,NO ERROR,-0.562500,-78.860649,0.603791,78.424317,FALSE,FALSE,TRUE,TRUE,FALSE,FALSE,Disabled,0.000000,0.000000,0.000000,TRUE,0.152557,0.094894,0.000000,-0.543091,0.127609,0.000000,0.361000,0.093000,-0.231000,1.810000,0.410000,8.520000,0.379181,Hold,0.045410,0.000000,Hold,-183.000000,2.000000,LowGoal,1755.000000,-1818.181818,Speed,1732.500000,-1818.181818,Speed,Off,Off,0.000000,FALSE,33,Read: /home/lvuser/scripts/auto_33.bee,File good!,DRIVE_STRAIGHT_NAVX_RAMPARTS 200 5000 10,DRIVE_STRAIGHT_NAVX_RAMPARTS,0.000000,0.000000
05:40:15.436 PM 04/14/2016,Autonomous Enabled,11,FALSE,0,NO ERROR,-0.562500,-82.672140,0.631167,82.203724,FALSE,FALSE,TRUE,TRUE,FALSE,FALSE,Disabled,0.000000,0.000000,0.000000,TRUE,0.136475,0.101059,0.000000,-0.370514,0.175949,0.000000,0.380000,-0.046000,-0.504000,1.270000,2.800000,14.330000,1.764339,Hold,0.045410,0.000000,Hold,-183.000000,2.000000,LowGoal,1755.000000,-1818.181818,Speed,1740.000000,-1818.181818,Speed,Off,Off,0.000000,FALSE,33,Read: /home/lvuser/scripts/auto_33.bee,File good!,DRIVE_STRAIGHT_NAVX_RAMPARTS 200 5000 10,DRIVE_STRAIGHT_NAVX_RAMPARTS,0.000000,0.000000
05:40:15.536 PM 04/14/2016,Autonomous Enabled,10,FALSE,0,NO ERROR,-0.562500,-85.861216,0.615974,85.809883,FALSE,FALSE,TRUE,TRUE,FALSE,FALSE,Disabled,0.000000,0.000000,0.000000,TRUE,0.118439,0.106827,0.000000,-0.319641,-0.059219,0.000000,0.218000,0.388000,-0.838000,1.260000,1.340000,12.370000,2.150370,Hold,0.046875,0.000000,Hold,-183.000000,2.000000,LowGoal,1770.000000,-1818.181818,Speed,1747.500000,-1818.181818,Speed,Off,Off,0.000000,FALSE,33,Read: /home/lvuser/scripts/auto_33.bee,File good!,DRIVE_STRAIGHT_NAVX_RAMPARTS 200 5000 10,DRIVE_STRAIGHT_NAVX_RAMPARTS,0.000000,0.000000
05:40:15.636 PM 04/14/2016,Autonomous Enabled,11,FALSE,0,NO ERROR,-0.562500,-89.621374,0.557441,90.218122,FALSE,FALSE,TRUE,TRUE,FALSE,FALSE,Disabled,0.000000,0.000000,0.000000,TRUE,0.108337,0.110840,0.000000,-0.174362,0.203964,0.000000,-0.180000,0.202000,1.009000,2.800000,-0.130000,9.180000,0.559626,Hold,0.188721,0.000000,Hold,-183.000000,2.000000,LowGoal,1770.000000,-1818.181818,Speed,1732.500000,-1818.181818,Speed,Off,Off,0.000000,FALSE,33,Read: /home/lvuser/scripts/auto_33.bee,File good!,DRIVE_STRAIGHT_NAVX_RAMPARTS 200 5000 10,DRIVE_STRAIGHT_NAVX_RAMPARTS,0.000000,0.000000
05:40:15.737 PM 04/14/2016,Autonomous Enabled,11,FALSE,0,NO ERROR,-0.562500,-92.027618,0.563280,92.688533,FALSE,FALSE,TRUE,TRUE,FALSE,FALSE,Disabled,0.000000,0.000000,0.000000,TRUE,0.095505,0.118958,0.000000,-0.230347,0.135956,0.000000,-0.005000,-0.091000,-1.054000,3.490000,0.860000,0.730000,0.320385,Hold,0.190186,0.000000,Hold,-183.000000,2.000000,LowGoal,1770.000000,-1818.181818,Speed,1725.000000,-1818.181818,Speed,Off,Off,0.000000,FALSE,33,Read: /home/lvuser/scripts/auto_33.bee,File good!,DRIVE_STRAIGHT_NAVX_RAMPARTS 200 5000 10,DRIVE_STRAIGHT_NAVX_RAMPARTS,0.000000,0.000000
05:40:15.837 PM 04/14/2016,Autonomous Enabled,11,FALSE,0,NO ERROR,-0.562500,-96.031609,0.682144,96.718190,FALSE,FALSE,TRUE,TRUE,FALSE,FALSE,Disabled,0.000000,0.000000,0.000000,TRUE,0.090088,0.127014,0.000000,-0.037598,0.076584,0.000000,0.329000,-0.487000,-0.904000,4.160000,2.920000,-5.010000,2.863200,Hold,0.322510,0.000000,Hold,-183.000000,2.000000,LowGoal,1770.000000,-1818.181818,Speed,1732.500000,-1818.181818,Speed,Off,Off,0.000000,FALSE,33,Read: /home/lvuser/scripts/auto_33.bee,File good!,DRIVE_STRAIGHT_NAVX_RAMPARTS 200 5000 10,DRIVE_STRAIGHT_NAVX_RAMPARTS,0.000000,0.000000
05:40:15.938 PM 04/14/2016,Autonomous Enabled,10,FALSE,0,NO ERROR,-0.562500,-100.343599,0.646963,101.107180,FALSE,FALSE,TRUE,TRUE,FALSE,FALSE,Disabled,0.000000,0.000000,0.000000,TRUE,0.096649,0.129379,0.000000,0.105942,0.167557,0.000000,0.170000,-1.887000,0.903000,1.340000,2.340000,-7.090000,3.515186,Hold,0.322754,0.000000,Hold,-183.000000,2.000000,LowGoal,1777.500000,-1818.181818,Speed,1740.000000,-1818.181818,Speed,Off,Off,0.000000,FALSE,33,Read: /home/lvuser/scripts/auto_33.bee,File good!,DRIVE_STRAIGHT_NAVX_RAMPARTS 200 5000 10,DRIVE_STRAIGHT_NAVX_RAMPARTS,0.000000,0.000000
05:40:16.038 PM 04/14/2016,Autonomous Enabled,9,FALSE,0,NO ERROR,-0.562500,-104.084507,0.589732,105.457670,FALSE,FALSE,TRUE,TRUE,FALSE,FALSE,Disabled,0.000000,0.000000,0.000000,TRUE,0.096588,0.118454,0.000000,-0.013565,-0.309341,0.000000,0.295000,0.099000,-0.635000,1.310000,0.400000,-16.130000,1.609936,Hold,0.417725,0.000000,Hold,-182.000000,2.000000,LowGoal,1777.500000,-1818.181818,Speed,1740.000000,-1818.181818,Speed,Off,Off,0.000000,FALSE,33,Read: /home/lvuser/scripts/auto_33.bee,File good!,DRIVE_STRAIGHT_NAVX_RAMPARTS 200 5000 10,DRIVE_STRAIGHT_NAVX_RAMPARTS,0.000000,0.000000
05:40:16.137 PM 04/14/2016,Autonomous Enabled,11,FALSE,0,NO ERROR,-0.562500,-108.576163,0.539343,110.469075,FALSE,FALSE,TRUE,TRUE,FALSE,FALSE,Disabled,0.000000,0.000000,0.000000,TRUE,0.100830,0.107376,0.000000,0.152100,-0.166260,0.000000,0.391000,-0.051000,-0.417000,2.330000,-0.920000,-14.930000,0.334792,Hold,1.045898,0.000000,Hold,-182.000000,2.000000,LowGoal,1755.000000,-1818.181818,Speed,1747.500000,-1818.181818,Speed,Off,Off,0.000000,FALSE,33,Read: /home/lvuser/scripts/auto_33.bee,File good!,DRIVE_STRAIGHT_NAVX_RAMPARTS 200 5000 10,DRIVE_STRAIGHT_NAVX_RAMPARTS,0.000000,0.000000
05:40:16.238 PM 04/14/2016,Autonomous Enabled,11,FALSE,0,NO ERROR,-0.562500,-113.324485,0.469581,115.358564,FALSE,FALSE,TRUE,TRUE,FALSE,FALSE,Disabled,0.000000,0.000000,0.000000,TRUE,0.115280,0.099915,0.000000,0.317017,-0.091446,0.000000,-0.669000,0.447000,1.069000,3.160000,-2.490000,-3.250000,-1.542497,Hold,1.159424,0.000000,Hold,-221.000000,2.000000,LowGoal,1762.500000,-1818.181818,Speed,1755.000000,-1818.181818,Speed,Off,Off,0.000000,FALSE,33,Read: /home/lvuser/scripts/auto_33.bee,File good!,DRIVE_STRAIGHT_NAVX_RAMPARTS 200 5000 10,DRIVE_STRAIGHT_NAVX_RAMPARTS,0.000000,0.000000
05:40:16.339 PM 04/14/2016,Autonomous Enabled,9,FALSE,0,NO ERROR,-0.562500,-118.355140,0.516300,120.100469,FALSE,FALSE,TRUE,TRUE,FALSE,FALSE,Disabled,0.000000,0.000000,0.000000,TRUE,0.124222,0.103516,0.000000,0.182053,0.105804,0.000000,-0.018000,0.135000,-0.661000,2.690000,-1.490000,-4.210000,-0.892390,Hold,1.170898,0.000000,Hold,-77.000000,2.000000,LowGoal,1785.000000,-1818.181818,Speed,1762.500000,-1818.181818,Speed,Off,Off,0.000000,FALSE,33,Read: /home/lvuser/scripts/auto_33.bee,File good!,DRIVE_STRAIGHT_NAVX_RAMPARTS 200 5000 10,DRIVE_STRAIGHT_NAVX_RAMPARTS,0.000000,0.000000
05:40:16.438 PM 04/14/2016,Autonomous Enabled,10,FALSE,0,NO ERROR,-0.562500,-123.437128,0.548933,124.130126,TRUE,FALSE,TRUE,TRUE,FALSE,FALSE,Disabled,0.000000,0.000000,0.000000,TRUE,0.133011,0.110992,0.000000,0.196381,0.172119,0.000000,-0.147000,-0.799000,0.658000,2.830000,-0.480000,-1.660000,0.213776,Hold,2.455566,0.000000,Hold,-75.000000,2.000000,LowGoal,1792.500000,-1818.181818,Speed,1762.500000,-1818.181818,Speed,Off,Off,0.000000,FALSE,33,Read: /home/lvuser/scripts/auto_33.bee,File good!,DRIVE_STRAIGHT_NAVX_RAMPARTS 200 5000 10,DRIVE_STRAIGHT_NAVX_RAMPARTS,0.000000,0.000000
05:40:16.538 PM 04/14/2016,Autonomous Enabled,11,FALSE,0,NO ERROR,-0.562500,-0.378582,0.562500,0.359332,TRUE,FALSE,TRUE,TRUE,FALSE,FALSE,Disabled,0.000000,0.000000,0.000000,TRUE,0.135452,0.114838,0.000000,-0.082123,0.116898,0.000000,0.233000,-0.127000,-0.124000,2.750000,0.850000,1.380000,1.223650,Hold,1.911621,0.000000,Hold,-85.000000,2.000000,LowGoal,1785.000000,-1818.181818,Speed,1762.500000,-1818.181818,Speed,Off,Off,0.000000,FALSE,33,Read: /home/lvuser/scripts/auto_33.bee,File good!,DRIVE_STRAIGHT_TARGET 12 0 10000 75,DRIVE_STRAIGHT_TARGET,0.000000,0.000000
05:40:16.638 PM 04/14/2016,Autonomous Enabled,11,FALSE,0,NO ERROR,-0.562500,-4.222157,0.562500,3.805074,TRUE,FALSE,TRUE,TRUE,FALSE,FALSE,Disabled,0.000000,0.000000,0.000000,TRUE,0.128082,0.121490,0.000000,-0.205872,0.182770,0.000000,0.161000,-0.049000,-0.263000,2.300000,1.430000,-1.470000,2.090655,Hold,1.790039,0.000000,Hold,-147.000000,2.000000,LowGoal,1777.500000,-1818.181818,Speed,1762.500000,-1818.181818,Speed,Off,Off,0.000000,FALSE,33,Read: /home/lvuser/scripts/auto_33.bee,File good!,DRIVE_STRAIGHT_TARGET 12 0 10000 75,DRIVE_STRAIGHT_TARGET,0.000000,0.000000
05:40:16.739 PM 04/14/2016,Autonomous Enabled,9,FALSE,0,NO ERROR,-0.562500,-8.553397,0.562500,8.072148,TRUE,FALSE,TRUE,TRUE,FALSE,FALSE,Disabled,0.000000,0.000000,0.000000,TRUE,0.123199,0.130478,0.000000,-0.044815,0.166428,0.000000,-0.016000,0.010000,1.001000,2.210000,1.730000,0.820000,2.414676,Hold,1.508301,0.000000,Hold,-147.000000,2.000000,LowGoal,1770.000000,-1818.181818,Speed,1755.000000,-1818.181818,Speed,Off,Off,0.000000,FALSE,33,Read: /home/lvuser/scripts/auto_33.bee,File good!,DRIVE_STRAIGHT_TARGET 12 0 10000 75,DRIVE_STRAIGHT_TARGET,0.000000,0.000000
05:40:16.838 PM 04/14/2016,Autonomous Enabled,10,FALSE,0,NO ERROR,0.250000,-12.615137,0.250000,12.165972,TRUE,FALSE,TRUE,TRUE,FALSE,FALSE,Disabled,0.000000,0.000000,0.000000,TRUE,0.120529,0.137222,0.000000,-0.024567,-0.009735,0.000000,0.050000,-0.095000,-0.610000,2.080000,1.670000,0.850000,2.404923,Hold,1.457031,0.000000,Hold,-147.000000,2.000000,LowGoal,1777.500000,-1818.181818,Speed,1755.000000,-1818.181818,Speed,Off,Off,0.000000,FALSE,33,Read: /home/lvuser/scripts/auto_33.bee,File good!,SET_HEADING 0,SET_HEADING,0.000000,0.000000
05:40:16.939 PM 04/14/2016,Autonomous Enabled,9,FALSE,0,NO ERROR,0.250000,-14.277050,0.250000,15.425631,FALSE,FALSE,TRUE,TRUE,FALSE,FALSE,Disabled,0.000000,0.000000,0.000000,TRUE,0.109116,0.134995,0.000000,-0.600250,-0.106995,0.000000,-0.672000,-0.495000,0.461000,1.550000,0.430000,-3.480000,1.107244,Hold,1.454590,0.000000,Hold,-147.000000,2.000000,LowGoal,1762.500000,-1818.181818,Speed,1755.000000,-1818.181818,Speed,Off,Off,0.000000,FALSE,33,Read: /home/lvuser/scripts/auto_33.bee,File good!,SET_HEADING 0,SET_HEADING,0.000000,0.000000
05:40:17.038 PM 04/14/2016,Autonomous Enabled,8,FALSE,0,NO ERROR,0.000000,-14.495216,-0.000000,17.568792,FALSE,FALSE,TRUE,TRUE,FALSE,TRUE,Disabled,0.000000,0.000000,0.000000,TRUE,0.072754,0.121811,0.000000,-0.799789,-0.311035,0.000000,-0.083000,0.098000,-0.559000,0.650000,-4.560000,-5.840000,-4.094207,Hold,1.452148,50.000000,Hold,-152.000000,70451.200000,LowGoal,1777.500000,-3272.727273,Speed,1755.000000,-3272.727273,Speed,Off,Off,0.000000,FALSE,33,Read: /home/lvuser/scripts/auto_33.bee,File good!,SEARCH_FOR_GOAL,SEARCH_FOR_GOAL,0.000000,0.000000
05:40:17.138 PM 04/14/2016,Autonomous Enabled,11,FALSE,0,NO ERROR,0.000000,-14.732632,-0.000000,18.281041,FALSE,FALSE,TRUE,TRUE,FALSE,TRUE,Disabled,0.000000,0.000000,0.000000,TRUE,0.028473,0.117508,0.000000,-0.958725,0.151581,0.000000,-0.294000,0.449000,0.287000,3.680000,-6.610000,-2.970000,-6.431859,Hold,3.288574,50.000000,Hold,-4534.000000,70451.200000,LowGoal,1762.500000,-3272.727273,Speed,1777.500000,-3272.727273,Speed,Off,Off,0.000000,FALSE,33,Read: /home/lvuser/scripts/auto_33.bee,File good!,SEARCH_FOR_GOAL,SEARCH_FOR_GOAL,0.000000,0.000000
05:40:17.238 PM 04/14/2016,Autonomous Enabled,10,FALSE,0,NO ERROR,0.000000,-14.604299,-0.000000,18.248957,FALSE,FALSE,TRUE,TRUE,FALSE,TRUE,Disabled,0.000000,0.000000,0.000000,TRUE,-0.018417,0.122330,0.000000,-0.835098,-0.080505,0.000000,0.494000,-0.646000,0.454000,2.460000,-7.000000,-3.370000,-6.833078,Hold,5.146729,50.000000,Hold,-17387.000000,70451.200000,LowGoal,2010.000000,-3272.727273,Speed,2077.500000,-3272.727273,Speed,Off,Off,0.000000,FALSE,33,Read: /home/lvuser/scripts/auto_33.bee,File good!,SEARCH_FOR_GOAL,SEARCH_FOR_GOAL,0.000000,0.000000
05:40:17.338 PM 04/14/2016,Autonomous Enabled,11,FALSE,0,NO ERROR,0.000000,-14.572216,-0.000000,18.216874,TRUE,FALSE,TRUE,TRUE,FALSE,TRUE,Disabled,0.000000,0.000000,0.000000,TRUE,-0.054764,0.116455,0.000000,-0.729568,-0.022400,0.000000,0.037000,0.163000,0.152000,2.840000,-6.900000,-2.300000,-6.740243,Hold,6.831055,50.000000,Hold,-31015.000000,70451.200000,LowGoal,2340.000000,-3272.727273,Speed,2475.000000,-3272.727273,Speed,Off,Off,0.000000,FALSE,33,Read: /home/lvuser/scripts/auto_33.bee,File good!,SEARCH_FOR_GOAL,SEARCH_FOR_GOAL,0.000000,0.000000
05:40:17.438 PM 04/14/2016,Autonomous Enabled,11,FALSE,0,NO ERROR,0.000000,-14.572216,-0.000000,18.184791,TRUE,FALSE,TRUE,TRUE,FALSE,TRUE,Disabled,0.000000,0.000000,0.000000,TRUE,-0.096619,0.115814,0.000000,-0.687561,-0.081573,0.000000,0.037000,0.163000,0.152000,2.230000,-6.850000,-2.310000,-6.645573,Hold,9.749512,50.000000,Hold,-31015.000000,70451.200000,LowGoal,2700.000000,-3272.727273,Speed,2812.500000,-3272.727273,Speed,Off,Off,0.000000,FALSE,33,Read: /home/lvuser/scripts/auto_33.bee,File good!,SEARCH_FOR_GOAL,SEARCH_FOR_GOAL,0.000000,0.000000
05:40:17.538 PM 04/14/2016,Autonomous Enabled,11,FALSE,0,NO ERROR,0.000000,-14.572216,-0.000000,18.178374,TRUE,FALSE,TRUE,TRUE,FALSE,TRUE,Disabled,0.000000,0.000000,0.000000,TRUE,-0.129440,0.113739,0.000000,-0.630707,-0.026520,0.000000,0.079000,0.019000,0.142000,2.590000,-6.840000,-2.000000,-6.680518,Hold,13.400635,50.000000,Hold,-42661.000000,70451.200000,LowGoal,3030.000000,-3272.727273,Speed,3037.500000,-3272.727273,Speed,Off,Off,0.000000,FALSE,33,Read: /home/lvuser/scripts/auto_33.bee,File good!,SEARCH_FOR_GOAL,SEARCH_FOR_GOAL,0.000000,0.000000
05:40:17.638 PM 04/14/2016,Autonomous Enabled,9,FALSE,0,NO ERROR,0.000000,-14.572216,-0.000000,18.178374,TRUE,FALSE,TRUE,TRUE,FALSE,TRUE,Disabled,0.000000,0.000000,0.000000,TRUE,-0.159760,0.110718,0.000000,-0.603790,-0.053055,0.000000,0.046000,-0.121000,-0.031000,2.360000,-6.900000,-1.760000,-6.768961,Hold,17.800781,50.000000,Hold,-56266.000000,70451.200000,LowGoal,3202.500000,-3272.727273,Speed,3247.500000,-3272.727273,Speed,Off,Off,0.000000,FALSE,33,Read: /home/lvuser/scripts/auto_33.bee,File good!,SEARCH_FOR_GOAL,SEARCH_FOR_GOAL,0.000000,0.000000
05:40:17.739 PM 04/14/2016,Autonomous Enabled,10,FALSE,0,NO ERROR,0.000000,-14.572216,-0.000000,18.178374,TRUE,FALSE,TRUE,TRUE,FALSE,TRUE,Disabled,0.000000,0.000000,0.000000,TRUE,-0.195984,0.106644,0.000000,-0.561386,-0.111511,0.000000,-0.012000,-0.020000,-0.009000,2.360000,-6.900000,-1.760000,-6.800598,Hold,23.202637,50.000000,Hold,-71836.000000,70451.200000,LowGoal,3277.500000,-3272.727273,Speed,3285.000000,-3272.727273,Speed,Off,Off,0.000000,FALSE,33,Read: /home/lvuser/scripts/auto_33.bee,File good!,SEARCH_FOR_GOAL,SEARCH_FOR_GOAL,0.000000,0.000000
05:40:17.840 PM 04/14/2016,Autonomous Enabled,12,FALSE,0,NO ERROR,0.000000,-14.662049,-0.000000,18.293874,TRUE,FALSE,TRUE,TRUE,FALSE,TRUE,Disabled,0.000000,0.000000,0.000000,TRUE,-0.216873,0.101974,0.000000,-0.528214,-0.118256,0.000000,0.214000,-0.086000,-0.035000,2.260000,-6.930000,-1.890000,-6.650155,Hold,29.613037,50.000000,Hold,-70338.000000,70451.200000,LowGoal,3240.000000,-3272.727273,Speed,3240.000000,-3272.727273,Speed,Off,Off,0.000000,FALSE,33,Read: /home/lvuser/scripts/auto_33.bee,File good!,SEARCH_FOR_GOAL,SEARCH_FOR_GOAL,0.000000,0.000000
05:40:17.941 PM 04/14/2016,Autonomous Enabled,10,FALSE,0,NO ERROR,0.000000,-14.674882,-0.000000,18.287457,TRUE,FALSE,TRUE,TRUE,FALSE,TRUE,Disabled,0.000000,0.000000,0.000000,TRUE,-0.253082,0.093430,0.000000,-0.589935,-0.150818,0.000000,-0.256000,0.016000,0.300000,2.260000,-6.700000,-1.220000,-6.557619,Hold,37.754883,50.000000,Hold,-70434.000000,70451.200000,LowGoal,3217.500000,-3272.727273,Speed,3232.500000,-3272.727273,Speed,Off,Off,0.000000,FALSE,33,Read: /home/lvuser/scripts/auto_33.bee,File good!,SEARCH_FOR_GOAL,SEARCH_FOR_GOAL,0.000000,0.000000
05:40:18.043 PM 04/14/2016,Autonomous Enabled,10,FALSE,0,NO ERROR,0.000000,-14.629966,-0.000000,18.184791,TRUE,FALSE,TRUE,TRUE,FALSE,TRUE,Disabled,0.000000,0.000000,0.000000,TRUE,-0.274963,0.085678,0.000000,-0.514328,-0.213303,0.000000,0.157000,-0.143000,-0.063000,2.090000,-6.780000,-1.690000,-6.687630,Hold,46.329102,50.000000,Hold,-70442.000000,70451.200000,LowGoal,3225.000000,-3272.727273,Speed,3240.000000,-3272.727273,Speed,Off,Off,0.000000,FALSE,33,Read: /home/lvuser/scripts/auto_33.bee,File good!,SEARCH_FOR_GOAL,SEARCH_FOR_GOAL,0.000000,0.000000
05:40:18.146 PM 04/14/2016,Autonomous Enabled,8,FALSE,0,NO ERROR,0.000000,-14.629966,-0.000000,18.184791,TRUE,FALSE,TRUE,TRUE,FALSE,TRUE,Disabled,0.000000,0.000000,0.000000,TRUE,-0.291458,0.077255,0.000000,-0.350739,-0.195038,0.000000,0.309000,-0.122000,-0.104000,2.070000,-6.830000,-1.560000,-6.716300,Hold,53.608643,50.000000,Hold,-70442.000000,70451.200000,LowGoal,3247.500000,-3272.727273,Speed,3247.500000,-3272.727273,Speed,Off,Off,0.000000,FALSE,33,Read: /home/lvuser/scripts/auto_33.bee,File good!,SEARCH_FOR_GOAL,SEARCH_FOR_GOAL,0.000000,0.000000
05:40:18.246 PM 04/14/2016,Autonomous Enabled,8,FALSE,0,NO ERROR,0.000000,-14.629966,-0.000000,18.184791,TRUE,FALSE,TRUE,TRUE,FALSE,TRUE,Disabled,0.000000,0.000000,0.000000,TRUE,-0.303238,0.065781,0.000000,0.006317,-0.207672,0.000000,0.161000,-0.269000,-0.042000,2.070000,-6.830000,-1.560000,-6.539322,Hold,55.409668,50.000000,Hold,-70558.000000,70451.200000,LowGoal,3247.500000,-3272.727273,Speed,3247.500000,-3272.727273,Speed,Off,Off,0.000000,FALSE,33,Read: /home/lvuser/scripts/auto_33.bee,File good!,SEARCH_FOR_GOAL,SEARCH_FOR_GOAL,0.000000,0.000000
05:40:18.347 PM 04/14/2016,Autonomous Enabled,9,FALSE,0,NO ERROR,0.000000,-14.629966,-0.000000,18.184791,TRUE,FALSE,TRUE,TRUE,FALSE,TRUE,Disabled,0.000000,0.000000,0.000000,TRUE,-0.300964,0.051559,0.000000,0.066788,-0.236984,0.000000,-0.003000,-0.075000,0.015000,1.890000,-6.720000,-1.290000,-6.632191,Hold,55.248291,50.000000,Hold,-70502.000000,70451.200000,LowGoal,3270.000000,-3272.727273,Speed,3247.500000,-3272.727273,Speed,Off,Off,0.000000,FALSE,33,Read: /home/lvuser/scripts/auto_33.bee,File good!,SEARCH_FOR_GOAL,SEARCH_FOR_GOAL,0.000000,0.000000
05:40:18.450 PM 04/14/2016,Autonomous Enabled,10,FALSE,0,NO ERROR,0.000000,-14.629966,-0.000000,18.184791,TRUE,FALSE,TRUE,TRUE,FALSE,TRUE,Disabled,0.000000,0.000000,0.000000,TRUE,-0.297546,0.044052,0.000000,0.134827,-0.259735,0.000000,0.059000,-0.140000,0.075000,1.890000,-6.760000,-1.120000,-6.677922,Hold,55.248047,50.000000,Hold,-70516.000000,70451.200000,LowGoal,3262.500000,-3272.727273,Speed,3247.500000,-3272.727273,Speed,Off,Off,0.000000,FALSE,33,Read: /home/lvuser/scripts/auto_33.bee,File good!,SEARCH_FOR_GOAL,SEARCH_FOR_GOAL,0.000000,0.000000
05:40:18.550 PM 04/14/2016,Autonomous Enabled,8,FALSE,0,NO ERROR,0.000000,-14.629966,-0.000000,18.184791,TRUE,FALSE,TRUE,TRUE,FALSE,TRUE,Disabled,0.000000,0.000000,0.000000,TRUE,-0.287781,0.027206,0.000000,0.181137,-0.286362,0.000000,0.059000,-0.140000,0.075000,1.850000,-6.750000,-1.030000,-6.683114,Hold,55.217529,50.000000,Hold,-70516.000000,70451.200000,LowGoal,3270.000000,-3272.727273,Speed,3255.000000,-3272.727273,Speed,Off,Off,0.000000,FALSE,33,Read: /home/lvuser/scripts/auto_33.bee,File good!,SEARCH_FOR_GOAL,SEARCH_FOR_GOAL,0.000000,0.000000
05:40:18.650 PM 04/14/2016,Autonomous Enabled,9,FALSE,0,NO ERROR,0.000000,-14.629966,-0.000000,18.184791,TRUE,FALSE,TRUE,TRUE,FALSE,TRUE,Disabled,0.000000,0.000000,0.000000,TRUE,-0.274673,0.009750,0.000000,0.245956,-0.311539,0.000000,0.056000,0.095000,-0.088000,1.850000,-6.750000,-1.030000,-6.672087,Hold,55.217529,50.000000,Hold,-70516.000000,70451.200000,LowGoal,3277.500000,-3272.727273,Speed,3255.000000,-3272.727273,Speed,Off,Off,0.000000,FALSE,33,Read: /home/lvuser/scripts/auto_33.bee,File good!,SEARCH_FOR_GOAL,SEARCH_FOR_GOAL,0.000000,0.000000
05:40:18.752 PM 04/14/2016,Autonomous Enabled,10,FALSE,0,NO ERROR,0.000000,-14.629966,-0.000000,18.184791,TRUE,FALSE,TRUE,TRUE,FALSE,TRUE,Disabled,0.543750,0.000000,0.000000,TRUE,-0.264542,-0.002991,0.000000,0.257828,-0.315063,0.000000,0.046000,-0.141000,-0.011000,1.850000,-6.730000,-0.970000,-6.705449,Hold,55.217529,50.000000,Hold,-70516.000000,70451.200000,LowGoal,3277.500000,-3272.727273,Speed,3247.500000,-3272.727273,Speed,Off,Off,0.000000,FALSE,33,Read: /home/lvuser/scripts/auto_33.bee,File good!,SEARCH_FOR_GOAL,SEARCH_FOR_GOAL,0.000000,0.000000
05:40:18.851 PM 04/14/2016,Autonomous Enabled,10,FALSE,0,NO ERROR,-0.488588,-15.156131,-0.488588,17.658625,TRUE,FALSE,TRUE,TRUE,FALSE,TRUE,PID,0.543750,-19.919250,13.159250,TRUE,-0.250763,-0.019791,0.000000,0.297714,-0.355408,0.000000,0.017000,-0.107000,-0.051000,1.820000,-6.760000,-0.940000,-6.694688,Hold,55.217285,50.000000,Hold,-70516.000000,70451.200000,LowGoal,3270.000000,-3272.727273,Speed,3255.000000,-3272.727273,Speed,Off,Off,0.000000,FALSE,33,Read: /home/lvuser/scripts/auto_33.bee,File good!,SEARCH_FOR_GOAL,SEARCH_FOR_GOAL,0.000000,0.000000
05:40:18.953 PM 04/14/2016,Autonomous Enabled,9,FALSE,0,NO ERROR,-0.435423,-16.477961,-0.435423,16.330378,TRUE,FALSE,TRUE,TRUE,FALSE,TRUE,PID,0.543750,-19.919250,13.159250,TRUE,-0.250763,-0.019791,0.000000,0.297714,-0.355408,0.000000,0.535000,0.441000,-0.031000,1.950000,-6.590000,-0.390000,-1.829114,Hold,55.217285,50.000000,Hold,-70516.000000,70451.200000,LowGoal,3247.500000,-3272.727273,Speed,3232.500000,-3272.727273,Speed,Off,Off,0.000000,FALSE,33,Read: /home/lvuser/scripts/auto_33.bee,File good!,SEARCH_FOR_GOAL,SEARCH_FOR_GOAL,0.000000,0.000000
05:40:19.055 PM 04/14/2016,Autonomous Enabled,11,FALSE,0,NO ERROR,-0.316396,-18.165541,-0.316396,14.777549,TRUE,FALSE,TRUE,TRUE,FALSE,TRUE,PID,0.543750,-19.919250,13.159250,TRUE,-0.221848,-0.034653,0.000000,0.559967,-0.189438,0.000000,0.133000,-0.043000,0.027000,2.200000,4.160000,-0.250000,4.986659,Hold,55.203125,50.000000,Hold,-70516.000000,70451.200000,LowGoal,3210.000000,-3272.727273,Speed,3202.500000,-3272.727273,Speed,Off,Off,0.000000,FALSE,33,Read: /home/lvuser/scripts/auto_33.bee,File good!,SEARCH_FOR_GOAL,SEARCH_FOR_GOAL,0.000000,0.000000
05:40:19.157 PM 04/14/2016,Autonomous Enabled,12,FALSE,0,NO ERROR,-0.256913,-19.538704,-0.256913,13.667468,TRUE,FALSE,TRUE,TRUE,FALSE,TRUE,PID,0.543750,-19.919250,13.159250,TRUE,-0.168961,-0.056564,0.000000,0.544144,-0.307114,0.000000,-0.035000,0.069000,-0.051000,2.200000,4.160000,-0.250000,10.528245,Hold,55.203125,50.000000,Hold,-70516.000000,70451.200000,LowGoal,3210.000000,-3272.727273,Speed,3202.500000,-3272.727273,Speed,Off,Off,0.000000,FALSE,33,Read: /home/lvuser/scripts/auto_33.bee,File good!,SEARCH_FOR_GOAL,SEARCH_FOR_GOAL,0.000000,0.000000
05:40:19.257 PM 04/14/2016,Autonomous Enabled,9,FALSE,0,NO ERROR,-0.210328,-20.334369,-0.210328,13.038636,TRUE,FALSE,TRUE,TRUE,FALSE,TRUE,PID,0.543750,-19.919250,13.159250,TRUE,-0.140015,-0.078827,0.000000,0.445801,-0.408188,0.000000,-0.079000,0.002000,-0.131000,2.000000,9.550000,-0.480000,14.002185,Hold,55.203125,50.000000,Hold,-70516.000000,70451.200000,LowGoal,3270.000000,-3272.727273,Speed,3210.000000,-3272.727273,Speed,Off,Off,0.000000,FALSE,33,Read: /home/lvuser/scripts/auto_33.bee,File good!,SEARCH_FOR_GOAL,SEARCH_FOR_GOAL,0.000000,0.000000
05:40:19.358 PM 04/14/2016,Autonomous Enabled,10,FALSE,0,NO ERROR,0.217048,-20.315119,0.217048,13.295302,TRUE,FALSE,TRUE,TRUE,FALSE,TRUE,PID,0.543750,-19.919250,13.159250,TRUE,-0.140015,-0.078827,0.000000,0.445801,-0.408188,0.000000,-0.118000,-0.145000,-0.051000,1.210000,14.320000,-1.050000,15.360391,Hold,55.203125,50.000000,Hold,-70516.000000,70451.200000,LowGoal,3270.000000,-3272.727273,Speed,3232.500000,-3272.727273,Speed,Off,Off,0.000000,FALSE,33,Read: /home/lvuser/scripts/auto_33.bee,File good!,SEARCH_FOR_GOAL,SEARCH_FOR_GOAL,0.000000,0.000000
05:40:19.459 PM 04/14/2016,Autonomous Enabled,12,FALSE,0,NO ERROR,-0.206675,-19.583621,-0.206675,14.277050,TRUE,FALSE,TRUE,TRUE,FALSE,TRUE,PID,0.543750,-19.919250,13.159250,TRUE,-0.117355,-0.107635,0.000000,0.305954,-0.536942,0.000000,-0.203000,-0.081000,-0.006000,1.210000,14.320000,-1.050000,12.689775,Hold,55.203125,50.000000,Hold,-70516.000000,70451.200000,LowGoal,3270.000000,-3272.727273,Speed,3240.000000,-3272.727273,Speed,Off,Off,0.000000,FALSE,33,Read: /home/lvuser/scripts/auto_33.bee,File good!,SEARCH_FOR_GOAL,SEARCH_FOR_GOAL,0.000000,0.000000
05:40:19.560 PM 04/14/2016,Autonomous Enabled,11,FALSE,0,NO ERROR,-0.237160,-19.917287,-0.237160,13.859968,TRUE,FALSE,TRUE,TRUE,FALSE,TRUE,PID,0.543750,-19.919250,13.159250,TRUE,-0.104874,-0.135040,0.000000,0.253815,-0.538513,0.000000,0.106000,-0.002000,-0.033000,1.020000,11.440000,-1.130000,11.038315,Hold,55.203125,50.000000,Hold,-70516.000000,70451.200000,LowGoal,3270.000000,-3272.727273,Speed,3247.500000,-3272.727273,Speed,Off,Off,0.000000,FALSE,33,Read: /home/lvuser/scripts/auto_33.bee,File good!,SEARCH_FOR_GOAL,SEARCH_FOR_GOAL,0.000000,0.000000
05:40:19.664 PM 04/14/2016,Autonomous Enabled,20,FALSE,0,NO ERROR,-0.217380,-19.917287,-0.217380,13.859968,TRUE,FALSE,TRUE,TRUE,FALSE,TRUE,PID,0.543750,-19.919250,13.159250,TRUE,-0.092438,-0.154129,0.000000,0.360031,-0.428787,0.000000,0.149000,0.421000,0.013000,1.600000,10.520000,-0.460000,11.038315,Hold,55.203125,50.000000,Hold,-70516.000000,70451.200000,LowGoal,3270.000000,-3272.727273,Speed,3247.500000,-3272.727273,Speed,Off,Off,0.000000,FALSE,33,Read: /home/lvuser/scripts/auto_33.bee,File good!,SEARCH_FOR_GOAL,SEARCH_FOR_GOAL,0.000000,0.000000
05:40:19.764 PM 04/14/2016,Autonomous Enabled,10,FALSE,0,NO ERROR,0.000000,-20.668035,-0.000000,12.980886,TRUE,FALSE,TRUE,TRUE,FALSE,TRUE,PID,0.096875,-2.491125,17.621125,TRUE,-0.068710,-0.174088,0.000000,0.386658,-0.313187,0.000000,-0.100000,0.011000,0.022000,1.860000,13.870000,-0.600000,14.987872,Hold,55.203125,50.000000,Hold,-70516.000000,70451.200000,LowGoal,3262.500000,-3272.727273,Speed,3240.000000,-3272.727273,Speed,Off,Off,0.000000,FALSE,33,Read: /home/lvuser/scripts/auto_33.bee,File good!,SEARCH_FOR_GOAL,SEARCH_FOR_GOAL,0.000000,0.000000
05:40:19.865 PM 04/14/2016,Autonomous Enabled,11,FALSE,0,NO ERROR,-0.242447,-20.565369,-0.242447,13.199052,TRUE,FALSE,TRUE,TRUE,FALSE,TRUE,PID,0.096875,-2.491125,17.621125,TRUE,-0.054642,-0.188309,0.000000,0.310745,-0.393265,0.000000,-0.189000,0.000000,0.103000,1.340000,15.290000,-0.700000,16.112556,Hold,55.203125,50.000000,Hold,-70516.000000,70451.200000,LowGoal,3270.000000,-3272.727273,Speed,3240.000000,-3272.727273,Speed,Off,Off,0.000000,FALSE,33,Read: /home/lvuser/scripts/auto_33.bee,File good!,SEARCH_FOR_GOAL,SEARCH_FOR_GOAL,0.000000,0.000000
05:40:19.965 PM 04/14/2016,Autonomous Enabled,11,FALSE,0,NO ERROR,-0.223979,-20.834868,-0.223979,13.019386,TRUE,FALSE,TRUE,TRUE,FALSE,TRUE,PID,0.096875,-2.491125,17.621125,TRUE,-0.041626,-0.208771,0.000000,0.271851,-0.376114,0.000000,0.293000,0.227000,-0.003000,1.440000,13.940000,-0.610000,15.000899,Hold,55.203125,50.000000,Hold,-70516.000000,70451.200000,LowGoal,3255.000000,-3272.727273,Speed,3240.000000,-3272.727273,Speed,Off,Off,0.000000,FALSE,33,Read: /home/lvuser/scripts/auto_33.bee,File good!,SEARCH_FOR_GOAL,SEARCH_FOR_GOAL,0.000000,0.000000
05:40:20.066 PM 04/14/2016,Autonomous Enabled,9,FALSE,0,NO ERROR,-0.209090,-21.348200,-0.209090,12.506054,TRUE,FALSE,TRUE,TRUE,FALSE,TRUE,PID,0.096875,-2.491125,17.621125,TRUE,-0.023041,-0.227600,0.000000,0.267944,-0.333633,0.000000,-0.050000,-0.038000,-0.039000,1.600000,15.760000,-0.520000,17.300424,Hold,55.202881,50.000000,Hold,-70516.000000,70451.200000,LowGoal,3255.000000,-3272.727273,Speed,3240.000000,-3272.727273,Speed,Off,Off,0.000000,FALSE,33,Read: /home/lvuser/scripts/auto_33.bee,File good!,SEARCH_FOR_GOAL,SEARCH_FOR_GOAL,0.000000,0.000000
05:40:20.166 PM 04/14/2016,Autonomous Enabled,9,FALSE,0,NO ERROR,0.000000,-21.675449,-0.000000,12.307138,TRUE,FALSE,TRUE,TRUE,FALSE,TRUE,Suspended,0.096875,-2.491125,17.621125,TRUE,-0.013763,-0.241684,0.000000,0.213699,-0.353104,0.000000,-0.016000,0.154000,0.020000,1.360000,17.430000,-0.620000,18.515568,Hold,55.202881,50.000000,Hold,-70516.000000,70451.200000,LowGoal,3255.000000,-3272.727273,Speed,3240.000000,-3272.727273,Speed,Off,Off,0.000000,FALSE,33,Read: /home/lvuser/scripts/auto_33.bee,File good!,SEARCH_FOR_GOAL,SEARCH_FOR_GOAL,0.000000,0.000000
05:40:20.266 PM 04/14/2016,Autonomous Enabled,10,FALSE,0,NO ERROR,0.000000,-21.758866,-0.000000,12.332804,TRUE,FALSE,TRUE,TRUE,FALSE,TRUE,Suspended,0.096875,-2.491125,17.621125,TRUE,-0.003891,-0.257523,0.000000,0.184860,-0.298172,0.000000,-0.051000,0.013000,-0.043000,1.220000,17.920000,-0.740000,18.988531,Hold,55.202881,50.000000,Hold,-70516.000000,70451.200000,LowGoal,3255.000000,-3272.727273,Speed,3240.000000,-3272.727273,Speed,Off,Off,0.000000,FALSE,33,Read: /home/lvuser/scripts/auto_33.bee,File good!,SEARCH_FOR_GOAL,SEARCH_FOR_GOAL,0.000000,0.000000
05:40:20.367 PM 04/14/2016,Autonomous Enabled,9,FALSE,0,NO ERROR,0.000000,-21.681866,-0.000000,12.589471,TRUE,FALSE,TRUE,TRUE,FALSE,TRUE,Suspended,0.096875,-2.491125,17.621125,TRUE,0.005600,-0.276627,0.000000,0.167725,-0.289902,0.000000,0.000000,-0.089000,-0.002000,1.200000,17.190000,-0.590000,18.116290,Hold,55.202881,50.000000,Hold,-70516.000000,70451.200000,LowGoal,3262.500000,-3272.727273,Speed,3247.500000,-3272.727273,Speed,Off,Off,0.000000,FALSE,33,Read: /home/lvuser/scripts/auto_33.bee,File good!,SEARCH_FOR_GOAL,SEARCH_FOR_GOAL,0.000000,0.000000
05:40:20.467 PM 04/14/2016,Autonomous Enabled,9,FALSE,0,NO ERROR,0.000000,-21.681866,-0.000000,12.602304,TRUE,FALSE,TRUE,TRUE,FALSE,TRUE,Suspended,0.096875,-2.491125,17.621125,TRUE,0.013931,-0.288956,0.000000,0.159470,-0.221283,0.000000,-0.033000,0.160000,0.011000,1.330000,17.120000,-0.650000,18.099972,Hold,55.202881,50.000000,Hold,-70516.000000,70451.200000,LowGoal,3247.500000,-3272.727273,Speed,3262.500000,-3272.727273,Speed,Off,Off,0.000000,FALSE,33,Read: /home/lvuser/scripts/auto_33.bee,File good!,SEARCH_FOR_GOAL,SEARCH_FOR_GOAL,0.000000,0.000000
05:40:20.568 PM 04/14/2016,Autonomous Enabled,9,FALSE,0,NO ERROR,0.000000,-21.681866,-0.000000,12.602304,TRUE,FALSE,TRUE,TRUE,FALSE,TRUE,Suspended,0.096875,-2.491125,17.621125,TRUE,0.024887,-0.302246,0.000000,0.208405,-0.219254,0.000000,0.096000,-0.131000,-0.078000,1.320000,17.100000,-0.560000,18.042647,Hold,55.202881,50.000000,Hold,-70516.000000,70451.200000,LowGoal,3232.500000,-3272.727273,Speed,3255.000000,-3272.727273,Speed,Off,Off,0.000000,FALSE,33,Read: /home/lvuser/scripts/auto_33.bee,File good!,SEARCH_FOR_GOAL,SEARCH_FOR_GOAL,0.000000,0.000000
05:40:20.667 PM 04/14/2016,Autonomous Enabled,10,FALSE,0,NO ERROR,0.000000,-21.681866,-0.000000,12.602304,TRUE,FALSE,TRUE,TRUE,FALSE,TRUE,Suspended,0.096875,-2.491125,17.621125,TRUE,0.036652,-0.313263,0.000000,0.253952,-0.224609,0.000000,0.111000,0.153000,0.013000,1.300000,17.100000,-0.530000,18.039280,Hold,55.202881,50.000000,Hold,-70516.000000,70451.200000,LowGoal,3247.500000,-3272.727273,Speed,3255.000000,-3272.727273,Speed,Off,Off,0.000000,FALSE,33,Read: /home/lvuser/scripts/auto_33.bee,File good!,SEARCH_FOR_GOAL,SEARCH_FOR_GOAL,0.000000,0.000000
05:40:20.768 PM 04/14/2016,Autonomous Enabled,9,FALSE,0,NO ERROR,0.000000,-21.681866,-0.000000,12.602304,TRUE,FALSE,TRUE,TRUE,FALSE,TRUE,Enable,-0.071875,4.090125,13.009875,TRUE,0.047684,-0.322601,0.000000,0.280853,-0.234894,0.000000,0.033000,-0.149000,0.012000,1.320000,17.120000,-0.490000,18.047418,Hold,55.202881,50.000000,Hold,-70516.000000,70451.200000,LowGoal,3247.500000,-3272.727273,Speed,3255.000000,-3272.727273,Speed,Off,Off,0.000000,FALSE,33,Read: /home/lvuser/scripts/auto_33.bee,File good!,SEARCH_FOR_GOAL,SEARCH_FOR_GOAL,0.000000,0.000000
05:40:20.868 PM 04/14/2016,Autonomous Enabled,10,FALSE,0,NO ERROR,0.251003,-21.681866,0.251003,12.602304,TRUE,FALSE,TRUE,TRUE,FALSE,TRUE,PID,-0.071875,4.090125,13.009875,TRUE,0.056290,-0.334061,0.000000,0.002502,-0.218475,0.000000,0.022000,0.182000,-0.099000,1.340000,17.120000,-0.470000,18.050365,Hold,55.202881,50.000000,Hold,-70516.000000,70451.200000,LowGoal,3255.000000,-3272.727273,Speed,3255.000000,-3272.727273,Speed,Off,Off,0.000000,FALSE,33,Read: /home/lvuser/scripts/auto_33.bee,File good!,SEARCH_FOR_GOAL,SEARCH_FOR_GOAL,0.000000,0.000000
05:40:20.967 PM 04/14/2016,Autonomous Enabled,10,FALSE,0,NO ERROR,0.236198,-20.976034,0.236198,13.282469,TRUE,FALSE,TRUE,TRUE,FALSE,TRUE,PID,-0.071875,4.090125,13.009875,TRUE,0.056625,-0.346588,0.000000,-0.032593,-0.206772,0.000000,-0.314000,-0.282000,-0.041000,1.330000,17.070000,-0.460000,17.567501,Hold,55.202881,50.000000,Hold,-70516.000000,70451.200000,LowGoal,3240.000000,-3272.727273,Speed,3255.000000,-3272.727273,Speed,Off,Off,0.000000,FALSE,33,Read: /home/lvuser/scripts/auto_33.bee,File good!,SEARCH_FOR_GOAL,SEARCH_FOR_GOAL,0.000000,0.000000
05:40:21.068 PM 04/14/2016,Autonomous Enabled,9,FALSE,0,NO ERROR,0.000000,-20.308703,-0.000000,13.949801,TRUE,FALSE,TRUE,TRUE,FALSE,TRUE,Suspended,-0.071875,4.090125,13.009875,TRUE,0.052887,-0.357986,0.000000,-0.059326,-0.221512,0.000000,0.156000,-0.029000,0.013000,1.070000,14.130000,-0.700000,14.567556,Hold,55.202881,50.000000,Hold,-70516.000000,70451.200000,LowGoal,3232.500000,-3272.727273,Speed,3240.000000,-3272.727273,Speed,Off,Off,0.000000,FALSE,33,Read: /home/lvuser/scripts/auto_33.bee,File good!,SEARCH_FOR_GOAL,SEARCH_FOR_GOAL,0.000000,0.000000
05:40:21.167 PM 04/14/2016,Autonomous Enabled,10,FALSE,0,NO ERROR,0.000000,-19.885203,-0.000000,14.289883,TRUE,FALSE,TRUE,TRUE,FALSE,TRUE,Suspended,-0.071875,4.090125,13.009875,TRUE,0.051575,-0.368240,0.000000,-0.029343,-0.190872,0.000000,-0.063000,0.019000,0.012000,1.260000,12.040000,-0.530000,12.534550,Hold,55.202881,50.000000,Hold,-70516.000000,70451.200000,LowGoal,3232.500000,-3272.727273,Speed,3240.000000,-3272.727273,Speed,Off,Off,0.000000,FALSE,33,Read: /home/lvuser/scripts/auto_33.bee,File good!,SEARCH_FOR_GOAL,SEARCH_FOR_GOAL,0.000000,0.000000
05:40:21.267 PM 04/14/2016,Autonomous Enabled,10,FALSE,0,NO ERROR,0.000000,-19.885203,-0.000000,14.116634,TRUE,FALSE,TRUE,TRUE,FALSE,TRUE,Suspended,-0.071875,4.090125,13.009875,TRUE,0.051682,-0.377457,0.000000,0.002045,-0.161255,0.000000,0.037000,-0.009000,-0.093000,1.500000,12.220000,-0.270000,12.821253,Hold,55.202881,50.000000,Hold,-70516.000000,70451.200000,LowGoal,3240.000000,-3272.727273,Speed,3247.500000,-3272.727273,Speed,Off,Off,0.000000,FALSE,33,Read: /home/lvuser/scripts/auto_33.bee,File good!,SEARCH_FOR_GOAL,SEARCH_FOR_GOAL,0.000000,0.000000
05:40:21.368 PM 04/14/2016,Autonomous Enabled,11,FALSE,0,NO ERROR,0.000000,-19.891620,-0.000000,14.058884,TRUE,FALSE,TRUE,TRUE,FALSE,TRUE,Suspended,-0.071875,4.090125,13.009875,TRUE,0.051620,-0.384552,0.000000,-0.005722,-0.189697,0.000000,0.008000,-0.046000,-0.039000,1.450000,12.400000,-0.280000,13.029490,Hold,55.202881,50.000000,Hold,-70516.000000,70451.200000,LowGoal,3247.500000,-3272.727273,Speed,3262.500000,-3272.727273,Speed,Off,Off,0.000000,FALSE,33,Read: /home/lvuser/scripts/auto_33.bee,File good!,SEARCH_FOR_GOAL,SEARCH_FOR_GOAL,0.000000,0.000000
