Time,Robot Mode,Loop Time,Error Status,Error Code,Error Source,Left Motor Output,Left Motor Encoder,Right Motor Output,Right Motor Encoder,Is Level,Is Stalled,Ball Detector Photoeye,Vision Enabled,Vision Teleop Control,Vision Auto Control,Vision Current State,Vision X Output,Vision NavX Error,Vision NavX Target,NavX Connection Status,NavX Displacement X,NavX Displacement Y,NavX Displacement Z,NavX Velocity X,NavX Velocity Y,NavX Velocity Z,NavX Acceleration X,NavX Acceleration Y,NavX Acceleration Z,NavX Pitch,NavX Yaw,NavX Roll,Gyro Angle,Roller Arm State,Roller Arm Actual,Roller Arm Desired,Shooter Arm State,Shooter Arm Actual,Shooter Arm Desired,Shooter State,Actual RPM Left,Desired RPM Left,Control Mode Left,Actual RPM Right,Desired RPM Right,Control Mode Right,Ball Shooter Cylinder,Ball Halo Cylinder,Scaler Motor Output,Scaler Solenoid Fire,Auto To Run,Auto Current File,Auto File Status,Auto Current Command,Auto Trimmed Command,Shooter Amps Left,Shooter Amps Right
01:54:09.010 PM 04/14/2016,Autonomous Enabled,10,TRUE,-44003,<LOCATION>WPI_CameraIssue HTTP Request with Authentication.vi<CALLSTACK>WPI_CameraIssue HTTP Request with Authentication.vi< <WPI_CameraIssue Get.vi< <WPI_CameraSet Image Appearance Property.vi< <WPI_CameraSet Image Size.vi< <Vision Processing.vi< <Robot Main.vi,0.000000,0.000000,-0.000000,0.000000,TRUE,FALSE,TRUE,TRUE,FALSE,FALSE,Disabled,0.000000,0.000000,0.000000,TRUE,-0.000031,0.000000,0.000000,-0.004562,0.000000,0.000000,-0.020000,-0.002000,0.011000,1.290000,-0.790000,0.440000,4.728391,ResetBack,0.000000,-0.000049,ResetBack,0.000000,-0.250000,LowGoal,0.000000,-2181.818182,Speed,0.000000,-2181.818182,Speed,Off,Off,0.000000,FALSE,23,Read: /home/lvuser/scripts/auto_23.bee,File good!,WAIT 1500,WAIT,0.000000,0.000000
01:54:09.110 PM 04/14/2016,Autonomous Enabled,10,TRUE,7,Read from Text File in DoesScriptNumberContainNull.vi->Disabled.vi->Robot Main.vi<APPEND> /home/lvuser/scripts/auto_22.bee,0.000000,0.000000,-0.000000,0.000000,TRUE,FALSE,TRUE,TRUE,FALSE,FALSE,Disabled,0.000000,0.000000,0.000000,TRUE,-0.000504,0.000214,0.000000,-0.006409,0.009735,0.000000,-0.006000,-0.018000,0.054000,1.290000,-0.790000,0.510000,4.718597,ResetBack,-0.000244,-0.000049,ResetBack,2572.000000,-0.250000,LowGoal,0.000000,-2181.818182,Speed,180.000000,-2181.818182,Speed,Off,Off,0.000000,FALSE,23,Read: /home/lvuser/scripts/auto_23.bee,File good!,WAIT 1500,WAIT,0.000000,0.000000
01:54:09.210 PM 04/14/2016,Autonomous Enabled,10,TRUE,7,Read from Text File in DoesScriptNumberContainNull.vi->Disabled.vi->Robot Main.vi<APPEND> /home/lvuser/scripts/auto_22.bee,0.000000,0.000000,-0.000000,0.000000,TRUE,FALSE,TRUE,TRUE,FALSE,FALSE,Disabled,0.000000,0.000000,0.000000,TRUE,-0.000732,-0.000137,0.000000,0.002670,-0.015961,0.000000,0.020000,-0.031000,0.094000,1.300000,-0.790000,0.520000,4.728402,ResetBack,-0.000244,-0.000049,ResetBack,2572.000000,-0.250000,LowGoal,517.500000,-2181.818182,Speed,757.500000,-2181.818182,Speed,Off,Off,0.000000,FALSE,23,Read: /home/lvuser/scripts/auto_23.bee,File good!,WAIT 1500,WAIT,0.000000,0.000000
01:54:09.311 PM 04/14/2016,Autonomous Enabled,10,TRUE,7,Read from Text File in DoesScriptNumberContainNull.vi->Disabled.vi->Robot Main.vi<APPEND> /home/lvuser/scripts/auto_22.bee,0.000000,0.000000,-0.000000,0.000000,TRUE,FALSE,TRUE,TRUE,FALSE,FALSE,Disabled,0.000000,0.000000,0.000000,TRUE,-0.000885,-0.000229,0.000000,-0.004456,0.004486,0.000000,0.033000,0.011000,0.013000,1.290000,-0.790000,0.580000,4.739232,ResetBack,-0.000488,-0.000049,ResetBack,5268.000000,-0.250000,LowGoal,1095.000000,-2181.818182,Speed,1395.000000,-2181.818182,Speed,Off,Off,0.000000,FALSE,23,Read: /home/lvuser/scripts/auto_23.bee,File good!,WAIT 1500,WAIT,0.000000,0.000000
01:54:09.411 PM 04/14/2016,Autonomous Enabled,9,TRUE,7,Read from Text File in DoesScriptNumberContainNull.vi->Disabled.vi->Robot Main.vi<APPEND> /home/lvuser/scripts/auto_22.bee,0.000000,0.000000,-0.000000,0.000000,TRUE,FALSE,TRUE,TRUE,FALSE,FALSE,Disabled,0.000000,0.000000,0.000000,TRUE,-0.001526,0.000610,0.000000,-0.025726,0.021378,0.000000,0.032000,-0.022000,-0.017000,1.290000,-0.790000,0.580000,4.734199,Reset,-0.000732,0.000000,ResetBack,6003.000000,-0.250000,LowGoal,1687.500000,-2181.818182,Speed,1890.000000,-2181.818182,Speed,Off,Off,0.000000,FALSE,23,Read: /home/lvuser/scripts/auto_23.bee,File good!,WAIT 1500,WAIT,0.000000,0.000000
01:54:09.512 PM 04/14/2016,Autonomous Enabled,11,TRUE,7,Read from Text File in DoesScriptNumberContainNull.vi->Disabled.vi->Robot Main.vi<APPEND> /home/lvuser/scripts/auto_22.bee,0.000000,0.000000,-0.000000,0.000000,TRUE,FALSE,TRUE,TRUE,FALSE,FALSE,Disabled,0.000000,0.000000,0.000000,TRUE,-0.002686,0.002594,0.000000,-0.033768,0.076126,0.000000,-0.001000,0.083000,-0.140000,1.280000,-0.790000,0.530000,4.746069,Hold,0.000000,0.000000,ResetBack,6791.000000,-0.250000,LowGoal,2152.500000,-2181.818182,Speed,2182.500000,-2181.818182,Speed,Off,Off,0.000000,FALSE,23,Read: /home/lvuser/scripts/auto_23.bee,File good!,WAIT 1500,WAIT,0.000000,0.000000
01:54:09.612 PM 04/14/2016,Autonomous Enabled,10,TRUE,7,Read from Text File in DoesScriptNumberContainNull.vi->Disabled.vi->Robot Main.vi<APPEND> /home/lvuser/scripts/auto_22.bee,0.000000,0.000000,-0.000000,0.000000,TRUE,FALSE,TRUE,TRUE,FALSE,FALSE,Disabled,0.000000,0.000000,0.000000,TRUE,-0.004700,0.008499,0.000000,-0.053970,0.133835,0.000000,-0.044000,-0.036000,0.040000,1.300000,-0.790000,0.460000,4.736117,Hold,0.000000,0.000000,ResetBack,7156.000000,-0.250000,LowGoal,2280.000000,-2181.818182,Speed,2175.000000,-2181.818182,Speed,Off,Off,0.000000,FALSE,23,Read: /home/lvuser/scripts/auto_23.bee,File good!,WAIT 1500,WAIT,0.000000,0.000000
01:54:09.713 PM 04/14/2016,Autonomous Enabled,10,TRUE,7,Read from Text File in DoesScriptNumberContainNull.vi->Disabled.vi->Robot Main.vi<APPEND> /home/lvuser/scripts/auto_22.bee,0.000000,0.000000,-0.000000,0.000000,TRUE,FALSE,TRUE,TRUE,FALSE,FALSE,Disabled,0.000000,0.000000,0.000000,TRUE,-0.008362,0.015808,0.000000,-0.035187,0.124130,0.000000,-0.044000,-0.036000,0.040000,1.330000,-0.790000,0.440000,4.737521,Hold,0.000000,0.000000,ResetBack,7338.000000,-0.250000,LowGoal,2205.000000,-2181.818182,Speed,2130.000000,-2181.818182,Speed,Off,Off,0.000000,FALSE,23,Read: /home/lvuser/scripts/auto_23.bee,File good!,WAIT 1500,WAIT,0.000000,0.000000
01:54:09.813 PM 04/14/2016,Autonomous Enabled,11,TRUE,7,Read from Text File in DoesScriptNumberContainNull.vi->Disabled.vi->Robot Main.vi<APPEND> /home/lvuser/scripts/auto_22.bee,0.000000,0.000000,-0.000000,0.000000,TRUE,FALSE,TRUE,TRUE,FALSE,FALSE,Disabled,0.000000,0.000000,0.000000,TRUE,-0.009766,0.021011,0.000000,-0.040222,0.091904,0.000000,-0.054000,0.057000,0.045000,1.330000,-0.790000,0.340000,4.738936,Hold,0.000000,0.000000,ResetBack,7338.000000,-0.250000,LowGoal,2107.500000,-2181.818182,Speed,2115.000000,-2181.818182,Speed,Off,Off,0.000000,FALSE,23,Read: /home/lvuser/scripts/auto_23.bee,File good!,WAIT 1500,WAIT,0.000000,0.000000
01:54:09.913 PM 04/14/2016,Autonomous Enabled,9,TRUE,7,Read from Text File in DoesScriptNumberContainNull.vi->Disabled.vi->Robot Main.vi<APPEND> /home/lvuser/scripts/auto_22.bee,0.000000,0.000000,-0.000000,0.000000,TRUE,FALSE,TRUE,TRUE,FALSE,FALSE,Disabled,0.000000,0.000000,0.000000,TRUE,-0.013550,0.026779,0.000000,-0.098740,0.137070,0.000000,-0.048000,0.034000,0.000000,1.350000,-0.790000,0.350000,4.745677,Hold,0.000000,0.000000,ResetBack,7338.000000,-0.250000,LowGoal,2122.500000,-2181.818182,Speed,2122.500000,-2181.818182,Speed,Off,Off,0.000000,FALSE,23,Read: /home/lvuser/scripts/auto_23.bee,File good!,WAIT 1500,WAIT,0.000000,0.000000
01:54:10.013 PM 04/14/2016,Autonomous Enabled,10,TRUE,7,Read from Text File in DoesScriptNumberContainNull.vi->Disabled.vi->Robot Main.vi<APPEND> /home/lvuser/scripts/auto_22.bee,0.000000,0.000000,-0.000000,0.000000,TRUE,FALSE,TRUE,TRUE,FALSE,FALSE,Disabled,0.000000,0.000000,0.000000,TRUE,-0.015793,0.035751,0.000000,0.000000,0.217606,0.000000,-0.065000,0.052000,0.008000,1.360000,-0.790000,0.490000,4.744045,Hold,0.000000,0.000000,ResetBack,7339.000000,-0.250000,LowGoal,2160.000000,-2181.818182,Speed,2130.000000,-2181.818182,Speed,Off,Off,0.000000,FALSE,23,Read: /home/lvuser/scripts/auto_23.bee,File good!,WAIT 1500,WAIT,0.000000,0.000000
01:54:10.113 PM 04/14/2016,Autonomous Enabled,11,TRUE,7,Read from Text File in DoesScriptNumberContainNull.vi->Disabled.vi->Robot Main.vi<APPEND> /home/lvuser/scripts/auto_22.bee,0.000000,0.000000,-0.000000,0.000000,TRUE,FALSE,TRUE,TRUE,FALSE,FALSE,Disabled,0.000000,0.000000,0.000000,TRUE,-0.016632,0.048187,0.000000,-0.023560,0.268631,0.000000,0.033000,0.052000,-0.083000,1.330000,-0.790000,0.490000,4.748647,Hold,0.000000,0.000000,ResetBack,7377.000000,-0.250000,LowGoal,2145.000000,-2181.818182,Speed,2137.500000,-2181.818182,Speed,Off,Off,0.000000,FALSE,23,Read: /home/lvuser/scripts/auto_23.bee,File good!,WAIT 1500,WAIT,0.000000,0.000000
01:54:10.213 PM 04/14/2016,Autonomous Enabled,9,TRUE,7,Read from Text File in DoesScriptNumberContainNull.vi->Disabled.vi->Robot Main.vi<APPEND> /home/lvuser/scripts/auto_22.bee,0.000000,0.000000,-0.000000,0.000000,TRUE,FALSE,TRUE,TRUE,FALSE,FALSE,Disabled,0.000000,0.000000,0.000000,TRUE,-0.017075,0.056870,0.000000,0.001312,-0.002182,0.000000,0.033000,0.052000,-0.083000,1.350000,-0.790000,0.530000,4.742341,Hold,0.000000,0.000000,ResetBack,7734.000000,-0.250000,LowGoal,2130.000000,-2181.818182,Speed,2130.000000,-2181.818182,Speed,Off,Off,0.000000,FALSE,23,Read: /home/lvuser/scripts/auto_23.bee,File good!,WAIT 1500,WAIT,0.000000,0.000000
01:54:10.313 PM 04/14/2016,Autonomous Enabled,9,TRUE,7,Read from Text File in DoesScriptNumberContainNull.vi->Disabled.vi->Robot Main.vi<APPEND> /home/lvuser/scripts/auto_22.bee,0.000000,0.000000,-0.000000,0.000000,TRUE,FALSE,TRUE,TRUE,FALSE,FALSE,Disabled,0.000000,0.000000,0.000000,TRUE,-0.017365,0.056732,0.000000,-0.016235,-0.004654,0.000000,0.006000,-0.001000,0.059000,1.340000,-0.790000,0.490000,4.742802,Hold,0.000000,0.000000,Reset,7912.000000,2.000000,LowGoal,2145.000000,-2181.818182,Speed,2137.500000,-2181.818182,Speed,Off,Off,0.000000,FALSE,23,Read: /home/lvuser/scripts/auto_23.bee,File good!,WAIT 1500,WAIT,0.000000,0.000000
01:54:10.413 PM 04/14/2016,Autonomous Enabled,9,TRUE,7,Read from Text File in DoesScriptNumberContainNull.vi->Disabled.vi->Robot Main.vi<APPEND> /home/lvuser/scripts/auto_22.bee,0.000000,0.000000,-0.000000,0.000000,TRUE,FALSE,TRUE,TRUE,FALSE,FALSE,Disabled,0.000000,0.000000,0.000000,TRUE,-0.017639,0.055511,0.000000,0.018417,-0.031219,0.000000,-0.017000,-0.048000,0.062000,1.310000,-0.790000,0.570000,4.735776,Hold,0.000000,0.000000,Hold,-146.000000,2.000000,LowGoal,2145.000000,-2181.818182,Speed,2137.500000,-2181.818182,Speed,Off,Off,0.000000,FALSE,23,Read: /home/lvuser/scripts/auto_23.bee,File good!,WAIT 1500,WAIT,0.000000,0.000000
01:54:10.514 PM 04/14/2016,Autonomous Enabled,9,TRUE,7,Read from Text File in DoesScriptNumberContainNull.vi->Disabled.vi->Robot Main.vi<APPEND> /home/lvuser/scripts/auto_22.bee,0.000000,0.000000,-0.000000,0.000000,TRUE,FALSE,TRUE,TRUE,FALSE,FALSE,Disabled,0.000000,0.000000,0.000000,TRUE,-0.015518,0.052887,0.000000,0.053802,-0.066330,0.000000,0.074000,-0.018000,0.038000,1.310000,-0.790000,0.570000,4.742031,Hold,0.000000,0.000000,Hold,-146.000000,2.000000,LowGoal,2145.000000,-2181.818182,Speed,2137.500000,-2181.818182,Speed,Off,Off,0.000000,FALSE,23,Read: /home/lvuser/scripts/auto_23.bee,File good!,WAIT 1500,WAIT,0.000000,0.000000
01:54:10.615 PM 04/14/2016,Autonomous Enabled,10,TRUE,7,Read from Text File in DoesScriptNumberContainNull.vi->Disabled.vi->Robot Main.vi<APPEND> /home/lvuser/scripts/auto_22.bee,-0.562500,-0.032083,0.562500,0.038500,TRUE,FALSE,TRUE,TRUE,FALSE,FALSE,Disabled,0.000000,0.000000,0.000000,TRUE,-0.010040,0.047119,0.000000,0.122772,-0.141907,0.000000,0.066000,-0.022000,0.075000,1.320000,-0.790000,0.560000,0.006723,Hold,0.000000,0.000000,Hold,-146.000000,2.000000,LowGoal,2145.000000,-2181.818182,Speed,2137.500000,-2181.818182,Speed,Off,Off,0.000000,FALSE,23,Read: /home/lvuser/scripts/auto_23.bee,File good!,DRIVE_STRAIGHT_NAVX_RAMPARTS 200 5000 10,DRIVE_STRAIGHT_NAVX_RAMPARTS,0.000000,0.000000
01:54:10.715 PM 04/14/2016,Autonomous Enabled,9,TRUE,7,Read from Text File in DoesScriptNumberContainNull.vi->Disabled.vi->Robot Main.vi<APPEND> /home/lvuser/scripts/auto_22.bee,-0.562500,-1.687579,0.562500,1.770996,TRUE,FALSE,TRUE,TRUE,FALSE,FALSE,Disabled,0.000000,0.000000,0.000000,TRUE,-0.010040,0.047119,0.000000,0.122772,-0.141907,0.000000,0.706000,-0.014000,-0.085000,1.350000,0.010000,0.640000,0.022043,Hold,0.000000,0.000000,Hold,-146.000000,2.000000,LowGoal,2145.000000,-1818.181818,Speed,2137.500000,-1818.181818,Speed,Off,Off,0.000000,FALSE,23,Read: /home/lvuser/scripts/auto_23.bee,File good!,DRIVE_STRAIGHT_NAVX_RAMPARTS 200 5000 10,DRIVE_STRAIGHT_NAVX_RAMPARTS,0.000000,0.000000
01:54:10.815 PM 04/14/2016,Autonomous Enabled,9,TRUE,7,Read from Text File in DoesScriptNumberContainNull.vi->Disabled.vi->Robot Main.vi<APPEND> /home/lvuser/scripts/auto_22.bee,-0.562500,-4.311990,0.562500,4.401823,FALSE,FALSE,TRUE,TRUE,FALSE,FALSE,Disabled,0.000000,0.000000,0.000000,TRUE,0.013229,0.036469,0.000000,0.622543,-0.260193,0.000000,0.220000,0.023000,-0.316000,1.200000,0.000000,5.060000,0.078263,Hold,0.000000,0.000000,Hold,-146.000000,2.000000,LowGoal,1965.000000,-1818.181818,Speed,2070.000000,-1818.181818,Speed,Off,Off,0.000000,FALSE,23,Read: /home/lvuser/scripts/auto_23.bee,File good!,DRIVE_STRAIGHT_NAVX_RAMPARTS 200 5000 10,DRIVE_STRAIGHT_NAVX_RAMPARTS,0.000000,0.000000
01:54:10.915 PM 04/14/2016,Autonomous Enabled,9,TRUE,7,Read from Text File in DoesScriptNumberContainNull.vi->Disabled.vi->Robot Main.vi<APPEND> /home/lvuser/scripts/auto_22.bee,-0.562500,-7.789815,0.562500,7.847565,FALSE,FALSE,TRUE,TRUE,FALSE,FALSE,Disabled,0.000000,0.000000,0.000000,TRUE,0.051224,0.023254,0.000000,0.839920,-0.275345,0.000000,0.163000,0.024000,0.030000,1.190000,0.020000,3.600000,0.143358,Hold,0.000000,0.000000,Hold,-146.000000,2.000000,LowGoal,1732.500000,-1818.181818,Speed,1830.000000,-1818.181818,Speed,Off,Off,0.000000,FALSE,23,Read: /home/lvuser/scripts/auto_23.bee,File good!,DRIVE_STRAIGHT_NAVX_RAMPARTS 200 5000 10,DRIVE_STRAIGHT_NAVX_RAMPARTS,0.000000,0.000000
01:54:11.016 PM 04/14/2016,Autonomous Enabled,9,TRUE,7,Read from Text File in DoesScriptNumberContainNull.vi->Disabled.vi->Robot Main.vi<APPEND> /home/lvuser/scripts/auto_22.bee,-0.562500,-11.691139,0.562500,11.729639,FALSE,FALSE,TRUE,TRUE,FALSE,FALSE,Disabled,0.000000,0.000000,0.000000,TRUE,0.097260,0.009293,0.000000,0.964340,-0.279068,0.000000,-0.125000,-0.126000,-0.080000,1.160000,0.050000,3.770000,0.175037,Hold,0.000000,0.000000,Hold,-146.000000,2.000000,LowGoal,1702.500000,-1818.181818,Speed,1695.000000,-1818.181818,Speed,Off,Off,0.000000,FALSE,23,Read: /home/lvuser/scripts/auto_23.bee,File good!,DRIVE_STRAIGHT_NAVX_RAMPARTS 200 5000 10,DRIVE_STRAIGHT_NAVX_RAMPARTS,0.000000,0.000000
01:54:11.117 PM 04/14/2016,Autonomous Enabled,10,TRUE,7,Read from Text File in DoesScriptNumberContainNull.vi->Disabled.vi->Robot Main.vi<APPEND> /home/lvuser/scripts/auto_22.bee,-0.562500,-15.521880,0.561331,15.650213,FALSE,FALSE,TRUE,TRUE,FALSE,FALSE,Disabled,0.000000,0.000000,0.000000,TRUE,0.151855,0.000107,0.000000,0.864197,-0.013794,0.000000,-0.023000,0.026000,-0.007000,1.110000,0.080000,4.110000,-0.007491,Hold,0.000000,0.000000,Hold,-146.000000,2.000000,LowGoal,1785.000000,-1818.181818,Speed,1710.000000,-1818.181818,Speed,Off,Off,0.000000,FALSE,23,Read: /home/lvuser/scripts/auto_23.bee,File good!,DRIVE_STRAIGHT_NAVX_RAMPARTS 200 5000 10,DRIVE_STRAIGHT_NAVX_RAMPARTS,0.000000,0.000000
01:54:11.216 PM 04/14/2016,Autonomous Enabled,11,TRUE,7,Read from Text File in DoesScriptNumberContainNull.vi->Disabled.vi->Robot Main.vi<APPEND> /home/lvuser/scripts/auto_22.bee,-0.562500,-19.679871,0.552406,19.885203,FALSE,FALSE,TRUE,TRUE,FALSE,FALSE,Disabled,0.000000,0.000000,0.000000,TRUE,0.177597,-0.000290,0.000000,0.000000,0.000000,0.000000,0.038000,0.005000,0.040000,1.140000,-0.170000,3.150000,-0.007491,Hold,0.000000,0.000000,Hold,-146.000000,2.000000,LowGoal,1807.500000,-1818.181818,Speed,1755.000000,-1818.181818,Speed,Off,Off,0.000000,FALSE,23,Read: /home/lvuser/scripts/auto_23.bee,File good!,DRIVE_STRAIGHT_NAVX_RAMPARTS 200 5000 10,DRIVE_STRAIGHT_NAVX_RAMPARTS,0.000000,0.000000
01:54:11.316 PM 04/14/2016,Autonomous Enabled,9,FALSE,0,NO ERROR,-0.562500,-19.679871,0.541637,19.885203,FALSE,FALSE,TRUE,TRUE,FALSE,FALSE,Disabled,0.000000,0.000000,0.000000,TRUE,0.177368,0.000046,0.000000,-0.013260,0.018478,0.000000,-0.039000,-0.051000,-0.004000,1.200000,-0.450000,3.350000,-0.279470,Hold,0.000000,0.000000,Hold,-146.000000,2.000000,LowGoal,1792.500000,-1818.181818,Speed,1762.500000,-1818.181818,Speed,Off,Off,0.000000,FALSE,23,Read: /home/lvuser/scripts/auto_23.bee,File good!,DRIVE_STRAIGHT_NAVX_RAMPARTS 200 5000 10,DRIVE_STRAIGHT_NAVX_RAMPARTS,0.000000,0.000000
01:54:11.416 PM 04/14/2016,Autonomous Enabled,11,FALSE,0,NO ERROR,-0.562500,-23.863528,0.542020,24.145860,TRUE,FALSE,TRUE,TRUE,FALSE,FALSE,Disabled,0.000000,0.000000,0.000000,TRUE,0.175812,0.000977,0.000000,-0.029327,0.024490,0.000000,0.018000,-0.055000,-0.058000,1.260000,-0.600000,2.960000,-0.487477,Hold,0.000000,0.000000,Hold,-146.000000,2.000000,LowGoal,1777.500000,-1818.181818,Speed,1755.000000,-1818.181818,Speed,Off,Off,0.000000,FALSE,23,Read: /home/lvuser/scripts/auto_23.bee,File good!,DRIVE_STRAIGHT_NAVX_RAMPARTS 200 5000 10,DRIVE_STRAIGHT_NAVX_RAMPARTS,0.000000,0.000000
01:54:11.516 PM 04/14/2016,Autonomous Enabled,9,FALSE,0,NO ERROR,-0.562500,-28.239684,0.549704,28.406517,TRUE,FALSE,TRUE,TRUE,FALSE,FALSE,Disabled,0.000000,0.000000,0.000000,TRUE,0.171585,0.001862,0.000000,-0.121063,0.022476,0.000000,-0.025000,0.008000,0.128000,1.270000,-0.410000,2.780000,-0.340755,Hold,0.000000,0.000000,Hold,-146.000000,2.000000,LowGoal,1777.500000,-1818.181818,Speed,1755.000000,-1818.181818,Speed,Off,Off,0.000000,FALSE,23,Read: /home/lvuser/scripts/auto_23.bee,File good!,DRIVE_STRAIGHT_NAVX_RAMPARTS 200 5000 10,DRIVE_STRAIGHT_NAVX_RAMPARTS,0.000000,0.000000
01:54:11.617 PM 04/14/2016,Autonomous Enabled,10,FALSE,0,NO ERROR,-0.562500,-32.442591,0.552019,32.506757,TRUE,FALSE,TRUE,TRUE,FALSE,FALSE,Disabled,0.000000,0.000000,0.000000,TRUE,0.169037,0.003708,0.000000,0.005402,0.046265,0.000000,-0.062000,-0.079000,-0.011000,1.270000,-0.270000,2.670000,-0.184865,Hold,0.000000,0.000000,Hold,-146.000000,2.000000,LowGoal,1785.000000,-1818.181818,Speed,1755.000000,-1818.181818,Speed,Off,Off,0.000000,FALSE,23,Read: /home/lvuser/scripts/auto_23.bee,File good!,DRIVE_STRAIGHT_NAVX_RAMPARTS 200 5000 10,DRIVE_STRAIGHT_NAVX_RAMPARTS,0.000000,0.000000
01:54:11.716 PM 04/14/2016,Autonomous Enabled,9,FALSE,0,NO ERROR,-0.562500,-36.709664,0.548548,36.799497,TRUE,FALSE,TRUE,TRUE,FALSE,FALSE,Disabled,0.000000,0.000000,0.000000,TRUE,0.166962,0.005630,0.000000,-0.085663,0.041534,0.000000,0.069000,-0.035000,-0.079000,1.210000,-0.330000,2.380000,-0.178104,Hold,0.000000,0.000000,Hold,-146.000000,2.000000,LowGoal,1777.500000,-1818.181818,Speed,1747.500000,-1818.181818,Speed,Off,Off,0.000000,FALSE,23,Read: /home/lvuser/scripts/auto_23.bee,File good!,DRIVE_STRAIGHT_NAVX_RAMPARTS 200 5000 10,DRIVE_STRAIGHT_NAVX_RAMPARTS,0.000000,0.000000
01:54:11.816 PM 04/14/2016,Autonomous Enabled,10,FALSE,0,NO ERROR,-0.562500,-40.899738,0.544319,41.021654,TRUE,FALSE,TRUE,TRUE,FALSE,FALSE,Disabled,0.000000,0.000000,0.000000,TRUE,0.162552,0.007721,0.000000,-0.101730,0.052734,0.000000,0.044000,-0.088000,-0.106000,1.200000,-0.450000,2.290000,-0.321604,Hold,0.000000,0.000000,Hold,-146.000000,2.000000,LowGoal,1770.000000,-1818.181818,Speed,1755.000000,-1818.181818,Speed,Off,Off,0.000000,FALSE,23,Read: /home/lvuser/scripts/auto_23.bee,File good!,DRIVE_STRAIGHT_NAVX_RAMPARTS 200 5000 10,DRIVE_STRAIGHT_NAVX_RAMPARTS,0.000000,0.000000
01:54:11.916 PM 04/14/2016,Autonomous Enabled,10,FALSE,0,NO ERROR,-0.562500,-45.128311,0.539343,45.269477,TRUE,FALSE,TRUE,TRUE,FALSE,FALSE,Disabled,0.000000,0.000000,0.000000,TRUE,0.157135,0.009583,0.000000,-0.122772,0.043732,0.000000,-0.086000,-0.084000,0.106000,1.300000,-0.570000,2.200000,-0.461268,Hold,0.000000,0.000000,Hold,-146.000000,2.000000,LowGoal,1777.500000,-1818.181818,Speed,1747.500000,-1818.181818,Speed,Off,Off,0.000000,FALSE,23,Read: /home/lvuser/scripts/auto_23.bee,File good!,DRIVE_STRAIGHT_NAVX_RAMPARTS 200 5000 10,DRIVE_STRAIGHT_NAVX_RAMPARTS,0.000000,0.000000
01:54:12.017 PM 04/14/2016,Autonomous Enabled,10,FALSE,0,NO ERROR,-0.562500,-49.369718,0.540107,49.510884,FALSE,FALSE,TRUE,TRUE,FALSE,FALSE,Disabled,0.000000,0.000000,0.000000,TRUE,0.148895,0.011536,0.000000,-0.192322,0.051514,0.000000,-0.306000,-0.158000,-0.230000,1.250000,-0.580000,4.390000,-0.536292,Hold,0.000000,0.000000,Hold,-146.000000,2.000000,LowGoal,1777.500000,-1818.181818,Speed,1747.500000,-1818.181818,Speed,Off,Off,0.000000,FALSE,23,Read: /home/lvuser/scripts/auto_23.bee,File good!,DRIVE_STRAIGHT_NAVX_RAMPARTS 200 5000 10,DRIVE_STRAIGHT_NAVX_RAMPARTS,0.000000,0.000000
01:54:12.116 PM 04/14/2016,Autonomous Enabled,9,FALSE,0,NO ERROR,-0.562500,-53.572625,0.537054,53.617541,FALSE,FALSE,TRUE,TRUE,FALSE,FALSE,Disabled,0.000000,0.000000,0.000000,TRUE,0.133072,0.013107,0.000000,-0.349243,0.044098,0.000000,0.022000,0.041000,0.087000,1.240000,-0.610000,5.670000,-0.595917,Hold,0.000000,0.000000,Hold,-146.000000,2.000000,LowGoal,1777.500000,-1818.181818,Speed,1747.500000,-1818.181818,Speed,Off,Off,0.000000,FALSE,23,Read: /home/lvuser/scripts/auto_23.bee,File good!,DRIVE_STRAIGHT_NAVX_RAMPARTS 200 5000 10,DRIVE_STRAIGHT_NAVX_RAMPARTS,0.000000,0.000000
01:54:12.217 PM 04/14/2016,Autonomous Enabled,10,FALSE,0,NO ERROR,-0.562500,-57.557365,0.535151,57.557365,FALSE,FALSE,TRUE,TRUE,FALSE,FALSE,Disabled,0.000000,0.000000,0.000000,TRUE,0.114838,0.015976,0.000000,-0.376587,0.060242,0.000000,-0.073000,-0.066000,-0.002000,1.230000,-0.710000,8.330000,-0.737575,Hold,0.000000,0.000000,Hold,-146.000000,2.000000,LowGoal,1770.000000,-1818.181818,Speed,1755.000000,-1818.181818,Speed,Off,Off,0.000000,FALSE,23,Read: /home/lvuser/scripts/auto_23.bee,File good!,DRIVE_STRAIGHT_NAVX_RAMPARTS 200 5000 10,DRIVE_STRAIGHT_NAVX_RAMPARTS,0.000000,0.000000
01:54:12.317 PM 04/14/2016,Autonomous Enabled,9,FALSE,0,NO ERROR,-0.562500,-61.246940,0.534770,61.266190,FALSE,FALSE,TRUE,TRUE,FALSE,FALSE,Disabled,0.000000,0.000000,0.000000,TRUE,0.090607,0.020340,0.000000,-0.403122,0.095459,0.000000,-0.008000,0.036000,-0.058000,1.140000,-0.710000,9.810000,-0.788759,Hold,0.000000,0.000000,Hold,-146.000000,2.000000,LowGoal,1777.500000,-1818.181818,Speed,1747.500000,-1818.181818,Speed,Off,Off,0.000000,FALSE,23,Read: /home/lvuser/scripts/auto_23.bee,File good!,DRIVE_STRAIGHT_NAVX_RAMPARTS 200 5000 10,DRIVE_STRAIGHT_NAVX_RAMPARTS,0.000000,0.000000
01:54:12.417 PM 04/14/2016,Autonomous Enabled,11,FALSE,0,NO ERROR,-0.562500,-64.782515,0.532871,64.821015,FALSE,FALSE,TRUE,TRUE,FALSE,FALSE,Disabled,0.000000,0.000000,0.000000,TRUE,0.066574,0.024704,0.000000,-0.615967,0.085526,0.000000,-0.241000,0.044000,0.058000,1.130000,-0.720000,11.450000,-0.864695,Hold,0.000000,0.000000,Hold,-146.000000,2.000000,LowGoal,1777.500000,-1818.181818,Speed,1747.500000,-1818.181818,Speed,Off,Off,0.000000,FALSE,23,Read: /home/lvuser/scripts/auto_23.bee,File good!,DRIVE_STRAIGHT_NAVX_RAMPARTS 200 5000 10,DRIVE_STRAIGHT_NAVX_RAMPARTS,0.000000,0.000000
01:54:12.519 PM 04/14/2016,Autonomous Enabled,15,FALSE,0,NO ERROR,-0.562500,-68.581173,0.534010,68.549090,FALSE,FALSE,TRUE,TRUE,FALSE,FALSE,Disabled,0.000000,0.000000,0.000000,TRUE,0.033295,0.029907,0.000000,-0.685776,0.098938,0.000000,-0.069000,-0.034000,0.303000,0.880000,-0.740000,18.110000,-1.028378,Hold,0.000000,0.000000,Hold,-146.000000,2.000000,LowGoal,1777.500000,-1818.181818,Speed,1747.500000,-1818.181818,Speed,Off,Off,0.000000,FALSE,23,Read: /home/lvuser/scripts/auto_23.bee,File good!,DRIVE_STRAIGHT_NAVX_RAMPARTS 200 5000 10,DRIVE_STRAIGHT_NAVX_RAMPARTS,0.000000,0.000000
01:54:12.620 PM 04/14/2016,Autonomous Enabled,11,FALSE,0,NO ERROR,-0.562500,-71.430166,0.534010,71.301833,FALSE,FALSE,TRUE,TRUE,FALSE,FALSE,Disabled,0.000000,0.000000,0.000000,TRUE,-0.001404,0.034180,0.000000,-0.670807,0.079468,0.000000,0.234000,0.022000,-0.105000,1.100000,-0.750000,15.470000,-0.965658,Hold,0.000000,0.000000,Hold,-146.000000,2.000000,LowGoal,1770.000000,-1818.181818,Speed,1740.000000,-1818.181818,Speed,Off,Off,0.000000,FALSE,23,Read: /home/lvuser/scripts/auto_23.bee,File good!,DRIVE_STRAIGHT_NAVX_RAMPARTS 200 5000 10,DRIVE_STRAIGHT_NAVX_RAMPARTS,0.000000,0.000000
01:54:12.721 PM 04/14/2016,Autonomous Enabled,11,FALSE,0,NO ERROR,-0.562500,-74.612826,0.540872,74.291993,FALSE,FALSE,TRUE,TRUE,FALSE,FALSE,Disabled,0.000000,0.000000,0.000000,TRUE,-0.029480,0.039001,0.000000,-0.478790,0.094345,0.000000,-0.320000,0.175000,0.063000,1.790000,-0.560000,12.570000,-0.693187,Hold,0.000000,0.000000,Hold,-146.000000,2.000000,LowGoal,1755.000000,-1818.181818,Speed,1732.500000,-1818.181818,Speed,Off,Off,0.000000,FALSE,23,Read: /home/lvuser/scripts/auto_23.bee,File good!,DRIVE_STRAIGHT_NAVX_RAMPARTS 200 5000 10,DRIVE_STRAIGHT_NAVX_RAMPARTS,0.000000,0.000000
01:54:12.823 PM 04/14/2016,Autonomous Enabled,11,FALSE,0,NO ERROR,-0.562500,-77.859651,0.590531,77.262903,FALSE,FALSE,TRUE,TRUE,FALSE,FALSE,Disabled,0.000000,0.000000,0.000000,TRUE,-0.063141,0.045639,0.000000,-0.837662,0.130356,0.000000,-0.057000,-0.029000,0.076000,1.720000,0.320000,10.780000,0.110362,Hold,0.000000,0.000000,Hold,-146.000000,2.000000,LowGoal,1762.500000,-1818.181818,Speed,1740.000000,-1818.181818,Speed,Off,Off,0.000000,FALSE,23,Read: /home/lvuser/scripts/auto_23.bee,File good!,DRIVE_STRAIGHT_NAVX_RAMPARTS 200 5000 10,DRIVE_STRAIGHT_NAVX_RAMPARTS,0.000000,0.000000
01:54:12.923 PM 04/14/2016,Autonomous Enabled,12,FALSE,0,NO ERROR,-0.562500,-81.241227,0.618016,80.618811,FALSE,FALSE,TRUE,TRUE,FALSE,FALSE,Disabled,0.000000,0.000000,0.000000,TRUE,-0.098953,0.051620,0.000000,-0.656586,0.111847,0.000000,0.227000,0.047000,-0.597000,1.290000,1.390000,17.170000,0.875663,Hold,0.000244,0.000000,Hold,-146.000000,2.000000,LowGoal,1762.500000,-1818.181818,Speed,1740.000000,-1818.181818,Speed,Off,Off,0.000000,FALSE,23,Read: /home/lvuser/scripts/auto_23.bee,File good!,DRIVE_STRAIGHT_NAVX_RAMPARTS 200 5000 10,DRIVE_STRAIGHT_NAVX_RAMPARTS,0.000000,0.000000
01:54:13.023 PM 04/14/2016,Autonomous Enabled,11,FALSE,0,NO ERROR,-0.562500,-83.769387,0.559384,83.743721,FALSE,FALSE,TRUE,TRUE,FALSE,FALSE,Disabled,0.000000,0.000000,0.000000,TRUE,-0.134247,0.054413,0.000000,-0.777573,-0.028824,0.000000,0.318000,0.358000,-0.257000,1.980000,0.020000,13.980000,0.537194,Hold,0.013184,0.000000,Hold,-146.000000,2.000000,LowGoal,1755.000000,-1818.181818,Speed,1740.000000,-1818.181818,Speed,Off,Off,0.000000,FALSE,23,Read: /home/lvuser/scripts/auto_23.bee,File good!,DRIVE_STRAIGHT_NAVX_RAMPARTS 200 5000 10,DRIVE_STRAIGHT_NAVX_RAMPARTS,0.000000,0.000000
01:54:13.124 PM 04/14/2016,Autonomous Enabled,10,FALSE,0,NO ERROR,-0.562500,-86.926380,0.559773,87.381962,FALSE,FALSE,TRUE,TRUE,FALSE,FALSE,Disabled,0.000000,0.000000,0.000000,TRUE,-0.168961,0.058548,0.000000,-0.423279,0.054337,0.000000,0.363000,-0.236000,-0.567000,4.160000,-0.360000,10.260000,0.372740,Hold,0.113281,0.000000,Hold,-146.000000,2.000000,LowGoal,1747.500000,-1818.181818,Speed,1732.500000,-1818.181818,Speed,Off,Off,0.000000,FALSE,23,Read: /home/lvuser/scripts/auto_23.bee,File good!,DRIVE_STRAIGHT_NAVX_RAMPARTS 200 5000 10,DRIVE_STRAIGHT_NAVX_RAMPARTS,0.000000,0.000000
01:54:13.225 PM 04/14/2016,Autonomous Enabled,11,FALSE,0,NO ERROR,-0.562500,-89.948623,0.665921,89.621374,FALSE,FALSE,TRUE,TRUE,FALSE,FALSE,Disabled,0.000000,0.000000,0.000000,TRUE,-0.187576,0.061310,0.000000,-0.532059,0.158020,0.000000,0.359000,0.051000,0.425000,4.660000,2.190000,1.900000,2.251144,Hold,0.119629,0.000000,Hold,-146.000000,2.000000,LowGoal,1755.000000,-1818.181818,Speed,1732.500000,-1818.181818,Speed,Off,Off,0.000000,FALSE,23,Read: /home/lvuser/scripts/auto_23.bee,File good!,DRIVE_STRAIGHT_NAVX_RAMPARTS 200 5000 10,DRIVE_STRAIGHT_NAVX_RAMPARTS,0.000000,0.000000
01:54:13.327 PM 04/14/2016,Autonomous Enabled,10,FALSE,0,NO ERROR,-0.562500,-93.708781,0.716495,93.420032,FALSE,FALSE,TRUE,TRUE,FALSE,FALSE,Disabled,0.000000,0.000000,0.000000,TRUE,-0.204727,0.070969,0.000000,0.009644,0.142975,0.000000,0.078000,-0.040000,-0.940000,4.420000,3.710000,-3.290000,4.430651,Hold,0.164551,0.000000,Hold,-146.000000,2.000000,LowGoal,1747.500000,-1818.181818,Speed,1740.000000,-1818.181818,Speed,Off,Off,0.000000,FALSE,23,Read: /home/lvuser/scripts/auto_23.bee,File good!,DRIVE_STRAIGHT_NAVX_RAMPARTS 200 5000 10,DRIVE_STRAIGHT_NAVX_RAMPARTS,0.000000,0.000000
01:54:13.427 PM 04/14/2016,Autonomous Enabled,11,FALSE,0,NO ERROR,-0.562500,-97.834688,0.670171,97.937354,FALSE,FALSE,TRUE,TRUE,FALSE,FALSE,Disabled,0.000000,0.000000,0.000000,TRUE,-0.199356,0.073593,0.000000,0.117767,0.065842,0.000000,0.110000,-0.044000,1.003000,2.760000,2.160000,-7.600000,4.221929,Hold,0.194336,0.000000,Hold,-146.000000,2.000000,LowGoal,1755.000000,-1818.181818,Speed,1740.000000,-1818.181818,Speed,Off,Off,0.000000,FALSE,23,Read: /home/lvuser/scripts/auto_23.bee,File good!,DRIVE_STRAIGHT_NAVX_RAMPARTS 200 5000 10,DRIVE_STRAIGHT_NAVX_RAMPARTS,0.000000,0.000000
01:54:13.527 PM 04/14/2016,Autonomous Enabled,10,FALSE,0,NO ERROR,-0.562500,-101.351013,0.511082,102.608677,FALSE,FALSE,TRUE,TRUE,FALSE,FALSE,Disabled,0.000000,0.000000,0.000000,TRUE,-0.188065,0.070053,0.000000,0.250900,0.064987,0.000000,0.043000,-0.130000,-1.207000,1.130000,-0.720000,-14.840000,1.322872,Hold,0.194336,0.000000,Hold,-146.000000,2.000000,LowGoal,1747.500000,-1818.181818,Speed,1740.000000,-1818.181818,Speed,Off,Off,0.000000,FALSE,23,Read: /home/lvuser/scripts/auto_23.bee,File good!,DRIVE_STRAIGHT_NAVX_RAMPARTS 200 5000 10,DRIVE_STRAIGHT_NAVX_RAMPARTS,0.000000,0.000000
01:54:13.628 PM 04/14/2016,Autonomous Enabled,11,FALSE,0,NO ERROR,-0.562500,-105.996669,0.447748,107.729165,FALSE,FALSE,TRUE,TRUE,FALSE,FALSE,Disabled,0.000000,0.000000,0.000000,TRUE,-0.174713,0.074570,0.000000,0.321014,0.081802,0.000000,0.095000,-0.054000,-0.104000,2.000000,-3.100000,-15.610000,-1.417976,Hold,0.596924,0.000000,Hold,-146.000000,2.000000,LowGoal,1747.500000,-1818.181818,Speed,1755.000000,-1818.181818,Speed,Off,Off,0.000000,FALSE,23,Read: /home/lvuser/scripts/auto_23.bee,File good!,DRIVE_STRAIGHT_NAVX_RAMPARTS 200 5000 10,DRIVE_STRAIGHT_NAVX_RAMPARTS,0.000000,0.000000
01:54:13.729 PM 04/14/2016,Autonomous Enabled,8,FALSE,0,NO ERROR,-0.562500,-111.701072,0.434967,113.593984,FALSE,FALSE,TRUE,TRUE,FALSE,FALSE,Disabled,0.000000,0.000000,0.000000,TRUE,-0.163681,0.077835,0.000000,0.121674,0.093140,0.000000,0.001000,0.046000,-0.676000,2.470000,-3.380000,-7.680000,-2.016540,Hold,0.822510,0.000000,Hold,-146.000000,2.000000,LowGoal,1777.500000,-1818.181818,Speed,1770.000000,-1818.181818,Speed,Off,Off,0.000000,FALSE,23,Read: /home/lvuser/scripts/auto_23.bee,File good!,DRIVE_STRAIGHT_NAVX_RAMPARTS 200 5000 10,DRIVE_STRAIGHT_NAVX_RAMPARTS,0.000000,0.000000
01:54:13.830 PM 04/14/2016,Autonomous Enabled,9,FALSE,0,NO ERROR,-0.562500,-116.892143,0.453683,118.598973,FALSE,FALSE,TRUE,TRUE,FALSE,FALSE,Disabled,0.000000,0.000000,0.000000,TRUE,-0.161179,0.083694,0.000000,-0.056503,0.094116,0.000000,0.310000,-0.056000,-0.209000,2.680000,-2.970000,-3.600000,-1.983471,Hold,0.895752,0.000000,Hold,-146.000000,2.000000,LowGoal,1800.000000,-1818.181818,Speed,1770.000000,-1818.181818,Speed,Off,Off,0.000000,FALSE,23,Read: /home/lvuser/scripts/auto_23.bee,File good!,DRIVE_STRAIGHT_NAVX_RAMPARTS 200 5000 10,DRIVE_STRAIGHT_NAVX_RAMPARTS,0.000000,0.000000
01:54:13.931 PM 04/14/2016,Autonomous Enabled,10,FALSE,0,NO ERROR,-0.562500,-0.314416,0.562500,0.346499,TRUE,FALSE,TRUE,TRUE,FALSE,FALSE,Disabled,0.000000,0.000000,0.000000,TRUE,-0.160690,0.087952,0.000000,0.107880,0.108765,0.000000,0.227000,0.058000,-0.588000,2.370000,-2.820000,-1.960000,-1.691195,Hold,1.159180,0.000000,Hold,-146.000000,2.000000,LowGoal,1792.500000,-1818.181818,Speed,1762.500000,-1818.181818,Speed,Off,Off,0.000000,FALSE,23,Read: /home/lvuser/scripts/auto_23.bee,File good!,DRIVE_STRAIGHT_TARGET 12 0 10000 75,DRIVE_STRAIGHT_TARGET,0.000000,0.000000
01:54:14.032 PM 04/14/2016,Autonomous Enabled,10,FALSE,0,NO ERROR,-0.562500,-4.850989,0.562500,4.542989,TRUE,FALSE,TRUE,TRUE,FALSE,FALSE,Disabled,0.000000,0.000000,0.000000,TRUE,-0.163315,0.092361,0.000000,-0.164322,0.045807,0.000000,0.666000,0.140000,-1.065000,2.270000,-2.000000,1.070000,-0.898742,Hold,2.666992,0.000000,Hold,-146.000000,2.000000,LowGoal,1770.000000,-1818.181818,Speed,1755.000000,-1818.181818,Speed,Off,Off,0.000000,FALSE,23,Read: /home/lvuser/scripts/auto_23.bee,File good!,DRIVE_STRAIGHT_TARGET 12 0 10000 75,DRIVE_STRAIGHT_TARGET,0.000000,0.000000
01:54:14.133 PM 04/14/2016,Autonomous Enabled,10,FALSE,0,NO ERROR,-0.562500,-8.482813,0.562500,8.238981,TRUE,FALSE,TRUE,TRUE,FALSE,FALSE,Disabled,0.000000,0.000000,0.000000,TRUE,-0.170288,0.091766,0.000000,-0.230927,-0.088104,0.000000,0.240000,-0.003000,-0.013000,2.200000,-2.100000,0.520000,-0.986699,Hold,1.680908,0.000000,Hold,-146.000000,2.000000,LowGoal,1762.500000,-1818.181818,Speed,1755.000000,-1818.181818,Speed,Off,Off,0.000000,FALSE,23,Read: /home/lvuser/scripts/auto_23.bee,File good!,DRIVE_STRAIGHT_TARGET 12 0 10000 75,DRIVE_STRAIGHT_TARGET,0.000000,0.000000
01:54:14.234 PM 04/14/2016,Autonomous Enabled,9,FALSE,0,NO ERROR,-0.250000,-12.275055,-0.250000,12.121055,TRUE,FALSE,TRUE,TRUE,FALSE,FALSE,Disabled,0.000000,0.000000,0.000000,TRUE,-0.178482,0.084808,0.000000,-0.073151,-0.119904,0.000000,-0.203000,-0.058000,0.262000,2.240000,-2.410000,1.250000,-1.205494,Hold,1.080322,0.000000,Hold,-146.000000,2.000000,LowGoal,1770.000000,-1818.181818,Speed,1747.500000,-1818.181818,Speed,Off,Off,0.000000,FALSE,23,Read: /home/lvuser/scripts/auto_23.bee,File good!,SET_HEADING 0,SET_HEADING,0.000000,0.000000
01:54:14.335 PM 04/14/2016,Autonomous Enabled,9,FALSE,0,NO ERROR,-0.250000,-16.035213,-0.250000,14.565799,TRUE,FALSE,TRUE,TRUE,FALSE,FALSE,Disabled,0.000000,0.000000,0.000000,TRUE,-0.184479,0.079727,0.000000,-0.214844,-0.107635,0.000000,-0.399000,0.028000,-0.302000,2.440000,-2.290000,0.000000,-1.386198,Hold,1.080322,0.000000,Hold,-146.000000,2.000000,LowGoal,1777.500000,-1818.181818,Speed,1755.000000,-1818.181818,Speed,Off,Off,0.000000,FALSE,23,Read: /home/lvuser/scripts/auto_23.bee,File good!,SET_HEADING 0,SET_HEADING,0.000000,0.000000
01:54:14.435 PM 04/14/2016,Autonomous Enabled,9,FALSE,0,NO ERROR,0.250000,-18.755873,0.250000,14.957215,FALSE,FALSE,TRUE,TRUE,FALSE,FALSE,Disabled,0.000000,0.000000,0.000000,TRUE,-0.208221,0.080948,0.000000,-0.664078,0.135010,0.000000,-0.137000,0.032000,-0.737000,3.710000,2.540000,-4.090000,3.211142,Hold,1.080322,0.000000,Hold,-146.000000,2.000000,LowGoal,1777.500000,-1818.181818,Speed,1755.000000,-1818.181818,Speed,Off,Off,0.000000,FALSE,23,Read: /home/lvuser/scripts/auto_23.bee,File good!,SET_HEADING 0,SET_HEADING,0.000000,0.000000
01:54:14.537 PM 04/14/2016,Autonomous Enabled,9,FALSE,0,NO ERROR,0.250000,-19.962203,0.250000,15.528297,FALSE,FALSE,TRUE,TRUE,FALSE,FALSE,Disabled,0.000000,0.000000,0.000000,TRUE,-0.247528,0.086563,0.000000,-0.935471,-0.000015,0.000000,-0.735000,-1.052000,0.899000,0.730000,5.840000,-3.880000,7.565817,Hold,1.080322,0.000000,Hold,-146.000000,2.000000,LowGoal,1770.000000,-1818.181818,Speed,1755.000000,-1818.181818,Speed,Off,Off,0.000000,FALSE,23,Read: /home/lvuser/scripts/auto_23.bee,File good!,SET_HEADING 0,SET_HEADING,0.000000,0.000000
01:54:14.637 PM 04/14/2016,Autonomous Enabled,9,FALSE,0,NO ERROR,0.250000,-19.179372,0.250000,16.285462,FALSE,FALSE,TRUE,TRUE,FALSE,FALSE,Disabled,0.293750,0.000000,0.000000,TRUE,-0.316833,0.068726,0.000000,-1.114441,-0.213730,0.000000,0.077000,0.251000,-0.092000,1.620000,3.200000,-3.200000,4.645622,Hold,1.080078,0.000000,Hold,-146.000000,2.000000,LowGoal,1770.000000,-1818.181818,Speed,1755.000000,-1818.181818,Speed,Off,Off,0.000000,FALSE,23,Read: /home/lvuser/scripts/auto_23.bee,File good!,SET_HEADING 0,SET_HEADING,0.000000,0.000000
01:54:14.737 PM 04/14/2016,Autonomous Enabled,9,FALSE,0,NO ERROR,-0.250000,-18.447874,-0.250000,16.895044,FALSE,FALSE,TRUE,TRUE,FALSE,FALSE,Disabled,0.293750,0.000000,0.000000,TRUE,-0.370453,0.061707,0.000000,-1.060989,-0.184875,0.000000,0.022000,-0.059000,-0.007000,1.550000,-0.110000,-3.280000,1.123441,Hold,1.080078,0.000000,Hold,-146.000000,2.000000,LowGoal,1770.000000,-1818.181818,Speed,1755.000000,-1818.181818,Speed,Off,Off,0.000000,FALSE,23,Read: /home/lvuser/scripts/auto_23.bee,File good!,SET_HEADING 0,SET_HEADING,0.000000,0.000000
01:54:14.838 PM 04/14/2016,Autonomous Enabled,8,FALSE,0,NO ERROR,0.000000,-18.191207,-0.000000,17.113210,TRUE,FALSE,TRUE,TRUE,FALSE,TRUE,Disabled,0.293750,0.000000,0.000000,TRUE,-0.390930,0.053650,0.000000,0.048569,-0.087967,0.000000,0.248000,-0.023000,0.032000,2.140000,-1.600000,-2.860000,-0.648605,Hold,1.080078,50.000000,Hold,-146.000000,69632.000000,LowGoal,1762.500000,-1818.181818,Speed,1755.000000,-1818.181818,Speed,Off,Off,0.000000,FALSE,23,Read: /home/lvuser/scripts/auto_23.bee,File good!,SEARCH_FOR_GOAL,SEARCH_FOR_GOAL,0.000000,0.000000
01:54:14.941 PM 04/14/2016,Autonomous Enabled,11,FALSE,0,NO ERROR,0.000000,-18.210457,-0.000000,16.920710,TRUE,FALSE,TRUE,TRUE,FALSE,TRUE,Disabled,0.293750,0.000000,0.000000,TRUE,-0.383331,0.048248,0.000000,0.183823,-0.135971,0.000000,0.007000,-0.048000,-0.033000,1.920000,-0.760000,-2.200000,0.200495,Hold,2.917480,50.000000,Hold,-146.000000,69632.000000,LowGoal,1807.500000,-3272.727273,Speed,1762.500000,-3272.727273,Speed,Off,Off,0.000000,FALSE,23,Read: /home/lvuser/scripts/auto_23.bee,File good!,SEARCH_FOR_GOAL,SEARCH_FOR_GOAL,0.000000,0.000000
01:54:15.040 PM 04/14/2016,Autonomous Enabled,11,FALSE,0,NO ERROR,0.000000,-18.210457,-0.000000,16.869377,TRUE,FALSE,TRUE,TRUE,FALSE,TRUE,Disabled,0.293750,0.000000,0.000000,TRUE,-0.380661,0.042801,0.000000,0.042038,0.000000,0.000000,0.036000,-0.022000,-0.019000,1.990000,-0.760000,-2.070000,0.256894,Hold,4.919922,50.000000,Hold,-4597.000000,69632.000000,LowGoal,1807.500000,-3272.727273,Speed,1792.500000,-3272.727273,Speed,Off,Off,0.000000,FALSE,23,Read: /home/lvuser/scripts/auto_23.bee,File good!,SEARCH_FOR_GOAL,SEARCH_FOR_GOAL,0.000000,0.000000
01:54:15.142 PM 04/14/2016,Autonomous Enabled,11,FALSE,0,NO ERROR,0.000000,-18.210457,-0.000000,16.869377,TRUE,FALSE,TRUE,TRUE,FALSE,TRUE,Disabled,0.293750,0.000000,0.000000,TRUE,-0.379135,0.041397,0.000000,0.032104,-0.048355,0.000000,0.087000,0.070000,0.064000,1.970000,-0.740000,-1.870000,0.264595,Hold,7.558105,50.000000,Hold,-17705.000000,69632.000000,LowGoal,2167.500000,-3272.727273,Speed,2220.000000,-3272.727273,Speed,Off,Off,0.000000,FALSE,23,Read: /home/lvuser/scripts/auto_23.bee,File good!,SEARCH_FOR_GOAL,SEARCH_FOR_GOAL,0.000000,0.000000
01:54:15.242 PM 04/14/2016,Autonomous Enabled,10,FALSE,0,NO ERROR,0.000000,-18.210457,-0.000000,16.869377,TRUE,FALSE,TRUE,TRUE,FALSE,TRUE,Disabled,0.293750,0.000000,0.000000,TRUE,-0.375595,0.038879,0.000000,0.074097,-0.054901,0.000000,0.156000,-0.004000,0.029000,1.910000,-0.840000,-1.840000,0.191716,Hold,10.667236,50.000000,Hold,-30719.000000,69632.000000,LowGoal,2565.000000,-3272.727273,Speed,2527.500000,-3272.727273,Speed,Off,Off,0.000000,FALSE,23,Read: /home/lvuser/scripts/auto_23.bee,File good!,SEARCH_FOR_GOAL,SEARCH_FOR_GOAL,0.000000,0.000000
01:54:15.343 PM 04/14/2016,Autonomous Enabled,10,FALSE,0,NO ERROR,0.000000,-18.210457,-0.000000,16.869377,TRUE,FALSE,TRUE,TRUE,FALSE,TRUE,Disabled,0.293750,0.000000,0.000000,TRUE,-0.369507,0.038345,0.000000,0.144821,0.002365,0.000000,-0.091000,0.060000,0.045000,1.930000,-0.870000,-1.540000,0.148157,Hold,13.495361,50.000000,Hold,-30719.000000,69632.000000,LowGoal,2895.000000,-3272.727273,Speed,2850.000000,-3272.727273,Speed,Off,Off,0.000000,FALSE,23,Read: /home/lvuser/scripts/auto_23.bee,File good!,SEARCH_FOR_GOAL,SEARCH_FOR_GOAL,0.000000,0.000000
01:54:15.443 PM 04/14/2016,Autonomous Enabled,11,FALSE,0,NO ERROR,0.000000,-18.210457,-0.000000,16.869377,TRUE,FALSE,TRUE,TRUE,FALSE,TRUE,Disabled,0.293750,0.000000,0.000000,TRUE,-0.363205,0.037827,0.000000,0.113571,-0.015701,0.000000,-0.007000,0.037000,-0.064000,1.910000,-0.780000,-1.580000,0.235753,Hold,17.577393,50.000000,Hold,-41824.000000,69632.000000,LowGoal,3165.000000,-3272.727273,Speed,3120.000000,-3272.727273,Speed,Off,Off,0.000000,FALSE,23,Read: /home/lvuser/scripts/auto_23.bee,File good!,SEARCH_FOR_GOAL,SEARCH_FOR_GOAL,0.000000,0.000000
01:54:15.544 PM 04/14/2016,Autonomous Enabled,10,FALSE,0,NO ERROR,0.000000,-18.210457,-0.000000,16.869377,TRUE,FALSE,TRUE,TRUE,FALSE,TRUE,Disabled,0.293750,0.000000,0.000000,TRUE,-0.357208,0.036423,0.000000,0.137451,-0.040909,0.000000,0.160000,0.013000,-0.085000,1.910000,-0.780000,-1.580000,0.129640,Hold,22.830811,50.000000,Hold,-56003.000000,69632.000000,LowGoal,3285.000000,-3272.727273,Speed,3277.500000,-3272.727273,Speed,Off,Off,0.000000,FALSE,23,Read: /home/lvuser/scripts/auto_23.bee,File good!,SEARCH_FOR_GOAL,SEARCH_FOR_GOAL,0.000000,0.000000
01:54:15.643 PM 04/14/2016,Autonomous Enabled,11,FALSE,0,NO ERROR,0.000000,-18.293874,-0.000000,16.895044,TRUE,FALSE,TRUE,TRUE,FALSE,TRUE,Disabled,0.000000,0.000000,0.000000,TRUE,-0.345932,0.034775,0.000000,0.289246,-0.021301,0.000000,-0.140000,-0.013000,-0.121000,1.910000,-0.770000,-1.620000,0.248146,Hold,29.186035,50.000000,Hold,-71247.000000,69632.000000,LowGoal,3255.000000,-3272.727273,Speed,3292.500000,-3272.727273,Speed,Off,Off,0.000000,FALSE,23,Read: /home/lvuser/scripts/auto_23.bee,File good!,SEARCH_FOR_GOAL,SEARCH_FOR_GOAL,0.000000,0.000000
01:54:15.746 PM 04/14/2016,Autonomous Enabled,11,FALSE,0,NO ERROR,0.000000,-18.473540,-0.000000,16.978460,TRUE,FALSE,TRUE,TRUE,FALSE,TRUE,Disabled,0.000000,0.000000,0.000000,TRUE,-0.333817,0.034973,0.000000,0.224869,0.026749,0.000000,0.022000,0.189000,0.236000,1.930000,-1.020000,-1.430000,0.000337,Hold,36.125977,50.000000,Hold,-69702.000000,69632.000000,LowGoal,3210.000000,-3272.727273,Speed,3247.500000,-3272.727273,Speed,Off,Off,0.000000,FALSE,23,Read: /home/lvuser/scripts/auto_23.bee,File good!,SEARCH_FOR_GOAL,SEARCH_FOR_GOAL,0.000000,0.000000
01:54:15.846 PM 04/14/2016,Autonomous Enabled,10,FALSE,0,NO ERROR,0.000000,-18.473540,-0.000000,16.978460,TRUE,FALSE,TRUE,TRUE,FALSE,TRUE,Disabled,0.000000,0.000000,0.000000,TRUE,-0.321182,0.034271,0.000000,0.275620,-0.058212,0.000000,0.025000,0.050000,0.015000,1.860000,-0.840000,-1.400000,0.184029,Hold,46.477295,50.000000,Hold,-69676.000000,69632.000000,LowGoal,3225.000000,-3272.727273,Speed,3240.000000,-3272.727273,Speed,Off,Off,0.000000,FALSE,23,Read: /home/lvuser/scripts/auto_23.bee,File good!,SEARCH_FOR_GOAL,SEARCH_FOR_GOAL,0.000000,0.000000
01:54:15.946 PM 04/14/2016,Autonomous Enabled,11,FALSE,0,NO ERROR,0.000000,-18.473540,-0.000000,16.920710,TRUE,FALSE,TRUE,TRUE,FALSE,TRUE,Disabled,0.000000,0.000000,0.000000,TRUE,-0.306427,0.031174,0.000000,0.330765,-0.073120,0.000000,0.166000,-0.060000,0.174000,1.870000,-0.900000,-1.570000,0.140801,Hold,54.137695,50.000000,Hold,-69691.000000,69632.000000,LowGoal,3247.500000,-3272.727273,Speed,3255.000000,-3272.727273,Speed,Off,Off,0.000000,FALSE,23,Read: /home/lvuser/scripts/auto_23.bee,File good!,SEARCH_FOR_GOAL,SEARCH_FOR_GOAL,0.000000,0.000000
01:54:16.046 PM 04/14/2016,Autonomous Enabled,11,FALSE,0,NO ERROR,0.000000,-18.473540,-0.000000,16.927127,TRUE,FALSE,TRUE,TRUE,FALSE,TRUE,Disabled,0.000000,0.000000,0.000000,TRUE,-0.287277,0.026764,0.000000,0.396851,-0.103912,0.000000,-0.153000,-0.004000,-0.041000,1.870000,-0.900000,-1.570000,0.231312,Hold,55.873291,50.000000,Hold,-69691.000000,69632.000000,LowGoal,3247.500000,-3272.727273,Speed,3262.500000,-3272.727273,Speed,Off,Off,0.000000,FALSE,23,Read: /home/lvuser/scripts/auto_23.bee,File good!,SEARCH_FOR_GOAL,SEARCH_FOR_GOAL,0.000000,0.000000
01:54:16.146 PM 04/14/2016,Autonomous Enabled,11,FALSE,0,NO ERROR,0.000000,-18.473540,-0.000000,16.927127,TRUE,FALSE,TRUE,TRUE,FALSE,TRUE,Disabled,0.000000,0.000000,0.000000,TRUE,-0.269897,0.019669,0.000000,0.330994,-0.176254,0.000000,0.068000,-0.178000,0.109000,1.850000,-0.920000,-1.140000,0.117581,Hold,55.818115,50.000000,Hold,-69715.000000,69632.000000,LowGoal,3240.000000,-3272.727273,Speed,3262.500000,-3272.727273,Speed,Off,Off,0.000000,FALSE,23,Read: /home/lvuser/scripts/auto_23.bee,File good!,SEARCH_FOR_GOAL,SEARCH_FOR_GOAL,0.000000,0.000000
01:54:16.247 PM 04/14/2016,Autonomous Enabled,9,FALSE,0,NO ERROR,0.000000,-18.460707,-0.000000,16.895044,TRUE,FALSE,TRUE,TRUE,FALSE,TRUE,Disabled,0.000000,0.000000,0.000000,TRUE,-0.256042,0.007660,0.000000,0.000000,-0.273911,0.000000,-0.002000,0.070000,-0.061000,1.840000,-0.880000,-0.870000,0.144674,Hold,55.761963,50.000000,Hold,-69700.000000,69632.000000,LowGoal,3240.000000,-3272.727273,Speed,3262.500000,-3272.727273,Speed,Off,Off,0.000000,FALSE,23,Read: /home/lvuser/scripts/auto_23.bee,File good!,SEARCH_FOR_GOAL,SEARCH_FOR_GOAL,0.000000,0.000000
01:54:16.347 PM 04/14/2016,Autonomous Enabled,10,FALSE,0,NO ERROR,0.000000,-18.460707,-0.000000,16.895044,TRUE,FALSE,TRUE,TRUE,FALSE,TRUE,Disabled,0.000000,0.000000,0.000000,TRUE,-0.257126,-0.007202,0.000000,-0.049881,-0.302734,0.000000,-0.036000,-0.168000,0.068000,1.830000,-0.890000,-0.900000,0.163194,Hold,55.761719,50.000000,Hold,-69734.000000,69632.000000,LowGoal,3240.000000,-3272.727273,Speed,3255.000000,-3272.727273,Speed,Off,Off,0.000000,FALSE,23,Read: /home/lvuser/scripts/auto_23.bee,File good!,SEARCH_FOR_GOAL,SEARCH_FOR_GOAL,0.000000,0.000000
01:54:16.446 PM 04/14/2016,Autonomous Enabled,10,FALSE,0,NO ERROR,0.000000,-18.460707,-0.000000,16.895044,TRUE,FALSE,TRUE,TRUE,FALSE,TRUE,Disabled,0.000000,0.000000,0.000000,TRUE,-0.260620,-0.026062,0.000000,-0.066849,-0.308670,0.000000,-0.036000,-0.168000,0.068000,1.830000,-0.890000,-0.900000,0.127116,Hold,55.761719,50.000000,Hold,-69720.000000,69632.000000,LowGoal,3240.000000,-3272.727273,Speed,3262.500000,-3272.727273,Speed,Off,Off,0.000000,FALSE,23,Read: /home/lvuser/scripts/auto_23.bee,File good!,SEARCH_FOR_GOAL,SEARCH_FOR_GOAL,0.000000,0.000000
01:54:16.546 PM 04/14/2016,Autonomous Enabled,10,FALSE,0,NO ERROR,0.000000,-18.460707,-0.000000,16.895044,TRUE,FALSE,TRUE,TRUE,FALSE,TRUE,Disabled,0.000000,0.000000,0.000000,TRUE,-0.261398,-0.041809,0.000000,-0.005646,-0.317810,0.000000,-0.015000,-0.189000,0.044000,1.780000,-0.880000,-0.710000,0.162330,Hold,55.761719,50.000000,Hold,-69720.000000,69632.000000,LowGoal,3240.000000,-3272.727273,Speed,3262.500000,-3272.727273,Speed,Off,Off,0.000000,FALSE,23,Read: /home/lvuser/scripts/auto_23.bee,File good!,SEARCH_FOR_GOAL,SEARCH_FOR_GOAL,0.000000,0.000000
01:54:16.646 PM 04/14/2016,Autonomous Enabled,11,FALSE,0,NO ERROR,-0.813995,-18.460707,-0.813995,16.895044,TRUE,FALSE,TRUE,TRUE,FALSE,TRUE,PID,0.906250,-36.177350,35.267350,TRUE,-0.260452,-0.059219,0.000000,0.035599,-0.361237,0.000000,0.096000,0.037000,-0.157000,1.780000,-0.910000,-0.680000,0.128115,Hold,55.761719,50.000000,Hold,-69720.000000,69632.000000,LowGoal,3247.500000,-3272.727273,Speed,3262.500000,-3272.727273,Speed,Off,Off,0.000000,FALSE,23,Read: /home/lvuser/scripts/auto_23.bee,File good!,SEARCH_FOR_GOAL,SEARCH_FOR_GOAL,0.000000,0.000000
01:54:16.746 PM 04/14/2016,Autonomous Enabled,10,FALSE,0,NO ERROR,-0.767099,-20.180369,-0.767099,15.040631,TRUE,FALSE,TRUE,TRUE,FALSE,TRUE,PID,0.906250,-36.177350,35.267350,TRUE,-0.256226,-0.072449,0.000000,0.152740,-0.083099,0.000000,-0.025000,-0.075000,0.030000,1.780000,-0.910000,-0.680000,2.198184,Hold,55.761719,50.000000,Hold,-69720.000000,69632.000000,LowGoal,3240.000000,-3272.727273,Speed,3262.500000,-3272.727273,Speed,Off,Off,0.000000,FALSE,23,Read: /home/lvuser/scripts/auto_23.bee,File good!,SEARCH_FOR_GOAL,SEARCH_FOR_GOAL,0.000000,0.000000
01:54:16.847 PM 04/14/2016,Autonomous Enabled,10,FALSE,0,NO ERROR,-0.545149,-23.144863,-0.545149,11.967055,TRUE,FALSE,TRUE,TRUE,FALSE,TRUE,PID,0.906250,-36.177350,35.267350,TRUE,-0.244385,-0.076324,0.000000,0.284821,-0.107483,0.000000,0.225000,-0.270000,0.254000,2.880000,3.010000,0.250000,16.308458,Hold,55.759033,50.000000,Hold,-69720.000000,69632.000000,LowGoal,3195.000000,-3272.727273,Speed,3210.000000,-3272.727273,Speed,Off,Off,0.000000,FALSE,23,Read: /home/lvuser/scripts/auto_23.bee,File good!,SEARCH_FOR_GOAL,SEARCH_FOR_GOAL,0.000000,0.000000
01:54:16.948 PM 04/14/2016,Autonomous Enabled,9,FALSE,0,NO ERROR,-0.337523,-25.993856,-0.337523,9.034646,TRUE,FALSE,TRUE,TRUE,FALSE,TRUE,PID,0.906250,-36.177350,35.267350,TRUE,-0.231659,-0.088455,0.000000,0.209213,-0.307755,0.000000,-0.094000,-0.035000,-0.039000,2.890000,14.790000,0.440000,29.228296,Hold,55.759033,50.000000,Hold,-69722.000000,69632.000000,LowGoal,3120.000000,-3272.727273,Speed,3165.000000,-3272.727273,Speed,Off,Off,0.000000,FALSE,23,Read: /home/lvuser/scripts/auto_23.bee,File good!,SEARCH_FOR_GOAL,SEARCH_FOR_GOAL,0.000000,0.000000
01:54:17.049 PM 04/14/2016,Autonomous Enabled,9,FALSE,0,NO ERROR,-0.204726,-28.233267,-0.204726,6.788817,TRUE,FALSE,TRUE,TRUE,FALSE,TRUE,Suspended,0.906250,-36.177350,35.267350,TRUE,-0.225372,-0.107742,0.000000,0.070572,-0.427216,0.000000,-0.094000,-0.035000,-0.039000,2.530000,27.120000,-0.100000,39.249930,Hold,55.759033,50.000000,Hold,-69722.000000,69632.000000,LowGoal,3195.000000,-3272.727273,Speed,3180.000000,-3272.727273,Speed,Off,Off,0.000000,FALSE,23,Read: /home/lvuser/scripts/auto_23.bee,File good!,SEARCH_FOR_GOAL,SEARCH_FOR_GOAL,0.000000,0.000000
01:54:17.149 PM 04/14/2016,Autonomous Enabled,9,FALSE,0,NO ERROR,0.000000,-29.336931,-0.000000,5.710820,TRUE,FALSE,TRUE,TRUE,FALSE,TRUE,Suspended,0.906250,-36.177350,35.267350,TRUE,-0.226028,-0.129807,0.000000,-0.086258,-0.469467,0.000000,-0.238000,-0.153000,-0.074000,1.830000,36.650000,-0.610000,45.166851,Hold,55.759033,50.000000,Hold,-69722.000000,69632.000000,LowGoal,3277.500000,-3272.727273,Speed,3247.500000,-3272.727273,Speed,Off,Off,0.000000,FALSE,23,Read: /home/lvuser/scripts/auto_23.bee,File good!,SEARCH_FOR_GOAL,SEARCH_FOR_GOAL,0.000000,0.000000
01:54:17.249 PM 04/14/2016,Autonomous Enabled,10,FALSE,0,NO ERROR,0.000000,-29.330515,-0.000000,5.710820,TRUE,FALSE,TRUE,TRUE,FALSE,TRUE,Suspended,0.906250,-36.177350,35.267350,TRUE,-0.226028,-0.129807,0.000000,-0.086258,-0.469467,0.000000,-0.236000,0.019000,0.001000,0.950000,42.760000,-1.040000,45.870393,Hold,55.759033,50.000000,Hold,-69722.000000,69632.000000,LowGoal,3292.500000,-3272.727273,Speed,3270.000000,-3272.727273,Speed,Off,Off,0.000000,FALSE,23,Read: /home/lvuser/scripts/auto_23.bee,File good!,SEARCH_FOR_GOAL,SEARCH_FOR_GOAL,0.000000,0.000000
01:54:17.349 PM 04/14/2016,Autonomous Enabled,10,FALSE,0,NO ERROR,0.000000,-29.330515,-0.000000,5.813486,TRUE,FALSE,TRUE,TRUE,FALSE,TRUE,Suspended,0.906250,-36.177350,35.267350,TRUE,-0.239670,-0.159210,0.000000,-0.269211,-0.469879,0.000000,0.022000,0.070000,0.001000,0.760000,42.860000,-1.420000,45.145786,Hold,55.759033,50.000000,Hold,-69722.000000,69632.000000,LowGoal,3285.000000,-3272.727273,Speed,3270.000000,-3272.727273,Speed,Off,Off,0.000000,FALSE,23,Read: /home/lvuser/scripts/auto_23.bee,File good!,SEARCH_FOR_GOAL,SEARCH_FOR_GOAL,0.000000,0.000000
01:54:17.450 PM 04/14/2016,Autonomous Enabled,9,FALSE,0,NO ERROR,0.000000,-29.330515,-0.000000,5.826320,TRUE,FALSE,TRUE,TRUE,FALSE,TRUE,Suspended,0.906250,-36.177350,35.267350,TRUE,-0.261230,-0.207565,0.000000,-0.157959,-0.476440,0.000000,0.053000,0.004000,0.052000,0.830000,42.140000,-1.230000,45.131747,Hold,55.759033,50.000000,Hold,-69722.000000,69632.000000,LowGoal,3277.500000,-3272.727273,Speed,3270.000000,-3272.727273,Speed,Off,Off,0.000000,FALSE,23,Read: /home/lvuser/scripts/auto_23.bee,File good!,SEARCH_FOR_GOAL,SEARCH_FOR_GOAL,0.000000,0.000000
01:54:17.552 PM 04/14/2016,Autonomous Enabled,9,FALSE,0,NO ERROR,0.000000,-29.330515,-0.000000,5.819903,TRUE,FALSE,TRUE,TRUE,FALSE,TRUE,Suspended,0.906250,-36.177350,35.267350,TRUE,-0.261230,-0.207565,0.000000,-0.157959,-0.476440,0.000000,-0.022000,-0.074000,0.004000,0.930000,42.150000,-1.280000,45.195741,Hold,55.759033,50.000000,Hold,-69722.000000,69632.000000,LowGoal,3277.500000,-3272.727273,Speed,3270.000000,-3272.727273,Speed,Off,Off,0.000000,FALSE,23,Read: /home/lvuser/scripts/auto_23.bee,File good!,SEARCH_FOR_GOAL,SEARCH_FOR_GOAL,0.000000,0.000000
01:54:17.652 PM 04/14/2016,Autonomous Enabled,10,FALSE,0,NO ERROR,0.508291,-29.330515,0.508291,5.819903,TRUE,FALSE,TRUE,TRUE,FALSE,TRUE,PID,-0.475000,21.045627,21.174373,TRUE,-0.267548,-0.232437,0.000000,-0.092758,-0.514603,0.000000,0.112000,-0.004000,0.091000,1.020000,42.210000,-1.170000,45.195741,Hold,55.759033,50.000000,Hold,-69722.000000,69632.000000,LowGoal,3270.000000,-3272.727273,Speed,3270.000000,-3272.727273,Speed,Off,Off,0.000000,FALSE,23,Read: /home/lvuser/scripts/auto_23.bee,File good!,SEARCH_FOR_GOAL,SEARCH_FOR_GOAL,0.000000,0.000000
01:54:17.752 PM 04/14/2016,Autonomous Enabled,10,FALSE,0,NO ERROR,0.490274,-29.330515,0.490274,5.819903,TRUE,FALSE,TRUE,TRUE,FALSE,TRUE,PID,-0.475000,21.045627,21.174373,TRUE,-0.269943,-0.259064,0.000000,-0.019424,-0.535156,0.000000,0.045000,0.097000,-0.066000,1.020000,42.210000,-1.020000,45.187747,Hold,55.759033,50.000000,Hold,-69722.000000,69632.000000,LowGoal,3262.500000,-3272.727273,Speed,3270.000000,-3272.727273,Speed,Off,Off,0.000000,FALSE,23,Read: /home/lvuser/scripts/auto_23.bee,File good!,SEARCH_FOR_GOAL,SEARCH_FOR_GOAL,0.000000,0.000000
01:54:17.853 PM 04/14/2016,Autonomous Enabled,9,FALSE,0,NO ERROR,0.356941,-27.970185,0.356941,7.295733,TRUE,FALSE,TRUE,TRUE,FALSE,TRUE,PID,-0.475000,21.045627,21.174373,TRUE,-0.275177,-0.285675,0.000000,-0.210876,-0.583511,0.000000,-0.056000,-0.134000,0.182000,0.280000,38.760000,-1.440000,41.474728,Hold,55.759033,50.000000,Hold,-69722.000000,69632.000000,LowGoal,3240.000000,-3272.727273,Speed,3240.000000,-3272.727273,Speed,Off,Off,0.000000,FALSE,23,Read: /home/lvuser/scripts/auto_23.bee,File good!,SEARCH_FOR_GOAL,SEARCH_FOR_GOAL,0.000000,0.000000
01:54:17.953 PM 04/14/2016,Autonomous Enabled,9,FALSE,0,NO ERROR,0.256107,-26.308272,0.256107,9.188645,TRUE,FALSE,TRUE,TRUE,FALSE,TRUE,PID,-0.475000,21.045627,21.174373,TRUE,-0.285599,-0.315506,0.000000,-0.200012,-0.615891,0.000000,0.171000,0.039000,-0.115000,0.160000,31.400000,-1.460000,35.398414,Hold,55.759033,50.000000,Hold,-69722.000000,69632.000000,LowGoal,3225.000000,-3272.727273,Speed,3217.500000,-3272.727273,Speed,Off,Off,0.000000,FALSE,23,Read: /home/lvuser/scripts/auto_23.bee,File good!,SEARCH_FOR_GOAL,SEARCH_FOR_GOAL,0.000000,0.000000
01:54:18.053 PM 04/14/2016,Autonomous Enabled,9,FALSE,0,NO ERROR,0.000000,-24.787525,-0.000000,10.933974,TRUE,FALSE,TRUE,TRUE,FALSE,TRUE,Suspended,-0.475000,21.045627,21.174373,TRUE,-0.293579,-0.346085,0.000000,-0.131012,-0.578156,0.000000,0.010000,-0.139000,0.071000,0.750000,23.270000,-0.920000,26.482787,Hold,55.759033,50.000000,Hold,-69722.000000,69632.000000,LowGoal,3232.500000,-3272.727273,Speed,3240.000000,-3272.727273,Speed,Off,Off,0.000000,FALSE,23,Read: /home/lvuser/scripts/auto_23.bee,File good!,SEARCH_FOR_GOAL,SEARCH_FOR_GOAL,0.000000,0.000000
01:54:18.153 PM 04/14/2016,Autonomous Enabled,9,FALSE,0,NO ERROR,0.000000,-23.773694,-0.000000,12.153138,TRUE,FALSE,TRUE,TRUE,FALSE,TRUE,Suspended,-0.475000,21.045627,21.174373,TRUE,-0.298386,-0.373856,0.000000,-0.086975,-0.545166,0.000000,0.093000,0.173000,-0.120000,1.150000,18.920000,-0.500000,21.484248,Hold,55.759033,50.000000,Hold,-69722.000000,69632.000000,LowGoal,3255.000000,-3272.727273,Speed,3270.000000,-3272.727273,Speed,Off,Off,0.000000,FALSE,23,Read: /home/lvuser/scripts/auto_23.bee,File good!,SEARCH_FOR_GOAL,SEARCH_FOR_GOAL,0.000000,0.000000
01:54:18.253 PM 04/14/2016,Autonomous Enabled,9,FALSE,0,NO ERROR,0.000000,-23.658195,-0.000000,12.307138,TRUE,FALSE,TRUE,TRUE,FALSE,TRUE,Suspended,-0.475000,21.045627,21.174373,TRUE,-0.301498,-0.404999,0.000000,-0.007538,-0.469879,0.000000,0.075000,0.312000,-0.117000,1.560000,17.820000,-0.100000,19.760648,Hold,55.759033,50.000000,Hold,-69722.000000,69632.000000,LowGoal,3262.500000,-3272.727273,Speed,3277.500000,-3272.727273,Speed,Off,Off,0.000000,FALSE,23,Read: /home/lvuser/scripts/auto_23.bee,File good!,SEARCH_FOR_GOAL,SEARCH_FOR_GOAL,0.000000,0.000000
01:54:18.354 PM 04/14/2016,Autonomous Enabled,9,FALSE,0,NO ERROR,0.000000,-23.703111,-0.000000,12.307138,TRUE,FALSE,TRUE,TRUE,FALSE,TRUE,Suspended,-0.475000,21.045627,21.174373,TRUE,-0.301987,-0.426376,0.000000,-0.028824,-0.437698,0.000000,-0.054000,-0.270000,-0.003000,1.700000,18.760000,-0.340000,20.702405,Hold,55.759033,50.000000,Hold,-69722.000000,69632.000000,LowGoal,3255.000000,-3272.727273,Speed,3270.000000,-3272.727273,Speed,Off,Off,0.000000,FALSE,23,Read: /home/lvuser/scripts/auto_23.bee,File good!,SEARCH_FOR_GOAL,SEARCH_FOR_GOAL,0.000000,0.000000
01:54:18.455 PM 04/14/2016,Autonomous Enabled,10,FALSE,0,NO ERROR,0.000000,-23.703111,-0.000000,12.307138,TRUE,FALSE,TRUE,TRUE,FALSE,TRUE,Suspended,-0.475000,21.045627,21.174373,TRUE,-0.303894,-0.449829,0.000000,-0.035034,-0.467300,0.000000,0.046000,0.136000,-0.095000,1.570000,18.700000,-0.220000,20.614561,Hold,55.759033,50.000000,Hold,-69722.000000,69632.000000,LowGoal,3262.500000,-3272.727273,Speed,3262.500000,-3272.727273,Speed,Off,Off,0.000000,FALSE,23,Read: /home/lvuser/scripts/auto_23.bee,File good!,SEARCH_FOR_GOAL,SEARCH_FOR_GOAL,0.000000,0.000000
01:54:18.555 PM 04/14/2016,Autonomous Enabled,9,FALSE,0,NO ERROR,0.000000,-23.703111,-0.000000,12.307138,TRUE,FALSE,TRUE,TRUE,FALSE,TRUE,Suspended,-0.475000,21.045627,21.174373,TRUE,-0.304581,-0.473831,0.000000,0.007507,-0.495224,0.000000,-0.026000,-0.185000,0.088000,1.630000,18.750000,-0.170000,20.662581,Hold,55.759033,50.000000,Hold,-69722.000000,69632.000000,LowGoal,3262.500000,-3272.727273,Speed,3270.000000,-3272.727273,Speed,Off,Off,0.000000,FALSE,23,Read: /home/lvuser/scripts/auto_23.bee,File good!,SEARCH_FOR_GOAL,SEARCH_FOR_GOAL,0.000000,0.000000
01:54:18.655 PM 04/14/2016,Autonomous Enabled,10,FALSE,0,NO ERROR,-0.405217,-23.703111,-0.405217,12.307138,TRUE,FALSE,TRUE,TRUE,FALSE,TRUE,PID,0.393750,-14.945295,33.645295,TRUE,-0.304047,-0.499100,0.000000,0.016113,-0.505936,0.000000,-0.026000,0.174000,-0.106000,1.570000,18.700000,-0.140000,20.612014,Hold,55.759033,50.000000,Hold,-69722.000000,69632.000000,LowGoal,3270.000000,-3272.727273,Speed,3270.000000,-3272.727273,Speed,Off,Off,0.000000,FALSE,23,Read: /home/lvuser/scripts/auto_23.bee,File good!,SEARCH_FOR_GOAL,SEARCH_FOR_GOAL,0.000000,0.000000
01:54:18.755 PM 04/14/2016,Autonomous Enabled,10,FALSE,0,NO ERROR,-0.395724,-24.017527,-0.395724,12.011972,TRUE,FALSE,TRUE,TRUE,FALSE,TRUE,PID,0.393750,-14.945295,33.645295,TRUE,-0.303238,-0.524872,0.000000,0.017792,-0.532669,0.000000,0.012000,-0.199000,0.086000,1.630000,18.760000,-0.160000,20.655066,Hold,55.759033,50.000000,Hold,-69722.000000,69632.000000,LowGoal,3277.500000,-3272.727273,Speed,3262.500000,-3272.727273,Speed,Off,Off,0.000000,FALSE,23,Read: /home/lvuser/scripts/auto_23.bee,File good!,SEARCH_FOR_GOAL,SEARCH_FOR_GOAL,0.000000,0.000000
01:54:18.855 PM 04/14/2016,Autonomous Enabled,9,FALSE,0,NO ERROR,-0.320856,-25.166108,-0.320856,10.831308,TRUE,FALSE,TRUE,TRUE,FALSE,TRUE,PID,0.393750,-14.945295,33.645295,TRUE,-0.296661,-0.547348,0.000000,0.220215,-0.348526,0.000000,0.050000,0.159000,-0.065000,2.220000,22.230000,0.320000,23.477269,Hold,55.759033,50.000000,Hold,-69722.000000,69632.000000,LowGoal,3255.000000,-3272.727273,Speed,3247.500000,-3272.727273,Speed,Off,Off,0.000000,FALSE,23,Read: /home/lvuser/scripts/auto_23.bee,File good!,SEARCH_FOR_GOAL,SEARCH_FOR_GOAL,0.000000,0.000000
01:54:18.956 PM 04/14/2016,Autonomous Enabled,9,FALSE,0,NO ERROR,-0.243484,-26.353188,-0.243484,9.509478,TRUE,FALSE,TRUE,TRUE,FALSE,TRUE,PID,0.393750,-14.945295,33.645295,TRUE,-0.283875,-0.564606,0.000000,0.267853,-0.354492,0.000000,-0.052000,-0.178000,-0.037000,1.970000,28.400000,0.020000,28.945111,Hold,55.759033,50.000000,Hold,-69722.000000,69632.000000,LowGoal,3240.000000,-3272.727273,Speed,3240.000000,-3272.727273,Speed,Off,Off,0.000000,FALSE,23,Read: /home/lvuser/scripts/auto_23.bee,File good!,SEARCH_FOR_GOAL,SEARCH_FOR_GOAL,0.000000,0.000000
