Time,Robot Mode,Loop Time,Error Status,Error Code,Error Source,Left Motor Output,Left Motor Encoder,Right Motor Output,Right Motor Encoder,Is Level,Is Stalled,Ball Detector Photoeye,Vision Enabled,Vision Teleop Control,Vision Auto Control,Vision Current State,Vision X Output,Vision NavX Error,Vision NavX Target,NavX Connection Status,NavX Displacement X,NavX Displacement Y,NavX Displacement Z,NavX Velocity X,NavX Velocity Y,NavX Velocity Z,NavX Acceleration X,NavX Acceleration Y,NavX Acceleration Z,NavX Pitch,NavX Yaw,NavX Roll,Gyro Angle,Roller Arm State,Roller Arm Actual,Roller Arm Desired,Shooter Arm State,Shooter Arm Actual,Shooter Arm Desired,Shooter State,Actual RPM Left,Desired RPM Left,Control Mode Left,Actual RPM Right,Desired RPM Right,Control Mode Right,Ball Shooter Cylinder,Ball Halo Cylinder,Scaler Motor Output,Scaler Solenoid Fire,Auto To Run,Auto Current File,Auto File Status,Auto Current Command,Auto Trimmed Command,Shooter Amps Left,Shooter Amps Right, Vision After Offset
08:55:13.034 AM 04/29/2016,Teleop Enabled,9,TRUE,-44003,<LOCATION>WPI_CameraIssue HTTP Request with Authentication.vi<CALLSTACK>WPI_CameraIssue HTTP Request with Authentication.vi< <WPI_CameraIssue Get.vi< <WPI_CameraSet Image Appearance Property.vi< <WPI_CameraSet Image Size.vi< <Vision Processing.vi< <Robot Main.vi,-0.000000,0.000000,-0.000000,-0.102666,TRUE,FALSE,FALSE,FALSE,FALSE,FALSE,Disabled,0.000000,0.000000,0.000000,TRUE,0.003281,-0.002960,0.000000,0.000000,0.000000,0.000000,0.001000,-0.002000,-0.004000,1.590000,1.300000,0.420000,4.898963,ResetBack,-58.540039,-0.000049,ResetBack,-5385.000000,-0.250000,Suck,0.000000,1818.181818,Speed,0.000000,1818.181818,Speed,Off,On,0.000000,FALSE,10,,,,,0.000000,0.000000,-0.050000
08:55:13.135 AM 04/29/2016,Teleop Enabled,10,FALSE,0,NO ERROR,-0.000000,0.000000,-0.000000,-0.102666,TRUE,FALSE,FALSE,FALSE,FALSE,FALSE,Disabled,0.000000,0.000000,0.000000,TRUE,0.003845,-0.003754,0.000000,-0.016434,0.000000,0.000000,-0.035000,0.042000,-0.082000,1.490000,1.320000,0.400000,4.932993,ResetBack,-58.782227,-0.000049,ResetBack,-5175.000000,-0.250000,Suck,-22.500000,1818.181818,Speed,-270.000000,1818.181818,Speed,Off,On,0.000000,FALSE,10,,,,,0.000000,0.000000,-0.050000
08:55:13.235 AM 04/29/2016,Teleop Enabled,9,FALSE,0,NO ERROR,-0.000000,0.000000,-0.000000,-0.102666,TRUE,FALSE,FALSE,FALSE,FALSE,FALSE,Disabled,0.000000,0.000000,0.000000,TRUE,0.001282,-0.004440,0.000000,-0.057968,-0.020645,0.000000,-0.050000,0.047000,-0.037000,1.480000,1.320000,0.330000,4.929581,ResetBack,-58.788574,-0.000049,ResetBack,535.000000,-0.250000,Suck,-442.500000,1818.181818,Speed,-832.500000,1818.181818,Speed,Off,On,0.000000,FALSE,10,,,,,0.000000,0.000000,-0.050000
08:55:13.336 AM 04/29/2016,Teleop Enabled,9,FALSE,0,NO ERROR,-0.000000,0.000000,-0.000000,-0.102666,TRUE,FALSE,FALSE,FALSE,FALSE,FALSE,Disabled,0.000000,0.000000,0.000000,TRUE,-0.001877,-0.004333,0.000000,-0.073868,-0.000122,0.000000,0.032000,-0.093000,-0.003000,1.530000,1.320000,0.410000,4.933857,ResetBack,-58.791016,-0.000049,ResetBack,6336.000000,-0.250000,Suck,-982.500000,1818.181818,Speed,-1425.000000,1818.181818,Speed,Off,On,0.000000,FALSE,10,,,,,0.000000,0.000000,-0.050000
08:55:13.436 AM 04/29/2016,Teleop Enabled,9,FALSE,0,NO ERROR,-0.000000,0.000000,-0.000000,-0.102666,TRUE,FALSE,FALSE,FALSE,FALSE,FALSE,Disabled,0.000000,0.000000,0.000000,TRUE,-0.003265,-0.004730,0.000000,0.008163,-0.003754,0.000000,0.092000,-0.003000,-0.007000,1.530000,1.320000,0.390000,4.943909,Reset,-58.813721,0.000000,ResetBack,10332.000000,-0.250000,Suck,-1470.000000,1818.181818,Speed,-1815.000000,1818.181818,Speed,Off,On,0.000000,FALSE,10,,,,,0.000000,0.000000,-0.050000
08:55:13.536 AM 04/29/2016,Teleop Enabled,9,FALSE,0,NO ERROR,-0.000000,0.000000,-0.000000,-0.102666,TRUE,FALSE,FALSE,FALSE,FALSE,FALSE,Disabled,0.000000,0.000000,0.000000,TRUE,-0.001495,-0.005096,0.000000,0.033646,-0.010849,0.000000,0.000000,-0.011000,-0.073000,1.510000,1.300000,0.500000,4.945517,Hold,0.000977,0.000000,ResetBack,12846.000000,-0.250000,Suck,-1815.000000,1818.181818,Speed,-1770.000000,1818.181818,Speed,Off,On,0.000000,FALSE,10,,,,,0.000000,0.000000,-0.050000
08:55:13.637 AM 04/29/2016,Teleop Enabled,9,FALSE,0,NO ERROR,-0.000000,0.000000,-0.000000,-0.102666,TRUE,FALSE,FALSE,FALSE,FALSE,FALSE,Disabled,0.000000,0.000000,0.000000,TRUE,0.000610,-0.006180,0.000000,0.046585,-0.024231,0.000000,0.004000,-0.006000,0.056000,1.520000,1.300000,0.520000,4.951428,Hold,0.000977,0.000000,ResetBack,13849.000000,-0.250000,Suck,-1837.500000,1818.181818,Speed,-1665.000000,1818.181818,Speed,Off,On,0.000000,FALSE,10,,,,,0.000000,0.000000,-0.050000
08:55:13.737 AM 04/29/2016,Teleop Enabled,10,FALSE,0,NO ERROR,-0.000000,0.000000,-0.000000,-0.102666,TRUE,FALSE,FALSE,FALSE,FALSE,FALSE,Disabled,0.000000,0.000000,0.000000,TRUE,0.001190,-0.007278,0.000000,0.011795,-0.027725,0.000000,-0.034000,-0.006000,0.010000,1.510000,1.300000,0.520000,4.955724,Hold,0.000977,0.000000,ResetBack,13849.000000,-0.250000,Suck,-1800.000000,1818.181818,Speed,-1702.500000,1818.181818,Speed,Off,On,0.000000,FALSE,10,,,,,0.000000,0.000000,-0.050000
08:55:13.837 AM 04/29/2016,Teleop Enabled,9,FALSE,0,NO ERROR,-0.000000,0.000000,-0.000000,-0.102666,TRUE,FALSE,FALSE,FALSE,FALSE,FALSE,Disabled,0.000000,0.000000,0.000000,TRUE,0.001923,-0.008698,0.000000,0.023987,-0.023651,0.000000,0.041000,-0.072000,-0.081000,1.510000,1.300000,0.600000,4.948767,Hold,0.000977,0.000000,ResetBack,14217.000000,-0.250000,Suck,-1770.000000,1818.181818,Speed,-1747.500000,1818.181818,Speed,Off,On,0.000000,FALSE,10,,,,,0.000000,0.000000,-0.050000
08:55:13.938 AM 04/29/2016,Teleop Enabled,10,FALSE,0,NO ERROR,-0.000000,0.000000,-0.000000,-0.102666,TRUE,FALSE,FALSE,FALSE,FALSE,FALSE,Disabled,0.000000,0.000000,0.000000,TRUE,0.002548,-0.010590,0.000000,-0.007019,0.003067,0.000000,-0.068000,0.033000,-0.023000,1.470000,1.300000,0.740000,4.952877,Hold,0.000977,0.000000,ResetBack,14285.000000,-0.250000,Suck,-1747.500000,1818.181818,Speed,-1740.000000,1818.181818,Speed,Off,On,0.000000,FALSE,10,,,,,0.000000,0.000000,-0.050000
08:55:14.039 AM 04/29/2016,Teleop Enabled,10,FALSE,0,NO ERROR,-0.000000,0.000000,-0.000000,-0.102666,TRUE,FALSE,FALSE,FALSE,FALSE,FALSE,Disabled,0.000000,0.000000,0.000000,TRUE,0.002411,-0.010010,0.000000,0.000351,0.033844,0.000000,-0.116000,-0.013000,0.007000,1.510000,1.290000,0.730000,4.945166,Hold,0.000977,0.000000,ResetBack,14290.000000,-0.250000,Suck,-1762.500000,1818.181818,Speed,-1710.000000,1818.181818,Speed,Off,On,0.000000,FALSE,10,,,,,0.000000,0.000000,-0.050000
08:55:14.140 AM 04/29/2016,Teleop Enabled,10,FALSE,0,NO ERROR,-0.000000,0.000000,-0.000000,-0.102666,TRUE,FALSE,FALSE,FALSE,FALSE,FALSE,Disabled,0.000000,0.000000,0.000000,TRUE,0.001404,-0.008408,0.000000,-0.016190,0.036118,0.000000,0.068000,0.072000,-0.001000,1.550000,1.290000,0.670000,4.948223,Hold,0.000977,0.000000,ResetBack,14297.000000,-0.250000,Suck,-1770.000000,1818.181818,Speed,-1725.000000,1818.181818,Speed,Off,On,0.000000,FALSE,10,,,,,0.000000,0.000000,-0.050000
08:55:14.240 AM 04/29/2016,Teleop Enabled,10,FALSE,0,NO ERROR,-0.000000,0.000000,-0.000000,-0.102666,TRUE,FALSE,FALSE,FALSE,FALSE,FALSE,Disabled,0.000000,0.000000,0.000000,TRUE,0.000671,-0.006516,0.000000,0.000000,0.000000,0.000000,0.002000,-0.021000,0.041000,1.540000,1.290000,0.580000,4.952709,Hold,0.000977,0.000000,ResetBack,14303.000000,-0.250000,Suck,-1770.000000,1818.181818,Speed,-1740.000000,1818.181818,Speed,Off,On,0.000000,FALSE,10,,,,,0.000000,0.000000,-0.050000
08:55:14.340 AM 04/29/2016,Teleop Enabled,10,FALSE,0,NO ERROR,-0.000000,0.000000,-0.000000,-0.102666,TRUE,FALSE,FALSE,FALSE,FALSE,FALSE,Disabled,0.000000,0.000000,0.000000,TRUE,0.001144,-0.006561,0.000000,0.018448,-0.000671,0.000000,0.027000,0.057000,-0.026000,1.490000,1.290000,0.630000,4.944088,Hold,0.000977,0.000000,Reset,14303.000000,2.000000,Suck,-1770.000000,1818.181818,Speed,-1710.000000,1818.181818,Speed,Off,On,0.000000,FALSE,10,,,,,0.000000,0.000000,-0.050000
08:55:14.441 AM 04/29/2016,Teleop Enabled,10,FALSE,0,NO ERROR,-0.000000,0.000000,-0.000000,-0.102666,TRUE,FALSE,FALSE,FALSE,FALSE,FALSE,Disabled,0.000000,0.000000,0.000000,TRUE,0.002136,-0.005630,0.000000,0.007843,0.032867,0.000000,0.057000,0.115000,-0.081000,1.520000,1.290000,0.620000,4.963029,Hold,0.000977,0.000000,Hold,-57.000000,2.000000,Suck,-1770.000000,1818.181818,Speed,-1695.000000,1818.181818,Speed,Off,On,0.000000,FALSE,10,,,,,0.000000,0.000000,-0.050000
08:55:14.543 AM 04/29/2016,Teleop Enabled,9,FALSE,0,NO ERROR,-0.000000,0.000000,-0.000000,-0.102666,TRUE,FALSE,FALSE,FALSE,FALSE,FALSE,Disabled,0.000000,0.000000,0.000000,TRUE,0.002289,-0.003326,0.000000,0.012329,0.055450,0.000000,-0.003000,-0.067000,-0.047000,1.560000,1.290000,0.600000,4.955965,Hold,0.000977,0.000000,Hold,-164.000000,2.000000,Suck,-1770.000000,1818.181818,Speed,-1710.000000,1818.181818,Speed,Off,On,0.000000,FALSE,10,,,,,0.000000,0.000000,-0.050000
08:55:14.644 AM 04/29/2016,Teleop Enabled,10,FALSE,0,NO ERROR,-0.000000,0.000000,-0.000000,-0.102666,TRUE,FALSE,FALSE,FALSE,FALSE,FALSE,Disabled,0.000000,0.000000,0.000000,TRUE,0.003174,-0.002090,0.000000,0.029739,0.002029,0.000000,-0.064000,-0.006000,-0.007000,1.510000,1.280000,0.660000,4.949207,Hold,0.001221,0.000000,Hold,-164.000000,2.000000,Suck,-1770.000000,1818.181818,Speed,-1725.000000,1818.181818,Speed,Off,On,0.000000,FALSE,10,,,,,0.000000,0.000000,-0.050000
08:55:14.745 AM 04/29/2016,Teleop Enabled,11,FALSE,0,NO ERROR,-0.000000,0.000000,-0.000000,-0.102666,TRUE,FALSE,FALSE,FALSE,FALSE,FALSE,Disabled,0.000000,0.000000,0.000000,TRUE,0.004272,-0.002121,0.000000,0.024246,-0.010284,0.000000,0.000000,-0.065000,0.039000,1.480000,1.280000,0.700000,4.940773,Hold,0.001221,0.000000,Hold,-164.000000,2.000000,Suck,-1770.000000,1818.181818,Speed,-1717.500000,1818.181818,Speed,Off,On,0.000000,FALSE,10,,,,,0.000000,0.000000,-0.050000
08:55:14.845 AM 04/29/2016,Teleop Enabled,11,FALSE,0,NO ERROR,-0.000000,0.000000,-0.000000,-0.102666,TRUE,FALSE,FALSE,FALSE,FALSE,FALSE,Disabled,0.000000,0.000000,0.000000,TRUE,0.006226,-0.003265,0.000000,0.046082,-0.037964,0.000000,0.052000,-0.072000,-0.020000,1.460000,1.280000,0.820000,4.939589,Hold,0.001221,0.000000,Hold,-164.000000,2.000000,Suck,-1777.500000,1818.181818,Speed,-1702.500000,1818.181818,Speed,Off,On,0.000000,FALSE,10,,,,,0.000000,0.000000,-0.050000
08:55:14.945 AM 04/29/2016,Teleop Enabled,9,FALSE,0,NO ERROR,-0.000000,0.000000,-0.000000,-0.102666,TRUE,FALSE,FALSE,FALSE,FALSE,FALSE,Disabled,0.000000,0.000000,0.000000,TRUE,0.009476,-0.006409,0.000000,0.064209,-0.068771,0.000000,-0.056000,-0.015000,-0.072000,1.370000,1.280000,0.930000,4.939720,Hold,0.001221,0.000000,Hold,-164.000000,2.000000,Suck,-1770.000000,1818.181818,Speed,-1732.500000,1818.181818,Speed,Off,On,0.000000,FALSE,10,,,,,0.000000,0.000000,-0.050000
08:55:15.046 AM 04/29/2016,Teleop Enabled,10,FALSE,0,NO ERROR,-0.000000,0.000000,-0.000000,-0.102666,TRUE,FALSE,FALSE,FALSE,FALSE,FALSE,Disabled,0.000000,0.000000,0.000000,TRUE,0.012329,-0.010147,0.000000,0.030869,-0.045776,0.000000,-0.030000,0.038000,-0.076000,1.390000,1.280000,0.830000,4.954123,Hold,0.001221,0.000000,Hold,-164.000000,2.000000,Suck,-1777.500000,1818.181818,Speed,-1740.000000,1818.181818,Speed,Off,On,0.000000,FALSE,10,,,,,0.000000,0.000000,-0.050000
08:55:15.147 AM 04/29/2016,Teleop Enabled,11,FALSE,0,NO ERROR,-0.000000,0.000000,-0.000000,-0.102666,TRUE,FALSE,FALSE,FALSE,FALSE,FALSE,Disabled,0.000000,0.000000,0.000000,TRUE,0.014099,-0.011795,0.000000,0.053711,-0.040009,0.000000,0.002000,-0.022000,0.015000,1.440000,1.280000,0.770000,4.962568,Hold,0.001221,0.000000,Hold,-164.000000,2.000000,Suck,-1770.000000,1818.181818,Speed,-1747.500000,1818.181818,Speed,Off,On,0.000000,FALSE,10,,,,,0.000000,0.000000,-0.050000
08:55:15.248 AM 04/29/2016,Teleop Enabled,11,FALSE,0,NO ERROR,-0.000000,0.000000,-0.000000,-0.102666,TRUE,FALSE,FALSE,FALSE,FALSE,FALSE,Disabled,0.000000,0.000000,0.000000,TRUE,0.017700,-0.014343,0.000000,0.084412,-0.054657,0.000000,0.003000,-0.044000,0.026000,1.370000,1.280000,0.870000,4.961704,Hold,0.001221,0.000000,Hold,-164.000000,2.000000,Suck,-1777.500000,1818.181818,Speed,-1740.000000,1818.181818,Speed,Off,On,0.000000,FALSE,10,,,,,0.000000,0.000000,-0.050000
08:55:15.348 AM 04/29/2016,Teleop Enabled,9,FALSE,0,NO ERROR,-0.000000,0.000000,-0.000000,-0.102666,TRUE,FALSE,FALSE,FALSE,FALSE,FALSE,Disabled,0.000000,0.000000,0.000000,TRUE,0.018936,-0.017929,0.000000,0.012512,-0.060165,0.000000,-0.023000,-0.002000,-0.022000,1.420000,1.280000,0.840000,4.959659,Hold,0.001221,0.000000,Hold,-164.000000,2.000000,Suck,-1770.000000,1818.181818,Speed,-1725.000000,1818.181818,Speed,Off,On,0.000000,FALSE,10,,,,,0.000000,0.000000,-0.050000
08:55:15.448 AM 04/29/2016,Teleop Enabled,10,FALSE,0,NO ERROR,-0.000000,0.000000,-0.000000,-0.102666,TRUE,FALSE,FALSE,FALSE,FALSE,FALSE,Disabled,0.000000,0.000000,0.000000,TRUE,0.019058,-0.018051,0.000000,0.000000,0.020386,0.000000,0.004000,-0.038000,0.005000,1.410000,1.270000,0.870000,4.960978,Hold,0.001221,0.000000,Hold,-164.000000,2.000000,Suck,-1770.000000,1818.181818,Speed,-1732.500000,1818.181818,Speed,Off,On,0.000000,FALSE,10,,,,,0.000000,0.000000,-0.050000
08:55:15.548 AM 04/29/2016,Teleop Enabled,10,FALSE,0,NO ERROR,-0.000000,0.000000,-0.000000,-0.102666,TRUE,FALSE,FALSE,FALSE,FALSE,FALSE,Disabled,0.000000,0.000000,0.000000,TRUE,0.019180,-0.017075,0.000000,-0.000107,0.019897,0.000000,-0.046000,-0.046000,-0.066000,1.440000,1.280000,0.870000,4.966386,Hold,0.001221,0.000000,Hold,-164.000000,2.000000,Suck,-1777.500000,1818.181818,Speed,-1732.500000,1818.181818,Speed,Off,On,0.000000,FALSE,10,,,,,0.000000,0.000000,-0.050000
08:55:15.648 AM 04/29/2016,Teleop Enabled,5,FALSE,0,NO ERROR,-0.000000,0.000000,-0.000000,-0.102666,TRUE,FALSE,FALSE,FALSE,FALSE,FALSE,Disabled,0.000000,0.000000,0.000000,TRUE,0.018814,-0.016617,0.000000,-0.006409,0.013367,0.000000,-0.014000,-0.004000,0.016000,1.480000,1.280000,0.800000,4.949473,Hold,0.001221,0.000000,Hold,-164.000000,2.000000,Suck,-1777.500000,1818.181818,Speed,-1725.000000,1818.181818,Speed,Off,On,0.000000,FALSE,10,,,,,0.000000,0.000000,-0.050000
08:55:15.748 AM 04/29/2016,Teleop Enabled,9,FALSE,0,NO ERROR,-0.000000,0.000000,-0.000000,-0.102666,TRUE,FALSE,FALSE,FALSE,FALSE,FALSE,Disabled,0.000000,0.000000,0.000000,TRUE,0.017853,-0.016052,0.000000,-0.031448,0.016708,0.000000,-0.051000,0.053000,-0.028000,1.550000,1.280000,0.680000,4.945934,Hold,0.001221,0.000000,Hold,-164.000000,2.000000,Suck,-1770.000000,1818.181818,Speed,-1732.500000,1818.181818,Speed,Off,On,0.000000,FALSE,10,,,,,0.000000,0.000000,-0.050000
08:55:15.848 AM 04/29/2016,Teleop Enabled,9,FALSE,0,NO ERROR,-0.000000,0.000000,-0.000000,-0.102666,TRUE,FALSE,FALSE,FALSE,FALSE,FALSE,Disabled,0.000000,0.000000,0.000000,TRUE,0.014740,-0.015213,0.000000,-0.074158,0.017975,0.000000,0.044000,0.042000,-0.028000,1.600000,1.290000,0.470000,4.950027,Hold,0.001221,0.000000,Hold,-164.000000,2.000000,Suck,-1777.500000,1818.181818,Speed,-1740.000000,1818.181818,Speed,Off,On,0.000000,FALSE,10,,,,,0.000000,0.000000,-0.050000
08:55:15.948 AM 04/29/2016,Teleop Enabled,10,FALSE,0,NO ERROR,-0.000000,0.000000,-0.000000,-0.102666,TRUE,FALSE,FALSE,FALSE,FALSE,FALSE,Disabled,0.000000,0.000000,0.000000,TRUE,0.011169,-0.013901,0.000000,-0.075500,0.032730,0.000000,-0.040000,0.101000,-0.036000,1.600000,1.290000,0.470000,4.963195,Hold,0.001221,0.000000,Hold,-164.000000,2.000000,Suck,-1777.500000,1818.181818,Speed,-1747.500000,1818.181818,Speed,Off,On,0.000000,FALSE,10,,,,,0.000000,0.000000,-0.050000
08:55:16.049 AM 04/29/2016,Teleop Enabled,8,FALSE,0,NO ERROR,-0.000000,0.000000,-0.000000,-0.102666,TRUE,FALSE,FALSE,FALSE,FALSE,FALSE,Disabled,0.000000,0.000000,0.000000,TRUE,0.008194,-0.011124,0.000000,0.000000,0.051315,0.000000,0.005000,0.042000,-0.074000,1.640000,1.290000,0.340000,4.976806,Hold,0.001221,0.000000,Hold,-164.000000,2.000000,Suck,-1770.000000,1818.181818,Speed,-1732.500000,1818.181818,Speed,Off,On,0.000000,FALSE,10,,,,,0.000000,0.000000,-0.050000
08:55:16.149 AM 04/29/2016,Teleop Enabled,7,FALSE,0,NO ERROR,-0.000000,0.000000,-0.000000,-0.102666,TRUE,FALSE,FALSE,FALSE,FALSE,FALSE,Disabled,0.000000,0.000000,0.000000,TRUE,0.007507,-0.008102,0.000000,-0.003571,0.033585,0.000000,0.005000,0.042000,-0.074000,1.640000,1.280000,0.350000,4.988308,Hold,0.001221,0.000000,Hold,-164.000000,2.000000,Suck,-1777.500000,1818.181818,Speed,-1725.000000,1818.181818,Speed,Off,On,0.000000,FALSE,10,,,,,0.000000,0.000000,-0.050000
08:55:16.250 AM 04/29/2016,Teleop Enabled,5,FALSE,0,NO ERROR,-0.000000,0.000000,-0.000000,-0.102666,TRUE,FALSE,FALSE,FALSE,FALSE,FALSE,Disabled,0.000000,0.000000,0.000000,TRUE,0.007477,-0.006622,0.000000,0.008530,0.035095,0.000000,0.000000,-0.050000,0.005000,1.580000,1.280000,0.440000,4.990453,Hold,0.001221,0.000000,Hold,-164.000000,2.000000,Suck,-1777.500000,1818.181818,Speed,-1732.500000,1818.181818,Speed,Off,On,0.000000,FALSE,10,,,,,0.000000,0.000000,-0.050000
08:55:16.350 AM 04/29/2016,Teleop Enabled,10,FALSE,0,NO ERROR,-0.000000,0.000000,-0.000000,-0.102666,TRUE,FALSE,FALSE,FALSE,FALSE,FALSE,Disabled,0.000000,0.000000,0.000000,TRUE,0.007721,-0.005493,0.000000,0.006851,0.000000,0.000000,0.000000,-0.050000,0.005000,1.590000,1.280000,0.410000,4.967880,Hold,0.001221,0.000000,Hold,-164.000000,2.000000,Suck,-1770.000000,1818.181818,Speed,-1740.000000,1818.181818,Speed,Off,On,0.000000,FALSE,10,,,,,0.000000,0.000000,-0.050000
08:55:16.450 AM 04/29/2016,Teleop Enabled,11,FALSE,0,NO ERROR,-0.000000,0.000000,-0.000000,-0.102666,TRUE,FALSE,FALSE,FALSE,FALSE,FALSE,Disabled,0.000000,0.000000,0.000000,TRUE,0.009155,-0.005417,0.000000,0.030823,0.003754,0.000000,0.064000,0.036000,0.014000,1.590000,1.280000,0.410000,4.963649,Hold,0.001221,0.000000,Hold,-164.000000,2.000000,Suck,-1777.500000,1818.181818,Speed,-1725.000000,1818.181818,Speed,Off,On,0.000000,FALSE,10,,,,,0.000000,0.000000,-0.050000
08:55:16.551 AM 04/29/2016,Teleop Enabled,9,FALSE,0,NO ERROR,-0.000000,0.000000,-0.000000,-0.102666,TRUE,FALSE,FALSE,FALSE,FALSE,FALSE,Disabled,0.000000,0.000000,0.000000,TRUE,0.009293,-0.005142,0.000000,-0.010040,0.000977,0.000000,-0.016000,-0.021000,-0.003000,1.570000,1.270000,0.500000,4.974937,Hold,0.001221,0.000000,Hold,-164.000000,2.000000,Suck,-1777.500000,1818.181818,Speed,-1732.500000,1818.181818,Speed,Off,On,0.000000,FALSE,10,,,,,0.000000,0.000000,-0.050000
08:55:16.650 AM 04/29/2016,Teleop Enabled,4,FALSE,0,NO ERROR,-0.000000,0.000000,-0.000000,-0.102666,TRUE,FALSE,FALSE,FALSE,FALSE,FALSE,Disabled,0.000000,0.000000,0.000000,TRUE,0.009567,-0.005203,0.000000,-0.000397,-0.006958,0.000000,0.002000,0.022000,-0.029000,1.610000,1.270000,0.520000,4.980173,Hold,0.001221,0.000000,Hold,-164.000000,2.000000,Suck,-1770.000000,1818.181818,Speed,-1747.500000,1818.181818,Speed,Off,On,0.000000,FALSE,10,,,,,0.000000,0.000000,-0.050000
08:55:16.752 AM 04/29/2016,Teleop Enabled,10,FALSE,0,NO ERROR,-0.000000,0.000000,-0.000000,-0.102666,TRUE,FALSE,FALSE,FALSE,FALSE,FALSE,Disabled,0.000000,0.000000,0.000000,TRUE,0.010468,-0.005341,0.000000,0.030273,0.000000,0.000000,0.018000,0.029000,0.040000,1.610000,1.260000,0.550000,5.001101,Hold,0.001221,0.000000,Hold,-164.000000,2.000000,Suck,-1777.500000,1818.181818,Speed,-1740.000000,1818.181818,Speed,Off,On,0.000000,FALSE,10,,,,,0.000000,0.000000,-0.050000
08:55:16.851 AM 04/29/2016,Teleop Enabled,15,FALSE,0,NO ERROR,-0.000000,0.000000,-0.000000,-0.102666,TRUE,FALSE,FALSE,FALSE,FALSE,FALSE,Disabled,0.000000,0.000000,0.000000,TRUE,0.012207,-0.005051,0.000000,0.031128,0.008667,0.000000,-0.007000,0.019000,0.003000,1.620000,1.260000,0.620000,5.007462,Hold,0.001221,0.000000,Hold,-164.000000,2.000000,Suck,-1777.500000,1818.181818,Speed,-1740.000000,1818.181818,Speed,Off,On,0.000000,FALSE,10,,,,,0.000000,0.000000,-0.050000
08:55:16.951 AM 04/29/2016,Teleop Enabled,8,FALSE,0,NO ERROR,-0.000000,0.000000,-0.000000,-0.102666,TRUE,FALSE,FALSE,FALSE,FALSE,FALSE,Disabled,0.000000,0.000000,0.000000,TRUE,0.014252,-0.003998,0.000000,0.038177,0.024048,0.000000,0.010000,0.021000,-0.019000,1.660000,1.250000,0.710000,5.021549,Hold,0.001221,0.000000,Hold,-164.000000,2.000000,Suck,-1777.500000,1818.181818,Speed,-1740.000000,1818.181818,Speed,Off,On,0.000000,FALSE,10,,,,,0.000000,0.000000,-0.050000
08:55:17.053 AM 04/29/2016,Teleop Enabled,11,FALSE,0,NO ERROR,-0.000000,0.000000,-0.000000,-0.102666,TRUE,FALSE,FALSE,FALSE,FALSE,FALSE,Disabled,0.000000,0.000000,0.000000,TRUE,0.015427,-0.002716,0.000000,0.006271,0.035217,0.000000,-0.018000,0.012000,0.017000,1.660000,1.250000,0.710000,5.013731,Hold,0.001221,0.000000,HighGoal,-164.000000,73728.000000,Suck,-1777.500000,1818.181818,Speed,-1740.000000,1818.181818,Speed,Off,On,0.000000,FALSE,10,,,,,0.000000,0.000000,-0.050000
08:55:17.151 AM 04/29/2016,Teleop Enabled,11,FALSE,0,NO ERROR,-0.000000,0.000000,-0.000000,-0.102666,TRUE,FALSE,FALSE,FALSE,FALSE,FALSE,Disabled,0.000000,0.000000,0.000000,TRUE,0.014664,-0.001236,0.000000,-0.037674,0.050491,0.000000,-0.063000,-0.054000,0.040000,1.680000,1.260000,0.560000,5.009793,Hold,0.001221,0.000000,Hold,-1120.000000,73728.000000,Suck,-1770.000000,1818.181818,Speed,-1747.500000,1818.181818,Speed,Off,On,0.000000,FALSE,10,,,,,0.000000,0.000000,-0.050000
08:55:17.252 AM 04/29/2016,Teleop Enabled,10,FALSE,0,NO ERROR,-0.000000,0.000000,-0.000000,-0.102666,TRUE,FALSE,FALSE,FALSE,FALSE,FALSE,Disabled,0.000000,0.000000,0.000000,TRUE,0.013474,0.001328,0.000000,-0.008072,0.049911,0.000000,-0.087000,0.051000,-0.063000,1.800000,1.270000,0.260000,5.034156,Hold,0.001221,0.000000,Hold,-20718.000000,73728.000000,Suck,-1777.500000,1818.181818,Speed,-1740.000000,1818.181818,Speed,Off,On,0.000000,FALSE,10,,,,,0.000000,0.000000,-0.050000
08:55:17.353 AM 04/29/2016,Teleop Enabled,11,FALSE,0,NO ERROR,-0.000000,0.044917,-0.000000,-0.102666,TRUE,FALSE,FALSE,FALSE,FALSE,FALSE,Disabled,0.000000,0.000000,0.000000,TRUE,0.012070,0.003433,0.000000,-0.047546,0.000000,0.000000,-0.084000,0.144000,0.056000,1.870000,1.280000,0.180000,5.039103,Hold,0.001221,0.000000,Hold,-38204.000000,73728.000000,Suck,-1777.500000,1818.181818,Speed,-1740.000000,1818.181818,Speed,Off,On,0.000000,FALSE,10,,,,,0.000000,0.000000,-0.050000
08:55:17.455 AM 04/29/2016,Teleop Enabled,13,FALSE,0,NO ERROR,-0.000000,0.109083,-0.000000,-0.115500,TRUE,FALSE,FALSE,FALSE,FALSE,FALSE,Disabled,0.000000,0.000000,0.000000,TRUE,0.008743,0.004196,0.000000,-0.074020,0.015121,0.000000,-0.064000,0.055000,0.010000,1.940000,1.250000,0.120000,4.993871,Hold,0.001221,0.000000,Hold,-57169.000000,73728.000000,Suck,-1770.000000,1818.181818,Speed,-1747.500000,1818.181818,Speed,Off,On,0.000000,FALSE,10,,,,,0.000000,0.000000,-0.050000
08:55:17.559 AM 04/29/2016,Teleop Enabled,10,FALSE,0,NO ERROR,-0.000000,0.109083,-0.000000,-0.115500,TRUE,FALSE,FALSE,FALSE,FALSE,FALSE,Disabled,0.000000,0.000000,0.000000,TRUE,0.008743,0.004196,0.000000,-0.074020,0.015121,0.000000,0.002000,0.039000,-0.012000,1.880000,1.230000,0.160000,4.994277,Hold,0.001221,0.000000,Hold,-75803.000000,73728.000000,Suck,-1762.500000,1818.181818,Speed,-1755.000000,1818.181818,Speed,Off,On,0.000000,FALSE,10,,,,,0.000000,0.000000,-0.050000
08:55:17.660 AM 04/29/2016,Teleop Enabled,11,FALSE,0,NO ERROR,-0.000000,0.102666,-0.000000,-0.089833,TRUE,FALSE,FALSE,FALSE,FALSE,FALSE,Disabled,0.000000,0.000000,0.000000,TRUE,0.005478,0.004791,0.000000,-0.050323,0.006866,0.000000,-0.028000,0.100000,-0.031000,1.880000,1.230000,0.160000,5.039051,Hold,0.001221,0.000000,Hold,-75803.000000,73728.000000,Suck,-1755.000000,1818.181818,Speed,-1740.000000,1818.181818,Speed,Off,On,0.000000,FALSE,10,,,,,0.000000,0.000000,-0.050000
08:55:17.760 AM 04/29/2016,Teleop Enabled,11,FALSE,0,NO ERROR,-0.000000,-0.141166,-0.000000,0.077000,TRUE,FALSE,FALSE,FALSE,FALSE,FALSE,Disabled,0.000000,0.000000,0.000000,TRUE,0.007339,0.004913,0.000000,-0.015488,-0.015503,0.000000,0.091000,-0.033000,-0.100000,1.850000,1.300000,-0.070000,5.103785,Hold,0.001221,0.000000,Hold,-73732.000000,73728.000000,Suck,-1740.000000,1818.181818,Speed,-1702.500000,1818.181818,Speed,Off,On,0.000000,FALSE,10,,,,,0.000000,0.000000,-0.050000
08:55:17.861 AM 04/29/2016,Teleop Enabled,11,FALSE,0,NO ERROR,-0.000000,-0.141166,-0.000000,0.051333,TRUE,FALSE,FALSE,FALSE,FALSE,FALSE,Disabled,0.000000,0.000000,0.000000,TRUE,0.002579,0.004807,0.000000,-0.135315,0.004379,0.000000,-0.110000,0.059000,0.057000,1.850000,1.300000,-0.070000,5.113603,Hold,0.001221,0.000000,Hold,-73732.000000,73728.000000,Suck,-1747.500000,1818.181818,Speed,-1717.500000,1818.181818,Speed,Off,On,0.000000,FALSE,10,,,,,0.000000,0.000000,-0.050000
08:55:17.964 AM 04/29/2016,Teleop Enabled,11,FALSE,0,NO ERROR,-0.000000,0.012833,-0.000000,-0.064167,TRUE,FALSE,FALSE,FALSE,FALSE,FALSE,Disabled,0.000000,0.000000,0.000000,TRUE,-0.003830,0.004700,0.000000,-0.114578,-0.014145,0.000000,-0.015000,0.002000,0.111000,1.880000,1.310000,-0.670000,5.151182,Hold,0.001221,0.000000,Hold,-73729.000000,73728.000000,Suck,-1770.000000,1818.181818,Speed,-1740.000000,1818.181818,Speed,Off,On,0.000000,FALSE,10,,,,,0.000000,0.000000,-0.050000
08:55:18.066 AM 04/29/2016,Teleop Enabled,10,FALSE,0,NO ERROR,-0.000000,0.025667,-0.000000,-0.064167,TRUE,FALSE,FALSE,FALSE,FALSE,FALSE,Disabled,0.000000,0.000000,0.000000,TRUE,-0.005325,0.003738,0.000000,0.008636,-0.022873,0.000000,0.127000,-0.009000,0.089000,1.800000,1.360000,-0.320000,5.051434,Hold,0.001221,0.000000,Hold,-73910.000000,73728.000000,Suck,-1770.000000,1818.181818,Speed,-1732.500000,1818.181818,Speed,Off,On,0.000000,FALSE,10,,,,,0.000000,0.000000,-0.050000
08:55:18.165 AM 04/29/2016,Teleop Enabled,11,FALSE,0,NO ERROR,-0.000000,0.025667,-0.000000,-0.064167,TRUE,FALSE,FALSE,FALSE,FALSE,FALSE,Disabled,0.000000,0.000000,0.000000,TRUE,-0.006470,0.001953,0.000000,-0.052170,-0.021530,0.000000,-0.016000,-0.061000,-0.019000,1.760000,1.250000,0.090000,5.099286,Hold,0.001221,0.000000,Hold,-73743.000000,73728.000000,Suck,-1762.500000,1818.181818,Speed,-1717.500000,1818.181818,Speed,Off,On,0.000000,FALSE,10,,,,,0.000000,0.000000,-0.050000
08:55:18.267 AM 04/29/2016,Teleop Enabled,12,FALSE,0,NO ERROR,-0.000000,0.032083,-0.000000,-0.070583,TRUE,FALSE,FALSE,FALSE,FALSE,FALSE,Disabled,0.000000,0.000000,0.000000,TRUE,-0.006470,0.001953,0.000000,-0.052170,-0.021530,0.000000,-0.044000,-0.089000,-0.017000,1.760000,1.220000,-0.120000,5.030441,Hold,0.001221,0.000000,Hold,-73851.000000,73728.000000,Suck,-1762.500000,1818.181818,Speed,-1755.000000,1818.181818,Speed,Off,On,0.000000,FALSE,10,,,,,0.000000,0.000000,-0.050000
08:55:18.366 AM 04/29/2016,Teleop Enabled,12,FALSE,0,NO ERROR,-0.000000,0.032083,-0.000000,-0.070583,TRUE,FALSE,FALSE,FALSE,FALSE,FALSE,Disabled,0.000000,0.000000,0.000000,TRUE,-0.009567,0.000488,0.000000,-0.052200,-0.025070,0.000000,0.079000,0.019000,-0.035000,1.640000,1.220000,0.080000,5.037784,Hold,0.001221,0.000000,Hold,-73851.000000,73728.000000,Suck,-1770.000000,1818.181818,Speed,-1755.000000,1818.181818,Speed,Off,On,0.000000,FALSE,10,,,,,0.000000,0.000000,-0.050000
08:55:18.469 AM 04/29/2016,Teleop Enabled,11,FALSE,0,NO ERROR,-0.000000,0.032083,-0.000000,-0.070583,TRUE,FALSE,FALSE,FALSE,FALSE,FALSE,Disabled,0.000000,0.000000,0.000000,TRUE,-0.010498,-0.001404,0.000000,-0.014832,-0.047104,0.000000,-0.015000,0.006000,-0.063000,1.600000,1.230000,-0.120000,5.034882,Hold,0.001221,0.000000,Hold,-73813.000000,73728.000000,Suck,-1770.000000,1818.181818,Speed,-1732.500000,1818.181818,Speed,Off,On,0.000000,FALSE,10,,,,,0.000000,0.000000,-0.050000
08:55:18.574 AM 04/29/2016,Teleop Enabled,10,FALSE,0,NO ERROR,-0.000000,0.032083,-0.000000,-0.070583,TRUE,FALSE,FALSE,FALSE,FALSE,FALSE,Disabled,0.000000,0.000000,0.000000,TRUE,-0.012497,-0.004471,0.000000,-0.054398,-0.064682,0.000000,0.017000,-0.020000,-0.002000,1.600000,1.230000,-0.120000,5.048739,Hold,0.001221,0.000000,Hold,-73817.000000,73728.000000,Suck,-1770.000000,1818.181818,Speed,-1732.500000,1818.181818,Speed,Off,On,0.000000,FALSE,10,,,,,0.000000,0.000000,-0.050000
08:55:18.677 AM 04/29/2016,Teleop Enabled,13,FALSE,0,NO ERROR,-0.000000,0.032083,-0.000000,-0.070583,TRUE,FALSE,FALSE,FALSE,FALSE,FALSE,Disabled,0.000000,0.000000,0.000000,TRUE,-0.011993,-0.008575,0.000000,0.021515,-0.069305,0.000000,0.031000,-0.045000,0.024000,1.580000,1.220000,-0.040000,5.069084,Hold,0.001221,0.000000,Hold,-73818.000000,73728.000000,Suck,-1770.000000,1818.181818,Speed,-1732.500000,1818.181818,Speed,Off,On,0.000000,FALSE,10,,,,,0.000000,0.000000,-0.050000
08:55:18.778 AM 04/29/2016,Teleop Enabled,11,FALSE,0,NO ERROR,-0.000000,0.032083,-0.000000,-0.070583,TRUE,FALSE,FALSE,FALSE,FALSE,FALSE,Disabled,0.000000,0.000000,0.000000,TRUE,-0.009720,-0.012939,0.000000,0.079300,-0.102798,0.000000,0.099000,-0.053000,-0.049000,1.490000,1.220000,0.100000,5.065979,Hold,0.001221,0.000000,Hold,-73818.000000,73728.000000,Suck,-1770.000000,1818.181818,Speed,-1725.000000,1818.181818,Speed,Off,On,0.000000,FALSE,10,,,,,0.000000,0.000000,-0.050000
08:55:18.879 AM 04/29/2016,Teleop Enabled,10,FALSE,0,NO ERROR,-0.000000,0.032083,-0.000000,-0.070583,TRUE,FALSE,FALSE,FALSE,FALSE,FALSE,Disabled,0.000000,0.000000,0.000000,TRUE,-0.008270,-0.013748,0.000000,-0.006714,0.009598,0.000000,0.011000,-0.076000,0.024000,1.490000,1.230000,0.050000,5.079491,Hold,0.001221,0.000000,Hold,-73818.000000,73728.000000,Suck,-1770.000000,1818.181818,Speed,-1740.000000,1818.181818,Speed,Off,On,0.000000,FALSE,10,,,,,0.000000,0.000000,-0.050000
08:55:18.980 AM 04/29/2016,Teleop Enabled,9,FALSE,0,NO ERROR,-0.000000,0.032083,-0.000000,-0.070583,TRUE,FALSE,FALSE,FALSE,FALSE,FALSE,Disabled,0.000000,0.000000,0.000000,TRUE,-0.008148,-0.013504,0.000000,0.014816,0.008041,0.000000,0.029000,-0.007000,0.060000,1.520000,1.240000,0.130000,5.077852,Hold,0.001221,0.000000,Hold,-73818.000000,73728.000000,Suck,-1770.000000,1818.181818,Speed,-1732.500000,1818.181818,Speed,Off,On,0.000000,FALSE,10,,,,,0.000000,0.000000,-0.050000
08:55:19.083 AM 04/29/2016,Teleop Enabled,10,FALSE,0,NO ERROR,-0.000000,0.032083,-0.000000,-0.070583,TRUE,FALSE,FALSE,FALSE,FALSE,FALSE,Disabled,0.000000,0.000000,0.000000,TRUE,-0.007324,-0.012955,0.000000,-0.000748,0.023819,0.000000,-0.010000,-0.018000,0.004000,1.580000,1.230000,0.240000,5.076930,Hold,0.001221,0.000000,Hold,-73818.000000,73728.000000,Suck,-1770.000000,1818.181818,Speed,-1732.500000,1818.181818,Speed,Off,On,0.000000,FALSE,10,,,,,0.000000,0.000000,-0.050000
08:55:19.183 AM 04/29/2016,Teleop Enabled,10,FALSE,0,NO ERROR,-0.000000,0.032083,-0.000000,-0.070583,TRUE,FALSE,FALSE,FALSE,FALSE,FALSE,Disabled,0.000000,0.000000,0.000000,TRUE,-0.007156,-0.011658,0.000000,0.017441,0.035034,0.000000,-0.026000,0.049000,0.028000,1.610000,1.230000,0.300000,5.084830,Hold,0.001221,0.000000,Hold,-73818.000000,73728.000000,Suck,-1770.000000,1818.181818,Speed,-1732.500000,1818.181818,Speed,Off,On,0.000000,FALSE,10,,,,,0.000000,0.000000,-0.050000
08:55:19.284 AM 04/29/2016,Teleop Enabled,10,FALSE,0,NO ERROR,-0.000000,0.032083,-0.000000,-0.070583,TRUE,FALSE,FALSE,FALSE,FALSE,FALSE,Disabled,0.000000,0.000000,0.000000,TRUE,-0.006195,-0.009644,0.000000,0.033340,0.041016,0.000000,0.035000,0.019000,0.044000,1.620000,1.220000,0.380000,5.076407,Hold,0.001221,0.000000,Hold,-73818.000000,73728.000000,Suck,-1777.500000,1818.181818,Speed,-1732.500000,1818.181818,Speed,Off,On,0.000000,FALSE,10,,,,,0.000000,0.000000,-0.050000
08:55:19.385 AM 04/29/2016,Teleop Enabled,11,FALSE,0,NO ERROR,-0.000000,0.032083,-0.000000,-0.070583,TRUE,FALSE,FALSE,FALSE,FALSE,FALSE,Disabled,0.000000,0.000000,0.000000,TRUE,-0.002182,-0.007401,0.000000,0.005692,-0.007446,0.000000,0.032000,-0.024000,0.008000,1.620000,1.220000,0.380000,5.076530,Hold,0.001221,0.000000,Hold,-73818.000000,73728.000000,Suck,-1770.000000,1818.181818,Speed,-1732.500000,1818.181818,Speed,Off,On,0.000000,FALSE,10,,,,,0.000000,0.000000,-0.050000
08:55:19.486 AM 04/29/2016,Teleop Enabled,10,FALSE,0,NO ERROR,-0.000000,0.032083,-0.000000,-0.070583,TRUE,FALSE,FALSE,FALSE,FALSE,FALSE,Disabled,0.000000,0.000000,0.000000,TRUE,-0.002182,-0.007401,0.000000,0.005692,-0.007446,0.000000,0.075000,-0.029000,0.000000,1.570000,1.210000,0.360000,5.084462,Hold,0.001221,0.000000,Hold,-73818.000000,73728.000000,Suck,-1770.000000,1818.181818,Speed,-1740.000000,1818.181818,Speed,Off,On,0.000000,FALSE,10,,,,,0.000000,0.000000,-0.050000
08:55:19.586 AM 04/29/2016,Teleop Enabled,12,FALSE,0,NO ERROR,-0.000000,0.032083,-0.000000,-0.070583,TRUE,FALSE,FALSE,FALSE,FALSE,FALSE,Disabled,0.000000,0.000000,0.000000,TRUE,-0.001266,-0.007919,0.000000,0.018890,-0.010941,0.000000,0.045000,0.078000,0.007000,1.540000,1.220000,0.430000,5.066726,Hold,0.001221,0.000000,Hold,-73818.000000,73728.000000,Suck,-1770.000000,1818.181818,Speed,-1747.500000,1818.181818,Speed,Off,On,0.000000,FALSE,10,,,,,0.000000,0.000000,-0.050000
08:55:19.686 AM 04/29/2016,Teleop Enabled,11,FALSE,0,NO ERROR,-0.000000,0.032083,-0.000000,-0.070583,TRUE,FALSE,FALSE,FALSE,FALSE,FALSE,Disabled,0.000000,0.000000,0.000000,TRUE,-0.000534,-0.007721,0.000000,0.011368,0.009628,0.000000,-0.001000,-0.083000,-0.052000,1.510000,1.210000,0.450000,5.066726,Hold,0.001221,0.000000,Hold,-73818.000000,73728.000000,Suck,-1777.500000,1818.181818,Speed,-1740.000000,1818.181818,Speed,Off,On,0.000000,FALSE,10,,,,,0.000000,0.000000,-0.050000
08:55:19.786 AM 04/29/2016,Teleop Enabled,10,FALSE,0,NO ERROR,-0.000000,0.032083,-0.000000,-0.070583,TRUE,FALSE,FALSE,FALSE,FALSE,FALSE,Disabled,0.000000,0.000000,0.000000,TRUE,0.000534,-0.007645,0.000000,0.035934,0.000000,0.000000,0.033000,-0.050000,-0.012000,1.500000,1.200000,0.460000,5.056990,Hold,0.001221,0.000000,Hold,-73818.000000,73728.000000,Suck,-1777.500000,1818.181818,Speed,-1747.500000,1818.181818,Speed,Off,On,0.000000,FALSE,10,,,,,0.000000,0.000000,-0.050000
08:55:19.886 AM 04/29/2016,Teleop Enabled,9,FALSE,0,NO ERROR,-0.000000,0.032083,-0.000000,-0.070583,TRUE,FALSE,FALSE,FALSE,FALSE,FALSE,Disabled,0.000000,0.000000,0.000000,TRUE,0.001495,-0.008011,0.000000,0.000000,-0.005981,0.000000,-0.064000,0.001000,-0.039000,1.430000,1.220000,0.580000,5.086256,Hold,0.001221,0.000000,Hold,-73818.000000,73728.000000,Suck,-1770.000000,1818.181818,Speed,-1747.500000,1818.181818,Speed,Off,On,0.000000,FALSE,10,,,,,0.000000,0.000000,-0.050000
08:55:19.986 AM 04/29/2016,Teleop Enabled,11,FALSE,0,NO ERROR,-0.000000,0.032083,-0.000000,-0.070583,TRUE,FALSE,FALSE,FALSE,FALSE,FALSE,Disabled,0.000000,0.000000,0.000000,TRUE,0.000992,-0.008438,0.000000,-0.007278,0.002808,0.000000,0.012000,-0.028000,-0.039000,1.440000,1.220000,0.490000,5.085808,Hold,0.001221,0.000000,Hold,-73818.000000,73728.000000,Suck,-1770.000000,1818.181818,Speed,-1755.000000,1818.181818,Speed,Off,On,0.000000,FALSE,10,,,,,0.000000,0.000000,-0.050000
08:55:20.086 AM 04/29/2016,Teleop Enabled,11,FALSE,0,NO ERROR,-0.000000,0.032083,-0.000000,-0.070583,TRUE,FALSE,FALSE,FALSE,FALSE,FALSE,Disabled,0.000000,0.000000,0.000000,TRUE,0.001144,-0.008789,0.000000,0.011414,-0.008011,0.000000,0.000000,0.012000,-0.011000,1.490000,1.220000,0.550000,5.079911,Hold,0.001221,0.000000,Hold,-73818.000000,73728.000000,Suck,-1777.500000,1818.181818,Speed,-1747.500000,1818.181818,Speed,Off,On,0.000000,FALSE,10,,,,,0.000000,0.000000,-0.050000
08:55:20.187 AM 04/29/2016,Teleop Enabled,9,FALSE,0,NO ERROR,-0.000000,0.032083,-0.000000,-0.070583,TRUE,FALSE,FALSE,FALSE,FALSE,FALSE,Disabled,0.000000,0.000000,0.000000,TRUE,0.001083,-0.008560,0.000000,-0.016769,0.005081,0.000000,-0.097000,-0.002000,0.020000,1.530000,1.240000,0.570000,5.100208,Hold,0.001221,0.000000,Hold,-73818.000000,73728.000000,Suck,-1777.500000,1818.181818,Speed,-1747.500000,1818.181818,Speed,Off,On,0.000000,FALSE,10,,,,,0.000000,0.000000,-0.050000
08:55:20.287 AM 04/29/2016,Teleop Enabled,10,FALSE,0,NO ERROR,-0.000000,0.032083,-0.000000,-0.070583,TRUE,FALSE,FALSE,FALSE,FALSE,FALSE,Disabled,0.000000,0.000000,0.000000,TRUE,-0.001801,-0.008316,0.000000,-0.079147,0.003433,0.000000,0.008000,-0.050000,-0.015000,1.600000,1.230000,0.460000,5.095296,Hold,0.001221,0.000000,Hold,-73818.000000,73728.000000,Suck,-1777.500000,1818.181818,Speed,-1747.500000,1818.181818,Speed,Off,On,0.000000,FALSE,10,,,,,0.000000,0.000000,-0.050000
08:55:20.387 AM 04/29/2016,Teleop Enabled,11,FALSE,0,NO ERROR,-0.000000,0.032083,-0.000000,-0.070583,TRUE,FALSE,FALSE,FALSE,FALSE,FALSE,Disabled,0.000000,0.000000,0.000000,TRUE,-0.006638,-0.008224,0.000000,-0.106522,0.008331,0.000000,0.009000,-0.060000,-0.025000,1.610000,1.230000,0.440000,5.094015,Hold,0.001221,0.000000,Hold,-73818.000000,73728.000000,Suck,-1777.500000,1818.181818,Speed,-1747.500000,1818.181818,Speed,Off,On,0.000000,FALSE,10,,,,,0.000000,0.000000,-0.050000
08:55:20.487 AM 04/29/2016,Teleop Enabled,9,FALSE,0,NO ERROR,-0.000000,0.032083,-0.000000,-0.070583,TRUE,FALSE,FALSE,FALSE,FALSE,FALSE,Disabled,0.000000,0.000000,0.000000,TRUE,-0.012787,-0.008408,0.000000,-0.136002,-0.006699,0.000000,0.014000,-0.127000,0.024000,1.620000,1.240000,0.290000,5.095681,Hold,0.001221,0.000000,Hold,-73818.000000,73728.000000,Suck,-1777.500000,1818.181818,Speed,-1755.000000,1818.181818,Speed,Off,On,0.000000,FALSE,10,,,,,0.000000,0.000000,-0.050000
08:55:20.588 AM 04/29/2016,Teleop Enabled,10,FALSE,0,NO ERROR,-0.000000,0.032083,-0.000000,-0.070583,TRUE,FALSE,FALSE,FALSE,FALSE,FALSE,Disabled,0.000000,0.000000,0.000000,TRUE,-0.020004,-0.009979,0.000000,-0.134720,-0.039764,0.000000,-0.054000,-0.010000,0.048000,1.570000,1.230000,0.330000,5.097592,Hold,0.001221,0.000000,Hold,-73818.000000,73728.000000,Suck,-1777.500000,1818.181818,Speed,-1747.500000,1818.181818,Speed,Off,On,0.000000,FALSE,10,,,,,0.000000,0.000000,-0.050000
08:55:20.688 AM 04/29/2016,Teleop Enabled,10,FALSE,0,NO ERROR,-0.000000,0.032083,-0.000000,-0.070583,TRUE,FALSE,FALSE,FALSE,FALSE,FALSE,Disabled,0.000000,0.000000,0.000000,TRUE,-0.027374,-0.012344,0.000000,-0.152359,-0.046082,0.000000,-0.053000,0.020000,0.014000,1.590000,1.230000,0.310000,5.097950,Hold,0.001221,0.000000,Hold,-73818.000000,73728.000000,Suck,-1777.500000,1818.181818,Speed,-1747.500000,1818.181818,Speed,Off,On,0.000000,FALSE,10,,,,,0.000000,0.000000,-0.050000
08:55:20.788 AM 04/29/2016,Teleop Enabled,11,FALSE,0,NO ERROR,-0.000000,0.032083,-0.000000,-0.070583,TRUE,FALSE,FALSE,FALSE,FALSE,FALSE,Disabled,0.000000,0.000000,0.000000,TRUE,-0.036942,-0.014023,0.000000,-0.171387,-0.008194,0.000000,-0.129000,0.037000,0.029000,1.620000,1.230000,0.250000,5.100040,Hold,0.001221,0.000000,Hold,-73818.000000,73728.000000,Suck,-1777.500000,1818.181818,Speed,-1755.000000,1818.181818,Speed,Off,On,0.000000,FALSE,10,,,,,0.000000,0.000000,-0.050000
08:55:20.888 AM 04/29/2016,Teleop Enabled,11,FALSE,0,NO ERROR,-0.000000,0.032083,-0.000000,-0.070583,TRUE,FALSE,FALSE,FALSE,FALSE,FALSE,Disabled,0.000000,0.000000,0.000000,TRUE,-0.045044,-0.014084,0.000000,-0.129639,-0.007187,0.000000,0.033000,0.015000,-0.047000,1.590000,1.220000,0.420000,5.093637,Hold,0.001221,0.000000,Hold,-73818.000000,73728.000000,Suck,-1777.500000,1818.181818,Speed,-1747.500000,1818.181818,Speed,Off,On,0.000000,FALSE,10,,,,,0.000000,0.000000,-0.050000
08:55:20.991 AM 04/29/2016,Teleop Enabled,10,FALSE,0,NO ERROR,-0.000000,0.032083,-0.000000,-0.070583,TRUE,FALSE,FALSE,FALSE,FALSE,FALSE,Disabled,0.000000,0.000000,0.000000,TRUE,-0.050064,-0.014801,0.000000,-0.088104,-0.030334,0.000000,-0.129000,0.069000,0.044000,1.590000,1.230000,0.520000,5.085140,Hold,0.001221,0.000000,Hold,-73818.000000,73728.000000,Suck,-1777.500000,1818.181818,Speed,-1747.500000,1818.181818,Speed,Off,On,0.000000,FALSE,10,,,,,0.000000,0.000000,-0.050000
08:55:21.091 AM 04/29/2016,Teleop Enabled,10,FALSE,0,NO ERROR,-0.000000,0.032083,-0.000000,-0.070583,TRUE,FALSE,FALSE,FALSE,FALSE,FALSE,Disabled,0.000000,0.000000,0.000000,TRUE,-0.056381,-0.014893,0.000000,-0.133469,-0.000168,0.000000,0.044000,-0.022000,-0.026000,1.680000,1.230000,0.340000,5.079078,Hold,0.001221,0.000000,Hold,-73818.000000,73728.000000,Suck,-1777.500000,1818.181818,Speed,-1755.000000,1818.181818,Speed,Off,On,0.000000,FALSE,10,,,,,0.000000,0.000000,-0.050000
08:55:21.191 AM 04/29/2016,Teleop Enabled,10,FALSE,0,NO ERROR,-0.000000,0.032083,-0.000000,-0.070583,TRUE,FALSE,FALSE,FALSE,FALSE,FALSE,Disabled,0.000000,0.000000,0.000000,TRUE,-0.063065,-0.014862,0.000000,-0.141495,-0.006241,0.000000,0.012000,-0.019000,-0.016000,1.650000,1.230000,0.340000,5.083233,Hold,0.001221,0.000000,Hold,-73818.000000,73728.000000,Suck,-1777.500000,1818.181818,Speed,-1755.000000,1818.181818,Speed,Off,On,0.000000,FALSE,10,,,,,0.000000,0.000000,-0.050000
08:55:21.291 AM 04/29/2016,Teleop Enabled,11,FALSE,0,NO ERROR,-0.000000,0.032083,-0.000000,-0.070583,TRUE,FALSE,FALSE,FALSE,FALSE,FALSE,Disabled,0.000000,0.000000,0.000000,TRUE,-0.071030,-0.015182,0.000000,-0.175171,-0.005203,0.000000,0.002000,-0.056000,-0.057000,1.660000,1.230000,0.180000,5.085419,Hold,0.001221,0.000000,Hold,-73818.000000,73728.000000,Suck,-1777.500000,1818.181818,Speed,-1747.500000,1818.181818,Speed,Off,On,0.000000,FALSE,10,,,,,0.000000,0.000000,-0.050000
08:55:21.391 AM 04/29/2016,Teleop Enabled,11,FALSE,0,NO ERROR,-0.000000,0.032083,-0.000000,-0.070583,TRUE,FALSE,FALSE,FALSE,FALSE,FALSE,Disabled,0.000000,0.000000,0.000000,TRUE,-0.079529,-0.016388,0.000000,-0.158295,-0.029114,0.000000,0.035000,-0.045000,0.017000,1.580000,1.240000,0.240000,5.098136,Hold,0.001221,0.000000,Hold,-73818.000000,73728.000000,Suck,-1777.500000,1818.181818,Speed,-1755.000000,1818.181818,Speed,Off,On,0.000000,FALSE,10,,,,,0.000000,0.000000,-0.050000
08:55:21.491 AM 04/29/2016,Teleop Enabled,11,FALSE,0,NO ERROR,-0.000000,0.032083,-0.000000,-0.070583,TRUE,FALSE,FALSE,FALSE,FALSE,FALSE,Disabled,0.000000,0.000000,0.000000,TRUE,-0.086868,-0.018646,0.000000,-0.142059,-0.048157,0.000000,0.035000,-0.036000,0.070000,1.540000,1.240000,0.310000,5.105345,Hold,0.001221,0.000000,Hold,-73818.000000,73728.000000,Suck,-1777.500000,1818.181818,Speed,-1762.500000,1818.181818,Speed,Off,On,0.000000,FALSE,10,,,,,0.000000,0.000000,-0.050000
08:55:21.591 AM 04/29/2016,Teleop Enabled,11,FALSE,0,NO ERROR,-0.000000,0.032083,-0.000000,-0.070583,TRUE,FALSE,FALSE,FALSE,FALSE,FALSE,Disabled,0.000000,0.000000,0.000000,TRUE,-0.093506,-0.021286,0.000000,-0.121429,-0.052124,0.000000,0.012000,0.017000,0.028000,1.540000,1.240000,0.420000,5.105995,Hold,0.001221,0.000000,Hold,-73818.000000,73728.000000,Suck,-1777.500000,1818.181818,Speed,-1755.000000,1818.181818,Speed,Off,On,0.000000,FALSE,10,,,,,0.000000,0.000000,-0.050000
08:55:21.691 AM 04/29/2016,Teleop Enabled,11,FALSE,0,NO ERROR,-0.000000,0.032083,-0.000000,-0.070583,TRUE,FALSE,FALSE,FALSE,FALSE,FALSE,Disabled,0.000000,0.000000,0.000000,TRUE,-0.098480,-0.021805,0.000000,-0.083221,-0.025803,0.000000,-0.038000,0.048000,0.086000,1.530000,1.240000,0.580000,5.095303,Hold,0.001221,0.000000,Hold,-73818.000000,73728.000000,Suck,-1785.000000,1818.181818,Speed,-1747.500000,1818.181818,Speed,Off,On,0.000000,FALSE,10,,,,,0.000000,0.000000,-0.050000
08:55:21.791 AM 04/29/2016,Teleop Enabled,10,FALSE,0,NO ERROR,-0.000000,0.032083,-0.000000,-0.070583,TRUE,FALSE,FALSE,FALSE,FALSE,FALSE,Disabled,0.000000,0.000000,0.000000,TRUE,-0.102402,-0.022476,0.000000,-0.066147,-0.017487,0.000000,0.011000,0.016000,0.055000,1.570000,1.230000,0.600000,5.107111,Hold,0.001221,0.000000,Hold,-73818.000000,73728.000000,Suck,-1777.500000,1818.181818,Speed,-1755.000000,1818.181818,Speed,Off,On,0.000000,FALSE,10,,,,,0.000000,0.000000,-0.050000
08:55:21.891 AM 04/29/2016,Teleop Enabled,10,FALSE,0,NO ERROR,-0.000000,0.032083,-0.000000,-0.070583,TRUE,FALSE,FALSE,FALSE,FALSE,FALSE,Disabled,0.000000,0.000000,0.000000,TRUE,-0.106323,-0.023254,0.000000,-0.068359,-0.015701,0.000000,-0.021000,-0.012000,0.010000,1.540000,1.230000,0.640000,5.119755,Hold,0.001221,0.000000,Hold,-73818.000000,73728.000000,Suck,-1777.500000,1818.181818,Speed,-1762.500000,1818.181818,Speed,Off,On,0.000000,FALSE,10,,,,,0.000000,0.000000,-0.050000
08:55:21.992 AM 04/29/2016,Teleop Enabled,11,FALSE,0,NO ERROR,-0.000000,0.032083,-0.000000,-0.070583,TRUE,FALSE,FALSE,FALSE,FALSE,FALSE,Disabled,0.000000,0.000000,0.000000,TRUE,-0.111588,-0.023926,0.000000,-0.132645,-0.010300,0.000000,0.080000,-0.118000,0.065000,1.550000,1.230000,0.370000,5.123872,Hold,0.001221,0.000000,Hold,-73818.000000,73728.000000,Suck,-1777.500000,1818.181818,Speed,-1755.000000,1818.181818,Speed,Off,On,0.000000,FALSE,10,,,,,0.000000,0.000000,-0.050000
08:55:22.094 AM 04/29/2016,Teleop Enabled,8,FALSE,0,NO ERROR,-0.000000,0.032083,-0.000000,-0.070583,TRUE,FALSE,FALSE,FALSE,FALSE,FALSE,Disabled,0.000000,0.000000,0.000000,TRUE,-0.115265,-0.025421,0.000000,0.002655,-0.023575,0.000000,0.000000,-0.100000,0.019000,1.460000,1.230000,0.430000,5.129539,Hold,0.001221,0.000000,Hold,-73818.000000,73728.000000,Suck,-1785.000000,1818.181818,Speed,-1747.500000,1818.181818,Speed,Off,On,0.000000,FALSE,10,,,,,0.000000,0.000000,-0.050000
08:55:22.194 AM 04/29/2016,Teleop Enabled,9,FALSE,0,NO ERROR,-0.000000,0.032083,-0.000000,-0.070583,TRUE,FALSE,FALSE,FALSE,FALSE,FALSE,Disabled,0.000000,0.000000,0.000000,TRUE,-0.114975,-0.027039,0.000000,0.012589,-0.025101,0.000000,0.041000,0.006000,0.021000,1.470000,1.240000,0.510000,5.156807,Hold,0.001221,0.000000,Hold,-73818.000000,73728.000000,Suck,-1777.500000,1818.181818,Speed,-1755.000000,1818.181818,Speed,Off,On,0.000000,FALSE,10,,,,,0.000000,0.000000,-0.050000
08:55:22.295 AM 04/29/2016,Teleop Enabled,11,FALSE,0,NO ERROR,-0.000000,0.032083,-0.000000,-0.070583,TRUE,FALSE,FALSE,FALSE,FALSE,FALSE,Disabled,0.000000,0.000000,0.000000,TRUE,-0.113495,-0.028076,0.000000,0.033707,-0.010590,0.000000,-0.007000,0.028000,-0.027000,1.500000,1.240000,0.570000,5.168884,Hold,0.001221,0.000000,Hold,-73818.000000,73728.000000,Suck,-1777.500000,1818.181818,Speed,-1755.000000,1818.181818,Speed,Off,On,0.000000,FALSE,10,,,,,0.000000,0.000000,-0.050000
08:55:22.395 AM 04/29/2016,Teleop Enabled,10,FALSE,0,NO ERROR,-0.000000,0.032083,-0.000000,-0.070583,TRUE,FALSE,FALSE,FALSE,FALSE,FALSE,Disabled,0.000000,0.000000,0.000000,TRUE,-0.113373,-0.028168,0.000000,0.001465,0.000000,0.000000,-0.019000,0.020000,-0.007000,1.510000,1.240000,0.520000,5.175294,Hold,0.001221,0.000000,Hold,-73818.000000,73728.000000,Suck,-1777.500000,1818.181818,Speed,-1755.000000,1818.181818,Speed,Off,On,0.000000,FALSE,10,,,,,0.000000,0.000000,-0.050000
08:55:22.495 AM 04/29/2016,Teleop Enabled,10,FALSE,0,NO ERROR,-0.000000,0.032083,-0.000000,-0.070583,TRUE,FALSE,FALSE,FALSE,FALSE,FALSE,Disabled,0.000000,0.000000,0.000000,TRUE,-0.113266,-0.028000,0.000000,0.007660,-0.003647,0.000000,0.010000,0.032000,-0.011000,1.460000,1.240000,0.550000,5.171394,Hold,0.001221,0.000000,Hold,-73818.000000,73728.000000,Suck,-1785.000000,1818.181818,Speed,-1762.500000,1818.181818,Speed,Off,On,0.000000,FALSE,10,,,,,0.000000,0.000000,-0.050000
08:55:22.595 AM 04/29/2016,Teleop Enabled,10,FALSE,0,NO ERROR,-0.000000,0.032083,-0.000000,-0.070583,TRUE,FALSE,FALSE,FALSE,FALSE,FALSE,Disabled,0.000000,0.000000,0.000000,TRUE,-0.113708,-0.027832,0.000000,-0.019394,0.003677,0.000000,0.019000,0.009000,-0.035000,1.500000,1.240000,0.430000,5.179294,Hold,0.001221,0.000000,Hold,-73818.000000,73728.000000,Suck,-1785.000000,1818.181818,Speed,-1762.500000,1818.181818,Speed,Off,On,0.000000,FALSE,10,,,,,0.000000,0.000000,-0.050000
08:55:22.695 AM 04/29/2016,Teleop Enabled,10,FALSE,0,NO ERROR,-0.000000,0.032083,-0.000000,-0.070583,TRUE,FALSE,FALSE,FALSE,FALSE,FALSE,Disabled,0.000000,0.000000,0.000000,TRUE,-0.113632,-0.027115,0.000000,0.010254,0.026016,0.000000,0.037000,-0.059000,-0.069000,1.510000,1.250000,0.440000,5.195843,Hold,0.001221,0.000000,Hold,-73818.000000,73728.000000,Suck,-1777.500000,1818.181818,Speed,-1755.000000,1818.181818,Speed,Off,On,0.000000,FALSE,10,,,,,0.000000,0.000000,-0.050000
08:55:22.795 AM 04/29/2016,Teleop Enabled,9,FALSE,0,NO ERROR,-0.000000,0.032083,-0.000000,-0.070583,TRUE,FALSE,FALSE,FALSE,FALSE,FALSE,Disabled,0.000000,0.000000,0.000000,TRUE,-0.112320,-0.025955,0.000000,0.026459,0.032700,0.000000,0.055000,-0.055000,0.010000,1.560000,1.250000,0.430000,5.204525,Hold,0.001221,0.000000,Hold,-73818.000000,73728.000000,Suck,-1785.000000,1818.181818,Speed,-1762.500000,1818.181818,Speed,Off,On,0.000000,FALSE,10,,,,,0.000000,0.000000,-0.050000
08:55:22.896 AM 04/29/2016,Teleop Enabled,10,FALSE,0,NO ERROR,-0.000000,0.032083,-0.000000,-0.070583,TRUE,FALSE,FALSE,FALSE,FALSE,FALSE,Disabled,0.000000,0.000000,0.000000,TRUE,-0.109970,-0.025391,0.000000,0.058777,0.000000,0.000000,0.067000,0.040000,-0.004000,1.490000,1.240000,0.500000,5.218543,Hold,0.001221,0.000000,Hold,-73818.000000,73728.000000,Suck,-1785.000000,1818.181818,Speed,-1762.500000,1818.181818,Speed,Off,On,0.000000,FALSE,10,,,,,0.000000,0.000000,-0.050000
08:55:22.997 AM 04/29/2016,Teleop Enabled,9,FALSE,0,NO ERROR,-0.000000,0.032083,-0.000000,-0.070583,TRUE,FALSE,FALSE,FALSE,FALSE,FALSE,Disabled,0.000000,0.000000,0.000000,TRUE,-0.106262,-0.025330,0.000000,0.052353,0.010513,0.000000,0.022000,-0.064000,0.012000,1.480000,1.250000,0.450000,5.211427,Hold,0.001221,0.000000,Hold,-73818.000000,73728.000000,Suck,-1785.000000,1818.181818,Speed,-1755.000000,1818.181818,Speed,Off,On,0.000000,FALSE,10,,,,,0.000000,0.000000,-0.050000
08:55:23.098 AM 04/29/2016,Teleop Enabled,10,FALSE,0,NO ERROR,-0.000000,0.032083,-0.000000,-0.070583,TRUE,FALSE,FALSE,FALSE,FALSE,FALSE,Disabled,0.000000,0.000000,0.000000,TRUE,-0.104126,-0.026108,0.000000,0.022156,-0.026443,0.000000,-0.049000,0.007000,0.022000,1.500000,1.250000,0.380000,5.208188,Hold,0.001221,0.000000,Hold,-73818.000000,73728.000000,Suck,-1777.500000,1818.181818,Speed,-1762.500000,1818.181818,Speed,Off,On,0.000000,FALSE,10,,,,,0.000000,0.000000,-0.050000
08:55:23.198 AM 04/29/2016,Teleop Enabled,9,FALSE,0,NO ERROR,-0.000000,0.032083,-0.000000,-0.070583,TRUE,FALSE,FALSE,FALSE,FALSE,FALSE,Disabled,0.000000,0.000000,0.000000,TRUE,-0.103729,-0.027039,0.000000,0.009567,-0.018997,0.000000,0.015000,0.004000,0.032000,1.550000,1.250000,0.340000,5.228788,Hold,0.001221,0.000000,Hold,-73818.000000,73728.000000,Suck,-1777.500000,1818.181818,Speed,-1770.000000,1818.181818,Speed,Off,On,0.000000,FALSE,10,,,,,0.000000,0.000000,-0.050000
08:55:23.299 AM 04/29/2016,Teleop Enabled,8,FALSE,0,NO ERROR,-0.000000,0.032083,-0.000000,-0.070583,TRUE,FALSE,FALSE,FALSE,FALSE,FALSE,Disabled,0.000000,0.000000,0.000000,TRUE,-0.103302,-0.027710,0.000000,-0.000641,-0.023712,0.000000,0.067000,-0.007000,0.002000,1.500000,1.250000,0.330000,5.231191,Hold,0.001221,0.000000,Hold,-73818.000000,73728.000000,Suck,-1785.000000,1818.181818,Speed,-1755.000000,1818.181818,Speed,Off,On,0.000000,FALSE,10,,,,,0.000000,0.000000,-0.050000
08:55:23.399 AM 04/29/2016,Teleop Enabled,11,FALSE,0,NO ERROR,-0.000000,0.032083,-0.000000,-0.070583,TRUE,FALSE,FALSE,FALSE,FALSE,FALSE,Disabled,0.000000,0.000000,0.000000,TRUE,-0.102402,-0.029877,0.000000,0.017532,-0.050751,0.000000,-0.020000,-0.026000,-0.036000,1.430000,1.250000,0.430000,5.236637,Hold,0.001221,0.000000,Hold,-73818.000000,73728.000000,Suck,-1785.000000,1818.181818,Speed,-1747.500000,1818.181818,Speed,Off,On,0.000000,FALSE,10,,,,,0.000000,0.000000,-0.050000
08:55:23.500 AM 04/29/2016,Teleop Enabled,14,FALSE,0,NO ERROR,-0.000000,0.032083,-0.000000,-0.070583,TRUE,FALSE,FALSE,FALSE,FALSE,FALSE,Disabled,0.000000,0.000000,0.000000,TRUE,-0.101974,-0.031815,0.000000,0.003281,0.004578,0.000000,0.009000,-0.020000,0.006000,1.440000,1.250000,0.440000,5.229280,Hold,0.001221,0.000000,Hold,-73818.000000,73728.000000,Suck,-1777.500000,1818.181818,Speed,-1762.500000,1818.181818,Speed,Off,On,0.000000,FALSE,10,,,,,0.000000,0.000000,-0.050000
08:55:23.600 AM 04/29/2016,Teleop Enabled,10,FALSE,0,NO ERROR,-0.000000,0.032083,-0.000000,-0.070583,TRUE,FALSE,FALSE,FALSE,FALSE,FALSE,Disabled,0.000000,0.000000,0.000000,TRUE,-0.101410,-0.031540,0.000000,0.002762,0.014389,0.000000,0.091000,0.016000,-0.020000,1.470000,1.250000,0.490000,5.224030,Hold,0.001221,0.000000,Hold,-73818.000000,73728.000000,Suck,-1785.000000,1818.181818,Speed,-1770.000000,1818.181818,Speed,Off,On,0.000000,FALSE,10,,,,,0.000000,0.000000,-0.050000
08:55:23.700 AM 04/29/2016,Teleop Enabled,11,FALSE,0,NO ERROR,-0.000000,0.032083,-0.000000,-0.070583,TRUE,FALSE,FALSE,FALSE,FALSE,FALSE,Disabled,0.000000,0.000000,0.000000,TRUE,-0.100861,-0.031082,0.000000,0.012421,0.007721,0.000000,0.038000,-0.023000,-0.049000,1.470000,1.240000,0.540000,5.213255,Hold,0.001221,0.000000,Hold,-73818.000000,73728.000000,Suck,-1785.000000,1818.181818,Speed,-1755.000000,1818.181818,Speed,Off,On,0.000000,FALSE,10,,,,,0.000000,0.000000,-0.050000
08:55:23.800 AM 04/29/2016,Teleop Enabled,10,FALSE,0,NO ERROR,-0.000000,0.032083,-0.000000,-0.070583,TRUE,FALSE,FALSE,FALSE,FALSE,FALSE,Disabled,0.000000,0.000000,0.000000,TRUE,-0.099503,-0.031494,0.000000,-0.004059,-0.018143,0.000000,-0.039000,0.008000,0.004000,1.410000,1.240000,0.670000,5.218236,Hold,0.001221,0.000000,Hold,-73818.000000,73728.000000,Suck,-1777.500000,1818.181818,Speed,-1762.500000,1818.181818,Speed,Off,On,0.000000,FALSE,10,,,,,0.000000,0.000000,-0.050000
08:55:23.900 AM 04/29/2016,Teleop Enabled,10,FALSE,0,NO ERROR,-0.000000,0.032083,-0.000000,-0.070583,TRUE,FALSE,FALSE,FALSE,FALSE,FALSE,Disabled,0.000000,0.000000,0.000000,TRUE,-0.099808,-0.031967,0.000000,-0.004257,-0.006287,0.000000,-0.069000,0.020000,-0.071000,1.490000,1.240000,0.540000,5.227070,Hold,0.001221,0.000000,Hold,-73818.000000,73728.000000,Suck,-1785.000000,1818.181818,Speed,-1770.000000,1818.181818,Speed,Off,On,0.000000,FALSE,10,,,,,0.000000,0.000000,-0.050000
08:55:24.000 AM 04/29/2016,Teleop Enabled,10,FALSE,0,NO ERROR,-0.000000,0.032083,-0.000000,-0.070583,TRUE,FALSE,FALSE,FALSE,FALSE,FALSE,Disabled,0.000000,0.000000,0.000000,TRUE,-0.099930,-0.032150,0.000000,0.004700,-0.014420,0.000000,-0.029000,-0.001000,0.022000,1.500000,1.240000,0.630000,5.237381,Hold,0.001221,0.000000,Hold,-73818.000000,73728.000000,Suck,-1785.000000,1818.181818,Speed,-1770.000000,1818.181818,Speed,Off,On,0.000000,FALSE,10,,,,,0.000000,0.000000,-0.050000
08:55:24.100 AM 04/29/2016,Teleop Enabled,9,FALSE,0,NO ERROR,-0.000000,0.032083,-0.000000,-0.070583,TRUE,FALSE,FALSE,FALSE,FALSE,FALSE,Disabled,0.000000,0.000000,0.000000,TRUE,-0.100235,-0.032059,0.000000,-0.022461,0.006821,0.000000,0.061000,0.016000,-0.004000,1.530000,1.250000,0.530000,5.245605,Hold,0.001221,0.000000,Hold,-73818.000000,73728.000000,Suck,-1777.500000,1818.181818,Speed,-1755.000000,1818.181818,Speed,Off,On,0.000000,FALSE,10,,,,,0.000000,0.000000,-0.050000
08:55:24.201 AM 04/29/2016,Teleop Enabled,10,FALSE,0,NO ERROR,-0.000000,0.032083,-0.000000,-0.070583,TRUE,FALSE,FALSE,FALSE,FALSE,FALSE,Disabled,0.000000,0.000000,0.000000,TRUE,-0.100708,-0.032028,0.000000,0.000000,-0.005722,0.000000,-0.092000,-0.021000,-0.036000,1.490000,1.240000,0.530000,5.265210,Hold,0.001221,0.000000,Hold,-73818.000000,73728.000000,Suck,-1785.000000,1818.181818,Speed,-1755.000000,1818.181818,Speed,Off,On,0.000000,FALSE,10,,,,,0.000000,0.000000,-0.050000
08:55:24.301 AM 04/29/2016,Teleop Enabled,14,FALSE,0,NO ERROR,-0.000000,0.032083,-0.000000,-0.070583,TRUE,FALSE,FALSE,FALSE,FALSE,FALSE,Disabled,0.000000,0.000000,0.000000,TRUE,-0.101746,-0.032425,0.000000,-0.036407,-0.001343,0.000000,0.021000,-0.012000,0.013000,1.520000,1.250000,0.410000,5.280960,Hold,0.001221,0.000000,Hold,-73818.000000,73728.000000,Suck,-1785.000000,1818.181818,Speed,-1770.000000,1818.181818,Speed,Off,On,0.000000,FALSE,10,,,,,0.000000,0.000000,-0.050000
08:55:24.402 AM 04/29/2016,Teleop Enabled,12,FALSE,0,NO ERROR,-0.000000,0.032083,-0.000000,-0.070583,TRUE,FALSE,FALSE,FALSE,FALSE,FALSE,Disabled,0.000000,0.000000,0.000000,TRUE,-0.103622,-0.032211,0.000000,-0.039505,0.012512,0.000000,-0.074000,0.024000,-0.046000,1.560000,1.260000,0.400000,5.295367,Hold,0.001221,0.000000,Hold,-73818.000000,73728.000000,Suck,-1785.000000,1818.181818,Speed,-1762.500000,1818.181818,Speed,Off,On,0.000000,FALSE,10,,,,,0.000000,0.000000,-0.050000
08:55:24.503 AM 04/29/2016,Teleop Enabled,10,FALSE,0,NO ERROR,-0.000000,0.032083,-0.000000,-0.070583,TRUE,FALSE,FALSE,FALSE,FALSE,FALSE,Disabled,0.000000,0.000000,0.000000,TRUE,-0.106033,-0.031998,0.000000,-0.054214,0.002975,0.000000,-0.034000,-0.020000,0.012000,1.570000,1.250000,0.360000,5.277621,Hold,0.001221,0.000000,Hold,-73818.000000,73728.000000,Suck,-1777.500000,1818.181818,Speed,-1762.500000,1818.181818,Speed,Off,On,0.000000,FALSE,10,,,,,0.000000,0.000000,-0.050000
08:55:24.603 AM 04/29/2016,Teleop Enabled,13,FALSE,0,NO ERROR,-0.000000,0.032083,-0.000000,-0.070583,TRUE,FALSE,FALSE,FALSE,FALSE,FALSE,Disabled,0.000000,0.000000,0.000000,TRUE,-0.108353,-0.032516,0.000000,-0.025879,-0.034561,0.000000,-0.034000,-0.020000,0.012000,1.510000,1.250000,0.440000,5.286478,Hold,0.001221,0.000000,Hold,-73818.000000,73728.000000,Suck,-1785.000000,1818.181818,Speed,-1770.000000,1818.181818,Speed,Off,On,0.000000,FALSE,10,,,,,0.000000,0.000000,-0.050000
08:55:24.704 AM 04/29/2016,Teleop Enabled,11,FALSE,0,NO ERROR,-0.000000,0.032083,-0.000000,-0.070583,TRUE,FALSE,FALSE,FALSE,FALSE,FALSE,Disabled,0.000000,0.000000,0.000000,TRUE,-0.110580,-0.034256,0.000000,-0.052048,-0.039948,0.000000,0.000000,0.030000,-0.001000,1.520000,1.250000,0.410000,5.295907,Hold,0.001221,0.000000,Hold,-73818.000000,73728.000000,Suck,-1785.000000,1818.181818,Speed,-1762.500000,1818.181818,Speed,Off,On,0.000000,FALSE,10,,,,,0.000000,0.000000,-0.050000
08:55:24.805 AM 04/29/2016,Teleop Enabled,9,FALSE,0,NO ERROR,-0.000000,0.032083,-0.000000,-0.070583,TRUE,FALSE,FALSE,FALSE,FALSE,FALSE,Disabled,0.000000,0.000000,0.000000,TRUE,-0.113068,-0.035767,0.000000,0.000320,-0.018967,0.000000,0.000000,0.030000,-0.001000,1.600000,1.250000,0.380000,5.294465,Hold,0.001221,0.000000,Hold,-73818.000000,73728.000000,Suck,-1785.000000,1818.181818,Speed,-1762.500000,1818.181818,Speed,Off,On,0.000000,FALSE,10,,,,,0.000000,0.000000,-0.050000
08:55:24.905 AM 04/29/2016,Teleop Enabled,9,FALSE,0,NO ERROR,-0.000000,0.032083,-0.000000,-0.070583,TRUE,FALSE,FALSE,FALSE,FALSE,FALSE,Disabled,0.000000,0.000000,0.000000,TRUE,-0.113113,-0.036591,0.000000,-0.005798,-0.019379,0.000000,-0.098000,-0.002000,0.010000,1.580000,1.250000,0.350000,5.291838,Hold,0.001221,0.000000,Hold,-73818.000000,73728.000000,Suck,-1785.000000,1818.181818,Speed,-1762.500000,1818.181818,Speed,Off,On,0.000000,FALSE,10,,,,,0.000000,0.000000,-0.050000
08:55:25.006 AM 04/29/2016,Teleop Enabled,10,FALSE,0,NO ERROR,-0.000000,0.032083,-0.000000,-0.070583,TRUE,FALSE,FALSE,FALSE,FALSE,FALSE,Disabled,0.000000,0.000000,0.000000,TRUE,-0.114792,-0.036835,0.000000,-0.014267,0.000000,0.000000,-0.098000,-0.002000,0.010000,1.580000,1.250000,0.260000,5.296238,Hold,0.001221,0.000000,Hold,-73818.000000,73728.000000,Suck,-1785.000000,1818.181818,Speed,-1770.000000,1818.181818,Speed,Off,On,0.000000,FALSE,10,,,,,0.000000,0.000000,-0.050000
08:55:25.106 AM 04/29/2016,Teleop Enabled,10,FALSE,0,NO ERROR,-0.000000,0.032083,-0.000000,-0.070583,TRUE,FALSE,FALSE,FALSE,FALSE,FALSE,Disabled,0.000000,0.000000,0.000000,TRUE,-0.114929,-0.037323,0.000000,0.000626,-0.010208,0.000000,0.024000,-0.030000,-0.010000,1.550000,1.250000,0.370000,5.311623,Hold,0.001221,0.000000,Hold,-73818.000000,73728.000000,Suck,-1785.000000,1818.181818,Speed,-1762.500000,1818.181818,Speed,Off,On,0.000000,FALSE,10,,,,,0.000000,0.000000,-0.050000
08:55:25.206 AM 04/29/2016,Teleop Enabled,11,FALSE,0,NO ERROR,-0.000000,0.032083,-0.000000,-0.070583,TRUE,FALSE,FALSE,FALSE,FALSE,FALSE,Disabled,0.000000,0.000000,0.000000,TRUE,-0.115295,-0.037201,0.000000,-0.005997,0.008301,0.000000,0.021000,0.060000,-0.003000,1.550000,1.250000,0.370000,5.330560,Hold,0.001221,0.000000,Hold,-73818.000000,73728.000000,Suck,-1785.000000,1818.181818,Speed,-1770.000000,1818.181818,Speed,Off,On,0.000000,FALSE,10,,,,,0.000000,0.000000,-0.050000
08:55:25.307 AM 04/29/2016,Teleop Enabled,10,FALSE,0,NO ERROR,-0.000000,0.032083,-0.000000,-0.070583,TRUE,FALSE,FALSE,FALSE,FALSE,FALSE,Disabled,0.000000,0.000000,0.000000,TRUE,-0.115005,-0.037201,0.000000,0.012650,-0.016647,0.000000,0.102000,-0.049000,-0.054000,1.620000,1.250000,0.270000,5.345288,Hold,0.001221,0.000000,Hold,-73818.000000,73728.000000,Suck,-1785.000000,1818.181818,Speed,-1762.500000,1818.181818,Speed,Off,On,0.000000,FALSE,10,,,,,0.000000,0.000000,-0.050000
