Time,Robot Mode,Loop Time,Error Status,Error Code,Error Source,Left Motor Output,Left Motor Encoder,Right Motor Output,Right Motor Encoder,Is Level,Is Stalled,Ball Detector Photoeye,Vision Enabled,Vision Teleop Control,Vision Auto Control,Vision Current State,Vision X Output,Vision NavX Error,Vision NavX Target,NavX Connection Status,NavX Displacement X,NavX Displacement Y,NavX Displacement Z,NavX Velocity X,NavX Velocity Y,NavX Velocity Z,NavX Acceleration X,NavX Acceleration Y,NavX Acceleration Z,NavX Pitch,NavX Yaw,NavX Roll,Gyro Angle,Roller Arm State,Roller Arm Actual,Roller Arm Desired,Shooter Arm State,Shooter Arm Actual,Shooter Arm Desired,Shooter State,Actual RPM Left,Desired RPM Left,Control Mode Left,Actual RPM Right,Desired RPM Right,Control Mode Right,Ball Shooter Cylinder,Ball Halo Cylinder,Scaler Motor Output,Scaler Solenoid Fire,Auto To Run,Auto Current File,Auto File Status,Auto Current Command,Auto Trimmed Command,Shooter Amps Left,Shooter Amps Right, Vision After Offset
03:41:21.574 PM 04/29/2016,Teleop Enabled,9,TRUE,-44005,<LOCATION>WPI_CameraWait for Raw Image String.vi:6640001<CALLSTACK>WPI_CameraWait for Raw Image String.vi:6640001< <WPI_CameraGet Image.vi< <Vision Processing.vi< <Robot Main.vi,-0.000000,0.000000,-0.000000,0.000000,TRUE,FALSE,FALSE,FALSE,FALSE,FALSE,Disabled,0.000000,0.000000,0.000000,TRUE,0.481598,-0.160355,0.000000,0.000000,0.000000,0.000000,0.003000,0.000000,0.002000,1.740000,-0.790000,0.640000,-3.201751,ResetBack,0.000000,-0.000049,ResetBack,0.000000,-0.250000,Suck,0.000000,1818.181818,Speed,0.000000,1818.181818,Speed,Off,On,0.000000,FALSE,0,,,,,0.000000,0.000000,-0.050000
03:41:21.674 PM 04/29/2016,Teleop Enabled,9,TRUE,-1074396154,,-0.000000,0.000000,-0.000000,0.000000,TRUE,FALSE,FALSE,FALSE,FALSE,FALSE,Disabled,0.000000,0.000000,0.000000,TRUE,0.481598,-0.160355,0.000000,0.000000,0.000000,0.000000,0.010000,-0.067000,0.003000,1.680000,-0.760000,0.610000,-3.196216,ResetBack,0.000000,-0.000049,ResetBack,0.000000,-0.250000,Suck,0.000000,1818.181818,Speed,0.000000,1818.181818,Speed,Off,On,0.000000,FALSE,0,,,,,0.000000,0.000000,-0.050000
03:41:21.774 PM 04/29/2016,Teleop Enabled,9,FALSE,0,NO ERROR,-0.000000,-0.243833,-0.000000,0.006417,TRUE,FALSE,FALSE,FALSE,FALSE,FALSE,Disabled,0.000000,0.000000,0.000000,TRUE,0.482040,-0.160919,0.000000,0.025009,0.004486,0.000000,-0.092000,-0.238000,0.167000,1.690000,-0.670000,0.790000,-3.158158,ResetBack,-1.056396,-0.000049,ResetBack,4138.000000,-0.250000,Suck,-225.000000,1818.181818,Speed,-360.000000,1818.181818,Speed,Off,On,0.000000,FALSE,0,,,,,0.000000,0.000000,-0.050000
03:41:21.874 PM 04/29/2016,Teleop Enabled,9,FALSE,0,NO ERROR,-0.000000,-0.250249,-0.000000,0.006417,TRUE,FALSE,FALSE,FALSE,FALSE,FALSE,Disabled,0.000000,0.000000,0.000000,TRUE,0.484253,-0.163040,0.000000,0.044495,-0.058594,0.000000,0.115000,0.071000,0.073000,1.600000,-0.800000,0.580000,-3.274554,ResetBack,-1.075684,-0.000049,ResetBack,4138.000000,-0.250000,Suck,-817.500000,1818.181818,Speed,-997.500000,1818.181818,Speed,Off,On,0.000000,FALSE,0,,,,,0.000000,0.000000,-0.050000
03:41:21.974 PM 04/29/2016,Teleop Enabled,9,FALSE,0,NO ERROR,-0.000000,-0.250249,-0.000000,0.006417,TRUE,FALSE,FALSE,FALSE,FALSE,FALSE,Disabled,0.000000,0.000000,0.000000,TRUE,0.486969,-0.164978,0.000000,0.041779,-0.031448,0.000000,-0.002000,0.012000,0.028000,1.650000,-0.750000,0.680000,-3.220816,Reset,-1.155518,0.000000,ResetBack,9568.000000,-0.250000,Suck,-1372.500000,1818.181818,Speed,-1657.500000,1818.181818,Speed,Off,On,0.000000,FALSE,0,,,,,0.000000,0.000000,-0.050000
03:41:22.074 PM 04/29/2016,Teleop Enabled,9,FALSE,0,NO ERROR,-0.000000,-0.250249,-0.000000,0.006417,TRUE,FALSE,FALSE,FALSE,FALSE,FALSE,Disabled,0.000000,0.000000,0.000000,TRUE,0.488495,-0.165405,0.000000,0.028702,0.017593,0.000000,-0.093000,-0.010000,-0.021000,1.680000,-0.790000,0.630000,-3.269005,Hold,0.116943,0.000000,ResetBack,13123.000000,-0.250000,Suck,-1800.000000,1818.181818,Speed,-1897.500000,1818.181818,Speed,Off,On,0.000000,FALSE,0,,,,,0.000000,0.000000,-0.050000
03:41:22.174 PM 04/29/2016,Teleop Enabled,9,FALSE,0,NO ERROR,0.173228,-0.250249,0.173228,0.006417,TRUE,FALSE,FALSE,FALSE,FALSE,FALSE,Disabled,0.000000,0.000000,0.000000,TRUE,0.489471,-0.164566,0.000000,0.017227,0.021790,0.000000,-0.019000,0.053000,0.026000,1.660000,-0.780000,0.600000,-3.239223,Hold,0.169922,0.000000,ResetBack,15115.000000,-0.250000,Suck,-1867.500000,1818.181818,Speed,-1777.500000,1818.181818,Speed,Off,On,0.000000,FALSE,0,,,,,0.000000,0.000000,-0.050000
03:41:22.274 PM 04/29/2016,Teleop Enabled,9,FALSE,0,NO ERROR,0.251969,-0.102666,0.251969,0.109083,TRUE,FALSE,FALSE,FALSE,FALSE,FALSE,Disabled,0.000000,0.000000,0.000000,TRUE,0.489502,-0.163071,0.000000,0.000565,0.031387,0.000000,-0.164000,-0.024000,0.066000,1.700000,-0.790000,0.590000,-3.259724,Hold,0.177002,0.000000,ResetBack,15482.000000,-0.250000,Suck,-1822.500000,1818.181818,Speed,-1710.000000,1818.181818,Speed,Off,On,0.000000,FALSE,0,,,,,0.000000,0.000000,-0.050000
03:41:22.374 PM 04/29/2016,Teleop Enabled,9,FALSE,0,NO ERROR,0.464567,0.340083,0.464567,0.519749,TRUE,FALSE,FALSE,FALSE,FALSE,FALSE,Disabled,0.000000,0.000000,0.000000,TRUE,0.488205,-0.161957,0.000000,-0.031464,0.015732,0.000000,-0.067000,-0.002000,0.020000,1.570000,-1.900000,0.460000,-3.956439,Hold,0.177246,0.000000,ResetBack,15490.000000,-0.250000,Suck,-1770.000000,1818.181818,Speed,-1725.000000,1818.181818,Speed,Off,On,0.000000,FALSE,0,,,,,0.000000,0.000000,-0.050000
03:41:22.475 PM 04/29/2016,Teleop Enabled,11,FALSE,0,NO ERROR,0.614173,0.795665,0.614173,0.891915,TRUE,FALSE,FALSE,FALSE,FALSE,FALSE,Disabled,0.000000,0.000000,0.000000,TRUE,0.487213,-0.160599,0.000000,-0.026138,0.029282,0.000000,0.020000,0.020000,-0.028000,1.500000,-3.240000,0.440000,-5.543748,Hold,0.177490,0.000000,ResetBack,15495.000000,-0.250000,Suck,-1747.500000,1818.181818,Speed,-1755.000000,1818.181818,Speed,Off,On,0.000000,FALSE,0,,,,,0.000000,0.000000,-0.050000
03:41:22.576 PM 04/29/2016,Teleop Enabled,9,FALSE,0,NO ERROR,0.614173,1.578496,0.614173,1.777413,TRUE,FALSE,FALSE,FALSE,FALSE,FALSE,Disabled,0.000000,0.000000,0.000000,TRUE,0.485077,-0.161240,0.000000,-0.054718,-0.051376,0.000000,-0.015000,-0.038000,-0.008000,1.230000,-5.670000,0.510000,-8.616451,Hold,0.177490,0.000000,ResetBack,15495.000000,-0.250000,Suck,-1747.500000,1818.181818,Speed,-1740.000000,1818.181818,Speed,Off,On,0.000000,FALSE,0,,,,,0.000000,0.000000,-0.050000
03:41:22.676 PM 04/29/2016,Teleop Enabled,10,FALSE,0,NO ERROR,-0.000000,3.310992,-0.000000,3.452159,TRUE,FALSE,FALSE,FALSE,FALSE,FALSE,Disabled,0.000000,0.000000,0.000000,TRUE,0.480392,-0.167938,0.000000,-0.089172,-0.158951,0.000000,-0.064000,0.184000,0.075000,0.690000,-14.680000,0.260000,-15.000221,Hold,0.177490,0.000000,ResetBack,15496.000000,-0.250000,Suck,-1740.000000,1818.181818,Speed,-1702.500000,1818.181818,Speed,Off,On,0.000000,FALSE,0,,,,,0.000000,0.000000,-0.050000
03:41:22.777 PM 04/29/2016,Teleop Enabled,9,FALSE,0,NO ERROR,-0.000000,4.318407,-0.000000,4.292740,TRUE,FALSE,FALSE,FALSE,FALSE,FALSE,Disabled,0.000000,0.000000,0.000000,TRUE,0.477783,-0.171173,0.000000,-0.033066,-0.009033,0.000000,0.104000,0.297000,-0.042000,1.200000,-17.980000,0.650000,-21.363734,Hold,0.210449,0.000000,ResetBack,15499.000000,-0.250000,Suck,-1740.000000,1818.181818,Speed,-1702.500000,1818.181818,Speed,Off,On,0.000000,FALSE,0,,,,,0.000000,0.000000,-0.050000
03:41:22.879 PM 04/29/2016,Teleop Enabled,10,FALSE,0,NO ERROR,-0.000000,4.260657,-0.000000,4.010407,TRUE,FALSE,FALSE,FALSE,FALSE,FALSE,Disabled,0.000000,0.000000,0.000000,TRUE,0.478912,-0.165375,0.000000,0.039948,0.129700,0.000000,-0.122000,-0.071000,0.082000,1.680000,-16.640000,0.920000,-20.433937,Hold,0.289307,0.000000,Reset,15596.000000,2.000000,Suck,-1762.500000,1818.181818,Speed,-1740.000000,1818.181818,Speed,Off,On,0.000000,FALSE,0,,,,,0.000000,0.000000,-0.050000
03:41:22.979 PM 04/29/2016,Teleop Enabled,11,FALSE,0,NO ERROR,-0.000000,4.234990,-0.000000,3.772991,TRUE,FALSE,FALSE,FALSE,FALSE,FALSE,Disabled,0.000000,0.000000,0.000000,TRUE,0.478958,-0.161057,0.000000,0.000000,0.055923,0.000000,0.038000,-0.030000,0.109000,1.510000,-16.840000,0.720000,-19.912507,Hold,0.295166,0.000000,Hold,-187.000000,2.000000,Suck,-1785.000000,1818.181818,Speed,-1762.500000,1818.181818,Speed,Off,On,0.000000,FALSE,0,,,,,0.000000,0.000000,-0.050000
03:41:23.079 PM 04/29/2016,Teleop Enabled,10,FALSE,0,NO ERROR,-0.000000,4.388990,-0.000000,3.753741,TRUE,FALSE,FALSE,FALSE,FALSE,FALSE,Disabled,0.000000,0.000000,0.000000,TRUE,0.480087,-0.157242,0.000000,0.039719,0.077942,0.000000,0.040000,0.046000,-0.067000,1.540000,-17.250000,0.990000,-20.443304,Hold,0.378662,0.000000,Hold,-184.000000,2.000000,Suck,-1785.000000,1818.181818,Speed,-1755.000000,1818.181818,Speed,Off,On,0.000000,FALSE,0,,,,,0.000000,0.000000,-0.050000
03:41:23.179 PM 04/29/2016,Teleop Enabled,10,FALSE,0,NO ERROR,-0.000000,4.388990,-0.000000,3.651075,TRUE,FALSE,FALSE,FALSE,FALSE,FALSE,Disabled,0.000000,0.000000,0.000000,TRUE,0.482529,-0.153381,0.000000,0.043915,0.066345,0.000000,0.011000,-0.033000,-0.048000,1.510000,-16.920000,0.960000,-20.156546,Hold,0.410400,0.000000,Hold,-184.000000,2.000000,Suck,-1777.500000,1818.181818,Speed,-1755.000000,1818.181818,Speed,Off,On,0.000000,FALSE,0,,,,,0.000000,0.000000,-0.050000
03:41:23.279 PM 04/29/2016,Teleop Enabled,11,FALSE,0,NO ERROR,-0.000000,4.388990,-0.000000,3.657491,TRUE,FALSE,FALSE,FALSE,FALSE,FALSE,Disabled,0.000000,0.000000,0.000000,TRUE,0.484940,-0.150131,0.000000,0.036850,0.064651,0.000000,0.030000,0.015000,-0.008000,1.470000,-17.020000,0.980000,-20.272154,Hold,0.410889,0.000000,Hold,-183.000000,2.000000,Suck,-1777.500000,1818.181818,Speed,-1747.500000,1818.181818,Speed,Off,On,0.000000,FALSE,0,,,,,0.000000,0.000000,-0.050000
03:41:23.380 PM 04/29/2016,Teleop Enabled,11,FALSE,0,NO ERROR,-0.226902,4.388990,0.292783,3.689575,TRUE,FALSE,FALSE,FALSE,FALSE,FALSE,Disabled,0.000000,0.000000,0.000000,TRUE,0.486298,-0.149567,0.000000,0.015015,-0.001022,0.000000,0.365000,-0.020000,-0.112000,1.480000,-17.020000,0.840000,-20.273985,Hold,0.411133,0.000000,Hold,-182.000000,2.000000,Suck,-1777.500000,1818.181818,Speed,-1755.000000,1818.181818,Speed,Off,On,0.000000,FALSE,0,,,,,0.000000,0.000000,-0.050000
03:41:23.480 PM 04/29/2016,Teleop Enabled,10,FALSE,0,NO ERROR,-0.233778,4.023241,0.301655,4.337657,TRUE,FALSE,FALSE,FALSE,FALSE,FALSE,Disabled,0.000000,0.000000,0.000000,TRUE,0.491760,-0.148972,0.000000,0.157684,0.033035,0.000000,0.126000,0.046000,-0.067000,1.490000,-17.430000,1.900000,-20.527977,Hold,0.412842,0.000000,Hold,-182.000000,2.000000,Suck,-1777.500000,1818.181818,Speed,-1755.000000,1818.181818,Speed,Off,On,0.000000,FALSE,0,,,,,0.000000,0.000000,-0.050000
03:41:23.580 PM 04/29/2016,Teleop Enabled,11,FALSE,0,NO ERROR,-0.211644,3.105659,0.323789,5.377154,TRUE,FALSE,FALSE,FALSE,FALSE,FALSE,Disabled,0.000000,0.000000,0.000000,TRUE,0.503510,-0.146240,0.000000,0.279999,0.065140,0.000000,0.043000,-0.001000,-0.087000,1.590000,-17.720000,2.360000,-20.910638,Hold,0.435059,0.000000,Hold,-181.000000,2.000000,Suck,-1777.500000,1818.181818,Speed,-1747.500000,1818.181818,Speed,Off,On,0.000000,FALSE,0,,,,,0.000000,0.000000,-0.050000
03:41:23.680 PM 04/29/2016,Teleop Enabled,11,FALSE,0,NO ERROR,-0.216349,1.636246,0.334832,6.917150,TRUE,FALSE,FALSE,FALSE,FALSE,FALSE,Disabled,0.000000,0.000000,0.000000,TRUE,0.518799,-0.143219,0.000000,0.323013,0.067627,0.000000,0.135000,-0.041000,-0.038000,1.630000,-17.900000,2.610000,-21.095672,Hold,0.435791,0.000000,Hold,-181.000000,2.000000,Suck,-1770.000000,1818.181818,Speed,-1740.000000,1818.181818,Speed,Off,On,0.000000,FALSE,0,,,,,0.000000,0.000000,-0.050000
03:41:23.780 PM 04/29/2016,Teleop Enabled,11,FALSE,0,NO ERROR,-0.216349,-0.333666,0.334832,9.079562,FALSE,FALSE,FALSE,FALSE,FALSE,FALSE,Disabled,0.000000,0.000000,0.000000,TRUE,0.540222,-0.139465,0.000000,0.376495,0.000000,0.000000,-0.062000,-0.014000,-0.076000,1.640000,-18.370000,3.000000,-21.485570,Hold,0.436035,0.000000,Hold,-181.000000,2.000000,Suck,-1770.000000,1818.181818,Speed,-1747.500000,1818.181818,Speed,Off,On,0.000000,FALSE,0,,,,,0.000000,0.000000,-0.050000
03:41:23.880 PM 04/29/2016,Teleop Enabled,11,FALSE,0,NO ERROR,-0.205419,-2.611577,0.314266,11.530723,FALSE,FALSE,FALSE,FALSE,FALSE,FALSE,Disabled,0.000000,0.000000,0.000000,TRUE,0.556381,-0.139465,0.000000,0.431259,0.010300,0.000000,-0.099000,0.023000,-0.031000,1.550000,-18.680000,3.030000,-21.905314,Hold,0.436523,0.000000,Hold,-181.000000,2.000000,Suck,-1777.500000,1818.181818,Speed,-1747.500000,1818.181818,Speed,Off,On,0.000000,FALSE,0,,,,,0.000000,0.000000,-0.050000
03:41:23.981 PM 04/29/2016,Teleop Enabled,10,FALSE,0,NO ERROR,-0.000000,-4.748322,-0.000000,14.264217,FALSE,FALSE,FALSE,FALSE,FALSE,FALSE,Disabled,0.000000,0.000000,0.000000,TRUE,0.577408,-0.138763,0.000000,0.411652,0.023865,0.000000,-0.440000,-0.262000,-0.075000,1.460000,-19.430000,3.300000,-22.521914,Hold,0.437256,0.000000,Hold,-181.000000,2.000000,Suck,-1777.500000,1818.181818,Speed,-1755.000000,1818.181818,Speed,Off,On,0.000000,FALSE,0,,,,,0.000000,0.000000,-0.050000
03:41:24.081 PM 04/29/2016,Teleop Enabled,11,FALSE,0,NO ERROR,-0.000000,-6.102236,-0.000000,16.497211,TRUE,FALSE,FALSE,FALSE,FALSE,FALSE,Disabled,0.000000,0.000000,0.000000,TRUE,0.590256,-0.142883,0.000000,0.218552,-0.138336,0.000000,-0.009000,-0.095000,-0.054000,1.080000,-21.150000,1.300000,-24.321559,Hold,0.441162,0.000000,Hold,-180.000000,2.000000,Suck,-1777.500000,1818.181818,Speed,-1747.500000,1818.181818,Speed,Off,On,0.000000,FALSE,0,,,,,0.000000,0.000000,-0.050000
03:41:24.181 PM 04/29/2016,Teleop Enabled,9,FALSE,0,NO ERROR,-0.000000,-7.430483,-0.000000,18.447874,TRUE,FALSE,FALSE,FALSE,FALSE,FALSE,Disabled,0.000000,0.000000,0.000000,TRUE,0.595200,-0.148132,0.000000,-0.005142,-0.067108,0.000000,-0.095000,0.032000,0.202000,2.000000,-22.730000,1.100000,-26.178251,Hold,0.451660,0.000000,Hold,-180.000000,2.000000,Suck,-1770.000000,1818.181818,Speed,-1755.000000,1818.181818,Speed,Off,On,0.000000,FALSE,0,,,,,0.000000,0.000000,-0.050000
03:41:24.281 PM 04/29/2016,Teleop Enabled,10,FALSE,0,NO ERROR,-0.322835,-8.636813,0.322835,19.660621,TRUE,FALSE,FALSE,FALSE,FALSE,FALSE,Disabled,0.000000,0.000000,0.000000,TRUE,0.594147,-0.152618,0.000000,-0.011337,-0.127594,0.000000,0.086000,0.066000,0.022000,1.680000,-22.750000,0.480000,-26.293963,Hold,0.466309,0.000000,Hold,-180.000000,2.000000,Suck,-1777.500000,1818.181818,Speed,-1755.000000,1818.181818,Speed,Off,On,0.000000,FALSE,0,,,,,0.000000,0.000000,-0.050000
03:41:24.381 PM 04/29/2016,Teleop Enabled,9,FALSE,0,NO ERROR,-0.338583,-10.439892,0.338583,21.335367,TRUE,FALSE,FALSE,FALSE,FALSE,FALSE,Disabled,0.000000,0.000000,0.000000,TRUE,0.597458,-0.157028,0.000000,0.109787,-0.066467,0.000000,0.108000,0.080000,-0.266000,1.870000,-22.660000,2.240000,-26.168103,Hold,0.469238,0.000000,Hold,-180.000000,2.000000,Suck,-1777.500000,1818.181818,Speed,-1755.000000,1818.181818,Speed,Off,On,0.000000,FALSE,0,,,,,0.000000,0.000000,-0.050000
03:41:24.481 PM 04/29/2016,Teleop Enabled,10,FALSE,0,NO ERROR,-0.338583,-12.345638,0.338583,23.318112,TRUE,FALSE,FALSE,FALSE,FALSE,FALSE,Disabled,0.000000,0.000000,0.000000,TRUE,0.606094,-0.159470,0.000000,0.216278,-0.055069,0.000000,0.291000,-0.020000,0.000000,1.710000,-22.710000,1.910000,-26.284719,Hold,0.482422,0.000000,Hold,-180.000000,2.000000,Suck,-1770.000000,1818.181818,Speed,-1747.500000,1818.181818,Speed,Off,On,0.000000,FALSE,0,,,,,0.000000,0.000000,-0.050000
03:41:24.581 PM 04/29/2016,Teleop Enabled,11,FALSE,0,NO ERROR,-0.000000,-15.059881,-0.000000,26.109356,TRUE,FALSE,FALSE,FALSE,FALSE,FALSE,Disabled,0.000000,0.000000,0.000000,TRUE,0.622513,-0.160400,0.000000,0.371353,0.010864,0.000000,-0.145000,-0.016000,0.142000,1.720000,-23.040000,2.800000,-26.572228,Hold,0.486328,0.000000,Hold,-180.000000,2.000000,Suck,-1762.500000,1818.181818,Speed,-1747.500000,1818.181818,Speed,Off,On,0.000000,FALSE,0,,,,,0.000000,0.000000,-0.050000
03:41:24.681 PM 04/29/2016,Teleop Enabled,11,FALSE,0,NO ERROR,-0.000000,-17.061877,-0.000000,28.284601,TRUE,FALSE,FALSE,FALSE,FALSE,FALSE,Disabled,0.000000,0.000000,0.000000,TRUE,0.636337,-0.161957,0.000000,0.168060,-0.091843,0.000000,-0.184000,-0.027000,-0.013000,1.720000,-23.160000,1.080000,-26.741168,Hold,0.487549,0.000000,Hold,-180.000000,2.000000,Suck,-1770.000000,1818.181818,Speed,-1747.500000,1818.181818,Speed,Off,On,0.000000,FALSE,0,,,,,0.000000,0.000000,-0.050000
03:41:24.781 PM 04/29/2016,Teleop Enabled,10,FALSE,0,NO ERROR,-0.000000,-19.102372,-0.000000,30.440595,TRUE,FALSE,FALSE,FALSE,FALSE,FALSE,Disabled,0.000000,0.000000,0.000000,TRUE,0.642120,-0.165802,0.000000,0.016464,-0.009003,0.000000,-0.230000,-0.119000,0.163000,1.740000,-23.350000,1.040000,-26.941866,Hold,0.487549,0.000000,Hold,-179.000000,2.000000,Suck,-1777.500000,1818.181818,Speed,-1755.000000,1818.181818,Speed,Off,On,0.000000,FALSE,0,,,,,0.000000,0.000000,-0.050000
03:41:24.882 PM 04/29/2016,Teleop Enabled,10,FALSE,0,NO ERROR,-0.440945,-20.430619,-0.440945,31.820176,TRUE,FALSE,FALSE,FALSE,FALSE,FALSE,Disabled,0.000000,0.000000,0.000000,TRUE,0.638504,-0.168579,0.000000,-0.114792,-0.075409,0.000000,-0.105000,0.025000,0.078000,1.700000,-23.490000,0.150000,-27.111849,Hold,0.489990,0.000000,Hold,-179.000000,2.000000,Suck,-1777.500000,1818.181818,Speed,-1762.500000,1818.181818,Speed,Off,On,0.000000,FALSE,0,,,,,0.000000,0.000000,-0.050000
03:41:24.983 PM 04/29/2016,Teleop Enabled,9,FALSE,0,NO ERROR,-0.779528,-22.278615,-0.779528,32.320674,TRUE,FALSE,FALSE,FALSE,FALSE,FALSE,Disabled,0.000000,0.000000,0.000000,TRUE,0.629333,-0.171509,0.000000,-0.235565,-0.010010,0.000000,0.133000,-0.162000,0.443000,1.930000,-23.080000,-0.180000,-26.852690,Hold,0.491943,0.000000,Hold,-179.000000,2.000000,Suck,-1785.000000,1818.181818,Speed,-1762.500000,1818.181818,Speed,Off,On,0.000000,FALSE,0,,,,,0.000000,0.000000,-0.050000
03:41:25.083 PM 04/29/2016,Teleop Enabled,11,FALSE,0,NO ERROR,-0.779528,-24.389693,-0.779528,31.396677,TRUE,FALSE,FALSE,FALSE,FALSE,FALSE,Disabled,0.000000,0.000000,0.000000,TRUE,0.620316,-0.169266,0.000000,-0.139252,0.052628,0.000000,0.133000,-0.162000,0.443000,2.290000,-15.860000,0.070000,-21.264282,Hold,0.501709,0.000000,Hold,-179.000000,2.000000,Suck,-1755.000000,1818.181818,Speed,-1725.000000,1818.181818,Speed,Off,On,0.000000,FALSE,0,,,,,0.000000,0.000000,-0.050000
03:41:25.183 PM 04/29/2016,Teleop Enabled,11,FALSE,0,NO ERROR,-0.755906,-27.142437,-0.755906,29.369015,TRUE,FALSE,FALSE,FALSE,FALSE,FALSE,Disabled,0.000000,0.000000,0.000000,TRUE,0.615570,-0.164200,0.000000,-0.093842,0.150497,0.000000,-0.113000,-0.235000,0.159000,2.210000,-6.600000,0.050000,-12.261969,Hold,0.501709,0.000000,Hold,-186.000000,2.000000,Suck,-1732.500000,1818.181818,Speed,-1672.500000,1818.181818,Speed,Off,On,0.000000,FALSE,0,,,,,0.000000,0.000000,-0.050000
03:41:25.283 PM 04/29/2016,Teleop Enabled,11,FALSE,0,NO ERROR,-0.755906,-30.106930,-0.755906,26.455855,TRUE,FALSE,FALSE,FALSE,FALSE,FALSE,Disabled,0.000000,0.000000,0.000000,TRUE,0.612839,-0.159103,0.000000,-0.008774,0.082916,0.000000,-0.020000,0.019000,0.094000,2.130000,4.830000,-0.150000,-0.776497,Hold,0.501953,0.000000,Hold,-186.000000,2.000000,Suck,-1702.500000,1818.181818,Speed,-1657.500000,1818.181818,Speed,Off,On,0.000000,FALSE,0,,,,,0.000000,0.000000,-0.050000
03:41:25.383 PM 04/29/2016,Teleop Enabled,11,FALSE,0,NO ERROR,-0.779528,-33.212589,-0.779528,23.074279,TRUE,FALSE,FALSE,FALSE,FALSE,FALSE,Disabled,0.000000,0.000000,0.000000,TRUE,0.614670,-0.152878,0.000000,0.077896,0.159378,0.000000,-0.020000,0.019000,0.094000,2.130000,4.830000,-0.150000,12.073013,Hold,0.502197,0.000000,Hold,-186.000000,2.000000,Suck,-1695.000000,1818.181818,Speed,-1680.000000,1818.181818,Speed,Off,On,0.000000,FALSE,0,,,,,0.000000,0.000000,-0.050000
03:41:25.483 PM 04/29/2016,Teleop Enabled,11,FALSE,0,NO ERROR,-0.779528,-36.350332,-0.779528,19.384705,TRUE,FALSE,FALSE,FALSE,FALSE,FALSE,Disabled,0.000000,0.000000,0.000000,TRUE,0.620926,-0.146973,0.000000,0.127045,0.059647,0.000000,-0.017000,-0.090000,0.134000,1.330000,27.600000,-0.250000,25.570943,Hold,0.502686,0.000000,Hold,-186.000000,2.000000,Suck,-1702.500000,1818.181818,Speed,-1687.500000,1818.181818,Speed,Off,On,0.000000,FALSE,0,,,,,0.000000,0.000000,-0.050000
03:41:25.583 PM 04/29/2016,Teleop Enabled,11,FALSE,0,NO ERROR,-0.740157,-39.475241,-0.740157,15.624547,TRUE,FALSE,FALSE,FALSE,FALSE,FALSE,Disabled,0.000000,0.000000,0.000000,TRUE,0.630981,-0.146149,0.000000,0.220612,-0.004105,0.000000,0.035000,-0.223000,0.170000,1.250000,41.100000,-0.080000,39.692450,Hold,0.502686,0.000000,Hold,-186.000000,2.000000,Suck,-1710.000000,1818.181818,Speed,-1687.500000,1818.181818,Speed,Off,On,0.000000,FALSE,0,,,,,0.000000,0.000000,-0.050000
03:41:25.683 PM 04/29/2016,Teleop Enabled,10,FALSE,0,NO ERROR,-0.740157,-42.843983,-0.740157,11.652639,TRUE,FALSE,FALSE,FALSE,FALSE,FALSE,Disabled,0.000000,0.000000,0.000000,TRUE,0.642258,-0.150360,0.000000,0.256226,-0.107651,0.000000,-0.088000,-0.122000,0.134000,0.950000,58.220000,0.240000,54.582268,Hold,0.503174,0.000000,Hold,-186.000000,2.000000,Suck,-1710.000000,1818.181818,Speed,-1695.000000,1818.181818,Speed,Off,On,0.000000,FALSE,0,,,,,0.000000,0.000000,-0.050000
03:41:25.784 PM 04/29/2016,Teleop Enabled,10,FALSE,0,NO ERROR,-0.748031,-46.308975,-0.748031,7.411233,TRUE,FALSE,FALSE,FALSE,FALSE,FALSE,Disabled,0.000000,0.000000,0.000000,TRUE,0.655075,-0.159576,0.000000,0.283142,-0.234894,0.000000,-0.227000,-0.205000,0.143000,1.000000,70.210000,0.540000,70.132747,Hold,0.503174,0.000000,Hold,-186.000000,2.000000,Suck,-1710.000000,1818.181818,Speed,-1687.500000,1818.181818,Speed,Off,On,0.000000,FALSE,0,,,,,0.000000,0.000000,-0.050000
03:41:25.884 PM 04/29/2016,Teleop Enabled,10,FALSE,0,NO ERROR,-0.000000,-49.260635,-0.000000,3.586908,TRUE,FALSE,FALSE,FALSE,FALSE,FALSE,Disabled,0.000000,0.000000,0.000000,TRUE,0.664749,-0.176483,0.000000,0.177338,-0.404739,0.000000,-0.324000,0.216000,0.031000,0.740000,85.450000,0.910000,86.116562,Hold,0.503418,0.000000,Hold,-186.000000,2.000000,Suck,-1710.000000,1818.181818,Speed,-1695.000000,1818.181818,Speed,Off,On,0.000000,FALSE,0,,,,,0.000000,0.000000,-0.050000
03:41:25.984 PM 04/29/2016,Teleop Enabled,11,FALSE,0,NO ERROR,-0.000000,-50.030633,-0.000000,1.700413,TRUE,FALSE,FALSE,FALSE,FALSE,FALSE,Disabled,0.000000,0.000000,0.000000,TRUE,0.662140,-0.188217,0.000000,-0.158844,-0.127441,0.000000,-0.135000,0.130000,-0.164000,-0.560000,93.970000,-0.120000,95.533273,Hold,0.503662,0.000000,Hold,-185.000000,2.000000,Suck,-1732.500000,1818.181818,Speed,-1725.000000,1818.181818,Speed,Off,On,0.000000,FALSE,0,,,,,0.000000,0.000000,-0.050000
03:41:26.084 PM 04/29/2016,Teleop Enabled,11,FALSE,0,NO ERROR,0.362205,-49.151552,-0.362205,1.142164,TRUE,FALSE,FALSE,FALSE,FALSE,FALSE,Disabled,0.000000,0.000000,0.000000,TRUE,0.649994,-0.193008,0.000000,-0.173889,-0.050125,0.000000,0.068000,0.313000,0.038000,-0.680000,93.410000,-0.280000,94.794270,Hold,0.503662,0.000000,Hold,-183.000000,2.000000,Suck,-1777.500000,1818.181818,Speed,-1785.000000,1818.181818,Speed,Off,On,0.000000,FALSE,0,,,,,0.000000,0.000000,-0.050000
03:41:26.184 PM 04/29/2016,Teleop Enabled,11,FALSE,0,NO ERROR,0.559055,-47.855388,-0.559055,0.006417,TRUE,FALSE,FALSE,FALSE,FALSE,FALSE,Disabled,0.000000,0.000000,0.000000,TRUE,0.644119,-0.189438,0.000000,-0.045898,0.174408,0.000000,0.068000,0.313000,0.038000,-0.680000,93.410000,-0.280000,94.225380,Hold,0.503906,0.000000,Hold,-182.000000,2.000000,Suck,-1785.000000,1818.181818,Speed,-1777.500000,1818.181818,Speed,Off,On,0.000000,FALSE,0,,,,,0.000000,0.000000,-0.050000
03:41:26.284 PM 04/29/2016,Teleop Enabled,11,FALSE,0,NO ERROR,0.559055,-45.359311,-0.559055,-2.611577,FALSE,FALSE,FALSE,FALSE,FALSE,FALSE,Disabled,0.000000,0.000000,0.000000,TRUE,0.643356,-0.175522,0.000000,0.004608,0.434662,0.000000,-0.015000,0.232000,0.119000,-0.170000,92.900000,-3.180000,94.579003,Hold,0.503906,0.000000,Hold,-182.000000,2.000000,Suck,-1755.000000,1818.181818,Speed,-1740.000000,1818.181818,Speed,Off,On,0.000000,FALSE,0,,,,,0.000000,0.000000,-0.050000
03:41:26.384 PM 04/29/2016,Teleop Enabled,10,FALSE,0,NO ERROR,0.551181,-41.451570,-0.551181,-6.493651,FALSE,FALSE,FALSE,FALSE,FALSE,FALSE,Disabled,0.000000,0.000000,0.000000,TRUE,0.643356,-0.175522,0.000000,0.004608,0.434662,0.000000,-0.015000,0.232000,0.119000,-0.170000,92.900000,-3.180000,94.686628,Hold,0.503906,0.000000,Hold,-182.000000,2.000000,Suck,-1740.000000,1818.181818,Speed,-1717.500000,1818.181818,Speed,Off,On,0.000000,FALSE,0,,,,,0.000000,0.000000,-0.050000
03:41:26.484 PM 04/29/2016,Teleop Enabled,10,FALSE,0,NO ERROR,0.527559,-36.523581,-0.527559,-11.440890,FALSE,FALSE,FALSE,FALSE,FALSE,FALSE,Disabled,0.000000,0.000000,0.000000,TRUE,0.643448,-0.111725,0.000000,0.028305,0.792984,0.000000,0.069000,0.123000,0.018000,0.010000,92.910000,-4.920000,94.622121,Hold,0.503906,0.000000,Hold,-182.000000,2.000000,Suck,-1732.500000,1818.181818,Speed,-1725.000000,1818.181818,Speed,Off,On,0.000000,FALSE,0,,,,,0.000000,0.000000,-0.050000
03:41:26.584 PM 04/29/2016,Teleop Enabled,11,FALSE,0,NO ERROR,0.625668,-30.716512,-0.413702,-17.036210,FALSE,FALSE,FALSE,FALSE,FALSE,FALSE,Disabled,0.000000,0.000000,0.000000,TRUE,0.644379,-0.068817,0.000000,0.017578,0.907349,0.000000,-0.025000,0.108000,0.075000,0.110000,92.710000,-5.200000,94.524989,Hold,0.503906,0.000000,Hold,-182.000000,2.000000,Suck,-1747.500000,1818.181818,Speed,-1740.000000,1818.181818,Speed,Off,On,0.000000,FALSE,0,,,,,0.000000,0.000000,-0.050000
03:41:26.685 PM 04/29/2016,Teleop Enabled,10,FALSE,0,NO ERROR,0.685821,-23.748028,-0.353550,-23.048613,FALSE,FALSE,FALSE,FALSE,FALSE,FALSE,Disabled,0.000000,0.000000,0.000000,TRUE,0.645111,-0.019760,0.000000,0.000000,1.027451,0.000000,-0.134000,0.087000,-0.044000,0.080000,91.600000,-5.670000,93.236257,Hold,0.503906,0.000000,Hold,-182.000000,2.000000,Suck,-1762.500000,1818.181818,Speed,-1747.500000,1818.181818,Speed,Off,On,0.000000,FALSE,0,,,,,0.000000,0.000000,-0.050000
03:41:26.785 PM 04/29/2016,Teleop Enabled,9,FALSE,0,NO ERROR,0.519685,-16.157129,0.519685,-29.073849,FALSE,FALSE,FALSE,FALSE,FALSE,FALSE,Disabled,0.000000,0.000000,0.000000,TRUE,0.643280,0.033142,0.000000,-0.046265,1.067245,0.000000,-0.051000,-0.020000,-0.085000,0.150000,89.010000,-5.690000,90.515507,Hold,0.504150,0.000000,Hold,-182.000000,2.000000,Suck,-1762.500000,1818.181818,Speed,-1755.000000,1818.181818,Speed,Off,On,0.000000,FALSE,0,,,,,0.000000,0.000000,-0.050000
03:41:26.885 PM 04/29/2016,Teleop Enabled,5,FALSE,0,NO ERROR,0.519685,-8.848563,0.519685,-32.763423,TRUE,FALSE,FALSE,FALSE,FALSE,FALSE,Disabled,0.000000,0.000000,0.000000,TRUE,0.638336,0.077957,0.000000,-0.103333,0.785889,0.000000,-0.051000,-0.020000,-0.085000,0.170000,84.330000,-2.960000,85.596563,Hold,0.504150,0.000000,Hold,-181.000000,2.000000,Suck,-1762.500000,1818.181818,Speed,-1747.500000,1818.181818,Speed,Off,On,0.000000,FALSE,0,,,,,0.000000,0.000000,-0.050000
03:41:26.985 PM 04/29/2016,Teleop Enabled,15,FALSE,0,NO ERROR,0.519685,-1.803079,0.519685,-34.316253,TRUE,FALSE,FALSE,FALSE,FALSE,FALSE,Disabled,0.000000,0.000000,0.000000,TRUE,0.632904,0.106949,0.000000,-0.145172,0.458313,0.000000,0.010000,-0.254000,0.052000,0.300000,71.820000,-1.240000,75.064632,Hold,0.504883,0.000000,Hold,-181.000000,2.000000,Suck,-1755.000000,1818.181818,Speed,-1740.000000,1818.181818,Speed,Off,On,0.000000,FALSE,0,,,,,0.000000,0.000000,-0.050000
03:41:27.086 PM 04/29/2016,Teleop Enabled,5,FALSE,0,NO ERROR,0.456693,4.170824,0.456693,-34.027504,TRUE,FALSE,FALSE,FALSE,FALSE,FALSE,Disabled,0.000000,0.000000,0.000000,TRUE,0.618042,0.113770,0.000000,-0.408035,-0.114960,0.000000,-0.271000,-0.539000,0.118000,-2.060000,60.510000,-0.690000,62.654967,Hold,0.505127,0.000000,Hold,-181.000000,2.000000,Suck,-1740.000000,1818.181818,Speed,-1732.500000,1818.181818,Speed,Off,On,0.000000,FALSE,0,,,,,0.000000,0.000000,-0.050000
03:41:27.186 PM 04/29/2016,Teleop Enabled,17,FALSE,0,NO ERROR,0.196850,8.360897,0.196850,-33.879921,TRUE,FALSE,FALSE,FALSE,FALSE,FALSE,Disabled,0.000000,0.000000,0.000000,TRUE,0.598129,0.101395,0.000000,-0.307343,-0.233276,0.000000,-0.176000,-0.457000,0.014000,-0.680000,53.270000,0.600000,53.063188,Hold,0.508545,0.000000,Hold,-181.000000,2.000000,Suck,-1747.500000,1818.181818,Speed,-1725.000000,1818.181818,Speed,Off,On,0.000000,FALSE,0,,,,,0.000000,0.000000,-0.050000
03:41:27.286 PM 04/29/2016,Teleop Enabled,17,FALSE,0,NO ERROR,0.181102,10.824891,0.181102,-34.322670,TRUE,FALSE,FALSE,FALSE,FALSE,FALSE,Disabled,0.000000,0.000000,0.000000,TRUE,0.589569,0.077316,0.000000,-0.090729,-0.584503,0.000000,0.336000,-0.061000,-0.038000,-0.680000,53.270000,0.600000,47.650925,Hold,0.518311,0.000000,Hold,-181.000000,2.000000,Suck,-1755.000000,1818.181818,Speed,-1740.000000,1818.181818,Speed,Off,On,0.000000,FALSE,0,,,,,0.000000,0.000000,-0.050000
03:41:27.386 PM 04/29/2016,Teleop Enabled,17,FALSE,0,NO ERROR,-0.307087,11.216307,-0.307087,-35.567500,TRUE,FALSE,FALSE,FALSE,FALSE,FALSE,Disabled,0.000000,0.000000,0.000000,TRUE,0.593521,0.049759,0.000000,0.192810,-0.507324,0.000000,0.150000,-0.218000,-0.047000,-0.190000,47.550000,2.060000,47.047868,Hold,0.518555,0.000000,Hold,-180.000000,2.000000,Suck,-1770.000000,1818.181818,Speed,-1762.500000,1818.181818,Speed,Off,On,0.000000,FALSE,0,,,,,0.000000,0.000000,-0.050000
03:41:27.486 PM 04/29/2016,Teleop Enabled,13,FALSE,0,NO ERROR,0.125736,10.754308,-0.283713,-37.376996,TRUE,FALSE,FALSE,FALSE,FALSE,FALSE,Disabled,0.000000,0.000000,0.000000,TRUE,0.603058,0.027283,0.000000,0.195923,-0.601486,0.000000,0.255000,-0.012000,0.214000,0.040000,51.000000,2.170000,50.686948,Hold,0.520020,0.000000,Hold,-180.000000,2.000000,Suck,-1777.500000,1818.181818,Speed,-1762.500000,1818.181818,Speed,Off,On,0.000000,FALSE,0,,,,,0.000000,0.000000,-0.050000
03:41:27.586 PM 04/29/2016,Teleop Enabled,9,FALSE,0,NO ERROR,0.160146,11.261224,-0.391035,-38.827159,TRUE,FALSE,FALSE,FALSE,FALSE,FALSE,Disabled,0.000000,0.000000,0.000000,TRUE,0.608917,-0.000107,0.000000,0.053329,-0.432022,0.000000,-0.081000,-0.023000,0.088000,0.040000,51.000000,2.170000,54.525724,Hold,0.520264,0.000000,Hold,-179.000000,2.000000,Suck,-1762.500000,1818.181818,Speed,-1747.500000,1818.181818,Speed,Off,On,0.000000,FALSE,0,,,,,0.000000,0.000000,-0.050000
03:41:27.687 PM 04/29/2016,Teleop Enabled,11,FALSE,0,NO ERROR,0.174096,12.467554,-0.392833,-40.187489,TRUE,FALSE,FALSE,FALSE,FALSE,FALSE,Disabled,0.000000,0.000000,0.000000,TRUE,0.609650,-0.019348,0.000000,-0.061249,-0.294189,0.000000,-0.005000,0.179000,-0.042000,0.510000,54.840000,0.750000,54.848949,Hold,0.520508,0.000000,Hold,-179.000000,2.000000,Suck,-1755.000000,1818.181818,Speed,-1755.000000,1818.181818,Speed,Off,On,0.000000,FALSE,0,,,,,0.000000,0.000000,-0.050000
03:41:27.789 PM 04/29/2016,Teleop Enabled,8,FALSE,0,NO ERROR,0.246636,14.103800,-0.556513,-42.439734,TRUE,FALSE,FALSE,FALSE,FALSE,FALSE,Disabled,0.000000,0.000000,0.000000,TRUE,0.605164,-0.029800,0.000000,-0.075546,-0.136475,0.000000,-0.164000,0.135000,0.174000,0.130000,55.170000,0.430000,55.913175,Hold,0.520508,0.000000,Hold,-179.000000,2.000000,Suck,-1762.500000,1818.181818,Speed,-1755.000000,1818.181818,Speed,Off,On,0.000000,FALSE,0,,,,,0.000000,0.000000,-0.050000
03:41:27.889 PM 04/29/2016,Teleop Enabled,9,FALSE,0,NO ERROR,0.256309,16.272629,-0.578337,-45.628810,TRUE,FALSE,FALSE,FALSE,FALSE,FALSE,Disabled,0.000000,0.000000,0.000000,TRUE,0.604431,-0.031143,0.000000,-0.048660,0.040436,0.000000,0.000000,0.186000,-0.129000,0.780000,56.520000,-0.450000,57.565300,Hold,0.520508,0.000000,Hold,-179.000000,2.000000,Suck,-1770.000000,1818.181818,Speed,-1747.500000,1818.181818,Speed,Off,On,0.000000,FALSE,0,,,,,0.000000,0.000000,-0.050000
03:41:27.990 PM 04/29/2016,Teleop Enabled,14,FALSE,0,NO ERROR,0.199808,19.012539,-0.382869,-49.568634,TRUE,FALSE,FALSE,FALSE,FALSE,FALSE,Disabled,0.000000,0.000000,0.000000,TRUE,0.604431,-0.031143,0.000000,-0.048660,0.040436,0.000000,-0.103000,0.070000,0.027000,0.780000,58.000000,-0.830000,60.126883,Hold,0.520508,0.000000,Hold,-179.000000,2.000000,Suck,-1762.500000,1818.181818,Speed,-1747.500000,1818.181818,Speed,Off,On,0.000000,FALSE,0,,,,,0.000000,0.000000,-0.050000
03:41:28.092 PM 04/29/2016,Teleop Enabled,15,FALSE,0,NO ERROR,0.220683,22.201615,-0.361994,-53.745874,TRUE,FALSE,FALSE,FALSE,FALSE,FALSE,Disabled,0.000000,0.000000,0.000000,TRUE,0.596817,-0.016861,0.000000,-0.066208,0.203705,0.000000,0.067000,0.070000,0.103000,0.980000,60.470000,-1.340000,62.505312,Hold,0.520508,0.000000,Hold,-179.000000,2.000000,Suck,-1762.500000,1818.181818,Speed,-1755.000000,1818.181818,Speed,Off,On,0.000000,FALSE,0,,,,,0.000000,0.000000,-0.050000
03:41:28.195 PM 04/29/2016,Teleop Enabled,12,FALSE,0,NO ERROR,0.291339,25.820606,-0.291339,-57.769115,TRUE,FALSE,FALSE,FALSE,FALSE,FALSE,Disabled,0.000000,0.000000,0.000000,TRUE,0.596817,-0.016861,0.000000,-0.066208,0.203705,0.000000,0.013000,-0.058000,-0.056000,1.010000,63.410000,-1.530000,63.621193,Hold,0.520508,0.000000,Hold,-179.000000,2.000000,Suck,-1777.500000,1818.181818,Speed,-1770.000000,1818.181818,Speed,Off,On,0.000000,FALSE,0,,,,,0.000000,0.000000,-0.050000
03:41:28.297 PM 04/29/2016,Teleop Enabled,13,FALSE,0,NO ERROR,0.328272,29.696264,-0.254405,-61.747439,TRUE,FALSE,FALSE,FALSE,FALSE,FALSE,Disabled,0.000000,0.000000,0.000000,TRUE,0.591660,0.005722,0.000000,-0.045959,0.245132,0.000000,-0.032000,0.026000,0.056000,1.010000,63.410000,-1.530000,63.895861,Hold,0.520508,0.000000,Hold,-179.000000,2.000000,Suck,-1785.000000,1818.181818,Speed,-1770.000000,1818.181818,Speed,Off,On,0.000000,FALSE,0,,,,,0.000000,0.000000,-0.050000
03:41:28.397 PM 04/29/2016,Teleop Enabled,15,FALSE,0,NO ERROR,0.329878,33.841421,-0.252799,-65.700096,TRUE,FALSE,FALSE,FALSE,FALSE,FALSE,Disabled,0.000000,0.000000,0.000000,TRUE,0.588516,0.011063,0.000000,-0.055145,0.026672,0.000000,-0.071000,0.053000,-0.052000,1.130000,63.490000,-1.880000,63.652459,Hold,0.520752,0.000000,Hold,-179.000000,2.000000,Suck,-1785.000000,1818.181818,Speed,-1770.000000,1818.181818,Speed,Off,On,0.000000,FALSE,0,,,,,0.000000,0.000000,-0.050000
03:41:28.497 PM 04/29/2016,Teleop Enabled,7,FALSE,0,NO ERROR,0.360388,38.076411,-0.222289,-69.678420,TRUE,FALSE,FALSE,FALSE,FALSE,FALSE,Disabled,0.000000,0.000000,0.000000,TRUE,0.586411,0.011322,0.000000,-0.029907,-0.006531,0.000000,0.000000,-0.082000,0.023000,1.130000,63.490000,-1.880000,63.243958,Hold,0.520752,0.000000,Hold,-178.000000,2.000000,Suck,-1785.000000,1818.181818,Speed,-1770.000000,1818.181818,Speed,Off,On,0.000000,FALSE,0,,,,,0.000000,0.000000,-0.050000
03:41:28.598 PM 04/29/2016,Teleop Enabled,11,FALSE,0,NO ERROR,0.361994,42.458984,-0.220683,-73.708078,TRUE,FALSE,FALSE,FALSE,FALSE,FALSE,Disabled,0.000000,0.000000,0.000000,TRUE,0.585464,0.010895,0.000000,-0.016434,-0.012924,0.000000,0.007000,-0.064000,0.005000,1.260000,62.450000,-1.780000,62.520177,Hold,0.520752,0.000000,Hold,-178.000000,2.000000,Suck,-1785.000000,1818.181818,Speed,-1770.000000,1818.181818,Speed,Off,On,0.000000,FALSE,0,,,,,0.000000,0.000000,-0.050000
03:41:28.698 PM 04/29/2016,Teleop Enabled,2,FALSE,0,NO ERROR,0.362205,47.008390,0.362205,-76.865070,TRUE,FALSE,FALSE,FALSE,FALSE,FALSE,Disabled,0.000000,0.000000,0.000000,TRUE,0.583893,0.008774,0.000000,-0.041077,-0.103989,0.000000,-0.013000,0.043000,-0.115000,1.260000,62.450000,-1.780000,61.424366,Hold,0.520752,0.000000,Hold,-178.000000,2.000000,Suck,-1785.000000,1818.181818,Speed,-1770.000000,1818.181818,Speed,Off,On,0.000000,FALSE,0,,,,,0.000000,0.000000,-0.050000
03:41:28.800 PM 04/29/2016,Teleop Enabled,13,FALSE,0,NO ERROR,0.362205,51.634796,0.362205,-78.623233,TRUE,FALSE,FALSE,FALSE,FALSE,FALSE,Disabled,0.000000,0.000000,0.000000,TRUE,0.583893,0.008774,0.000000,-0.041077,-0.103989,0.000000,0.232000,-0.208000,0.356000,1.030000,60.970000,-1.040000,56.471981,Hold,0.521240,0.000000,Hold,-178.000000,2.000000,Suck,-1785.000000,1818.181818,Speed,-1762.500000,1818.181818,Speed,Off,On,0.000000,FALSE,0,,,,,0.000000,0.000000,-0.050000
03:41:28.900 PM 04/29/2016,Teleop Enabled,11,FALSE,0,NO ERROR,0.370079,55.285871,0.370079,-79.162232,TRUE,FALSE,FALSE,FALSE,FALSE,FALSE,Disabled,0.000000,0.000000,0.000000,TRUE,0.584824,-0.008911,0.000000,0.067596,-0.391541,0.000000,0.024000,-0.273000,0.022000,1.210000,55.730000,0.740000,49.832757,Hold,0.521240,0.000000,Hold,-178.000000,2.000000,Suck,-1770.000000,1818.181818,Speed,-1762.500000,1818.181818,Speed,Off,On,0.000000,FALSE,0,,,,,0.000000,0.000000,-0.050000
03:41:29.002 PM 04/29/2016,Teleop Enabled,12,FALSE,0,NO ERROR,0.370079,57.525282,0.370079,-79.162232,TRUE,FALSE,FALSE,FALSE,FALSE,FALSE,Disabled,0.000000,0.000000,0.000000,TRUE,0.588638,-0.038208,0.000000,0.068817,-0.769333,0.000000,0.077000,-0.408000,-0.004000,0.870000,45.890000,2.460000,45.013561,Hold,0.522705,0.000000,Hold,-178.000000,2.000000,Suck,-1770.000000,1818.181818,Speed,-1755.000000,1818.181818,Speed,Off,On,0.000000,FALSE,0,,,,,0.000000,0.000000,-0.050000
03:41:29.101 PM 04/29/2016,Teleop Enabled,11,FALSE,0,NO ERROR,0.377953,59.033195,0.377953,-79.059565,TRUE,FALSE,FALSE,FALSE,FALSE,FALSE,Disabled,0.000000,0.000000,0.000000,TRUE,0.598419,-0.080170,0.000000,0.314774,-0.817413,0.000000,0.121000,-0.152000,-0.072000,0.870000,45.890000,2.460000,41.287828,Hold,0.524414,0.000000,Hold,-178.000000,2.000000,Suck,-1762.500000,1818.181818,Speed,-1747.500000,1818.181818,Speed,Off,On,0.000000,FALSE,0,,,,,0.000000,0.000000,-0.050000
03:41:29.201 PM 04/29/2016,Teleop Enabled,10,FALSE,0,NO ERROR,0.377953,59.963610,0.377953,-78.937649,TRUE,FALSE,FALSE,FALSE,FALSE,FALSE,Disabled,0.000000,0.000000,0.000000,TRUE,0.616119,-0.126801,0.000000,0.336823,-1.050308,0.000000,0.179000,0.112000,-0.084000,-0.060000,41.340000,2.420000,39.172800,Hold,0.526123,0.000000,Hold,-178.000000,2.000000,Suck,-1762.500000,1818.181818,Speed,-1740.000000,1818.181818,Speed,Off,On,0.000000,FALSE,0,,,,,0.000000,0.000000,-0.050000
03:41:29.302 PM 04/29/2016,Teleop Enabled,11,FALSE,0,NO ERROR,0.417323,60.470525,0.417323,-78.764399,TRUE,FALSE,FALSE,FALSE,FALSE,FALSE,Disabled,0.000000,0.000000,0.000000,TRUE,0.637070,-0.175629,0.000000,0.483475,-0.920303,0.000000,0.077000,-0.035000,-0.054000,0.900000,39.460000,2.280000,37.539082,Hold,0.527100,0.000000,Hold,-178.000000,2.000000,Suck,-1762.500000,1818.181818,Speed,-1747.500000,1818.181818,Speed,Off,On,0.000000,FALSE,0,,,,,0.000000,0.000000,-0.050000
03:41:29.403 PM 04/29/2016,Teleop Enabled,11,FALSE,0,NO ERROR,0.551181,60.938941,0.551181,-78.571900,TRUE,FALSE,FALSE,FALSE,FALSE,FALSE,Disabled,0.000000,0.000000,0.000000,TRUE,0.662140,-0.223312,0.000000,0.488159,-0.984879,0.000000,0.016000,0.238000,0.007000,0.620000,38.140000,2.510000,36.105339,Hold,0.527344,0.000000,Hold,-178.000000,2.000000,Suck,-1755.000000,1818.181818,Speed,-1747.500000,1818.181818,Speed,Off,On,0.000000,FALSE,0,,,,,0.000000,0.000000,-0.050000
03:41:29.504 PM 04/29/2016,Teleop Enabled,11,FALSE,0,NO ERROR,0.503937,61.548523,0.503937,-78.077817,TRUE,FALSE,FALSE,FALSE,FALSE,FALSE,Disabled,0.000000,0.000000,0.000000,TRUE,0.687180,-0.269180,0.000000,0.505676,-0.913773,0.000000,-0.106000,0.105000,0.037000,0.730000,36.920000,2.260000,33.906175,Hold,0.527344,0.000000,Hold,-178.000000,2.000000,Suck,-1755.000000,1818.181818,Speed,-1732.500000,1818.181818,Speed,Off,On,0.000000,FALSE,0,,,,,0.000000,0.000000,-0.050000
03:41:29.606 PM 04/29/2016,Teleop Enabled,14,FALSE,0,NO ERROR,0.543307,62.299271,0.543307,-77.442569,TRUE,FALSE,FALSE,FALSE,FALSE,FALSE,Disabled,0.000000,0.000000,0.000000,TRUE,0.711044,-0.313934,0.000000,0.467270,-0.894028,0.000000,0.009000,-0.009000,-0.081000,0.700000,34.720000,2.100000,31.341025,Hold,0.527344,0.000000,Hold,-178.000000,2.000000,Suck,-1747.500000,1818.181818,Speed,-1725.000000,1818.181818,Speed,Off,On,0.000000,FALSE,0,,,,,0.000000,0.000000,-0.050000
03:41:29.708 PM 04/29/2016,Teleop Enabled,13,FALSE,0,NO ERROR,0.543307,62.985853,0.543307,-76.614821,TRUE,FALSE,FALSE,FALSE,FALSE,FALSE,Disabled,0.000000,0.000000,0.000000,TRUE,0.732819,-0.358246,0.000000,0.414597,-0.886810,0.000000,0.032000,0.064000,-0.023000,0.690000,32.260000,2.030000,28.159113,Hold,0.527344,0.000000,Hold,-178.000000,2.000000,Suck,-1747.500000,1818.181818,Speed,-1732.500000,1818.181818,Speed,Off,On,0.000000,FALSE,0,,,,,0.000000,0.000000,-0.050000
03:41:29.810 PM 04/29/2016,Teleop Enabled,11,FALSE,0,NO ERROR,0.566929,63.961184,0.566929,-75.530407,TRUE,FALSE,FALSE,FALSE,FALSE,FALSE,Disabled,0.000000,0.000000,0.000000,TRUE,0.753220,-0.401016,0.000000,0.394974,-0.850159,0.000000,0.024000,-0.050000,0.042000,0.430000,26.000000,1.810000,24.072952,Hold,0.527344,0.000000,Hold,-178.000000,2.000000,Suck,-1747.500000,1818.181818,Speed,-1732.500000,1818.181818,Speed,Off,On,0.000000,FALSE,0,,,,,0.000000,0.000000,-0.050000
03:41:29.912 PM 04/29/2016,Teleop Enabled,12,FALSE,0,NO ERROR,0.629921,65.270181,0.629921,-74.067410,TRUE,FALSE,FALSE,FALSE,FALSE,FALSE,Disabled,0.000000,0.000000,0.000000,TRUE,0.772415,-0.443130,0.000000,0.355835,-0.841904,0.000000,-0.034000,0.018000,-0.023000,0.430000,26.000000,1.810000,18.709876,Hold,0.527588,0.000000,Hold,-178.000000,2.000000,Suck,-1740.000000,1818.181818,Speed,-1725.000000,1818.181818,Speed,Off,On,0.000000,FALSE,0,,,,,0.000000,0.000000,-0.050000
03:41:30.013 PM 04/29/2016,Teleop Enabled,13,FALSE,0,NO ERROR,0.511811,67.143843,0.511811,-72.168081,TRUE,FALSE,FALSE,FALSE,FALSE,FALSE,Disabled,0.000000,0.000000,0.000000,TRUE,0.792496,-0.492462,0.000000,0.300522,-0.823303,0.000000,-0.019000,-0.083000,-0.067000,0.160000,19.820000,1.580000,11.296248,Hold,0.527588,0.000000,Hold,-178.000000,2.000000,Suck,-1740.000000,1818.181818,Speed,-1725.000000,1818.181818,Speed,Off,On,0.000000,FALSE,0,,,,,0.000000,0.000000,-0.050000
03:41:30.112 PM 04/29/2016,Teleop Enabled,10,FALSE,0,NO ERROR,-0.000000,68.170507,-0.000000,-70.987417,TRUE,FALSE,FALSE,FALSE,FALSE,FALSE,Disabled,0.000000,0.000000,0.000000,TRUE,0.805878,-0.533279,0.000000,0.249191,-0.831955,0.000000,0.004000,-0.161000,-0.034000,-0.180000,12.570000,1.360000,4.791934,Hold,0.527588,0.000000,Hold,-178.000000,2.000000,Suck,-1740.000000,1818.181818,Speed,-1732.500000,1818.181818,Speed,Off,On,0.000000,FALSE,0,,,,,0.000000,0.000000,-0.050000
03:41:30.215 PM 04/29/2016,Teleop Enabled,11,FALSE,0,NO ERROR,-0.000000,68.099924,-0.000000,-71.256917,TRUE,FALSE,FALSE,FALSE,FALSE,FALSE,Disabled,0.000000,0.000000,0.000000,TRUE,0.817703,-0.565674,0.000000,0.360031,-0.752121,0.000000,0.112000,0.235000,0.081000,0.420000,6.890000,2.030000,5.466917,Hold,0.527832,0.000000,Hold,-178.000000,2.000000,Suck,-1777.500000,1818.181818,Speed,-1770.000000,1818.181818,Speed,Off,On,0.000000,FALSE,0,,,,,0.000000,0.000000,-0.050000
03:41:30.316 PM 04/29/2016,Teleop Enabled,7,FALSE,0,NO ERROR,-0.472441,67.188760,-0.472441,-72.058998,TRUE,FALSE,FALSE,FALSE,FALSE,FALSE,Disabled,0.000000,0.000000,0.000000,TRUE,0.844849,-0.605087,0.000000,0.471542,-0.643204,0.000000,-0.214000,0.009000,0.104000,0.800000,7.530000,2.280000,6.606455,Hold,0.527832,0.000000,Hold,-178.000000,2.000000,Suck,-1807.500000,1818.181818,Speed,-1800.000000,1818.181818,Speed,Off,On,0.000000,FALSE,0,,,,,0.000000,0.000000,-0.050000
03:41:30.418 PM 04/29/2016,Teleop Enabled,9,FALSE,0,NO ERROR,-0.543307,66.399511,-0.543307,-73.015079,TRUE,FALSE,FALSE,FALSE,FALSE,FALSE,Disabled,0.000000,0.000000,0.000000,TRUE,0.870316,-0.642654,0.000000,0.482147,-0.566238,0.000000,0.373000,0.287000,0.009000,1.020000,9.240000,2.080000,9.886335,Hold,0.527832,0.000000,Hold,-178.000000,2.000000,Suck,-1792.500000,1818.181818,Speed,-1777.500000,1818.181818,Speed,Off,On,0.000000,FALSE,0,,,,,0.000000,0.000000,-0.050000
03:41:30.523 PM 04/29/2016,Teleop Enabled,14,FALSE,0,NO ERROR,-0.645669,64.904432,-0.645669,-74.503742,TRUE,FALSE,FALSE,FALSE,FALSE,FALSE,Disabled,0.000000,0.000000,0.000000,TRUE,0.891800,-0.663956,0.000000,0.546448,-0.540314,0.000000,0.142000,0.070000,-0.055000,1.400000,13.340000,2.080000,15.235506,Hold,0.528076,0.000000,Hold,-178.000000,2.000000,Suck,-1770.000000,1818.181818,Speed,-1732.500000,1818.181818,Speed,Off,On,0.000000,FALSE,0,,,,,0.000000,0.000000,-0.050000
03:41:30.619 PM 04/29/2016,Teleop Enabled,10,FALSE,0,NO ERROR,-0.000000,64.904432,-0.000000,-74.503742,TRUE,FALSE,FALSE,FALSE,FALSE,FALSE,Disabled,0.000000,0.000000,0.000000,TRUE,0.920181,-0.689346,0.000000,0.552750,-0.482224,0.000000,0.149000,-0.086000,0.049000,1.830000,18.800000,1.980000,15.235506,Hold,0.528076,0.000000,Hold,-178.000000,2.000000,Suck,-1755.000000,1818.181818,Speed,-1725.000000,1818.181818,Speed,Off,On,0.000000,FALSE,0,,,,,0.000000,0.000000,-0.050000
03:41:30.719 PM 04/29/2016,Teleop Enabled,11,FALSE,0,NO ERROR,-0.000000,63.691684,-0.000000,-75.825573,TRUE,FALSE,FALSE,FALSE,FALSE,FALSE,Disabled,0.000000,0.000000,0.000000,TRUE,0.949677,-0.713242,0.000000,0.534698,-0.513428,0.000000,-0.267000,-0.169000,-0.122000,1.770000,23.780000,1.620000,21.702740,Hold,0.528320,0.000000,Hold,-178.000000,2.000000,Suck,-1762.500000,1818.181818,Speed,-1755.000000,1818.181818,Speed,Off,On,0.000000,FALSE,0,,,,,0.000000,0.000000,-0.050000
03:41:30.821 PM 04/29/2016,Teleop Enabled,14,FALSE,0,NO ERROR,0.275591,63.775101,-0.275591,-75.799906,TRUE,FALSE,FALSE,FALSE,FALSE,FALSE,Disabled,0.000000,0.000000,0.000000,TRUE,0.969543,-0.742264,0.000000,0.333084,-0.598160,0.000000,0.070000,0.002000,-0.023000,1.070000,24.420000,0.830000,22.563875,Hold,0.528320,0.000000,Hold,-177.000000,2.000000,Suck,-1785.000000,1818.181818,Speed,-1800.000000,1818.181818,Speed,Off,On,0.000000,FALSE,0,,,,,0.000000,0.000000,-0.050000
03:41:30.922 PM 04/29/2016,Teleop Enabled,11,FALSE,0,NO ERROR,0.559055,64.628516,-0.559055,-75.921822,TRUE,FALSE,FALSE,FALSE,FALSE,FALSE,Disabled,0.000000,0.000000,0.000000,TRUE,0.988403,-0.770218,0.000000,0.377502,-0.524948,0.000000,-0.152000,0.227000,-0.251000,1.480000,23.380000,0.900000,21.797021,Hold,0.528320,0.000000,Hold,-177.000000,2.000000,Suck,-1800.000000,1818.181818,Speed,-1785.000000,1818.181818,Speed,Off,On,0.000000,FALSE,0,,,,,0.000000,0.000000,-0.050000
03:41:31.026 PM 04/29/2016,Teleop Enabled,11,FALSE,0,NO ERROR,-0.000000,65.629513,-0.000000,-77.019070,TRUE,FALSE,FALSE,FALSE,FALSE,FALSE,Disabled,0.000000,0.000000,0.000000,TRUE,1.001053,-0.793381,0.000000,0.161819,-0.425278,0.000000,-0.383000,0.271000,0.176000,1.480000,23.670000,-0.840000,22.044620,Hold,0.528564,0.000000,Hold,-177.000000,2.000000,Suck,-1777.500000,1818.181818,Speed,-1755.000000,1818.181818,Speed,Off,On,0.000000,FALSE,0,,,,,0.000000,0.000000,-0.050000
03:41:31.125 PM 04/29/2016,Teleop Enabled,10,FALSE,0,NO ERROR,-0.000000,67.984424,-0.000000,-79.361148,TRUE,FALSE,FALSE,FALSE,FALSE,FALSE,Disabled,0.000000,0.000000,0.000000,TRUE,0.998505,-0.809296,0.000000,-0.197815,-0.264389,0.000000,0.170000,0.006000,-0.287000,1.550000,23.720000,-2.550000,22.073073,Hold,0.528564,0.000000,Hold,-177.000000,2.000000,Suck,-1762.500000,1818.181818,Speed,-1740.000000,1818.181818,Speed,Off,On,0.000000,FALSE,0,,,,,0.000000,0.000000,-0.050000
03:41:31.227 PM 04/29/2016,Teleop Enabled,11,FALSE,0,NO ERROR,-0.000000,69.793920,-0.000000,-81.433726,TRUE,FALSE,FALSE,FALSE,FALSE,FALSE,Disabled,0.000000,0.000000,0.000000,TRUE,0.991501,-0.827438,0.000000,-0.038864,-0.318924,0.000000,0.043000,-0.110000,-0.110000,1.430000,23.970000,0.330000,22.279926,Hold,0.528564,0.000000,Hold,-177.000000,2.000000,Suck,-1777.500000,1818.181818,Speed,-1785.000000,1818.181818,Speed,Off,On,0.000000,FALSE,0,,,,,0.000000,0.000000,-0.050000
03:41:31.328 PM 04/29/2016,Teleop Enabled,9,FALSE,0,NO ERROR,-0.000000,71.686832,-0.000000,-83.435722,TRUE,FALSE,FALSE,FALSE,FALSE,FALSE,Disabled,0.000000,0.000000,0.000000,TRUE,0.992874,-0.845276,0.000000,0.084610,-0.388474,0.000000,0.257000,-0.055000,0.027000,1.530000,24.220000,-0.140000,22.554821,Hold,0.528564,0.000000,Hold,-177.000000,2.000000,Suck,-1800.000000,1818.181818,Speed,-1800.000000,1818.181818,Speed,Off,On,0.000000,FALSE,0,,,,,0.000000,0.000000,-0.050000
03:41:31.429 PM 04/29/2016,Teleop Enabled,10,FALSE,0,NO ERROR,-0.000000,72.835413,-0.000000,-84.590719,TRUE,FALSE,FALSE,FALSE,FALSE,FALSE,Disabled,0.000000,0.000000,0.000000,TRUE,1.002090,-0.867020,0.000000,0.239212,-0.465561,0.000000,0.032000,0.013000,0.202000,1.460000,24.170000,1.150000,22.563111,Hold,0.529541,0.000000,Hold,-177.000000,2.000000,Suck,-1800.000000,1818.181818,Speed,-1785.000000,1818.181818,Speed,Off,On,0.000000,FALSE,0,,,,,0.000000,0.000000,-0.050000
03:41:31.529 PM 04/29/2016,Teleop Enabled,10,FALSE,0,NO ERROR,-0.000000,73.733744,-0.000000,-85.412050,TRUE,FALSE,FALSE,FALSE,FALSE,FALSE,Disabled,0.000000,0.000000,0.000000,TRUE,1.015533,-0.867752,0.000000,0.291351,-0.035477,0.000000,0.079000,-0.040000,0.042000,1.400000,24.090000,0.910000,22.457900,Hold,0.529541,0.000000,Hold,-176.000000,2.000000,Suck,-1800.000000,1818.181818,Speed,-1785.000000,1818.181818,Speed,Off,On,0.000000,FALSE,0,,,,,0.000000,0.000000,-0.050000
03:41:31.630 PM 04/29/2016,Teleop Enabled,9,FALSE,0,NO ERROR,-0.000000,74.099493,-0.000000,-85.835549,TRUE,FALSE,FALSE,FALSE,FALSE,FALSE,Disabled,0.000000,0.000000,0.000000,TRUE,1.032684,-0.870438,0.000000,0.368286,-0.064072,0.000000,0.078000,-0.003000,0.032000,1.500000,24.180000,1.460000,22.498343,Hold,0.529785,0.000000,Hold,-176.000000,2.000000,Suck,-1800.000000,1818.181818,Speed,-1785.000000,1818.181818,Speed,Off,On,0.000000,FALSE,0,,,,,0.000000,0.000000,-0.050000
03:41:31.730 PM 04/29/2016,Teleop Enabled,10,FALSE,0,NO ERROR,-0.496063,74.240660,0.496063,-85.970299,TRUE,FALSE,FALSE,FALSE,FALSE,FALSE,Disabled,0.000000,0.000000,0.000000,TRUE,1.048203,-0.874191,0.000000,0.000000,-0.081955,0.000000,0.003000,-0.020000,-0.073000,1.440000,24.130000,1.510000,22.494594,Hold,0.529785,0.000000,Hold,-176.000000,2.000000,Suck,-1800.000000,1818.181818,Speed,-1785.000000,1818.181818,Speed,Off,On,0.000000,FALSE,0,,,,,0.000000,0.000000,-0.050000
03:41:31.831 PM 04/29/2016,Teleop Enabled,10,FALSE,0,NO ERROR,-0.000000,73.759411,-0.000000,-85.386384,FALSE,FALSE,FALSE,FALSE,FALSE,FALSE,Disabled,0.000000,0.000000,0.000000,TRUE,1.051956,-0.879501,0.000000,0.173462,-0.141342,0.000000,0.163000,-0.210000,0.324000,1.490000,24.050000,3.400000,22.442611,Hold,0.530029,0.000000,Hold,-176.000000,2.000000,Suck,-1792.500000,1818.181818,Speed,-1777.500000,1818.181818,Speed,Off,On,0.000000,FALSE,0,,,,,0.000000,0.000000,-0.050000
03:41:31.934 PM 04/29/2016,Teleop Enabled,11,FALSE,0,NO ERROR,-0.000000,72.488914,-0.000000,-84.122303,FALSE,FALSE,FALSE,FALSE,FALSE,FALSE,Disabled,0.000000,0.000000,0.000000,TRUE,1.068375,-0.891541,0.000000,0.364914,-0.262451,0.000000,-0.151000,0.035000,-0.022000,1.450000,23.920000,3.550000,22.286488,Hold,0.530029,0.000000,Hold,-176.000000,2.000000,Suck,-1785.000000,1818.181818,Speed,-1770.000000,1818.181818,Speed,Off,On,0.000000,FALSE,0,,,,,0.000000,0.000000,-0.050000
03:41:32.039 PM 04/29/2016,Teleop Enabled,12,FALSE,0,NO ERROR,-0.000000,71.391666,-0.000000,-82.851806,TRUE,FALSE,FALSE,FALSE,FALSE,FALSE,Disabled,0.000000,0.000000,0.000000,TRUE,1.084579,-0.906418,0.000000,0.230759,-0.234421,0.000000,-0.041000,0.075000,-0.355000,1.710000,23.910000,1.590000,22.316951,Hold,0.530029,0.000000,Hold,-176.000000,2.000000,Suck,-1792.500000,1818.181818,Speed,-1785.000000,1818.181818,Speed,Off,On,0.000000,FALSE,0,,,,,0.000000,0.000000,-0.050000
03:41:32.138 PM 04/29/2016,Teleop Enabled,11,FALSE,0,NO ERROR,-0.000000,70.390669,-0.000000,-81.812309,TRUE,FALSE,FALSE,FALSE,FALSE,FALSE,Disabled,0.000000,0.000000,0.000000,TRUE,1.091492,-0.913620,0.000000,0.121414,-0.137115,0.000000,-0.166000,-0.066000,-0.066000,1.740000,23.790000,1.390000,22.192544,Hold,0.530029,0.000000,Hold,-176.000000,2.000000,Suck,-1800.000000,1818.181818,Speed,-1792.500000,1818.181818,Speed,Off,On,0.000000,FALSE,0,,,,,0.000000,0.000000,-0.050000
03:41:32.240 PM 04/29/2016,Teleop Enabled,11,FALSE,0,NO ERROR,-0.000000,69.877337,-0.000000,-81.241227,TRUE,FALSE,FALSE,FALSE,FALSE,FALSE,Disabled,0.000000,0.000000,0.000000,TRUE,1.093628,-0.921021,0.000000,0.015793,-0.146698,0.000000,-0.109000,0.139000,0.161000,1.790000,23.770000,1.050000,22.134041,Hold,0.530029,0.000000,Hold,-176.000000,2.000000,Suck,-1800.000000,1818.181818,Speed,-1785.000000,1818.181818,Speed,Off,On,0.000000,FALSE,0,,,,,0.000000,0.000000,-0.050000
03:41:32.339 PM 04/29/2016,Teleop Enabled,11,FALSE,0,NO ERROR,0.566929,69.614254,-0.566929,-81.003811,TRUE,FALSE,FALSE,FALSE,FALSE,FALSE,Disabled,0.000000,0.000000,0.000000,TRUE,1.091034,-0.927017,0.000000,-0.095200,-0.096725,0.000000,-0.007000,-0.026000,0.103000,1.720000,23.840000,0.670000,22.203185,Hold,0.530518,0.000000,Hold,-176.000000,2.000000,Suck,-1800.000000,1818.181818,Speed,-1785.000000,1818.181818,Speed,Off,On,0.000000,FALSE,0,,,,,0.000000,0.000000,-0.050000
03:41:32.442 PM 04/29/2016,Teleop Enabled,11,FALSE,0,NO ERROR,-0.000000,70.236669,-0.000000,-81.677559,TRUE,FALSE,FALSE,FALSE,FALSE,FALSE,Disabled,0.000000,0.000000,0.000000,TRUE,1.080658,-0.929871,0.000000,-0.338806,-0.000366,0.000000,-0.258000,0.113000,-0.035000,1.940000,23.810000,-1.280000,22.168646,Hold,0.530518,0.000000,Hold,-176.000000,2.000000,Suck,-1792.500000,1818.181818,Speed,-1762.500000,1818.181818,Speed,Off,On,0.000000,FALSE,0,,,,,0.000000,0.000000,-0.050000
03:41:32.542 PM 04/29/2016,Teleop Enabled,11,FALSE,0,NO ERROR,-0.000000,70.705085,-0.000000,-82.261474,TRUE,FALSE,FALSE,FALSE,FALSE,FALSE,Disabled,0.000000,0.000000,0.000000,TRUE,1.060974,-0.929138,0.000000,-0.355103,0.000000,0.000000,0.112000,0.016000,0.390000,1.820000,23.750000,0.560000,22.058656,Hold,0.530518,0.000000,Hold,-175.000000,2.000000,Suck,-1785.000000,1818.181818,Speed,-1770.000000,1818.181818,Speed,Off,On,0.000000,FALSE,0,,,,,0.000000,0.000000,-0.050000
03:41:32.642 PM 04/29/2016,Teleop Enabled,10,FALSE,0,NO ERROR,-0.000000,71.648332,-0.000000,-83.223972,TRUE,FALSE,FALSE,FALSE,FALSE,FALSE,Disabled,0.000000,0.000000,0.000000,TRUE,1.043320,-0.929138,0.000000,-0.322952,-0.041504,0.000000,0.166000,-0.011000,0.245000,1.710000,23.840000,0.150000,22.172009,Hold,0.530518,0.000000,Hold,-175.000000,2.000000,Suck,-1792.500000,1818.181818,Speed,-1785.000000,1818.181818,Speed,Off,On,0.000000,FALSE,0,,,,,0.000000,0.000000,-0.050000
03:41:32.743 PM 04/29/2016,Teleop Enabled,9,FALSE,0,NO ERROR,-0.000000,72.020498,-0.000000,-83.641054,TRUE,FALSE,FALSE,FALSE,FALSE,FALSE,Disabled,0.000000,0.000000,0.000000,TRUE,1.030457,-0.932144,0.000000,-0.221161,-0.065308,0.000000,0.030000,-0.042000,0.030000,1.880000,23.940000,0.710000,22.286150,Hold,0.530518,0.000000,Hold,-175.000000,2.000000,Suck,-1800.000000,1818.181818,Speed,-1792.500000,1818.181818,Speed,Off,On,0.000000,FALSE,0,,,,,0.000000,0.000000,-0.050000
03:41:32.845 PM 04/29/2016,Teleop Enabled,11,FALSE,0,NO ERROR,-0.000000,72.212998,-0.000000,-83.833554,TRUE,FALSE,FALSE,FALSE,FALSE,FALSE,Disabled,0.000000,0.000000,0.000000,TRUE,1.020203,-0.935730,0.000000,-0.201462,-0.095856,0.000000,0.111000,-0.024000,-0.051000,1.750000,23.910000,0.700000,22.276563,Hold,0.532227,0.000000,Hold,-175.000000,2.000000,Suck,-1800.000000,1818.181818,Speed,-1792.500000,1818.181818,Speed,Off,On,0.000000,FALSE,0,,,,,0.000000,0.000000,-0.050000
03:41:32.946 PM 04/29/2016,Teleop Enabled,11,FALSE,0,NO ERROR,-0.000000,72.219414,-0.000000,-83.833554,TRUE,FALSE,FALSE,FALSE,FALSE,FALSE,Disabled,0.000000,0.000000,0.000000,TRUE,1.012497,-0.940567,0.000000,-0.135254,-0.079666,0.000000,-0.033000,-0.066000,-0.030000,1.850000,23.920000,0.830000,22.280567,Hold,0.532227,0.000000,Hold,-175.000000,2.000000,Suck,-1807.500000,1818.181818,Speed,-1800.000000,1818.181818,Speed,Off,On,0.000000,FALSE,0,,,,,0.000000,0.000000,-0.050000
03:41:33.047 PM 04/29/2016,Teleop Enabled,11,FALSE,0,NO ERROR,-0.000000,72.212998,-0.000000,-83.827137,TRUE,FALSE,FALSE,FALSE,FALSE,FALSE,Disabled,0.000000,0.000000,0.000000,TRUE,1.004166,-0.943527,0.000000,-0.131821,0.020264,0.000000,0.009000,0.018000,0.031000,1.860000,23.880000,0.760000,22.231379,Hold,0.532471,0.000000,Hold,-175.000000,2.000000,Suck,-1800.000000,1818.181818,Speed,-1792.500000,1818.181818,Speed,Off,On,0.000000,FALSE,0,,,,,0.000000,0.000000,-0.050000
03:41:33.148 PM 04/29/2016,Teleop Enabled,10,FALSE,0,NO ERROR,-0.000000,72.212998,-0.000000,-83.788637,TRUE,FALSE,FALSE,FALSE,FALSE,FALSE,Disabled,0.000000,0.000000,0.000000,TRUE,0.998550,-0.942566,0.000000,-0.149017,0.027420,0.000000,-0.051000,0.038000,-0.019000,1.810000,23.910000,0.690000,22.252575,Hold,0.532471,0.000000,Hold,-175.000000,2.000000,Suck,-1800.000000,1818.181818,Speed,-1792.500000,1818.181818,Speed,Off,On,0.000000,FALSE,0,,,,,0.000000,0.000000,-0.050000
03:41:33.248 PM 04/29/2016,Teleop Enabled,10,FALSE,0,NO ERROR,-0.000000,72.212998,-0.000000,-83.769387,TRUE,FALSE,FALSE,FALSE,FALSE,FALSE,Disabled,0.000000,0.000000,0.000000,TRUE,0.988556,-0.940903,0.000000,-0.175522,0.043396,0.000000,-0.028000,0.026000,0.017000,1.860000,23.900000,0.600000,22.207460,Hold,0.532471,0.000000,Hold,-175.000000,2.000000,Suck,-1807.500000,1818.181818,Speed,-1792.500000,1818.181818,Speed,Off,On,0.000000,FALSE,0,,,,,0.000000,0.000000,-0.050000
03:41:33.349 PM 04/29/2016,Teleop Enabled,9,FALSE,0,NO ERROR,-0.000000,72.212998,-0.000000,-83.769387,TRUE,FALSE,FALSE,FALSE,FALSE,FALSE,Disabled,0.000000,0.000000,0.000000,TRUE,0.979614,-0.939392,0.000000,-0.173035,0.000000,0.000000,-0.025000,0.048000,0.016000,1.850000,23.890000,0.640000,22.209016,Hold,0.532471,0.000000,Hold,-175.000000,2.000000,Suck,-1800.000000,1818.181818,Speed,-1792.500000,1818.181818,Speed,Off,On,0.000000,FALSE,0,,,,,0.000000,0.000000,-0.050000
03:41:33.448 PM 04/29/2016,Teleop Enabled,7,FALSE,0,NO ERROR,-0.000000,72.212998,-0.000000,-83.769387,TRUE,FALSE,FALSE,FALSE,FALSE,FALSE,Disabled,0.000000,0.000000,0.000000,TRUE,0.970306,-0.939178,0.000000,-0.193878,-0.006439,0.000000,0.069000,0.064000,-0.069000,1.840000,23.900000,0.610000,22.205381,Hold,0.532471,0.000000,Hold,-175.000000,2.000000,Suck,-1800.000000,1818.181818,Speed,-1792.500000,1818.181818,Speed,Off,On,0.000000,FALSE,0,,,,,0.000000,0.000000,-0.050000
03:41:33.548 PM 04/29/2016,Teleop Enabled,10,FALSE,0,NO ERROR,-0.000000,72.212998,-0.000000,-83.769387,TRUE,FALSE,FALSE,FALSE,FALSE,FALSE,Disabled,0.000000,0.000000,0.000000,TRUE,0.960739,-0.938843,0.000000,-0.193527,-0.004791,0.000000,0.017000,0.082000,-0.040000,1.860000,23.900000,0.560000,22.213616,Hold,0.532471,0.000000,Hold,-175.000000,2.000000,Suck,-1800.000000,1818.181818,Speed,-1792.500000,1818.181818,Speed,Off,On,0.000000,FALSE,0,,,,,0.000000,0.000000,-0.050000
03:41:33.648 PM 04/29/2016,Teleop Enabled,6,FALSE,0,NO ERROR,-0.000000,72.212998,-0.000000,-83.769387,TRUE,FALSE,FALSE,FALSE,FALSE,FALSE,Disabled,0.000000,0.000000,0.000000,TRUE,0.951004,-0.938690,0.000000,-0.198868,0.007462,0.000000,0.041000,0.021000,0.000000,1.890000,23.900000,0.530000,22.211622,Hold,0.532471,0.000000,Hold,-175.000000,2.000000,Suck,-1807.500000,1818.181818,Speed,-1792.500000,1818.181818,Speed,Off,On,0.000000,FALSE,0,,,,,0.000000,0.000000,-0.050000
03:41:33.749 PM 04/29/2016,Teleop Enabled,8,FALSE,0,NO ERROR,-0.000000,72.212998,-0.000000,-83.769387,TRUE,FALSE,FALSE,FALSE,FALSE,FALSE,Disabled,0.000000,0.000000,0.000000,TRUE,0.941696,-0.938309,0.000000,-0.181305,-0.003937,0.000000,-0.011000,-0.029000,0.010000,1.890000,23.900000,0.540000,22.214893,Hold,0.532471,0.000000,Hold,-175.000000,2.000000,Suck,-1800.000000,1818.181818,Speed,-1792.500000,1818.181818,Speed,Off,On,0.000000,FALSE,0,,,,,0.000000,0.000000,-0.050000
03:41:33.849 PM 04/29/2016,Teleop Enabled,9,FALSE,0,NO ERROR,-0.000000,72.212998,-0.000000,-83.769387,TRUE,FALSE,FALSE,FALSE,FALSE,FALSE,Disabled,0.000000,0.000000,0.000000,TRUE,0.930862,-0.938126,0.000000,-0.177200,0.008041,0.000000,-0.059000,-0.093000,-0.031000,1.910000,23.900000,0.480000,22.202696,Hold,0.532471,0.000000,Hold,-175.000000,2.000000,Suck,-1807.500000,1818.181818,Speed,-1800.000000,1818.181818,Speed,Off,On,0.000000,FALSE,0,,,,,0.000000,0.000000,-0.050000
03:41:33.949 PM 04/29/2016,Teleop Enabled,9,FALSE,0,NO ERROR,-0.000000,72.212998,-0.000000,-83.769387,TRUE,FALSE,FALSE,FALSE,FALSE,FALSE,Disabled,0.000000,0.000000,0.000000,TRUE,0.921829,-0.937622,0.000000,-0.179871,0.000000,0.000000,0.042000,-0.027000,0.072000,1.920000,23.900000,0.500000,22.208676,Hold,0.532471,0.000000,Hold,-175.000000,2.000000,Suck,-1807.500000,1818.181818,Speed,-1800.000000,1818.181818,Speed,Off,On,0.000000,FALSE,0,,,,,0.000000,0.000000,-0.050000
