Time,Robot Mode,Loop Time,Error Status,Error Code,Error Source,Left Motor Output,Left Motor Encoder,Right Motor Output,Right Motor Encoder,Is Level,Is Stalled,Ball Detector Photoeye,Vision Enabled,Vision Teleop Control,Vision Auto Control,Vision Current State,Vision X Output,Vision NavX Error,Vision NavX Target,NavX Connection Status,NavX Displacement X,NavX Displacement Y,NavX Displacement Z,NavX Velocity X,NavX Velocity Y,NavX Velocity Z,NavX Acceleration X,NavX Acceleration Y,NavX Acceleration Z,NavX Pitch,NavX Yaw,NavX Roll,Gyro Angle,Roller Arm State,Roller Arm Actual,Roller Arm Desired,Shooter Arm State,Shooter Arm Actual,Shooter Arm Desired,Shooter State,Actual RPM Left,Desired RPM Left,Control Mode Left,Actual RPM Right,Desired RPM Right,Control Mode Right,Ball Shooter Cylinder,Ball Halo Cylinder,Scaler Motor Output,Scaler Solenoid Fire,Auto To Run,Auto Current File,Auto File Status,Auto Current Command,Auto Trimmed Command,Shooter Amps Left,Shooter Amps Right, Vision After Offset
05:21:45.443 PM 04/29/2016,Autonomous Enabled,10,TRUE,-44003,<LOCATION>WPI_CameraIssue HTTP Request with Authentication.vi<CALLSTACK>WPI_CameraIssue HTTP Request with Authentication.vi< <WPI_CameraIssue Get.vi< <WPI_CameraSet Image Appearance Property.vi< <WPI_CameraSet Image Size.vi< <Vision Processing.vi< <Robot Main.vi,0.000000,0.000000,-0.000000,0.102666,TRUE,FALSE,TRUE,TRUE,FALSE,FALSE,Disabled,0.000000,0.000000,0.000000,TRUE,-0.000061,0.000122,0.000000,0.000000,0.000000,0.000000,0.000000,0.002000,0.005000,1.630000,-0.330000,0.070000,-2.899687,ResetBack,0.000000,-0.000049,ResetBack,0.000000,-0.250000,LowGoal,0.000000,-2181.818182,Speed,0.000000,-2181.818182,Speed,Off,Off,0.000000,FALSE,45,Read: /home/lvuser/scripts/auto_45.bee,File good!,WAIT 1500,WAIT,0.000000,0.000000,-0.050000
05:21:45.543 PM 04/29/2016,Autonomous Enabled,18,TRUE,7,Read from Text File in DoesScriptNumberContainNull.vi->Disabled.vi->Robot Main.vi<APPEND> /home/lvuser/scripts/auto_42.bee,0.000000,0.000000,-0.000000,0.102666,TRUE,FALSE,TRUE,TRUE,FALSE,FALSE,Disabled,0.000000,0.000000,0.000000,TRUE,0.000198,-0.000854,0.000000,0.017044,-0.049911,0.000000,0.056000,-0.087000,-0.008000,1.580000,-0.340000,0.120000,-2.905378,ResetBack,-0.787109,-0.000049,ResetBack,0.000000,-0.250000,LowGoal,97.500000,-2181.818182,Speed,142.500000,-2181.818182,Speed,Off,Off,0.000000,FALSE,45,Read: /home/lvuser/scripts/auto_45.bee,File good!,WAIT 1500,WAIT,0.000000,0.000000,-0.050000
05:21:45.646 PM 04/29/2016,Autonomous Enabled,9,TRUE,7,Read from Text File in DoesScriptNumberContainNull.vi->Disabled.vi->Robot Main.vi<APPEND> /home/lvuser/scripts/auto_42.bee,0.000000,0.000000,-0.000000,0.102666,TRUE,FALSE,TRUE,TRUE,FALSE,FALSE,Disabled,0.000000,0.000000,0.000000,TRUE,0.000778,-0.004395,0.000000,-0.002121,-0.073242,0.000000,-0.136000,-0.029000,-0.021000,1.590000,-0.330000,0.100000,-2.899143,ResetBack,-1.048828,-0.000049,ResetBack,5870.000000,-0.250000,LowGoal,660.000000,-2181.818182,Speed,847.500000,-2181.818182,Speed,Off,Off,0.000000,FALSE,45,Read: /home/lvuser/scripts/auto_45.bee,File good!,WAIT 1500,WAIT,0.000000,0.000000,-0.050000
05:21:45.747 PM 04/29/2016,Autonomous Enabled,11,TRUE,7,Read from Text File in DoesScriptNumberContainNull.vi->Disabled.vi->Robot Main.vi<APPEND> /home/lvuser/scripts/auto_42.bee,0.000000,0.000000,-0.000000,0.102666,TRUE,FALSE,TRUE,TRUE,FALSE,FALSE,Disabled,0.000000,0.000000,0.000000,TRUE,-0.000946,-0.007645,0.000000,-0.040863,0.000000,0.000000,-0.017000,0.011000,0.075000,1.600000,-0.350000,0.080000,-2.915268,ResetBack,-1.054688,-0.000049,ResetBack,12500.000000,-0.250000,LowGoal,1237.500000,-2181.818182,Speed,1530.000000,-2181.818182,Speed,Off,Off,0.000000,FALSE,45,Read: /home/lvuser/scripts/auto_45.bee,File good!,WAIT 1500,WAIT,0.000000,0.000000,-0.050000
05:21:45.847 PM 04/29/2016,Autonomous Enabled,8,TRUE,7,Read from Text File in DoesScriptNumberContainNull.vi->Disabled.vi->Robot Main.vi<APPEND> /home/lvuser/scripts/auto_42.bee,0.000000,0.000000,-0.000000,0.102666,TRUE,FALSE,TRUE,TRUE,FALSE,FALSE,Disabled,0.000000,0.000000,0.000000,TRUE,-0.002289,-0.007858,0.000000,0.000000,-0.005646,0.000000,0.000000,-0.059000,0.037000,1.570000,-0.340000,0.120000,-2.904906,Reset,-1.071289,0.000000,ResetBack,13620.000000,-0.250000,LowGoal,1732.500000,-2181.818182,Speed,2062.500000,-2181.818182,Speed,Off,Off,0.000000,FALSE,45,Read: /home/lvuser/scripts/auto_45.bee,File good!,WAIT 1500,WAIT,0.000000,0.000000,-0.050000
05:21:45.948 PM 04/29/2016,Autonomous Enabled,7,TRUE,7,Read from Text File in DoesScriptNumberContainNull.vi->Disabled.vi->Robot Main.vi<APPEND> /home/lvuser/scripts/auto_42.bee,0.000000,0.000000,-0.000000,0.102666,TRUE,FALSE,TRUE,TRUE,FALSE,FALSE,Disabled,0.000000,0.000000,0.000000,TRUE,-0.001770,-0.009537,0.000000,0.025162,-0.058105,0.000000,-0.015000,0.038000,0.007000,1.530000,-0.340000,0.040000,-2.895870,Hold,0.038086,0.000000,ResetBack,14323.000000,-0.250000,LowGoal,2062.500000,-2181.818182,Speed,2220.000000,-2181.818182,Speed,Off,Off,0.000000,FALSE,45,Read: /home/lvuser/scripts/auto_45.bee,File good!,WAIT 1500,WAIT,0.000000,0.000000,-0.050000
05:21:46.048 PM 04/29/2016,Autonomous Enabled,8,TRUE,7,Read from Text File in DoesScriptNumberContainNull.vi->Disabled.vi->Robot Main.vi<APPEND> /home/lvuser/scripts/auto_42.bee,0.000000,0.000000,-0.000000,0.102666,TRUE,FALSE,TRUE,TRUE,FALSE,FALSE,Disabled,0.000000,0.000000,0.000000,TRUE,-0.001541,-0.013168,0.000000,0.016663,-0.094742,0.000000,0.089000,-0.072000,0.018000,1.540000,-0.340000,0.000000,-2.908776,Hold,0.038330,0.000000,ResetBack,14646.000000,-0.250000,LowGoal,2220.000000,-2181.818182,Speed,2145.000000,-2181.818182,Speed,Off,Off,0.000000,FALSE,45,Read: /home/lvuser/scripts/auto_45.bee,File good!,WAIT 1500,WAIT,0.000000,0.000000,-0.050000
05:21:46.149 PM 04/29/2016,Autonomous Enabled,11,TRUE,7,Read from Text File in DoesScriptNumberContainNull.vi->Disabled.vi->Robot Main.vi<APPEND> /home/lvuser/scripts/auto_42.bee,0.000000,0.000000,-0.000000,0.102666,TRUE,FALSE,TRUE,TRUE,FALSE,FALSE,Disabled,0.000000,0.000000,0.000000,TRUE,0.001663,-0.021942,0.000000,0.063721,-0.171829,0.000000,0.057000,-0.034000,0.025000,1.540000,-0.340000,0.020000,-2.904111,Hold,0.038574,0.000000,ResetBack,14646.000000,-0.250000,LowGoal,2182.500000,-2181.818182,Speed,2077.500000,-2181.818182,Speed,Off,Off,0.000000,FALSE,45,Read: /home/lvuser/scripts/auto_45.bee,File good!,WAIT 1500,WAIT,0.000000,0.000000,-0.050000
05:21:46.249 PM 04/29/2016,Autonomous Enabled,5,TRUE,7,Read from Text File in DoesScriptNumberContainNull.vi->Disabled.vi->Robot Main.vi<APPEND> /home/lvuser/scripts/auto_42.bee,0.000000,0.000000,-0.000000,0.102666,TRUE,FALSE,TRUE,TRUE,FALSE,FALSE,Disabled,0.000000,0.000000,0.000000,TRUE,0.004761,-0.029510,0.000000,0.082443,-0.202301,0.000000,0.015000,-0.067000,0.082000,1.610000,-0.340000,0.010000,-2.896262,Hold,0.038574,0.000000,ResetBack,14662.000000,-0.250000,LowGoal,2145.000000,-2181.818182,Speed,2077.500000,-2181.818182,Speed,Off,Off,0.000000,FALSE,45,Read: /home/lvuser/scripts/auto_45.bee,File good!,WAIT 1500,WAIT,0.000000,0.000000,-0.050000
05:21:46.349 PM 04/29/2016,Autonomous Enabled,13,TRUE,7,Read from Text File in DoesScriptNumberContainNull.vi->Disabled.vi->Robot Main.vi<APPEND> /home/lvuser/scripts/auto_42.bee,0.000000,0.000000,-0.000000,0.102666,TRUE,FALSE,TRUE,TRUE,FALSE,FALSE,Disabled,0.000000,0.000000,0.000000,TRUE,0.005798,-0.041367,0.000000,0.014420,0.000000,0.000000,0.032000,0.019000,0.047000,1.570000,-0.340000,0.030000,-2.902841,Hold,0.038574,0.000000,ResetBack,14665.000000,-0.250000,LowGoal,2115.000000,-2181.818182,Speed,2107.500000,-2181.818182,Speed,Off,Off,0.000000,FALSE,45,Read: /home/lvuser/scripts/auto_45.bee,File good!,WAIT 1500,WAIT,0.000000,0.000000,-0.050000
05:21:46.450 PM 04/29/2016,Autonomous Enabled,6,TRUE,7,Read from Text File in DoesScriptNumberContainNull.vi->Disabled.vi->Robot Main.vi<APPEND> /home/lvuser/scripts/auto_42.bee,0.000000,0.000000,-0.000000,0.102666,TRUE,FALSE,TRUE,TRUE,FALSE,FALSE,Disabled,0.000000,0.000000,0.000000,TRUE,0.007172,-0.040054,0.000000,0.037231,0.052185,0.000000,0.033000,0.106000,0.057000,1.600000,-0.350000,0.080000,-2.890799,Hold,0.038574,0.000000,ResetBack,14669.000000,-0.250000,LowGoal,2122.500000,-2181.818182,Speed,2107.500000,-2181.818182,Speed,Off,Off,0.000000,FALSE,45,Read: /home/lvuser/scripts/auto_45.bee,File good!,WAIT 1500,WAIT,0.000000,0.000000,-0.050000
05:21:46.552 PM 04/29/2016,Autonomous Enabled,13,TRUE,7,Read from Text File in DoesScriptNumberContainNull.vi->Disabled.vi->Robot Main.vi<APPEND> /home/lvuser/scripts/auto_42.bee,0.000000,0.000000,-0.000000,0.102666,TRUE,FALSE,TRUE,TRUE,FALSE,FALSE,Disabled,0.000000,0.000000,0.000000,TRUE,0.009796,-0.035934,0.000000,0.064987,0.099808,0.000000,0.039000,0.070000,0.075000,1.570000,-0.350000,0.060000,-2.884599,Hold,0.038574,0.000000,ResetBack,14681.000000,-0.250000,LowGoal,2130.000000,-2181.818182,Speed,2100.000000,-2181.818182,Speed,Off,Off,0.000000,FALSE,45,Read: /home/lvuser/scripts/auto_45.bee,File good!,WAIT 1500,WAIT,0.000000,0.000000,-0.050000
05:21:46.653 PM 04/29/2016,Autonomous Enabled,8,TRUE,7,Read from Text File in DoesScriptNumberContainNull.vi->Disabled.vi->Robot Main.vi<APPEND> /home/lvuser/scripts/auto_42.bee,0.000000,0.000000,-0.000000,0.102666,TRUE,FALSE,TRUE,TRUE,FALSE,FALSE,Disabled,0.000000,0.000000,0.000000,TRUE,0.014343,-0.028122,0.000000,0.063324,0.148865,0.000000,-0.069000,-0.020000,-0.034000,1.600000,-0.350000,0.040000,-2.892678,Hold,0.038574,0.000000,ResetBack,14685.000000,-0.250000,LowGoal,2130.000000,-2181.818182,Speed,2100.000000,-2181.818182,Speed,Off,Off,0.000000,FALSE,45,Read: /home/lvuser/scripts/auto_45.bee,File good!,WAIT 1500,WAIT,0.000000,0.000000,-0.050000
05:21:46.754 PM 04/29/2016,Autonomous Enabled,18,TRUE,7,Read from Text File in DoesScriptNumberContainNull.vi->Disabled.vi->Robot Main.vi<APPEND> /home/lvuser/scripts/auto_42.bee,0.000000,0.000000,-0.000000,0.102666,TRUE,FALSE,TRUE,TRUE,FALSE,FALSE,Disabled,0.000000,0.000000,0.000000,TRUE,0.015503,-0.023560,0.000000,0.008835,0.000000,0.000000,-0.057000,0.054000,-0.048000,1.610000,-0.340000,0.020000,-2.896107,Hold,0.038574,0.000000,Reset,0.000000,2.000000,LowGoal,2137.500000,-2181.818182,Speed,2107.500000,-2181.818182,Speed,Off,Off,0.000000,FALSE,45,Read: /home/lvuser/scripts/auto_45.bee,File good!,WAIT 1500,WAIT,0.000000,0.000000,-0.050000
05:21:46.854 PM 04/29/2016,Autonomous Enabled,12,TRUE,7,Read from Text File in DoesScriptNumberContainNull.vi->Disabled.vi->Robot Main.vi<APPEND> /home/lvuser/scripts/auto_42.bee,0.000000,0.000000,-0.000000,0.102666,TRUE,FALSE,TRUE,TRUE,FALSE,FALSE,Disabled,0.000000,0.000000,0.000000,TRUE,0.014404,-0.022385,0.000000,-0.038605,0.042191,0.000000,-0.051000,0.049000,0.002000,1.620000,-0.340000,0.000000,-2.900823,Hold,0.038574,0.000000,Hold,0.000000,2.000000,LowGoal,2130.000000,-2181.818182,Speed,2107.500000,-2181.818182,Speed,Off,Off,0.000000,FALSE,45,Read: /home/lvuser/scripts/auto_45.bee,File good!,WAIT 1500,WAIT,0.000000,0.000000,-0.050000
05:21:46.953 PM 04/29/2016,Autonomous Enabled,13,TRUE,7,Read from Text File in DoesScriptNumberContainNull.vi->Disabled.vi->Robot Main.vi<APPEND> /home/lvuser/scripts/auto_42.bee,0.000000,0.000000,-0.000000,0.102666,TRUE,FALSE,TRUE,TRUE,FALSE,FALSE,Disabled,0.000000,0.000000,0.000000,TRUE,0.011993,-0.018661,0.000000,-0.037079,0.093765,0.000000,-0.004000,-0.012000,0.010000,1.630000,-0.340000,-0.020000,-2.893412,Hold,0.038574,0.000000,Hold,-177.000000,2.000000,LowGoal,2130.000000,-2181.818182,Speed,2100.000000,-2181.818182,Speed,Off,Off,0.000000,FALSE,45,Read: /home/lvuser/scripts/auto_45.bee,File good!,WAIT 1500,WAIT,0.000000,0.000000,-0.050000
05:21:47.055 PM 04/29/2016,Autonomous Enabled,11,TRUE,7,Read from Text File in DoesScriptNumberContainNull.vi->Disabled.vi->Robot Main.vi<APPEND> /home/lvuser/scripts/auto_42.bee,0.000000,0.000000,-0.000000,0.102666,TRUE,FALSE,TRUE,TRUE,FALSE,FALSE,Disabled,0.000000,0.000000,0.000000,TRUE,0.013580,-0.016998,0.000000,0.049957,-0.014526,0.000000,0.009000,-0.020000,-0.053000,1.640000,-0.340000,0.020000,0.000028,Hold,0.038574,0.000000,Hold,-177.000000,2.000000,LowGoal,2137.500000,-2181.818182,Speed,2107.500000,-2181.818182,Speed,Off,Off,0.000000,FALSE,45,Read: /home/lvuser/scripts/auto_45.bee,File good!,NAVX_ZERO_YAW,NAVX_ZERO_YAW,0.000000,0.000000,-0.050000
05:21:47.157 PM 04/29/2016,Autonomous Enabled,10,TRUE,7,Read from Text File in DoesScriptNumberContainNull.vi->Disabled.vi->Robot Main.vi<APPEND> /home/lvuser/scripts/auto_42.bee,-0.562500,-0.365749,0.562500,0.288749,TRUE,FALSE,TRUE,TRUE,FALSE,FALSE,Disabled,0.000000,0.000000,0.000000,TRUE,0.014359,-0.019547,0.000000,0.033020,-0.080154,0.000000,0.082000,-0.112000,0.013000,1.620000,-0.010000,0.720000,-0.004083,Hold,0.038574,0.000000,Hold,-177.000000,2.000000,LowGoal,2130.000000,-1818.181818,Speed,2107.500000,-1818.181818,Speed,Off,Off,0.000000,FALSE,45,Read: /home/lvuser/scripts/auto_45.bee,File good!,DRIVE_STRAIGHT_TARGET 42 0 10000 75,DRIVE_STRAIGHT_TARGET,0.000000,0.000000,-0.050000
05:21:47.257 PM 04/29/2016,Autonomous Enabled,10,TRUE,7,Read from Text File in DoesScriptNumberContainNull.vi->Disabled.vi->Robot Main.vi<APPEND> /home/lvuser/scripts/auto_42.bee,-0.562500,-2.489661,0.562500,2.669327,FALSE,FALSE,TRUE,TRUE,FALSE,FALSE,Disabled,0.000000,0.000000,0.000000,TRUE,0.034180,-0.028763,0.000000,0.528290,-0.192856,0.000000,0.257000,0.070000,-0.267000,1.430000,-0.510000,5.080000,-0.445591,Hold,0.038574,0.000000,Hold,-177.000000,2.000000,LowGoal,2107.500000,-1818.181818,Speed,2062.500000,-1818.181818,Speed,Off,Off,0.000000,FALSE,45,Read: /home/lvuser/scripts/auto_45.bee,File good!,DRIVE_STRAIGHT_TARGET 42 0 10000 75,DRIVE_STRAIGHT_TARGET,0.000000,0.000000,-0.050000
05:21:47.359 PM 04/29/2016,Autonomous Enabled,12,TRUE,7,Read from Text File in DoesScriptNumberContainNull.vi->Disabled.vi->Robot Main.vi<APPEND> /home/lvuser/scripts/auto_42.bee,-0.562500,-5.633820,0.562500,5.967486,FALSE,FALSE,TRUE,TRUE,FALSE,FALSE,Disabled,0.000000,0.000000,0.000000,TRUE,0.067505,-0.034332,0.000000,0.739792,0.000000,0.000000,0.318000,0.158000,0.240000,1.480000,-0.950000,3.740000,-0.864433,Hold,0.038574,0.000000,Hold,-177.000000,2.000000,LowGoal,2040.000000,-1818.181818,Speed,1935.000000,-1818.181818,Speed,Off,Off,0.000000,FALSE,45,Read: /home/lvuser/scripts/auto_45.bee,File good!,DRIVE_STRAIGHT_TARGET 42 0 10000 75,DRIVE_STRAIGHT_TARGET,0.000000,0.000000,-0.050000
05:21:47.459 PM 04/29/2016,Autonomous Enabled,13,TRUE,7,Read from Text File in DoesScriptNumberContainNull.vi->Disabled.vi->Robot Main.vi<APPEND> /home/lvuser/scripts/auto_42.bee,-0.562500,-9.778977,0.562500,10.215309,FALSE,FALSE,TRUE,TRUE,FALSE,FALSE,Disabled,0.000000,0.000000,0.000000,TRUE,0.118774,-0.032166,0.000000,0.864349,0.042419,0.000000,0.318000,0.158000,0.240000,1.480000,-0.950000,3.740000,-1.020574,Hold,0.038574,0.000000,Hold,-177.000000,2.000000,LowGoal,1860.000000,-1818.181818,Speed,1695.000000,-1818.181818,Speed,Off,Off,0.000000,FALSE,45,Read: /home/lvuser/scripts/auto_45.bee,File good!,DRIVE_STRAIGHT_TARGET 42 0 10000 75,DRIVE_STRAIGHT_TARGET,0.000000,0.000000,-0.050000
05:21:47.560 PM 04/29/2016,Autonomous Enabled,12,TRUE,7,Read from Text File in DoesScriptNumberContainNull.vi->Disabled.vi->Robot Main.vi<APPEND> /home/lvuser/scripts/auto_42.bee,-0.562500,-14.052467,0.562500,14.559383,FALSE,FALSE,TRUE,TRUE,FALSE,FALSE,Disabled,0.000000,0.000000,0.000000,TRUE,0.151321,-0.029770,0.000000,0.800201,0.065857,0.000000,-0.043000,-0.046000,0.007000,1.530000,-1.090000,4.690000,-1.174284,Hold,0.038574,0.000000,Hold,-177.000000,2.000000,LowGoal,1740.000000,-1818.181818,Speed,1665.000000,-1818.181818,Speed,Off,Off,0.000000,FALSE,45,Read: /home/lvuser/scripts/auto_45.bee,File good!,DRIVE_STRAIGHT_TARGET 42 0 10000 75,DRIVE_STRAIGHT_TARGET,0.000000,0.000000,-0.050000
05:21:47.660 PM 04/29/2016,Autonomous Enabled,12,TRUE,7,Read from Text File in DoesScriptNumberContainNull.vi->Disabled.vi->Robot Main.vi<APPEND> /home/lvuser/scripts/auto_42.bee,-0.589333,-18.550540,0.536293,19.153705,FALSE,FALSE,TRUE,TRUE,FALSE,FALSE,Disabled,0.000000,0.000000,0.000000,TRUE,0.199783,-0.026031,0.000000,0.793472,0.070084,0.000000,-0.043000,-0.046000,0.007000,1.590000,-1.310000,3.850000,-1.331282,Hold,0.038818,0.000000,Hold,-177.000000,2.000000,LowGoal,1717.500000,-1818.181818,Speed,1732.500000,-1818.181818,Speed,Off,Off,0.000000,FALSE,45,Read: /home/lvuser/scripts/auto_45.bee,File good!,DRIVE_STRAIGHT_TARGET 42 0 10000 75,DRIVE_STRAIGHT_TARGET,0.000000,0.000000,-0.050000
05:21:47.766 PM 04/29/2016,Autonomous Enabled,10,TRUE,7,Read from Text File in DoesScriptNumberContainNull.vi->Disabled.vi->Robot Main.vi<APPEND> /home/lvuser/scripts/auto_44.bee,-0.587936,-23.183362,0.537626,23.709528,FALSE,FALSE,TRUE,TRUE,FALSE,FALSE,Disabled,0.000000,0.000000,0.000000,TRUE,0.238174,-0.022522,0.000000,0.748199,0.068161,0.000000,-0.052000,0.075000,0.020000,1.620000,-1.370000,4.100000,-1.263591,Hold,0.038818,0.000000,Hold,-177.000000,2.000000,LowGoal,1740.000000,-1818.181818,Speed,1755.000000,-1818.181818,Speed,Off,Off,0.000000,FALSE,45,Read: /home/lvuser/scripts/auto_45.bee,File good!,DRIVE_STRAIGHT_TARGET 42 0 10000 75,DRIVE_STRAIGHT_TARGET,0.000000,0.000000,-0.050000
05:21:47.866 PM 04/29/2016,Autonomous Enabled,17,TRUE,7,Read from Text File in DoesScriptNumberContainNull.vi->Disabled.vi->Robot Main.vi<APPEND> /home/lvuser/scripts/auto_44.bee,-0.581574,-27.835435,0.543744,28.194767,FALSE,FALSE,TRUE,TRUE,FALSE,FALSE,Disabled,0.000000,0.000000,0.000000,TRUE,0.274643,-0.019012,0.000000,0.714310,0.068680,0.000000,-0.096000,0.041000,0.191000,1.650000,-1.130000,3.810000,-0.934038,Hold,0.038818,0.000000,Hold,-177.000000,2.000000,LowGoal,1770.000000,-1818.181818,Speed,1740.000000,-1818.181818,Speed,Off,Off,0.000000,FALSE,45,Read: /home/lvuser/scripts/auto_45.bee,File good!,DRIVE_STRAIGHT_TARGET 42 0 10000 75,DRIVE_STRAIGHT_TARGET,0.000000,0.000000,-0.050000
05:21:47.966 PM 04/29/2016,Autonomous Enabled,10,TRUE,7,Read from Text File in DoesScriptNumberContainNull.vi->Disabled.vi->Robot Main.vi<APPEND> /home/lvuser/scripts/auto_44.bee,-0.577813,-32.455424,0.547393,32.769840,FALSE,FALSE,TRUE,TRUE,FALSE,FALSE,Disabled,0.000000,0.000000,0.000000,TRUE,0.308380,-0.016373,0.000000,0.653305,0.042450,0.000000,-0.096000,0.041000,0.191000,1.640000,-0.840000,3.870000,-0.742687,Hold,0.038818,0.000000,Hold,-177.000000,2.000000,LowGoal,1770.000000,-1818.181818,Speed,1732.500000,-1818.181818,Speed,Off,Off,0.000000,FALSE,45,Read: /home/lvuser/scripts/auto_45.bee,File good!,DRIVE_STRAIGHT_TARGET 42 0 10000 75,DRIVE_STRAIGHT_TARGET,0.000000,0.000000,-0.050000
05:21:48.067 PM 04/29/2016,Autonomous Enabled,12,TRUE,7,Read from Text File in DoesScriptNumberContainNull.vi->Disabled.vi->Robot Main.vi<APPEND> /home/lvuser/scripts/auto_44.bee,-0.576233,-37.075413,0.548933,37.319246,FALSE,FALSE,TRUE,TRUE,FALSE,FALSE,Disabled,0.000000,0.000000,0.000000,TRUE,0.334000,-0.014816,0.000000,0.627335,0.033356,0.000000,-0.172000,0.106000,0.068000,1.580000,-0.740000,3.530000,-0.673805,Hold,0.038818,0.000000,Hold,-177.000000,2.000000,LowGoal,1770.000000,-1818.181818,Speed,1732.500000,-1818.181818,Speed,Off,Off,0.000000,FALSE,45,Read: /home/lvuser/scripts/auto_45.bee,File good!,DRIVE_STRAIGHT_TARGET 42 0 10000 75,DRIVE_STRAIGHT_TARGET,0.000000,0.000000,-0.050000
05:21:48.168 PM 04/29/2016,Autonomous Enabled,11,TRUE,7,Read from Text File in DoesScriptNumberContainNull.vi->Disabled.vi->Robot Main.vi<APPEND> /home/lvuser/scripts/auto_44.bee,-0.574655,-41.708236,0.550475,41.990568,FALSE,FALSE,TRUE,TRUE,FALSE,FALSE,Disabled,0.000000,0.000000,0.000000,TRUE,0.368011,-0.014038,0.000000,0.538116,-0.005341,0.000000,-0.172000,0.106000,0.068000,1.540000,-0.660000,3.330000,-0.584718,Hold,0.038818,0.000000,Hold,-177.000000,2.000000,LowGoal,1762.500000,-1818.181818,Speed,1740.000000,-1818.181818,Speed,Off,Off,0.000000,FALSE,45,Read: /home/lvuser/scripts/auto_45.bee,File good!,DRIVE_STRAIGHT_TARGET 42 0 10000 75,DRIVE_STRAIGHT_TARGET,0.000000,0.000000,-0.050000
05:21:48.269 PM 04/29/2016,Autonomous Enabled,10,TRUE,7,Read from Text File in DoesScriptNumberContainNull.vi->Disabled.vi->Robot Main.vi<APPEND> /home/lvuser/scripts/auto_44.bee,0.000000,-46.052309,-0.000000,46.283308,TRUE,FALSE,TRUE,TRUE,FALSE,FALSE,Disabled,0.000000,0.000000,0.000000,TRUE,0.393799,-0.013901,0.000000,0.491821,-0.001495,0.000000,-1.152000,0.184000,0.311000,1.490000,-0.570000,2.970000,-0.574294,Hold,0.038818,0.000000,Hold,-177.000000,2.000000,LowGoal,1762.500000,-1818.181818,Speed,1740.000000,-1818.181818,Speed,Off,Off,0.000000,FALSE,45,Read: /home/lvuser/scripts/auto_45.bee,File good!,WAIT 1000,WAIT,0.000000,0.000000,-0.050000
05:21:48.371 PM 04/29/2016,Autonomous Enabled,11,TRUE,7,Read from Text File in DoesScriptNumberContainNull.vi->Disabled.vi->Robot Main.vi<APPEND> /home/lvuser/scripts/auto_44.bee,0.000000,-47.836138,-0.000000,48.201887,TRUE,FALSE,TRUE,TRUE,FALSE,FALSE,Disabled,0.000000,0.000000,0.000000,TRUE,0.388626,-0.012787,0.000000,-0.416092,0.017609,0.000000,-1.152000,0.184000,0.311000,1.750000,-0.070000,-0.660000,-0.170995,Hold,3.816895,58.000000,Hold,-177.000000,2.000000,LowGoal,1762.500000,-1818.181818,Speed,1740.000000,-1818.181818,Speed,Off,Off,0.000000,FALSE,45,Read: /home/lvuser/scripts/auto_45.bee,File good!,WAIT 1000,WAIT,0.000000,0.000000,-0.050000
05:21:48.470 PM 04/29/2016,Autonomous Enabled,12,TRUE,7,Read from Text File in DoesScriptNumberContainNull.vi->Disabled.vi->Robot Main.vi<APPEND> /home/lvuser/scripts/auto_44.bee,0.000000,-48.522720,-0.000000,48.740886,TRUE,FALSE,TRUE,TRUE,FALSE,FALSE,Disabled,0.000000,0.000000,0.000000,TRUE,0.356812,-0.013245,0.000000,-0.761169,-0.019180,0.000000,-0.512000,-0.143000,-0.710000,1.750000,-0.070000,-0.660000,-0.148023,Hold,6.410645,58.000000,Hold,-177.000000,2.000000,LowGoal,1762.500000,-1818.181818,Speed,1740.000000,-1818.181818,Speed,Off,Off,0.000000,FALSE,45,Read: /home/lvuser/scripts/auto_45.bee,File good!,WAIT 1000,WAIT,0.000000,0.000000,-0.050000
05:21:48.571 PM 04/29/2016,Autonomous Enabled,11,TRUE,7,Read from Text File in DoesScriptNumberContainNull.vi->Disabled.vi->Robot Main.vi<APPEND> /home/lvuser/scripts/auto_44.bee,0.000000,-48.336637,-0.000000,48.586886,TRUE,FALSE,TRUE,TRUE,FALSE,FALSE,Disabled,0.000000,0.000000,0.000000,TRUE,0.318756,-0.014542,0.000000,-0.745544,-0.024109,0.000000,-0.012000,-0.029000,-0.359000,1.610000,-0.060000,-0.320000,-0.237120,Hold,6.410645,58.000000,Hold,-177.000000,2.000000,LowGoal,1755.000000,-1818.181818,Speed,1740.000000,-1818.181818,Speed,Off,Off,0.000000,FALSE,45,Read: /home/lvuser/scripts/auto_45.bee,File good!,WAIT 1000,WAIT,0.000000,0.000000,-0.050000
05:21:48.673 PM 04/29/2016,Autonomous Enabled,11,TRUE,7,Read from Text File in DoesScriptNumberContainNull.vi->Disabled.vi->Robot Main.vi<APPEND> /home/lvuser/scripts/auto_44.bee,0.000000,-48.163387,-0.000000,48.310970,TRUE,FALSE,TRUE,TRUE,FALSE,FALSE,Disabled,0.000000,0.000000,0.000000,TRUE,0.283859,-0.015793,0.000000,-0.642288,-0.032501,0.000000,0.087000,0.032000,0.320000,1.670000,-0.130000,-0.090000,-0.274272,Hold,13.997559,58.000000,Hold,-177.000000,2.000000,LowGoal,1762.500000,-1818.181818,Speed,1740.000000,-1818.181818,Speed,Off,Off,0.000000,FALSE,45,Read: /home/lvuser/scripts/auto_45.bee,File good!,WAIT 1000,WAIT,0.000000,0.000000,-0.050000
05:21:48.778 PM 04/29/2016,Autonomous Enabled,12,TRUE,7,Read from Text File in DoesScriptNumberContainNull.vi->Disabled.vi->Robot Main.vi<APPEND> /home/lvuser/scripts/auto_44.bee,0.000000,-48.131304,-0.000000,48.240387,TRUE,FALSE,TRUE,TRUE,FALSE,FALSE,Disabled,0.000000,0.000000,0.000000,TRUE,0.249115,-0.017502,0.000000,-0.548462,-0.034241,0.000000,0.087000,0.032000,0.320000,1.680000,-0.090000,0.210000,-0.195475,Hold,13.997559,58.000000,Hold,-177.000000,2.000000,LowGoal,1762.500000,-1818.181818,Speed,1747.500000,-1818.181818,Speed,Off,Off,0.000000,FALSE,45,Read: /home/lvuser/scripts/auto_45.bee,File good!,WAIT 1000,WAIT,0.000000,0.000000,-0.050000
05:21:48.877 PM 04/29/2016,Autonomous Enabled,12,TRUE,7,Read from Text File in DoesScriptNumberContainNull.vi->Disabled.vi->Robot Main.vi<APPEND> /home/lvuser/scripts/auto_44.bee,0.000000,-48.112054,-0.000000,48.227554,TRUE,FALSE,TRUE,TRUE,FALSE,FALSE,Disabled,0.000000,0.000000,0.000000,TRUE,0.228363,-0.017776,0.000000,-0.511322,-0.008865,0.000000,0.050000,-0.005000,0.070000,1.640000,-0.100000,0.300000,-0.224644,Hold,23.620605,58.000000,Hold,-177.000000,2.000000,LowGoal,1770.000000,-1818.181818,Speed,1740.000000,-1818.181818,Speed,Off,Off,0.000000,FALSE,45,Read: /home/lvuser/scripts/auto_45.bee,File good!,WAIT 1000,WAIT,0.000000,0.000000,-0.050000
05:21:48.977 PM 04/29/2016,Autonomous Enabled,11,TRUE,7,Read from Text File in DoesScriptNumberContainNull.vi->Disabled.vi->Robot Main.vi<APPEND> /home/lvuser/scripts/auto_44.bee,0.000000,-48.112054,-0.000000,48.227554,TRUE,FALSE,TRUE,TRUE,FALSE,FALSE,Disabled,0.000000,0.000000,0.000000,TRUE,0.199997,-0.017868,0.000000,-0.443237,-0.009705,0.000000,0.050000,-0.005000,0.070000,1.610000,-0.110000,0.550000,-0.239161,Hold,30.615234,58.000000,Hold,-177.000000,2.000000,LowGoal,1770.000000,-1818.181818,Speed,1747.500000,-1818.181818,Speed,Off,Off,0.000000,FALSE,45,Read: /home/lvuser/scripts/auto_45.bee,File good!,WAIT 1000,WAIT,0.000000,0.000000,-0.050000
05:21:49.078 PM 04/29/2016,Autonomous Enabled,10,TRUE,7,Read from Text File in DoesScriptNumberContainNull.vi->Disabled.vi->Robot Main.vi<APPEND> /home/lvuser/scripts/auto_44.bee,0.000000,-48.112054,-0.000000,48.227554,TRUE,FALSE,TRUE,TRUE,FALSE,FALSE,Disabled,0.000000,0.000000,0.000000,TRUE,0.195831,-0.018646,0.000000,0.012100,-0.021057,0.000000,0.005000,0.031000,0.004000,1.600000,-0.120000,0.660000,-0.231405,Hold,38.733643,58.000000,Hold,-176.000000,2.000000,LowGoal,1770.000000,-1818.181818,Speed,1747.500000,-1818.181818,Speed,Off,Off,0.000000,FALSE,45,Read: /home/lvuser/scripts/auto_45.bee,File good!,WAIT 1000,WAIT,0.000000,0.000000,-0.050000
05:21:49.180 PM 04/29/2016,Autonomous Enabled,12,TRUE,7,Read from Text File in DoesScriptNumberContainNull.vi->Disabled.vi->Robot Main.vi<APPEND> /home/lvuser/scripts/auto_44.bee,0.000000,-48.112054,-0.000000,48.291720,TRUE,FALSE,TRUE,TRUE,FALSE,FALSE,Disabled,0.000000,0.000000,0.000000,TRUE,0.196518,-0.019409,0.000000,-0.008133,0.010239,0.000000,0.051000,0.015000,0.078000,1.550000,-0.100000,0.850000,-0.179223,Hold,49.369873,58.000000,Hold,-176.000000,2.000000,LowGoal,1762.500000,-1818.181818,Speed,1747.500000,-1818.181818,Speed,Off,Off,0.000000,FALSE,45,Read: /home/lvuser/scripts/auto_45.bee,File good!,WAIT 1000,WAIT,0.000000,0.000000,-0.050000
05:21:49.281 PM 04/29/2016,Autonomous Enabled,11,TRUE,7,Read from Text File in DoesScriptNumberContainNull.vi->Disabled.vi->Robot Main.vi<APPEND> /home/lvuser/scripts/auto_44.bee,0.000000,-48.112054,-0.000000,48.317387,TRUE,FALSE,TRUE,TRUE,FALSE,FALSE,Disabled,0.000000,0.000000,0.000000,TRUE,0.194351,-0.018799,0.000000,-0.089920,-0.001328,0.000000,0.043000,0.055000,0.120000,1.550000,-0.100000,0.850000,-0.220730,Hold,52.691162,58.000000,Hold,-176.000000,2.000000,LowGoal,1770.000000,-1818.181818,Speed,1747.500000,-1818.181818,Speed,Off,Off,0.000000,FALSE,45,Read: /home/lvuser/scripts/auto_45.bee,File good!,DRIVE_STRAIGHT_TARGET 78 0 10000 75,DRIVE_STRAIGHT_TARGET,0.000000,0.000000,-0.050000
05:21:49.384 PM 04/29/2016,Autonomous Enabled,11,TRUE,7,Read from Text File in DoesScriptNumberContainNull.vi->Disabled.vi->Robot Main.vi<APPEND> /home/lvuser/scripts/auto_44.bee,-0.562500,-0.603165,0.562500,0.551832,TRUE,FALSE,TRUE,TRUE,FALSE,FALSE,Disabled,0.000000,0.000000,0.000000,TRUE,0.190689,-0.018906,0.000000,-0.005463,-0.013977,0.000000,-0.018000,0.067000,0.049000,1.570000,-0.110000,0.850000,-0.296907,Hold,55.059082,58.000000,Hold,-176.000000,2.000000,LowGoal,1762.500000,-1818.181818,Speed,1747.500000,-1818.181818,Speed,Off,Off,0.000000,FALSE,45,Read: /home/lvuser/scripts/auto_45.bee,File good!,DRIVE_STRAIGHT_TARGET 78 0 10000 75,DRIVE_STRAIGHT_TARGET,0.000000,0.000000,-0.050000
05:21:49.485 PM 04/29/2016,Autonomous Enabled,12,TRUE,7,Read from Text File in DoesScriptNumberContainNull.vi->Disabled.vi->Robot Main.vi<APPEND> /home/lvuser/scripts/auto_44.bee,-0.562500,-2.573077,0.562500,2.656494,TRUE,FALSE,TRUE,TRUE,FALSE,FALSE,Disabled,0.000000,0.000000,0.000000,TRUE,0.190689,-0.018906,0.000000,-0.005463,-0.013977,0.000000,0.137000,-0.005000,0.082000,1.530000,-0.280000,2.880000,-0.345967,Hold,60.241455,58.000000,Hold,-176.000000,2.000000,LowGoal,1747.500000,-1818.181818,Speed,1717.500000,-1818.181818,Speed,Off,Off,0.000000,FALSE,45,Read: /home/lvuser/scripts/auto_45.bee,File good!,DRIVE_STRAIGHT_TARGET 78 0 10000 75,DRIVE_STRAIGHT_TARGET,0.000000,0.000000,-0.050000
05:21:49.585 PM 04/29/2016,Autonomous Enabled,11,TRUE,7,Read from Text File in DoesScriptNumberContainNull.vi->Disabled.vi->Robot Main.vi<APPEND> /home/lvuser/scripts/auto_44.bee,-0.562500,-5.762153,0.562500,5.916153,FALSE,FALSE,TRUE,TRUE,FALSE,FALSE,Disabled,0.000000,0.000000,0.000000,TRUE,0.223679,-0.028580,0.000000,0.489594,-0.123032,0.000000,0.161000,-0.079000,0.274000,1.470000,-0.350000,6.050000,-0.610737,Hold,59.987793,58.000000,Hold,-176.000000,2.000000,LowGoal,1732.500000,-1818.181818,Speed,1710.000000,-1818.181818,Speed,Off,Off,0.000000,FALSE,45,Read: /home/lvuser/scripts/auto_45.bee,File good!,DRIVE_STRAIGHT_TARGET 78 0 10000 75,DRIVE_STRAIGHT_TARGET,0.000000,0.000000,-0.050000
05:21:49.687 PM 04/29/2016,Autonomous Enabled,10,TRUE,7,Read from Text File in DoesScriptNumberContainNull.vi->Disabled.vi->Robot Main.vi<APPEND> /home/lvuser/scripts/auto_44.bee,-0.562500,-9.413228,0.562500,9.663477,FALSE,FALSE,TRUE,TRUE,FALSE,FALSE,Disabled,0.000000,0.000000,0.000000,TRUE,0.249359,-0.033783,0.000000,0.497360,-0.104858,0.000000,0.078000,0.036000,-0.111000,1.490000,-0.670000,8.130000,-0.880476,Hold,59.928711,58.000000,Hold,-176.000000,2.000000,LowGoal,1732.500000,-1818.181818,Speed,1725.000000,-1818.181818,Speed,Off,Off,0.000000,FALSE,45,Read: /home/lvuser/scripts/auto_45.bee,File good!,DRIVE_STRAIGHT_TARGET 78 0 10000 75,DRIVE_STRAIGHT_TARGET,0.000000,0.000000,-0.050000
05:21:49.790 PM 04/29/2016,Autonomous Enabled,11,TRUE,7,Read from Text File in DoesScriptNumberContainNull.vi->Disabled.vi->Robot Main.vi<APPEND> /home/lvuser/scripts/auto_44.bee,-0.562500,-13.192636,0.562500,13.539135,FALSE,FALSE,TRUE,TRUE,FALSE,FALSE,Disabled,0.000000,0.000000,0.000000,TRUE,0.272018,-0.039062,0.000000,0.419907,-0.090576,0.000000,-0.036000,-0.050000,-0.066000,1.360000,-0.840000,10.790000,-1.147787,Hold,59.928711,58.000000,Hold,-176.000000,2.000000,LowGoal,1747.500000,-1818.181818,Speed,1740.000000,-1818.181818,Speed,Off,Off,0.000000,FALSE,45,Read: /home/lvuser/scripts/auto_45.bee,File good!,DRIVE_STRAIGHT_TARGET 78 0 10000 75,DRIVE_STRAIGHT_TARGET,0.000000,0.000000,-0.050000
05:21:49.891 PM 04/29/2016,Autonomous Enabled,17,TRUE,7,Read from Text File in DoesScriptNumberContainNull.vi->Disabled.vi->Robot Main.vi<APPEND> /home/lvuser/scripts/auto_44.bee,-0.586342,-16.984877,0.539152,17.350626,FALSE,FALSE,TRUE,TRUE,FALSE,FALSE,Disabled,0.000000,0.000000,0.000000,TRUE,0.297058,-0.039261,0.000000,0.412827,0.038132,0.000000,0.015000,-0.009000,-0.293000,1.190000,-1.080000,14.870000,-1.493716,Hold,60.426270,58.000000,Hold,-176.000000,2.000000,LowGoal,1755.000000,-1818.181818,Speed,1740.000000,-1818.181818,Speed,Off,Off,0.000000,FALSE,45,Read: /home/lvuser/scripts/auto_45.bee,File good!,DRIVE_STRAIGHT_TARGET 78 0 10000 75,DRIVE_STRAIGHT_TARGET,0.000000,0.000000,-0.050000
05:21:49.991 PM 04/29/2016,Autonomous Enabled,12,FALSE,0,NO ERROR,-0.587338,-20.866951,0.538198,21.174950,FALSE,FALSE,TRUE,TRUE,FALSE,FALSE,Disabled,0.000000,0.000000,0.000000,TRUE,0.304199,-0.039566,0.000000,-0.047943,-0.009323,0.000000,-0.170000,-0.009000,0.107000,1.110000,-1.270000,18.000000,-1.577229,Hold,60.820068,58.000000,Hold,-176.000000,2.000000,LowGoal,1762.500000,-1818.181818,Speed,1732.500000,-1818.181818,Speed,Off,Off,0.000000,FALSE,45,Read: /home/lvuser/scripts/auto_45.bee,File good!,DRIVE_STRAIGHT_TARGET 78 0 10000 75,DRIVE_STRAIGHT_TARGET,0.000000,0.000000,-0.050000
05:21:50.093 PM 04/29/2016,Autonomous Enabled,10,FALSE,0,NO ERROR,-0.587338,-24.453859,0.538198,24.684859,FALSE,FALSE,TRUE,TRUE,FALSE,FALSE,Disabled,0.000000,0.000000,0.000000,TRUE,0.297256,-0.040344,0.000000,-0.127655,-0.000778,0.000000,-0.253000,-0.025000,0.459000,1.010000,-1.300000,20.890000,-1.600263,Hold,60.855225,58.000000,Hold,-176.000000,2.000000,LowGoal,1762.500000,-1818.181818,Speed,1732.500000,-1818.181818,Speed,Off,Off,0.000000,FALSE,45,Read: /home/lvuser/scripts/auto_45.bee,File good!,DRIVE_STRAIGHT_TARGET 78 0 10000 75,DRIVE_STRAIGHT_TARGET,0.000000,0.000000,-0.050000
05:21:50.193 PM 04/29/2016,Autonomous Enabled,9,FALSE,0,NO ERROR,-0.587936,-27.906018,0.537626,28.137018,FALSE,FALSE,TRUE,TRUE,FALSE,FALSE,Disabled,0.000000,0.000000,0.000000,TRUE,0.288223,-0.040787,0.000000,-0.255661,-0.014771,0.000000,0.045000,-0.039000,-0.291000,0.910000,-1.230000,22.160000,-1.672033,Hold,60.855225,58.000000,Hold,-176.000000,2.000000,LowGoal,1755.000000,-1818.181818,Speed,1740.000000,-1818.181818,Speed,Off,Off,0.000000,FALSE,45,Read: /home/lvuser/scripts/auto_45.bee,File good!,DRIVE_STRAIGHT_TARGET 78 0 10000 75,DRIVE_STRAIGHT_TARGET,0.000000,0.000000,-0.050000
05:21:50.295 PM 04/29/2016,Autonomous Enabled,11,FALSE,0,NO ERROR,-0.589932,-31.255510,0.535722,31.422343,FALSE,FALSE,TRUE,TRUE,FALSE,FALSE,Disabled,0.000000,0.000000,0.000000,TRUE,0.288223,-0.040787,0.000000,-0.255661,-0.014771,0.000000,0.155000,-0.042000,-0.383000,0.860000,-1.340000,23.370000,-1.788719,Hold,60.855225,58.000000,Hold,-176.000000,2.000000,LowGoal,1755.000000,-1818.181818,Speed,1732.500000,-1818.181818,Speed,Off,Off,0.000000,FALSE,45,Read: /home/lvuser/scripts/auto_45.bee,File good!,DRIVE_STRAIGHT_TARGET 78 0 10000 75,DRIVE_STRAIGHT_TARGET,0.000000,0.000000,-0.050000
05:21:50.395 PM 04/29/2016,Autonomous Enabled,11,FALSE,0,NO ERROR,-0.583161,-34.341920,0.542211,34.457419,FALSE,FALSE,TRUE,TRUE,FALSE,FALSE,Disabled,0.000000,0.000000,0.000000,TRUE,0.265411,-0.041290,0.000000,0.000000,0.014481,0.000000,-0.048000,-0.093000,0.196000,0.850000,-1.370000,24.680000,-1.637442,Hold,60.923340,58.000000,Hold,-176.000000,2.000000,LowGoal,1762.500000,-1818.181818,Speed,1732.500000,-1818.181818,Speed,Off,Off,0.000000,FALSE,45,Read: /home/lvuser/scripts/auto_45.bee,File good!,DRIVE_STRAIGHT_TARGET 78 0 10000 75,DRIVE_STRAIGHT_TARGET,0.000000,0.000000,-0.050000
05:21:50.500 PM 04/29/2016,Autonomous Enabled,13,FALSE,0,NO ERROR,-0.583558,-37.364163,0.541828,37.486079,FALSE,FALSE,TRUE,TRUE,FALSE,FALSE,Disabled,0.000000,0.000000,0.000000,TRUE,0.266129,-0.042999,0.000000,0.004715,-0.029205,0.000000,0.059000,-0.200000,-0.154000,0.810000,-1.050000,24.750000,-1.566911,Hold,60.970947,58.000000,Hold,-176.000000,2.000000,LowGoal,1755.000000,-1818.181818,Speed,1740.000000,-1818.181818,Speed,Off,Off,0.000000,FALSE,45,Read: /home/lvuser/scripts/auto_45.bee,File good!,DRIVE_STRAIGHT_TARGET 78 0 10000 75,DRIVE_STRAIGHT_TARGET,0.000000,0.000000,-0.050000
05:21:50.604 PM 04/29/2016,Autonomous Enabled,13,FALSE,0,NO ERROR,-0.581971,-40.405656,0.543361,40.431322,FALSE,FALSE,TRUE,TRUE,FALSE,FALSE,Disabled,0.000000,0.000000,0.000000,TRUE,0.267136,-0.043991,0.000000,0.043945,-0.025589,0.000000,0.043000,-0.028000,0.130000,0.700000,-1.050000,24.420000,-1.499472,Hold,60.970947,58.000000,Hold,-176.000000,2.000000,LowGoal,1755.000000,-1818.181818,Speed,1732.500000,-1818.181818,Speed,Off,Off,0.000000,FALSE,45,Read: /home/lvuser/scripts/auto_45.bee,File good!,DRIVE_STRAIGHT_TARGET 78 0 10000 75,DRIVE_STRAIGHT_TARGET,0.000000,0.000000,-0.050000
05:21:50.707 PM 04/29/2016,Autonomous Enabled,11,FALSE,0,NO ERROR,-0.582566,-43.382982,0.542786,43.408648,FALSE,FALSE,TRUE,TRUE,FALSE,FALSE,Disabled,0.000000,0.000000,0.000000,TRUE,0.269394,-0.046066,0.000000,0.065659,-0.035767,0.000000,-0.043000,-0.122000,0.101000,0.730000,-0.990000,22.750000,-1.445723,Hold,60.970947,58.000000,Hold,-176.000000,2.000000,LowGoal,1755.000000,-1818.181818,Speed,1732.500000,-1818.181818,Speed,Off,Off,0.000000,FALSE,45,Read: /home/lvuser/scripts/auto_45.bee,File good!,DRIVE_STRAIGHT_TARGET 78 0 10000 75,DRIVE_STRAIGHT_TARGET,0.000000,0.000000,-0.050000
05:21:50.808 PM 04/29/2016,Autonomous Enabled,11,FALSE,0,NO ERROR,-0.581178,-46.437308,0.544128,46.411641,FALSE,FALSE,TRUE,TRUE,FALSE,FALSE,Disabled,0.000000,0.000000,0.000000,TRUE,0.269394,-0.046066,0.000000,0.065659,-0.035767,0.000000,0.102000,-0.009000,-0.101000,0.870000,-1.000000,20.320000,-1.320830,Hold,60.970947,58.000000,Hold,-176.000000,2.000000,LowGoal,1755.000000,-1818.181818,Speed,1732.500000,-1818.181818,Speed,Off,Off,0.000000,FALSE,45,Read: /home/lvuser/scripts/auto_45.bee,File good!,DRIVE_STRAIGHT_TARGET 78 0 10000 75,DRIVE_STRAIGHT_TARGET,0.000000,0.000000,-0.050000
05:21:50.908 PM 04/29/2016,Autonomous Enabled,11,FALSE,0,NO ERROR,-0.582367,-49.594301,0.542977,49.549384,FALSE,FALSE,TRUE,TRUE,FALSE,FALSE,Disabled,0.000000,0.000000,0.000000,TRUE,0.277542,-0.047867,0.000000,0.194794,-0.039001,0.000000,0.181000,-0.015000,-0.332000,0.990000,-0.960000,14.620000,-1.293211,Hold,60.970947,58.000000,Hold,-176.000000,2.000000,LowGoal,1755.000000,-1818.181818,Speed,1732.500000,-1818.181818,Speed,Off,Off,0.000000,FALSE,45,Read: /home/lvuser/scripts/auto_45.bee,File good!,DRIVE_STRAIGHT_TARGET 78 0 10000 75,DRIVE_STRAIGHT_TARGET,0.000000,0.000000,-0.050000
05:21:51.010 PM 04/29/2016,Autonomous Enabled,12,FALSE,0,NO ERROR,-0.582566,-53.591875,0.542786,53.431458,FALSE,FALSE,TRUE,TRUE,FALSE,FALSE,Disabled,0.000000,0.000000,0.000000,TRUE,0.316864,-0.050278,0.000000,0.566513,0.000443,0.000000,0.383000,-0.021000,-0.731000,1.300000,-1.030000,5.690000,-1.088909,Hold,60.831787,58.000000,Hold,-176.000000,2.000000,LowGoal,1747.500000,-1818.181818,Speed,1732.500000,-1818.181818,Speed,Off,Off,0.000000,FALSE,45,Read: /home/lvuser/scripts/auto_45.bee,File good!,DRIVE_STRAIGHT_TARGET 78 0 10000 75,DRIVE_STRAIGHT_TARGET,0.000000,0.000000,-0.050000
05:21:51.113 PM 04/29/2016,Autonomous Enabled,11,FALSE,0,NO ERROR,-0.573670,-58.988279,0.551440,58.673863,FALSE,FALSE,TRUE,TRUE,FALSE,FALSE,Disabled,0.000000,0.000000,0.000000,TRUE,0.349106,-0.038742,0.000000,0.375046,0.563751,0.000000,0.063000,-0.114000,-1.689000,1.910000,-0.960000,-5.430000,-0.806120,Hold,60.304199,58.000000,Hold,-176.000000,2.000000,LowGoal,1747.500000,-1818.181818,Speed,1740.000000,-1818.181818,Speed,Off,Off,0.000000,FALSE,45,Read: /home/lvuser/scripts/auto_45.bee,File good!,DRIVE_STRAIGHT_TARGET 78 0 10000 75,DRIVE_STRAIGHT_TARGET,0.000000,0.000000,-0.050000
05:21:51.215 PM 04/29/2016,Autonomous Enabled,11,FALSE,0,NO ERROR,-0.573670,-64.622099,0.551440,64.429599,FALSE,FALSE,TRUE,TRUE,FALSE,FALSE,Disabled,0.000000,0.000000,0.000000,TRUE,0.349106,-0.038742,0.000000,0.375046,0.563751,0.000000,-0.421000,0.234000,1.069000,2.200000,-0.740000,-4.260000,-0.737055,Hold,59.961914,58.000000,Hold,8.000000,2.000000,LowGoal,1710.000000,-1818.181818,Speed,1710.000000,-1818.181818,Speed,Off,Off,0.000000,FALSE,45,Read: /home/lvuser/scripts/auto_45.bee,File good!,DRIVE_STRAIGHT_TARGET 78 0 10000 75,DRIVE_STRAIGHT_TARGET,0.000000,0.000000,-0.050000
05:21:51.317 PM 04/29/2016,Autonomous Enabled,11,FALSE,0,NO ERROR,-0.568953,-69.877337,0.556083,69.922253,FALSE,FALSE,TRUE,TRUE,FALSE,FALSE,Disabled,0.000000,0.000000,0.000000,TRUE,0.387115,0.058548,0.000000,0.288696,0.885773,0.000000,-0.011000,-0.215000,-0.824000,3.670000,-0.550000,5.290000,-0.483755,Hold,59.875000,58.000000,Hold,-69.000000,2.000000,LowGoal,1695.000000,-1818.181818,Speed,1717.500000,-1818.181818,Speed,Off,Off,0.000000,FALSE,45,Read: /home/lvuser/scripts/auto_45.bee,File good!,DRIVE_STRAIGHT_TARGET 78 0 10000 75,DRIVE_STRAIGHT_TARGET,0.000000,0.000000,-0.050000
05:21:51.418 PM 04/29/2016,Autonomous Enabled,13,FALSE,0,NO ERROR,-0.542403,-74.542242,0.582963,74.561492,TRUE,FALSE,TRUE,TRUE,FALSE,FALSE,Disabled,0.000000,0.000000,0.000000,TRUE,0.401657,0.099976,0.000000,0.323639,0.649704,0.000000,-0.547000,0.627000,0.974000,1.470000,0.620000,1.220000,0.783588,Hold,59.837158,58.000000,Hold,-229.000000,2.000000,LowGoal,1717.500000,-1818.181818,Speed,1725.000000,-1818.181818,Speed,Off,Off,0.000000,FALSE,45,Read: /home/lvuser/scripts/auto_45.bee,File good!,DRIVE_STRAIGHT_TARGET 78 0 10000 75,DRIVE_STRAIGHT_TARGET,0.000000,0.000000,-0.050000
05:21:51.518 PM 04/29/2016,Autonomous Enabled,11,FALSE,0,NO ERROR,0.000000,-79.739730,-0.000000,79.553647,TRUE,FALSE,TRUE,TRUE,FALSE,FALSE,Disabled,0.000000,0.000000,0.000000,TRUE,0.408035,0.124878,0.000000,0.081909,0.443848,0.000000,-0.067000,-1.003000,-1.563000,1.370000,1.670000,0.620000,1.254888,Hold,59.645996,58.000000,Hold,-229.000000,2.000000,LowGoal,1732.500000,-1818.181818,Speed,1747.500000,-1818.181818,Speed,Off,Off,0.000000,FALSE,45,Read: /home/lvuser/scripts/auto_45.bee,File good!,WAIT_FOR_PID,WAIT_FOR_PID,0.000000,0.000000,-0.050000
05:21:51.616 PM 04/29/2016,Autonomous Enabled,11,FALSE,0,NO ERROR,0.000000,-82.556640,-0.000000,82.453974,TRUE,FALSE,TRUE,TRUE,FALSE,TRUE,Disabled,0.000000,0.000000,0.000000,TRUE,0.408035,0.124878,0.000000,0.081909,0.443848,0.000000,0.187000,-0.158000,0.648000,1.370000,1.670000,0.620000,0.746873,Hold,61.791992,50.000000,Hold,-174.000000,71680.000000,LowGoal,1732.500000,-1818.181818,Speed,1740.000000,-1818.181818,Speed,Off,Off,0.000000,FALSE,45,Read: /home/lvuser/scripts/auto_45.bee,File good!,SEARCH_FOR_GOAL,SEARCH_FOR_GOAL,0.000000,0.000000,-0.050000
05:21:51.723 PM 04/29/2016,Autonomous Enabled,11,FALSE,0,NO ERROR,0.000000,-83.718054,-0.000000,83.666721,FALSE,FALSE,TRUE,TRUE,FALSE,TRUE,Disabled,0.000000,0.000000,0.000000,TRUE,0.394409,0.145264,0.000000,-0.618927,0.378281,0.000000,-0.357000,0.029000,0.101000,1.270000,1.250000,-4.630000,0.499068,Hold,57.676514,50.000000,Hold,-1762.000000,71680.000000,LowGoal,1792.500000,-3272.727273,Speed,1785.000000,-3272.727273,Speed,Off,Off,0.000000,FALSE,45,Read: /home/lvuser/scripts/auto_45.bee,File good!,SEARCH_FOR_GOAL,SEARCH_FOR_GOAL,0.000000,0.000000,-0.050000
05:21:51.825 PM 04/29/2016,Autonomous Enabled,11,FALSE,0,NO ERROR,0.000000,-84.128720,-0.000000,84.115887,FALSE,FALSE,TRUE,TRUE,FALSE,TRUE,Disabled,0.000000,0.000000,0.000000,TRUE,0.294662,0.183777,0.000000,-1.243439,0.455780,0.000000,-0.149000,0.034000,-0.186000,1.410000,1.030000,-5.730000,0.238858,Hold,56.287842,50.000000,Hold,-19793.000000,71680.000000,LowGoal,2032.500000,-3272.727273,Speed,2152.500000,-3272.727273,Speed,Off,Off,0.000000,FALSE,45,Read: /home/lvuser/scripts/auto_45.bee,File good!,SEARCH_FOR_GOAL,SEARCH_FOR_GOAL,0.000000,0.000000,-0.050000
05:21:51.925 PM 04/29/2016,Autonomous Enabled,11,FALSE,0,NO ERROR,0.000000,-84.051720,-0.000000,83.993970,FALSE,FALSE,TRUE,TRUE,FALSE,TRUE,Disabled,0.000000,0.000000,0.000000,TRUE,0.224106,0.209457,0.000000,-1.105164,0.392838,0.000000,0.043000,-0.052000,-0.565000,1.450000,0.750000,-3.620000,-0.077929,Hold,56.233154,50.000000,Hold,-40242.000000,71680.000000,LowGoal,2400.000000,-3272.727273,Speed,2595.000000,-3272.727273,Speed,Off,Off,0.000000,FALSE,45,Read: /home/lvuser/scripts/auto_45.bee,File good!,SEARCH_FOR_GOAL,SEARCH_FOR_GOAL,0.000000,0.000000,-0.050000
05:21:52.027 PM 04/29/2016,Autonomous Enabled,12,FALSE,0,NO ERROR,0.000000,-84.051720,-0.000000,83.936220,FALSE,FALSE,TRUE,TRUE,FALSE,TRUE,Disabled,0.000000,0.000000,0.000000,TRUE,0.180374,0.227371,0.000000,-1.065048,0.446838,0.000000,-0.026000,0.158000,0.356000,1.320000,0.490000,-3.360000,0.055098,Hold,55.361816,50.000000,Hold,-61229.000000,71680.000000,LowGoal,2715.000000,-3272.727273,Speed,2887.500000,-3272.727273,Speed,Off,Off,0.000000,FALSE,45,Read: /home/lvuser/scripts/auto_45.bee,File good!,SEARCH_FOR_GOAL,SEARCH_FOR_GOAL,0.000000,0.000000,-0.050000
05:21:52.128 PM 04/29/2016,Autonomous Enabled,10,FALSE,0,NO ERROR,0.000000,-84.051720,-0.000000,83.936220,FALSE,FALSE,TRUE,TRUE,FALSE,TRUE,Disabled,0.000000,0.000000,0.000000,TRUE,0.128220,0.249374,0.000000,-1.011414,0.418579,0.000000,0.009000,-0.069000,0.202000,1.430000,0.700000,-3.120000,0.057608,Hold,55.568359,50.000000,Hold,-61229.000000,71680.000000,LowGoal,2985.000000,-3272.727273,Speed,3210.000000,-3272.727273,Speed,Off,Off,0.000000,FALSE,45,Read: /home/lvuser/scripts/auto_45.bee,File good!,SEARCH_FOR_GOAL,SEARCH_FOR_GOAL,0.000000,0.000000,-0.050000
05:21:52.232 PM 04/29/2016,Autonomous Enabled,12,FALSE,0,NO ERROR,0.000000,-84.051720,-0.000000,84.051720,FALSE,FALSE,TRUE,TRUE,FALSE,TRUE,Disabled,0.000000,0.000000,0.000000,TRUE,0.072830,0.275742,0.000000,-0.845337,0.442505,0.000000,0.115000,0.064000,0.112000,1.500000,0.650000,-3.110000,0.114813,Hold,55.568359,50.000000,Hold,-71109.000000,71680.000000,LowGoal,3172.500000,-3272.727273,Speed,3217.500000,-3272.727273,Speed,Off,Off,0.000000,FALSE,45,Read: /home/lvuser/scripts/auto_45.bee,File good!,SEARCH_FOR_GOAL,SEARCH_FOR_GOAL,0.000000,0.000000,-0.050000
05:21:52.334 PM 04/29/2016,Autonomous Enabled,11,FALSE,0,NO ERROR,0.000000,-84.244220,-0.000000,84.244220,TRUE,FALSE,TRUE,TRUE,FALSE,TRUE,Disabled,0.000000,0.000000,0.000000,TRUE,0.037537,0.293442,0.000000,-0.943176,0.431274,0.000000,-0.010000,0.099000,-0.406000,1.420000,0.880000,-2.600000,0.298401,Hold,55.522705,50.000000,Hold,-71109.000000,71680.000000,LowGoal,3202.500000,-3272.727273,Speed,3165.000000,-3272.727273,Speed,Off,Off,0.000000,FALSE,45,Read: /home/lvuser/scripts/auto_45.bee,File good!,SEARCH_FOR_GOAL,SEARCH_FOR_GOAL,0.000000,0.000000,-0.050000
05:21:52.432 PM 04/29/2016,Autonomous Enabled,15,FALSE,0,NO ERROR,0.000000,-84.244220,-0.000000,84.180053,TRUE,FALSE,TRUE,TRUE,FALSE,TRUE,Disabled,0.000000,0.000000,0.000000,TRUE,-0.021347,0.318420,0.000000,-0.953323,0.406647,0.000000,-0.152000,0.148000,0.071000,1.390000,0.710000,-2.690000,0.093407,Hold,55.449951,50.000000,Hold,-72004.000000,71680.000000,LowGoal,3195.000000,-3272.727273,Speed,3165.000000,-3272.727273,Speed,Off,Off,0.000000,FALSE,45,Read: /home/lvuser/scripts/auto_45.bee,File good!,SEARCH_FOR_GOAL,SEARCH_FOR_GOAL,0.000000,0.000000,-0.050000
05:21:52.534 PM 04/29/2016,Autonomous Enabled,12,FALSE,0,NO ERROR,0.000000,-84.167220,-0.000000,84.058137,TRUE,FALSE,TRUE,TRUE,FALSE,TRUE,Disabled,0.000000,0.000000,0.000000,TRUE,-0.066101,0.338547,0.000000,-0.838104,0.396896,0.000000,0.018000,-0.037000,0.044000,1.450000,0.760000,-2.500000,0.176541,Hold,55.305176,50.000000,Hold,-71948.000000,71680.000000,LowGoal,3187.500000,-3272.727273,Speed,3180.000000,-3272.727273,Speed,Off,Off,0.000000,FALSE,45,Read: /home/lvuser/scripts/auto_45.bee,File good!,SEARCH_FOR_GOAL,SEARCH_FOR_GOAL,0.000000,0.000000,-0.050000
05:21:52.637 PM 04/29/2016,Autonomous Enabled,13,FALSE,0,NO ERROR,0.000000,-84.167220,-0.000000,84.096637,TRUE,FALSE,TRUE,TRUE,FALSE,TRUE,Disabled,0.000000,0.000000,0.000000,TRUE,-0.106979,0.358414,0.000000,-0.819031,0.383453,0.000000,-0.008000,0.259000,-0.267000,1.370000,0.760000,-2.030000,0.172214,Hold,55.305176,50.000000,Hold,-71996.000000,71680.000000,LowGoal,3187.500000,-3272.727273,Speed,3180.000000,-3272.727273,Speed,Off,Off,0.000000,FALSE,45,Read: /home/lvuser/scripts/auto_45.bee,File good!,SEARCH_FOR_GOAL,SEARCH_FOR_GOAL,0.000000,0.000000,-0.050000
05:21:52.752 PM 04/29/2016,Autonomous Enabled,11,FALSE,0,NO ERROR,0.000000,-84.167220,-0.000000,84.083803,TRUE,FALSE,TRUE,TRUE,FALSE,TRUE,Disabled,0.000000,0.000000,0.000000,TRUE,-0.147095,0.377487,0.000000,-0.785156,0.385086,0.000000,0.007000,-0.093000,0.086000,1.380000,0.740000,-2.050000,0.155390,Hold,55.304443,50.000000,Hold,-71733.000000,71680.000000,LowGoal,3187.500000,-3272.727273,Speed,3180.000000,-3272.727273,Speed,Off,Off,0.000000,FALSE,45,Read: /home/lvuser/scripts/auto_45.bee,File good!,SEARCH_FOR_GOAL,SEARCH_FOR_GOAL,0.000000,0.000000,-0.050000
05:21:52.848 PM 04/29/2016,Autonomous Enabled,11,FALSE,0,NO ERROR,0.321693,-84.167220,0.321693,84.090220,TRUE,FALSE,TRUE,TRUE,FALSE,TRUE,PID,-0.190625,9.384375,-8.654375,TRUE,-0.184448,0.396286,0.000000,-0.727585,0.377365,0.000000,0.010000,0.178000,-0.123000,1.380000,0.720000,-1.740000,0.147596,Hold,55.286865,50.000000,Hold,-71758.000000,71680.000000,LowGoal,3195.000000,-3272.727273,Speed,3180.000000,-3272.727273,Speed,Off,Off,0.000000,FALSE,45,Read: /home/lvuser/scripts/auto_45.bee,File good!,SEARCH_FOR_GOAL,SEARCH_FOR_GOAL,0.000000,0.000000,-0.240625
05:21:52.947 PM 04/29/2016,Autonomous Enabled,12,FALSE,0,NO ERROR,0.299679,-83.377972,0.299679,85.020635,TRUE,FALSE,TRUE,TRUE,FALSE,TRUE,PID,-0.190625,9.384375,-8.654375,TRUE,-0.222809,0.413223,0.000000,-0.809814,0.290649,0.000000,-0.075000,0.250000,-0.213000,1.380000,0.720000,-1.740000,-1.496683,Hold,55.286865,50.000000,Hold,-71753.000000,71680.000000,LowGoal,3195.000000,-3272.727273,Speed,3172.500000,-3272.727273,Speed,Off,Off,0.000000,FALSE,45,Read: /home/lvuser/scripts/auto_45.bee,File good!,SEARCH_FOR_GOAL,SEARCH_FOR_GOAL,0.000000,0.000000,-0.240625
05:21:53.047 PM 04/29/2016,Autonomous Enabled,10,FALSE,0,NO ERROR,0.246318,-82.415474,0.246318,86.034465,TRUE,FALSE,TRUE,TRUE,FALSE,TRUE,PID,-0.190625,9.384375,-8.654375,TRUE,-0.261032,0.426895,0.000000,-0.738602,0.269501,0.000000,0.038000,-0.146000,-0.034000,0.890000,-1.690000,-2.000000,-5.755100,Hold,55.286865,50.000000,Hold,-71752.000000,71680.000000,LowGoal,3187.500000,-3272.727273,Speed,3157.500000,-3272.727273,Speed,Off,Off,0.000000,FALSE,45,Read: /home/lvuser/scripts/auto_45.bee,File good!,SEARCH_FOR_GOAL,SEARCH_FOR_GOAL,0.000000,0.000000,-0.240625
05:21:53.151 PM 04/29/2016,Autonomous Enabled,10,FALSE,0,NO ERROR,0.216858,-81.799475,0.216858,86.714631,TRUE,FALSE,TRUE,TRUE,FALSE,TRUE,PID,-0.190625,9.384375,-8.654375,TRUE,-0.296936,0.443344,0.000000,-0.709488,0.375336,0.000000,0.134000,-0.092000,0.191000,0.960000,-5.670000,-1.760000,-8.787828,Hold,55.286865,50.000000,Hold,-71753.000000,71680.000000,LowGoal,3180.000000,-3272.727273,Speed,3165.000000,-3272.727273,Speed,Off,Off,0.000000,FALSE,45,Read: /home/lvuser/scripts/auto_45.bee,File good!,SEARCH_FOR_GOAL,SEARCH_FOR_GOAL,0.000000,0.000000,-0.240625
05:21:53.250 PM 04/29/2016,Autonomous Enabled,11,FALSE,0,NO ERROR,0.000000,-81.606976,-0.000000,86.868630,TRUE,FALSE,TRUE,TRUE,FALSE,TRUE,Suspended,-0.190625,9.384375,-8.654375,TRUE,-0.330399,0.460953,0.000000,-0.628098,0.337646,0.000000,0.113000,0.097000,-0.028000,1.410000,-9.150000,-1.050000,-10.143053,Hold,55.286865,50.000000,Hold,-71754.000000,71680.000000,LowGoal,3180.000000,-3272.727273,Speed,3180.000000,-3272.727273,Speed,Off,Off,0.000000,FALSE,45,Read: /home/lvuser/scripts/auto_45.bee,File good!,SEARCH_FOR_GOAL,SEARCH_FOR_GOAL,0.000000,0.000000,-0.240625
05:21:53.350 PM 04/29/2016,Autonomous Enabled,10,FALSE,0,NO ERROR,0.000000,-81.837975,-0.000000,86.663297,TRUE,FALSE,TRUE,TRUE,FALSE,TRUE,Suspended,-0.190625,9.384375,-8.654375,TRUE,-0.360947,0.481506,0.000000,-0.628052,0.423874,0.000000,-0.060000,0.381000,-0.122000,1.690000,-8.110000,-0.950000,-9.272816,Hold,55.286865,50.000000,Hold,-71754.000000,71680.000000,LowGoal,3187.500000,-3272.727273,Speed,3187.500000,-3272.727273,Speed,Off,Off,0.000000,FALSE,45,Read: /home/lvuser/scripts/auto_45.bee,File good!,SEARCH_FOR_GOAL,SEARCH_FOR_GOAL,0.000000,0.000000,-0.240625
05:21:53.453 PM 04/29/2016,Autonomous Enabled,12,FALSE,0,NO ERROR,0.000000,-81.895725,-0.000000,86.611964,TRUE,FALSE,TRUE,TRUE,FALSE,TRUE,Suspended,-0.190625,9.384375,-8.654375,TRUE,-0.402054,0.504227,0.000000,-0.700943,0.361206,0.000000,-0.094000,-0.284000,0.285000,1.540000,-7.880000,-1.110000,-8.880058,Hold,55.286865,50.000000,Hold,-71754.000000,71680.000000,LowGoal,3202.500000,-3272.727273,Speed,3187.500000,-3272.727273,Speed,Off,Off,0.000000,FALSE,45,Read: /home/lvuser/scripts/auto_45.bee,File good!,SEARCH_FOR_GOAL,SEARCH_FOR_GOAL,0.000000,0.000000,-0.240625
05:21:53.553 PM 04/29/2016,Autonomous Enabled,10,FALSE,0,NO ERROR,0.000000,-81.895725,-0.000000,86.611964,TRUE,FALSE,TRUE,TRUE,FALSE,TRUE,Suspended,-0.190625,9.384375,-8.654375,TRUE,-0.435547,0.523300,0.000000,-0.641754,0.390198,0.000000,0.121000,0.121000,-0.078000,1.560000,-7.920000,-1.020000,-8.927916,Hold,55.286865,50.000000,Hold,-71754.000000,71680.000000,LowGoal,3210.000000,-3272.727273,Speed,3187.500000,-3272.727273,Speed,Off,Off,0.000000,FALSE,45,Read: /home/lvuser/scripts/auto_45.bee,File good!,SEARCH_FOR_GOAL,SEARCH_FOR_GOAL,0.000000,0.000000,-0.240625
05:21:53.656 PM 04/29/2016,Autonomous Enabled,11,FALSE,0,NO ERROR,0.000000,-81.895725,-0.000000,86.611964,TRUE,FALSE,TRUE,TRUE,FALSE,TRUE,Suspended,-0.190625,9.384375,-8.654375,TRUE,-0.466537,0.544083,0.000000,-0.606628,0.429550,0.000000,0.125000,-0.066000,0.131000,1.560000,-7.920000,-1.020000,-8.966556,Hold,55.286865,50.000000,Hold,-71754.000000,71680.000000,LowGoal,3210.000000,-3272.727273,Speed,3187.500000,-3272.727273,Speed,Off,Off,0.000000,FALSE,45,Read: /home/lvuser/scripts/auto_45.bee,File good!,SEARCH_FOR_GOAL,SEARCH_FOR_GOAL,0.000000,0.000000,-0.240625
05:21:53.757 PM 04/29/2016,Autonomous Enabled,11,FALSE,0,NO ERROR,0.000000,-81.895725,-0.000000,86.611964,TRUE,FALSE,TRUE,TRUE,FALSE,TRUE,Suspended,-0.190625,9.384375,-8.654375,TRUE,-0.497620,0.564606,0.000000,-0.634659,0.397659,0.000000,0.030000,-0.154000,0.205000,1.550000,-7.930000,-0.950000,-8.962552,Hold,55.286865,50.000000,Hold,-71754.000000,71680.000000,LowGoal,3202.500000,-3272.727273,Speed,3187.500000,-3272.727273,Speed,Off,Off,0.000000,FALSE,45,Read: /home/lvuser/scripts/auto_45.bee,File good!,SEARCH_FOR_GOAL,SEARCH_FOR_GOAL,0.000000,0.000000,-0.240625
05:21:53.859 PM 04/29/2016,Autonomous Enabled,13,FALSE,0,NO ERROR,0.000000,-81.895725,-0.000000,86.611964,TRUE,FALSE,TRUE,TRUE,FALSE,TRUE,Suspended,0.031250,0.731250,-8.661250,TRUE,-0.497620,0.564606,0.000000,-0.634659,0.397659,0.000000,-0.196000,-0.100000,0.044000,1.550000,-7.930000,-0.950000,-8.967506,Hold,55.286865,50.000000,Hold,-71754.000000,71680.000000,LowGoal,3210.000000,-3272.727273,Speed,3195.000000,-3272.727273,Speed,Off,Off,0.000000,FALSE,45,Read: /home/lvuser/scripts/auto_45.bee,File good!,SEARCH_FOR_GOAL,SEARCH_FOR_GOAL,0.000000,0.000000,-0.018750
05:21:53.963 PM 04/29/2016,Autonomous Enabled,11,FALSE,0,NO ERROR,0.000000,-81.895725,-0.000000,86.611964,TRUE,FALSE,TRUE,TRUE,FALSE,TRUE,Suspended,0.031250,0.731250,-8.661250,TRUE,-0.558090,0.603485,0.000000,-0.556046,0.405060,0.000000,0.244000,0.009000,0.034000,1.530000,-7.930000,-0.900000,-8.956607,Hold,55.286865,50.000000,Hold,-71754.000000,71680.000000,Shoot,3210.000000,-3272.727273,Speed,3195.000000,-3272.727273,Speed,Off,On,0.000000,FALSE,45,Read: /home/lvuser/scripts/auto_45.bee,File good!,SEARCH_FOR_GOAL,SEARCH_FOR_GOAL,0.000000,0.000000,-0.018750
05:21:54.066 PM 04/29/2016,Autonomous Enabled,10,FALSE,0,NO ERROR,0.000000,-81.895725,-0.000000,86.611964,TRUE,FALSE,TRUE,TRUE,FALSE,TRUE,Suspended,0.031250,0.731250,-8.661250,TRUE,-0.558090,0.603485,0.000000,-0.556046,0.405060,0.000000,0.022000,0.041000,0.050000,1.480000,-7.930000,-0.780000,-8.951002,Hold,55.286865,50.000000,Hold,-71754.000000,71680.000000,Shoot,3202.500000,-3272.727273,Speed,3187.500000,-3272.727273,Speed,Off,On,0.000000,FALSE,45,Read: /home/lvuser/scripts/auto_45.bee,File good!,SEARCH_FOR_GOAL,SEARCH_FOR_GOAL,0.000000,0.000000,-0.018750
05:21:54.168 PM 04/29/2016,Autonomous Enabled,11,FALSE,0,NO ERROR,0.000000,-81.895725,-0.000000,86.611964,TRUE,FALSE,TRUE,TRUE,FALSE,FALSE,Disabled,0.031250,0.731250,-8.661250,TRUE,-0.617538,0.645447,0.000000,-0.524994,0.356964,0.000000,0.088000,0.037000,0.005000,1.470000,-7.940000,-0.620000,-8.982990,Hold,55.286865,50.000000,Hold,-71754.000000,71680.000000,Shoot,3210.000000,-3272.727273,Speed,3187.500000,-3272.727273,Speed,On,On,0.000000,FALSE,45,Read: /home/lvuser/scripts/auto_45.bee,File good!,WAIT 500,WAIT,0.000000,0.000000,-0.018750
05:21:54.269 PM 04/29/2016,Autonomous Enabled,12,FALSE,0,NO ERROR,0.000000,-81.895725,-0.000000,86.605547,TRUE,FALSE,FALSE,TRUE,FALSE,FALSE,Disabled,0.031250,0.731250,-8.661250,TRUE,-0.638016,0.659805,0.000000,-0.510452,0.357040,0.000000,0.115000,0.028000,-0.085000,1.470000,-7.940000,-0.620000,-8.980791,Hold,55.286865,50.000000,Hold,-71754.000000,71680.000000,Shoot,3187.500000,-3272.727273,Speed,3180.000000,-3272.727273,Speed,On,On,0.000000,FALSE,45,Read: /home/lvuser/scripts/auto_45.bee,File good!,WAIT 500,WAIT,0.000000,0.000000,-0.018750
05:21:54.371 PM 04/29/2016,Autonomous Enabled,12,FALSE,0,NO ERROR,0.000000,-81.895725,-0.000000,86.560631,TRUE,FALSE,FALSE,TRUE,FALSE,FALSE,Disabled,0.031250,0.731250,-8.661250,TRUE,-0.664429,0.681519,0.000000,-0.416306,0.375275,0.000000,0.296000,-0.072000,0.047000,1.470000,-7.900000,-0.520000,-8.962005,Hold,55.286865,50.000000,Hold,-71753.000000,71680.000000,Shoot,2445.000000,-3272.727273,Speed,2310.000000,-3272.727273,Speed,On,On,0.000000,FALSE,45,Read: /home/lvuser/scripts/auto_45.bee,File good!,WAIT 500,WAIT,0.000000,0.000000,-0.018750
05:21:54.470 PM 04/29/2016,Autonomous Enabled,12,FALSE,0,NO ERROR,0.000000,-81.895725,-0.000000,86.560631,TRUE,FALSE,FALSE,TRUE,FALSE,FALSE,Disabled,0.031250,0.731250,-8.661250,TRUE,-0.682327,0.697556,0.000000,-0.466675,0.399353,0.000000,0.250000,-0.147000,0.080000,1.470000,-7.900000,-0.520000,-8.942148,Hold,55.286865,50.000000,Hold,-71753.000000,71680.000000,Shoot,2287.500000,-3272.727273,Speed,2422.500000,-3272.727273,Speed,On,On,0.000000,FALSE,45,Read: /home/lvuser/scripts/auto_45.bee,File good!,WAIT 500,WAIT,0.000000,0.000000,-0.018750
05:21:54.573 PM 04/29/2016,Autonomous Enabled,11,FALSE,0,NO ERROR,0.000000,-81.895725,-0.000000,86.560631,TRUE,FALSE,FALSE,TRUE,FALSE,FALSE,Disabled,0.031250,0.731250,-8.661250,TRUE,-0.707657,0.719666,0.000000,-0.413193,0.341782,0.000000,0.250000,-0.147000,0.080000,1.450000,-7.870000,-0.480000,-8.952961,Hold,55.286865,50.000000,Hold,-71753.000000,71680.000000,Shoot,2632.500000,-3272.727273,Speed,2820.000000,-3272.727273,Speed,On,On,0.000000,FALSE,45,Read: /home/lvuser/scripts/auto_45.bee,File good!,WAIT 500,WAIT,0.000000,0.000000,-0.018750
05:21:54.673 PM 04/29/2016,Autonomous Enabled,14,FALSE,0,NO ERROR,0.000000,-81.895725,-0.000000,86.560631,TRUE,FALSE,FALSE,TRUE,FALSE,FALSE,Disabled,0.031250,0.731250,-8.661250,TRUE,-0.727631,0.737457,0.000000,-0.408539,0.349899,0.000000,-0.005000,0.102000,-0.149000,1.380000,-7.880000,-0.310000,-8.974959,Hold,55.286865,50.000000,Hold,-71753.000000,71680.000000,Shoot,2932.500000,-3272.727273,Speed,3195.000000,-3272.727273,Speed,On,On,0.000000,FALSE,45,Read: /home/lvuser/scripts/auto_45.bee,File good!,WAIT 500,WAIT,0.000000,0.000000,-0.018750
05:21:54.777 PM 04/29/2016,Autonomous Enabled,12,FALSE,0,NO ERROR,0.000000,-81.895725,-0.000000,86.547798,TRUE,FALSE,FALSE,TRUE,FALSE,FALSE,Disabled,0.031250,0.731250,-8.661250,TRUE,-0.748428,0.754837,0.000000,-0.407135,0.343628,0.000000,-0.013000,0.307000,-0.384000,1.380000,-7.880000,-0.310000,-8.995229,Hold,55.286865,0.000000,Hold,-71753.000000,71680.000000,Shoot,3180.000000,-3272.727273,Speed,3195.000000,-3272.727273,Speed,On,On,0.000000,FALSE,45,Read: /home/lvuser/scripts/auto_45.bee,File good!,WAIT 500,WAIT,0.000000,0.000000,-0.018750
05:21:54.879 PM 04/29/2016,Autonomous Enabled,11,FALSE,0,NO ERROR,0.000000,-81.914975,-0.000000,86.541381,TRUE,FALSE,FALSE,TRUE,FALSE,FALSE,Disabled,0.031250,0.731250,-8.661250,TRUE,-0.766953,0.773102,0.000000,-0.366669,0.373978,0.000000,0.150000,-0.080000,0.189000,1.420000,-7.810000,-0.540000,-8.938041,Hold,52.113281,0.000000,Hold,-71753.000000,71680.000000,Shoot,3240.000000,-3272.727273,Speed,3172.500000,-3272.727273,Speed,On,On,0.000000,FALSE,45,Read: /home/lvuser/scripts/auto_45.bee,File good!,WAIT 500,WAIT,0.000000,0.000000,-0.018750
05:21:54.984 PM 04/29/2016,Autonomous Enabled,9,FALSE,0,NO ERROR,0.000000,-81.940642,-0.000000,86.560631,TRUE,FALSE,FALSE,TRUE,FALSE,FALSE,Disabled,0.031250,0.731250,-8.661250,TRUE,-0.783981,0.791199,0.000000,-0.326859,0.357498,0.000000,0.101000,-0.129000,0.151000,1.420000,-7.810000,-0.540000,-9.008558,Hold,42.506592,0.000000,Hold,-71752.000000,71680.000000,Shoot,3202.500000,-3272.727273,Speed,3142.500000,-3272.727273,Speed,On,On,0.000000,FALSE,45,Read: /home/lvuser/scripts/auto_45.bee,File good!,WAIT 500,WAIT,0.000000,0.000000,-0.018750
