Time,Robot Mode,Loop Time,Error Status,Error Code,Error Source,Left Motor Output,Left Motor Encoder,Right Motor Output,Right Motor Encoder,Is Level,Is Stalled,Ball Detector Photoeye,Vision Enabled,Vision Teleop Control,Vision Auto Control,Vision Current State,Vision X Output,Vision NavX Error,Vision NavX Target,NavX Connection Status,NavX Displacement X,NavX Displacement Y,NavX Displacement Z,NavX Velocity X,NavX Velocity Y,NavX Velocity Z,NavX Acceleration X,NavX Acceleration Y,NavX Acceleration Z,NavX Pitch,NavX Yaw,NavX Roll,Gyro Angle,Roller Arm State,Roller Arm Actual,Roller Arm Desired,Shooter Arm State,Shooter Arm Actual,Shooter Arm Desired,Shooter State,Actual RPM Left,Desired RPM Left,Control Mode Left,Actual RPM Right,Desired RPM Right,Control Mode Right,Ball Shooter Cylinder,Ball Halo Cylinder,Scaler Motor Output,Scaler Solenoid Fire,Auto To Run,Auto Current File,Auto File Status,Auto Current Command,Auto Trimmed Command,Shooter Amps Left,Shooter Amps Right, Vision After Offset
11:11:20.189 AM 04/29/2016,Autonomous Enabled,10,TRUE,-44003,<LOCATION>WPI_CameraIssue HTTP Request with Authentication.vi<CALLSTACK>WPI_CameraIssue HTTP Request with Authentication.vi< <WPI_CameraIssue Get.vi< <WPI_CameraSet Image Appearance Property.vi< <WPI_CameraSet Image Size.vi< <Vision Processing.vi< <Robot Main.vi,0.000000,0.000000,-0.000000,0.051333,TRUE,FALSE,TRUE,TRUE,FALSE,FALSE,Disabled,0.000000,0.000000,0.000000,TRUE,-0.000397,0.000122,0.000000,-0.010666,0.009415,0.000000,0.095000,-0.069000,-0.091000,1.800000,-0.930000,0.110000,10.341531,ResetBack,-0.378662,-0.000049,ResetBack,0.000000,-0.250000,LowGoal,0.000000,-2181.818182,Speed,22.500000,-2181.818182,Speed,Off,Off,0.000000,FALSE,45,Read: /home/lvuser/scripts/auto_45.bee,File good!,WAIT 1500,WAIT,0.000000,0.000000,-0.050000
11:11:20.291 AM 04/29/2016,Autonomous Enabled,5,TRUE,7,Read from Text File in DoesScriptNumberContainNull.vi->Disabled.vi->Robot Main.vi<APPEND> /home/lvuser/scripts/auto_42.bee,0.000000,0.000000,-0.000000,0.051333,TRUE,FALSE,TRUE,TRUE,FALSE,FALSE,Disabled,0.000000,0.000000,0.000000,TRUE,0.000549,-0.000580,0.000000,0.036911,-0.029694,0.000000,0.005000,0.020000,0.108000,1.750000,-0.940000,0.210000,10.349235,ResetBack,-1.124756,-0.000049,ResetBack,2169.000000,-0.250000,LowGoal,330.000000,-2181.818182,Speed,412.500000,-2181.818182,Speed,Off,Off,0.000000,FALSE,45,Read: /home/lvuser/scripts/auto_45.bee,File good!,WAIT 1500,WAIT,0.000000,0.000000,-0.050000
11:11:20.391 AM 04/29/2016,Autonomous Enabled,10,TRUE,7,Read from Text File in DoesScriptNumberContainNull.vi->Disabled.vi->Robot Main.vi<APPEND> /home/lvuser/scripts/auto_42.bee,0.000000,0.000000,-0.000000,0.051333,TRUE,FALSE,TRUE,TRUE,FALSE,FALSE,Disabled,0.000000,0.000000,0.000000,TRUE,0.002686,-0.002090,0.000000,0.030930,0.000000,0.000000,-0.030000,0.021000,0.000000,1.710000,-0.930000,0.190000,10.347021,ResetBack,-1.182861,-0.000049,ResetBack,8890.000000,-0.250000,LowGoal,937.500000,-2181.818182,Speed,1192.500000,-2181.818182,Speed,Off,Off,0.000000,FALSE,45,Read: /home/lvuser/scripts/auto_45.bee,File good!,WAIT 1500,WAIT,0.000000,0.000000,-0.050000
11:11:20.491 AM 04/29/2016,Autonomous Enabled,10,TRUE,7,Read from Text File in DoesScriptNumberContainNull.vi->Disabled.vi->Robot Main.vi<APPEND> /home/lvuser/scripts/auto_42.bee,0.000000,0.000000,-0.000000,0.051333,TRUE,FALSE,TRUE,TRUE,FALSE,FALSE,Disabled,0.000000,0.000000,0.000000,TRUE,0.004089,-0.001373,0.000000,0.036118,0.025879,0.000000,-0.030000,0.021000,0.000000,1.710000,-0.930000,0.190000,10.350598,Reset,-1.184082,0.000000,ResetBack,11129.000000,-0.250000,LowGoal,1365.000000,-2181.818182,Speed,1830.000000,-2181.818182,Speed,Off,Off,0.000000,FALSE,45,Read: /home/lvuser/scripts/auto_45.bee,File good!,WAIT 1500,WAIT,0.000000,0.000000,-0.050000
11:11:20.593 AM 04/29/2016,Autonomous Enabled,10,TRUE,7,Read from Text File in DoesScriptNumberContainNull.vi->Disabled.vi->Robot Main.vi<APPEND> /home/lvuser/scripts/auto_42.bee,0.000000,0.000000,-0.000000,0.051333,TRUE,FALSE,TRUE,TRUE,FALSE,FALSE,Disabled,0.000000,0.000000,0.000000,TRUE,0.007843,-0.000992,0.000000,0.105957,-0.018097,0.000000,0.056000,-0.116000,0.068000,1.730000,-0.940000,0.300000,10.358798,Hold,-0.000244,0.000000,ResetBack,11274.000000,-0.250000,LowGoal,1920.000000,-2181.818182,Speed,2175.000000,-2181.818182,Speed,Off,Off,0.000000,FALSE,45,Read: /home/lvuser/scripts/auto_45.bee,File good!,WAIT 1500,WAIT,0.000000,0.000000,-0.050000
11:11:20.693 AM 04/29/2016,Autonomous Enabled,10,TRUE,7,Read from Text File in DoesScriptNumberContainNull.vi->Disabled.vi->Robot Main.vi<APPEND> /home/lvuser/scripts/auto_42.bee,0.000000,0.000000,-0.000000,0.051333,TRUE,FALSE,TRUE,TRUE,FALSE,FALSE,Disabled,0.000000,0.000000,0.000000,TRUE,0.014740,-0.003815,0.000000,0.164490,-0.069580,0.000000,0.073000,-0.041000,0.092000,1.730000,-0.940000,0.300000,10.369677,Hold,-0.000244,0.000000,ResetBack,11447.000000,-0.250000,LowGoal,2175.000000,-2181.818182,Speed,2160.000000,-2181.818182,Speed,Off,Off,0.000000,FALSE,45,Read: /home/lvuser/scripts/auto_45.bee,File good!,WAIT 1500,WAIT,0.000000,0.000000,-0.050000
11:11:20.793 AM 04/29/2016,Autonomous Enabled,11,TRUE,7,Read from Text File in DoesScriptNumberContainNull.vi->Disabled.vi->Robot Main.vi<APPEND> /home/lvuser/scripts/auto_42.bee,0.000000,0.000000,-0.000000,0.051333,TRUE,FALSE,TRUE,TRUE,FALSE,FALSE,Disabled,0.000000,0.000000,0.000000,TRUE,0.024536,-0.008209,0.000000,0.190811,-0.094849,0.000000,0.073000,-0.041000,0.092000,1.710000,-0.930000,0.180000,10.382108,Hold,-0.000244,0.000000,ResetBack,11447.000000,-0.250000,LowGoal,2197.500000,-2181.818182,Speed,2092.500000,-2181.818182,Speed,Off,Off,0.000000,FALSE,45,Read: /home/lvuser/scripts/auto_45.bee,File good!,WAIT 1500,WAIT,0.000000,0.000000,-0.050000
11:11:20.894 AM 04/29/2016,Autonomous Enabled,10,TRUE,7,Read from Text File in DoesScriptNumberContainNull.vi->Disabled.vi->Robot Main.vi<APPEND> /home/lvuser/scripts/auto_42.bee,0.000000,0.000000,-0.000000,0.051333,TRUE,FALSE,TRUE,TRUE,FALSE,FALSE,Disabled,0.000000,0.000000,0.000000,TRUE,0.034164,-0.013321,0.000000,0.189102,-0.116699,0.000000,-0.021000,-0.053000,0.071000,1.700000,-0.940000,0.200000,10.383922,Hold,-0.000244,0.000000,ResetBack,11557.000000,-0.250000,LowGoal,2160.000000,-2181.818182,Speed,2055.000000,-2181.818182,Speed,Off,Off,0.000000,FALSE,45,Read: /home/lvuser/scripts/auto_45.bee,File good!,WAIT 1500,WAIT,0.000000,0.000000,-0.050000
11:11:20.995 AM 04/29/2016,Autonomous Enabled,9,TRUE,7,Read from Text File in DoesScriptNumberContainNull.vi->Disabled.vi->Robot Main.vi<APPEND> /home/lvuser/scripts/auto_42.bee,0.000000,0.000000,-0.000000,0.051333,TRUE,FALSE,TRUE,TRUE,FALSE,FALSE,Disabled,0.000000,0.000000,0.000000,TRUE,0.045212,-0.019821,0.000000,0.254288,-0.144333,0.000000,0.050000,0.004000,0.048000,1.670000,-0.940000,0.210000,10.403166,Hold,-0.000244,0.000000,ResetBack,11573.000000,-0.250000,LowGoal,2122.500000,-2181.818182,Speed,2092.500000,-2181.818182,Speed,Off,Off,0.000000,FALSE,45,Read: /home/lvuser/scripts/auto_45.bee,File good!,WAIT 1500,WAIT,0.000000,0.000000,-0.050000
11:11:21.095 AM 04/29/2016,Autonomous Enabled,10,TRUE,7,Read from Text File in DoesScriptNumberContainNull.vi->Disabled.vi->Robot Main.vi<APPEND> /home/lvuser/scripts/auto_42.bee,0.000000,0.000000,-0.000000,0.051333,TRUE,FALSE,TRUE,TRUE,FALSE,FALSE,Disabled,0.000000,0.000000,0.000000,TRUE,0.059708,-0.027451,0.000000,0.300797,-0.162781,0.000000,-0.015000,-0.010000,-0.062000,1.650000,-0.940000,0.260000,10.411824,Hold,-0.000244,0.000000,ResetBack,11673.000000,-0.250000,LowGoal,2115.000000,-2181.818182,Speed,2107.500000,-2181.818182,Speed,Off,Off,0.000000,FALSE,45,Read: /home/lvuser/scripts/auto_45.bee,File good!,WAIT 1500,WAIT,0.000000,0.000000,-0.050000
11:11:21.196 AM 04/29/2016,Autonomous Enabled,10,TRUE,7,Read from Text File in DoesScriptNumberContainNull.vi->Disabled.vi->Robot Main.vi<APPEND> /home/lvuser/scripts/auto_42.bee,0.000000,0.000000,-0.000000,0.051333,TRUE,FALSE,TRUE,TRUE,FALSE,FALSE,Disabled,0.000000,0.000000,0.000000,TRUE,0.074600,-0.034653,0.000000,0.313660,-0.112198,0.000000,-0.015000,-0.010000,-0.062000,1.650000,-0.940000,0.260000,10.426204,Hold,-0.000244,0.000000,ResetBack,12114.000000,-0.250000,LowGoal,2115.000000,-2181.818182,Speed,2100.000000,-2181.818182,Speed,Off,Off,0.000000,FALSE,45,Read: /home/lvuser/scripts/auto_45.bee,File good!,WAIT 1500,WAIT,0.000000,0.000000,-0.050000
11:11:21.295 AM 04/29/2016,Autonomous Enabled,11,TRUE,7,Read from Text File in DoesScriptNumberContainNull.vi->Disabled.vi->Robot Main.vi<APPEND> /home/lvuser/scripts/auto_42.bee,0.000000,0.000000,-0.000000,0.051333,TRUE,FALSE,TRUE,TRUE,FALSE,FALSE,Disabled,0.000000,0.000000,0.000000,TRUE,0.074600,-0.034653,0.000000,0.313660,-0.112198,0.000000,-0.005000,0.040000,-0.057000,1.700000,-0.940000,0.270000,10.429440,Hold,-0.000244,0.000000,ResetBack,12208.000000,-0.250000,LowGoal,2122.500000,-2181.818182,Speed,2092.500000,-2181.818182,Speed,Off,Off,0.000000,FALSE,45,Read: /home/lvuser/scripts/auto_45.bee,File good!,WAIT 1500,WAIT,0.000000,0.000000,-0.050000
11:11:21.396 AM 04/29/2016,Autonomous Enabled,10,TRUE,7,Read from Text File in DoesScriptNumberContainNull.vi->Disabled.vi->Robot Main.vi<APPEND> /home/lvuser/scripts/auto_42.bee,0.000000,0.000000,-0.000000,0.051333,TRUE,FALSE,TRUE,TRUE,FALSE,FALSE,Disabled,0.000000,0.000000,0.000000,TRUE,0.090149,-0.039062,0.000000,-0.039322,0.013062,0.000000,0.013000,-0.013000,-0.107000,1.710000,-0.940000,0.250000,10.428435,Hold,-0.000244,0.000000,Reset,1.000000,2.000000,LowGoal,2122.500000,-2181.818182,Speed,2100.000000,-2181.818182,Speed,Off,Off,0.000000,FALSE,45,Read: /home/lvuser/scripts/auto_45.bee,File good!,WAIT 1500,WAIT,0.000000,0.000000,-0.050000
11:11:21.498 AM 04/29/2016,Autonomous Enabled,9,TRUE,7,Read from Text File in DoesScriptNumberContainNull.vi->Disabled.vi->Robot Main.vi<APPEND> /home/lvuser/scripts/auto_42.bee,0.000000,0.000000,-0.000000,0.051333,TRUE,FALSE,TRUE,TRUE,FALSE,FALSE,Disabled,0.000000,0.000000,0.000000,TRUE,0.090149,-0.039062,0.000000,-0.039322,0.013062,0.000000,0.000000,0.050000,0.012000,1.690000,-0.940000,0.270000,10.447258,Hold,-0.000244,0.000000,Hold,1.000000,2.000000,LowGoal,2122.500000,-2181.818182,Speed,2100.000000,-2181.818182,Speed,Off,Off,0.000000,FALSE,45,Read: /home/lvuser/scripts/auto_45.bee,File good!,WAIT 1500,WAIT,0.000000,0.000000,-0.050000
11:11:21.598 AM 04/29/2016,Autonomous Enabled,12,TRUE,7,Read from Text File in DoesScriptNumberContainNull.vi->Disabled.vi->Robot Main.vi<APPEND> /home/lvuser/scripts/auto_42.bee,0.000000,0.000000,-0.000000,0.051333,TRUE,FALSE,TRUE,TRUE,FALSE,FALSE,Disabled,0.000000,0.000000,0.000000,TRUE,0.089615,-0.037094,0.000000,-0.002655,0.044998,0.000000,0.006000,0.003000,0.070000,1.680000,-0.940000,0.290000,10.464478,Hold,-0.000244,0.000000,Hold,-180.000000,2.000000,LowGoal,2122.500000,-2181.818182,Speed,2100.000000,-2181.818182,Speed,Off,Off,0.000000,FALSE,45,Read: /home/lvuser/scripts/auto_45.bee,File good!,WAIT 1500,WAIT,0.000000,0.000000,-0.050000
11:11:21.698 AM 04/29/2016,Autonomous Enabled,10,TRUE,7,Read from Text File in DoesScriptNumberContainNull.vi->Disabled.vi->Robot Main.vi<APPEND> /home/lvuser/scripts/auto_42.bee,0.000000,0.000000,-0.000000,0.051333,TRUE,FALSE,TRUE,TRUE,FALSE,FALSE,Disabled,0.000000,0.000000,0.000000,TRUE,0.089890,-0.036789,0.000000,0.019485,-0.011688,0.000000,0.074000,-0.040000,-0.072000,1.680000,-0.940000,0.280000,0.002103,Hold,-0.000244,0.000000,Hold,-180.000000,2.000000,LowGoal,2122.500000,-2181.818182,Speed,2100.000000,-2181.818182,Speed,Off,Off,0.000000,FALSE,45,Read: /home/lvuser/scripts/auto_45.bee,File good!,NAVX_ZERO_YAW,NAVX_ZERO_YAW,0.000000,0.000000,-0.050000
11:11:21.798 AM 04/29/2016,Autonomous Enabled,9,TRUE,7,Read from Text File in DoesScriptNumberContainNull.vi->Disabled.vi->Robot Main.vi<APPEND> /home/lvuser/scripts/auto_42.bee,-0.562500,-0.596749,0.562500,0.609582,TRUE,FALSE,TRUE,TRUE,FALSE,FALSE,Disabled,0.000000,0.000000,0.000000,TRUE,0.092194,-0.039062,0.000000,0.066650,-0.058228,0.000000,0.130000,-0.017000,0.088000,1.680000,0.000000,0.200000,0.002103,Hold,-0.000244,0.000000,Hold,-180.000000,2.000000,LowGoal,2122.500000,-1818.181818,Speed,2107.500000,-1818.181818,Speed,Off,Off,0.000000,FALSE,45,Read: /home/lvuser/scripts/auto_45.bee,File good!,DRIVE_STRAIGHT_TARGET 42 0 10000 75,DRIVE_STRAIGHT_TARGET,0.000000,0.000000,-0.050000
11:11:21.898 AM 04/29/2016,Autonomous Enabled,11,TRUE,7,Read from Text File in DoesScriptNumberContainNull.vi->Disabled.vi->Robot Main.vi<APPEND> /home/lvuser/scripts/auto_42.bee,-0.562500,-0.596749,0.562500,0.609582,TRUE,FALSE,TRUE,TRUE,FALSE,FALSE,Disabled,0.000000,0.000000,0.000000,TRUE,0.098267,-0.043198,0.000000,0.134079,-0.104401,0.000000,1.286000,-0.086000,-0.371000,1.570000,0.010000,2.160000,0.001911,Hold,-0.000244,0.000000,Hold,-181.000000,2.000000,LowGoal,2085.000000,-1818.181818,Speed,2002.500000,-1818.181818,Speed,Off,Off,0.000000,FALSE,45,Read: /home/lvuser/scripts/auto_45.bee,File good!,DRIVE_STRAIGHT_TARGET 42 0 10000 75,DRIVE_STRAIGHT_TARGET,0.000000,0.000000,-0.050000
11:11:21.999 AM 04/29/2016,Autonomous Enabled,9,TRUE,7,Read from Text File in DoesScriptNumberContainNull.vi->Disabled.vi->Robot Main.vi<APPEND> /home/lvuser/scripts/auto_42.bee,-0.562500,-2.823327,0.562500,2.893910,FALSE,FALSE,TRUE,TRUE,FALSE,FALSE,Disabled,0.000000,0.000000,0.000000,TRUE,0.122208,-0.045853,0.000000,0.576691,0.033676,0.000000,0.281000,0.016000,-0.467000,1.620000,-0.060000,5.190000,-0.030931,Hold,-0.000244,0.000000,Hold,-181.000000,2.000000,LowGoal,1980.000000,-1818.181818,Speed,1740.000000,-1818.181818,Speed,Off,Off,0.000000,FALSE,45,Read: /home/lvuser/scripts/auto_45.bee,File good!,DRIVE_STRAIGHT_TARGET 42 0 10000 75,DRIVE_STRAIGHT_TARGET,0.000000,0.000000,-0.050000
11:11:22.100 AM 04/29/2016,Autonomous Enabled,10,TRUE,7,Read from Text File in DoesScriptNumberContainNull.vi->Disabled.vi->Robot Main.vi<APPEND> /home/lvuser/scripts/auto_42.bee,-0.562500,-5.980319,0.562500,6.025236,FALSE,FALSE,TRUE,TRUE,FALSE,FALSE,Disabled,0.000000,0.000000,0.000000,TRUE,0.165695,-0.043839,0.000000,0.810303,0.027252,0.000000,0.165000,-0.091000,0.116000,1.770000,-0.110000,3.330000,-0.012114,Hold,-0.000244,0.000000,Hold,-181.000000,2.000000,LowGoal,1845.000000,-1818.181818,Speed,1642.500000,-1818.181818,Speed,Off,Off,0.000000,FALSE,45,Read: /home/lvuser/scripts/auto_45.bee,File good!,DRIVE_STRAIGHT_TARGET 42 0 10000 75,DRIVE_STRAIGHT_TARGET,0.000000,0.000000,-0.050000
11:11:22.200 AM 04/29/2016,Autonomous Enabled,11,TRUE,7,Read from Text File in DoesScriptNumberContainNull.vi->Disabled.vi->Robot Main.vi<APPEND> /home/lvuser/scripts/auto_44.bee,-0.562500,-9.971477,0.562500,10.138310,FALSE,FALSE,TRUE,TRUE,FALSE,FALSE,Disabled,0.000000,0.000000,0.000000,TRUE,0.209854,-0.042831,0.000000,0.894623,0.022202,0.000000,-0.103000,0.049000,0.377000,1.650000,-0.180000,4.430000,-0.068524,Hold,-0.000244,0.000000,Hold,-181.000000,2.000000,LowGoal,1785.000000,-1818.181818,Speed,1687.500000,-1818.181818,Speed,Off,Off,0.000000,FALSE,45,Read: /home/lvuser/scripts/auto_45.bee,File good!,DRIVE_STRAIGHT_TARGET 42 0 10000 75,DRIVE_STRAIGHT_TARGET,0.000000,0.000000,-0.050000
11:11:22.302 AM 04/29/2016,Autonomous Enabled,9,TRUE,7,Read from Text File in DoesScriptNumberContainNull.vi->Disabled.vi->Robot Main.vi<APPEND> /home/lvuser/scripts/auto_44.bee,-0.567973,-14.090967,0.557053,14.219300,FALSE,FALSE,TRUE,TRUE,FALSE,FALSE,Disabled,0.000000,0.000000,0.000000,TRUE,0.252304,-0.041077,0.000000,0.837448,0.027679,0.000000,-0.013000,0.045000,-0.111000,1.600000,-0.250000,3.590000,-0.126545,Hold,-0.000244,0.000000,Hold,-181.000000,2.000000,LowGoal,1747.500000,-1818.181818,Speed,1755.000000,-1818.181818,Speed,Off,Off,0.000000,FALSE,45,Read: /home/lvuser/scripts/auto_45.bee,File good!,DRIVE_STRAIGHT_TARGET 42 0 10000 75,DRIVE_STRAIGHT_TARGET,0.000000,0.000000,-0.050000
11:11:22.403 AM 04/29/2016,Autonomous Enabled,17,TRUE,7,Read from Text File in DoesScriptNumberContainNull.vi->Disabled.vi->Robot Main.vi<APPEND> /home/lvuser/scripts/auto_44.bee,-0.573867,-18.396540,0.551247,18.608290,FALSE,FALSE,TRUE,TRUE,FALSE,FALSE,Disabled,0.000000,0.000000,0.000000,TRUE,0.260117,-0.040100,0.000000,-0.036453,0.000000,0.000000,-0.103000,-0.073000,-0.106000,1.500000,-0.450000,3.720000,-0.295802,Hold,-0.000244,0.000000,Hold,-181.000000,2.000000,LowGoal,1732.500000,-1818.181818,Speed,1732.500000,-1818.181818,Speed,Off,Off,0.000000,FALSE,45,Read: /home/lvuser/scripts/auto_45.bee,File good!,DRIVE_STRAIGHT_TARGET 42 0 10000 75,DRIVE_STRAIGHT_TARGET,0.000000,0.000000,-0.050000
11:11:22.504 AM 04/29/2016,Autonomous Enabled,10,TRUE,7,Read from Text File in DoesScriptNumberContainNull.vi->Disabled.vi->Robot Main.vi<APPEND> /home/lvuser/scripts/auto_44.bee,-0.577023,-22.759863,0.548163,23.099946,FALSE,FALSE,TRUE,TRUE,FALSE,FALSE,Disabled,0.000000,0.000000,0.000000,TRUE,0.257187,-0.040482,0.000000,-0.076736,-0.009262,0.000000,-0.011000,0.005000,0.177000,1.520000,-0.670000,3.470000,-0.585459,Hold,-0.000244,0.000000,Hold,-181.000000,2.000000,LowGoal,1732.500000,-1818.181818,Speed,1725.000000,-1818.181818,Speed,Off,Off,0.000000,FALSE,45,Read: /home/lvuser/scripts/auto_45.bee,File good!,DRIVE_STRAIGHT_TARGET 42 0 10000 75,DRIVE_STRAIGHT_TARGET,0.000000,0.000000,-0.050000
11:11:22.604 AM 04/29/2016,Autonomous Enabled,10,TRUE,7,Read from Text File in DoesScriptNumberContainNull.vi->Disabled.vi->Robot Main.vi<APPEND> /home/lvuser/scripts/auto_44.bee,-0.578604,-27.129603,0.546624,27.591602,FALSE,FALSE,TRUE,TRUE,FALSE,FALSE,Disabled,0.000000,0.000000,0.000000,TRUE,0.252548,-0.040009,0.000000,-0.114731,0.019272,0.000000,-0.080000,-0.030000,0.039000,1.590000,-0.810000,3.390000,-0.733537,Hold,-0.000244,0.000000,Hold,-181.000000,2.000000,LowGoal,1747.500000,-1818.181818,Speed,1732.500000,-1818.181818,Speed,Off,Off,0.000000,FALSE,45,Read: /home/lvuser/scripts/auto_45.bee,File good!,DRIVE_STRAIGHT_TARGET 42 0 10000 75,DRIVE_STRAIGHT_TARGET,0.000000,0.000000,-0.050000
11:11:22.705 AM 04/29/2016,Autonomous Enabled,10,TRUE,7,Read from Text File in DoesScriptNumberContainNull.vi->Disabled.vi->Robot Main.vi<APPEND> /home/lvuser/scripts/auto_44.bee,-0.576430,-31.627676,0.548740,32.057592,FALSE,FALSE,TRUE,TRUE,FALSE,FALSE,Disabled,0.000000,0.000000,0.000000,TRUE,0.245529,-0.039398,0.000000,-0.161072,0.005524,0.000000,-0.006000,-0.021000,0.032000,1.600000,-0.760000,3.110000,-0.726631,Hold,-0.000244,0.000000,Hold,-181.000000,2.000000,LowGoal,1747.500000,-1818.181818,Speed,1740.000000,-1818.181818,Speed,Off,Off,0.000000,FALSE,45,Read: /home/lvuser/scripts/auto_45.bee,File good!,DRIVE_STRAIGHT_TARGET 42 0 10000 75,DRIVE_STRAIGHT_TARGET,0.000000,0.000000,-0.050000
11:11:22.805 AM 04/29/2016,Autonomous Enabled,9,TRUE,7,Read from Text File in DoesScriptNumberContainNull.vi->Disabled.vi->Robot Main.vi<APPEND> /home/lvuser/scripts/auto_44.bee,-0.572489,-36.228415,0.552599,36.536415,FALSE,FALSE,TRUE,TRUE,FALSE,FALSE,Disabled,0.000000,0.000000,0.000000,TRUE,0.234406,-0.039536,0.000000,-0.212601,-0.006531,0.000000,-0.036000,-0.016000,0.176000,1.500000,-0.530000,3.160000,-0.516153,Hold,-0.000244,0.000000,Hold,-181.000000,2.000000,LowGoal,1747.500000,-1818.181818,Speed,1740.000000,-1818.181818,Speed,Off,Off,0.000000,FALSE,45,Read: /home/lvuser/scripts/auto_45.bee,File good!,DRIVE_STRAIGHT_TARGET 42 0 10000 75,DRIVE_STRAIGHT_TARGET,0.000000,0.000000,-0.050000
11:11:22.905 AM 04/29/2016,Autonomous Enabled,10,TRUE,7,Read from Text File in DoesScriptNumberContainNull.vi->Disabled.vi->Robot Main.vi<APPEND> /home/lvuser/scripts/auto_44.bee,0.000000,-40.681572,-0.000000,40.970321,TRUE,FALSE,TRUE,TRUE,FALSE,FALSE,Disabled,0.000000,0.000000,0.000000,TRUE,0.222076,-0.040955,0.000000,-0.258408,-0.041443,0.000000,0.059000,-0.010000,-0.041000,1.440000,-0.500000,2.950000,-0.444500,Hold,-0.000244,0.000000,Hold,-181.000000,2.000000,LowGoal,1747.500000,-1818.181818,Speed,1732.500000,-1818.181818,Speed,Off,Off,0.000000,FALSE,45,Read: /home/lvuser/scripts/auto_45.bee,File good!,WAIT 1000,WAIT,0.000000,0.000000,-0.050000
11:11:23.006 AM 04/29/2016,Autonomous Enabled,11,TRUE,7,Read from Text File in DoesScriptNumberContainNull.vi->Disabled.vi->Robot Main.vi<APPEND> /home/lvuser/scripts/auto_44.bee,0.000000,-45.032061,-0.000000,45.378561,TRUE,FALSE,TRUE,TRUE,FALSE,FALSE,Disabled,0.000000,0.000000,0.000000,TRUE,0.208817,-0.042984,0.000000,-0.282257,-0.035751,0.000000,-0.179000,-0.008000,-0.024000,1.480000,-0.540000,2.920000,-0.482265,Hold,-0.000244,58.000000,Hold,-181.000000,2.000000,LowGoal,1747.500000,-1818.181818,Speed,1732.500000,-1818.181818,Speed,Off,Off,0.000000,FALSE,45,Read: /home/lvuser/scripts/auto_45.bee,File good!,WAIT 1000,WAIT,0.000000,0.000000,-0.050000
11:11:23.106 AM 04/29/2016,Autonomous Enabled,10,TRUE,7,Read from Text File in DoesScriptNumberContainNull.vi->Disabled.vi->Robot Main.vi<APPEND> /home/lvuser/scripts/auto_44.bee,0.000000,-46.796641,-0.000000,47.303556,TRUE,FALSE,TRUE,TRUE,FALSE,FALSE,Disabled,0.000000,0.000000,0.000000,TRUE,0.175400,-0.045197,0.000000,-0.942154,-0.050858,0.000000,-0.362000,0.016000,-0.557000,1.470000,-0.830000,-2.070000,-0.778827,Hold,3.220459,58.000000,Hold,-181.000000,2.000000,LowGoal,1747.500000,-1818.181818,Speed,1732.500000,-1818.181818,Speed,Off,Off,0.000000,FALSE,45,Read: /home/lvuser/scripts/auto_45.bee,File good!,WAIT 1000,WAIT,0.000000,0.000000,-0.050000
11:11:23.206 AM 04/29/2016,Autonomous Enabled,11,TRUE,7,Read from Text File in DoesScriptNumberContainNull.vi->Disabled.vi->Robot Main.vi<APPEND> /home/lvuser/scripts/auto_44.bee,0.000000,-47.605139,-0.000000,48.253220,TRUE,FALSE,TRUE,TRUE,FALSE,FALSE,Disabled,0.000000,0.000000,0.000000,TRUE,0.117966,-0.044601,0.000000,-1.254959,0.040482,0.000000,-0.185000,0.234000,1.010000,1.740000,-1.080000,-0.730000,-1.185077,Hold,7.264648,58.000000,Hold,-181.000000,2.000000,LowGoal,1747.500000,-1818.181818,Speed,1740.000000,-1818.181818,Speed,Off,Off,0.000000,FALSE,45,Read: /home/lvuser/scripts/auto_45.bee,File good!,WAIT 1000,WAIT,0.000000,0.000000,-0.050000
11:11:23.306 AM 04/29/2016,Autonomous Enabled,10,TRUE,7,Read from Text File in DoesScriptNumberContainNull.vi->Disabled.vi->Robot Main.vi<APPEND> /home/lvuser/scripts/auto_44.bee,0.000000,-47.630805,-0.000000,48.259637,TRUE,FALSE,TRUE,TRUE,FALSE,FALSE,Disabled,0.000000,0.000000,0.000000,TRUE,0.049927,-0.040543,0.000000,-1.366882,0.063416,0.000000,0.059000,-0.069000,-0.364000,1.660000,-1.210000,-1.360000,-1.331891,Hold,11.474609,58.000000,Hold,-181.000000,2.000000,LowGoal,1747.500000,-1818.181818,Speed,1740.000000,-1818.181818,Speed,Off,Off,0.000000,FALSE,45,Read: /home/lvuser/scripts/auto_45.bee,File good!,WAIT 1000,WAIT,0.000000,0.000000,-0.050000
11:11:23.410 AM 04/29/2016,Autonomous Enabled,9,TRUE,7,Read from Text File in DoesScriptNumberContainNull.vi->Disabled.vi->Robot Main.vi<APPEND> /home/lvuser/scripts/auto_44.bee,0.000000,-47.560222,-0.000000,48.118471,TRUE,FALSE,TRUE,TRUE,FALSE,FALSE,Disabled,0.000000,0.000000,0.000000,TRUE,-0.016678,-0.038132,0.000000,-1.304672,0.057281,0.000000,0.031000,0.027000,0.027000,1.680000,-1.170000,-0.610000,-1.292484,Hold,16.518555,58.000000,Hold,-181.000000,2.000000,LowGoal,1747.500000,-1818.181818,Speed,1732.500000,-1818.181818,Speed,Off,Off,0.000000,FALSE,45,Read: /home/lvuser/scripts/auto_45.bee,File good!,WAIT 1000,WAIT,0.000000,0.000000,-0.050000
11:11:23.509 AM 04/29/2016,Autonomous Enabled,11,TRUE,7,Read from Text File in DoesScriptNumberContainNull.vi->Disabled.vi->Robot Main.vi<APPEND> /home/lvuser/scripts/auto_44.bee,0.000000,-47.431889,-0.000000,47.990138,TRUE,FALSE,TRUE,TRUE,FALSE,FALSE,Disabled,0.000000,0.000000,0.000000,TRUE,-0.080017,-0.034042,0.000000,-1.245728,0.088745,0.000000,-0.030000,-0.070000,-0.198000,1.650000,-1.160000,-0.830000,-1.251662,Hold,21.722900,58.000000,Hold,-181.000000,2.000000,LowGoal,1747.500000,-1818.181818,Speed,1740.000000,-1818.181818,Speed,Off,Off,0.000000,FALSE,45,Read: /home/lvuser/scripts/auto_45.bee,File good!,WAIT 1000,WAIT,0.000000,0.000000,-0.050000
11:11:23.609 AM 04/29/2016,Autonomous Enabled,10,TRUE,7,Read from Text File in DoesScriptNumberContainNull.vi->Disabled.vi->Robot Main.vi<APPEND> /home/lvuser/scripts/auto_44.bee,0.000000,-47.431889,-0.000000,47.958055,TRUE,FALSE,TRUE,TRUE,FALSE,FALSE,Disabled,0.000000,0.000000,0.000000,TRUE,-0.142365,-0.031418,0.000000,-1.231766,0.000000,0.000000,0.102000,0.019000,-0.091000,1.750000,-1.130000,-0.570000,-1.206827,Hold,26.888916,58.000000,Hold,-181.000000,2.000000,LowGoal,1747.500000,-1818.181818,Speed,1747.500000,-1818.181818,Speed,Off,Off,0.000000,FALSE,45,Read: /home/lvuser/scripts/auto_45.bee,File good!,WAIT 1000,WAIT,0.000000,0.000000,-0.050000
11:11:23.710 AM 04/29/2016,Autonomous Enabled,11,TRUE,7,Read from Text File in DoesScriptNumberContainNull.vi->Disabled.vi->Robot Main.vi<APPEND> /home/lvuser/scripts/auto_44.bee,0.000000,-47.431889,-0.000000,47.958055,TRUE,FALSE,TRUE,TRUE,FALSE,FALSE,Disabled,0.000000,0.000000,0.000000,TRUE,-0.203690,-0.031448,0.000000,-1.225388,0.006393,0.000000,-0.034000,-0.076000,-0.031000,1.790000,-1.140000,-0.510000,-1.214039,Hold,34.119141,58.000000,Hold,-181.000000,2.000000,LowGoal,1747.500000,-1818.181818,Speed,1740.000000,-1818.181818,Speed,Off,Off,0.000000,FALSE,45,Read: /home/lvuser/scripts/auto_45.bee,File good!,WAIT 1000,WAIT,0.000000,0.000000,-0.050000
11:11:23.811 AM 04/29/2016,Autonomous Enabled,10,TRUE,7,Read from Text File in DoesScriptNumberContainNull.vi->Disabled.vi->Robot Main.vi<APPEND> /home/lvuser/scripts/auto_44.bee,0.000000,-47.431889,-0.000000,47.958055,TRUE,FALSE,TRUE,TRUE,FALSE,FALSE,Disabled,0.000000,0.000000,0.000000,TRUE,-0.264160,-0.031036,0.000000,-1.177582,0.025299,0.000000,-0.100000,0.210000,-0.698000,1.710000,-1.140000,-0.390000,-1.188474,Hold,43.754395,58.000000,Hold,-181.000000,2.000000,LowGoal,1747.500000,-1818.181818,Speed,1740.000000,-1818.181818,Speed,Off,Off,0.000000,FALSE,45,Read: /home/lvuser/scripts/auto_45.bee,File good!,WAIT 1000,WAIT,0.000000,0.000000,-0.050000
11:11:23.913 AM 04/29/2016,Autonomous Enabled,11,TRUE,7,Read from Text File in DoesScriptNumberContainNull.vi->Disabled.vi->Robot Main.vi<APPEND> /home/lvuser/scripts/auto_44.bee,0.000000,-47.431889,-0.000000,47.958055,TRUE,FALSE,TRUE,TRUE,FALSE,FALSE,Disabled,0.000000,0.000000,0.000000,TRUE,-0.324493,-0.026672,0.000000,-1.230499,0.091125,0.000000,-0.145000,0.065000,0.106000,1.780000,-1.220000,-0.330000,-1.270128,Hold,51.193848,58.000000,Hold,-181.000000,2.000000,LowGoal,1747.500000,-1818.181818,Speed,1747.500000,-1818.181818,Speed,Off,Off,0.000000,FALSE,45,Read: /home/lvuser/scripts/auto_45.bee,File good!,WAIT 1000,WAIT,0.000000,0.000000,-0.050000
11:11:24.014 AM 04/29/2016,Autonomous Enabled,10,FALSE,0,NO ERROR,-0.562500,-47.431889,0.562500,0.000000,TRUE,FALSE,TRUE,TRUE,FALSE,FALSE,Disabled,0.000000,0.000000,0.000000,TRUE,-0.386185,-0.021423,0.000000,-1.228760,0.114822,0.000000,-0.051000,-0.061000,0.124000,1.760000,-1.190000,-0.520000,-1.236026,Hold,54.987305,58.000000,Hold,-181.000000,2.000000,LowGoal,1747.500000,-1818.181818,Speed,1740.000000,-1818.181818,Speed,Off,Off,0.000000,FALSE,45,Read: /home/lvuser/scripts/auto_45.bee,File good!,DRIVE_STRAIGHT_TARGET 78 0 10000 75,DRIVE_STRAIGHT_TARGET,0.000000,0.000000,-0.050000
11:11:24.114 AM 04/29/2016,Autonomous Enabled,9,FALSE,0,NO ERROR,-0.562500,-0.808498,0.562500,0.936831,FALSE,FALSE,TRUE,TRUE,FALSE,FALSE,Disabled,0.000000,0.000000,0.000000,TRUE,-0.455048,-0.017197,0.000000,-0.900406,0.017776,0.000000,0.056000,0.076000,0.607000,1.630000,-1.300000,4.430000,-1.216721,Hold,59.522461,58.000000,Hold,-181.000000,2.000000,LowGoal,1747.500000,-1818.181818,Speed,1740.000000,-1818.181818,Speed,Off,Off,0.000000,FALSE,45,Read: /home/lvuser/scripts/auto_45.bee,File good!,DRIVE_STRAIGHT_TARGET 78 0 10000 75,DRIVE_STRAIGHT_TARGET,0.000000,0.000000,-0.050000
11:11:24.214 AM 04/29/2016,Autonomous Enabled,10,FALSE,0,NO ERROR,-0.562500,-3.156993,0.562500,3.323826,FALSE,FALSE,TRUE,TRUE,FALSE,FALSE,Disabled,0.000000,0.000000,0.000000,TRUE,-0.492203,-0.014160,0.000000,-0.644089,0.044510,0.000000,0.179000,0.037000,0.174000,1.650000,-1.090000,5.220000,-1.160183,Hold,59.831299,58.000000,Hold,-181.000000,2.000000,LowGoal,1740.000000,-1818.181818,Speed,1725.000000,-1818.181818,Speed,Off,Off,0.000000,FALSE,45,Read: /home/lvuser/scripts/auto_45.bee,File good!,DRIVE_STRAIGHT_TARGET 78 0 10000 75,DRIVE_STRAIGHT_TARGET,0.000000,0.000000,-0.050000
11:11:24.315 AM 04/29/2016,Autonomous Enabled,10,FALSE,0,NO ERROR,-0.562500,-6.435902,0.562500,6.506485,FALSE,FALSE,TRUE,TRUE,FALSE,FALSE,Disabled,0.000000,0.000000,0.000000,TRUE,-0.520325,-0.013184,0.000000,-0.527390,0.006317,0.000000,-0.111000,0.145000,-0.266000,1.520000,-1.110000,6.510000,-1.072088,Hold,59.449951,58.000000,Hold,-181.000000,2.000000,LowGoal,1725.000000,-1818.181818,Speed,1717.500000,-1818.181818,Speed,Off,Off,0.000000,FALSE,45,Read: /home/lvuser/scripts/auto_45.bee,File good!,DRIVE_STRAIGHT_TARGET 78 0 10000 75,DRIVE_STRAIGHT_TARGET,0.000000,0.000000,-0.050000
11:11:24.416 AM 04/29/2016,Autonomous Enabled,8,FALSE,0,NO ERROR,-0.562500,-9.984310,0.562500,10.144726,FALSE,FALSE,TRUE,TRUE,FALSE,FALSE,Disabled,0.000000,0.000000,0.000000,TRUE,-0.531219,-0.011505,0.000000,0.007690,0.025604,0.000000,-0.051000,-0.015000,0.056000,1.480000,-1.200000,8.710000,-1.204754,Hold,59.310059,58.000000,Hold,-181.000000,2.000000,LowGoal,1725.000000,-1818.181818,Speed,1725.000000,-1818.181818,Speed,Off,Off,0.000000,FALSE,45,Read: /home/lvuser/scripts/auto_45.bee,File good!,DRIVE_STRAIGHT_TARGET 78 0 10000 75,DRIVE_STRAIGHT_TARGET,0.000000,0.000000,-0.050000
11:11:24.518 AM 04/29/2016,Autonomous Enabled,10,FALSE,0,NO ERROR,-0.582367,-13.847134,0.542977,13.988301,FALSE,FALSE,TRUE,TRUE,FALSE,FALSE,Disabled,0.000000,0.000000,0.000000,TRUE,-0.531799,-0.010818,0.000000,-0.027512,0.009308,0.000000,-0.131000,0.021000,-0.205000,1.390000,-1.010000,13.320000,-1.077769,Hold,59.309082,58.000000,Hold,-181.000000,2.000000,LowGoal,1732.500000,-1818.181818,Speed,1732.500000,-1818.181818,Speed,Off,Off,0.000000,FALSE,45,Read: /home/lvuser/scripts/auto_45.bee,File good!,DRIVE_STRAIGHT_TARGET 78 0 10000 75,DRIVE_STRAIGHT_TARGET,0.000000,0.000000,-0.050000
11:11:24.619 AM 04/29/2016,Autonomous Enabled,10,FALSE,0,NO ERROR,-0.581376,-17.581626,0.543936,17.626542,FALSE,FALSE,TRUE,TRUE,FALSE,FALSE,Disabled,0.000000,0.000000,0.000000,TRUE,-0.535553,-0.010513,0.000000,-0.047607,0.029785,0.000000,-0.018000,0.019000,-0.085000,1.400000,-0.910000,16.210000,-1.098231,Hold,59.793701,58.000000,Hold,-181.000000,2.000000,LowGoal,1740.000000,-1818.181818,Speed,1740.000000,-1818.181818,Speed,Off,Off,0.000000,FALSE,45,Read: /home/lvuser/scripts/auto_45.bee,File good!,DRIVE_STRAIGHT_TARGET 78 0 10000 75,DRIVE_STRAIGHT_TARGET,0.000000,0.000000,-0.050000
11:11:24.720 AM 04/29/2016,Autonomous Enabled,10,FALSE,0,NO ERROR,-0.577023,-21.367450,0.548163,21.290450,FALSE,FALSE,TRUE,TRUE,FALSE,FALSE,Disabled,0.000000,0.000000,0.000000,TRUE,-0.537323,-0.009201,0.000000,-0.043472,0.007751,0.000000,-0.068000,0.029000,-0.033000,1.240000,-0.730000,19.760000,-0.919301,Hold,60.309570,58.000000,Hold,-181.000000,2.000000,LowGoal,1740.000000,-1818.181818,Speed,1732.500000,-1818.181818,Speed,Off,Off,0.000000,FALSE,45,Read: /home/lvuser/scripts/auto_45.bee,File good!,DRIVE_STRAIGHT_TARGET 78 0 10000 75,DRIVE_STRAIGHT_TARGET,0.000000,0.000000,-0.050000
11:11:24.820 AM 04/29/2016,Autonomous Enabled,11,FALSE,0,NO ERROR,-0.578010,-24.838859,0.547200,24.781109,FALSE,FALSE,TRUE,TRUE,FALSE,FALSE,Disabled,0.000000,0.000000,0.000000,TRUE,-0.543106,-0.008926,0.000000,-0.183502,0.005814,0.000000,0.058000,0.056000,-0.055000,1.270000,-0.790000,20.960000,-0.912849,Hold,60.400391,58.000000,Hold,-181.000000,2.000000,LowGoal,1740.000000,-1818.181818,Speed,1732.500000,-1818.181818,Speed,Off,Off,0.000000,FALSE,45,Read: /home/lvuser/scripts/auto_45.bee,File good!,DRIVE_STRAIGHT_TARGET 78 0 10000 75,DRIVE_STRAIGHT_TARGET,0.000000,0.000000,-0.050000
11:11:24.921 AM 04/29/2016,Autonomous Enabled,10,FALSE,0,NO ERROR,-0.576430,-28.265351,0.548740,28.066434,FALSE,FALSE,TRUE,TRUE,FALSE,FALSE,Disabled,0.000000,0.000000,0.000000,TRUE,-0.552795,-0.008255,0.000000,-0.179474,0.005768,0.000000,-0.295000,0.045000,0.406000,1.280000,-0.710000,22.480000,-0.879549,Hold,60.646729,58.000000,Hold,-181.000000,2.000000,LowGoal,1740.000000,-1818.181818,Speed,1732.500000,-1818.181818,Speed,Off,Off,0.000000,FALSE,45,Read: /home/lvuser/scripts/auto_45.bee,File good!,DRIVE_STRAIGHT_TARGET 78 0 10000 75,DRIVE_STRAIGHT_TARGET,0.000000,0.000000,-0.050000
11:11:25.023 AM 04/29/2016,Autonomous Enabled,10,FALSE,0,NO ERROR,-0.575641,-31.492926,0.549511,31.236260,FALSE,FALSE,TRUE,TRUE,FALSE,FALSE,Disabled,0.000000,0.000000,0.000000,TRUE,-0.564453,-0.008972,0.000000,-0.227219,-0.024994,0.000000,-0.247000,0.061000,0.240000,1.090000,-0.660000,23.610000,-0.867900,Hold,60.646973,58.000000,Hold,-181.000000,2.000000,LowGoal,1747.500000,-1818.181818,Speed,1732.500000,-1818.181818,Speed,Off,Off,0.000000,FALSE,45,Read: /home/lvuser/scripts/auto_45.bee,File good!,DRIVE_STRAIGHT_TARGET 78 0 10000 75,DRIVE_STRAIGHT_TARGET,0.000000,0.000000,-0.050000
11:11:25.124 AM 04/29/2016,Autonomous Enabled,11,FALSE,0,NO ERROR,-0.572292,-34.682002,0.552792,34.374003,FALSE,FALSE,TRUE,TRUE,FALSE,FALSE,Disabled,0.000000,0.000000,0.000000,TRUE,-0.572876,-0.010101,0.000000,-0.008026,-0.034912,0.000000,-0.281000,0.017000,0.117000,0.940000,-0.540000,24.650000,-0.814454,Hold,60.646973,58.000000,Hold,-181.000000,2.000000,LowGoal,1740.000000,-1818.181818,Speed,1732.500000,-1818.181818,Speed,Off,Off,0.000000,FALSE,45,Read: /home/lvuser/scripts/auto_45.bee,File good!,DRIVE_STRAIGHT_TARGET 78 0 10000 75,DRIVE_STRAIGHT_TARGET,0.000000,0.000000,-0.050000
11:11:25.224 AM 04/29/2016,Autonomous Enabled,9,FALSE,0,NO ERROR,-0.574458,-37.601579,0.550668,37.267913,FALSE,FALSE,TRUE,TRUE,FALSE,FALSE,Disabled,0.000000,0.000000,0.000000,TRUE,-0.576736,-0.012695,0.000000,-0.067795,-0.055740,0.000000,0.243000,0.101000,-0.270000,0.870000,-0.560000,24.350000,-0.840590,Hold,60.646973,58.000000,Hold,-181.000000,2.000000,LowGoal,1740.000000,-1818.181818,Speed,1732.500000,-1818.181818,Speed,Off,Off,0.000000,FALSE,45,Read: /home/lvuser/scripts/auto_45.bee,File good!,DRIVE_STRAIGHT_TARGET 78 0 10000 75,DRIVE_STRAIGHT_TARGET,0.000000,0.000000,-0.050000
11:11:25.325 AM 04/29/2016,Autonomous Enabled,11,FALSE,0,NO ERROR,-0.572882,-40.399239,0.552212,40.181073,FALSE,FALSE,TRUE,TRUE,FALSE,FALSE,Disabled,0.000000,0.000000,0.000000,TRUE,-0.577377,-0.014496,0.000000,-0.025101,-0.032837,0.000000,0.067000,-0.049000,-0.281000,0.870000,-0.560000,24.350000,-0.842108,Hold,60.646973,58.000000,Hold,-181.000000,2.000000,LowGoal,1740.000000,-1818.181818,Speed,1732.500000,-1818.181818,Speed,Off,Off,0.000000,FALSE,45,Read: /home/lvuser/scripts/auto_45.bee,File good!,DRIVE_STRAIGHT_TARGET 78 0 10000 75,DRIVE_STRAIGHT_TARGET,0.000000,0.000000,-0.050000
11:11:25.425 AM 04/29/2016,Autonomous Enabled,9,FALSE,0,NO ERROR,-0.573276,-43.382982,0.551826,43.094233,FALSE,FALSE,TRUE,TRUE,FALSE,FALSE,Disabled,0.000000,0.000000,0.000000,TRUE,-0.575150,-0.017349,0.000000,0.048889,-0.030243,0.000000,-0.111000,0.034000,0.091000,0.820000,-0.530000,21.790000,-0.826847,Hold,60.647217,58.000000,Hold,-181.000000,2.000000,LowGoal,1732.500000,-1818.181818,Speed,1732.500000,-1818.181818,Speed,Off,Off,0.000000,FALSE,45,Read: /home/lvuser/scripts/auto_45.bee,File good!,DRIVE_STRAIGHT_TARGET 78 0 10000 75,DRIVE_STRAIGHT_TARGET,0.000000,0.000000,-0.050000
11:11:25.525 AM 04/29/2016,Autonomous Enabled,10,FALSE,0,NO ERROR,-0.573867,-46.244809,0.551247,45.968893,FALSE,FALSE,TRUE,TRUE,FALSE,FALSE,Disabled,0.000000,0.000000,0.000000,TRUE,-0.570282,-0.019119,0.000000,0.140076,-0.016113,0.000000,0.170000,-0.035000,-0.189000,0.910000,-0.590000,18.070000,-0.830786,Hold,60.647217,58.000000,Hold,-181.000000,2.000000,LowGoal,1740.000000,-1818.181818,Speed,1732.500000,-1818.181818,Speed,Off,Off,0.000000,FALSE,45,Read: /home/lvuser/scripts/auto_45.bee,File good!,DRIVE_STRAIGHT_TARGET 78 0 10000 75,DRIVE_STRAIGHT_TARGET,0.000000,0.000000,-0.050000
11:11:25.625 AM 04/29/2016,Autonomous Enabled,10,FALSE,0,NO ERROR,-0.573670,-49.106635,0.551440,48.856386,FALSE,FALSE,TRUE,TRUE,FALSE,FALSE,Disabled,0.000000,0.000000,0.000000,TRUE,-0.562042,-0.020142,0.000000,0.247757,-0.023575,0.000000,0.391000,0.148000,-1.352000,0.920000,-0.570000,11.130000,-0.774465,Hold,60.647217,58.000000,Hold,-181.000000,2.000000,LowGoal,1732.500000,-1818.181818,Speed,1732.500000,-1818.181818,Speed,Off,Off,0.000000,FALSE,45,Read: /home/lvuser/scripts/auto_45.bee,File good!,DRIVE_STRAIGHT_TARGET 78 0 10000 75,DRIVE_STRAIGHT_TARGET,0.000000,0.000000,-0.050000
11:11:25.726 AM 04/29/2016,Autonomous Enabled,10,FALSE,0,NO ERROR,-0.574064,-52.488211,0.551054,52.141711,TRUE,FALSE,TRUE,TRUE,FALSE,FALSE,Disabled,0.000000,0.000000,0.000000,TRUE,-0.530350,-0.021164,0.000000,0.685913,-0.005447,0.000000,0.131000,0.013000,-0.956000,1.110000,-0.600000,1.210000,-0.660424,Hold,60.447998,58.000000,Hold,-181.000000,2.000000,LowGoal,1740.000000,-1818.181818,Speed,1740.000000,-1818.181818,Speed,Off,Off,0.000000,FALSE,45,Read: /home/lvuser/scripts/auto_45.bee,File good!,DRIVE_STRAIGHT_TARGET 78 0 10000 75,DRIVE_STRAIGHT_TARGET,0.000000,0.000000,-0.050000
11:11:25.826 AM 04/29/2016,Autonomous Enabled,11,FALSE,0,NO ERROR,-0.574261,-57.121033,0.550861,56.607701,FALSE,FALSE,TRUE,TRUE,FALSE,FALSE,Disabled,0.000000,0.000000,0.000000,TRUE,-0.492859,-0.023300,0.000000,0.765182,-0.053223,0.000000,-1.606000,1.518000,1.377000,1.430000,-0.600000,-10.770000,-0.615777,Hold,60.244385,58.000000,Hold,-181.000000,2.000000,LowGoal,1732.500000,-1818.181818,Speed,1740.000000,-1818.181818,Speed,Off,Off,0.000000,FALSE,45,Read: /home/lvuser/scripts/auto_45.bee,File good!,DRIVE_STRAIGHT_TARGET 78 0 10000 75,DRIVE_STRAIGHT_TARGET,0.000000,0.000000,-0.050000
11:11:25.926 AM 04/29/2016,Autonomous Enabled,11,FALSE,0,NO ERROR,-0.581772,-62.562354,0.543552,62.363438,FALSE,FALSE,TRUE,TRUE,FALSE,FALSE,Disabled,0.000000,0.000000,0.000000,TRUE,-0.479004,-0.010437,0.000000,0.188522,0.275101,0.000000,-1.540000,0.298000,-1.195000,1.430000,-0.600000,-10.770000,-1.050565,Hold,59.776123,58.000000,Hold,-274.000000,2.000000,LowGoal,1732.500000,-1818.181818,Speed,1732.500000,-1818.181818,Speed,Off,Off,0.000000,FALSE,45,Read: /home/lvuser/scripts/auto_45.bee,File good!,DRIVE_STRAIGHT_TARGET 78 0 10000 75,DRIVE_STRAIGHT_TARGET,0.000000,0.000000,-0.050000
11:11:26.026 AM 04/29/2016,Autonomous Enabled,11,FALSE,0,NO ERROR,-0.582566,-67.670008,0.542786,67.464676,FALSE,FALSE,TRUE,TRUE,FALSE,FALSE,Disabled,0.000000,0.000000,0.000000,TRUE,-0.487564,0.000763,0.000000,-0.214172,0.060349,0.000000,0.090000,-0.050000,-0.770000,0.120000,-0.970000,-3.300000,-1.264562,Hold,58.947998,58.000000,Hold,-232.000000,2.000000,LowGoal,1695.000000,-1818.181818,Speed,1702.500000,-1818.181818,Speed,Off,Off,0.000000,FALSE,45,Read: /home/lvuser/scripts/auto_45.bee,File good!,DRIVE_STRAIGHT_TARGET 78 0 10000 75,DRIVE_STRAIGHT_TARGET,0.000000,0.000000,-0.050000
11:11:26.126 AM 04/29/2016,Autonomous Enabled,9,FALSE,0,NO ERROR,-0.603791,-72.822580,0.522671,72.322081,TRUE,FALSE,TRUE,TRUE,FALSE,FALSE,Disabled,0.000000,0.000000,0.000000,TRUE,-0.504822,0.004822,0.000000,-0.511322,-0.023788,0.000000,0.331000,1.199000,0.761000,-1.460000,-0.990000,2.700000,-1.790719,Hold,58.669678,58.000000,Hold,-68.000000,2.000000,LowGoal,1687.500000,-1818.181818,Speed,1725.000000,-1818.181818,Speed,Off,Off,0.000000,FALSE,45,Read: /home/lvuser/scripts/auto_45.bee,File good!,DRIVE_STRAIGHT_TARGET 78 0 10000 75,DRIVE_STRAIGHT_TARGET,0.000000,0.000000,-0.050000
11:11:26.226 AM 04/29/2016,Autonomous Enabled,8,FALSE,0,NO ERROR,-0.641329,-77.724902,0.488839,76.986987,TRUE,FALSE,TRUE,TRUE,FALSE,FALSE,Disabled,0.000000,0.000000,0.000000,TRUE,-0.528671,0.016403,0.000000,-0.458786,0.313507,0.000000,0.541000,0.054000,0.024000,0.740000,-2.320000,-0.200000,-4.079917,Hold,60.801514,58.000000,Hold,-112.000000,2.000000,LowGoal,1695.000000,-1818.181818,Speed,1717.500000,-1818.181818,Speed,Off,Off,0.000000,FALSE,45,Read: /home/lvuser/scripts/auto_45.bee,File good!,DRIVE_STRAIGHT_TARGET 78 0 10000 75,DRIVE_STRAIGHT_TARGET,0.000000,0.000000,-0.050000
11:11:26.326 AM 04/29/2016,Autonomous Enabled,11,FALSE,0,NO ERROR,0.000000,-82.575890,-0.000000,81.837975,TRUE,FALSE,TRUE,TRUE,FALSE,TRUE,Disabled,0.000000,0.000000,0.000000,TRUE,-0.542633,0.031281,0.000000,-0.266357,0.377975,0.000000,-1.551000,-0.029000,0.104000,2.290000,-4.510000,1.630000,-4.733586,Hold,61.271240,50.000000,Hold,-112.000000,71680.000000,LowGoal,1717.500000,-3272.727273,Speed,1717.500000,-3272.727273,Speed,Off,Off,0.000000,FALSE,45,Read: /home/lvuser/scripts/auto_45.bee,File good!,SEARCH_FOR_GOAL,SEARCH_FOR_GOAL,0.000000,0.000000,-0.050000
11:11:26.429 AM 04/29/2016,Autonomous Enabled,10,FALSE,0,NO ERROR,0.000000,-84.430303,-0.000000,83.705221,FALSE,FALSE,TRUE,TRUE,FALSE,TRUE,Disabled,0.000000,0.000000,0.000000,TRUE,-0.586472,0.050980,0.000000,-1.134842,0.346344,0.000000,-0.421000,-0.137000,-0.083000,2.060000,-3.950000,-5.270000,-4.136526,Hold,57.643799,50.000000,Hold,-205.000000,71680.000000,LowGoal,1717.500000,-3272.727273,Speed,1702.500000,-3272.727273,Speed,Off,Off,0.000000,FALSE,45,Read: /home/lvuser/scripts/auto_45.bee,File good!,SEARCH_FOR_GOAL,SEARCH_FOR_GOAL,0.000000,0.000000,-0.050000
11:11:26.529 AM 04/29/2016,Autonomous Enabled,11,FALSE,0,NO ERROR,0.000000,-85.508300,-0.000000,84.744718,FALSE,FALSE,TRUE,TRUE,FALSE,TRUE,Disabled,0.000000,0.000000,0.000000,TRUE,-0.653000,0.064789,0.000000,-1.411926,0.260269,0.000000,-0.203000,0.137000,0.122000,1.930000,-4.060000,-5.040000,-4.324968,Hold,56.284180,50.000000,Hold,-14034.000000,71680.000000,LowGoal,1935.000000,-3272.727273,Speed,1980.000000,-3272.727273,Speed,Off,Off,0.000000,FALSE,45,Read: /home/lvuser/scripts/auto_45.bee,File good!,SEARCH_FOR_GOAL,SEARCH_FOR_GOAL,0.000000,0.000000,-0.050000
11:11:26.629 AM 04/29/2016,Autonomous Enabled,11,FALSE,0,NO ERROR,0.000000,-85.726466,-0.000000,85.001385,FALSE,FALSE,TRUE,TRUE,FALSE,TRUE,Disabled,0.000000,0.000000,0.000000,TRUE,-0.728210,0.079514,0.000000,-1.538101,0.301392,0.000000,0.109000,-0.084000,-0.183000,1.920000,-4.140000,-3.870000,-4.419780,Hold,56.270020,50.000000,Hold,-37051.000000,71680.000000,LowGoal,2287.500000,-3272.727273,Speed,2430.000000,-3272.727273,Speed,Off,Off,0.000000,FALSE,45,Read: /home/lvuser/scripts/auto_45.bee,File good!,SEARCH_FOR_GOAL,SEARCH_FOR_GOAL,0.000000,0.000000,-0.050000
11:11:26.729 AM 04/29/2016,Autonomous Enabled,10,FALSE,0,NO ERROR,0.000000,-85.726466,-0.000000,85.001385,FALSE,FALSE,TRUE,TRUE,FALSE,TRUE,Disabled,0.000000,0.000000,0.000000,TRUE,-0.802444,0.093674,0.000000,-1.454788,0.298431,0.000000,-0.010000,-0.009000,-0.095000,2.030000,-4.230000,-3.560000,-4.544335,Hold,55.871582,50.000000,Hold,-59145.000000,71680.000000,LowGoal,2595.000000,-3272.727273,Speed,2805.000000,-3272.727273,Speed,Off,Off,0.000000,FALSE,45,Read: /home/lvuser/scripts/auto_45.bee,File good!,SEARCH_FOR_GOAL,SEARCH_FOR_GOAL,0.000000,0.000000,-0.050000
11:11:26.830 AM 04/29/2016,Autonomous Enabled,11,FALSE,0,NO ERROR,0.000000,-85.726466,-0.000000,85.001385,FALSE,FALSE,TRUE,TRUE,FALSE,TRUE,Disabled,0.000000,0.000000,0.000000,TRUE,-0.872513,0.108749,0.000000,-1.352463,0.291748,0.000000,0.186000,0.079000,0.090000,2.030000,-4.230000,-3.560000,-4.449950,Hold,55.877930,50.000000,Hold,-73673.000000,71680.000000,LowGoal,2805.000000,-3272.727273,Speed,3105.000000,-3272.727273,Speed,Off,Off,0.000000,FALSE,45,Read: /home/lvuser/scripts/auto_45.bee,File good!,SEARCH_FOR_GOAL,SEARCH_FOR_GOAL,0.000000,0.000000,-0.050000
11:11:26.930 AM 04/29/2016,Autonomous Enabled,11,FALSE,0,NO ERROR,0.000000,-85.822716,-0.000000,85.168218,FALSE,FALSE,TRUE,TRUE,FALSE,TRUE,Disabled,0.000000,0.000000,0.000000,TRUE,-0.949158,0.126175,0.000000,-1.299454,0.286652,0.000000,-0.019000,-0.072000,0.155000,1.910000,-4.220000,-3.490000,-4.548535,Hold,55.877441,50.000000,Hold,-71651.000000,71680.000000,LowGoal,3030.000000,-3272.727273,Speed,3202.500000,-3272.727273,Speed,Off,Off,0.000000,FALSE,45,Read: /home/lvuser/scripts/auto_45.bee,File good!,SEARCH_FOR_GOAL,SEARCH_FOR_GOAL,0.000000,0.000000,-0.050000
11:11:27.031 AM 04/29/2016,Autonomous Enabled,11,FALSE,0,NO ERROR,0.000000,-85.809883,-0.000000,85.187467,FALSE,FALSE,TRUE,TRUE,FALSE,TRUE,Disabled,0.000000,0.000000,0.000000,TRUE,-1.014908,0.136642,0.000000,-1.348648,0.000000,0.000000,-0.019000,-0.072000,0.155000,1.890000,-4.200000,-3.000000,-4.563107,Hold,55.838867,50.000000,Hold,-71651.000000,71680.000000,LowGoal,3180.000000,-3272.727273,Speed,3165.000000,-3272.727273,Speed,Off,Off,0.000000,FALSE,45,Read: /home/lvuser/scripts/auto_45.bee,File good!,SEARCH_FOR_GOAL,SEARCH_FOR_GOAL,0.000000,0.000000,-0.050000
11:11:27.133 AM 04/29/2016,Autonomous Enabled,9,FALSE,0,NO ERROR,0.000000,-85.713633,-0.000000,85.052718,TRUE,FALSE,TRUE,TRUE,FALSE,TRUE,Disabled,0.000000,0.000000,0.000000,TRUE,-1.082397,0.137115,0.000000,-1.335480,0.013565,0.000000,0.074000,0.048000,-0.141000,1.850000,-4.190000,-2.830000,-4.543970,Hold,55.838867,50.000000,Hold,-71663.000000,71680.000000,LowGoal,3202.500000,-3272.727273,Speed,3157.500000,-3272.727273,Speed,Off,Off,0.000000,FALSE,45,Read: /home/lvuser/scripts/auto_45.bee,File good!,SEARCH_FOR_GOAL,SEARCH_FOR_GOAL,0.000000,0.000000,-0.050000
11:11:27.234 AM 04/29/2016,Autonomous Enabled,12,FALSE,0,NO ERROR,0.000000,-85.713633,-0.000000,85.039884,TRUE,FALSE,TRUE,TRUE,FALSE,TRUE,Disabled,0.000000,0.000000,0.000000,TRUE,-1.143646,0.137405,0.000000,-1.166153,0.007172,0.000000,0.095000,-0.020000,-0.056000,1.850000,-4.280000,-2.400000,-4.633618,Hold,55.838867,50.000000,Hold,-71929.000000,71680.000000,LowGoal,3187.500000,-3272.727273,Speed,3165.000000,-3272.727273,Speed,Off,Off,0.000000,FALSE,45,Read: /home/lvuser/scripts/auto_45.bee,File good!,SEARCH_FOR_GOAL,SEARCH_FOR_GOAL,0.000000,0.000000,-0.050000
11:11:27.334 AM 04/29/2016,Autonomous Enabled,11,FALSE,0,NO ERROR,0.000000,-85.713633,-0.000000,85.039884,TRUE,FALSE,TRUE,TRUE,FALSE,TRUE,Disabled,0.000000,0.000000,0.000000,TRUE,-1.213242,0.137604,0.000000,-1.172653,0.012695,0.000000,0.095000,-0.020000,-0.056000,1.820000,-4.200000,-2.220000,-4.567438,Hold,55.838867,50.000000,Hold,-71728.000000,71680.000000,LowGoal,3180.000000,-3272.727273,Speed,3165.000000,-3272.727273,Speed,Off,Off,0.000000,FALSE,45,Read: /home/lvuser/scripts/auto_45.bee,File good!,SEARCH_FOR_GOAL,SEARCH_FOR_GOAL,0.000000,0.000000,-0.050000
11:11:27.435 AM 04/29/2016,Autonomous Enabled,11,FALSE,0,NO ERROR,0.000000,-85.713633,-0.000000,85.039884,TRUE,FALSE,TRUE,TRUE,FALSE,TRUE,Enable,-0.059375,4.265625,-8.505625,TRUE,-1.260147,0.137924,0.000000,-1.157791,0.005432,0.000000,-0.033000,0.104000,-0.281000,1.820000,-4.200000,-2.220000,-4.625273,Hold,55.838867,50.000000,Hold,-71779.000000,71680.000000,LowGoal,3180.000000,-3272.727273,Speed,3172.500000,-3272.727273,Speed,Off,Off,0.000000,FALSE,45,Read: /home/lvuser/scripts/auto_45.bee,File good!,SEARCH_FOR_GOAL,SEARCH_FOR_GOAL,0.000000,0.000000,-0.109375
11:11:27.537 AM 04/29/2016,Autonomous Enabled,9,FALSE,0,NO ERROR,0.273733,-85.489050,0.273733,85.456967,TRUE,FALSE,TRUE,TRUE,FALSE,TRUE,PID,-0.059375,4.265625,-8.505625,TRUE,-1.316040,0.137924,0.000000,-1.097992,0.001144,0.000000,0.072000,-0.153000,0.103000,1.770000,-4.250000,-2.200000,-4.624474,Hold,55.838867,50.000000,Hold,-71800.000000,71680.000000,LowGoal,3187.500000,-3272.727273,Speed,3172.500000,-3272.727273,Speed,Off,Off,0.000000,FALSE,45,Read: /home/lvuser/scripts/auto_45.bee,File good!,SEARCH_FOR_GOAL,SEARCH_FOR_GOAL,0.000000,0.000000,-0.109375
11:11:27.637 AM 04/29/2016,Autonomous Enabled,9,FALSE,0,NO ERROR,0.249321,-84.834552,0.249321,86.111465,TRUE,FALSE,TRUE,TRUE,FALSE,TRUE,PID,-0.059375,4.265625,-8.505625,TRUE,-1.384216,0.135223,0.000000,-1.132172,-0.059143,0.000000,0.007000,-0.111000,0.207000,1.650000,-4.420000,-2.080000,-6.996493,Hold,55.838867,50.000000,Hold,-71800.000000,71680.000000,LowGoal,3187.500000,-3272.727273,Speed,3165.000000,-3272.727273,Speed,Off,Off,0.000000,FALSE,45,Read: /home/lvuser/scripts/auto_45.bee,File good!,SEARCH_FOR_GOAL,SEARCH_FOR_GOAL,0.000000,0.000000,-0.109375
11:11:27.737 AM 04/29/2016,Autonomous Enabled,10,FALSE,0,NO ERROR,-0.223899,-84.321219,-0.223899,86.688964,TRUE,FALSE,TRUE,TRUE,FALSE,TRUE,PID,-0.059375,4.265625,-8.505625,TRUE,-1.428772,0.133224,0.000000,-1.108032,-0.039001,0.000000,0.108000,-0.205000,0.123000,1.430000,-6.750000,-2.130000,-9.588351,Hold,55.838867,50.000000,Hold,-71770.000000,71680.000000,LowGoal,3180.000000,-3272.727273,Speed,3157.500000,-3272.727273,Speed,Off,Off,0.000000,FALSE,45,Read: /home/lvuser/scripts/auto_45.bee,File good!,SEARCH_FOR_GOAL,SEARCH_FOR_GOAL,0.000000,0.000000,-0.109375
11:11:27.837 AM 04/29/2016,Autonomous Enabled,10,FALSE,0,NO ERROR,-0.234793,-84.982135,-0.234793,85.944632,TRUE,FALSE,TRUE,TRUE,FALSE,TRUE,PID,-0.059375,4.265625,-8.505625,TRUE,-1.428772,0.133224,0.000000,-1.108032,-0.039001,0.000000,-0.010000,0.207000,-0.172000,1.740000,-9.140000,-1.810000,-9.896466,Hold,55.838867,50.000000,Hold,-71770.000000,71680.000000,LowGoal,3180.000000,-3272.727273,Speed,3165.000000,-3272.727273,Speed,Off,Off,0.000000,FALSE,45,Read: /home/lvuser/scripts/auto_45.bee,File good!,SEARCH_FOR_GOAL,SEARCH_FOR_GOAL,0.000000,0.000000,-0.109375
11:11:27.937 AM 04/29/2016,Autonomous Enabled,9,FALSE,0,NO ERROR,0.000000,-85.501883,-0.000000,85.424884,TRUE,FALSE,TRUE,TRUE,FALSE,TRUE,Suspended,-0.059375,4.265625,-8.505625,TRUE,-1.491104,0.137115,0.000000,-0.966232,0.123596,0.000000,-0.024000,0.261000,-0.098000,2.090000,-9.110000,-1.280000,-5.976257,Hold,55.838867,50.000000,Hold,-71770.000000,71680.000000,LowGoal,3172.500000,-3272.727273,Speed,3180.000000,-3272.727273,Speed,Off,Off,0.000000,FALSE,45,Read: /home/lvuser/scripts/auto_45.bee,File good!,SEARCH_FOR_GOAL,SEARCH_FOR_GOAL,0.000000,0.000000,-0.109375
11:11:28.037 AM 04/29/2016,Autonomous Enabled,10,FALSE,0,NO ERROR,0.000000,-85.521133,-0.000000,85.444134,TRUE,FALSE,TRUE,TRUE,FALSE,TRUE,Suspended,-0.059375,4.265625,-8.505625,TRUE,-1.539139,0.144485,0.000000,-0.994904,0.113541,0.000000,-0.186000,-0.233000,-0.072000,2.040000,-5.400000,-1.390000,-6.816258,Hold,55.838867,50.000000,Hold,-71770.000000,71680.000000,LowGoal,3180.000000,-3272.727273,Speed,3165.000000,-3272.727273,Speed,Off,Off,0.000000,FALSE,45,Read: /home/lvuser/scripts/auto_45.bee,File good!,SEARCH_FOR_GOAL,SEARCH_FOR_GOAL,0.000000,0.000000,-0.109375
11:11:28.138 AM 04/29/2016,Autonomous Enabled,9,FALSE,0,NO ERROR,0.000000,-85.412050,-0.000000,85.521133,TRUE,FALSE,TRUE,TRUE,FALSE,TRUE,Suspended,-0.059375,4.265625,-8.505625,TRUE,-1.591202,0.144318,0.000000,-1.038696,-0.048523,0.000000,0.214000,0.027000,0.131000,1.440000,-6.080000,-1.610000,-6.997196,Hold,55.838867,50.000000,Hold,-71770.000000,71680.000000,LowGoal,3195.000000,-3272.727273,Speed,3172.500000,-3272.727273,Speed,Off,Off,0.000000,FALSE,45,Read: /home/lvuser/scripts/auto_45.bee,File good!,SEARCH_FOR_GOAL,SEARCH_FOR_GOAL,0.000000,0.000000,-0.109375
11:11:28.238 AM 04/29/2016,Autonomous Enabled,13,FALSE,0,NO ERROR,0.000000,-85.418467,-0.000000,85.521133,TRUE,FALSE,TRUE,TRUE,FALSE,TRUE,Suspended,-0.059375,4.265625,-8.505625,TRUE,-1.640488,0.145355,0.000000,-0.969452,0.044281,0.000000,0.010000,0.044000,-0.060000,1.870000,-6.530000,-1.270000,-6.934124,Hold,55.838867,50.000000,Hold,-71770.000000,71680.000000,LowGoal,3195.000000,-3272.727273,Speed,3187.500000,-3272.727273,Speed,Off,Off,0.000000,FALSE,45,Read: /home/lvuser/scripts/auto_45.bee,File good!,SEARCH_FOR_GOAL,SEARCH_FOR_GOAL,0.000000,0.000000,-0.109375
11:11:28.341 AM 04/29/2016,Autonomous Enabled,10,FALSE,0,NO ERROR,0.000000,-85.418467,-0.000000,85.521133,TRUE,FALSE,TRUE,TRUE,FALSE,TRUE,Suspended,-0.059375,4.265625,-8.505625,TRUE,-1.689590,0.146225,0.000000,-0.982254,0.009811,0.000000,0.119000,0.042000,0.139000,1.720000,-6.390000,-1.240000,-6.991426,Hold,55.838867,50.000000,Hold,-71770.000000,71680.000000,LowGoal,3202.500000,-3272.727273,Speed,3180.000000,-3272.727273,Speed,Off,Off,0.000000,FALSE,45,Read: /home/lvuser/scripts/auto_45.bee,File good!,SEARCH_FOR_GOAL,SEARCH_FOR_GOAL,0.000000,0.000000,-0.109375
11:11:28.441 AM 04/29/2016,Autonomous Enabled,11,FALSE,0,NO ERROR,0.000000,-85.418467,-0.000000,85.521133,TRUE,FALSE,TRUE,TRUE,FALSE,TRUE,Suspended,-0.003125,4.265625,-8.505625,TRUE,-1.746262,0.148010,0.000000,-0.913773,0.048492,0.000000,-0.051000,0.073000,-0.013000,1.690000,-6.450000,-1.120000,-6.991426,Hold,55.838867,50.000000,Hold,-71770.000000,71680.000000,LowGoal,3202.500000,-3272.727273,Speed,3180.000000,-3272.727273,Speed,Off,Off,0.000000,FALSE,45,Read: /home/lvuser/scripts/auto_45.bee,File good!,SEARCH_FOR_GOAL,SEARCH_FOR_GOAL,0.000000,0.000000,-0.053125
11:11:28.541 AM 04/29/2016,Autonomous Enabled,10,FALSE,0,NO ERROR,0.245915,-85.418467,0.245915,85.521133,TRUE,FALSE,TRUE,TRUE,FALSE,TRUE,PID,-0.003125,2.071875,-8.501875,TRUE,-1.782623,0.150284,0.000000,-0.908005,0.051651,0.000000,0.071000,0.017000,0.020000,1.730000,-6.450000,-1.100000,-6.999743,Hold,55.838867,50.000000,Hold,-71770.000000,71680.000000,LowGoal,3195.000000,-3272.727273,Speed,3180.000000,-3272.727273,Speed,Off,Off,0.000000,FALSE,45,Read: /home/lvuser/scripts/auto_45.bee,File good!,SEARCH_FOR_GOAL,SEARCH_FOR_GOAL,0.000000,0.000000,-0.053125
11:11:28.641 AM 04/29/2016,Autonomous Enabled,9,FALSE,0,NO ERROR,0.230303,-85.129718,0.230303,85.822716,TRUE,FALSE,TRUE,TRUE,FALSE,TRUE,PID,-0.003125,2.071875,-8.501875,TRUE,-1.836807,0.152161,0.000000,-0.911057,0.028000,0.000000,0.017000,-0.166000,0.010000,1.710000,-6.430000,-1.060000,-6.992937,Hold,55.838867,50.000000,Hold,-71770.000000,71680.000000,LowGoal,3195.000000,-3272.727273,Speed,3180.000000,-3272.727273,Speed,Off,Off,0.000000,FALSE,45,Read: /home/lvuser/scripts/auto_45.bee,File good!,SEARCH_FOR_GOAL,SEARCH_FOR_GOAL,0.000000,0.000000,-0.053125
11:11:28.742 AM 04/29/2016,Autonomous Enabled,10,FALSE,0,NO ERROR,0.000000,-84.462386,-0.000000,86.445131,TRUE,FALSE,TRUE,TRUE,FALSE,TRUE,Suspended,-0.003125,2.071875,-8.501875,TRUE,-1.883224,0.149887,0.000000,-0.918854,-0.056335,0.000000,0.066000,0.018000,0.082000,1.440000,-8.250000,-1.170000,-8.778224,Hold,55.838867,50.000000,Hold,-71770.000000,71680.000000,LowGoal,3187.500000,-3272.727273,Speed,3172.500000,-3272.727273,Speed,Off,Off,0.000000,FALSE,45,Read: /home/lvuser/scripts/auto_45.bee,File good!,SEARCH_FOR_GOAL,SEARCH_FOR_GOAL,0.000000,0.000000,-0.053125
11:11:28.842 AM 04/29/2016,Autonomous Enabled,9,FALSE,0,NO ERROR,0.000000,-84.224970,-0.000000,86.663297,TRUE,FALSE,TRUE,TRUE,FALSE,TRUE,Suspended,-0.003125,2.071875,-8.501875,TRUE,-1.926987,0.148132,0.000000,-0.834534,0.006485,0.000000,0.039000,-0.081000,-0.039000,1.680000,-10.000000,-0.690000,-10.723176,Hold,55.838867,50.000000,Hold,-71770.000000,71680.000000,LowGoal,3187.500000,-3272.727273,Speed,3180.000000,-3272.727273,Speed,Off,Off,0.000000,FALSE,45,Read: /home/lvuser/scripts/auto_45.bee,File good!,SEARCH_FOR_GOAL,SEARCH_FOR_GOAL,0.000000,0.000000,-0.053125
11:11:28.943 AM 04/29/2016,Autonomous Enabled,9,FALSE,0,NO ERROR,0.000000,-84.391803,-0.000000,86.438715,TRUE,FALSE,TRUE,TRUE,FALSE,TRUE,Suspended,-0.003125,2.071875,-8.501875,TRUE,-1.968033,0.148575,0.000000,-0.835938,-0.004044,0.000000,0.032000,0.114000,-0.057000,1.710000,-8.980000,-0.660000,-9.726872,Hold,55.838867,50.000000,Hold,-71770.000000,71680.000000,LowGoal,3187.500000,-3272.727273,Speed,3187.500000,-3272.727273,Speed,Off,Off,0.000000,FALSE,45,Read: /home/lvuser/scripts/auto_45.bee,File good!,SEARCH_FOR_GOAL,SEARCH_FOR_GOAL,0.000000,0.000000,-0.053125
11:11:29.044 AM 04/29/2016,Autonomous Enabled,11,FALSE,0,NO ERROR,0.000000,-84.398219,-0.000000,86.432298,TRUE,FALSE,TRUE,TRUE,FALSE,TRUE,Suspended,-0.003125,2.071875,-8.501875,TRUE,-1.993149,0.148499,0.000000,-0.005371,-0.013947,0.000000,-0.040000,-0.070000,-0.146000,1.630000,-8.890000,-0.720000,-9.619389,Hold,55.838867,50.000000,Hold,-71770.000000,71680.000000,LowGoal,3202.500000,-3272.727273,Speed,3187.500000,-3272.727273,Speed,Off,Off,0.000000,FALSE,45,Read: /home/lvuser/scripts/auto_45.bee,File good!,SEARCH_FOR_GOAL,SEARCH_FOR_GOAL,0.000000,0.000000,-0.053125
11:11:29.146 AM 04/29/2016,Autonomous Enabled,11,FALSE,0,NO ERROR,0.000000,-84.398219,-0.000000,86.425881,TRUE,FALSE,TRUE,TRUE,FALSE,TRUE,Suspended,-0.003125,2.071875,-8.501875,TRUE,-1.993698,0.146408,0.000000,-0.024078,-0.060577,0.000000,-0.100000,-0.104000,0.083000,1.650000,-8.890000,-0.650000,-9.638185,Hold,55.838867,50.000000,Hold,-71770.000000,71680.000000,LowGoal,3195.000000,-3272.727273,Speed,3187.500000,-3272.727273,Speed,Off,Off,0.000000,FALSE,45,Read: /home/lvuser/scripts/auto_45.bee,File good!,SEARCH_FOR_GOAL,SEARCH_FOR_GOAL,0.000000,0.000000,-0.053125
11:11:29.246 AM 04/29/2016,Autonomous Enabled,9,FALSE,0,NO ERROR,0.000000,-84.398219,-0.000000,86.425881,TRUE,FALSE,TRUE,TRUE,FALSE,TRUE,Suspended,-0.003125,2.071875,-8.501875,TRUE,-1.994919,0.143265,0.000000,-0.018005,-0.047104,0.000000,0.062000,0.214000,-0.027000,1.620000,-8.890000,-0.610000,-9.694808,Hold,55.838867,50.000000,Hold,-71770.000000,71680.000000,LowGoal,3202.500000,-3272.727273,Speed,3187.500000,-3272.727273,Speed,Off,Off,0.000000,FALSE,45,Read: /home/lvuser/scripts/auto_45.bee,File good!,SEARCH_FOR_GOAL,SEARCH_FOR_GOAL,0.000000,0.000000,-0.053125
11:11:29.347 AM 04/29/2016,Autonomous Enabled,10,FALSE,0,NO ERROR,0.000000,-84.398219,-0.000000,86.425881,TRUE,FALSE,TRUE,TRUE,FALSE,TRUE,Suspended,-0.003125,2.071875,-8.501875,TRUE,-1.994690,0.141449,0.000000,0.018219,-0.038376,0.000000,0.054000,-0.045000,0.053000,1.630000,-8.900000,-0.560000,-9.733241,Hold,55.838867,50.000000,Hold,-71770.000000,71680.000000,LowGoal,3195.000000,-3272.727273,Speed,3187.500000,-3272.727273,Speed,Off,Off,0.000000,FALSE,45,Read: /home/lvuser/scripts/auto_45.bee,File good!,SEARCH_FOR_GOAL,SEARCH_FOR_GOAL,0.000000,0.000000,-0.053125
11:11:29.447 AM 04/29/2016,Autonomous Enabled,9,FALSE,0,NO ERROR,0.000000,-84.398219,-0.000000,86.425881,TRUE,FALSE,TRUE,TRUE,FALSE,TRUE,Suspended,0.062500,2.071875,-8.501875,TRUE,-1.994186,0.138702,0.000000,-0.007599,-0.064301,0.000000,-0.069000,-0.048000,0.112000,1.590000,-8.890000,-0.550000,-9.746027,Hold,55.838867,50.000000,Hold,-71770.000000,71680.000000,LowGoal,3202.500000,-3272.727273,Speed,3195.000000,-3272.727273,Speed,Off,Off,0.000000,FALSE,45,Read: /home/lvuser/scripts/auto_45.bee,File good!,SEARCH_FOR_GOAL,SEARCH_FOR_GOAL,0.000000,0.000000,0.012500
11:11:29.549 AM 04/29/2016,Autonomous Enabled,10,FALSE,0,NO ERROR,0.000000,-84.398219,-0.000000,86.425881,TRUE,FALSE,TRUE,TRUE,FALSE,TRUE,Suspended,0.062500,-0.487500,-8.402500,TRUE,-1.993774,0.135941,0.000000,0.026749,-0.030655,0.000000,0.033000,-0.125000,0.228000,1.610000,-8.890000,-0.480000,-9.741431,Hold,55.838867,50.000000,Hold,-71770.000000,71680.000000,LowGoal,3202.500000,-3272.727273,Speed,3187.500000,-3272.727273,Speed,Off,Off,0.000000,FALSE,45,Read: /home/lvuser/scripts/auto_45.bee,File good!,SEARCH_FOR_GOAL,SEARCH_FOR_GOAL,0.000000,0.000000,0.012500
11:11:29.650 AM 04/29/2016,Autonomous Enabled,10,FALSE,0,NO ERROR,0.000000,-84.398219,-0.000000,86.425881,TRUE,FALSE,TRUE,TRUE,FALSE,TRUE,Suspended,0.062500,-0.487500,-8.402500,TRUE,-1.990936,0.134369,0.000000,0.068573,-0.043793,0.000000,-0.126000,-0.031000,-0.024000,1.550000,-8.890000,-0.430000,-9.772958,Hold,55.838867,50.000000,Hold,-71770.000000,71680.000000,Shoot,3195.000000,-3272.727273,Speed,3187.500000,-3272.727273,Speed,Off,Off,0.000000,FALSE,45,Read: /home/lvuser/scripts/auto_45.bee,File good!,SEARCH_FOR_GOAL,SEARCH_FOR_GOAL,0.000000,0.000000,0.012500
11:11:29.750 AM 04/29/2016,Autonomous Enabled,11,FALSE,0,NO ERROR,0.000000,-84.398219,-0.000000,86.425881,TRUE,FALSE,TRUE,TRUE,FALSE,TRUE,Suspended,0.062500,-0.487500,-8.402500,TRUE,-1.988998,0.131332,0.000000,0.020935,-0.067322,0.000000,0.012000,0.268000,-0.123000,1.560000,-8.900000,-0.420000,-9.796777,Hold,55.838867,50.000000,Hold,-71770.000000,71680.000000,Shoot,3202.500000,-3272.727273,Speed,3187.500000,-3272.727273,Speed,Off,On,0.000000,FALSE,45,Read: /home/lvuser/scripts/auto_45.bee,File good!,SEARCH_FOR_GOAL,SEARCH_FOR_GOAL,0.000000,0.000000,0.012500
