Time,Robot Mode,Loop Time,Error Status,Error Code,Error Source,Left Motor Output,Left Motor Encoder,Right Motor Output,Right Motor Encoder,Is Level,Is Stalled,Ball Detector Photoeye,Vision Enabled,Vision Teleop Control,Vision Auto Control,Vision Current State,Vision X Output,Vision NavX Error,Vision NavX Target,NavX Connection Status,NavX Displacement X,NavX Displacement Y,NavX Displacement Z,NavX Velocity X,NavX Velocity Y,NavX Velocity Z,NavX Acceleration X,NavX Acceleration Y,NavX Acceleration Z,NavX Pitch,NavX Yaw,NavX Roll,Gyro Angle,Roller Arm State,Roller Arm Actual,Roller Arm Desired,Shooter Arm State,Shooter Arm Actual,Shooter Arm Desired,Shooter State,Actual RPM Left,Desired RPM Left,Control Mode Left,Actual RPM Right,Desired RPM Right,Control Mode Right,Ball Shooter Cylinder,Ball Halo Cylinder,Scaler Motor Output,Scaler Solenoid Fire,Auto To Run,Auto Current File,Auto File Status,Auto Current Command,Auto Trimmed Command,Shooter Amps Left,Shooter Amps Right, Vision After Offset
04:30:09.328 PM 04/29/2016,Teleop Enabled,9,TRUE,-44003,<LOCATION>WPI_CameraIssue HTTP Request with Authentication.vi<CALLSTACK>WPI_CameraIssue HTTP Request with Authentication.vi< <WPI_CameraIssue Get.vi< <WPI_CameraSet Image Appearance Property.vi< <WPI_CameraSet Image Size.vi< <Vision Processing.vi< <Robot Main.vi,-0.000000,-0.006417,-0.000000,0.000000,TRUE,FALSE,FALSE,FALSE,FALSE,FALSE,Disabled,0.000000,0.000000,0.000000,TRUE,0.000198,0.000214,0.000000,0.000000,0.000000,0.000000,0.000000,-0.002000,-0.003000,1.810000,0.130000,-0.110000,0.116321,ResetBack,-58.206787,-0.000049,ResetBack,111963.000000,-0.250000,Suck,0.000000,1818.181818,Speed,0.000000,1818.181818,Speed,Off,On,0.000000,FALSE,0,,,,,0.000000,0.000000,-0.050000
04:30:09.428 PM 04/29/2016,Teleop Enabled,8,FALSE,0,NO ERROR,-0.000000,0.044917,-0.000000,-0.179666,TRUE,FALSE,FALSE,FALSE,FALSE,FALSE,Disabled,0.000000,0.000000,0.000000,TRUE,0.000076,0.000259,0.000000,-0.012238,0.005127,0.000000,0.073000,-0.031000,0.000000,1.770000,0.170000,0.040000,0.096219,ResetBack,-58.521240,-0.000049,ResetBack,113699.000000,-0.250000,Suck,-30.000000,1818.181818,Speed,-30.000000,1818.181818,Speed,Off,On,0.000000,FALSE,0,,,,,0.000000,0.000000,-0.050000
04:30:09.528 PM 04/29/2016,Teleop Enabled,9,FALSE,0,NO ERROR,-0.000000,0.019250,-0.000000,-0.147583,TRUE,FALSE,FALSE,FALSE,FALSE,FALSE,Disabled,0.000000,0.000000,0.000000,TRUE,0.001709,-0.000717,0.000000,0.034836,-0.022964,0.000000,-0.013000,-0.051000,-0.006000,1.750000,0.160000,0.040000,0.084270,ResetBack,-59.921875,-0.000049,ResetBack,120660.000000,-0.250000,Suck,-517.500000,1818.181818,Speed,-577.500000,1818.181818,Speed,Off,On,0.000000,FALSE,0,,,,,0.000000,0.000000,-0.050000
04:30:09.629 PM 04/29/2016,Teleop Enabled,7,FALSE,0,NO ERROR,-0.000000,0.032083,-0.000000,-0.147583,TRUE,FALSE,FALSE,FALSE,FALSE,FALSE,Disabled,0.000000,0.000000,0.000000,TRUE,0.003220,-0.002563,0.000000,0.019485,-0.042236,0.000000,-0.033000,0.036000,-0.002000,1.730000,0.160000,0.010000,0.079826,Reset,-60.067627,-0.000049,ResetBack,129434.000000,-0.250000,Suck,-1147.500000,1818.181818,Speed,-1305.000000,1818.181818,Speed,Off,On,0.000000,FALSE,0,,,,,0.000000,0.000000,-0.050000
04:30:09.731 PM 04/29/2016,Teleop Enabled,9,FALSE,0,NO ERROR,-0.000000,0.089833,-0.000000,-0.147583,TRUE,FALSE,FALSE,FALSE,FALSE,FALSE,Disabled,0.000000,0.000000,0.000000,TRUE,0.003952,-0.003510,0.000000,0.029587,-0.003571,0.000000,-0.063000,-0.053000,-0.139000,1.740000,0.150000,0.070000,0.088711,Hold,-60.088867,0.000000,ResetBack,137935.000000,-0.250000,Suck,-1687.500000,1818.181818,Speed,-1845.000000,1818.181818,Speed,Off,On,0.000000,FALSE,0,,,,,0.000000,0.000000,-0.050000
04:30:09.835 PM 04/29/2016,Teleop Enabled,12,FALSE,0,NO ERROR,-0.000000,0.096250,-0.000000,-0.147583,TRUE,FALSE,FALSE,FALSE,FALSE,FALSE,Disabled,0.000000,0.000000,0.000000,TRUE,0.005707,-0.003922,0.000000,0.040329,0.000000,0.000000,0.049000,-0.001000,0.026000,1.720000,0.160000,0.220000,0.106465,Hold,0.408203,0.000000,ResetBack,137935.000000,-0.250000,Suck,-1912.500000,1818.181818,Speed,-1875.000000,1818.181818,Speed,Off,On,0.000000,FALSE,0,,,,,0.000000,0.000000,-0.050000
04:30:09.937 PM 04/29/2016,Teleop Enabled,12,FALSE,0,NO ERROR,-0.000000,0.096250,-0.000000,-0.147583,TRUE,FALSE,FALSE,FALSE,FALSE,FALSE,Disabled,0.000000,0.000000,0.000000,TRUE,0.008224,-0.004501,0.000000,0.051971,-0.014267,0.000000,-0.005000,0.023000,0.029000,1.740000,0.160000,0.160000,0.084270,Hold,0.408936,0.000000,ResetBack,143734.000000,-0.250000,Suck,-1860.000000,1818.181818,Speed,-1755.000000,1818.181818,Speed,Off,On,0.000000,FALSE,0,,,,,0.000000,0.000000,-0.050000
04:30:10.037 PM 04/29/2016,Teleop Enabled,12,FALSE,0,NO ERROR,-0.000000,0.096250,-0.000000,-0.147583,TRUE,FALSE,FALSE,FALSE,FALSE,FALSE,Disabled,0.000000,0.000000,0.000000,TRUE,0.009918,-0.005066,0.000000,0.016525,-0.009140,0.000000,-0.002000,-0.048000,-0.029000,1.760000,0.140000,0.020000,0.078377,Hold,0.408936,0.000000,ResetBack,145629.000000,-0.250000,Suck,-1792.500000,1818.181818,Speed,-1710.000000,1818.181818,Speed,Off,On,0.000000,FALSE,0,,,,,0.000000,0.000000,-0.050000
04:30:10.140 PM 04/29/2016,Teleop Enabled,10,FALSE,0,NO ERROR,-0.000000,0.096250,-0.000000,-0.147583,TRUE,FALSE,FALSE,FALSE,FALSE,FALSE,Disabled,0.000000,0.000000,0.000000,TRUE,0.010010,-0.005447,0.000000,-0.003021,-0.005981,0.000000,0.015000,-0.092000,-0.026000,1.790000,0.140000,0.050000,0.078728,Hold,0.408936,0.000000,ResetBack,146183.000000,-0.250000,Suck,-1770.000000,1818.181818,Speed,-1740.000000,1818.181818,Speed,Off,On,0.000000,FALSE,0,,,,,0.000000,0.000000,-0.050000
04:30:10.241 PM 04/29/2016,Teleop Enabled,13,FALSE,0,NO ERROR,-0.000000,0.096250,-0.000000,-0.147583,TRUE,FALSE,FALSE,FALSE,FALSE,FALSE,Disabled,0.000000,0.000000,0.000000,TRUE,0.009811,-0.005524,0.000000,-0.014206,0.008026,0.000000,-0.017000,-0.026000,0.050000,1.830000,0.150000,-0.010000,0.099562,Hold,0.408936,0.000000,ResetBack,146257.000000,-0.250000,Suck,-1777.500000,1818.181818,Speed,-1770.000000,1818.181818,Speed,Off,On,0.000000,FALSE,0,,,,,0.000000,0.000000,-0.050000
04:30:10.340 PM 04/29/2016,Teleop Enabled,10,FALSE,0,NO ERROR,-0.000000,0.096250,-0.000000,-0.147583,TRUE,FALSE,FALSE,FALSE,FALSE,FALSE,Disabled,0.000000,0.000000,0.000000,TRUE,0.009659,-0.005112,0.000000,0.003418,0.010223,0.000000,0.012000,0.018000,0.024000,1.830000,0.150000,-0.010000,0.095886,Hold,0.408936,0.000000,ResetBack,146262.000000,-0.250000,Suck,-1792.500000,1818.181818,Speed,-1755.000000,1818.181818,Speed,Off,On,0.000000,FALSE,0,,,,,0.000000,0.000000,-0.050000
04:30:10.442 PM 04/29/2016,Teleop Enabled,11,FALSE,0,NO ERROR,-0.000000,0.096250,-0.000000,-0.147583,TRUE,FALSE,FALSE,FALSE,FALSE,FALSE,Disabled,0.000000,0.000000,0.000000,TRUE,0.009827,-0.004593,0.000000,0.000000,0.008408,0.000000,0.034000,-0.034000,0.045000,1.820000,0.150000,0.000000,0.110289,Hold,0.408936,0.000000,ResetBack,146269.000000,-0.250000,Suck,-1792.500000,1818.181818,Speed,-1755.000000,1818.181818,Speed,Off,On,0.000000,FALSE,0,,,,,0.000000,0.000000,-0.050000
04:30:10.542 PM 04/29/2016,Teleop Enabled,9,FALSE,0,NO ERROR,-0.000000,0.096250,-0.000000,-0.147583,TRUE,FALSE,FALSE,FALSE,FALSE,FALSE,Disabled,0.000000,0.000000,0.000000,TRUE,0.010498,-0.004242,0.000000,0.017990,0.006958,0.000000,0.041000,0.031000,0.024000,1.800000,0.150000,0.110000,0.113935,Hold,0.408936,0.000000,Reset,146269.000000,2.000000,Suck,-1792.500000,1818.181818,Speed,-1755.000000,1818.181818,Speed,Off,On,0.000000,FALSE,0,,,,,0.000000,0.000000,-0.050000
04:30:10.641 PM 04/29/2016,Teleop Enabled,9,FALSE,0,NO ERROR,-0.000000,0.096250,-0.000000,-0.147583,TRUE,FALSE,FALSE,FALSE,FALSE,FALSE,Disabled,0.000000,0.000000,0.000000,TRUE,0.011963,-0.003922,0.000000,0.031235,0.007034,0.000000,0.020000,-0.004000,0.000000,1.790000,0.150000,0.160000,0.118775,Hold,0.408936,0.000000,Hold,-182.000000,2.000000,Suck,-1792.500000,1818.181818,Speed,-1755.000000,1818.181818,Speed,Off,On,0.000000,FALSE,0,,,,,0.000000,0.000000,-0.050000
04:30:10.742 PM 04/29/2016,Teleop Enabled,11,FALSE,0,NO ERROR,-0.000000,0.096250,-0.000000,-0.147583,TRUE,FALSE,FALSE,FALSE,FALSE,FALSE,Disabled,0.000000,0.000000,0.000000,TRUE,0.013947,-0.003708,0.000000,0.039276,0.012878,0.000000,-0.067000,-0.063000,0.037000,1.810000,0.150000,0.140000,0.117298,Hold,0.408936,0.000000,Hold,-182.000000,2.000000,Suck,-1792.500000,1818.181818,Speed,-1755.000000,1818.181818,Speed,Off,On,0.000000,FALSE,0,,,,,0.000000,0.000000,-0.050000
04:30:10.843 PM 04/29/2016,Teleop Enabled,9,FALSE,0,NO ERROR,-0.000000,0.096250,-0.000000,-0.147583,TRUE,FALSE,FALSE,FALSE,FALSE,FALSE,Disabled,0.000000,0.000000,0.000000,TRUE,0.015259,-0.003235,0.000000,0.019760,0.008926,0.000000,-0.004000,-0.002000,0.010000,1.820000,0.150000,0.020000,0.106409,Hold,0.408936,0.000000,Hold,-182.000000,2.000000,Suck,-1792.500000,1818.181818,Speed,-1755.000000,1818.181818,Speed,Off,On,0.000000,FALSE,0,,,,,0.000000,0.000000,-0.050000
04:30:10.943 PM 04/29/2016,Teleop Enabled,9,FALSE,0,NO ERROR,-0.000000,0.096250,-0.000000,-0.147583,TRUE,FALSE,FALSE,FALSE,FALSE,FALSE,Disabled,0.000000,0.000000,0.000000,TRUE,0.016235,-0.002640,0.000000,0.023438,0.003174,0.000000,-0.020000,-0.003000,-0.029000,1.820000,0.150000,0.020000,0.100037,Hold,0.408936,0.000000,Hold,-182.000000,2.000000,Suck,-1792.500000,1818.181818,Speed,-1762.500000,1818.181818,Speed,Off,On,0.000000,FALSE,0,,,,,0.000000,0.000000,-0.050000
04:30:11.044 PM 04/29/2016,Teleop Enabled,11,FALSE,0,NO ERROR,-0.000000,0.096250,-0.000000,-0.147583,TRUE,FALSE,FALSE,FALSE,FALSE,FALSE,Disabled,0.000000,0.000000,0.000000,TRUE,0.016968,-0.002625,0.000000,0.025787,0.002548,0.000000,-0.022000,0.041000,-0.009000,1.810000,0.140000,0.060000,0.090649,Hold,0.408936,0.000000,Hold,-182.000000,2.000000,Suck,-1792.500000,1818.181818,Speed,-1762.500000,1818.181818,Speed,Off,On,0.000000,FALSE,0,,,,,0.000000,0.000000,-0.050000
04:30:11.145 PM 04/29/2016,Teleop Enabled,8,FALSE,0,NO ERROR,-0.000000,0.096250,-0.000000,-0.147583,TRUE,FALSE,FALSE,FALSE,FALSE,FALSE,Disabled,0.000000,0.000000,0.000000,TRUE,0.018417,-0.002396,0.000000,0.031219,0.003326,0.000000,0.017000,-0.031000,-0.049000,1.800000,0.140000,0.130000,0.084535,Hold,0.408936,0.000000,Hold,-182.000000,2.000000,Suck,-1792.500000,1818.181818,Speed,-1762.500000,1818.181818,Speed,Off,On,0.000000,FALSE,0,,,,,0.000000,0.000000,-0.050000
04:30:11.245 PM 04/29/2016,Teleop Enabled,10,FALSE,0,NO ERROR,-0.000000,0.096250,-0.000000,-0.147583,TRUE,FALSE,FALSE,FALSE,FALSE,FALSE,Disabled,0.000000,0.000000,0.000000,TRUE,0.019791,-0.002258,0.000000,0.019821,0.000183,0.000000,0.017000,-0.019000,0.014000,1.820000,0.140000,0.050000,0.086646,Hold,0.408936,0.000000,Hold,-182.000000,2.000000,Suck,-1792.500000,1818.181818,Speed,-1762.500000,1818.181818,Speed,Off,On,0.000000,FALSE,0,,,,,0.000000,0.000000,-0.050000
04:30:11.346 PM 04/29/2016,Teleop Enabled,9,FALSE,0,NO ERROR,-0.000000,0.096250,-0.000000,-0.147583,TRUE,FALSE,FALSE,FALSE,FALSE,FALSE,Disabled,0.000000,0.000000,0.000000,TRUE,0.020432,-0.002258,0.000000,0.004868,-0.002945,0.000000,-0.013000,0.014000,0.009000,1.830000,0.140000,0.000000,0.083362,Hold,0.408936,0.000000,Hold,-182.000000,2.000000,Suck,-1792.500000,1818.181818,Speed,-1762.500000,1818.181818,Speed,Off,On,0.000000,FALSE,0,,,,,0.000000,0.000000,-0.050000
04:30:11.447 PM 04/29/2016,Teleop Enabled,11,FALSE,0,NO ERROR,-0.000000,0.096250,-0.000000,-0.147583,TRUE,FALSE,FALSE,FALSE,FALSE,FALSE,Disabled,0.000000,0.000000,0.000000,TRUE,0.020477,-0.002487,0.000000,0.007111,-0.006210,0.000000,0.012000,0.000000,-0.037000,1.790000,0.140000,0.030000,0.094498,Hold,0.408936,0.000000,Hold,-182.000000,2.000000,Suck,-1792.500000,1818.181818,Speed,-1762.500000,1818.181818,Speed,Off,On,0.000000,FALSE,0,,,,,0.000000,0.000000,-0.050000
04:30:11.547 PM 04/29/2016,Teleop Enabled,12,FALSE,0,NO ERROR,-0.000000,0.096250,-0.000000,-0.147583,TRUE,FALSE,FALSE,FALSE,FALSE,FALSE,Disabled,0.000000,0.000000,0.000000,TRUE,0.020676,-0.002884,0.000000,0.007446,0.000076,0.000000,-0.046000,-0.045000,-0.046000,1.800000,0.140000,0.120000,0.091514,Hold,0.408936,0.000000,Hold,-182.000000,2.000000,Suck,-1792.500000,1818.181818,Speed,-1762.500000,1818.181818,Speed,Off,On,0.000000,FALSE,0,,,,,0.000000,0.000000,-0.050000
04:30:11.648 PM 04/29/2016,Teleop Enabled,9,FALSE,0,NO ERROR,-0.000000,0.096250,-0.000000,-0.147583,TRUE,FALSE,FALSE,FALSE,FALSE,FALSE,Disabled,0.000000,0.000000,0.000000,TRUE,0.020432,-0.002823,0.000000,-0.008789,0.000519,0.000000,0.015000,0.013000,-0.011000,1.790000,0.140000,0.050000,0.079867,Hold,0.408936,0.000000,Hold,-182.000000,2.000000,Suck,-1792.500000,1818.181818,Speed,-1762.500000,1818.181818,Speed,Off,On,0.000000,FALSE,0,,,,,0.000000,0.000000,-0.050000
04:30:11.749 PM 04/29/2016,Teleop Enabled,8,FALSE,0,NO ERROR,-0.000000,0.096250,-0.000000,-0.147583,TRUE,FALSE,FALSE,FALSE,FALSE,FALSE,Disabled,0.000000,0.000000,0.000000,TRUE,0.019653,-0.002716,0.000000,-0.021957,0.009857,0.000000,0.020000,-0.097000,-0.016000,1.830000,0.140000,-0.010000,0.072696,Hold,0.408936,0.000000,Hold,-182.000000,2.000000,Suck,-1792.500000,1818.181818,Speed,-1762.500000,1818.181818,Speed,Off,On,0.000000,FALSE,0,,,,,0.000000,0.000000,-0.050000
04:30:11.851 PM 04/29/2016,Teleop Enabled,8,FALSE,0,NO ERROR,-0.000000,0.096250,-0.000000,-0.147583,TRUE,FALSE,FALSE,FALSE,FALSE,FALSE,Disabled,0.000000,0.000000,0.000000,TRUE,0.019363,-0.002563,0.000000,0.008301,0.000320,0.000000,0.000000,0.008000,-0.035000,1.800000,0.140000,0.110000,0.068125,Hold,0.408936,0.000000,Hold,-182.000000,2.000000,Suck,-1800.000000,1818.181818,Speed,-1770.000000,1818.181818,Speed,Off,On,0.000000,FALSE,0,,,,,0.000000,0.000000,-0.050000
04:30:11.953 PM 04/29/2016,Teleop Enabled,11,FALSE,0,NO ERROR,-0.000000,0.096250,-0.000000,-0.147583,TRUE,FALSE,FALSE,FALSE,FALSE,FALSE,Disabled,0.000000,0.000000,0.000000,TRUE,0.019897,-0.002472,0.000000,0.016556,-0.004776,0.000000,-0.040000,0.051000,-0.046000,1.790000,0.140000,0.130000,0.073833,Hold,0.408936,0.000000,Hold,-182.000000,2.000000,Suck,-1792.500000,1818.181818,Speed,-1762.500000,1818.181818,Speed,Off,On,0.000000,FALSE,0,,,,,0.000000,0.000000,-0.050000
04:30:12.055 PM 04/29/2016,Teleop Enabled,9,FALSE,0,NO ERROR,-0.000000,0.096250,-0.000000,-0.147583,TRUE,FALSE,FALSE,FALSE,FALSE,FALSE,Disabled,0.000000,0.000000,0.000000,TRUE,0.019852,-0.002335,0.000000,-0.014801,-0.000473,0.000000,-0.041000,0.038000,-0.027000,1.840000,0.140000,0.000000,0.055336,Hold,0.408936,0.000000,Hold,-182.000000,2.000000,Suck,-1792.500000,1818.181818,Speed,-1762.500000,1818.181818,Speed,Off,On,0.000000,FALSE,0,,,,,0.000000,0.000000,-0.050000
04:30:12.156 PM 04/29/2016,Teleop Enabled,11,FALSE,0,NO ERROR,-0.000000,0.096250,-0.000000,-0.147583,TRUE,FALSE,FALSE,FALSE,FALSE,FALSE,Disabled,0.000000,0.000000,0.000000,TRUE,0.018402,-0.002151,0.000000,-0.037140,0.003265,0.000000,0.045000,-0.020000,0.000000,1.840000,0.140000,0.000000,0.056702,Hold,0.408936,0.000000,Hold,-182.000000,2.000000,Suck,-1800.000000,1818.181818,Speed,-1762.500000,1818.181818,Speed,Off,On,0.000000,FALSE,0,,,,,0.000000,0.000000,-0.050000
04:30:12.257 PM 04/29/2016,Teleop Enabled,11,FALSE,0,NO ERROR,-0.000000,0.096250,-0.000000,-0.147583,TRUE,FALSE,FALSE,FALSE,FALSE,FALSE,Disabled,0.000000,0.000000,0.000000,TRUE,0.016724,-0.002182,0.000000,-0.023651,-0.005005,0.000000,0.015000,-0.029000,-0.051000,1.830000,0.140000,-0.020000,0.061092,Hold,0.408936,0.000000,Hold,-182.000000,2.000000,Suck,-1792.500000,1818.181818,Speed,-1762.500000,1818.181818,Speed,Off,On,0.000000,FALSE,0,,,,,0.000000,0.000000,-0.050000
04:30:12.356 PM 04/29/2016,Teleop Enabled,9,FALSE,0,NO ERROR,-0.000000,0.096250,-0.000000,-0.147583,TRUE,FALSE,FALSE,FALSE,FALSE,FALSE,Disabled,0.000000,0.000000,0.000000,TRUE,0.016479,-0.002396,0.000000,-0.006317,-0.008499,0.000000,-0.048000,-0.016000,-0.004000,1.830000,0.140000,0.070000,0.059257,Hold,0.408936,0.000000,Hold,-182.000000,2.000000,Suck,-1792.500000,1818.181818,Speed,-1770.000000,1818.181818,Speed,Off,On,0.000000,FALSE,0,,,,,0.000000,0.000000,-0.050000
04:30:12.458 PM 04/29/2016,Teleop Enabled,12,FALSE,0,NO ERROR,-0.000000,0.096250,-0.000000,-0.147583,TRUE,FALSE,FALSE,FALSE,FALSE,FALSE,Disabled,0.000000,0.000000,0.000000,TRUE,0.015991,-0.002457,0.000000,-0.011581,-0.005981,0.000000,-0.034000,-0.068000,0.027000,1.850000,0.140000,0.030000,0.047191,Hold,0.408936,0.000000,Hold,-182.000000,2.000000,Suck,-1800.000000,1818.181818,Speed,-1762.500000,1818.181818,Speed,Off,On,0.000000,FALSE,0,,,,,0.000000,0.000000,-0.050000
04:30:12.558 PM 04/29/2016,Teleop Enabled,9,FALSE,0,NO ERROR,-0.000000,0.096250,-0.000000,-0.147583,TRUE,FALSE,FALSE,FALSE,FALSE,FALSE,Disabled,0.000000,0.000000,0.000000,TRUE,0.015732,-0.002930,0.000000,-0.000595,-0.008850,0.000000,-0.034000,-0.068000,0.027000,1.830000,0.140000,-0.020000,0.077086,Hold,0.408936,0.000000,Hold,-182.000000,2.000000,Suck,-1792.500000,1818.181818,Speed,-1770.000000,1818.181818,Speed,Off,On,0.000000,FALSE,0,,,,,0.000000,0.000000,-0.050000
04:30:12.658 PM 04/29/2016,Teleop Enabled,12,FALSE,0,NO ERROR,-0.000000,0.096250,-0.000000,-0.147583,TRUE,FALSE,FALSE,FALSE,FALSE,FALSE,Disabled,0.000000,0.000000,0.000000,TRUE,0.015930,-0.003586,0.000000,0.000000,-0.011353,0.000000,0.054000,0.020000,-0.001000,1.820000,0.140000,0.020000,0.079172,Hold,0.408936,0.000000,Hold,-182.000000,2.000000,Suck,-1792.500000,1818.181818,Speed,-1770.000000,1818.181818,Speed,Off,On,0.000000,FALSE,0,,,,,0.000000,0.000000,-0.050000
04:30:12.758 PM 04/29/2016,Teleop Enabled,9,FALSE,0,NO ERROR,-0.000000,0.096250,-0.000000,-0.147583,TRUE,FALSE,FALSE,FALSE,FALSE,FALSE,Disabled,0.000000,0.000000,0.000000,TRUE,0.014801,-0.004211,0.000000,-0.035248,-0.011917,0.000000,-0.050000,-0.079000,-0.005000,1.820000,0.140000,0.020000,0.081265,Hold,0.408936,0.000000,Hold,-182.000000,2.000000,Suck,-1792.500000,1818.181818,Speed,-1770.000000,1818.181818,Speed,Off,On,0.000000,FALSE,0,,,,,0.000000,0.000000,-0.050000
04:30:12.858 PM 04/29/2016,Teleop Enabled,11,FALSE,0,NO ERROR,-0.000000,0.096250,-0.000000,-0.147583,TRUE,FALSE,FALSE,FALSE,FALSE,FALSE,Disabled,0.000000,0.000000,0.000000,TRUE,0.012573,-0.005051,0.000000,-0.049377,-0.024170,0.000000,-0.026000,-0.039000,-0.001000,1.860000,0.150000,-0.100000,0.098536,Hold,0.408936,0.000000,Hold,-182.000000,2.000000,Suck,-1800.000000,1818.181818,Speed,-1770.000000,1818.181818,Speed,Off,On,0.000000,FALSE,0,,,,,0.000000,0.000000,-0.050000
04:30:12.961 PM 04/29/2016,Teleop Enabled,9,FALSE,0,NO ERROR,-0.000000,0.096250,-0.000000,-0.147583,TRUE,FALSE,FALSE,FALSE,FALSE,FALSE,Disabled,0.000000,0.000000,0.000000,TRUE,0.011093,-0.006226,0.000000,0.000000,-0.025940,0.000000,0.043000,0.070000,0.008000,1.810000,0.140000,-0.010000,0.102840,Hold,0.408936,0.000000,Hold,-182.000000,2.000000,Suck,-1792.500000,1818.181818,Speed,-1762.500000,1818.181818,Speed,Off,On,0.000000,FALSE,0,,,,,0.000000,0.000000,-0.050000
04:30:13.062 PM 04/29/2016,Teleop Enabled,10,FALSE,0,NO ERROR,-0.000000,0.096250,-0.000000,-0.147583,TRUE,FALSE,FALSE,FALSE,FALSE,FALSE,Disabled,0.000000,0.000000,0.000000,TRUE,0.010880,-0.007217,0.000000,-0.016846,-0.014816,0.000000,0.032000,0.035000,0.030000,1.830000,0.150000,-0.060000,0.109590,Hold,0.408936,0.000000,Hold,-182.000000,2.000000,Suck,-1792.500000,1818.181818,Speed,-1770.000000,1818.181818,Speed,Off,On,0.000000,FALSE,0,,,,,0.000000,0.000000,-0.050000
04:30:13.165 PM 04/29/2016,Teleop Enabled,12,FALSE,0,NO ERROR,-0.000000,0.096250,-0.000000,-0.147583,TRUE,FALSE,FALSE,FALSE,FALSE,FALSE,Disabled,0.000000,0.000000,0.000000,TRUE,0.010300,-0.008087,0.000000,0.001572,-0.019318,0.000000,0.004000,-0.035000,0.013000,1.830000,0.140000,-0.040000,0.104853,Hold,0.408936,0.000000,Hold,-182.000000,2.000000,Suck,-1792.500000,1818.181818,Speed,-1762.500000,1818.181818,Speed,Off,On,0.000000,FALSE,0,,,,,0.000000,0.000000,-0.050000
04:30:13.267 PM 04/29/2016,Teleop Enabled,11,FALSE,0,NO ERROR,-0.000000,0.096250,-0.000000,-0.147583,TRUE,FALSE,FALSE,FALSE,FALSE,FALSE,Disabled,0.000000,0.000000,0.000000,TRUE,0.011398,-0.009445,0.000000,0.027908,-0.033676,0.000000,0.016000,-0.031000,0.050000,1.810000,0.140000,0.060000,0.096071,Hold,0.408936,0.000000,Hold,-182.000000,2.000000,Suck,-1792.500000,1818.181818,Speed,-1770.000000,1818.181818,Speed,Off,On,0.000000,FALSE,0,,,,,0.000000,0.000000,-0.050000
04:30:13.367 PM 04/29/2016,Teleop Enabled,7,FALSE,0,NO ERROR,-0.000000,0.096250,-0.000000,-0.147583,TRUE,FALSE,FALSE,FALSE,FALSE,FALSE,Disabled,0.000000,0.000000,0.000000,TRUE,0.012589,-0.011459,0.000000,0.014526,-0.035233,0.000000,0.016000,-0.031000,0.050000,1.810000,0.140000,0.060000,0.087128,Hold,0.408936,0.000000,Hold,-182.000000,2.000000,Suck,-1800.000000,1818.181818,Speed,-1770.000000,1818.181818,Speed,Off,On,0.000000,FALSE,0,,,,,0.000000,0.000000,-0.050000
04:30:13.469 PM 04/29/2016,Teleop Enabled,13,FALSE,0,NO ERROR,-0.000000,0.096250,-0.000000,-0.147583,TRUE,FALSE,FALSE,FALSE,FALSE,FALSE,Disabled,0.000000,0.000000,0.000000,TRUE,0.012894,-0.013214,0.000000,0.007385,-0.028397,0.000000,-0.027000,0.022000,0.005000,1.840000,0.140000,-0.030000,0.099235,Hold,0.408936,0.000000,Hold,-182.000000,2.000000,Suck,-1800.000000,1818.181818,Speed,-1770.000000,1818.181818,Speed,Off,On,0.000000,FALSE,0,,,,,0.000000,0.000000,-0.050000
04:30:13.570 PM 04/29/2016,Teleop Enabled,10,FALSE,0,NO ERROR,-0.000000,0.096250,-0.000000,-0.147583,TRUE,FALSE,FALSE,FALSE,FALSE,FALSE,Disabled,0.000000,0.000000,0.000000,TRUE,0.013550,-0.015610,0.000000,0.000000,-0.037949,0.000000,-0.043000,-0.065000,0.035000,1.840000,0.140000,-0.030000,0.085190,Hold,0.408936,0.000000,Hold,-182.000000,2.000000,Suck,-1792.500000,1818.181818,Speed,-1770.000000,1818.181818,Speed,Off,On,0.000000,FALSE,0,,,,,0.000000,0.000000,-0.050000
04:30:13.672 PM 04/29/2016,Teleop Enabled,10,FALSE,0,NO ERROR,-0.000000,0.096250,-0.000000,-0.147583,TRUE,FALSE,FALSE,FALSE,FALSE,FALSE,Disabled,0.000000,0.000000,0.000000,TRUE,0.013443,-0.017517,0.000000,-0.012344,-0.030670,0.000000,0.041000,0.015000,0.010000,1.820000,0.140000,0.040000,0.081224,Hold,0.408936,0.000000,Hold,-182.000000,2.000000,Suck,-1800.000000,1818.181818,Speed,-1770.000000,1818.181818,Speed,Off,On,0.000000,FALSE,0,,,,,0.000000,0.000000,-0.050000
04:30:13.775 PM 04/29/2016,Teleop Enabled,12,FALSE,0,NO ERROR,-0.000000,0.096250,-0.000000,-0.147583,TRUE,FALSE,FALSE,FALSE,FALSE,FALSE,Disabled,0.000000,0.000000,0.000000,TRUE,0.012314,-0.019699,0.000000,-0.017624,-0.047485,0.000000,-0.070000,-0.099000,0.030000,1.880000,0.140000,-0.030000,0.089307,Hold,0.408936,0.000000,Hold,-182.000000,2.000000,Suck,-1800.000000,1818.181818,Speed,-1770.000000,1818.181818,Speed,Off,On,0.000000,FALSE,0,,,,,0.000000,0.000000,-0.050000
04:30:13.874 PM 04/29/2016,Teleop Enabled,9,FALSE,0,NO ERROR,-0.000000,0.096250,-0.000000,-0.147583,TRUE,FALSE,FALSE,FALSE,FALSE,FALSE,Disabled,0.000000,0.000000,0.000000,TRUE,0.012421,-0.020233,0.000000,0.005127,-0.020309,0.000000,0.017000,0.010000,0.017000,1.830000,0.140000,-0.030000,0.104705,Hold,0.408936,0.000000,Hold,-182.000000,2.000000,Suck,-1792.500000,1818.181818,Speed,-1777.500000,1818.181818,Speed,Off,On,0.000000,FALSE,0,,,,,0.000000,0.000000,-0.050000
04:30:13.978 PM 04/29/2016,Teleop Enabled,12,FALSE,0,NO ERROR,-0.000000,0.096250,-0.000000,-0.147583,TRUE,FALSE,FALSE,FALSE,FALSE,FALSE,Disabled,0.000000,0.000000,0.000000,TRUE,0.012375,-0.021103,0.000000,-0.009857,-0.021149,0.000000,0.022000,0.048000,-0.017000,1.810000,0.130000,0.010000,0.109852,Hold,0.408936,0.000000,Hold,-182.000000,2.000000,Suck,-1800.000000,1818.181818,Speed,-1777.500000,1818.181818,Speed,Off,On,0.000000,FALSE,0,,,,,0.000000,0.000000,-0.050000
04:30:14.080 PM 04/29/2016,Teleop Enabled,10,FALSE,0,NO ERROR,-0.000000,0.096250,-0.000000,-0.147583,TRUE,FALSE,FALSE,FALSE,FALSE,FALSE,Disabled,0.000000,0.000000,0.000000,TRUE,0.012375,-0.022400,0.000000,0.007858,-0.029877,0.000000,0.035000,-0.029000,-0.029000,1.830000,0.140000,-0.040000,0.098533,Hold,0.408936,0.000000,Hold,-182.000000,2.000000,Suck,-1800.000000,1818.181818,Speed,-1770.000000,1818.181818,Speed,Off,On,0.000000,FALSE,0,,,,,0.000000,0.000000,-0.050000
04:30:14.180 PM 04/29/2016,Teleop Enabled,11,FALSE,0,NO ERROR,-0.000000,0.096250,-0.000000,-0.147583,TRUE,FALSE,FALSE,FALSE,FALSE,FALSE,Disabled,0.000000,0.000000,0.000000,TRUE,0.012375,-0.022400,0.000000,0.007858,-0.029877,0.000000,-0.007000,0.033000,-0.041000,1.830000,0.130000,0.010000,0.106712,Hold,0.408936,0.000000,Hold,-182.000000,2.000000,Suck,-1792.500000,1818.181818,Speed,-1770.000000,1818.181818,Speed,Off,On,0.000000,FALSE,0,,,,,0.000000,0.000000,-0.050000
04:30:14.282 PM 04/29/2016,Teleop Enabled,11,FALSE,0,NO ERROR,-0.000000,0.096250,-0.000000,-0.147583,TRUE,FALSE,FALSE,FALSE,FALSE,FALSE,Disabled,0.000000,0.000000,0.000000,TRUE,0.012665,-0.024536,0.000000,0.001190,-0.039429,0.000000,0.034000,-0.009000,-0.031000,1.860000,0.130000,-0.030000,0.092278,Hold,0.408936,0.000000,Hold,-182.000000,2.000000,Suck,-1792.500000,1818.181818,Speed,-1770.000000,1818.181818,Speed,Off,On,0.000000,FALSE,0,,,,,0.000000,0.000000,-0.050000
04:30:14.381 PM 04/29/2016,Teleop Enabled,12,FALSE,0,NO ERROR,-0.000000,0.096250,-0.000000,-0.147583,TRUE,FALSE,FALSE,FALSE,FALSE,FALSE,Disabled,0.000000,0.000000,0.000000,TRUE,0.012039,-0.027100,0.000000,0.008835,-0.028900,0.000000,-0.018000,0.002000,-0.013000,1.820000,0.130000,0.000000,0.109573,Hold,0.408936,0.000000,Hold,-182.000000,2.000000,Suck,-1800.000000,1818.181818,Speed,-1777.500000,1818.181818,Speed,Off,On,0.000000,FALSE,0,,,,,0.000000,0.000000,-0.050000
04:30:14.482 PM 04/29/2016,Teleop Enabled,11,FALSE,0,NO ERROR,-0.000000,0.096250,-0.000000,-0.147583,TRUE,FALSE,FALSE,FALSE,FALSE,FALSE,Disabled,0.000000,0.000000,0.000000,TRUE,0.012222,-0.029083,0.000000,0.001556,-0.038147,0.000000,0.014000,-0.072000,-0.050000,1.820000,0.130000,0.000000,0.119371,Hold,0.408936,0.000000,Hold,-182.000000,2.000000,Suck,-1792.500000,1818.181818,Speed,-1770.000000,1818.181818,Speed,Off,On,0.000000,FALSE,0,,,,,0.000000,0.000000,-0.050000
04:30:14.584 PM 04/29/2016,Teleop Enabled,10,FALSE,0,NO ERROR,-0.000000,0.096250,-0.000000,-0.147583,TRUE,FALSE,FALSE,FALSE,FALSE,FALSE,Disabled,0.000000,0.000000,0.000000,TRUE,0.012070,-0.031204,0.000000,0.003006,-0.027145,0.000000,-0.081000,-0.072000,-0.015000,1.830000,0.130000,-0.020000,0.127977,Hold,0.408936,0.000000,Hold,-182.000000,2.000000,Suck,-1792.500000,1818.181818,Speed,-1777.500000,1818.181818,Speed,Off,On,0.000000,FALSE,0,,,,,0.000000,0.000000,-0.050000
04:30:14.687 PM 04/29/2016,Teleop Enabled,10,FALSE,0,NO ERROR,-0.000000,0.096250,-0.000000,-0.147583,TRUE,FALSE,FALSE,FALSE,FALSE,FALSE,Disabled,0.000000,0.000000,0.000000,TRUE,0.013077,-0.032608,0.000000,0.028214,-0.029358,0.000000,0.072000,0.048000,0.009000,1.810000,0.120000,0.020000,0.118235,Hold,0.408936,0.000000,Hold,-182.000000,2.000000,Suck,-1800.000000,1818.181818,Speed,-1777.500000,1818.181818,Speed,Off,On,0.000000,FALSE,0,,,,,0.000000,0.000000,-0.050000
04:30:14.790 PM 04/29/2016,Teleop Enabled,9,FALSE,0,NO ERROR,-0.000000,0.096250,-0.000000,-0.147583,TRUE,FALSE,FALSE,FALSE,FALSE,FALSE,Disabled,0.000000,0.000000,0.000000,TRUE,0.013077,-0.032608,0.000000,0.028214,-0.029358,0.000000,-0.053000,-0.038000,-0.076000,1.810000,0.120000,0.020000,0.103149,Hold,0.408936,0.000000,Hold,-182.000000,2.000000,Suck,-1800.000000,1818.181818,Speed,-1770.000000,1818.181818,Speed,Off,On,0.000000,FALSE,0,,,,,0.000000,0.000000,-0.050000
04:30:14.891 PM 04/29/2016,Teleop Enabled,10,FALSE,0,NO ERROR,-0.000000,0.096250,-0.000000,-0.147583,TRUE,FALSE,FALSE,FALSE,FALSE,FALSE,Disabled,0.000000,0.000000,0.000000,TRUE,0.013870,-0.034500,0.000000,0.010147,-0.016068,0.000000,0.020000,0.018000,-0.010000,1.840000,0.130000,-0.070000,0.095744,Hold,0.408936,0.000000,Hold,-182.000000,2.000000,Suck,-1792.500000,1818.181818,Speed,-1777.500000,1818.181818,Speed,Off,On,0.000000,FALSE,0,,,,,0.000000,0.000000,-0.050000
04:30:14.991 PM 04/29/2016,Teleop Enabled,11,FALSE,0,NO ERROR,-0.000000,0.096250,-0.000000,-0.147583,TRUE,FALSE,FALSE,FALSE,FALSE,FALSE,Disabled,0.000000,0.000000,0.000000,TRUE,0.013870,-0.034500,0.000000,0.010147,-0.016068,0.000000,0.045000,0.007000,0.041000,1.840000,0.120000,-0.060000,0.097524,Hold,0.408936,0.000000,Hold,-182.000000,2.000000,Suck,-1792.500000,1818.181818,Speed,-1777.500000,1818.181818,Speed,Off,On,0.000000,FALSE,0,,,,,0.000000,0.000000,-0.050000
04:30:15.099 PM 04/29/2016,Teleop Enabled,14,FALSE,0,NO ERROR,-0.000000,0.096250,-0.000000,-0.147583,TRUE,FALSE,FALSE,FALSE,FALSE,FALSE,Disabled,0.000000,0.000000,0.000000,TRUE,0.014679,-0.035141,0.000000,-0.004669,-0.005554,0.000000,-0.036000,-0.027000,0.019000,1.860000,0.120000,-0.120000,0.098047,Hold,0.408936,0.000000,Hold,-182.000000,2.000000,Suck,-1800.000000,1818.181818,Speed,-1777.500000,1818.181818,Speed,Off,On,0.000000,FALSE,0,,,,,0.000000,0.000000,-0.050000
04:30:15.199 PM 04/29/2016,Teleop Enabled,13,FALSE,0,NO ERROR,-0.000000,0.096250,-0.000000,-0.147583,TRUE,FALSE,FALSE,FALSE,FALSE,FALSE,Disabled,0.000000,0.000000,0.000000,TRUE,0.015366,-0.036179,0.000000,0.000000,-0.029938,0.000000,0.061000,-0.051000,0.037000,1.860000,0.120000,-0.120000,0.092674,Hold,0.408936,0.000000,Hold,-182.000000,2.000000,Suck,-1800.000000,1818.181818,Speed,-1770.000000,1818.181818,Speed,Off,On,0.000000,FALSE,0,,,,,0.000000,0.000000,-0.050000
04:30:15.299 PM 04/29/2016,Teleop Enabled,13,FALSE,0,NO ERROR,-0.000000,0.096250,-0.000000,-0.147583,TRUE,FALSE,FALSE,FALSE,FALSE,FALSE,Disabled,0.000000,0.000000,0.000000,TRUE,0.015228,-0.036224,0.000000,-0.008820,0.007553,0.000000,-0.002000,-0.011000,0.057000,1.830000,0.120000,-0.010000,0.101597,Hold,0.408936,0.000000,Hold,-182.000000,2.000000,Suck,-1792.500000,1818.181818,Speed,-1777.500000,1818.181818,Speed,Off,On,0.000000,FALSE,0,,,,,0.000000,0.000000,-0.050000
04:30:15.397 PM 04/29/2016,Teleop Enabled,11,FALSE,0,NO ERROR,-0.000000,0.096250,-0.000000,-0.147583,TRUE,FALSE,FALSE,FALSE,FALSE,FALSE,Disabled,0.000000,0.000000,0.000000,TRUE,0.014999,-0.036194,0.000000,0.001907,0.001068,0.000000,-0.021000,0.016000,-0.014000,1.850000,0.120000,-0.090000,0.108344,Hold,0.408936,0.000000,Hold,-182.000000,2.000000,Suck,-1800.000000,1818.181818,Speed,-1777.500000,1818.181818,Speed,Off,On,0.000000,FALSE,0,,,,,0.000000,0.000000,-0.050000
04:30:15.497 PM 04/29/2016,Teleop Enabled,11,FALSE,0,NO ERROR,-0.000000,0.096250,-0.000000,-0.147583,TRUE,FALSE,FALSE,FALSE,FALSE,FALSE,Disabled,0.000000,0.000000,0.000000,TRUE,0.015030,-0.037018,0.000000,-0.003113,-0.017502,0.000000,-0.022000,-0.091000,0.004000,1.850000,0.120000,-0.020000,0.096395,Hold,0.408936,0.000000,Hold,-182.000000,2.000000,Suck,-1800.000000,1818.181818,Speed,-1777.500000,1818.181818,Speed,Off,On,0.000000,FALSE,0,,,,,0.000000,0.000000,-0.050000
04:30:15.597 PM 04/29/2016,Teleop Enabled,11,FALSE,0,NO ERROR,-0.000000,0.096250,-0.000000,-0.147583,TRUE,FALSE,FALSE,FALSE,FALSE,FALSE,Disabled,0.000000,0.000000,0.000000,TRUE,0.015030,-0.037018,0.000000,-0.003113,-0.017502,0.000000,0.022000,0.003000,0.011000,1.870000,0.120000,-0.080000,0.100161,Hold,0.408936,0.000000,Hold,-182.000000,2.000000,Suck,-1800.000000,1818.181818,Speed,-1777.500000,1818.181818,Speed,Off,On,0.000000,FALSE,0,,,,,0.000000,0.000000,-0.050000
04:30:15.699 PM 04/29/2016,Teleop Enabled,11,FALSE,0,NO ERROR,-0.000000,0.096250,-0.000000,-0.147583,TRUE,FALSE,FALSE,FALSE,FALSE,FALSE,Disabled,0.000000,0.000000,0.000000,TRUE,0.014053,-0.037857,0.000000,-0.011353,-0.012161,0.000000,0.014000,-0.043000,0.016000,1.840000,0.120000,-0.060000,0.096677,Hold,0.408936,0.000000,Hold,-182.000000,2.000000,Suck,-1792.500000,1818.181818,Speed,-1777.500000,1818.181818,Speed,Off,On,0.000000,FALSE,0,,,,,0.000000,0.000000,-0.050000
04:30:15.799 PM 04/29/2016,Teleop Enabled,11,FALSE,0,NO ERROR,-0.000000,0.096250,-0.000000,-0.147583,TRUE,FALSE,FALSE,FALSE,FALSE,FALSE,Disabled,0.000000,0.000000,0.000000,TRUE,0.014023,-0.038055,0.000000,0.002670,0.008881,0.000000,0.015000,0.037000,0.008000,1.840000,0.120000,-0.030000,0.098271,Hold,0.408936,0.000000,Hold,-182.000000,2.000000,Suck,-1800.000000,1818.181818,Speed,-1777.500000,1818.181818,Speed,Off,On,0.000000,FALSE,0,,,,,0.000000,0.000000,-0.050000
04:30:15.900 PM 04/29/2016,Teleop Enabled,10,FALSE,0,NO ERROR,-0.000000,0.096250,-0.000000,-0.147583,TRUE,FALSE,FALSE,FALSE,FALSE,FALSE,Disabled,0.000000,0.000000,0.000000,TRUE,0.013504,-0.037643,0.000000,-0.015976,0.000000,0.000000,0.017000,0.047000,-0.061000,1.850000,0.120000,-0.070000,0.100884,Hold,0.408936,0.000000,Hold,-182.000000,2.000000,Suck,-1800.000000,1818.181818,Speed,-1777.500000,1818.181818,Speed,Off,On,0.000000,FALSE,0,,,,,0.000000,0.000000,-0.050000
04:30:16.001 PM 04/29/2016,Teleop Enabled,10,FALSE,0,NO ERROR,-0.000000,0.096250,-0.000000,-0.147583,TRUE,FALSE,FALSE,FALSE,FALSE,FALSE,Disabled,0.000000,0.000000,0.000000,TRUE,0.013214,-0.037430,0.000000,-0.000198,0.002609,0.000000,-0.017000,-0.015000,-0.077000,1.850000,0.120000,-0.020000,0.100884,Hold,0.408936,0.000000,Hold,-182.000000,2.000000,Suck,-1792.500000,1818.181818,Speed,-1777.500000,1818.181818,Speed,Off,On,0.000000,FALSE,0,,,,,0.000000,0.000000,-0.050000
04:30:16.102 PM 04/29/2016,Teleop Enabled,10,FALSE,0,NO ERROR,-0.000000,0.096250,-0.000000,-0.147583,TRUE,FALSE,FALSE,FALSE,FALSE,FALSE,Disabled,0.000000,0.000000,0.000000,TRUE,0.012787,-0.037262,0.000000,-0.023849,0.002304,0.000000,0.058000,0.040000,0.028000,1.880000,0.120000,-0.130000,0.106272,Hold,0.408936,0.000000,Hold,-182.000000,2.000000,Suck,-1792.500000,1818.181818,Speed,-1777.500000,1818.181818,Speed,Off,On,0.000000,FALSE,0,,,,,0.000000,0.000000,-0.050000
04:30:16.202 PM 04/29/2016,Teleop Enabled,9,FALSE,0,NO ERROR,-0.000000,0.096250,-0.000000,-0.147583,TRUE,FALSE,FALSE,FALSE,FALSE,FALSE,Disabled,0.000000,0.000000,0.000000,TRUE,0.012146,-0.037048,0.000000,-0.008606,0.000244,0.000000,-0.003000,0.044000,0.047000,1.840000,0.110000,-0.010000,0.104530,Hold,0.408936,0.000000,Hold,-182.000000,2.000000,Suck,-1800.000000,1818.181818,Speed,-1785.000000,1818.181818,Speed,Off,On,0.000000,FALSE,0,,,,,0.000000,0.000000,-0.050000
04:30:16.302 PM 04/29/2016,Teleop Enabled,11,FALSE,0,NO ERROR,-0.000000,0.096250,-0.000000,-0.147583,TRUE,FALSE,FALSE,FALSE,FALSE,FALSE,Disabled,0.000000,0.000000,0.000000,TRUE,0.011612,-0.036667,0.000000,-0.015854,0.009811,0.000000,-0.025000,-0.050000,0.004000,1.870000,0.110000,-0.030000,0.103463,Hold,0.408936,0.000000,Hold,-182.000000,2.000000,Suck,-1800.000000,1818.181818,Speed,-1777.500000,1818.181818,Speed,Off,On,0.000000,FALSE,0,,,,,0.000000,0.000000,-0.050000
04:30:16.403 PM 04/29/2016,Teleop Enabled,10,FALSE,0,NO ERROR,-0.000000,0.096250,-0.000000,-0.147583,TRUE,FALSE,FALSE,FALSE,FALSE,FALSE,Disabled,0.000000,0.000000,0.000000,TRUE,0.010269,-0.036423,0.000000,-0.011963,0.003647,0.000000,-0.007000,0.011000,0.006000,1.850000,0.110000,-0.010000,0.101934,Hold,0.408936,0.000000,Hold,-182.000000,2.000000,Suck,-1792.500000,1818.181818,Speed,-1777.500000,1818.181818,Speed,Off,On,0.000000,FALSE,0,,,,,0.000000,0.000000,-0.050000
04:30:16.503 PM 04/29/2016,Teleop Enabled,9,FALSE,0,NO ERROR,-0.000000,0.096250,-0.000000,-0.147583,TRUE,FALSE,FALSE,FALSE,FALSE,FALSE,Disabled,0.000000,0.000000,0.000000,TRUE,0.009445,-0.036484,0.000000,-0.024170,0.000000,0.000000,-0.011000,0.007000,0.001000,1.850000,0.110000,-0.050000,0.094515,Hold,0.408936,0.000000,Hold,-182.000000,2.000000,Suck,-1800.000000,1818.181818,Speed,-1785.000000,1818.181818,Speed,Off,On,0.000000,FALSE,0,,,,,0.000000,0.000000,-0.050000
04:30:16.603 PM 04/29/2016,Teleop Enabled,9,FALSE,0,NO ERROR,-0.000000,0.096250,-0.000000,-0.147583,TRUE,FALSE,FALSE,FALSE,FALSE,FALSE,Disabled,0.000000,0.000000,0.000000,TRUE,0.009491,-0.036880,0.000000,0.000702,-0.016739,0.000000,0.029000,0.071000,0.007000,1.850000,0.100000,-0.090000,0.098729,Hold,0.408936,0.000000,Hold,-182.000000,2.000000,Suck,-1800.000000,1818.181818,Speed,-1777.500000,1818.181818,Speed,Off,On,0.000000,FALSE,0,,,,,0.000000,0.000000,-0.050000
04:30:16.703 PM 04/29/2016,Teleop Enabled,11,FALSE,0,NO ERROR,-0.000000,0.096250,-0.000000,-0.147583,TRUE,FALSE,FALSE,FALSE,FALSE,FALSE,Disabled,0.000000,0.000000,0.000000,TRUE,0.009659,-0.037781,0.000000,-0.000275,-0.012955,0.000000,-0.044000,0.020000,0.025000,1.840000,0.100000,-0.030000,0.098881,Hold,0.408936,0.000000,Hold,-182.000000,2.000000,Suck,-1800.000000,1818.181818,Speed,-1785.000000,1818.181818,Speed,Off,On,0.000000,FALSE,0,,,,,0.000000,0.000000,-0.050000
04:30:16.803 PM 04/29/2016,Teleop Enabled,9,FALSE,0,NO ERROR,-0.000000,0.096250,-0.000000,-0.147583,TRUE,FALSE,FALSE,FALSE,FALSE,FALSE,Disabled,0.000000,0.000000,0.000000,TRUE,0.009171,-0.038055,0.000000,-0.014297,-0.005219,0.000000,-0.033000,-0.035000,0.019000,1.840000,0.100000,-0.070000,0.092453,Hold,0.408936,0.000000,Hold,-182.000000,2.000000,Suck,-1792.500000,1818.181818,Speed,-1777.500000,1818.181818,Speed,Off,On,0.000000,FALSE,0,,,,,0.000000,0.000000,-0.050000
04:30:16.903 PM 04/29/2016,Teleop Enabled,9,FALSE,0,NO ERROR,-0.000000,0.096250,-0.000000,-0.147583,TRUE,FALSE,FALSE,FALSE,FALSE,FALSE,Disabled,0.000000,0.000000,0.000000,TRUE,0.008789,-0.038376,0.000000,-0.010391,-0.011200,0.000000,-0.058000,-0.033000,-0.023000,1.840000,0.100000,-0.060000,0.099097,Hold,0.408936,0.000000,Hold,-182.000000,2.000000,Suck,-1792.500000,1818.181818,Speed,-1785.000000,1818.181818,Speed,Off,On,0.000000,FALSE,0,,,,,0.000000,0.000000,-0.050000
04:30:17.003 PM 04/29/2016,Teleop Enabled,9,FALSE,0,NO ERROR,-0.000000,0.096250,-0.000000,-0.147583,TRUE,FALSE,FALSE,FALSE,FALSE,FALSE,Disabled,0.000000,0.000000,0.000000,TRUE,0.007767,-0.039215,0.000000,-0.020508,-0.016891,0.000000,0.031000,-0.002000,0.003000,1.850000,0.100000,-0.080000,0.085313,Hold,0.408936,0.000000,Hold,-182.000000,2.000000,Suck,-1800.000000,1818.181818,Speed,-1785.000000,1818.181818,Speed,Off,On,0.000000,FALSE,0,,,,,0.000000,0.000000,-0.050000
04:30:17.103 PM 04/29/2016,Teleop Enabled,11,FALSE,0,NO ERROR,-0.000000,0.096250,-0.000000,-0.147583,TRUE,FALSE,FALSE,FALSE,FALSE,FALSE,Disabled,0.000000,0.000000,0.000000,TRUE,0.007095,-0.039230,0.000000,-0.015396,0.003693,0.000000,0.000000,0.031000,0.045000,1.830000,0.100000,-0.050000,0.091872,Hold,0.408936,0.000000,Hold,-182.000000,2.000000,Suck,-1800.000000,1818.181818,Speed,-1777.500000,1818.181818,Speed,Off,On,0.000000,FALSE,0,,,,,0.000000,0.000000,-0.050000
04:30:17.203 PM 04/29/2016,Teleop Enabled,10,FALSE,0,NO ERROR,-0.000000,0.096250,-0.000000,-0.147583,TRUE,FALSE,FALSE,FALSE,FALSE,FALSE,Disabled,0.000000,0.000000,0.000000,TRUE,0.005722,-0.038452,0.000000,-0.030182,0.016205,0.000000,0.006000,0.046000,-0.016000,1.830000,0.100000,-0.070000,0.094233,Hold,0.408936,0.000000,Hold,-182.000000,2.000000,Suck,-1800.000000,1818.181818,Speed,-1785.000000,1818.181818,Speed,Off,On,0.000000,FALSE,0,,,,,0.000000,0.000000,-0.050000
04:30:17.303 PM 04/29/2016,Teleop Enabled,10,FALSE,0,NO ERROR,-0.000000,0.096250,-0.000000,-0.147583,TRUE,FALSE,FALSE,FALSE,FALSE,FALSE,Disabled,0.000000,0.000000,0.000000,TRUE,0.006012,-0.037369,0.000000,0.014816,0.027771,0.000000,-0.105000,-0.050000,-0.064000,1.840000,0.100000,-0.030000,0.092119,Hold,0.408936,0.000000,Hold,-182.000000,2.000000,Suck,-1792.500000,1818.181818,Speed,-1785.000000,1818.181818,Speed,Off,On,0.000000,FALSE,0,,,,,0.000000,0.000000,-0.050000
04:30:17.403 PM 04/29/2016,Teleop Enabled,9,FALSE,0,NO ERROR,-0.000000,0.096250,-0.000000,-0.147583,TRUE,FALSE,FALSE,FALSE,FALSE,FALSE,Disabled,0.000000,0.000000,0.000000,TRUE,0.005890,-0.036148,0.000000,0.000244,0.022980,0.000000,0.048000,-0.040000,-0.012000,1.850000,0.100000,-0.110000,0.088233,Hold,0.408936,0.000000,Hold,-182.000000,2.000000,Suck,-1800.000000,1818.181818,Speed,-1785.000000,1818.181818,Speed,Off,On,0.000000,FALSE,0,,,,,0.000000,0.000000,-0.050000
04:30:17.504 PM 04/29/2016,Teleop Enabled,9,FALSE,0,NO ERROR,-0.000000,0.096250,-0.000000,-0.147583,TRUE,FALSE,FALSE,FALSE,FALSE,FALSE,Disabled,0.000000,0.000000,0.000000,TRUE,0.006546,-0.035095,0.000000,0.020355,0.015854,0.000000,-0.011000,0.068000,-0.032000,1.830000,0.100000,-0.080000,0.111202,Hold,0.408936,0.000000,Hold,-182.000000,2.000000,Suck,-1792.500000,1818.181818,Speed,-1785.000000,1818.181818,Speed,Off,On,0.000000,FALSE,0,,,,,0.000000,0.000000,-0.050000
04:30:17.604 PM 04/29/2016,Teleop Enabled,9,FALSE,0,NO ERROR,-0.000000,0.096250,-0.000000,-0.147583,TRUE,FALSE,FALSE,FALSE,FALSE,FALSE,Disabled,0.000000,0.000000,0.000000,TRUE,0.007324,-0.033936,0.000000,0.010178,0.020248,0.000000,-0.011000,0.038000,-0.029000,1.840000,0.100000,-0.110000,0.106578,Hold,0.408936,0.000000,BumperShot,-182.000000,32768.000000,Suck,-1800.000000,1818.181818,Speed,-1777.500000,1818.181818,Speed,Off,On,0.000000,FALSE,0,,,,,0.000000,0.000000,-0.050000
04:30:17.704 PM 04/29/2016,Teleop Enabled,9,FALSE,0,NO ERROR,-0.000000,0.102666,-0.000000,-0.147583,TRUE,FALSE,FALSE,FALSE,FALSE,FALSE,Disabled,0.000000,0.000000,0.000000,TRUE,0.007919,-0.032608,0.000000,0.009033,0.013245,0.000000,0.029000,-0.004000,0.004000,1.840000,0.090000,-0.110000,0.084880,Hold,0.408936,0.000000,Hold,-13996.000000,32768.000000,Suck,-1800.000000,1818.181818,Speed,-1785.000000,1818.181818,Speed,Off,On,0.000000,FALSE,0,,,,,0.000000,0.000000,-0.050000
04:30:17.803 PM 04/29/2016,Teleop Enabled,9,FALSE,0,NO ERROR,-0.000000,0.102666,-0.000000,-0.147583,TRUE,FALSE,FALSE,FALSE,FALSE,FALSE,Disabled,0.000000,0.000000,0.000000,TRUE,0.008240,-0.032455,0.000000,-0.004898,0.000000,0.000000,0.037000,0.042000,-0.039000,1.790000,0.090000,-0.050000,0.084504,Hold,0.408936,0.000000,Hold,-13996.000000,32768.000000,Suck,-1800.000000,1818.181818,Speed,-1785.000000,1818.181818,Speed,Off,On,0.000000,FALSE,0,,,,,0.000000,0.000000,-0.050000
04:30:17.903 PM 04/29/2016,Teleop Enabled,10,FALSE,0,NO ERROR,-0.000000,0.109083,-0.000000,-0.147583,TRUE,FALSE,FALSE,FALSE,FALSE,FALSE,Disabled,0.000000,0.000000,0.000000,TRUE,0.007416,-0.032196,0.000000,-0.012146,0.000000,0.000000,0.051000,-0.016000,-0.007000,1.800000,0.090000,-0.070000,0.088415,Hold,0.408936,0.000000,Hold,-35031.000000,32768.000000,Suck,-1792.500000,1818.181818,Speed,-1785.000000,1818.181818,Speed,Off,On,0.000000,FALSE,0,,,,,0.000000,0.000000,-0.050000
04:30:18.004 PM 04/29/2016,Teleop Enabled,9,FALSE,0,NO ERROR,-0.000000,0.121916,-0.000000,-0.147583,TRUE,FALSE,FALSE,FALSE,FALSE,FALSE,Disabled,0.000000,0.000000,0.000000,TRUE,0.007019,-0.032776,0.000000,-0.012909,-0.014465,0.000000,0.016000,0.047000,0.032000,1.750000,0.100000,-0.080000,0.094367,Hold,0.408936,0.000000,Hold,-32230.000000,32768.000000,Suck,-1792.500000,1818.181818,Speed,-1777.500000,1818.181818,Speed,Off,On,0.000000,FALSE,0,,,,,0.000000,0.000000,-0.050000
04:30:18.104 PM 04/29/2016,Teleop Enabled,11,FALSE,0,NO ERROR,-0.000000,0.121916,-0.000000,-0.147583,TRUE,FALSE,FALSE,FALSE,FALSE,FALSE,Disabled,0.000000,0.000000,0.000000,TRUE,0.006714,-0.032562,0.000000,-0.018051,0.009949,0.000000,-0.005000,0.063000,0.023000,1.820000,0.100000,-0.130000,0.099414,Hold,0.408936,0.000000,Hold,-32269.000000,32768.000000,Suck,-1792.500000,1818.181818,Speed,-1777.500000,1818.181818,Speed,Off,On,0.000000,FALSE,0,,,,,0.000000,0.000000,-0.050000
04:30:18.204 PM 04/29/2016,Teleop Enabled,9,FALSE,0,NO ERROR,-0.000000,0.121916,-0.000000,-0.147583,TRUE,FALSE,FALSE,FALSE,FALSE,FALSE,Disabled,0.000000,0.000000,0.000000,TRUE,0.005569,-0.031387,0.000000,-0.005508,0.008728,0.000000,-0.009000,0.039000,-0.035000,1.830000,0.100000,-0.090000,0.107077,Hold,0.408936,0.000000,Hold,-32792.000000,32768.000000,Suck,-1792.500000,1818.181818,Speed,-1785.000000,1818.181818,Speed,Off,On,0.000000,FALSE,0,,,,,0.000000,0.000000,-0.050000
04:30:18.304 PM 04/29/2016,Teleop Enabled,9,FALSE,0,NO ERROR,-0.000000,0.121916,-0.000000,-0.115500,TRUE,FALSE,FALSE,FALSE,FALSE,FALSE,Disabled,0.000000,0.000000,0.000000,TRUE,0.005402,-0.030106,0.000000,-0.011337,0.027115,0.000000,-0.065000,0.020000,-0.048000,1.850000,0.110000,-0.190000,0.129130,Hold,0.408936,0.000000,Hold,-33320.000000,32768.000000,Suck,-1785.000000,1818.181818,Speed,-1777.500000,1818.181818,Speed,Off,On,0.000000,FALSE,0,,,,,0.000000,0.000000,-0.050000
04:30:18.404 PM 04/29/2016,Teleop Enabled,8,FALSE,0,NO ERROR,-0.000000,0.121916,-0.000000,-0.115500,TRUE,FALSE,FALSE,FALSE,FALSE,FALSE,Disabled,0.000000,0.000000,0.000000,TRUE,0.003540,-0.028656,0.000000,-0.043320,0.024445,0.000000,0.006000,0.016000,-0.025000,1.820000,0.080000,-0.220000,0.087100,Hold,0.408936,0.000000,Hold,-33366.000000,32768.000000,Suck,-1792.500000,1818.181818,Speed,-1777.500000,1818.181818,Speed,Off,On,0.000000,FALSE,0,,,,,0.000000,0.000000,-0.050000
04:30:18.504 PM 04/29/2016,Teleop Enabled,9,FALSE,0,NO ERROR,-0.000000,0.198916,-0.000000,-0.134750,TRUE,FALSE,FALSE,FALSE,FALSE,FALSE,Disabled,0.000000,0.000000,0.000000,TRUE,0.001831,-0.027100,0.000000,-0.030060,0.024933,0.000000,0.030000,0.108000,-0.105000,1.840000,0.070000,-0.140000,0.080921,Hold,0.408936,0.000000,Hold,-33366.000000,32768.000000,Suck,-1792.500000,1818.181818,Speed,-1785.000000,1818.181818,Speed,Off,On,0.000000,FALSE,0,,,,,0.000000,0.000000,-0.050000
04:30:18.604 PM 04/29/2016,Teleop Enabled,9,FALSE,0,NO ERROR,-0.000000,0.179666,-0.000000,-0.134750,TRUE,FALSE,FALSE,FALSE,FALSE,FALSE,Disabled,0.000000,0.000000,0.000000,TRUE,0.001099,-0.025879,0.000000,0.002701,-0.006851,0.000000,-0.012000,-0.033000,0.006000,1.830000,0.150000,-0.010000,0.180683,Hold,0.408936,0.000000,Hold,-33088.000000,32768.000000,Suck,-1792.500000,1818.181818,Speed,-1777.500000,1818.181818,Speed,Off,On,0.000000,FALSE,0,,,,,0.000000,0.000000,-0.050000
04:30:18.704 PM 04/29/2016,Teleop Enabled,9,FALSE,0,NO ERROR,-0.000000,0.154000,-0.000000,-0.121916,TRUE,FALSE,FALSE,FALSE,FALSE,FALSE,Disabled,0.000000,0.000000,0.000000,TRUE,0.001266,-0.026474,0.000000,-0.002136,-0.009232,0.000000,-0.081000,-0.012000,-0.005000,1.830000,0.110000,-0.060000,0.130463,Hold,0.408936,0.000000,Hold,-32528.000000,32768.000000,Suck,-1792.500000,1818.181818,Speed,-1777.500000,1818.181818,Speed,Off,On,0.000000,FALSE,0,,,,,0.000000,0.000000,-0.050000
04:30:18.804 PM 04/29/2016,Teleop Enabled,9,FALSE,0,NO ERROR,-0.000000,0.147583,-0.000000,-0.121916,TRUE,FALSE,FALSE,FALSE,FALSE,FALSE,Disabled,0.000000,0.000000,0.000000,TRUE,0.000320,-0.026428,0.000000,-0.027237,0.015015,0.000000,0.017000,-0.038000,-0.017000,1.830000,0.120000,-0.180000,0.136215,Hold,0.408936,0.000000,Hold,-32180.000000,32768.000000,Suck,-1785.000000,1818.181818,Speed,-1777.500000,1818.181818,Speed,Off,On,0.000000,FALSE,0,,,,,0.000000,0.000000,-0.050000
04:30:18.904 PM 04/29/2016,Teleop Enabled,9,FALSE,0,NO ERROR,-0.000000,0.147583,-0.000000,-0.121916,TRUE,FALSE,FALSE,FALSE,FALSE,FALSE,Disabled,0.000000,0.000000,0.000000,TRUE,0.000351,-0.025879,0.000000,0.000000,0.020065,0.000000,0.019000,-0.031000,0.065000,1.840000,0.120000,-0.080000,0.141620,Hold,0.408936,0.000000,Hold,-32404.000000,32768.000000,Suck,-1792.500000,1818.181818,Speed,-1785.000000,1818.181818,Speed,Off,On,0.000000,FALSE,0,,,,,0.000000,0.000000,-0.050000
04:30:19.004 PM 04/29/2016,Teleop Enabled,9,FALSE,0,NO ERROR,-0.000000,0.147583,-0.000000,-0.121916,TRUE,FALSE,FALSE,FALSE,FALSE,FALSE,Disabled,0.000000,0.000000,0.000000,TRUE,0.000687,-0.024979,0.000000,0.010590,0.009216,0.000000,-0.010000,0.027000,0.015000,1.800000,0.120000,-0.090000,0.157893,Hold,0.408936,0.000000,Hold,-32957.000000,32768.000000,Suck,-1792.500000,1818.181818,Speed,-1777.500000,1818.181818,Speed,Off,On,0.000000,FALSE,0,,,,,0.000000,0.000000,-0.050000
04:30:19.104 PM 04/29/2016,Teleop Enabled,9,FALSE,0,NO ERROR,-0.000000,0.147583,-0.000000,-0.121916,TRUE,FALSE,FALSE,FALSE,FALSE,FALSE,Disabled,0.000000,0.000000,0.000000,TRUE,0.001633,-0.024582,0.000000,0.025436,0.006165,0.000000,0.021000,0.045000,-0.029000,1.830000,0.120000,0.000000,0.132311,Hold,0.408936,0.000000,Hold,-32957.000000,32768.000000,Suck,-1792.500000,1818.181818,Speed,-1785.000000,1818.181818,Speed,Off,On,0.000000,FALSE,0,,,,,0.000000,0.000000,-0.050000
04:30:19.204 PM 04/29/2016,Teleop Enabled,9,FALSE,0,NO ERROR,-0.000000,0.147583,-0.000000,-0.121916,TRUE,FALSE,FALSE,FALSE,FALSE,FALSE,Disabled,0.000000,0.000000,0.000000,TRUE,0.003159,-0.023651,0.000000,0.021072,0.000000,0.000000,-0.013000,0.040000,0.039000,1.860000,0.130000,-0.050000,0.139589,Hold,0.408936,0.000000,Hold,-33373.000000,32768.000000,Suck,-1792.500000,1818.181818,Speed,-1777.500000,1818.181818,Speed,Off,On,0.000000,FALSE,0,,,,,0.000000,0.000000,-0.050000
04:30:19.305 PM 04/29/2016,Teleop Enabled,9,FALSE,0,NO ERROR,-0.000000,0.147583,-0.000000,-0.121916,TRUE,FALSE,FALSE,FALSE,FALSE,FALSE,Disabled,0.000000,0.000000,0.000000,TRUE,0.003296,-0.023453,0.000000,-0.006393,0.001099,0.000000,-0.006000,0.023000,-0.002000,1.840000,0.120000,-0.060000,0.150874,Hold,0.408936,0.000000,Hold,-33262.000000,32768.000000,Suck,-1792.500000,1818.181818,Speed,-1777.500000,1818.181818,Speed,Off,On,0.000000,FALSE,0,,,,,0.000000,0.000000,-0.050000
04:30:19.405 PM 04/29/2016,Teleop Enabled,9,FALSE,0,NO ERROR,-0.000000,0.147583,-0.000000,-0.121916,TRUE,FALSE,FALSE,FALSE,FALSE,FALSE,Disabled,0.000000,0.000000,0.000000,TRUE,0.003143,-0.023117,0.000000,-0.007309,0.002258,0.000000,0.010000,0.019000,0.026000,1.870000,0.130000,-0.090000,0.156378,Hold,0.408936,0.000000,Hold,-32812.000000,32768.000000,Suck,-1792.500000,1818.181818,Speed,-1785.000000,1818.181818,Speed,Off,On,0.000000,FALSE,0,,,,,0.000000,0.000000,-0.050000
04:30:19.505 PM 04/29/2016,Teleop Enabled,10,FALSE,0,NO ERROR,-0.000000,0.147583,-0.000000,-0.121916,TRUE,FALSE,FALSE,FALSE,FALSE,FALSE,Disabled,0.000000,0.000000,0.000000,TRUE,0.003006,-0.022888,0.000000,-0.010071,-0.003906,0.000000,0.020000,0.001000,0.041000,1.830000,0.130000,-0.080000,0.137768,Hold,0.408936,0.000000,Hold,-32397.000000,32768.000000,Suck,-1792.500000,1818.181818,Speed,-1777.500000,1818.181818,Speed,Off,On,0.000000,FALSE,0,,,,,0.000000,0.000000,-0.050000
04:30:19.605 PM 04/29/2016,Teleop Enabled,9,FALSE,0,NO ERROR,-0.000000,0.147583,-0.000000,-0.121916,TRUE,FALSE,FALSE,FALSE,FALSE,FALSE,Disabled,0.000000,0.000000,0.000000,TRUE,0.002213,-0.022766,0.000000,-0.024048,0.014145,0.000000,-0.056000,-0.027000,0.024000,1.860000,0.130000,-0.160000,0.156268,Hold,0.408936,0.000000,Hold,-32173.000000,32768.000000,Suck,-1800.000000,1818.181818,Speed,-1785.000000,1818.181818,Speed,Off,On,0.000000,FALSE,0,,,,,0.000000,0.000000,-0.050000
04:30:19.705 PM 04/29/2016,Teleop Enabled,10,FALSE,0,NO ERROR,-0.000000,0.147583,-0.000000,-0.121916,TRUE,FALSE,FALSE,FALSE,FALSE,FALSE,Disabled,0.000000,0.000000,0.000000,TRUE,0.000671,-0.022568,0.000000,-0.026276,0.000000,0.000000,0.044000,0.014000,-0.026000,1.800000,0.130000,-0.140000,0.155982,Hold,0.408936,0.000000,Hold,-32173.000000,32768.000000,Suck,-1792.500000,1818.181818,Speed,-1785.000000,1818.181818,Speed,Off,On,0.000000,FALSE,0,,,,,0.000000,0.000000,-0.050000
04:30:19.805 PM 04/29/2016,Teleop Enabled,9,FALSE,0,NO ERROR,-0.000000,0.147583,-0.000000,-0.121916,TRUE,FALSE,FALSE,FALSE,FALSE,FALSE,Disabled,0.000000,0.000000,0.000000,TRUE,0.000168,-0.022507,0.000000,-0.000946,0.005219,0.000000,-0.026000,0.037000,0.031000,1.840000,0.140000,-0.150000,0.160537,Hold,0.408936,0.000000,Hold,-32408.000000,32768.000000,Suck,-1792.500000,1818.181818,Speed,-1785.000000,1818.181818,Speed,Off,On,0.000000,FALSE,0,,,,,0.000000,0.000000,-0.050000
04:30:19.905 PM 04/29/2016,Teleop Enabled,10,FALSE,0,NO ERROR,-0.000000,0.147583,-0.000000,-0.121916,TRUE,FALSE,FALSE,FALSE,FALSE,FALSE,Disabled,0.000000,0.000000,0.000000,TRUE,0.000244,-0.022446,0.000000,0.017212,0.000748,0.000000,0.001000,0.013000,-0.002000,1.780000,0.130000,-0.090000,0.165518,Hold,0.408936,0.000000,Hold,-32905.000000,32768.000000,Suck,-1792.500000,1818.181818,Speed,-1777.500000,1818.181818,Speed,Off,On,0.000000,FALSE,0,,,,,0.000000,0.000000,-0.050000
04:30:20.005 PM 04/29/2016,Teleop Enabled,9,FALSE,0,NO ERROR,-0.000000,0.147583,-0.000000,-0.121916,TRUE,FALSE,FALSE,FALSE,FALSE,FALSE,Disabled,0.000000,0.000000,0.000000,TRUE,0.001495,-0.022446,0.000000,0.029724,0.000000,0.000000,0.011000,0.002000,0.002000,1.820000,0.130000,-0.070000,0.149724,Hold,0.408936,0.000000,Hold,-33323.000000,32768.000000,Suck,-1792.500000,1818.181818,Speed,-1785.000000,1818.181818,Speed,Off,On,0.000000,FALSE,0,,,,,0.000000,0.000000,-0.050000
04:30:20.105 PM 04/29/2016,Teleop Enabled,9,FALSE,0,NO ERROR,-0.000000,0.147583,-0.000000,-0.121916,TRUE,FALSE,FALSE,FALSE,FALSE,FALSE,Disabled,0.000000,0.000000,0.000000,TRUE,0.003189,-0.022446,0.000000,0.037674,0.000000,0.000000,0.041000,0.014000,-0.038000,1.800000,0.130000,-0.060000,0.156705,Hold,0.408936,0.000000,Hold,-33340.000000,32768.000000,Suck,-1792.500000,1818.181818,Speed,-1777.500000,1818.181818,Speed,Off,On,0.000000,FALSE,0,,,,,0.000000,0.000000,-0.050000
04:30:20.205 PM 04/29/2016,Teleop Enabled,8,FALSE,0,NO ERROR,-0.000000,0.147583,-0.000000,-0.121916,TRUE,FALSE,FALSE,FALSE,FALSE,FALSE,Disabled,0.000000,0.000000,0.000000,TRUE,0.005081,-0.022476,0.000000,0.000000,-0.002716,0.000000,-0.006000,-0.022000,0.027000,1.790000,0.130000,0.010000,0.159139,Hold,0.408936,0.000000,Hold,-32947.000000,32768.000000,Suck,-1792.500000,1818.181818,Speed,-1785.000000,1818.181818,Speed,Off,On,0.000000,FALSE,0,,,,,0.000000,0.000000,-0.050000
04:30:20.306 PM 04/29/2016,Teleop Enabled,9,FALSE,0,NO ERROR,-0.000000,0.147583,-0.000000,-0.121916,TRUE,FALSE,FALSE,FALSE,FALSE,FALSE,Disabled,0.000000,0.000000,0.000000,TRUE,0.005173,-0.022736,0.000000,-0.001282,-0.004074,0.000000,0.001000,-0.007000,-0.015000,1.780000,0.130000,0.010000,0.156406,Hold,0.408936,0.000000,Hold,-32410.000000,32768.000000,Suck,-1800.000000,1818.181818,Speed,-1785.000000,1818.181818,Speed,Off,On,0.000000,FALSE,0,,,,,0.000000,0.000000,-0.050000
04:30:20.406 PM 04/29/2016,Teleop Enabled,10,FALSE,0,NO ERROR,-0.000000,0.147583,-0.000000,-0.121916,TRUE,FALSE,FALSE,FALSE,FALSE,FALSE,Disabled,0.000000,0.000000,0.000000,TRUE,0.005173,-0.022675,0.000000,0.000000,0.010971,0.000000,0.001000,-0.009000,0.035000,1.800000,0.120000,0.000000,0.164441,Hold,0.408936,0.000000,Hold,-32410.000000,32768.000000,Suck,-1792.500000,1818.181818,Speed,-1785.000000,1818.181818,Speed,Off,On,0.000000,FALSE,0,,,,,0.000000,0.000000,-0.050000
04:30:20.506 PM 04/29/2016,Teleop Enabled,9,FALSE,0,NO ERROR,-0.000000,0.147583,-0.000000,-0.121916,TRUE,FALSE,FALSE,FALSE,FALSE,FALSE,Disabled,0.000000,0.000000,0.000000,TRUE,0.004395,-0.022446,0.000000,-0.014801,0.000000,0.000000,0.063000,-0.030000,0.023000,1.770000,0.130000,-0.010000,0.161459,Hold,0.408936,0.000000,Hold,-32158.000000,32768.000000,Suck,-1792.500000,1818.181818,Speed,-1785.000000,1818.181818,Speed,Off,On,0.000000,FALSE,0,,,,,0.000000,0.000000,-0.050000
04:30:20.606 PM 04/29/2016,Teleop Enabled,11,FALSE,0,NO ERROR,-0.000000,0.147583,-0.000000,-0.121916,TRUE,FALSE,FALSE,FALSE,FALSE,FALSE,Disabled,0.000000,0.000000,0.000000,TRUE,0.004852,-0.023041,0.000000,0.007202,-0.004898,0.000000,-0.031000,0.029000,0.000000,1.800000,0.130000,0.000000,0.177691,Hold,0.408936,0.000000,Hold,-32390.000000,32768.000000,Suck,-1792.500000,1818.181818,Speed,-1777.500000,1818.181818,Speed,Off,On,0.000000,FALSE,0,,,,,0.000000,0.000000,-0.050000
04:30:20.706 PM 04/29/2016,Teleop Enabled,9,FALSE,0,NO ERROR,-0.000000,0.147583,-0.000000,-0.121916,TRUE,FALSE,FALSE,FALSE,FALSE,FALSE,Disabled,0.000000,0.000000,0.000000,TRUE,0.004745,-0.023346,0.000000,0.003403,-0.002365,0.000000,-0.031000,0.029000,0.000000,1.800000,0.130000,0.000000,0.184012,Hold,0.408936,0.000000,Hold,-32892.000000,32768.000000,Suck,-1792.500000,1818.181818,Speed,-1785.000000,1818.181818,Speed,Off,On,0.000000,FALSE,0,,,,,0.000000,0.000000,-0.050000
04:30:20.806 PM 04/29/2016,Teleop Enabled,10,FALSE,0,NO ERROR,-0.000000,0.147583,-0.000000,-0.121916,TRUE,FALSE,FALSE,FALSE,FALSE,FALSE,Disabled,0.000000,0.000000,0.000000,TRUE,0.004776,-0.023575,0.000000,-0.003571,0.000885,0.000000,-0.031000,0.010000,-0.015000,1.770000,0.130000,0.000000,0.188463,Hold,0.408936,0.000000,Hold,-33310.000000,32768.000000,Suck,-1792.500000,1818.181818,Speed,-1785.000000,1818.181818,Speed,Off,On,0.000000,FALSE,0,,,,,0.000000,0.000000,-0.050000
04:30:20.906 PM 04/29/2016,Teleop Enabled,9,FALSE,0,NO ERROR,-0.000000,0.147583,-0.000000,-0.121916,TRUE,FALSE,FALSE,FALSE,FALSE,FALSE,Disabled,0.000000,0.000000,0.000000,TRUE,0.004684,-0.023605,0.000000,0.000000,-0.004150,0.000000,-0.001000,0.042000,-0.021000,1.780000,0.130000,-0.020000,0.183926,Hold,0.408936,0.000000,Hold,-33337.000000,32768.000000,Suck,-1792.500000,1818.181818,Speed,-1785.000000,1818.181818,Speed,Off,On,0.000000,FALSE,0,,,,,0.000000,0.000000,-0.050000
04:30:21.007 PM 04/29/2016,Teleop Enabled,6,FALSE,0,NO ERROR,-0.000000,0.147583,-0.000000,-0.121916,TRUE,FALSE,FALSE,FALSE,FALSE,FALSE,Disabled,0.000000,0.000000,0.000000,TRUE,0.004883,-0.023605,0.000000,0.005035,-0.009583,0.000000,-0.001000,0.042000,-0.021000,1.790000,0.130000,-0.020000,0.163267,Hold,0.408936,0.000000,Hold,-32949.000000,32768.000000,Suck,-1800.000000,1818.181818,Speed,-1785.000000,1818.181818,Speed,Off,On,0.000000,FALSE,0,,,,,0.000000,0.000000,-0.050000
04:30:21.107 PM 04/29/2016,Teleop Enabled,8,FALSE,0,NO ERROR,-0.000000,0.147583,-0.000000,-0.121916,TRUE,FALSE,FALSE,FALSE,FALSE,FALSE,Disabled,0.000000,0.000000,0.000000,TRUE,0.004837,-0.023468,0.000000,-0.007629,-0.002060,0.000000,0.022000,0.041000,-0.042000,1.800000,0.130000,-0.040000,0.163315,Hold,0.408936,0.000000,Hold,-32949.000000,32768.000000,Suck,-1792.500000,1818.181818,Speed,-1785.000000,1818.181818,Speed,Off,On,0.000000,FALSE,0,,,,,0.000000,0.000000,-0.050000
04:30:21.208 PM 04/29/2016,Teleop Enabled,15,FALSE,0,NO ERROR,-0.000000,0.147583,-0.000000,-0.121916,TRUE,FALSE,FALSE,FALSE,FALSE,FALSE,Disabled,0.000000,0.000000,0.000000,TRUE,0.004807,-0.023575,0.000000,-0.010208,-0.007751,0.000000,0.029000,0.020000,-0.047000,1.810000,0.130000,-0.030000,0.146171,Hold,0.408936,0.000000,Hold,-32438.000000,32768.000000,Suck,-1792.500000,1818.181818,Speed,-1785.000000,1818.181818,Speed,Off,On,0.000000,FALSE,0,,,,,0.000000,0.000000,-0.050000
04:30:21.308 PM 04/29/2016,Teleop Enabled,12,FALSE,0,NO ERROR,-0.000000,0.147583,-0.000000,-0.121916,TRUE,FALSE,FALSE,FALSE,FALSE,FALSE,Disabled,0.000000,0.000000,0.000000,TRUE,0.004852,-0.023544,0.000000,0.010406,-0.007919,0.000000,0.001000,0.024000,-0.095000,1.810000,0.130000,-0.050000,0.129630,Hold,0.408936,0.000000,Hold,-32188.000000,32768.000000,Suck,-1800.000000,1818.181818,Speed,-1785.000000,1818.181818,Speed,Off,On,0.000000,FALSE,0,,,,,0.000000,0.000000,-0.050000
04:30:21.408 PM 04/29/2016,Teleop Enabled,9,FALSE,0,NO ERROR,-0.000000,0.147583,-0.000000,-0.121916,TRUE,FALSE,FALSE,FALSE,FALSE,FALSE,Disabled,0.000000,0.000000,0.000000,TRUE,0.005249,-0.023865,0.000000,0.017654,-0.001923,0.000000,0.040000,-0.066000,0.024000,1.780000,0.120000,0.000000,0.131616,Hold,0.408936,0.000000,Hold,-32402.000000,32768.000000,Suck,-1800.000000,1818.181818,Speed,-1785.000000,1818.181818,Speed,Off,On,0.000000,FALSE,0,,,,,0.000000,0.000000,-0.050000
04:30:21.509 PM 04/29/2016,Teleop Enabled,10,FALSE,0,NO ERROR,-0.000000,0.147583,-0.000000,-0.121916,TRUE,FALSE,FALSE,FALSE,FALSE,FALSE,Disabled,0.000000,0.000000,0.000000,TRUE,0.005630,-0.023834,0.000000,-0.001694,0.013123,0.000000,-0.040000,-0.040000,0.040000,1.780000,0.120000,0.000000,0.140353,Hold,0.408936,0.000000,Hold,-32901.000000,32768.000000,Suck,-1792.500000,1818.181818,Speed,-1785.000000,1818.181818,Speed,Off,On,0.000000,FALSE,0,,,,,0.000000,0.000000,-0.050000
04:30:21.610 PM 04/29/2016,Teleop Enabled,9,FALSE,0,NO ERROR,-0.000000,0.147583,-0.000000,-0.121916,TRUE,FALSE,FALSE,FALSE,FALSE,FALSE,Disabled,0.000000,0.000000,0.000000,TRUE,0.006119,-0.024307,0.000000,0.020813,-0.005020,0.000000,-0.019000,-0.101000,0.016000,1.750000,0.120000,-0.010000,0.147662,Hold,0.408936,0.000000,Hold,-33303.000000,32768.000000,Suck,-1800.000000,1818.181818,Speed,-1785.000000,1818.181818,Speed,Off,On,0.000000,FALSE,0,,,,,0.000000,0.000000,-0.050000
04:30:21.711 PM 04/29/2016,Teleop Enabled,11,FALSE,0,NO ERROR,-0.000000,0.147583,-0.000000,-0.121916,TRUE,FALSE,FALSE,FALSE,FALSE,FALSE,Disabled,0.000000,0.000000,0.000000,TRUE,0.007812,-0.024948,0.000000,0.036163,-0.003326,0.000000,0.024000,-0.043000,0.041000,1.750000,0.120000,-0.010000,0.139616,Hold,0.408936,0.000000,Hold,-33303.000000,32768.000000,Suck,-1800.000000,1818.181818,Speed,-1785.000000,1818.181818,Speed,Off,On,0.000000,FALSE,0,,,,,0.000000,0.000000,-0.050000
