Time,Robot Mode,Loop Time,Error Status,Error Code,Error Source,Left Motor Output,Left Motor Encoder,Right Motor Output,Right Motor Encoder,Is Level,Is Stalled,Ball Detector Photoeye,Vision Enabled,Vision Teleop Control,Vision Auto Control,Vision Current State,Vision X Output,Vision NavX Error,Vision NavX Target,NavX Connection Status,NavX Displacement X,NavX Displacement Y,NavX Displacement Z,NavX Velocity X,NavX Velocity Y,NavX Velocity Z,NavX Acceleration X,NavX Acceleration Y,NavX Acceleration Z,NavX Pitch,NavX Yaw,NavX Roll,Gyro Angle,Roller Arm State,Roller Arm Actual,Roller Arm Desired,Shooter Arm State,Shooter Arm Actual,Shooter Arm Desired,Shooter State,Actual RPM Left,Desired RPM Left,Control Mode Left,Actual RPM Right,Desired RPM Right,Control Mode Right,Ball Shooter Cylinder,Ball Halo Cylinder,Scaler Motor Output,Scaler Solenoid Fire,Auto To Run,Auto Current File,Auto File Status,Auto Current Command,Auto Trimmed Command,Shooter Amps Left,Shooter Amps Right, Vision After Offset
04:18:08.833 PM 04/29/2016,Teleop Enabled,10,TRUE,-44003,<LOCATION>WPI_CameraIssue HTTP Request with Authentication.vi<CALLSTACK>WPI_CameraIssue HTTP Request with Authentication.vi< <WPI_CameraIssue Get.vi< <WPI_CameraSet Image Appearance Property.vi< <WPI_CameraSet Image Size.vi< <Vision Processing.vi< <Robot Main.vi,-0.000000,0.000000,-0.000000,-0.019250,TRUE,FALSE,FALSE,FALSE,FALSE,FALSE,Disabled,0.000000,0.000000,0.000000,TRUE,-0.007309,0.081467,0.000000,0.000000,0.000000,0.000000,0.005000,0.002000,-0.001000,1.240000,-131.290000,0.310000,-114.125970,ResetBack,0.000000,-0.000049,ResetBack,-46.000000,-0.250000,Suck,0.000000,1818.181818,Speed,0.000000,1818.181818,Speed,Off,On,0.000000,FALSE,0,,,,,0.000000,0.000000,-0.050000
04:18:08.935 PM 04/29/2016,Teleop Enabled,10,FALSE,0,NO ERROR,-0.000000,0.000000,-0.000000,-0.019250,TRUE,FALSE,FALSE,FALSE,FALSE,FALSE,Disabled,0.000000,0.000000,0.000000,TRUE,-0.007309,0.081360,0.000000,0.000000,-0.007904,0.000000,0.187000,0.088000,-0.117000,1.270000,-131.320000,0.280000,-114.099552,ResetBack,-0.795654,-0.000049,ResetBack,187.000000,-0.250000,Suck,0.000000,1818.181818,Speed,0.000000,1818.181818,Speed,Off,On,0.000000,FALSE,0,,,,,0.000000,0.000000,-0.050000
04:18:09.035 PM 04/29/2016,Teleop Enabled,11,FALSE,0,NO ERROR,-0.000000,0.173250,-0.000000,-0.166833,TRUE,FALSE,FALSE,FALSE,FALSE,FALSE,Disabled,0.000000,0.000000,0.000000,TRUE,-0.007614,0.082809,0.000000,-0.029144,0.016998,0.000000,-0.038000,0.052000,0.023000,1.300000,-131.320000,0.210000,-114.071798,ResetBack,-1.421143,-0.000049,ResetBack,5599.000000,-0.250000,Suck,-270.000000,1818.181818,Speed,-307.500000,1818.181818,Speed,Off,On,0.000000,FALSE,0,,,,,0.000000,0.000000,-0.050000
04:18:09.135 PM 04/29/2016,Teleop Enabled,10,FALSE,0,NO ERROR,-0.000000,0.173250,-0.000000,-0.173250,TRUE,FALSE,FALSE,FALSE,FALSE,FALSE,Disabled,0.000000,0.000000,0.000000,TRUE,-0.008560,0.082718,0.000000,0.000000,-0.027206,0.000000,-0.037000,-0.027000,0.000000,1.330000,-131.320000,0.180000,-114.084666,ResetBack,-1.666748,-0.000049,ResetBack,11914.000000,-0.250000,Suck,-907.500000,1818.181818,Speed,-1072.500000,1818.181818,Speed,Off,On,0.000000,FALSE,0,,,,,0.000000,0.000000,-0.050000
04:18:09.235 PM 04/29/2016,Teleop Enabled,10,FALSE,0,NO ERROR,-0.000000,0.173250,-0.000000,-0.173250,TRUE,FALSE,FALSE,FALSE,FALSE,FALSE,Disabled,0.000000,0.000000,0.000000,TRUE,-0.008926,0.081161,0.000000,0.000000,-0.038727,0.000000,0.004000,0.039000,-0.024000,1.320000,-131.320000,0.330000,-114.104216,Reset,-1.681641,0.000000,ResetBack,20037.000000,-0.250000,Suck,-1477.500000,1818.181818,Speed,-1695.000000,1818.181818,Speed,Off,On,0.000000,FALSE,0,,,,,0.000000,0.000000,-0.050000
04:18:09.335 PM 04/29/2016,Teleop Enabled,9,FALSE,0,NO ERROR,-0.000000,0.173250,-0.000000,-0.173250,TRUE,FALSE,FALSE,FALSE,FALSE,FALSE,Disabled,0.000000,0.000000,0.000000,TRUE,-0.008896,0.079895,0.000000,0.001587,-0.013000,0.000000,-0.023000,-0.032000,-0.015000,1.270000,-131.320000,0.310000,-114.091568,Hold,0.352539,0.000000,ResetBack,20037.000000,-0.250000,Suck,-1852.500000,1818.181818,Speed,-1890.000000,1818.181818,Speed,Off,On,0.000000,FALSE,0,,,,,0.000000,0.000000,-0.050000
04:18:09.435 PM 04/29/2016,Teleop Enabled,9,FALSE,0,NO ERROR,-0.000000,0.173250,-0.000000,-0.173250,TRUE,FALSE,FALSE,FALSE,FALSE,FALSE,Disabled,0.000000,0.000000,0.000000,TRUE,-0.009171,0.078735,0.000000,-0.011719,-0.008057,0.000000,-0.028000,-0.096000,-0.029000,1.270000,-131.330000,0.380000,-114.109033,Hold,0.436768,0.000000,ResetBack,29358.000000,-0.250000,Suck,-1852.500000,1818.181818,Speed,-1770.000000,1818.181818,Speed,Off,On,0.000000,FALSE,0,,,,,0.000000,0.000000,-0.050000
04:18:09.536 PM 04/29/2016,Teleop Enabled,10,FALSE,0,NO ERROR,-0.000000,0.173250,-0.000000,-0.173250,TRUE,FALSE,FALSE,FALSE,FALSE,FALSE,Disabled,0.000000,0.000000,0.000000,TRUE,-0.009827,0.077118,0.000000,-0.008224,-0.033768,0.000000,-0.016000,-0.001000,-0.033000,1.280000,-131.310000,0.410000,-114.065150,Hold,0.436768,0.000000,ResetBack,38082.000000,-0.250000,Suck,-1800.000000,1818.181818,Speed,-1695.000000,1818.181818,Speed,Off,On,0.000000,FALSE,0,,,,,0.000000,0.000000,-0.050000
04:18:09.636 PM 04/29/2016,Teleop Enabled,10,FALSE,0,NO ERROR,-0.000000,0.173250,-0.000000,-0.173250,TRUE,FALSE,FALSE,FALSE,FALSE,FALSE,Disabled,0.000000,0.000000,0.000000,TRUE,-0.010986,0.076324,0.000000,-0.032852,-0.013519,0.000000,0.085000,0.025000,-0.072000,1.240000,-131.320000,0.520000,-114.062069,Hold,0.436768,0.000000,ResetBack,42853.000000,-0.250000,Suck,-1762.500000,1818.181818,Speed,-1710.000000,1818.181818,Speed,Off,On,0.000000,FALSE,0,,,,,0.000000,0.000000,-0.050000
04:18:09.736 PM 04/29/2016,Teleop Enabled,10,FALSE,0,NO ERROR,-0.000000,0.173250,-0.000000,-0.173250,TRUE,FALSE,FALSE,FALSE,FALSE,FALSE,Disabled,0.000000,0.000000,0.000000,TRUE,-0.011444,0.076538,0.000000,0.001434,0.010529,0.000000,0.020000,0.007000,-0.015000,1.190000,-131.320000,0.590000,-114.074865,Hold,0.436768,0.000000,ResetBack,44494.000000,-0.250000,Suck,-1755.000000,1818.181818,Speed,-1755.000000,1818.181818,Speed,Off,On,0.000000,FALSE,0,,,,,0.000000,0.000000,-0.050000
04:18:09.836 PM 04/29/2016,Teleop Enabled,10,FALSE,0,NO ERROR,-0.000000,0.173250,-0.000000,-0.173250,TRUE,FALSE,FALSE,FALSE,FALSE,FALSE,Disabled,0.000000,0.000000,0.000000,TRUE,-0.011490,0.077072,0.000000,-0.003326,0.006500,0.000000,-0.041000,-0.013000,0.025000,1.150000,-131.320000,0.640000,-114.061047,Hold,0.436768,0.000000,ResetBack,44521.000000,-0.250000,Suck,-1770.000000,1818.181818,Speed,-1747.500000,1818.181818,Speed,Off,On,0.000000,FALSE,0,,,,,0.000000,0.000000,-0.050000
04:18:09.936 PM 04/29/2016,Teleop Enabled,10,FALSE,0,NO ERROR,-0.000000,0.173250,-0.000000,-0.173250,TRUE,FALSE,FALSE,FALSE,FALSE,FALSE,Disabled,0.000000,0.000000,0.000000,TRUE,-0.011627,0.078064,0.000000,0.000000,0.018494,0.000000,-0.033000,0.089000,0.029000,1.150000,-131.320000,0.690000,-114.057174,Hold,0.436768,0.000000,ResetBack,44526.000000,-0.250000,Suck,-1785.000000,1818.181818,Speed,-1740.000000,1818.181818,Speed,Off,On,0.000000,FALSE,0,,,,,0.000000,0.000000,-0.050000
04:18:10.036 PM 04/29/2016,Teleop Enabled,11,FALSE,0,NO ERROR,-0.000000,0.173250,-0.000000,-0.173250,TRUE,FALSE,FALSE,FALSE,FALSE,FALSE,Disabled,0.000000,0.000000,0.000000,TRUE,-0.012070,0.079758,0.000000,-0.011047,0.031662,0.000000,0.020000,-0.010000,-0.018000,1.120000,-131.330000,0.740000,-114.050296,Hold,0.436768,0.000000,ResetBack,44526.000000,-0.250000,Suck,-1777.500000,1818.181818,Speed,-1740.000000,1818.181818,Speed,Off,On,0.000000,FALSE,0,,,,,0.000000,0.000000,-0.050000
04:18:10.136 PM 04/29/2016,Teleop Enabled,9,FALSE,0,NO ERROR,-0.000000,0.173250,-0.000000,-0.173250,TRUE,FALSE,FALSE,FALSE,FALSE,FALSE,Disabled,0.000000,0.000000,0.000000,TRUE,-0.012848,0.082428,0.000000,-0.013962,0.055801,0.000000,0.025000,0.089000,0.004000,1.070000,-131.330000,0.810000,-114.058578,Hold,0.436768,0.000000,Reset,44527.000000,2.000000,Suck,-1777.500000,1818.181818,Speed,-1747.500000,1818.181818,Speed,Off,On,0.000000,FALSE,0,,,,,0.000000,0.000000,-0.050000
04:18:10.236 PM 04/29/2016,Teleop Enabled,7,FALSE,0,NO ERROR,-0.000000,0.173250,-0.000000,-0.173250,TRUE,FALSE,FALSE,FALSE,FALSE,FALSE,Disabled,0.000000,0.000000,0.000000,TRUE,-0.013824,0.086655,0.000000,-0.008270,0.079712,0.000000,-0.117000,-0.032000,0.068000,1.030000,-131.320000,0.850000,-114.066534,Hold,0.436768,0.000000,Hold,-272.000000,2.000000,Suck,-1777.500000,1818.181818,Speed,-1747.500000,1818.181818,Speed,Off,On,0.000000,FALSE,0,,,,,0.000000,0.000000,-0.050000
04:18:10.336 PM 04/29/2016,Teleop Enabled,10,FALSE,0,NO ERROR,-0.000000,0.173250,-0.000000,-0.173250,TRUE,FALSE,FALSE,FALSE,FALSE,FALSE,Disabled,0.000000,0.000000,0.000000,TRUE,-0.014465,0.090881,0.000000,-0.004456,0.099731,0.000000,-0.094000,-0.044000,0.010000,1.010000,-131.320000,0.850000,-114.061935,Hold,0.436768,0.000000,Hold,-177.000000,2.000000,Suck,-1777.500000,1818.181818,Speed,-1740.000000,1818.181818,Speed,Off,On,0.000000,FALSE,0,,,,,0.000000,0.000000,-0.050000
04:18:10.436 PM 04/29/2016,Teleop Enabled,9,FALSE,0,NO ERROR,-0.000000,0.173250,-0.000000,-0.173250,TRUE,FALSE,FALSE,FALSE,FALSE,FALSE,Disabled,0.000000,0.000000,0.000000,TRUE,-0.015518,0.095856,0.000000,-0.015198,0.104828,0.000000,-0.050000,-0.050000,-0.002000,1.020000,-131.320000,0.850000,-114.074345,Hold,0.436768,0.000000,Hold,-177.000000,2.000000,Suck,-1777.500000,1818.181818,Speed,-1740.000000,1818.181818,Speed,Off,On,0.000000,FALSE,0,,,,,0.000000,0.000000,-0.050000
04:18:10.536 PM 04/29/2016,Teleop Enabled,10,FALSE,0,NO ERROR,-0.000000,0.173250,-0.000000,-0.173250,TRUE,FALSE,FALSE,FALSE,FALSE,FALSE,Disabled,0.000000,0.000000,0.000000,TRUE,-0.016586,0.100449,0.000000,-0.016983,0.097031,0.000000,-0.022000,0.036000,0.013000,1.020000,-131.320000,0.830000,-114.073836,Hold,0.436768,0.000000,Hold,-177.000000,2.000000,Suck,-1777.500000,1818.181818,Speed,-1740.000000,1818.181818,Speed,Off,On,0.000000,FALSE,0,,,,,0.000000,0.000000,-0.050000
04:18:10.636 PM 04/29/2016,Teleop Enabled,8,FALSE,0,NO ERROR,-0.000000,0.173250,-0.000000,-0.173250,TRUE,FALSE,FALSE,FALSE,FALSE,FALSE,Disabled,0.000000,0.000000,0.000000,TRUE,-0.017090,0.105103,0.000000,0.004410,0.099854,0.000000,-0.058000,-0.016000,0.012000,1.020000,-131.320000,0.830000,-114.061625,Hold,0.436768,0.000000,Hold,-176.000000,2.000000,Suck,-1777.500000,1818.181818,Speed,-1747.500000,1818.181818,Speed,Off,On,0.000000,FALSE,0,,,,,0.000000,0.000000,-0.050000
04:18:10.737 PM 04/29/2016,Teleop Enabled,11,FALSE,0,NO ERROR,-0.000000,0.173250,-0.000000,-0.173250,TRUE,FALSE,FALSE,FALSE,FALSE,FALSE,Disabled,0.000000,0.000000,0.000000,TRUE,-0.016968,0.109207,0.000000,0.008224,0.077789,0.000000,-0.039000,-0.037000,-0.043000,1.050000,-131.320000,0.760000,-114.036787,Hold,0.436768,0.000000,Hold,-176.000000,2.000000,Suck,-1777.500000,1818.181818,Speed,-1740.000000,1818.181818,Speed,Off,On,0.000000,FALSE,0,,,,,0.000000,0.000000,-0.050000
04:18:10.838 PM 04/29/2016,Teleop Enabled,10,FALSE,0,NO ERROR,-0.000000,0.173250,-0.000000,-0.173250,TRUE,FALSE,FALSE,FALSE,FALSE,FALSE,Disabled,0.000000,0.000000,0.000000,TRUE,-0.016312,0.112503,0.000000,0.008423,0.056335,0.000000,0.004000,-0.041000,-0.069000,1.080000,-131.320000,0.710000,-114.038942,Hold,0.436768,0.000000,Hold,-176.000000,2.000000,Suck,-1785.000000,1818.181818,Speed,-1747.500000,1818.181818,Speed,Off,On,0.000000,FALSE,0,,,,,0.000000,0.000000,-0.050000
04:18:10.938 PM 04/29/2016,Teleop Enabled,10,FALSE,0,NO ERROR,-0.000000,0.173250,-0.000000,-0.173250,TRUE,FALSE,FALSE,FALSE,FALSE,FALSE,Disabled,0.000000,0.000000,0.000000,TRUE,-0.015305,0.114365,0.000000,0.024857,0.028473,0.000000,0.012000,-0.003000,0.006000,1.140000,-131.320000,0.600000,-114.041675,Hold,0.436768,0.000000,Hold,-176.000000,2.000000,Suck,-1777.500000,1818.181818,Speed,-1747.500000,1818.181818,Speed,Off,On,0.000000,FALSE,0,,,,,0.000000,0.000000,-0.050000
04:18:11.039 PM 04/29/2016,Teleop Enabled,11,FALSE,0,NO ERROR,-0.000000,0.173250,-0.000000,-0.173250,TRUE,FALSE,FALSE,FALSE,FALSE,FALSE,Disabled,0.000000,0.000000,0.000000,TRUE,-0.013458,0.114136,0.000000,0.036285,-0.026871,0.000000,0.042000,0.007000,-0.061000,1.160000,-131.320000,0.490000,-114.042574,Hold,0.436768,0.000000,Hold,-175.000000,2.000000,Suck,-1777.500000,1818.181818,Speed,-1747.500000,1818.181818,Speed,Off,On,0.000000,FALSE,0,,,,,0.000000,0.000000,-0.050000
04:18:11.139 PM 04/29/2016,Teleop Enabled,13,FALSE,0,NO ERROR,-0.000000,0.173250,-0.000000,-0.173250,TRUE,FALSE,FALSE,FALSE,FALSE,FALSE,Disabled,0.000000,0.000000,0.000000,TRUE,-0.011017,0.113205,0.000000,0.035355,-0.034927,0.000000,0.044000,0.051000,-0.020000,1.210000,-131.320000,0.360000,-114.036312,Hold,0.436768,0.000000,Hold,-175.000000,2.000000,Suck,-1777.500000,1818.181818,Speed,-1740.000000,1818.181818,Speed,Off,On,0.000000,FALSE,0,,,,,0.000000,0.000000,-0.050000
04:18:11.239 PM 04/29/2016,Teleop Enabled,11,FALSE,0,NO ERROR,-0.000000,0.173250,-0.000000,-0.173250,TRUE,FALSE,FALSE,FALSE,FALSE,FALSE,Disabled,0.000000,0.000000,0.000000,TRUE,-0.008942,0.110977,0.000000,0.032990,-0.060181,0.000000,0.054000,0.018000,-0.003000,1.230000,-131.320000,0.290000,-114.056936,Hold,0.436768,0.000000,Hold,-175.000000,2.000000,Suck,-1777.500000,1818.181818,Speed,-1747.500000,1818.181818,Speed,Off,On,0.000000,FALSE,0,,,,,0.000000,0.000000,-0.050000
04:18:11.339 PM 04/29/2016,Teleop Enabled,10,FALSE,0,NO ERROR,-0.000000,0.173250,-0.000000,-0.173250,TRUE,FALSE,FALSE,FALSE,FALSE,FALSE,Disabled,0.000000,0.000000,0.000000,TRUE,-0.007019,0.107239,0.000000,0.038437,-0.090439,0.000000,0.085000,-0.017000,0.015000,1.290000,-131.320000,0.140000,-114.055205,Hold,0.436768,0.000000,Hold,-175.000000,2.000000,Suck,-1777.500000,1818.181818,Speed,-1747.500000,1818.181818,Speed,Off,On,0.000000,FALSE,0,,,,,0.000000,0.000000,-0.050000
04:18:11.439 PM 04/29/2016,Teleop Enabled,9,FALSE,0,NO ERROR,-0.000000,0.173250,-0.000000,-0.173250,TRUE,FALSE,FALSE,FALSE,FALSE,FALSE,Disabled,0.000000,0.000000,0.000000,TRUE,-0.004593,0.102905,0.000000,0.051331,0.000000,0.000000,0.018000,-0.076000,0.020000,1.370000,-131.330000,-0.010000,-114.056799,Hold,0.436768,0.000000,Hold,-175.000000,2.000000,Suck,-1785.000000,1818.181818,Speed,-1747.500000,1818.181818,Speed,Off,On,0.000000,FALSE,0,,,,,0.000000,0.000000,-0.050000
04:18:11.539 PM 04/29/2016,Teleop Enabled,11,FALSE,0,NO ERROR,-0.000000,0.173250,-0.000000,-0.173250,TRUE,FALSE,FALSE,FALSE,FALSE,FALSE,Disabled,0.000000,0.000000,0.000000,TRUE,-0.003387,0.102432,0.000000,0.005478,-0.003311,0.000000,-0.016000,-0.070000,0.011000,1.400000,-131.320000,-0.070000,-114.061863,Hold,0.436768,0.000000,Hold,-175.000000,2.000000,Suck,-1777.500000,1818.181818,Speed,-1747.500000,1818.181818,Speed,Off,On,0.000000,FALSE,0,,,,,0.000000,0.000000,-0.050000
04:18:11.639 PM 04/29/2016,Teleop Enabled,10,FALSE,0,NO ERROR,-0.000000,0.173250,-0.000000,-0.173250,TRUE,FALSE,FALSE,FALSE,FALSE,FALSE,Disabled,0.000000,0.000000,0.000000,TRUE,-0.003159,0.101379,0.000000,0.005554,-0.018494,0.000000,0.023000,-0.045000,-0.014000,1.420000,-131.330000,-0.130000,-114.065247,Hold,0.436768,0.000000,Hold,-175.000000,2.000000,Suck,-1777.500000,1818.181818,Speed,-1747.500000,1818.181818,Speed,Off,On,0.000000,FALSE,0,,,,,0.000000,0.000000,-0.050000
04:18:11.739 PM 04/29/2016,Teleop Enabled,10,FALSE,0,NO ERROR,-0.000000,0.173250,-0.000000,-0.173250,TRUE,FALSE,FALSE,FALSE,FALSE,FALSE,Disabled,0.000000,0.000000,0.000000,TRUE,-0.002838,0.101730,0.000000,0.006195,0.026520,0.000000,0.022000,-0.004000,-0.013000,1.400000,-131.330000,-0.050000,-114.072245,Hold,0.436768,0.000000,Hold,-175.000000,2.000000,Suck,-1785.000000,1818.181818,Speed,-1747.500000,1818.181818,Speed,Off,On,0.000000,FALSE,0,,,,,0.000000,0.000000,-0.050000
04:18:11.839 PM 04/29/2016,Teleop Enabled,9,FALSE,0,NO ERROR,-0.000000,0.173250,-0.000000,-0.173250,TRUE,FALSE,FALSE,FALSE,FALSE,FALSE,Disabled,0.000000,0.000000,0.000000,TRUE,-0.003006,0.101730,0.000000,-0.008224,0.000870,0.000000,0.022000,0.005000,-0.037000,1.410000,-131.320000,-0.020000,-114.071815,Hold,0.436768,0.000000,Hold,-175.000000,2.000000,Suck,-1785.000000,1818.181818,Speed,-1747.500000,1818.181818,Speed,Off,On,0.000000,FALSE,0,,,,,0.000000,0.000000,-0.050000
04:18:11.944 PM 04/29/2016,Teleop Enabled,11,FALSE,0,NO ERROR,-0.000000,0.173250,-0.000000,-0.173250,TRUE,FALSE,FALSE,FALSE,FALSE,FALSE,Disabled,0.000000,0.000000,0.000000,TRUE,-0.003601,0.102310,0.000000,-0.008377,0.017609,0.000000,0.028000,0.042000,-0.090000,1.410000,-131.320000,-0.020000,-114.078600,Hold,0.436768,0.000000,Hold,-175.000000,2.000000,Suck,-1777.500000,1818.181818,Speed,-1747.500000,1818.181818,Speed,Off,On,0.000000,FALSE,0,,,,,0.000000,0.000000,-0.050000
04:18:12.041 PM 04/29/2016,Teleop Enabled,10,FALSE,0,NO ERROR,-0.000000,0.173250,-0.000000,-0.173250,TRUE,FALSE,FALSE,FALSE,FALSE,FALSE,Disabled,0.000000,0.000000,0.000000,TRUE,-0.003754,0.103256,0.000000,-0.004501,0.000000,0.000000,-0.015000,0.114000,0.018000,1.350000,-131.320000,0.060000,-114.099355,Hold,0.436768,0.000000,Hold,-175.000000,2.000000,Suck,-1777.500000,1818.181818,Speed,-1747.500000,1818.181818,Speed,Off,On,0.000000,FALSE,0,,,,,0.000000,0.000000,-0.050000
04:18:12.141 PM 04/29/2016,Teleop Enabled,10,FALSE,0,NO ERROR,-0.000000,0.173250,-0.000000,-0.173250,TRUE,FALSE,FALSE,FALSE,FALSE,FALSE,Disabled,0.000000,0.000000,0.000000,TRUE,-0.003998,0.105438,0.000000,0.000000,0.055496,0.000000,-0.015000,0.114000,0.018000,1.320000,-131.320000,0.180000,-114.096674,Hold,0.436768,0.000000,Hold,-175.000000,2.000000,Suck,-1785.000000,1818.181818,Speed,-1747.500000,1818.181818,Speed,Off,On,0.000000,FALSE,0,,,,,0.000000,0.000000,-0.050000
04:18:12.242 PM 04/29/2016,Teleop Enabled,9,FALSE,0,NO ERROR,-0.000000,0.173250,-0.000000,-0.173250,TRUE,FALSE,FALSE,FALSE,FALSE,FALSE,Disabled,0.000000,0.000000,0.000000,TRUE,-0.004028,0.108978,0.000000,-0.002548,0.084198,0.000000,-0.009000,0.050000,0.027000,1.270000,-131.320000,0.360000,-114.103180,Hold,0.436768,0.000000,Hold,-175.000000,2.000000,Suck,-1777.500000,1818.181818,Speed,-1755.000000,1818.181818,Speed,Off,On,0.000000,FALSE,0,,,,,0.000000,0.000000,-0.050000
04:18:12.343 PM 04/29/2016,Teleop Enabled,9,FALSE,0,NO ERROR,-0.000000,0.173250,-0.000000,-0.173250,TRUE,FALSE,FALSE,FALSE,FALSE,FALSE,Disabled,0.000000,0.000000,0.000000,TRUE,-0.004272,0.111954,0.000000,-0.006042,0.070541,0.000000,-0.022000,0.068000,0.021000,1.260000,-131.320000,0.430000,-114.108726,Hold,0.436768,0.000000,Hold,-175.000000,2.000000,Suck,-1785.000000,1818.181818,Speed,-1747.500000,1818.181818,Speed,Off,On,0.000000,FALSE,0,,,,,0.000000,0.000000,-0.050000
04:18:12.445 PM 04/29/2016,Teleop Enabled,11,FALSE,0,NO ERROR,-0.000000,0.173250,-0.000000,-0.173250,TRUE,FALSE,FALSE,FALSE,FALSE,FALSE,Disabled,0.000000,0.000000,0.000000,TRUE,-0.004593,0.116211,0.000000,0.003036,0.067886,0.000000,-0.022000,0.068000,0.021000,1.290000,-131.320000,0.370000,-114.120131,Hold,0.436768,0.000000,Hold,-175.000000,2.000000,Suck,-1777.500000,1818.181818,Speed,-1755.000000,1818.181818,Speed,Off,On,0.000000,FALSE,0,,,,,0.000000,0.000000,-0.050000
04:18:12.546 PM 04/29/2016,Teleop Enabled,11,FALSE,0,NO ERROR,-0.000000,0.173250,-0.000000,-0.173250,TRUE,FALSE,FALSE,FALSE,FALSE,FALSE,Disabled,0.000000,0.000000,0.000000,TRUE,-0.003540,0.118622,0.000000,0.026550,0.041779,0.000000,0.105000,-0.014000,-0.106000,1.290000,-131.320000,0.370000,-114.128600,Hold,0.436768,0.000000,Hold,-174.000000,2.000000,Suck,-1777.500000,1818.181818,Speed,-1755.000000,1818.181818,Speed,Off,On,0.000000,FALSE,0,,,,,0.000000,0.000000,-0.050000
04:18:12.646 PM 04/29/2016,Teleop Enabled,11,FALSE,0,NO ERROR,-0.000000,0.173250,-0.000000,-0.173250,TRUE,FALSE,FALSE,FALSE,FALSE,FALSE,Disabled,0.000000,0.000000,0.000000,TRUE,-0.001266,0.119781,0.000000,0.049591,0.006393,0.000000,-0.024000,-0.087000,0.018000,1.290000,-131.320000,0.310000,-114.135812,Hold,0.436768,0.000000,Hold,-174.000000,2.000000,Suck,-1785.000000,1818.181818,Speed,-1747.500000,1818.181818,Speed,Off,On,0.000000,FALSE,0,,,,,0.000000,0.000000,-0.050000
04:18:12.746 PM 04/29/2016,Teleop Enabled,9,FALSE,0,NO ERROR,-0.000000,0.173250,-0.000000,-0.173250,TRUE,FALSE,FALSE,FALSE,FALSE,FALSE,Disabled,0.000000,0.000000,0.000000,TRUE,0.000839,0.119827,0.000000,0.053452,0.003220,0.000000,0.001000,0.050000,0.007000,1.310000,-131.320000,0.200000,-114.132005,Hold,0.436768,0.000000,Hold,-174.000000,2.000000,Suck,-1777.500000,1818.181818,Speed,-1755.000000,1818.181818,Speed,Off,On,0.000000,FALSE,0,,,,,0.000000,0.000000,-0.050000
04:18:12.847 PM 04/29/2016,Teleop Enabled,11,FALSE,0,NO ERROR,-0.000000,0.173250,-0.000000,-0.173250,TRUE,FALSE,FALSE,FALSE,FALSE,FALSE,Disabled,0.000000,0.000000,0.000000,TRUE,0.001831,0.120605,0.000000,-0.004578,0.019257,0.000000,0.001000,0.050000,0.007000,1.330000,-131.320000,0.190000,-114.137055,Hold,0.436768,0.000000,Hold,-174.000000,2.000000,Suck,-1785.000000,1818.181818,Speed,-1755.000000,1818.181818,Speed,Off,On,0.000000,FALSE,0,,,,,0.000000,0.000000,-0.050000
04:18:12.947 PM 04/29/2016,Teleop Enabled,11,FALSE,0,NO ERROR,-0.000000,0.173250,-0.000000,-0.173250,TRUE,FALSE,FALSE,FALSE,FALSE,FALSE,Disabled,0.000000,0.000000,0.000000,TRUE,0.001831,0.120605,0.000000,-0.004578,0.019257,0.000000,-0.055000,0.065000,0.036000,1.290000,-131.320000,0.310000,-114.148608,Hold,0.436768,0.000000,Hold,-174.000000,2.000000,Suck,-1785.000000,1818.181818,Speed,-1747.500000,1818.181818,Speed,Off,On,0.000000,FALSE,0,,,,,0.000000,0.000000,-0.050000
04:18:13.048 PM 04/29/2016,Teleop Enabled,10,FALSE,0,NO ERROR,-0.000000,0.173250,-0.000000,-0.173250,TRUE,FALSE,FALSE,FALSE,FALSE,FALSE,Disabled,0.000000,0.000000,0.000000,TRUE,0.000381,0.125793,0.000000,-0.013885,0.068619,0.000000,-0.042000,0.068000,0.014000,1.230000,-131.320000,0.410000,-114.144178,Hold,0.436768,0.000000,Hold,-174.000000,2.000000,Suck,-1777.500000,1818.181818,Speed,-1755.000000,1818.181818,Speed,Off,On,0.000000,FALSE,0,,,,,0.000000,0.000000,-0.050000
04:18:13.150 PM 04/29/2016,Teleop Enabled,11,FALSE,0,NO ERROR,-0.000000,0.173250,-0.000000,-0.173250,TRUE,FALSE,FALSE,FALSE,FALSE,FALSE,Disabled,0.000000,0.000000,0.000000,TRUE,0.000381,0.125793,0.000000,-0.013885,0.068619,0.000000,0.009000,0.072000,-0.012000,1.200000,-131.320000,0.470000,-114.150471,Hold,0.436768,0.000000,Hold,-174.000000,2.000000,Suck,-1785.000000,1818.181818,Speed,-1755.000000,1818.181818,Speed,Off,On,0.000000,FALSE,0,,,,,0.000000,0.000000,-0.050000
04:18:13.251 PM 04/29/2016,Teleop Enabled,9,FALSE,0,NO ERROR,-0.000000,0.173250,-0.000000,-0.173250,TRUE,FALSE,FALSE,FALSE,FALSE,FALSE,Disabled,0.000000,0.000000,0.000000,TRUE,-0.000412,0.129715,0.000000,-0.011810,0.057373,0.000000,0.014000,-0.031000,0.037000,1.240000,-131.320000,0.340000,-114.157115,Hold,0.436768,0.000000,Hold,-174.000000,2.000000,Suck,-1785.000000,1818.181818,Speed,-1755.000000,1818.181818,Speed,Off,On,0.000000,FALSE,0,,,,,0.000000,0.000000,-0.050000
04:18:13.351 PM 04/29/2016,Teleop Enabled,10,FALSE,0,NO ERROR,-0.000000,0.173250,-0.000000,-0.173250,TRUE,FALSE,FALSE,FALSE,FALSE,FALSE,Disabled,0.000000,0.000000,0.000000,TRUE,-0.000519,0.133667,0.000000,0.009033,0.029373,0.000000,0.063000,-0.114000,0.003000,1.280000,-131.320000,0.270000,-114.154343,Hold,0.436768,0.000000,Hold,-174.000000,2.000000,Suck,-1785.000000,1818.181818,Speed,-1755.000000,1818.181818,Speed,Off,On,0.000000,FALSE,0,,,,,0.000000,0.000000,-0.050000
04:18:13.452 PM 04/29/2016,Teleop Enabled,9,FALSE,0,NO ERROR,-0.000000,0.173250,-0.000000,-0.173250,TRUE,FALSE,FALSE,FALSE,FALSE,FALSE,Disabled,0.000000,0.000000,0.000000,TRUE,-0.000519,0.133667,0.000000,0.009033,0.029373,0.000000,0.038000,0.036000,0.013000,1.300000,-131.320000,0.220000,-114.153290,Hold,0.436768,0.000000,Hold,-174.000000,2.000000,Suck,-1777.500000,1818.181818,Speed,-1755.000000,1818.181818,Speed,Off,On,0.000000,FALSE,0,,,,,0.000000,0.000000,-0.050000
04:18:13.550 PM 04/29/2016,Teleop Enabled,9,FALSE,0,NO ERROR,-0.000000,0.173250,-0.000000,-0.173250,TRUE,FALSE,FALSE,FALSE,FALSE,FALSE,Disabled,0.000000,0.000000,0.000000,TRUE,-0.000626,0.134460,0.000000,0.000687,0.014709,0.000000,0.014000,0.017000,-0.068000,1.270000,-131.320000,0.310000,-114.153290,Hold,0.436768,0.000000,Hold,-174.000000,2.000000,Suck,-1785.000000,1818.181818,Speed,-1755.000000,1818.181818,Speed,Off,On,0.000000,FALSE,0,,,,,0.000000,0.000000,-0.050000
04:18:13.652 PM 04/29/2016,Teleop Enabled,11,FALSE,0,NO ERROR,-0.000000,0.173250,-0.000000,-0.173250,TRUE,FALSE,FALSE,FALSE,FALSE,FALSE,Disabled,0.000000,0.000000,0.000000,TRUE,-0.001434,0.135132,0.000000,-0.019745,0.032089,0.000000,-0.037000,0.030000,-0.001000,1.210000,-131.320000,0.450000,-114.161669,Hold,0.436768,0.000000,Hold,-174.000000,2.000000,Suck,-1785.000000,1818.181818,Speed,-1755.000000,1818.181818,Speed,Off,On,0.000000,FALSE,0,,,,,0.000000,0.000000,-0.050000
04:18:13.752 PM 04/29/2016,Teleop Enabled,10,FALSE,0,NO ERROR,-0.000000,0.173250,-0.000000,-0.173250,TRUE,FALSE,FALSE,FALSE,FALSE,FALSE,Disabled,0.000000,0.000000,0.000000,TRUE,-0.002670,0.136871,0.000000,-0.029495,0.045227,0.000000,-0.038000,-0.021000,-0.044000,1.210000,-131.320000,0.470000,-114.155896,Hold,0.436768,0.000000,Hold,-174.000000,2.000000,Suck,-1785.000000,1818.181818,Speed,-1762.500000,1818.181818,Speed,Off,On,0.000000,FALSE,0,,,,,0.000000,0.000000,-0.050000
04:18:13.855 PM 04/29/2016,Teleop Enabled,11,FALSE,0,NO ERROR,-0.000000,0.173250,-0.000000,-0.173250,TRUE,FALSE,FALSE,FALSE,FALSE,FALSE,Disabled,0.000000,0.000000,0.000000,TRUE,-0.004639,0.138458,0.000000,-0.031235,0.000000,0.000000,0.027000,-0.005000,-0.051000,1.260000,-131.320000,0.370000,-114.162044,Hold,0.436768,0.000000,Hold,-174.000000,2.000000,Suck,-1785.000000,1818.181818,Speed,-1755.000000,1818.181818,Speed,Off,On,0.000000,FALSE,0,,,,,0.000000,0.000000,-0.050000
04:18:13.956 PM 04/29/2016,Teleop Enabled,11,FALSE,0,NO ERROR,-0.000000,0.173250,-0.000000,-0.173250,TRUE,FALSE,FALSE,FALSE,FALSE,FALSE,Disabled,0.000000,0.000000,0.000000,TRUE,-0.006241,0.138092,0.000000,-0.030975,-0.018311,0.000000,0.089000,0.008000,-0.049000,1.270000,-131.320000,0.340000,-114.171694,Hold,0.436768,0.000000,Hold,-174.000000,2.000000,Suck,-1777.500000,1818.181818,Speed,-1755.000000,1818.181818,Speed,Off,On,0.000000,FALSE,0,,,,,0.000000,0.000000,-0.050000
04:18:14.056 PM 04/29/2016,Teleop Enabled,11,FALSE,0,NO ERROR,-0.000000,0.173250,-0.000000,-0.173250,TRUE,FALSE,FALSE,FALSE,FALSE,FALSE,Disabled,0.000000,0.000000,0.000000,TRUE,-0.007156,0.137756,0.000000,0.000000,-0.008820,0.000000,0.016000,0.060000,-0.019000,1.260000,-131.320000,0.360000,-114.157218,Hold,0.436768,0.000000,Hold,-174.000000,2.000000,Suck,-1785.000000,1818.181818,Speed,-1762.500000,1818.181818,Speed,Off,On,0.000000,FALSE,0,,,,,0.000000,0.000000,-0.050000
04:18:14.156 PM 04/29/2016,Teleop Enabled,10,FALSE,0,NO ERROR,-0.000000,0.173250,-0.000000,-0.173250,TRUE,FALSE,FALSE,FALSE,FALSE,FALSE,Disabled,0.000000,0.000000,0.000000,TRUE,-0.007523,0.138794,0.000000,-0.018295,0.030609,0.000000,-0.026000,0.086000,0.042000,1.180000,-131.320000,0.530000,-114.152099,Hold,0.436768,0.000000,Hold,-174.000000,2.000000,Suck,-1785.000000,1818.181818,Speed,-1755.000000,1818.181818,Speed,Off,On,0.000000,FALSE,0,,,,,0.000000,0.000000,-0.050000
04:18:14.257 PM 04/29/2016,Teleop Enabled,11,FALSE,0,NO ERROR,-0.000000,0.173250,-0.000000,-0.173250,TRUE,FALSE,FALSE,FALSE,FALSE,FALSE,Disabled,0.000000,0.000000,0.000000,TRUE,-0.008484,0.140701,0.000000,-0.022614,0.046738,0.000000,0.037000,0.008000,-0.031000,1.160000,-131.310000,0.600000,-114.169825,Hold,0.436768,0.000000,Hold,-174.000000,2.000000,Suck,-1785.000000,1818.181818,Speed,-1762.500000,1818.181818,Speed,Off,On,0.000000,FALSE,0,,,,,0.000000,0.000000,-0.050000
04:18:14.358 PM 04/29/2016,Teleop Enabled,9,FALSE,0,NO ERROR,-0.000000,0.173250,-0.000000,-0.173250,TRUE,FALSE,FALSE,FALSE,FALSE,FALSE,Disabled,0.000000,0.000000,0.000000,TRUE,-0.009308,0.144485,0.000000,-0.003311,0.067032,0.000000,0.035000,-0.014000,0.034000,1.160000,-131.320000,0.530000,-114.171914,Hold,0.436768,0.000000,Hold,-174.000000,2.000000,Suck,-1785.000000,1818.181818,Speed,-1755.000000,1818.181818,Speed,Off,On,0.000000,FALSE,0,,,,,0.000000,0.000000,-0.050000
04:18:14.458 PM 04/29/2016,Teleop Enabled,10,FALSE,0,NO ERROR,-0.000000,0.173250,-0.000000,-0.173250,TRUE,FALSE,FALSE,FALSE,FALSE,FALSE,Disabled,0.000000,0.000000,0.000000,TRUE,-0.009613,0.146423,0.000000,0.000000,0.030228,0.000000,0.000000,-0.018000,0.019000,1.220000,-131.320000,0.380000,-114.172193,Hold,0.436768,0.000000,Hold,-174.000000,2.000000,Suck,-1785.000000,1818.181818,Speed,-1762.500000,1818.181818,Speed,Off,On,0.000000,FALSE,0,,,,,0.000000,0.000000,-0.050000
04:18:14.558 PM 04/29/2016,Teleop Enabled,10,FALSE,0,NO ERROR,-0.000000,0.173250,-0.000000,-0.173250,TRUE,FALSE,FALSE,FALSE,FALSE,FALSE,Disabled,0.000000,0.000000,0.000000,TRUE,-0.010040,0.147964,0.000000,-0.012268,0.050644,0.000000,-0.015000,-0.035000,-0.016000,1.190000,-131.320000,0.490000,-114.170957,Hold,0.436768,0.000000,Hold,-174.000000,2.000000,Suck,-1785.000000,1818.181818,Speed,-1762.500000,1818.181818,Speed,Off,On,0.000000,FALSE,0,,,,,0.000000,0.000000,-0.050000
04:18:14.658 PM 04/29/2016,Teleop Enabled,11,FALSE,0,NO ERROR,-0.000000,0.173250,-0.000000,-0.173250,TRUE,FALSE,FALSE,FALSE,FALSE,FALSE,Disabled,0.000000,0.000000,0.000000,TRUE,-0.011261,0.150116,0.000000,-0.035492,0.063797,0.000000,0.001000,0.000000,-0.048000,1.160000,-131.310000,0.560000,-114.170995,Hold,0.436768,0.000000,Hold,-174.000000,2.000000,Suck,-1785.000000,1818.181818,Speed,-1755.000000,1818.181818,Speed,Off,On,0.000000,FALSE,0,,,,,0.000000,0.000000,-0.050000
04:18:14.758 PM 04/29/2016,Teleop Enabled,11,FALSE,0,NO ERROR,-0.000000,0.173250,-0.000000,-0.173250,TRUE,FALSE,FALSE,FALSE,FALSE,FALSE,Disabled,0.000000,0.000000,0.000000,TRUE,-0.014496,0.154846,0.000000,-0.049072,0.063980,0.000000,0.002000,-0.075000,0.023000,1.160000,-131.320000,0.500000,-114.167732,Hold,0.436768,0.000000,Hold,-174.000000,2.000000,Suck,-1785.000000,1818.181818,Speed,-1762.500000,1818.181818,Speed,Off,On,0.000000,FALSE,0,,,,,0.000000,0.000000,-0.050000
04:18:14.858 PM 04/29/2016,Teleop Enabled,11,FALSE,0,NO ERROR,-0.000000,0.173250,-0.000000,-0.173250,TRUE,FALSE,FALSE,FALSE,FALSE,FALSE,Disabled,0.000000,0.000000,0.000000,TRUE,-0.016739,0.156876,0.000000,-0.046951,0.023300,0.000000,-0.012000,-0.022000,0.000000,1.220000,-131.310000,0.360000,-114.169449,Hold,0.436768,0.000000,Hold,-174.000000,2.000000,Suck,-1785.000000,1818.181818,Speed,-1762.500000,1818.181818,Speed,Off,On,0.000000,FALSE,0,,,,,0.000000,0.000000,-0.050000
04:18:14.959 PM 04/29/2016,Teleop Enabled,11,FALSE,0,NO ERROR,-0.000000,0.173250,-0.000000,-0.173250,TRUE,FALSE,FALSE,FALSE,FALSE,FALSE,Disabled,0.000000,0.000000,0.000000,TRUE,-0.018295,0.157898,0.000000,-0.043808,0.022476,0.000000,0.034000,0.015000,-0.022000,1.240000,-131.310000,0.370000,-114.175553,Hold,0.436768,0.000000,Hold,-174.000000,2.000000,Suck,-1785.000000,1818.181818,Speed,-1762.500000,1818.181818,Speed,Off,On,0.000000,FALSE,0,,,,,0.000000,0.000000,-0.050000
04:18:15.059 PM 04/29/2016,Teleop Enabled,11,FALSE,0,NO ERROR,-0.000000,0.173250,-0.000000,-0.173250,TRUE,FALSE,FALSE,FALSE,FALSE,FALSE,Disabled,0.000000,0.000000,0.000000,TRUE,-0.020706,0.158417,0.000000,-0.045349,0.011292,0.000000,0.040000,0.163000,-0.010000,1.210000,-131.320000,0.460000,-114.179626,Hold,0.436768,0.000000,Hold,-174.000000,2.000000,Suck,-1785.000000,1818.181818,Speed,-1762.500000,1818.181818,Speed,Off,On,0.000000,FALSE,0,,,,,0.000000,0.000000,-0.050000
04:18:15.161 PM 04/29/2016,Teleop Enabled,10,FALSE,0,NO ERROR,-0.000000,0.173250,-0.000000,-0.173250,TRUE,FALSE,FALSE,FALSE,FALSE,FALSE,Disabled,0.000000,0.000000,0.000000,TRUE,-0.022003,0.160126,0.000000,0.001678,0.028351,0.000000,0.022000,0.045000,-0.039000,1.160000,-131.320000,0.510000,-114.175884,Hold,0.436768,0.000000,Hold,-174.000000,2.000000,Suck,-1785.000000,1818.181818,Speed,-1762.500000,1818.181818,Speed,Off,On,0.000000,FALSE,0,,,,,0.000000,0.000000,-0.050000
04:18:15.264 PM 04/29/2016,Teleop Enabled,10,FALSE,0,NO ERROR,-0.000000,0.173250,-0.000000,-0.173250,TRUE,FALSE,FALSE,FALSE,FALSE,FALSE,Disabled,0.000000,0.000000,0.000000,TRUE,-0.021683,0.161270,0.000000,0.011185,0.014420,0.000000,0.013000,0.058000,0.023000,1.190000,-131.320000,0.440000,-114.161452,Hold,0.436768,0.000000,Hold,-174.000000,2.000000,Suck,-1785.000000,1818.181818,Speed,-1762.500000,1818.181818,Speed,Off,On,0.000000,FALSE,0,,,,,0.000000,0.000000,-0.050000
04:18:15.365 PM 04/29/2016,Teleop Enabled,10,FALSE,0,NO ERROR,-0.000000,0.173250,-0.000000,-0.173250,TRUE,FALSE,FALSE,FALSE,FALSE,FALSE,Disabled,0.000000,0.000000,0.000000,TRUE,-0.020584,0.161591,0.000000,0.030869,-0.006393,0.000000,0.043000,0.008000,-0.017000,1.200000,-131.320000,0.340000,-114.151810,Hold,0.436768,0.000000,Hold,-174.000000,2.000000,Suck,-1785.000000,1818.181818,Speed,-1762.500000,1818.181818,Speed,Off,On,0.000000,FALSE,0,,,,,0.000000,0.000000,-0.050000
04:18:15.466 PM 04/29/2016,Teleop Enabled,10,FALSE,0,NO ERROR,-0.000000,0.173250,-0.000000,-0.173250,TRUE,FALSE,FALSE,FALSE,FALSE,FALSE,Disabled,0.000000,0.000000,0.000000,TRUE,-0.018433,0.161758,0.000000,0.025864,0.012482,0.000000,0.007000,0.052000,-0.085000,1.170000,-131.320000,0.440000,-114.164034,Hold,0.436768,0.000000,Hold,-174.000000,2.000000,Suck,-1792.500000,1818.181818,Speed,-1762.500000,1818.181818,Speed,Off,On,0.000000,FALSE,0,,,,,0.000000,0.000000,-0.050000
04:18:15.566 PM 04/29/2016,Teleop Enabled,9,FALSE,0,NO ERROR,-0.000000,0.173250,-0.000000,-0.173250,TRUE,FALSE,FALSE,FALSE,FALSE,FALSE,Disabled,0.000000,0.000000,0.000000,TRUE,-0.018280,0.163055,0.000000,-0.006638,0.048508,0.000000,-0.073000,-0.044000,0.007000,1.140000,-131.320000,0.500000,-114.171061,Hold,0.436768,0.000000,Hold,-174.000000,2.000000,Suck,-1785.000000,1818.181818,Speed,-1762.500000,1818.181818,Speed,Off,On,0.000000,FALSE,0,,,,,0.000000,0.000000,-0.050000
04:18:15.667 PM 04/29/2016,Teleop Enabled,10,FALSE,0,NO ERROR,-0.000000,0.173250,-0.000000,-0.173250,TRUE,FALSE,FALSE,FALSE,FALSE,FALSE,Disabled,0.000000,0.000000,0.000000,TRUE,-0.019073,0.165451,0.000000,-0.010544,0.055176,0.000000,-0.050000,-0.048000,0.025000,1.140000,-131.320000,0.510000,-114.177347,Hold,0.436768,0.000000,Hold,-174.000000,2.000000,Suck,-1785.000000,1818.181818,Speed,-1762.500000,1818.181818,Speed,Off,On,0.000000,FALSE,0,,,,,0.000000,0.000000,-0.050000
04:18:15.767 PM 04/29/2016,Teleop Enabled,9,FALSE,0,NO ERROR,-0.000000,0.173250,-0.000000,-0.173250,TRUE,FALSE,FALSE,FALSE,FALSE,FALSE,Disabled,0.000000,0.000000,0.000000,TRUE,-0.019836,0.167175,0.000000,-0.010178,0.027359,0.000000,0.006000,-0.061000,-0.015000,1.190000,-131.320000,0.380000,-114.180596,Hold,0.436768,0.000000,Hold,-174.000000,2.000000,Suck,-1785.000000,1818.181818,Speed,-1762.500000,1818.181818,Speed,Off,On,0.000000,FALSE,0,,,,,0.000000,0.000000,-0.050000
04:18:15.867 PM 04/29/2016,Teleop Enabled,10,FALSE,0,NO ERROR,-0.000000,0.173250,-0.000000,-0.173250,TRUE,FALSE,FALSE,FALSE,FALSE,FALSE,Disabled,0.000000,0.000000,0.000000,TRUE,-0.020676,0.167847,0.000000,-0.015198,0.024460,0.000000,0.016000,-0.015000,0.008000,1.190000,-131.320000,0.400000,-114.180166,Hold,0.436768,0.000000,Hold,-174.000000,2.000000,Suck,-1785.000000,1818.181818,Speed,-1762.500000,1818.181818,Speed,Off,On,0.000000,FALSE,0,,,,,0.000000,0.000000,-0.050000
04:18:15.967 PM 04/29/2016,Teleop Enabled,8,FALSE,0,NO ERROR,-0.000000,0.173250,-0.000000,-0.173250,TRUE,FALSE,FALSE,FALSE,FALSE,FALSE,Disabled,0.000000,0.000000,0.000000,TRUE,-0.021118,0.168503,0.000000,-0.015747,0.013229,0.000000,0.069000,-0.020000,-0.012000,1.180000,-131.320000,0.440000,-114.175168,Hold,0.436768,0.000000,Hold,-174.000000,2.000000,Suck,-1792.500000,1818.181818,Speed,-1762.500000,1818.181818,Speed,Off,On,0.000000,FALSE,0,,,,,0.000000,0.000000,-0.050000
04:18:16.066 PM 04/29/2016,Teleop Enabled,11,FALSE,0,NO ERROR,-0.000000,0.173250,-0.000000,-0.173250,TRUE,FALSE,FALSE,FALSE,FALSE,FALSE,Disabled,0.000000,0.000000,0.000000,TRUE,-0.021729,0.168961,0.000000,-0.016113,0.009903,0.000000,-0.016000,-0.049000,-0.029000,1.190000,-131.320000,0.430000,-114.169556,Hold,0.436768,0.000000,Hold,-174.000000,2.000000,Suck,-1785.000000,1818.181818,Speed,-1762.500000,1818.181818,Speed,Off,On,0.000000,FALSE,0,,,,,0.000000,0.000000,-0.050000
04:18:16.167 PM 04/29/2016,Teleop Enabled,9,FALSE,0,NO ERROR,-0.000000,0.173250,-0.000000,-0.173250,TRUE,FALSE,FALSE,FALSE,FALSE,FALSE,Disabled,0.000000,0.000000,0.000000,TRUE,-0.022034,0.168121,0.000000,-0.004471,-0.024750,0.000000,0.040000,0.071000,0.004000,1.280000,-131.320000,0.280000,-114.163972,Hold,0.436768,0.000000,Hold,-174.000000,2.000000,Suck,-1785.000000,1818.181818,Speed,-1762.500000,1818.181818,Speed,Off,On,0.000000,FALSE,0,,,,,0.000000,0.000000,-0.050000
04:18:16.268 PM 04/29/2016,Teleop Enabled,10,FALSE,0,NO ERROR,-0.000000,0.173250,-0.000000,-0.173250,TRUE,FALSE,FALSE,FALSE,FALSE,FALSE,Disabled,0.000000,0.000000,0.000000,TRUE,-0.022293,0.167297,0.000000,-0.007767,-0.012711,0.000000,0.017000,0.108000,-0.041000,1.210000,-131.320000,0.440000,-114.162991,Hold,0.436768,0.000000,Hold,-174.000000,2.000000,Suck,-1785.000000,1818.181818,Speed,-1762.500000,1818.181818,Speed,Off,On,0.000000,FALSE,0,,,,,0.000000,0.000000,-0.050000
04:18:16.367 PM 04/29/2016,Teleop Enabled,7,FALSE,0,NO ERROR,-0.000000,0.173250,-0.000000,-0.173250,TRUE,FALSE,FALSE,FALSE,FALSE,FALSE,Disabled,0.000000,0.000000,0.000000,TRUE,-0.022385,0.167847,0.000000,-0.004532,0.014603,0.000000,0.015000,-0.014000,0.013000,1.190000,-131.320000,0.480000,-114.152009,Hold,0.436768,0.000000,Hold,-174.000000,2.000000,Suck,-1792.500000,1818.181818,Speed,-1770.000000,1818.181818,Speed,Off,On,0.000000,FALSE,0,,,,,0.000000,0.000000,-0.050000
04:18:16.468 PM 04/29/2016,Teleop Enabled,10,FALSE,0,NO ERROR,-0.000000,0.173250,-0.000000,-0.173250,TRUE,FALSE,FALSE,FALSE,FALSE,FALSE,Disabled,0.000000,0.000000,0.000000,TRUE,-0.021759,0.167648,0.000000,0.020737,-0.016129,0.000000,-0.029000,-0.073000,0.057000,1.220000,-131.320000,0.350000,-114.133024,Hold,0.436768,0.000000,Hold,-173.000000,2.000000,Suck,-1785.000000,1818.181818,Speed,-1770.000000,1818.181818,Speed,Off,On,0.000000,FALSE,0,,,,,0.000000,0.000000,-0.050000
04:18:16.567 PM 04/29/2016,Teleop Enabled,10,FALSE,0,NO ERROR,-0.000000,0.173250,-0.000000,-0.173250,TRUE,FALSE,FALSE,FALSE,FALSE,FALSE,Disabled,0.000000,0.000000,0.000000,TRUE,-0.020950,0.166321,0.000000,0.014297,-0.017349,0.000000,-0.077000,0.013000,0.034000,1.220000,-131.320000,0.360000,-114.138002,Hold,0.436768,0.000000,Hold,-173.000000,2.000000,Suck,-1785.000000,1818.181818,Speed,-1770.000000,1818.181818,Speed,Off,On,0.000000,FALSE,0,,,,,0.000000,0.000000,-0.050000
04:18:16.668 PM 04/29/2016,Teleop Enabled,12,FALSE,0,NO ERROR,-0.000000,0.173250,-0.000000,-0.173250,TRUE,FALSE,FALSE,FALSE,FALSE,FALSE,Disabled,0.000000,0.000000,0.000000,TRUE,-0.020935,0.166779,0.000000,-0.013687,0.015823,0.000000,-0.051000,-0.118000,0.024000,1.180000,-131.320000,0.470000,-114.129027,Hold,0.436768,0.000000,Hold,-173.000000,2.000000,Suck,-1792.500000,1818.181818,Speed,-1762.500000,1818.181818,Speed,Off,On,0.000000,FALSE,0,,,,,0.000000,0.000000,-0.050000
04:18:16.769 PM 04/29/2016,Teleop Enabled,9,FALSE,0,NO ERROR,-0.000000,0.173250,-0.000000,-0.173250,TRUE,FALSE,FALSE,FALSE,FALSE,FALSE,Disabled,0.000000,0.000000,0.000000,TRUE,-0.021286,0.166565,0.000000,0.000000,-0.005890,0.000000,0.049000,-0.075000,0.013000,1.230000,-131.320000,0.340000,-114.150054,Hold,0.436768,0.000000,Hold,-173.000000,2.000000,Suck,-1785.000000,1818.181818,Speed,-1770.000000,1818.181818,Speed,Off,On,0.000000,FALSE,0,,,,,0.000000,0.000000,-0.050000
04:18:16.869 PM 04/29/2016,Teleop Enabled,11,FALSE,0,NO ERROR,-0.000000,0.173250,-0.000000,-0.173250,TRUE,FALSE,FALSE,FALSE,FALSE,FALSE,Disabled,0.000000,0.000000,0.000000,TRUE,-0.020676,0.165390,0.000000,0.020493,-0.023102,0.000000,0.018000,0.001000,-0.019000,1.240000,-131.320000,0.310000,-114.142398,Hold,0.436768,0.000000,Hold,-173.000000,2.000000,Suck,-1785.000000,1818.181818,Speed,-1770.000000,1818.181818,Speed,Off,On,0.000000,FALSE,0,,,,,0.000000,0.000000,-0.050000
04:18:16.969 PM 04/29/2016,Teleop Enabled,10,FALSE,0,NO ERROR,-0.000000,0.173250,-0.000000,-0.173250,TRUE,FALSE,FALSE,FALSE,FALSE,FALSE,Disabled,0.000000,0.000000,0.000000,TRUE,-0.020889,0.164825,0.000000,0.000793,0.007706,0.000000,-0.045000,0.040000,0.018000,1.190000,-131.320000,0.470000,-114.138642,Hold,0.436768,0.000000,Hold,-173.000000,2.000000,Suck,-1792.500000,1818.181818,Speed,-1762.500000,1818.181818,Speed,Off,On,0.000000,FALSE,0,,,,,0.000000,0.000000,-0.050000
04:18:17.069 PM 04/29/2016,Teleop Enabled,11,FALSE,0,NO ERROR,-0.000000,0.173250,-0.000000,-0.173250,TRUE,FALSE,FALSE,FALSE,FALSE,FALSE,Disabled,0.000000,0.000000,0.000000,TRUE,-0.021011,0.165695,0.000000,0.000290,0.012772,0.000000,0.017000,0.002000,0.005000,1.190000,-131.320000,0.470000,-114.123219,Hold,0.436768,0.000000,Hold,-173.000000,2.000000,Suck,-1792.500000,1818.181818,Speed,-1770.000000,1818.181818,Speed,Off,On,0.000000,FALSE,0,,,,,0.000000,0.000000,-0.050000
04:18:17.169 PM 04/29/2016,Teleop Enabled,10,FALSE,0,NO ERROR,-0.000000,0.173250,-0.000000,-0.173250,TRUE,FALSE,FALSE,FALSE,FALSE,FALSE,Disabled,0.000000,0.000000,0.000000,TRUE,-0.020782,0.165695,0.000000,0.005981,-0.010773,0.000000,0.020000,0.068000,0.029000,1.250000,-131.320000,0.310000,-114.105786,Hold,0.436768,0.000000,Hold,-173.000000,2.000000,Suck,-1785.000000,1818.181818,Speed,-1770.000000,1818.181818,Speed,Off,On,0.000000,FALSE,0,,,,,0.000000,0.000000,-0.050000
04:18:17.270 PM 04/29/2016,Teleop Enabled,11,FALSE,0,NO ERROR,-0.000000,0.173250,-0.000000,-0.173250,TRUE,FALSE,FALSE,FALSE,FALSE,FALSE,Disabled,0.000000,0.000000,0.000000,TRUE,-0.020813,0.165619,0.000000,-0.007874,0.000565,0.000000,0.009000,0.100000,0.016000,1.230000,-131.320000,0.360000,-114.100509,Hold,0.436768,0.000000,Hold,-173.000000,2.000000,Suck,-1792.500000,1818.181818,Speed,-1770.000000,1818.181818,Speed,Off,On,0.000000,FALSE,0,,,,,0.000000,0.000000,-0.050000
04:18:17.370 PM 04/29/2016,Teleop Enabled,11,FALSE,0,NO ERROR,-0.000000,0.173250,-0.000000,-0.173250,TRUE,FALSE,FALSE,FALSE,FALSE,FALSE,Disabled,0.000000,0.000000,0.000000,TRUE,-0.020935,0.166061,0.000000,0.000000,0.000000,0.000000,0.034000,0.081000,-0.028000,1.250000,-131.320000,0.360000,-114.104623,Hold,0.436768,0.000000,Hold,-173.000000,2.000000,Suck,-1792.500000,1818.181818,Speed,-1770.000000,1818.181818,Speed,Off,On,0.000000,FALSE,0,,,,,0.000000,0.000000,-0.050000
04:18:17.470 PM 04/29/2016,Teleop Enabled,11,FALSE,0,NO ERROR,-0.000000,0.173250,-0.000000,-0.173250,TRUE,FALSE,FALSE,FALSE,FALSE,FALSE,Disabled,0.000000,0.000000,0.000000,TRUE,-0.020706,0.165604,0.000000,0.000519,-0.021484,0.000000,0.034000,0.081000,-0.028000,1.250000,-131.320000,0.360000,-114.102302,Hold,0.436768,0.000000,Hold,-173.000000,2.000000,Suck,-1785.000000,1818.181818,Speed,-1770.000000,1818.181818,Speed,Off,On,0.000000,FALSE,0,,,,,0.000000,0.000000,-0.050000
04:18:17.570 PM 04/29/2016,Teleop Enabled,9,FALSE,0,NO ERROR,-0.000000,0.173250,-0.000000,-0.173250,TRUE,FALSE,FALSE,FALSE,FALSE,FALSE,Disabled,0.000000,0.000000,0.000000,TRUE,-0.020340,0.165405,0.000000,0.007034,0.003357,0.000000,0.043000,0.020000,-0.027000,1.280000,-131.320000,0.290000,-114.097624,Hold,0.436768,0.000000,Hold,-173.000000,2.000000,Suck,-1785.000000,1818.181818,Speed,-1770.000000,1818.181818,Speed,Off,On,0.000000,FALSE,0,,,,,0.000000,0.000000,-0.050000
04:18:17.671 PM 04/29/2016,Teleop Enabled,10,FALSE,0,NO ERROR,-0.000000,0.173250,-0.000000,-0.173250,TRUE,FALSE,FALSE,FALSE,FALSE,FALSE,Disabled,0.000000,0.000000,0.000000,TRUE,-0.020004,0.165451,0.000000,0.009796,-0.002731,0.000000,-0.049000,-0.023000,-0.043000,1.260000,-131.320000,0.330000,-114.099593,Hold,0.436768,0.000000,Hold,-173.000000,2.000000,Suck,-1792.500000,1818.181818,Speed,-1770.000000,1818.181818,Speed,Off,On,0.000000,FALSE,0,,,,,0.000000,0.000000,-0.050000
04:18:17.771 PM 04/29/2016,Teleop Enabled,9,FALSE,0,NO ERROR,-0.000000,0.173250,-0.000000,-0.173250,TRUE,FALSE,FALSE,FALSE,FALSE,FALSE,Disabled,0.000000,0.000000,0.000000,TRUE,-0.020004,0.165451,0.000000,0.009796,-0.002731,0.000000,-0.059000,-0.032000,0.038000,1.240000,-131.320000,0.330000,-114.086257,Hold,0.436768,0.000000,Hold,-173.000000,2.000000,Suck,-1792.500000,1818.181818,Speed,-1770.000000,1818.181818,Speed,Off,On,0.000000,FALSE,0,,,,,0.000000,0.000000,-0.050000
04:18:17.871 PM 04/29/2016,Teleop Enabled,8,FALSE,0,NO ERROR,-0.000000,0.173250,-0.000000,-0.173250,TRUE,FALSE,FALSE,FALSE,FALSE,FALSE,Disabled,0.000000,0.000000,0.000000,TRUE,-0.019272,0.165054,0.000000,0.013931,-0.017563,0.000000,0.069000,-0.019000,-0.017000,1.270000,-131.320000,0.250000,-114.092198,Hold,0.436768,0.000000,Hold,-173.000000,2.000000,Suck,-1785.000000,1818.181818,Speed,-1770.000000,1818.181818,Speed,Off,On,0.000000,FALSE,0,,,,,0.000000,0.000000,-0.050000
04:18:17.972 PM 04/29/2016,Teleop Enabled,9,FALSE,0,NO ERROR,-0.000000,0.173250,-0.000000,-0.173250,TRUE,FALSE,FALSE,FALSE,FALSE,FALSE,Disabled,0.000000,0.000000,0.000000,TRUE,-0.018387,0.164261,0.000000,0.000000,-0.017258,0.000000,-0.004000,0.015000,0.010000,1.280000,-131.320000,0.240000,-114.092198,Hold,0.436768,0.000000,Hold,-173.000000,2.000000,Suck,-1785.000000,1818.181818,Speed,-1770.000000,1818.181818,Speed,Off,On,0.000000,FALSE,0,,,,,0.000000,0.000000,-0.050000
04:18:18.072 PM 04/29/2016,Teleop Enabled,10,FALSE,0,NO ERROR,-0.000000,0.173250,-0.000000,-0.173250,TRUE,FALSE,FALSE,FALSE,FALSE,FALSE,Disabled,0.000000,0.000000,0.000000,TRUE,-0.018417,0.163849,0.000000,-0.003937,-0.010345,0.000000,0.033000,0.068000,0.034000,1.260000,-131.320000,0.310000,-114.082363,Hold,0.436768,0.000000,Hold,-173.000000,2.000000,Suck,-1792.500000,1818.181818,Speed,-1770.000000,1818.181818,Speed,Off,On,0.000000,FALSE,0,,,,,0.000000,0.000000,-0.050000
04:18:18.174 PM 04/29/2016,Teleop Enabled,9,FALSE,0,NO ERROR,-0.000000,0.173250,-0.000000,-0.173250,TRUE,FALSE,FALSE,FALSE,FALSE,FALSE,Disabled,0.000000,0.000000,0.000000,TRUE,-0.018478,0.163635,0.000000,-0.004501,-0.010757,0.000000,0.016000,0.010000,0.074000,1.280000,-131.320000,0.260000,-114.089038,Hold,0.436768,0.000000,Hold,-173.000000,2.000000,Suck,-1792.500000,1818.181818,Speed,-1770.000000,1818.181818,Speed,Off,On,0.000000,FALSE,0,,,,,0.000000,0.000000,-0.050000
04:18:18.276 PM 04/29/2016,Teleop Enabled,11,FALSE,0,NO ERROR,-0.000000,0.173250,-0.000000,-0.173250,TRUE,FALSE,FALSE,FALSE,FALSE,FALSE,Disabled,0.000000,0.000000,0.000000,TRUE,-0.018677,0.163101,0.000000,-0.001587,0.000824,0.000000,-0.021000,0.030000,0.059000,1.270000,-131.320000,0.320000,-114.086408,Hold,0.436768,0.000000,Hold,-173.000000,2.000000,Suck,-1785.000000,1818.181818,Speed,-1770.000000,1818.181818,Speed,Off,On,0.000000,FALSE,0,,,,,0.000000,0.000000,-0.050000
04:18:18.376 PM 04/29/2016,Teleop Enabled,12,FALSE,0,NO ERROR,-0.000000,0.173250,-0.000000,-0.173250,TRUE,FALSE,FALSE,FALSE,FALSE,FALSE,Disabled,0.000000,0.000000,0.000000,TRUE,-0.019318,0.163483,0.000000,-0.009048,0.006714,0.000000,0.020000,-0.105000,0.017000,1.260000,-131.320000,0.340000,-114.098729,Hold,0.436768,0.000000,Hold,-173.000000,2.000000,Suck,-1792.500000,1818.181818,Speed,-1770.000000,1818.181818,Speed,Off,On,0.000000,FALSE,0,,,,,0.000000,0.000000,-0.050000
04:18:18.477 PM 04/29/2016,Teleop Enabled,11,FALSE,0,NO ERROR,-0.000000,0.173250,-0.000000,-0.173250,TRUE,FALSE,FALSE,FALSE,FALSE,FALSE,Disabled,0.000000,0.000000,0.000000,TRUE,-0.019196,0.163040,0.000000,0.007904,-0.004272,0.000000,0.045000,0.067000,0.018000,1.300000,-131.320000,0.240000,-114.089530,Hold,0.436768,0.000000,Hold,-173.000000,2.000000,Suck,-1792.500000,1818.181818,Speed,-1777.500000,1818.181818,Speed,Off,On,0.000000,FALSE,0,,,,,0.000000,0.000000,-0.050000
04:18:18.578 PM 04/29/2016,Teleop Enabled,12,FALSE,0,NO ERROR,-0.000000,0.173250,-0.000000,-0.173250,TRUE,FALSE,FALSE,FALSE,FALSE,FALSE,Disabled,0.000000,0.000000,0.000000,TRUE,-0.019180,0.163162,0.000000,0.003204,0.016525,0.000000,-0.014000,-0.030000,-0.028000,1.240000,-131.320000,0.380000,-114.081767,Hold,0.436768,0.000000,Hold,-173.000000,2.000000,Suck,-1792.500000,1818.181818,Speed,-1770.000000,1818.181818,Speed,Off,On,0.000000,FALSE,0,,,,,0.000000,0.000000,-0.050000
04:18:18.678 PM 04/29/2016,Teleop Enabled,13,FALSE,0,NO ERROR,-0.000000,0.173250,-0.000000,-0.173250,TRUE,FALSE,FALSE,FALSE,FALSE,FALSE,Disabled,0.000000,0.000000,0.000000,TRUE,-0.018982,0.163605,0.000000,0.013016,0.007309,0.000000,-0.008000,-0.026000,-0.008000,1.280000,-131.320000,0.290000,-114.077977,Hold,0.436768,0.000000,Hold,-173.000000,2.000000,Suck,-1792.500000,1818.181818,Speed,-1777.500000,1818.181818,Speed,Off,On,0.000000,FALSE,0,,,,,0.000000,0.000000,-0.050000
04:18:18.779 PM 04/29/2016,Teleop Enabled,12,FALSE,0,NO ERROR,-0.000000,0.173250,-0.000000,-0.173250,TRUE,FALSE,FALSE,FALSE,FALSE,FALSE,Disabled,0.000000,0.000000,0.000000,TRUE,-0.018646,0.163757,0.000000,0.002228,0.010971,0.000000,0.016000,-0.021000,-0.036000,1.270000,-131.320000,0.330000,-114.067591,Hold,0.436768,0.000000,Hold,-173.000000,2.000000,Suck,-1792.500000,1818.181818,Speed,-1770.000000,1818.181818,Speed,Off,On,0.000000,FALSE,0,,,,,0.000000,0.000000,-0.050000
04:18:18.880 PM 04/29/2016,Teleop Enabled,9,FALSE,0,NO ERROR,-0.000000,0.173250,-0.000000,-0.173250,TRUE,FALSE,FALSE,FALSE,FALSE,FALSE,Disabled,0.000000,0.000000,0.000000,TRUE,-0.018997,0.164810,0.000000,-0.017838,0.022995,0.000000,0.061000,-0.061000,-0.018000,1.230000,-131.320000,0.420000,-114.076487,Hold,0.436768,0.000000,Hold,-173.000000,2.000000,Suck,-1792.500000,1818.181818,Speed,-1777.500000,1818.181818,Speed,Off,On,0.000000,FALSE,0,,,,,0.000000,0.000000,-0.050000
04:18:18.981 PM 04/29/2016,Teleop Enabled,12,FALSE,0,NO ERROR,-0.000000,0.173250,-0.000000,-0.173250,TRUE,FALSE,FALSE,FALSE,FALSE,FALSE,Disabled,0.000000,0.000000,0.000000,TRUE,-0.019073,0.165207,0.000000,0.001236,-0.003052,0.000000,-0.015000,-0.017000,0.018000,1.270000,-131.320000,0.330000,-114.075178,Hold,0.436768,0.000000,Hold,-173.000000,2.000000,Suck,-1785.000000,1818.181818,Speed,-1777.500000,1818.181818,Speed,Off,On,0.000000,FALSE,0,,,,,0.000000,0.000000,-0.050000
04:18:19.082 PM 04/29/2016,Teleop Enabled,11,FALSE,0,NO ERROR,-0.000000,0.173250,-0.000000,-0.173250,TRUE,FALSE,FALSE,FALSE,FALSE,FALSE,Disabled,0.000000,0.000000,0.000000,TRUE,-0.019547,0.165466,0.000000,-0.023331,0.003830,0.000000,-0.097000,0.046000,0.042000,1.210000,-131.320000,0.460000,-114.088418,Hold,0.436768,0.000000,Hold,-173.000000,2.000000,Suck,-1792.500000,1818.181818,Speed,-1770.000000,1818.181818,Speed,Off,On,0.000000,FALSE,0,,,,,0.000000,0.000000,-0.050000
04:18:19.182 PM 04/29/2016,Teleop Enabled,12,FALSE,0,NO ERROR,-0.000000,0.173250,-0.000000,-0.173250,TRUE,FALSE,FALSE,FALSE,FALSE,FALSE,Disabled,0.000000,0.000000,0.000000,TRUE,-0.020233,0.165741,0.000000,0.000000,-0.001648,0.000000,0.065000,-0.015000,0.023000,1.230000,-131.320000,0.390000,-114.072961,Hold,0.436768,0.000000,Hold,-173.000000,2.000000,Suck,-1792.500000,1818.181818,Speed,-1777.500000,1818.181818,Speed,Off,On,0.000000,FALSE,0,,,,,0.000000,0.000000,-0.050000
04:18:19.283 PM 04/29/2016,Teleop Enabled,10,FALSE,0,NO ERROR,-0.000000,0.173250,-0.000000,-0.173250,TRUE,FALSE,FALSE,FALSE,FALSE,FALSE,Disabled,0.000000,0.000000,0.000000,TRUE,-0.019897,0.164886,0.000000,0.012619,-0.014877,0.000000,-0.121000,0.017000,0.094000,1.220000,-131.320000,0.360000,-114.077203,Hold,0.436768,0.000000,Hold,-173.000000,2.000000,Suck,-1792.500000,1818.181818,Speed,-1777.500000,1818.181818,Speed,Off,On,0.000000,FALSE,0,,,,,0.000000,0.000000,-0.050000
04:18:19.383 PM 04/29/2016,Teleop Enabled,11,FALSE,0,NO ERROR,-0.000000,0.173250,-0.000000,-0.173250,TRUE,FALSE,FALSE,FALSE,FALSE,FALSE,Disabled,0.000000,0.000000,0.000000,TRUE,-0.019958,0.164688,0.000000,-0.004837,0.012665,0.000000,0.026000,-0.113000,0.050000,1.190000,-131.320000,0.440000,-114.076645,Hold,0.436768,0.000000,Hold,-173.000000,2.000000,Suck,-1792.500000,1818.181818,Speed,-1777.500000,1818.181818,Speed,Off,On,0.000000,FALSE,0,,,,,0.000000,0.000000,-0.050000
04:18:19.483 PM 04/29/2016,Teleop Enabled,12,FALSE,0,NO ERROR,-0.000000,0.173250,-0.000000,-0.173250,TRUE,FALSE,FALSE,FALSE,FALSE,FALSE,Disabled,0.000000,0.000000,0.000000,TRUE,-0.020325,0.164093,0.000000,0.000595,-0.015671,0.000000,-0.033000,-0.042000,0.009000,1.250000,-131.320000,0.350000,-114.081251,Hold,0.436768,0.000000,Hold,-173.000000,2.000000,Suck,-1785.000000,1818.181818,Speed,-1777.500000,1818.181818,Speed,Off,On,0.000000,FALSE,0,,,,,0.000000,0.000000,-0.050000
04:18:19.583 PM 04/29/2016,Teleop Enabled,12,FALSE,0,NO ERROR,-0.000000,0.173250,-0.000000,-0.173250,TRUE,FALSE,FALSE,FALSE,FALSE,FALSE,Disabled,0.000000,0.000000,0.000000,TRUE,-0.020905,0.163315,0.000000,-0.014771,0.000885,0.000000,-0.068000,-0.015000,0.017000,1.210000,-131.320000,0.450000,-114.074752,Hold,0.436768,0.000000,Hold,-173.000000,2.000000,Suck,-1792.500000,1818.181818,Speed,-1777.500000,1818.181818,Speed,Off,On,0.000000,FALSE,0,,,,,0.000000,0.000000,-0.050000
04:18:19.683 PM 04/29/2016,Teleop Enabled,13,FALSE,0,NO ERROR,-0.000000,0.173250,-0.000000,-0.173250,TRUE,FALSE,FALSE,FALSE,FALSE,FALSE,Disabled,0.000000,0.000000,0.000000,TRUE,-0.021591,0.162964,0.000000,-0.002121,-0.007889,0.000000,0.049000,-0.013000,-0.041000,1.210000,-131.320000,0.410000,-114.066276,Hold,0.436768,0.000000,Hold,-173.000000,2.000000,Suck,-1792.500000,1818.181818,Speed,-1777.500000,1818.181818,Speed,Off,On,0.000000,FALSE,0,,,,,0.000000,0.000000,-0.050000
04:18:19.784 PM 04/29/2016,Teleop Enabled,9,FALSE,0,NO ERROR,-0.000000,0.173250,-0.000000,-0.173250,TRUE,FALSE,FALSE,FALSE,FALSE,FALSE,Disabled,0.000000,0.000000,0.000000,TRUE,-0.021149,0.161484,0.000000,0.011887,-0.028915,0.000000,-0.017000,0.026000,-0.084000,1.250000,-131.320000,0.360000,-114.064104,Hold,0.436768,0.000000,Hold,-173.000000,2.000000,Suck,-1792.500000,1818.181818,Speed,-1777.500000,1818.181818,Speed,Off,On,0.000000,FALSE,0,,,,,0.000000,0.000000,-0.050000
04:18:19.885 PM 04/29/2016,Teleop Enabled,8,FALSE,0,NO ERROR,-0.000000,0.173250,-0.000000,-0.173250,TRUE,FALSE,FALSE,FALSE,FALSE,FALSE,Disabled,0.000000,0.000000,0.000000,TRUE,-0.020950,0.160492,0.000000,0.006607,-0.020706,0.000000,0.068000,0.029000,-0.038000,1.230000,-131.320000,0.400000,-114.067398,Hold,0.436768,0.000000,Hold,-173.000000,2.000000,Suck,-1792.500000,1818.181818,Speed,-1777.500000,1818.181818,Speed,Off,On,0.000000,FALSE,0,,,,,0.000000,0.000000,-0.050000
04:18:19.985 PM 04/29/2016,Teleop Enabled,8,FALSE,0,NO ERROR,-0.000000,0.173250,-0.000000,-0.173250,TRUE,FALSE,FALSE,FALSE,FALSE,FALSE,Disabled,0.000000,0.000000,0.000000,TRUE,-0.019882,0.158966,0.000000,0.024994,-0.026566,0.000000,0.017000,0.090000,-0.081000,1.300000,-131.320000,0.270000,-114.076184,Hold,0.436768,0.000000,Hold,-173.000000,2.000000,Suck,-1792.500000,1818.181818,Speed,-1777.500000,1818.181818,Speed,Off,On,0.000000,FALSE,0,,,,,0.000000,0.000000,-0.050000
04:18:20.084 PM 04/29/2016,Teleop Enabled,9,FALSE,0,NO ERROR,-0.000000,0.173250,-0.000000,-0.173250,TRUE,FALSE,FALSE,FALSE,FALSE,FALSE,Disabled,0.000000,0.000000,0.000000,TRUE,-0.019043,0.158432,0.000000,0.013962,-0.020325,0.000000,-0.004000,0.073000,-0.010000,1.250000,-131.320000,0.360000,-114.077695,Hold,0.436768,0.000000,Hold,-173.000000,2.000000,Suck,-1792.500000,1818.181818,Speed,-1777.500000,1818.181818,Speed,Off,On,0.000000,FALSE,0,,,,,0.000000,0.000000,-0.050000
04:18:20.185 PM 04/29/2016,Teleop Enabled,11,FALSE,0,NO ERROR,-0.000000,0.173250,-0.000000,-0.173250,TRUE,FALSE,FALSE,FALSE,FALSE,FALSE,Disabled,0.000000,0.000000,0.000000,TRUE,-0.018845,0.157455,0.000000,0.006912,-0.035751,0.000000,-0.049000,0.017000,0.031000,1.280000,-131.320000,0.270000,-114.077733,Hold,0.436768,0.000000,Hold,-173.000000,2.000000,Suck,-1792.500000,1818.181818,Speed,-1777.500000,1818.181818,Speed,Off,On,0.000000,FALSE,0,,,,,0.000000,0.000000,-0.050000
04:18:20.285 PM 04/29/2016,Teleop Enabled,10,FALSE,0,NO ERROR,-0.000000,0.173250,-0.000000,-0.173250,TRUE,FALSE,FALSE,FALSE,FALSE,FALSE,Disabled,0.000000,0.000000,0.000000,TRUE,-0.018250,0.156723,0.000000,0.012177,0.004852,0.000000,0.012000,0.001000,0.055000,1.270000,-131.320000,0.310000,-114.064080,Hold,0.436768,0.000000,Hold,-173.000000,2.000000,Suck,-1792.500000,1818.181818,Speed,-1777.500000,1818.181818,Speed,Off,On,0.000000,FALSE,0,,,,,0.000000,0.000000,-0.050000
04:18:20.386 PM 04/29/2016,Teleop Enabled,10,FALSE,0,NO ERROR,-0.000000,0.173250,-0.000000,-0.173250,TRUE,FALSE,FALSE,FALSE,FALSE,FALSE,Disabled,0.000000,0.000000,0.000000,TRUE,-0.018204,0.156891,0.000000,0.000275,-0.001877,0.000000,-0.064000,-0.052000,0.065000,1.260000,-131.310000,0.310000,-114.067157,Hold,0.436768,0.000000,Hold,-173.000000,2.000000,Suck,-1792.500000,1818.181818,Speed,-1777.500000,1818.181818,Speed,Off,On,0.000000,FALSE,0,,,,,0.000000,0.000000,-0.050000
04:18:20.486 PM 04/29/2016,Teleop Enabled,10,FALSE,0,NO ERROR,-0.000000,0.173250,-0.000000,-0.173250,TRUE,FALSE,FALSE,FALSE,FALSE,FALSE,Disabled,0.000000,0.000000,0.000000,TRUE,-0.018417,0.155792,0.000000,-0.003143,-0.017731,0.000000,-0.022000,-0.036000,0.062000,1.280000,-131.310000,0.270000,-114.061925,Hold,0.436768,0.000000,Hold,-173.000000,2.000000,Suck,-1792.500000,1818.181818,Speed,-1777.500000,1818.181818,Speed,Off,On,0.000000,FALSE,0,,,,,0.000000,0.000000,-0.050000
04:18:20.586 PM 04/29/2016,Teleop Enabled,11,FALSE,0,NO ERROR,-0.000000,0.173250,-0.000000,-0.173250,TRUE,FALSE,FALSE,FALSE,FALSE,FALSE,Disabled,0.000000,0.000000,0.000000,TRUE,-0.018982,0.155136,0.000000,-0.006424,0.010452,0.000000,-0.020000,-0.086000,0.007000,1.250000,-131.310000,0.360000,-114.056179,Hold,0.436768,0.000000,Hold,-173.000000,2.000000,Suck,-1792.500000,1818.181818,Speed,-1777.500000,1818.181818,Speed,Off,On,0.000000,FALSE,0,,,,,0.000000,0.000000,-0.050000
04:18:20.686 PM 04/29/2016,Teleop Enabled,7,FALSE,0,NO ERROR,-0.000000,0.173250,-0.000000,-0.173250,TRUE,FALSE,FALSE,FALSE,FALSE,FALSE,Disabled,0.000000,0.000000,0.000000,TRUE,-0.019196,0.154953,0.000000,0.005203,-0.002319,0.000000,-0.072000,0.000000,0.022000,1.270000,-131.310000,0.290000,-114.045941,Hold,0.436768,0.000000,Hold,-173.000000,2.000000,Suck,-1792.500000,1818.181818,Speed,-1785.000000,1818.181818,Speed,Off,On,0.000000,FALSE,0,,,,,0.000000,0.000000,-0.050000
04:18:20.785 PM 04/29/2016,Teleop Enabled,11,FALSE,0,NO ERROR,-0.000000,0.173250,-0.000000,-0.173250,TRUE,FALSE,FALSE,FALSE,FALSE,FALSE,Disabled,0.000000,0.000000,0.000000,TRUE,-0.019699,0.154602,0.000000,-0.013840,-0.003174,0.000000,0.000000,-0.046000,-0.006000,1.270000,-131.310000,0.350000,-114.047338,Hold,0.436768,0.000000,Hold,-173.000000,2.000000,Suck,-1792.500000,1818.181818,Speed,-1777.500000,1818.181818,Speed,Off,On,0.000000,FALSE,0,,,,,0.000000,0.000000,-0.050000
04:18:20.886 PM 04/29/2016,Teleop Enabled,2,FALSE,0,NO ERROR,-0.000000,0.173250,-0.000000,-0.173250,TRUE,FALSE,FALSE,FALSE,FALSE,FALSE,Disabled,0.000000,0.000000,0.000000,TRUE,-0.020172,0.153885,0.000000,-0.011703,-0.017410,0.000000,-0.040000,0.009000,0.014000,1.270000,-131.310000,0.300000,-114.058923,Hold,0.436768,0.000000,Hold,-173.000000,2.000000,Suck,-1792.500000,1818.181818,Speed,-1777.500000,1818.181818,Speed,Off,On,0.000000,FALSE,0,,,,,0.000000,0.000000,-0.050000
04:18:20.987 PM 04/29/2016,Teleop Enabled,9,FALSE,0,NO ERROR,-0.000000,0.173250,-0.000000,-0.173250,TRUE,FALSE,FALSE,FALSE,FALSE,FALSE,Disabled,0.000000,0.000000,0.000000,TRUE,-0.020889,0.153610,0.000000,-0.023300,-0.003708,0.000000,0.028000,0.039000,-0.046000,1.250000,-131.310000,0.310000,-114.065016,Hold,0.436768,0.000000,Hold,-173.000000,2.000000,Suck,-1792.500000,1818.181818,Speed,-1785.000000,1818.181818,Speed,Off,On,0.000000,FALSE,0,,,,,0.000000,0.000000,-0.050000
04:18:21.088 PM 04/29/2016,Teleop Enabled,9,FALSE,0,NO ERROR,-0.000000,0.173250,-0.000000,-0.173250,TRUE,FALSE,FALSE,FALSE,FALSE,FALSE,Disabled,0.000000,0.000000,0.000000,TRUE,-0.021729,0.153305,0.000000,-0.016876,-0.027954,0.000000,0.117000,0.058000,-0.029000,1.290000,-131.300000,0.240000,-114.069922,Hold,0.436768,0.000000,Hold,-173.000000,2.000000,Suck,-1792.500000,1818.181818,Speed,-1777.500000,1818.181818,Speed,Off,On,0.000000,FALSE,0,,,,,0.000000,0.000000,-0.050000
