Time,Robot Mode,Loop Time,Error Status,Error Code,Error Source,Left Motor Output,Left Motor Encoder,Right Motor Output,Right Motor Encoder,Is Level,Is Stalled,Ball Detector Photoeye,Vision Enabled,Vision Teleop Control,Vision Auto Control,Vision Current State,Vision X Output,Vision NavX Error,Vision NavX Target,NavX Connection Status,NavX Displacement X,NavX Displacement Y,NavX Displacement Z,NavX Velocity X,NavX Velocity Y,NavX Velocity Z,NavX Acceleration X,NavX Acceleration Y,NavX Acceleration Z,NavX Pitch,NavX Yaw,NavX Roll,Gyro Angle,Roller Arm State,Roller Arm Actual,Roller Arm Desired,Shooter Arm State,Shooter Arm Actual,Shooter Arm Desired,Shooter State,Actual RPM Left,Desired RPM Left,Control Mode Left,Actual RPM Right,Desired RPM Right,Control Mode Right,Ball Shooter Cylinder,Ball Halo Cylinder,Scaler Motor Output,Scaler Solenoid Fire,Auto To Run,Auto Current File,Auto File Status,Auto Current Command,Auto Trimmed Command,Shooter Amps Left,Shooter Amps Right, Vision After Offset
02:21:14.516 PM 04/29/2016,Autonomous Enabled,10,TRUE,-44003,<LOCATION>WPI_CameraIssue HTTP Request with Authentication.vi<CALLSTACK>WPI_CameraIssue HTTP Request with Authentication.vi< <WPI_CameraIssue Get.vi< <WPI_CameraSet Image Appearance Property.vi< <WPI_CameraSet Image Size.vi< <Vision Processing.vi< <Robot Main.vi,0.000000,0.000000,-0.000000,0.000000,TRUE,TRUE,TRUE,TRUE,FALSE,FALSE,Disabled,0.000000,0.000000,0.000000,TRUE,-0.001587,-0.000549,0.000000,0.000000,0.000000,0.000000,0.000000,-0.001000,0.004000,1.900000,-0.490000,0.000000,-1.325089,ResetBack,-0.043213,-0.000049,ResetBack,88.000000,-0.250000,LowGoal,0.000000,-2181.818182,Speed,0.000000,-2181.818182,Speed,Off,Off,0.000000,FALSE,35,Read: /home/lvuser/scripts/auto_35.bee,File good!,WAIT 1500,WAIT,0.000000,0.000000,-0.050000
02:21:14.618 PM 04/29/2016,Autonomous Enabled,7,TRUE,7,Read from Text File in DoesScriptNumberContainNull.vi->Disabled.vi->Robot Main.vi<APPEND> /home/lvuser/scripts/auto_32.bee,0.000000,0.000000,-0.000000,0.000000,TRUE,FALSE,TRUE,TRUE,FALSE,FALSE,Disabled,0.000000,0.000000,0.000000,TRUE,-0.002304,-0.000061,0.000000,-0.013184,0.013901,0.000000,0.015000,-0.010000,0.048000,1.960000,-0.490000,-0.040000,-1.336095,ResetBack,-1.453613,-0.000049,ResetBack,88.000000,-0.250000,LowGoal,127.500000,0.000000,Speed,262.500000,0.000000,Speed,Off,Off,0.000000,FALSE,35,Read: /home/lvuser/scripts/auto_35.bee,File good!,WAIT 1500,WAIT,0.000000,0.000000,-0.050000
02:21:14.719 PM 04/29/2016,Autonomous Enabled,14,TRUE,7,Read from Text File in DoesScriptNumberContainNull.vi->Disabled.vi->Robot Main.vi<APPEND> /home/lvuser/scripts/auto_32.bee,0.000000,0.000000,-0.000000,0.000000,TRUE,FALSE,TRUE,TRUE,FALSE,FALSE,Disabled,0.000000,0.000000,0.000000,TRUE,-0.002777,0.000656,0.000000,-0.022583,0.020966,0.000000,-0.034000,0.095000,0.019000,2.010000,-0.490000,-0.050000,-1.351445,ResetBack,-1.847900,-0.000049,ResetBack,7076.000000,-0.250000,LowGoal,667.500000,-2181.818182,Speed,937.500000,-2181.818182,Speed,Off,Off,0.000000,FALSE,35,Read: /home/lvuser/scripts/auto_35.bee,File good!,WAIT 1500,WAIT,0.000000,0.000000,-0.050000
02:21:14.821 PM 04/29/2016,Autonomous Enabled,10,TRUE,7,Read from Text File in DoesScriptNumberContainNull.vi->Disabled.vi->Robot Main.vi<APPEND> /home/lvuser/scripts/auto_32.bee,0.000000,0.000000,-0.000000,0.000000,TRUE,FALSE,TRUE,TRUE,FALSE,FALSE,Disabled,0.000000,0.000000,0.000000,TRUE,-0.003738,0.001877,0.000000,-0.012085,0.010254,0.000000,0.025000,-0.007000,0.044000,1.970000,-0.490000,0.050000,-1.348295,Reset,-1.875977,0.000000,ResetBack,12825.000000,-0.250000,LowGoal,855.000000,-2181.818182,Speed,1072.500000,-2181.818182,Speed,Off,Off,0.000000,FALSE,35,Read: /home/lvuser/scripts/auto_35.bee,File good!,WAIT 1500,WAIT,0.000000,0.000000,-0.050000
02:21:14.922 PM 04/29/2016,Autonomous Enabled,9,TRUE,7,Read from Text File in DoesScriptNumberContainNull.vi->Disabled.vi->Robot Main.vi<APPEND> /home/lvuser/scripts/auto_32.bee,0.000000,0.000000,-0.000000,0.000000,TRUE,FALSE,TRUE,TRUE,FALSE,FALSE,Disabled,0.000000,0.000000,0.000000,TRUE,-0.004150,0.002548,0.000000,0.000000,0.021179,0.000000,-0.084000,0.015000,-0.019000,2.000000,-0.490000,0.060000,-1.353042,Hold,0.240234,0.000000,ResetBack,13018.000000,-0.250000,LowGoal,1230.000000,-2181.818182,Speed,1470.000000,-2181.818182,Speed,Off,Off,0.000000,FALSE,35,Read: /home/lvuser/scripts/auto_35.bee,File good!,WAIT 1500,WAIT,0.000000,0.000000,-0.050000
02:21:15.023 PM 04/29/2016,Autonomous Enabled,7,TRUE,7,Read from Text File in DoesScriptNumberContainNull.vi->Disabled.vi->Robot Main.vi<APPEND> /home/lvuser/scripts/auto_32.bee,0.000000,0.000000,-0.000000,0.000000,TRUE,FALSE,TRUE,TRUE,FALSE,FALSE,Disabled,0.000000,0.000000,0.000000,TRUE,-0.004349,0.002579,0.000000,0.005371,-0.010239,0.000000,0.006000,0.039000,-0.065000,1.930000,-0.490000,0.040000,-1.336170,Hold,0.560303,0.000000,ResetBack,13022.000000,-0.250000,LowGoal,1725.000000,-2181.818182,Speed,2025.000000,-2181.818182,Speed,Off,Off,0.000000,FALSE,35,Read: /home/lvuser/scripts/auto_35.bee,File good!,WAIT 1500,WAIT,0.000000,0.000000,-0.050000
02:21:15.124 PM 04/29/2016,Autonomous Enabled,9,TRUE,7,Read from Text File in DoesScriptNumberContainNull.vi->Disabled.vi->Robot Main.vi<APPEND> /home/lvuser/scripts/auto_32.bee,0.000000,0.000000,-0.000000,0.000000,TRUE,FALSE,TRUE,TRUE,FALSE,FALSE,Disabled,0.000000,0.000000,0.000000,TRUE,-0.004395,0.003571,0.000000,-0.016769,0.048828,0.000000,-0.112000,0.039000,-0.017000,1.910000,-0.490000,0.040000,-1.330576,Hold,0.560303,0.000000,ResetBack,13075.000000,-0.250000,LowGoal,2062.500000,-2181.818182,Speed,2227.500000,-2181.818182,Speed,Off,Off,0.000000,FALSE,35,Read: /home/lvuser/scripts/auto_35.bee,File good!,WAIT 1500,WAIT,0.000000,0.000000,-0.050000
02:21:15.226 PM 04/29/2016,Autonomous Enabled,11,TRUE,7,Read from Text File in DoesScriptNumberContainNull.vi->Disabled.vi->Robot Main.vi<APPEND> /home/lvuser/scripts/auto_32.bee,0.000000,0.000000,-0.000000,0.000000,TRUE,FALSE,TRUE,TRUE,FALSE,FALSE,Disabled,0.000000,0.000000,0.000000,TRUE,-0.006958,0.007355,0.000000,-0.060196,0.077682,0.000000,0.009000,0.014000,-0.021000,1.890000,-0.490000,0.040000,-1.325746,Hold,0.560303,0.000000,ResetBack,13075.000000,-0.250000,LowGoal,2220.000000,-2181.818182,Speed,2137.500000,-2181.818182,Speed,Off,Off,0.000000,FALSE,35,Read: /home/lvuser/scripts/auto_35.bee,File good!,WAIT 1500,WAIT,0.000000,0.000000,-0.050000
02:21:15.326 PM 04/29/2016,Autonomous Enabled,10,TRUE,7,Read from Text File in DoesScriptNumberContainNull.vi->Disabled.vi->Robot Main.vi<APPEND> /home/lvuser/scripts/auto_32.bee,0.000000,0.000000,-0.000000,0.000000,TRUE,FALSE,TRUE,TRUE,FALSE,FALSE,Disabled,0.000000,0.000000,0.000000,TRUE,-0.009842,0.012329,0.000000,-0.056473,0.115219,0.000000,-0.020000,0.023000,0.014000,1.920000,-0.490000,0.000000,-1.330604,Hold,0.560303,0.000000,ResetBack,13174.000000,-0.250000,LowGoal,2182.500000,-2181.818182,Speed,2077.500000,-2181.818182,Speed,Off,Off,0.000000,FALSE,35,Read: /home/lvuser/scripts/auto_35.bee,File good!,WAIT 1500,WAIT,0.000000,0.000000,-0.050000
02:21:15.426 PM 04/29/2016,Autonomous Enabled,10,TRUE,7,Read from Text File in DoesScriptNumberContainNull.vi->Disabled.vi->Robot Main.vi<APPEND> /home/lvuser/scripts/auto_32.bee,0.000000,0.000000,-0.000000,0.000000,TRUE,FALSE,TRUE,TRUE,FALSE,FALSE,Disabled,0.000000,0.000000,0.000000,TRUE,-0.011719,0.018295,0.000000,0.002655,0.126465,0.000000,-0.003000,0.040000,0.062000,1.870000,-0.490000,0.000000,-1.321932,Hold,0.560303,0.000000,ResetBack,13181.000000,-0.250000,LowGoal,2152.500000,-2181.818182,Speed,2077.500000,-2181.818182,Speed,Off,Off,0.000000,FALSE,35,Read: /home/lvuser/scripts/auto_35.bee,File good!,WAIT 1500,WAIT,0.000000,0.000000,-0.050000
02:21:15.526 PM 04/29/2016,Autonomous Enabled,11,TRUE,7,Read from Text File in DoesScriptNumberContainNull.vi->Disabled.vi->Robot Main.vi<APPEND> /home/lvuser/scripts/auto_32.bee,0.000000,0.000000,-0.000000,0.000000,TRUE,FALSE,TRUE,TRUE,FALSE,FALSE,Disabled,0.000000,0.000000,0.000000,TRUE,-0.012299,0.026245,0.000000,-0.034912,0.173111,0.000000,-0.050000,0.049000,0.027000,1.890000,-0.500000,0.010000,-1.307793,Hold,0.560303,0.000000,ResetBack,13186.000000,-0.250000,LowGoal,2122.500000,-2181.818182,Speed,2115.000000,-2181.818182,Speed,Off,Off,0.000000,FALSE,35,Read: /home/lvuser/scripts/auto_35.bee,File good!,WAIT 1500,WAIT,0.000000,0.000000,-0.050000
02:21:15.626 PM 04/29/2016,Autonomous Enabled,11,TRUE,7,Read from Text File in DoesScriptNumberContainNull.vi->Disabled.vi->Robot Main.vi<APPEND> /home/lvuser/scripts/auto_32.bee,0.000000,0.000000,-0.000000,0.000000,TRUE,FALSE,TRUE,TRUE,FALSE,FALSE,Disabled,0.000000,0.000000,0.000000,TRUE,-0.015808,0.036133,0.000000,-0.092880,0.213440,0.000000,-0.013000,0.034000,-0.027000,1.860000,-0.500000,0.010000,-1.316803,Hold,0.560303,0.000000,ResetBack,13203.000000,-0.250000,LowGoal,2122.500000,-2181.818182,Speed,2115.000000,-2181.818182,Speed,Off,Off,0.000000,FALSE,35,Read: /home/lvuser/scripts/auto_35.bee,File good!,WAIT 1500,WAIT,0.000000,0.000000,-0.050000
02:21:15.728 PM 04/29/2016,Autonomous Enabled,8,TRUE,7,Read from Text File in DoesScriptNumberContainNull.vi->Disabled.vi->Robot Main.vi<APPEND> /home/lvuser/scripts/auto_32.bee,0.000000,0.000000,-0.000000,0.000000,TRUE,FALSE,TRUE,TRUE,FALSE,FALSE,Disabled,0.000000,0.000000,0.000000,TRUE,-0.020294,0.042862,0.000000,-0.079269,0.004135,0.000000,0.047000,-0.039000,0.067000,1.890000,-0.500000,0.010000,-1.315773,Hold,0.560303,0.000000,Reset,13355.000000,2.000000,LowGoal,2130.000000,-2181.818182,Speed,2107.500000,-2181.818182,Speed,Off,Off,0.000000,FALSE,35,Read: /home/lvuser/scripts/auto_35.bee,File good!,WAIT 1500,WAIT,0.000000,0.000000,-0.050000
02:21:15.827 PM 04/29/2016,Autonomous Enabled,10,TRUE,7,Read from Text File in DoesScriptNumberContainNull.vi->Disabled.vi->Robot Main.vi<APPEND> /home/lvuser/scripts/auto_32.bee,0.000000,0.000000,-0.000000,0.000000,TRUE,FALSE,TRUE,TRUE,FALSE,FALSE,Disabled,0.000000,0.000000,0.000000,TRUE,-0.022537,0.042419,0.000000,-0.021362,-0.021484,0.000000,0.024000,-0.044000,-0.026000,1.880000,-0.500000,-0.030000,-1.316675,Hold,0.560303,0.000000,Hold,13355.000000,2.000000,LowGoal,2137.500000,-2181.818182,Speed,2107.500000,-2181.818182,Speed,Off,Off,0.000000,FALSE,35,Read: /home/lvuser/scripts/auto_35.bee,File good!,WAIT 1500,WAIT,0.000000,0.000000,-0.050000
02:21:15.928 PM 04/29/2016,Autonomous Enabled,5,TRUE,7,Read from Text File in DoesScriptNumberContainNull.vi->Disabled.vi->Robot Main.vi<APPEND> /home/lvuser/scripts/auto_32.bee,0.000000,0.000000,-0.000000,0.000000,TRUE,FALSE,TRUE,TRUE,FALSE,FALSE,Disabled,0.000000,0.000000,0.000000,TRUE,-0.022125,0.038940,0.000000,0.031937,-0.101349,0.000000,0.031000,-0.081000,0.009000,1.880000,-0.510000,-0.010000,-1.306795,Hold,0.560303,0.000000,Hold,-195.000000,2.000000,LowGoal,2137.500000,-2181.818182,Speed,2115.000000,-2181.818182,Speed,Off,Off,0.000000,FALSE,35,Read: /home/lvuser/scripts/auto_35.bee,File good!,WAIT 1500,WAIT,0.000000,0.000000,-0.050000
02:21:16.030 PM 04/29/2016,Autonomous Enabled,8,TRUE,7,Read from Text File in DoesScriptNumberContainNull.vi->Disabled.vi->Robot Main.vi<APPEND> /home/lvuser/scripts/auto_32.bee,0.000000,0.000000,-0.000000,0.000000,TRUE,FALSE,TRUE,TRUE,FALSE,FALSE,Disabled,0.000000,0.000000,0.000000,TRUE,-0.020294,0.032196,0.000000,0.000000,-0.151749,0.000000,0.011000,-0.058000,-0.002000,1.880000,-0.510000,-0.030000,-1.300581,Hold,0.560303,0.000000,Hold,-195.000000,2.000000,LowGoal,2137.500000,-2181.818182,Speed,2115.000000,-2181.818182,Speed,Off,Off,0.000000,FALSE,35,Read: /home/lvuser/scripts/auto_35.bee,File good!,NAVX_ZERO_YAW,NAVX_ZERO_YAW,0.000000,0.000000,-0.050000
02:21:16.130 PM 04/29/2016,Autonomous Enabled,7,TRUE,7,Read from Text File in DoesScriptNumberContainNull.vi->Disabled.vi->Robot Main.vi<APPEND> /home/lvuser/scripts/auto_32.bee,-0.562500,0.000000,0.562500,0.000000,TRUE,FALSE,TRUE,TRUE,FALSE,FALSE,Disabled,0.000000,0.000000,0.000000,TRUE,-0.018814,0.020920,0.000000,0.044037,-0.207886,0.000000,-0.009000,0.020000,-0.005000,1.850000,0.000000,0.000000,-0.011206,Hold,0.560303,0.000000,Hold,-195.000000,2.000000,LowGoal,2130.000000,-1818.181818,Speed,2107.500000,-1818.181818,Speed,Off,Off,0.000000,FALSE,35,Read: /home/lvuser/scripts/auto_35.bee,File good!,DRIVE_STRAIGHT_TARGET 42 0 10000 75,DRIVE_STRAIGHT_TARGET,0.000000,0.000000,-0.050000
02:21:16.235 PM 04/29/2016,Autonomous Enabled,10,TRUE,7,Read from Text File in DoesScriptNumberContainNull.vi->Disabled.vi->Robot Main.vi<APPEND> /home/lvuser/scripts/auto_32.bee,-0.562500,-1.161414,0.562500,1.187081,FALSE,FALSE,TRUE,TRUE,FALSE,FALSE,Disabled,0.000000,0.000000,0.000000,TRUE,-0.016785,0.011749,0.000000,0.185791,-0.146118,0.000000,0.036000,-0.064000,0.577000,1.690000,-0.250000,3.660000,-0.118679,Hold,0.560303,0.000000,Hold,-195.000000,2.000000,LowGoal,2115.000000,-1818.181818,Speed,2047.500000,-1818.181818,Speed,Off,Off,0.000000,FALSE,35,Read: /home/lvuser/scripts/auto_35.bee,File good!,DRIVE_STRAIGHT_TARGET 42 0 10000 75,DRIVE_STRAIGHT_TARGET,0.000000,0.000000,-0.050000
02:21:16.336 PM 04/29/2016,Autonomous Enabled,11,TRUE,7,Read from Text File in DoesScriptNumberContainNull.vi->Disabled.vi->Robot Main.vi<APPEND> /home/lvuser/scripts/auto_32.bee,-0.562500,-3.798658,0.562500,3.971907,FALSE,FALSE,TRUE,TRUE,FALSE,FALSE,Disabled,0.000000,0.000000,0.000000,TRUE,-0.000320,0.004990,0.000000,0.417480,-0.134598,0.000000,0.219000,-0.087000,0.004000,1.600000,-0.530000,4.780000,-0.439033,Hold,0.560547,0.000000,Hold,-195.000000,2.000000,LowGoal,1950.000000,-1818.181818,Speed,1792.500000,-1818.181818,Speed,Off,Off,0.000000,FALSE,35,Read: /home/lvuser/scripts/auto_35.bee,File good!,DRIVE_STRAIGHT_TARGET 42 0 10000 75,DRIVE_STRAIGHT_TARGET,0.000000,0.000000,-0.050000
02:21:16.437 PM 04/29/2016,Autonomous Enabled,9,TRUE,7,Read from Text File in DoesScriptNumberContainNull.vi->Disabled.vi->Robot Main.vi<APPEND> /home/lvuser/scripts/auto_34.bee,-0.562500,-7.391983,0.562500,7.501066,FALSE,FALSE,TRUE,TRUE,FALSE,FALSE,Disabled,0.000000,0.000000,0.000000,TRUE,0.025574,-0.002136,0.000000,0.590958,-0.127701,0.000000,-0.051000,0.017000,-0.362000,1.690000,-0.680000,3.650000,-0.617567,Hold,0.561279,0.000000,Hold,-195.000000,2.000000,LowGoal,1770.000000,-1818.181818,Speed,1650.000000,-1818.181818,Speed,Off,Off,0.000000,FALSE,35,Read: /home/lvuser/scripts/auto_35.bee,File good!,DRIVE_STRAIGHT_TARGET 42 0 10000 75,DRIVE_STRAIGHT_TARGET,0.000000,0.000000,-0.050000
02:21:16.539 PM 04/29/2016,Autonomous Enabled,9,TRUE,7,Read from Text File in DoesScriptNumberContainNull.vi->Disabled.vi->Robot Main.vi<APPEND> /home/lvuser/scripts/auto_34.bee,-0.562500,-11.434473,0.562500,11.652639,FALSE,FALSE,TRUE,TRUE,FALSE,FALSE,Disabled,0.000000,0.000000,0.000000,TRUE,0.054825,-0.008362,0.000000,0.562881,-0.135330,0.000000,-0.059000,-0.041000,0.000000,1.680000,-0.660000,4.600000,-0.617485,Hold,0.565186,0.000000,Hold,-195.000000,2.000000,LowGoal,1717.500000,-1818.181818,Speed,1680.000000,-1818.181818,Speed,Off,Off,0.000000,FALSE,35,Read: /home/lvuser/scripts/auto_35.bee,File good!,DRIVE_STRAIGHT_TARGET 42 0 10000 75,DRIVE_STRAIGHT_TARGET,0.000000,0.000000,-0.050000
02:21:16.640 PM 04/29/2016,Autonomous Enabled,7,TRUE,7,Read from Text File in DoesScriptNumberContainNull.vi->Disabled.vi->Robot Main.vi<APPEND> /home/lvuser/scripts/auto_34.bee,-0.576825,-15.637380,0.548355,15.810630,FALSE,FALSE,TRUE,TRUE,FALSE,FALSE,Disabled,0.000000,0.000000,0.000000,TRUE,0.082642,-0.015381,0.000000,0.564835,-0.135117,0.000000,-0.028000,0.079000,0.080000,1.680000,-0.730000,4.050000,-0.698292,Hold,0.572021,0.000000,Hold,-195.000000,2.000000,LowGoal,1732.500000,-1818.181818,Speed,1762.500000,-1818.181818,Speed,Off,Off,0.000000,FALSE,35,Read: /home/lvuser/scripts/auto_35.bee,File good!,DRIVE_STRAIGHT_TARGET 42 0 10000 75,DRIVE_STRAIGHT_TARGET,0.000000,0.000000,-0.050000
02:21:16.739 PM 04/29/2016,Autonomous Enabled,22,TRUE,7,Read from Text File in DoesScriptNumberContainNull.vi->Disabled.vi->Robot Main.vi<APPEND> /home/lvuser/scripts/auto_34.bee,-0.576430,-20.071286,0.548740,20.238119,FALSE,FALSE,TRUE,TRUE,FALSE,FALSE,Disabled,0.000000,0.000000,0.000000,TRUE,0.109467,-0.021118,0.000000,0.506516,-0.106888,0.000000,-0.081000,0.105000,-0.077000,1.680000,-0.700000,3.770000,-0.683496,Hold,0.576172,0.000000,Hold,-195.000000,2.000000,LowGoal,1762.500000,-1818.181818,Speed,1740.000000,-1818.181818,Speed,Off,Off,0.000000,FALSE,35,Read: /home/lvuser/scripts/auto_35.bee,File good!,DRIVE_STRAIGHT_TARGET 42 0 10000 75,DRIVE_STRAIGHT_TARGET,0.000000,0.000000,-0.050000
02:21:16.840 PM 04/29/2016,Autonomous Enabled,17,TRUE,7,Read from Text File in DoesScriptNumberContainNull.vi->Disabled.vi->Robot Main.vi<APPEND> /home/lvuser/scripts/auto_34.bee,-0.573867,-24.530859,0.551247,24.569359,FALSE,FALSE,TRUE,TRUE,FALSE,FALSE,Disabled,0.000000,0.000000,0.000000,TRUE,0.132843,-0.025085,0.000000,0.453659,-0.077728,0.000000,-0.112000,0.011000,-0.074000,1.680000,-0.700000,3.770000,-0.566976,Hold,0.576172,0.000000,Hold,-195.000000,2.000000,LowGoal,1770.000000,-1818.181818,Speed,1732.500000,-1818.181818,Speed,Off,Off,0.000000,FALSE,35,Read: /home/lvuser/scripts/auto_35.bee,File good!,DRIVE_STRAIGHT_TARGET 42 0 10000 75,DRIVE_STRAIGHT_TARGET,0.000000,0.000000,-0.050000
02:21:16.940 PM 04/29/2016,Autonomous Enabled,9,TRUE,7,Read from Text File in DoesScriptNumberContainNull.vi->Disabled.vi->Robot Main.vi<APPEND> /home/lvuser/scripts/auto_34.bee,-0.570916,-29.028932,0.554146,28.913432,FALSE,FALSE,TRUE,TRUE,FALSE,FALSE,Disabled,0.000000,0.000000,0.000000,TRUE,0.153152,-0.028793,0.000000,0.390244,-0.075241,0.000000,-0.046000,0.035000,-0.004000,1.750000,-0.390000,3.280000,-0.368247,Hold,0.576172,0.000000,Hold,-195.000000,2.000000,LowGoal,1770.000000,-1818.181818,Speed,1732.500000,-1818.181818,Speed,Off,Off,0.000000,FALSE,35,Read: /home/lvuser/scripts/auto_35.bee,File good!,DRIVE_STRAIGHT_TARGET 42 0 10000 75,DRIVE_STRAIGHT_TARGET,0.000000,0.000000,-0.050000
02:21:17.040 PM 04/29/2016,Autonomous Enabled,12,TRUE,7,Read from Text File in DoesScriptNumberContainNull.vi->Disabled.vi->Robot Main.vi<APPEND> /home/lvuser/scripts/auto_34.bee,-0.568365,-33.507755,0.556665,33.379422,FALSE,FALSE,TRUE,TRUE,FALSE,FALSE,Disabled,0.000000,0.000000,0.000000,TRUE,0.175430,-0.034164,0.000000,0.356552,-0.101074,0.000000,-0.007000,-0.049000,-0.039000,1.640000,-0.280000,3.050000,-0.255903,Hold,0.576172,0.000000,Hold,-195.000000,2.000000,LowGoal,1762.500000,-1818.181818,Speed,1740.000000,-1818.181818,Speed,Off,Off,0.000000,FALSE,35,Read: /home/lvuser/scripts/auto_35.bee,File good!,DRIVE_STRAIGHT_TARGET 42 0 10000 75,DRIVE_STRAIGHT_TARGET,0.000000,0.000000,-0.050000
02:21:17.140 PM 04/29/2016,Autonomous Enabled,12,TRUE,7,Read from Text File in DoesScriptNumberContainNull.vi->Disabled.vi->Robot Main.vi<APPEND> /home/lvuser/scripts/auto_34.bee,-0.567190,-38.076411,0.557830,37.896745,FALSE,FALSE,TRUE,TRUE,FALSE,FALSE,Disabled,0.000000,0.000000,0.000000,TRUE,0.178894,-0.037796,0.000000,-0.004745,-0.086594,0.000000,-0.005000,-0.088000,0.033000,1.640000,-0.280000,3.050000,-0.208530,Hold,0.576172,0.000000,Hold,-194.000000,2.000000,LowGoal,1762.500000,-1818.181818,Speed,1740.000000,-1818.181818,Speed,Off,Off,0.000000,FALSE,35,Read: /home/lvuser/scripts/auto_35.bee,File good!,DRIVE_STRAIGHT_TARGET 42 0 10000 75,DRIVE_STRAIGHT_TARGET,0.000000,0.000000,-0.050000
02:21:17.241 PM 04/29/2016,Autonomous Enabled,10,TRUE,7,Read from Text File in DoesScriptNumberContainNull.vi->Disabled.vi->Robot Main.vi<APPEND> /home/lvuser/scripts/auto_34.bee,-0.566407,-42.587317,0.558607,42.369151,TRUE,FALSE,TRUE,TRUE,FALSE,FALSE,Disabled,0.000000,0.000000,0.000000,TRUE,0.177048,-0.043701,0.000000,-0.048325,-0.075745,0.000000,-0.005000,-0.088000,0.033000,1.500000,-0.220000,2.810000,-0.167825,Hold,0.576172,0.000000,Hold,-194.000000,2.000000,LowGoal,1762.500000,-1818.181818,Speed,1740.000000,-1818.181818,Speed,Off,Off,0.000000,FALSE,35,Read: /home/lvuser/scripts/auto_35.bee,File good!,DRIVE_STRAIGHT_TARGET 42 0 10000 75,DRIVE_STRAIGHT_TARGET,0.000000,0.000000,-0.050000
02:21:17.342 PM 04/29/2016,Autonomous Enabled,12,TRUE,7,Read from Text File in DoesScriptNumberContainNull.vi->Disabled.vi->Robot Main.vi<APPEND> /home/lvuser/scripts/auto_34.bee,0.000000,-46.020226,-0.000000,46.077976,TRUE,FALSE,TRUE,TRUE,FALSE,FALSE,Disabled,0.000000,0.000000,0.000000,TRUE,0.174057,-0.046768,0.000000,-0.092468,-0.076904,0.000000,-1.721000,0.157000,0.728000,1.400000,-0.200000,2.550000,-0.178686,Hold,0.576172,58.000000,Hold,-194.000000,2.000000,LowGoal,1770.000000,-1818.181818,Speed,1740.000000,-1818.181818,Speed,Off,Off,0.000000,FALSE,35,Read: /home/lvuser/scripts/auto_35.bee,File good!,WAIT 1000,WAIT,0.000000,0.000000,-0.050000
02:21:17.444 PM 04/29/2016,Autonomous Enabled,14,TRUE,7,Read from Text File in DoesScriptNumberContainNull.vi->Disabled.vi->Robot Main.vi<APPEND> /home/lvuser/scripts/auto_34.bee,0.000000,-47.752722,-0.000000,47.964471,TRUE,FALSE,TRUE,TRUE,FALSE,FALSE,Disabled,0.000000,0.000000,0.000000,TRUE,0.145172,-0.048630,0.000000,-0.780533,-0.056274,0.000000,-0.327000,-0.019000,-0.730000,1.380000,-0.430000,-1.000000,-0.508132,Hold,4.075684,58.000000,Hold,-194.000000,2.000000,LowGoal,1762.500000,-1818.181818,Speed,1740.000000,-1818.181818,Speed,Off,Off,0.000000,FALSE,35,Read: /home/lvuser/scripts/auto_35.bee,File good!,WAIT 1000,WAIT,0.000000,0.000000,-0.050000
02:21:17.544 PM 04/29/2016,Autonomous Enabled,12,TRUE,7,Read from Text File in DoesScriptNumberContainNull.vi->Disabled.vi->Robot Main.vi<APPEND> /home/lvuser/scripts/auto_34.bee,0.000000,-48.137721,-0.000000,48.375137,TRUE,FALSE,TRUE,TRUE,FALSE,FALSE,Disabled,0.000000,0.000000,0.000000,TRUE,0.096786,-0.047256,0.000000,-1.060547,0.088730,0.000000,-0.115000,0.135000,0.035000,1.380000,-0.430000,-1.000000,-0.884600,Hold,6.902588,58.000000,Hold,-194.000000,2.000000,LowGoal,1762.500000,-1818.181818,Speed,1747.500000,-1818.181818,Speed,Off,Off,0.000000,FALSE,35,Read: /home/lvuser/scripts/auto_35.bee,File good!,WAIT 1000,WAIT,0.000000,0.000000,-0.050000
02:21:17.645 PM 04/29/2016,Autonomous Enabled,11,TRUE,7,Read from Text File in DoesScriptNumberContainNull.vi->Disabled.vi->Robot Main.vi<APPEND> /home/lvuser/scripts/auto_34.bee,0.000000,-48.086388,-0.000000,48.214721,TRUE,FALSE,TRUE,TRUE,FALSE,FALSE,Disabled,0.000000,0.000000,0.000000,TRUE,0.044144,-0.042984,0.000000,-1.056030,0.057358,0.000000,-0.115000,0.135000,0.035000,1.540000,-0.580000,-0.560000,-0.736907,Hold,10.822266,58.000000,Hold,-194.000000,2.000000,LowGoal,1762.500000,-1818.181818,Speed,1747.500000,-1818.181818,Speed,Off,Off,0.000000,FALSE,35,Read: /home/lvuser/scripts/auto_35.bee,File good!,WAIT 1000,WAIT,0.000000,0.000000,-0.050000
02:21:17.748 PM 04/29/2016,Autonomous Enabled,13,TRUE,7,Read from Text File in DoesScriptNumberContainNull.vi->Disabled.vi->Robot Main.vi<APPEND> /home/lvuser/scripts/auto_34.bee,0.000000,-47.945221,-0.000000,47.906721,TRUE,FALSE,TRUE,TRUE,FALSE,FALSE,Disabled,0.000000,0.000000,0.000000,TRUE,-0.016083,-0.038452,0.000000,-0.936066,0.085449,0.000000,0.042000,0.009000,0.151000,1.540000,-0.580000,-0.560000,-0.820933,Hold,10.822266,58.000000,Hold,-194.000000,2.000000,LowGoal,1770.000000,-1818.181818,Speed,1740.000000,-1818.181818,Speed,Off,Off,0.000000,FALSE,35,Read: /home/lvuser/scripts/auto_35.bee,File good!,WAIT 1000,WAIT,0.000000,0.000000,-0.050000
02:21:17.849 PM 04/29/2016,Autonomous Enabled,15,TRUE,7,Read from Text File in DoesScriptNumberContainNull.vi->Disabled.vi->Robot Main.vi<APPEND> /home/lvuser/scripts/auto_34.bee,0.000000,-47.848971,-0.000000,47.784805,TRUE,FALSE,TRUE,TRUE,FALSE,FALSE,Disabled,0.000000,0.000000,0.000000,TRUE,-0.052261,-0.035522,0.000000,-0.888550,0.072983,0.000000,0.067000,0.000000,0.158000,1.580000,-0.610000,-0.050000,-0.765518,Hold,20.351318,58.000000,Hold,-194.000000,2.000000,LowGoal,1770.000000,-1818.181818,Speed,1740.000000,-1818.181818,Speed,Off,Off,0.000000,FALSE,35,Read: /home/lvuser/scripts/auto_35.bee,File good!,WAIT 1000,WAIT,0.000000,0.000000,-0.050000
02:21:17.950 PM 04/29/2016,Autonomous Enabled,16,TRUE,7,Read from Text File in DoesScriptNumberContainNull.vi->Disabled.vi->Robot Main.vi<APPEND> /home/lvuser/scripts/auto_34.bee,0.000000,-47.810472,-0.000000,47.778388,TRUE,FALSE,TRUE,TRUE,FALSE,FALSE,Disabled,0.000000,0.000000,0.000000,TRUE,-0.094864,-0.031799,0.000000,-0.842590,0.077988,0.000000,0.067000,0.000000,0.158000,1.570000,-0.680000,0.130000,-0.849079,Hold,26.678223,58.000000,Hold,-194.000000,2.000000,LowGoal,1770.000000,-1818.181818,Speed,1747.500000,-1818.181818,Speed,Off,Off,0.000000,FALSE,35,Read: /home/lvuser/scripts/auto_35.bee,File good!,WAIT 1000,WAIT,0.000000,0.000000,-0.050000
02:21:18.053 PM 04/29/2016,Autonomous Enabled,6,TRUE,7,Read from Text File in DoesScriptNumberContainNull.vi->Disabled.vi->Robot Main.vi<APPEND> /home/lvuser/scripts/auto_34.bee,0.000000,-47.810472,-0.000000,47.778388,TRUE,FALSE,TRUE,TRUE,FALSE,FALSE,Disabled,0.000000,0.000000,0.000000,TRUE,-0.144333,-0.026978,0.000000,-0.818344,0.088028,0.000000,0.071000,0.020000,0.010000,1.610000,-0.680000,0.210000,-0.857163,Hold,32.630859,58.000000,Hold,-194.000000,2.000000,LowGoal,1777.500000,-1818.181818,Speed,1747.500000,-1818.181818,Speed,Off,Off,0.000000,FALSE,35,Read: /home/lvuser/scripts/auto_35.bee,File good!,WAIT 1000,WAIT,0.000000,0.000000,-0.050000
02:21:18.155 PM 04/29/2016,Autonomous Enabled,7,FALSE,0,NO ERROR,0.000000,-47.810472,-0.000000,47.778388,TRUE,FALSE,TRUE,TRUE,FALSE,FALSE,Disabled,0.000000,0.000000,0.000000,TRUE,-0.183304,-0.023453,0.000000,-0.771194,0.070496,0.000000,0.035000,0.017000,0.020000,1.610000,-0.680000,0.210000,-0.897389,Hold,41.062500,58.000000,Hold,-194.000000,2.000000,LowGoal,1770.000000,-1818.181818,Speed,1747.500000,-1818.181818,Speed,Off,Off,0.000000,FALSE,35,Read: /home/lvuser/scripts/auto_35.bee,File good!,WAIT 1000,WAIT,0.000000,0.000000,-0.050000
02:21:18.254 PM 04/29/2016,Autonomous Enabled,11,FALSE,0,NO ERROR,0.000000,-47.816888,-0.000000,47.855388,TRUE,FALSE,TRUE,TRUE,FALSE,FALSE,Disabled,0.000000,0.000000,0.000000,TRUE,-0.220428,-0.018723,0.000000,-0.776978,0.135544,0.000000,0.099000,0.011000,0.030000,1.710000,-0.680000,0.590000,-0.980045,Hold,50.691162,58.000000,Hold,-193.000000,2.000000,LowGoal,1770.000000,-1818.181818,Speed,1747.500000,-1818.181818,Speed,Off,Off,0.000000,FALSE,35,Read: /home/lvuser/scripts/auto_35.bee,File good!,WAIT 1000,WAIT,0.000000,0.000000,-0.050000
02:21:18.358 PM 04/29/2016,Autonomous Enabled,12,FALSE,0,NO ERROR,-0.562500,-0.089833,0.562500,0.218166,TRUE,FALSE,TRUE,TRUE,FALSE,FALSE,Disabled,0.000000,0.000000,0.000000,TRUE,-0.260147,-0.012268,0.000000,-0.797577,0.145538,0.000000,0.097000,-0.055000,0.070000,1.710000,-0.680000,0.590000,-0.893812,Hold,50.691162,58.000000,Hold,-193.000000,2.000000,LowGoal,1770.000000,-1818.181818,Speed,1747.500000,-1818.181818,Speed,Off,Off,0.000000,FALSE,35,Read: /home/lvuser/scripts/auto_35.bee,File good!,DRIVE_STRAIGHT_TARGET 78 0 10000 75,DRIVE_STRAIGHT_TARGET,0.000000,0.000000,-0.050000
02:21:18.458 PM 04/29/2016,Autonomous Enabled,12,FALSE,0,NO ERROR,-0.562500,-1.969912,0.562500,2.162412,TRUE,FALSE,TRUE,TRUE,FALSE,FALSE,Disabled,0.000000,0.000000,0.000000,TRUE,-0.292343,-0.004349,0.000000,-0.312439,0.131119,0.000000,1.059000,-0.041000,-0.479000,1.630000,-0.680000,0.810000,-1.255332,Hold,57.305176,58.000000,Hold,-193.000000,2.000000,LowGoal,1762.500000,-1818.181818,Speed,1732.500000,-1818.181818,Speed,Off,Off,0.000000,FALSE,35,Read: /home/lvuser/scripts/auto_35.bee,File good!,DRIVE_STRAIGHT_TARGET 78 0 10000 75,DRIVE_STRAIGHT_TARGET,0.000000,0.000000,-0.050000
02:21:18.558 PM 04/29/2016,Autonomous Enabled,11,FALSE,0,NO ERROR,-0.562500,-5.049905,0.562500,5.107655,FALSE,FALSE,TRUE,TRUE,FALSE,FALSE,Disabled,0.000000,0.000000,0.000000,TRUE,-0.292343,-0.004349,0.000000,-0.312439,0.131119,0.000000,0.319000,0.079000,-0.042000,1.460000,-1.040000,4.160000,-1.224153,Hold,59.691162,58.000000,Hold,-193.000000,2.000000,LowGoal,1747.500000,-1818.181818,Speed,1717.500000,-1818.181818,Speed,Off,Off,0.000000,FALSE,35,Read: /home/lvuser/scripts/auto_35.bee,File good!,DRIVE_STRAIGHT_TARGET 78 0 10000 75,DRIVE_STRAIGHT_TARGET,0.000000,0.000000,-0.050000
02:21:18.661 PM 04/29/2016,Autonomous Enabled,14,FALSE,0,NO ERROR,-0.562500,-8.399397,0.562500,8.489230,FALSE,FALSE,TRUE,TRUE,FALSE,FALSE,Disabled,0.000000,0.000000,0.000000,TRUE,-0.306122,0.005890,0.000000,-0.039932,0.097076,0.000000,0.151000,-0.020000,-0.056000,1.260000,-1.000000,6.870000,-1.324142,Hold,59.313721,58.000000,Hold,-193.000000,2.000000,LowGoal,1747.500000,-1818.181818,Speed,1725.000000,-1818.181818,Speed,Off,Off,0.000000,FALSE,35,Read: /home/lvuser/scripts/auto_35.bee,File good!,DRIVE_STRAIGHT_TARGET 78 0 10000 75,DRIVE_STRAIGHT_TARGET,0.000000,0.000000,-0.050000
02:21:18.762 PM 04/29/2016,Autonomous Enabled,12,FALSE,0,NO ERROR,-0.562500,-12.088972,0.562500,12.159555,FALSE,FALSE,TRUE,TRUE,FALSE,FALSE,Disabled,0.000000,0.000000,0.000000,TRUE,-0.306122,0.005890,0.000000,-0.039932,0.097076,0.000000,-0.063000,-0.031000,0.216000,1.280000,-1.100000,9.040000,-1.502202,Hold,59.137207,58.000000,Hold,-193.000000,2.000000,LowGoal,1747.500000,-1818.181818,Speed,1740.000000,-1818.181818,Speed,Off,Off,0.000000,FALSE,35,Read: /home/lvuser/scripts/auto_35.bee,File good!,DRIVE_STRAIGHT_TARGET 78 0 10000 75,DRIVE_STRAIGHT_TARGET,0.000000,0.000000,-0.050000
02:21:18.863 PM 04/29/2016,Autonomous Enabled,15,FALSE,0,NO ERROR,-0.587936,-15.778546,0.537626,15.829880,FALSE,FALSE,TRUE,TRUE,FALSE,FALSE,Disabled,0.000000,0.000000,0.000000,TRUE,-0.316177,0.013214,0.000000,-0.118118,0.069321,0.000000,-0.131000,-0.008000,0.036000,1.030000,-1.220000,12.450000,-1.703071,Hold,59.707764,58.000000,Hold,-193.000000,2.000000,LowGoal,1762.500000,-1818.181818,Speed,1747.500000,-1818.181818,Speed,Off,Off,0.000000,FALSE,35,Read: /home/lvuser/scripts/auto_35.bee,File good!,DRIVE_STRAIGHT_TARGET 78 0 10000 75,DRIVE_STRAIGHT_TARGET,0.000000,0.000000,-0.050000
02:21:18.965 PM 04/29/2016,Autonomous Enabled,10,FALSE,0,NO ERROR,-0.589932,-19.551538,0.535722,19.442455,FALSE,FALSE,TRUE,TRUE,FALSE,FALSE,Disabled,0.000000,0.000000,0.000000,TRUE,-0.316177,0.013214,0.000000,-0.118118,0.069321,0.000000,-0.047000,0.046000,0.117000,1.000000,-1.370000,15.670000,-1.770167,Hold,60.592285,58.000000,Hold,-193.000000,2.000000,LowGoal,1762.500000,-1818.181818,Speed,1740.000000,-1818.181818,Speed,Off,Off,0.000000,FALSE,35,Read: /home/lvuser/scripts/auto_35.bee,File good!,DRIVE_STRAIGHT_TARGET 78 0 10000 75,DRIVE_STRAIGHT_TARGET,0.000000,0.000000,-0.050000
02:21:19.066 PM 04/29/2016,Autonomous Enabled,12,FALSE,0,NO ERROR,-0.588335,-23.164112,0.537245,22.971613,FALSE,FALSE,TRUE,TRUE,FALSE,FALSE,Disabled,0.000000,0.000000,0.000000,TRUE,-0.331299,0.018631,0.000000,-0.233673,0.017700,0.000000,0.024000,-0.011000,0.040000,0.830000,-1.380000,20.060000,-1.755694,Hold,60.592285,58.000000,Hold,-193.000000,2.000000,LowGoal,1755.000000,-1818.181818,Speed,1740.000000,-1818.181818,Speed,Off,Off,0.000000,FALSE,35,Read: /home/lvuser/scripts/auto_35.bee,File good!,DRIVE_STRAIGHT_TARGET 78 0 10000 75,DRIVE_STRAIGHT_TARGET,0.000000,0.000000,-0.050000
02:21:19.167 PM 04/29/2016,Autonomous Enabled,12,FALSE,0,NO ERROR,-0.586741,-26.423772,0.538771,26.173522,FALSE,FALSE,TRUE,TRUE,FALSE,FALSE,Disabled,0.000000,0.000000,0.000000,TRUE,-0.331299,0.018631,0.000000,-0.233673,0.017700,0.000000,0.077000,-0.027000,0.068000,0.850000,-1.300000,21.000000,-1.705412,Hold,60.752197,58.000000,Hold,-193.000000,2.000000,LowGoal,1762.500000,-1818.181818,Speed,1740.000000,-1818.181818,Speed,Off,Off,0.000000,FALSE,35,Read: /home/lvuser/scripts/auto_35.bee,File good!,DRIVE_STRAIGHT_TARGET 78 0 10000 75,DRIVE_STRAIGHT_TARGET,0.000000,0.000000,-0.050000
02:21:19.266 PM 04/29/2016,Autonomous Enabled,10,FALSE,0,NO ERROR,-0.584950,-29.715514,0.540490,29.336931,FALSE,FALSE,TRUE,TRUE,FALSE,FALSE,Disabled,0.000000,0.000000,0.000000,TRUE,-0.342087,0.018921,0.000000,-0.198517,0.003586,0.000000,-0.169000,0.006000,0.318000,0.770000,-1.200000,22.700000,-1.634657,Hold,60.767334,58.000000,Hold,-193.000000,2.000000,LowGoal,1755.000000,-1818.181818,Speed,1740.000000,-1818.181818,Speed,Off,Off,0.000000,FALSE,35,Read: /home/lvuser/scripts/auto_35.bee,File good!,DRIVE_STRAIGHT_TARGET 78 0 10000 75,DRIVE_STRAIGHT_TARGET,0.000000,0.000000,-0.050000
02:21:19.367 PM 04/29/2016,Autonomous Enabled,10,FALSE,0,NO ERROR,-0.581574,-32.878923,0.543744,32.442591,FALSE,FALSE,TRUE,TRUE,FALSE,FALSE,Disabled,0.000000,0.000000,0.000000,TRUE,-0.355164,0.018967,0.000000,-0.263474,0.000290,0.000000,-0.006000,-0.042000,-0.044000,0.780000,-1.090000,24.100000,-1.429739,Hold,60.809570,58.000000,Hold,-193.000000,2.000000,LowGoal,1762.500000,-1818.181818,Speed,1740.000000,-1818.181818,Speed,Off,Off,0.000000,FALSE,35,Read: /home/lvuser/scripts/auto_35.bee,File good!,DRIVE_STRAIGHT_TARGET 78 0 10000 75,DRIVE_STRAIGHT_TARGET,0.000000,0.000000,-0.050000
02:21:19.469 PM 04/29/2016,Autonomous Enabled,12,FALSE,0,NO ERROR,-0.572489,-35.856249,0.552599,35.111918,FALSE,FALSE,TRUE,TRUE,FALSE,FALSE,Disabled,0.000000,0.000000,0.000000,TRUE,-0.369919,0.018936,0.000000,-0.332031,0.001938,0.000000,0.039000,-0.081000,-0.052000,0.750000,-0.760000,25.130000,-0.980410,Hold,60.809570,58.000000,Hold,-193.000000,2.000000,LowGoal,1762.500000,-1818.181818,Speed,1740.000000,-1818.181818,Speed,Off,Off,0.000000,FALSE,35,Read: /home/lvuser/scripts/auto_35.bee,File good!,DRIVE_STRAIGHT_TARGET 78 0 10000 75,DRIVE_STRAIGHT_TARGET,0.000000,0.000000,-0.050000
02:21:19.571 PM 04/29/2016,Autonomous Enabled,13,FALSE,0,NO ERROR,-0.568169,-38.698826,0.556859,37.826162,FALSE,FALSE,TRUE,TRUE,FALSE,FALSE,Disabled,0.000000,0.000000,0.000000,TRUE,-0.392990,0.019363,0.000000,-0.396835,0.011063,0.000000,0.172000,-0.040000,-0.406000,0.790000,-0.400000,24.820000,-0.765794,Hold,60.809570,58.000000,Hold,-193.000000,2.000000,LowGoal,1755.000000,-1818.181818,Speed,1732.500000,-1818.181818,Speed,Off,Off,0.000000,FALSE,35,Read: /home/lvuser/scripts/auto_35.bee,File good!,DRIVE_STRAIGHT_TARGET 78 0 10000 75,DRIVE_STRAIGHT_TARGET,0.000000,0.000000,-0.050000
02:21:19.673 PM 04/29/2016,Autonomous Enabled,10,FALSE,0,NO ERROR,-0.565624,-41.631236,0.559384,40.643072,FALSE,FALSE,TRUE,TRUE,FALSE,FALSE,Disabled,0.000000,0.000000,0.000000,TRUE,-0.407578,0.018951,0.000000,-0.396561,-0.003174,0.000000,-0.086000,-0.008000,0.119000,0.910000,-0.180000,23.380000,-0.680294,Hold,60.809570,58.000000,Hold,-193.000000,2.000000,LowGoal,1755.000000,-1818.181818,Speed,1740.000000,-1818.181818,Speed,Off,Off,0.000000,FALSE,35,Read: /home/lvuser/scripts/auto_35.bee,File good!,DRIVE_STRAIGHT_TARGET 78 0 10000 75,DRIVE_STRAIGHT_TARGET,0.000000,0.000000,-0.050000
02:21:19.772 PM 04/29/2016,Autonomous Enabled,11,FALSE,0,NO ERROR,-0.564842,-41.631236,0.560162,40.643072,FALSE,FALSE,TRUE,TRUE,FALSE,FALSE,Disabled,0.000000,0.000000,0.000000,TRUE,-0.431290,0.018250,0.000000,-0.374161,-0.002792,0.000000,-0.091000,-0.011000,0.114000,0.820000,-0.090000,22.580000,-0.680294,Hold,60.812744,58.000000,Hold,-193.000000,2.000000,LowGoal,1755.000000,-1818.181818,Speed,1740.000000,-1818.181818,Speed,Off,Off,0.000000,FALSE,35,Read: /home/lvuser/scripts/auto_35.bee,File good!,DRIVE_STRAIGHT_TARGET 78 0 10000 75,DRIVE_STRAIGHT_TARGET,0.000000,0.000000,-0.050000
02:21:19.873 PM 04/29/2016,Autonomous Enabled,9,FALSE,0,NO ERROR,-0.565820,-44.339063,0.559190,43.395815,FALSE,FALSE,TRUE,TRUE,FALSE,FALSE,Disabled,0.000000,0.000000,0.000000,TRUE,-0.450867,0.017975,0.000000,-0.364212,-0.007156,0.000000,0.031000,-0.016000,-0.181000,0.810000,-0.140000,20.790000,-0.669798,Hold,60.812744,58.000000,Hold,-193.000000,2.000000,LowGoal,1755.000000,-1818.181818,Speed,1732.500000,-1818.181818,Speed,Off,Off,0.000000,FALSE,35,Read: /home/lvuser/scripts/auto_35.bee,File good!,DRIVE_STRAIGHT_TARGET 78 0 10000 75,DRIVE_STRAIGHT_TARGET,0.000000,0.000000,-0.050000
02:21:19.973 PM 04/29/2016,Autonomous Enabled,11,FALSE,0,NO ERROR,-0.565820,-47.085390,0.559190,46.116475,FALSE,FALSE,TRUE,TRUE,FALSE,FALSE,Disabled,0.000000,0.000000,0.000000,TRUE,-0.466873,0.018219,0.000000,-0.275970,0.012772,0.000000,0.175000,-0.029000,-0.270000,0.990000,-0.210000,14.740000,-0.634890,Hold,60.801758,58.000000,Hold,-193.000000,2.000000,LowGoal,1747.500000,-1818.181818,Speed,1732.500000,-1818.181818,Speed,Off,Off,0.000000,FALSE,35,Read: /home/lvuser/scripts/auto_35.bee,File good!,DRIVE_STRAIGHT_TARGET 78 0 10000 75,DRIVE_STRAIGHT_TARGET,0.000000,0.000000,-0.050000
02:21:20.073 PM 04/29/2016,Autonomous Enabled,10,FALSE,0,NO ERROR,-0.563280,-50.146133,0.561720,49.080969,FALSE,FALSE,TRUE,TRUE,FALSE,FALSE,Disabled,0.000000,0.000000,0.000000,TRUE,-0.479156,0.020065,0.000000,-0.209473,0.068405,0.000000,0.224000,-0.046000,-0.555000,1.320000,-0.140000,6.070000,-0.473335,Hold,60.741699,58.000000,Hold,-193.000000,2.000000,LowGoal,1747.500000,-1818.181818,Speed,1732.500000,-1818.181818,Speed,Off,Off,0.000000,FALSE,35,Read: /home/lvuser/scripts/auto_35.bee,File good!,DRIVE_STRAIGHT_TARGET 78 0 10000 75,DRIVE_STRAIGHT_TARGET,0.000000,0.000000,-0.050000
02:21:20.173 PM 04/29/2016,Autonomous Enabled,9,FALSE,0,NO ERROR,-0.550668,-54.118040,0.574458,52.802627,FALSE,FALSE,TRUE,TRUE,FALSE,FALSE,Disabled,0.000000,0.000000,0.000000,TRUE,-0.483704,0.024384,0.000000,-0.027740,0.138489,0.000000,0.090000,-0.026000,-1.560000,1.660000,0.150000,-8.010000,-0.108021,Hold,60.074707,58.000000,Hold,-193.000000,2.000000,LowGoal,1747.500000,-1818.181818,Speed,1740.000000,-1818.181818,Speed,Off,Off,0.000000,FALSE,35,Read: /home/lvuser/scripts/auto_35.bee,File good!,DRIVE_STRAIGHT_TARGET 78 0 10000 75,DRIVE_STRAIGHT_TARGET,0.000000,0.000000,-0.050000
02:21:20.273 PM 04/29/2016,Autonomous Enabled,10,FALSE,0,NO ERROR,-0.563085,-59.533694,0.561915,58.141281,FALSE,FALSE,TRUE,TRUE,FALSE,FALSE,Disabled,0.000000,0.000000,0.000000,TRUE,-0.475464,0.033066,0.000000,0.516296,0.256134,0.000000,-0.747000,-0.052000,-0.214000,2.020000,0.100000,-5.890000,0.055697,Hold,59.760742,58.000000,Hold,-193.000000,2.000000,LowGoal,1747.500000,-1818.181818,Speed,1747.500000,-1818.181818,Speed,Off,Off,0.000000,FALSE,35,Read: /home/lvuser/scripts/auto_35.bee,File good!,DRIVE_STRAIGHT_TARGET 78 0 10000 75,DRIVE_STRAIGHT_TARGET,0.000000,0.000000,-0.050000
02:21:20.373 PM 04/29/2016,Autonomous Enabled,10,FALSE,0,NO ERROR,-0.566798,-64.795348,0.558218,63.762268,TRUE,FALSE,TRUE,TRUE,FALSE,FALSE,Disabled,0.000000,0.000000,0.000000,TRUE,-0.456787,0.031937,0.000000,0.241714,-0.041534,0.000000,-0.336000,0.055000,-0.846000,0.570000,-0.170000,0.510000,-0.393168,Hold,59.074463,58.000000,Hold,-22.000000,2.000000,LowGoal,1710.000000,-1818.181818,Speed,1717.500000,-1818.181818,Speed,Off,Off,0.000000,FALSE,35,Read: /home/lvuser/scripts/auto_35.bee,File good!,DRIVE_STRAIGHT_TARGET 78 0 10000 75,DRIVE_STRAIGHT_TARGET,0.000000,0.000000,-0.050000
02:21:20.473 PM 04/29/2016,Autonomous Enabled,10,FALSE,0,NO ERROR,-0.589932,-69.896587,0.535722,68.677423,FALSE,FALSE,TRUE,TRUE,FALSE,FALSE,Disabled,0.000000,0.000000,0.000000,TRUE,-0.451050,0.027664,0.000000,0.081284,-0.136078,0.000000,-1.136000,-0.154000,0.928000,3.080000,-0.930000,1.970000,-0.986634,Hold,58.907471,58.000000,Hold,-95.000000,2.000000,LowGoal,1680.000000,-1818.181818,Speed,1702.500000,-1818.181818,Speed,Off,Off,0.000000,FALSE,35,Read: /home/lvuser/scripts/auto_35.bee,File good!,DRIVE_STRAIGHT_TARGET 78 0 10000 75,DRIVE_STRAIGHT_TARGET,0.000000,0.000000,-0.050000
02:21:20.573 PM 04/29/2016,Autonomous Enabled,9,FALSE,0,NO ERROR,-0.612306,-74.445993,0.514806,72.989413,TRUE,FALSE,TRUE,TRUE,FALSE,FALSE,Disabled,0.000000,0.000000,0.000000,TRUE,-0.451584,0.014267,0.000000,0.145493,-0.234390,0.000000,0.000000,0.194000,-0.926000,2.120000,-2.250000,-1.270000,-2.251660,Hold,58.831055,58.000000,Hold,-205.000000,2.000000,LowGoal,1702.500000,-1818.181818,Speed,1740.000000,-1818.181818,Speed,Off,Off,0.000000,FALSE,35,Read: /home/lvuser/scripts/auto_35.bee,File good!,DRIVE_STRAIGHT_TARGET 78 0 10000 75,DRIVE_STRAIGHT_TARGET,0.000000,0.000000,-0.050000
02:21:20.673 PM 04/29/2016,Autonomous Enabled,9,FALSE,0,NO ERROR,0.000000,-79.579314,-0.000000,77.744152,TRUE,FALSE,TRUE,TRUE,FALSE,TRUE,Disabled,0.000000,0.000000,0.000000,TRUE,-0.439590,-0.000015,0.000000,0.290802,-0.288544,0.000000,-0.660000,0.531000,0.317000,2.560000,-2.580000,0.910000,-2.950734,Hold,61.759277,50.000000,Hold,-107.000000,2.000000,LowGoal,1732.500000,-1818.181818,Speed,1755.000000,-1818.181818,Speed,Off,Off,0.000000,FALSE,35,Read: /home/lvuser/scripts/auto_35.bee,File good!,SEARCH_FOR_GOAL,SEARCH_FOR_GOAL,0.000000,0.000000,-0.050000
02:21:20.773 PM 04/29/2016,Autonomous Enabled,9,FALSE,0,NO ERROR,0.000000,-83.236805,-0.000000,81.337476,TRUE,FALSE,TRUE,TRUE,FALSE,TRUE,Disabled,0.000000,0.000000,0.000000,TRUE,-0.439484,-0.010269,0.000000,-0.239838,-0.318634,0.000000,-0.716000,-0.089000,-0.553000,2.380000,-2.210000,2.090000,-2.655648,Hold,57.835938,50.000000,Hold,-107.000000,71680.000000,LowGoal,1747.500000,-3272.727273,Speed,1755.000000,-3272.727273,Speed,Off,Off,0.000000,FALSE,35,Read: /home/lvuser/scripts/auto_35.bee,File good!,SEARCH_FOR_GOAL,SEARCH_FOR_GOAL,0.000000,0.000000,-0.050000
02:21:20.873 PM 04/29/2016,Autonomous Enabled,10,FALSE,0,NO ERROR,0.000000,-84.731885,-0.000000,82.819723,FALSE,FALSE,TRUE,TRUE,FALSE,TRUE,Disabled,0.000000,0.000000,0.000000,TRUE,-0.470154,-0.028732,0.000000,-0.748444,-0.403610,0.000000,-0.253000,0.129000,-0.722000,2.410000,-2.470000,-4.860000,-3.022573,Hold,54.941895,50.000000,Hold,-1193.000000,71680.000000,LowGoal,1740.000000,-3272.727273,Speed,1732.500000,-3272.727273,Speed,Off,Off,0.000000,FALSE,35,Read: /home/lvuser/scripts/auto_35.bee,File good!,SEARCH_FOR_GOAL,SEARCH_FOR_GOAL,0.000000,0.000000,-0.050000
02:21:20.973 PM 04/29/2016,Autonomous Enabled,10,FALSE,0,NO ERROR,0.000000,-85.521133,-0.000000,83.634638,FALSE,FALSE,TRUE,TRUE,FALSE,TRUE,Disabled,0.000000,0.000000,0.000000,TRUE,-0.524475,-0.051697,0.000000,-1.016479,-0.373398,0.000000,-0.146000,0.093000,0.502000,2.600000,-2.630000,-3.540000,-3.239833,Hold,54.965576,50.000000,Hold,-20709.000000,71680.000000,LowGoal,1935.000000,-3272.727273,Speed,1950.000000,-3272.727273,Speed,Off,Off,0.000000,FALSE,35,Read: /home/lvuser/scripts/auto_35.bee,File good!,SEARCH_FOR_GOAL,SEARCH_FOR_GOAL,0.000000,0.000000,-0.050000
02:21:21.073 PM 04/29/2016,Autonomous Enabled,10,FALSE,0,NO ERROR,0.000000,-85.559633,-0.000000,83.660304,FALSE,FALSE,TRUE,TRUE,FALSE,TRUE,Disabled,0.000000,0.000000,0.000000,TRUE,-0.567520,-0.064590,0.000000,-1.085724,-0.305222,0.000000,0.155000,-0.191000,-0.015000,2.490000,-2.860000,-3.520000,-3.468546,Hold,54.632324,50.000000,Hold,-42746.000000,71680.000000,LowGoal,2302.500000,-3272.727273,Speed,2340.000000,-3272.727273,Speed,Off,Off,0.000000,FALSE,35,Read: /home/lvuser/scripts/auto_35.bee,File good!,SEARCH_FOR_GOAL,SEARCH_FOR_GOAL,0.000000,0.000000,-0.050000
02:21:21.173 PM 04/29/2016,Autonomous Enabled,10,FALSE,0,NO ERROR,0.000000,-85.559633,-0.000000,83.641054,FALSE,FALSE,TRUE,TRUE,FALSE,TRUE,Disabled,0.000000,0.000000,0.000000,TRUE,-0.629501,-0.087128,0.000000,-1.019608,-0.372604,0.000000,0.165000,-0.151000,0.080000,2.540000,-2.770000,-3.560000,-3.420867,Hold,54.709717,50.000000,Hold,-64507.000000,71680.000000,LowGoal,2632.500000,-3272.727273,Speed,2752.500000,-3272.727273,Speed,Off,Off,0.000000,FALSE,35,Read: /home/lvuser/scripts/auto_35.bee,File good!,SEARCH_FOR_GOAL,SEARCH_FOR_GOAL,0.000000,0.000000,-0.050000
02:21:21.273 PM 04/29/2016,Autonomous Enabled,9,FALSE,0,NO ERROR,0.000000,-85.559633,-0.000000,83.647471,FALSE,FALSE,TRUE,TRUE,FALSE,TRUE,Disabled,0.000000,0.000000,0.000000,TRUE,-0.677338,-0.106979,0.000000,-0.915085,-0.421005,0.000000,0.233000,-0.081000,0.110000,2.380000,-2.740000,-3.400000,-3.351984,Hold,54.709961,50.000000,Hold,-72005.000000,71680.000000,LowGoal,2850.000000,-3272.727273,Speed,3142.500000,-3272.727273,Speed,Off,Off,0.000000,FALSE,35,Read: /home/lvuser/scripts/auto_35.bee,File good!,SEARCH_FOR_GOAL,SEARCH_FOR_GOAL,0.000000,0.000000,-0.050000
02:21:21.373 PM 04/29/2016,Autonomous Enabled,10,FALSE,0,NO ERROR,0.000000,-85.707216,-0.000000,83.827137,FALSE,FALSE,TRUE,TRUE,FALSE,TRUE,Disabled,0.000000,0.000000,0.000000,TRUE,-0.720428,-0.129074,0.000000,-0.889053,-0.461899,0.000000,-0.114000,-0.053000,0.182000,2.280000,-2.700000,-3.050000,-3.351082,Hold,54.768799,50.000000,Hold,-72005.000000,71680.000000,LowGoal,3082.500000,-3272.727273,Speed,3217.500000,-3272.727273,Speed,Off,Off,0.000000,FALSE,35,Read: /home/lvuser/scripts/auto_35.bee,File good!,SEARCH_FOR_GOAL,SEARCH_FOR_GOAL,0.000000,0.000000,-0.050000
02:21:21.473 PM 04/29/2016,Autonomous Enabled,9,FALSE,0,NO ERROR,0.000000,-85.739300,-0.000000,83.737304,TRUE,FALSE,TRUE,TRUE,FALSE,TRUE,Disabled,0.000000,0.000000,0.000000,TRUE,-0.765823,-0.152710,0.000000,-0.897141,-0.468628,0.000000,0.079000,-0.007000,-0.089000,2.200000,-2.760000,-2.920000,-3.424846,Hold,54.768799,50.000000,Hold,-71633.000000,71680.000000,LowGoal,3210.000000,-3272.727273,Speed,3195.000000,-3272.727273,Speed,Off,Off,0.000000,FALSE,35,Read: /home/lvuser/scripts/auto_35.bee,File good!,SEARCH_FOR_GOAL,SEARCH_FOR_GOAL,0.000000,0.000000,-0.050000
02:21:21.573 PM 04/29/2016,Autonomous Enabled,10,FALSE,0,NO ERROR,0.000000,-85.636633,-0.000000,83.634638,TRUE,FALSE,TRUE,TRUE,FALSE,TRUE,Disabled,0.000000,0.000000,0.000000,TRUE,-0.815643,-0.162018,0.000000,-0.773712,0.008911,0.000000,0.147000,0.010000,0.043000,2.110000,-2.770000,-2.810000,-3.441422,Hold,54.768799,50.000000,Hold,-71691.000000,71680.000000,LowGoal,3217.500000,-3272.727273,Speed,3172.500000,-3272.727273,Speed,Off,Off,0.000000,FALSE,35,Read: /home/lvuser/scripts/auto_35.bee,File good!,SEARCH_FOR_GOAL,SEARCH_FOR_GOAL,0.000000,0.000000,-0.050000
02:21:21.673 PM 04/29/2016,Autonomous Enabled,9,FALSE,0,NO ERROR,0.000000,-85.636633,-0.000000,83.666721,TRUE,FALSE,TRUE,TRUE,FALSE,TRUE,Disabled,0.000000,0.000000,0.000000,TRUE,-0.843536,-0.161911,0.000000,-0.674332,-0.008728,0.000000,-0.014000,-0.130000,0.160000,2.100000,-2.790000,-2.180000,-3.473441,Hold,54.768799,50.000000,Hold,-71857.000000,71680.000000,LowGoal,3187.500000,-3272.727273,Speed,3172.500000,-3272.727273,Speed,Off,Off,0.000000,FALSE,35,Read: /home/lvuser/scripts/auto_35.bee,File good!,SEARCH_FOR_GOAL,SEARCH_FOR_GOAL,0.000000,0.000000,-0.050000
02:21:21.774 PM 04/29/2016,Autonomous Enabled,9,FALSE,0,NO ERROR,0.000000,-85.636633,-0.000000,83.698804,TRUE,FALSE,TRUE,TRUE,FALSE,TRUE,Disabled,0.456250,0.000000,0.000000,TRUE,-0.843933,-0.163559,0.000000,-0.010574,-0.038254,0.000000,0.101000,-0.037000,0.067000,2.030000,-2.780000,-2.130000,-3.477600,Hold,54.768799,50.000000,Hold,-71716.000000,71680.000000,LowGoal,3180.000000,-3272.727273,Speed,3187.500000,-3272.727273,Speed,Off,Off,0.000000,FALSE,35,Read: /home/lvuser/scripts/auto_35.bee,File good!,SEARCH_FOR_GOAL,SEARCH_FOR_GOAL,0.000000,0.000000,0.406250
02:21:21.876 PM 04/29/2016,Autonomous Enabled,10,FALSE,0,NO ERROR,-0.300218,-85.636633,-0.300218,83.685971,TRUE,FALSE,TRUE,TRUE,FALSE,TRUE,PID,0.456250,-15.843750,13.043750,TRUE,-0.841995,-0.166000,0.000000,0.085861,-0.056274,0.000000,0.200000,0.005000,-0.095000,2.000000,-2.800000,-2.140000,-3.507457,Hold,54.768799,50.000000,Hold,-71769.000000,71680.000000,LowGoal,3187.500000,-3272.727273,Speed,3195.000000,-3272.727273,Speed,Off,Off,0.000000,FALSE,35,Read: /home/lvuser/scripts/auto_35.bee,File good!,SEARCH_FOR_GOAL,SEARCH_FOR_GOAL,0.000000,0.000000,0.406250
02:21:21.975 PM 04/29/2016,Autonomous Enabled,10,FALSE,0,NO ERROR,-0.271750,-86.316798,-0.271750,83.146972,TRUE,FALSE,TRUE,TRUE,FALSE,TRUE,PID,0.456250,-15.843750,13.043750,TRUE,-0.835785,-0.168350,0.000000,0.161545,0.019073,0.000000,0.209000,0.041000,0.129000,2.150000,-2.550000,-1.640000,-2.871093,Hold,54.768799,50.000000,Hold,-71746.000000,71680.000000,LowGoal,3195.000000,-3272.727273,Speed,3180.000000,-3272.727273,Speed,Off,Off,0.000000,FALSE,35,Read: /home/lvuser/scripts/auto_35.bee,File good!,SEARCH_FOR_GOAL,SEARCH_FOR_GOAL,0.000000,0.000000,0.406250
02:21:22.075 PM 04/29/2016,Autonomous Enabled,10,FALSE,0,NO ERROR,-0.235634,-87.093213,-0.235634,82.351307,TRUE,FALSE,TRUE,TRUE,FALSE,TRUE,PID,0.456250,-15.843750,13.043750,TRUE,-0.825928,-0.167908,0.000000,0.211960,0.007690,0.000000,0.009000,0.059000,-0.094000,2.310000,0.620000,-1.650000,0.489280,Hold,54.768799,50.000000,Hold,-71746.000000,71680.000000,LowGoal,3187.500000,-3272.727273,Speed,3172.500000,-3272.727273,Speed,Off,Off,0.000000,FALSE,35,Read: /home/lvuser/scripts/auto_35.bee,File good!,SEARCH_FOR_GOAL,SEARCH_FOR_GOAL,0.000000,0.000000,0.406250
02:21:22.175 PM 04/29/2016,Autonomous Enabled,10,FALSE,0,NO ERROR,-0.217783,-87.555212,-0.217783,81.882892,TRUE,FALSE,TRUE,TRUE,FALSE,TRUE,PID,0.456250,-15.843750,13.043750,TRUE,-0.815948,-0.168182,0.000000,0.183548,-0.052094,0.000000,-0.052000,-0.318000,0.326000,1.840000,3.260000,-1.850000,2.709025,Hold,54.768799,50.000000,Hold,-71746.000000,71680.000000,LowGoal,3187.500000,-3272.727273,Speed,3165.000000,-3272.727273,Speed,Off,Off,0.000000,FALSE,35,Read: /home/lvuser/scripts/auto_35.bee,File good!,SEARCH_FOR_GOAL,SEARCH_FOR_GOAL,0.000000,0.000000,0.406250
02:21:22.275 PM 04/29/2016,Autonomous Enabled,9,FALSE,0,NO ERROR,-0.212449,-87.670712,-0.212449,81.671142,TRUE,FALSE,TRUE,TRUE,FALSE,TRUE,PID,0.456250,-15.843750,13.043750,TRUE,-0.807724,-0.172836,0.000000,0.170471,-0.087326,0.000000,0.009000,0.157000,-0.102000,1.730000,4.100000,-1.830000,3.641349,Hold,54.768799,50.000000,Hold,-71746.000000,71680.000000,LowGoal,3187.500000,-3272.727273,Speed,3180.000000,-3272.727273,Speed,Off,Off,0.000000,FALSE,35,Read: /home/lvuser/scripts/auto_35.bee,File good!,SEARCH_FOR_GOAL,SEARCH_FOR_GOAL,0.000000,0.000000,0.406250
02:21:22.376 PM 04/29/2016,Autonomous Enabled,10,FALSE,0,NO ERROR,-0.211528,-87.670712,-0.211528,81.606976,TRUE,FALSE,TRUE,TRUE,FALSE,TRUE,PID,0.456250,-15.843750,13.043750,TRUE,-0.798172,-0.177185,0.000000,0.214493,-0.111267,0.000000,-0.010000,0.123000,-0.114000,1.670000,4.200000,-1.730000,3.744236,Hold,54.768799,50.000000,Hold,-71746.000000,71680.000000,LowGoal,3195.000000,-3272.727273,Speed,3180.000000,-3272.727273,Speed,Off,Off,0.000000,FALSE,35,Read: /home/lvuser/scripts/auto_35.bee,File good!,SEARCH_FOR_GOAL,SEARCH_FOR_GOAL,0.000000,0.000000,0.406250
02:21:22.477 PM 04/29/2016,Autonomous Enabled,8,FALSE,0,NO ERROR,-0.209464,-87.670712,-0.209464,81.504309,TRUE,FALSE,TRUE,TRUE,FALSE,TRUE,PID,0.456250,-15.843750,13.043750,TRUE,-0.787079,-0.182236,0.000000,0.219009,-0.085907,0.000000,-0.021000,0.204000,-0.278000,1.770000,4.410000,-1.660000,3.897688,Hold,54.768799,50.000000,Hold,-71746.000000,71680.000000,LowGoal,3195.000000,-3272.727273,Speed,3172.500000,-3272.727273,Speed,Off,Off,0.000000,FALSE,35,Read: /home/lvuser/scripts/auto_35.bee,File good!,SEARCH_FOR_GOAL,SEARCH_FOR_GOAL,0.000000,0.000000,0.406250
02:21:22.578 PM 04/29/2016,Autonomous Enabled,11,FALSE,0,NO ERROR,-0.208207,-87.670712,-0.208207,81.452976,TRUE,FALSE,TRUE,TRUE,FALSE,TRUE,PID,0.456250,-15.843750,13.043750,TRUE,-0.773575,-0.188889,0.000000,0.229294,-0.120041,0.000000,0.085000,0.049000,-0.112000,1.680000,4.510000,-1.570000,3.996648,Hold,54.768799,50.000000,Hold,-71746.000000,71680.000000,LowGoal,3195.000000,-3272.727273,Speed,3180.000000,-3272.727273,Speed,Off,Off,0.000000,FALSE,35,Read: /home/lvuser/scripts/auto_35.bee,File good!,SEARCH_FOR_GOAL,SEARCH_FOR_GOAL,0.000000,0.000000,0.406250
02:21:22.679 PM 04/29/2016,Autonomous Enabled,7,FALSE,0,NO ERROR,-0.207068,-87.670712,-0.207068,81.382393,TRUE,FALSE,TRUE,TRUE,FALSE,TRUE,PID,0.456250,-15.843750,13.043750,TRUE,-0.761398,-0.194534,0.000000,0.248291,-0.105026,0.000000,0.100000,-0.248000,0.309000,1.700000,4.580000,-1.500000,4.056418,Hold,54.768799,50.000000,Hold,-71746.000000,71680.000000,LowGoal,3195.000000,-3272.727273,Speed,3180.000000,-3272.727273,Speed,Off,Off,0.000000,FALSE,35,Read: /home/lvuser/scripts/auto_35.bee,File good!,SEARCH_FOR_GOAL,SEARCH_FOR_GOAL,0.000000,0.000000,0.406250
02:21:22.779 PM 04/29/2016,Autonomous Enabled,9,FALSE,0,NO ERROR,-0.205365,-87.670712,-0.205365,81.298977,TRUE,FALSE,TRUE,TRUE,FALSE,TRUE,PID,0.262500,-15.843750,13.043750,TRUE,-0.748383,-0.199966,0.000000,0.264816,-0.116287,0.000000,-0.004000,0.173000,-0.270000,1.620000,4.790000,-1.340000,4.223313,Hold,54.768799,50.000000,Hold,-71746.000000,71680.000000,LowGoal,3195.000000,-3272.727273,Speed,3180.000000,-3272.727273,Speed,Off,Off,0.000000,FALSE,35,Read: /home/lvuser/scripts/auto_35.bee,File good!,SEARCH_FOR_GOAL,SEARCH_FOR_GOAL,0.000000,0.000000,0.212500
02:21:22.880 PM 04/29/2016,Autonomous Enabled,8,FALSE,0,NO ERROR,-0.205747,-87.670712,-0.205747,81.273310,TRUE,FALSE,TRUE,TRUE,FALSE,TRUE,PID,0.262500,-8.287500,13.137500,TRUE,-0.735092,-0.206253,0.000000,0.268555,-0.135849,0.000000,0.074000,-0.079000,-0.003000,1.670000,4.900000,-1.320000,4.335065,Hold,54.768799,50.000000,Hold,-71746.000000,71680.000000,LowGoal,3195.000000,-3272.727273,Speed,3180.000000,-3272.727273,Speed,Off,Off,0.000000,FALSE,35,Read: /home/lvuser/scripts/auto_35.bee,File good!,SEARCH_FOR_GOAL,SEARCH_FOR_GOAL,0.000000,0.000000,0.212500
02:21:22.980 PM 04/29/2016,Autonomous Enabled,8,FALSE,0,NO ERROR,-0.204389,-87.670712,-0.204389,81.196310,TRUE,FALSE,TRUE,TRUE,FALSE,TRUE,PID,0.262500,-8.287500,13.137500,TRUE,-0.721008,-0.212387,0.000000,0.288788,-0.113815,0.000000,0.134000,-0.274000,0.300000,1.670000,4.990000,-1.280000,4.381285,Hold,54.768799,50.000000,Hold,-71746.000000,71680.000000,LowGoal,3195.000000,-3272.727273,Speed,3180.000000,-3272.727273,Speed,Off,Off,0.000000,FALSE,35,Read: /home/lvuser/scripts/auto_35.bee,File good!,SEARCH_FOR_GOAL,SEARCH_FOR_GOAL,0.000000,0.000000,0.212500
02:21:23.081 PM 04/29/2016,Autonomous Enabled,8,FALSE,0,NO ERROR,-0.202697,-87.670712,-0.202697,81.125727,TRUE,FALSE,TRUE,TRUE,FALSE,TRUE,PID,0.262500,-8.287500,13.137500,TRUE,-0.708847,-0.217926,0.000000,0.000000,-0.109100,0.000000,0.021000,0.117000,-0.230000,1.700000,5.090000,-1.190000,4.513786,Hold,54.768799,50.000000,Hold,-71746.000000,71680.000000,LowGoal,3202.500000,-3272.727273,Speed,3180.000000,-3272.727273,Speed,Off,Off,0.000000,FALSE,35,Read: /home/lvuser/scripts/auto_35.bee,File good!,SEARCH_FOR_GOAL,SEARCH_FOR_GOAL,0.000000,0.000000,0.212500
02:21:23.182 PM 04/29/2016,Autonomous Enabled,6,FALSE,0,NO ERROR,-0.201349,-87.670712,-0.201349,81.067977,TRUE,FALSE,TRUE,TRUE,FALSE,TRUE,PID,0.262500,-8.287500,13.137500,TRUE,-0.708847,-0.223755,0.000000,-0.001526,-0.116180,0.000000,-0.150000,0.123000,-0.056000,1.630000,5.220000,-1.080000,4.597877,Hold,54.768799,50.000000,Hold,-71746.000000,71680.000000,LowGoal,3195.000000,-3272.727273,Speed,3187.500000,-3272.727273,Speed,Off,Off,0.000000,FALSE,35,Read: /home/lvuser/scripts/auto_35.bee,File good!,SEARCH_FOR_GOAL,SEARCH_FOR_GOAL,0.000000,0.000000,0.212500
02:21:23.283 PM 04/29/2016,Autonomous Enabled,13,FALSE,0,NO ERROR,-0.200788,-87.670712,-0.200788,81.042310,TRUE,FALSE,TRUE,TRUE,FALSE,TRUE,PID,0.262500,-8.287500,13.137500,TRUE,-0.708405,-0.229279,0.000000,0.021423,-0.114319,0.000000,0.119000,-0.233000,0.289000,1.610000,5.300000,-1.020000,4.646500,Hold,54.768799,50.000000,Hold,-71746.000000,71680.000000,LowGoal,3195.000000,-3272.727273,Speed,3180.000000,-3272.727273,Speed,Off,Off,0.000000,FALSE,35,Read: /home/lvuser/scripts/auto_35.bee,File good!,SEARCH_FOR_GOAL,SEARCH_FOR_GOAL,0.000000,0.000000,0.212500
02:21:23.384 PM 04/29/2016,Autonomous Enabled,16,FALSE,0,NO ERROR,-0.200452,-87.670712,-0.200452,81.016644,TRUE,FALSE,TRUE,TRUE,FALSE,TRUE,PID,0.262500,-8.287500,13.137500,TRUE,-0.706482,-0.236023,0.000000,0.030304,-0.112244,0.000000,-0.120000,-0.099000,0.111000,1.660000,5.340000,-0.990000,4.679097,Hold,54.768799,50.000000,Hold,-71746.000000,71680.000000,LowGoal,3202.500000,-3272.727273,Speed,3187.500000,-3272.727273,Speed,Off,Off,0.000000,FALSE,35,Read: /home/lvuser/scripts/auto_35.bee,File good!,SEARCH_FOR_GOAL,SEARCH_FOR_GOAL,0.000000,0.000000,0.212500
02:21:23.485 PM 04/29/2016,Autonomous Enabled,7,FALSE,0,NO ERROR,-0.199669,-87.670712,-0.199669,80.946061,TRUE,FALSE,TRUE,TRUE,FALSE,TRUE,PID,0.262500,-8.287500,13.137500,TRUE,-0.705643,-0.240555,0.000000,0.021851,-0.115372,0.000000,-0.114000,0.153000,0.009000,1.660000,5.420000,-0.960000,4.756290,Hold,54.768799,50.000000,Hold,-71746.000000,71680.000000,LowGoal,3202.500000,-3272.727273,Speed,3187.500000,-3272.727273,Speed,Off,Off,0.000000,FALSE,35,Read: /home/lvuser/scripts/auto_35.bee,File good!,SEARCH_FOR_GOAL,SEARCH_FOR_GOAL,0.000000,0.000000,0.212500
02:21:23.586 PM 04/29/2016,Autonomous Enabled,14,FALSE,0,NO ERROR,-0.196665,-87.670712,-0.196665,80.849811,TRUE,FALSE,TRUE,TRUE,FALSE,TRUE,PID,0.262500,-8.287500,13.137500,TRUE,-0.703369,-0.245346,0.000000,0.061005,-0.085327,0.000000,0.121000,-0.178000,0.224000,1.730000,5.630000,-0.990000,4.949614,Hold,54.768799,50.000000,Hold,-71746.000000,71680.000000,LowGoal,3195.000000,-3272.727273,Speed,3187.500000,-3272.727273,Speed,Off,Off,0.000000,FALSE,35,Read: /home/lvuser/scripts/auto_35.bee,File good!,SEARCH_FOR_GOAL,SEARCH_FOR_GOAL,0.000000,0.000000,0.212500
02:21:23.686 PM 04/29/2016,Autonomous Enabled,8,FALSE,0,NO ERROR,-0.196554,-87.670712,-0.196554,80.836978,TRUE,FALSE,TRUE,TRUE,FALSE,TRUE,PID,0.262500,-8.287500,13.137500,TRUE,-0.698868,-0.250473,0.000000,0.076462,-0.088577,0.000000,-0.153000,-0.098000,0.083000,1.720000,5.670000,-0.910000,4.950667,Hold,54.768799,50.000000,Hold,-71746.000000,71680.000000,LowGoal,3202.500000,-3272.727273,Speed,3187.500000,-3272.727273,Speed,Off,Off,0.000000,FALSE,35,Read: /home/lvuser/scripts/auto_35.bee,File good!,SEARCH_FOR_GOAL,SEARCH_FOR_GOAL,0.000000,0.000000,0.212500
02:21:23.785 PM 04/29/2016,Autonomous Enabled,9,FALSE,0,NO ERROR,-0.196332,-87.670712,-0.196332,80.824144,TRUE,FALSE,TRUE,TRUE,FALSE,TRUE,PID,0.234375,-8.287500,13.137500,TRUE,-0.695938,-0.255325,0.000000,0.059433,-0.104813,0.000000,0.157000,-0.062000,-0.009000,1.730000,5.690000,-0.910000,4.946016,Hold,54.768799,50.000000,Hold,-71746.000000,71680.000000,LowGoal,3202.500000,-3272.727273,Speed,3195.000000,-3272.727273,Speed,Off,Off,0.000000,FALSE,35,Read: /home/lvuser/scripts/auto_35.bee,File good!,SEARCH_FOR_GOAL,SEARCH_FOR_GOAL,0.000000,0.000000,0.184375
02:21:23.885 PM 04/29/2016,Autonomous Enabled,16,FALSE,0,NO ERROR,-0.193827,-87.670712,-0.193827,80.849811,TRUE,FALSE,TRUE,TRUE,FALSE,TRUE,PID,0.234375,-7.190625,12.900625,TRUE,-0.692932,-0.259369,0.000000,0.092697,-0.095688,0.000000,0.103000,-0.170000,0.113000,1.750000,5.740000,-0.840000,4.971901,Hold,54.768799,50.000000,Hold,-71746.000000,71680.000000,LowGoal,3202.500000,-3272.727273,Speed,3187.500000,-3272.727273,Speed,Off,Off,0.000000,FALSE,35,Read: /home/lvuser/scripts/auto_35.bee,File good!,SEARCH_FOR_GOAL,SEARCH_FOR_GOAL,0.000000,0.000000,0.184375
02:21:23.986 PM 04/29/2016,Autonomous Enabled,19,FALSE,0,NO ERROR,-0.192289,-87.683545,-0.192289,80.785644,TRUE,FALSE,TRUE,TRUE,FALSE,TRUE,PID,0.234375,-7.190625,12.900625,TRUE,-0.687363,-0.264160,0.000000,0.123413,-0.092743,0.000000,-0.026000,0.019000,-0.094000,1.760000,5.810000,-0.820000,5.031171,Hold,54.768799,50.000000,Hold,-71746.000000,71680.000000,LowGoal,3202.500000,-3272.727273,Speed,3195.000000,-3272.727273,Speed,Off,Off,0.000000,FALSE,35,Read: /home/lvuser/scripts/auto_35.bee,File good!,SEARCH_FOR_GOAL,SEARCH_FOR_GOAL,0.000000,0.000000,0.184375
02:21:24.086 PM 04/29/2016,Autonomous Enabled,16,FALSE,0,NO ERROR,-0.191632,-87.683545,-0.191632,80.753561,TRUE,FALSE,TRUE,TRUE,FALSE,TRUE,PID,0.234375,-7.190625,12.900625,TRUE,-0.682465,-0.269745,0.000000,0.080917,-0.118835,0.000000,-0.129000,0.001000,0.039000,1.780000,5.870000,-0.850000,5.089829,Hold,54.768799,50.000000,Hold,-71746.000000,71680.000000,LowGoal,3202.500000,-3272.727273,Speed,3195.000000,-3272.727273,Speed,Off,Off,0.000000,FALSE,35,Read: /home/lvuser/scripts/auto_35.bee,File good!,SEARCH_FOR_GOAL,SEARCH_FOR_GOAL,0.000000,0.000000,0.184375
