Time,Robot Mode,Loop Time,Error Status,Error Code,Error Source,Left Motor Output,Left Motor Encoder,Right Motor Output,Right Motor Encoder,Is Level,Is Stalled,Ball Detector Photoeye,Vision Enabled,Vision Teleop Control,Vision Auto Control,Vision Current State,Vision X Output,Vision NavX Error,Vision NavX Target,NavX Connection Status,NavX Displacement X,NavX Displacement Y,NavX Displacement Z,NavX Velocity X,NavX Velocity Y,NavX Velocity Z,NavX Acceleration X,NavX Acceleration Y,NavX Acceleration Z,NavX Pitch,NavX Yaw,NavX Roll,Gyro Angle,Roller Arm State,Roller Arm Actual,Roller Arm Desired,Shooter Arm State,Shooter Arm Actual,Shooter Arm Desired,Shooter State,Actual RPM Left,Desired RPM Left,Control Mode Left,Actual RPM Right,Desired RPM Right,Scaler Motor Output,Auto To Run,Auto Current File,Auto File Status,Auto Current Command,Auto Trimmed Command
04:16:20.036 PM 03/19/2016,Teleop Enabled,9,FALSE,0,NO ERROR,-0.000000,0.000000,0.000000,0.000000,TRUE,FALSE,FALSE,FALSE,FALSE,FALSE,Disabled,0.000000,0.000000,0.000000,TRUE,-4.722961,-2.171768,0.000000,-0.009567,-0.006073,0.000000,-0.010000,-0.076000,-0.006000,-0.010000,-0.260000,2.380000,-0.012576,ResetBack,-68.867188,-0.200000,ResetBack,58270.000000,-0.300000,Empty,0.000000,0.000000,Speed,0.000000,0.000000,Speed,Off,Off0.000000,0,,,,
04:16:20.137 PM 03/19/2016,Teleop Enabled,8,FALSE,0,NO ERROR,-0.000000,0.000000,0.000000,0.000000,TRUE,FALSE,FALSE,FALSE,FALSE,FALSE,Disabled,0.000000,0.000000,0.000000,TRUE,-4.723663,-2.172943,0.000000,0.000000,-0.024414,0.000000,-0.006000,-0.009000,0.047000,0.000000,-0.270000,2.370000,-0.021812,ResetBack,-69.877686,-0.200000,ResetBack,61271.000000,-0.300000,Empty,-37.500000,0.000000,Speed,0.000000,0.000000,Speed,Off,On0.000000,0,,,,
04:16:20.237 PM 03/19/2016,Teleop Enabled,9,FALSE,0,NO ERROR,-0.000000,0.000000,0.000000,0.000000,TRUE,FALSE,FALSE,FALSE,FALSE,FALSE,Disabled,0.000000,0.000000,0.000000,TRUE,-4.723572,-2.172577,0.000000,0.006348,0.017593,0.000000,-0.034000,-0.018000,0.036000,-0.010000,-0.240000,2.400000,-0.020208,ResetBack,-69.886475,-0.200000,ResetBack,68494.000000,-0.300000,Suck,0.000000,2181.818182,Speed,0.000000,2181.818182,Speed,Off,On0.000000,0,,,,
04:16:20.338 PM 03/19/2016,Teleop Enabled,10,FALSE,0,NO ERROR,-0.000000,0.000000,0.000000,0.000000,TRUE,FALSE,FALSE,FALSE,FALSE,FALSE,Disabled,0.000000,0.000000,0.000000,TRUE,-4.723709,-2.171906,0.000000,-0.013962,0.024628,0.000000,0.058000,0.046000,0.174000,0.000000,-0.170000,2.370000,-0.003443,Reset,-69.886475,0.000000,ResetBack,70411.000000,-0.300000,Suck,-90.000000,2181.818182,Speed,-75.000000,2181.818182,Speed,Off,On0.000000,0,,,,
04:16:20.438 PM 03/19/2016,Teleop Enabled,9,FALSE,0,NO ERROR,-0.000000,0.000000,0.000000,0.000000,TRUE,FALSE,FALSE,FALSE,FALSE,FALSE,Disabled,0.000000,0.000000,0.000000,TRUE,-4.724777,-2.170822,0.000000,-0.030472,0.018860,0.000000,-0.018000,0.033000,0.047000,0.000000,-0.230000,2.340000,0.005477,Hold,1.162598,0.000000,ResetBack,70412.000000,-0.300000,Suck,-892.500000,2181.818182,Speed,-825.000000,2181.818182,Speed,Off,On0.000000,0,,,,
04:16:20.538 PM 03/19/2016,Teleop Enabled,9,FALSE,0,NO ERROR,-0.000000,0.000000,0.000000,0.000000,TRUE,FALSE,FALSE,FALSE,FALSE,FALSE,Disabled,0.000000,0.000000,0.000000,TRUE,-4.726166,-2.168594,0.000000,0.000000,0.059128,0.000000,0.003000,0.066000,0.049000,0.010000,-0.240000,2.330000,0.022425,Hold,1.053711,0.000000,ResetBack,70412.000000,-0.300000,Suck,-1687.500000,2181.818182,Speed,-1477.500000,2181.818182,Speed,Off,On0.000000,0,,,,
04:16:20.638 PM 03/19/2016,Teleop Enabled,10,FALSE,0,NO ERROR,-0.000000,0.000000,0.000000,0.000000,TRUE,FALSE,FALSE,FALSE,FALSE,FALSE,Disabled,0.000000,0.000000,0.000000,TRUE,-4.725998,-2.163376,0.000000,0.020950,0.085526,0.000000,0.003000,0.066000,0.049000,0.000000,-0.280000,2.390000,0.012503,Hold,0.939941,0.000000,ResetBack,70613.000000,-0.300000,Suck,-2167.500000,2181.818182,Speed,-2212.500000,2181.818182,Speed,Off,On0.000000,0,,,,
04:16:20.738 PM 03/19/2016,Teleop Enabled,10,FALSE,0,NO ERROR,-0.000000,0.000000,0.000000,0.000000,TRUE,FALSE,FALSE,FALSE,FALSE,FALSE,Disabled,0.000000,0.000000,0.000000,TRUE,-4.724915,-2.162613,0.000000,0.000000,-0.025574,0.000000,-0.110000,-0.050000,0.055000,0.000000,-0.240000,2.340000,0.013161,Hold,0.939941,0.000000,ResetBack,71343.000000,-0.300000,Suck,-2257.500000,2181.818182,Speed,-2287.500000,2181.818182,Speed,Off,On0.000000,0,,,,
04:16:20.838 PM 03/19/2016,Teleop Enabled,9,FALSE,0,NO ERROR,-0.000000,0.000000,0.000000,0.000000,TRUE,FALSE,FALSE,FALSE,FALSE,FALSE,Disabled,0.000000,0.000000,0.000000,TRUE,-4.726212,-2.164948,0.000000,-0.022018,-0.052322,0.000000,-0.121000,0.050000,-0.138000,0.000000,-0.240000,2.390000,0.022473,Hold,0.939941,0.000000,ResetBack,72055.000000,-0.300000,Suck,-2092.500000,2181.818182,Speed,-2085.000000,2181.818182,Speed,Off,On0.000000,0,,,,
04:16:20.938 PM 03/19/2016,Teleop Enabled,9,FALSE,0,NO ERROR,-0.000000,0.000000,0.000000,0.000000,TRUE,FALSE,FALSE,FALSE,FALSE,FALSE,Disabled,0.000000,0.000000,0.000000,TRUE,-4.727478,-2.168900,0.000000,-0.011749,-0.066971,0.000000,-0.121000,0.050000,-0.138000,0.000000,-0.240000,2.390000,0.022163,Hold,0.939941,0.000000,ResetBack,72095.000000,-0.300000,Suck,-2070.000000,2181.818182,Speed,-2070.000000,2181.818182,Speed,Off,On0.000000,0,,,,
04:16:21.038 PM 03/19/2016,Teleop Enabled,9,FALSE,0,NO ERROR,-0.000000,0.000000,0.000000,0.000000,TRUE,FALSE,FALSE,FALSE,FALSE,FALSE,Disabled,0.000000,0.000000,0.000000,TRUE,-4.729462,-2.170715,0.000000,-0.050171,-0.008835,0.000000,-0.043000,-0.023000,-0.006000,0.000000,-0.280000,2.390000,0.030109,Hold,0.939941,0.000000,ResetBack,72202.000000,-0.300000,Suck,-2167.500000,2181.818182,Speed,-2130.000000,2181.818182,Speed,Off,On0.000000,0,,,,
04:16:21.138 PM 03/19/2016,Teleop Enabled,10,FALSE,0,NO ERROR,-0.000000,0.000000,0.000000,0.000000,TRUE,FALSE,FALSE,FALSE,FALSE,FALSE,Disabled,0.000000,0.000000,0.000000,TRUE,-4.732681,-2.169464,0.000000,-0.067291,0.040833,0.000000,-0.020000,0.064000,-0.031000,0.000000,-0.310000,2.420000,0.020015,Hold,0.939941,0.000000,ResetBack,72401.000000,-0.300000,Suck,-2145.000000,2181.818182,Speed,-2145.000000,2181.818182,Speed,Off,On0.000000,0,,,,
04:16:21.239 PM 03/19/2016,Teleop Enabled,10,FALSE,0,NO ERROR,-0.000000,0.000000,0.000000,0.000000,TRUE,FALSE,FALSE,FALSE,FALSE,FALSE,Disabled,0.000000,0.000000,0.000000,TRUE,-4.735382,-2.167160,0.000000,-0.046707,0.051086,0.000000,0.000000,-0.018000,0.050000,0.000000,-0.300000,2.390000,0.010428,Hold,0.939941,0.000000,Reset,72401.000000,2.000000,Suck,-2115.000000,2181.818182,Speed,-2107.500000,2181.818182,Speed,Off,On0.000000,0,,,,
04:16:21.340 PM 03/19/2016,Teleop Enabled,9,FALSE,0,NO ERROR,-0.000000,0.000000,0.000000,0.000000,TRUE,FALSE,FALSE,FALSE,FALSE,FALSE,Disabled,0.000000,0.000000,0.000000,TRUE,-4.737045,-2.164139,0.000000,-0.032730,0.069458,0.000000,0.005000,0.057000,-0.045000,0.000000,-0.260000,2.370000,0.022445,Hold,0.939941,0.000000,Hold,-153.000000,2.000000,Suck,-2130.000000,2181.818182,Speed,-2107.500000,2181.818182,Speed,Off,On0.000000,0,,,,
04:16:21.441 PM 03/19/2016,Teleop Enabled,10,FALSE,0,NO ERROR,-0.000000,0.000000,0.000000,0.000000,TRUE,FALSE,FALSE,FALSE,FALSE,FALSE,Disabled,0.000000,0.000000,0.000000,TRUE,-4.738876,-2.162857,0.000000,-0.019928,-0.014709,0.000000,-0.101000,0.010000,-0.087000,0.000000,-0.320000,2.410000,0.026921,Hold,0.939941,0.000000,Hold,-230.000000,2.000000,Suck,-2145.000000,2181.818182,Speed,-2122.500000,2181.818182,Speed,Off,On0.000000,0,,,,
04:16:21.541 PM 03/19/2016,Teleop Enabled,8,FALSE,0,NO ERROR,-0.000000,0.000000,0.000000,0.000000,TRUE,FALSE,FALSE,FALSE,FALSE,FALSE,Disabled,0.000000,0.000000,0.000000,TRUE,-4.739105,-2.163818,0.000000,0.000000,-0.035339,0.000000,0.006000,0.042000,0.055000,0.000000,-0.320000,2.430000,0.016813,Hold,0.939941,0.000000,Hold,-230.000000,2.000000,Suck,-2145.000000,2181.818182,Speed,-2130.000000,2181.818182,Speed,Off,On0.000000,0,,,,
04:16:21.641 PM 03/19/2016,Teleop Enabled,9,FALSE,0,NO ERROR,-0.000000,0.000000,0.000000,0.000000,TRUE,FALSE,FALSE,FALSE,FALSE,FALSE,Disabled,0.000000,0.000000,0.000000,TRUE,-4.739212,-2.166641,0.000000,-0.012192,-0.045135,0.000000,-0.102000,0.055000,0.001000,0.000000,-0.310000,2.390000,-0.000310,Hold,0.939941,0.000000,Hold,-230.000000,2.000000,Suck,-2130.000000,2181.818182,Speed,-2122.500000,2181.818182,Speed,Off,On0.000000,0,,,,
04:16:21.741 PM 03/19/2016,Teleop Enabled,9,FALSE,0,NO ERROR,-0.000000,0.000000,0.000000,0.000000,TRUE,FALSE,FALSE,FALSE,FALSE,FALSE,Disabled,0.000000,0.000000,0.000000,TRUE,-4.740906,-2.167709,0.000000,-0.030487,-0.010605,0.000000,-0.102000,0.055000,0.001000,0.000000,-0.310000,2.390000,0.003332,Hold,0.939941,0.000000,Hold,-230.000000,2.000000,Suck,-2122.500000,2181.818182,Speed,-2122.500000,2181.818182,Speed,Off,On0.000000,0,,,,
04:16:21.842 PM 03/19/2016,Teleop Enabled,9,FALSE,0,NO ERROR,-0.000000,0.000000,0.000000,0.000000,TRUE,FALSE,FALSE,FALSE,FALSE,FALSE,Disabled,0.000000,0.000000,0.000000,TRUE,-4.742523,-2.167267,0.000000,0.000000,0.014038,0.000000,-0.027000,0.068000,0.070000,0.000000,-0.330000,2.410000,0.029458,Hold,0.939941,0.000000,Hold,-230.000000,2.000000,Suck,-2130.000000,2181.818182,Speed,-2130.000000,2181.818182,Speed,Off,On0.000000,0,,,,
04:16:21.943 PM 03/19/2016,Teleop Enabled,10,FALSE,0,NO ERROR,-0.000000,0.000000,0.000000,0.000000,TRUE,FALSE,FALSE,FALSE,FALSE,FALSE,Disabled,0.000000,0.000000,0.000000,TRUE,-4.742020,-2.166748,0.000000,0.000000,0.002609,0.000000,0.008000,0.025000,0.050000,0.000000,-0.290000,2.390000,0.027299,Hold,0.939941,0.000000,Hold,-230.000000,2.000000,Suck,-2137.500000,2181.818182,Speed,-2122.500000,2181.818182,Speed,Off,On0.000000,0,,,,
04:16:22.046 PM 03/19/2016,Teleop Enabled,11,FALSE,0,NO ERROR,-0.000000,0.000000,0.000000,0.000000,TRUE,FALSE,FALSE,FALSE,FALSE,FALSE,Disabled,0.000000,0.000000,0.000000,TRUE,-4.741714,-2.167450,0.000000,0.017578,-0.023148,0.000000,0.000000,-0.002000,-0.003000,0.000000,-0.330000,2.390000,0.025606,Hold,0.939941,0.000000,Hold,-230.000000,2.000000,Suck,-2130.000000,2181.818182,Speed,-2122.500000,2181.818182,Speed,Off,On0.000000,0,,,,
04:16:22.147 PM 03/19/2016,Teleop Enabled,10,FALSE,0,NO ERROR,-0.000000,0.000000,0.000000,0.000000,TRUE,FALSE,FALSE,FALSE,FALSE,FALSE,Disabled,0.000000,0.000000,0.000000,TRUE,-4.741714,-2.167450,0.000000,0.017578,-0.023148,0.000000,0.016000,0.016000,-0.006000,0.000000,-0.260000,2.390000,0.049803,Hold,0.939941,0.000000,Hold,-230.000000,2.000000,Suck,-2137.500000,2181.818182,Speed,-2130.000000,2181.818182,Speed,Off,On0.000000,0,,,,
04:16:22.248 PM 03/19/2016,Teleop Enabled,11,FALSE,0,NO ERROR,-0.000000,0.000000,0.000000,0.000000,TRUE,FALSE,FALSE,FALSE,FALSE,FALSE,Disabled,0.000000,0.000000,0.000000,TRUE,-4.740173,-2.168640,0.000000,0.020065,0.001114,0.000000,-0.001000,0.007000,0.001000,0.000000,-0.290000,2.390000,0.064231,Hold,0.939941,0.000000,Hold,-230.000000,2.000000,Suck,-2137.500000,2181.818182,Speed,-2130.000000,2181.818182,Speed,Off,On0.000000,0,,,,
04:16:22.350 PM 03/19/2016,Teleop Enabled,11,FALSE,0,NO ERROR,-0.000000,0.000000,0.000000,0.000000,TRUE,FALSE,FALSE,FALSE,FALSE,FALSE,Disabled,0.000000,0.000000,0.000000,TRUE,-4.740173,-2.168640,0.000000,0.020065,0.001114,0.000000,0.043000,0.010000,0.016000,0.000000,-0.270000,2.400000,0.072442,Hold,0.939941,0.000000,Hold,-230.000000,2.000000,Suck,-2130.000000,2181.818182,Speed,-2122.500000,2181.818182,Speed,Off,On0.000000,0,,,,
04:16:22.450 PM 03/19/2016,Teleop Enabled,9,FALSE,0,NO ERROR,-0.000000,0.000000,0.000000,0.000000,TRUE,FALSE,FALSE,FALSE,FALSE,FALSE,Disabled,0.000000,0.000000,0.000000,TRUE,-4.734329,-2.168198,0.000000,0.040756,0.021744,0.000000,-0.018000,0.036000,0.071000,0.000000,-0.230000,2.390000,0.075523,Hold,0.939941,0.000000,Hold,-230.000000,2.000000,Suck,-2130.000000,2181.818182,Speed,-2122.500000,2181.818182,Speed,Off,On0.000000,0,,,,
04:16:22.551 PM 03/19/2016,Teleop Enabled,11,FALSE,0,NO ERROR,-0.000000,0.000000,0.000000,0.000000,TRUE,FALSE,FALSE,FALSE,FALSE,FALSE,Disabled,0.000000,0.000000,0.000000,TRUE,-4.734329,-2.168198,0.000000,0.040756,0.021744,0.000000,-0.102000,0.000000,-0.008000,0.000000,-0.240000,2.400000,0.073423,Hold,0.939941,0.000000,Hold,-230.000000,2.000000,Suck,-2137.500000,2181.818182,Speed,-2130.000000,2181.818182,Speed,Off,On0.000000,0,,,,
04:16:22.652 PM 03/19/2016,Teleop Enabled,11,FALSE,0,NO ERROR,-0.000000,0.000000,0.000000,0.000000,TRUE,FALSE,FALSE,FALSE,FALSE,FALSE,Disabled,0.000000,0.000000,0.000000,TRUE,-4.732697,-2.167053,0.000000,0.032150,0.011795,0.000000,-0.024000,0.068000,0.115000,0.000000,-0.190000,2.370000,0.103480,Hold,0.939941,0.000000,Hold,-230.000000,2.000000,Suck,-2137.500000,2181.818182,Speed,-2115.000000,2181.818182,Speed,Off,On0.000000,0,,,,
04:16:22.752 PM 03/19/2016,Teleop Enabled,11,FALSE,0,NO ERROR,-0.000000,0.000000,0.000000,0.000000,TRUE,FALSE,FALSE,FALSE,FALSE,FALSE,Disabled,0.000000,0.000000,0.000000,TRUE,-4.732498,-2.164276,0.000000,-0.007538,0.077911,0.000000,0.003000,0.001000,0.069000,0.000000,-0.190000,2.390000,0.109277,Hold,0.939941,0.000000,Hold,-230.000000,2.000000,Suck,-2137.500000,2181.818182,Speed,-2122.500000,2181.818182,Speed,Off,On0.000000,0,,,,
04:16:22.852 PM 03/19/2016,Teleop Enabled,10,FALSE,0,NO ERROR,-0.000000,0.000000,0.000000,0.000000,TRUE,FALSE,FALSE,FALSE,FALSE,FALSE,Disabled,0.000000,0.000000,0.000000,TRUE,-4.733627,-2.159866,0.000000,-0.028046,0.091644,0.000000,0.006000,0.020000,0.080000,0.000000,-0.210000,2.380000,0.109367,Hold,0.939941,0.000000,Hold,-230.000000,2.000000,Suck,-2130.000000,2181.818182,Speed,-2130.000000,2181.818182,Speed,Off,On0.000000,0,,,,
04:16:22.952 PM 03/19/2016,Teleop Enabled,12,FALSE,0,NO ERROR,-0.000000,0.000000,0.000000,0.000000,TRUE,FALSE,FALSE,FALSE,FALSE,FALSE,Disabled,0.000000,0.000000,0.000000,TRUE,-4.733932,-2.155930,0.000000,0.009811,0.056992,0.000000,0.083000,-0.112000,-0.007000,0.000000,-0.160000,2.410000,0.098760,Hold,0.939941,0.000000,Hold,-230.000000,2.000000,Suck,-2130.000000,2181.818182,Speed,-2122.500000,2181.818182,Speed,Off,On0.000000,0,,,,
04:16:23.052 PM 03/19/2016,Teleop Enabled,11,FALSE,0,NO ERROR,-0.000000,0.000000,0.000000,0.000000,TRUE,FALSE,FALSE,FALSE,FALSE,FALSE,Disabled,0.000000,0.000000,0.000000,TRUE,-4.733749,-2.155029,0.000000,-0.018463,-0.009659,0.000000,-0.058000,-0.011000,-0.051000,0.000000,-0.150000,2.390000,0.098760,Hold,0.939941,0.000000,Hold,-230.000000,2.000000,Suck,-2137.500000,2181.818182,Speed,-2122.500000,2181.818182,Speed,Off,On0.000000,0,,,,
04:16:23.152 PM 03/19/2016,Teleop Enabled,10,FALSE,0,NO ERROR,-0.000000,0.000000,0.000000,0.000000,TRUE,FALSE,FALSE,FALSE,FALSE,FALSE,Disabled,0.000000,0.000000,0.000000,TRUE,-4.735382,-2.157181,0.000000,-0.028381,-0.064209,0.000000,0.083000,-0.066000,-0.018000,0.000000,-0.090000,2.420000,0.103556,Hold,0.939941,0.000000,Hold,-230.000000,2.000000,Suck,-2145.000000,2181.818182,Speed,-2122.500000,2181.818182,Speed,Off,On0.000000,0,,,,
04:16:23.252 PM 03/19/2016,Teleop Enabled,11,FALSE,0,NO ERROR,-0.000000,0.000000,0.000000,0.000000,TRUE,FALSE,FALSE,FALSE,FALSE,FALSE,Disabled,0.000000,0.000000,0.000000,TRUE,-4.735947,-2.161575,0.000000,-0.014832,-0.101105,0.000000,-0.026000,0.051000,0.075000,0.000000,-0.140000,2.400000,0.105539,Hold,0.939941,0.000000,Hold,-230.000000,2.000000,Suck,-2152.500000,2181.818182,Speed,-2130.000000,2181.818182,Speed,Off,On0.000000,0,,,,
04:16:23.352 PM 03/19/2016,Teleop Enabled,10,FALSE,0,NO ERROR,-0.000000,0.000000,0.000000,0.000000,TRUE,FALSE,FALSE,FALSE,FALSE,FALSE,Disabled,0.000000,0.000000,0.000000,TRUE,-4.736435,-2.165451,0.000000,0.000000,-0.069427,0.000000,0.030000,0.017000,0.026000,0.000000,-0.180000,2.400000,0.097579,Hold,0.939941,0.000000,Hold,-230.000000,2.000000,Suck,-2145.000000,2181.818182,Speed,-2130.000000,2181.818182,Speed,Off,On0.000000,0,,,,
04:16:23.453 PM 03/19/2016,Teleop Enabled,11,FALSE,0,NO ERROR,-0.000000,0.000000,0.000000,0.000000,TRUE,FALSE,FALSE,FALSE,FALSE,FALSE,Disabled,0.000000,0.000000,0.000000,TRUE,-4.736450,-2.166992,0.000000,-0.003311,0.013779,0.000000,-0.096000,0.132000,0.080000,0.000000,-0.160000,2.340000,0.087348,Hold,0.939941,0.000000,Hold,-230.000000,2.000000,Suck,-2152.500000,2181.818182,Speed,-2122.500000,2181.818182,Speed,Off,On0.000000,0,,,,
04:16:23.553 PM 03/19/2016,Teleop Enabled,12,FALSE,0,NO ERROR,-0.000000,0.000000,0.000000,0.000000,TRUE,FALSE,FALSE,FALSE,FALSE,FALSE,Disabled,0.000000,0.000000,0.000000,TRUE,-4.736725,-2.163498,0.000000,-0.001541,0.099670,0.000000,-0.043000,0.096000,0.022000,0.000000,-0.170000,2.320000,0.081207,Hold,0.939941,0.000000,Hold,-230.000000,2.000000,Suck,-2152.500000,2181.818182,Speed,-2145.000000,2181.818182,Speed,Off,On0.000000,0,,,,
04:16:23.653 PM 03/19/2016,Teleop Enabled,10,FALSE,0,NO ERROR,-0.000000,0.000000,0.000000,0.000000,TRUE,FALSE,FALSE,FALSE,FALSE,FALSE,Disabled,0.000000,0.000000,0.000000,TRUE,-4.737518,-2.156281,0.000000,-0.033096,0.171982,0.000000,-0.026000,0.094000,0.026000,0.000000,-0.220000,2.320000,0.095180,Hold,0.939941,0.000000,Hold,-230.000000,2.000000,Suck,-2145.000000,2181.818182,Speed,-2152.500000,2181.818182,Speed,Off,On0.000000,0,,,,
04:16:23.753 PM 03/19/2016,Teleop Enabled,10,FALSE,0,NO ERROR,-0.000000,0.000000,0.000000,0.000000,TRUE,FALSE,FALSE,FALSE,FALSE,FALSE,Disabled,0.000000,0.000000,0.000000,TRUE,-4.740158,-2.142639,0.000000,-0.028687,0.245926,0.000000,0.054000,-0.010000,0.031000,0.000000,-0.210000,2.360000,0.105256,Hold,0.939941,0.000000,Hold,-230.000000,2.000000,Suck,-2145.000000,2181.818182,Speed,-2122.500000,2181.818182,Speed,Off,On0.000000,0,,,,
04:16:23.855 PM 03/19/2016,Teleop Enabled,9,FALSE,0,NO ERROR,-0.000000,0.000000,0.000000,0.000000,TRUE,FALSE,FALSE,FALSE,FALSE,FALSE,Disabled,0.000000,0.000000,0.000000,TRUE,-4.740555,-2.130341,0.000000,-0.002304,0.238419,0.000000,-0.031000,-0.068000,0.042000,0.000000,-0.170000,2.340000,0.119140,Hold,0.939941,0.000000,Hold,-230.000000,2.000000,Suck,-2145.000000,2181.818182,Speed,-2115.000000,2181.818182,Speed,Off,On0.000000,0,,,,
04:16:23.956 PM 03/19/2016,Teleop Enabled,11,FALSE,0,NO ERROR,-0.000000,0.000000,0.000000,0.000000,TRUE,FALSE,FALSE,FALSE,FALSE,FALSE,Disabled,0.000000,0.000000,0.000000,TRUE,-4.741714,-2.119110,0.000000,-0.040573,0.213837,0.000000,-0.015000,-0.076000,0.060000,0.000000,-0.190000,2.340000,0.112850,Hold,0.939941,0.000000,Hold,-230.000000,2.000000,Suck,-2137.500000,2181.818182,Speed,-2130.000000,2181.818182,Speed,Off,On0.000000,0,,,,
04:16:24.057 PM 03/19/2016,Teleop Enabled,9,FALSE,0,NO ERROR,-0.000000,0.000000,0.000000,0.000000,TRUE,FALSE,FALSE,FALSE,FALSE,FALSE,Disabled,0.000000,0.000000,0.000000,TRUE,-4.743134,-2.110229,0.000000,-0.014053,0.156982,0.000000,0.040000,-0.078000,-0.008000,0.000000,-0.190000,2.390000,0.124645,Hold,0.939941,0.000000,Hold,-230.000000,2.000000,Suck,-2137.500000,2181.818182,Speed,-2137.500000,2181.818182,Speed,Off,On0.000000,0,,,,
04:16:24.158 PM 03/19/2016,Teleop Enabled,10,FALSE,0,NO ERROR,-0.000000,0.000000,0.000000,0.000000,TRUE,FALSE,FALSE,FALSE,FALSE,FALSE,Disabled,0.000000,0.000000,0.000000,TRUE,-4.742554,-2.105469,0.000000,0.008911,0.000000,0.000000,-0.037000,-0.018000,0.089000,0.000000,-0.180000,2.370000,0.144574,Hold,0.939941,0.000000,Hold,-230.000000,2.000000,Suck,-2145.000000,2181.818182,Speed,-2122.500000,2181.818182,Speed,Off,On0.000000,0,,,,
04:16:24.258 PM 03/19/2016,Teleop Enabled,10,FALSE,0,NO ERROR,-0.000000,0.000000,0.000000,0.000000,TRUE,FALSE,FALSE,FALSE,FALSE,FALSE,Disabled,0.000000,0.000000,0.000000,TRUE,-4.742661,-2.105637,0.000000,-0.015808,-0.007019,0.000000,0.006000,0.015000,0.000000,0.000000,-0.210000,2.400000,0.173006,Hold,0.939941,0.000000,Hold,-230.000000,2.000000,Suck,-2145.000000,2181.818182,Speed,-2122.500000,2181.818182,Speed,Off,On0.000000,0,,,,
04:16:24.358 PM 03/19/2016,Teleop Enabled,10,FALSE,0,NO ERROR,-0.000000,0.000000,0.000000,0.000000,TRUE,FALSE,FALSE,FALSE,FALSE,FALSE,Disabled,0.000000,0.000000,0.000000,TRUE,-4.744064,-2.105194,0.000000,-0.033356,0.020309,0.000000,-0.016000,-0.015000,0.019000,0.000000,-0.200000,2.400000,0.163959,Hold,0.939941,0.000000,Hold,-230.000000,2.000000,Suck,-2137.500000,2181.818182,Speed,-2130.000000,2181.818182,Speed,Off,On0.000000,0,,,,
04:16:24.460 PM 03/19/2016,Teleop Enabled,10,FALSE,0,NO ERROR,-0.000000,0.000000,0.000000,0.000000,TRUE,FALSE,FALSE,FALSE,FALSE,FALSE,Disabled,0.000000,0.000000,0.000000,TRUE,-4.746521,-2.103149,0.000000,-0.058899,0.068344,0.000000,-0.011000,0.072000,0.142000,0.000000,-0.220000,2.360000,0.170148,Hold,0.939941,0.000000,Hold,-230.000000,2.000000,Suck,-2130.000000,2181.818182,Speed,-2122.500000,2181.818182,Speed,Off,On0.000000,0,,,,
04:16:24.561 PM 03/19/2016,Teleop Enabled,9,FALSE,0,NO ERROR,-0.000000,0.000000,0.000000,0.000000,TRUE,FALSE,FALSE,FALSE,FALSE,FALSE,Disabled,0.000000,0.000000,0.000000,TRUE,-4.748688,-2.098434,0.000000,-0.024780,0.106140,0.000000,-0.004000,0.029000,-0.035000,0.000000,-0.220000,2.370000,0.164895,Hold,0.939941,0.000000,Hold,-230.000000,2.000000,Suck,-2137.500000,2181.818182,Speed,-2122.500000,2181.818182,Speed,Off,On0.000000,0,,,,
04:16:24.664 PM 03/19/2016,Teleop Enabled,9,FALSE,0,NO ERROR,-0.000000,0.000000,0.000000,0.000000,TRUE,FALSE,FALSE,FALSE,FALSE,FALSE,Disabled,0.000000,0.000000,0.000000,TRUE,-4.749374,-2.092758,0.000000,-0.000473,0.115158,0.000000,0.013000,-0.032000,-0.113000,0.000000,-0.180000,2.370000,0.156309,Hold,0.939941,0.000000,Hold,-230.000000,2.000000,Suck,-2145.000000,2181.818182,Speed,-2122.500000,2181.818182,Speed,Off,On0.000000,0,,,,
04:16:24.763 PM 03/19/2016,Teleop Enabled,9,FALSE,0,NO ERROR,-0.000000,0.000000,0.000000,0.000000,TRUE,FALSE,FALSE,FALSE,FALSE,FALSE,Disabled,0.000000,0.000000,0.000000,TRUE,-4.750046,-2.086746,0.000000,-0.030746,0.125793,0.000000,-0.020000,-0.003000,-0.077000,0.000000,-0.240000,2.400000,0.142160,Hold,0.939941,0.000000,Hold,-230.000000,2.000000,Suck,-2145.000000,2181.818182,Speed,-2130.000000,2181.818182,Speed,Off,On0.000000,0,,,,
04:16:24.864 PM 03/19/2016,Teleop Enabled,8,FALSE,0,NO ERROR,-0.000000,0.000000,0.000000,0.000000,TRUE,FALSE,FALSE,FALSE,FALSE,FALSE,Disabled,0.000000,0.000000,0.000000,TRUE,-4.750076,-2.087219,0.000000,0.011536,-0.024307,0.000000,-0.017000,-0.037000,-0.026000,0.000000,-0.200000,2.410000,0.139658,Hold,0.939941,0.000000,Hold,-230.000000,2.000000,Suck,-2145.000000,2181.818182,Speed,-2130.000000,2181.818182,Speed,Off,On0.000000,0,,,,
04:16:24.966 PM 03/19/2016,Teleop Enabled,10,FALSE,0,NO ERROR,-0.000000,0.000000,0.000000,0.000000,TRUE,FALSE,FALSE,FALSE,FALSE,FALSE,Disabled,0.000000,0.000000,0.000000,TRUE,-4.749863,-2.089783,0.000000,0.000000,-0.069794,0.000000,-0.102000,-0.018000,0.036000,0.000000,-0.210000,2.400000,0.151170,Hold,0.939941,0.000000,Hold,-230.000000,2.000000,Suck,-2137.500000,2181.818182,Speed,-2130.000000,2181.818182,Speed,Off,On0.000000,0,,,,
04:16:25.066 PM 03/19/2016,Teleop Enabled,8,FALSE,0,NO ERROR,-0.000000,0.000000,0.000000,0.000000,TRUE,FALSE,FALSE,FALSE,FALSE,FALSE,Disabled,0.000000,0.000000,0.000000,TRUE,-4.751862,-2.093323,0.000000,-0.058395,-0.077362,0.000000,-0.049000,-0.050000,0.027000,0.000000,-0.220000,2.430000,0.141888,Hold,0.939941,0.000000,Hold,-230.000000,2.000000,Suck,-2145.000000,2181.818182,Speed,-2130.000000,2181.818182,Speed,Off,On0.000000,0,,,,
04:16:25.168 PM 03/19/2016,Teleop Enabled,12,FALSE,0,NO ERROR,-0.000000,0.000000,0.000000,0.000000,TRUE,FALSE,FALSE,FALSE,FALSE,FALSE,Disabled,0.000000,0.000000,0.000000,TRUE,-4.753540,-2.093475,0.000000,-0.017181,0.034119,0.000000,0.023000,0.023000,0.079000,0.000000,-0.290000,2.430000,0.152726,Hold,0.939941,0.000000,Hold,-230.000000,2.000000,Suck,-2145.000000,2181.818182,Speed,-2122.500000,2181.818182,Speed,Off,On0.000000,0,,,,
04:16:25.269 PM 03/19/2016,Teleop Enabled,12,FALSE,0,NO ERROR,-0.000000,0.000000,0.000000,0.000000,TRUE,FALSE,FALSE,FALSE,FALSE,FALSE,Disabled,0.000000,0.000000,0.000000,TRUE,-4.754166,-2.090805,0.000000,-0.013794,0.056519,0.000000,0.002000,0.018000,0.045000,0.000000,-0.280000,2.400000,0.153187,Hold,0.939941,0.000000,Hold,-230.000000,2.000000,Suck,-2152.500000,2181.818182,Speed,-2130.000000,2181.818182,Speed,Off,On0.000000,0,,,,
04:16:25.371 PM 03/19/2016,Teleop Enabled,11,FALSE,0,NO ERROR,-0.000000,0.000000,0.000000,0.000000,TRUE,FALSE,FALSE,FALSE,FALSE,FALSE,Disabled,0.000000,0.000000,0.000000,TRUE,-4.754135,-2.087723,0.000000,0.008911,0.055130,0.000000,0.076000,-0.090000,-0.054000,0.000000,-0.280000,2.360000,0.162774,Hold,0.939941,0.000000,Hold,-230.000000,2.000000,Suck,-2160.000000,2181.818182,Speed,-2130.000000,2181.818182,Speed,Off,On0.000000,0,,,,
04:16:25.472 PM 03/19/2016,Teleop Enabled,11,FALSE,0,NO ERROR,-0.000000,0.000000,0.000000,0.000000,TRUE,FALSE,FALSE,FALSE,FALSE,FALSE,Disabled,0.000000,0.000000,0.000000,TRUE,-4.753403,-2.086700,0.000000,0.011871,0.001144,0.000000,0.047000,-0.097000,0.016000,0.000000,-0.260000,2.370000,0.167553,Hold,0.939941,0.000000,Hold,-230.000000,2.000000,Suck,-2152.500000,2181.818182,Speed,-2122.500000,2181.818182,Speed,Off,On0.000000,0,,,,
04:16:25.572 PM 03/19/2016,Teleop Enabled,11,FALSE,0,NO ERROR,-0.000000,0.000000,0.000000,0.000000,TRUE,FALSE,FALSE,FALSE,FALSE,FALSE,Disabled,0.000000,0.000000,0.000000,TRUE,-4.752762,-2.088440,0.000000,0.001968,-0.054398,0.000000,-0.054000,-0.022000,-0.098000,0.000000,-0.270000,2.370000,0.178748,Hold,0.939941,0.000000,Hold,-230.000000,2.000000,Suck,-2145.000000,2181.818182,Speed,-2130.000000,2181.818182,Speed,Off,On0.000000,0,,,,
04:16:25.672 PM 03/19/2016,Teleop Enabled,10,FALSE,0,NO ERROR,-0.000000,0.000000,0.000000,0.000000,TRUE,FALSE,FALSE,FALSE,FALSE,FALSE,Disabled,0.000000,0.000000,0.000000,TRUE,-4.753403,-2.092850,0.000000,-0.002441,-0.118546,0.000000,0.068000,-0.025000,-0.002000,0.000000,-0.240000,2.370000,0.183013,Hold,0.939941,0.000000,Hold,-230.000000,2.000000,Suck,-2152.500000,2181.818182,Speed,-2130.000000,2181.818182,Speed,Off,On0.000000,0,,,,
04:16:25.773 PM 03/19/2016,Teleop Enabled,12,FALSE,0,NO ERROR,-0.000000,0.000000,0.000000,0.000000,TRUE,FALSE,FALSE,FALSE,FALSE,FALSE,Disabled,0.000000,0.000000,0.000000,TRUE,-4.752243,-2.100006,0.000000,0.033630,-0.159195,0.000000,0.031000,-0.027000,-0.020000,0.000000,-0.200000,2.370000,0.180418,Hold,0.939941,0.000000,Hold,-230.000000,2.000000,Suck,-2145.000000,2181.818182,Speed,-2130.000000,2181.818182,Speed,Off,On0.000000,0,,,,
04:16:25.874 PM 03/19/2016,Teleop Enabled,11,FALSE,0,NO ERROR,-0.000000,0.000000,0.000000,0.000000,TRUE,FALSE,FALSE,FALSE,FALSE,FALSE,Disabled,0.000000,0.000000,0.000000,TRUE,-4.748978,-2.109924,0.000000,0.061035,-0.147247,0.000000,0.008000,0.004000,-0.062000,0.000000,-0.170000,2.380000,0.184783,Hold,0.939941,0.000000,Hold,-230.000000,2.000000,Suck,-2137.500000,2181.818182,Speed,-2122.500000,2181.818182,Speed,Off,On0.000000,0,,,,
04:16:25.975 PM 03/19/2016,Teleop Enabled,9,FALSE,0,NO ERROR,-0.000000,0.000000,0.000000,0.000000,TRUE,FALSE,FALSE,FALSE,FALSE,FALSE,Disabled,0.000000,0.000000,0.000000,TRUE,-4.745117,-2.117783,0.000000,0.057053,-0.105698,0.000000,-0.021000,0.081000,0.094000,0.000000,-0.160000,2.350000,0.205349,Hold,0.939941,0.000000,Hold,-230.000000,2.000000,Suck,-2145.000000,2181.818182,Speed,-2130.000000,2181.818182,Speed,Off,On0.000000,0,,,,
04:16:26.075 PM 03/19/2016,Teleop Enabled,11,FALSE,0,NO ERROR,-0.000000,0.000000,0.000000,0.000000,TRUE,FALSE,FALSE,FALSE,FALSE,FALSE,Disabled,0.000000,0.000000,0.000000,TRUE,-4.742996,-2.120178,0.000000,0.058914,-0.037903,0.000000,-0.068000,0.121000,0.076000,0.000000,-0.170000,2.380000,0.201465,Hold,0.939941,0.000000,Hold,-230.000000,2.000000,Suck,-2152.500000,2181.818182,Speed,-2122.500000,2181.818182,Speed,Off,On0.000000,0,,,,
04:16:26.175 PM 03/19/2016,Teleop Enabled,12,FALSE,0,NO ERROR,-0.000000,0.000000,0.000000,0.000000,TRUE,FALSE,FALSE,FALSE,FALSE,FALSE,Disabled,0.000000,0.000000,0.000000,TRUE,-4.741013,-2.119080,0.000000,0.035583,0.055817,0.000000,0.011000,0.046000,0.056000,0.000000,-0.160000,2.410000,0.207304,Hold,0.939941,0.000000,Hold,-230.000000,2.000000,Suck,-2152.500000,2181.818182,Speed,-2137.500000,2181.818182,Speed,Off,On0.000000,0,,,,
04:16:26.275 PM 03/19/2016,Teleop Enabled,9,FALSE,0,NO ERROR,-0.000000,0.000000,0.000000,0.000000,TRUE,FALSE,FALSE,FALSE,FALSE,FALSE,Disabled,0.000000,0.000000,0.000000,TRUE,-4.738953,-2.115829,0.000000,0.049347,0.061798,0.000000,-0.064000,-0.030000,0.024000,-0.010000,-0.200000,2.440000,0.217769,Hold,0.939941,0.000000,Hold,-230.000000,2.000000,Suck,-2145.000000,2181.818182,Speed,-2137.500000,2181.818182,Speed,Off,On0.000000,0,,,,
04:16:26.375 PM 03/19/2016,Teleop Enabled,10,FALSE,0,NO ERROR,-0.000000,0.000000,0.000000,0.000000,TRUE,FALSE,FALSE,FALSE,FALSE,FALSE,Disabled,0.000000,0.000000,0.000000,TRUE,-4.737015,-2.113190,0.000000,0.028793,0.044159,0.000000,-0.015000,-0.041000,0.069000,0.000000,-0.230000,2.440000,0.218785,Hold,0.940186,0.000000,Hold,-230.000000,2.000000,Suck,-2137.500000,2181.818182,Speed,-2122.500000,2181.818182,Speed,Off,On0.000000,0,,,,
04:16:26.475 PM 03/19/2016,Teleop Enabled,9,FALSE,0,NO ERROR,-0.000000,0.000000,0.000000,0.000000,TRUE,FALSE,FALSE,FALSE,FALSE,FALSE,Disabled,0.000000,0.000000,0.000000,TRUE,-4.736420,-2.111969,0.000000,0.001541,0.000839,0.000000,0.020000,-0.115000,-0.125000,0.000000,-0.300000,2.490000,0.204915,Hold,0.940186,0.000000,Hold,-230.000000,2.000000,Suck,-2137.500000,2181.818182,Speed,-2130.000000,2181.818182,Speed,Off,On0.000000,0,,,,
04:16:26.575 PM 03/19/2016,Teleop Enabled,9,FALSE,0,NO ERROR,-0.000000,0.000000,0.000000,0.000000,TRUE,FALSE,FALSE,FALSE,FALSE,FALSE,Disabled,0.000000,0.000000,0.000000,TRUE,-4.735550,-2.113800,0.000000,0.035904,-0.079086,0.000000,0.028000,-0.062000,-0.035000,0.000000,-0.280000,2.460000,0.181891,Hold,0.940186,0.000000,Hold,-230.000000,2.000000,Suck,-2130.000000,2181.818182,Speed,-2130.000000,2181.818182,Speed,Off,On0.000000,0,,,,
04:16:26.676 PM 03/19/2016,Teleop Enabled,10,FALSE,0,NO ERROR,-0.000000,0.000000,0.000000,0.000000,TRUE,FALSE,FALSE,FALSE,FALSE,FALSE,Disabled,0.000000,0.000000,0.000000,TRUE,-4.734131,-2.122345,0.000000,0.006027,-0.185852,0.000000,-0.007000,0.009000,-0.026000,0.000000,-0.310000,2.470000,0.187069,Hold,0.940186,0.000000,Hold,-230.000000,2.000000,Suck,-2145.000000,2181.818182,Speed,-2145.000000,2181.818182,Speed,Off,On0.000000,0,,,,
04:16:26.776 PM 03/19/2016,Teleop Enabled,9,FALSE,0,NO ERROR,-0.000000,0.000000,0.000000,0.000000,TRUE,FALSE,FALSE,FALSE,FALSE,FALSE,Disabled,0.000000,0.000000,0.000000,TRUE,-4.734344,-2.132584,0.000000,-0.011047,-0.209747,0.000000,0.009000,-0.015000,0.035000,0.000000,-0.310000,2.480000,0.186225,Hold,0.940186,0.000000,Hold,-230.000000,2.000000,Suck,-2145.000000,2181.818182,Speed,-2145.000000,2181.818182,Speed,Off,On0.000000,0,,,,
04:16:26.876 PM 03/19/2016,Teleop Enabled,9,FALSE,0,NO ERROR,-0.000000,0.000000,0.000000,0.000000,TRUE,FALSE,FALSE,FALSE,FALSE,FALSE,Disabled,0.000000,0.000000,0.000000,TRUE,-4.735535,-2.132050,0.000000,-0.032318,0.032883,0.000000,-0.058000,0.087000,0.081000,0.000000,-0.290000,2.440000,0.209005,Hold,0.940186,0.000000,Hold,-230.000000,2.000000,Suck,-2137.500000,2181.818182,Speed,-2122.500000,2181.818182,Speed,Off,On0.000000,0,,,,
04:16:26.976 PM 03/19/2016,Teleop Enabled,9,FALSE,0,NO ERROR,-0.000000,0.000000,0.000000,0.000000,TRUE,FALSE,FALSE,FALSE,FALSE,FALSE,Disabled,0.000000,0.000000,0.000000,TRUE,-4.737762,-2.128296,0.000000,-0.042068,0.103241,0.000000,0.073000,0.073000,0.108000,0.000000,-0.330000,2.430000,0.214495,Hold,0.940186,0.000000,Hold,-230.000000,2.000000,Suck,-2145.000000,2181.818182,Speed,-2130.000000,2181.818182,Speed,Off,On0.000000,0,,,,
04:16:27.076 PM 03/19/2016,Teleop Enabled,9,FALSE,0,NO ERROR,-0.000000,0.000000,0.000000,0.000000,TRUE,FALSE,FALSE,FALSE,FALSE,FALSE,Disabled,0.000000,0.000000,0.000000,TRUE,-4.739624,-2.120850,0.000000,-0.032394,0.180557,0.000000,0.008000,0.075000,0.048000,-0.010000,-0.310000,2.440000,0.205314,Hold,0.940186,0.000000,Hold,-230.000000,2.000000,Suck,-2145.000000,2181.818182,Speed,-2130.000000,2181.818182,Speed,Off,On0.000000,0,,,,
04:16:27.176 PM 03/19/2016,Teleop Enabled,9,FALSE,0,NO ERROR,-0.000000,0.000000,0.000000,0.000000,TRUE,FALSE,FALSE,FALSE,FALSE,FALSE,Disabled,0.000000,0.000000,0.000000,TRUE,-4.740479,-2.109695,0.000000,0.001740,0.241837,0.000000,0.056000,-0.004000,0.062000,-0.010000,-0.300000,2.440000,0.215229,Hold,0.940186,0.000000,Hold,-230.000000,2.000000,Suck,-2145.000000,2181.818182,Speed,-2130.000000,2181.818182,Speed,Off,On0.000000,0,,,,
04:16:27.276 PM 03/19/2016,Teleop Enabled,9,FALSE,0,NO ERROR,-0.000000,0.000000,0.000000,0.000000,TRUE,FALSE,FALSE,FALSE,FALSE,FALSE,Disabled,0.000000,0.000000,0.000000,TRUE,-4.739487,-2.104797,0.000000,0.024811,-0.007492,0.000000,-0.009000,-0.032000,0.078000,-0.010000,-0.280000,2.450000,0.198673,Hold,0.940186,0.000000,Hold,-230.000000,2.000000,Suck,-2145.000000,2181.818182,Speed,-2130.000000,2181.818182,Speed,Off,On0.000000,0,,,,
04:16:27.376 PM 03/19/2016,Teleop Enabled,8,FALSE,0,NO ERROR,-0.000000,0.000000,0.000000,0.000000,TRUE,FALSE,FALSE,FALSE,FALSE,FALSE,Disabled,0.000000,0.000000,0.000000,TRUE,-4.740204,-2.105255,0.000000,-0.037598,-0.016647,0.000000,0.031000,-0.034000,0.002000,0.000000,-0.320000,2.480000,0.214110,Hold,0.940186,0.000000,Hold,-230.000000,2.000000,Suck,-2145.000000,2181.818182,Speed,-2130.000000,2181.818182,Speed,Off,On0.000000,0,,,,
04:16:27.476 PM 03/19/2016,Teleop Enabled,9,FALSE,0,NO ERROR,-0.000000,0.000000,0.000000,0.000000,TRUE,FALSE,FALSE,FALSE,FALSE,FALSE,Disabled,0.000000,0.000000,0.000000,TRUE,-4.741211,-2.106903,0.000000,-0.000366,-0.047607,0.000000,0.083000,-0.065000,-0.020000,0.000000,-0.320000,2.490000,0.214451,Hold,0.940186,0.000000,Hold,-230.000000,2.000000,Suck,-2152.500000,2181.818182,Speed,-2130.000000,2181.818182,Speed,Off,On0.000000,0,,,,
04:16:27.578 PM 03/19/2016,Teleop Enabled,10,FALSE,0,NO ERROR,-0.000000,0.000000,0.000000,0.000000,TRUE,FALSE,FALSE,FALSE,FALSE,FALSE,Disabled,0.000000,0.000000,0.000000,TRUE,-4.740814,-2.111038,0.000000,-0.001190,-0.103790,0.000000,-0.006000,-0.007000,0.146000,0.000000,-0.410000,2.480000,0.214726,Hold,0.940186,0.000000,Hold,-230.000000,2.000000,Suck,-2145.000000,2181.818182,Speed,-2130.000000,2181.818182,Speed,Off,On0.000000,0,,,,
04:16:27.678 PM 03/19/2016,Teleop Enabled,9,FALSE,0,NO ERROR,-0.000000,0.000000,0.000000,0.000000,TRUE,FALSE,FALSE,FALSE,FALSE,FALSE,Disabled,0.000000,0.000000,0.000000,TRUE,-4.741318,-2.118027,0.000000,-0.023560,-0.120895,0.000000,0.004000,0.039000,0.012000,0.000000,-0.400000,2.470000,0.214172,Hold,0.940186,0.000000,Hold,-230.000000,2.000000,Suck,-2145.000000,2181.818182,Speed,-2130.000000,2181.818182,Speed,Off,On0.000000,0,,,,
04:16:27.778 PM 03/19/2016,Teleop Enabled,8,FALSE,0,NO ERROR,-0.000000,0.000000,0.000000,0.000000,TRUE,FALSE,FALSE,FALSE,FALSE,FALSE,Disabled,0.000000,0.000000,0.000000,TRUE,-4.742645,-2.122391,0.000000,-0.042450,-0.099945,0.000000,0.024000,0.055000,0.077000,0.000000,-0.380000,2.480000,0.196666,Hold,0.940186,0.000000,Hold,-230.000000,2.000000,Suck,-2152.500000,2181.818182,Speed,-2130.000000,2181.818182,Speed,Off,On0.000000,0,,,,
04:16:27.878 PM 03/19/2016,Teleop Enabled,10,FALSE,0,NO ERROR,-0.000000,0.000000,0.000000,0.000000,TRUE,FALSE,FALSE,FALSE,FALSE,FALSE,Disabled,0.000000,0.000000,0.000000,TRUE,-4.745468,-2.126602,0.000000,-0.056717,-0.056763,0.000000,0.033000,0.070000,0.138000,0.000000,-0.370000,2.470000,0.188370,Hold,0.940186,0.000000,Hold,-230.000000,2.000000,Suck,-2152.500000,2181.818182,Speed,-2137.500000,2181.818182,Speed,Off,On0.000000,0,,,,
04:16:27.978 PM 03/19/2016,Teleop Enabled,10,FALSE,0,NO ERROR,-0.000000,0.000000,0.000000,0.000000,TRUE,FALSE,FALSE,FALSE,FALSE,FALSE,Disabled,0.000000,0.000000,0.000000,TRUE,-4.747787,-2.128510,0.000000,-0.039566,-0.027145,0.000000,0.000000,0.022000,-0.014000,0.000000,-0.360000,2.470000,0.188015,Hold,0.940186,0.000000,Hold,-230.000000,2.000000,Suck,-2160.000000,2181.818182,Speed,-2122.500000,2181.818182,Speed,Off,On0.000000,0,,,,
04:16:28.078 PM 03/19/2016,Teleop Enabled,9,FALSE,0,NO ERROR,-0.000000,0.000000,0.000000,0.000000,TRUE,FALSE,FALSE,FALSE,FALSE,FALSE,Disabled,0.000000,0.000000,0.000000,TRUE,-4.747833,-2.130905,0.000000,0.002457,-0.060013,0.000000,-0.018000,-0.070000,-0.127000,0.000000,-0.350000,2.500000,0.178084,Hold,0.940186,0.000000,Hold,-230.000000,2.000000,Suck,-2152.500000,2181.818182,Speed,-2130.000000,2181.818182,Speed,Off,On0.000000,0,,,,
04:16:28.178 PM 03/19/2016,Teleop Enabled,9,FALSE,0,NO ERROR,-0.000000,0.000000,0.000000,0.000000,TRUE,FALSE,FALSE,FALSE,FALSE,FALSE,Disabled,0.000000,0.000000,0.000000,TRUE,-4.747726,-2.135208,0.000000,-0.001892,-0.102753,0.000000,-0.037000,-0.040000,0.016000,-0.010000,-0.290000,2.480000,0.185234,Hold,0.940186,0.000000,Hold,-230.000000,2.000000,Suck,-2145.000000,2181.818182,Speed,-2137.500000,2181.818182,Speed,Off,On0.000000,0,,,,
04:16:28.278 PM 03/19/2016,Teleop Enabled,9,FALSE,0,NO ERROR,-0.000000,0.000000,0.000000,0.000000,TRUE,FALSE,FALSE,FALSE,FALSE,FALSE,Disabled,0.000000,0.000000,0.000000,TRUE,-4.748917,-2.139313,0.000000,-0.044434,-0.099884,0.000000,-0.004000,-0.015000,-0.001000,0.000000,-0.340000,2.500000,0.198636,Hold,0.940186,0.000000,Hold,-230.000000,2.000000,Suck,-2145.000000,2181.818182,Speed,-2122.500000,2181.818182,Speed,Off,On0.000000,0,,,,
04:16:28.378 PM 03/19/2016,Teleop Enabled,8,FALSE,0,NO ERROR,-0.000000,0.000000,0.000000,0.000000,TRUE,FALSE,FALSE,FALSE,FALSE,FALSE,Disabled,0.000000,0.000000,0.000000,TRUE,-4.750275,-2.147156,0.000000,-0.001312,-0.150208,0.000000,0.016000,0.057000,0.074000,0.000000,-0.320000,2.500000,0.190873,Hold,0.940186,0.000000,Hold,-230.000000,2.000000,Suck,-2145.000000,2181.818182,Speed,-2122.500000,2181.818182,Speed,Off,On0.000000,0,,,,
04:16:28.478 PM 03/19/2016,Teleop Enabled,10,FALSE,0,NO ERROR,-0.000000,0.000000,0.000000,0.000000,TRUE,FALSE,FALSE,FALSE,FALSE,FALSE,Disabled,0.000000,0.000000,0.000000,TRUE,-4.750122,-2.154297,0.000000,-0.002686,-0.134872,0.000000,-0.084000,-0.019000,-0.043000,0.000000,-0.380000,2.480000,0.196498,Hold,0.940186,0.000000,Hold,-230.000000,2.000000,Suck,-2145.000000,2181.818182,Speed,-2137.500000,2181.818182,Speed,Off,On0.000000,0,,,,
04:16:28.578 PM 03/19/2016,Teleop Enabled,10,FALSE,0,NO ERROR,-0.000000,0.000000,0.000000,0.000000,TRUE,FALSE,FALSE,FALSE,FALSE,FALSE,Disabled,0.000000,0.000000,0.000000,TRUE,-4.750992,-2.160461,0.000000,-0.013702,-0.125778,0.000000,-0.031000,0.123000,0.068000,0.000000,-0.350000,2.450000,0.209511,Hold,0.940186,0.000000,Hold,-230.000000,2.000000,Suck,-2145.000000,2181.818182,Speed,-2130.000000,2181.818182,Speed,Off,On0.000000,0,,,,
04:16:28.678 PM 03/19/2016,Teleop Enabled,8,FALSE,0,NO ERROR,-0.000000,0.000000,0.000000,0.000000,TRUE,FALSE,FALSE,FALSE,FALSE,FALSE,Disabled,0.000000,0.000000,0.000000,TRUE,-4.751617,-2.164307,0.000000,-0.004013,-0.041000,0.000000,0.000000,-0.003000,0.124000,0.000000,-0.390000,2.410000,0.208233,Hold,0.940186,0.000000,Hold,-230.000000,2.000000,Suck,-2145.000000,2181.818182,Speed,-2137.500000,2181.818182,Speed,Off,On0.000000,0,,,,
04:16:28.778 PM 03/19/2016,Teleop Enabled,10,FALSE,0,NO ERROR,-0.000000,0.000000,0.000000,0.000000,TRUE,FALSE,FALSE,FALSE,FALSE,FALSE,Disabled,0.000000,0.000000,0.000000,TRUE,-4.752213,-2.164719,0.000000,-0.009644,0.005371,0.000000,-0.024000,0.100000,-0.002000,0.000000,-0.410000,2.430000,0.207593,Hold,0.940186,0.000000,Hold,-230.000000,2.000000,Suck,-2145.000000,2181.818182,Speed,-2137.500000,2181.818182,Speed,Off,On0.000000,0,,,,
04:16:28.878 PM 03/19/2016,Teleop Enabled,9,FALSE,0,NO ERROR,-0.000000,0.000000,0.000000,0.000000,TRUE,FALSE,FALSE,FALSE,FALSE,FALSE,Disabled,0.000000,0.000000,0.000000,TRUE,-4.753082,-2.162918,0.000000,-0.026764,0.055481,0.000000,-0.039000,-0.017000,0.002000,0.000000,-0.350000,2.410000,0.197142,Hold,0.940186,0.000000,Hold,-230.000000,2.000000,Suck,-2145.000000,2181.818182,Speed,-2130.000000,2181.818182,Speed,Off,On0.000000,0,,,,
04:16:28.978 PM 03/19/2016,Teleop Enabled,10,FALSE,0,NO ERROR,-0.000000,0.000000,0.000000,0.000000,TRUE,FALSE,FALSE,FALSE,FALSE,FALSE,Disabled,0.000000,0.000000,0.000000,TRUE,-4.754745,-2.159973,0.000000,-0.034088,0.054947,0.000000,0.012000,-0.025000,0.008000,0.000000,-0.360000,2.450000,0.201710,Hold,0.940186,0.000000,Hold,-230.000000,2.000000,Suck,-2152.500000,2181.818182,Speed,-2122.500000,2181.818182,Speed,Off,On0.000000,0,,,,
04:16:29.078 PM 03/19/2016,Teleop Enabled,10,FALSE,0,NO ERROR,-0.000000,0.000000,0.000000,0.000000,TRUE,FALSE,FALSE,FALSE,FALSE,FALSE,Disabled,0.000000,0.000000,0.000000,TRUE,-4.756073,-2.158279,0.000000,-0.026688,0.022278,0.000000,-0.020000,-0.065000,-0.030000,0.000000,-0.350000,2.500000,0.198852,Hold,0.940186,0.000000,Hold,-230.000000,2.000000,Suck,-2145.000000,2181.818182,Speed,-2122.500000,2181.818182,Speed,Off,On0.000000,0,,,,
04:16:29.179 PM 03/19/2016,Teleop Enabled,7,FALSE,0,NO ERROR,-0.000000,0.000000,0.000000,0.000000,TRUE,FALSE,FALSE,FALSE,FALSE,FALSE,Disabled,0.000000,0.000000,0.000000,TRUE,-4.757797,-2.157959,0.000000,-0.032349,-0.020111,0.000000,0.113000,-0.063000,0.024000,0.000000,-0.370000,2.500000,0.192411,Hold,0.940186,0.000000,Hold,-230.000000,2.000000,Suck,-2137.500000,2181.818182,Speed,-2137.500000,2181.818182,Speed,Off,On0.000000,0,,,,
04:16:29.279 PM 03/19/2016,Teleop Enabled,9,FALSE,0,NO ERROR,-0.000000,0.000000,0.000000,0.000000,TRUE,FALSE,FALSE,FALSE,FALSE,FALSE,Disabled,0.000000,0.000000,0.000000,TRUE,-4.757675,-2.160461,0.000000,0.016388,-0.066055,0.000000,-0.026000,-0.080000,0.011000,0.000000,-0.340000,2.500000,0.172792,Hold,0.940186,0.000000,Hold,-230.000000,2.000000,Suck,-2145.000000,2181.818182,Speed,-2130.000000,2181.818182,Speed,Off,On0.000000,0,,,,
04:16:29.379 PM 03/19/2016,Teleop Enabled,9,FALSE,0,NO ERROR,-0.000000,0.000000,0.000000,0.000000,TRUE,FALSE,FALSE,FALSE,FALSE,FALSE,Disabled,0.000000,0.000000,0.000000,TRUE,-4.756897,-2.165222,0.000000,0.010773,-0.109039,0.000000,-0.075000,-0.005000,-0.072000,0.000000,-0.360000,2.530000,0.168186,Hold,0.940186,0.000000,Hold,-230.000000,2.000000,Suck,-2152.500000,2181.818182,Speed,-2122.500000,2181.818182,Speed,Off,On0.000000,0,,,,
04:16:29.479 PM 03/19/2016,Teleop Enabled,10,FALSE,0,NO ERROR,-0.000000,0.000000,0.000000,0.000000,TRUE,FALSE,FALSE,FALSE,FALSE,FALSE,Disabled,0.000000,0.000000,0.000000,TRUE,-4.757629,-2.170532,0.000000,-0.027405,-0.107803,0.000000,0.014000,-0.020000,0.016000,0.000000,-0.340000,2.500000,0.181788,Hold,0.940186,0.000000,Hold,-230.000000,2.000000,Suck,-2145.000000,2181.818182,Speed,-2137.500000,2181.818182,Speed,Off,On0.000000,0,,,,
04:16:29.581 PM 03/19/2016,Teleop Enabled,9,FALSE,0,NO ERROR,-0.000000,0.000000,0.000000,0.000000,TRUE,FALSE,FALSE,FALSE,FALSE,FALSE,Disabled,0.000000,0.000000,0.000000,TRUE,-4.758789,-2.175339,0.000000,0.000000,-0.080276,0.000000,-0.025000,0.052000,0.096000,0.000000,-0.360000,2.470000,0.181595,Hold,0.940186,0.000000,Hold,-230.000000,2.000000,Suck,-2145.000000,2181.818182,Speed,-2130.000000,2181.818182,Speed,Off,On0.000000,0,,,,
04:16:29.681 PM 03/19/2016,Teleop Enabled,10,FALSE,0,NO ERROR,-0.000000,0.000000,0.000000,0.000000,TRUE,FALSE,FALSE,FALSE,FALSE,FALSE,Disabled,0.000000,0.000000,0.000000,TRUE,-4.759079,-2.177612,0.000000,-0.002716,-0.017380,0.000000,0.035000,0.081000,0.045000,0.000000,-0.330000,2.440000,0.188659,Hold,0.940186,0.000000,Hold,-230.000000,2.000000,Suck,-2152.500000,2181.818182,Speed,-2130.000000,2181.818182,Speed,Off,On0.000000,0,,,,
04:16:29.782 PM 03/19/2016,Teleop Enabled,13,FALSE,0,NO ERROR,-0.000000,0.000000,0.000000,0.000000,TRUE,FALSE,FALSE,FALSE,FALSE,FALSE,Disabled,0.000000,0.000000,0.000000,TRUE,-4.759537,-2.175552,0.000000,-0.002563,0.069046,0.000000,0.005000,0.009000,-0.018000,0.000000,-0.330000,2.440000,0.184955,Hold,0.940186,0.000000,Hold,-230.000000,2.000000,Suck,-2145.000000,2181.818182,Speed,-2137.500000,2181.818182,Speed,Off,On0.000000,0,,,,
04:16:29.883 PM 03/19/2016,Teleop Enabled,10,FALSE,0,NO ERROR,-0.000000,0.000000,0.000000,0.000000,TRUE,FALSE,FALSE,FALSE,FALSE,FALSE,Disabled,0.000000,0.000000,0.000000,TRUE,-4.758438,-2.174789,0.000000,0.022552,-0.004959,0.000000,0.043000,-0.022000,0.024000,0.000000,-0.350000,2.450000,0.180356,Hold,0.940186,0.000000,Hold,-230.000000,2.000000,Suck,-2137.500000,2181.818182,Speed,-2130.000000,2181.818182,Speed,Off,On0.000000,0,,,,
04:16:29.984 PM 03/19/2016,Teleop Enabled,9,FALSE,0,NO ERROR,-0.000000,0.000000,0.000000,0.000000,TRUE,FALSE,FALSE,FALSE,FALSE,FALSE,Disabled,0.000000,0.000000,0.000000,TRUE,-4.756378,-2.176056,0.000000,0.040131,-0.030945,0.000000,-0.006000,0.005000,0.040000,0.000000,-0.330000,2.460000,0.192608,Hold,0.940186,0.000000,Hold,-230.000000,2.000000,Suck,-2152.500000,2181.818182,Speed,-2130.000000,2181.818182,Speed,Off,On0.000000,0,,,,
04:16:30.087 PM 03/19/2016,Teleop Enabled,11,FALSE,0,NO ERROR,-0.000000,0.000000,0.000000,0.000000,TRUE,FALSE,FALSE,FALSE,FALSE,FALSE,Disabled,0.000000,0.000000,0.000000,TRUE,-4.755569,-2.177933,0.000000,0.009201,-0.059143,0.000000,0.048000,-0.026000,0.109000,0.000000,-0.330000,2.460000,0.201441,Hold,0.940186,0.000000,Hold,-230.000000,2.000000,Suck,-2152.500000,2181.818182,Speed,-2130.000000,2181.818182,Speed,Off,On0.000000,0,,,,
04:16:30.193 PM 03/19/2016,Teleop Enabled,10,FALSE,0,NO ERROR,-0.000000,0.000000,0.000000,0.000000,TRUE,FALSE,FALSE,FALSE,FALSE,FALSE,Disabled,0.000000,0.000000,0.000000,TRUE,-4.753326,-2.183701,0.000000,0.044525,-0.116074,0.000000,0.048000,-0.026000,0.109000,0.000000,-0.310000,2.510000,0.195393,Hold,0.940186,0.000000,Hold,-230.000000,2.000000,Suck,-2145.000000,2181.818182,Speed,-2130.000000,2181.818182,Speed,Off,On0.000000,0,,,,
04:16:30.295 PM 03/19/2016,Teleop Enabled,9,FALSE,0,NO ERROR,-0.000000,0.000000,0.000000,0.000000,TRUE,FALSE,FALSE,FALSE,FALSE,FALSE,Disabled,0.000000,0.000000,0.000000,TRUE,-4.753662,-2.191025,0.000000,-0.018646,-0.157913,0.000000,-0.003000,-0.073000,0.098000,-0.010000,-0.350000,2.520000,0.199971,Hold,0.940186,0.000000,Hold,-230.000000,2.000000,Suck,-2152.500000,2181.818182,Speed,-2137.500000,2181.818182,Speed,Off,On0.000000,0,,,,
04:16:30.395 PM 03/19/2016,Teleop Enabled,9,FALSE,0,NO ERROR,-0.000000,0.000000,0.000000,0.000000,TRUE,FALSE,FALSE,FALSE,FALSE,FALSE,Disabled,0.000000,0.000000,0.000000,TRUE,-4.756561,-2.195572,0.000000,-0.080063,-0.004593,0.000000,-0.026000,-0.004000,0.040000,-0.010000,-0.400000,2.540000,0.218771,Hold,0.940186,0.000000,Hold,-230.000000,2.000000,Suck,-2152.500000,2181.818182,Speed,-2137.500000,2181.818182,Speed,Off,On0.000000,0,,,,
04:16:30.497 PM 03/19/2016,Teleop Enabled,11,FALSE,0,NO ERROR,-0.000000,0.000000,0.000000,0.000000,TRUE,FALSE,FALSE,FALSE,FALSE,FALSE,Disabled,0.000000,0.000000,0.000000,TRUE,-4.760437,-2.195633,0.000000,-0.080627,0.012375,0.000000,-0.040000,0.066000,0.077000,-0.010000,-0.380000,2.470000,0.224761,Hold,0.940186,0.000000,Hold,-230.000000,2.000000,Suck,-2152.500000,2181.818182,Speed,-2130.000000,2181.818182,Speed,Off,On0.000000,0,,,,
04:16:30.597 PM 03/19/2016,Teleop Enabled,8,FALSE,0,NO ERROR,-0.000000,0.000000,0.000000,0.000000,TRUE,FALSE,FALSE,FALSE,FALSE,FALSE,Disabled,0.000000,0.000000,0.000000,TRUE,-4.764648,-2.193390,0.000000,-0.081604,0.065552,0.000000,-0.040000,0.066000,0.077000,0.000000,-0.340000,2.490000,0.209063,Hold,0.940186,0.000000,Hold,-230.000000,2.000000,Suck,-2152.500000,2181.818182,Speed,-2130.000000,2181.818182,Speed,Off,On0.000000,0,,,,
04:16:30.697 PM 03/19/2016,Teleop Enabled,7,FALSE,0,NO ERROR,-0.000000,0.000000,0.000000,0.000000,TRUE,FALSE,FALSE,FALSE,FALSE,FALSE,Disabled,0.000000,0.000000,0.000000,TRUE,-4.768387,-2.189880,0.000000,-0.080093,0.064377,0.000000,0.013000,-0.030000,-0.001000,-0.010000,-0.310000,2.450000,0.214251,Hold,0.940186,0.000000,Hold,-230.000000,2.000000,Suck,-2145.000000,2181.818182,Speed,-2137.500000,2181.818182,Speed,Off,On0.000000,0,,,,
04:16:30.799 PM 03/19/2016,Teleop Enabled,10,FALSE,0,NO ERROR,-0.000000,0.000000,0.000000,0.000000,TRUE,FALSE,FALSE,FALSE,FALSE,FALSE,Disabled,0.000000,0.000000,0.000000,TRUE,-4.772537,-2.188263,0.000000,-0.078842,0.003799,0.000000,-0.024000,-0.004000,0.026000,-0.010000,-0.350000,2.450000,0.227753,Hold,0.940186,0.000000,Hold,-230.000000,2.000000,Suck,-2152.500000,2181.818182,Speed,-2137.500000,2181.818182,Speed,Off,On0.000000,0,,,,
04:16:30.900 PM 03/19/2016,Teleop Enabled,10,FALSE,0,NO ERROR,-0.000000,0.000000,0.000000,0.000000,TRUE,FALSE,FALSE,FALSE,FALSE,FALSE,Disabled,0.000000,0.000000,0.000000,TRUE,-4.777069,-2.188400,0.000000,-0.088120,-0.013229,0.000000,0.045000,-0.038000,0.064000,-0.020000,-0.260000,2.450000,0.245268,Hold,0.940186,0.000000,Hold,-230.000000,2.000000,Suck,-2152.500000,2181.818182,Speed,-2137.500000,2181.818182,Speed,Off,On0.000000,0,,,,
04:16:31.001 PM 03/19/2016,Teleop Enabled,11,FALSE,0,NO ERROR,-0.000000,0.000000,0.000000,0.000000,TRUE,FALSE,FALSE,FALSE,FALSE,FALSE,Disabled,0.000000,0.000000,0.000000,TRUE,-4.782883,-2.190979,0.000000,-0.119980,-0.061096,0.000000,0.045000,-0.038000,0.064000,-0.020000,-0.230000,2.390000,0.247716,Hold,0.940186,0.000000,Hold,-230.000000,2.000000,Suck,-2152.500000,2181.818182,Speed,-2130.000000,2181.818182,Speed,Off,On0.000000,0,,,,
04:16:31.101 PM 03/19/2016,Teleop Enabled,8,FALSE,0,NO ERROR,-0.000000,0.000000,0.000000,0.000000,TRUE,FALSE,FALSE,FALSE,FALSE,FALSE,Disabled,0.000000,0.000000,0.000000,TRUE,-4.787994,-2.193344,0.000000,-0.087479,-0.005371,0.000000,0.010000,-0.038000,0.006000,-0.020000,-0.230000,2.420000,0.247778,Hold,0.940186,0.000000,Hold,-230.000000,2.000000,Suck,-2152.500000,2181.818182,Speed,-2130.000000,2181.818182,Speed,Off,On0.000000,0,,,,
04:16:31.201 PM 03/19/2016,Teleop Enabled,10,FALSE,0,NO ERROR,-0.000000,0.000000,0.000000,0.000000,TRUE,FALSE,FALSE,FALSE,FALSE,FALSE,Disabled,0.000000,0.000000,0.000000,TRUE,-4.790634,-2.194473,0.000000,-0.052063,-0.037338,0.000000,0.028000,-0.059000,-0.076000,-0.020000,-0.260000,2.450000,0.243761,Hold,0.940186,0.000000,Hold,-230.000000,2.000000,Suck,-2145.000000,2181.818182,Speed,-2137.500000,2181.818182,Speed,Off,On0.000000,0,,,,
04:16:31.303 PM 03/19/2016,Teleop Enabled,8,FALSE,0,NO ERROR,-0.000000,0.000000,0.000000,0.000000,TRUE,FALSE,FALSE,FALSE,FALSE,FALSE,Disabled,0.000000,0.000000,0.000000,TRUE,-4.791840,-2.195496,0.000000,-0.013412,-0.003586,0.000000,0.009000,0.011000,0.025000,-0.020000,-0.290000,2.450000,0.251262,Hold,0.940186,0.000000,Hold,-230.000000,2.000000,Suck,-2152.500000,2181.818182,Speed,-2130.000000,2181.818182,Speed,Off,On0.000000,0,,,,
04:16:31.407 PM 03/19/2016,Teleop Enabled,10,FALSE,0,NO ERROR,-0.000000,0.000000,0.000000,0.000000,TRUE,FALSE,FALSE,FALSE,FALSE,FALSE,Disabled,0.000000,0.000000,0.000000,TRUE,-4.792709,-2.194702,0.000000,0.000000,0.031631,0.000000,0.020000,0.022000,0.028000,-0.020000,-0.210000,2.460000,0.236115,Hold,0.940186,0.000000,Hold,-230.000000,2.000000,Suck,-2160.000000,2181.818182,Speed,-2137.500000,2181.818182,Speed,Off,On0.000000,0,,,,
04:16:31.508 PM 03/19/2016,Teleop Enabled,9,FALSE,0,NO ERROR,-0.000000,0.000000,0.000000,0.000000,TRUE,FALSE,FALSE,FALSE,FALSE,FALSE,Disabled,0.000000,0.000000,0.000000,TRUE,-4.792526,-2.190018,0.000000,0.005066,0.112289,0.000000,0.020000,0.022000,0.028000,-0.020000,-0.210000,2.430000,0.250098,Hold,0.940186,0.000000,Hold,-230.000000,2.000000,Suck,-2152.500000,2181.818182,Speed,-2145.000000,2181.818182,Speed,Off,On0.000000,0,,,,
04:16:31.608 PM 03/19/2016,Teleop Enabled,10,FALSE,0,NO ERROR,-0.000000,0.000000,0.000000,0.000000,TRUE,FALSE,FALSE,FALSE,FALSE,FALSE,Disabled,0.000000,0.000000,0.000000,TRUE,-4.792786,-2.183945,0.000000,-0.005127,0.176880,0.000000,0.027000,0.054000,0.073000,-0.020000,-0.140000,2.420000,0.257941,Hold,0.940186,0.000000,Hold,-230.000000,2.000000,Suck,-2152.500000,2181.818182,Speed,-2122.500000,2181.818182,Speed,Off,On0.000000,0,,,,
04:16:31.711 PM 03/19/2016,Teleop Enabled,12,FALSE,0,NO ERROR,-0.000000,0.000000,0.000000,0.000000,TRUE,FALSE,FALSE,FALSE,FALSE,FALSE,Disabled,0.000000,0.000000,0.000000,TRUE,-4.793106,-2.175690,0.000000,-0.007904,-0.004288,0.000000,-0.035000,-0.031000,-0.044000,-0.010000,-0.140000,2.420000,0.256595,Hold,0.940186,0.000000,Hold,-230.000000,2.000000,Suck,-2160.000000,2181.818182,Speed,-2137.500000,2181.818182,Speed,Off,On0.000000,0,,,,
04:16:31.813 PM 03/19/2016,Teleop Enabled,10,FALSE,0,NO ERROR,-0.000000,0.000000,0.000000,0.000000,TRUE,FALSE,FALSE,FALSE,FALSE,FALSE,Disabled,0.000000,0.000000,0.000000,TRUE,-4.793396,-2.176712,0.000000,-0.006546,-0.032410,0.000000,0.057000,-0.020000,0.086000,-0.020000,-0.140000,2.410000,0.257211,Hold,0.940186,0.000000,Hold,-230.000000,2.000000,Suck,-2160.000000,2181.818182,Speed,-2137.500000,2181.818182,Speed,Off,On0.000000,0,,,,
04:16:31.915 PM 03/19/2016,Teleop Enabled,10,FALSE,0,NO ERROR,-0.000000,0.000000,0.000000,0.000000,TRUE,FALSE,FALSE,FALSE,FALSE,FALSE,Disabled,0.000000,0.000000,0.000000,TRUE,-4.793045,-2.179108,0.000000,0.007904,-0.065216,0.000000,0.057000,-0.020000,0.086000,-0.020000,-0.160000,2.410000,0.250088,Hold,0.940186,0.000000,Hold,-230.000000,2.000000,Suck,-2145.000000,2181.818182,Speed,-2130.000000,2181.818182,Speed,Off,On0.000000,0,,,,
04:16:32.015 PM 03/19/2016,Teleop Enabled,10,FALSE,0,NO ERROR,-0.000000,0.000000,0.000000,0.000000,TRUE,FALSE,FALSE,FALSE,FALSE,FALSE,Disabled,0.000000,0.000000,0.000000,TRUE,-4.793976,-2.179886,0.000000,-0.025681,-0.006134,0.000000,0.060000,-0.044000,0.083000,-0.020000,-0.200000,2.460000,0.242766,Hold,0.940186,0.000000,Hold,-230.000000,2.000000,Suck,-2160.000000,2181.818182,Speed,-2130.000000,2181.818182,Speed,Off,On0.000000,0,,,,
04:16:32.115 PM 03/19/2016,Teleop Enabled,12,FALSE,0,NO ERROR,-0.000000,0.000000,0.000000,0.000000,TRUE,FALSE,FALSE,FALSE,FALSE,FALSE,Disabled,0.000000,0.000000,0.000000,TRUE,-4.794357,-2.182022,0.000000,0.004364,-0.067047,0.000000,0.060000,-0.044000,0.083000,-0.020000,-0.150000,2.470000,0.244060,Hold,0.940186,0.000000,Hold,-230.000000,2.000000,Suck,-2160.000000,2181.818182,Speed,-2137.500000,2181.818182,Speed,Off,On0.000000,0,,,,
04:16:32.215 PM 03/19/2016,Teleop Enabled,9,FALSE,0,NO ERROR,-0.000000,0.000000,0.000000,0.000000,TRUE,FALSE,FALSE,FALSE,FALSE,FALSE,Disabled,0.000000,0.000000,0.000000,TRUE,-4.793274,-2.187363,0.000000,0.032776,-0.142715,0.000000,0.021000,-0.118000,-0.048000,-0.020000,-0.150000,2.450000,0.262870,Hold,0.940186,0.000000,Hold,-230.000000,2.000000,Suck,-2160.000000,2181.818182,Speed,-2137.500000,2181.818182,Speed,Off,On0.000000,0,,,,
04:16:32.315 PM 03/19/2016,Teleop Enabled,7,FALSE,0,NO ERROR,-0.000000,0.000000,0.000000,0.000000,TRUE,FALSE,FALSE,FALSE,FALSE,FALSE,Disabled,0.000000,0.000000,0.000000,TRUE,-4.791306,-2.197433,0.000000,0.032852,-0.227142,0.000000,-0.048000,-0.044000,-0.049000,-0.020000,-0.170000,2.430000,0.264688,Hold,0.940186,0.000000,Hold,-230.000000,2.000000,Suck,-2152.500000,2181.818182,Speed,-2137.500000,2181.818182,Speed,Off,On0.000000,0,,,,
04:16:32.415 PM 03/19/2016,Teleop Enabled,10,FALSE,0,NO ERROR,-0.000000,0.000000,0.000000,0.000000,TRUE,FALSE,FALSE,FALSE,FALSE,FALSE,Disabled,0.000000,0.000000,0.000000,TRUE,-4.790115,-2.209183,0.000000,0.021423,-0.236160,0.000000,-0.058000,0.040000,-0.005000,-0.020000,-0.150000,2.440000,0.263635,Hold,0.940186,0.000000,Hold,-230.000000,2.000000,Suck,-2137.500000,2181.818182,Speed,-2145.000000,2181.818182,Speed,Off,On0.000000,0,,,,
04:16:32.515 PM 03/19/2016,Teleop Enabled,12,FALSE,0,NO ERROR,-0.000000,0.000000,0.000000,0.000000,TRUE,FALSE,FALSE,FALSE,FALSE,FALSE,Disabled,0.000000,0.000000,0.000000,TRUE,-4.789505,-2.220337,0.000000,-0.000290,-0.205368,0.000000,-0.055000,0.054000,0.009000,-0.020000,-0.190000,2.400000,0.244594,Hold,0.940186,0.000000,Hold,-230.000000,2.000000,Suck,-2137.500000,2181.818182,Speed,-2130.000000,2181.818182,Speed,Off,On0.000000,0,,,,
04:16:32.615 PM 03/19/2016,Teleop Enabled,12,FALSE,0,NO ERROR,-0.000000,0.000000,0.000000,0.000000,TRUE,FALSE,FALSE,FALSE,FALSE,FALSE,Disabled,0.000000,0.000000,0.000000,TRUE,-4.790802,-2.228958,0.000000,-0.026810,-0.148621,0.000000,0.003000,0.071000,0.153000,-0.020000,-0.240000,2.400000,0.270151,Hold,0.940186,0.000000,Hold,-230.000000,2.000000,Suck,-2145.000000,2181.818182,Speed,-2130.000000,2181.818182,Speed,Off,On0.000000,0,,,,
04:16:32.716 PM 03/19/2016,Teleop Enabled,10,FALSE,0,NO ERROR,-0.000000,0.000000,0.000000,0.000000,TRUE,FALSE,FALSE,FALSE,FALSE,FALSE,Disabled,0.000000,0.000000,0.000000,TRUE,-4.791016,-2.234619,0.000000,-0.003326,-0.092239,0.000000,0.026000,0.071000,0.050000,-0.020000,-0.230000,2.390000,0.275308,Hold,0.940186,0.000000,Hold,-230.000000,2.000000,Suck,-2145.000000,2181.818182,Speed,-2137.500000,2181.818182,Speed,Off,On0.000000,0,,,,
04:16:32.816 PM 03/19/2016,Teleop Enabled,10,FALSE,0,NO ERROR,-0.000000,0.000000,0.000000,0.000000,TRUE,FALSE,FALSE,FALSE,FALSE,FALSE,Disabled,0.000000,0.000000,0.000000,TRUE,-4.790131,-2.237076,0.000000,0.040253,-0.025070,0.000000,0.000000,-0.006000,-0.010000,-0.020000,-0.210000,2.420000,0.279233,Hold,0.940186,0.000000,Hold,-230.000000,2.000000,Suck,-2152.500000,2181.818182,Speed,-2137.500000,2181.818182,Speed,Off,On0.000000,0,,,,
04:16:32.916 PM 03/19/2016,Teleop Enabled,9,FALSE,0,NO ERROR,-0.000000,0.000000,0.000000,0.000000,TRUE,FALSE,FALSE,FALSE,FALSE,FALSE,Disabled,0.000000,0.000000,0.000000,TRUE,-4.786911,-2.237885,0.000000,0.077164,-0.017593,0.000000,-0.024000,-0.012000,0.057000,-0.020000,-0.170000,2.380000,0.276007,Hold,0.940186,0.000000,Hold,-230.000000,2.000000,Suck,-2152.500000,2181.818182,Speed,-2130.000000,2181.818182,Speed,Off,On0.000000,0,,,,
04:16:33.019 PM 03/19/2016,Teleop Enabled,10,FALSE,0,NO ERROR,-0.000000,0.000000,0.000000,0.000000,TRUE,FALSE,FALSE,FALSE,FALSE,FALSE,Disabled,0.000000,0.000000,0.000000,TRUE,-4.784760,-2.239792,0.000000,-0.016083,-0.040619,0.000000,-0.039000,-0.018000,-0.074000,-0.020000,-0.250000,2.400000,0.285615,Hold,0.940186,0.000000,Hold,-230.000000,2.000000,Suck,-2152.500000,2181.818182,Speed,-2137.500000,2181.818182,Speed,Off,On0.000000,0,,,,
04:16:33.119 PM 03/19/2016,Teleop Enabled,9,FALSE,0,NO ERROR,-0.000000,0.000000,0.000000,0.000000,TRUE,FALSE,FALSE,FALSE,FALSE,FALSE,Disabled,0.000000,0.000000,0.000000,TRUE,-4.784836,-2.242233,0.000000,0.015060,-0.074631,0.000000,-0.039000,-0.018000,-0.074000,-0.020000,-0.210000,2.400000,0.292445,Hold,0.940186,0.000000,Hold,-230.000000,2.000000,Suck,-2145.000000,2181.818182,Speed,-2137.500000,2181.818182,Speed,Off,On0.000000,0,,,,
04:16:33.219 PM 03/19/2016,Teleop Enabled,10,FALSE,0,NO ERROR,-0.000000,0.000000,0.000000,0.000000,TRUE,FALSE,FALSE,FALSE,FALSE,FALSE,Disabled,0.000000,0.000000,0.000000,TRUE,-4.783859,-2.246841,0.000000,0.000000,-0.094147,0.000000,0.008000,0.018000,-0.008000,-0.020000,-0.180000,2.420000,0.292187,Hold,0.940186,0.000000,Hold,-230.000000,2.000000,Suck,-2137.500000,2181.818182,Speed,-2152.500000,2181.818182,Speed,Off,On0.000000,0,,,,
04:16:33.319 PM 03/19/2016,Teleop Enabled,9,FALSE,0,NO ERROR,-0.000000,0.000000,0.000000,0.000000,TRUE,FALSE,FALSE,FALSE,FALSE,FALSE,Disabled,0.000000,0.000000,0.000000,TRUE,-4.783936,-2.247543,0.000000,0.000000,-0.033630,0.000000,0.017000,-0.036000,0.085000,-0.020000,-0.190000,2.430000,0.297950,Hold,0.940186,0.000000,Hold,-230.000000,2.000000,Suck,-2145.000000,2181.818182,Speed,-2145.000000,2181.818182,Speed,Off,On0.000000,0,,,,
04:16:33.419 PM 03/19/2016,Teleop Enabled,8,FALSE,0,NO ERROR,-0.000000,0.000000,0.000000,0.000000,TRUE,FALSE,FALSE,FALSE,FALSE,FALSE,Disabled,0.000000,0.000000,0.000000,TRUE,-4.784760,-2.249756,0.000000,-0.038452,-0.051651,0.000000,0.043000,0.010000,0.029000,-0.020000,-0.190000,2.430000,0.287942,Hold,0.940186,0.000000,Hold,-230.000000,2.000000,Suck,-2145.000000,2181.818182,Speed,-2122.500000,2181.818182,Speed,Off,On0.000000,0,,,,
04:16:33.519 PM 03/19/2016,Teleop Enabled,9,FALSE,0,NO ERROR,-0.000000,0.000000,0.000000,0.000000,TRUE,FALSE,FALSE,FALSE,FALSE,FALSE,Disabled,0.000000,0.000000,0.000000,TRUE,-4.786789,-2.250381,0.000000,-0.046280,0.027344,0.000000,0.043000,0.010000,0.029000,-0.020000,-0.140000,2.410000,0.296390,Hold,0.940186,0.000000,Hold,-230.000000,2.000000,Suck,-2152.500000,2181.818182,Speed,-2130.000000,2181.818182,Speed,Off,On0.000000,0,,,,
