Time,Robot Mode,Loop Time,Error Status,Error Code,Error Source,Left Motor Output,Left Motor Encoder,Right Motor Output,Right Motor Encoder,Is Level,Is Stalled,Ball Detector Photoeye,Vision Enabled,Vision Teleop Control,Vision Auto Control,Vision Current State,Vision X Output,Vision NavX Error,Vision NavX Target,NavX Connection Status,NavX Displacement X,NavX Displacement Y,NavX Displacement Z,NavX Velocity X,NavX Velocity Y,NavX Velocity Z,NavX Acceleration X,NavX Acceleration Y,NavX Acceleration Z,NavX Pitch,NavX Yaw,NavX Roll,Gyro Angle,Roller Arm State,Roller Arm Actual,Roller Arm Desired,Shooter Arm State,Shooter Arm Actual,Shooter Arm Desired,Shooter State,Actual RPM Left,Desired RPM Left,Control Mode Left,Actual RPM Right,Desired RPM Right,Scaler Motor Output,Auto To Run,Auto Current File,Auto File Status,Auto Current Command,Auto Trimmed Command
08:48:34.982 PM 03/17/2016,Teleop Enabled,10,FALSE,0,NO ERROR,-0.000000,0.000000,0.000000,-0.051333,TRUE,FALSE,TRUE,FALSE,FALSE,FALSE,Disabled,0.000000,0.000000,0.000000,TRUE,-2.791946,-6.812775,0.000000,0.000000,0.000000,0.000000,0.017000,-0.006000,0.011000,-0.020000,-0.380000,0.630000,-0.110103,ResetBack,0.085449,-0.200000,ResetBack,-10809.000000,-0.300000,LowGoal,-2.197266,2181.818182,Speed,0.000000,2181.818182,Speed,Off,Off0.000000,0,,,,
08:48:35.083 PM 03/17/2016,Teleop Enabled,10,FALSE,0,NO ERROR,-0.000000,0.000000,0.000000,-0.455582,TRUE,FALSE,TRUE,FALSE,FALSE,FALSE,Disabled,0.000000,0.000000,0.000000,TRUE,-2.792313,-6.812927,0.000000,-0.016846,-0.006439,0.000000,0.025000,0.006000,-0.033000,-0.030000,-0.420000,0.580000,-0.090643,ResetBack,0.085449,-0.200000,ResetBack,-4623.000000,-0.300000,LowGoal,-80.200195,2181.818182,Speed,-57.128906,2181.818182,Speed,Off,Off0.000000,0,,,,
08:48:35.184 PM 03/17/2016,Teleop Enabled,10,FALSE,0,NO ERROR,-0.000000,0.000000,0.000000,-0.436332,TRUE,FALSE,TRUE,FALSE,FALSE,FALSE,Disabled,0.000000,0.000000,0.000000,TRUE,-2.793060,-6.812759,0.000000,-0.013260,0.000000,0.000000,-0.013000,0.018000,0.017000,-0.030000,-0.420000,0.610000,-0.085506,ResetBack,0.085449,-0.200000,ResetBack,-4623.000000,-0.300000,LowGoal,-180.175781,2181.818182,Speed,-161.499023,2181.818182,Speed,Off,Off0.000000,0,,,,
08:48:35.284 PM 03/17/2016,Teleop Enabled,9,FALSE,0,NO ERROR,-0.000000,0.000000,0.000000,-0.436332,TRUE,FALSE,TRUE,FALSE,FALSE,FALSE,Disabled,0.000000,0.000000,0.000000,TRUE,-2.793961,-6.812958,0.000000,-0.036240,-0.002411,0.000000,-0.040000,0.050000,0.065000,-0.030000,-0.430000,0.590000,-0.080287,Reset,0.085449,0.000000,ResetBack,-3138.000000,-0.300000,LowGoal,-260.375977,2181.818182,Speed,-248.291016,2181.818182,Speed,Off,Off0.000000,0,,,,
08:48:35.385 PM 03/17/2016,Teleop Enabled,10,FALSE,0,NO ERROR,-0.000000,0.000000,0.000000,-0.436332,TRUE,FALSE,TRUE,FALSE,FALSE,FALSE,Disabled,0.000000,0.000000,0.000000,TRUE,-2.794235,-6.812820,0.000000,0.029572,0.003082,0.000000,0.034000,0.002000,0.024000,-0.030000,-0.500000,0.620000,-0.072032,Hold,0.722168,0.000000,ResetBack,-2408.000000,-0.300000,LowGoal,-309.814453,2181.818182,Speed,-310.913086,2181.818182,Speed,Off,Off0.000000,0,,,,
08:48:35.486 PM 03/17/2016,Teleop Enabled,11,FALSE,0,NO ERROR,-0.000000,0.000000,0.000000,-0.436332,TRUE,FALSE,TRUE,FALSE,FALSE,FALSE,Disabled,0.000000,0.000000,0.000000,TRUE,-2.791092,-6.811172,0.000000,0.088608,0.062866,0.000000,0.070000,-0.033000,0.081000,-0.030000,-0.530000,0.640000,-0.084924,Hold,0.917969,0.000000,ResetBack,-1086.000000,-0.300000,LowGoal,-324.096680,2181.818182,Speed,-321.899414,2181.818182,Speed,Off,Off0.000000,0,,,,
08:48:35.586 PM 03/17/2016,Teleop Enabled,10,FALSE,0,NO ERROR,-0.000000,0.000000,0.000000,-0.436332,TRUE,FALSE,TRUE,FALSE,FALSE,FALSE,Disabled,0.000000,0.000000,0.000000,TRUE,-2.784775,-6.807236,0.000000,0.149109,0.100372,0.000000,0.077000,0.074000,0.031000,-0.030000,-0.530000,0.620000,-0.072617,Hold,0.917969,0.000000,ResetBack,-465.000000,-0.300000,LowGoal,-308.715820,2181.818182,Speed,-306.518555,2181.818182,Speed,Off,Off0.000000,0,,,,
08:48:35.686 PM 03/17/2016,Teleop Enabled,9,FALSE,0,NO ERROR,-0.000000,0.000000,0.000000,-0.436332,TRUE,FALSE,TRUE,FALSE,FALSE,FALSE,Disabled,0.000000,0.000000,0.000000,TRUE,-2.776108,-6.799377,0.000000,0.165146,0.202820,0.000000,0.078000,0.144000,0.006000,-0.030000,-0.530000,0.610000,-0.084832,Hold,0.917969,0.000000,ResetBack,-423.000000,-0.300000,LowGoal,-303.222656,2181.818182,Speed,-302.124023,2181.818182,Speed,Off,Off0.000000,0,,,,
08:48:35.787 PM 03/17/2016,Teleop Enabled,11,FALSE,0,NO ERROR,-0.000000,0.000000,0.000000,-0.436332,TRUE,FALSE,TRUE,FALSE,FALSE,FALSE,Disabled,0.000000,0.000000,0.000000,TRUE,-2.767059,-6.786880,0.000000,0.162979,0.257904,0.000000,0.000000,-0.100000,0.010000,-0.030000,-0.480000,0.640000,-0.080883,Hold,0.917969,0.000000,ResetBack,-421.000000,-0.300000,LowGoal,-308.715820,2181.818182,Speed,-304.321289,2181.818182,Speed,Off,Off0.000000,0,,,,
08:48:35.888 PM 03/17/2016,Teleop Enabled,10,FALSE,0,NO ERROR,-0.000000,0.000000,0.000000,-0.436332,TRUE,FALSE,TRUE,FALSE,FALSE,FALSE,Disabled,0.000000,0.000000,0.000000,TRUE,-2.758453,-6.774536,0.000000,0.135117,0.176590,0.000000,0.041000,-0.046000,0.000000,-0.030000,-0.500000,0.640000,-0.090866,Hold,0.917969,0.000000,ResetBack,-421.000000,-0.300000,LowGoal,-309.814453,2181.818182,Speed,-307.617188,2181.818182,Speed,Off,Off0.000000,0,,,,
08:48:35.988 PM 03/17/2016,Teleop Enabled,10,FALSE,0,NO ERROR,-0.000000,0.000000,0.000000,-0.436332,TRUE,FALSE,TRUE,FALSE,FALSE,FALSE,Disabled,0.000000,0.000000,0.000000,TRUE,-2.750092,-6.767441,0.000000,0.186768,0.122559,0.000000,0.046000,0.048000,-0.075000,-0.030000,-0.490000,0.640000,-0.093180,Hold,0.917969,0.000000,ResetBack,-416.000000,-0.300000,LowGoal,-308.715820,2181.818182,Speed,-307.617188,2181.818182,Speed,Off,Off0.000000,0,,,,
08:48:36.089 PM 03/17/2016,Teleop Enabled,9,FALSE,0,NO ERROR,-0.000000,0.000000,0.000000,-0.436332,TRUE,FALSE,TRUE,FALSE,FALSE,FALSE,Disabled,0.000000,0.000000,0.000000,TRUE,-2.740356,-6.759033,0.000000,0.193771,0.191620,0.000000,0.019000,0.130000,0.096000,-0.030000,-0.440000,0.650000,-0.106230,Hold,0.917969,0.000000,ResetBack,-413.000000,-0.300000,LowGoal,-307.617188,2181.818182,Speed,-306.518555,2181.818182,Speed,Off,Off0.000000,0,,,,
08:48:36.189 PM 03/17/2016,Teleop Enabled,10,FALSE,0,NO ERROR,-0.000000,0.000000,0.000000,-0.436332,TRUE,FALSE,TRUE,FALSE,FALSE,FALSE,Disabled,0.000000,0.000000,0.000000,TRUE,-2.729385,-6.745865,0.000000,0.242874,0.328339,0.000000,0.016000,0.190000,-0.006000,-0.030000,-0.430000,0.620000,-0.117219,Hold,0.917969,0.000000,Reset,-410.000000,2.000000,LowGoal,-307.617188,2181.818182,Speed,-305.419922,2181.818182,Speed,Off,Off0.000000,0,,,,
08:48:36.290 PM 03/17/2016,Teleop Enabled,10,FALSE,0,NO ERROR,-0.000000,0.000000,0.000000,-0.436332,TRUE,FALSE,TRUE,FALSE,FALSE,FALSE,Disabled,0.000000,0.000000,0.000000,TRUE,-2.719604,-6.728790,0.000000,0.159485,0.321045,0.000000,-0.009000,-0.083000,-0.032000,-0.030000,-0.440000,0.620000,-0.125099,Hold,0.917969,0.000000,Hold,-202.000000,2.000000,LowGoal,-308.715820,2181.818182,Speed,-306.518555,2181.818182,Speed,Off,Off0.000000,0,,,,
08:48:36.391 PM 03/17/2016,Teleop Enabled,10,FALSE,0,NO ERROR,-0.000000,0.000000,0.000000,-0.436332,TRUE,FALSE,TRUE,FALSE,FALSE,FALSE,Disabled,0.000000,0.000000,0.000000,TRUE,-2.711685,-6.714935,0.000000,0.150742,0.247742,0.000000,0.027000,-0.082000,-0.069000,-0.030000,-0.450000,0.630000,-0.122858,Hold,0.917969,0.000000,Hold,-202.000000,2.000000,LowGoal,-309.814453,2181.818182,Speed,-306.518555,2181.818182,Speed,Off,Off0.000000,0,,,,
08:48:36.492 PM 03/17/2016,Teleop Enabled,10,FALSE,0,NO ERROR,-0.000000,0.000000,0.000000,-0.436332,TRUE,FALSE,TRUE,FALSE,FALSE,FALSE,Disabled,0.000000,0.000000,0.000000,TRUE,-2.704102,-6.704407,0.000000,0.173447,0.197586,0.000000,0.108000,0.005000,-0.043000,-0.030000,-0.450000,0.650000,-0.128938,Hold,0.917969,0.000000,Hold,-202.000000,2.000000,LowGoal,-309.814453,2181.818182,Speed,-307.617188,2181.818182,Speed,Off,Off0.000000,0,,,,
08:48:36.593 PM 03/17/2016,Teleop Enabled,10,FALSE,0,NO ERROR,-0.000000,0.000000,0.000000,-0.436332,TRUE,FALSE,TRUE,FALSE,FALSE,FALSE,Disabled,0.000000,0.000000,0.000000,TRUE,-2.693268,-6.703644,0.000000,0.230576,0.035843,0.000000,-0.024000,0.060000,0.059000,-0.030000,-0.440000,0.640000,-0.123151,Hold,0.917969,0.000000,Hold,-202.000000,2.000000,LowGoal,-308.715820,2181.818182,Speed,-306.518555,2181.818182,Speed,Off,Off0.000000,0,,,,
08:48:36.693 PM 03/17/2016,Teleop Enabled,9,FALSE,0,NO ERROR,-0.000000,0.000000,0.000000,-0.436332,TRUE,FALSE,TRUE,FALSE,FALSE,FALSE,Disabled,0.000000,0.000000,0.000000,TRUE,-2.679459,-6.699341,0.000000,0.241791,0.094681,0.000000,-0.034000,0.051000,0.057000,-0.030000,-0.390000,0.620000,-0.118699,Hold,0.917969,0.000000,Hold,-202.000000,2.000000,LowGoal,-309.814453,2181.818182,Speed,-306.518555,2181.818182,Speed,Off,Off0.000000,0,,,,
08:48:36.801 PM 03/17/2016,Teleop Enabled,10,FALSE,0,NO ERROR,-0.000000,0.000000,0.000000,-0.436332,TRUE,FALSE,TRUE,FALSE,FALSE,FALSE,Disabled,0.000000,0.000000,0.000000,TRUE,-2.671219,-6.695465,0.000000,0.187393,0.086884,0.000000,-0.042000,-0.049000,-0.023000,-0.030000,-0.460000,0.620000,-0.119815,Hold,0.917969,0.000000,Hold,-202.000000,2.000000,LowGoal,-309.814453,2181.818182,Speed,-308.715820,2181.818182,Speed,Off,Off0.000000,0,,,,
08:48:36.902 PM 03/17/2016,Teleop Enabled,10,FALSE,0,NO ERROR,-0.000000,0.000000,0.000000,-0.436332,TRUE,FALSE,TRUE,FALSE,FALSE,FALSE,Disabled,0.000000,0.000000,0.000000,TRUE,-2.665970,-6.693146,0.000000,-0.002975,-0.006531,0.000000,-0.084000,-0.049000,-0.045000,-0.030000,-0.440000,0.630000,-0.128287,Hold,0.917969,0.000000,Hold,-202.000000,2.000000,LowGoal,-308.715820,2181.818182,Speed,-307.617188,2181.818182,Speed,Off,Off0.000000,0,,,,
08:48:37.003 PM 03/17/2016,Teleop Enabled,9,FALSE,0,NO ERROR,-0.000000,0.000000,0.000000,-0.436332,TRUE,FALSE,TRUE,FALSE,FALSE,FALSE,Disabled,0.000000,0.000000,0.000000,TRUE,-2.666504,-6.694763,0.000000,-0.011551,-0.059784,0.000000,0.029000,-0.030000,-0.011000,-0.030000,-0.390000,0.680000,-0.139902,Hold,0.917969,0.000000,Hold,-202.000000,2.000000,LowGoal,-308.715820,2181.818182,Speed,-307.617188,2181.818182,Speed,Off,Off0.000000,0,,,,
08:48:37.103 PM 03/17/2016,Teleop Enabled,11,FALSE,0,NO ERROR,-0.000000,0.000000,0.000000,-0.436332,TRUE,FALSE,TRUE,FALSE,FALSE,FALSE,Disabled,0.000000,0.000000,0.000000,TRUE,-2.666595,-6.698776,0.000000,0.000000,-0.084198,0.000000,0.051000,0.050000,0.005000,-0.030000,-0.450000,0.650000,-0.146498,Hold,0.917969,0.000000,Hold,-202.000000,2.000000,LowGoal,-308.715820,2181.818182,Speed,-307.617188,2181.818182,Speed,Off,Off0.000000,0,,,,
08:48:37.203 PM 03/17/2016,Teleop Enabled,11,FALSE,0,NO ERROR,-0.000000,0.000000,0.000000,-0.436332,TRUE,FALSE,TRUE,FALSE,FALSE,FALSE,Disabled,0.000000,0.000000,0.000000,TRUE,-2.664566,-6.702682,0.000000,0.052780,-0.041077,0.000000,-0.029000,0.049000,0.047000,-0.030000,-0.420000,0.610000,-0.157869,Hold,0.917969,0.000000,Hold,-202.000000,2.000000,LowGoal,-308.715820,2181.818182,Speed,-307.617188,2181.818182,Speed,Off,Off0.000000,0,,,,
08:48:37.304 PM 03/17/2016,Teleop Enabled,9,FALSE,0,NO ERROR,-0.000000,0.000000,0.000000,-0.436332,TRUE,FALSE,TRUE,FALSE,FALSE,FALSE,Disabled,0.000000,0.000000,0.000000,TRUE,-2.664124,-6.703278,0.000000,-0.010880,0.012924,0.000000,-0.073000,0.053000,-0.012000,-0.030000,-0.400000,0.660000,-0.171670,Hold,0.917969,0.000000,Hold,-202.000000,2.000000,LowGoal,-308.715820,2181.818182,Speed,-307.617188,2181.818182,Speed,Off,Off0.000000,0,,,,
08:48:37.405 PM 03/17/2016,Teleop Enabled,10,FALSE,0,NO ERROR,-0.000000,0.000000,0.000000,-0.436332,TRUE,FALSE,TRUE,FALSE,FALSE,FALSE,Disabled,0.000000,0.000000,0.000000,TRUE,-2.667191,-6.704071,0.000000,-0.074524,-0.054138,0.000000,0.038000,-0.031000,-0.119000,-0.030000,-0.460000,0.630000,-0.184177,Hold,0.917969,0.000000,Hold,-202.000000,2.000000,LowGoal,-308.715820,2181.818182,Speed,-307.617188,2181.818182,Speed,Off,Off0.000000,0,,,,
08:48:37.507 PM 03/17/2016,Teleop Enabled,10,FALSE,0,NO ERROR,-0.000000,0.000000,0.000000,-0.436332,TRUE,FALSE,TRUE,FALSE,FALSE,FALSE,Disabled,0.000000,0.000000,0.000000,TRUE,-2.670670,-6.707916,0.000000,-0.084534,-0.092087,0.000000,-0.037000,-0.046000,-0.051000,-0.030000,-0.430000,0.670000,-0.193699,Hold,0.917969,0.000000,Hold,-202.000000,2.000000,LowGoal,-309.814453,2181.818182,Speed,-308.715820,2181.818182,Speed,Off,Off0.000000,0,,,,
08:48:37.607 PM 03/17/2016,Teleop Enabled,10,FALSE,0,NO ERROR,-0.000000,0.000000,0.000000,-0.436332,TRUE,FALSE,TRUE,FALSE,FALSE,FALSE,Disabled,0.000000,0.000000,0.000000,TRUE,-2.674896,-6.713470,0.000000,-0.075073,-0.117325,0.000000,0.054000,-0.010000,0.077000,-0.030000,-0.430000,0.690000,-0.201648,Hold,0.917969,0.000000,Hold,-202.000000,2.000000,LowGoal,-310.913086,2181.818182,Speed,-308.715820,2181.818182,Speed,Off,Off0.000000,0,,,,
08:48:37.708 PM 03/17/2016,Teleop Enabled,10,FALSE,0,NO ERROR,-0.000000,0.000000,0.000000,-0.436332,TRUE,FALSE,TRUE,FALSE,FALSE,FALSE,Disabled,0.000000,0.000000,0.000000,TRUE,-2.676971,-6.719193,0.000000,-0.011353,-0.104202,0.000000,0.080000,0.026000,0.094000,-0.030000,-0.370000,0.640000,-0.200767,Hold,0.917969,0.000000,Hold,-202.000000,2.000000,LowGoal,-309.814453,2181.818182,Speed,-308.715820,2181.818182,Speed,Off,Off0.000000,0,,,,
08:48:37.809 PM 03/17/2016,Teleop Enabled,10,FALSE,0,NO ERROR,-0.000000,0.000000,0.000000,-0.436332,TRUE,FALSE,TRUE,FALSE,FALSE,FALSE,Disabled,0.000000,0.000000,0.000000,TRUE,-2.678055,-6.721695,0.000000,-0.012497,0.000000,0.000000,0.104000,0.076000,-0.022000,-0.030000,-0.400000,0.640000,-0.205744,Hold,0.917969,0.000000,Hold,-202.000000,2.000000,LowGoal,-309.814453,2181.818182,Speed,-308.715820,2181.818182,Speed,Off,Off0.000000,0,,,,
08:48:37.910 PM 03/17/2016,Teleop Enabled,10,FALSE,0,NO ERROR,-0.000000,0.000000,0.000000,-0.436332,TRUE,FALSE,TRUE,FALSE,FALSE,FALSE,Disabled,0.000000,0.000000,0.000000,TRUE,-2.677399,-6.720444,0.000000,-0.003723,0.032257,0.000000,-0.087000,-0.076000,-0.049000,-0.030000,-0.410000,0.670000,-0.202254,Hold,0.917969,0.000000,Hold,-202.000000,2.000000,LowGoal,-309.814453,2181.818182,Speed,-307.617188,2181.818182,Speed,Off,Off0.000000,0,,,,
08:48:38.011 PM 03/17/2016,Teleop Enabled,10,FALSE,0,NO ERROR,-0.000000,0.000000,0.000000,-0.436332,TRUE,FALSE,TRUE,FALSE,FALSE,FALSE,Disabled,0.000000,0.000000,0.000000,TRUE,-2.679520,-6.721008,0.000000,-0.060349,-0.049194,0.000000,0.039000,-0.062000,-0.120000,-0.030000,-0.400000,0.650000,-0.201035,Hold,0.917969,0.000000,Hold,-202.000000,2.000000,LowGoal,-309.814453,2181.818182,Speed,-307.617188,2181.818182,Speed,Off,Off0.000000,0,,,,
08:48:38.112 PM 03/17/2016,Teleop Enabled,11,FALSE,0,NO ERROR,-0.000000,0.000000,0.000000,-0.436332,TRUE,FALSE,TRUE,FALSE,FALSE,FALSE,Disabled,0.000000,0.000000,0.000000,TRUE,-2.682632,-6.726181,0.000000,-0.063507,-0.146408,0.000000,0.024000,-0.051000,-0.028000,-0.030000,-0.400000,0.660000,-0.208054,Hold,0.917969,0.000000,Hold,-202.000000,2.000000,LowGoal,-308.715820,2181.818182,Speed,-307.617188,2181.818182,Speed,Off,Off0.000000,0,,,,
08:48:38.213 PM 03/17/2016,Teleop Enabled,10,FALSE,0,NO ERROR,-0.000000,0.000000,0.000000,-0.436332,TRUE,FALSE,TRUE,FALSE,FALSE,FALSE,Disabled,0.000000,0.000000,0.000000,TRUE,-2.685104,-6.729248,0.000000,-0.041473,0.013153,0.000000,0.061000,0.102000,0.059000,-0.030000,-0.410000,0.680000,-0.216089,Hold,0.917969,0.000000,Hold,-202.000000,2.000000,LowGoal,-309.814453,2181.818182,Speed,-306.518555,2181.818182,Speed,Off,Off0.000000,0,,,,
08:48:38.313 PM 03/17/2016,Teleop Enabled,11,FALSE,0,NO ERROR,-0.000000,0.000000,0.000000,-0.436332,TRUE,FALSE,TRUE,FALSE,FALSE,FALSE,Disabled,0.000000,0.000000,0.000000,TRUE,-2.686508,-6.725174,0.000000,-0.017426,0.097687,0.000000,0.074000,0.007000,0.143000,-0.030000,-0.360000,0.650000,-0.227825,Hold,0.917969,0.000000,Hold,-202.000000,2.000000,LowGoal,-310.913086,2181.818182,Speed,-307.617188,2181.818182,Speed,Off,Off0.000000,0,,,,
08:48:38.414 PM 03/17/2016,Teleop Enabled,10,FALSE,0,NO ERROR,-0.000000,0.000000,0.000000,-0.436332,TRUE,FALSE,TRUE,FALSE,FALSE,FALSE,Disabled,0.000000,0.000000,0.000000,TRUE,-2.687439,-6.719437,0.000000,-0.034805,0.127136,0.000000,-0.080000,0.006000,0.052000,-0.030000,-0.360000,0.640000,-0.229243,Hold,0.917969,0.000000,Hold,-202.000000,2.000000,LowGoal,-309.814453,2181.818182,Speed,-307.617188,2181.818182,Speed,Off,Off0.000000,0,,,,
08:48:38.515 PM 03/17/2016,Teleop Enabled,9,FALSE,0,NO ERROR,-0.000000,0.000000,0.000000,-0.436332,TRUE,FALSE,TRUE,FALSE,FALSE,FALSE,Disabled,0.000000,0.000000,0.000000,TRUE,-2.690643,-6.713684,0.000000,-0.079346,0.084778,0.000000,-0.060000,-0.161000,-0.095000,-0.030000,-0.370000,0.670000,-0.223993,Hold,0.917969,0.000000,Hold,-202.000000,2.000000,LowGoal,-308.715820,2181.818182,Speed,-307.617188,2181.818182,Speed,Off,Off0.000000,0,,,,
08:48:38.615 PM 03/17/2016,Teleop Enabled,11,FALSE,0,NO ERROR,-0.000000,0.000000,0.000000,-0.436332,TRUE,FALSE,TRUE,FALSE,FALSE,FALSE,Disabled,0.000000,0.000000,0.000000,TRUE,-2.695175,-6.712585,0.000000,-0.104141,-0.011276,0.000000,-0.040000,-0.085000,-0.055000,-0.030000,-0.420000,0.660000,-0.222575,Hold,0.917969,0.000000,Hold,-202.000000,2.000000,LowGoal,-309.814453,2181.818182,Speed,-306.518555,2181.818182,Speed,Off,Off0.000000,0,,,,
08:48:38.716 PM 03/17/2016,Teleop Enabled,11,FALSE,0,NO ERROR,-0.000000,0.000000,0.000000,-0.436332,TRUE,FALSE,TRUE,FALSE,FALSE,FALSE,Disabled,0.000000,0.000000,0.000000,TRUE,-2.699829,-6.716095,0.000000,-0.067368,-0.100418,0.000000,0.050000,0.079000,0.074000,-0.030000,-0.380000,0.670000,-0.223174,Hold,0.917969,0.000000,Hold,-202.000000,2.000000,LowGoal,-309.814453,2181.818182,Speed,-306.518555,2181.818182,Speed,Off,Off0.000000,0,,,,
08:48:38.816 PM 03/17/2016,Teleop Enabled,10,FALSE,0,NO ERROR,-0.000000,0.000000,0.000000,-0.436332,TRUE,FALSE,TRUE,FALSE,FALSE,FALSE,Disabled,0.000000,0.000000,0.000000,TRUE,-2.701782,-6.718994,0.000000,-0.027054,-0.019760,0.000000,0.039000,0.106000,0.087000,-0.030000,-0.350000,0.660000,-0.218065,Hold,0.917969,0.000000,Hold,-202.000000,2.000000,LowGoal,-309.814453,2181.818182,Speed,-307.617188,2181.818182,Speed,Off,Off0.000000,0,,,,
08:48:38.916 PM 03/17/2016,Teleop Enabled,10,FALSE,0,NO ERROR,-0.000000,0.000000,0.000000,-0.436332,TRUE,FALSE,TRUE,FALSE,FALSE,FALSE,Disabled,0.000000,0.000000,0.000000,TRUE,-2.702042,-6.716812,0.000000,0.018097,0.090485,0.000000,-0.028000,0.080000,0.042000,-0.030000,-0.380000,0.630000,-0.208337,Hold,0.917969,0.000000,Hold,-202.000000,2.000000,LowGoal,-309.814453,2181.818182,Speed,-306.518555,2181.818182,Speed,Off,Off0.000000,0,,,,
08:48:39.016 PM 03/17/2016,Teleop Enabled,10,FALSE,0,NO ERROR,-0.000000,0.000000,0.000000,-0.436332,TRUE,FALSE,TRUE,FALSE,FALSE,FALSE,Disabled,0.000000,0.000000,0.000000,TRUE,-2.701630,-6.711349,0.000000,-0.010651,0.094788,0.000000,-0.024000,-0.059000,0.045000,-0.030000,-0.380000,0.640000,-0.210461,Hold,0.917969,0.000000,Hold,-202.000000,2.000000,LowGoal,-309.814453,2181.818182,Speed,-307.617188,2181.818182,Speed,Off,Off0.000000,0,,,,
08:48:39.116 PM 03/17/2016,Teleop Enabled,11,FALSE,0,NO ERROR,-0.000000,0.000000,0.000000,-0.436332,TRUE,FALSE,TRUE,FALSE,FALSE,FALSE,Disabled,0.000000,0.000000,0.000000,TRUE,-2.703827,-6.708649,0.000000,-0.060104,0.022781,0.000000,0.025000,-0.091000,-0.145000,-0.030000,-0.380000,0.650000,-0.208230,Hold,0.917969,0.000000,Hold,-202.000000,2.000000,LowGoal,-309.814453,2181.818182,Speed,-307.617188,2181.818182,Speed,Off,Off0.000000,0,,,,
08:48:39.216 PM 03/17/2016,Teleop Enabled,10,FALSE,0,NO ERROR,-0.000000,0.000000,0.000000,-0.436332,TRUE,FALSE,TRUE,FALSE,FALSE,FALSE,Disabled,0.000000,0.000000,0.000000,TRUE,-2.706055,-6.710434,0.000000,-0.018158,-0.065750,0.000000,-0.025000,-0.065000,-0.014000,-0.030000,-0.300000,0.690000,-0.226190,Hold,0.917969,0.000000,Hold,-202.000000,2.000000,LowGoal,-309.814453,2181.818182,Speed,-306.518555,2181.818182,Speed,Off,Off0.000000,0,,,,
08:48:39.316 PM 03/17/2016,Teleop Enabled,10,FALSE,0,NO ERROR,-0.000000,0.000000,0.000000,-0.436332,TRUE,FALSE,TRUE,FALSE,FALSE,FALSE,Disabled,0.000000,0.000000,0.000000,TRUE,-2.705978,-6.712997,0.000000,0.005325,-0.033981,0.000000,-0.044000,-0.021000,0.073000,-0.030000,-0.300000,0.670000,-0.227305,Hold,0.917969,0.000000,Hold,-202.000000,2.000000,LowGoal,-309.814453,2181.818182,Speed,-307.617188,2181.818182,Speed,Off,Off0.000000,0,,,,
08:48:39.417 PM 03/17/2016,Teleop Enabled,9,FALSE,0,NO ERROR,-0.000000,0.000000,0.000000,-0.436332,TRUE,FALSE,TRUE,FALSE,FALSE,FALSE,Disabled,0.000000,0.000000,0.000000,TRUE,-2.705582,-6.713425,0.000000,0.013840,0.004745,0.000000,0.070000,0.083000,0.037000,-0.030000,-0.390000,0.630000,-0.233278,Hold,0.917969,0.000000,Hold,-202.000000,2.000000,LowGoal,-309.814453,2181.818182,Speed,-307.617188,2181.818182,Speed,Off,Off0.000000,0,,,,
08:48:39.517 PM 03/17/2016,Teleop Enabled,10,FALSE,0,NO ERROR,-0.000000,0.000000,0.000000,-0.436332,TRUE,FALSE,TRUE,FALSE,FALSE,FALSE,Disabled,0.000000,0.000000,0.000000,TRUE,-2.703247,-6.709259,0.000000,0.036987,0.087463,0.000000,-0.035000,-0.009000,0.018000,-0.030000,-0.390000,0.630000,-0.242769,Hold,0.917969,0.000000,Hold,-202.000000,2.000000,LowGoal,-310.913086,2181.818182,Speed,-306.518555,2181.818182,Speed,Off,Off0.000000,0,,,,
08:48:39.617 PM 03/17/2016,Teleop Enabled,9,FALSE,0,NO ERROR,-0.000000,0.000000,0.000000,-0.436332,TRUE,FALSE,TRUE,FALSE,FALSE,FALSE,Disabled,0.000000,0.000000,0.000000,TRUE,-2.703049,-6.705200,0.000000,-0.007721,0.075409,0.000000,0.003000,-0.028000,0.054000,-0.030000,-0.380000,0.630000,-0.232655,Hold,0.917969,0.000000,Hold,-202.000000,2.000000,LowGoal,-309.814453,2181.818182,Speed,-306.518555,2181.818182,Speed,Off,Off0.000000,0,,,,
08:48:39.718 PM 03/17/2016,Teleop Enabled,11,FALSE,0,NO ERROR,-0.000000,0.000000,0.000000,-0.436332,TRUE,FALSE,TRUE,FALSE,FALSE,FALSE,Disabled,0.000000,0.000000,0.000000,TRUE,-2.703873,-6.703827,0.000000,-0.012955,0.002319,0.000000,0.003000,-0.028000,0.054000,-0.030000,-0.400000,0.670000,-0.222451,Hold,0.917969,0.000000,Hold,-202.000000,2.000000,LowGoal,-309.814453,2181.818182,Speed,-306.518555,2181.818182,Speed,Off,Off0.000000,0,,,,
08:48:39.819 PM 03/17/2016,Teleop Enabled,9,FALSE,0,NO ERROR,-0.000000,0.000000,0.000000,-0.436332,TRUE,FALSE,TRUE,FALSE,FALSE,FALSE,Disabled,0.000000,0.000000,0.000000,TRUE,-2.703644,-6.704041,0.000000,0.032852,0.007935,0.000000,-0.035000,-0.054000,0.009000,-0.030000,-0.420000,0.650000,-0.240683,Hold,0.917969,0.000000,Hold,-202.000000,2.000000,LowGoal,-309.814453,2181.818182,Speed,-307.617188,2181.818182,Speed,Off,Off0.000000,0,,,,
08:48:39.921 PM 03/17/2016,Teleop Enabled,11,FALSE,0,NO ERROR,-0.000000,0.000000,0.000000,-0.436332,TRUE,FALSE,TRUE,FALSE,FALSE,FALSE,Disabled,0.000000,0.000000,0.000000,TRUE,-2.701004,-6.701706,0.000000,0.060043,0.070572,0.000000,0.068000,0.057000,0.021000,-0.030000,-0.440000,0.630000,-0.259183,Hold,0.917969,0.000000,Hold,-202.000000,2.000000,LowGoal,-309.814453,2181.818182,Speed,-307.617188,2181.818182,Speed,Off,Off0.000000,0,,,,
08:48:40.021 PM 03/17/2016,Teleop Enabled,11,FALSE,0,NO ERROR,-0.000000,0.000000,0.000000,-0.436332,TRUE,FALSE,TRUE,FALSE,FALSE,FALSE,Disabled,0.000000,0.000000,0.000000,TRUE,-2.698059,-6.696304,0.000000,0.042206,0.126373,0.000000,0.020000,0.037000,0.052000,-0.030000,-0.390000,0.650000,-0.264774,Hold,0.917969,0.000000,Hold,-202.000000,2.000000,LowGoal,-309.814453,2181.818182,Speed,-306.518555,2181.818182,Speed,Off,Off0.000000,0,,,,
08:48:40.122 PM 03/17/2016,Teleop Enabled,10,FALSE,0,NO ERROR,-0.000000,0.000000,0.000000,-0.436332,TRUE,FALSE,TRUE,FALSE,FALSE,FALSE,Disabled,0.000000,0.000000,0.000000,TRUE,-2.697662,-6.691803,0.000000,-0.005966,0.061844,0.000000,-0.034000,-0.082000,-0.032000,-0.030000,-0.390000,0.650000,-0.272096,Hold,0.917969,0.000000,Hold,-202.000000,2.000000,LowGoal,-309.814453,2181.818182,Speed,-307.617188,2181.818182,Speed,Off,Off0.000000,0,,,,
08:48:40.222 PM 03/17/2016,Teleop Enabled,10,FALSE,0,NO ERROR,-0.000000,0.000000,0.000000,-0.436332,TRUE,FALSE,TRUE,FALSE,FALSE,FALSE,Disabled,0.000000,0.000000,0.000000,TRUE,-2.697845,-6.689270,0.000000,-0.011414,0.033310,0.000000,0.033000,0.019000,-0.094000,-0.030000,-0.410000,0.640000,-0.273701,Hold,0.917969,0.000000,Hold,-202.000000,2.000000,LowGoal,-309.814453,2181.818182,Speed,-307.617188,2181.818182,Speed,Off,Off0.000000,0,,,,
08:48:40.324 PM 03/17/2016,Teleop Enabled,9,FALSE,0,NO ERROR,-0.000000,0.000000,0.000000,-0.436332,TRUE,FALSE,TRUE,FALSE,FALSE,FALSE,Disabled,0.000000,0.000000,0.000000,TRUE,-2.698196,-6.687531,0.000000,0.014267,0.059570,0.000000,-0.008000,-0.045000,-0.007000,-0.030000,-0.410000,0.670000,-0.267301,Hold,0.917969,0.000000,Hold,-202.000000,2.000000,LowGoal,-309.814453,2181.818182,Speed,-306.518555,2181.818182,Speed,Off,Off0.000000,0,,,,
08:48:40.424 PM 03/17/2016,Teleop Enabled,10,FALSE,0,NO ERROR,-0.000000,0.000000,0.000000,-0.436332,TRUE,FALSE,TRUE,FALSE,FALSE,FALSE,Disabled,0.000000,0.000000,0.000000,TRUE,-2.696518,-6.682602,0.000000,0.036545,0.128906,0.000000,0.034000,0.050000,0.174000,-0.030000,-0.460000,0.650000,-0.268175,Hold,0.917969,0.000000,Hold,-202.000000,2.000000,LowGoal,-309.814453,2181.818182,Speed,-306.518555,2181.818182,Speed,Off,Off0.000000,0,,,,
08:48:40.524 PM 03/17/2016,Teleop Enabled,10,FALSE,0,NO ERROR,-0.000000,0.000000,0.000000,-0.436332,TRUE,FALSE,TRUE,FALSE,FALSE,FALSE,Disabled,0.000000,0.000000,0.000000,TRUE,-2.694977,-6.672226,0.000000,-0.011139,0.181976,0.000000,-0.001000,0.063000,0.060000,-0.030000,-0.470000,0.640000,-0.283247,Hold,0.917969,0.000000,Hold,-202.000000,2.000000,LowGoal,-309.814453,2181.818182,Speed,-307.617188,2181.818182,Speed,Off,Off0.000000,0,,,,
08:48:40.624 PM 03/17/2016,Teleop Enabled,10,FALSE,0,NO ERROR,-0.000000,0.000000,0.000000,-0.436332,TRUE,FALSE,TRUE,FALSE,FALSE,FALSE,Disabled,0.000000,0.000000,0.000000,TRUE,-2.697403,-6.664612,0.000000,-0.059921,0.124680,0.000000,-0.109000,-0.037000,0.000000,-0.030000,-0.410000,0.630000,-0.287677,Hold,0.917969,0.000000,Hold,-202.000000,2.000000,LowGoal,-309.814453,2181.818182,Speed,-306.518555,2181.818182,Speed,Off,Off0.000000,0,,,,
08:48:40.726 PM 03/17/2016,Teleop Enabled,11,FALSE,0,NO ERROR,-0.000000,0.000000,0.000000,-0.436332,TRUE,FALSE,TRUE,FALSE,FALSE,FALSE,Disabled,0.000000,0.000000,0.000000,TRUE,-2.701843,-6.660294,0.000000,-0.090073,0.059402,0.000000,-0.071000,-0.057000,-0.042000,-0.030000,-0.410000,0.650000,-0.297275,Hold,0.917969,0.000000,Hold,-202.000000,2.000000,LowGoal,-309.814453,2181.818182,Speed,-306.518555,2181.818182,Speed,Off,Off0.000000,0,,,,
08:48:40.826 PM 03/17/2016,Teleop Enabled,9,FALSE,0,NO ERROR,-0.000000,0.000000,0.000000,-0.436332,TRUE,FALSE,TRUE,FALSE,FALSE,FALSE,Disabled,0.000000,0.000000,0.000000,TRUE,-2.705124,-6.657700,0.000000,-0.045425,0.070709,0.000000,0.044000,-0.051000,0.000000,-0.030000,-0.420000,0.680000,-0.294253,Hold,0.917969,0.000000,Hold,-202.000000,2.000000,LowGoal,-310.913086,2181.818182,Speed,-306.518555,2181.818182,Speed,Off,Off0.000000,0,,,,
08:48:40.926 PM 03/17/2016,Teleop Enabled,10,FALSE,0,NO ERROR,-0.000000,0.000000,0.000000,-0.436332,TRUE,FALSE,TRUE,FALSE,FALSE,FALSE,Disabled,0.000000,0.000000,0.000000,TRUE,-2.705124,-6.657700,0.000000,-0.045425,0.070709,0.000000,0.067000,0.117000,0.073000,-0.030000,-0.480000,0.660000,-0.294253,Hold,0.917969,0.000000,Hold,-202.000000,2.000000,LowGoal,-310.913086,2181.818182,Speed,-306.518555,2181.818182,Speed,Off,Off0.000000,0,,,,
08:48:41.026 PM 03/17/2016,Teleop Enabled,10,FALSE,0,NO ERROR,-0.000000,0.000000,0.000000,-0.436332,TRUE,FALSE,TRUE,FALSE,FALSE,FALSE,Disabled,0.000000,0.000000,0.000000,TRUE,-2.706573,-6.650757,0.000000,-0.023880,0.192764,0.000000,-0.004000,0.145000,0.058000,-0.030000,-0.450000,0.620000,-0.297375,Hold,0.917969,0.000000,Hold,-202.000000,2.000000,LowGoal,-309.814453,2181.818182,Speed,-306.518555,2181.818182,Speed,Off,Off0.000000,0,,,,
08:48:41.128 PM 03/17/2016,Teleop Enabled,10,FALSE,0,NO ERROR,-0.000000,0.000000,0.000000,-0.436332,TRUE,FALSE,TRUE,FALSE,FALSE,FALSE,Disabled,0.000000,0.000000,0.000000,TRUE,-2.707001,-6.637604,0.000000,-0.015610,0.283356,0.000000,-0.143000,-0.043000,0.032000,-0.030000,-0.450000,0.630000,-0.308866,Hold,0.917969,0.000000,Hold,-202.000000,2.000000,LowGoal,-309.814453,2181.818182,Speed,-306.518555,2181.818182,Speed,Off,Off0.000000,0,,,,
08:48:41.232 PM 03/17/2016,Teleop Enabled,10,FALSE,0,NO ERROR,-0.000000,0.000000,0.000000,-0.436332,TRUE,FALSE,TRUE,FALSE,FALSE,FALSE,Disabled,0.000000,0.000000,0.000000,TRUE,-2.710297,-6.624557,0.000000,-0.088242,0.236755,0.000000,-0.032000,-0.058000,-0.115000,-0.030000,-0.440000,0.650000,-0.308945,Hold,0.917969,0.000000,Hold,-202.000000,2.000000,LowGoal,-309.814453,2181.818182,Speed,-307.617188,2181.818182,Speed,Off,Off0.000000,0,,,,
08:48:41.331 PM 03/17/2016,Teleop Enabled,9,FALSE,0,NO ERROR,-0.000000,0.000000,0.000000,-0.436332,TRUE,FALSE,TRUE,FALSE,FALSE,FALSE,Disabled,0.000000,0.000000,0.000000,TRUE,-2.712006,-6.614120,0.000000,0.008957,0.190720,0.000000,0.083000,-0.068000,-0.052000,-0.030000,-0.430000,0.680000,-0.308945,Hold,0.917969,0.000000,Hold,-202.000000,2.000000,LowGoal,-309.814453,2181.818182,Speed,-306.518555,2181.818182,Speed,Off,Off0.000000,0,,,,
08:48:41.432 PM 03/17/2016,Teleop Enabled,10,FALSE,0,NO ERROR,-0.000000,0.000000,0.000000,-0.436332,TRUE,FALSE,TRUE,FALSE,FALSE,FALSE,Disabled,0.000000,0.000000,0.000000,TRUE,-2.709442,-6.605545,0.000000,0.077591,0.179810,0.000000,0.006000,0.052000,0.107000,-0.030000,-0.420000,0.670000,-0.309217,Hold,0.917969,0.000000,Hold,-202.000000,2.000000,LowGoal,-309.814453,2181.818182,Speed,-304.321289,2181.818182,Speed,Off,Off0.000000,0,,,,
08:48:41.532 PM 03/17/2016,Teleop Enabled,9,FALSE,0,NO ERROR,-0.000000,0.000000,0.000000,-0.436332,TRUE,FALSE,TRUE,FALSE,FALSE,FALSE,Disabled,0.000000,0.000000,0.000000,TRUE,-2.709808,-6.591431,0.000000,0.008743,0.273453,0.000000,0.061000,0.084000,0.047000,-0.030000,-0.440000,0.650000,-0.293395,Hold,0.917969,0.000000,Hold,-202.000000,2.000000,LowGoal,-309.814453,2181.818182,Speed,-305.419922,2181.818182,Speed,Off,Off0.000000,0,,,,
08:48:41.633 PM 03/17/2016,Teleop Enabled,11,FALSE,0,NO ERROR,-0.000000,0.000000,0.000000,-0.436332,TRUE,FALSE,TRUE,FALSE,FALSE,FALSE,Disabled,0.000000,0.000000,0.000000,TRUE,-2.709106,-6.582169,0.000000,0.002548,0.000000,0.000000,-0.003000,-0.021000,0.031000,-0.030000,-0.430000,0.650000,-0.319005,Hold,0.917969,0.000000,Hold,-202.000000,2.000000,LowGoal,-309.814453,2181.818182,Speed,-306.518555,2181.818182,Speed,Off,Off0.000000,0,,,,
08:48:41.733 PM 03/17/2016,Teleop Enabled,10,FALSE,0,NO ERROR,-0.000000,0.000000,0.000000,-0.436332,TRUE,FALSE,TRUE,FALSE,FALSE,FALSE,Disabled,0.000000,0.000000,0.000000,TRUE,-2.710449,-6.583008,0.000000,-0.040588,-0.023682,0.000000,-0.038000,-0.023000,-0.017000,-0.030000,-0.400000,0.660000,-0.336056,Hold,0.917969,0.000000,Hold,-202.000000,2.000000,LowGoal,-309.814453,2181.818182,Speed,-305.419922,2181.818182,Speed,Off,Off0.000000,0,,,,
08:48:41.834 PM 03/17/2016,Teleop Enabled,9,FALSE,0,NO ERROR,-0.000000,0.000000,0.000000,-0.436332,TRUE,FALSE,TRUE,FALSE,FALSE,FALSE,Disabled,0.000000,0.000000,0.000000,TRUE,-2.713348,-6.585907,0.000000,-0.029770,-0.061340,0.000000,0.071000,0.014000,0.067000,-0.030000,-0.370000,0.680000,-0.331219,Hold,0.917969,0.000000,Hold,-202.000000,2.000000,LowGoal,-309.814453,2181.818182,Speed,-306.518555,2181.818182,Speed,Off,Off0.000000,0,,,,
08:48:41.935 PM 03/17/2016,Teleop Enabled,9,FALSE,0,NO ERROR,-0.000000,0.000000,0.000000,-0.436332,TRUE,FALSE,TRUE,FALSE,FALSE,FALSE,Disabled,0.000000,0.000000,0.000000,TRUE,-2.713654,-6.587723,0.000000,0.000000,-0.015839,0.000000,-0.003000,0.063000,0.061000,-0.030000,-0.370000,0.670000,-0.335002,Hold,0.917969,0.000000,Hold,-202.000000,2.000000,LowGoal,-309.814453,2181.818182,Speed,-308.715820,2181.818182,Speed,Off,Off0.000000,0,,,,
08:48:42.036 PM 03/17/2016,Teleop Enabled,9,FALSE,0,NO ERROR,-0.000000,0.000000,0.000000,-0.436332,TRUE,FALSE,TRUE,FALSE,FALSE,FALSE,Disabled,0.000000,0.000000,0.000000,TRUE,-2.712234,-6.586441,0.000000,0.056442,0.052017,0.000000,0.086000,0.104000,-0.022000,-0.030000,-0.350000,0.660000,-0.345024,Hold,0.917969,0.000000,Hold,-202.000000,2.000000,LowGoal,-310.913086,2181.818182,Speed,-307.617188,2181.818182,Speed,Off,Off0.000000,0,,,,
08:48:42.136 PM 03/17/2016,Teleop Enabled,9,FALSE,0,NO ERROR,-0.000000,0.000000,0.000000,-0.436332,TRUE,FALSE,TRUE,FALSE,FALSE,FALSE,Disabled,0.000000,0.000000,0.000000,TRUE,-2.709778,-6.582932,0.000000,0.014297,0.057831,0.000000,-0.062000,-0.086000,-0.011000,-0.030000,-0.380000,0.650000,-0.343939,Hold,0.917969,0.000000,Hold,-202.000000,2.000000,LowGoal,-310.913086,2181.818182,Speed,-305.419922,2181.818182,Speed,Off,Off0.000000,0,,,,
08:48:42.237 PM 03/17/2016,Teleop Enabled,9,FALSE,0,NO ERROR,-0.000000,0.000000,0.000000,-0.436332,TRUE,FALSE,TRUE,FALSE,FALSE,FALSE,Disabled,0.000000,0.000000,0.000000,TRUE,-2.710495,-6.581650,0.000000,-0.027451,0.010284,0.000000,0.018000,-0.084000,-0.036000,-0.030000,-0.370000,0.690000,-0.355152,Hold,0.917969,0.000000,Hold,-202.000000,2.000000,LowGoal,-309.814453,2181.818182,Speed,-305.419922,2181.818182,Speed,Off,Off0.000000,0,,,,
08:48:42.337 PM 03/17/2016,Teleop Enabled,12,FALSE,0,NO ERROR,-0.000000,0.000000,0.000000,-0.436332,TRUE,FALSE,TRUE,FALSE,FALSE,FALSE,Disabled,0.000000,0.000000,0.000000,TRUE,-2.711258,-6.582870,0.000000,-0.001389,-0.048721,0.000000,0.099000,0.118000,0.007000,-0.030000,-0.400000,0.660000,-0.359537,Hold,0.917969,0.000000,Hold,-202.000000,2.000000,LowGoal,-310.913086,2181.818182,Speed,-305.419922,2181.818182,Speed,Off,Off0.000000,0,,,,
08:48:42.437 PM 03/17/2016,Teleop Enabled,9,FALSE,0,NO ERROR,-0.000000,0.000000,0.000000,-0.436332,TRUE,FALSE,TRUE,FALSE,FALSE,FALSE,Disabled,0.000000,0.000000,0.000000,TRUE,-2.709534,-6.583450,0.000000,0.043503,0.030975,0.000000,0.058000,0.190000,0.114000,-0.030000,-0.390000,0.640000,-0.360426,Hold,0.917969,0.000000,Hold,-202.000000,2.000000,LowGoal,-310.913086,2181.818182,Speed,-305.419922,2181.818182,Speed,Off,Off0.000000,0,,,,
08:48:42.537 PM 03/17/2016,Teleop Enabled,10,FALSE,0,NO ERROR,-0.000000,0.000000,0.000000,-0.436332,TRUE,FALSE,TRUE,FALSE,FALSE,FALSE,Disabled,0.000000,0.000000,0.000000,TRUE,-2.705948,-6.575851,0.000000,0.069244,0.175003,0.000000,-0.068000,-0.051000,0.072000,-0.030000,-0.370000,0.620000,-0.373975,Hold,0.917969,0.000000,Hold,-202.000000,2.000000,LowGoal,-309.814453,2181.818182,Speed,-305.419922,2181.818182,Speed,Off,Off0.000000,0,,,,
08:48:42.638 PM 03/17/2016,Teleop Enabled,10,FALSE,0,NO ERROR,-0.000000,0.000000,0.000000,-0.436332,TRUE,FALSE,TRUE,FALSE,FALSE,FALSE,Disabled,0.000000,0.000000,0.000000,TRUE,-2.705765,-6.568085,0.000000,-0.035461,0.130447,0.000000,0.033000,-0.042000,-0.010000,-0.030000,-0.430000,0.640000,-0.384568,Hold,0.917969,0.000000,Hold,-202.000000,2.000000,LowGoal,-309.814453,2181.818182,Speed,-305.419922,2181.818182,Speed,Off,Off0.000000,0,,,,
08:48:42.738 PM 03/17/2016,Teleop Enabled,11,FALSE,0,NO ERROR,-0.000000,0.000000,0.000000,-0.436332,TRUE,FALSE,TRUE,FALSE,FALSE,FALSE,Disabled,0.000000,0.000000,0.000000,TRUE,-2.706757,-6.563110,0.000000,-0.002625,0.055649,0.000000,0.047000,-0.061000,-0.030000,-0.030000,-0.380000,0.660000,-0.401650,Hold,0.917969,0.000000,Hold,-202.000000,2.000000,LowGoal,-310.913086,2181.818182,Speed,-306.518555,2181.818182,Speed,Off,Off0.000000,0,,,,
08:48:42.839 PM 03/17/2016,Teleop Enabled,9,FALSE,0,NO ERROR,-0.000000,0.000000,0.000000,-0.436332,TRUE,FALSE,TRUE,FALSE,FALSE,FALSE,Disabled,0.000000,0.000000,0.000000,TRUE,-2.706177,-6.561859,0.000000,0.020905,0.023087,0.000000,0.092000,0.066000,0.047000,-0.030000,-0.440000,0.640000,-0.420374,Hold,0.917969,0.000000,Hold,-202.000000,2.000000,LowGoal,-310.913086,2181.818182,Speed,-306.518555,2181.818182,Speed,Off,Off0.000000,0,,,,
08:48:42.942 PM 03/17/2016,Teleop Enabled,11,FALSE,0,NO ERROR,-0.000000,0.000000,0.000000,-0.436332,TRUE,FALSE,TRUE,FALSE,FALSE,FALSE,Disabled,0.000000,0.000000,0.000000,TRUE,-2.704712,-6.558823,0.000000,0.027634,0.091522,0.000000,-0.030000,-0.002000,0.052000,-0.030000,-0.420000,0.630000,-0.419951,Hold,0.917969,0.000000,Hold,-202.000000,2.000000,LowGoal,-309.814453,2181.818182,Speed,-305.419922,2181.818182,Speed,Off,Off0.000000,0,,,,
08:48:43.041 PM 03/17/2016,Teleop Enabled,8,FALSE,0,NO ERROR,-0.000000,0.000000,0.000000,-0.436332,TRUE,FALSE,TRUE,FALSE,FALSE,FALSE,Disabled,0.000000,0.000000,0.000000,TRUE,-2.703293,-6.552734,0.000000,0.000000,0.160660,0.000000,-0.048000,-0.014000,0.036000,-0.030000,-0.390000,0.610000,-0.416419,Hold,0.917969,0.000000,Hold,-202.000000,2.000000,LowGoal,-310.913086,2181.818182,Speed,-305.419922,2181.818182,Speed,Off,Off0.000000,0,,,,
08:48:43.141 PM 03/17/2016,Teleop Enabled,9,FALSE,0,NO ERROR,-0.000000,0.000000,0.000000,-0.436332,TRUE,FALSE,TRUE,FALSE,FALSE,FALSE,Disabled,0.000000,0.000000,0.000000,TRUE,-2.705032,-6.544556,0.000000,-0.048462,0.148102,0.000000,-0.036000,0.011000,-0.034000,-0.040000,-0.400000,0.620000,-0.413909,Hold,0.917969,0.000000,Hold,-202.000000,2.000000,LowGoal,-310.913086,2181.818182,Speed,-305.419922,2181.818182,Speed,Off,Off0.000000,0,,,,
08:48:43.242 PM 03/17/2016,Teleop Enabled,11,FALSE,0,NO ERROR,-0.000000,0.000000,0.000000,-0.436332,TRUE,FALSE,TRUE,FALSE,FALSE,FALSE,Disabled,0.000000,0.000000,0.000000,TRUE,-2.708145,-6.536087,0.000000,0.000000,0.116180,0.000000,0.107000,-0.070000,0.048000,-0.030000,-0.400000,0.640000,-0.431266,Hold,0.917969,0.000000,Hold,-202.000000,2.000000,LowGoal,-310.913086,2181.818182,Speed,-305.419922,2181.818182,Speed,Off,Off0.000000,0,,,,
08:48:43.343 PM 03/17/2016,Teleop Enabled,9,FALSE,0,NO ERROR,-0.000000,0.000000,0.000000,-0.436332,TRUE,FALSE,TRUE,FALSE,FALSE,FALSE,Disabled,0.000000,0.000000,0.000000,TRUE,-2.706329,-6.530640,0.000000,0.052216,0.125580,0.000000,-0.064000,0.066000,0.111000,-0.040000,-0.360000,0.650000,-0.437177,Hold,0.917969,0.000000,Hold,-202.000000,2.000000,LowGoal,-312.011719,2181.818182,Speed,-305.419922,2181.818182,Speed,Off,Off0.000000,0,,,,
08:48:43.444 PM 03/17/2016,Teleop Enabled,10,FALSE,0,NO ERROR,-0.000000,0.000000,0.000000,-0.436332,TRUE,FALSE,TRUE,FALSE,FALSE,FALSE,Disabled,0.000000,0.000000,0.000000,TRUE,-2.704575,-6.524933,0.000000,0.048630,0.157898,0.000000,0.091000,0.093000,0.047000,-0.030000,-0.420000,0.610000,-0.436819,Hold,0.917969,0.000000,Hold,-202.000000,2.000000,LowGoal,-310.913086,2181.818182,Speed,-306.518555,2181.818182,Speed,Off,Off0.000000,0,,,,
08:48:43.544 PM 03/17/2016,Teleop Enabled,10,FALSE,0,NO ERROR,-0.000000,0.000000,0.000000,-0.436332,TRUE,FALSE,TRUE,FALSE,FALSE,FALSE,Disabled,0.000000,0.000000,0.000000,TRUE,-2.699600,-6.512833,0.000000,0.067978,0.202042,0.000000,-0.068000,-0.002000,-0.028000,-0.040000,-0.380000,0.610000,-0.439374,Hold,0.917969,0.000000,Hold,-202.000000,2.000000,LowGoal,-310.913086,2181.818182,Speed,-306.518555,2181.818182,Speed,Off,Off0.000000,0,,,,
08:48:43.644 PM 03/17/2016,Teleop Enabled,9,FALSE,0,NO ERROR,-0.000000,0.000000,0.000000,-0.436332,TRUE,FALSE,TRUE,FALSE,FALSE,FALSE,Disabled,0.000000,0.000000,0.000000,TRUE,-2.697723,-6.503830,0.000000,0.026993,0.159348,0.000000,-0.004000,-0.040000,-0.099000,-0.040000,-0.350000,0.640000,-0.444093,Hold,0.917969,0.000000,Hold,-202.000000,2.000000,LowGoal,-309.814453,2181.818182,Speed,-306.518555,2181.818182,Speed,Off,Off0.000000,0,,,,
08:48:43.744 PM 03/17/2016,Teleop Enabled,10,FALSE,0,NO ERROR,-0.000000,0.000000,0.000000,-0.436332,TRUE,FALSE,TRUE,FALSE,FALSE,FALSE,Disabled,0.000000,0.000000,0.000000,TRUE,-2.696747,-6.497498,0.000000,0.034088,0.106094,0.000000,0.092000,0.008000,-0.018000,-0.040000,-0.340000,0.660000,-0.450927,Hold,0.917969,0.000000,Hold,-202.000000,2.000000,LowGoal,-309.814453,2181.818182,Speed,-305.419922,2181.818182,Speed,Off,Off0.000000,0,,,,
08:48:43.844 PM 03/17/2016,Teleop Enabled,10,FALSE,0,NO ERROR,-0.000000,0.000000,0.000000,-0.436332,TRUE,FALSE,TRUE,FALSE,FALSE,FALSE,Disabled,0.000000,0.000000,0.000000,TRUE,-2.692978,-6.490753,0.000000,0.093979,0.184174,0.000000,-0.009000,0.147000,0.125000,-0.040000,-0.300000,0.630000,-0.455468,Hold,0.917969,0.000000,Hold,-202.000000,2.000000,LowGoal,-309.814453,2181.818182,Speed,-306.518555,2181.818182,Speed,Off,Off0.000000,0,,,,
08:48:43.945 PM 03/17/2016,Teleop Enabled,11,FALSE,0,NO ERROR,-0.000000,0.000000,0.000000,-0.436332,TRUE,FALSE,TRUE,FALSE,FALSE,FALSE,Disabled,0.000000,0.000000,0.000000,TRUE,-2.688019,-6.477463,0.000000,0.114578,0.311905,0.000000,-0.007000,0.111000,0.060000,-0.040000,-0.340000,0.610000,-0.426650,Hold,0.917969,0.000000,Hold,-202.000000,2.000000,LowGoal,-310.913086,2181.818182,Speed,-306.518555,2181.818182,Speed,Off,Off0.000000,0,,,,
08:48:44.046 PM 03/17/2016,Teleop Enabled,11,FALSE,0,NO ERROR,-0.000000,0.000000,0.000000,-0.436332,TRUE,FALSE,TRUE,FALSE,FALSE,FALSE,Disabled,0.000000,0.000000,0.000000,TRUE,-2.683228,-6.460037,0.000000,0.064178,0.339355,0.000000,-0.032000,-0.125000,0.040000,-0.040000,-0.290000,0.650000,-0.424306,Hold,0.917969,0.000000,Hold,-202.000000,2.000000,LowGoal,-310.913086,2181.818182,Speed,-305.419922,2181.818182,Speed,Off,Off0.000000,0,,,,
08:48:44.147 PM 03/17/2016,Teleop Enabled,11,FALSE,0,NO ERROR,-0.000000,0.000000,0.000000,-0.436332,TRUE,FALSE,TRUE,FALSE,FALSE,FALSE,Disabled,0.000000,0.000000,0.000000,TRUE,-2.681091,-6.445267,0.000000,0.031616,0.277832,0.000000,0.009000,-0.061000,-0.039000,-0.030000,-0.330000,0.660000,-0.436151,Hold,0.917969,0.000000,Hold,-202.000000,2.000000,LowGoal,-310.913086,2181.818182,Speed,-305.419922,2181.818182,Speed,Off,Off0.000000,0,,,,
08:48:44.251 PM 03/17/2016,Teleop Enabled,10,FALSE,0,NO ERROR,-0.000000,0.000000,0.000000,-0.436332,TRUE,FALSE,TRUE,FALSE,FALSE,FALSE,Disabled,0.000000,0.000000,0.000000,TRUE,-2.680176,-6.433334,0.000000,0.045349,0.211807,0.000000,0.052000,0.156000,0.051000,-0.030000,-0.330000,0.650000,-0.465300,Hold,0.917969,0.000000,Hold,-202.000000,2.000000,LowGoal,-309.814453,2181.818182,Speed,-306.518555,2181.818182,Speed,Off,Off0.000000,0,,,,
08:48:44.352 PM 03/17/2016,Teleop Enabled,11,FALSE,0,NO ERROR,-0.000000,0.000000,0.000000,-0.436332,TRUE,FALSE,TRUE,FALSE,FALSE,FALSE,Disabled,0.000000,0.000000,0.000000,TRUE,-2.676315,-6.417664,0.000000,0.058884,0.283157,0.000000,-0.033000,0.055000,0.089000,-0.040000,-0.320000,0.640000,-0.487862,Hold,0.917969,0.000000,Hold,-202.000000,2.000000,LowGoal,-310.913086,2181.818182,Speed,-306.518555,2181.818182,Speed,Off,Off0.000000,0,,,,
08:48:44.452 PM 03/17/2016,Teleop Enabled,10,FALSE,0,NO ERROR,-0.000000,0.000000,0.000000,-0.436332,TRUE,FALSE,TRUE,FALSE,FALSE,FALSE,Disabled,0.000000,0.000000,0.000000,TRUE,-2.673340,-6.404602,0.000000,0.088715,0.356140,0.000000,-0.107000,-0.016000,-0.018000,-0.040000,-0.330000,0.640000,-0.479586,Hold,0.917969,0.000000,Hold,-202.000000,2.000000,LowGoal,-310.913086,2181.818182,Speed,-305.419922,2181.818182,Speed,Off,Off0.000000,0,,,,
08:48:44.552 PM 03/17/2016,Teleop Enabled,11,FALSE,0,NO ERROR,-0.000000,0.000000,0.000000,-0.436332,TRUE,FALSE,TRUE,FALSE,FALSE,FALSE,Disabled,0.000000,0.000000,0.000000,TRUE,-2.670502,-6.383881,0.000000,0.042572,0.327591,0.000000,0.022000,-0.003000,-0.078000,-0.030000,-0.300000,0.650000,-0.482623,Hold,0.917969,0.000000,Hold,-202.000000,2.000000,LowGoal,-310.913086,2181.818182,Speed,-305.419922,2181.818182,Speed,Off,Off0.000000,0,,,,
08:48:44.653 PM 03/17/2016,Teleop Enabled,12,FALSE,0,NO ERROR,-0.000000,0.000000,0.000000,-0.436332,TRUE,FALSE,TRUE,FALSE,FALSE,FALSE,Disabled,0.000000,0.000000,0.000000,TRUE,-2.669281,-6.367569,0.000000,0.010590,0.310837,0.000000,0.027000,-0.020000,0.082000,-0.030000,-0.350000,0.660000,-0.475703,Hold,0.917969,0.000000,Hold,-202.000000,2.000000,LowGoal,-310.913086,2181.818182,Speed,-305.419922,2181.818182,Speed,Off,Off0.000000,0,,,,
08:48:44.754 PM 03/17/2016,Teleop Enabled,11,FALSE,0,NO ERROR,-0.000000,0.000000,0.000000,-0.436332,TRUE,FALSE,TRUE,FALSE,FALSE,FALSE,Disabled,0.000000,0.000000,0.000000,TRUE,-2.667480,-6.351547,0.000000,0.062576,0.348145,0.000000,0.066000,0.062000,0.096000,-0.040000,-0.320000,0.660000,-0.478240,Hold,0.917969,0.000000,Hold,-202.000000,2.000000,LowGoal,-309.814453,2181.818182,Speed,-305.419922,2181.818182,Speed,Off,Off0.000000,0,,,,
08:48:44.855 PM 03/17/2016,Teleop Enabled,11,FALSE,0,NO ERROR,-0.000000,0.000000,0.000000,-0.436332,TRUE,FALSE,TRUE,FALSE,FALSE,FALSE,Disabled,0.000000,0.000000,0.000000,TRUE,-2.664246,-6.332825,0.000000,0.066376,0.396042,0.000000,0.082000,0.109000,0.043000,-0.040000,-0.400000,0.630000,-0.498988,Hold,0.917969,0.000000,Hold,-202.000000,2.000000,LowGoal,-310.913086,2181.818182,Speed,-305.419922,2181.818182,Speed,Off,Off0.000000,0,,,,
08:48:44.955 PM 03/17/2016,Teleop Enabled,11,FALSE,0,NO ERROR,-0.000000,0.000000,0.000000,-0.436332,TRUE,FALSE,TRUE,FALSE,FALSE,FALSE,Disabled,0.000000,0.000000,0.000000,TRUE,-2.660095,-6.311188,0.000000,0.062683,0.435791,0.000000,-0.037000,-0.056000,-0.051000,-0.040000,-0.390000,0.650000,-0.512263,Hold,0.917969,0.000000,Hold,-202.000000,2.000000,LowGoal,-310.913086,2181.818182,Speed,-305.419922,2181.818182,Speed,Off,Off0.000000,0,,,,
08:48:45.057 PM 03/17/2016,Teleop Enabled,11,FALSE,0,NO ERROR,-0.000000,0.000000,0.000000,-0.436332,TRUE,FALSE,TRUE,FALSE,FALSE,FALSE,Disabled,0.000000,0.000000,0.000000,TRUE,-2.658386,-6.290894,0.000000,0.016235,0.382629,0.000000,-0.049000,-0.052000,-0.071000,-0.030000,-0.380000,0.670000,-0.504830,Hold,0.917969,0.000000,Hold,-202.000000,2.000000,LowGoal,-310.913086,2181.818182,Speed,-306.518555,2181.818182,Speed,Off,Off0.000000,0,,,,
08:48:45.157 PM 03/17/2016,Teleop Enabled,10,FALSE,0,NO ERROR,-0.000000,0.000000,0.000000,-0.436332,TRUE,FALSE,TRUE,FALSE,FALSE,FALSE,Disabled,0.000000,0.000000,0.000000,TRUE,-2.658997,-6.273285,0.000000,-0.011536,0.330338,0.000000,0.017000,-0.041000,-0.030000,-0.030000,-0.390000,0.680000,-0.516663,Hold,0.917969,0.000000,Hold,-202.000000,2.000000,LowGoal,-310.913086,2181.818182,Speed,-305.419922,2181.818182,Speed,Off,Off0.000000,0,,,,
08:48:45.257 PM 03/17/2016,Teleop Enabled,10,FALSE,0,NO ERROR,-0.000000,0.000000,0.000000,-0.436332,TRUE,FALSE,TRUE,FALSE,FALSE,FALSE,Disabled,0.000000,0.000000,0.000000,TRUE,-2.658218,-6.256241,0.000000,0.034302,0.381989,0.000000,-0.002000,0.116000,0.111000,-0.030000,-0.400000,0.660000,-0.514649,Hold,0.917969,0.000000,Hold,-202.000000,2.000000,LowGoal,-310.913086,2181.818182,Speed,-305.419922,2181.818182,Speed,Off,Off0.000000,0,,,,
08:48:45.357 PM 03/17/2016,Teleop Enabled,11,FALSE,0,NO ERROR,-0.000000,0.000000,0.000000,-0.436332,TRUE,FALSE,TRUE,FALSE,FALSE,FALSE,Disabled,0.000000,0.000000,0.000000,TRUE,-2.657516,-6.233582,0.000000,0.023758,0.502350,0.000000,-0.056000,0.177000,0.069000,-0.030000,-0.420000,0.630000,-0.523176,Hold,0.917969,0.000000,Hold,-202.000000,2.000000,LowGoal,-310.913086,2181.818182,Speed,-305.419922,2181.818182,Speed,Off,Off0.000000,0,,,,
08:48:45.457 PM 03/17/2016,Teleop Enabled,10,FALSE,0,NO ERROR,-0.000000,0.000000,0.000000,-0.436332,TRUE,FALSE,TRUE,FALSE,FALSE,FALSE,Disabled,0.000000,0.000000,0.000000,TRUE,-2.658585,-6.200974,0.000000,-0.058929,0.524612,0.000000,-0.064000,-0.103000,0.102000,-0.030000,-0.440000,0.650000,-0.511234,Hold,0.917969,0.000000,Hold,-202.000000,2.000000,LowGoal,-310.913086,2181.818182,Speed,-305.419922,2181.818182,Speed,Off,Off0.000000,0,,,,
08:48:45.557 PM 03/17/2016,Teleop Enabled,10,FALSE,0,NO ERROR,-0.000000,0.000000,0.000000,-0.436332,TRUE,FALSE,TRUE,FALSE,FALSE,FALSE,Disabled,0.000000,0.000000,0.000000,TRUE,-2.662384,-6.176849,0.000000,-0.086655,0.460358,0.000000,-0.037000,-0.023000,-0.077000,-0.030000,-0.430000,0.680000,-0.523499,Hold,0.917969,0.000000,Hold,-202.000000,2.000000,LowGoal,-310.913086,2181.818182,Speed,-305.419922,2181.818182,Speed,Off,Off0.000000,0,,,,
08:48:45.657 PM 03/17/2016,Teleop Enabled,11,FALSE,0,NO ERROR,-0.000000,0.000000,0.000000,-0.436332,TRUE,FALSE,TRUE,FALSE,FALSE,FALSE,Disabled,0.000000,0.000000,0.000000,TRUE,-2.666061,-6.155334,0.000000,-0.048111,0.421158,0.000000,0.114000,0.031000,0.013000,-0.030000,-0.420000,0.690000,-0.537497,Hold,0.917969,0.000000,Hold,-202.000000,2.000000,LowGoal,-310.913086,2181.818182,Speed,-305.419922,2181.818182,Speed,Off,Off0.000000,0,,,,
08:48:45.757 PM 03/17/2016,Teleop Enabled,11,FALSE,0,NO ERROR,-0.000000,0.000000,0.000000,-0.436332,TRUE,FALSE,TRUE,FALSE,FALSE,FALSE,Disabled,0.000000,0.000000,0.000000,TRUE,-2.667038,-6.133102,0.000000,0.000000,0.457199,0.000000,-0.014000,0.067000,0.089000,-0.030000,-0.450000,0.650000,-0.534722,Hold,0.917969,0.000000,Hold,-202.000000,2.000000,LowGoal,-309.814453,2181.818182,Speed,-305.419922,2181.818182,Speed,Off,Off0.000000,0,,,,
08:48:45.857 PM 03/17/2016,Teleop Enabled,10,FALSE,0,NO ERROR,-0.000000,0.000000,0.000000,-0.436332,TRUE,FALSE,TRUE,FALSE,FALSE,FALSE,Disabled,0.000000,0.000000,0.000000,TRUE,-2.666367,-6.108353,0.000000,0.017166,0.526489,0.000000,-0.077000,0.027000,-0.040000,-0.040000,-0.390000,0.670000,-0.550792,Hold,0.917969,0.000000,Hold,-202.000000,2.000000,LowGoal,-310.913086,2181.818182,Speed,-306.518555,2181.818182,Speed,Off,Off0.000000,0,,,,
08:48:45.959 PM 03/17/2016,Teleop Enabled,11,FALSE,0,NO ERROR,-0.000000,0.000000,0.000000,-0.436332,TRUE,FALSE,TRUE,FALSE,FALSE,FALSE,Disabled,0.000000,0.000000,0.000000,TRUE,-2.667969,-6.082977,0.000000,-0.051544,0.484116,0.000000,0.053000,0.006000,-0.046000,-0.030000,-0.440000,0.650000,-0.560173,Hold,0.917969,0.000000,Hold,-202.000000,2.000000,LowGoal,-310.913086,2181.818182,Speed,-305.419922,2181.818182,Speed,Off,Off0.000000,0,,,,
08:48:46.059 PM 03/17/2016,Teleop Enabled,11,FALSE,0,NO ERROR,-0.000000,0.000000,0.000000,-0.436332,TRUE,FALSE,TRUE,FALSE,FALSE,FALSE,Disabled,0.000000,0.000000,0.000000,TRUE,-2.670517,-6.059464,0.000000,-0.059570,0.458588,0.000000,-0.041000,0.060000,-0.041000,-0.030000,-0.410000,0.670000,-0.565323,Hold,0.917969,0.000000,Hold,-202.000000,2.000000,LowGoal,-310.913086,2181.818182,Speed,-305.419922,2181.818182,Speed,Off,Off0.000000,0,,,,
08:48:46.159 PM 03/17/2016,Teleop Enabled,11,FALSE,0,NO ERROR,-0.000000,0.000000,0.000000,-0.436332,TRUE,FALSE,TRUE,FALSE,FALSE,FALSE,Disabled,0.000000,0.000000,0.000000,TRUE,-2.673126,-6.035980,0.000000,-0.030640,0.487289,0.000000,0.111000,0.103000,0.168000,-0.030000,-0.480000,0.660000,-0.576904,Hold,0.917969,0.000000,Hold,-202.000000,2.000000,LowGoal,-310.913086,2181.818182,Speed,-305.419922,2181.818182,Speed,Off,Off0.000000,0,,,,
08:48:46.260 PM 03/17/2016,Teleop Enabled,10,FALSE,0,NO ERROR,-0.000000,0.000000,0.000000,-0.436332,TRUE,FALSE,TRUE,FALSE,FALSE,FALSE,Disabled,0.000000,0.000000,0.000000,TRUE,-2.673462,-6.009079,0.000000,0.000244,0.565979,0.000000,-0.033000,0.059000,0.058000,-0.030000,-0.440000,0.640000,-0.577303,Hold,0.917969,0.000000,Hold,-202.000000,2.000000,LowGoal,-310.913086,2181.818182,Speed,-305.419922,2181.818182,Speed,Off,Off0.000000,0,,,,
08:48:46.361 PM 03/17/2016,Teleop Enabled,11,FALSE,0,NO ERROR,-0.000000,0.000000,0.000000,-0.436332,TRUE,FALSE,TRUE,FALSE,FALSE,FALSE,Disabled,0.000000,0.000000,0.000000,TRUE,-2.674133,-5.979462,0.000000,-0.042297,0.599075,0.000000,0.004000,-0.006000,-0.011000,-0.030000,-0.470000,0.620000,-0.586278,Hold,0.917969,0.000000,Hold,-202.000000,2.000000,LowGoal,-310.913086,2181.818182,Speed,-305.419922,2181.818182,Speed,Off,Off0.000000,0,,,,
08:48:46.462 PM 03/17/2016,Teleop Enabled,11,FALSE,0,NO ERROR,-0.000000,0.000000,0.000000,-0.436332,TRUE,FALSE,TRUE,FALSE,FALSE,FALSE,Disabled,0.000000,0.000000,0.000000,TRUE,-2.677261,-5.946045,0.000000,-0.046295,0.520477,0.000000,-0.064000,-0.001000,-0.115000,-0.030000,-0.420000,0.650000,-0.579957,Hold,0.917969,0.000000,Hold,-202.000000,2.000000,LowGoal,-310.913086,2181.818182,Speed,-306.518555,2181.818182,Speed,Off,Off0.000000,0,,,,
08:48:46.563 PM 03/17/2016,Teleop Enabled,10,FALSE,0,NO ERROR,-0.000000,0.000000,0.000000,-0.436332,TRUE,FALSE,TRUE,FALSE,FALSE,FALSE,Disabled,0.000000,0.000000,0.000000,TRUE,-2.680573,-5.947403,0.000000,-0.060501,-0.061005,0.000000,0.049000,-0.094000,0.048000,-0.030000,-0.420000,0.670000,-0.557953,Hold,0.917969,0.000000,Hold,-202.000000,2.000000,LowGoal,-310.913086,2181.818182,Speed,-306.518555,2181.818182,Speed,Off,Off0.000000,0,,,,
08:48:46.663 PM 03/17/2016,Teleop Enabled,10,FALSE,0,NO ERROR,-0.000000,0.000000,0.000000,-0.436332,TRUE,FALSE,TRUE,FALSE,FALSE,FALSE,Disabled,0.000000,0.000000,0.000000,TRUE,-2.682159,-5.950043,0.000000,-0.022964,-0.026749,0.000000,-0.091000,0.016000,0.068000,-0.030000,-0.420000,0.660000,-0.565437,Hold,0.917969,0.000000,Hold,-202.000000,2.000000,LowGoal,-310.913086,2181.818182,Speed,-305.419922,2181.818182,Speed,Off,Off0.000000,0,,,,
08:48:46.763 PM 03/17/2016,Teleop Enabled,9,FALSE,0,NO ERROR,-0.000000,0.000000,0.000000,-0.436332,TRUE,FALSE,TRUE,FALSE,FALSE,FALSE,Disabled,0.000000,0.000000,0.000000,TRUE,-2.683197,-5.949188,0.000000,0.002640,0.063416,0.000000,-0.004000,0.212000,0.040000,-0.030000,-0.450000,0.600000,-0.580367,Hold,0.917969,0.000000,Hold,-202.000000,2.000000,LowGoal,-310.913086,2181.818182,Speed,-305.419922,2181.818182,Speed,Off,Off0.000000,0,,,,
08:48:46.864 PM 03/17/2016,Teleop Enabled,9,FALSE,0,NO ERROR,-0.000000,0.000000,0.000000,-0.436332,TRUE,FALSE,TRUE,FALSE,FALSE,FALSE,Disabled,0.000000,0.000000,0.000000,TRUE,-2.684448,-5.943008,0.000000,-0.064972,0.123871,0.000000,-0.104000,-0.024000,0.057000,-0.030000,-0.440000,0.620000,-0.581641,Hold,0.917969,0.000000,Hold,-202.000000,2.000000,LowGoal,-310.913086,2181.818182,Speed,-305.419922,2181.818182,Speed,Off,Off0.000000,0,,,,
08:48:46.965 PM 03/17/2016,Teleop Enabled,9,FALSE,0,NO ERROR,-0.000000,0.000000,0.000000,-0.436332,TRUE,FALSE,TRUE,FALSE,FALSE,FALSE,Disabled,0.000000,0.000000,0.000000,TRUE,-2.687057,-5.937744,0.000000,-0.005676,0.087265,0.000000,-0.048000,-0.063000,-0.016000,-0.030000,-0.390000,0.640000,-0.609240,Hold,0.917969,0.000000,Hold,-202.000000,2.000000,LowGoal,-310.913086,2181.818182,Speed,-306.518555,2181.818182,Speed,Off,Off0.000000,0,,,,
08:48:47.066 PM 03/17/2016,Teleop Enabled,9,FALSE,0,NO ERROR,-0.000000,0.000000,0.000000,-0.436332,TRUE,FALSE,TRUE,FALSE,FALSE,FALSE,Disabled,0.000000,0.000000,0.000000,TRUE,-2.688538,-5.935394,0.000000,-0.021439,0.000000,0.000000,-0.048000,-0.063000,-0.016000,-0.030000,-0.400000,0.660000,-0.615633,Hold,0.917969,0.000000,Hold,-202.000000,2.000000,LowGoal,-310.913086,2181.818182,Speed,-306.518555,2181.818182,Speed,Off,Off0.000000,0,,,,
08:48:47.166 PM 03/17/2016,Teleop Enabled,11,FALSE,0,NO ERROR,-0.000000,0.000000,0.000000,-0.436332,TRUE,FALSE,TRUE,FALSE,FALSE,FALSE,Disabled,0.000000,0.000000,0.000000,TRUE,-2.688156,-5.934219,0.000000,0.020996,0.051865,0.000000,0.067000,-0.005000,-0.017000,-0.040000,-0.380000,0.640000,-0.629461,Hold,0.917969,0.000000,Hold,-202.000000,2.000000,LowGoal,-310.913086,2181.818182,Speed,-305.419922,2181.818182,Speed,Off,Off0.000000,0,,,,
08:48:47.266 PM 03/17/2016,Teleop Enabled,10,FALSE,0,NO ERROR,-0.000000,0.000000,0.000000,-0.436332,TRUE,FALSE,TRUE,FALSE,FALSE,FALSE,Disabled,0.000000,0.000000,0.000000,TRUE,-2.685623,-5.929779,0.000000,0.066437,0.120499,0.000000,0.044000,0.065000,0.006000,-0.040000,-0.380000,0.630000,-0.635190,Hold,0.917969,0.000000,Hold,-202.000000,2.000000,LowGoal,-310.913086,2181.818182,Speed,-306.518555,2181.818182,Speed,Off,Off0.000000,0,,,,
08:48:47.367 PM 03/17/2016,Teleop Enabled,9,FALSE,0,NO ERROR,-0.000000,0.000000,0.000000,-0.436332,TRUE,FALSE,TRUE,FALSE,FALSE,FALSE,Disabled,0.000000,0.000000,0.000000,TRUE,-2.683914,-5.922943,0.000000,0.006821,0.124680,0.000000,-0.077000,0.075000,0.042000,-0.030000,-0.360000,0.660000,-0.634684,Hold,0.917969,0.000000,Hold,-202.000000,2.000000,LowGoal,-310.913086,2181.818182,Speed,-305.419922,2181.818182,Speed,Off,Off0.000000,0,,,,
08:48:47.468 PM 03/17/2016,Teleop Enabled,9,FALSE,0,NO ERROR,-0.000000,0.000000,0.000000,-0.436332,TRUE,FALSE,TRUE,FALSE,FALSE,FALSE,Disabled,0.000000,0.000000,0.000000,TRUE,-2.684586,-5.918564,0.000000,-0.026764,0.071198,0.000000,-0.010000,-0.066000,-0.046000,-0.030000,-0.410000,0.680000,-0.647356,Hold,0.917969,0.000000,Hold,-202.000000,2.000000,LowGoal,-310.913086,2181.818182,Speed,-305.419922,2181.818182,Speed,Off,Off0.000000,0,,,,
08:48:47.569 PM 03/17/2016,Teleop Enabled,9,FALSE,0,NO ERROR,-0.000000,0.000000,0.000000,-0.436332,TRUE,FALSE,TRUE,FALSE,FALSE,FALSE,Disabled,0.000000,0.000000,0.000000,TRUE,-2.685577,-5.916336,0.000000,0.000595,0.037308,0.000000,-0.010000,-0.066000,-0.046000,-0.030000,-0.380000,0.670000,-0.654709,Hold,0.917969,0.000000,Hold,-202.000000,2.000000,LowGoal,-310.913086,2181.818182,Speed,-306.518555,2181.818182,Speed,Off,Off0.000000,0,,,,
08:48:47.668 PM 03/17/2016,Teleop Enabled,10,FALSE,0,NO ERROR,-0.000000,0.000000,0.000000,-0.436332,TRUE,FALSE,TRUE,FALSE,FALSE,FALSE,Disabled,0.000000,0.000000,0.000000,TRUE,-2.685226,-5.910660,0.000000,-0.002335,0.158569,0.000000,0.074000,0.168000,0.077000,-0.030000,-0.380000,0.670000,-0.652089,Hold,0.917969,0.000000,Hold,-202.000000,2.000000,LowGoal,-310.913086,2181.818182,Speed,-305.419922,2181.818182,Speed,Off,Off0.000000,0,,,,
08:48:47.769 PM 03/17/2016,Teleop Enabled,9,FALSE,0,NO ERROR,-0.000000,0.000000,0.000000,-0.436332,TRUE,FALSE,TRUE,FALSE,FALSE,FALSE,Disabled,0.000000,0.000000,0.000000,TRUE,-2.684113,-5.899246,0.000000,0.029205,0.272446,0.000000,0.081000,0.153000,0.113000,-0.030000,-0.440000,0.630000,-0.658854,Hold,0.917969,0.000000,Hold,-202.000000,2.000000,LowGoal,-310.913086,2181.818182,Speed,-305.419922,2181.818182,Speed,Off,Off0.000000,0,,,,
08:48:47.869 PM 03/17/2016,Teleop Enabled,10,FALSE,0,NO ERROR,-0.000000,0.000000,0.000000,-0.436332,TRUE,FALSE,TRUE,FALSE,FALSE,FALSE,Disabled,0.000000,0.000000,0.000000,TRUE,-2.686569,-5.884705,0.000000,-0.065170,0.208862,0.000000,0.003000,-0.059000,-0.090000,-0.030000,-0.370000,0.690000,-0.656010,Hold,0.917969,0.000000,Hold,-202.000000,2.000000,LowGoal,-310.913086,2181.818182,Speed,-305.419922,2181.818182,Speed,Off,Off0.000000,0,,,,
08:48:47.969 PM 03/17/2016,Teleop Enabled,10,FALSE,0,NO ERROR,-0.000000,0.000000,0.000000,-0.436332,TRUE,FALSE,TRUE,FALSE,FALSE,FALSE,Disabled,0.000000,0.000000,0.000000,TRUE,-2.686920,-5.875824,0.000000,-0.005264,0.145294,0.000000,0.003000,-0.059000,-0.090000,-0.030000,-0.370000,0.690000,-0.654392,Hold,0.917969,0.000000,Hold,-202.000000,2.000000,LowGoal,-310.913086,2181.818182,Speed,-306.518555,2181.818182,Speed,Off,Off0.000000,0,,,,
08:48:48.070 PM 03/17/2016,Teleop Enabled,10,FALSE,0,NO ERROR,-0.000000,0.000000,0.000000,-0.436332,TRUE,FALSE,TRUE,FALSE,FALSE,FALSE,Disabled,0.000000,0.000000,0.000000,TRUE,-2.686035,-5.869431,0.000000,0.034470,0.147644,0.000000,0.037000,-0.063000,0.026000,-0.030000,-0.340000,0.720000,-0.651659,Hold,0.917969,0.000000,Hold,-202.000000,2.000000,LowGoal,-310.913086,2181.818182,Speed,-306.518555,2181.818182,Speed,Off,Off0.000000,0,,,,
08:48:48.171 PM 03/17/2016,Teleop Enabled,7,FALSE,0,NO ERROR,-0.000000,0.000000,0.000000,-0.436332,TRUE,FALSE,TRUE,FALSE,FALSE,FALSE,Disabled,0.000000,0.000000,0.000000,TRUE,-2.685089,-5.860672,0.000000,0.016876,0.198196,0.000000,0.018000,0.072000,0.030000,-0.030000,-0.380000,0.690000,-0.639369,Hold,0.917969,0.000000,Hold,-202.000000,2.000000,LowGoal,-312.011719,2181.818182,Speed,-306.518555,2181.818182,Speed,Off,Off0.000000,0,,,,
08:48:48.272 PM 03/17/2016,Teleop Enabled,10,FALSE,0,NO ERROR,-0.000000,0.000000,0.000000,-0.436332,TRUE,FALSE,TRUE,FALSE,FALSE,FALSE,Disabled,0.000000,0.000000,0.000000,TRUE,-2.683792,-5.848267,0.000000,0.007019,0.263947,0.000000,0.041000,0.081000,0.079000,-0.030000,-0.380000,0.690000,-0.632422,Hold,0.917969,0.000000,Hold,-202.000000,2.000000,LowGoal,-310.913086,2181.818182,Speed,-305.419922,2181.818182,Speed,Off,Off0.000000,0,,,,
08:48:48.372 PM 03/17/2016,Teleop Enabled,10,FALSE,0,NO ERROR,-0.000000,0.000000,0.000000,-0.436332,TRUE,FALSE,TRUE,FALSE,FALSE,FALSE,Disabled,0.000000,0.000000,0.000000,TRUE,-2.684494,-5.848831,0.000000,-0.013123,-0.016693,0.000000,-0.073000,-0.017000,0.044000,-0.030000,-0.390000,0.690000,-0.636608,Hold,0.917969,0.000000,Hold,-202.000000,2.000000,LowGoal,-310.913086,2181.818182,Speed,-306.518555,2181.818182,Speed,Off,Off0.000000,0,,,,
