Time,Robot Mode,Loop Time,Error Status,Error Code,Error Source,Left Motor Output,Left Motor Encoder,Right Motor Output,Right Motor Encoder,Is Level,Is Stalled,Ball Detector Photoeye,Vision Enabled,Vision Teleop Control,Vision Auto Control,Vision Current State,Vision X Output,Vision NavX Error,Vision NavX Target,NavX Connection Status,NavX Displacement X,NavX Displacement Y,NavX Displacement Z,NavX Velocity X,NavX Velocity Y,NavX Velocity Z,NavX Acceleration X,NavX Acceleration Y,NavX Acceleration Z,NavX Pitch,NavX Yaw,NavX Roll,Gyro Angle,Roller Arm State,Roller Arm Actual,Roller Arm Desired,Shooter Arm State,Shooter Arm Actual,Shooter Arm Desired,Shooter State,Actual RPM Left,Desired RPM Left,Control Mode Left,Actual RPM Right,Desired RPM Right,Scaler Motor Output,Auto To Run,Auto Current File,Auto File Status,Auto Current Command,Auto Trimmed Command
08:56:55.509 PM 03/17/2016,Teleop Enabled,10,FALSE,0,NO ERROR,-0.000000,0.000000,0.000000,0.000000,TRUE,FALSE,TRUE,FALSE,FALSE,FALSE,Disabled,0.000000,0.000000,0.000000,TRUE,0.004150,0.016373,0.000000,0.000000,0.000000,0.000000,0.000000,0.001000,0.004000,0.000000,-0.010000,1.150000,0.061050,ResetBack,-0.026855,-0.200000,ResetBack,137675.000000,-0.300000,LowGoal,0.000000,-2181.818182,Speed,0.000000,-2181.818182,Speed,Off,Off0.000000,0,,,,
08:56:55.610 PM 03/17/2016,Teleop Enabled,10,FALSE,0,NO ERROR,-0.000000,-0.012833,0.000000,-0.070583,TRUE,FALSE,TRUE,FALSE,FALSE,FALSE,Disabled,0.000000,0.000000,0.000000,TRUE,0.004288,0.016373,0.000000,0.009277,0.000000,0.000000,0.030000,0.018000,-0.018000,0.000000,0.000000,1.110000,0.059095,ResetBack,-0.864258,-0.200000,ResetBack,146399.000000,-0.300000,LowGoal,30.000000,-2181.818182,Speed,37.500000,-2181.818182,Speed,Off,Off0.000000,0,,,,
08:56:55.709 PM 03/17/2016,Teleop Enabled,9,FALSE,0,NO ERROR,-0.000000,-0.012833,0.000000,-0.442749,TRUE,FALSE,TRUE,FALSE,FALSE,FALSE,Disabled,0.000000,0.000000,0.000000,TRUE,0.005157,0.016373,0.000000,0.007767,0.000000,0.000000,-0.073000,0.012000,-0.015000,0.000000,0.010000,1.120000,0.051156,ResetBack,-0.877197,-0.200000,ResetBack,146399.000000,-0.300000,LowGoal,682.500000,-2181.818182,Speed,682.500000,-2181.818182,Speed,Off,Off0.000000,0,,,,
08:56:55.810 PM 03/17/2016,Teleop Enabled,11,FALSE,0,NO ERROR,-0.000000,-0.012833,0.000000,-0.423499,TRUE,FALSE,TRUE,FALSE,FALSE,FALSE,Disabled,0.000000,0.000000,0.000000,TRUE,0.005646,0.016205,0.000000,0.015045,-0.006012,0.000000,-0.034000,0.080000,0.047000,0.000000,0.010000,1.140000,0.055360,Reset,-0.879883,0.000000,ResetBack,153362.000000,-0.300000,LowGoal,1507.500000,-2181.818182,Speed,1417.500000,-2181.818182,Speed,Off,Off0.000000,0,,,,
08:56:55.911 PM 03/17/2016,Teleop Enabled,10,FALSE,0,NO ERROR,-0.000000,-0.012833,0.000000,-0.423499,TRUE,FALSE,TRUE,FALSE,FALSE,FALSE,Disabled,0.000000,0.000000,0.000000,TRUE,0.006973,0.015961,0.000000,0.029144,-0.002213,0.000000,0.031000,-0.008000,0.097000,0.000000,0.000000,1.140000,0.049983,Hold,1.015137,0.000000,ResetBack,156440.000000,-0.300000,LowGoal,2122.500000,-2181.818182,Speed,2002.500000,-2181.818182,Speed,Off,Off0.000000,0,,,,
08:56:56.012 PM 03/17/2016,Teleop Enabled,10,FALSE,0,NO ERROR,-0.000000,-0.012833,0.000000,-0.417082,TRUE,FALSE,TRUE,FALSE,FALSE,FALSE,Disabled,0.000000,0.000000,0.000000,TRUE,0.008911,0.016968,0.000000,0.000000,0.047012,0.000000,0.003000,0.109000,-0.013000,0.000000,0.020000,1.140000,0.068087,Hold,0.932861,0.000000,ResetBack,158142.000000,-0.300000,LowGoal,2295.000000,-2181.818182,Speed,2287.500000,-2181.818182,Speed,Off,Off0.000000,0,,,,
08:56:56.113 PM 03/17/2016,Teleop Enabled,10,FALSE,0,NO ERROR,-0.000000,-0.012833,0.000000,-0.417082,TRUE,FALSE,TRUE,FALSE,FALSE,FALSE,Disabled,0.000000,0.000000,0.000000,TRUE,0.007736,0.023560,0.000000,-0.043839,0.177109,0.000000,0.043000,-0.031000,0.054000,0.000000,0.050000,1.190000,0.069815,Hold,0.932617,0.000000,ResetBack,158773.000000,-0.300000,LowGoal,2152.500000,-2181.818182,Speed,2152.500000,-2181.818182,Speed,Off,Off0.000000,0,,,,
08:56:56.213 PM 03/17/2016,Teleop Enabled,10,FALSE,0,NO ERROR,-0.000000,-0.012833,0.000000,-0.417082,TRUE,FALSE,TRUE,FALSE,FALSE,FALSE,Disabled,0.000000,0.000000,0.000000,TRUE,0.006317,0.033463,0.000000,0.000000,0.211975,0.000000,0.017000,0.023000,0.056000,0.000000,0.050000,1.200000,0.061994,Hold,0.932617,0.000000,ResetBack,158773.000000,-0.300000,LowGoal,2062.500000,-2181.818182,Speed,2055.000000,-2181.818182,Speed,Off,Off0.000000,0,,,,
08:56:56.313 PM 03/17/2016,Teleop Enabled,10,FALSE,0,NO ERROR,-0.000000,-0.012833,0.000000,-0.417082,TRUE,FALSE,TRUE,FALSE,FALSE,FALSE,Disabled,0.000000,0.000000,0.000000,TRUE,0.006363,0.044403,0.000000,0.009766,0.218079,0.000000,-0.105000,0.001000,0.009000,-0.010000,0.070000,1.180000,0.060520,Hold,0.932617,0.000000,ResetBack,158773.000000,-0.300000,LowGoal,2137.500000,-2181.818182,Speed,2032.500000,-2181.818182,Speed,Off,Off0.000000,0,,,,
08:56:56.417 PM 03/17/2016,Teleop Enabled,10,FALSE,0,NO ERROR,-0.000000,-0.012833,0.000000,-0.417082,TRUE,FALSE,TRUE,FALSE,FALSE,FALSE,Disabled,0.000000,0.000000,0.000000,TRUE,0.005997,0.054489,0.000000,0.000397,0.174667,0.000000,0.022000,-0.006000,0.033000,-0.010000,0.070000,1.190000,0.061340,Hold,0.932617,0.000000,ResetBack,158773.000000,-0.300000,LowGoal,2152.500000,-2181.818182,Speed,2077.500000,-2181.818182,Speed,Off,Off0.000000,0,,,,
08:56:56.517 PM 03/17/2016,Teleop Enabled,10,FALSE,0,NO ERROR,-0.000000,-0.012833,0.000000,-0.417082,TRUE,FALSE,TRUE,FALSE,FALSE,FALSE,Disabled,0.000000,0.000000,0.000000,TRUE,0.006409,0.063309,0.000000,0.005722,0.186478,0.000000,0.054000,0.050000,0.066000,-0.010000,0.000000,1.140000,0.056981,Hold,0.932617,0.000000,ResetBack,158774.000000,-0.300000,LowGoal,2122.500000,-2181.818182,Speed,2085.000000,-2181.818182,Speed,Off,Off0.000000,0,,,,
08:56:56.617 PM 03/17/2016,Teleop Enabled,10,FALSE,0,NO ERROR,-0.000000,-0.012833,0.000000,-0.417082,TRUE,FALSE,TRUE,FALSE,FALSE,FALSE,Disabled,0.000000,0.000000,0.000000,TRUE,0.006577,0.078064,0.000000,-0.007339,0.300354,0.000000,-0.027000,0.049000,-0.053000,-0.010000,0.030000,1.120000,0.054000,Hold,0.932617,0.000000,ResetBack,158774.000000,-0.300000,LowGoal,2122.500000,-2181.818182,Speed,2070.000000,-2181.818182,Speed,Off,Off0.000000,0,,,,
08:56:56.717 PM 03/17/2016,Teleop Enabled,11,FALSE,0,NO ERROR,-0.000000,-0.012833,0.000000,-0.417082,TRUE,FALSE,TRUE,FALSE,FALSE,FALSE,Disabled,0.000000,0.000000,0.000000,TRUE,0.006027,0.090485,0.000000,-0.002380,0.304276,0.000000,-0.015000,-0.026000,-0.073000,-0.010000,0.030000,1.150000,0.064414,Hold,0.932617,0.000000,Reset,158774.000000,2.000000,LowGoal,2137.500000,-2181.818182,Speed,2070.000000,-2181.818182,Speed,Off,Off0.000000,0,,,,
08:56:56.818 PM 03/17/2016,Teleop Enabled,10,FALSE,0,NO ERROR,-0.000000,-0.012833,0.000000,-0.417082,TRUE,FALSE,TRUE,FALSE,FALSE,FALSE,Disabled,0.000000,0.000000,0.000000,TRUE,0.005203,0.104080,0.000000,-0.017441,0.243042,0.000000,0.072000,-0.041000,0.075000,-0.010000,0.010000,1.150000,0.068307,Hold,0.932617,0.000000,Hold,-184.000000,2.000000,LowGoal,2130.000000,-2181.818182,Speed,2070.000000,-2181.818182,Speed,Off,Off0.000000,0,,,,
08:56:56.918 PM 03/17/2016,Teleop Enabled,9,FALSE,0,NO ERROR,-0.000000,-0.012833,0.000000,-0.417082,TRUE,FALSE,TRUE,FALSE,FALSE,FALSE,Disabled,0.000000,0.000000,0.000000,TRUE,0.005463,0.108856,0.000000,0.000000,0.009140,0.000000,0.049000,0.031000,0.068000,-0.010000,0.010000,1.140000,0.066906,Hold,0.932617,0.000000,Hold,-184.000000,2.000000,LowGoal,2130.000000,-2181.818182,Speed,2077.500000,-2181.818182,Speed,Off,Off0.000000,0,,,,
08:56:57.018 PM 03/17/2016,Teleop Enabled,10,FALSE,0,NO ERROR,-0.000000,-0.012833,0.000000,-0.417082,TRUE,FALSE,TRUE,FALSE,FALSE,FALSE,Disabled,0.000000,0.000000,0.000000,TRUE,0.005646,0.110428,0.000000,-0.002289,0.048523,0.000000,-0.033000,-0.002000,0.066000,-0.010000,0.010000,1.130000,0.070369,Hold,0.932617,0.000000,Hold,-184.000000,2.000000,LowGoal,2130.000000,-2181.818182,Speed,2062.500000,-2181.818182,Speed,Off,Off0.000000,0,,,,
08:56:57.118 PM 03/17/2016,Teleop Enabled,10,FALSE,0,NO ERROR,-0.000000,-0.012833,0.000000,-0.417082,TRUE,FALSE,TRUE,FALSE,FALSE,FALSE,Disabled,0.000000,0.000000,0.000000,TRUE,0.004883,0.110291,0.000000,-0.019485,-0.008484,0.000000,-0.015000,0.027000,-0.066000,-0.010000,0.010000,1.140000,0.072335,Hold,0.932617,0.000000,Hold,-184.000000,2.000000,LowGoal,2137.500000,-2181.818182,Speed,2070.000000,-2181.818182,Speed,Off,Off0.000000,0,,,,
08:56:57.220 PM 03/17/2016,Teleop Enabled,9,FALSE,0,NO ERROR,-0.000000,-0.012833,0.000000,-0.417082,TRUE,FALSE,TRUE,FALSE,FALSE,FALSE,Disabled,0.000000,0.000000,0.000000,TRUE,0.003632,0.108902,0.000000,-0.002960,-0.050034,0.000000,0.091000,-0.053000,0.063000,-0.010000,0.000000,1.170000,0.062978,Hold,0.932617,0.000000,Hold,-184.000000,2.000000,LowGoal,2130.000000,-2181.818182,Speed,2070.000000,-2181.818182,Speed,Off,Off0.000000,0,,,,
08:56:57.323 PM 03/17/2016,Teleop Enabled,11,FALSE,0,NO ERROR,-0.000000,-0.012833,0.000000,-0.417082,TRUE,FALSE,TRUE,FALSE,FALSE,FALSE,Disabled,0.000000,0.000000,0.000000,TRUE,0.003830,0.106445,0.000000,-0.003265,-0.040558,0.000000,0.028000,-0.002000,0.048000,-0.010000,-0.010000,1.140000,0.058523,Hold,0.932617,0.000000,Hold,-184.000000,2.000000,LowGoal,2137.500000,-2181.818182,Speed,2062.500000,-2181.818182,Speed,Off,Off0.000000,0,,,,
08:56:57.423 PM 03/17/2016,Teleop Enabled,9,FALSE,0,NO ERROR,-0.000000,-0.012833,0.000000,-0.417082,TRUE,FALSE,TRUE,FALSE,FALSE,FALSE,Disabled,0.000000,0.000000,0.000000,TRUE,0.004639,0.105423,0.000000,0.021652,-0.008026,0.000000,-0.142000,0.097000,-0.023000,-0.010000,0.010000,1.100000,0.050155,Hold,0.932617,0.000000,Hold,-184.000000,2.000000,LowGoal,2137.500000,-2181.818182,Speed,2062.500000,-2181.818182,Speed,Off,Off0.000000,0,,,,
08:56:57.524 PM 03/17/2016,Teleop Enabled,11,FALSE,0,NO ERROR,-0.000000,-0.012833,0.000000,-0.417082,TRUE,FALSE,TRUE,FALSE,FALSE,FALSE,Disabled,0.000000,0.000000,0.000000,TRUE,0.003647,0.108459,0.000000,-0.020874,0.081741,0.000000,-0.051000,0.015000,-0.096000,-0.010000,0.020000,1.120000,0.064094,Hold,0.932617,0.000000,Hold,-184.000000,2.000000,LowGoal,2130.000000,-2181.818182,Speed,2070.000000,-2181.818182,Speed,Off,Off0.000000,0,,,,
08:56:57.624 PM 03/17/2016,Teleop Enabled,9,FALSE,0,NO ERROR,-0.000000,-0.012833,0.000000,-0.417082,TRUE,FALSE,TRUE,FALSE,FALSE,FALSE,Disabled,0.000000,0.000000,0.000000,TRUE,0.001846,0.111618,0.000000,-0.035629,0.051605,0.000000,0.030000,-0.010000,-0.030000,0.000000,0.000000,1.140000,0.074345,Hold,0.932617,0.000000,Hold,-184.000000,2.000000,LowGoal,2137.500000,-2181.818182,Speed,2070.000000,-2181.818182,Speed,Off,Off0.000000,0,,,,
08:56:57.725 PM 03/17/2016,Teleop Enabled,10,FALSE,0,NO ERROR,-0.000000,-0.012833,0.000000,-0.417082,TRUE,FALSE,TRUE,FALSE,FALSE,FALSE,Disabled,0.000000,0.000000,0.000000,TRUE,0.000931,0.111618,0.000000,-0.014938,0.000000,0.000000,0.048000,0.041000,0.065000,0.000000,0.010000,1.130000,0.088367,Hold,0.932617,0.000000,Hold,-184.000000,2.000000,LowGoal,2137.500000,-2181.818182,Speed,2070.000000,-2181.818182,Speed,Off,Off0.000000,0,,,,
08:56:57.825 PM 03/17/2016,Teleop Enabled,10,FALSE,0,NO ERROR,-0.000000,-0.012833,0.000000,-0.417082,TRUE,FALSE,TRUE,FALSE,FALSE,FALSE,Disabled,0.000000,0.000000,0.000000,TRUE,0.000092,0.113235,0.000000,-0.041077,0.071030,0.000000,-0.021000,0.072000,0.002000,0.000000,0.000000,1.110000,0.076886,Hold,0.932617,0.000000,Hold,-184.000000,2.000000,LowGoal,2137.500000,-2181.818182,Speed,2070.000000,-2181.818182,Speed,Off,Off0.000000,0,,,,
08:56:57.926 PM 03/17/2016,Teleop Enabled,10,FALSE,0,NO ERROR,-0.000000,-0.012833,0.000000,-0.417082,TRUE,FALSE,TRUE,FALSE,FALSE,FALSE,Disabled,0.000000,0.000000,0.000000,TRUE,-0.002121,0.117508,0.000000,-0.046921,0.068939,0.000000,-0.074000,-0.054000,-0.006000,0.000000,-0.010000,1.140000,0.070276,Hold,0.932617,0.000000,Hold,-184.000000,2.000000,LowGoal,2145.000000,-2181.818182,Speed,2062.500000,-2181.818182,Speed,Off,Off0.000000,0,,,,
08:56:58.028 PM 03/17/2016,Teleop Enabled,11,FALSE,0,NO ERROR,-0.000000,-0.012833,0.000000,-0.417082,TRUE,FALSE,TRUE,FALSE,FALSE,FALSE,Disabled,0.000000,0.000000,0.000000,TRUE,-0.004898,0.119446,0.000000,-0.046677,0.012497,0.000000,0.080000,-0.075000,0.034000,0.000000,-0.010000,1.150000,0.066755,Hold,0.932617,0.000000,Hold,-184.000000,2.000000,LowGoal,2137.500000,-2181.818182,Speed,2062.500000,-2181.818182,Speed,Off,Off0.000000,0,,,,
08:56:58.133 PM 03/17/2016,Teleop Enabled,10,FALSE,0,NO ERROR,-0.000000,-0.012833,0.000000,-0.417082,TRUE,FALSE,TRUE,FALSE,FALSE,FALSE,Disabled,0.000000,0.000000,0.000000,TRUE,-0.006302,0.118927,0.000000,-0.006348,-0.017990,0.000000,0.011000,0.006000,0.053000,0.000000,0.000000,1.110000,0.081396,Hold,0.932617,0.000000,Hold,-184.000000,2.000000,LowGoal,2130.000000,-2181.818182,Speed,2040.000000,-2181.818182,Speed,Off,Off0.000000,0,,,,
08:56:58.239 PM 03/17/2016,Teleop Enabled,15,FALSE,0,NO ERROR,-0.000000,-0.012833,0.000000,-0.417082,TRUE,FALSE,TRUE,FALSE,FALSE,FALSE,Disabled,0.000000,0.000000,0.000000,TRUE,-0.006348,0.119553,0.000000,0.000000,0.030502,0.000000,0.059000,-0.031000,-0.052000,0.000000,0.000000,1.120000,0.075581,Hold,0.932617,0.000000,Hold,-184.000000,2.000000,LowGoal,2137.500000,-2181.818182,Speed,2040.000000,-2181.818182,Speed,Off,Off0.000000,0,,,,
08:56:58.340 PM 03/17/2016,Teleop Enabled,10,FALSE,0,NO ERROR,-0.000000,-0.012833,0.000000,-0.417082,TRUE,FALSE,TRUE,FALSE,FALSE,FALSE,Disabled,0.000000,0.000000,0.000000,TRUE,-0.006134,0.119751,0.000000,0.002182,-0.013260,0.000000,0.053000,-0.019000,-0.041000,0.000000,-0.010000,1.160000,0.078063,Hold,0.932617,0.000000,Hold,-184.000000,2.000000,LowGoal,2137.500000,-2181.818182,Speed,2055.000000,-2181.818182,Speed,Off,Off0.000000,0,,,,
08:56:58.439 PM 03/17/2016,Teleop Enabled,9,FALSE,0,NO ERROR,-0.000000,-0.012833,0.000000,-0.417082,TRUE,FALSE,TRUE,FALSE,FALSE,FALSE,Disabled,0.000000,0.000000,0.000000,TRUE,-0.005814,0.119202,0.000000,-0.004776,-0.012299,0.000000,0.075000,0.009000,0.020000,0.000000,-0.030000,1.150000,0.082157,Hold,0.932617,0.000000,Hold,-184.000000,2.000000,LowGoal,2130.000000,-2181.818182,Speed,2055.000000,-2181.818182,Speed,Off,Off0.000000,0,,,,
08:56:58.539 PM 03/17/2016,Teleop Enabled,10,FALSE,0,NO ERROR,-0.000000,-0.012833,0.000000,-0.417082,TRUE,FALSE,TRUE,FALSE,FALSE,FALSE,Disabled,0.000000,0.000000,0.000000,TRUE,-0.005753,0.119690,0.000000,-0.012619,0.024994,0.000000,0.022000,0.066000,-0.012000,0.000000,0.000000,1.140000,0.075884,Hold,0.932617,0.000000,Hold,-184.000000,2.000000,LowGoal,2130.000000,-2181.818182,Speed,2055.000000,-2181.818182,Speed,Off,Off0.000000,0,,,,
08:56:58.639 PM 03/17/2016,Teleop Enabled,10,FALSE,0,NO ERROR,-0.000000,-0.012833,0.000000,-0.417082,TRUE,FALSE,TRUE,FALSE,FALSE,FALSE,Disabled,0.000000,0.000000,0.000000,TRUE,-0.006439,0.122452,0.000000,-0.021408,0.056259,0.000000,0.010000,-0.037000,-0.021000,0.000000,0.000000,1.150000,0.069192,Hold,0.932617,0.000000,HighGoal,-184.000000,46284.800000,HighGoal,2137.500000,-2181.818182,Speed,2047.500000,-2181.818182,Speed,Off,Off0.000000,0,,,,
08:56:58.739 PM 03/17/2016,Teleop Enabled,10,FALSE,0,NO ERROR,-0.000000,-0.012833,0.000000,-0.417082,TRUE,FALSE,TRUE,FALSE,FALSE,FALSE,Disabled,0.000000,0.000000,0.000000,TRUE,-0.006943,0.123657,0.000000,-0.006897,0.000366,0.000000,-0.063000,0.021000,-0.039000,0.000000,0.000000,1.140000,0.070249,Hold,0.932617,0.000000,Hold,-184.000000,46284.800000,HighGoal,2137.500000,-3272.727273,Speed,2010.000000,-3272.727273,Speed,Off,Off0.000000,0,,,,
08:56:58.840 PM 03/17/2016,Teleop Enabled,9,FALSE,0,NO ERROR,-0.000000,-0.012833,0.000000,-0.417082,TRUE,FALSE,TRUE,FALSE,FALSE,FALSE,Disabled,0.000000,0.000000,0.000000,TRUE,-0.006866,0.123505,0.000000,0.001114,-0.004761,0.000000,-0.008000,-0.012000,0.007000,0.000000,-0.010000,1.110000,0.085616,Hold,0.932617,0.000000,HighGoal,-5489.000000,46284.800000,HighGoal,2482.500000,-3272.727273,Speed,2010.000000,-3272.727273,Speed,Off,Off0.000000,0,,,,
08:56:58.940 PM 03/17/2016,Teleop Enabled,10,FALSE,0,NO ERROR,-0.000000,-0.012833,0.000000,-0.417082,TRUE,FALSE,TRUE,FALSE,FALSE,FALSE,Disabled,0.000000,0.000000,0.000000,TRUE,-0.005997,0.123611,0.000000,0.015900,0.017700,0.000000,0.012000,0.044000,0.016000,0.000000,0.030000,1.140000,0.070380,Hold,0.932617,0.000000,Hold,-18983.000000,46284.800000,HighGoal,2482.500000,-3272.727273,Speed,2280.000000,-3272.727273,Speed,Off,Off0.000000,0,,,,
08:56:59.040 PM 03/17/2016,Teleop Enabled,10,FALSE,0,NO ERROR,-0.000000,-0.012833,0.000000,-0.417082,TRUE,FALSE,TRUE,FALSE,FALSE,FALSE,Disabled,0.000000,0.000000,0.000000,TRUE,-0.005875,0.125137,0.000000,-0.001282,0.053741,0.000000,-0.016000,0.167000,-0.155000,-0.010000,0.020000,1.230000,0.057315,Hold,0.932617,0.000000,Hold,-30238.000000,46284.800000,HighGoal,2917.500000,-3272.727273,Speed,2550.000000,-3272.727273,Speed,Off,Off0.000000,0,,,,
08:56:59.141 PM 03/17/2016,Teleop Enabled,10,FALSE,0,NO ERROR,-0.000000,-0.012833,0.000000,-0.417082,TRUE,FALSE,TRUE,FALSE,FALSE,FALSE,Disabled,0.000000,0.000000,0.000000,TRUE,-0.005508,0.127029,0.000000,0.016800,0.026871,0.000000,0.025000,-0.052000,-0.098000,-0.010000,0.000000,1.080000,0.058052,Hold,0.932617,0.000000,Hold,-30238.000000,46284.800000,HighGoal,3247.500000,-3272.727273,Speed,2812.500000,-3272.727273,Speed,Off,Off0.000000,0,,,,
08:56:59.241 PM 03/17/2016,Teleop Enabled,10,FALSE,0,NO ERROR,-0.000000,-0.012833,0.000000,-0.417082,TRUE,FALSE,TRUE,FALSE,FALSE,FALSE,Disabled,0.000000,0.000000,0.000000,TRUE,-0.003494,0.127823,0.000000,0.064713,0.018356,0.000000,0.139000,-0.018000,0.077000,-0.020000,0.010000,1.130000,0.053459,Hold,0.932617,0.000000,Hold,-41042.000000,46284.800000,HighGoal,3315.000000,-3272.727273,Speed,3045.000000,-3272.727273,Speed,Off,Off0.000000,0,,,,
08:56:59.341 PM 03/17/2016,Teleop Enabled,10,FALSE,0,NO ERROR,-0.000000,-0.012833,0.000000,-0.417082,TRUE,FALSE,TRUE,FALSE,FALSE,FALSE,Disabled,0.000000,0.000000,0.000000,TRUE,-0.000046,0.130295,0.000000,0.066620,0.064148,0.000000,-0.004000,0.251000,0.066000,0.010000,-0.560000,1.350000,0.074208,Hold,0.932617,0.000000,Hold,-46077.000000,46284.800000,HighGoal,3217.500000,-3272.727273,Speed,3187.500000,-3272.727273,Speed,Off,Off0.000000,0,,,,
08:56:59.441 PM 03/17/2016,Teleop Enabled,10,FALSE,0,NO ERROR,-0.000000,0.000000,0.000000,-0.417082,TRUE,FALSE,TRUE,FALSE,FALSE,FALSE,Disabled,0.000000,0.000000,0.000000,TRUE,-0.000717,0.134644,0.000000,-0.031845,0.092987,0.000000,-0.131000,0.203000,-0.109000,-0.020000,-0.080000,1.020000,0.044757,Hold,0.932617,0.000000,Hold,-46370.000000,46284.800000,HighGoal,3210.000000,-3272.727273,Speed,3157.500000,-3272.727273,Speed,Off,Off0.000000,0,,,,
08:56:59.541 PM 03/17/2016,Teleop Enabled,9,FALSE,0,NO ERROR,-0.000000,-0.006417,0.000000,-0.417082,TRUE,FALSE,TRUE,FALSE,FALSE,FALSE,Disabled,0.000000,0.000000,0.000000,TRUE,-0.003128,0.143234,0.000000,-0.014801,0.183929,0.000000,0.078000,0.197000,0.009000,0.000000,-0.080000,1.430000,0.070321,Hold,0.932617,0.000000,Hold,-46285.000000,46284.800000,HighGoal,3262.500000,-3272.727273,Speed,3120.000000,-3272.727273,Speed,Off,Off0.000000,0,,,,
08:56:59.642 PM 03/17/2016,Teleop Enabled,10,FALSE,0,NO ERROR,-0.000000,-0.006417,0.000000,-0.417082,TRUE,FALSE,TRUE,FALSE,FALSE,FALSE,Disabled,0.000000,0.000000,0.000000,TRUE,-0.002777,0.153107,0.000000,0.006546,0.195663,0.000000,0.089000,-0.211000,0.038000,-0.020000,-0.080000,1.090000,0.074965,Hold,0.932617,0.000000,Hold,-46286.000000,46284.800000,HighGoal,3262.500000,-3272.727273,Speed,3135.000000,-3272.727273,Speed,Off,Off0.000000,0,,,,
08:56:59.742 PM 03/17/2016,Teleop Enabled,11,FALSE,0,NO ERROR,-0.000000,-0.006417,0.000000,-0.417082,TRUE,FALSE,TRUE,FALSE,FALSE,FALSE,Disabled,0.000000,0.000000,0.000000,TRUE,-0.001999,0.161362,0.000000,0.015945,0.155594,0.000000,-0.169000,0.022000,0.035000,-0.020000,-0.060000,1.180000,0.066404,Hold,0.932617,0.000000,Hold,-46286.000000,46284.800000,HighGoal,3247.500000,-3272.727273,Speed,3142.500000,-3272.727273,Speed,Off,Off0.000000,0,,,,
08:56:59.844 PM 03/17/2016,Teleop Enabled,11,FALSE,0,NO ERROR,-0.000000,-0.006417,0.000000,-0.417082,TRUE,FALSE,TRUE,FALSE,FALSE,FALSE,Disabled,0.000000,0.000000,0.000000,TRUE,-0.002319,0.169662,0.000000,0.000000,0.169907,0.000000,-0.013000,-0.019000,0.121000,0.000000,-0.090000,1.190000,0.091617,Hold,0.932617,0.000000,Hold,-46287.000000,46284.800000,HighGoal,3247.500000,-3272.727273,Speed,3127.500000,-3272.727273,Speed,Off,Off0.000000,0,,,,
08:56:59.945 PM 03/17/2016,Teleop Enabled,10,FALSE,0,NO ERROR,-0.000000,-0.006417,0.000000,-0.417082,TRUE,FALSE,TRUE,FALSE,FALSE,FALSE,Disabled,0.000000,0.000000,0.000000,TRUE,-0.002396,0.178223,0.000000,-0.002029,0.166412,0.000000,0.101000,-0.217000,-0.048000,-0.020000,-0.070000,1.120000,0.116369,Hold,0.932617,0.000000,Hold,-46287.000000,46284.800000,HighGoal,3247.500000,-3272.727273,Speed,3127.500000,-3272.727273,Speed,Off,Off0.000000,0,,,,
08:57:00.045 PM 03/17/2016,Teleop Enabled,10,FALSE,0,NO ERROR,-0.000000,-0.006417,0.000000,-0.417082,TRUE,FALSE,TRUE,FALSE,FALSE,FALSE,Disabled,0.000000,0.000000,0.000000,TRUE,-0.001419,0.185257,0.000000,0.046631,0.136078,0.000000,0.150000,-0.035000,0.049000,-0.020000,-0.100000,1.130000,0.131898,Hold,0.932617,0.000000,Hold,-46287.000000,46284.800000,HighGoal,3255.000000,-3272.727273,Speed,3127.500000,-3272.727273,Speed,Off,Off0.000000,0,,,,
08:57:00.146 PM 03/17/2016,Teleop Enabled,11,FALSE,0,NO ERROR,-0.000000,-0.006417,0.000000,-0.417082,TRUE,FALSE,TRUE,FALSE,FALSE,FALSE,Disabled,0.000000,0.000000,0.000000,TRUE,0.001007,0.191635,0.000000,0.045151,0.119049,0.000000,0.193000,-0.024000,0.147000,-0.010000,-0.090000,1.130000,0.155228,Hold,0.932617,0.000000,Hold,-46287.000000,46284.800000,HighGoal,3247.500000,-3272.727273,Speed,3120.000000,-3272.727273,Speed,Off,Off0.000000,0,,,,
08:57:00.247 PM 03/17/2016,Teleop Enabled,11,FALSE,0,NO ERROR,-0.000000,-0.006417,0.000000,-0.417082,TRUE,FALSE,TRUE,FALSE,FALSE,FALSE,Disabled,0.000000,0.000000,0.000000,TRUE,0.005127,0.197006,0.000000,0.079193,0.110229,0.000000,-0.155000,0.089000,0.126000,-0.010000,-0.090000,1.120000,0.157439,Hold,0.932617,0.000000,Hold,-46287.000000,46284.800000,HighGoal,3247.500000,-3272.727273,Speed,3120.000000,-3272.727273,Speed,Off,Off0.000000,0,,,,
08:57:00.349 PM 03/17/2016,Teleop Enabled,9,FALSE,0,NO ERROR,-0.000000,-0.006417,0.000000,-0.417082,TRUE,FALSE,TRUE,FALSE,FALSE,FALSE,Disabled,0.000000,0.000000,0.000000,TRUE,0.009262,0.203445,0.000000,0.091507,0.141006,0.000000,-0.154000,0.117000,-0.039000,0.000000,-0.070000,1.080000,0.175615,Hold,0.932617,0.000000,Hold,-46287.000000,46284.800000,HighGoal,3255.000000,-3272.727273,Speed,3112.500000,-3272.727273,Speed,Off,Off0.000000,0,,,,
08:57:00.449 PM 03/17/2016,Teleop Enabled,11,FALSE,0,NO ERROR,-0.000000,-0.006417,0.000000,-0.417082,TRUE,FALSE,TRUE,FALSE,FALSE,FALSE,Disabled,0.000000,0.000000,0.000000,TRUE,0.012863,0.209000,0.000000,0.073227,0.000000,0.000000,-0.085000,0.138000,-0.015000,-0.010000,-0.090000,1.080000,0.169198,Hold,0.932617,0.000000,Hold,-46287.000000,46284.800000,HighGoal,3247.500000,-3272.727273,Speed,3105.000000,-3272.727273,Speed,Off,Off0.000000,0,,,,
08:57:00.549 PM 03/17/2016,Teleop Enabled,10,FALSE,0,NO ERROR,-0.000000,-0.006417,0.000000,-0.417082,TRUE,FALSE,TRUE,FALSE,FALSE,FALSE,Disabled,0.000000,0.000000,0.000000,TRUE,0.015869,0.210205,0.000000,0.046951,0.028503,0.000000,-0.005000,0.005000,-0.098000,-0.010000,-0.110000,1.090000,0.176355,Hold,0.932617,0.000000,Hold,-46287.000000,46284.800000,HighGoal,3247.500000,-3272.727273,Speed,3112.500000,-3272.727273,Speed,Off,Off0.000000,0,,,,
08:57:00.648 PM 03/17/2016,Teleop Enabled,11,FALSE,0,NO ERROR,-0.000000,-0.006417,0.000000,-0.417082,TRUE,FALSE,TRUE,FALSE,FALSE,FALSE,Disabled,0.000000,0.000000,0.000000,TRUE,0.018173,0.209427,0.000000,0.032715,-0.030991,0.000000,0.109000,-0.190000,0.015000,0.000000,-0.130000,1.110000,0.186284,Hold,0.932617,0.000000,Hold,-46287.000000,46284.800000,HighGoal,3247.500000,-3272.727273,Speed,3120.000000,-3272.727273,Speed,Off,Off0.000000,0,,,,
08:57:00.750 PM 03/17/2016,Teleop Enabled,11,FALSE,0,NO ERROR,-0.000000,-0.006417,0.000000,-0.417082,TRUE,FALSE,TRUE,FALSE,FALSE,FALSE,Disabled,0.000000,0.000000,0.000000,TRUE,0.018753,0.207504,0.000000,0.008041,-0.023727,0.000000,0.073000,0.041000,0.028000,0.000000,-0.100000,1.080000,0.196429,Hold,0.932617,0.000000,Hold,-46287.000000,46284.800000,HighGoal,3247.500000,-3272.727273,Speed,3135.000000,-3272.727273,Speed,Off,Off0.000000,0,,,,
08:57:00.850 PM 03/17/2016,Teleop Enabled,10,FALSE,0,NO ERROR,-0.000000,-0.006417,0.000000,-0.417082,TRUE,FALSE,TRUE,FALSE,FALSE,FALSE,Disabled,0.000000,0.000000,0.000000,TRUE,0.017227,0.207031,0.000000,-0.038605,-0.005508,0.000000,0.002000,0.020000,-0.161000,0.000000,-0.070000,1.100000,0.210399,Hold,0.932617,0.000000,Hold,-46287.000000,46284.800000,HighGoal,3255.000000,-3272.727273,Speed,3127.500000,-3272.727273,Speed,Off,Off0.000000,0,,,,
08:57:00.950 PM 03/17/2016,Teleop Enabled,11,FALSE,0,NO ERROR,-0.000000,-0.006417,0.000000,-0.417082,TRUE,FALSE,TRUE,FALSE,FALSE,FALSE,Disabled,0.000000,0.000000,0.000000,TRUE,0.016159,0.205750,0.000000,-0.019073,-0.034546,0.000000,-0.117000,0.099000,0.102000,0.000000,-0.070000,1.080000,0.214134,Hold,0.932617,0.000000,Hold,-46287.000000,46284.800000,HighGoal,3247.500000,-3272.727273,Speed,3112.500000,-3272.727273,Speed,Off,Off0.000000,0,,,,
08:57:01.052 PM 03/17/2016,Teleop Enabled,10,FALSE,0,NO ERROR,-0.000000,-0.006417,0.000000,-0.417082,TRUE,FALSE,TRUE,FALSE,FALSE,FALSE,Disabled,0.000000,0.000000,0.000000,TRUE,0.016800,0.204437,0.000000,0.038895,0.000000,0.000000,-0.117000,0.099000,0.102000,0.000000,-0.070000,1.100000,0.236968,Hold,0.932617,0.000000,Hold,-46287.000000,46284.800000,HighGoal,3247.500000,-3272.727273,Speed,3112.500000,-3272.727273,Speed,Off,Off0.000000,0,,,,
08:57:01.152 PM 03/17/2016,Teleop Enabled,10,FALSE,0,NO ERROR,-0.000000,-0.006417,0.000000,-0.417082,TRUE,FALSE,TRUE,FALSE,FALSE,FALSE,Disabled,0.000000,0.000000,0.000000,TRUE,0.019180,0.203033,0.000000,0.066345,-0.038666,0.000000,0.038000,0.055000,-0.063000,0.000000,-0.100000,1.120000,0.258787,Hold,0.932617,0.000000,Hold,-46287.000000,46284.800000,HighGoal,3247.500000,-3272.727273,Speed,3120.000000,-3272.727273,Speed,Off,Off0.000000,0,,,,
08:57:01.252 PM 03/17/2016,Teleop Enabled,11,FALSE,0,NO ERROR,-0.000000,-0.006417,0.000000,-0.417082,TRUE,FALSE,TRUE,FALSE,FALSE,FALSE,Disabled,0.000000,0.000000,0.000000,TRUE,0.023392,0.201523,0.000000,0.076889,-0.017090,0.000000,0.038000,0.055000,-0.063000,0.000000,-0.100000,1.120000,0.266364,Hold,0.932617,0.000000,Hold,-46287.000000,46284.800000,HighGoal,3247.500000,-3272.727273,Speed,3112.500000,-3272.727273,Speed,Off,Off0.000000,0,,,,
08:57:01.352 PM 03/17/2016,Teleop Enabled,10,FALSE,0,NO ERROR,-0.000000,-0.006417,0.000000,-0.417082,TRUE,FALSE,TRUE,FALSE,FALSE,FALSE,Disabled,0.000000,0.000000,0.000000,TRUE,0.027832,0.201157,0.000000,0.080338,0.005630,0.000000,-0.191000,0.093000,-0.008000,0.000000,-0.080000,1.140000,0.285216,Hold,0.932617,0.000000,Hold,-46287.000000,46284.800000,HighGoal,3247.500000,-3272.727273,Speed,3112.500000,-3272.727273,Speed,Off,Off0.000000,0,,,,
08:57:01.453 PM 03/17/2016,Teleop Enabled,9,FALSE,0,NO ERROR,-0.000000,-0.006417,0.000000,-0.417082,TRUE,FALSE,TRUE,FALSE,FALSE,FALSE,Disabled,0.000000,0.000000,0.000000,TRUE,0.030518,0.201782,0.000000,0.053940,0.020447,0.000000,-0.191000,0.093000,-0.008000,0.000000,-0.080000,1.140000,0.301792,Hold,0.932617,0.000000,Hold,-46287.000000,46284.800000,HighGoal,3247.500000,-3272.727273,Speed,3112.500000,-3272.727273,Speed,Off,Off0.000000,0,,,,
08:57:01.553 PM 03/17/2016,Teleop Enabled,10,FALSE,0,NO ERROR,-0.000000,-0.006417,0.000000,-0.417082,TRUE,FALSE,TRUE,FALSE,FALSE,FALSE,Disabled,0.000000,0.000000,0.000000,TRUE,0.032211,0.203491,0.000000,0.026321,0.020218,0.000000,-0.165000,0.144000,0.062000,0.000000,-0.030000,1.100000,0.308663,Hold,0.932617,0.000000,Hold,-46287.000000,46284.800000,HighGoal,3255.000000,-3272.727273,Speed,3112.500000,-3272.727273,Speed,Off,Off0.000000,0,,,,
08:57:01.653 PM 03/17/2016,Teleop Enabled,10,FALSE,0,NO ERROR,-0.000000,-0.006417,0.000000,-0.417082,TRUE,FALSE,TRUE,FALSE,FALSE,FALSE,Disabled,0.000000,0.000000,0.000000,TRUE,0.032379,0.204346,0.000000,-0.024521,0.007446,0.000000,-0.097000,0.060000,-0.055000,0.000000,-0.070000,1.110000,0.327374,Hold,0.932617,0.000000,Hold,-46287.000000,46284.800000,HighGoal,3255.000000,-3272.727273,Speed,3112.500000,-3272.727273,Speed,Off,Off0.000000,0,,,,
08:57:01.754 PM 03/17/2016,Teleop Enabled,9,FALSE,0,NO ERROR,-0.000000,-0.006417,0.000000,-0.417082,TRUE,FALSE,TRUE,FALSE,FALSE,FALSE,Disabled,0.000000,0.000000,0.000000,TRUE,0.031601,0.204803,0.000000,-0.019302,0.021606,0.000000,0.054000,-0.118000,-0.083000,0.000000,-0.120000,1.100000,0.320420,Hold,0.932617,0.000000,Hold,-46287.000000,46284.800000,HighGoal,3247.500000,-3272.727273,Speed,3120.000000,-3272.727273,Speed,Off,Off0.000000,0,,,,
08:57:01.854 PM 03/17/2016,Teleop Enabled,10,FALSE,0,NO ERROR,-0.000000,-0.006417,0.000000,-0.417082,TRUE,FALSE,TRUE,FALSE,FALSE,FALSE,Disabled,0.000000,0.000000,0.000000,TRUE,0.031601,0.204803,0.000000,-0.019302,0.021606,0.000000,0.014000,-0.023000,-0.058000,0.000000,-0.100000,1.110000,0.334837,Hold,0.932617,0.000000,Hold,-46287.000000,46284.800000,HighGoal,3247.500000,-3272.727273,Speed,3112.500000,-3272.727273,Speed,Off,Off0.000000,0,,,,
08:57:01.954 PM 03/17/2016,Teleop Enabled,8,FALSE,0,NO ERROR,-0.000000,-0.006417,0.000000,-0.417082,TRUE,FALSE,TRUE,FALSE,FALSE,FALSE,Disabled,0.000000,0.000000,0.000000,TRUE,0.026108,0.207230,0.000000,-0.055908,0.026749,0.000000,0.159000,-0.114000,0.048000,0.000000,-0.090000,1.090000,0.338228,Hold,0.932617,0.000000,Hold,-46287.000000,46284.800000,HighGoal,3255.000000,-3272.727273,Speed,3105.000000,-3272.727273,Speed,Off,Off0.000000,0,,,,
08:57:02.054 PM 03/17/2016,Teleop Enabled,11,FALSE,0,NO ERROR,-0.000000,-0.006417,0.000000,-0.417082,TRUE,FALSE,TRUE,FALSE,FALSE,FALSE,Disabled,0.000000,0.000000,0.000000,TRUE,0.025848,0.207642,0.000000,0.015533,-0.016525,0.000000,0.093000,0.071000,0.127000,0.000000,-0.090000,1.090000,0.350356,Hold,0.932617,0.000000,Hold,-46287.000000,46284.800000,HighGoal,3247.500000,-3272.727273,Speed,3120.000000,-3272.727273,Speed,Off,Off0.000000,0,,,,
08:57:02.156 PM 03/17/2016,Teleop Enabled,9,FALSE,0,NO ERROR,-0.000000,-0.006417,0.000000,-0.417082,TRUE,FALSE,TRUE,FALSE,FALSE,FALSE,Disabled,0.000000,0.000000,0.000000,TRUE,0.025848,0.207642,0.000000,0.015533,-0.016525,0.000000,-0.043000,-0.006000,0.132000,0.000000,-0.040000,1.130000,0.352535,Hold,0.932617,0.000000,Hold,-46287.000000,46284.800000,HighGoal,3247.500000,-3272.727273,Speed,3120.000000,-3272.727273,Speed,Off,Off0.000000,0,,,,
08:57:02.256 PM 03/17/2016,Teleop Enabled,10,FALSE,0,NO ERROR,-0.000000,-0.006417,0.000000,-0.417082,TRUE,FALSE,TRUE,FALSE,FALSE,FALSE,Disabled,0.000000,0.000000,0.000000,TRUE,0.032150,0.207489,0.000000,0.085495,0.007584,0.000000,0.163000,-0.122000,-0.040000,0.000000,-0.020000,1.060000,0.369321,Hold,0.932617,0.000000,Hold,-46287.000000,46284.800000,HighGoal,3255.000000,-3272.727273,Speed,3112.500000,-3272.727273,Speed,Off,Off0.000000,0,,,,
08:57:02.357 PM 03/17/2016,Teleop Enabled,10,FALSE,0,NO ERROR,-0.000000,-0.006417,0.000000,-0.417082,TRUE,FALSE,TRUE,FALSE,FALSE,FALSE,Disabled,0.000000,0.000000,0.000000,TRUE,0.036484,0.207825,0.000000,0.068817,0.015762,0.000000,0.106000,-0.041000,0.059000,0.000000,-0.080000,1.140000,0.392228,Hold,0.932617,0.000000,Hold,-46287.000000,46284.800000,HighGoal,3255.000000,-3272.727273,Speed,3120.000000,-3272.727273,Speed,Off,Off0.000000,0,,,,
08:57:02.459 PM 03/17/2016,Teleop Enabled,9,FALSE,0,NO ERROR,-0.000000,-0.006417,0.000000,-0.417082,TRUE,FALSE,TRUE,FALSE,FALSE,FALSE,Disabled,0.000000,0.000000,0.000000,TRUE,0.040878,0.209564,0.000000,0.099808,0.048965,0.000000,-0.038000,0.016000,0.186000,0.000000,-0.080000,1.130000,0.410232,Hold,0.932617,0.000000,Hold,-46287.000000,46284.800000,HighGoal,3247.500000,-3272.727273,Speed,3127.500000,-3272.727273,Speed,Off,Off0.000000,0,,,,
08:57:02.559 PM 03/17/2016,Teleop Enabled,8,FALSE,0,NO ERROR,-0.000000,-0.006417,0.000000,-0.417082,TRUE,FALSE,TRUE,FALSE,FALSE,FALSE,Disabled,0.000000,0.000000,0.000000,TRUE,0.044876,0.211548,0.000000,0.084991,0.022476,0.000000,-0.192000,0.107000,0.135000,0.000000,-0.010000,1.110000,0.419992,Hold,0.932617,0.000000,Hold,-46287.000000,46284.800000,HighGoal,3255.000000,-3272.727273,Speed,3127.500000,-3272.727273,Speed,Off,Off0.000000,0,,,,
08:57:02.660 PM 03/17/2016,Teleop Enabled,10,FALSE,0,NO ERROR,-0.000000,-0.006417,0.000000,-0.417082,TRUE,FALSE,TRUE,FALSE,FALSE,FALSE,Disabled,0.000000,0.000000,0.000000,TRUE,0.044876,0.211548,0.000000,0.084991,0.022476,0.000000,0.118000,-0.057000,0.215000,0.000000,-0.030000,1.130000,0.399299,Hold,0.932617,0.000000,Hold,-46287.000000,46284.800000,HighGoal,3255.000000,-3272.727273,Speed,3127.500000,-3272.727273,Speed,Off,Off0.000000,0,,,,
08:57:02.760 PM 03/17/2016,Teleop Enabled,9,FALSE,0,NO ERROR,-0.000000,-0.006417,0.000000,-0.417082,TRUE,FALSE,TRUE,FALSE,FALSE,FALSE,Disabled,0.000000,0.000000,0.000000,TRUE,0.047699,0.213318,0.000000,0.024734,0.044418,0.000000,0.045000,-0.060000,-0.020000,0.000000,-0.080000,1.130000,0.399299,Hold,0.932617,0.000000,Hold,-46287.000000,46284.800000,HighGoal,3247.500000,-3272.727273,Speed,3135.000000,-3272.727273,Speed,Off,Off0.000000,0,,,,
08:57:02.861 PM 03/17/2016,Teleop Enabled,9,FALSE,0,NO ERROR,-0.000000,-0.006417,0.000000,-0.417082,TRUE,FALSE,TRUE,FALSE,FALSE,FALSE,Disabled,0.000000,0.000000,0.000000,TRUE,0.048096,0.215012,0.000000,-0.015747,0.013718,0.000000,0.007000,-0.015000,-0.054000,0.000000,-0.060000,1.160000,0.409933,Hold,0.932617,0.000000,Hold,-46287.000000,46284.800000,HighGoal,3247.500000,-3272.727273,Speed,3135.000000,-3272.727273,Speed,Off,Off0.000000,0,,,,
08:57:02.961 PM 03/17/2016,Teleop Enabled,9,FALSE,0,NO ERROR,-0.000000,-0.006417,0.000000,-0.417082,TRUE,FALSE,TRUE,FALSE,FALSE,FALSE,Disabled,0.000000,0.000000,0.000000,TRUE,0.046188,0.216019,0.000000,-0.059402,0.033722,0.000000,0.081000,-0.088000,0.062000,0.000000,-0.040000,1.170000,0.403227,Hold,0.932617,0.000000,Hold,-46287.000000,46284.800000,HighGoal,3255.000000,-3272.727273,Speed,3135.000000,-3272.727273,Speed,Off,Off0.000000,0,,,,
08:57:03.061 PM 03/17/2016,Teleop Enabled,10,FALSE,0,NO ERROR,-0.000000,-0.006417,0.000000,-0.417082,TRUE,FALSE,TRUE,FALSE,FALSE,FALSE,Disabled,0.000000,0.000000,0.000000,TRUE,0.043182,0.217758,0.000000,-0.072342,0.028000,0.000000,-0.106000,0.069000,0.099000,0.000000,0.000000,1.160000,0.399085,Hold,0.932617,0.000000,Hold,-46287.000000,46284.800000,HighGoal,3255.000000,-3272.727273,Speed,3135.000000,-3272.727273,Speed,Off,Off0.000000,0,,,,
08:57:03.161 PM 03/17/2016,Teleop Enabled,9,FALSE,0,NO ERROR,-0.000000,-0.006417,0.000000,-0.417082,TRUE,FALSE,TRUE,FALSE,FALSE,FALSE,Disabled,0.000000,0.000000,0.000000,TRUE,0.039841,0.217850,0.000000,-0.039780,0.013000,0.000000,-0.206000,0.043000,-0.076000,0.000000,0.000000,1.160000,0.426054,Hold,0.932617,0.000000,Hold,-46287.000000,46284.800000,HighGoal,3255.000000,-3272.727273,Speed,3127.500000,-3272.727273,Speed,Off,Off0.000000,0,,,,
08:57:03.261 PM 03/17/2016,Teleop Enabled,10,FALSE,0,NO ERROR,-0.000000,-0.006417,0.000000,-0.417082,TRUE,FALSE,TRUE,FALSE,FALSE,FALSE,Disabled,0.000000,0.000000,0.000000,TRUE,0.036240,0.218048,0.000000,-0.072647,-0.007263,0.000000,0.033000,-0.015000,-0.053000,0.000000,-0.060000,1.150000,0.432089,Hold,0.932617,0.000000,Hold,-46287.000000,46284.800000,HighGoal,3255.000000,-3272.727273,Speed,3120.000000,-3272.727273,Speed,Off,Off0.000000,0,,,,
08:57:03.361 PM 03/17/2016,Teleop Enabled,9,FALSE,0,NO ERROR,-0.000000,-0.006417,0.000000,-0.417082,TRUE,FALSE,TRUE,FALSE,FALSE,FALSE,Disabled,0.000000,0.000000,0.000000,TRUE,0.033844,0.217163,0.000000,-0.054169,-0.021774,0.000000,0.108000,-0.106000,-0.146000,0.000000,-0.060000,1.200000,0.407620,Hold,0.932617,0.000000,Hold,-46287.000000,46284.800000,HighGoal,3247.500000,-3272.727273,Speed,3120.000000,-3272.727273,Speed,Off,Off0.000000,0,,,,
08:57:03.462 PM 03/17/2016,Teleop Enabled,10,FALSE,0,NO ERROR,-0.000000,-0.006417,0.000000,-0.417082,TRUE,FALSE,TRUE,FALSE,FALSE,FALSE,Disabled,0.000000,0.000000,0.000000,TRUE,0.032944,0.215866,0.000000,0.011566,-0.025787,0.000000,-0.140000,0.046000,-0.016000,0.000000,-0.060000,1.200000,0.416656,Hold,0.932617,0.000000,Hold,-46287.000000,46284.800000,HighGoal,3255.000000,-3272.727273,Speed,3120.000000,-3272.727273,Speed,Off,Off0.000000,0,,,,
08:57:03.562 PM 03/17/2016,Teleop Enabled,9,FALSE,0,NO ERROR,-0.000000,-0.006417,0.000000,-0.417082,TRUE,FALSE,TRUE,FALSE,FALSE,FALSE,Disabled,0.000000,0.000000,0.000000,TRUE,0.033813,0.213699,0.000000,0.040649,-0.060287,0.000000,-0.056000,0.091000,0.033000,0.000000,-0.040000,1.180000,0.414184,Hold,0.932617,0.000000,Hold,-46287.000000,46284.800000,HighGoal,3255.000000,-3272.727273,Speed,3120.000000,-3272.727273,Speed,Off,Off0.000000,0,,,,
08:57:03.662 PM 03/17/2016,Teleop Enabled,10,FALSE,0,NO ERROR,-0.000000,-0.006417,0.000000,-0.417082,TRUE,FALSE,TRUE,FALSE,FALSE,FALSE,Disabled,0.000000,0.000000,0.000000,TRUE,0.036667,0.210449,0.000000,0.058853,-0.064331,0.000000,0.094000,-0.026000,-0.150000,0.000000,-0.040000,1.180000,0.409499,Hold,0.932617,0.000000,Hold,-46288.000000,46284.800000,HighGoal,3247.500000,-3272.727273,Speed,3120.000000,-3272.727273,Speed,Off,Off0.000000,0,,,,
08:57:03.764 PM 03/17/2016,Teleop Enabled,10,FALSE,0,NO ERROR,-0.000000,-0.006417,0.000000,-0.417082,TRUE,FALSE,TRUE,FALSE,FALSE,FALSE,Disabled,0.000000,0.000000,0.000000,TRUE,0.040283,0.207504,0.000000,0.066467,-0.057022,0.000000,0.063000,-0.060000,0.037000,0.000000,-0.070000,1.170000,0.415802,Hold,0.932617,0.000000,Hold,-46288.000000,46284.800000,HighGoal,3255.000000,-3272.727273,Speed,3120.000000,-3272.727273,Speed,Off,Off0.000000,0,,,,
08:57:03.863 PM 03/17/2016,Teleop Enabled,10,FALSE,0,NO ERROR,-0.000000,-0.006417,0.000000,-0.417082,TRUE,FALSE,TRUE,FALSE,FALSE,FALSE,Disabled,0.000000,0.000000,0.000000,TRUE,0.042358,0.204941,0.000000,0.043076,-0.042465,0.000000,-0.037000,0.128000,-0.093000,0.000000,-0.050000,1.150000,0.414539,Hold,0.932617,0.000000,Hold,-46288.000000,46284.800000,HighGoal,3255.000000,-3272.727273,Speed,3120.000000,-3272.727273,Speed,Off,Off0.000000,0,,,,
08:57:03.964 PM 03/17/2016,Teleop Enabled,6,FALSE,0,NO ERROR,-0.000000,-0.006417,0.000000,-0.417082,TRUE,FALSE,TRUE,FALSE,FALSE,FALSE,Disabled,0.000000,0.000000,0.000000,TRUE,0.043243,0.203735,0.000000,-0.013504,-0.015411,0.000000,0.058000,-0.022000,0.161000,0.000000,-0.020000,1.210000,0.420956,Hold,0.932617,0.000000,Hold,-46288.000000,46284.800000,HighGoal,3255.000000,-3272.727273,Speed,3127.500000,-3272.727273,Speed,Off,Off0.000000,0,,,,
08:57:04.064 PM 03/17/2016,Teleop Enabled,9,FALSE,0,NO ERROR,-0.000000,-0.006417,0.000000,-0.417082,TRUE,FALSE,TRUE,FALSE,FALSE,FALSE,Disabled,0.000000,0.000000,0.000000,TRUE,0.042618,0.202728,0.000000,-0.022827,-0.021088,0.000000,-0.269000,0.104000,0.070000,0.000000,0.000000,1.220000,0.442369,Hold,0.932617,0.000000,Hold,-46288.000000,46284.800000,HighGoal,3247.500000,-3272.727273,Speed,3127.500000,-3272.727273,Speed,Off,Off0.000000,0,,,,
08:57:04.164 PM 03/17/2016,Teleop Enabled,7,FALSE,0,NO ERROR,-0.000000,-0.006417,0.000000,-0.417082,TRUE,FALSE,TRUE,FALSE,FALSE,FALSE,Disabled,0.000000,0.000000,0.000000,TRUE,0.039688,0.201248,0.000000,-0.055878,-0.029083,0.000000,-0.099000,-0.003000,0.038000,0.000000,0.010000,1.280000,0.451984,Hold,0.932617,0.000000,Hold,-46288.000000,46284.800000,HighGoal,3255.000000,-3272.727273,Speed,3127.500000,-3272.727273,Speed,Off,Off0.000000,0,,,,
08:57:04.265 PM 03/17/2016,Teleop Enabled,11,FALSE,0,NO ERROR,-0.000000,-0.006417,0.000000,-0.417082,TRUE,FALSE,TRUE,FALSE,FALSE,FALSE,Disabled,0.000000,0.000000,0.000000,TRUE,0.034866,0.200119,0.000000,-0.113739,-0.023605,0.000000,0.099000,-0.056000,0.118000,0.000000,-0.010000,1.250000,0.440203,Hold,0.932617,0.000000,Hold,-46288.000000,46284.800000,HighGoal,3255.000000,-3272.727273,Speed,3127.500000,-3272.727273,Speed,Off,Off0.000000,0,,,,
08:57:04.365 PM 03/17/2016,Teleop Enabled,8,FALSE,0,NO ERROR,-0.000000,-0.006417,0.000000,-0.417082,TRUE,FALSE,TRUE,FALSE,FALSE,FALSE,Disabled,0.000000,0.000000,0.000000,TRUE,0.028961,0.199722,0.000000,-0.137161,0.006058,0.000000,0.011000,-0.042000,-0.153000,0.000000,0.000000,1.340000,0.442765,Hold,0.932617,0.000000,Hold,-46288.000000,46284.800000,HighGoal,3262.500000,-3272.727273,Speed,3135.000000,-3272.727273,Speed,Off,Off0.000000,0,,,,
08:57:04.466 PM 03/17/2016,Teleop Enabled,9,FALSE,0,NO ERROR,-0.000000,-0.006417,0.000000,-0.417082,TRUE,FALSE,TRUE,FALSE,FALSE,FALSE,Disabled,0.000000,0.000000,0.000000,TRUE,0.023468,0.199677,0.000000,-0.121735,-0.013321,0.000000,0.138000,-0.075000,0.119000,0.000000,0.000000,1.340000,0.447574,Hold,0.932617,0.000000,Hold,-46288.000000,46284.800000,HighGoal,3255.000000,-3272.727273,Speed,3135.000000,-3272.727273,Speed,Off,Off0.000000,0,,,,
08:57:04.568 PM 03/17/2016,Teleop Enabled,13,FALSE,0,NO ERROR,-0.000000,-0.006417,0.000000,-0.417082,TRUE,FALSE,TRUE,FALSE,FALSE,FALSE,Disabled,0.000000,0.000000,0.000000,TRUE,0.016129,0.198074,0.000000,-0.138016,-0.032196,0.000000,-0.057000,-0.064000,0.107000,0.000000,0.020000,1.380000,0.476791,Hold,0.932617,0.000000,Hold,-46288.000000,46284.800000,HighGoal,3255.000000,-3272.727273,Speed,3127.500000,-3272.727273,Speed,Off,Off0.000000,0,,,,
08:57:04.668 PM 03/17/2016,Teleop Enabled,10,FALSE,0,NO ERROR,-0.000000,-0.006417,0.000000,-0.417082,TRUE,FALSE,TRUE,FALSE,FALSE,FALSE,Disabled,0.000000,0.000000,0.000000,TRUE,0.010773,0.195755,0.000000,-0.091156,-0.055359,0.000000,0.074000,-0.052000,-0.094000,0.000000,0.030000,1.490000,0.483204,Hold,0.932617,0.000000,Hold,-46288.000000,46284.800000,HighGoal,3255.000000,-3272.727273,Speed,3135.000000,-3272.727273,Speed,Off,Off0.000000,0,,,,
08:57:04.769 PM 03/17/2016,Teleop Enabled,15,FALSE,0,NO ERROR,-0.000000,-0.006417,0.000000,-0.417082,TRUE,FALSE,TRUE,FALSE,FALSE,FALSE,Disabled,0.000000,0.000000,0.000000,TRUE,0.006531,0.192505,0.000000,-0.064835,-0.066269,0.000000,0.058000,0.060000,-0.076000,0.000000,0.050000,1.590000,0.494155,Hold,0.932617,0.000000,Hold,-46288.000000,46284.800000,HighGoal,3255.000000,-3272.727273,Speed,3135.000000,-3272.727273,Speed,Off,Off0.000000,0,,,,
08:57:04.869 PM 03/17/2016,Teleop Enabled,16,FALSE,0,NO ERROR,-0.000000,-0.006417,0.000000,-0.417082,TRUE,FALSE,TRUE,FALSE,FALSE,FALSE,Disabled,0.000000,0.000000,0.000000,TRUE,0.004562,0.189545,0.000000,-0.036301,-0.059875,0.000000,0.121000,-0.015000,0.078000,0.000000,0.050000,1.610000,0.492819,Hold,0.932617,0.000000,Hold,-46288.000000,46284.800000,HighGoal,3247.500000,-3272.727273,Speed,3120.000000,-3272.727273,Speed,Off,Off0.000000,0,,,,
08:57:04.970 PM 03/17/2016,Teleop Enabled,9,FALSE,0,NO ERROR,-0.000000,-0.006417,0.000000,-0.417082,TRUE,FALSE,TRUE,FALSE,FALSE,FALSE,Disabled,0.000000,0.000000,0.000000,TRUE,0.005295,0.186127,0.000000,0.037552,-0.075821,0.000000,-0.158000,-0.005000,0.138000,0.000000,0.030000,1.610000,0.486688,Hold,0.932617,0.000000,Hold,-46288.000000,46284.800000,HighGoal,3255.000000,-3272.727273,Speed,3135.000000,-3272.727273,Speed,Off,Off0.000000,0,,,,
08:57:05.071 PM 03/17/2016,Teleop Enabled,9,FALSE,0,NO ERROR,-0.000000,-0.006417,0.000000,-0.417082,TRUE,FALSE,TRUE,FALSE,FALSE,FALSE,Disabled,0.000000,0.000000,0.000000,TRUE,0.007050,0.184708,0.000000,0.046906,0.013748,0.000000,0.017000,0.098000,-0.034000,0.000000,0.070000,1.640000,0.489311,Hold,0.932617,0.000000,Hold,-46288.000000,46284.800000,HighGoal,3255.000000,-3272.727273,Speed,3142.500000,-3272.727273,Speed,Off,Off0.000000,0,,,,
08:57:05.171 PM 03/17/2016,Teleop Enabled,11,FALSE,0,NO ERROR,-0.000000,-0.006417,0.000000,-0.417082,TRUE,FALSE,TRUE,FALSE,FALSE,FALSE,Disabled,0.000000,0.000000,0.000000,TRUE,0.009583,0.186661,0.000000,0.029999,0.055298,0.000000,-0.052000,0.017000,-0.104000,0.000000,0.030000,1.410000,0.503801,Hold,0.932617,0.000000,Hold,-46288.000000,46284.800000,HighGoal,3255.000000,-3272.727273,Speed,3120.000000,-3272.727273,Speed,Off,Off0.000000,0,,,,
08:57:05.271 PM 03/17/2016,Teleop Enabled,11,FALSE,0,NO ERROR,-0.000000,-0.006417,0.000000,-0.417082,TRUE,FALSE,TRUE,FALSE,FALSE,FALSE,Disabled,0.000000,0.000000,0.000000,TRUE,0.010574,0.186554,0.000000,0.030991,-0.003021,0.000000,0.023000,-0.049000,0.009000,0.000000,0.020000,1.200000,0.504080,Hold,0.932617,0.000000,Hold,-46288.000000,46284.800000,HighGoal,3255.000000,-3272.727273,Speed,3120.000000,-3272.727273,Speed,Off,Off0.000000,0,,,,
08:57:05.372 PM 03/17/2016,Teleop Enabled,9,FALSE,0,NO ERROR,-0.000000,-0.006417,0.000000,-0.417082,TRUE,FALSE,TRUE,FALSE,FALSE,FALSE,Disabled,0.000000,0.000000,0.000000,TRUE,0.010529,0.186310,0.000000,-0.003906,-0.002823,0.000000,0.189000,-0.079000,0.127000,0.000000,0.020000,1.270000,0.521024,Hold,0.932617,0.000000,Hold,-46288.000000,46284.800000,HighGoal,3247.500000,-3272.727273,Speed,3120.000000,-3272.727273,Speed,Off,Off0.000000,0,,,,
08:57:05.472 PM 03/17/2016,Teleop Enabled,10,FALSE,0,NO ERROR,-0.000000,-0.006417,0.000000,-0.417082,TRUE,FALSE,TRUE,FALSE,FALSE,FALSE,Disabled,0.000000,0.000000,0.000000,TRUE,0.009399,0.186249,0.000000,-0.048355,-0.005020,0.000000,-0.167000,0.097000,0.113000,0.000000,0.040000,1.190000,0.533569,Hold,0.932617,0.000000,Hold,-46288.000000,46284.800000,HighGoal,3255.000000,-3272.727273,Speed,3120.000000,-3272.727273,Speed,Off,Off0.000000,0,,,,
08:57:05.572 PM 03/17/2016,Teleop Enabled,11,FALSE,0,NO ERROR,-0.000000,-0.006417,0.000000,-0.417082,TRUE,FALSE,TRUE,FALSE,FALSE,FALSE,Disabled,0.000000,0.000000,0.000000,TRUE,0.006409,0.186340,0.000000,-0.080902,0.002548,0.000000,0.020000,-0.010000,-0.059000,0.000000,0.060000,1.180000,0.559140,Hold,0.932617,0.000000,Hold,-46288.000000,46284.800000,HighGoal,3255.000000,-3272.727273,Speed,3135.000000,-3272.727273,Speed,Off,Off0.000000,0,,,,
08:57:05.674 PM 03/17/2016,Teleop Enabled,9,FALSE,0,NO ERROR,-0.000000,-0.006417,0.000000,-0.417082,TRUE,FALSE,TRUE,FALSE,FALSE,FALSE,Disabled,0.000000,0.000000,0.000000,TRUE,0.000366,0.186264,0.000000,-0.123657,0.000275,0.000000,0.140000,-0.148000,-0.015000,0.000000,0.000000,1.250000,0.572029,Hold,0.932617,0.000000,Hold,-46288.000000,46284.800000,HighGoal,3262.500000,-3272.727273,Speed,3120.000000,-3272.727273,Speed,Off,Off0.000000,0,,,,
08:57:05.775 PM 03/17/2016,Teleop Enabled,11,FALSE,0,NO ERROR,-0.000000,-0.006417,0.000000,-0.417082,TRUE,FALSE,TRUE,FALSE,FALSE,FALSE,Disabled,0.000000,0.000000,0.000000,TRUE,-0.006287,0.186234,0.000000,-0.145981,-0.003098,0.000000,0.021000,0.054000,0.158000,0.010000,0.000000,1.210000,0.588763,Hold,0.932617,0.000000,Hold,-46288.000000,46284.800000,HighGoal,3262.500000,-3272.727273,Speed,3120.000000,-3272.727273,Speed,Off,Off0.000000,0,,,,
08:57:05.876 PM 03/17/2016,Teleop Enabled,9,FALSE,0,NO ERROR,-0.000000,-0.006417,0.000000,-0.417082,TRUE,FALSE,TRUE,FALSE,FALSE,FALSE,Disabled,0.000000,0.000000,0.000000,TRUE,-0.012329,0.185822,0.000000,-0.114212,0.000000,0.000000,-0.144000,-0.043000,0.127000,0.020000,0.010000,1.170000,0.614366,Hold,0.932617,0.000000,Hold,-46288.000000,46284.800000,HighGoal,3247.500000,-3272.727273,Speed,3127.500000,-3272.727273,Speed,Off,Off0.000000,0,,,,
08:57:05.977 PM 03/17/2016,Teleop Enabled,10,FALSE,0,NO ERROR,-0.000000,-0.006417,0.000000,-0.417082,TRUE,FALSE,TRUE,FALSE,FALSE,FALSE,Disabled,0.000000,0.000000,0.000000,TRUE,-0.018295,0.185043,0.000000,-0.097153,-0.021866,0.000000,0.164000,-0.097000,0.133000,0.020000,0.000000,1.160000,0.632870,Hold,0.932617,0.000000,Hold,-46288.000000,46284.800000,HighGoal,3255.000000,-3272.727273,Speed,3127.500000,-3272.727273,Speed,Off,Off0.000000,0,,,,
08:57:06.078 PM 03/17/2016,Teleop Enabled,9,FALSE,0,NO ERROR,-0.000000,-0.006417,0.000000,-0.417082,TRUE,FALSE,TRUE,FALSE,FALSE,FALSE,Disabled,0.000000,0.000000,0.000000,TRUE,-0.023132,0.184250,0.000000,-0.102417,-0.023483,0.000000,0.052000,-0.002000,0.167000,0.030000,-0.030000,1.180000,0.666049,Hold,0.932617,0.000000,Hold,-46288.000000,46284.800000,HighGoal,3262.500000,-3272.727273,Speed,3135.000000,-3272.727273,Speed,Off,Off0.000000,0,,,,
08:57:06.179 PM 03/17/2016,Teleop Enabled,9,FALSE,0,NO ERROR,-0.000000,-0.006417,0.000000,-0.417082,TRUE,FALSE,TRUE,FALSE,FALSE,FALSE,Disabled,0.000000,0.000000,0.000000,TRUE,-0.026932,0.182724,0.000000,-0.059265,-0.027222,0.000000,0.041000,-0.037000,-0.039000,0.020000,-0.030000,1.160000,0.677974,Hold,0.932617,0.000000,Hold,-46288.000000,46284.800000,HighGoal,3255.000000,-3272.727273,Speed,3127.500000,-3272.727273,Speed,Off,Off0.000000,0,,,,
08:57:06.279 PM 03/17/2016,Teleop Enabled,10,FALSE,0,NO ERROR,-0.000000,-0.006417,0.000000,-0.417082,TRUE,FALSE,TRUE,FALSE,FALSE,FALSE,Disabled,0.000000,0.000000,0.000000,TRUE,-0.030075,0.180679,0.000000,-0.012024,-0.047134,0.000000,0.265000,-0.161000,0.133000,0.010000,-0.060000,1.150000,0.677024,Hold,0.932617,0.000000,Hold,-46288.000000,46284.800000,HighGoal,3255.000000,-3272.727273,Speed,3127.500000,-3272.727273,Speed,Off,Off0.000000,0,,,,
08:57:06.380 PM 03/17/2016,Teleop Enabled,10,FALSE,0,NO ERROR,-0.000000,-0.006417,0.000000,-0.417082,TRUE,FALSE,TRUE,FALSE,FALSE,FALSE,Disabled,0.000000,0.000000,0.000000,TRUE,-0.030212,0.177872,0.000000,-0.001785,-0.059525,0.000000,0.112000,0.008000,-0.197000,0.020000,-0.010000,1.140000,0.692832,Hold,0.932617,0.000000,Hold,-46288.000000,46284.800000,HighGoal,3262.500000,-3272.727273,Speed,3127.500000,-3272.727273,Speed,Off,Off0.000000,0,,,,
08:57:06.480 PM 03/17/2016,Teleop Enabled,11,FALSE,0,NO ERROR,-0.000000,-0.006417,0.000000,-0.417082,TRUE,FALSE,TRUE,FALSE,FALSE,FALSE,Disabled,0.000000,0.000000,0.000000,TRUE,-0.029556,0.177795,0.000000,0.011185,0.021667,0.000000,0.079000,-0.111000,0.058000,0.020000,-0.010000,1.150000,0.706578,Hold,0.932617,0.000000,Hold,-46288.000000,46284.800000,HighGoal,3255.000000,-3272.727273,Speed,3135.000000,-3272.727273,Speed,Off,Off0.000000,0,,,,
08:57:06.580 PM 03/17/2016,Teleop Enabled,10,FALSE,0,NO ERROR,-0.000000,-0.006417,0.000000,-0.417082,TRUE,FALSE,TRUE,FALSE,FALSE,FALSE,Disabled,0.000000,0.000000,0.000000,TRUE,-0.029465,0.178757,0.000000,-0.002380,0.022766,0.000000,-0.084000,0.009000,-0.077000,0.030000,-0.050000,1.090000,0.719925,Hold,0.932617,0.000000,Hold,-46288.000000,46284.800000,HighGoal,3255.000000,-3272.727273,Speed,3142.500000,-3272.727273,Speed,Off,Off0.000000,0,,,,
08:57:06.681 PM 03/17/2016,Teleop Enabled,10,FALSE,0,NO ERROR,-0.000000,-0.006417,0.000000,-0.417082,TRUE,FALSE,TRUE,FALSE,FALSE,FALSE,Disabled,0.000000,0.000000,0.000000,TRUE,-0.029373,0.180283,0.000000,-0.011200,0.039505,0.000000,0.044000,-0.079000,-0.115000,0.020000,-0.050000,1.140000,0.717295,Hold,0.932617,0.000000,Hold,-46288.000000,46284.800000,HighGoal,3255.000000,-3272.727273,Speed,3135.000000,-3272.727273,Speed,Off,Off0.000000,0,,,,
08:57:06.781 PM 03/17/2016,Teleop Enabled,9,FALSE,0,NO ERROR,-0.000000,-0.006417,0.000000,-0.417082,TRUE,FALSE,TRUE,FALSE,FALSE,FALSE,Disabled,0.000000,0.000000,0.000000,TRUE,-0.029633,0.181320,0.000000,0.000000,0.003174,0.000000,-0.139000,0.074000,0.018000,0.020000,-0.020000,1.100000,0.733544,Hold,0.932617,0.000000,Hold,-46288.000000,46284.800000,HighGoal,3255.000000,-3272.727273,Speed,3150.000000,-3272.727273,Speed,Off,Off0.000000,0,,,,
08:57:06.882 PM 03/17/2016,Teleop Enabled,10,FALSE,0,NO ERROR,-0.000000,-0.006417,0.000000,-0.417082,TRUE,FALSE,TRUE,FALSE,FALSE,FALSE,Disabled,0.000000,0.000000,0.000000,TRUE,-0.031723,0.182587,0.000000,-0.073669,0.033707,0.000000,-0.147000,0.076000,0.028000,0.020000,-0.070000,1.130000,0.745162,Hold,0.932617,0.000000,Hold,-46288.000000,46284.800000,HighGoal,3262.500000,-3272.727273,Speed,3150.000000,-3272.727273,Speed,Off,Off0.000000,0,,,,
08:57:06.983 PM 03/17/2016,Teleop Enabled,10,FALSE,0,NO ERROR,-0.000000,-0.006417,0.000000,-0.417082,TRUE,FALSE,TRUE,FALSE,FALSE,FALSE,Disabled,0.000000,0.000000,0.000000,TRUE,-0.035339,0.184753,0.000000,-0.077881,0.055176,0.000000,-0.151000,0.088000,-0.053000,0.020000,-0.060000,1.140000,0.751369,Hold,0.932617,0.000000,Hold,-46288.000000,46284.800000,HighGoal,3255.000000,-3272.727273,Speed,3142.500000,-3272.727273,Speed,Off,Off0.000000,0,,,,
08:57:07.084 PM 03/17/2016,Teleop Enabled,9,FALSE,0,NO ERROR,-0.000000,-0.006417,0.000000,-0.417082,TRUE,FALSE,TRUE,FALSE,FALSE,FALSE,Disabled,0.000000,0.000000,0.000000,TRUE,-0.042801,0.188675,0.000000,-0.146133,0.065125,0.000000,0.033000,0.023000,-0.102000,0.020000,-0.050000,1.110000,0.782938,Hold,0.932617,0.000000,Hold,-46288.000000,46284.800000,HighGoal,3255.000000,-3272.727273,Speed,3165.000000,-3272.727273,Speed,Off,Off0.000000,0,,,,
08:57:07.185 PM 03/17/2016,Teleop Enabled,10,FALSE,0,NO ERROR,-0.000000,-0.006417,0.000000,-0.417082,TRUE,FALSE,TRUE,FALSE,FALSE,FALSE,Disabled,0.000000,0.000000,0.000000,TRUE,-0.050278,0.192505,0.000000,-0.163986,0.082809,0.000000,-0.166000,0.143000,-0.103000,0.020000,-0.020000,1.100000,0.814020,Hold,0.932617,0.000000,Hold,-46288.000000,46284.800000,HighGoal,3255.000000,-3272.727273,Speed,3172.500000,-3272.727273,Speed,Off,Off0.000000,0,,,,
08:57:07.285 PM 03/17/2016,Teleop Enabled,10,FALSE,0,NO ERROR,-0.000000,-0.006417,0.000000,-0.417082,TRUE,FALSE,TRUE,FALSE,FALSE,FALSE,Disabled,0.000000,0.000000,0.000000,TRUE,-0.058228,0.195114,0.000000,-0.217316,0.062912,0.000000,-0.153000,0.137000,0.024000,0.030000,-0.070000,1.100000,0.834662,Hold,0.932617,0.000000,Hold,-46288.000000,46284.800000,HighGoal,3262.500000,-3272.727273,Speed,3157.500000,-3272.727273,Speed,Off,Off0.000000,0,,,,
08:57:07.386 PM 03/17/2016,Teleop Enabled,11,FALSE,0,NO ERROR,-0.000000,-0.006417,0.000000,-0.417082,TRUE,FALSE,TRUE,FALSE,FALSE,FALSE,Disabled,0.000000,0.000000,0.000000,TRUE,-0.069244,0.198486,0.000000,-0.217148,0.071701,0.000000,0.053000,0.015000,-0.026000,0.030000,-0.060000,1.130000,0.841730,Hold,0.932617,0.000000,Hold,-46288.000000,46284.800000,HighGoal,3262.500000,-3272.727273,Speed,3150.000000,-3272.727273,Speed,Off,Off0.000000,0,,,,
08:57:07.486 PM 03/17/2016,Teleop Enabled,11,FALSE,0,NO ERROR,-0.000000,-0.006417,0.000000,-0.417082,TRUE,FALSE,TRUE,FALSE,FALSE,FALSE,Disabled,0.000000,0.000000,0.000000,TRUE,-0.081680,0.198105,0.000000,-0.264496,-0.015259,0.000000,-0.110000,-0.052000,0.175000,0.040000,-0.050000,1.130000,0.861029,Hold,0.932617,0.000000,Hold,-46288.000000,46284.800000,HighGoal,3255.000000,-3272.727273,Speed,3165.000000,-3272.727273,Speed,Off,Off0.000000,0,,,,
08:57:07.587 PM 03/17/2016,Teleop Enabled,11,FALSE,0,NO ERROR,-0.000000,-0.006417,0.000000,-0.417082,TRUE,FALSE,TRUE,FALSE,FALSE,FALSE,Disabled,0.000000,0.000000,0.000000,TRUE,-0.096802,0.196503,0.000000,-0.241760,-0.029938,0.000000,0.062000,-0.117000,0.052000,0.040000,-0.080000,1.120000,0.885760,Hold,0.932617,0.000000,Hold,-46288.000000,46284.800000,HighGoal,3262.500000,-3272.727273,Speed,3172.500000,-3272.727273,Speed,Off,Off0.000000,0,,,,
08:57:07.688 PM 03/17/2016,Teleop Enabled,11,FALSE,0,NO ERROR,-0.000000,-0.006417,0.000000,-0.417082,TRUE,FALSE,TRUE,FALSE,FALSE,FALSE,Disabled,0.000000,0.000000,0.000000,TRUE,-0.110367,0.194824,0.000000,-0.285904,-0.043991,0.000000,-0.043000,0.059000,0.035000,0.040000,-0.070000,1.090000,0.918285,Hold,0.932617,0.000000,Hold,-46288.000000,46284.800000,HighGoal,3262.500000,-3272.727273,Speed,3172.500000,-3272.727273,Speed,Off,Off0.000000,0,,,,
08:57:07.788 PM 03/17/2016,Teleop Enabled,10,FALSE,0,NO ERROR,-0.000000,-0.006417,0.000000,-0.417082,TRUE,FALSE,TRUE,FALSE,FALSE,FALSE,Disabled,0.000000,0.000000,0.000000,TRUE,-0.125778,0.191376,0.000000,-0.241699,-0.054337,0.000000,-0.195000,0.029000,-0.070000,0.040000,-0.070000,1.100000,0.943512,Hold,0.932617,0.000000,Hold,-46288.000000,46284.800000,HighGoal,3262.500000,-3272.727273,Speed,3157.500000,-3272.727273,Speed,Off,Off0.000000,0,,,,
08:57:07.888 PM 03/17/2016,Teleop Enabled,10,FALSE,0,NO ERROR,-0.000000,-0.006417,0.000000,-0.417082,TRUE,FALSE,TRUE,FALSE,FALSE,FALSE,Disabled,0.000000,0.000000,0.000000,TRUE,-0.138458,0.188751,0.000000,-0.240967,0.000000,0.000000,0.074000,0.000000,-0.057000,0.040000,-0.100000,1.100000,0.956931,Hold,0.932617,0.000000,Hold,-46288.000000,46284.800000,HighGoal,3262.500000,-3272.727273,Speed,3150.000000,-3272.727273,Speed,Off,Off0.000000,0,,,,
08:57:07.989 PM 03/17/2016,Teleop Enabled,9,FALSE,0,NO ERROR,-0.000000,-0.006417,0.000000,-0.417082,TRUE,FALSE,TRUE,FALSE,FALSE,FALSE,Disabled,0.000000,0.000000,0.000000,TRUE,-0.148621,0.188431,0.000000,-0.196472,0.000031,0.000000,0.074000,0.000000,-0.057000,0.040000,-0.090000,1.120000,0.981818,Hold,0.932617,0.000000,Hold,-46288.000000,46284.800000,HighGoal,3255.000000,-3272.727273,Speed,3150.000000,-3272.727273,Speed,Off,Off0.000000,0,,,,
08:57:08.089 PM 03/17/2016,Teleop Enabled,11,FALSE,0,NO ERROR,-0.000000,-0.006417,0.000000,-0.417082,TRUE,FALSE,TRUE,FALSE,FALSE,FALSE,Disabled,0.000000,0.000000,0.000000,TRUE,-0.158295,0.188507,0.000000,-0.168839,-0.008347,0.000000,-0.133000,0.162000,0.028000,0.040000,-0.080000,1.100000,0.988858,Hold,0.932617,0.000000,Hold,-46288.000000,46284.800000,HighGoal,3255.000000,-3272.727273,Speed,3165.000000,-3272.727273,Speed,Off,Off0.000000,0,,,,
08:57:08.189 PM 03/17/2016,Teleop Enabled,9,FALSE,0,NO ERROR,-0.000000,-0.006417,0.000000,-0.417082,TRUE,FALSE,TRUE,FALSE,FALSE,FALSE,Disabled,0.000000,0.000000,0.000000,TRUE,-0.164627,0.187912,0.000000,-0.106628,-0.004257,0.000000,-0.104000,-0.010000,-0.047000,0.050000,-0.090000,1.130000,0.978069,Hold,0.932617,0.000000,Hold,-46288.000000,46284.800000,HighGoal,3270.000000,-3272.727273,Speed,3165.000000,-3272.727273,Speed,Off,Off0.000000,0,,,,
08:57:08.289 PM 03/17/2016,Teleop Enabled,9,FALSE,0,NO ERROR,-0.000000,-0.006417,0.000000,-0.417082,TRUE,FALSE,TRUE,FALSE,FALSE,FALSE,Disabled,0.000000,0.000000,0.000000,TRUE,-0.169846,0.187088,0.000000,-0.088272,-0.028229,0.000000,0.051000,-0.015000,-0.127000,0.050000,-0.090000,1.130000,0.971745,Hold,0.932617,0.000000,Hold,-46288.000000,46284.800000,HighGoal,3270.000000,-3272.727273,Speed,3157.500000,-3272.727273,Speed,Off,Off0.000000,0,,,,
08:57:08.389 PM 03/17/2016,Teleop Enabled,10,FALSE,0,NO ERROR,-0.000000,-0.006417,0.000000,-0.417082,TRUE,FALSE,TRUE,FALSE,FALSE,FALSE,Disabled,0.000000,0.000000,0.000000,TRUE,-0.172958,0.185425,0.000000,-0.055176,-0.010620,0.000000,0.051000,-0.015000,-0.127000,0.040000,-0.080000,1.130000,0.989921,Hold,0.932617,0.000000,Hold,-46288.000000,46284.800000,HighGoal,3255.000000,-3272.727273,Speed,3157.500000,-3272.727273,Speed,Off,Off0.000000,0,,,,
08:57:08.488 PM 03/17/2016,Teleop Enabled,9,FALSE,0,NO ERROR,-0.000000,-0.006417,0.000000,-0.417082,TRUE,FALSE,TRUE,FALSE,FALSE,FALSE,Disabled,0.000000,0.000000,0.000000,TRUE,-0.174576,0.185211,0.000000,-0.014191,-0.005966,0.000000,-0.148000,0.175000,0.028000,0.050000,-0.070000,1.110000,1.010232,Hold,0.932617,0.000000,Hold,-46288.000000,46284.800000,HighGoal,3255.000000,-3272.727273,Speed,3165.000000,-3272.727273,Speed,Off,Off0.000000,0,,,,
08:57:08.589 PM 03/17/2016,Teleop Enabled,9,FALSE,0,NO ERROR,-0.000000,-0.006417,0.000000,-0.417082,TRUE,FALSE,TRUE,FALSE,FALSE,FALSE,Disabled,0.000000,0.000000,0.000000,TRUE,-0.173355,0.184158,0.000000,0.037888,-0.025040,0.000000,-0.138000,0.010000,-0.012000,0.050000,-0.100000,1.140000,1.015207,Hold,0.932617,0.000000,Hold,-46288.000000,46284.800000,HighGoal,3270.000000,-3272.727273,Speed,3165.000000,-3272.727273,Speed,Off,Off0.000000,0,,,,
08:57:08.689 PM 03/17/2016,Teleop Enabled,10,FALSE,0,NO ERROR,-0.000000,-0.006417,0.000000,-0.417082,TRUE,FALSE,TRUE,FALSE,FALSE,FALSE,Disabled,0.000000,0.000000,0.000000,TRUE,-0.172623,0.183136,0.000000,0.015030,-0.021286,0.000000,-0.138000,0.010000,-0.012000,0.050000,-0.100000,1.140000,1.026478,Hold,0.932617,0.000000,Hold,-46288.000000,46284.800000,HighGoal,3262.500000,-3272.727273,Speed,3165.000000,-3272.727273,Speed,Off,Off0.000000,0,,,,
08:57:08.789 PM 03/17/2016,Teleop Enabled,10,FALSE,0,NO ERROR,-0.000000,-0.006417,0.000000,-0.417082,TRUE,FALSE,TRUE,FALSE,FALSE,FALSE,Disabled,0.000000,0.000000,0.000000,TRUE,-0.170776,0.181900,0.000000,0.040390,-0.022507,0.000000,0.073000,-0.061000,0.084000,0.050000,-0.110000,1.150000,1.028884,Hold,0.932617,0.000000,Hold,-46288.000000,46284.800000,HighGoal,3255.000000,-3272.727273,Speed,3165.000000,-3272.727273,Speed,Off,Off0.000000,0,,,,
