Time,Robot Mode,Loop Time,Error Status,Error Code,Error Source,Left Motor Output,Left Motor Encoder,Right Motor Output,Right Motor Encoder,Is Level,Is Stalled,Ball Detector Photoeye,Vision Enabled,Vision Teleop Control,Vision Auto Control,Vision Current State,Vision X Output,Vision NavX Error,Vision NavX Target,NavX Connection Status,NavX Displacement X,NavX Displacement Y,NavX Displacement Z,NavX Velocity X,NavX Velocity Y,NavX Velocity Z,NavX Acceleration X,NavX Acceleration Y,NavX Acceleration Z,NavX Pitch,NavX Yaw,NavX Roll,Gyro Angle,Roller Arm State,Roller Arm Actual,Roller Arm Desired,Shooter Arm State,Shooter Arm Actual,Shooter Arm Desired,Shooter State,Actual RPM Left,Desired RPM Left,Control Mode Left,Actual RPM Right,Desired RPM Right,Scaler Motor Output,Auto To Run,Auto Current File,Auto File Status,Auto Current Command,Auto Trimmed Command
02:16:52.797 PM 03/19/2016,Teleop Enabled,9,FALSE,0,NO ERROR,-0.000000,-0.109083,0.000000,-0.089833,TRUE,FALSE,FALSE,FALSE,FALSE,FALSE,Disabled,0.000000,0.000000,0.000000,TRUE,-0.279175,1.775238,0.000000,0.000000,0.000000,0.000000,0.002000,-0.003000,0.018000,-0.060000,0.360000,2.560000,0.426832,ResetBack,0.894775,-0.200000,ResetBack,-28719.000000,-0.300000,Suck,0.000000,2181.818182,Speed,0.000000,2181.818182,Speed,On,On0.000000,0,,,,
02:16:52.897 PM 03/19/2016,Teleop Enabled,10,FALSE,0,NO ERROR,-0.000000,-0.154000,0.000000,-0.237416,TRUE,FALSE,FALSE,FALSE,FALSE,FALSE,Disabled,0.000000,0.000000,0.000000,TRUE,-0.278915,1.775436,0.000000,0.018295,0.002335,0.000000,0.000000,-0.002000,0.014000,-0.070000,0.380000,2.560000,0.487125,ResetBack,0.622070,-0.200000,ResetBack,-28719.000000,-0.300000,Suck,0.000000,2181.818182,Speed,0.000000,2181.818182,Speed,On,On0.000000,0,,,,
02:16:52.998 PM 03/19/2016,Teleop Enabled,9,FALSE,0,NO ERROR,-0.000000,-0.154000,0.000000,-0.237416,TRUE,FALSE,FALSE,FALSE,FALSE,FALSE,Disabled,0.000000,0.000000,0.000000,TRUE,-0.279922,1.772842,0.000000,-0.039368,-0.047897,0.000000,-0.071000,-0.159000,0.037000,-0.050000,0.330000,2.530000,0.476712,ResetBack,0.107666,-0.200000,ResetBack,-24986.000000,-0.300000,Suck,-255.000000,2181.818182,Speed,-427.500000,2181.818182,Speed,On,On0.000000,0,,,,
02:16:53.098 PM 03/19/2016,Teleop Enabled,9,FALSE,0,NO ERROR,-0.000000,-0.154000,0.000000,-0.237416,TRUE,FALSE,FALSE,FALSE,FALSE,FALSE,Disabled,0.000000,0.000000,0.000000,TRUE,-0.281143,1.769714,0.000000,-0.021317,-0.070831,0.000000,0.016000,-0.022000,0.005000,-0.050000,0.330000,2.530000,0.470667,ResetBack,0.106689,-0.200000,ResetBack,-16396.000000,-0.300000,Suck,-982.500000,2181.818182,Speed,-1200.000000,2181.818182,Speed,On,On0.000000,0,,,,
02:16:53.200 PM 03/19/2016,Teleop Enabled,11,FALSE,0,NO ERROR,-0.000000,-0.154000,0.000000,-0.237416,TRUE,FALSE,FALSE,FALSE,FALSE,FALSE,Disabled,0.000000,0.000000,0.000000,TRUE,-0.283127,1.769028,0.000000,-0.040955,0.000229,0.000000,0.016000,-0.022000,0.005000,-0.070000,0.330000,2.520000,0.453936,Reset,0.105225,0.000000,ResetBack,-8634.000000,-0.300000,Suck,-1605.000000,2181.818182,Speed,-1830.000000,2181.818182,Speed,On,On0.000000,0,,,,
02:16:53.301 PM 03/19/2016,Teleop Enabled,10,FALSE,0,NO ERROR,-0.000000,-0.154000,0.000000,-0.237416,TRUE,FALSE,FALSE,FALSE,FALSE,FALSE,Disabled,0.000000,0.000000,0.000000,TRUE,-0.283127,1.769028,0.000000,-0.040955,0.000229,0.000000,-0.050000,-0.058000,-0.035000,-0.070000,0.350000,2.530000,0.490582,Hold,0.927734,0.000000,ResetBack,-3585.000000,-0.300000,Suck,-2100.000000,2181.818182,Speed,-2242.500000,2181.818182,Speed,On,On0.000000,0,,,,
02:16:53.401 PM 03/19/2016,Teleop Enabled,10,FALSE,0,NO ERROR,-0.000000,-0.154000,0.000000,-0.237416,TRUE,FALSE,FALSE,FALSE,FALSE,FALSE,Disabled,0.000000,0.000000,0.000000,TRUE,-0.283249,1.766418,0.000000,0.011703,-0.094742,0.000000,0.038000,-0.118000,-0.006000,-0.040000,0.320000,2.500000,0.435921,Hold,0.908936,0.000000,ResetBack,-3585.000000,-0.300000,Suck,-2257.500000,2181.818182,Speed,-2220.000000,2181.818182,Speed,On,On0.000000,0,,,,
02:16:53.501 PM 03/19/2016,Teleop Enabled,8,FALSE,0,NO ERROR,-0.000000,-0.154000,0.000000,-0.237416,TRUE,FALSE,FALSE,FALSE,FALSE,FALSE,Disabled,0.000000,0.000000,0.000000,TRUE,-0.283096,1.760468,0.000000,0.000000,-0.119766,0.000000,0.033000,-0.009000,-0.032000,-0.100000,0.310000,2.540000,0.465675,Hold,0.908936,0.000000,ResetBack,-1387.000000,-0.300000,Suck,-2115.000000,2181.818182,Speed,-2100.000000,2181.818182,Speed,On,On0.000000,0,,,,
02:16:53.601 PM 03/19/2016,Teleop Enabled,10,FALSE,0,NO ERROR,-0.000000,-0.154000,0.000000,-0.237416,TRUE,FALSE,FALSE,FALSE,FALSE,FALSE,Disabled,0.000000,0.000000,0.000000,TRUE,-0.282745,1.753769,0.000000,0.001984,-0.152176,0.000000,0.038000,-0.013000,-0.034000,-0.070000,0.350000,2.570000,0.465675,Hold,0.908936,0.000000,ResetBack,-687.000000,-0.300000,Suck,-2062.500000,2181.818182,Speed,-2092.500000,2181.818182,Speed,On,On0.000000,0,,,,
02:16:53.701 PM 03/19/2016,Teleop Enabled,10,FALSE,0,NO ERROR,-0.000000,-0.154000,0.000000,-0.237416,TRUE,FALSE,FALSE,FALSE,FALSE,FALSE,Disabled,0.000000,0.000000,0.000000,TRUE,-0.281693,1.744797,0.000000,0.029739,-0.197037,0.000000,-0.001000,-0.020000,-0.069000,-0.080000,0.420000,2.530000,0.463702,Hold,0.908936,0.000000,ResetBack,-627.000000,-0.300000,Suck,-2107.500000,2181.818182,Speed,-2130.000000,2181.818182,Speed,On,On0.000000,0,,,,
02:16:53.801 PM 03/19/2016,Teleop Enabled,15,FALSE,0,NO ERROR,-0.000000,-0.154000,0.000000,-0.237416,TRUE,FALSE,FALSE,FALSE,FALSE,FALSE,Disabled,0.000000,0.000000,0.000000,TRUE,-0.281128,1.734543,0.000000,0.010712,-0.211548,0.000000,-0.008000,0.109000,0.022000,-0.080000,0.380000,2.580000,0.445760,Hold,0.908936,0.000000,ResetBack,-621.000000,-0.300000,Suck,-2130.000000,2181.818182,Speed,-2145.000000,2181.818182,Speed,On,On0.000000,0,,,,
02:16:53.901 PM 03/19/2016,Teleop Enabled,10,FALSE,0,NO ERROR,-0.000000,-0.154000,0.000000,-0.237416,TRUE,FALSE,FALSE,FALSE,FALSE,FALSE,Disabled,0.000000,0.000000,0.000000,TRUE,-0.282135,1.725998,0.000000,0.000000,0.000000,0.000000,0.003000,-0.018000,0.055000,-0.070000,0.390000,2.550000,0.468783,Hold,0.908936,0.000000,ResetBack,-617.000000,-0.300000,Suck,-2107.500000,2181.818182,Speed,-2122.500000,2181.818182,Speed,On,On0.000000,0,,,,
02:16:54.003 PM 03/19/2016,Teleop Enabled,11,FALSE,0,NO ERROR,-0.000000,-0.154000,0.000000,-0.237416,TRUE,FALSE,FALSE,FALSE,FALSE,FALSE,Disabled,0.000000,0.000000,0.000000,TRUE,-0.281769,1.726929,0.000000,-0.002701,0.041763,0.000000,0.053000,0.045000,0.101000,-0.070000,0.430000,2.510000,0.485112,Hold,0.908936,0.000000,ResetBack,-612.000000,-0.300000,Suck,-2107.500000,2181.818182,Speed,-2122.500000,2181.818182,Speed,On,On0.000000,0,,,,
02:16:54.104 PM 03/19/2016,Teleop Enabled,10,FALSE,0,NO ERROR,-0.000000,-0.154000,0.000000,-0.237416,TRUE,FALSE,FALSE,FALSE,FALSE,FALSE,Disabled,0.000000,0.000000,0.000000,TRUE,-0.281509,1.728699,0.000000,0.011215,0.006866,0.000000,-0.035000,0.000000,0.004000,-0.070000,0.430000,2.520000,0.495023,Hold,0.908936,0.000000,Reset,-612.000000,2.000000,Suck,-2115.000000,2181.818182,Speed,-2122.500000,2181.818182,Speed,On,On0.000000,0,,,,
02:16:54.204 PM 03/19/2016,Teleop Enabled,10,FALSE,0,NO ERROR,-0.000000,-0.154000,0.000000,-0.237416,TRUE,FALSE,FALSE,FALSE,FALSE,FALSE,Disabled,0.000000,0.000000,0.000000,TRUE,-0.281464,1.729431,0.000000,-0.003342,0.000748,0.000000,-0.037000,-0.094000,-0.079000,-0.060000,0.430000,2.490000,0.507733,Hold,0.908936,0.000000,Hold,-158.000000,2.000000,Suck,-2122.500000,2181.818182,Speed,-2130.000000,2181.818182,Speed,On,On0.000000,0,,,,
02:16:54.304 PM 03/19/2016,Teleop Enabled,9,FALSE,0,NO ERROR,-0.000000,-0.154000,0.000000,-0.237416,TRUE,FALSE,FALSE,FALSE,FALSE,FALSE,Disabled,0.000000,0.000000,0.000000,TRUE,-0.281021,1.727936,0.000000,0.023834,-0.048492,0.000000,0.006000,-0.085000,-0.036000,-0.060000,0.470000,2.500000,0.510098,Hold,0.908936,0.000000,Hold,-265.000000,2.000000,Suck,-2122.500000,2181.818182,Speed,-2130.000000,2181.818182,Speed,On,On0.000000,0,,,,
02:16:54.404 PM 03/19/2016,Teleop Enabled,11,FALSE,0,NO ERROR,-0.000000,-0.154000,0.000000,-0.237416,TRUE,FALSE,FALSE,FALSE,FALSE,FALSE,Disabled,0.000000,0.000000,0.000000,TRUE,-0.279526,1.724884,0.000000,0.018265,0.000000,0.000000,0.009000,0.050000,0.001000,-0.060000,0.440000,2.500000,0.503440,Hold,0.908936,0.000000,Hold,-265.000000,2.000000,Suck,-2115.000000,2181.818182,Speed,-2130.000000,2181.818182,Speed,On,On0.000000,0,,,,
02:16:54.505 PM 03/19/2016,Teleop Enabled,10,FALSE,0,NO ERROR,-0.000000,-0.154000,0.000000,-0.237416,TRUE,FALSE,FALSE,FALSE,FALSE,FALSE,Disabled,0.000000,0.000000,0.000000,TRUE,-0.278702,1.724884,0.000000,0.031158,0.003662,0.000000,0.074000,0.061000,-0.019000,-0.060000,0.420000,2.450000,0.496121,Hold,0.908936,0.000000,Hold,-265.000000,2.000000,Suck,-2122.500000,2181.818182,Speed,-2130.000000,2181.818182,Speed,On,On0.000000,0,,,,
02:16:54.605 PM 03/19/2016,Teleop Enabled,9,FALSE,0,NO ERROR,-0.000000,-0.154000,0.000000,-0.237416,TRUE,FALSE,FALSE,FALSE,FALSE,FALSE,Disabled,0.000000,0.000000,0.000000,TRUE,-0.275742,1.726288,0.000000,0.074326,0.027496,0.000000,0.059000,-0.017000,0.046000,-0.060000,0.460000,2.470000,0.486988,Hold,0.908936,0.000000,Hold,-255.000000,2.000000,Suck,-2122.500000,2181.818182,Speed,-2130.000000,2181.818182,Speed,On,On0.000000,0,,,,
02:16:54.705 PM 03/19/2016,Teleop Enabled,11,FALSE,0,NO ERROR,-0.000000,-0.154000,0.000000,-0.237416,TRUE,FALSE,FALSE,FALSE,FALSE,FALSE,Disabled,0.000000,0.000000,0.000000,TRUE,-0.272278,1.728622,0.000000,0.053040,0.061615,0.000000,0.019000,-0.033000,0.069000,-0.070000,0.450000,2.460000,0.481283,Hold,0.908936,0.000000,Hold,-255.000000,2.000000,Suck,-2115.000000,2181.818182,Speed,-2130.000000,2181.818182,Speed,On,On0.000000,0,,,,
02:16:54.806 PM 03/19/2016,Teleop Enabled,10,FALSE,0,NO ERROR,-0.000000,-0.154000,0.000000,-0.237416,TRUE,FALSE,FALSE,FALSE,FALSE,FALSE,Disabled,0.000000,0.000000,0.000000,TRUE,-0.269867,1.731812,0.000000,0.043503,0.087952,0.000000,-0.102000,0.098000,0.063000,-0.080000,0.500000,2.510000,0.484075,Hold,0.908936,0.000000,Hold,-254.000000,2.000000,Suck,-2122.500000,2181.818182,Speed,-2130.000000,2181.818182,Speed,On,On0.000000,0,,,,
02:16:54.906 PM 03/19/2016,Teleop Enabled,10,FALSE,0,NO ERROR,-0.000000,-0.154000,0.000000,-0.237416,TRUE,FALSE,FALSE,FALSE,FALSE,FALSE,Disabled,0.000000,0.000000,0.000000,TRUE,-0.268570,1.736649,0.000000,0.027115,0.002625,0.000000,-0.007000,0.045000,-0.012000,-0.070000,0.400000,2.490000,0.474908,Hold,0.908936,0.000000,Hold,-254.000000,2.000000,Suck,-2122.500000,2181.818182,Speed,-2130.000000,2181.818182,Speed,On,On0.000000,0,,,,
02:16:55.007 PM 03/19/2016,Teleop Enabled,9,FALSE,0,NO ERROR,-0.000000,-0.154000,0.000000,-0.237416,TRUE,FALSE,FALSE,FALSE,FALSE,FALSE,Disabled,0.000000,0.000000,0.000000,TRUE,-0.267090,1.737473,0.000000,0.050369,0.018250,0.000000,0.028000,-0.018000,-0.039000,-0.080000,0.490000,2.580000,0.485091,Hold,0.908936,0.000000,Hold,-254.000000,2.000000,Suck,-2122.500000,2181.818182,Speed,-2130.000000,2181.818182,Speed,On,On0.000000,0,,,,
02:16:55.108 PM 03/19/2016,Teleop Enabled,11,FALSE,0,NO ERROR,-0.000000,-0.154000,0.000000,-0.237416,TRUE,FALSE,FALSE,FALSE,FALSE,FALSE,Disabled,0.000000,0.000000,0.000000,TRUE,-0.264648,1.736893,0.000000,0.031570,-0.031174,0.000000,-0.055000,-0.061000,-0.087000,-0.070000,0.380000,2.590000,0.475421,Hold,0.908936,0.000000,Hold,-254.000000,2.000000,Suck,-2122.500000,2181.818182,Speed,-2130.000000,2181.818182,Speed,On,On0.000000,0,,,,
02:16:55.210 PM 03/19/2016,Teleop Enabled,10,FALSE,0,NO ERROR,-0.000000,-0.154000,0.000000,-0.237416,TRUE,FALSE,FALSE,FALSE,FALSE,FALSE,Disabled,0.000000,0.000000,0.000000,TRUE,-0.262436,1.732819,0.000000,0.041534,-0.074432,0.000000,-0.085000,0.060000,0.001000,-0.080000,0.480000,2.600000,0.480395,Hold,0.908936,0.000000,Hold,-254.000000,2.000000,Suck,-2122.500000,2181.818182,Speed,-2130.000000,2181.818182,Speed,On,On0.000000,0,,,,
02:16:55.310 PM 03/19/2016,Teleop Enabled,10,FALSE,0,NO ERROR,-0.000000,-0.154000,0.000000,-0.237416,TRUE,FALSE,FALSE,FALSE,FALSE,FALSE,Disabled,0.000000,0.000000,0.000000,TRUE,-0.261642,1.730331,0.000000,0.010620,-0.063812,0.000000,-0.027000,0.010000,-0.003000,-0.070000,0.410000,2.590000,0.482116,Hold,0.908936,0.000000,Hold,-254.000000,2.000000,Suck,-2122.500000,2181.818182,Speed,-2130.000000,2181.818182,Speed,On,On0.000000,0,,,,
02:16:55.411 PM 03/19/2016,Teleop Enabled,10,FALSE,0,NO ERROR,-0.000000,-0.154000,0.000000,-0.237416,TRUE,FALSE,FALSE,FALSE,FALSE,FALSE,Disabled,0.000000,0.000000,0.000000,TRUE,-0.260132,1.728180,0.000000,0.051804,-0.026077,0.000000,0.029000,-0.087000,0.004000,-0.090000,0.530000,2.610000,0.486981,Hold,0.908936,0.000000,Hold,-254.000000,2.000000,Suck,-2122.500000,2181.818182,Speed,-2130.000000,2181.818182,Speed,On,On0.000000,0,,,,
02:16:55.512 PM 03/19/2016,Teleop Enabled,10,FALSE,0,NO ERROR,-0.000000,-0.154000,0.000000,-0.237416,TRUE,FALSE,FALSE,FALSE,FALSE,FALSE,Disabled,0.000000,0.000000,0.000000,TRUE,-0.257812,1.726257,0.000000,0.050903,-0.039917,0.000000,-0.081000,0.128000,0.086000,-0.080000,0.470000,2.610000,0.490926,Hold,0.908936,0.000000,Hold,-254.000000,2.000000,Suck,-2122.500000,2181.818182,Speed,-2130.000000,2181.818182,Speed,On,On0.000000,0,,,,
02:16:55.612 PM 03/19/2016,Teleop Enabled,10,FALSE,0,NO ERROR,-0.000000,-0.154000,0.000000,-0.237416,TRUE,FALSE,FALSE,FALSE,FALSE,FALSE,Disabled,0.000000,0.000000,0.000000,TRUE,-0.257324,1.726242,0.000000,-0.002762,-0.007355,0.000000,0.003000,-0.072000,0.024000,-0.090000,0.490000,2.620000,0.504462,Hold,0.908936,0.000000,Hold,-254.000000,2.000000,Suck,-2115.000000,2181.818182,Speed,-2137.500000,2181.818182,Speed,On,On0.000000,0,,,,
02:16:55.712 PM 03/19/2016,Teleop Enabled,10,FALSE,0,NO ERROR,-0.000000,-0.154000,0.000000,-0.237416,TRUE,FALSE,FALSE,FALSE,FALSE,FALSE,Disabled,0.000000,0.000000,0.000000,TRUE,-0.257492,1.727402,0.000000,-0.006119,0.000000,0.000000,0.065000,-0.033000,-0.047000,-0.080000,0.510000,2.600000,0.501560,Hold,0.908936,0.000000,Hold,-254.000000,2.000000,Suck,-2122.500000,2181.818182,Speed,-2137.500000,2181.818182,Speed,On,On0.000000,0,,,,
02:16:55.813 PM 03/19/2016,Teleop Enabled,10,FALSE,0,NO ERROR,-0.000000,-0.154000,0.000000,-0.237416,TRUE,FALSE,FALSE,FALSE,FALSE,FALSE,Disabled,0.000000,0.000000,0.000000,TRUE,-0.257416,1.727753,0.000000,0.014664,0.017227,0.000000,0.034000,0.009000,0.022000,-0.080000,0.480000,2.630000,0.504362,Hold,0.908936,0.000000,Hold,-254.000000,2.000000,Suck,-2122.500000,2181.818182,Speed,-2137.500000,2181.818182,Speed,On,On0.000000,0,,,,
02:16:55.912 PM 03/19/2016,Teleop Enabled,10,FALSE,0,NO ERROR,-0.000000,-0.154000,0.000000,-0.237416,TRUE,FALSE,FALSE,FALSE,FALSE,FALSE,Disabled,0.000000,0.000000,0.000000,TRUE,-0.256302,1.727829,0.000000,0.023712,0.005829,0.000000,-0.014000,0.077000,0.052000,-0.090000,0.580000,2.620000,0.501963,Hold,0.908936,0.000000,Hold,-254.000000,2.000000,Suck,-2122.500000,2181.818182,Speed,-2122.500000,2181.818182,Speed,On,On0.000000,0,,,,
02:16:56.012 PM 03/19/2016,Teleop Enabled,10,FALSE,0,NO ERROR,-0.000000,-0.154000,0.000000,-0.237416,TRUE,FALSE,FALSE,FALSE,FALSE,FALSE,Disabled,0.000000,0.000000,0.000000,TRUE,-0.255722,1.728668,0.000000,0.012222,0.004395,0.000000,0.028000,0.036000,0.016000,-0.090000,0.490000,2.640000,0.485387,Hold,0.908936,0.000000,Hold,-254.000000,2.000000,Suck,-2122.500000,2181.818182,Speed,-2122.500000,2181.818182,Speed,On,On0.000000,0,,,,
02:16:56.113 PM 03/19/2016,Teleop Enabled,10,FALSE,0,NO ERROR,-0.000000,-0.154000,0.000000,-0.237416,TRUE,FALSE,FALSE,FALSE,FALSE,FALSE,Disabled,0.000000,0.000000,0.000000,TRUE,-0.253784,1.729630,0.000000,0.050812,0.030579,0.000000,0.005000,0.053000,0.068000,-0.090000,0.620000,2.660000,0.481662,Hold,0.908936,0.000000,Hold,-254.000000,2.000000,Suck,-2122.500000,2181.818182,Speed,-2130.000000,2181.818182,Speed,On,On0.000000,0,,,,
02:16:56.212 PM 03/19/2016,Teleop Enabled,10,FALSE,0,NO ERROR,-0.000000,-0.154000,0.000000,-0.237416,TRUE,FALSE,FALSE,FALSE,FALSE,FALSE,Disabled,0.000000,0.000000,0.000000,TRUE,-0.254257,1.731720,0.000000,-0.019226,0.048981,0.000000,0.089000,-0.008000,0.018000,-0.090000,0.510000,2.630000,0.472446,Hold,0.908936,0.000000,Hold,-254.000000,2.000000,Suck,-2122.500000,2181.818182,Speed,-2130.000000,2181.818182,Speed,On,On0.000000,0,,,,
02:16:56.313 PM 03/19/2016,Teleop Enabled,10,FALSE,0,NO ERROR,-0.000000,-0.154000,0.000000,-0.237416,TRUE,FALSE,FALSE,FALSE,FALSE,FALSE,Disabled,0.000000,0.000000,0.000000,TRUE,-0.253632,1.733780,0.000000,0.033310,0.000000,0.000000,-0.044000,0.028000,0.046000,-0.090000,0.580000,2.630000,0.483893,Hold,0.908936,0.000000,Hold,-254.000000,2.000000,Suck,-2122.500000,2181.818182,Speed,-2130.000000,2181.818182,Speed,On,On0.000000,0,,,,
02:16:56.413 PM 03/19/2016,Teleop Enabled,10,FALSE,0,NO ERROR,-0.000000,-0.154000,0.000000,-0.237416,TRUE,FALSE,FALSE,FALSE,FALSE,FALSE,Disabled,0.000000,0.000000,0.000000,TRUE,-0.253311,1.734940,0.000000,-0.016083,0.034866,0.000000,-0.055000,0.000000,-0.011000,-0.080000,0.450000,2.610000,0.481855,Hold,0.908936,0.000000,Hold,-254.000000,2.000000,Suck,-2122.500000,2181.818182,Speed,-2130.000000,2181.818182,Speed,On,On0.000000,0,,,,
02:16:56.512 PM 03/19/2016,Teleop Enabled,10,FALSE,0,NO ERROR,-0.000000,-0.154000,0.000000,-0.237416,TRUE,FALSE,FALSE,FALSE,FALSE,FALSE,Disabled,0.000000,0.000000,0.000000,TRUE,-0.254303,1.735352,0.000000,-0.015366,0.007080,0.000000,-0.027000,-0.018000,-0.002000,-0.090000,0.590000,2.600000,0.479239,Hold,0.908936,0.000000,Hold,-254.000000,2.000000,Suck,-2122.500000,2181.818182,Speed,-2130.000000,2181.818182,Speed,On,On0.000000,0,,,,
02:16:56.613 PM 03/19/2016,Teleop Enabled,10,FALSE,0,NO ERROR,-0.000000,-0.154000,0.000000,-0.237416,TRUE,FALSE,FALSE,FALSE,FALSE,FALSE,Disabled,0.000000,0.000000,0.000000,TRUE,-0.255432,1.735611,0.000000,-0.036057,0.000000,0.000000,0.030000,-0.001000,-0.045000,-0.090000,0.500000,2.570000,0.465375,Hold,0.908936,0.000000,Hold,-254.000000,2.000000,Suck,-2115.000000,2181.818182,Speed,-2130.000000,2181.818182,Speed,On,On0.000000,0,,,,
02:16:56.713 PM 03/19/2016,Teleop Enabled,10,FALSE,0,NO ERROR,-0.000000,-0.154000,0.000000,-0.237416,TRUE,FALSE,FALSE,FALSE,FALSE,FALSE,Disabled,0.000000,0.000000,0.000000,TRUE,-0.256195,1.736206,0.000000,-0.007889,0.024628,0.000000,0.030000,0.031000,0.002000,-0.100000,0.610000,2.550000,0.454321,Hold,0.908936,0.000000,Hold,-254.000000,2.000000,Suck,-2122.500000,2181.818182,Speed,-2122.500000,2181.818182,Speed,On,On0.000000,0,,,,
02:16:56.813 PM 03/19/2016,Teleop Enabled,9,FALSE,0,NO ERROR,-0.000000,-0.154000,0.000000,-0.237416,TRUE,FALSE,FALSE,FALSE,FALSE,FALSE,Disabled,0.000000,0.000000,0.000000,TRUE,-0.257050,1.738342,0.000000,-0.028259,0.052704,0.000000,0.014000,0.000000,0.007000,-0.100000,0.520000,2.570000,0.459974,Hold,0.908936,0.000000,Hold,-254.000000,2.000000,Suck,-2122.500000,2181.818182,Speed,-2130.000000,2181.818182,Speed,On,On0.000000,0,,,,
02:16:56.913 PM 03/19/2016,Teleop Enabled,9,FALSE,0,NO ERROR,-0.000000,-0.154000,0.000000,-0.237416,TRUE,FALSE,FALSE,FALSE,FALSE,FALSE,Disabled,0.000000,0.000000,0.000000,TRUE,-0.258255,1.740479,0.000000,-0.006927,0.025436,0.000000,0.001000,-0.025000,0.036000,-0.100000,0.570000,2.530000,0.453533,Hold,0.908936,0.000000,Hold,-254.000000,2.000000,Suck,-2115.000000,2181.818182,Speed,-2130.000000,2181.818182,Speed,On,On0.000000,0,,,,
02:16:57.013 PM 03/19/2016,Teleop Enabled,10,FALSE,0,NO ERROR,-0.000000,-0.154000,0.000000,-0.237416,TRUE,FALSE,FALSE,FALSE,FALSE,FALSE,Disabled,0.000000,0.000000,0.000000,TRUE,-0.259064,1.741638,0.000000,-0.033630,0.022949,0.000000,-0.067000,-0.006000,-0.019000,-0.100000,0.550000,2.550000,0.441009,Hold,0.908936,0.000000,Hold,-254.000000,2.000000,Suck,-2115.000000,2181.818182,Speed,-2130.000000,2181.818182,Speed,On,On0.000000,0,,,,
02:16:57.113 PM 03/19/2016,Teleop Enabled,10,FALSE,0,NO ERROR,-0.000000,-0.154000,0.000000,-0.237416,TRUE,FALSE,FALSE,FALSE,FALSE,FALSE,Disabled,0.000000,0.000000,0.000000,TRUE,-0.261017,1.743271,0.000000,-0.033691,0.028000,0.000000,0.039000,-0.026000,-0.021000,-0.110000,0.570000,2.520000,0.440048,Hold,0.908936,0.000000,Hold,-254.000000,2.000000,Suck,-2122.500000,2181.818182,Speed,-2122.500000,2181.818182,Speed,On,On0.000000,0,,,,
02:16:57.213 PM 03/19/2016,Teleop Enabled,10,FALSE,0,NO ERROR,-0.000000,-0.154000,0.000000,-0.237416,TRUE,FALSE,FALSE,FALSE,FALSE,FALSE,Disabled,0.000000,0.000000,0.000000,TRUE,-0.262009,1.744034,0.000000,-0.027756,0.019867,0.000000,-0.072000,-0.038000,0.018000,-0.100000,0.490000,2.530000,0.431487,Hold,0.908936,0.000000,Hold,-254.000000,2.000000,Suck,-2115.000000,2181.818182,Speed,-2130.000000,2181.818182,Speed,On,On0.000000,0,,,,
02:16:57.313 PM 03/19/2016,Teleop Enabled,10,FALSE,0,NO ERROR,-0.000000,-0.154000,0.000000,-0.237416,TRUE,FALSE,FALSE,FALSE,FALSE,FALSE,Disabled,0.000000,0.000000,0.000000,TRUE,-0.264969,1.743683,0.000000,-0.068771,-0.017502,0.000000,0.000000,0.012000,0.052000,-0.100000,0.500000,2.480000,0.439374,Hold,0.908936,0.000000,Hold,-254.000000,2.000000,Suck,-2115.000000,2181.818182,Speed,-2130.000000,2181.818182,Speed,On,On0.000000,0,,,,
02:16:57.414 PM 03/19/2016,Teleop Enabled,9,FALSE,0,NO ERROR,-0.000000,-0.154000,0.000000,-0.237416,TRUE,FALSE,FALSE,FALSE,FALSE,FALSE,Disabled,0.000000,0.000000,0.000000,TRUE,-0.266144,1.743668,0.000000,-0.046082,0.004074,0.000000,-0.003000,0.071000,-0.039000,-0.100000,0.460000,2.500000,0.447777,Hold,0.908936,0.000000,Hold,-254.000000,2.000000,Suck,-2115.000000,2181.818182,Speed,-2130.000000,2181.818182,Speed,On,On0.000000,0,,,,
02:16:57.514 PM 03/19/2016,Teleop Enabled,9,FALSE,0,NO ERROR,-0.000000,-0.154000,0.000000,-0.237416,TRUE,FALSE,FALSE,FALSE,FALSE,FALSE,Disabled,0.000000,0.000000,0.000000,TRUE,-0.266571,1.746262,0.000000,0.003555,0.073853,0.000000,0.074000,-0.110000,-0.001000,-0.100000,0.460000,2.530000,0.433642,Hold,0.908936,0.000000,Hold,-254.000000,2.000000,Suck,-2122.500000,2181.818182,Speed,-2122.500000,2181.818182,Speed,On,On0.000000,0,,,,
02:16:57.616 PM 03/19/2016,Teleop Enabled,10,FALSE,0,NO ERROR,-0.000000,-0.154000,0.000000,-0.237416,TRUE,FALSE,FALSE,FALSE,FALSE,FALSE,Disabled,0.000000,0.000000,0.000000,TRUE,-0.265991,1.749802,0.000000,0.013168,0.079346,0.000000,-0.027000,0.050000,0.049000,-0.100000,0.440000,2.510000,0.449505,Hold,0.908936,0.000000,Hold,-254.000000,2.000000,Suck,-2122.500000,2181.818182,Speed,-2130.000000,2181.818182,Speed,On,On0.000000,0,,,,
02:16:57.716 PM 03/19/2016,Teleop Enabled,10,FALSE,0,NO ERROR,-0.000000,-0.154000,0.000000,-0.237416,TRUE,FALSE,FALSE,FALSE,FALSE,FALSE,Disabled,0.000000,0.000000,0.000000,TRUE,-0.265701,1.752838,0.000000,0.009262,0.049011,0.000000,0.053000,-0.012000,0.094000,-0.100000,0.420000,2.510000,0.453464,Hold,0.908936,0.000000,Hold,-254.000000,2.000000,Suck,-2122.500000,2181.818182,Speed,-2130.000000,2181.818182,Speed,On,On0.000000,0,,,,
02:16:57.816 PM 03/19/2016,Teleop Enabled,10,FALSE,0,NO ERROR,-0.000000,-0.154000,0.000000,-0.237416,TRUE,FALSE,FALSE,FALSE,FALSE,FALSE,Disabled,0.000000,0.000000,0.000000,TRUE,-0.264801,1.755585,0.000000,0.006088,0.053711,0.000000,-0.071000,0.044000,-0.017000,-0.100000,0.440000,2.540000,0.460876,Hold,0.908936,0.000000,Hold,-254.000000,2.000000,Suck,-2122.500000,2181.818182,Speed,-2130.000000,2181.818182,Speed,On,On0.000000,0,,,,
02:16:57.919 PM 03/19/2016,Teleop Enabled,10,FALSE,0,NO ERROR,-0.000000,-0.154000,0.000000,-0.237416,TRUE,FALSE,FALSE,FALSE,FALSE,FALSE,Disabled,0.000000,0.000000,0.000000,TRUE,-0.265030,1.756607,0.000000,0.017990,-0.005783,0.000000,0.079000,-0.023000,-0.036000,-0.100000,0.470000,2.560000,0.467148,Hold,0.908936,0.000000,Hold,-254.000000,2.000000,Suck,-2122.500000,2181.818182,Speed,-2130.000000,2181.818182,Speed,On,On0.000000,0,,,,
02:16:58.019 PM 03/19/2016,Teleop Enabled,11,FALSE,0,NO ERROR,-0.000000,-0.154000,0.000000,-0.237416,TRUE,FALSE,FALSE,FALSE,FALSE,FALSE,Disabled,0.000000,0.000000,0.000000,TRUE,-0.262039,1.754868,0.000000,0.069275,-0.051544,0.000000,-0.022000,-0.019000,0.028000,-0.100000,0.480000,2.540000,0.472763,Hold,0.908936,0.000000,Hold,-254.000000,2.000000,Suck,-2122.500000,2181.818182,Speed,-2130.000000,2181.818182,Speed,On,On0.000000,0,,,,
02:16:58.119 PM 03/19/2016,Teleop Enabled,10,FALSE,0,NO ERROR,-0.000000,-0.154000,0.000000,-0.237416,TRUE,FALSE,FALSE,FALSE,FALSE,FALSE,Disabled,0.000000,0.000000,0.000000,TRUE,-0.259766,1.750732,0.000000,0.019501,-0.077911,0.000000,-0.023000,0.013000,-0.044000,-0.090000,0.450000,2.540000,0.471596,Hold,0.908936,0.000000,Hold,-254.000000,2.000000,Suck,-2122.500000,2181.818182,Speed,-2130.000000,2181.818182,Speed,On,On0.000000,0,,,,
02:16:58.219 PM 03/19/2016,Teleop Enabled,10,FALSE,0,NO ERROR,-0.000000,-0.154000,0.000000,-0.237416,TRUE,FALSE,FALSE,FALSE,FALSE,FALSE,Disabled,0.000000,0.000000,0.000000,TRUE,-0.259171,1.748352,0.000000,0.009842,-0.047928,0.000000,-0.086000,-0.023000,-0.024000,-0.110000,0.510000,2.560000,0.489497,Hold,0.908936,0.000000,Hold,-254.000000,2.000000,Suck,-2122.500000,2181.818182,Speed,-2122.500000,2181.818182,Speed,On,On0.000000,0,,,,
02:16:58.319 PM 03/19/2016,Teleop Enabled,9,FALSE,0,NO ERROR,-0.000000,-0.154000,0.000000,-0.237416,TRUE,FALSE,FALSE,FALSE,FALSE,FALSE,Disabled,0.000000,0.000000,0.000000,TRUE,-0.258820,1.746994,0.000000,0.016846,0.003311,0.000000,0.038000,0.027000,0.001000,-0.100000,0.470000,2.580000,0.494689,Hold,0.908936,0.000000,Hold,-254.000000,2.000000,Suck,-2130.000000,2181.818182,Speed,-2130.000000,2181.818182,Speed,On,On0.000000,0,,,,
02:16:58.419 PM 03/19/2016,Teleop Enabled,10,FALSE,0,NO ERROR,-0.000000,-0.154000,0.000000,-0.237416,TRUE,FALSE,FALSE,FALSE,FALSE,FALSE,Disabled,0.000000,0.000000,0.000000,TRUE,-0.255737,1.747360,0.000000,0.065018,0.008530,0.000000,-0.020000,-0.003000,-0.033000,-0.110000,0.570000,2.580000,0.493842,Hold,0.908936,0.000000,Hold,-254.000000,2.000000,Suck,-2122.500000,2181.818182,Speed,-2130.000000,2181.818182,Speed,On,On0.000000,0,,,,
02:16:58.519 PM 03/19/2016,Teleop Enabled,10,FALSE,0,NO ERROR,-0.000000,-0.154000,0.000000,-0.237416,TRUE,FALSE,FALSE,FALSE,FALSE,FALSE,Disabled,0.000000,0.000000,0.000000,TRUE,-0.254562,1.746750,0.000000,0.002167,-0.031754,0.000000,0.034000,-0.015000,0.084000,-0.110000,0.490000,2.620000,0.486909,Hold,0.908936,0.000000,Hold,-254.000000,2.000000,Suck,-2122.500000,2181.818182,Speed,-2130.000000,2181.818182,Speed,On,On0.000000,0,,,,
02:16:58.619 PM 03/19/2016,Teleop Enabled,13,FALSE,0,NO ERROR,-0.000000,-0.154000,0.000000,-0.237416,TRUE,FALSE,FALSE,FALSE,FALSE,FALSE,Disabled,0.000000,0.000000,0.000000,TRUE,-0.254013,1.745682,0.000000,0.008575,-0.027771,0.000000,-0.033000,-0.041000,0.011000,-0.120000,0.550000,2.630000,0.498871,Hold,0.908936,0.000000,Hold,-254.000000,2.000000,Suck,-2130.000000,2181.818182,Speed,-2122.500000,2181.818182,Speed,On,On0.000000,0,,,,
02:16:58.719 PM 03/19/2016,Teleop Enabled,10,FALSE,0,NO ERROR,-0.000000,-0.154000,0.000000,-0.237416,TRUE,FALSE,FALSE,FALSE,FALSE,FALSE,Disabled,0.000000,0.000000,0.000000,TRUE,-0.254440,1.744125,0.000000,-0.014481,-0.023514,0.000000,0.116000,-0.074000,-0.019000,-0.110000,0.420000,2.680000,0.502101,Hold,0.908936,0.000000,Hold,-254.000000,2.000000,Suck,-2122.500000,2181.818182,Speed,-2130.000000,2181.818182,Speed,On,On0.000000,0,,,,
02:16:58.820 PM 03/19/2016,Teleop Enabled,9,FALSE,0,NO ERROR,-0.000000,-0.154000,0.000000,-0.237416,TRUE,FALSE,FALSE,FALSE,FALSE,FALSE,Disabled,0.000000,0.000000,0.000000,TRUE,-0.253006,1.741364,0.000000,0.047882,-0.076035,0.000000,-0.001000,-0.028000,0.018000,-0.120000,0.560000,2.660000,0.511833,Hold,0.908936,0.000000,Hold,-254.000000,2.000000,Suck,-2122.500000,2181.818182,Speed,-2137.500000,2181.818182,Speed,On,On0.000000,0,,,,
02:16:58.920 PM 03/19/2016,Teleop Enabled,10,FALSE,0,NO ERROR,-0.000000,-0.154000,0.000000,-0.237416,TRUE,FALSE,FALSE,FALSE,FALSE,FALSE,Disabled,0.000000,0.000000,0.000000,TRUE,-0.251541,1.737518,0.000000,0.014542,-0.075134,0.000000,-0.015000,0.029000,0.054000,-0.120000,0.480000,2.670000,0.512142,Hold,0.908936,0.000000,Hold,-254.000000,2.000000,Suck,-2122.500000,2181.818182,Speed,-2130.000000,2181.818182,Speed,On,On0.000000,0,,,,
02:16:59.020 PM 03/19/2016,Teleop Enabled,10,FALSE,0,NO ERROR,-0.000000,-0.154000,0.000000,-0.237416,TRUE,FALSE,FALSE,FALSE,FALSE,FALSE,Disabled,0.000000,0.000000,0.000000,TRUE,-0.251877,1.734909,0.000000,-0.005707,-0.025604,0.000000,-0.018000,0.077000,0.027000,-0.120000,0.600000,2.660000,0.531015,Hold,0.908936,0.000000,Hold,-254.000000,2.000000,Suck,-2122.500000,2181.818182,Speed,-2122.500000,2181.818182,Speed,On,On0.000000,0,,,,
02:16:59.120 PM 03/19/2016,Teleop Enabled,9,FALSE,0,NO ERROR,-0.000000,-0.154000,0.000000,-0.237416,TRUE,FALSE,FALSE,FALSE,FALSE,FALSE,Disabled,0.000000,0.000000,0.000000,TRUE,-0.252121,1.735794,0.000000,-0.009186,0.055603,0.000000,0.022000,0.147000,0.089000,-0.120000,0.500000,2.720000,0.538740,Hold,0.908936,0.000000,Hold,-254.000000,2.000000,Suck,-2115.000000,2181.818182,Speed,-2130.000000,2181.818182,Speed,On,On0.000000,0,,,,
02:16:59.220 PM 03/19/2016,Teleop Enabled,9,FALSE,0,NO ERROR,-0.000000,-0.154000,0.000000,-0.237416,TRUE,FALSE,FALSE,FALSE,FALSE,FALSE,Disabled,0.000000,0.000000,0.000000,TRUE,-0.251099,1.738983,0.000000,0.041306,0.000000,0.000000,-0.047000,0.037000,0.072000,-0.110000,0.540000,2.670000,0.566566,Hold,0.908936,0.000000,Hold,-254.000000,2.000000,Suck,-2122.500000,2181.818182,Speed,-2137.500000,2181.818182,Speed,On,On0.000000,0,,,,
02:16:59.321 PM 03/19/2016,Teleop Enabled,10,FALSE,0,NO ERROR,-0.000000,-0.154000,0.000000,-0.237416,TRUE,FALSE,FALSE,FALSE,FALSE,FALSE,Disabled,0.000000,0.000000,0.000000,TRUE,-0.249130,1.739960,0.000000,0.042831,0.028320,0.000000,-0.014000,-0.063000,-0.022000,-0.080000,0.500000,2.700000,0.582340,Hold,0.908936,0.000000,Hold,-254.000000,2.000000,Suck,-2122.500000,2181.818182,Speed,-2130.000000,2181.818182,Speed,On,On0.000000,0,,,,
02:16:59.421 PM 03/19/2016,Teleop Enabled,10,FALSE,0,NO ERROR,-0.000000,-0.154000,0.000000,-0.237416,TRUE,FALSE,FALSE,FALSE,FALSE,FALSE,Disabled,0.000000,0.000000,0.000000,TRUE,-0.249496,1.739990,0.000000,-0.008621,-0.014053,0.000000,0.042000,-0.029000,-0.048000,-0.090000,0.480000,2.650000,0.578739,Hold,0.908936,0.000000,Hold,-254.000000,2.000000,Suck,-2122.500000,2181.818182,Speed,-2130.000000,2181.818182,Speed,On,On0.000000,0,,,,
02:16:59.521 PM 03/19/2016,Teleop Enabled,9,FALSE,0,NO ERROR,-0.000000,-0.154000,0.000000,-0.237416,TRUE,FALSE,FALSE,FALSE,FALSE,FALSE,Disabled,0.000000,0.000000,0.000000,TRUE,-0.248062,1.739197,0.000000,0.033524,0.002533,0.000000,-0.008000,-0.050000,0.004000,-0.080000,0.550000,2.650000,0.566889,Hold,0.908936,0.000000,Hold,-254.000000,2.000000,Suck,-2122.500000,2181.818182,Speed,-2130.000000,2181.818182,Speed,On,On0.000000,0,,,,
02:16:59.621 PM 03/19/2016,Teleop Enabled,10,FALSE,0,NO ERROR,-0.000000,-0.154000,0.000000,-0.237416,TRUE,FALSE,FALSE,FALSE,FALSE,FALSE,Disabled,0.000000,0.000000,0.000000,TRUE,-0.247238,1.738174,0.000000,0.017563,-0.035492,0.000000,-0.008000,-0.050000,0.004000,-0.070000,0.440000,2.630000,0.562232,Hold,0.908936,0.000000,Hold,-254.000000,2.000000,Suck,-2122.500000,2181.818182,Speed,-2130.000000,2181.818182,Speed,On,On0.000000,0,,,,
02:16:59.721 PM 03/19/2016,Teleop Enabled,10,FALSE,0,NO ERROR,-0.000000,-0.154000,0.000000,-0.237416,TRUE,FALSE,FALSE,FALSE,FALSE,FALSE,Disabled,0.000000,0.000000,0.000000,TRUE,-0.245422,1.737030,0.000000,0.055374,-0.030106,0.000000,0.040000,0.039000,-0.007000,-0.060000,0.540000,2.610000,0.583514,Hold,0.908936,0.000000,Hold,-254.000000,2.000000,Suck,-2122.500000,2181.818182,Speed,-2130.000000,2181.818182,Speed,On,On0.000000,0,,,,
02:16:59.821 PM 03/19/2016,Teleop Enabled,9,FALSE,0,NO ERROR,-0.000000,-0.154000,0.000000,-0.237416,TRUE,FALSE,FALSE,FALSE,FALSE,FALSE,Disabled,0.000000,0.000000,0.000000,TRUE,-0.242477,1.736084,0.000000,0.034790,0.015625,0.000000,-0.079000,0.013000,-0.042000,-0.050000,0.410000,2.640000,0.598127,Hold,0.908936,0.000000,Hold,-254.000000,2.000000,Suck,-2122.500000,2181.818182,Speed,-2130.000000,2181.818182,Speed,On,On0.000000,0,,,,
02:16:59.921 PM 03/19/2016,Teleop Enabled,9,FALSE,0,NO ERROR,-0.000000,-0.154000,0.000000,-0.237416,TRUE,FALSE,FALSE,FALSE,FALSE,FALSE,Disabled,0.000000,0.000000,0.000000,TRUE,-0.240295,1.736511,0.000000,0.053970,0.013687,0.000000,-0.079000,0.013000,-0.042000,-0.050000,0.550000,2.610000,0.583080,Hold,0.908936,0.000000,Hold,-254.000000,2.000000,Suck,-2122.500000,2181.818182,Speed,-2137.500000,2181.818182,Speed,On,On0.000000,0,,,,
02:17:00.021 PM 03/19/2016,Teleop Enabled,10,FALSE,0,NO ERROR,-0.000000,-0.154000,0.000000,-0.237416,TRUE,FALSE,FALSE,FALSE,FALSE,FALSE,Disabled,0.000000,0.000000,0.000000,TRUE,-0.238541,1.738892,0.000000,0.030518,0.053177,0.000000,0.000000,0.081000,0.147000,-0.050000,0.550000,2.610000,0.586529,Hold,0.908936,0.000000,Hold,-254.000000,2.000000,Suck,-2122.500000,2181.818182,Speed,-2130.000000,2181.818182,Speed,On,On0.000000,0,,,,
02:17:00.121 PM 03/19/2016,Teleop Enabled,14,FALSE,0,NO ERROR,-0.000000,-0.154000,0.000000,-0.237416,TRUE,FALSE,FALSE,FALSE,FALSE,FALSE,Disabled,0.000000,0.000000,0.000000,TRUE,-0.237839,1.743332,0.000000,0.006439,0.107300,0.000000,0.039000,0.009000,0.054000,-0.040000,0.400000,2.610000,0.605005,Hold,0.908936,0.000000,Hold,-254.000000,2.000000,Suck,-2122.500000,2181.818182,Speed,-2130.000000,2181.818182,Speed,On,On0.000000,0,,,,
02:17:00.221 PM 03/19/2016,Teleop Enabled,10,FALSE,0,NO ERROR,-0.000000,-0.154000,0.000000,-0.237416,TRUE,FALSE,FALSE,FALSE,FALSE,FALSE,Disabled,0.000000,0.000000,0.000000,TRUE,-0.237610,1.748474,0.000000,-0.011932,0.097122,0.000000,0.060000,0.024000,0.001000,-0.050000,0.470000,2.620000,0.616104,Hold,0.908936,0.000000,Hold,-254.000000,2.000000,Suck,-2122.500000,2181.818182,Speed,-2130.000000,2181.818182,Speed,On,On0.000000,0,,,,
02:17:00.321 PM 03/19/2016,Teleop Enabled,9,FALSE,0,NO ERROR,-0.000000,-0.154000,0.000000,-0.237416,TRUE,FALSE,FALSE,FALSE,FALSE,FALSE,Disabled,0.000000,0.000000,0.000000,TRUE,-0.237610,1.748474,0.000000,-0.011932,0.097122,0.000000,0.030000,-0.058000,-0.025000,-0.030000,0.360000,2.650000,0.630494,Hold,0.908936,0.000000,Hold,-254.000000,2.000000,Suck,-2122.500000,2181.818182,Speed,-2130.000000,2181.818182,Speed,On,On0.000000,0,,,,
02:17:00.421 PM 03/19/2016,Teleop Enabled,12,FALSE,0,NO ERROR,-0.000000,-0.154000,0.000000,-0.237416,TRUE,FALSE,FALSE,FALSE,FALSE,FALSE,Disabled,0.000000,0.000000,0.000000,TRUE,-0.237442,1.751892,0.000000,0.022095,0.053268,0.000000,-0.044000,-0.010000,0.013000,-0.030000,0.420000,2.650000,0.633592,Hold,0.908936,0.000000,Hold,-254.000000,2.000000,Suck,-2122.500000,2181.818182,Speed,-2130.000000,2181.818182,Speed,On,On0.000000,0,,,,
02:17:00.522 PM 03/19/2016,Teleop Enabled,10,FALSE,0,NO ERROR,-0.000000,-0.154000,0.000000,-0.237416,TRUE,FALSE,FALSE,FALSE,FALSE,FALSE,Disabled,0.000000,0.000000,0.000000,TRUE,-0.237259,1.753830,0.000000,-0.017380,0.024628,0.000000,-0.045000,0.055000,0.029000,-0.020000,0.340000,2.630000,0.650069,Hold,0.908936,0.000000,Hold,-254.000000,2.000000,Suck,-2122.500000,2181.818182,Speed,-2130.000000,2181.818182,Speed,On,On0.000000,0,,,,
02:17:00.623 PM 03/19/2016,Teleop Enabled,11,FALSE,0,NO ERROR,-0.000000,-0.154000,0.000000,-0.237416,TRUE,FALSE,FALSE,FALSE,FALSE,FALSE,Disabled,0.000000,0.000000,0.000000,TRUE,-0.237549,1.758102,0.000000,0.001877,0.063385,0.000000,0.060000,-0.027000,0.019000,-0.030000,0.370000,2.590000,0.657993,Hold,0.908936,0.000000,Hold,-254.000000,2.000000,Suck,-2122.500000,2181.818182,Speed,-2130.000000,2181.818182,Speed,On,On0.000000,0,,,,
02:17:00.723 PM 03/19/2016,Teleop Enabled,9,FALSE,0,NO ERROR,-0.000000,-0.154000,0.000000,-0.237416,TRUE,FALSE,FALSE,FALSE,FALSE,FALSE,Disabled,0.000000,0.000000,0.000000,TRUE,-0.237549,1.758102,0.000000,0.001877,0.063385,0.000000,-0.054000,0.041000,0.050000,-0.040000,0.350000,2.540000,0.656992,Hold,0.908936,0.000000,Hold,-254.000000,2.000000,Suck,-2122.500000,2181.818182,Speed,-2130.000000,2181.818182,Speed,On,On0.000000,0,,,,
02:17:00.823 PM 03/19/2016,Teleop Enabled,11,FALSE,0,NO ERROR,-0.000000,-0.154000,0.000000,-0.237416,TRUE,FALSE,FALSE,FALSE,FALSE,FALSE,Disabled,0.000000,0.000000,0.000000,TRUE,-0.238953,1.762512,0.000000,-0.026520,0.067352,0.000000,-0.029000,0.062000,0.105000,-0.040000,0.410000,2.520000,0.655914,Hold,0.908936,0.000000,Hold,-254.000000,2.000000,Suck,-2130.000000,2181.818182,Speed,-2130.000000,2181.818182,Speed,On,On0.000000,0,,,,
02:17:00.924 PM 03/19/2016,Teleop Enabled,11,FALSE,0,NO ERROR,-0.000000,-0.154000,0.000000,-0.237416,TRUE,FALSE,FALSE,FALSE,FALSE,FALSE,Disabled,0.000000,0.000000,0.000000,TRUE,-0.240509,1.766693,0.000000,-0.050293,0.120071,0.000000,0.064000,0.026000,0.106000,-0.040000,0.380000,2.490000,0.674528,Hold,0.908936,0.000000,Hold,-254.000000,2.000000,Suck,-2122.500000,2181.818182,Speed,-2130.000000,2181.818182,Speed,On,On0.000000,0,,,,
02:17:01.025 PM 03/19/2016,Teleop Enabled,11,FALSE,0,NO ERROR,-0.000000,-0.154000,0.000000,-0.237416,TRUE,FALSE,FALSE,FALSE,FALSE,FALSE,Disabled,0.000000,0.000000,0.000000,TRUE,-0.244446,1.781738,0.000000,-0.037415,0.158905,0.000000,-0.003000,0.043000,0.059000,-0.050000,0.460000,2.440000,0.680869,Hold,0.908936,0.000000,Hold,-254.000000,2.000000,Suck,-2130.000000,2181.818182,Speed,-2130.000000,2181.818182,Speed,On,On0.000000,0,,,,
02:17:01.126 PM 03/19/2016,Teleop Enabled,10,FALSE,0,NO ERROR,-0.000000,-0.154000,0.000000,-0.237416,TRUE,FALSE,FALSE,FALSE,FALSE,FALSE,Disabled,0.000000,0.000000,0.000000,TRUE,-0.244446,1.781738,0.000000,-0.037415,0.158905,0.000000,-0.021000,0.000000,-0.062000,-0.050000,0.480000,2.450000,0.680869,Hold,0.908936,0.000000,Hold,-254.000000,2.000000,Suck,-2130.000000,2181.818182,Speed,-2130.000000,2181.818182,Speed,On,On0.000000,0,,,,
02:17:01.226 PM 03/19/2016,Teleop Enabled,10,FALSE,0,NO ERROR,-0.000000,-0.154000,0.000000,-0.237416,TRUE,FALSE,FALSE,FALSE,FALSE,FALSE,Disabled,0.000000,0.000000,0.000000,TRUE,-0.245438,1.790054,0.000000,0.013443,0.108200,0.000000,0.008000,-0.026000,-0.008000,-0.070000,0.520000,2.410000,0.678824,Hold,0.908936,0.000000,Hold,-254.000000,2.000000,Suck,-2130.000000,2181.818182,Speed,-2130.000000,2181.818182,Speed,On,On0.000000,0,,,,
02:17:01.326 PM 03/19/2016,Teleop Enabled,9,FALSE,0,NO ERROR,-0.000000,-0.154000,0.000000,-0.237416,TRUE,FALSE,FALSE,FALSE,FALSE,FALSE,Disabled,0.000000,0.000000,0.000000,TRUE,-0.244522,1.793808,0.000000,0.022049,0.083862,0.000000,-0.058000,-0.020000,0.061000,-0.070000,0.530000,2.420000,0.675537,Hold,0.908936,0.000000,Hold,-254.000000,2.000000,Suck,-2130.000000,2181.818182,Speed,-2130.000000,2181.818182,Speed,On,On0.000000,0,,,,
02:17:01.426 PM 03/19/2016,Teleop Enabled,10,FALSE,0,NO ERROR,-0.000000,-0.154000,0.000000,-0.237416,TRUE,FALSE,FALSE,FALSE,FALSE,FALSE,Disabled,0.000000,0.000000,0.000000,TRUE,-0.245514,1.799438,0.000000,-0.016144,0.110550,0.000000,0.078000,0.038000,0.110000,-0.060000,0.500000,2.470000,0.669216,Hold,0.908936,0.000000,Hold,-254.000000,2.000000,Suck,-2130.000000,2181.818182,Speed,-2130.000000,2181.818182,Speed,On,On0.000000,0,,,,
02:17:01.527 PM 03/19/2016,Teleop Enabled,11,FALSE,0,NO ERROR,-0.000000,-0.154000,0.000000,-0.237416,TRUE,FALSE,FALSE,FALSE,FALSE,FALSE,Disabled,0.000000,0.000000,0.000000,TRUE,-0.245026,1.805862,0.000000,0.000000,0.148880,0.000000,0.026000,0.005000,0.013000,-0.070000,0.540000,2.490000,0.677953,Hold,0.908936,0.000000,Hold,-254.000000,2.000000,Suck,-2130.000000,2181.818182,Speed,-2137.500000,2181.818182,Speed,On,On0.000000,0,,,,
02:17:01.627 PM 03/19/2016,Teleop Enabled,10,FALSE,0,NO ERROR,-0.000000,-0.154000,0.000000,-0.237416,TRUE,FALSE,FALSE,FALSE,FALSE,FALSE,Disabled,0.000000,0.000000,0.000000,TRUE,-0.244995,1.814087,0.000000,-0.007401,0.177292,0.000000,-0.148000,0.062000,0.059000,-0.070000,0.470000,2.540000,0.675306,Hold,0.908936,0.000000,Hold,-254.000000,2.000000,Suck,-2130.000000,2181.818182,Speed,-2130.000000,2181.818182,Speed,On,On0.000000,0,,,,
02:17:01.728 PM 03/19/2016,Teleop Enabled,10,FALSE,0,NO ERROR,-0.000000,-0.154000,0.000000,-0.237416,TRUE,FALSE,FALSE,FALSE,FALSE,FALSE,Disabled,0.000000,0.000000,0.000000,TRUE,-0.247269,1.823700,0.000000,-0.049286,0.187943,0.000000,0.046000,0.029000,0.183000,-0.080000,0.550000,2.510000,0.679933,Hold,0.908936,0.000000,Hold,-254.000000,2.000000,Suck,-2130.000000,2181.818182,Speed,-2130.000000,2181.818182,Speed,On,On0.000000,0,,,,
02:17:01.829 PM 03/19/2016,Teleop Enabled,10,FALSE,0,NO ERROR,-0.000000,-0.154000,0.000000,-0.237416,TRUE,FALSE,FALSE,FALSE,FALSE,FALSE,Disabled,0.000000,0.000000,0.000000,TRUE,-0.249954,1.835419,0.000000,-0.076660,0.265900,0.000000,0.046000,-0.001000,0.066000,-0.070000,0.480000,2.550000,0.688037,Hold,0.908936,0.000000,Hold,-254.000000,2.000000,Suck,-2130.000000,2181.818182,Speed,-2130.000000,2181.818182,Speed,On,On0.000000,0,,,,
02:17:01.932 PM 03/19/2016,Teleop Enabled,10,FALSE,0,NO ERROR,-0.000000,-0.154000,0.000000,-0.237416,TRUE,FALSE,FALSE,FALSE,FALSE,FALSE,Disabled,0.000000,0.000000,0.000000,TRUE,-0.253677,1.836182,0.000000,-0.056030,0.038605,0.000000,0.022000,0.003000,-0.002000,-0.070000,0.530000,2.530000,0.721292,Hold,0.908936,0.000000,Hold,-254.000000,2.000000,Suck,-2122.500000,2181.818182,Speed,-2130.000000,2181.818182,Speed,On,On0.000000,0,,,,
02:17:02.033 PM 03/19/2016,Teleop Enabled,12,FALSE,0,NO ERROR,-0.000000,-0.154000,0.000000,-0.237416,TRUE,FALSE,FALSE,FALSE,FALSE,FALSE,Disabled,0.000000,0.000000,0.000000,TRUE,-0.254028,1.835526,0.000000,0.000610,0.000000,0.000000,-0.051000,-0.018000,-0.030000,-0.060000,0.450000,2.560000,0.743231,Hold,0.908936,0.000000,Hold,-254.000000,2.000000,Suck,-2122.500000,2181.818182,Speed,-2130.000000,2181.818182,Speed,On,On0.000000,0,,,,
02:17:02.134 PM 03/19/2016,Teleop Enabled,11,FALSE,0,NO ERROR,-0.000000,-0.154000,0.000000,-0.237416,TRUE,FALSE,FALSE,FALSE,FALSE,FALSE,Disabled,0.000000,0.000000,0.000000,TRUE,-0.254868,1.833572,0.000000,-0.015152,-0.075363,0.000000,0.016000,0.007000,0.100000,-0.070000,0.480000,2.550000,0.739534,Hold,0.908936,0.000000,Hold,-254.000000,2.000000,Suck,-2130.000000,2181.818182,Speed,-2137.500000,2181.818182,Speed,On,On0.000000,0,,,,
02:17:02.234 PM 03/19/2016,Teleop Enabled,12,FALSE,0,NO ERROR,-0.000000,-0.154000,0.000000,-0.237416,TRUE,FALSE,FALSE,FALSE,FALSE,FALSE,Disabled,0.000000,0.000000,0.000000,TRUE,-0.255966,1.830322,0.000000,-0.028580,0.000000,0.000000,0.021000,0.007000,0.002000,-0.070000,0.560000,2.560000,0.754643,Hold,0.908936,0.000000,Hold,-254.000000,2.000000,Suck,-2137.500000,2181.818182,Speed,-2130.000000,2181.818182,Speed,On,On0.000000,0,,,,
02:17:02.334 PM 03/19/2016,Teleop Enabled,11,FALSE,0,NO ERROR,-0.000000,-0.154000,0.000000,-0.237416,TRUE,FALSE,FALSE,FALSE,FALSE,FALSE,Disabled,0.000000,0.000000,0.000000,TRUE,-0.258118,1.829803,0.000000,-0.048782,0.005371,0.000000,0.022000,0.035000,-0.012000,-0.050000,0.400000,2.520000,0.782366,Hold,0.908936,0.000000,Hold,-254.000000,2.000000,Suck,-2145.000000,2181.818182,Speed,-2130.000000,2181.818182,Speed,On,On0.000000,0,,,,
02:17:02.435 PM 03/19/2016,Teleop Enabled,10,FALSE,0,NO ERROR,-0.000000,-0.154000,0.000000,-0.237416,TRUE,FALSE,FALSE,FALSE,FALSE,FALSE,Disabled,0.000000,0.000000,0.000000,TRUE,-0.258850,1.830734,0.000000,0.008148,0.003418,0.000000,-0.008000,0.018000,0.061000,-0.050000,0.480000,2.540000,0.797637,Hold,0.908936,0.000000,Hold,-254.000000,2.000000,Suck,-2137.500000,2181.818182,Speed,-2130.000000,2181.818182,Speed,On,On0.000000,0,,,,
02:17:02.535 PM 03/19/2016,Teleop Enabled,10,FALSE,0,NO ERROR,-0.000000,-0.154000,0.000000,-0.237416,TRUE,FALSE,FALSE,FALSE,FALSE,FALSE,Disabled,0.000000,0.000000,0.000000,TRUE,-0.259171,1.831772,0.000000,-0.020203,0.033646,0.000000,-0.028000,0.005000,-0.017000,-0.030000,0.440000,2.560000,0.815043,Hold,0.908936,0.000000,Hold,-254.000000,2.000000,Suck,-2122.500000,2181.818182,Speed,-2137.500000,2181.818182,Speed,On,On0.000000,0,,,,
02:17:02.636 PM 03/19/2016,Teleop Enabled,11,FALSE,0,NO ERROR,-0.000000,-0.154000,0.000000,-0.237416,TRUE,FALSE,FALSE,FALSE,FALSE,FALSE,Disabled,0.000000,0.000000,0.000000,TRUE,-0.261093,1.832443,0.000000,-0.040451,0.000000,0.000000,-0.057000,0.024000,0.038000,-0.050000,0.540000,2.570000,0.806233,Hold,0.908936,0.000000,Hold,-254.000000,2.000000,Suck,-2130.000000,2181.818182,Speed,-2137.500000,2181.818182,Speed,On,On0.000000,0,,,,
02:17:02.738 PM 03/19/2016,Teleop Enabled,10,FALSE,0,NO ERROR,-0.000000,-0.154000,0.000000,-0.237416,TRUE,FALSE,FALSE,FALSE,FALSE,FALSE,Disabled,0.000000,0.000000,0.000000,TRUE,-0.264328,1.832901,0.000000,-0.078110,0.006577,0.000000,0.041000,-0.005000,0.052000,-0.050000,0.490000,2.540000,0.815769,Hold,0.908936,0.000000,Hold,-254.000000,2.000000,Suck,-2130.000000,2181.818182,Speed,-2130.000000,2181.818182,Speed,On,On0.000000,0,,,,
02:17:02.837 PM 03/19/2016,Teleop Enabled,10,FALSE,0,NO ERROR,-0.000000,-0.154000,0.000000,-0.237416,TRUE,FALSE,FALSE,FALSE,FALSE,FALSE,Disabled,0.000000,0.000000,0.000000,TRUE,-0.267227,1.833054,0.000000,-0.044403,0.008453,0.000000,0.068000,-0.014000,0.000000,-0.060000,0.510000,2.520000,0.833743,Hold,0.908936,0.000000,Hold,-254.000000,2.000000,Suck,-2130.000000,2181.818182,Speed,-2130.000000,2181.818182,Speed,On,On0.000000,0,,,,
02:17:02.938 PM 03/19/2016,Teleop Enabled,11,FALSE,0,NO ERROR,-0.000000,-0.154000,0.000000,-0.237416,TRUE,FALSE,FALSE,FALSE,FALSE,FALSE,Disabled,0.000000,0.000000,0.000000,TRUE,-0.268372,1.832855,0.000000,-0.017685,-0.027603,0.000000,-0.050000,-0.093000,-0.086000,-0.060000,0.490000,2.510000,0.837987,Hold,0.908936,0.000000,Hold,-254.000000,2.000000,Suck,-2130.000000,2181.818182,Speed,-2130.000000,2181.818182,Speed,On,On0.000000,0,,,,
02:17:03.038 PM 03/19/2016,Teleop Enabled,11,FALSE,0,NO ERROR,-0.000000,-0.154000,0.000000,-0.237416,TRUE,FALSE,FALSE,FALSE,FALSE,FALSE,Disabled,0.000000,0.000000,0.000000,TRUE,-0.270737,1.828857,0.000000,-0.061493,-0.113663,0.000000,0.068000,-0.087000,-0.014000,-0.060000,0.420000,2.500000,0.850515,Hold,0.908936,0.000000,Hold,-254.000000,2.000000,Suck,-2130.000000,2181.818182,Speed,-2137.500000,2181.818182,Speed,On,On0.000000,0,,,,
02:17:03.140 PM 03/19/2016,Teleop Enabled,10,FALSE,0,NO ERROR,-0.000000,-0.154000,0.000000,-0.237416,TRUE,FALSE,FALSE,FALSE,FALSE,FALSE,Disabled,0.000000,0.000000,0.000000,TRUE,-0.274094,1.819443,0.000000,-0.057495,-0.160065,0.000000,-0.071000,0.043000,0.003000,-0.060000,0.480000,2.500000,0.849985,Hold,0.908936,0.000000,Hold,-254.000000,2.000000,Suck,-2130.000000,2181.818182,Speed,-2130.000000,2181.818182,Speed,On,On0.000000,0,,,,
02:17:03.240 PM 03/19/2016,Teleop Enabled,9,FALSE,0,NO ERROR,-0.000000,-0.154000,0.000000,-0.237416,TRUE,FALSE,FALSE,FALSE,FALSE,FALSE,Disabled,0.000000,0.000000,0.000000,TRUE,-0.277176,1.812805,0.000000,-0.083649,-0.167007,0.000000,0.031000,0.119000,0.016000,-0.070000,0.380000,2.490000,0.841626,Hold,0.908936,0.000000,Hold,-254.000000,2.000000,Suck,-2137.500000,2181.818182,Speed,-2130.000000,2181.818182,Speed,On,On0.000000,0,,,,
02:17:03.341 PM 03/19/2016,Teleop Enabled,10,FALSE,0,NO ERROR,-0.000000,-0.154000,0.000000,-0.237416,TRUE,FALSE,FALSE,FALSE,FALSE,FALSE,Disabled,0.000000,0.000000,0.000000,TRUE,-0.279846,1.805862,0.000000,-0.025879,-0.124878,0.000000,0.053000,-0.010000,-0.040000,-0.080000,0.510000,2.520000,0.836975,Hold,0.908936,0.000000,Hold,-254.000000,2.000000,Suck,-2130.000000,2181.818182,Speed,-2137.500000,2181.818182,Speed,On,On0.000000,0,,,,
02:17:03.441 PM 03/19/2016,Teleop Enabled,11,FALSE,0,NO ERROR,-0.000000,-0.154000,0.000000,-0.237416,TRUE,FALSE,FALSE,FALSE,FALSE,FALSE,Disabled,0.000000,0.000000,0.000000,TRUE,-0.280991,1.806229,0.000000,-0.039093,0.005234,0.000000,-0.017000,-0.013000,0.046000,-0.080000,0.380000,2.490000,0.847816,Hold,0.908936,0.000000,Hold,-254.000000,2.000000,Suck,-2130.000000,2181.818182,Speed,-2130.000000,2181.818182,Speed,On,On0.000000,0,,,,
02:17:03.542 PM 03/19/2016,Teleop Enabled,10,FALSE,0,NO ERROR,-0.000000,-0.154000,0.000000,-0.237416,TRUE,FALSE,FALSE,FALSE,FALSE,FALSE,Disabled,0.000000,0.000000,0.000000,TRUE,-0.281540,1.806534,0.000000,-0.002441,0.020752,0.000000,0.042000,0.030000,0.031000,-0.070000,0.460000,2.500000,0.858412,Hold,0.908936,0.000000,Hold,-254.000000,2.000000,Suck,-2130.000000,2181.818182,Speed,-2130.000000,2181.818182,Speed,On,On0.000000,0,,,,
02:17:03.642 PM 03/19/2016,Teleop Enabled,9,FALSE,0,NO ERROR,-0.000000,-0.154000,0.000000,-0.237416,TRUE,FALSE,FALSE,FALSE,FALSE,FALSE,Disabled,0.000000,0.000000,0.000000,TRUE,-0.281876,1.807266,0.000000,-0.013794,0.026306,0.000000,0.072000,0.044000,0.072000,-0.080000,0.460000,2.480000,0.850525,Hold,0.908936,0.000000,Hold,-254.000000,2.000000,Suck,-2130.000000,2181.818182,Speed,-2137.500000,2181.818182,Speed,On,On0.000000,0,,,,
02:17:03.742 PM 03/19/2016,Teleop Enabled,10,FALSE,0,NO ERROR,-0.000000,-0.154000,0.000000,-0.237416,TRUE,FALSE,FALSE,FALSE,FALSE,FALSE,Disabled,0.000000,0.000000,0.000000,TRUE,-0.281158,1.809341,0.000000,0.041672,0.033142,0.000000,0.053000,0.010000,0.014000,-0.090000,0.470000,2.520000,0.855775,Hold,0.908936,0.000000,Hold,-254.000000,2.000000,Suck,-2130.000000,2181.818182,Speed,-2130.000000,2181.818182,Speed,On,On0.000000,0,,,,
02:17:03.842 PM 03/19/2016,Teleop Enabled,10,FALSE,0,NO ERROR,-0.000000,-0.154000,0.000000,-0.237416,TRUE,FALSE,FALSE,FALSE,FALSE,FALSE,Disabled,0.000000,0.000000,0.000000,TRUE,-0.277603,1.810852,0.000000,0.054016,-0.004883,0.000000,-0.044000,-0.070000,-0.040000,-0.100000,0.580000,2.500000,0.846990,Hold,0.908936,0.000000,Hold,-254.000000,2.000000,Suck,-2130.000000,2181.818182,Speed,-2130.000000,2181.818182,Speed,On,On0.000000,0,,,,
02:17:03.943 PM 03/19/2016,                                                                                                                                                                                                                                                                                                                                                                                                                                                                                                                                                                                                                                                                                                                                                                                                                                                                                                                                                                                                                                                                                                                                                                                                                                                                                                                                                                                                                                                                                                                                                                                                                                                                                                                                                                                                                                                                                                                                                                                                                                                                                                                                                                                                                                                                                                                                                                                                                                                                                                                                                                                                                                                                                                                                                                                                                                                                                                                                                                                                                                                                                                                                                                                                                                                                                                                                                                                                                                                                                                                                                                                   