Time,Robot Mode,Loop Time,Error Status,Error Code,Error Source,Left Motor Output,Left Motor Encoder,Right Motor Output,Right Motor Encoder,Is Level,Is Stalled,Ball Detector Photoeye,Vision Enabled,Vision Teleop Control,Vision Auto Control,Vision Current State,Vision X Output,Vision NavX Error,Vision NavX Target,NavX Connection Status,NavX Displacement X,NavX Displacement Y,NavX Displacement Z,NavX Velocity X,NavX Velocity Y,NavX Velocity Z,NavX Acceleration X,NavX Acceleration Y,NavX Acceleration Z,NavX Pitch,NavX Yaw,NavX Roll,Gyro Angle,Roller Arm State,Roller Arm Actual,Roller Arm Desired,Shooter Arm State,Shooter Arm Actual,Shooter Arm Desired,Shooter State,Actual RPM Left,Desired RPM Left,Control Mode Left,Actual RPM Right,Desired RPM Right,Scaler Motor Output,Auto To Run,Auto Current File,Auto File Status,Auto Current Command,Auto Trimmed Command
02:35:36.099 PM 03/19/2016,Autonomous Disabled,23092,FALSE,0,NO ERROR,-0.000000,-0.012833,0.000000,-0.038500,TRUE,FALSE,FALSE,FALSE,FALSE,FALSE,Disabled,0.000000,0.000000,0.000000,TRUE,-2.023407,-2.469330,0.000000,-0.025482,0.150162,0.000000,-0.027000,0.038000,0.030000,-0.070000,-0.040000,2.430000,-0.892793,Hold,0.910156,0.000000,Hold,-256.000000,2.000000,Suck,-2137.500000,2181.818182,Speed,-2137.500000,2181.818182,Speed,Off,On0.000000,0,,,,
02:35:36.207 PM 03/19/2016,Teleop Enabled,9,FALSE,0,NO ERROR,-0.000000,-0.006417,0.000000,-0.038500,TRUE,FALSE,FALSE,FALSE,FALSE,FALSE,Disabled,0.000000,0.000000,0.000000,TRUE,-2.023407,-2.469330,0.000000,-0.025482,0.150162,0.000000,-0.027000,0.038000,0.030000,-0.070000,-0.040000,2.430000,-0.006806,ResetBack,0.910156,-0.200000,ResetBack,-256.000000,-0.300000,Empty,0.000000,0.000000,Speed,0.000000,0.000000,Speed,Off,Off0.000000,0,,,,
02:35:36.307 PM 03/19/2016,Teleop Enabled,9,FALSE,0,NO ERROR,-0.000000,-0.006417,0.000000,-0.038500,TRUE,FALSE,FALSE,FALSE,FALSE,FALSE,Disabled,0.000000,0.000000,0.000000,TRUE,-2.038605,-2.325592,0.000000,0.000000,0.000000,0.000000,-0.055000,-0.003000,-0.013000,0.000000,-0.070000,2.460000,-0.032691,ResetBack,0.213867,-0.200000,ResetBack,-256.000000,-0.300000,Empty,0.000000,0.000000,Speed,0.000000,0.000000,Speed,Off,Off0.000000,0,,,,
02:35:36.409 PM 03/19/2016,Teleop Enabled,12,FALSE,0,NO ERROR,-0.000000,-0.006417,0.000000,-0.038500,TRUE,FALSE,FALSE,FALSE,FALSE,FALSE,Disabled,0.000000,0.000000,0.000000,TRUE,-2.039032,-2.325790,0.000000,-0.016144,-0.015640,0.000000,-0.033000,-0.017000,0.035000,0.000000,-0.080000,2.420000,-0.055377,ResetBack,0.005859,-0.200000,ResetBack,-206.000000,-0.300000,Empty,0.000000,0.000000,Speed,0.000000,0.000000,Speed,Off,Off0.000000,0,,,,
02:35:36.509 PM 03/19/2016,Teleop Enabled,9,FALSE,0,NO ERROR,-0.000000,-0.006417,0.000000,-0.038500,TRUE,FALSE,FALSE,FALSE,FALSE,FALSE,Disabled,0.000000,0.000000,0.000000,TRUE,-2.040131,-2.326019,0.000000,-0.021851,0.000000,0.000000,-0.002000,0.010000,0.017000,-0.010000,-0.060000,2.400000,-0.083045,Reset,0.005615,0.000000,ResetBack,-206.000000,-0.300000,Empty,0.000000,0.000000,Speed,0.000000,0.000000,Speed,Off,Off0.000000,0,,,,
02:35:36.609 PM 03/19/2016,Teleop Enabled,9,FALSE,0,NO ERROR,-0.000000,-0.006417,0.000000,-0.038500,TRUE,FALSE,FALSE,FALSE,FALSE,FALSE,Disabled,0.000000,0.000000,0.000000,TRUE,-2.040131,-2.326050,0.000000,0.000000,-0.003632,0.000000,0.010000,-0.018000,0.042000,0.000000,-0.080000,2.410000,-0.086680,Hold,1.084717,0.000000,ResetBack,-206.000000,-0.300000,Empty,0.000000,0.000000,Speed,0.000000,0.000000,Speed,Off,Off0.000000,0,,,,
02:35:36.709 PM 03/19/2016,Teleop Enabled,10,FALSE,0,NO ERROR,-0.000000,-0.006417,0.000000,-0.038500,TRUE,FALSE,FALSE,FALSE,FALSE,FALSE,Disabled,0.000000,0.000000,0.000000,TRUE,-2.040131,-2.326248,0.000000,0.000000,0.000000,0.000000,-0.008000,-0.001000,0.012000,0.000000,-0.060000,2.400000,-0.089582,Hold,0.912109,0.000000,ResetBack,-206.000000,-0.300000,Empty,0.000000,0.000000,Speed,0.000000,0.000000,Speed,Off,Off0.000000,0,,,,
02:35:36.810 PM 03/19/2016,Teleop Enabled,9,FALSE,0,NO ERROR,-0.000000,-0.006417,0.000000,-0.038500,TRUE,FALSE,FALSE,FALSE,FALSE,FALSE,Disabled,0.000000,0.000000,0.000000,TRUE,-2.040131,-2.326248,0.000000,0.000000,0.000000,0.000000,0.000000,-0.005000,0.013000,-0.010000,-0.050000,2.410000,-0.101752,Hold,0.911133,0.000000,ResetBack,-206.000000,-0.300000,Empty,0.000000,0.000000,Speed,0.000000,0.000000,Speed,Off,Off0.000000,0,,,,
02:35:36.910 PM 03/19/2016,Teleop Enabled,10,FALSE,0,NO ERROR,-0.000000,-0.006417,0.000000,-0.038500,TRUE,FALSE,FALSE,FALSE,FALSE,FALSE,Disabled,0.000000,0.000000,0.000000,TRUE,-2.040131,-2.326248,0.000000,0.000000,0.000000,0.000000,0.008000,-0.002000,0.021000,-0.010000,-0.060000,2.420000,-0.099717,Hold,0.911133,0.000000,ResetBack,-206.000000,-0.300000,Empty,0.000000,0.000000,Speed,0.000000,0.000000,Speed,Off,Off0.000000,0,,,,
02:35:37.010 PM 03/19/2016,Teleop Enabled,9,FALSE,0,NO ERROR,-0.000000,-0.006417,0.000000,-0.038500,TRUE,FALSE,FALSE,FALSE,FALSE,FALSE,Disabled,0.000000,0.000000,0.000000,TRUE,-2.040131,-2.326248,0.000000,0.000000,0.000000,0.000000,0.003000,0.005000,0.020000,0.000000,-0.050000,2.420000,-0.089362,Hold,0.911133,0.000000,ResetBack,-206.000000,-0.300000,Empty,0.000000,0.000000,Speed,0.000000,0.000000,Speed,Off,Off0.000000,0,,,,
02:35:37.110 PM 03/19/2016,Teleop Enabled,10,FALSE,0,NO ERROR,-0.000000,-0.006417,0.000000,-0.038500,TRUE,FALSE,FALSE,FALSE,FALSE,FALSE,Disabled,0.000000,0.000000,0.000000,TRUE,-2.040131,-2.326248,0.000000,0.000000,0.000000,0.000000,0.002000,-0.001000,0.012000,0.000000,-0.060000,2.410000,-0.091565,Hold,0.911133,0.000000,ResetBack,-206.000000,-0.300000,Empty,0.000000,0.000000,Speed,0.000000,0.000000,Speed,Off,Off0.000000,0,,,,
02:35:37.210 PM 03/19/2016,Teleop Enabled,9,FALSE,0,NO ERROR,-0.000000,-0.006417,0.000000,-0.038500,TRUE,FALSE,FALSE,FALSE,FALSE,FALSE,Disabled,0.000000,0.000000,0.000000,TRUE,-2.040131,-2.326248,0.000000,0.000000,0.000000,0.000000,0.001000,-0.001000,0.020000,0.000000,-0.060000,2.410000,-0.089665,Hold,0.911133,0.000000,ResetBack,-206.000000,-0.300000,Empty,0.000000,0.000000,Speed,0.000000,0.000000,Speed,Off,Off0.000000,0,,,,
02:35:37.310 PM 03/19/2016,Teleop Enabled,10,FALSE,0,NO ERROR,-0.000000,-0.006417,0.000000,-0.038500,TRUE,FALSE,FALSE,FALSE,FALSE,FALSE,Disabled,0.000000,0.000000,0.000000,TRUE,-2.040131,-2.326248,0.000000,0.000000,0.000000,0.000000,0.001000,0.005000,0.018000,0.000000,-0.050000,2.420000,-0.102099,Hold,0.911133,0.000000,ResetBack,-206.000000,-0.300000,Empty,0.000000,0.000000,Speed,0.000000,0.000000,Speed,Off,On0.000000,0,,,,
02:35:37.410 PM 03/19/2016,Teleop Enabled,11,FALSE,0,NO ERROR,-0.000000,-0.006417,0.000000,-0.038500,TRUE,FALSE,FALSE,FALSE,FALSE,FALSE,Disabled,0.000000,0.000000,0.000000,TRUE,-2.040024,-2.326248,0.000000,0.010422,0.000000,0.000000,-0.083000,0.113000,-0.060000,0.000000,0.000000,2.430000,-0.100898,Hold,0.911133,0.000000,Reset,-206.000000,2.000000,Suck,0.000000,2181.818182,Speed,0.000000,2181.818182,Speed,Off,On0.000000,0,,,,
02:35:37.510 PM 03/19/2016,Teleop Enabled,10,FALSE,0,NO ERROR,-0.000000,-0.006417,0.000000,-0.038500,TRUE,FALSE,FALSE,FALSE,FALSE,FALSE,Disabled,0.000000,0.000000,0.000000,TRUE,-2.039520,-2.325500,0.000000,0.013275,0.020111,0.000000,0.016000,-0.003000,0.105000,0.000000,0.020000,2.440000,-0.101018,Hold,0.911133,0.000000,Hold,-206.000000,2.000000,Suck,-37.500000,2181.818182,Speed,-22.500000,2181.818182,Speed,Off,On0.000000,0,,,,
02:35:37.610 PM 03/19/2016,Teleop Enabled,9,FALSE,0,NO ERROR,-0.000000,-0.006417,0.000000,-0.038500,TRUE,FALSE,FALSE,FALSE,FALSE,FALSE,Disabled,0.000000,0.000000,0.000000,TRUE,-2.039871,-2.325058,0.000000,-0.010132,0.011093,0.000000,-0.070000,0.026000,-0.059000,0.000000,0.000000,2.460000,-0.123006,Hold,0.911133,0.000000,Hold,-346.000000,2.000000,Suck,-465.000000,2181.818182,Speed,-742.500000,2181.818182,Speed,Off,On0.000000,0,,,,
02:35:37.710 PM 03/19/2016,Teleop Enabled,10,FALSE,0,NO ERROR,-0.000000,-0.006417,0.000000,-0.038500,TRUE,FALSE,FALSE,FALSE,FALSE,FALSE,Disabled,0.000000,0.000000,0.000000,TRUE,-2.041275,-2.323334,0.000000,-0.020615,0.040009,0.000000,0.019000,-0.037000,-0.018000,0.000000,-0.070000,2.530000,-0.119426,Hold,0.911133,0.000000,Hold,-346.000000,2.000000,Suck,-1185.000000,2181.818182,Speed,-1320.000000,2181.818182,Speed,Off,On0.000000,0,,,,
02:35:37.810 PM 03/19/2016,Teleop Enabled,4,FALSE,0,NO ERROR,-0.000000,-0.006417,0.000000,-0.038500,TRUE,FALSE,FALSE,FALSE,FALSE,FALSE,Disabled,0.000000,0.000000,0.000000,TRUE,-2.041550,-2.322342,0.000000,-0.000366,0.010101,0.000000,-0.056000,-0.032000,-0.026000,0.000000,-0.040000,2.520000,-0.121705,Hold,0.911133,0.000000,Hold,-346.000000,2.000000,Suck,-1882.500000,2181.818182,Speed,-2017.500000,2181.818182,Speed,Off,On0.000000,0,,,,
02:35:37.910 PM 03/19/2016,Teleop Enabled,11,FALSE,0,NO ERROR,-0.000000,-0.006417,0.000000,-0.038500,TRUE,FALSE,FALSE,FALSE,FALSE,FALSE,Disabled,0.000000,0.000000,0.000000,TRUE,-2.040741,-2.322052,0.000000,0.042419,-0.008942,0.000000,-0.001000,-0.092000,0.026000,0.000000,-0.010000,2.510000,-0.148130,Hold,0.911133,0.000000,Hold,-280.000000,2.000000,Suck,-2235.000000,2181.818182,Speed,-2265.000000,2181.818182,Speed,Off,On0.000000,0,,,,
02:35:38.012 PM 03/19/2016,Teleop Enabled,10,FALSE,0,NO ERROR,-0.000000,-0.006417,0.000000,-0.038500,TRUE,FALSE,FALSE,FALSE,FALSE,FALSE,Disabled,0.000000,0.000000,0.000000,TRUE,-2.040726,-2.323334,0.000000,0.008286,0.000000,0.000000,-0.002000,0.025000,0.068000,0.000000,0.050000,2.450000,-0.136535,Hold,0.911133,0.000000,Hold,-278.000000,2.000000,Suck,-2197.500000,2181.818182,Speed,-2197.500000,2181.818182,Speed,Off,On0.000000,0,,,,
02:35:38.112 PM 03/19/2016,Teleop Enabled,10,FALSE,0,NO ERROR,-0.000000,-0.006417,0.000000,-0.038500,TRUE,FALSE,FALSE,FALSE,FALSE,FALSE,Disabled,0.000000,0.000000,0.000000,TRUE,-2.040039,-2.323883,0.000000,0.021423,-0.023056,0.000000,-0.002000,0.025000,0.068000,0.000000,0.090000,2.440000,-0.134067,Hold,0.911133,0.000000,Hold,-277.000000,2.000000,Suck,-2092.500000,2181.818182,Speed,-2100.000000,2181.818182,Speed,Off,On0.000000,0,,,,
02:35:38.212 PM 03/19/2016,Teleop Enabled,9,FALSE,0,NO ERROR,-0.000000,-0.006417,0.000000,-0.038500,TRUE,FALSE,FALSE,FALSE,FALSE,FALSE,Disabled,0.000000,0.000000,0.000000,TRUE,-2.038452,-2.325531,0.000000,0.039719,-0.043625,0.000000,-0.050000,0.049000,-0.021000,0.000000,0.040000,2.470000,-0.140484,Hold,0.911133,0.000000,Hold,-277.000000,2.000000,Suck,-2085.000000,2181.818182,Speed,-2115.000000,2181.818182,Speed,Off,On0.000000,0,,,,
02:35:38.312 PM 03/19/2016,Teleop Enabled,10,FALSE,0,NO ERROR,-0.000000,-0.006417,0.000000,-0.038500,TRUE,FALSE,FALSE,FALSE,FALSE,FALSE,Disabled,0.000000,0.000000,0.000000,TRUE,-2.038605,-2.327240,0.000000,-0.024918,-0.033417,0.000000,0.045000,-0.009000,0.005000,0.000000,0.060000,2.470000,-0.151235,Hold,0.911133,0.000000,Hold,-277.000000,2.000000,Suck,-2130.000000,2181.818182,Speed,-2145.000000,2181.818182,Speed,Off,On0.000000,0,,,,
02:35:38.412 PM 03/19/2016,Teleop Enabled,10,FALSE,0,NO ERROR,-0.000000,-0.006417,0.000000,-0.038500,TRUE,FALSE,FALSE,FALSE,FALSE,FALSE,Disabled,0.000000,0.000000,0.000000,TRUE,-2.039749,-2.329300,0.000000,-0.019562,-0.021347,0.000000,-0.025000,0.011000,0.059000,0.000000,0.070000,2.440000,-0.149665,Hold,0.911133,0.000000,Hold,-277.000000,2.000000,Suck,-2137.500000,2181.818182,Speed,-2145.000000,2181.818182,Speed,Off,On0.000000,0,,,,
02:35:38.512 PM 03/19/2016,Teleop Enabled,6,FALSE,0,NO ERROR,-0.000000,-0.006417,0.000000,-0.038500,TRUE,FALSE,FALSE,FALSE,FALSE,FALSE,Disabled,0.000000,0.000000,0.000000,TRUE,-2.041061,-2.328812,0.000000,-0.029968,0.029251,0.000000,0.047000,0.056000,0.067000,0.000000,0.070000,2.440000,-0.162031,Hold,0.911133,0.000000,Hold,-277.000000,2.000000,Suck,-2122.500000,2181.818182,Speed,-2137.500000,2181.818182,Speed,Off,On0.000000,0,,,,
02:35:38.612 PM 03/19/2016,Teleop Enabled,13,FALSE,0,NO ERROR,-0.000000,-0.006417,0.000000,-0.038500,TRUE,FALSE,FALSE,FALSE,FALSE,FALSE,Disabled,0.000000,0.000000,0.000000,TRUE,-2.042282,-2.325928,0.000000,-0.016418,0.054535,0.000000,0.047000,0.056000,0.067000,0.000000,-0.010000,2.470000,-0.176455,Hold,0.911133,0.000000,Hold,-277.000000,2.000000,Suck,-2115.000000,2181.818182,Speed,-2130.000000,2181.818182,Speed,Off,On0.000000,0,,,,
02:35:38.712 PM 03/19/2016,Teleop Enabled,10,FALSE,0,NO ERROR,-0.000000,-0.006417,0.000000,-0.038500,TRUE,FALSE,FALSE,FALSE,FALSE,FALSE,Disabled,0.000000,0.000000,0.000000,TRUE,-2.044571,-2.322189,0.000000,-0.076370,0.096100,0.000000,-0.036000,-0.031000,0.026000,0.000000,-0.090000,2.500000,-0.191107,Hold,0.911133,0.000000,Hold,-277.000000,2.000000,Suck,-2122.500000,2181.818182,Speed,-2137.500000,2181.818182,Speed,Off,On0.000000,0,,,,
02:35:38.812 PM 03/19/2016,Teleop Enabled,11,FALSE,0,NO ERROR,-0.000000,-0.006417,0.000000,-0.038500,TRUE,FALSE,FALSE,FALSE,FALSE,FALSE,Disabled,0.000000,0.000000,0.000000,TRUE,-2.049103,-2.318680,0.000000,-0.092819,0.053696,0.000000,0.009000,0.000000,-0.033000,0.000000,-0.150000,2.510000,-0.203892,Hold,0.911133,0.000000,Hold,-277.000000,2.000000,Suck,-2122.500000,2181.818182,Speed,-2130.000000,2181.818182,Speed,Off,On0.000000,0,,,,
02:35:38.912 PM 03/19/2016,Teleop Enabled,10,FALSE,0,NO ERROR,-0.000000,-0.006417,0.000000,-0.038500,TRUE,FALSE,FALSE,FALSE,FALSE,FALSE,Disabled,0.000000,0.000000,0.000000,TRUE,-2.053009,-2.316940,0.000000,-0.068268,0.023209,0.000000,0.009000,0.000000,-0.033000,0.000000,-0.130000,2.520000,-0.203459,Hold,0.911133,0.000000,Hold,-277.000000,2.000000,Suck,-2122.500000,2181.818182,Speed,-2130.000000,2181.818182,Speed,Off,On0.000000,0,,,,
02:35:39.013 PM 03/19/2016,Teleop Enabled,12,FALSE,0,NO ERROR,-0.000000,-0.006417,0.000000,-0.038500,TRUE,FALSE,FALSE,FALSE,FALSE,FALSE,Disabled,0.000000,0.000000,0.000000,TRUE,-2.056717,-2.317734,0.000000,-0.075775,-0.043045,0.000000,0.006000,0.004000,-0.002000,0.000000,-0.170000,2.500000,-0.216678,Hold,0.911133,0.000000,Hold,-277.000000,2.000000,Suck,-2115.000000,2181.818182,Speed,-2130.000000,2181.818182,Speed,Off,On0.000000,0,,,,
02:35:39.114 PM 03/19/2016,Teleop Enabled,10,FALSE,0,NO ERROR,-0.000000,-0.006417,0.000000,-0.038500,TRUE,FALSE,FALSE,FALSE,FALSE,FALSE,Disabled,0.000000,0.000000,0.000000,TRUE,-2.060196,-2.318451,0.000000,-0.065933,-0.012894,0.000000,0.006000,0.004000,-0.002000,0.000000,-0.170000,2.500000,-0.195520,Hold,0.911133,0.000000,Hold,-277.000000,2.000000,Suck,-2115.000000,2181.818182,Speed,-2137.500000,2181.818182,Speed,Off,On0.000000,0,,,,
02:35:39.214 PM 03/19/2016,Teleop Enabled,11,FALSE,0,NO ERROR,-0.000000,-0.006417,0.000000,-0.038500,TRUE,FALSE,FALSE,FALSE,FALSE,FALSE,Disabled,0.000000,0.000000,0.000000,TRUE,-2.063248,-2.319580,0.000000,-0.069641,-0.002640,0.000000,-0.117000,0.110000,0.028000,0.000000,-0.200000,2.430000,-0.194177,Hold,0.911133,0.000000,Hold,-277.000000,2.000000,Suck,-2122.500000,2181.818182,Speed,-2130.000000,2181.818182,Speed,Off,On0.000000,0,,,,
02:35:39.314 PM 03/19/2016,Teleop Enabled,10,FALSE,0,NO ERROR,-0.000000,-0.006417,0.000000,-0.038500,TRUE,FALSE,FALSE,FALSE,FALSE,FALSE,Disabled,0.000000,0.000000,0.000000,TRUE,-2.067200,-2.318146,0.000000,-0.070160,0.029968,0.000000,-0.005000,-0.013000,0.053000,0.000000,-0.120000,2.450000,-0.201961,Hold,0.911133,0.000000,Hold,-277.000000,2.000000,Suck,-2115.000000,2181.818182,Speed,-2130.000000,2181.818182,Speed,Off,On0.000000,0,,,,
02:35:39.416 PM 03/19/2016,Teleop Enabled,10,FALSE,0,NO ERROR,-0.000000,-0.006417,0.000000,-0.038500,TRUE,FALSE,FALSE,FALSE,FALSE,FALSE,Disabled,0.000000,0.000000,0.000000,TRUE,-2.072571,-2.314621,0.000000,-0.106140,0.079666,0.000000,-0.005000,-0.013000,0.053000,0.000000,-0.120000,2.450000,-0.221821,Hold,0.911133,0.000000,Hold,-277.000000,2.000000,Suck,-2122.500000,2181.818182,Speed,-2130.000000,2181.818182,Speed,Off,On0.000000,0,,,,
02:35:39.516 PM 03/19/2016,Teleop Enabled,7,FALSE,0,NO ERROR,-0.000000,-0.006417,0.000000,-0.038500,TRUE,FALSE,FALSE,FALSE,FALSE,FALSE,Disabled,0.000000,0.000000,0.000000,TRUE,-2.076508,-2.312988,0.000000,-0.085159,0.003098,0.000000,-0.038000,0.052000,0.024000,0.000000,-0.230000,2.490000,-0.240053,Hold,0.911133,0.000000,Hold,-277.000000,2.000000,Suck,-2122.500000,2181.818182,Speed,-2130.000000,2181.818182,Speed,Off,On0.000000,0,,,,
02:35:39.617 PM 03/19/2016,Teleop Enabled,11,FALSE,0,NO ERROR,-0.000000,-0.006417,0.000000,-0.038500,TRUE,FALSE,FALSE,FALSE,FALSE,FALSE,Disabled,0.000000,0.000000,0.000000,TRUE,-2.083145,-2.311264,0.000000,-0.107300,0.038589,0.000000,-0.028000,0.072000,0.091000,0.000000,-0.200000,2.500000,-0.241805,Hold,0.911133,0.000000,Hold,-277.000000,2.000000,Suck,-2115.000000,2181.818182,Speed,-2130.000000,2181.818182,Speed,Off,On0.000000,0,,,,
02:35:39.718 PM 03/19/2016,Teleop Enabled,10,FALSE,0,NO ERROR,-0.000000,-0.006417,0.000000,-0.038500,TRUE,FALSE,FALSE,FALSE,FALSE,FALSE,Disabled,0.000000,0.000000,0.000000,TRUE,-2.086685,-2.309830,0.000000,0.003220,0.014236,0.000000,-0.094000,0.002000,-0.024000,0.000000,-0.200000,2.500000,-0.243850,Hold,0.911133,0.000000,Hold,-277.000000,2.000000,Suck,-2122.500000,2181.818182,Speed,-2137.500000,2181.818182,Speed,Off,On0.000000,0,,,,
02:35:39.818 PM 03/19/2016,Teleop Enabled,11,FALSE,0,NO ERROR,-0.000000,-0.006417,0.000000,-0.038500,TRUE,FALSE,FALSE,FALSE,FALSE,FALSE,Disabled,0.000000,0.000000,0.000000,TRUE,-2.086685,-2.309830,0.000000,0.003220,0.014236,0.000000,0.053000,-0.040000,0.008000,-0.010000,-0.240000,2.510000,-0.236459,Hold,0.911133,0.000000,Hold,-277.000000,2.000000,Suck,-2122.500000,2181.818182,Speed,-2130.000000,2181.818182,Speed,Off,On0.000000,0,,,,
02:35:39.917 PM 03/19/2016,Teleop Enabled,11,FALSE,0,NO ERROR,-0.000000,-0.006417,0.000000,-0.038500,TRUE,FALSE,FALSE,FALSE,FALSE,FALSE,Disabled,0.000000,0.000000,0.000000,TRUE,-2.086075,-2.309891,0.000000,-0.008011,-0.001556,0.000000,-0.037000,0.034000,0.049000,-0.010000,-0.230000,2.560000,-0.233058,Hold,0.911133,0.000000,Hold,-277.000000,2.000000,Suck,-2115.000000,2181.818182,Speed,-2130.000000,2181.818182,Speed,Off,On0.000000,0,,,,
02:35:40.019 PM 03/19/2016,Teleop Enabled,13,FALSE,0,NO ERROR,-0.000000,-0.006417,0.000000,-0.038500,TRUE,FALSE,FALSE,FALSE,FALSE,FALSE,Disabled,0.000000,0.000000,0.000000,TRUE,-2.086349,-2.309433,0.000000,-0.012009,0.025238,0.000000,0.098000,0.023000,0.096000,0.000000,-0.330000,2.620000,-0.233058,Hold,0.911133,0.000000,Hold,-277.000000,2.000000,Suck,-2115.000000,2181.818182,Speed,-2137.500000,2181.818182,Speed,Off,On0.000000,0,,,,
02:35:40.120 PM 03/19/2016,Teleop Enabled,10,FALSE,0,NO ERROR,-0.000000,-0.006417,0.000000,-0.038500,TRUE,FALSE,FALSE,FALSE,FALSE,FALSE,Disabled,0.000000,0.000000,0.000000,TRUE,-2.085434,-2.307800,0.000000,0.037537,0.032913,0.000000,-0.078000,-0.009000,0.025000,0.000000,-0.210000,2.590000,-0.241778,Hold,0.911133,0.000000,Hold,-277.000000,2.000000,Suck,-2115.000000,2181.818182,Speed,-2137.500000,2181.818182,Speed,Off,On0.000000,0,,,,
02:35:40.221 PM 03/19/2016,Teleop Enabled,11,FALSE,0,NO ERROR,-0.000000,-0.006417,0.000000,-0.038500,TRUE,FALSE,FALSE,FALSE,FALSE,FALSE,Disabled,0.000000,0.000000,0.000000,TRUE,-2.086685,-2.306778,0.000000,-0.046936,0.021530,0.000000,0.014000,0.067000,0.001000,0.000000,-0.330000,2.610000,-0.243320,Hold,0.911133,0.000000,Hold,-277.000000,2.000000,Suck,-2122.500000,2181.818182,Speed,-2137.500000,2181.818182,Speed,Off,On0.000000,0,,,,
02:35:40.321 PM 03/19/2016,Teleop Enabled,11,FALSE,0,NO ERROR,-0.000000,-0.006417,0.000000,-0.038500,TRUE,FALSE,FALSE,FALSE,FALSE,FALSE,Disabled,0.000000,0.000000,0.000000,TRUE,-2.089157,-2.305313,0.000000,-0.072372,0.031723,0.000000,-0.076000,-0.035000,0.018000,0.000000,-0.250000,2.580000,-0.246367,Hold,0.911133,0.000000,Hold,-277.000000,2.000000,Suck,-2115.000000,2181.818182,Speed,-2130.000000,2181.818182,Speed,Off,On0.000000,0,,,,
02:35:40.420 PM 03/19/2016,Teleop Enabled,11,FALSE,0,NO ERROR,-0.000000,-0.006417,0.000000,-0.038500,TRUE,FALSE,FALSE,FALSE,FALSE,FALSE,Disabled,0.000000,0.000000,0.000000,TRUE,-2.094101,-2.303589,0.000000,-0.113754,0.056931,0.000000,0.006000,0.009000,0.034000,0.000000,-0.350000,2.560000,-0.253097,Hold,0.911133,0.000000,Hold,-277.000000,2.000000,Suck,-2115.000000,2181.818182,Speed,-2130.000000,2181.818182,Speed,Off,On0.000000,0,,,,
02:35:40.521 PM 03/19/2016,Teleop Enabled,10,FALSE,0,NO ERROR,-0.000000,-0.006417,0.000000,-0.038500,TRUE,FALSE,FALSE,FALSE,FALSE,FALSE,Disabled,0.000000,0.000000,0.000000,TRUE,-2.102127,-2.299042,0.000000,-0.138306,0.092361,0.000000,0.038000,-0.011000,-0.020000,0.000000,-0.370000,2.560000,-0.263277,Hold,0.911133,0.000000,Hold,-276.000000,2.000000,Suck,-2115.000000,2181.818182,Speed,-2130.000000,2181.818182,Speed,Off,On0.000000,0,,,,
02:35:40.621 PM 03/19/2016,Teleop Enabled,11,FALSE,0,NO ERROR,-0.000000,-0.006417,0.000000,-0.038500,TRUE,FALSE,FALSE,FALSE,FALSE,FALSE,Disabled,0.000000,0.000000,0.000000,TRUE,-2.106583,-2.295883,0.000000,-0.157043,0.102509,0.000000,0.021000,-0.038000,0.038000,0.000000,-0.440000,2.590000,-0.283880,Hold,0.911133,0.000000,Hold,-275.000000,2.000000,Suck,-2122.500000,2181.818182,Speed,-2130.000000,2181.818182,Speed,Off,On0.000000,0,,,,
02:35:40.721 PM 03/19/2016,Teleop Enabled,10,FALSE,0,NO ERROR,-0.000000,-0.006417,0.000000,-0.038500,TRUE,FALSE,FALSE,FALSE,FALSE,FALSE,Disabled,0.000000,0.000000,0.000000,TRUE,-2.116776,-2.289978,0.000000,-0.159180,0.104156,0.000000,0.079000,-0.044000,-0.004000,0.000000,-0.430000,2.580000,-0.296835,Hold,0.911133,0.000000,Hold,-275.000000,2.000000,Suck,-2122.500000,2181.818182,Speed,-2130.000000,2181.818182,Speed,Off,On0.000000,0,,,,
02:35:40.821 PM 03/19/2016,Teleop Enabled,11,FALSE,0,NO ERROR,-0.000000,-0.006417,0.000000,-0.038500,TRUE,FALSE,FALSE,FALSE,FALSE,FALSE,Disabled,0.000000,0.000000,0.000000,TRUE,-2.123627,-2.285507,0.000000,-0.133881,0.081314,0.000000,0.087000,-0.014000,-0.012000,0.000000,-0.420000,2.590000,-0.312343,Hold,0.911133,0.000000,Hold,-274.000000,2.000000,Suck,-2115.000000,2181.818182,Speed,-2130.000000,2181.818182,Speed,Off,On0.000000,0,,,,
02:35:40.921 PM 03/19/2016,Teleop Enabled,11,FALSE,0,NO ERROR,-0.000000,-0.006417,0.000000,-0.038500,TRUE,FALSE,FALSE,FALSE,FALSE,FALSE,Disabled,0.000000,0.000000,0.000000,TRUE,-2.128937,-2.283813,0.000000,-0.142151,0.004166,0.000000,0.086000,-0.040000,0.081000,0.000000,-0.460000,2.610000,-0.330937,Hold,0.911133,0.000000,Hold,-274.000000,2.000000,Suck,-2122.500000,2181.818182,Speed,-2130.000000,2181.818182,Speed,Off,On0.000000,0,,,,
02:35:41.022 PM 03/19/2016,Teleop Enabled,10,FALSE,0,NO ERROR,-0.000000,-0.006417,0.000000,-0.038500,TRUE,FALSE,FALSE,FALSE,FALSE,FALSE,Disabled,0.000000,0.000000,0.000000,TRUE,-2.135849,-2.284271,0.000000,-0.106903,-0.026169,0.000000,0.072000,0.015000,0.020000,0.000000,-0.310000,2.620000,-0.357634,Hold,0.911133,0.000000,Hold,-273.000000,2.000000,Suck,-2122.500000,2181.818182,Speed,-2130.000000,2181.818182,Speed,Off,On0.000000,0,,,,
02:35:41.123 PM 03/19/2016,Teleop Enabled,10,FALSE,0,NO ERROR,-0.000000,-0.006417,0.000000,-0.038500,TRUE,FALSE,FALSE,FALSE,FALSE,FALSE,Disabled,0.000000,0.000000,0.000000,TRUE,-2.141006,-2.284821,0.000000,-0.103714,0.002411,0.000000,0.012000,0.020000,0.020000,0.000000,-0.410000,2.600000,-0.337742,Hold,0.911133,0.000000,Hold,-273.000000,2.000000,Suck,-2115.000000,2181.818182,Speed,-2137.500000,2181.818182,Speed,Off,On0.000000,0,,,,
02:35:41.223 PM 03/19/2016,Teleop Enabled,10,FALSE,0,NO ERROR,-0.000000,-0.006417,0.000000,-0.038500,TRUE,FALSE,FALSE,FALSE,FALSE,FALSE,Disabled,0.000000,0.000000,0.000000,TRUE,-2.147110,-2.285294,0.000000,-0.113052,-0.019730,0.000000,-0.035000,0.038000,0.028000,-0.010000,-0.270000,2.530000,-0.336741,Hold,0.911133,0.000000,Hold,-273.000000,2.000000,Suck,-2122.500000,2181.818182,Speed,-2130.000000,2181.818182,Speed,Off,On0.000000,0,,,,
02:35:41.323 PM 03/19/2016,Teleop Enabled,10,FALSE,0,NO ERROR,-0.000000,-0.006417,0.000000,-0.038500,TRUE,FALSE,FALSE,FALSE,FALSE,FALSE,Disabled,0.000000,0.000000,0.000000,TRUE,-2.152359,-2.285812,0.000000,-0.136917,-0.009918,0.000000,-0.021000,0.010000,0.003000,-0.010000,-0.280000,2.550000,-0.332434,Hold,0.911133,0.000000,Hold,-273.000000,2.000000,Suck,-2122.500000,2181.818182,Speed,-2130.000000,2181.818182,Speed,Off,On0.000000,0,,,,
02:35:41.423 PM 03/19/2016,Teleop Enabled,10,FALSE,0,NO ERROR,-0.000000,-0.006417,0.000000,-0.038500,TRUE,FALSE,FALSE,FALSE,FALSE,FALSE,Disabled,0.000000,0.000000,0.000000,TRUE,-2.159424,-2.285568,0.000000,-0.147705,0.031784,0.000000,0.048000,0.106000,0.112000,-0.010000,-0.270000,2.530000,-0.337336,Hold,0.911133,0.000000,Hold,-273.000000,2.000000,Suck,-2122.500000,2181.818182,Speed,-2137.500000,2181.818182,Speed,Off,On0.000000,0,,,,
02:35:41.522 PM 03/19/2016,Teleop Enabled,10,FALSE,0,NO ERROR,-0.000000,-0.006417,0.000000,-0.038500,TRUE,FALSE,FALSE,FALSE,FALSE,FALSE,Disabled,0.000000,0.000000,0.000000,TRUE,-2.168808,-2.281769,0.000000,-0.165802,0.087021,0.000000,-0.017000,0.040000,0.007000,-0.010000,-0.250000,2.560000,-0.356246,Hold,0.911133,0.000000,Hold,-273.000000,2.000000,Suck,-2115.000000,2181.818182,Speed,-2130.000000,2181.818182,Speed,Off,On0.000000,0,,,,
02:35:41.623 PM 03/19/2016,Teleop Enabled,10,FALSE,0,NO ERROR,-0.000000,-0.006417,0.000000,-0.038500,TRUE,FALSE,FALSE,FALSE,FALSE,FALSE,Disabled,0.000000,0.000000,0.000000,TRUE,-2.178894,-2.277725,0.000000,-0.159195,0.044678,0.000000,-0.060000,0.002000,0.056000,-0.010000,-0.280000,2.570000,-0.363772,Hold,0.911133,0.000000,Hold,-273.000000,2.000000,Suck,-2122.500000,2181.818182,Speed,-2130.000000,2181.818182,Speed,Off,On0.000000,0,,,,
02:35:41.723 PM 03/19/2016,Teleop Enabled,9,FALSE,0,NO ERROR,-0.000000,-0.006417,0.000000,-0.038500,TRUE,FALSE,FALSE,FALSE,FALSE,FALSE,Disabled,0.000000,0.000000,0.000000,TRUE,-2.187576,-2.275986,0.000000,-0.195389,0.021149,0.000000,-0.010000,-0.108000,-0.005000,-0.010000,-0.300000,2.610000,-0.363231,Hold,0.911133,0.000000,Hold,-272.000000,2.000000,Suck,-2122.500000,2181.818182,Speed,-2130.000000,2181.818182,Speed,Off,On0.000000,0,,,,
02:35:41.824 PM 03/19/2016,Teleop Enabled,11,FALSE,0,NO ERROR,-0.000000,-0.006417,0.000000,-0.038500,TRUE,FALSE,FALSE,FALSE,FALSE,FALSE,Disabled,0.000000,0.000000,0.000000,TRUE,-2.195923,-2.275635,0.000000,-0.193893,0.005981,0.000000,0.057000,-0.015000,0.044000,-0.010000,-0.370000,2.640000,-0.362470,Hold,0.911133,0.000000,Hold,-272.000000,2.000000,Suck,-2122.500000,2181.818182,Speed,-2130.000000,2181.818182,Speed,Off,On0.000000,0,,,,
02:35:41.926 PM 03/19/2016,Teleop Enabled,10,FALSE,0,NO ERROR,-0.000000,-0.006417,0.000000,-0.038500,TRUE,FALSE,FALSE,FALSE,FALSE,FALSE,Disabled,0.000000,0.000000,0.000000,TRUE,-2.204437,-2.275894,0.000000,-0.168213,-0.019424,0.000000,-0.005000,-0.080000,-0.042000,-0.010000,-0.330000,2.600000,-0.369493,Hold,0.911133,0.000000,Hold,-272.000000,2.000000,Suck,-2122.500000,2181.818182,Speed,-2130.000000,2181.818182,Speed,Off,On0.000000,0,,,,
02:35:42.026 PM 03/19/2016,Teleop Enabled,10,FALSE,0,NO ERROR,-0.000000,-0.006417,0.000000,-0.038500,TRUE,FALSE,FALSE,FALSE,FALSE,FALSE,Disabled,0.000000,0.000000,0.000000,TRUE,-2.215897,-2.277756,0.000000,-0.213608,-0.024597,0.000000,-0.020000,0.065000,0.030000,-0.010000,-0.370000,2.630000,-0.385615,Hold,0.911133,0.000000,Hold,-271.000000,2.000000,Suck,-2115.000000,2181.818182,Speed,-2130.000000,2181.818182,Speed,Off,On0.000000,0,,,,
02:35:42.126 PM 03/19/2016,Teleop Enabled,10,FALSE,0,NO ERROR,-0.000000,-0.006417,0.000000,-0.038500,TRUE,FALSE,FALSE,FALSE,FALSE,FALSE,Disabled,0.000000,0.000000,0.000000,TRUE,-2.226059,-2.278519,0.000000,-0.199890,-0.010803,0.000000,-0.047000,0.016000,0.086000,-0.010000,-0.240000,2.600000,-0.382448,Hold,0.911133,0.000000,Hold,-271.000000,2.000000,Suck,-2122.500000,2181.818182,Speed,-2130.000000,2181.818182,Speed,Off,On0.000000,0,,,,
02:35:42.226 PM 03/19/2016,Teleop Enabled,10,FALSE,0,NO ERROR,-0.000000,-0.006417,0.000000,-0.038500,TRUE,FALSE,FALSE,FALSE,FALSE,FALSE,Disabled,0.000000,0.000000,0.000000,TRUE,-2.236328,-2.277527,0.000000,-0.198212,0.036407,0.000000,0.079000,0.034000,0.108000,-0.010000,-0.270000,2.590000,-0.377714,Hold,0.911133,0.000000,Hold,-271.000000,2.000000,Suck,-2122.500000,2181.818182,Speed,-2130.000000,2181.818182,Speed,Off,On0.000000,0,,,,
02:35:42.327 PM 03/19/2016,Teleop Enabled,11,FALSE,0,NO ERROR,-0.000000,-0.006417,0.000000,-0.038500,TRUE,FALSE,FALSE,FALSE,FALSE,FALSE,Disabled,0.000000,0.000000,0.000000,TRUE,-2.243332,-2.276062,0.000000,-0.158630,0.037415,0.000000,-0.112000,0.125000,0.090000,-0.010000,-0.170000,2.550000,-0.384568,Hold,0.911133,0.000000,Hold,-271.000000,2.000000,Suck,-2115.000000,2181.818182,Speed,-2137.500000,2181.818182,Speed,Off,On0.000000,0,,,,
02:35:42.427 PM 03/19/2016,Teleop Enabled,10,FALSE,0,NO ERROR,-0.000000,-0.006417,0.000000,-0.038500,TRUE,FALSE,FALSE,FALSE,FALSE,FALSE,Disabled,0.000000,0.000000,0.000000,TRUE,-2.254333,-2.272232,0.000000,-0.181335,0.048141,0.000000,0.002000,-0.083000,-0.030000,-0.010000,-0.170000,2.610000,-0.398583,Hold,0.911133,208896.000000,Hold,-271.000000,143360.000000,Suck,-2115.000000,2181.818182,Speed,-2130.000000,2181.818182,Speed,Off,On0.000000,0,,,,
02:35:42.527 PM 03/19/2016,Teleop Enabled,9,FALSE,0,NO ERROR,-0.000000,-0.006417,0.000000,-0.038500,TRUE,FALSE,FALSE,FALSE,FALSE,FALSE,Disabled,0.000000,0.000000,0.000000,TRUE,-2.260086,-2.271576,0.000000,-0.200272,0.014877,0.000000,-0.077000,0.125000,0.206000,0.000000,-0.150000,2.580000,-0.410160,Hold,4.334473,208896.000000,Hold,-2471.000000,143360.000000,Suck,-2122.500000,2181.818182,Speed,-2130.000000,2181.818182,Speed,Off,On0.000000,0,,,,
02:35:42.627 PM 03/19/2016,Teleop Enabled,10,FALSE,0,NO ERROR,-0.000000,-0.006417,0.000000,-0.038500,TRUE,FALSE,FALSE,FALSE,FALSE,FALSE,Disabled,0.000000,0.000000,0.000000,TRUE,-2.276154,-2.272186,0.000000,-0.254913,0.000931,0.000000,-0.064000,0.039000,0.124000,0.060000,-0.130000,2.620000,-0.355310,Hold,7.257812,208896.000000,Hold,-15960.000000,143360.000000,Suck,-2130.000000,2181.818182,Speed,-2137.500000,2181.818182,Speed,Off,On0.000000,0,,,,
02:35:42.727 PM 03/19/2016,Teleop Enabled,11,FALSE,0,NO ERROR,-0.000000,-0.006417,0.000000,-0.038500,TRUE,FALSE,FALSE,FALSE,FALSE,FALSE,Disabled,0.000000,0.000000,0.000000,TRUE,-2.287552,-2.273087,0.000000,-0.285431,-0.039810,0.000000,-0.015000,0.009000,0.201000,0.000000,-0.110000,2.570000,-0.429838,Hold,12.532959,208896.000000,Hold,-27885.000000,143360.000000,Suck,-2137.500000,2181.818182,Speed,-2137.500000,2181.818182,Speed,Off,On0.000000,0,,,,
02:35:42.827 PM 03/19/2016,Teleop Enabled,11,FALSE,0,NO ERROR,-0.000000,-0.006417,0.000000,-0.038500,TRUE,FALSE,FALSE,FALSE,FALSE,FALSE,Disabled,0.000000,0.000000,0.000000,TRUE,-2.303848,-2.274170,0.000000,-0.245285,-0.007294,0.000000,0.037000,0.002000,0.014000,0.120000,-0.110000,2.570000,-0.319480,Hold,18.593506,208896.000000,Hold,-37664.000000,143360.000000,Suck,-2130.000000,2181.818182,Speed,-2137.500000,2181.818182,Speed,Off,On0.000000,0,,,,
02:35:42.927 PM 03/19/2016,Teleop Enabled,9,FALSE,0,NO ERROR,-0.000000,-0.006417,0.000000,-0.038500,TRUE,FALSE,FALSE,FALSE,FALSE,FALSE,Disabled,0.000000,0.000000,0.000000,TRUE,-2.316635,-2.273483,0.000000,-0.277802,0.027908,0.000000,-0.116000,0.075000,-0.124000,0.000000,-0.070000,2.530000,-0.412735,Hold,25.655273,208896.000000,Hold,-37664.000000,143360.000000,Suck,-2130.000000,2181.818182,Speed,-2145.000000,2181.818182,Speed,Off,On0.000000,0,,,,
02:35:43.027 PM 03/19/2016,Teleop Enabled,10,FALSE,0,NO ERROR,-0.000000,-0.006417,0.000000,-0.038500,TRUE,FALSE,FALSE,FALSE,FALSE,FALSE,Disabled,0.000000,0.000000,0.000000,TRUE,-2.325882,-2.270935,0.000000,0.007248,0.059097,0.000000,0.061000,0.002000,0.011000,0.030000,-0.100000,2.580000,-0.417679,Hold,33.746094,208896.000000,Hold,-49619.000000,143360.000000,Suck,-2137.500000,2181.818182,Speed,-2145.000000,2181.818182,Speed,Off,On0.000000,0,,,,
02:35:43.127 PM 03/19/2016,Teleop Enabled,11,FALSE,0,NO ERROR,-0.000000,-0.006417,0.000000,-0.044917,TRUE,FALSE,FALSE,FALSE,FALSE,FALSE,Disabled,0.000000,0.000000,0.000000,TRUE,-2.322983,-2.270859,0.000000,0.117447,0.024582,0.000000,0.070000,0.048000,-0.083000,0.120000,-0.360000,2.590000,-0.337130,Hold,43.941650,208896.000000,Hold,-62008.000000,143360.000000,Suck,-2130.000000,2181.818182,Speed,-2145.000000,2181.818182,Speed,Off,On0.000000,0,,,,
02:35:43.227 PM 03/19/2016,Teleop Enabled,10,FALSE,0,NO ERROR,-0.000000,-0.070583,0.000000,-0.205333,TRUE,FALSE,FALSE,FALSE,FALSE,FALSE,Disabled,0.000000,0.000000,0.000000,TRUE,-2.317230,-2.268402,0.000000,0.140091,0.092484,0.000000,-0.046000,0.065000,-0.037000,0.200000,-0.700000,2.600000,-0.151720,Hold,53.248047,208896.000000,Hold,-77429.000000,143360.000000,Suck,-2137.500000,2181.818182,Speed,-2152.500000,2181.818182,Speed,Off,On0.000000,0,,,,
02:35:43.327 PM 03/19/2016,Teleop Enabled,9,FALSE,0,NO ERROR,-0.000000,-0.064167,0.000000,-0.179666,TRUE,FALSE,FALSE,FALSE,FALSE,FALSE,Disabled,0.000000,0.000000,0.000000,TRUE,-2.312759,-2.261703,0.000000,0.041550,0.158752,0.000000,-0.090000,0.038000,-0.435000,0.420000,-1.120000,2.530000,-0.062135,Hold,56.342285,208896.000000,Hold,-93295.000000,143360.000000,Suck,-2137.500000,2181.818182,Speed,-2152.500000,2181.818182,Speed,Off,On0.000000,0,,,,
02:35:43.427 PM 03/19/2016,Teleop Enabled,9,FALSE,0,NO ERROR,-0.000000,-0.064167,0.000000,-0.115500,TRUE,FALSE,FALSE,FALSE,FALSE,FALSE,Disabled,0.000000,0.000000,0.000000,TRUE,-2.312653,-2.251129,0.000000,-0.008560,0.179413,0.000000,-0.036000,0.017000,0.379000,0.130000,-0.470000,2.510000,-0.306491,Hold,56.137451,208896.000000,Hold,-109642.000000,143360.000000,Suck,-2130.000000,2181.818182,Speed,-2145.000000,2181.818182,Speed,Off,On0.000000,0,,,,
02:35:43.527 PM 03/19/2016,Teleop Enabled,11,FALSE,0,NO ERROR,-0.000000,-0.032083,0.000000,-0.044917,TRUE,FALSE,FALSE,FALSE,FALSE,FALSE,Disabled,0.000000,0.000000,0.000000,TRUE,-2.311295,-2.239426,0.000000,0.083328,0.178619,0.000000,0.114000,-0.025000,0.081000,0.140000,-0.840000,2.570000,-0.333226,Hold,55.355713,208896.000000,Hold,-109642.000000,143360.000000,Suck,-2122.500000,2181.818182,Speed,-2145.000000,2181.818182,Speed,Off,On0.000000,0,,,,
02:35:43.627 PM 03/19/2016,Teleop Enabled,10,FALSE,0,NO ERROR,-0.000000,-0.012833,0.000000,-0.044917,TRUE,FALSE,FALSE,FALSE,FALSE,FALSE,Disabled,0.000000,0.000000,0.000000,TRUE,-2.306381,-2.233231,0.000000,0.134750,0.118607,0.000000,0.033000,-0.137000,0.123000,0.260000,-0.600000,2.530000,-0.213325,Hold,55.317139,208896.000000,Hold,-143723.000000,143360.000000,Suck,-2137.500000,2181.818182,Speed,-2145.000000,2181.818182,Speed,Off,On0.000000,0,,,,
02:35:43.727 PM 03/19/2016,Teleop Enabled,10,FALSE,0,NO ERROR,-0.000000,-0.019250,0.000000,-0.083416,TRUE,FALSE,FALSE,FALSE,FALSE,FALSE,Disabled,0.000000,0.000000,0.000000,TRUE,-2.300629,-2.229675,0.000000,0.076828,0.056793,0.000000,0.157000,0.008000,0.446000,0.200000,-0.310000,2.550000,-0.284555,Hold,55.290039,208896.000000,Hold,-143723.000000,143360.000000,Suck,-2130.000000,2181.818182,Speed,-2145.000000,2181.818182,Speed,Off,On0.000000,0,,,,
02:35:43.827 PM 03/19/2016,Teleop Enabled,10,FALSE,0,NO ERROR,-0.000000,-0.019250,0.000000,-0.083416,TRUE,FALSE,FALSE,FALSE,FALSE,FALSE,Disabled,0.000000,0.000000,0.000000,TRUE,-2.295715,-2.226990,0.000000,0.103271,0.030075,0.000000,-0.085000,-0.097000,0.116000,0.220000,-0.720000,2.560000,-0.277828,Hold,55.286133,208896.000000,Hold,-143483.000000,143360.000000,Suck,-2122.500000,2181.818182,Speed,-2130.000000,2181.818182,Speed,Off,On0.000000,0,,,,
02:35:43.928 PM 03/19/2016,Teleop Enabled,9,FALSE,0,NO ERROR,-0.000000,-0.019250,0.000000,-0.083416,TRUE,FALSE,FALSE,FALSE,FALSE,FALSE,Disabled,0.000000,0.000000,0.000000,TRUE,-2.289703,-2.228378,0.000000,0.128662,-0.063812,0.000000,0.038000,-0.066000,0.032000,0.220000,-0.660000,2.490000,-0.292091,Hold,55.279785,208896.000000,Hold,-143432.000000,143360.000000,Suck,-2122.500000,2181.818182,Speed,-2145.000000,2181.818182,Speed,Off,On0.000000,0,,,,
02:35:44.028 PM 03/19/2016,Teleop Enabled,10,FALSE,0,NO ERROR,-0.000000,-0.019250,0.000000,-0.077000,TRUE,FALSE,FALSE,FALSE,FALSE,FALSE,Disabled,0.000000,0.000000,0.000000,TRUE,-2.281815,-2.233475,0.000000,0.175583,-0.127151,0.000000,-0.044000,-0.076000,0.038000,0.200000,-0.510000,2.520000,-0.320354,Hold,55.279785,208896.000000,Hold,-143432.000000,143360.000000,Suck,-2130.000000,2181.818182,Speed,-2145.000000,2181.818182,Speed,Off,On0.000000,0,,,,
02:35:44.128 PM 03/19/2016,Teleop Enabled,9,FALSE,0,NO ERROR,-0.000000,-0.019250,0.000000,-0.077000,TRUE,FALSE,FALSE,FALSE,FALSE,FALSE,Disabled,0.000000,0.000000,0.000000,TRUE,-2.273102,-2.239960,0.000000,0.151093,-0.135590,0.000000,-0.151000,-0.077000,-0.079000,0.220000,-0.520000,2.480000,-0.305183,Hold,55.279541,208896.000000,Hold,-143432.000000,143360.000000,Suck,-2130.000000,2181.818182,Speed,-2137.500000,2181.818182,Speed,Off,On0.000000,0,,,,
02:35:44.228 PM 03/19/2016,Teleop Enabled,10,FALSE,0,NO ERROR,-0.000000,-0.019250,0.000000,-0.077000,TRUE,FALSE,FALSE,FALSE,FALSE,FALSE,Disabled,0.000000,0.000000,0.000000,TRUE,-2.268494,-2.247726,0.000000,0.067245,-0.161835,0.000000,-0.067000,-0.016000,-0.087000,0.200000,-0.600000,2.510000,-0.318447,Hold,55.279297,208896.000000,Hold,-143432.000000,143360.000000,Suck,-2130.000000,2181.818182,Speed,-2137.500000,2181.818182,Speed,Off,On0.000000,0,,,,
02:35:44.330 PM 03/19/2016,Teleop Enabled,9,FALSE,0,NO ERROR,-0.000000,-0.019250,0.000000,-0.077000,TRUE,FALSE,FALSE,FALSE,FALSE,FALSE,Disabled,0.000000,0.000000,0.000000,TRUE,-2.266357,-2.257233,0.000000,0.006897,-0.214828,0.000000,-0.040000,0.013000,0.002000,0.200000,-0.530000,2.450000,-0.325029,Hold,55.278320,208896.000000,Hold,-143432.000000,143360.000000,Suck,-2130.000000,2181.818182,Speed,-2145.000000,2181.818182,Speed,Off,On0.000000,0,,,,
02:35:44.432 PM 03/19/2016,Teleop Enabled,9,FALSE,0,NO ERROR,-0.000000,-0.019250,0.000000,-0.077000,TRUE,FALSE,FALSE,FALSE,FALSE,FALSE,Disabled,0.000000,0.000000,0.000000,TRUE,-2.265945,-2.266556,0.000000,-0.003128,-0.115051,0.000000,-0.053000,-0.013000,-0.092000,0.200000,-0.530000,2.560000,-0.335236,Hold,55.278320,208896.000000,Hold,-143432.000000,143360.000000,Suck,-2130.000000,2181.818182,Speed,-2137.500000,2181.818182,Speed,Off,On0.000000,0,,,,
02:35:44.532 PM 03/19/2016,Teleop Enabled,10,FALSE,0,NO ERROR,-0.000000,-0.019250,0.000000,-0.077000,TRUE,FALSE,FALSE,FALSE,FALSE,FALSE,Disabled,0.000000,0.000000,0.000000,TRUE,-2.267410,-2.271881,0.000000,-0.058945,-0.139175,0.000000,-0.021000,0.055000,-0.081000,0.210000,-0.530000,2.520000,-0.322588,Hold,55.278076,208896.000000,Hold,-143432.000000,143360.000000,Suck,-2130.000000,2181.818182,Speed,-2145.000000,2181.818182,Speed,Off,On0.000000,0,,,,
02:35:44.634 PM 03/19/2016,Teleop Enabled,9,FALSE,0,NO ERROR,-0.000000,-0.019250,0.000000,-0.077000,TRUE,FALSE,FALSE,FALSE,FALSE,FALSE,Disabled,0.000000,0.000000,0.000000,TRUE,-2.270782,-2.277878,0.000000,-0.071350,-0.114014,0.000000,0.013000,-0.019000,0.040000,0.200000,-0.510000,2.590000,-0.334465,Hold,55.278076,208896.000000,Hold,-143432.000000,143360.000000,Suck,-2122.500000,2181.818182,Speed,-2152.500000,2181.818182,Speed,Off,On0.000000,0,,,,
02:35:44.735 PM 03/19/2016,Teleop Enabled,10,FALSE,0,NO ERROR,-0.000000,-0.019250,0.000000,-0.077000,TRUE,FALSE,FALSE,FALSE,FALSE,FALSE,Disabled,0.000000,0.000000,0.000000,TRUE,-2.274139,-2.278320,0.000000,-0.043503,0.017792,0.000000,0.008000,0.013000,-0.113000,0.210000,-0.520000,2.560000,-0.335553,Hold,55.278076,208896.000000,Hold,-143432.000000,143360.000000,Suck,-2122.500000,2181.818182,Speed,-2145.000000,2181.818182,Speed,Off,On0.000000,0,,,,
02:35:44.836 PM 03/19/2016,Teleop Enabled,10,FALSE,0,NO ERROR,-0.000000,-0.019250,0.000000,-0.077000,TRUE,FALSE,FALSE,FALSE,FALSE,FALSE,Disabled,0.000000,0.000000,0.000000,TRUE,-2.276978,-2.278229,0.000000,-0.068787,-0.000534,0.000000,0.041000,-0.020000,-0.099000,0.200000,-0.580000,2.580000,-0.335983,Hold,55.277832,208896.000000,Hold,-143432.000000,143360.000000,Suck,-2130.000000,2181.818182,Speed,-2145.000000,2181.818182,Speed,Off,On0.000000,0,,,,
02:35:44.936 PM 03/19/2016,Teleop Enabled,10,FALSE,0,NO ERROR,-0.000000,-0.019250,0.000000,-0.077000,TRUE,FALSE,FALSE,FALSE,FALSE,FALSE,Disabled,0.000000,0.000000,0.000000,TRUE,-2.279404,-2.278076,0.000000,-0.014877,-0.007538,0.000000,-0.145000,-0.093000,-0.001000,0.210000,-0.480000,2.460000,-0.329887,Hold,55.277832,208896.000000,Hold,-143432.000000,143360.000000,Suck,-2130.000000,2181.818182,Speed,-2145.000000,2181.818182,Speed,Off,On0.000000,0,,,,
02:35:45.037 PM 03/19/2016,Teleop Enabled,10,FALSE,0,NO ERROR,-0.000000,-0.019250,0.000000,-0.077000,TRUE,FALSE,FALSE,FALSE,FALSE,FALSE,Disabled,0.000000,0.000000,0.000000,TRUE,-2.281845,-2.278595,0.000000,-0.068710,-0.010986,0.000000,-0.041000,0.005000,0.077000,0.200000,-0.560000,2.510000,-0.346170,Hold,55.277588,208896.000000,Hold,-143432.000000,143360.000000,Suck,-2122.500000,2181.818182,Speed,-2145.000000,2181.818182,Speed,Off,On0.000000,0,,,,
02:35:45.137 PM 03/19/2016,Teleop Enabled,10,FALSE,0,NO ERROR,-0.000000,-0.019250,0.000000,-0.077000,TRUE,FALSE,FALSE,FALSE,FALSE,FALSE,Disabled,0.000000,0.000000,0.000000,TRUE,-2.285233,-2.280457,0.000000,-0.057541,-0.068237,0.000000,0.178000,0.053000,0.013000,0.200000,-0.550000,2.510000,-0.369868,Hold,55.277588,208896.000000,Hold,-143432.000000,143360.000000,Suck,-2122.500000,2181.818182,Speed,-2137.500000,2181.818182,Speed,Off,On0.000000,0,,,,
02:35:45.237 PM 03/19/2016,Teleop Enabled,10,FALSE,0,NO ERROR,-0.000000,-0.019250,0.000000,-0.077000,TRUE,FALSE,FALSE,FALSE,FALSE,FALSE,Disabled,0.000000,0.000000,0.000000,TRUE,-2.285156,-2.283401,0.000000,0.030579,-0.054276,0.000000,-0.009000,0.084000,-0.045000,0.210000,-0.580000,2.530000,-0.370426,Hold,55.277344,208896.000000,Hold,-143432.000000,143360.000000,Suck,-2130.000000,2181.818182,Speed,-2145.000000,2181.818182,Speed,Off,On0.000000,0,,,,
02:35:45.338 PM 03/19/2016,Teleop Enabled,10,FALSE,0,NO ERROR,0.354331,-0.019250,-0.354331,-0.077000,TRUE,FALSE,FALSE,FALSE,FALSE,FALSE,Disabled,0.000000,0.000000,0.000000,TRUE,-2.284592,-2.283829,0.000000,-0.015228,0.002411,0.000000,-0.049000,0.056000,0.037000,0.190000,-0.510000,2.530000,-0.376519,Hold,55.277344,208896.000000,Hold,-143432.000000,143360.000000,Suck,-2130.000000,2181.818182,Speed,-2145.000000,2181.818182,Speed,Off,On0.000000,0,,,,
02:35:45.439 PM 03/19/2016,Teleop Enabled,10,FALSE,0,NO ERROR,0.590551,-0.846998,-0.590551,0.744332,TRUE,FALSE,FALSE,FALSE,FALSE,FALSE,Disabled,0.000000,0.000000,0.000000,TRUE,-2.287155,-2.285553,0.000000,-0.095535,-0.094330,0.000000,-0.355000,-0.521000,-0.270000,-0.620000,-0.780000,1.970000,-1.130815,Hold,55.277344,208896.000000,Hold,-143432.000000,143360.000000,Suck,-2130.000000,2181.818182,Speed,-2145.000000,2181.818182,Speed,Off,On0.000000,0,,,,
02:35:45.538 PM 03/19/2016,Teleop Enabled,11,FALSE,0,NO ERROR,0.574803,-2.900327,-0.574803,2.739910,TRUE,FALSE,FALSE,FALSE,FALSE,FALSE,Disabled,0.000000,0.000000,0.000000,TRUE,-2.299271,-2.300064,0.000000,-0.235901,-0.274261,0.000000,-0.114000,-0.008000,-0.062000,-7.890000,-1.420000,1.320000,-8.056230,Hold,55.278076,208896.000000,Hold,-143432.000000,143360.000000,Suck,-2122.500000,2181.818182,Speed,-2122.500000,2181.818182,Speed,Off,On0.000000,0,,,,
02:35:45.638 PM 03/19/2016,Teleop Enabled,10,FALSE,0,NO ERROR,0.488189,-5.768570,-0.488189,5.396404,TRUE,FALSE,FALSE,FALSE,FALSE,FALSE,Disabled,0.000000,0.000000,0.000000,TRUE,-2.311127,-2.315491,0.000000,-0.203094,-0.307785,0.000000,0.184000,0.218000,0.119000,-18.800000,-1.370000,0.890000,-18.597986,Hold,55.278076,208896.000000,Hold,-143432.000000,143360.000000,Suck,-2062.500000,2181.818182,Speed,-2092.500000,2181.818182,Speed,Off,On0.000000,0,,,,
02:35:45.738 PM 03/19/2016,Teleop Enabled,10,FALSE,0,NO ERROR,0.488189,-8.604730,-0.488189,7.988731,TRUE,FALSE,FALSE,FALSE,FALSE,FALSE,Disabled,0.000000,0.000000,0.000000,TRUE,-2.318909,-2.328323,0.000000,-0.118912,-0.273010,0.000000,0.159000,-0.037000,0.030000,-30.180000,-1.240000,0.960000,-29.663239,Hold,55.277588,208896.000000,Hold,-143432.000000,143360.000000,Suck,-2062.500000,2181.818182,Speed,-2092.500000,2181.818182,Speed,Off,On0.000000,0,,,,
02:35:45.839 PM 03/19/2016,Teleop Enabled,10,FALSE,0,NO ERROR,0.488189,-11.357473,-0.488189,10.465559,TRUE,FALSE,FALSE,FALSE,FALSE,FALSE,Disabled,0.000000,0.000000,0.000000,TRUE,-2.320068,-2.342606,0.000000,0.024231,-0.213669,0.000000,0.045000,0.154000,0.211000,-38.820000,-1.160000,0.940000,-40.085326,Hold,55.277588,208896.000000,Hold,-143432.000000,143360.000000,Suck,-2107.500000,2181.818182,Speed,-2122.500000,2181.818182,Speed,Off,On0.000000,0,,,,
02:35:45.939 PM 03/19/2016,Teleop Enabled,10,FALSE,0,NO ERROR,0.488189,-14.026801,-0.488189,12.948803,TRUE,FALSE,FALSE,FALSE,FALSE,FALSE,Disabled,0.000000,0.000000,0.000000,TRUE,-2.317215,-2.349350,0.000000,0.072296,-0.103195,0.000000,0.006000,0.037000,-0.096000,-51.310000,-1.110000,0.750000,-50.191836,Hold,55.277344,208896.000000,Hold,-143432.000000,143360.000000,Suck,-2115.000000,2181.818182,Speed,-2122.500000,2181.818182,Speed,Off,On0.000000,0,,,,
02:35:46.040 PM 03/19/2016,Teleop Enabled,10,FALSE,0,NO ERROR,0.488189,-16.702544,-0.488189,15.406381,TRUE,FALSE,FALSE,FALSE,FALSE,FALSE,Disabled,0.000000,0.000000,0.000000,TRUE,-2.314774,-2.353897,0.000000,0.059738,-0.126465,0.000000,-0.049000,-0.084000,0.014000,-61.880000,-1.340000,0.590000,-60.470719,Hold,55.277344,208896.000000,Hold,-143432.000000,143360.000000,Suck,-2100.000000,2181.818182,Speed,-2115.000000,2181.818182,Speed,Off,On0.000000,0,,,,
02:35:46.140 PM 03/19/2016,Teleop Enabled,10,FALSE,0,NO ERROR,0.488189,-19.500204,-0.488189,17.992291,TRUE,FALSE,FALSE,FALSE,FALSE,FALSE,Disabled,0.000000,0.000000,0.000000,TRUE,-2.311691,-2.359467,0.000000,0.051102,-0.082748,0.000000,-0.049000,-0.084000,0.014000,-72.590000,-1.220000,0.480000,-73.011493,Hold,55.277344,208896.000000,Hold,-143432.000000,143360.000000,Suck,-2092.500000,2181.818182,Speed,-2115.000000,2181.818182,Speed,Off,On0.000000,0,,,,
02:35:46.241 PM 03/19/2016,Teleop Enabled,11,FALSE,0,NO ERROR,0.488189,-22.304281,-0.488189,20.700118,TRUE,FALSE,FALSE,FALSE,FALSE,FALSE,Disabled,0.000000,0.000000,0.000000,TRUE,-2.308792,-2.363617,0.000000,0.059082,-0.074219,0.000000,-0.052000,-0.028000,-0.007000,-86.010000,-1.240000,0.120000,-83.930933,Hold,55.277100,208896.000000,Hold,-143432.000000,143360.000000,Suck,-2100.000000,2181.818182,Speed,-2122.500000,2181.818182,Speed,Off,On0.000000,0,,,,
02:35:46.340 PM 03/19/2016,Teleop Enabled,10,FALSE,0,NO ERROR,0.488189,-25.159691,-0.488189,23.363029,TRUE,FALSE,FALSE,FALSE,FALSE,FALSE,Disabled,0.000000,0.000000,0.000000,TRUE,-2.306549,-2.364059,0.000000,0.041336,0.039307,0.000000,-0.088000,0.129000,0.109000,-97.330000,-1.000000,0.200000,-94.953798,Hold,55.277100,208896.000000,Hold,-143432.000000,143360.000000,Suck,-2100.000000,2181.818182,Speed,-2122.500000,2181.818182,Speed,Off,On0.000000,0,,,,
02:35:46.441 PM 03/19/2016,Teleop Enabled,10,FALSE,0,NO ERROR,0.488189,-27.989435,-0.488189,26.000273,TRUE,FALSE,FALSE,FALSE,FALSE,FALSE,Disabled,0.000000,0.000000,0.000000,TRUE,-2.303833,-2.358948,0.000000,0.088058,0.131821,0.000000,-0.088000,0.129000,0.109000,-97.330000,-1.000000,0.200000,-105.851470,Hold,55.276611,208896.000000,Hold,-143432.000000,143360.000000,Suck,-2100.000000,2181.818182,Speed,-2115.000000,2181.818182,Speed,Off,On0.000000,0,,,,
02:35:46.541 PM 03/19/2016,Teleop Enabled,10,FALSE,0,NO ERROR,0.488189,-30.755011,-0.488189,28.579767,TRUE,FALSE,FALSE,FALSE,FALSE,FALSE,Disabled,0.000000,0.000000,0.000000,TRUE,-2.302414,-2.350342,0.000000,-0.025772,0.188339,0.000000,-0.100000,0.098000,0.103000,-110.730000,-1.100000,-0.130000,-116.531955,Hold,55.276611,208896.000000,Hold,-143432.000000,143360.000000,Suck,-2100.000000,2181.818182,Speed,-2115.000000,2181.818182,Speed,Off,On0.000000,0,,,,
02:35:46.640 PM 03/19/2016,Teleop Enabled,11,FALSE,0,NO ERROR,0.480315,-33.571921,-0.480315,31.178510,TRUE,FALSE,FALSE,FALSE,FALSE,FALSE,Disabled,0.000000,0.000000,0.000000,TRUE,-2.304169,-2.338684,0.000000,-0.033798,0.272507,0.000000,-0.100000,0.098000,0.103000,-130.610000,-1.140000,-0.220000,-127.349013,Hold,55.276611,208896.000000,Hold,-143432.000000,143360.000000,Suck,-2107.500000,2181.818182,Speed,-2122.500000,2181.818182,Speed,Off,On0.000000,0,,,,
02:35:46.741 PM 03/19/2016,Teleop Enabled,11,FALSE,0,NO ERROR,-0.000000,-36.100082,0.000000,33.475672,TRUE,FALSE,FALSE,FALSE,FALSE,FALSE,Disabled,0.000000,0.000000,0.000000,TRUE,-2.308258,-2.324814,0.000000,-0.115952,0.255020,0.000000,-0.058000,0.012000,0.045000,-130.610000,-1.140000,-0.220000,-137.951252,Hold,55.276611,208896.000000,Hold,-143432.000000,143360.000000,Suck,-2100.000000,2181.818182,Speed,-2122.500000,2181.818182,Speed,Off,On0.000000,0,,,,
02:35:46.841 PM 03/19/2016,Teleop Enabled,10,FALSE,0,NO ERROR,-0.314961,-37.338496,-0.314961,34.040337,TRUE,FALSE,FALSE,FALSE,FALSE,FALSE,Disabled,0.000000,0.000000,0.000000,TRUE,-2.323029,-2.314728,0.000000,-0.473389,0.162811,0.000000,-0.237000,0.000000,-0.118000,-143.470000,-0.900000,0.030000,-144.581454,Hold,55.276367,208896.000000,Hold,-143432.000000,143360.000000,Suck,-2107.500000,2181.818182,Speed,-2122.500000,2181.818182,Speed,Off,On0.000000,0,,,,
02:35:46.941 PM 03/19/2016,Teleop Enabled,11,FALSE,0,NO ERROR,-0.417323,-38.936242,-0.417323,32.943090,TRUE,FALSE,FALSE,FALSE,FALSE,FALSE,Disabled,0.000000,0.000000,0.000000,TRUE,-2.357727,-2.305313,0.000000,-0.787872,0.233734,0.000000,-0.492000,-0.042000,0.102000,-148.970000,0.470000,0.970000,-144.982037,Hold,55.276367,208896.000000,Hold,-143432.000000,143360.000000,Suck,-2137.500000,2181.818182,Speed,-2130.000000,2181.818182,Speed,Off,On0.000000,0,,,,
02:35:47.042 PM 03/19/2016,Teleop Enabled,11,FALSE,0,NO ERROR,-0.308017,-41.387403,-0.542377,30.986011,TRUE,FALSE,FALSE,FALSE,FALSE,FALSE,Disabled,0.000000,0.000000,0.000000,TRUE,-2.401138,-2.292419,0.000000,-0.889069,0.289200,0.000000,-0.151000,0.003000,-0.011000,-149.100000,2.090000,1.230000,-145.424230,Hold,55.259766,208896.000000,Hold,-143432.000000,143360.000000,Suck,-2115.000000,2181.818182,Speed,-2122.500000,2181.818182,Speed,Off,On0.000000,0,,,,
02:35:47.142 PM 03/19/2016,Teleop Enabled,10,FALSE,0,NO ERROR,-0.300986,-44.608562,-0.549408,28.945516,TRUE,FALSE,FALSE,FALSE,FALSE,FALSE,Disabled,0.000000,0.000000,0.000000,TRUE,-2.456604,-2.289352,0.000000,-0.941254,0.003616,0.000000,0.065000,0.000000,0.061000,-149.480000,2.290000,1.180000,-147.228764,Hold,55.267822,208896.000000,Hold,-143432.000000,143360.000000,Suck,-2092.500000,2181.818182,Speed,-2115.000000,2181.818182,Speed,Off,On0.000000,0,,,,
02:35:47.243 PM 03/19/2016,Teleop Enabled,10,FALSE,0,NO ERROR,-0.188232,-47.932388,-0.441689,26.783104,TRUE,FALSE,FALSE,FALSE,FALSE,FALSE,Disabled,0.000000,0.000000,0.000000,TRUE,-2.503448,-2.291794,0.000000,-0.928253,-0.066757,0.000000,0.082000,-0.083000,-0.025000,-151.710000,1.970000,1.110000,-149.309115,Hold,55.266113,208896.000000,Hold,-143432.000000,143360.000000,Suck,-2100.000000,2181.818182,Speed,-2122.500000,2181.818182,Speed,Off,On0.000000,0,,,,
02:35:47.342 PM 03/19/2016,Teleop Enabled,10,FALSE,0,NO ERROR,-0.188232,-51.108630,-0.441689,24.813192,TRUE,FALSE,FALSE,FALSE,FALSE,FALSE,Disabled,0.000000,0.000000,0.000000,TRUE,-2.503448,-2.291794,0.000000,-0.928253,-0.066757,0.000000,0.002000,-0.064000,0.224000,-153.810000,2.110000,1.340000,-151.308288,Hold,55.266113,208896.000000,Hold,-143432.000000,143360.000000,Suck,-2115.000000,2181.818182,Speed,-2137.500000,2181.818182,Speed,Off,On0.000000,0,,,,
02:35:47.443 PM 03/19/2016,Teleop Enabled,10,FALSE,0,NO ERROR,-0.231632,-54.015374,-0.398289,22.894613,TRUE,FALSE,FALSE,FALSE,FALSE,FALSE,Disabled,0.000000,0.000000,0.000000,TRUE,-2.546036,-2.296890,0.000000,-0.832413,-0.142807,0.000000,0.018000,-0.157000,-0.147000,-155.890000,1.290000,1.210000,-153.617542,Hold,55.264404,208896.000000,Hold,-143432.000000,143360.000000,Suck,-2122.500000,2181.818182,Speed,-2137.500000,2181.818182,Speed,Off,On0.000000,0,,,,
02:35:47.542 PM 03/19/2016,Teleop Enabled,10,FALSE,0,NO ERROR,-0.176756,-54.015374,-0.437417,22.894613,TRUE,FALSE,FALSE,FALSE,FALSE,FALSE,Disabled,0.000000,0.000000,0.000000,TRUE,-2.586975,-2.306808,0.000000,-0.813187,-0.207703,0.000000,0.050000,-0.033000,0.085000,-158.160000,1.110000,1.550000,-153.617542,Hold,55.263428,208896.000000,Hold,-143432.000000,143360.000000,Suck,-2122.500000,2181.818182,Speed,-2137.500000,2181.818182,Speed,Off,On0.000000,0,,,,
02:35:47.643 PM 03/19/2016,Teleop Enabled,11,FALSE,0,NO ERROR,-0.146698,-56.742451,-0.372987,21.097951,TRUE,FALSE,FALSE,FALSE,FALSE,FALSE,Disabled,0.000000,0.000000,0.000000,TRUE,-2.624969,-2.318848,0.000000,-0.721512,-0.291519,0.000000,0.039000,-0.095000,-0.065000,-159.820000,0.590000,1.600000,-155.238154,Hold,55.263428,208896.000000,Hold,-143432.000000,143360.000000,Suck,-2122.500000,2181.818182,Speed,-2130.000000,2181.818182,Speed,Off,On0.000000,0,,,,
02:35:47.744 PM 03/19/2016,Teleop Enabled,10,FALSE,0,NO ERROR,-0.134664,-59.431028,-0.337777,19.506621,TRUE,FALSE,FALSE,FALSE,FALSE,FALSE,Disabled,0.000000,0.000000,0.000000,TRUE,-2.659576,-2.335037,0.000000,-0.664597,-0.342743,0.000000,0.070000,-0.069000,0.056000,-161.990000,0.360000,1.680000,-157.253586,Hold,55.263184,208896.000000,Hold,-143432.000000,143360.000000,Suck,-2115.000000,2181.818182,Speed,-2137.500000,2181.818182,Speed,Off,On0.000000,0,,,,
02:35:47.843 PM 03/19/2016,Teleop Enabled,10,FALSE,0,NO ERROR,-0.167214,-61.901439,-0.305227,18.171958,TRUE,FALSE,FALSE,FALSE,FALSE,FALSE,Disabled,0.000000,0.000000,0.000000,TRUE,-2.691406,-2.354294,0.000000,-0.618073,-0.420883,0.000000,0.028000,-0.129000,-0.009000,-164.420000,-0.190000,1.700000,-159.679501,Hold,55.263184,208896.000000,Hold,-143432.000000,143360.000000,Suck,-2122.500000,2181.818182,Speed,-2137.500000,2181.818182,Speed,Off,On0.000000,0,,,,
02:35:47.944 PM 03/19/2016,Teleop Enabled,3,FALSE,0,NO ERROR,-0.173724,-64.076683,-0.298717,16.939960,TRUE,FALSE,FALSE,FALSE,FALSE,FALSE,Disabled,0.000000,0.000000,0.000000,TRUE,-2.721329,-2.378571,0.000000,-0.588394,-0.512680,0.000000,-0.027000,-0.007000,-0.031000,-166.010000,-0.280000,1.950000,-161.643322,Hold,55.263184,208896.000000,Hold,-143432.000000,143360.000000,Suck,-2122.500000,2181.818182,Speed,-2137.500000,2181.818182,Speed,Off,On0.000000,0,,,,
02:35:48.044 PM 03/19/2016,Teleop Enabled,10,FALSE,0,NO ERROR,-0.083607,-65.963179,-0.373086,15.746463,TRUE,FALSE,FALSE,FALSE,FALSE,FALSE,Disabled,0.000000,0.000000,0.000000,TRUE,-2.750305,-2.405792,0.000000,-0.572372,-0.553558,0.000000,0.057000,0.005000,0.009000,-167.620000,-0.400000,1.980000,-163.190876,Hold,55.263184,208896.000000,Hold,-143432.000000,143360.000000,Suck,-2122.500000,2181.818182,Speed,-2145.000000,2181.818182,Speed,Off,On0.000000,0,,,,
02:35:48.146 PM 03/19/2016,Teleop Enabled,9,FALSE,0,NO ERROR,-0.083607,-67.875341,-0.373086,14.706966,TRUE,FALSE,FALSE,FALSE,FALSE,FALSE,Disabled,0.000000,0.000000,0.000000,TRUE,-2.778549,-2.434891,0.000000,-0.579697,-0.595154,0.000000,-0.063000,0.123000,0.045000,-169.530000,-0.490000,1.940000,-164.718060,Hold,55.263184,208896.000000,Hold,-143432.000000,143360.000000,Suck,-2115.000000,2181.818182,Speed,-2145.000000,2181.818182,Speed,Off,On0.000000,0,,,,
02:35:48.246 PM 03/19/2016,Teleop Enabled,6,FALSE,0,NO ERROR,-0.228346,-70.005670,-0.228346,13.847134,TRUE,FALSE,FALSE,FALSE,FALSE,FALSE,Disabled,0.000000,0.000000,0.000000,TRUE,-2.808151,-2.463455,0.000000,-0.586060,-0.583435,0.000000,0.047000,-0.095000,0.091000,-172.220000,-0.490000,1.950000,-167.255759,Hold,55.263184,208896.000000,Hold,-143432.000000,143360.000000,Suck,-2122.500000,2181.818182,Speed,-2130.000000,2181.818182,Speed,Off,On0.000000,0,,,,
02:35:48.346 PM 03/19/2016,Teleop Enabled,9,FALSE,0,NO ERROR,-0.228346,-72.110331,-0.228346,12.910303,TRUE,FALSE,FALSE,FALSE,FALSE,FALSE,Disabled,0.000000,0.000000,0.000000,TRUE,-2.841187,-2.501282,0.000000,-0.531128,-0.663986,0.000000,-0.041000,-0.032000,-0.040000,-174.850000,-0.670000,2.110000,-169.902842,Hold,55.263184,208896.000000,Hold,-143432.000000,143360.000000,Suck,-2122.500000,2181.818182,Speed,-2130.000000,2181.818182,Speed,Off,On0.000000,0,,,,
02:35:48.446 PM 03/19/2016,Teleop Enabled,11,FALSE,0,NO ERROR,-0.228346,-73.637494,-0.228346,11.562806,TRUE,FALSE,FALSE,FALSE,FALSE,FALSE,Disabled,0.000000,0.000000,0.000000,TRUE,-2.869522,-2.535904,0.000000,-0.602386,-0.728470,0.000000,-0.118000,0.004000,0.226000,-175.800000,-0.400000,2.440000,-171.012558,Hold,55.263184,208896.000000,Hold,-143432.000000,143360.000000,Suck,-2130.000000,2181.818182,Speed,-2137.500000,2181.818182,Speed,Off,On0.000000,0,,,,
02:35:48.548 PM 03/19/2016,Teleop Enabled,10,FALSE,0,NO ERROR,-0.098710,-74.991408,-0.357983,10.228143,TRUE,FALSE,FALSE,FALSE,FALSE,FALSE,Disabled,0.000000,0.000000,0.000000,TRUE,-2.901321,-2.572815,0.000000,-0.648865,-0.733429,0.000000,-0.066000,0.049000,0.065000,-175.880000,-0.290000,2.370000,-171.082400,Hold,55.263184,208896.000000,Hold,-143432.000000,143360.000000,Suck,-2122.500000,2181.818182,Speed,-2137.500000,2181.818182,Speed,Off,On0.000000,0,,,,
02:35:48.648 PM 03/19/2016,Teleop Enabled,9,FALSE,0,NO ERROR,-0.228346,-76.691821,-0.228346,9.169395,TRUE,FALSE,FALSE,FALSE,FALSE,FALSE,Disabled,0.000000,0.000000,0.000000,TRUE,-2.932678,-2.607803,0.000000,-0.604401,-0.672577,0.000000,0.020000,0.060000,-0.103000,-177.210000,-0.230000,2.190000,-171.654237,Hold,55.263184,208896.000000,Hold,-143432.000000,143360.000000,Suck,-2115.000000,2181.818182,Speed,-2137.500000,2181.818182,Speed,Off,On0.000000,0,,,,
02:35:48.748 PM 03/19/2016,Teleop Enabled,9,FALSE,0,NO ERROR,-0.228346,-78.437150,-0.228346,8.117064,TRUE,FALSE,FALSE,FALSE,FALSE,FALSE,Disabled,0.000000,0.000000,0.000000,TRUE,-2.961014,-2.641174,0.000000,-0.531021,-0.686432,0.000000,0.112000,-0.072000,0.092000,-178.290000,-0.520000,2.210000,-173.120305,Hold,55.263184,208896.000000,Hold,-143432.000000,143360.000000,Suck,-2122.500000,2181.818182,Speed,-2130.000000,2181.818182,Speed,Off,On0.000000,0,,,,
02:35:48.848 PM 03/19/2016,Teleop Enabled,10,FALSE,0,NO ERROR,-0.228346,-79.900146,-0.228346,6.724651,TRUE,FALSE,FALSE,FALSE,FALSE,FALSE,Disabled,0.000000,0.000000,0.000000,TRUE,-2.986893,-2.676941,0.000000,-0.521912,-0.730438,0.000000,0.000000,-0.164000,0.143000,-178.670000,-0.450000,2.380000,-173.860276,Hold,55.262939,208896.000000,Hold,-143432.000000,143360.000000,Suck,-2130.000000,2181.818182,Speed,-2137.500000,2181.818182,Speed,Off,On0.000000,0,,,,
02:35:48.948 PM 03/19/2016,Teleop Enabled,10,FALSE,0,NO ERROR,-0.307087,-81.221977,-0.307087,5.338654,TRUE,FALSE,FALSE,FALSE,FALSE,FALSE,Disabled,0.000000,0.000000,0.000000,TRUE,-3.012848,-2.716675,0.000000,-0.509537,-0.847336,0.000000,0.003000,-0.245000,0.082000,-178.740000,-0.460000,2.380000,-173.919867,Hold,55.262939,208896.000000,Hold,-143432.000000,143360.000000,Suck,-2122.500000,2181.818182,Speed,-2145.000000,2181.818182,Speed,Off,On0.000000,0,,,,
02:35:49.048 PM 03/19/2016,Teleop Enabled,9,FALSE,0,NO ERROR,-0.409449,-82.672140,-0.409449,3.946241,TRUE,FALSE,FALSE,FALSE,FALSE,FALSE,Disabled,0.000000,0.000000,0.000000,TRUE,-3.036163,-2.762192,0.000000,-0.468063,-0.935913,0.000000,-0.141000,0.127000,0.057000,-178.960000,-0.260000,2.360000,-174.059507,Hold,55.262939,208896.000000,Hold,-143432.000000,143360.000000,Suck,-2115.000000,2181.818182,Speed,-2137.500000,2181.818182,Speed,Off,On0.000000,0,,,,
02:35:49.148 PM 03/19/2016,Teleop Enabled,9,FALSE,0,NO ERROR,-0.409449,-84.712635,-0.409449,2.072578,TRUE,FALSE,FALSE,FALSE,FALSE,FALSE,Disabled,0.000000,0.000000,0.000000,TRUE,-3.064453,-2.807251,0.000000,-0.650742,-0.903030,0.000000,-0.260000,-0.079000,0.050000,-179.420000,0.810000,2.470000,-174.468851,Hold,55.254639,208896.000000,Hold,-143432.000000,143360.000000,Suck,-2107.500000,2181.818182,Speed,-2122.500000,2181.818182,Speed,Off,On0.000000,0,,,,
02:35:49.249 PM 03/19/2016,Teleop Enabled,8,FALSE,0,NO ERROR,-0.409449,-87.202296,-0.409449,-0.263083,TRUE,FALSE,FALSE,FALSE,FALSE,FALSE,Disabled,0.000000,0.000000,0.000000,TRUE,-3.101105,-2.853271,0.000000,-0.758865,-0.914185,0.000000,-0.032000,-0.109000,0.036000,-179.930000,0.700000,2.440000,-174.847271,Hold,55.253906,208896.000000,Hold,-143432.000000,143360.000000,Suck,-2107.500000,2181.818182,Speed,-2122.500000,2181.818182,Speed,Off,On0.000000,0,,,,
