Time,Robot Mode,Loop Time,Error Status,Error Code,Error Source,Left Motor Output,Left Motor Encoder,Right Motor Output,Right Motor Encoder,Is Level,Is Stalled,Ball Detector Photoeye,Vision Enabled,Vision Teleop Control,Vision Auto Control,Vision Current State,Vision X Output,Vision NavX Error,Vision NavX Target,NavX Connection Status,NavX Displacement X,NavX Displacement Y,NavX Displacement Z,NavX Velocity X,NavX Velocity Y,NavX Velocity Z,NavX Acceleration X,NavX Acceleration Y,NavX Acceleration Z,NavX Pitch,NavX Yaw,NavX Roll,Gyro Angle,Roller Arm State,Roller Arm Actual,Roller Arm Desired,Shooter Arm State,Shooter Arm Actual,Shooter Arm Desired,Shooter State,Actual RPM Left,Desired RPM Left,Control Mode Left,Actual RPM Right,Desired RPM Right,Scaler Motor Output,Auto To Run,Auto Current File,Auto File Status,Auto Current Command,Auto Trimmed Command
02:42:39.330 PM 03/19/2016,Teleop Enabled,14,FALSE,0,NO ERROR,0.000000,0.000000,0.000000,0.000000,FALSE,FALSE,FALSE,FALSE,FALSE,FALSE,Disabled,0.000000,0.000000,0.000000,FALSE,0.000000,0.000000,0.000000,0.000000,0.000000,0.000000,0.000000,0.000000,0.000000,0.000000,0.000000,0.000000,0.002437,ResetBack,0.000000,0.000000,ResetBack,0.000000,0.000000,Hold,0.000000,0.000000,Speed,0.000000,0.000000,Speed,Off,Off0.000000,0,,,,
02:42:39.423 PM 03/19/2016,Teleop Enabled,10,FALSE,0,NO ERROR,-0.000000,0.000000,0.000000,0.000000,FALSE,FALSE,FALSE,FALSE,FALSE,FALSE,Disabled,0.000000,0.000000,0.000000,FALSE,0.000000,0.000000,0.000000,0.000000,0.000000,0.000000,0.000000,0.000000,0.000000,0.000000,0.000000,0.000000,0.002437,ResetBack,0.007324,-0.200000,ResetBack,0.000000,-0.300000,Empty,0.000000,0.000000,Speed,0.000000,0.000000,Speed,Off,Off0.000000,0,,,,
02:42:39.523 PM 03/19/2016,Teleop Enabled,10,FALSE,0,NO ERROR,-0.000000,0.000000,0.000000,0.000000,TRUE,FALSE,FALSE,FALSE,FALSE,FALSE,Disabled,0.000000,0.000000,0.000000,TRUE,0.001770,0.006073,0.000000,-0.009933,-0.005432,0.000000,-0.009000,0.001000,0.047000,0.000000,-0.200000,2.290000,-0.013595,ResetBack,-0.753418,-0.200000,ResetBack,7015.000000,-0.300000,Empty,0.000000,0.000000,Speed,0.000000,0.000000,Speed,Off,Off0.000000,0,,,,
02:42:39.623 PM 03/19/2016,Teleop Enabled,10,FALSE,0,NO ERROR,-0.000000,0.000000,0.000000,0.000000,TRUE,FALSE,FALSE,FALSE,FALSE,FALSE,Disabled,0.000000,0.000000,0.000000,TRUE,0.001755,0.005905,0.000000,0.009186,0.000000,0.000000,0.047000,0.043000,0.098000,0.080000,-0.730000,2.240000,0.029850,ResetBack,-0.799805,-0.200000,ResetBack,7015.000000,-0.300000,Empty,0.000000,0.000000,Speed,0.000000,0.000000,Speed,Off,Off0.000000,0,,,,
02:42:39.723 PM 03/19/2016,Teleop Enabled,10,FALSE,0,NO ERROR,-0.000000,-0.051333,0.000000,-0.032083,TRUE,FALSE,FALSE,FALSE,FALSE,FALSE,Disabled,0.000000,0.000000,0.000000,TRUE,0.002365,0.005875,0.000000,0.000000,-0.016556,0.000000,-0.023000,0.000000,0.014000,0.000000,-0.920000,2.130000,-0.010538,Reset,-0.807861,0.000000,ResetBack,13646.000000,-0.300000,Empty,0.000000,0.000000,Speed,0.000000,0.000000,Speed,Off,Off0.000000,0,,,,
02:42:39.823 PM 03/19/2016,Teleop Enabled,10,FALSE,0,NO ERROR,-0.000000,-0.096250,0.000000,-0.044917,TRUE,FALSE,FALSE,FALSE,FALSE,FALSE,Disabled,0.000000,0.000000,0.000000,TRUE,0.001556,0.005493,0.000000,-0.026886,0.007889,0.000000,0.024000,-0.006000,0.008000,-0.110000,-0.720000,2.310000,-0.142818,Hold,1.100830,0.000000,ResetBack,19213.000000,-0.300000,Empty,0.000000,0.000000,Speed,0.000000,0.000000,Speed,Off,Off0.000000,0,,,,
02:42:39.924 PM 03/19/2016,Teleop Enabled,10,FALSE,0,NO ERROR,-0.000000,-0.096250,0.000000,-0.044917,TRUE,FALSE,FALSE,FALSE,FALSE,FALSE,Disabled,0.000000,0.000000,0.000000,TRUE,0.000946,0.005600,0.000000,0.000000,0.000000,0.000000,0.025000,-0.010000,0.013000,0.020000,-0.800000,2.260000,-0.026632,Hold,0.894043,0.000000,ResetBack,25527.000000,-0.300000,Empty,0.000000,0.000000,Speed,0.000000,0.000000,Speed,Off,Off0.000000,0,,,,
02:42:40.024 PM 03/19/2016,Teleop Enabled,10,FALSE,0,NO ERROR,-0.000000,-0.096250,0.000000,-0.044917,TRUE,FALSE,FALSE,FALSE,FALSE,FALSE,Disabled,0.000000,0.000000,0.000000,TRUE,0.000992,0.005676,0.000000,-0.010315,0.005692,0.000000,0.029000,-0.002000,0.047000,-0.020000,-0.720000,2.250000,-0.074824,Hold,0.894043,0.000000,ResetBack,31866.000000,-0.300000,Empty,0.000000,0.000000,Speed,0.000000,0.000000,Speed,Off,Off0.000000,0,,,,
02:42:40.125 PM 03/19/2016,Teleop Enabled,11,FALSE,0,NO ERROR,-0.000000,-0.096250,0.000000,-0.044917,TRUE,FALSE,FALSE,FALSE,FALSE,FALSE,Disabled,0.000000,0.000000,0.000000,TRUE,0.000854,0.005737,0.000000,0.000000,0.000000,0.000000,-0.018000,-0.006000,0.004000,-0.020000,-0.760000,2.240000,-0.076229,Hold,0.894043,0.000000,ResetBack,38469.000000,-0.300000,Empty,0.000000,0.000000,Speed,0.000000,0.000000,Speed,Off,Off0.000000,0,,,,
02:42:40.225 PM 03/19/2016,Teleop Enabled,10,FALSE,0,NO ERROR,-0.000000,-0.096250,0.000000,-0.044917,TRUE,FALSE,FALSE,FALSE,FALSE,FALSE,Disabled,0.000000,0.000000,0.000000,TRUE,0.000854,0.005737,0.000000,0.000000,0.000000,0.000000,0.005000,0.005000,0.020000,-0.030000,-0.720000,2.250000,-0.080466,Hold,0.894043,0.000000,ResetBack,45454.000000,-0.300000,Empty,0.000000,0.000000,Speed,0.000000,0.000000,Speed,Off,Off0.000000,0,,,,
02:42:40.327 PM 03/19/2016,Teleop Enabled,10,FALSE,0,NO ERROR,-0.000000,-0.096250,0.000000,-0.044917,TRUE,FALSE,FALSE,FALSE,FALSE,FALSE,Disabled,0.000000,0.000000,0.000000,TRUE,0.000854,0.005737,0.000000,0.000000,0.000000,0.000000,-0.003000,-0.003000,0.024000,-0.020000,-0.700000,2.250000,-0.091489,Hold,0.894043,0.000000,ResetBack,45454.000000,-0.300000,Empty,0.000000,0.000000,Speed,0.000000,0.000000,Speed,Off,Off0.000000,0,,,,
02:42:40.426 PM 03/19/2016,Teleop Enabled,10,FALSE,0,NO ERROR,-0.000000,-0.096250,0.000000,-0.044917,TRUE,FALSE,FALSE,FALSE,FALSE,FALSE,Disabled,0.000000,0.000000,0.000000,TRUE,0.000854,0.005737,0.000000,0.000000,0.000000,0.000000,-0.016000,0.008000,0.020000,-0.020000,-0.700000,2.240000,-0.101074,Hold,0.894043,0.000000,ResetBack,52661.000000,-0.300000,Empty,0.000000,0.000000,Speed,0.000000,0.000000,Speed,Off,Off0.000000,0,,,,
02:42:40.527 PM 03/19/2016,Teleop Enabled,11,FALSE,0,NO ERROR,-0.000000,-0.096250,0.000000,-0.044917,TRUE,FALSE,FALSE,FALSE,FALSE,FALSE,Disabled,0.000000,0.000000,0.000000,TRUE,0.000854,0.005737,0.000000,0.000000,0.000000,0.000000,-0.009000,0.000000,0.022000,-0.030000,-0.700000,2.250000,-0.094818,Hold,0.894043,0.000000,ResetBack,60031.000000,-0.300000,Empty,0.000000,0.000000,Speed,0.000000,0.000000,Speed,Off,On0.000000,0,,,,
02:42:40.627 PM 03/19/2016,Teleop Enabled,10,FALSE,0,NO ERROR,-0.000000,-0.096250,0.000000,-0.044917,TRUE,FALSE,FALSE,FALSE,FALSE,FALSE,Disabled,0.000000,0.000000,0.000000,TRUE,0.000763,0.005737,0.000000,-0.009811,0.000000,0.000000,-0.043000,0.116000,-0.054000,-0.020000,-0.720000,2.220000,-0.101683,Hold,0.894043,0.000000,Reset,67656.000000,2.000000,Suck,0.000000,2181.818182,Speed,0.000000,2181.818182,Speed,Off,On0.000000,0,,,,
02:42:40.727 PM 03/19/2016,Teleop Enabled,9,FALSE,0,NO ERROR,-0.000000,-0.096250,0.000000,-0.044917,TRUE,FALSE,FALSE,FALSE,FALSE,FALSE,Disabled,0.000000,0.000000,0.000000,TRUE,-0.000702,0.005173,0.000000,-0.039734,-0.030151,0.000000,-0.117000,-0.027000,0.044000,-0.040000,-0.620000,2.300000,-0.112420,Hold,0.894043,0.000000,Hold,-431.000000,2.000000,Suck,-7.500000,2181.818182,Speed,-22.500000,2181.818182,Speed,Off,On0.000000,0,,,,
02:42:40.828 PM 03/19/2016,Teleop Enabled,10,FALSE,0,NO ERROR,-0.000000,-0.070583,0.000000,-0.025667,TRUE,FALSE,FALSE,FALSE,FALSE,FALSE,Disabled,0.000000,0.000000,0.000000,TRUE,-0.004349,0.004074,0.000000,-0.067719,-0.019485,0.000000,0.070000,0.013000,0.049000,0.070000,-0.670000,2.330000,-0.007598,Hold,0.894043,0.000000,Hold,-431.000000,2.000000,Suck,0.000000,2181.818182,Speed,0.000000,2181.818182,Speed,Off,On0.000000,0,,,,
02:42:40.929 PM 03/19/2016,Teleop Enabled,10,FALSE,0,NO ERROR,-0.000000,-0.096250,0.000000,-0.064167,TRUE,FALSE,FALSE,FALSE,FALSE,FALSE,Disabled,0.000000,0.000000,0.000000,TRUE,-0.006180,0.003754,0.000000,0.000000,-0.012527,0.000000,-0.032000,-0.015000,0.039000,0.020000,-0.660000,2.220000,0.010331,Hold,0.894043,0.000000,Hold,-96.000000,2.000000,Suck,0.000000,2181.818182,Speed,0.000000,2181.818182,Speed,Off,On0.000000,0,,,,
02:42:41.029 PM 03/19/2016,Teleop Enabled,10,FALSE,0,NO ERROR,-0.000000,-0.121916,0.000000,-0.070583,TRUE,FALSE,FALSE,FALSE,FALSE,FALSE,Disabled,0.000000,0.000000,0.000000,TRUE,-0.007080,0.003952,0.000000,-0.029037,0.021194,0.000000,0.010000,0.000000,0.017000,-0.030000,-0.680000,2.340000,-0.092095,Hold,0.894043,0.000000,Hold,-96.000000,2.000000,Suck,0.000000,2181.818182,Speed,0.000000,2181.818182,Speed,Off,On0.000000,0,,,,
02:42:41.130 PM 03/19/2016,Teleop Enabled,9,FALSE,0,NO ERROR,-0.000000,-0.121916,0.000000,-0.070583,TRUE,TRUE,FALSE,FALSE,FALSE,FALSE,Disabled,0.000000,0.000000,0.000000,TRUE,-0.007080,0.004700,0.000000,0.000000,0.008560,0.000000,0.008000,0.021000,0.030000,0.000000,-0.650000,2.280000,-0.023788,Hold,0.894043,0.000000,Hold,-96.000000,2.000000,Suck,0.000000,2181.818182,Speed,0.000000,2181.818182,Speed,Off,On0.000000,0,,,,
02:42:41.230 PM 03/19/2016,Teleop Enabled,11,FALSE,0,NO ERROR,-0.000000,-0.121916,0.000000,-0.070583,TRUE,TRUE,FALSE,FALSE,FALSE,FALSE,Disabled,0.000000,0.000000,0.000000,TRUE,-0.007080,0.004944,0.000000,0.000000,0.000000,0.000000,0.015000,-0.006000,0.021000,0.000000,-0.640000,2.290000,-0.002245,Hold,0.894043,0.000000,Hold,-96.000000,2.000000,Suck,0.000000,0.000000,Speed,0.000000,0.000000,Speed,Off,On0.000000,0,,,,
02:42:41.331 PM 03/19/2016,Teleop Enabled,10,FALSE,0,NO ERROR,-0.000000,-0.121916,0.000000,-0.070583,TRUE,FALSE,FALSE,FALSE,FALSE,FALSE,Disabled,0.000000,0.000000,0.000000,TRUE,-0.007080,0.004944,0.000000,0.000000,0.000000,0.000000,-0.004000,0.009000,0.058000,-0.010000,-0.650000,2.290000,-0.019199,Hold,0.894043,0.000000,Hold,-96.000000,2.000000,Suck,7.500000,0.000000,Speed,0.000000,0.000000,Speed,Off,On0.000000,0,,,,
02:42:41.431 PM 03/19/2016,Teleop Enabled,11,FALSE,0,NO ERROR,-0.000000,-0.121916,0.000000,-0.070583,TRUE,FALSE,FALSE,FALSE,FALSE,FALSE,Disabled,0.000000,0.000000,0.000000,TRUE,-0.007080,0.004944,0.000000,0.000000,0.000000,0.000000,-0.002000,-0.003000,0.018000,0.000000,-0.650000,2.290000,-0.000840,Hold,0.894043,0.000000,Hold,-96.000000,2.000000,Suck,0.000000,0.000000,Speed,0.000000,0.000000,Speed,Off,On0.000000,0,,,,
02:42:41.532 PM 03/19/2016,Teleop Enabled,10,FALSE,0,NO ERROR,-0.000000,-0.121916,0.000000,-0.070583,TRUE,FALSE,FALSE,FALSE,FALSE,FALSE,Disabled,0.000000,0.000000,0.000000,TRUE,-0.007080,0.004944,0.000000,0.000000,0.000000,0.000000,-0.020000,-0.032000,0.000000,0.000000,-0.650000,2.290000,-0.007808,Hold,0.894043,0.000000,Hold,-96.000000,2.000000,Suck,0.000000,2181.818182,Speed,0.000000,2181.818182,Speed,Off,On0.000000,0,,,,
02:42:41.632 PM 03/19/2016,Teleop Enabled,11,FALSE,0,NO ERROR,-0.000000,-0.121916,0.000000,-0.070583,TRUE,FALSE,FALSE,FALSE,FALSE,FALSE,Disabled,0.000000,0.000000,0.000000,TRUE,-0.007111,0.004852,0.000000,0.000000,0.000000,0.000000,0.002000,0.011000,0.022000,0.000000,-0.650000,2.280000,0.003852,Hold,0.894043,0.000000,Hold,-96.000000,2.000000,Suck,0.000000,2181.818182,Speed,0.000000,2181.818182,Speed,Off,On0.000000,0,,,,
02:42:41.732 PM 03/19/2016,Teleop Enabled,10,FALSE,0,NO ERROR,-0.000000,-0.121916,0.000000,-0.070583,TRUE,FALSE,FALSE,FALSE,FALSE,FALSE,Disabled,0.000000,0.000000,0.000000,TRUE,-0.007111,0.004852,0.000000,0.000000,0.000000,0.000000,0.004000,-0.001000,0.019000,0.000000,-0.640000,2.270000,-0.004289,Hold,0.894043,0.000000,Hold,-96.000000,2.000000,Suck,0.000000,2181.818182,Speed,0.000000,2181.818182,Speed,Off,On0.000000,0,,,,
02:42:41.833 PM 03/19/2016,Teleop Enabled,10,FALSE,0,NO ERROR,-0.000000,-0.121916,0.000000,-0.070583,TRUE,FALSE,FALSE,FALSE,FALSE,FALSE,Disabled,0.000000,0.000000,0.000000,TRUE,-0.007111,0.004852,0.000000,0.000000,0.000000,0.000000,0.000000,0.000000,0.029000,0.000000,-0.630000,2.270000,0.003350,Hold,0.894043,0.000000,Hold,-96.000000,2.000000,Suck,0.000000,2181.818182,Speed,0.000000,2181.818182,Speed,Off,On0.000000,0,,,,
02:42:41.934 PM 03/19/2016,Teleop Enabled,10,FALSE,0,NO ERROR,-0.000000,-0.121916,0.000000,-0.070583,TRUE,FALSE,FALSE,FALSE,FALSE,FALSE,Disabled,0.000000,0.000000,0.000000,TRUE,-0.007111,0.004852,0.000000,0.000000,0.000000,0.000000,-0.001000,0.001000,0.017000,0.000000,-0.640000,2.270000,0.003794,Hold,0.894043,0.000000,Hold,-96.000000,2.000000,Suck,0.000000,2181.818182,Speed,0.000000,2181.818182,Speed,Off,On0.000000,0,,,,
02:42:42.035 PM 03/19/2016,Teleop Enabled,11,FALSE,0,NO ERROR,-0.000000,-0.121916,0.000000,-0.070583,TRUE,TRUE,FALSE,FALSE,FALSE,FALSE,Disabled,0.000000,0.000000,0.000000,TRUE,-0.007111,0.004852,0.000000,0.000000,0.000000,0.000000,0.000000,0.000000,0.020000,0.000000,-0.630000,2.260000,0.000547,Hold,0.894043,0.000000,Hold,-96.000000,2.000000,Suck,0.000000,2181.818182,Speed,0.000000,2181.818182,Speed,Off,On0.000000,0,,,,
02:42:42.136 PM 03/19/2016,Teleop Enabled,11,FALSE,0,NO ERROR,-0.000000,-0.121916,0.000000,-0.070583,TRUE,FALSE,FALSE,FALSE,FALSE,FALSE,Disabled,0.000000,0.000000,0.000000,TRUE,-0.007111,0.004852,0.000000,0.000000,0.000000,0.000000,0.001000,-0.006000,0.032000,0.000000,-0.630000,2.260000,0.005405,Hold,0.894043,0.000000,Hold,-96.000000,2.000000,Suck,0.000000,0.000000,Speed,0.000000,0.000000,Speed,Off,On0.000000,0,,,,
02:42:42.237 PM 03/19/2016,Teleop Disabled,11,FALSE,0,NO ERROR,-0.000000,-0.121916,0.000000,-0.070583,TRUE,FALSE,FALSE,FALSE,FALSE,FALSE,Disabled,0.000000,0.000000,0.000000,TRUE,-0.007111,0.004852,0.000000,0.000000,0.000000,0.000000,-0.002000,0.003000,0.017000,0.000000,-0.630000,2.260000,0.019189,Hold,0.894043,0.000000,Hold,-96.000000,2.000000,Suck,0.000000,0.000000,Speed,0.000000,0.000000,Speed,Off,On0.000000,0,,,,
02:42:42.338 PM 03/19/2016,Teleop Disabled,10,FALSE,0,NO ERROR,-0.000000,-0.121916,0.000000,-0.070583,TRUE,FALSE,FALSE,FALSE,FALSE,FALSE,Disabled,0.000000,0.000000,0.000000,TRUE,-0.007111,0.004852,0.000000,0.000000,0.000000,0.000000,0.000000,-0.004000,0.020000,0.000000,-0.630000,2.250000,0.029998,Hold,0.894043,0.000000,Hold,-136.000000,2.000000,Suck,0.000000,2181.818182,Speed,0.000000,2181.818182,Speed,Off,On0.000000,0,,,,
02:42:42.439 PM 03/19/2016,Teleop Disabled,10,FALSE,0,NO ERROR,-0.000000,-0.121916,0.000000,-0.070583,TRUE,FALSE,FALSE,FALSE,FALSE,FALSE,Disabled,0.000000,0.000000,0.000000,TRUE,-0.007111,0.004852,0.000000,0.000000,0.000000,0.000000,0.001000,0.000000,0.015000,0.000000,-0.630000,2.250000,0.037438,Hold,0.894043,0.000000,Hold,-136.000000,2.000000,Suck,0.000000,2181.818182,Speed,0.000000,2181.818182,Speed,Off,On0.000000,0,,,,
02:42:42.540 PM 03/19/2016,Teleop Disabled,10,FALSE,0,NO ERROR,-0.000000,-0.121916,0.000000,-0.070583,TRUE,FALSE,FALSE,FALSE,FALSE,FALSE,Disabled,0.000000,0.000000,0.000000,TRUE,-0.007111,0.004852,0.000000,0.000000,0.000000,0.000000,0.000000,-0.001000,0.017000,-0.010000,-0.640000,2.250000,0.021058,Hold,0.894043,0.000000,Hold,-975.000000,2.000000,Suck,0.000000,2181.818182,Speed,0.000000,2181.818182,Speed,Off,On0.000000,0,,,,
02:42:42.641 PM 03/19/2016,Teleop Disabled,10,FALSE,0,NO ERROR,-0.000000,-0.121916,0.000000,-0.070583,TRUE,FALSE,FALSE,FALSE,FALSE,FALSE,Disabled,0.000000,0.000000,0.000000,TRUE,-0.007111,0.004852,0.000000,0.000000,0.000000,0.000000,0.001000,-0.002000,0.015000,0.000000,-0.630000,2.250000,0.018931,Hold,0.894043,0.000000,Hold,-2318.000000,2.000000,Suck,0.000000,2181.818182,Speed,0.000000,2181.818182,Speed,Off,On0.000000,0,,,,
02:42:42.743 PM 03/19/2016,Teleop Disabled,10,FALSE,0,NO ERROR,-0.000000,-0.121916,0.000000,-0.070583,TRUE,FALSE,FALSE,FALSE,FALSE,FALSE,Disabled,0.000000,0.000000,0.000000,TRUE,-0.007111,0.004852,0.000000,0.000000,0.000000,0.000000,-0.003000,0.000000,0.023000,-0.010000,-0.640000,2.250000,-0.008606,Hold,0.894043,0.000000,Hold,-3745.000000,2.000000,Suck,0.000000,2181.818182,Speed,0.000000,2181.818182,Speed,Off,On0.000000,0,,,,
02:42:42.843 PM 03/19/2016,Teleop Disabled,10,FALSE,0,NO ERROR,-0.000000,-0.051333,0.000000,-0.012833,TRUE,TRUE,FALSE,FALSE,FALSE,FALSE,Disabled,0.000000,0.000000,0.000000,TRUE,-0.006958,0.005173,0.000000,0.015244,0.015244,0.000000,0.013000,0.008000,0.018000,0.030000,-0.690000,2.270000,0.035176,Hold,0.894043,0.000000,Hold,-5261.000000,2.000000,Suck,0.000000,2181.818182,Speed,0.000000,2181.818182,Speed,Off,On0.000000,0,,,,
02:42:42.943 PM 03/19/2016,Teleop Disabled,11,FALSE,0,NO ERROR,-0.000000,-0.057750,0.000000,-0.012833,TRUE,TRUE,FALSE,FALSE,FALSE,FALSE,Disabled,0.000000,0.000000,0.000000,TRUE,-0.006805,0.005524,0.000000,-0.000702,0.000000,0.000000,-0.003000,-0.010000,0.013000,0.000000,-0.650000,2.250000,0.001532,Hold,0.894043,0.000000,Hold,-6995.000000,2.000000,Suck,0.000000,0.000000,Speed,0.000000,0.000000,Speed,Off,On0.000000,0,,,,
02:42:43.043 PM 03/19/2016,Teleop Disabled,10,FALSE,0,NO ERROR,-0.000000,-0.057750,0.000000,-0.012833,TRUE,FALSE,FALSE,FALSE,FALSE,FALSE,Disabled,0.000000,0.000000,0.000000,TRUE,-0.006882,0.005524,0.000000,0.000000,0.000000,0.000000,-0.005000,0.002000,0.019000,-0.010000,-0.680000,2.240000,-0.004647,Hold,0.894043,0.000000,Hold,-8929.000000,2.000000,Suck,0.000000,0.000000,Speed,0.000000,0.000000,Speed,Off,On0.000000,0,,,,
02:42:43.143 PM 03/19/2016,Teleop Disabled,10,FALSE,0,NO ERROR,-0.000000,-0.057750,0.000000,-0.012833,TRUE,FALSE,FALSE,FALSE,FALSE,FALSE,Disabled,0.000000,0.000000,0.000000,TRUE,-0.006882,0.005524,0.000000,0.000000,0.000000,0.000000,0.005000,-0.002000,0.023000,0.000000,-0.670000,2.250000,-0.019475,Hold,0.894043,0.000000,Hold,-8929.000000,2.000000,Suck,0.000000,2181.818182,Speed,0.000000,2181.818182,Speed,Off,On0.000000,0,,,,
02:42:43.245 PM 03/19/2016,Teleop Disabled,11,FALSE,0,NO ERROR,-0.000000,-0.057750,0.000000,-0.012833,TRUE,FALSE,FALSE,FALSE,FALSE,FALSE,Disabled,0.000000,0.000000,0.000000,TRUE,-0.006882,0.005524,0.000000,0.000000,0.000000,0.000000,0.000000,-0.003000,0.023000,0.000000,-0.690000,2.250000,-0.023853,Hold,0.894043,0.000000,Hold,-11144.000000,2.000000,Suck,0.000000,2181.818182,Speed,0.000000,2181.818182,Speed,Off,On0.000000,0,,,,
02:42:43.345 PM 03/19/2016,Teleop Disabled,10,FALSE,0,NO ERROR,-0.000000,-0.057750,0.000000,-0.012833,TRUE,FALSE,FALSE,FALSE,FALSE,FALSE,Disabled,0.000000,0.000000,0.000000,TRUE,-0.006882,0.005524,0.000000,0.000000,0.000000,0.000000,-0.002000,-0.004000,0.011000,0.000000,-0.680000,2.250000,0.001329,Hold,0.894043,0.000000,Hold,-13330.000000,2.000000,Suck,0.000000,2181.818182,Speed,0.000000,2181.818182,Speed,Off,On0.000000,0,,,,
02:42:43.445 PM 03/19/2016,Teleop Disabled,10,FALSE,0,NO ERROR,-0.000000,-0.057750,0.000000,-0.012833,TRUE,FALSE,FALSE,FALSE,FALSE,FALSE,Disabled,0.000000,0.000000,0.000000,TRUE,-0.006882,0.005524,0.000000,0.000000,0.000000,0.000000,-0.002000,-0.004000,0.011000,0.000000,-0.680000,2.240000,0.004527,Hold,0.894043,0.000000,Hold,-15455.000000,2.000000,Suck,0.000000,2181.818182,Speed,0.000000,2181.818182,Speed,Off,On0.000000,0,,,,
02:42:43.547 PM 03/19/2016,Teleop Disabled,10,FALSE,0,NO ERROR,-0.000000,-0.057750,0.000000,-0.012833,TRUE,FALSE,FALSE,FALSE,FALSE,FALSE,Disabled,0.000000,0.000000,0.000000,TRUE,-0.006882,0.005524,0.000000,0.000000,0.000000,0.000000,-0.009000,-0.002000,0.010000,0.000000,-0.670000,2.240000,0.018294,Hold,0.894043,0.000000,Hold,-17477.000000,2.000000,Suck,0.000000,2181.818182,Speed,0.000000,2181.818182,Speed,Off,On0.000000,0,,,,
02:42:43.647 PM 03/19/2016,Teleop Disabled,10,FALSE,0,NO ERROR,-0.000000,-0.057750,0.000000,-0.012833,TRUE,TRUE,FALSE,FALSE,FALSE,FALSE,Disabled,0.000000,0.000000,0.000000,TRUE,-0.006882,0.005524,0.000000,0.000000,0.000000,0.000000,-0.005000,0.000000,0.019000,-0.010000,-0.680000,2.240000,0.003825,Hold,0.894043,0.000000,Hold,-19721.000000,2.000000,Suck,0.000000,2181.818182,Speed,0.000000,2181.818182,Speed,Off,On0.000000,0,,,,
02:42:43.747 PM 03/19/2016,Teleop Disabled,10,FALSE,0,NO ERROR,-0.000000,-0.057750,0.000000,-0.012833,TRUE,TRUE,FALSE,FALSE,FALSE,FALSE,Disabled,0.000000,0.000000,0.000000,TRUE,-0.006882,0.005524,0.000000,0.000000,0.000000,0.000000,-0.005000,0.000000,0.019000,0.000000,-0.670000,2.240000,0.006847,Hold,0.894043,0.000000,Hold,-22017.000000,2.000000,Suck,0.000000,0.000000,Speed,0.000000,0.000000,Speed,Off,On0.000000,0,,,,
02:42:43.847 PM 03/19/2016,Teleop Disabled,10,FALSE,0,NO ERROR,-0.000000,-0.057750,0.000000,-0.012833,TRUE,FALSE,FALSE,FALSE,FALSE,FALSE,Disabled,0.000000,0.000000,0.000000,TRUE,-0.006882,0.005524,0.000000,0.000000,0.000000,0.000000,-0.003000,0.005000,0.019000,-0.010000,-0.680000,2.230000,-0.002265,Hold,0.894043,0.000000,Hold,-22017.000000,2.000000,Suck,0.000000,0.000000,Speed,0.000000,0.000000,Speed,Off,On0.000000,0,,,,
02:42:43.947 PM 03/19/2016,Teleop Disabled,10,FALSE,0,NO ERROR,-0.000000,-0.057750,0.000000,-0.012833,TRUE,FALSE,FALSE,FALSE,FALSE,FALSE,Disabled,0.000000,0.000000,0.000000,TRUE,-0.006882,0.005524,0.000000,0.000000,0.000000,0.000000,-0.003000,0.005000,0.019000,0.000000,-0.680000,2.240000,0.002537,Hold,0.894043,0.000000,Hold,-24605.000000,2.000000,Suck,0.000000,2181.818182,Speed,0.000000,2181.818182,Speed,Off,On0.000000,0,,,,
02:42:44.047 PM 03/19/2016,Teleop Disabled,10,FALSE,0,NO ERROR,-0.000000,-0.064167,0.000000,-0.012833,TRUE,FALSE,FALSE,FALSE,FALSE,FALSE,Disabled,0.000000,0.000000,0.000000,TRUE,-0.006882,0.005524,0.000000,0.000000,0.000000,0.000000,0.007000,-0.007000,0.015000,0.000000,-0.680000,2.240000,-0.016638,Hold,0.894043,0.000000,Hold,-27527.000000,2.000000,Suck,0.000000,2181.818182,Speed,0.000000,2181.818182,Speed,Off,On0.000000,0,,,,
02:42:44.148 PM 03/19/2016,Teleop Disabled,10,FALSE,0,NO ERROR,-0.000000,-0.064167,0.000000,-0.012833,TRUE,FALSE,FALSE,FALSE,FALSE,FALSE,Disabled,0.000000,0.000000,0.000000,TRUE,-0.006882,0.005524,0.000000,0.000000,0.000000,0.000000,-0.004000,0.001000,0.016000,-0.010000,-0.690000,2.230000,-0.009381,Hold,0.894043,0.000000,Hold,-30764.000000,2.000000,Suck,0.000000,2181.818182,Speed,0.000000,2181.818182,Speed,Off,On0.000000,0,,,,
02:42:44.248 PM 03/19/2016,Teleop Disabled,10,FALSE,0,NO ERROR,-0.000000,-0.064167,0.000000,-0.012833,TRUE,FALSE,FALSE,FALSE,FALSE,FALSE,Disabled,0.000000,0.000000,0.000000,TRUE,-0.006882,0.005524,0.000000,0.000000,0.000000,0.000000,0.013000,0.001000,0.026000,-0.010000,-0.700000,2.230000,-0.025695,Hold,0.894043,0.000000,Hold,-34539.000000,2.000000,Suck,0.000000,2181.818182,Speed,0.000000,2181.818182,Speed,Off,On0.000000,0,,,,
02:42:44.349 PM 03/19/2016,Teleop Disabled,10,FALSE,0,NO ERROR,-0.000000,-0.064167,0.000000,-0.012833,TRUE,FALSE,FALSE,FALSE,FALSE,FALSE,Disabled,0.000000,0.000000,0.000000,TRUE,-0.006882,0.005524,0.000000,0.000000,0.000000,0.000000,0.013000,0.001000,0.026000,-0.010000,-0.700000,2.240000,-0.014624,Hold,0.894043,0.000000,Hold,-38888.000000,2.000000,Suck,0.000000,2181.818182,Speed,0.000000,2181.818182,Speed,Off,On0.000000,0,,,,
02:42:44.449 PM 03/19/2016,Teleop Disabled,10,FALSE,0,NO ERROR,-0.000000,-0.064167,0.000000,-0.012833,TRUE,TRUE,FALSE,FALSE,FALSE,FALSE,Disabled,0.000000,0.000000,0.000000,TRUE,-0.006882,0.005524,0.000000,0.000000,0.000000,0.000000,0.005000,-0.002000,0.024000,-0.010000,-0.700000,2.230000,-0.018239,Hold,0.894043,0.000000,Hold,-43862.000000,2.000000,Suck,0.000000,2181.818182,Speed,0.000000,2181.818182,Speed,Off,On0.000000,0,,,,
02:42:44.551 PM 03/19/2016,Teleop Disabled,11,FALSE,0,NO ERROR,-0.000000,-0.064167,0.000000,-0.012833,TRUE,TRUE,FALSE,FALSE,FALSE,FALSE,Disabled,0.000000,0.000000,0.000000,TRUE,-0.006882,0.005524,0.000000,0.000000,0.000000,0.000000,0.000000,0.002000,0.019000,-0.010000,-0.700000,2.230000,-0.011233,Hold,0.894043,0.000000,Hold,-43862.000000,2.000000,Suck,0.000000,0.000000,Speed,0.000000,0.000000,Speed,Off,On0.000000,0,,,,
02:42:44.651 PM 03/19/2016,Teleop Disabled,10,FALSE,0,NO ERROR,-0.000000,-0.064167,0.000000,-0.012833,TRUE,FALSE,FALSE,FALSE,FALSE,FALSE,Disabled,0.000000,0.000000,0.000000,TRUE,-0.006882,0.005524,0.000000,0.000000,0.000000,0.000000,0.000000,0.003000,0.015000,-0.010000,-0.710000,2.230000,0.009718,Hold,0.894043,0.000000,Hold,-49628.000000,2.000000,Suck,0.000000,0.000000,Speed,0.000000,0.000000,Speed,Off,On0.000000,0,,,,
02:42:44.751 PM 03/19/2016,Teleop Disabled,10,FALSE,0,NO ERROR,-0.000000,-0.083416,0.000000,-0.032083,TRUE,FALSE,FALSE,FALSE,FALSE,FALSE,Disabled,0.000000,0.000000,0.000000,TRUE,-0.006882,0.005524,0.000000,0.000000,0.000000,0.000000,0.000000,-0.009000,0.015000,-0.010000,-0.720000,2.230000,-0.013336,Hold,0.894043,0.000000,Hold,-57049.000000,2.000000,Suck,0.000000,2181.818182,Speed,0.000000,2181.818182,Speed,Off,On0.000000,0,,,,
02:42:44.851 PM 03/19/2016,Teleop Disabled,9,FALSE,0,NO ERROR,-0.000000,-0.077000,0.000000,-0.025667,TRUE,FALSE,FALSE,FALSE,FALSE,FALSE,Disabled,0.000000,0.000000,0.000000,TRUE,-0.006409,0.005859,0.000000,0.030869,0.018402,0.000000,-0.014000,-0.028000,0.023000,-0.040000,-0.560000,2.210000,0.014775,Hold,0.894043,0.000000,Hold,-65391.000000,2.000000,Suck,0.000000,2181.818182,Speed,0.000000,2181.818182,Speed,Off,On0.000000,0,,,,
02:42:44.951 PM 03/19/2016,Teleop Disabled,10,FALSE,0,NO ERROR,-0.000000,-0.077000,0.000000,-0.025667,TRUE,FALSE,FALSE,FALSE,FALSE,FALSE,Disabled,0.000000,0.000000,0.000000,TRUE,-0.005478,0.005737,0.000000,0.000000,0.005188,0.000000,0.050000,-0.033000,-0.008000,-0.020000,-0.320000,2.270000,-0.011753,Hold,0.894043,0.000000,Hold,-68876.000000,2.000000,Suck,0.000000,2181.818182,Speed,0.000000,2181.818182,Speed,Off,On0.000000,0,,,,
02:42:45.051 PM 03/19/2016,Teleop Disabled,10,FALSE,0,NO ERROR,-0.000000,-0.077000,0.000000,-0.025667,TRUE,FALSE,FALSE,FALSE,FALSE,FALSE,Disabled,0.000000,0.000000,0.000000,TRUE,-0.005188,0.005768,0.000000,0.000000,0.000000,0.000000,-0.002000,0.007000,0.068000,-0.030000,-0.290000,2.290000,-0.011753,Hold,0.894043,0.000000,Hold,-68883.000000,2.000000,Suck,0.000000,2181.818182,Speed,0.000000,2181.818182,Speed,Off,On0.000000,0,,,,
02:42:45.151 PM 03/19/2016,Teleop Disabled,11,FALSE,0,NO ERROR,-0.000000,-0.077000,0.000000,-0.025667,TRUE,FALSE,FALSE,FALSE,FALSE,FALSE,Disabled,0.000000,0.000000,0.000000,TRUE,-0.005188,0.005615,0.000000,0.000000,-0.004135,0.000000,-0.004000,0.009000,0.009000,-0.030000,-0.290000,2.290000,-0.003126,Hold,0.894043,0.000000,Hold,-68883.000000,2.000000,Suck,0.000000,2181.818182,Speed,0.000000,2181.818182,Speed,Off,On0.000000,0,,,,
02:42:45.251 PM 03/19/2016,Teleop Disabled,10,FALSE,0,NO ERROR,-0.000000,-0.077000,0.000000,-0.025667,TRUE,TRUE,FALSE,FALSE,FALSE,FALSE,Disabled,0.000000,0.000000,0.000000,TRUE,-0.005188,0.005600,0.000000,0.000000,0.000000,0.000000,0.001000,0.015000,0.017000,-0.030000,-0.290000,2.280000,-0.010293,Hold,0.894043,0.000000,Hold,-68883.000000,2.000000,Suck,0.000000,2181.818182,Speed,0.000000,2181.818182,Speed,Off,On0.000000,0,,,,
02:42:45.351 PM 03/19/2016,Teleop Disabled,9,FALSE,0,NO ERROR,-0.000000,-0.077000,0.000000,-0.025667,TRUE,TRUE,FALSE,FALSE,FALSE,FALSE,Disabled,0.000000,0.000000,0.000000,TRUE,-0.005188,0.005600,0.000000,0.000000,0.000000,0.000000,-0.001000,0.005000,0.017000,-0.030000,-0.290000,2.280000,-0.011247,Hold,0.894043,0.000000,Hold,-68883.000000,2.000000,Suck,0.000000,0.000000,Speed,0.000000,0.000000,Speed,Off,On0.000000,0,,,,
02:42:45.451 PM 03/19/2016,Teleop Disabled,11,FALSE,0,NO ERROR,-0.000000,-0.077000,0.000000,-0.025667,TRUE,FALSE,FALSE,FALSE,FALSE,FALSE,Disabled,0.000000,0.000000,0.000000,TRUE,-0.005188,0.005600,0.000000,0.000000,0.000000,0.000000,-0.001000,0.000000,0.014000,-0.030000,-0.290000,2.280000,-0.018700,Hold,0.894043,0.000000,Hold,-68883.000000,2.000000,Suck,0.000000,0.000000,Speed,0.000000,0.000000,Speed,Off,On0.000000,0,,,,
02:42:45.551 PM 03/19/2016,Teleop Disabled,10,FALSE,0,NO ERROR,-0.000000,-0.077000,0.000000,-0.025667,TRUE,FALSE,FALSE,FALSE,FALSE,FALSE,Disabled,0.000000,0.000000,0.000000,TRUE,-0.005188,0.005600,0.000000,0.000000,0.000000,0.000000,-0.003000,0.004000,0.017000,-0.030000,-0.290000,2.280000,-0.019371,Hold,0.894043,0.000000,Hold,-68883.000000,2.000000,Suck,0.000000,2181.818182,Speed,0.000000,2181.818182,Speed,Off,On0.000000,0,,,,
02:42:45.651 PM 03/19/2016,Teleop Disabled,10,FALSE,0,NO ERROR,-0.000000,-0.077000,0.000000,-0.025667,TRUE,FALSE,FALSE,FALSE,FALSE,FALSE,Disabled,0.000000,0.000000,0.000000,TRUE,-0.005188,0.005600,0.000000,0.000000,0.000000,0.000000,-0.002000,0.000000,0.022000,-0.030000,-0.290000,2.280000,-0.025626,Hold,0.894043,0.000000,Hold,-68883.000000,2.000000,Suck,0.000000,2181.818182,Speed,0.000000,2181.818182,Speed,Off,On0.000000,0,,,,
02:42:45.752 PM 03/19/2016,Teleop Disabled,12,FALSE,0,NO ERROR,-0.000000,-0.077000,0.000000,-0.025667,TRUE,FALSE,FALSE,FALSE,FALSE,FALSE,Disabled,0.000000,0.000000,0.000000,TRUE,-0.005188,0.005600,0.000000,0.000000,0.000000,0.000000,0.000000,0.002000,0.022000,-0.030000,-0.290000,2.280000,-0.032604,Hold,0.894043,0.000000,Hold,-68883.000000,2.000000,Suck,0.000000,2181.818182,Speed,0.000000,2181.818182,Speed,Off,On0.000000,0,,,,
02:42:45.852 PM 03/19/2016,Teleop Disabled,9,FALSE,0,NO ERROR,-0.000000,-0.077000,0.000000,-0.025667,TRUE,FALSE,FALSE,FALSE,FALSE,FALSE,Disabled,0.000000,0.000000,0.000000,TRUE,-0.005188,0.005600,0.000000,0.000000,0.000000,0.000000,-0.001000,-0.001000,0.018000,-0.030000,-0.290000,2.280000,-0.028160,Hold,0.894043,0.000000,Hold,-68883.000000,2.000000,Suck,0.000000,2181.818182,Speed,0.000000,2181.818182,Speed,Off,On0.000000,0,,,,
02:42:45.952 PM 03/19/2016,Teleop Disabled,10,FALSE,0,NO ERROR,-0.000000,-0.077000,0.000000,-0.025667,TRUE,FALSE,FALSE,FALSE,FALSE,FALSE,Disabled,0.000000,0.000000,0.000000,TRUE,-0.005188,0.005600,0.000000,0.000000,0.000000,0.000000,0.000000,0.000000,0.015000,-0.030000,-0.290000,2.280000,-0.024236,Hold,0.894043,0.000000,Hold,-68883.000000,2.000000,Suck,0.000000,2181.818182,Speed,0.000000,2181.818182,Speed,Off,On0.000000,0,,,,
02:42:46.052 PM 03/19/2016,Teleop Disabled,14,FALSE,0,NO ERROR,-0.000000,-0.077000,0.000000,-0.025667,TRUE,TRUE,FALSE,FALSE,FALSE,FALSE,Disabled,0.000000,0.000000,0.000000,TRUE,-0.005188,0.005600,0.000000,0.000000,0.000000,0.000000,-0.003000,-0.002000,0.023000,-0.040000,-0.280000,2.280000,-0.021636,Hold,0.894043,0.000000,Hold,-68883.000000,2.000000,Suck,0.000000,2181.818182,Speed,0.000000,2181.818182,Speed,Off,On0.000000,0,,,,
02:42:46.152 PM 03/19/2016,Teleop Disabled,10,FALSE,0,NO ERROR,-0.000000,-0.077000,0.000000,-0.025667,TRUE,TRUE,FALSE,FALSE,FALSE,FALSE,Disabled,0.000000,0.000000,0.000000,TRUE,-0.005188,0.005600,0.000000,0.000000,0.000000,0.000000,0.000000,-0.002000,0.019000,-0.040000,-0.280000,2.280000,-0.023182,Hold,0.894043,0.000000,Hold,-68883.000000,2.000000,Suck,0.000000,0.000000,Speed,0.000000,0.000000,Speed,Off,On0.000000,0,,,,
02:42:46.253 PM 03/19/2016,Teleop Disabled,10,FALSE,0,NO ERROR,-0.000000,-0.077000,0.000000,-0.025667,TRUE,FALSE,FALSE,FALSE,FALSE,FALSE,Disabled,0.000000,0.000000,0.000000,TRUE,-0.005188,0.005600,0.000000,0.000000,0.000000,0.000000,0.001000,-0.003000,0.022000,-0.040000,-0.280000,2.280000,-0.012872,Hold,0.894043,0.000000,Hold,-68883.000000,2.000000,Suck,0.000000,0.000000,Speed,0.000000,0.000000,Speed,Off,On0.000000,0,,,,
02:42:46.352 PM 03/19/2016,Teleop Disabled,10,FALSE,0,NO ERROR,-0.000000,-0.077000,0.000000,-0.025667,TRUE,FALSE,FALSE,FALSE,FALSE,FALSE,Disabled,0.000000,0.000000,0.000000,TRUE,-0.005188,0.005600,0.000000,0.000000,0.000000,0.000000,0.000000,-0.002000,0.022000,-0.040000,-0.280000,2.280000,-0.001012,Hold,0.894043,0.000000,Hold,-68883.000000,2.000000,Suck,0.000000,2181.818182,Speed,0.000000,2181.818182,Speed,Off,On0.000000,0,,,,
02:42:46.454 PM 03/19/2016,Teleop Disabled,10,FALSE,0,NO ERROR,-0.000000,-0.077000,0.000000,-0.025667,TRUE,FALSE,FALSE,FALSE,FALSE,FALSE,Disabled,0.000000,0.000000,0.000000,TRUE,-0.005188,0.005600,0.000000,0.000000,0.000000,0.000000,0.000000,-0.001000,0.019000,-0.040000,-0.280000,2.280000,0.004262,Hold,0.894043,0.000000,Hold,-68883.000000,2.000000,Suck,0.000000,2181.818182,Speed,0.000000,2181.818182,Speed,Off,On0.000000,0,,,,
02:42:46.554 PM 03/19/2016,Teleop Disabled,9,FALSE,0,NO ERROR,-0.000000,-0.077000,0.000000,-0.025667,TRUE,FALSE,FALSE,FALSE,FALSE,FALSE,Disabled,0.000000,0.000000,0.000000,TRUE,-0.005188,0.005600,0.000000,0.000000,0.000000,0.000000,0.000000,-0.002000,0.015000,-0.040000,-0.280000,2.280000,0.010555,Hold,0.894043,0.000000,Hold,-68883.000000,2.000000,Suck,0.000000,2181.818182,Speed,0.000000,2181.818182,Speed,Off,On0.000000,0,,,,
02:42:46.654 PM 03/19/2016,Teleop Disabled,9,FALSE,0,NO ERROR,-0.000000,-0.077000,0.000000,-0.025667,TRUE,FALSE,FALSE,FALSE,FALSE,FALSE,Disabled,0.000000,0.000000,0.000000,TRUE,-0.005188,0.005600,0.000000,0.000000,0.000000,0.000000,0.000000,-0.003000,0.022000,-0.040000,-0.280000,2.280000,0.006241,Hold,0.894043,0.000000,Hold,-68883.000000,2.000000,Suck,0.000000,2181.818182,Speed,0.000000,2181.818182,Speed,Off,On0.000000,0,,,,
02:42:46.756 PM 03/19/2016,Teleop Disabled,10,FALSE,0,NO ERROR,-0.000000,-0.077000,0.000000,-0.025667,TRUE,FALSE,FALSE,FALSE,FALSE,FALSE,Disabled,0.000000,0.000000,0.000000,TRUE,-0.005188,0.005600,0.000000,0.000000,0.000000,0.000000,0.002000,0.003000,0.018000,-0.040000,-0.280000,2.280000,0.004685,Hold,0.894043,0.000000,Hold,-68883.000000,2.000000,Suck,0.000000,2181.818182,Speed,0.000000,2181.818182,Speed,Off,On0.000000,0,,,,
02:42:46.856 PM 03/19/2016,Teleop Disabled,9,FALSE,0,NO ERROR,-0.000000,-0.077000,0.000000,-0.025667,TRUE,TRUE,FALSE,FALSE,FALSE,FALSE,Disabled,0.000000,0.000000,0.000000,TRUE,-0.005188,0.005600,0.000000,0.000000,0.000000,0.000000,-0.002000,0.002000,0.019000,-0.040000,-0.280000,2.270000,0.016796,Hold,0.894043,0.000000,Hold,-68883.000000,2.000000,Suck,0.000000,2181.818182,Speed,0.000000,2181.818182,Speed,Off,On0.000000,0,,,,
02:42:46.956 PM 03/19/2016,Teleop Disabled,10,FALSE,0,NO ERROR,-0.000000,-0.077000,0.000000,-0.025667,TRUE,TRUE,FALSE,FALSE,FALSE,FALSE,Disabled,0.000000,0.000000,0.000000,TRUE,-0.005188,0.005600,0.000000,0.000000,0.000000,0.000000,0.000000,0.000000,0.023000,-0.040000,-0.280000,2.280000,0.033568,Hold,0.894043,0.000000,Hold,-68883.000000,2.000000,Suck,0.000000,0.000000,Speed,0.000000,0.000000,Speed,Off,On0.000000,0,,,,
02:42:47.056 PM 03/19/2016,Teleop Disabled,10,FALSE,0,NO ERROR,-0.000000,-0.077000,0.000000,-0.025667,TRUE,FALSE,FALSE,FALSE,FALSE,FALSE,Disabled,0.000000,0.000000,0.000000,TRUE,-0.005188,0.005600,0.000000,0.000000,0.000000,0.000000,-0.002000,0.000000,0.019000,-0.040000,-0.280000,2.280000,0.021358,Hold,0.894043,0.000000,Hold,-68883.000000,2.000000,Suck,0.000000,0.000000,Speed,0.000000,0.000000,Speed,Off,On0.000000,0,,,,
02:42:47.156 PM 03/19/2016,Teleop Disabled,10,FALSE,0,NO ERROR,-0.000000,-0.077000,0.000000,-0.025667,TRUE,FALSE,FALSE,FALSE,FALSE,FALSE,Disabled,0.000000,0.000000,0.000000,TRUE,-0.005188,0.005600,0.000000,0.000000,0.000000,0.000000,0.002000,0.000000,0.017000,-0.040000,-0.280000,2.270000,0.019519,Hold,0.894043,0.000000,Hold,-68883.000000,2.000000,Suck,0.000000,2181.818182,Speed,0.000000,2181.818182,Speed,Off,On0.000000,0,,,,
02:42:47.258 PM 03/19/2016,Teleop Disabled,10,FALSE,0,NO ERROR,-0.000000,-0.077000,0.000000,-0.025667,TRUE,FALSE,FALSE,FALSE,FALSE,FALSE,Disabled,0.000000,0.000000,0.000000,TRUE,-0.005188,0.005600,0.000000,0.000000,0.000000,0.000000,0.001000,0.000000,0.017000,-0.040000,-0.270000,2.270000,0.012703,Hold,0.894043,0.000000,Hold,-68883.000000,2.000000,Suck,0.000000,2181.818182,Speed,0.000000,2181.818182,Speed,Off,On0.000000,0,,,,
02:42:47.358 PM 03/19/2016,Teleop Disabled,10,FALSE,0,NO ERROR,-0.000000,-0.077000,0.000000,-0.025667,TRUE,FALSE,FALSE,FALSE,FALSE,FALSE,Disabled,0.000000,0.000000,0.000000,TRUE,-0.005188,0.005600,0.000000,0.000000,0.000000,0.000000,0.001000,0.000000,0.022000,-0.040000,-0.280000,2.280000,-0.000303,Hold,0.894043,0.000000,Hold,-68883.000000,2.000000,Suck,0.000000,2181.818182,Speed,0.000000,2181.818182,Speed,Off,On0.000000,0,,,,
02:42:47.458 PM 03/19/2016,Teleop Disabled,10,FALSE,0,NO ERROR,-0.000000,-0.077000,0.000000,-0.025667,TRUE,FALSE,FALSE,FALSE,FALSE,FALSE,Disabled,0.000000,0.000000,0.000000,TRUE,-0.005188,0.005600,0.000000,0.000000,0.000000,0.000000,0.000000,0.001000,0.015000,-0.040000,-0.280000,2.280000,-0.014170,Hold,0.894043,0.000000,Hold,-68883.000000,2.000000,Suck,0.000000,2181.818182,Speed,0.000000,2181.818182,Speed,Off,On0.000000,0,,,,
02:42:47.559 PM 03/19/2016,Teleop Disabled,10,FALSE,0,NO ERROR,-0.000000,-0.077000,0.000000,-0.025667,TRUE,FALSE,FALSE,FALSE,FALSE,FALSE,Disabled,0.000000,0.000000,0.000000,TRUE,-0.005188,0.005600,0.000000,0.000000,0.000000,0.000000,0.000000,0.002000,0.021000,-0.050000,-0.280000,2.280000,-0.008920,Hold,0.894043,0.000000,Hold,-68883.000000,2.000000,Suck,0.000000,2181.818182,Speed,0.000000,2181.818182,Speed,Off,On0.000000,0,,,,
02:42:47.660 PM 03/19/2016,Teleop Disabled,10,FALSE,0,NO ERROR,-0.000000,-0.077000,0.000000,-0.025667,TRUE,FALSE,FALSE,FALSE,FALSE,FALSE,Disabled,0.000000,0.000000,0.000000,TRUE,-0.005188,0.005600,0.000000,0.000000,0.000000,0.000000,0.001000,0.000000,0.018000,-0.050000,-0.280000,2.280000,-0.011529,Hold,0.894043,0.000000,Hold,-68883.000000,2.000000,Suck,0.000000,2181.818182,Speed,0.000000,2181.818182,Speed,Off,On0.000000,0,,,,
02:42:47.760 PM 03/19/2016,Teleop Disabled,10,FALSE,0,NO ERROR,-0.000000,-0.077000,0.000000,-0.025667,TRUE,TRUE,FALSE,FALSE,FALSE,FALSE,Disabled,0.000000,0.000000,0.000000,TRUE,-0.005188,0.005600,0.000000,0.000000,0.000000,0.000000,-0.003000,0.000000,0.021000,-0.050000,-0.280000,2.280000,-0.013915,Hold,0.894043,0.000000,Hold,-68883.000000,2.000000,Suck,0.000000,2181.818182,Speed,0.000000,2181.818182,Speed,Off,On0.000000,0,,,,
02:42:47.860 PM 03/19/2016,Teleop Disabled,10,FALSE,0,NO ERROR,-0.000000,-0.077000,0.000000,-0.025667,TRUE,TRUE,FALSE,FALSE,FALSE,FALSE,Disabled,0.000000,0.000000,0.000000,TRUE,-0.005188,0.005600,0.000000,0.000000,0.000000,0.000000,0.000000,0.000000,0.018000,-0.060000,-0.280000,2.280000,-0.022180,Hold,0.894043,0.000000,Hold,-68883.000000,2.000000,Suck,0.000000,0.000000,Speed,0.000000,0.000000,Speed,Off,On0.000000,0,,,,
02:42:47.961 PM 03/19/2016,Teleop Disabled,10,FALSE,0,NO ERROR,-0.000000,-0.077000,0.000000,-0.025667,TRUE,FALSE,FALSE,FALSE,FALSE,FALSE,Disabled,0.000000,0.000000,0.000000,TRUE,-0.005188,0.005600,0.000000,0.000000,0.000000,0.000000,0.000000,0.000000,0.020000,-0.060000,-0.280000,2.280000,-0.021361,Hold,0.894043,0.000000,Hold,-68883.000000,2.000000,Suck,0.000000,0.000000,Speed,0.000000,0.000000,Speed,Off,On0.000000,0,,,,
02:42:48.061 PM 03/19/2016,Teleop Disabled,10,FALSE,0,NO ERROR,-0.000000,-0.077000,0.000000,-0.025667,TRUE,FALSE,FALSE,FALSE,FALSE,FALSE,Disabled,0.000000,0.000000,0.000000,TRUE,-0.005188,0.005600,0.000000,0.000000,0.000000,0.000000,-0.002000,0.002000,0.018000,-0.060000,-0.280000,2.280000,-0.020118,Hold,0.894043,0.000000,Hold,-68883.000000,2.000000,Suck,0.000000,2181.818182,Speed,0.000000,2181.818182,Speed,Off,On0.000000,0,,,,
02:42:48.161 PM 03/19/2016,Teleop Disabled,10,FALSE,0,NO ERROR,-0.000000,-0.077000,0.000000,-0.025667,TRUE,FALSE,FALSE,FALSE,FALSE,FALSE,Disabled,0.000000,0.000000,0.000000,TRUE,-0.005188,0.005600,0.000000,0.000000,0.000000,0.000000,-0.002000,0.002000,0.021000,-0.060000,-0.280000,2.280000,-0.004875,Hold,0.894043,0.000000,Hold,-68883.000000,2.000000,Suck,0.000000,2181.818182,Speed,0.000000,2181.818182,Speed,Off,On0.000000,0,,,,
02:42:48.261 PM 03/19/2016,Teleop Disabled,10,FALSE,0,NO ERROR,-0.000000,-0.077000,0.000000,-0.025667,TRUE,FALSE,FALSE,FALSE,FALSE,FALSE,Disabled,0.000000,0.000000,0.000000,TRUE,-0.005188,0.005600,0.000000,0.000000,0.000000,0.000000,-0.003000,-0.001000,0.021000,-0.060000,-0.280000,2.280000,-0.013195,Hold,0.894043,0.000000,Hold,-68883.000000,2.000000,Suck,0.000000,2181.818182,Speed,0.000000,2181.818182,Speed,Off,On0.000000,0,,,,
02:42:48.361 PM 03/19/2016,Teleop Disabled,10,FALSE,0,NO ERROR,-0.000000,-0.077000,0.000000,-0.025667,TRUE,FALSE,FALSE,FALSE,FALSE,FALSE,Disabled,0.000000,0.000000,0.000000,TRUE,-0.005188,0.005600,0.000000,0.000000,0.000000,0.000000,-0.002000,0.000000,0.018000,-0.060000,-0.290000,2.280000,-0.022976,Hold,0.894043,0.000000,Hold,-68883.000000,2.000000,Suck,0.000000,2181.818182,Speed,0.000000,2181.818182,Speed,Off,On0.000000,0,,,,
02:42:48.461 PM 03/19/2016,Teleop Disabled,10,FALSE,0,NO ERROR,-0.000000,-0.077000,0.000000,-0.025667,TRUE,FALSE,FALSE,FALSE,FALSE,FALSE,Disabled,0.000000,0.000000,0.000000,TRUE,-0.005188,0.005600,0.000000,0.000000,0.000000,0.000000,0.002000,-0.002000,0.016000,-0.060000,-0.290000,2.280000,-0.037748,Hold,0.894043,0.000000,Hold,-68883.000000,2.000000,Suck,0.000000,2181.818182,Speed,0.000000,2181.818182,Speed,Off,On0.000000,0,,,,
02:42:48.561 PM 03/19/2016,Teleop Disabled,10,FALSE,0,NO ERROR,-0.000000,-0.077000,0.000000,-0.025667,TRUE,TRUE,FALSE,FALSE,FALSE,FALSE,Disabled,0.000000,0.000000,0.000000,TRUE,-0.005188,0.005600,0.000000,0.000000,0.000000,0.000000,0.000000,0.001000,0.021000,-0.060000,-0.290000,2.280000,-0.036835,Hold,0.894043,0.000000,Hold,-68883.000000,2.000000,Suck,0.000000,2181.818182,Speed,0.000000,2181.818182,Speed,Off,On0.000000,0,,,,
02:42:48.661 PM 03/19/2016,Teleop Disabled,10,FALSE,0,NO ERROR,-0.000000,-0.077000,0.000000,-0.025667,TRUE,TRUE,FALSE,FALSE,FALSE,FALSE,Disabled,0.000000,0.000000,0.000000,TRUE,-0.005188,0.005600,0.000000,0.000000,0.000000,0.000000,-0.002000,0.000000,0.015000,-0.060000,-0.280000,2.280000,-0.050454,Hold,0.894043,0.000000,Hold,-68883.000000,2.000000,Suck,0.000000,0.000000,Speed,0.000000,0.000000,Speed,Off,On0.000000,0,,,,
02:42:48.761 PM 03/19/2016,Teleop Disabled,10,FALSE,0,NO ERROR,-0.000000,-0.077000,0.000000,-0.025667,TRUE,FALSE,FALSE,FALSE,FALSE,FALSE,Disabled,0.000000,0.000000,0.000000,TRUE,-0.005188,0.005600,0.000000,0.000000,0.000000,0.000000,0.000000,-0.001000,0.015000,-0.060000,-0.280000,2.270000,-0.041311,Hold,0.894043,0.000000,Hold,-68883.000000,2.000000,Suck,0.000000,0.000000,Speed,0.000000,0.000000,Speed,Off,On0.000000,0,,,,
02:42:48.861 PM 03/19/2016,Teleop Disabled,10,FALSE,0,NO ERROR,-0.000000,-0.077000,0.000000,-0.025667,TRUE,FALSE,FALSE,FALSE,FALSE,FALSE,Disabled,0.000000,0.000000,0.000000,TRUE,-0.005188,0.005600,0.000000,0.000000,0.000000,0.000000,0.001000,0.000000,0.019000,-0.060000,-0.280000,2.280000,-0.034835,Hold,0.894043,0.000000,Hold,-68883.000000,2.000000,Suck,0.000000,2181.818182,Speed,0.000000,2181.818182,Speed,Off,On0.000000,0,,,,
02:42:48.961 PM 03/19/2016,Teleop Disabled,10,FALSE,0,NO ERROR,-0.000000,-0.077000,0.000000,-0.025667,TRUE,FALSE,FALSE,FALSE,FALSE,FALSE,Disabled,0.000000,0.000000,0.000000,TRUE,-0.005188,0.005600,0.000000,0.000000,0.000000,0.000000,0.001000,0.000000,0.015000,-0.060000,-0.280000,2.280000,-0.032997,Hold,0.894043,0.000000,Hold,-68883.000000,2.000000,Suck,0.000000,2181.818182,Speed,0.000000,2181.818182,Speed,Off,On0.000000,0,,,,
02:42:49.061 PM 03/19/2016,Teleop Disabled,10,FALSE,0,NO ERROR,-0.000000,-0.077000,0.000000,-0.025667,TRUE,FALSE,FALSE,FALSE,FALSE,FALSE,Disabled,0.000000,0.000000,0.000000,TRUE,-0.005188,0.005600,0.000000,0.000000,0.000000,0.000000,0.000000,-0.002000,0.026000,-0.060000,-0.280000,2.280000,-0.047325,Hold,0.894043,0.000000,Hold,-68883.000000,2.000000,Suck,0.000000,2181.818182,Speed,0.000000,2181.818182,Speed,Off,On0.000000,0,,,,
02:42:49.161 PM 03/19/2016,Teleop Disabled,10,FALSE,0,NO ERROR,-0.000000,-0.077000,0.000000,-0.025667,TRUE,FALSE,FALSE,FALSE,FALSE,FALSE,Disabled,0.000000,0.000000,0.000000,TRUE,-0.005188,0.005600,0.000000,0.000000,0.000000,0.000000,0.000000,0.000000,0.018000,-0.060000,-0.280000,2.270000,-0.035369,Hold,0.894043,0.000000,Hold,-68883.000000,2.000000,Suck,0.000000,2181.818182,Speed,0.000000,2181.818182,Speed,Off,On0.000000,0,,,,
02:42:49.261 PM 03/19/2016,Teleop Disabled,10,FALSE,0,NO ERROR,-0.000000,-0.077000,0.000000,-0.025667,TRUE,FALSE,FALSE,FALSE,FALSE,FALSE,Disabled,0.000000,0.000000,0.000000,TRUE,-0.005188,0.005600,0.000000,0.000000,0.000000,0.000000,-0.002000,0.000000,0.022000,-0.070000,-0.280000,2.270000,-0.032274,Hold,0.894043,0.000000,Hold,-68883.000000,2.000000,Suck,0.000000,2181.818182,Speed,0.000000,2181.818182,Speed,Off,On0.000000,0,,,,
02:42:49.361 PM 03/19/2016,Teleop Disabled,10,FALSE,0,NO ERROR,-0.000000,-0.077000,0.000000,-0.025667,TRUE,TRUE,FALSE,FALSE,FALSE,FALSE,Disabled,0.000000,0.000000,0.000000,TRUE,-0.005188,0.005600,0.000000,0.000000,0.000000,0.000000,0.000000,0.001000,0.021000,-0.070000,-0.280000,2.270000,-0.032336,Hold,0.894043,0.000000,Hold,-68883.000000,2.000000,Suck,0.000000,2181.818182,Speed,0.000000,2181.818182,Speed,Off,On0.000000,0,,,,
02:42:49.461 PM 03/19/2016,Teleop Disabled,9,FALSE,0,NO ERROR,-0.000000,-0.077000,0.000000,-0.025667,TRUE,TRUE,FALSE,FALSE,FALSE,FALSE,Disabled,0.000000,0.000000,0.000000,TRUE,-0.005188,0.005600,0.000000,0.000000,0.000000,0.000000,0.000000,0.000000,0.019000,-0.070000,-0.280000,2.270000,-0.036605,Hold,0.894043,0.000000,Hold,-68883.000000,2.000000,Suck,0.000000,0.000000,Speed,0.000000,0.000000,Speed,Off,On0.000000,0,,,,
02:42:49.561 PM 03/19/2016,Teleop Disabled,10,FALSE,0,NO ERROR,-0.000000,-0.077000,0.000000,-0.025667,TRUE,FALSE,FALSE,FALSE,FALSE,FALSE,Disabled,0.000000,0.000000,0.000000,TRUE,-0.005188,0.005600,0.000000,0.000000,0.000000,0.000000,0.000000,0.000000,0.017000,-0.070000,-0.280000,2.270000,-0.021203,Hold,0.894043,0.000000,Hold,-68883.000000,2.000000,Suck,0.000000,0.000000,Speed,0.000000,0.000000,Speed,Off,On0.000000,0,,,,
02:42:49.661 PM 03/19/2016,Teleop Disabled,10,FALSE,0,NO ERROR,-0.000000,-0.077000,0.000000,-0.025667,TRUE,FALSE,FALSE,FALSE,FALSE,FALSE,Disabled,0.000000,0.000000,0.000000,TRUE,-0.005188,0.005600,0.000000,0.000000,0.000000,0.000000,0.000000,0.001000,0.022000,-0.070000,-0.280000,2.270000,-0.024786,Hold,0.894043,0.000000,Hold,-68883.000000,2.000000,Suck,0.000000,2181.818182,Speed,0.000000,2181.818182,Speed,Off,On0.000000,0,,,,
02:42:49.761 PM 03/19/2016,Teleop Disabled,10,FALSE,0,NO ERROR,-0.000000,-0.077000,0.000000,-0.025667,TRUE,FALSE,FALSE,FALSE,FALSE,FALSE,Disabled,0.000000,0.000000,0.000000,TRUE,-0.005188,0.005600,0.000000,0.000000,0.000000,0.000000,0.000000,0.000000,0.022000,-0.070000,-0.280000,2.270000,-0.039101,Hold,0.894043,0.000000,Hold,-68883.000000,2.000000,Suck,0.000000,2181.818182,Speed,0.000000,2181.818182,Speed,Off,On0.000000,0,,,,
02:42:49.861 PM 03/19/2016,Teleop Disabled,9,FALSE,0,NO ERROR,-0.000000,-0.077000,0.000000,-0.025667,TRUE,FALSE,FALSE,FALSE,FALSE,FALSE,Disabled,0.000000,0.000000,0.000000,TRUE,-0.005188,0.005600,0.000000,0.000000,0.000000,0.000000,0.001000,0.000000,0.020000,-0.070000,-0.280000,2.270000,-0.045177,Hold,0.894043,0.000000,Hold,-68883.000000,2.000000,Suck,0.000000,2181.818182,Speed,0.000000,2181.818182,Speed,Off,On0.000000,0,,,,
02:42:49.961 PM 03/19/2016,Teleop Disabled,10,FALSE,0,NO ERROR,-0.000000,-0.077000,0.000000,-0.025667,TRUE,FALSE,FALSE,FALSE,FALSE,FALSE,Disabled,0.000000,0.000000,0.000000,TRUE,-0.005188,0.005600,0.000000,0.000000,0.000000,0.000000,0.000000,0.004000,0.017000,-0.080000,-0.280000,2.270000,-0.038175,Hold,0.894043,0.000000,Hold,-68883.000000,2.000000,Suck,0.000000,2181.818182,Speed,0.000000,2181.818182,Speed,Off,On0.000000,0,,,,
02:42:50.061 PM 03/19/2016,Teleop Disabled,8,FALSE,0,NO ERROR,-0.000000,-0.077000,0.000000,-0.025667,TRUE,FALSE,FALSE,FALSE,FALSE,FALSE,Disabled,0.000000,0.000000,0.000000,TRUE,-0.005188,0.005600,0.000000,0.000000,0.000000,0.000000,0.000000,0.004000,0.017000,-0.080000,-0.280000,2.270000,-0.032501,Hold,0.894043,0.000000,Hold,-68883.000000,2.000000,Suck,0.000000,2181.818182,Speed,0.000000,2181.818182,Speed,Off,On0.000000,0,,,,
02:42:50.161 PM 03/19/2016,Teleop Disabled,9,FALSE,0,NO ERROR,-0.000000,-0.077000,0.000000,-0.025667,TRUE,TRUE,FALSE,FALSE,FALSE,FALSE,Disabled,0.000000,0.000000,0.000000,TRUE,-0.005188,0.005600,0.000000,0.000000,0.000000,0.000000,0.001000,0.000000,0.022000,-0.080000,-0.280000,2.270000,-0.029382,Hold,0.894043,0.000000,Hold,-68883.000000,2.000000,Suck,0.000000,2181.818182,Speed,0.000000,2181.818182,Speed,Off,On0.000000,0,,,,
02:42:50.261 PM 03/19/2016,Teleop Disabled,10,FALSE,0,NO ERROR,-0.000000,-0.077000,0.000000,-0.025667,TRUE,TRUE,FALSE,FALSE,FALSE,FALSE,Disabled,0.000000,0.000000,0.000000,TRUE,-0.005188,0.005600,0.000000,0.000000,0.000000,0.000000,0.000000,0.001000,0.021000,-0.080000,-0.290000,2.270000,-0.045535,Hold,0.894043,0.000000,Hold,-68883.000000,2.000000,Suck,0.000000,0.000000,Speed,0.000000,0.000000,Speed,Off,On0.000000,0,,,,
02:42:50.362 PM 03/19/2016,Teleop Disabled,9,FALSE,0,NO ERROR,-0.000000,-0.077000,0.000000,-0.025667,TRUE,FALSE,FALSE,FALSE,FALSE,FALSE,Disabled,0.000000,0.000000,0.000000,TRUE,-0.005188,0.005600,0.000000,0.000000,0.000000,0.000000,-0.001000,0.002000,0.019000,-0.080000,-0.280000,2.270000,-0.046688,Hold,0.894043,0.000000,Hold,-68883.000000,2.000000,Suck,0.000000,0.000000,Speed,0.000000,0.000000,Speed,Off,On0.000000,0,,,,
02:42:50.462 PM 03/19/2016,Teleop Disabled,10,FALSE,0,NO ERROR,-0.000000,-0.077000,0.000000,-0.025667,TRUE,FALSE,FALSE,FALSE,FALSE,FALSE,Disabled,0.000000,0.000000,0.000000,TRUE,-0.005188,0.005600,0.000000,0.000000,0.000000,0.000000,-0.001000,0.002000,0.019000,-0.080000,-0.280000,2.270000,-0.046158,Hold,0.894043,0.000000,Hold,-68883.000000,2.000000,Suck,0.000000,2181.818182,Speed,0.000000,2181.818182,Speed,Off,On0.000000,0,,,,
02:42:50.563 PM 03/19/2016,Teleop Disabled,9,FALSE,0,NO ERROR,-0.000000,-0.077000,0.000000,-0.025667,TRUE,FALSE,FALSE,FALSE,FALSE,FALSE,Disabled,0.000000,0.000000,0.000000,TRUE,-0.005188,0.005600,0.000000,0.000000,0.000000,0.000000,-0.001000,0.000000,0.016000,-0.080000,-0.280000,2.270000,-0.055074,Hold,0.894043,0.000000,Hold,-68883.000000,2.000000,Suck,0.000000,2181.818182,Speed,0.000000,2181.818182,Speed,Off,On0.000000,0,,,,
02:42:50.663 PM 03/19/2016,Teleop Disabled,10,FALSE,0,NO ERROR,-0.000000,-0.077000,0.000000,-0.025667,TRUE,FALSE,FALSE,FALSE,FALSE,FALSE,Disabled,0.000000,0.000000,0.000000,TRUE,-0.005188,0.005600,0.000000,0.000000,0.000000,0.000000,0.000000,-0.001000,0.018000,-0.080000,-0.280000,2.280000,-0.042932,Hold,0.894043,0.000000,Hold,-68883.000000,2.000000,Suck,0.000000,2181.818182,Speed,0.000000,2181.818182,Speed,Off,On0.000000,0,,,,
02:42:50.763 PM 03/19/2016,Teleop Disabled,9,FALSE,0,NO ERROR,-0.000000,-0.077000,0.000000,-0.025667,TRUE,FALSE,FALSE,FALSE,FALSE,FALSE,Disabled,0.000000,0.000000,0.000000,TRUE,-0.005188,0.005600,0.000000,0.000000,0.000000,0.000000,-0.002000,0.000000,0.017000,-0.080000,-0.280000,2.280000,-0.037483,Hold,0.894043,0.000000,Hold,-68883.000000,2.000000,Suck,0.000000,2181.818182,Speed,0.000000,2181.818182,Speed,Off,On0.000000,0,,,,
02:42:50.863 PM 03/19/2016,Teleop Disabled,10,FALSE,0,NO ERROR,-0.000000,-0.077000,0.000000,-0.025667,TRUE,FALSE,FALSE,FALSE,FALSE,FALSE,Disabled,0.000000,0.000000,0.000000,TRUE,-0.005188,0.005600,0.000000,0.000000,0.000000,0.000000,0.001000,-0.001000,0.020000,-0.080000,-0.280000,2.270000,-0.034281,Hold,0.894043,0.000000,Hold,-68883.000000,2.000000,Suck,0.000000,2181.818182,Speed,0.000000,2181.818182,Speed,Off,On0.000000,0,,,,
02:42:50.964 PM 03/19/2016,Teleop Disabled,9,FALSE,0,NO ERROR,-0.000000,-0.077000,0.000000,-0.025667,TRUE,TRUE,FALSE,FALSE,FALSE,FALSE,Disabled,0.000000,0.000000,0.000000,TRUE,-0.005188,0.005600,0.000000,0.000000,0.000000,0.000000,0.000000,0.000000,0.018000,-0.080000,-0.280000,2.270000,-0.018968,Hold,0.894043,0.000000,Hold,-68883.000000,2.000000,Suck,0.000000,2181.818182,Speed,0.000000,2181.818182,Speed,Off,On0.000000,0,,,,
02:42:51.064 PM 03/19/2016,Finish,10,TRUE,91,Variant To Data in WPI_MotorControlRefNum Registry Get.vi->Finish.vi->Robot Main.vi,-0.000000,-0.077000,0.000000,-0.025667,TRUE,TRUE,FALSE,FALSE,FALSE,FALSE,Disabled,0.000000,0.000000,0.000000,TRUE,-0.005188,0.005600,0.000000,0.000000,0.000000,0.000000,0.000000,0.001000,0.023000,-0.080000,-0.280000,2.270000,-0.007457,Hold,0.894043,0.000000,Hold,-68883.000000,2.000000,Suck,0.000000,0.000000,Speed,0.000000,0.000000,Speed,Off,On0.000000,0,,,,
02:42:51.165 PM 03/19/2016,Finish,10,TRUE,-44007,<LOCATION>WPI_MotorControlRefNum Registry Get.vi<CALLSTACK>WPI_MotorControlRefNum Registry Get.vi< <Finish.vi< <Robot Main.vi,-0.000000,-0.077000,0.000000,-0.025667,TRUE,FALSE,FALSE,FALSE,FALSE,FALSE,Disabled,0.000000,0.000000,0.000000,TRUE,-0.005188,0.005600,0.000000,0.000000,0.000000,0.000000,0.000000,0.000000,0.017000,-0.080000,-0.290000,2.270000,-0.009157,Hold,0.894043,0.000000,Hold,-68883.000000,2.000000,Suck,0.000000,0.000000,Speed,0.000000,0.000000,Speed,Off,On0.000000,0,,,,
02:42:51.266 PM 03/19/2016,Finish,10,TRUE,91,Variant To Data in WPI_GyroRefNum Registry Get.vi->Finish.vi->Robot Main.vi,-0.000000,-0.077000,0.000000,-0.025667,TRUE,FALSE,FALSE,FALSE,FALSE,FALSE,Disabled,0.000000,0.000000,0.000000,TRUE,-0.005188,0.005600,0.000000,0.000000,0.000000,0.000000,0.000000,0.000000,0.017000,-0.080000,-0.290000,2.270000,-0.009157,Hold,0.894043,0.000000,Hold,-68883.000000,2.000000,Suck,0.000000,2181.818182,Speed,0.000000,2181.818182,Speed,Off,On0.000000,0,,,,