Time,Robot Mode,Loop Time,Error Status,Error Code,Error Source,Left Motor Output,Left Motor Encoder,Right Motor Output,Right Motor Encoder,Is Level,Is Stalled,Ball Detector Photoeye,Vision Enabled,Vision Teleop Control,Vision Auto Control,Vision Current State,Vision X Output,Vision NavX Error,Vision NavX Target,NavX Connection Status,NavX Displacement X,NavX Displacement Y,NavX Displacement Z,NavX Velocity X,NavX Velocity Y,NavX Velocity Z,NavX Acceleration X,NavX Acceleration Y,NavX Acceleration Z,NavX Pitch,NavX Yaw,NavX Roll,Gyro Angle,Roller Arm State,Roller Arm Actual,Roller Arm Desired,Shooter Arm State,Shooter Arm Actual,Shooter Arm Desired,Shooter State,Actual RPM Left,Desired RPM Left,Control Mode Left,Actual RPM Right,Desired RPM Right,Scaler Motor Output,Auto To Run,Auto Current File,Auto File Status,Auto Current Command,Auto Trimmed Command
04:36:03.406 PM 03/19/2016,Autonomous Disabled,10,FALSE,0,NO ERROR,-0.000000,9.503061,0.000000,15.894046,TRUE,FALSE,TRUE,FALSE,FALSE,FALSE,Disabled,0.190625,-7.559375,-8.800625,TRUE,-25.669312,6.875259,0.000000,-0.057144,0.053116,0.000000,0.028000,-0.354000,-0.017000,-17.190000,-0.590000,2.400000,-49.038135,Hold,56.770996,208896.000000,Hold,-69742.000000,69632.000000,HighGoal,3202.500000,-3272.727273,Speed,3225.000000,-3272.727273,Speed,Off,Off0.000000,0,,,,
04:36:03.507 PM 03/19/2016,Teleop Disabled,10,FALSE,0,NO ERROR,-0.000000,0.000000,0.000000,0.000000,TRUE,FALSE,TRUE,FALSE,FALSE,FALSE,Disabled,0.190625,-7.559375,-8.800625,TRUE,-25.843369,6.950378,0.000000,0.000000,0.000000,0.000000,0.002000,-0.001000,0.020000,-0.010000,-0.430000,2.420000,-0.002554,ResetBack,70.453613,-0.200000,ResetBack,-144068.000000,-0.300000,Empty,0.000000,0.000000,Speed,0.000000,0.000000,Speed,Off,Off0.000000,0,,,,
04:36:03.607 PM 03/19/2016,Teleop Disabled,8,FALSE,0,NO ERROR,-0.000000,0.000000,0.000000,0.000000,TRUE,FALSE,TRUE,FALSE,FALSE,FALSE,Disabled,0.190625,-7.559375,-8.800625,TRUE,-25.843369,6.950378,0.000000,0.000000,0.000000,0.000000,0.002000,-0.001000,0.020000,-0.010000,-0.430000,2.420000,-0.012321,ResetBack,70.453613,-0.200000,ResetBack,-144068.000000,-0.300000,Empty,0.000000,0.000000,Speed,0.000000,0.000000,Speed,Off,Off0.000000,0,,,,
04:36:03.711 PM 03/19/2016,Teleop Disabled,11,FALSE,0,NO ERROR,-0.000000,0.000000,0.000000,0.000000,TRUE,FALSE,TRUE,FALSE,FALSE,FALSE,Disabled,0.190625,-7.559375,-8.800625,TRUE,-25.843369,6.950378,0.000000,0.000000,0.000000,0.000000,0.003000,0.000000,0.018000,-0.010000,-0.420000,2.430000,-0.040660,ResetBack,70.453613,-0.200000,ResetBack,-144068.000000,-0.300000,Empty,0.000000,0.000000,Speed,0.000000,0.000000,Speed,Off,Off0.000000,0,,,,
04:36:03.811 PM 03/19/2016,Teleop Disabled,10,FALSE,0,NO ERROR,-0.000000,0.000000,0.000000,0.000000,TRUE,FALSE,TRUE,FALSE,FALSE,FALSE,Disabled,0.190625,-7.559375,-8.800625,TRUE,-25.843369,6.950378,0.000000,0.000000,0.000000,0.000000,-0.002000,-0.001000,0.018000,-0.010000,-0.420000,2.430000,-0.035365,ResetBack,70.453613,-0.200000,ResetBack,-144068.000000,-0.300000,Empty,0.000000,0.000000,Speed,0.000000,0.000000,Speed,Off,Off0.000000,0,,,,
04:36:03.912 PM 03/19/2016,Teleop Disabled,10,FALSE,0,NO ERROR,-0.000000,0.000000,0.000000,0.000000,TRUE,FALSE,TRUE,FALSE,FALSE,FALSE,Disabled,0.190625,-7.559375,-8.800625,TRUE,-25.843369,6.950378,0.000000,0.000000,0.000000,0.000000,0.000000,0.000000,0.017000,-0.010000,-0.420000,2.430000,-0.037799,ResetBack,70.453613,-0.200000,ResetBack,-144068.000000,-0.300000,Empty,0.000000,0.000000,Speed,0.000000,0.000000,Speed,Off,Off0.000000,0,,,,
04:36:04.013 PM 03/19/2016,Teleop Disabled,10,FALSE,0,NO ERROR,-0.000000,0.000000,0.000000,0.000000,TRUE,FALSE,TRUE,FALSE,FALSE,FALSE,Disabled,0.190625,-7.559375,-8.800625,TRUE,-25.843369,6.950378,0.000000,0.000000,0.000000,0.000000,0.000000,-0.002000,0.018000,-0.010000,-0.420000,2.430000,-0.045628,ResetBack,70.453613,-0.200000,ResetBack,-144068.000000,-0.300000,Empty,0.000000,0.000000,Speed,0.000000,0.000000,Speed,Off,Off0.000000,0,,,,
04:36:04.114 PM 03/19/2016,Teleop Disabled,9,FALSE,0,NO ERROR,-0.000000,0.000000,0.000000,0.000000,TRUE,FALSE,TRUE,FALSE,FALSE,FALSE,Disabled,0.190625,-7.559375,-8.800625,TRUE,-25.843369,6.950378,0.000000,0.000000,0.000000,0.000000,-0.001000,0.000000,0.017000,-0.010000,-0.420000,2.420000,-0.053549,ResetBack,70.453613,-0.200000,ResetBack,-144068.000000,-0.300000,Empty,0.000000,0.000000,Speed,0.000000,0.000000,Speed,Off,Off0.000000,0,,,,
04:36:04.214 PM 03/19/2016,Teleop Disabled,11,FALSE,0,NO ERROR,-0.000000,0.000000,0.000000,0.000000,TRUE,FALSE,TRUE,FALSE,FALSE,FALSE,Disabled,0.190625,-7.559375,-8.800625,TRUE,-25.843369,6.950378,0.000000,0.000000,0.000000,0.000000,0.003000,0.000000,0.016000,-0.010000,-0.410000,2.430000,-0.056196,ResetBack,70.453613,-0.200000,ResetBack,-144068.000000,-0.300000,Empty,0.000000,0.000000,Speed,0.000000,0.000000,Speed,Off,Off0.000000,0,,,,
04:36:04.314 PM 03/19/2016,Teleop Disabled,10,FALSE,0,NO ERROR,-0.000000,0.000000,0.000000,0.000000,TRUE,FALSE,TRUE,FALSE,FALSE,FALSE,Disabled,0.190625,-7.559375,-8.800625,TRUE,-25.843369,6.950378,0.000000,0.000000,0.000000,0.000000,0.003000,0.001000,0.017000,-0.010000,-0.410000,2.430000,-0.062713,ResetBack,70.453613,-0.200000,ResetBack,-144068.000000,-0.300000,Empty,0.000000,0.000000,Speed,0.000000,0.000000,Speed,Off,Off0.000000,0,,,,
04:36:04.416 PM 03/19/2016,Teleop Disabled,9,FALSE,0,NO ERROR,-0.000000,0.000000,0.000000,0.000000,TRUE,FALSE,TRUE,FALSE,FALSE,FALSE,Disabled,0.190625,-7.559375,-8.800625,TRUE,-25.843369,6.950378,0.000000,0.000000,0.000000,0.000000,-0.001000,0.000000,0.014000,-0.010000,-0.410000,2.430000,-0.066145,ResetBack,70.453613,-0.200000,ResetBack,-144068.000000,-0.300000,Empty,0.000000,0.000000,Speed,0.000000,0.000000,Speed,Off,Off0.000000,0,,,,
04:36:04.516 PM 03/19/2016,Teleop Disabled,10,FALSE,0,NO ERROR,-0.000000,0.000000,0.000000,0.000000,TRUE,FALSE,TRUE,FALSE,FALSE,FALSE,Disabled,0.190625,-7.559375,-8.800625,TRUE,-25.843369,6.950378,0.000000,0.000000,0.000000,0.000000,-0.003000,0.000000,0.015000,-0.020000,-0.410000,2.440000,-0.061577,ResetBack,70.453613,-0.200000,ResetBack,-144068.000000,-0.300000,Empty,0.000000,0.000000,Speed,0.000000,0.000000,Speed,Off,Off0.000000,0,,,,
04:36:04.616 PM 03/19/2016,Teleop Enabled,10,FALSE,0,NO ERROR,-0.000000,0.000000,0.000000,0.000000,TRUE,FALSE,TRUE,FALSE,FALSE,FALSE,Disabled,0.190625,-7.559375,-8.800625,TRUE,-25.843369,6.950378,0.000000,0.000000,0.000000,0.000000,0.000000,0.000000,0.015000,-0.020000,-0.410000,2.440000,-0.066937,ResetBack,70.453613,-0.200000,ResetBack,-144068.000000,-0.300000,Empty,0.000000,0.000000,Speed,0.000000,0.000000,Speed,Off,Off0.000000,0,,,,
04:36:04.716 PM 03/19/2016,Teleop Enabled,10,FALSE,0,NO ERROR,-0.000000,-0.012833,0.000000,0.000000,TRUE,FALSE,TRUE,FALSE,FALSE,FALSE,Disabled,0.190625,-7.559375,-8.800625,TRUE,-25.843369,6.950317,0.000000,0.000000,-0.000549,0.000000,-0.044000,0.005000,0.013000,-0.030000,-0.420000,2.440000,-0.099862,ResetBack,69.365967,-0.200000,ResetBack,-142804.000000,-0.300000,Suck,0.000000,2181.818182,Speed,0.000000,2181.818182,Speed,Off,Off0.000000,0,,,,
04:36:04.817 PM 03/19/2016,Teleop Enabled,10,FALSE,0,NO ERROR,-0.000000,-0.012833,0.000000,0.012833,TRUE,FALSE,TRUE,FALSE,FALSE,FALSE,Disabled,0.190625,-7.559375,-8.800625,TRUE,-25.843643,6.950363,0.000000,0.006271,0.000000,0.000000,-0.016000,-0.052000,0.035000,-0.050000,-0.440000,2.440000,-0.112699,ResetBack,69.296387,-0.200000,ResetBack,-133650.000000,-0.300000,Hold,-45.000000,0.000000,Speed,-67.500000,0.000000,Speed,Off,Off0.000000,0,,,,
04:36:04.918 PM 03/19/2016,Teleop Enabled,10,FALSE,0,NO ERROR,-0.000000,-0.012833,0.000000,0.019250,TRUE,FALSE,TRUE,FALSE,FALSE,FALSE,Disabled,0.190625,-7.559375,-8.800625,TRUE,-25.843475,6.950180,0.000000,0.000000,0.005539,0.000000,-0.007000,0.003000,0.031000,-0.050000,-0.450000,2.440000,-0.123120,Reset,69.285400,0.000000,ResetBack,-125936.000000,-0.300000,Hold,-525.000000,0.000000,Speed,-540.000000,0.000000,Speed,Off,Off0.000000,0,,,,
04:36:05.019 PM 03/19/2016,Teleop Enabled,10,FALSE,0,NO ERROR,-0.000000,-0.012833,0.000000,0.051333,TRUE,FALSE,TRUE,FALSE,FALSE,FALSE,Disabled,0.190625,-7.559375,-8.800625,TRUE,-25.843842,6.950134,0.000000,-0.002838,-0.006500,0.000000,0.032000,0.010000,0.017000,-0.100000,-0.540000,2.440000,-0.179598,Hold,0.493896,0.000000,ResetBack,-121118.000000,-0.300000,Hold,-592.500000,0.000000,Speed,-555.000000,0.000000,Speed,Off,Off0.000000,0,,,,
04:36:05.119 PM 03/19/2016,Teleop Enabled,8,FALSE,0,NO ERROR,-0.000000,-0.012833,0.000000,0.051333,TRUE,FALSE,TRUE,FALSE,FALSE,FALSE,Disabled,0.190625,-7.559375,-8.800625,TRUE,-25.843643,6.950165,0.000000,0.003860,0.004364,0.000000,0.008000,0.005000,0.022000,-0.070000,-0.470000,2.450000,-0.153993,Hold,0.530518,0.000000,ResetBack,-121118.000000,-0.300000,Hold,-457.500000,0.000000,Speed,-465.000000,0.000000,Speed,Off,Off0.000000,0,,,,
04:36:05.220 PM 03/19/2016,Teleop Enabled,10,FALSE,0,NO ERROR,-0.000000,-0.012833,0.000000,0.051333,TRUE,FALSE,TRUE,FALSE,FALSE,FALSE,Disabled,0.190625,-7.559375,-8.800625,TRUE,-25.843353,6.950470,0.000000,0.000000,0.008835,0.000000,-0.019000,0.012000,0.016000,-0.090000,-0.460000,2.460000,-0.184676,Hold,0.530518,0.000000,ResetBack,-116207.000000,-0.300000,Hold,-337.500000,0.000000,Speed,-352.500000,0.000000,Speed,Off,Off0.000000,0,,,,
04:36:05.320 PM 03/19/2016,Teleop Enabled,10,FALSE,0,NO ERROR,-0.000000,-0.012833,0.000000,0.051333,TRUE,FALSE,TRUE,FALSE,FALSE,FALSE,Disabled,0.190625,-7.559375,-8.800625,TRUE,-25.843323,6.950455,0.000000,0.002960,-0.007187,0.000000,0.017000,-0.023000,0.038000,-0.090000,-0.450000,2.460000,-0.188607,Hold,0.530518,0.000000,ResetBack,-111204.000000,-0.300000,Hold,-232.500000,0.000000,Speed,-247.500000,0.000000,Speed,Off,Off0.000000,0,,,,
04:36:05.421 PM 03/19/2016,Teleop Enabled,10,FALSE,0,NO ERROR,-0.000000,-0.012833,0.000000,0.051333,TRUE,FALSE,TRUE,FALSE,FALSE,FALSE,Disabled,0.190625,-7.559375,-8.800625,TRUE,-25.843170,6.950027,0.000000,0.000000,0.000000,0.000000,-0.011000,0.005000,-0.007000,-0.090000,-0.450000,2.450000,-0.206288,Hold,0.530518,0.000000,ResetBack,-105749.000000,-0.300000,Hold,-135.000000,0.000000,Speed,-127.500000,0.000000,Speed,Off,Off0.000000,0,,,,
04:36:05.522 PM 03/19/2016,Teleop Enabled,9,FALSE,0,NO ERROR,-0.000000,-0.012833,0.000000,0.051333,TRUE,FALSE,TRUE,FALSE,FALSE,FALSE,Disabled,0.190625,-7.559375,-8.800625,TRUE,-25.843170,6.950027,0.000000,0.000000,0.000000,0.000000,0.014000,-0.011000,0.002000,-0.080000,-0.450000,2.460000,-0.196425,Hold,0.530518,0.000000,ResetBack,-100173.000000,-0.300000,Hold,-15.000000,0.000000,Speed,-30.000000,0.000000,Speed,Off,Off0.000000,0,,,,
04:36:05.622 PM 03/19/2016,Teleop Enabled,9,FALSE,0,NO ERROR,-0.000000,-0.012833,0.000000,0.051333,TRUE,FALSE,TRUE,FALSE,FALSE,FALSE,Disabled,0.190625,-7.559375,-8.800625,TRUE,-25.843170,6.950027,0.000000,0.000000,0.000000,0.000000,-0.005000,0.004000,0.010000,-0.090000,-0.440000,2.450000,-0.200894,Hold,0.530518,0.000000,ResetBack,-94322.000000,-0.300000,Hold,0.000000,0.000000,Speed,0.000000,0.000000,Speed,Off,Off0.000000,0,,,,
04:36:05.723 PM 03/19/2016,Teleop Enabled,10,FALSE,0,NO ERROR,-0.000000,-0.012833,0.000000,0.051333,TRUE,FALSE,TRUE,FALSE,FALSE,FALSE,Disabled,0.190625,-7.559375,-8.800625,TRUE,-25.843170,6.950027,0.000000,0.000000,0.000000,0.000000,0.003000,0.004000,0.021000,-0.090000,-0.450000,2.450000,-0.205590,Hold,0.530518,0.000000,ResetBack,-88186.000000,-0.300000,Hold,0.000000,0.000000,Speed,0.000000,0.000000,Speed,Off,Off0.000000,0,,,,
04:36:05.824 PM 03/19/2016,Teleop Enabled,6,FALSE,0,NO ERROR,-0.000000,-0.012833,0.000000,0.051333,TRUE,FALSE,TRUE,FALSE,FALSE,FALSE,Disabled,0.190625,-7.559375,-8.800625,TRUE,-25.843170,6.950027,0.000000,0.000000,0.000000,0.000000,0.003000,-0.001000,0.017000,-0.080000,-0.460000,2.450000,-0.202371,Hold,0.530518,0.000000,Reset,-88186.000000,2.000000,Hold,0.000000,0.000000,Speed,0.000000,0.000000,Speed,Off,Off0.000000,0,,,,
04:36:05.925 PM 03/19/2016,Teleop Enabled,3,FALSE,0,NO ERROR,-0.000000,-0.012833,0.000000,0.051333,TRUE,FALSE,TRUE,FALSE,FALSE,FALSE,Disabled,0.190625,-7.559375,-8.800625,TRUE,-25.843323,6.950027,0.000000,-0.009796,0.000000,0.000000,-0.021000,-0.015000,0.009000,-0.090000,-0.410000,2.440000,-0.210843,Hold,0.530518,0.000000,Hold,941.000000,2.000000,Hold,0.000000,0.000000,Speed,0.000000,0.000000,Speed,Off,Off0.000000,0,,,,
04:36:06.025 PM 03/19/2016,Teleop Enabled,10,FALSE,0,NO ERROR,-0.000000,0.000000,0.000000,0.096250,TRUE,FALSE,TRUE,FALSE,FALSE,FALSE,Disabled,0.190625,-7.559375,-8.800625,TRUE,-25.843140,6.949936,0.000000,0.020920,-0.006653,0.000000,0.065000,-0.011000,-0.026000,-0.060000,-0.470000,2.430000,-0.192559,Hold,0.530518,0.000000,Hold,-254.000000,2.000000,LowGoal,0.000000,-1454.545455,Speed,0.000000,-1454.545455,Speed,Off,Off0.000000,0,,,,
04:36:06.126 PM 03/19/2016,Teleop Enabled,10,FALSE,0,NO ERROR,-0.000000,-0.006417,0.000000,0.083416,TRUE,FALSE,TRUE,FALSE,FALSE,FALSE,Disabled,0.190625,-7.559375,-8.800625,TRUE,-25.843506,6.950089,0.000000,-0.039642,0.011780,0.000000,-0.131000,-0.007000,-0.008000,-0.090000,-0.470000,2.480000,-0.239616,Hold,0.531250,0.000000,Hold,-98.000000,2.000000,LowGoal,15.000000,-1454.545455,Speed,82.500000,-1454.545455,Speed,Off,Off0.000000,0,,,,
04:36:06.226 PM 03/19/2016,Teleop Enabled,10,FALSE,0,NO ERROR,-0.000000,-0.006417,0.000000,0.083416,TRUE,FALSE,TRUE,FALSE,FALSE,FALSE,Disabled,0.190625,-7.559375,-8.800625,TRUE,-25.845810,6.950073,0.000000,0.000000,-0.010010,0.000000,0.007000,-0.037000,-0.051000,-0.070000,-0.500000,2.480000,-0.216158,Hold,0.531250,0.000000,Hold,-121.000000,2.000000,LowGoal,480.000000,-1454.545455,Speed,727.500000,-1454.545455,Speed,Off,Off0.000000,0,,,,
04:36:06.327 PM 03/19/2016,Teleop Enabled,10,FALSE,0,NO ERROR,-0.000000,-0.006417,0.000000,0.083416,TRUE,FALSE,TRUE,FALSE,FALSE,FALSE,Disabled,0.190625,-7.559375,-8.800625,TRUE,-25.846024,6.949783,0.000000,-0.007874,0.017715,0.000000,-0.046000,0.011000,-0.012000,-0.090000,-0.450000,2.480000,-0.238363,Hold,0.531250,0.000000,Hold,-121.000000,2.000000,LowGoal,1132.500000,-1454.545455,Speed,1320.000000,-1454.545455,Speed,Off,Off0.000000,0,,,,
04:36:06.426 PM 03/19/2016,Teleop Enabled,10,FALSE,0,NO ERROR,-0.000000,-0.006417,0.000000,0.083416,TRUE,FALSE,TRUE,FALSE,FALSE,FALSE,Disabled,0.190625,-7.559375,-8.800625,TRUE,-25.845932,6.950043,0.000000,0.002274,0.004227,0.000000,-0.062000,-0.080000,0.007000,-0.100000,-0.430000,2.430000,-0.246084,Hold,0.531250,0.000000,Hold,-121.000000,2.000000,LowGoal,1530.000000,-1454.545455,Speed,1530.000000,-1454.545455,Speed,Off,Off0.000000,0,,,,
04:36:06.526 PM 03/19/2016,Teleop Enabled,11,FALSE,0,NO ERROR,-0.000000,-0.006417,0.000000,0.083416,TRUE,FALSE,TRUE,FALSE,FALSE,FALSE,Disabled,0.190625,-7.559375,-8.800625,TRUE,-25.846100,6.950119,0.000000,0.002594,-0.000320,0.000000,-0.020000,0.045000,0.023000,-0.090000,-0.430000,2.420000,-0.236927,Hold,0.531250,0.000000,Hold,-121.000000,2.000000,LowGoal,1477.500000,-1454.545455,Speed,1410.000000,-1454.545455,Speed,Off,Off0.000000,0,,,,
04:36:06.627 PM 03/19/2016,Teleop Enabled,10,FALSE,0,NO ERROR,-0.000000,-0.006417,0.000000,0.083416,TRUE,FALSE,TRUE,FALSE,FALSE,FALSE,Disabled,0.190625,-7.559375,-8.800625,TRUE,-25.845749,6.950256,0.000000,-0.000519,0.003891,0.000000,0.138000,-0.033000,-0.078000,-0.080000,-0.470000,2.450000,-0.247152,Hold,0.531250,0.000000,Hold,-121.000000,2.000000,LowGoal,1365.000000,-1454.545455,Speed,1357.500000,-1454.545455,Speed,Off,Off0.000000,0,,,,
04:36:06.727 PM 03/19/2016,Teleop Enabled,9,FALSE,0,NO ERROR,-0.000000,-0.006417,0.000000,0.083416,TRUE,FALSE,TRUE,FALSE,FALSE,FALSE,Disabled,0.190625,-7.559375,-8.800625,TRUE,-25.844849,6.950485,0.000000,0.012436,0.017654,0.000000,-0.013000,0.040000,0.007000,-0.090000,-0.460000,2.440000,-0.255937,Hold,0.531250,0.000000,Hold,-121.000000,2.000000,LowGoal,1380.000000,-1454.545455,Speed,1387.500000,-1454.545455,Speed,Off,Off0.000000,0,,,,
04:36:06.828 PM 03/19/2016,Teleop Enabled,10,FALSE,0,NO ERROR,-0.000000,-0.006417,0.000000,0.083416,TRUE,FALSE,TRUE,FALSE,FALSE,FALSE,Disabled,0.190625,-7.559375,-8.800625,TRUE,-25.844437,6.951416,0.000000,0.005447,0.010468,0.000000,-0.019000,-0.037000,0.042000,-0.090000,-0.410000,2.390000,-0.243947,Hold,0.531250,0.000000,Hold,-120.000000,2.000000,LowGoal,1417.500000,-1454.545455,Speed,1417.500000,-1454.545455,Speed,Off,Off0.000000,0,,,,
04:36:06.928 PM 03/19/2016,Teleop Enabled,10,FALSE,0,NO ERROR,-0.000000,-0.006417,0.000000,0.083416,TRUE,FALSE,TRUE,FALSE,FALSE,FALSE,Disabled,0.190625,-7.559375,-8.800625,TRUE,-25.844986,6.952194,0.000000,-0.030746,0.032455,0.000000,0.087000,0.025000,-0.043000,-0.080000,-0.490000,2.440000,-0.249548,Hold,0.531250,0.000000,Hold,-120.000000,2.000000,LowGoal,1417.500000,-1454.545455,Speed,1402.500000,-1454.545455,Speed,Off,Off0.000000,0,,,,
04:36:07.029 PM 03/19/2016,Teleop Enabled,9,FALSE,0,NO ERROR,-0.000000,-0.006417,0.000000,0.083416,TRUE,FALSE,TRUE,FALSE,FALSE,FALSE,Disabled,0.190625,-7.559375,-8.800625,TRUE,-25.845047,6.953995,0.000000,0.002655,0.032562,0.000000,-0.076000,0.058000,0.170000,-0.090000,-0.460000,2.410000,-0.239323,Hold,0.531250,0.000000,Hold,-120.000000,2.000000,LowGoal,1402.500000,-1454.545455,Speed,1395.000000,-1454.545455,Speed,Off,Off0.000000,0,,,,
04:36:07.129 PM 03/19/2016,Teleop Enabled,10,FALSE,0,NO ERROR,-0.000000,-0.006417,0.000000,0.083416,TRUE,FALSE,TRUE,FALSE,FALSE,FALSE,Disabled,0.190625,-7.559375,-8.800625,TRUE,-25.844940,6.955261,0.000000,0.004211,0.017776,0.000000,0.038000,-0.050000,-0.136000,-0.100000,-0.400000,2.390000,-0.252171,Hold,0.531250,0.000000,Hold,-120.000000,2.000000,LowGoal,1402.500000,-1454.545455,Speed,1395.000000,-1454.545455,Speed,Off,Off0.000000,0,,,,
04:36:07.229 PM 03/19/2016,Teleop Enabled,10,FALSE,0,NO ERROR,-0.000000,-0.006417,0.000000,0.083416,TRUE,FALSE,TRUE,FALSE,FALSE,FALSE,Disabled,0.190625,-7.559375,-8.800625,TRUE,-25.845139,6.957016,0.000000,-0.008118,0.046432,0.000000,-0.034000,0.088000,0.102000,-0.100000,-0.430000,2.420000,-0.248522,Hold,0.531250,0.000000,Hold,-120.000000,2.000000,LowGoal,1410.000000,-1454.545455,Speed,1395.000000,-1454.545455,Speed,Off,Off0.000000,0,,,,
04:36:07.329 PM 03/19/2016,Teleop Enabled,10,FALSE,0,NO ERROR,-0.000000,-0.006417,0.000000,0.083416,TRUE,FALSE,TRUE,FALSE,FALSE,FALSE,Disabled,0.190625,-7.559375,-8.800625,TRUE,-25.846039,6.959549,0.000000,-0.028381,0.041565,0.000000,0.001000,-0.099000,-0.089000,-0.100000,-0.450000,2.440000,-0.258457,Hold,0.531250,0.000000,Hold,-120.000000,2.000000,LowGoal,1402.500000,-1454.545455,Speed,1395.000000,-1454.545455,Speed,Off,Off0.000000,0,,,,
04:36:07.429 PM 03/19/2016,Teleop Enabled,9,FALSE,0,NO ERROR,-0.000000,-0.006417,0.000000,0.083416,TRUE,FALSE,TRUE,FALSE,FALSE,FALSE,Disabled,0.190625,-7.559375,-8.800625,TRUE,-25.847549,6.960953,0.000000,-0.029160,0.017380,0.000000,-0.073000,0.018000,0.040000,-0.100000,-0.420000,2.420000,-0.267194,Hold,0.531250,0.000000,Hold,-120.000000,2.000000,LowGoal,1402.500000,-1454.545455,Speed,1395.000000,-1454.545455,Speed,Off,Off0.000000,0,,,,
04:36:07.529 PM 03/19/2016,Teleop Enabled,10,FALSE,0,NO ERROR,-0.000000,-0.006417,0.000000,0.083416,TRUE,FALSE,TRUE,FALSE,FALSE,FALSE,Disabled,0.190625,-7.559375,-8.800625,TRUE,-25.849808,6.962204,0.000000,-0.059784,0.035400,0.000000,0.070000,-0.079000,-0.079000,-0.090000,-0.470000,2.450000,-0.272506,Hold,0.531250,0.000000,Hold,-120.000000,2.000000,LowGoal,1402.500000,-1454.545455,Speed,1395.000000,-1454.545455,Speed,Off,Off0.000000,0,,,,
04:36:07.631 PM 03/19/2016,Teleop Enabled,10,FALSE,0,NO ERROR,-0.000000,-0.006417,0.000000,0.083416,TRUE,FALSE,TRUE,FALSE,FALSE,FALSE,Disabled,0.190625,-7.559375,-8.800625,TRUE,-25.850922,6.963409,0.000000,0.005341,0.013840,0.000000,-0.031000,0.072000,0.158000,-0.090000,-0.480000,2.420000,-0.275418,Hold,0.531250,0.000000,Hold,-120.000000,2.000000,LowGoal,1402.500000,-1454.545455,Speed,1402.500000,-1454.545455,Speed,Off,Off0.000000,0,,,,
04:36:07.730 PM 03/19/2016,Teleop Enabled,9,FALSE,0,NO ERROR,-0.000000,-0.006417,0.000000,0.083416,TRUE,FALSE,TRUE,FALSE,FALSE,FALSE,Disabled,0.190625,-7.559375,-8.800625,TRUE,-25.850525,6.964554,0.000000,0.012360,0.000000,0.000000,-0.001000,-0.007000,-0.036000,-0.090000,-0.450000,2.440000,-0.283663,Hold,0.531250,0.000000,Hold,-120.000000,2.000000,LowGoal,1410.000000,-1454.545455,Speed,1402.500000,-1454.545455,Speed,Off,Off0.000000,0,,,,
04:36:07.830 PM 03/19/2016,Teleop Enabled,10,FALSE,0,NO ERROR,-0.000000,-0.006417,0.000000,0.083416,TRUE,FALSE,TRUE,FALSE,FALSE,FALSE,Disabled,0.190625,-7.559375,-8.800625,TRUE,-25.850540,6.965179,0.000000,0.000046,0.025101,0.000000,0.012000,-0.021000,0.002000,-0.100000,-0.470000,2.480000,-0.280462,Hold,0.531250,0.000000,Hold,-120.000000,2.000000,LowGoal,1402.500000,-1454.545455,Speed,1395.000000,-1454.545455,Speed,Off,Off0.000000,0,,,,
04:36:07.930 PM 03/19/2016,Teleop Enabled,10,FALSE,0,NO ERROR,-0.000000,-0.006417,0.000000,0.083416,TRUE,FALSE,TRUE,FALSE,FALSE,FALSE,Disabled,0.190625,-7.559375,-8.800625,TRUE,-25.850510,6.965744,0.000000,-0.005310,0.002319,0.000000,-0.020000,0.049000,0.030000,-0.090000,-0.500000,2.470000,-0.286775,Hold,0.531250,0.000000,Hold,-120.000000,2.000000,LowGoal,1402.500000,-1454.545455,Speed,1402.500000,-1454.545455,Speed,Off,Off0.000000,0,,,,
04:36:08.030 PM 03/19/2016,Teleop Enabled,10,FALSE,0,NO ERROR,-0.000000,-0.006417,0.000000,0.083416,TRUE,FALSE,TRUE,FALSE,FALSE,FALSE,Disabled,0.190625,-7.559375,-8.800625,TRUE,-25.850784,6.966537,0.000000,0.000000,0.013412,0.000000,0.028000,0.009000,-0.020000,-0.100000,-0.450000,2.440000,-0.299344,Hold,0.531250,0.000000,Hold,-108.000000,2.000000,LowGoal,1402.500000,-1454.545455,Speed,1402.500000,-1454.545455,Speed,Off,Off0.000000,0,,,,
04:36:08.131 PM 03/19/2016,Teleop Enabled,10,FALSE,0,NO ERROR,-0.000000,-0.006417,0.000000,0.083416,TRUE,FALSE,TRUE,FALSE,FALSE,FALSE,Disabled,0.190625,-7.559375,-8.800625,TRUE,-25.850754,6.967300,0.000000,0.007202,0.019135,0.000000,0.031000,0.019000,0.107000,-0.090000,-0.470000,2.480000,-0.313937,Hold,0.531250,0.000000,Hold,-108.000000,2.000000,LowGoal,1402.500000,-1454.545455,Speed,1402.500000,-1454.545455,Speed,Off,Off0.000000,0,,,,
04:36:08.231 PM 03/19/2016,Teleop Enabled,10,FALSE,0,NO ERROR,-0.000000,-0.006417,0.000000,0.083416,TRUE,FALSE,TRUE,FALSE,FALSE,FALSE,Disabled,0.190625,-7.559375,-8.800625,TRUE,-25.849670,6.968185,0.000000,0.010025,0.009506,0.000000,0.063000,0.007000,0.070000,-0.100000,-0.530000,2.470000,-0.336476,Hold,0.531250,0.000000,Hold,-108.000000,2.000000,LowGoal,1402.500000,-1454.545455,Speed,1402.500000,-1454.545455,Speed,Off,Off0.000000,0,,,,
04:36:08.331 PM 03/19/2016,Teleop Enabled,10,FALSE,0,NO ERROR,-0.000000,-0.006417,0.000000,0.083416,TRUE,FALSE,TRUE,FALSE,FALSE,FALSE,Disabled,0.190625,-7.559375,-8.800625,TRUE,-25.847992,6.968201,0.000000,0.045761,0.005569,0.000000,0.019000,0.017000,0.051000,-0.100000,-0.490000,2.440000,-0.348053,Hold,0.531250,0.000000,Hold,-108.000000,2.000000,LowGoal,1402.500000,-1454.545455,Speed,1395.000000,-1454.545455,Speed,Off,Off0.000000,0,,,,
04:36:08.432 PM 03/19/2016,Teleop Enabled,11,FALSE,0,NO ERROR,0.000000,-0.006417,-0.000000,0.083416,TRUE,FALSE,TRUE,TRUE,TRUE,FALSE,Disabled,0.190625,-7.559375,-8.800625,TRUE,-25.846481,6.968460,0.000000,0.038452,-0.003555,0.000000,0.010000,-0.059000,-0.065000,-0.100000,-0.490000,2.460000,-0.358525,Hold,0.531250,0.000000,Hold,-108.000000,2.000000,LowGoal,1402.500000,-1454.545455,Speed,1402.500000,-1454.545455,Speed,Off,Off0.000000,0,,,,
04:36:08.533 PM 03/19/2016,Teleop Enabled,10,FALSE,0,NO ERROR,0.000000,0.032083,-0.000000,0.083416,TRUE,FALSE,TRUE,TRUE,TRUE,FALSE,Disabled,0.190625,-7.559375,-8.800625,TRUE,-25.844711,6.968018,0.000000,0.033279,0.000000,0.000000,-0.043000,-0.018000,0.037000,-0.100000,-0.490000,2.450000,-0.361152,Hold,0.531250,0.000000,Hold,-108.000000,2.000000,LowGoal,1402.500000,-1454.545455,Speed,1402.500000,-1454.545455,Speed,Off,Off0.000000,0,,,,
04:36:08.634 PM 03/19/2016,Teleop Enabled,10,FALSE,0,NO ERROR,0.000000,0.032083,-0.000000,0.083416,TRUE,FALSE,TRUE,TRUE,TRUE,FALSE,Enable,0.190625,-7.815625,7.715625,TRUE,-25.842972,6.967407,0.000000,0.043198,-0.014587,0.000000,0.002000,-0.044000,-0.045000,-0.110000,-0.440000,2.430000,-0.371455,Hold,0.531250,0.000000,Hold,-108.000000,2.000000,LowGoal,1402.500000,-1454.545455,Speed,1395.000000,-1454.545455,Speed,Off,Off0.000000,0,,,,
04:36:08.734 PM 03/19/2016,Teleop Enabled,8,FALSE,0,NO ERROR,-0.315613,0.044917,-0.315613,-0.077000,TRUE,FALSE,TRUE,TRUE,TRUE,FALSE,PID,0.190625,-7.815625,7.715625,TRUE,-25.841125,6.966583,0.000000,0.053467,-0.018555,0.000000,0.002000,-0.044000,-0.045000,-0.110000,-0.440000,2.430000,-0.349433,Hold,0.531250,0.000000,Hold,-108.000000,2.000000,LowGoal,1410.000000,-1454.545455,Speed,1395.000000,-1454.545455,Speed,Off,Off0.000000,0,,,,
04:36:08.835 PM 03/19/2016,Teleop Enabled,10,FALSE,0,NO ERROR,0.000000,0.211750,-0.000000,-0.295166,TRUE,FALSE,TRUE,TRUE,TRUE,FALSE,Suspended,0.190625,-7.815625,7.715625,TRUE,-25.837204,6.966980,0.000000,0.036362,0.078506,0.000000,-0.111000,-0.058000,-0.343000,0.470000,-0.400000,2.660000,0.306687,Hold,0.536621,0.000000,Hold,-108.000000,2.000000,LowGoal,1402.500000,-1454.545455,Speed,1402.500000,-1454.545455,Speed,Off,Off0.000000,0,,,,
04:36:08.936 PM 03/19/2016,Teleop Enabled,11,FALSE,0,NO ERROR,-0.000000,0.160416,0.000000,-0.224583,TRUE,FALSE,TRUE,FALSE,FALSE,FALSE,Suspended,0.190625,-7.815625,7.715625,TRUE,-25.837723,6.969543,0.000000,-0.022781,0.028244,0.000000,0.063000,0.098000,-0.076000,0.470000,-0.400000,2.660000,0.236135,Hold,0.834717,0.000000,Hold,-107.000000,2.000000,LowGoal,1387.500000,-1454.545455,Speed,1380.000000,-1454.545455,Speed,Off,Off0.000000,0,,,,
04:36:09.035 PM 03/19/2016,Teleop Enabled,9,FALSE,0,NO ERROR,-0.000000,0.160416,0.000000,-0.186083,TRUE,FALSE,TRUE,FALSE,FALSE,FALSE,Enable,0.190625,-7.815625,8.275625,TRUE,-25.838348,6.972870,0.000000,0.000000,0.072510,0.000000,0.063000,0.098000,-0.076000,0.470000,-0.510000,2.380000,0.221962,Hold,0.834717,0.000000,Hold,-86.000000,2.000000,LowGoal,1395.000000,-1454.545455,Speed,1387.500000,-1454.545455,Speed,Off,Off0.000000,0,,,,
04:36:09.135 PM 03/19/2016,Teleop Enabled,11,FALSE,0,NO ERROR,-0.000000,0.160416,0.000000,-0.186083,TRUE,FALSE,TRUE,FALSE,FALSE,FALSE,PID,0.190625,-7.815625,8.275625,TRUE,-25.838181,6.977310,0.000000,-0.000198,0.080811,0.000000,0.027000,0.003000,-0.011000,0.440000,-0.500000,2.520000,0.175471,Hold,0.834717,0.000000,Hold,-114.000000,2.000000,LowGoal,1402.500000,-1454.545455,Speed,1395.000000,-1454.545455,Speed,Off,Off0.000000,0,,,,
04:36:09.236 PM 03/19/2016,Teleop Enabled,10,FALSE,0,NO ERROR,-0.000000,0.160416,0.000000,-0.186083,TRUE,FALSE,TRUE,FALSE,FALSE,FALSE,Suspended,0.190625,-7.815625,8.275625,TRUE,-25.837524,6.980423,0.000000,0.018570,0.056808,0.000000,0.044000,-0.070000,-0.011000,0.440000,-0.500000,2.520000,0.187406,Hold,0.834717,0.000000,Hold,-114.000000,2.000000,LowGoal,1402.500000,-1454.545455,Speed,1402.500000,-1454.545455,Speed,Off,Off0.000000,0,,,,
04:36:09.336 PM 03/19/2016,Teleop Enabled,9,FALSE,0,NO ERROR,-0.000000,0.160416,0.000000,-0.186083,TRUE,FALSE,TRUE,FALSE,FALSE,FALSE,Suspended,0.190625,-7.815625,8.275625,TRUE,-25.836380,6.982910,0.000000,0.022812,0.053543,0.000000,0.036000,0.046000,0.076000,0.460000,-0.510000,2.490000,0.179426,Hold,0.834717,0.000000,Hold,-114.000000,2.000000,LowGoal,1395.000000,-1454.545455,Speed,1395.000000,-1454.545455,Speed,Off,Off0.000000,0,,,,
04:36:09.436 PM 03/19/2016,Teleop Enabled,10,FALSE,0,NO ERROR,-0.000000,0.160416,0.000000,-0.186083,TRUE,FALSE,TRUE,FALSE,FALSE,FALSE,Suspended,0.190625,-7.815625,8.275625,TRUE,-25.834885,6.985443,0.000000,0.039093,0.048233,0.000000,-0.082000,0.084000,0.095000,0.450000,-0.480000,2.470000,0.164048,Hold,0.834717,0.000000,Hold,-114.000000,2.000000,LowGoal,1402.500000,-1454.545455,Speed,1387.500000,-1454.545455,Speed,Off,Off0.000000,0,,,,
04:36:09.537 PM 03/19/2016,Teleop Enabled,10,FALSE,0,NO ERROR,-0.000000,0.160416,0.000000,-0.179666,TRUE,FALSE,TRUE,FALSE,FALSE,FALSE,Suspended,0.190625,-7.815625,8.275625,TRUE,-25.833282,6.987640,0.000000,0.028778,0.048569,0.000000,-0.014000,0.018000,0.069000,0.440000,-0.450000,2.460000,0.154065,Hold,0.834717,0.000000,HighGoal,-114.000000,69632.000000,HighGoal,1402.500000,-3272.727273,Speed,1395.000000,-3272.727273,Speed,Off,Off0.000000,0,,,,
04:36:09.636 PM 03/19/2016,Teleop Enabled,11,FALSE,0,NO ERROR,-0.000000,0.160416,0.000000,-0.121916,TRUE,FALSE,TRUE,FALSE,FALSE,FALSE,Suspended,0.190625,-7.815625,8.275625,TRUE,-25.833282,6.987640,0.000000,0.028778,0.048569,0.000000,-0.032000,0.069000,0.093000,0.450000,-0.480000,2.480000,0.144718,Hold,0.834717,0.000000,Hold,-3307.000000,69632.000000,HighGoal,1432.500000,-3272.727273,Speed,1432.500000,-3272.727273,Speed,Off,Off0.000000,0,,,,
04:36:09.736 PM 03/19/2016,Teleop Enabled,11,FALSE,0,NO ERROR,-0.000000,0.160416,0.000000,-0.121916,TRUE,FALSE,TRUE,FALSE,FALSE,FALSE,Suspended,0.190625,-7.815625,8.275625,TRUE,-25.832230,6.990204,0.000000,0.036697,0.056625,0.000000,0.088000,0.010000,0.048000,0.440000,-0.560000,2.480000,0.099696,Hold,0.834717,0.000000,HighGoal,-13427.000000,69632.000000,HighGoal,1777.500000,-3272.727273,Speed,1800.000000,-3272.727273,Speed,Off,Off0.000000,0,,,,
04:36:09.837 PM 03/19/2016,Teleop Enabled,10,FALSE,0,NO ERROR,-0.000000,0.160416,0.000000,-0.121916,TRUE,FALSE,TRUE,FALSE,FALSE,FALSE,Suspended,0.175000,-7.815625,8.275625,TRUE,-25.829208,6.990891,0.000000,0.071442,0.006180,0.000000,-0.022000,0.120000,0.068000,0.390000,-0.520000,2.470000,0.119164,Hold,0.834717,0.000000,Hold,-13427.000000,69632.000000,HighGoal,2190.000000,-3272.727273,Speed,2227.500000,-3272.727273,Speed,Off,Off0.000000,0,,,,
04:36:09.938 PM 03/19/2016,Teleop Enabled,9,FALSE,0,NO ERROR,-0.000000,0.160416,0.000000,-0.121916,TRUE,FALSE,TRUE,FALSE,FALSE,FALSE,Enable,0.175000,-7.175000,7.575000,TRUE,-25.826721,6.995667,0.000000,0.035797,0.157120,0.000000,0.177000,-0.326000,-0.277000,0.410000,-0.550000,2.540000,0.119164,Hold,0.834717,0.000000,HighGoal,-26931.000000,69632.000000,HighGoal,2512.500000,-3272.727273,Speed,2505.000000,-3272.727273,Speed,Off,Off0.000000,0,,,,
04:36:10.039 PM 03/19/2016,Teleop Enabled,10,FALSE,0,NO ERROR,-0.000000,0.160416,0.000000,-0.121916,TRUE,FALSE,TRUE,FALSE,FALSE,FALSE,PID,0.175000,-7.175000,7.575000,TRUE,-25.822632,7.002106,0.000000,0.082413,0.093750,0.000000,0.263000,-0.106000,0.063000,0.400000,-0.640000,2.570000,0.098423,Hold,0.836426,0.000000,Hold,-41891.000000,69632.000000,HighGoal,2775.000000,-3272.727273,Speed,2790.000000,-3272.727273,Speed,Off,Off0.000000,0,,,,
04:36:10.139 PM 03/19/2016,Teleop Enabled,10,FALSE,0,NO ERROR,-0.000000,0.012833,0.000000,-0.230999,TRUE,FALSE,TRUE,FALSE,FALSE,FALSE,Suspended,0.175000,-7.175000,7.575000,TRUE,-25.819733,7.004730,0.000000,0.042404,0.000000,0.000000,0.056000,0.132000,0.252000,0.300000,-0.310000,2.470000,-0.009691,Hold,0.884521,0.000000,Hold,-55308.000000,69632.000000,HighGoal,2977.500000,-3272.727273,Speed,3007.500000,-3272.727273,Speed,Off,Off0.000000,0,,,,
04:36:10.239 PM 03/19/2016,Teleop Enabled,11,FALSE,0,NO ERROR,-0.000000,-0.006417,0.000000,-0.250249,TRUE,FALSE,TRUE,FALSE,FALSE,FALSE,Suspended,0.175000,-7.175000,7.575000,TRUE,-25.817566,7.005081,0.000000,0.038361,-0.017181,0.000000,-0.076000,-0.076000,0.195000,0.310000,-0.220000,2.420000,-0.014304,Hold,0.921631,0.000000,Hold,-65062.000000,69632.000000,HighGoal,3127.500000,-3272.727273,Speed,3187.500000,-3272.727273,Speed,Off,Off0.000000,0,,,,
04:36:10.339 PM 03/19/2016,Teleop Enabled,9,FALSE,0,NO ERROR,-0.000000,-0.025667,0.000000,-0.275916,TRUE,FALSE,TRUE,FALSE,FALSE,FALSE,Suspended,0.175000,-7.175000,7.575000,TRUE,-25.812042,7.004562,0.000000,0.169769,-0.005219,0.000000,0.155000,0.023000,0.212000,0.310000,-0.150000,2.430000,-0.010823,Hold,1.003174,0.000000,Hold,-69617.000000,69632.000000,HighGoal,3187.500000,-3272.727273,Speed,3232.500000,-3272.727273,Speed,Off,Off0.000000,0,,,,
04:36:10.440 PM 03/19/2016,Teleop Enabled,10,FALSE,0,NO ERROR,-0.000000,-0.057750,0.000000,-0.307999,TRUE,FALSE,TRUE,FALSE,FALSE,FALSE,Suspended,0.175000,-7.175000,7.575000,TRUE,-25.800430,7.005478,0.000000,0.249741,0.042221,0.000000,-0.119000,-0.121000,-0.219000,0.310000,-0.180000,2.470000,-0.032360,Hold,1.003174,0.000000,Hold,-69462.000000,69632.000000,HighGoal,3180.000000,-3272.727273,Speed,3210.000000,-3272.727273,Speed,Off,Off0.000000,0,,,,
04:36:10.541 PM 03/19/2016,Teleop Enabled,10,FALSE,0,NO ERROR,-0.000000,-0.064167,0.000000,-0.314416,TRUE,FALSE,TRUE,FALSE,FALSE,FALSE,Suspended,0.175000,-7.175000,7.575000,TRUE,-25.790726,7.006302,0.000000,0.155624,0.005920,0.000000,-0.060000,-0.123000,0.017000,0.310000,-0.210000,2.430000,-0.023640,Hold,1.003174,0.000000,Hold,-69462.000000,69632.000000,HighGoal,3172.500000,-3272.727273,Speed,3202.500000,-3272.727273,Speed,Off,Off0.000000,0,,,,
04:36:10.642 PM 03/19/2016,Teleop Enabled,10,FALSE,0,NO ERROR,-0.000000,-0.064167,0.000000,-0.314416,TRUE,FALSE,TRUE,FALSE,FALSE,FALSE,Suspended,0.175000,-7.175000,7.575000,TRUE,-25.783676,7.006165,0.000000,0.152313,0.009415,0.000000,0.045000,0.114000,0.058000,0.300000,-0.230000,2.440000,-0.026783,Hold,1.003174,0.000000,Hold,-69463.000000,69632.000000,HighGoal,3180.000000,-3272.727273,Speed,3210.000000,-3272.727273,Speed,Off,Off0.000000,0,,,,
04:36:10.742 PM 03/19/2016,Teleop Enabled,10,FALSE,0,NO ERROR,-0.000000,-0.070583,0.000000,-0.314416,TRUE,FALSE,TRUE,FALSE,FALSE,FALSE,Suspended,0.175000,-7.175000,7.575000,TRUE,-25.773636,7.007294,0.000000,0.226776,0.030716,0.000000,0.111000,0.128000,0.165000,0.300000,-0.230000,2.410000,-0.030535,Hold,1.003174,0.000000,Hold,-69464.000000,69632.000000,HighGoal,3180.000000,-3272.727273,Speed,3210.000000,-3272.727273,Speed,Off,Off0.000000,0,,,,
04:36:10.843 PM 03/19/2016,Teleop Disabled,10,FALSE,0,NO ERROR,-0.000000,-0.070583,0.000000,-0.314416,TRUE,FALSE,TRUE,FALSE,FALSE,FALSE,Suspended,0.175000,-7.175000,7.575000,TRUE,-25.761963,7.008926,0.000000,0.222244,0.025024,0.000000,-0.132000,-0.294000,-0.145000,0.300000,-0.200000,2.440000,-0.039820,Hold,1.003174,0.000000,Hold,-69465.000000,69632.000000,HighGoal,3180.000000,-3272.727273,Speed,3210.000000,-3272.727273,Speed,Off,Off0.000000,0,,,,
04:36:10.943 PM 03/19/2016,Teleop Disabled,10,FALSE,0,NO ERROR,-0.000000,-0.070583,0.000000,-0.314416,TRUE,FALSE,TRUE,FALSE,FALSE,FALSE,Suspended,0.175000,-7.175000,7.575000,TRUE,-25.753616,7.009201,0.000000,0.136276,0.002457,0.000000,-0.109000,0.087000,0.011000,0.310000,-0.220000,2.390000,-0.041283,Hold,1.079834,0.000000,Hold,-68993.000000,69632.000000,HighGoal,3135.000000,-3272.727273,Speed,3180.000000,-3272.727273,Speed,Off,Off0.000000,0,,,,
04:36:11.043 PM 03/19/2016,Teleop Disabled,10,FALSE,0,NO ERROR,-0.000000,-0.070583,0.000000,-0.314416,TRUE,FALSE,TRUE,FALSE,FALSE,FALSE,Suspended,0.175000,-7.175000,7.575000,TRUE,-25.746399,7.009277,0.000000,0.133850,-0.000214,0.000000,0.173000,-0.072000,-0.111000,0.300000,-0.280000,2.410000,-0.053270,Hold,1.079834,0.000000,Hold,-67191.000000,69632.000000,HighGoal,2955.000000,-3272.727273,Speed,3007.500000,-3272.727273,Speed,Off,Off0.000000,0,,,,
04:36:11.144 PM 03/19/2016,Teleop Disabled,10,FALSE,0,NO ERROR,-0.000000,-0.070583,0.000000,-0.314416,TRUE,FALSE,TRUE,FALSE,FALSE,FALSE,Suspended,0.175000,-7.175000,7.575000,TRUE,-25.739380,7.008530,0.000000,0.149765,-0.017761,0.000000,-0.144000,0.006000,0.169000,0.310000,-0.290000,2.450000,-0.071165,Hold,1.079834,0.000000,Hold,-67191.000000,69632.000000,HighGoal,2685.000000,-3272.727273,Speed,2797.500000,-3272.727273,Speed,Off,Off0.000000,0,,,,
04:36:11.245 PM 03/19/2016,Teleop Disabled,10,FALSE,0,NO ERROR,-0.000000,-0.070583,0.000000,-0.314416,TRUE,FALSE,TRUE,FALSE,FALSE,FALSE,Suspended,0.175000,-7.175000,7.575000,TRUE,-25.732803,7.008209,0.000000,0.127289,-0.014282,0.000000,0.109000,-0.191000,0.071000,0.300000,-0.310000,2.450000,-0.085641,Hold,1.079834,0.000000,Hold,-67075.000000,69632.000000,HighGoal,2437.500000,-3272.727273,Speed,2602.500000,-3272.727273,Speed,Off,Off0.000000,0,,,,
04:36:11.346 PM 03/19/2016,Teleop Disabled,10,FALSE,0,NO ERROR,-0.000000,-0.070583,0.000000,-0.314416,TRUE,FALSE,TRUE,FALSE,FALSE,FALSE,Suspended,0.175000,-7.175000,7.575000,TRUE,-25.724686,7.006607,0.000000,0.102997,0.039383,0.000000,-0.064000,0.124000,-0.161000,0.310000,-0.300000,2.440000,-0.073660,Hold,1.079834,0.000000,Hold,-67075.000000,69632.000000,HighGoal,2227.500000,-3272.727273,Speed,2430.000000,-3272.727273,Speed,Off,Off0.000000,0,,,,
04:36:11.447 PM 03/19/2016,Teleop Disabled,11,FALSE,0,NO ERROR,-0.000000,-0.057750,0.000000,-0.314416,TRUE,FALSE,TRUE,FALSE,FALSE,FALSE,Suspended,0.175000,-7.175000,7.575000,TRUE,-25.723770,7.007935,0.000000,-0.003845,0.003189,0.000000,0.048000,-0.033000,0.050000,0.300000,-0.330000,2.460000,-0.080101,Hold,1.079834,0.000000,Hold,-67075.000000,69632.000000,HighGoal,2017.500000,-3272.727273,Speed,2220.000000,-3272.727273,Speed,Off,Off0.000000,0,,,,
04:36:11.546 PM 03/19/2016,Teleop Disabled,10,FALSE,0,NO ERROR,-0.000000,-0.051333,0.000000,-0.314416,TRUE,FALSE,TRUE,FALSE,FALSE,FALSE,Suspended,0.175000,-7.175000,7.575000,TRUE,-25.724274,7.006577,0.000000,-0.009933,-0.036285,0.000000,-0.021000,-0.016000,0.009000,0.310000,-0.310000,2.470000,-0.081523,Hold,1.079834,0.000000,Hold,-67075.000000,69632.000000,HighGoal,1852.500000,-3272.727273,Speed,2017.500000,-3272.727273,Speed,Off,Off0.000000,0,,,,
04:36:11.646 PM 03/19/2016,Teleop Disabled,10,FALSE,0,NO ERROR,-0.000000,-0.051333,0.000000,-0.314416,TRUE,FALSE,TRUE,FALSE,FALSE,FALSE,Suspended,0.175000,-7.175000,7.575000,TRUE,-25.724228,7.006104,0.000000,0.000000,-0.005447,0.000000,0.067000,0.015000,0.041000,0.310000,-0.310000,2.440000,-0.092443,Hold,1.079834,0.000000,Hold,-67075.000000,69632.000000,HighGoal,1620.000000,-3272.727273,Speed,1815.000000,-3272.727273,Speed,Off,Off0.000000,0,,,,
04:36:11.746 PM 03/19/2016,Teleop Disabled,10,FALSE,0,NO ERROR,-0.000000,-0.051333,0.000000,-0.314416,TRUE,FALSE,TRUE,FALSE,FALSE,FALSE,Suspended,0.175000,-7.175000,7.575000,TRUE,-25.724060,7.006165,0.000000,0.000000,-0.002365,0.000000,0.006000,-0.024000,0.000000,0.310000,-0.300000,2.450000,-0.089627,Hold,1.079834,0.000000,Hold,-67075.000000,69632.000000,HighGoal,1477.500000,-3272.727273,Speed,1642.500000,-3272.727273,Speed,Off,Off0.000000,0,,,,
04:36:11.846 PM 03/19/2016,Teleop Disabled,7,FALSE,0,NO ERROR,-0.000000,-0.051333,0.000000,-0.314416,TRUE,FALSE,TRUE,FALSE,FALSE,FALSE,Suspended,0.175000,-7.175000,7.575000,TRUE,-25.724319,7.005890,0.000000,-0.003357,-0.003693,0.000000,-0.018000,-0.051000,-0.025000,0.300000,-0.280000,2.430000,-0.081141,Hold,1.079834,0.000000,Hold,-67075.000000,69632.000000,HighGoal,1305.000000,-3272.727273,Speed,1507.500000,-3272.727273,Speed,Off,Off0.000000,0,,,,
04:36:11.946 PM 03/19/2016,Teleop Disabled,10,FALSE,0,NO ERROR,-0.000000,-0.051333,0.000000,-0.314416,TRUE,FALSE,TRUE,FALSE,FALSE,FALSE,Suspended,0.175000,-7.175000,7.575000,TRUE,-25.724442,7.005692,0.000000,0.003326,-0.006256,0.000000,0.003000,0.081000,0.029000,0.300000,-0.260000,2.440000,-0.064562,Hold,1.079834,0.000000,Hold,-67075.000000,69632.000000,HighGoal,1147.500000,-3272.727273,Speed,1357.500000,-3272.727273,Speed,Off,Off0.000000,0,,,,
04:36:12.046 PM 03/19/2016,Teleop Disabled,10,FALSE,0,NO ERROR,-0.000000,-0.051333,0.000000,-0.314416,TRUE,FALSE,TRUE,FALSE,FALSE,FALSE,Suspended,0.175000,-7.175000,7.575000,TRUE,-25.725052,7.006226,0.000000,-0.018158,-0.003403,0.000000,-0.006000,-0.104000,0.090000,0.300000,-0.300000,2.440000,-0.066885,Hold,1.079834,0.000000,Hold,-67075.000000,69632.000000,HighGoal,975.000000,-3272.727273,Speed,1192.500000,-3272.727273,Speed,Off,Off0.000000,0,,,,
04:36:12.146 PM 03/19/2016,Teleop Disabled,10,FALSE,0,NO ERROR,-0.000000,-0.051333,0.000000,-0.314416,TRUE,FALSE,TRUE,FALSE,FALSE,FALSE,Suspended,0.175000,-7.175000,7.575000,TRUE,-25.726135,7.004852,0.000000,-0.029144,-0.030106,0.000000,-0.001000,0.065000,-0.043000,0.300000,-0.290000,2.420000,-0.057036,Hold,1.079834,0.000000,Hold,-67075.000000,69632.000000,HighGoal,810.000000,-3272.727273,Speed,1042.500000,-3272.727273,Speed,Off,Off0.000000,0,,,,
04:36:12.246 PM 03/19/2016,Teleop Disabled,10,FALSE,0,NO ERROR,-0.000000,-0.051333,0.000000,-0.314416,TRUE,FALSE,TRUE,FALSE,FALSE,FALSE,Suspended,0.175000,-7.175000,7.575000,TRUE,-25.727997,7.004349,0.000000,-0.036514,-0.005386,0.000000,-0.012000,-0.103000,0.024000,0.300000,-0.280000,2.440000,-0.072814,Hold,1.079834,0.000000,Hold,-67075.000000,69632.000000,HighGoal,645.000000,-3272.727273,Speed,892.500000,-3272.727273,Speed,Off,Off0.000000,0,,,,
04:36:12.347 PM 03/19/2016,Teleop Disabled,9,FALSE,0,NO ERROR,-0.000000,-0.051333,0.000000,-0.314416,TRUE,FALSE,TRUE,FALSE,FALSE,FALSE,Suspended,0.175000,-7.175000,7.575000,TRUE,-25.728699,7.003204,0.000000,0.000000,-0.024155,0.000000,0.011000,-0.024000,-0.076000,0.300000,-0.320000,2.460000,-0.064548,Hold,1.079834,0.000000,Hold,-67075.000000,69632.000000,HighGoal,532.500000,-3272.727273,Speed,750.000000,-3272.727273,Speed,Off,Off0.000000,0,,,,
04:36:12.447 PM 03/19/2016,Teleop Disabled,10,FALSE,0,NO ERROR,-0.000000,-0.051333,0.000000,-0.314416,TRUE,FALSE,TRUE,FALSE,FALSE,FALSE,Suspended,0.175000,-7.175000,7.575000,TRUE,-25.728592,7.001770,0.000000,0.000000,-0.032486,0.000000,-0.008000,0.018000,0.027000,0.290000,-0.320000,2.450000,-0.063725,Hold,1.079834,0.000000,Hold,-67075.000000,69632.000000,HighGoal,315.000000,-3272.727273,Speed,615.000000,-3272.727273,Speed,Off,Off0.000000,0,,,,
04:36:12.547 PM 03/19/2016,Teleop Disabled,9,FALSE,0,NO ERROR,-0.000000,-0.051333,0.000000,-0.314416,TRUE,FALSE,TRUE,FALSE,FALSE,FALSE,Suspended,0.175000,-7.175000,7.575000,TRUE,-25.728790,7.000580,0.000000,0.000000,-0.022736,0.000000,0.001000,-0.019000,0.052000,0.300000,-0.310000,2.450000,-0.067336,Hold,1.079834,0.000000,Hold,-67075.000000,69632.000000,HighGoal,195.000000,-3272.727273,Speed,487.500000,-3272.727273,Speed,Off,Off0.000000,0,,,,
04:36:12.648 PM 03/19/2016,Teleop Disabled,9,FALSE,0,NO ERROR,-0.000000,-0.051333,0.000000,-0.314416,TRUE,FALSE,TRUE,FALSE,FALSE,FALSE,Suspended,0.175000,-7.175000,7.575000,TRUE,-25.728790,6.999100,0.000000,0.000000,-0.025360,0.000000,-0.007000,-0.012000,0.039000,0.300000,-0.320000,2.450000,-0.070249,Hold,1.079834,0.000000,Hold,-67075.000000,69632.000000,HighGoal,22.500000,-3272.727273,Speed,352.500000,-3272.727273,Speed,Off,Off0.000000,0,,,,
04:36:12.749 PM 03/19/2016,Teleop Disabled,6,FALSE,0,NO ERROR,-0.000000,-0.051333,0.000000,-0.314416,TRUE,FALSE,TRUE,FALSE,FALSE,FALSE,Suspended,0.175000,-7.175000,7.575000,TRUE,-25.728668,6.998550,0.000000,0.004059,-0.006302,0.000000,0.000000,0.000000,0.014000,0.300000,-0.320000,2.440000,-0.071096,Hold,1.079834,0.000000,Hold,-67075.000000,69632.000000,HighGoal,0.000000,-3272.727273,Speed,210.000000,-3272.727273,Speed,Off,Off0.000000,0,,,,
04:36:12.849 PM 03/19/2016,Teleop Disabled,9,FALSE,0,NO ERROR,-0.000000,-0.051333,0.000000,-0.314416,TRUE,FALSE,TRUE,FALSE,FALSE,FALSE,Suspended,0.175000,-7.175000,7.575000,TRUE,-25.728668,6.998489,0.000000,0.000000,0.000000,0.000000,-0.001000,0.000000,0.022000,0.300000,-0.330000,2.450000,-0.088405,Hold,1.079834,0.000000,Hold,-67075.000000,69632.000000,HighGoal,0.000000,-3272.727273,Speed,105.000000,-3272.727273,Speed,Off,Off0.000000,0,,,,
04:36:12.949 PM 03/19/2016,Teleop Disabled,10,FALSE,0,NO ERROR,-0.000000,-0.051333,0.000000,-0.314416,TRUE,FALSE,TRUE,FALSE,FALSE,FALSE,Suspended,0.175000,-7.175000,7.575000,TRUE,-25.728668,6.998489,0.000000,0.000000,0.000000,0.000000,0.005000,0.000000,0.023000,0.300000,-0.330000,2.440000,-0.090705,Hold,1.079834,0.000000,Hold,-67075.000000,69632.000000,HighGoal,0.000000,-3272.727273,Speed,7.500000,-3272.727273,Speed,Off,Off0.000000,0,,,,
04:36:13.051 PM 03/19/2016,Teleop Disabled,10,FALSE,0,NO ERROR,-0.000000,-0.051333,0.000000,-0.314416,TRUE,TRUE,TRUE,FALSE,FALSE,FALSE,Suspended,0.175000,-7.175000,7.575000,TRUE,-25.728668,6.998489,0.000000,0.000000,0.000000,0.000000,0.001000,0.006000,0.016000,0.300000,-0.330000,2.450000,-0.078122,Hold,1.079834,0.000000,Hold,-67075.000000,69632.000000,HighGoal,0.000000,-3272.727273,Speed,0.000000,-3272.727273,Speed,Off,Off0.000000,0,,,,
04:36:13.152 PM 03/19/2016,Teleop Disabled,11,FALSE,0,NO ERROR,-0.000000,-0.051333,0.000000,-0.314416,TRUE,TRUE,TRUE,FALSE,FALSE,FALSE,Suspended,0.175000,-7.175000,7.575000,TRUE,-25.728668,6.998489,0.000000,0.000000,0.000000,0.000000,0.000000,-0.001000,0.015000,0.300000,-0.330000,2.450000,-0.060038,Hold,1.079834,0.000000,Hold,-67075.000000,69632.000000,HighGoal,0.000000,0.000000,Speed,0.000000,0.000000,Speed,Off,Off0.000000,0,,,,
04:36:13.252 PM 03/19/2016,Teleop Disabled,10,FALSE,0,NO ERROR,-0.000000,-0.051333,0.000000,-0.314416,TRUE,FALSE,TRUE,FALSE,FALSE,FALSE,Suspended,0.175000,-7.175000,7.575000,TRUE,-25.728668,6.998489,0.000000,0.000000,0.000000,0.000000,0.001000,-0.001000,0.020000,0.300000,-0.330000,2.450000,-0.072814,Hold,1.079834,0.000000,Hold,-67075.000000,69632.000000,HighGoal,0.000000,0.000000,Speed,0.000000,0.000000,Speed,Off,Off0.000000,0,,,,
04:36:13.353 PM 03/19/2016,Teleop Disabled,10,FALSE,0,NO ERROR,-0.000000,-0.051333,0.000000,-0.314416,TRUE,FALSE,TRUE,FALSE,FALSE,FALSE,Suspended,0.175000,-7.175000,7.575000,TRUE,-25.728668,6.998489,0.000000,0.000000,0.000000,0.000000,0.001000,0.000000,0.018000,0.300000,-0.340000,2.450000,-0.087451,Hold,1.079834,0.000000,Hold,-67075.000000,69632.000000,HighGoal,0.000000,-3272.727273,Speed,0.000000,-3272.727273,Speed,Off,Off0.000000,0,,,,
04:36:13.454 PM 03/19/2016,Teleop Disabled,10,FALSE,0,NO ERROR,-0.000000,-0.051333,0.000000,-0.314416,TRUE,FALSE,TRUE,FALSE,FALSE,FALSE,Suspended,0.175000,-7.175000,7.575000,TRUE,-25.728668,6.998489,0.000000,0.000000,0.000000,0.000000,0.000000,-0.002000,0.020000,0.300000,-0.330000,2.440000,-0.085203,Hold,1.079834,0.000000,Hold,-67075.000000,69632.000000,HighGoal,0.000000,-3272.727273,Speed,0.000000,-3272.727273,Speed,Off,Off0.000000,0,,,,
04:36:13.558 PM 03/19/2016,Teleop Disabled,10,FALSE,0,NO ERROR,-0.000000,-0.051333,0.000000,-0.314416,TRUE,FALSE,TRUE,FALSE,FALSE,FALSE,Suspended,0.175000,-7.175000,7.575000,TRUE,-25.728668,6.998489,0.000000,0.000000,0.000000,0.000000,-0.001000,-0.001000,0.018000,0.300000,-0.330000,2.440000,-0.063219,Hold,1.079834,0.000000,Hold,-67075.000000,69632.000000,HighGoal,0.000000,-3272.727273,Speed,0.000000,-3272.727273,Speed,Off,Off0.000000,0,,,,
04:36:13.658 PM 03/19/2016,Teleop Disabled,10,FALSE,0,NO ERROR,-0.000000,-0.051333,0.000000,-0.314416,TRUE,FALSE,TRUE,FALSE,FALSE,FALSE,Suspended,0.175000,-7.175000,7.575000,TRUE,-25.728668,6.998489,0.000000,0.000000,0.000000,0.000000,-0.001000,0.000000,0.018000,0.300000,-0.340000,2.450000,-0.075437,Hold,1.079834,0.000000,Hold,-67075.000000,69632.000000,HighGoal,0.000000,-3272.727273,Speed,0.000000,-3272.727273,Speed,Off,Off0.000000,0,,,,
04:36:13.759 PM 03/19/2016,Teleop Disabled,10,FALSE,0,NO ERROR,-0.000000,-0.051333,0.000000,-0.314416,TRUE,FALSE,TRUE,FALSE,FALSE,FALSE,Suspended,0.175000,-7.175000,7.575000,TRUE,-25.728668,6.998489,0.000000,0.000000,0.000000,0.000000,0.001000,-0.002000,0.018000,0.300000,-0.340000,2.440000,-0.095194,Hold,1.079834,0.000000,Hold,-67075.000000,69632.000000,HighGoal,0.000000,-3272.727273,Speed,0.000000,-3272.727273,Speed,Off,Off0.000000,0,,,,
04:36:13.860 PM 03/19/2016,Teleop Disabled,10,FALSE,0,NO ERROR,-0.000000,-0.051333,0.000000,-0.314416,TRUE,FALSE,TRUE,FALSE,FALSE,FALSE,Suspended,0.175000,-7.175000,7.575000,TRUE,-25.728668,6.998489,0.000000,0.000000,0.000000,0.000000,0.001000,0.001000,0.018000,0.300000,-0.340000,2.440000,-0.103118,Hold,1.079834,0.000000,Hold,-67075.000000,69632.000000,HighGoal,0.000000,-3272.727273,Speed,0.000000,-3272.727273,Speed,Off,Off0.000000,0,,,,
04:36:13.961 PM 03/19/2016,Teleop Disabled,10,FALSE,0,NO ERROR,-0.000000,-0.051333,0.000000,-0.314416,TRUE,TRUE,TRUE,FALSE,FALSE,FALSE,Suspended,0.175000,-7.175000,7.575000,TRUE,-25.728668,6.998489,0.000000,0.000000,0.000000,0.000000,-0.001000,0.000000,0.016000,0.300000,-0.340000,2.440000,-0.089231,Hold,1.079834,0.000000,Hold,-67075.000000,69632.000000,HighGoal,0.000000,-3272.727273,Speed,0.000000,-3272.727273,Speed,Off,Off0.000000,0,,,,
04:36:14.060 PM 03/19/2016,Teleop Disabled,10,FALSE,0,NO ERROR,-0.000000,-0.051333,0.000000,-0.314416,TRUE,TRUE,TRUE,FALSE,FALSE,FALSE,Suspended,0.175000,-7.175000,7.575000,TRUE,-25.728668,6.998489,0.000000,0.000000,0.000000,0.000000,0.000000,0.001000,0.015000,0.300000,-0.340000,2.450000,-0.074018,Hold,1.079834,0.000000,Hold,-67075.000000,69632.000000,HighGoal,0.000000,-3272.727273,Speed,0.000000,-3272.727273,Speed,Off,Off0.000000,0,,,,
04:36:14.161 PM 03/19/2016,Teleop Disabled,10,FALSE,0,NO ERROR,-0.000000,-0.051333,0.000000,-0.314416,TRUE,FALSE,TRUE,FALSE,FALSE,FALSE,Suspended,0.175000,-7.175000,7.575000,TRUE,-25.728668,6.998489,0.000000,0.000000,0.000000,0.000000,-0.002000,-0.001000,0.017000,0.300000,-0.340000,2.450000,-0.083730,Hold,1.079834,0.000000,Hold,-67075.000000,69632.000000,HighGoal,0.000000,0.000000,Speed,0.000000,0.000000,Speed,Off,Off0.000000,0,,,,
04:36:14.263 PM 03/19/2016,Teleop Disabled,13,FALSE,0,NO ERROR,-0.000000,-0.051333,0.000000,-0.314416,TRUE,FALSE,TRUE,FALSE,FALSE,FALSE,Suspended,0.175000,-7.175000,7.575000,TRUE,-25.728668,6.998489,0.000000,0.000000,0.000000,0.000000,-0.001000,0.001000,0.016000,0.300000,-0.340000,2.450000,-0.092942,Hold,1.079834,0.000000,Hold,-67075.000000,69632.000000,HighGoal,0.000000,-3272.727273,Speed,0.000000,-3272.727273,Speed,Off,Off0.000000,0,,,,
04:36:14.364 PM 03/19/2016,Teleop Disabled,11,FALSE,0,NO ERROR,-0.000000,-0.051333,0.000000,-0.314416,TRUE,FALSE,TRUE,FALSE,FALSE,FALSE,Suspended,0.175000,-7.175000,7.575000,TRUE,-25.728668,6.998489,0.000000,0.000000,0.000000,0.000000,-0.002000,0.000000,0.016000,0.290000,-0.340000,2.450000,-0.083510,Hold,1.079834,0.000000,Hold,-67075.000000,69632.000000,HighGoal,0.000000,-3272.727273,Speed,0.000000,-3272.727273,Speed,Off,Off0.000000,0,,,,
04:36:14.465 PM 03/19/2016,Teleop Disabled,9,FALSE,0,NO ERROR,-0.000000,-0.051333,0.000000,-0.314416,TRUE,FALSE,TRUE,FALSE,FALSE,FALSE,Suspended,0.175000,-7.175000,7.575000,TRUE,-25.728668,6.998489,0.000000,0.000000,0.000000,0.000000,0.000000,0.000000,0.017000,0.290000,-0.340000,2.460000,-0.069901,Hold,1.079834,0.000000,Hold,-67075.000000,69632.000000,HighGoal,0.000000,-3272.727273,Speed,0.000000,-3272.727273,Speed,Off,Off0.000000,0,,,,
04:36:14.565 PM 03/19/2016,Teleop Disabled,10,FALSE,0,NO ERROR,-0.000000,-0.051333,0.000000,-0.314416,TRUE,FALSE,TRUE,FALSE,FALSE,FALSE,Suspended,0.175000,-7.175000,7.575000,TRUE,-25.728668,6.998489,0.000000,0.000000,0.000000,0.000000,-0.002000,0.000000,0.018000,0.290000,-0.340000,2.460000,-0.066903,Hold,1.079834,0.000000,Hold,-67075.000000,69632.000000,HighGoal,0.000000,-3272.727273,Speed,0.000000,-3272.727273,Speed,Off,Off0.000000,0,,,,
04:36:14.666 PM 03/19/2016,Teleop Disabled,10,FALSE,0,NO ERROR,-0.000000,-0.051333,0.000000,-0.314416,TRUE,FALSE,TRUE,FALSE,FALSE,FALSE,Suspended,0.175000,-7.175000,7.575000,TRUE,-25.728668,6.998489,0.000000,0.000000,0.000000,0.000000,0.002000,0.000000,0.018000,0.290000,-0.340000,2.460000,-0.064992,Hold,1.079834,0.000000,Hold,-67075.000000,69632.000000,HighGoal,0.000000,-3272.727273,Speed,0.000000,-3272.727273,Speed,Off,Off0.000000,0,,,,
04:36:14.766 PM 03/19/2016,Teleop Disabled,10,FALSE,0,NO ERROR,-0.000000,-0.051333,0.000000,-0.314416,TRUE,TRUE,TRUE,FALSE,FALSE,FALSE,Suspended,0.175000,-7.175000,7.575000,TRUE,-25.728668,6.998489,0.000000,0.000000,0.000000,0.000000,0.001000,-0.001000,0.017000,0.290000,-0.340000,2.460000,-0.057515,Hold,1.079834,0.000000,Hold,-67075.000000,69632.000000,HighGoal,0.000000,-3272.727273,Speed,0.000000,-3272.727273,Speed,Off,Off0.000000,0,,,,
04:36:14.866 PM 03/19/2016,Teleop Disabled,9,FALSE,0,NO ERROR,-0.000000,-0.051333,0.000000,-0.314416,TRUE,TRUE,TRUE,FALSE,FALSE,FALSE,Suspended,0.175000,-7.175000,7.575000,TRUE,-25.728668,6.998489,0.000000,0.000000,0.000000,0.000000,0.001000,0.000000,0.017000,0.290000,-0.340000,2.460000,-0.049191,Hold,1.079834,0.000000,Hold,-67075.000000,69632.000000,HighGoal,0.000000,-3272.727273,Speed,0.000000,-3272.727273,Speed,Off,Off0.000000,0,,,,
04:36:14.966 PM 03/19/2016,Teleop Disabled,10,FALSE,0,NO ERROR,-0.000000,-0.051333,0.000000,-0.314416,TRUE,TRUE,TRUE,FALSE,FALSE,FALSE,Suspended,0.175000,-7.175000,7.575000,TRUE,-25.728668,6.998489,0.000000,0.000000,0.000000,0.000000,0.001000,-0.005000,0.016000,0.290000,-0.340000,2.460000,-0.069657,Hold,1.079834,0.000000,Hold,-67075.000000,69632.000000,HighGoal,0.000000,0.000000,Speed,0.000000,0.000000,Speed,Off,Off0.000000,0,,,,
04:36:15.066 PM 03/19/2016,Teleop Disabled,10,FALSE,0,NO ERROR,-0.000000,-0.051333,0.000000,-0.314416,TRUE,FALSE,TRUE,FALSE,FALSE,FALSE,Suspended,0.175000,-7.175000,7.575000,TRUE,-25.728668,6.998489,0.000000,0.000000,0.000000,0.000000,0.000000,0.000000,0.018000,0.280000,-0.330000,2.460000,-0.074163,Hold,1.079834,0.000000,Hold,-67075.000000,69632.000000,HighGoal,0.000000,0.000000,Speed,0.000000,0.000000,Speed,Off,Off0.000000,0,,,,
04:36:15.166 PM 03/19/2016,Teleop Disabled,10,FALSE,0,NO ERROR,-0.000000,-0.051333,0.000000,-0.314416,TRUE,FALSE,TRUE,FALSE,FALSE,FALSE,Suspended,0.175000,-7.175000,7.575000,TRUE,-25.728668,6.998489,0.000000,0.000000,0.000000,0.000000,0.002000,0.000000,0.015000,0.280000,-0.330000,2.460000,-0.078697,Hold,1.079834,0.000000,Hold,-67075.000000,69632.000000,HighGoal,0.000000,-3272.727273,Speed,0.000000,-3272.727273,Speed,Off,Off0.000000,0,,,,
04:36:15.267 PM 03/19/2016,Teleop Disabled,10,FALSE,0,NO ERROR,-0.000000,-0.051333,0.000000,-0.314416,TRUE,FALSE,TRUE,FALSE,FALSE,FALSE,Suspended,0.175000,-7.175000,7.575000,TRUE,-25.728668,6.998489,0.000000,0.000000,0.000000,0.000000,0.000000,0.001000,0.020000,0.280000,-0.330000,2.460000,-0.073271,Hold,1.079834,0.000000,Hold,-67075.000000,69632.000000,HighGoal,0.000000,-3272.727273,Speed,0.000000,-3272.727273,Speed,Off,Off0.000000,0,,,,
04:36:15.367 PM 03/19/2016,Teleop Disabled,10,FALSE,0,NO ERROR,-0.000000,-0.051333,0.000000,-0.314416,TRUE,FALSE,TRUE,FALSE,FALSE,FALSE,Suspended,0.175000,-7.175000,7.575000,TRUE,-25.728668,6.998489,0.000000,0.000000,0.000000,0.000000,-0.001000,0.000000,0.017000,0.280000,-0.330000,2.460000,-0.065298,Hold,1.079834,0.000000,Hold,-67075.000000,69632.000000,HighGoal,0.000000,-3272.727273,Speed,0.000000,-3272.727273,Speed,Off,Off0.000000,0,,,,
04:36:15.467 PM 03/19/2016,Teleop Disabled,10,FALSE,0,NO ERROR,-0.000000,-0.051333,0.000000,-0.314416,TRUE,FALSE,TRUE,FALSE,FALSE,FALSE,Suspended,0.175000,-7.175000,7.575000,TRUE,-25.728668,6.998489,0.000000,0.000000,0.000000,0.000000,0.000000,0.000000,0.017000,0.280000,-0.330000,2.460000,-0.057601,Hold,1.079834,0.000000,Hold,-67075.000000,69632.000000,HighGoal,0.000000,-3272.727273,Speed,0.000000,-3272.727273,Speed,Off,Off0.000000,0,,,,
04:36:15.568 PM 03/19/2016,Teleop Disabled,11,FALSE,0,NO ERROR,-0.000000,-0.051333,0.000000,-0.314416,TRUE,FALSE,TRUE,FALSE,FALSE,FALSE,Suspended,0.175000,-7.175000,7.575000,TRUE,-25.728668,6.998489,0.000000,0.000000,0.000000,0.000000,0.001000,-0.002000,0.020000,0.280000,-0.330000,2.460000,-0.056985,Hold,1.079834,0.000000,Hold,-67075.000000,69632.000000,HighGoal,0.000000,-3272.727273,Speed,0.000000,-3272.727273,Speed,Off,Off0.000000,0,,,,
04:36:15.669 PM 03/19/2016,Teleop Disabled,11,FALSE,0,NO ERROR,-0.000000,-0.051333,0.000000,-0.314416,TRUE,TRUE,TRUE,FALSE,FALSE,FALSE,Suspended,0.175000,-7.175000,7.575000,TRUE,-25.728668,6.998489,0.000000,0.000000,0.000000,0.000000,0.000000,0.000000,0.015000,0.280000,-0.330000,2.460000,-0.059938,Hold,1.079834,0.000000,Hold,-67075.000000,69632.000000,HighGoal,0.000000,-3272.727273,Speed,0.000000,-3272.727273,Speed,Off,Off0.000000,0,,,,
04:36:15.768 PM 03/19/2016,Teleop Disabled,10,FALSE,0,NO ERROR,-0.000000,-0.051333,0.000000,-0.314416,TRUE,TRUE,TRUE,FALSE,FALSE,FALSE,Suspended,0.175000,-7.175000,7.575000,TRUE,-25.728668,6.998489,0.000000,0.000000,0.000000,0.000000,-0.002000,0.001000,0.015000,0.280000,-0.330000,2.460000,-0.058758,Hold,1.079834,0.000000,Hold,-67075.000000,69632.000000,HighGoal,0.000000,0.000000,Speed,0.000000,0.000000,Speed,Off,Off0.000000,0,,,,
04:36:15.868 PM 03/19/2016,Teleop Disabled,11,FALSE,0,NO ERROR,-0.000000,-0.051333,0.000000,-0.314416,TRUE,FALSE,TRUE,FALSE,FALSE,FALSE,Suspended,0.175000,-7.175000,7.575000,TRUE,-25.728668,6.998489,0.000000,0.000000,0.000000,0.000000,-0.001000,-0.003000,0.016000,0.270000,-0.340000,2.470000,-0.059264,Hold,1.079834,0.000000,Hold,-67075.000000,69632.000000,HighGoal,0.000000,0.000000,Speed,0.000000,0.000000,Speed,Off,Off0.000000,0,,,,
04:36:15.968 PM 03/19/2016,Teleop Disabled,10,FALSE,0,NO ERROR,-0.000000,-0.051333,0.000000,-0.314416,TRUE,FALSE,TRUE,FALSE,FALSE,FALSE,Suspended,0.175000,-7.175000,7.575000,TRUE,-25.728668,6.998489,0.000000,0.000000,0.000000,0.000000,0.000000,0.000000,0.015000,0.270000,-0.340000,2.470000,-0.079792,Hold,1.079834,0.000000,Hold,-67075.000000,69632.000000,HighGoal,0.000000,-3272.727273,Speed,0.000000,-3272.727273,Speed,Off,Off0.000000,0,,,,
04:36:16.069 PM 03/19/2016,Teleop Disabled,9,FALSE,0,NO ERROR,-0.000000,-0.051333,0.000000,-0.314416,TRUE,FALSE,TRUE,FALSE,FALSE,FALSE,Suspended,0.175000,-7.175000,7.575000,TRUE,-25.728668,6.998489,0.000000,0.000000,0.000000,0.000000,0.000000,0.001000,0.017000,0.270000,-0.330000,2.460000,-0.085575,Hold,1.079834,0.000000,Hold,-67075.000000,69632.000000,HighGoal,0.000000,-3272.727273,Speed,0.000000,-3272.727273,Speed,Off,Off0.000000,0,,,,
04:36:16.169 PM 03/19/2016,Teleop Disabled,9,FALSE,0,NO ERROR,-0.000000,-0.051333,0.000000,-0.314416,TRUE,FALSE,TRUE,FALSE,FALSE,FALSE,Suspended,0.175000,-7.175000,7.575000,TRUE,-25.728668,6.998489,0.000000,0.000000,0.000000,0.000000,-0.002000,0.000000,0.018000,0.270000,-0.330000,2.460000,-0.092464,Hold,1.079834,0.000000,Hold,-67075.000000,69632.000000,HighGoal,0.000000,-3272.727273,Speed,0.000000,-3272.727273,Speed,Off,Off0.000000,0,,,,
04:36:16.269 PM 03/19/2016,Teleop Disabled,10,FALSE,0,NO ERROR,-0.000000,-0.051333,0.000000,-0.314416,TRUE,FALSE,TRUE,FALSE,FALSE,FALSE,Suspended,0.175000,-7.175000,7.575000,TRUE,-25.728668,6.998489,0.000000,0.000000,0.000000,0.000000,0.000000,-0.002000,0.018000,0.270000,-0.330000,2.460000,-0.099445,Hold,1.079834,0.000000,Hold,-67075.000000,69632.000000,HighGoal,0.000000,-3272.727273,Speed,0.000000,-3272.727273,Speed,Off,Off0.000000,0,,,,
04:36:16.371 PM 03/19/2016,Teleop Disabled,10,FALSE,0,NO ERROR,-0.000000,-0.051333,0.000000,-0.314416,TRUE,FALSE,TRUE,FALSE,FALSE,FALSE,Suspended,0.175000,-7.175000,7.575000,TRUE,-25.728668,6.998489,0.000000,0.000000,0.000000,0.000000,0.001000,0.000000,0.017000,0.270000,-0.340000,2.470000,-0.109112,Hold,1.079834,0.000000,Hold,-67075.000000,69632.000000,HighGoal,0.000000,-3272.727273,Speed,0.000000,-3272.727273,Speed,Off,Off0.000000,0,,,,
04:36:16.472 PM 03/19/2016,Teleop Disabled,9,FALSE,0,NO ERROR,-0.000000,-0.051333,0.000000,-0.314416,TRUE,FALSE,TRUE,FALSE,FALSE,FALSE,Suspended,0.175000,-7.175000,7.575000,TRUE,-25.728668,6.998489,0.000000,0.000000,0.000000,0.000000,0.001000,-0.003000,0.014000,0.270000,-0.330000,2.460000,-0.117229,Hold,1.079834,0.000000,Hold,-67075.000000,69632.000000,HighGoal,0.000000,-3272.727273,Speed,0.000000,-3272.727273,Speed,Off,Off0.000000,0,,,,
04:36:16.573 PM 03/19/2016,Teleop Disabled,10,FALSE,0,NO ERROR,-0.000000,-0.051333,0.000000,-0.314416,TRUE,TRUE,TRUE,FALSE,FALSE,FALSE,Suspended,0.175000,-7.175000,7.575000,TRUE,-25.728668,6.998489,0.000000,0.000000,0.000000,0.000000,-0.001000,0.002000,0.019000,0.270000,-0.340000,2.470000,-0.116582,Hold,1.079834,0.000000,Hold,-67075.000000,69632.000000,HighGoal,0.000000,-3272.727273,Speed,0.000000,-3272.727273,Speed,Off,Off0.000000,0,,,,
04:36:16.673 PM 03/19/2016,Teleop Disabled,10,FALSE,0,NO ERROR,-0.000000,-0.051333,0.000000,-0.314416,TRUE,TRUE,TRUE,FALSE,FALSE,FALSE,Suspended,0.175000,-7.175000,7.575000,TRUE,-25.728668,6.998489,0.000000,0.000000,0.000000,0.000000,0.000000,0.001000,0.019000,0.270000,-0.340000,2.470000,-0.127189,Hold,1.079834,0.000000,Hold,-67075.000000,69632.000000,HighGoal,0.000000,0.000000,Speed,0.000000,0.000000,Speed,Off,Off0.000000,0,,,,
