Time,Robot Mode,Loop Time,Error Status,Error Code,Error Source,Left Motor Output,Left Motor Encoder,Right Motor Output,Right Motor Encoder,Is Level,Is Stalled,Ball Detector Photoeye,Vision Enabled,Vision Teleop Control,Vision Auto Control,Vision Current State,Vision X Output,Vision NavX Error,Vision NavX Target,NavX Connection Status,NavX Displacement X,NavX Displacement Y,NavX Displacement Z,NavX Velocity X,NavX Velocity Y,NavX Velocity Z,NavX Acceleration X,NavX Acceleration Y,NavX Acceleration Z,NavX Pitch,NavX Yaw,NavX Roll,Gyro Angle,Roller Arm State,Roller Arm Actual,Roller Arm Desired,Shooter Arm State,Shooter Arm Actual,Shooter Arm Desired,Shooter State,Actual RPM Left,Desired RPM Left,Control Mode Left,Actual RPM Right,Desired RPM Right,Scaler Motor Output,Auto To Run,Auto Current File,Auto File Status,Auto Current Command,Auto Trimmed Command
08:50:20.328 PM 03/17/2016,Teleop Enabled,10,FALSE,0,NO ERROR,-0.000000,0.000000,0.000000,-0.077000,TRUE,FALSE,TRUE,FALSE,FALSE,FALSE,Disabled,0.000000,0.000000,0.000000,TRUE,-2.604019,-5.968658,0.000000,0.000000,0.000000,0.000000,0.000000,0.000000,0.000000,0.000000,-0.380000,0.650000,-0.006152,ResetBack,0.917969,-0.200000,ResetBack,-212.000000,-0.300000,Empty,0.000000,0.000000,Speed,0.000000,0.000000,Speed,On,Off0.000000,0,,,,
08:50:20.428 PM 03/17/2016,Teleop Enabled,10,FALSE,0,NO ERROR,-0.000000,0.000000,0.000000,-0.077000,TRUE,FALSE,TRUE,FALSE,FALSE,FALSE,Disabled,0.000000,0.000000,0.000000,TRUE,-2.604019,-5.968658,0.000000,0.000000,0.000000,0.000000,0.000000,0.000000,0.000000,0.000000,-0.380000,0.650000,-0.006152,ResetBack,-0.021484,-0.200000,ResetBack,-98.000000,-0.300000,Suck,0.000000,2181.818182,Speed,0.000000,2181.818182,Speed,On,Off0.000000,0,,,,
08:50:20.529 PM 03/17/2016,Teleop Enabled,14,FALSE,0,NO ERROR,-0.000000,0.000000,0.000000,-0.077000,TRUE,FALSE,TRUE,FALSE,FALSE,FALSE,Disabled,0.000000,0.000000,0.000000,TRUE,-2.604019,-5.968658,0.000000,0.000000,0.000000,0.000000,0.027000,-0.005000,-0.014000,0.000000,-0.410000,0.660000,-0.011309,ResetBack,-0.077148,-0.200000,ResetBack,2.000000,-0.300000,Hold,-10.986328,0.000000,Speed,-20.874023,0.000000,Speed,Off,Off0.000000,0,,,,
08:50:20.629 PM 03/17/2016,Teleop Enabled,10,FALSE,0,NO ERROR,-0.000000,0.000000,0.000000,-0.077000,TRUE,FALSE,TRUE,FALSE,FALSE,FALSE,Disabled,0.000000,0.000000,0.000000,TRUE,-2.603668,-5.968765,0.000000,0.010406,-0.004044,0.000000,-0.002000,0.012000,-0.031000,0.000000,-0.400000,0.660000,-0.020573,Reset,-0.077148,0.000000,ResetBack,2.000000,-0.300000,Hold,-94.482422,0.000000,Speed,-98.876953,0.000000,Speed,Off,Off0.000000,0,,,,
08:50:20.730 PM 03/17/2016,Teleop Enabled,9,FALSE,0,NO ERROR,-0.000000,0.000000,0.000000,-0.077000,TRUE,FALSE,TRUE,FALSE,FALSE,FALSE,Disabled,0.000000,0.000000,0.000000,TRUE,-2.602493,-5.968552,0.000000,0.014084,0.014374,0.000000,-0.011000,0.024000,-0.003000,0.000000,-0.360000,0.670000,-0.022804,Hold,0.962402,0.000000,ResetBack,2.000000,-0.300000,Hold,-105.468750,0.000000,Speed,-98.876953,0.000000,Speed,Off,Off0.000000,0,,,,
08:50:20.833 PM 03/17/2016,Teleop Enabled,10,FALSE,0,NO ERROR,-0.000000,0.000000,0.000000,-0.077000,TRUE,FALSE,TRUE,FALSE,FALSE,FALSE,Disabled,0.000000,0.000000,0.000000,TRUE,-2.602417,-5.967896,0.000000,-0.005753,0.000000,0.000000,-0.011000,0.024000,-0.003000,0.000000,-0.360000,0.670000,-0.030921,Hold,0.953125,0.000000,ResetBack,2.000000,-0.300000,Hold,-81.298828,0.000000,Speed,-71.411133,0.000000,Speed,Off,Off0.000000,0,,,,
08:50:20.934 PM 03/17/2016,Teleop Enabled,11,FALSE,0,NO ERROR,-0.000000,0.000000,0.000000,-0.077000,TRUE,FALSE,TRUE,FALSE,FALSE,FALSE,Disabled,0.000000,0.000000,0.000000,TRUE,-2.602570,-5.967896,0.000000,0.000000,0.000000,0.000000,0.013000,-0.009000,-0.038000,0.000000,-0.370000,0.660000,-0.048130,Hold,0.937988,0.000000,ResetBack,2.000000,-0.300000,Hold,-63.720703,0.000000,Speed,-45.043945,0.000000,Speed,Off,Off0.000000,0,,,,
08:50:21.035 PM 03/17/2016,Teleop Enabled,11,FALSE,0,NO ERROR,-0.000000,0.000000,0.000000,-0.077000,TRUE,FALSE,TRUE,FALSE,FALSE,FALSE,Disabled,0.000000,0.000000,0.000000,TRUE,-2.602585,-5.967957,0.000000,-0.002411,-0.004807,0.000000,-0.004000,-0.013000,-0.001000,0.000000,-0.380000,0.660000,-0.057563,Hold,0.937988,0.000000,ResetBack,2.000000,-0.300000,Hold,-42.846680,0.000000,Speed,-21.972656,0.000000,Speed,Off,Off0.000000,0,,,,
08:50:21.136 PM 03/17/2016,Teleop Enabled,10,FALSE,0,NO ERROR,-0.000000,0.000000,0.000000,-0.077000,TRUE,FALSE,TRUE,FALSE,FALSE,FALSE,Disabled,0.000000,0.000000,0.000000,TRUE,-2.602753,-5.968033,0.000000,0.000000,0.000000,0.000000,-0.014000,-0.012000,0.011000,0.000000,-0.380000,0.660000,-0.056785,Hold,0.937988,0.000000,ResetBack,2.000000,-0.300000,Hold,-12.084961,0.000000,Speed,0.000000,0.000000,Speed,Off,Off0.000000,0,,,,
08:50:21.237 PM 03/17/2016,Teleop Enabled,10,FALSE,0,NO ERROR,-0.000000,0.000000,0.000000,-0.077000,TRUE,FALSE,TRUE,FALSE,FALSE,FALSE,Disabled,0.000000,0.000000,0.000000,TRUE,-2.602753,-5.968033,0.000000,0.000000,0.000000,0.000000,0.003000,-0.003000,0.003000,0.000000,-0.380000,0.660000,-0.060651,Hold,0.937988,0.000000,ResetBack,2.000000,-0.300000,Hold,0.000000,0.000000,Speed,0.000000,0.000000,Speed,Off,Off0.000000,0,,,,
08:50:21.337 PM 03/17/2016,Teleop Enabled,10,FALSE,0,NO ERROR,-0.000000,0.000000,0.000000,-0.077000,TRUE,FALSE,TRUE,FALSE,FALSE,FALSE,Disabled,0.000000,0.000000,0.000000,TRUE,-2.602753,-5.968033,0.000000,0.000000,0.000000,0.000000,0.003000,-0.003000,0.003000,0.000000,-0.380000,0.660000,-0.051576,Hold,0.937988,0.000000,ResetBack,2.000000,-0.300000,Hold,0.000000,0.000000,Speed,0.000000,0.000000,Speed,Off,Off0.000000,0,,,,
08:50:21.437 PM 03/17/2016,Teleop Enabled,10,FALSE,0,NO ERROR,-0.000000,0.000000,0.000000,-0.077000,TRUE,FALSE,TRUE,FALSE,FALSE,FALSE,Disabled,0.000000,0.000000,0.000000,TRUE,-2.602753,-5.968033,0.000000,0.000000,0.000000,0.000000,0.000000,-0.003000,0.009000,0.000000,-0.380000,0.650000,-0.053773,Hold,0.937988,0.000000,ResetBack,2.000000,-0.300000,Hold,0.000000,0.000000,Speed,0.000000,0.000000,Speed,Off,Off0.000000,0,,,,
08:50:21.537 PM 03/17/2016,Teleop Enabled,10,FALSE,0,NO ERROR,-0.000000,0.000000,0.000000,-0.077000,TRUE,FALSE,TRUE,FALSE,FALSE,FALSE,Disabled,0.000000,0.000000,0.000000,TRUE,-2.602753,-5.968033,0.000000,0.000000,0.000000,0.000000,0.002000,0.000000,0.011000,0.000000,-0.380000,0.650000,-0.049439,Hold,0.937988,0.000000,Reset,2.000000,2.000000,Hold,0.000000,0.000000,Speed,0.000000,0.000000,Speed,Off,Off0.000000,0,,,,
08:50:21.637 PM 03/17/2016,Teleop Enabled,12,FALSE,0,NO ERROR,-0.000000,0.000000,0.000000,-0.077000,TRUE,FALSE,TRUE,FALSE,FALSE,FALSE,Disabled,0.000000,0.000000,0.000000,TRUE,-2.602753,-5.968033,0.000000,0.000000,0.000000,0.000000,-0.004000,0.004000,0.001000,0.000000,-0.380000,0.660000,-0.060479,Hold,0.937988,0.000000,Hold,2.000000,2.000000,Hold,0.000000,0.000000,Speed,0.000000,0.000000,Speed,Off,Off0.000000,0,,,,
08:50:21.737 PM 03/17/2016,Teleop Enabled,9,FALSE,0,NO ERROR,-0.000000,0.000000,0.000000,-0.077000,TRUE,FALSE,TRUE,FALSE,FALSE,FALSE,Disabled,0.000000,0.000000,0.000000,TRUE,-2.602753,-5.968033,0.000000,0.000000,0.000000,0.000000,0.000000,0.014000,0.003000,0.000000,-0.380000,0.650000,-0.060479,Hold,0.937988,0.000000,Hold,-192.000000,2.000000,LowGoal,0.000000,-2181.818182,Speed,0.000000,-2181.818182,Speed,Off,Off0.000000,0,,,,
08:50:21.838 PM 03/17/2016,Teleop Enabled,9,FALSE,0,NO ERROR,-0.000000,0.000000,0.000000,-0.077000,TRUE,FALSE,TRUE,FALSE,FALSE,FALSE,Disabled,0.000000,0.000000,0.000000,TRUE,-2.602753,-5.968033,0.000000,0.000000,0.000000,0.000000,-0.001000,-0.006000,0.018000,0.000000,-0.380000,0.670000,-0.061391,Hold,0.937988,0.000000,Hold,-192.000000,2.000000,LowGoal,1.098633,-2181.818182,Speed,7.690430,-2181.818182,Speed,Off,Off0.000000,0,,,,
08:50:21.939 PM 03/17/2016,Teleop Enabled,10,FALSE,0,NO ERROR,-0.000000,0.000000,0.000000,-0.077000,TRUE,FALSE,TRUE,FALSE,FALSE,FALSE,Disabled,0.000000,0.000000,0.000000,TRUE,-2.602798,-5.967972,0.000000,-0.004440,0.003525,0.000000,-0.039000,-0.013000,-0.010000,0.000000,-0.380000,0.670000,-0.061236,Hold,0.937988,0.000000,Hold,-217.000000,2.000000,LowGoal,64.819336,-2181.818182,Speed,73.608398,-2181.818182,Speed,Off,Off0.000000,0,,,,
08:50:22.039 PM 03/17/2016,Teleop Enabled,12,FALSE,0,NO ERROR,-0.000000,0.000000,0.000000,-0.077000,TRUE,FALSE,TRUE,FALSE,FALSE,FALSE,Disabled,0.000000,0.000000,0.000000,TRUE,-2.603409,-5.968048,0.000000,-0.015305,0.000473,0.000000,0.061000,-0.040000,-0.037000,0.000000,-0.420000,0.660000,-0.073623,Hold,0.937988,0.000000,Hold,-217.000000,2.000000,LowGoal,149.414062,-2181.818182,Speed,168.090820,-2181.818182,Speed,Off,Off0.000000,0,,,,
08:50:22.139 PM 03/17/2016,Teleop Enabled,9,FALSE,0,NO ERROR,-0.000000,0.000000,0.000000,-0.077000,TRUE,FALSE,TRUE,FALSE,FALSE,FALSE,Disabled,0.000000,0.000000,0.000000,TRUE,-2.603363,-5.968063,0.000000,0.000778,0.001236,0.000000,-0.048000,0.024000,-0.040000,0.000000,-0.400000,0.640000,-0.073247,Hold,0.937988,0.000000,Hold,-217.000000,2.000000,LowGoal,235.107422,-2181.818182,Speed,243.896484,-2181.818182,Speed,Off,Off0.000000,0,,,,
08:50:22.240 PM 03/17/2016,Teleop Enabled,10,FALSE,0,NO ERROR,-0.000000,0.000000,0.000000,-0.077000,TRUE,FALSE,TRUE,FALSE,FALSE,FALSE,Disabled,0.000000,0.000000,0.000000,TRUE,-2.603439,-5.967026,0.000000,0.004013,0.020905,0.000000,-0.040000,0.043000,0.011000,0.000000,-0.440000,0.650000,-0.071213,Hold,0.937988,0.000000,Hold,-217.000000,2.000000,LowGoal,308.715820,-2181.818182,Speed,298.828125,-2181.818182,Speed,Off,Off0.000000,0,,,,
08:50:22.340 PM 03/17/2016,Teleop Enabled,11,FALSE,0,NO ERROR,-0.000000,0.000000,0.000000,-0.077000,TRUE,FALSE,TRUE,FALSE,FALSE,FALSE,Disabled,0.000000,0.000000,0.000000,TRUE,-2.604599,-5.966400,0.000000,-0.056351,-0.017319,0.000000,-0.022000,-0.091000,-0.097000,0.000000,-0.410000,0.660000,-0.067505,Hold,0.937988,0.000000,Hold,-217.000000,2.000000,LowGoal,322.998047,-2181.818182,Speed,313.110352,-2181.818182,Speed,Off,Off0.000000,0,,,,
08:50:22.440 PM 03/17/2016,Teleop Enabled,10,FALSE,0,NO ERROR,-0.000000,0.000000,0.000000,-0.077000,TRUE,FALSE,TRUE,FALSE,FALSE,FALSE,Disabled,0.000000,0.000000,0.000000,TRUE,-2.608109,-5.970078,0.000000,0.000000,-0.102585,0.000000,0.106000,-0.053000,0.066000,-0.010000,-0.410000,0.700000,-0.055597,Hold,0.937988,0.000000,Hold,-217.000000,2.000000,LowGoal,305.419922,-2181.818182,Speed,303.222656,-2181.818182,Speed,Off,Off0.000000,0,,,,
08:50:22.542 PM 03/17/2016,Teleop Enabled,9,FALSE,0,NO ERROR,-0.000000,0.000000,0.000000,-0.077000,TRUE,FALSE,TRUE,FALSE,FALSE,FALSE,Disabled,0.000000,0.000000,0.000000,TRUE,-2.606689,-5.975403,0.000000,0.038467,-0.095169,0.000000,0.005000,-0.002000,0.070000,-0.010000,-0.380000,0.690000,-0.062871,Hold,0.937988,0.000000,Hold,-217.000000,2.000000,LowGoal,301.025391,-2181.818182,Speed,296.630859,-2181.818182,Speed,Off,Off0.000000,0,,,,
08:50:22.643 PM 03/17/2016,Teleop Enabled,10,FALSE,0,NO ERROR,-0.000000,0.000000,0.000000,-0.077000,TRUE,FALSE,TRUE,FALSE,FALSE,FALSE,Disabled,0.000000,0.000000,0.000000,TRUE,-2.603165,-5.980042,0.000000,0.076324,-0.057709,0.000000,-0.002000,-0.035000,-0.106000,-0.010000,-0.360000,0.640000,-0.064379,Hold,0.937988,0.000000,Hold,-217.000000,2.000000,LowGoal,305.419922,-2181.818182,Speed,299.926758,-2181.818182,Speed,Off,Off0.000000,0,,,,
08:50:22.743 PM 03/17/2016,Teleop Enabled,9,FALSE,0,NO ERROR,-0.000000,0.000000,0.000000,-0.077000,TRUE,FALSE,TRUE,FALSE,FALSE,FALSE,Disabled,0.000000,0.000000,0.000000,TRUE,-2.600967,-5.982788,0.000000,0.023193,-0.097900,0.000000,-0.062000,-0.225000,-0.034000,-0.010000,-0.420000,0.660000,-0.069347,Hold,0.937988,0.000000,Hold,-217.000000,2.000000,LowGoal,308.715820,-2181.818182,Speed,301.025391,-2181.818182,Speed,Off,Off0.000000,0,,,,
08:50:22.843 PM 03/17/2016,Teleop Enabled,11,FALSE,0,NO ERROR,-0.000000,0.000000,0.000000,-0.077000,TRUE,FALSE,TRUE,FALSE,FALSE,FALSE,Disabled,0.000000,0.000000,0.000000,TRUE,-2.598236,-5.991089,0.000000,0.042358,-0.149048,0.000000,0.088000,0.024000,0.070000,-0.010000,-0.390000,0.660000,-0.072373,Hold,0.937988,0.000000,Hold,-217.000000,2.000000,LowGoal,306.518555,-2181.818182,Speed,301.025391,-2181.818182,Speed,Off,Off0.000000,0,,,,
08:50:22.943 PM 03/17/2016,Teleop Enabled,9,FALSE,0,NO ERROR,-0.000000,0.000000,0.000000,-0.077000,TRUE,FALSE,TRUE,FALSE,FALSE,FALSE,Disabled,0.000000,0.000000,0.000000,TRUE,-2.593719,-5.997284,0.000000,0.108032,-0.097565,0.000000,-0.038000,-0.041000,0.094000,-0.010000,-0.370000,0.670000,-0.066410,Hold,0.937988,0.000000,Hold,-217.000000,2.000000,LowGoal,306.518555,-2181.818182,Speed,301.025391,-2181.818182,Speed,Off,Off0.000000,0,,,,
08:50:23.043 PM 03/17/2016,Teleop Enabled,11,FALSE,0,NO ERROR,-0.000000,0.000000,0.000000,-0.077000,TRUE,FALSE,TRUE,FALSE,FALSE,FALSE,Disabled,0.000000,0.000000,0.000000,TRUE,-2.589172,-6.001953,0.000000,0.079239,-0.101044,0.000000,-0.108000,-0.168000,0.065000,-0.010000,-0.350000,0.670000,-0.081947,Hold,0.937988,0.000000,Hold,-217.000000,2.000000,LowGoal,306.518555,-2181.818182,Speed,301.025391,-2181.818182,Speed,Off,Off0.000000,0,,,,
08:50:23.143 PM 03/17/2016,Teleop Enabled,11,FALSE,0,NO ERROR,-0.000000,0.000000,0.000000,-0.077000,TRUE,FALSE,TRUE,FALSE,FALSE,FALSE,Disabled,0.000000,0.000000,0.000000,TRUE,-2.586243,-6.008636,0.000000,0.075546,-0.132309,0.000000,0.005000,0.005000,-0.022000,0.000000,-0.350000,0.690000,-0.094805,Hold,0.937988,0.000000,Hold,-217.000000,2.000000,LowGoal,306.518555,-2181.818182,Speed,299.926758,-2181.818182,Speed,Off,Off0.000000,0,,,,
08:50:23.245 PM 03/17/2016,Teleop Enabled,11,FALSE,0,NO ERROR,-0.000000,0.000000,0.000000,-0.077000,TRUE,FALSE,TRUE,FALSE,FALSE,FALSE,Disabled,0.000000,0.000000,0.000000,TRUE,-2.581833,-6.014481,0.000000,0.118607,-0.097916,0.000000,-0.072000,0.117000,0.061000,-0.010000,-0.320000,0.670000,-0.089376,Hold,0.937988,0.000000,Hold,-217.000000,2.000000,LowGoal,306.518555,-2181.818182,Speed,299.926758,-2181.818182,Speed,Off,Off0.000000,0,,,,
08:50:23.346 PM 03/17/2016,Teleop Enabled,10,FALSE,0,NO ERROR,-0.000000,0.000000,0.000000,-0.077000,TRUE,FALSE,TRUE,FALSE,FALSE,FALSE,Disabled,0.000000,0.000000,0.000000,TRUE,-2.575516,-6.019211,0.000000,0.111801,-0.095367,0.000000,-0.030000,-0.047000,-0.075000,-0.010000,-0.310000,0.690000,-0.088126,Hold,0.937988,0.000000,Hold,-217.000000,2.000000,LowGoal,307.617188,-2181.818182,Speed,299.926758,-2181.818182,Speed,Off,Off0.000000,0,,,,
08:50:23.446 PM 03/17/2016,Teleop Enabled,9,FALSE,0,NO ERROR,-0.000000,0.000000,0.000000,-0.077000,TRUE,FALSE,TRUE,FALSE,FALSE,FALSE,Disabled,0.000000,0.000000,0.000000,TRUE,-2.571533,-6.024353,0.000000,0.089600,0.000000,0.000000,0.018000,0.023000,-0.032000,-0.010000,-0.300000,0.700000,-0.088794,Hold,0.937988,0.000000,Hold,-217.000000,2.000000,LowGoal,306.518555,-2181.818182,Speed,301.025391,-2181.818182,Speed,Off,Off0.000000,0,,,,
08:50:23.546 PM 03/17/2016,Teleop Enabled,9,FALSE,0,NO ERROR,-0.000000,0.000000,0.000000,-0.077000,TRUE,FALSE,TRUE,FALSE,FALSE,FALSE,Disabled,0.000000,0.000000,0.000000,TRUE,-2.570358,-6.023315,0.000000,0.022446,0.057602,0.000000,0.023000,0.080000,0.031000,-0.010000,-0.330000,0.660000,-0.077970,Hold,0.937988,0.000000,Hold,-217.000000,2.000000,LowGoal,306.518555,-2181.818182,Speed,301.025391,-2181.818182,Speed,Off,Off0.000000,0,,,,
08:50:23.647 PM 03/17/2016,Teleop Enabled,10,FALSE,0,NO ERROR,-0.000000,0.000000,0.000000,-0.077000,TRUE,FALSE,TRUE,FALSE,FALSE,FALSE,Disabled,0.000000,0.000000,0.000000,TRUE,-2.568726,-6.018143,0.000000,0.048691,0.117126,0.000000,-0.066000,-0.051000,0.002000,-0.010000,-0.320000,0.670000,-0.082566,Hold,0.937988,0.000000,Hold,-217.000000,2.000000,LowGoal,307.617188,-2181.818182,Speed,299.926758,-2181.818182,Speed,Off,Off0.000000,0,,,,
08:50:23.748 PM 03/17/2016,Teleop Enabled,9,FALSE,0,NO ERROR,-0.000000,0.000000,0.000000,-0.077000,TRUE,FALSE,TRUE,FALSE,FALSE,FALSE,Disabled,0.000000,0.000000,0.000000,TRUE,-2.568466,-6.013840,0.000000,-0.020401,0.069809,0.000000,0.057000,-0.034000,-0.090000,-0.010000,-0.320000,0.690000,-0.085702,Hold,0.937988,0.000000,Hold,-217.000000,2.000000,LowGoal,307.617188,-2181.818182,Speed,299.926758,-2181.818182,Speed,Off,Off0.000000,0,,,,
08:50:23.848 PM 03/17/2016,Teleop Enabled,10,FALSE,0,NO ERROR,-0.000000,0.000000,0.000000,-0.077000,TRUE,FALSE,TRUE,FALSE,FALSE,FALSE,Disabled,0.000000,0.000000,0.000000,TRUE,-2.569412,-6.011307,0.000000,-0.016830,0.036240,0.000000,0.120000,0.093000,0.044000,-0.020000,-0.300000,0.660000,-0.088770,Hold,0.937988,0.000000,Hold,-217.000000,2.000000,LowGoal,306.518555,-2181.818182,Speed,299.926758,-2181.818182,Speed,Off,Off0.000000,0,,,,
08:50:23.949 PM 03/17/2016,Teleop Enabled,11,FALSE,0,NO ERROR,-0.000000,0.000000,0.000000,-0.077000,TRUE,FALSE,TRUE,FALSE,FALSE,FALSE,Disabled,0.000000,0.000000,0.000000,TRUE,-2.568817,-6.008881,0.000000,0.015839,0.000000,0.000000,0.055000,0.069000,0.010000,-0.020000,-0.310000,0.660000,-0.095521,Hold,0.937988,0.000000,Hold,-217.000000,2.000000,LowGoal,306.518555,-2181.818182,Speed,299.926758,-2181.818182,Speed,Off,Off0.000000,0,,,,
08:50:24.049 PM 03/17/2016,Teleop Enabled,11,FALSE,0,NO ERROR,-0.000000,0.000000,0.000000,-0.077000,TRUE,FALSE,TRUE,FALSE,FALSE,FALSE,Disabled,0.000000,0.000000,0.000000,TRUE,-2.568512,-6.009598,0.000000,-0.035263,-0.049850,0.000000,-0.063000,-0.088000,-0.025000,-0.020000,-0.280000,0.670000,-0.111325,Hold,0.937988,0.000000,Hold,-217.000000,2.000000,LowGoal,307.617188,-2181.818182,Speed,299.926758,-2181.818182,Speed,Off,Off0.000000,0,,,,
08:50:24.149 PM 03/17/2016,Teleop Enabled,10,FALSE,0,NO ERROR,-0.000000,0.000000,0.000000,-0.077000,TRUE,FALSE,TRUE,FALSE,FALSE,FALSE,Disabled,0.000000,0.000000,0.000000,TRUE,-2.569687,-6.012741,0.000000,-0.002609,-0.030212,0.000000,-0.063000,-0.088000,-0.025000,-0.020000,-0.270000,0.680000,-0.107177,Hold,0.937988,0.000000,Hold,-217.000000,2.000000,LowGoal,306.518555,-2181.818182,Speed,299.926758,-2181.818182,Speed,Off,Off0.000000,0,,,,
08:50:24.250 PM 03/17/2016,Teleop Enabled,10,FALSE,0,NO ERROR,-0.000000,0.000000,0.000000,-0.077000,TRUE,FALSE,TRUE,FALSE,FALSE,FALSE,Disabled,0.000000,0.000000,0.000000,TRUE,-2.568497,-6.012604,0.000000,0.024689,0.022018,0.000000,0.008000,-0.014000,0.039000,-0.020000,-0.270000,0.660000,-0.113766,Hold,0.937988,0.000000,Hold,-217.000000,2.000000,LowGoal,306.518555,-2181.818182,Speed,301.025391,-2181.818182,Speed,Off,Off0.000000,0,,,,
08:50:24.352 PM 03/17/2016,Teleop Enabled,10,FALSE,0,NO ERROR,-0.000000,0.000000,0.000000,-0.077000,TRUE,FALSE,TRUE,FALSE,FALSE,FALSE,Disabled,0.000000,0.000000,0.000000,TRUE,-2.568253,-6.013123,0.000000,-0.018845,-0.032043,0.000000,0.008000,-0.014000,0.039000,-0.020000,-0.250000,0.690000,-0.112837,Hold,0.937988,0.000000,Hold,-217.000000,2.000000,LowGoal,306.518555,-2181.818182,Speed,301.025391,-2181.818182,Speed,Off,Off0.000000,0,,,,
08:50:24.453 PM 03/17/2016,Teleop Enabled,10,FALSE,0,NO ERROR,-0.000000,0.000000,0.000000,-0.077000,TRUE,FALSE,TRUE,FALSE,FALSE,FALSE,Disabled,0.000000,0.000000,0.000000,TRUE,-2.569382,-6.016220,0.000000,-0.010986,-0.082962,0.000000,-0.005000,-0.012000,-0.057000,-0.020000,-0.240000,0.700000,-0.110114,Hold,0.937988,0.000000,Hold,-217.000000,2.000000,LowGoal,306.518555,-2181.818182,Speed,301.025391,-2181.818182,Speed,Off,Off0.000000,0,,,,
08:50:24.553 PM 03/17/2016,Teleop Enabled,10,FALSE,0,NO ERROR,-0.000000,0.000000,0.000000,-0.077000,TRUE,FALSE,TRUE,FALSE,FALSE,FALSE,Disabled,0.000000,0.000000,0.000000,TRUE,-2.569382,-6.019623,0.000000,0.027222,-0.026443,0.000000,-0.018000,0.014000,0.159000,-0.020000,-0.260000,0.700000,-0.114255,Hold,0.937988,0.000000,Hold,-217.000000,2.000000,LowGoal,306.518555,-2181.818182,Speed,299.926758,-2181.818182,Speed,Off,Off0.000000,0,,,,
08:50:24.654 PM 03/17/2016,Teleop Enabled,10,FALSE,0,NO ERROR,-0.000000,0.000000,0.000000,-0.077000,TRUE,FALSE,TRUE,FALSE,FALSE,FALSE,Disabled,0.000000,0.000000,0.000000,TRUE,-2.568329,-6.020142,0.000000,0.033539,0.002716,0.000000,-0.126000,-0.036000,-0.111000,-0.020000,-0.280000,0.690000,-0.098808,Hold,0.937988,0.000000,Hold,-217.000000,2.000000,LowGoal,306.518555,-2181.818182,Speed,301.025391,-2181.818182,Speed,Off,Off0.000000,0,,,,
08:50:24.754 PM 03/17/2016,Teleop Enabled,10,FALSE,0,NO ERROR,-0.000000,0.000000,0.000000,-0.077000,TRUE,FALSE,TRUE,FALSE,FALSE,FALSE,Disabled,0.000000,0.000000,0.000000,TRUE,-2.569580,-6.022018,0.000000,-0.045074,-0.073135,0.000000,0.016000,-0.017000,-0.102000,-0.020000,-0.280000,0.710000,-0.102623,Hold,0.937988,0.000000,Hold,-217.000000,2.000000,LowGoal,306.518555,-2181.818182,Speed,302.124023,-2181.818182,Speed,Off,Off0.000000,0,,,,
08:50:24.855 PM 03/17/2016,Teleop Enabled,11,FALSE,0,NO ERROR,-0.000000,0.000000,0.000000,-0.077000,TRUE,FALSE,TRUE,FALSE,FALSE,FALSE,Disabled,0.000000,0.000000,0.000000,TRUE,-2.570190,-6.026413,0.000000,-0.007919,-0.094391,0.000000,0.041000,0.058000,0.041000,-0.030000,-0.330000,0.700000,-0.102010,Hold,0.937988,0.000000,Hold,-217.000000,2.000000,LowGoal,307.617188,-2181.818182,Speed,301.025391,-2181.818182,Speed,Off,Off0.000000,0,,,,
08:50:24.956 PM 03/17/2016,Teleop Enabled,10,FALSE,0,NO ERROR,-0.000000,0.000000,0.000000,-0.077000,TRUE,FALSE,TRUE,FALSE,FALSE,FALSE,Disabled,0.000000,0.000000,0.000000,TRUE,-2.568436,-6.029572,0.000000,0.031158,-0.038818,0.000000,0.013000,0.023000,0.014000,-0.020000,-0.370000,0.690000,-0.111632,Hold,0.937988,0.000000,Hold,-217.000000,2.000000,LowGoal,306.518555,-2181.818182,Speed,301.025391,-2181.818182,Speed,Off,Off0.000000,0,,,,
08:50:25.056 PM 03/17/2016,Teleop Enabled,10,FALSE,0,NO ERROR,-0.000000,0.000000,0.000000,-0.077000,TRUE,FALSE,TRUE,FALSE,FALSE,FALSE,Disabled,0.000000,0.000000,0.000000,TRUE,-2.566757,-6.031113,0.000000,0.033310,-0.050293,0.000000,-0.208000,-0.104000,0.019000,-0.020000,-0.350000,0.690000,-0.118283,Hold,0.937988,0.000000,Hold,-217.000000,2.000000,LowGoal,306.518555,-2181.818182,Speed,302.124023,-2181.818182,Speed,Off,Off0.000000,0,,,,
08:50:25.157 PM 03/17/2016,Teleop Enabled,10,FALSE,0,NO ERROR,-0.000000,0.000000,0.000000,-0.077000,TRUE,FALSE,TRUE,FALSE,FALSE,FALSE,Disabled,0.000000,0.000000,0.000000,TRUE,-2.567352,-6.036484,0.000000,0.010971,-0.068985,0.000000,-0.208000,-0.104000,0.019000,-0.020000,-0.380000,0.680000,-0.133224,Hold,0.937988,0.000000,Hold,-217.000000,2.000000,LowGoal,307.617188,-2181.818182,Speed,302.124023,-2181.818182,Speed,Off,Off0.000000,0,,,,
08:50:25.257 PM 03/17/2016,Teleop Enabled,11,FALSE,0,NO ERROR,-0.000000,0.000000,0.000000,-0.077000,TRUE,FALSE,TRUE,FALSE,FALSE,FALSE,Disabled,0.000000,0.000000,0.000000,TRUE,-2.565964,-6.038269,0.000000,0.048523,-0.001602,0.000000,-0.064000,0.043000,0.002000,-0.020000,-0.380000,0.680000,-0.132989,Hold,0.937988,0.000000,Hold,-217.000000,2.000000,LowGoal,307.617188,-2181.818182,Speed,302.124023,-2181.818182,Speed,Off,Off0.000000,0,,,,
08:50:25.358 PM 03/17/2016,Teleop Enabled,11,FALSE,0,NO ERROR,-0.000000,0.000000,0.000000,-0.077000,TRUE,FALSE,TRUE,FALSE,FALSE,FALSE,Disabled,0.000000,0.000000,0.000000,TRUE,-2.565964,-6.038269,0.000000,0.048523,-0.001602,0.000000,-0.064000,0.043000,0.002000,-0.020000,-0.340000,0.680000,-0.132989,Hold,0.937988,0.000000,Hold,-217.000000,2.000000,LowGoal,306.518555,-2181.818182,Speed,301.025391,-2181.818182,Speed,Off,Off0.000000,0,,,,
08:50:25.459 PM 03/17/2016,Teleop Enabled,10,FALSE,0,NO ERROR,-0.000000,0.000000,0.000000,-0.077000,TRUE,FALSE,TRUE,FALSE,FALSE,FALSE,Disabled,0.000000,0.000000,0.000000,TRUE,-2.564301,-6.039749,0.000000,-0.010269,-0.052719,0.000000,-0.182000,-0.035000,-0.028000,-0.020000,-0.320000,0.690000,-0.139069,Hold,0.937988,0.000000,Hold,-217.000000,2.000000,LowGoal,306.518555,-2181.818182,Speed,301.025391,-2181.818182,Speed,Off,Off0.000000,0,,,,
08:50:25.559 PM 03/17/2016,Teleop Enabled,11,FALSE,0,NO ERROR,-0.000000,0.000000,0.000000,-0.077000,TRUE,FALSE,TRUE,FALSE,FALSE,FALSE,Disabled,0.000000,0.000000,0.000000,TRUE,-2.565247,-6.043747,0.000000,-0.002441,-0.118484,0.000000,-0.056000,-0.050000,0.054000,-0.030000,-0.300000,0.700000,-0.144997,Hold,0.937988,0.000000,Hold,-217.000000,2.000000,LowGoal,307.617188,-2181.818182,Speed,301.025391,-2181.818182,Speed,Off,Off0.000000,0,,,,
08:50:25.660 PM 03/17/2016,Teleop Enabled,10,FALSE,0,NO ERROR,-0.000000,0.000000,0.000000,-0.077000,TRUE,FALSE,TRUE,FALSE,FALSE,FALSE,Disabled,0.000000,0.000000,0.000000,TRUE,-2.565079,-6.049927,0.000000,0.021912,-0.075394,0.000000,0.102000,0.080000,0.108000,-0.030000,-0.330000,0.700000,-0.141186,Hold,0.937988,0.000000,Hold,-217.000000,2.000000,LowGoal,306.518555,-2181.818182,Speed,302.124023,-2181.818182,Speed,Off,Off0.000000,0,,,,
08:50:25.760 PM 03/17/2016,Teleop Enabled,10,FALSE,0,NO ERROR,-0.000000,0.000000,0.000000,-0.077000,TRUE,FALSE,TRUE,FALSE,FALSE,FALSE,Disabled,0.000000,0.000000,0.000000,TRUE,-2.563538,-6.051865,0.000000,0.041489,-0.032700,0.000000,0.062000,0.029000,0.006000,-0.030000,-0.350000,0.690000,-0.132380,Hold,0.937988,0.000000,Hold,-217.000000,2.000000,LowGoal,306.518555,-2181.818182,Speed,302.124023,-2181.818182,Speed,Off,Off0.000000,0,,,,
08:50:25.861 PM 03/17/2016,Teleop Enabled,19,FALSE,0,NO ERROR,-0.000000,0.000000,0.000000,-0.077000,TRUE,FALSE,TRUE,FALSE,FALSE,FALSE,Disabled,0.000000,0.000000,0.000000,TRUE,-2.562332,-6.053986,0.000000,-0.020172,-0.070969,0.000000,0.021000,-0.096000,-0.057000,-0.030000,-0.370000,0.710000,-0.142990,Hold,0.937988,0.000000,Hold,-217.000000,2.000000,LowGoal,306.518555,-2181.818182,Speed,301.025391,-2181.818182,Speed,Off,Off0.000000,0,,,,
08:50:25.962 PM 03/17/2016,Teleop Enabled,5,FALSE,0,NO ERROR,-0.000000,0.000000,0.000000,-0.077000,TRUE,FALSE,TRUE,FALSE,FALSE,FALSE,Disabled,0.000000,0.000000,0.000000,TRUE,-2.562592,-6.059753,0.000000,0.007828,-0.130173,0.000000,-0.052000,0.013000,-0.055000,-0.030000,-0.330000,0.720000,-0.141382,Hold,0.937988,0.000000,Hold,-217.000000,2.000000,LowGoal,307.617188,-2181.818182,Speed,301.025391,-2181.818182,Speed,Off,Off0.000000,0,,,,
08:50:26.062 PM 03/17/2016,Teleop Enabled,10,FALSE,0,NO ERROR,-0.000000,0.000000,0.000000,-0.077000,TRUE,FALSE,TRUE,FALSE,FALSE,FALSE,Disabled,0.000000,0.000000,0.000000,TRUE,-2.561493,-6.060455,0.000000,0.064651,0.034332,0.000000,-0.034000,-0.022000,0.185000,-0.030000,-0.350000,0.700000,-0.146949,Hold,0.937988,0.000000,Hold,-217.000000,2.000000,LowGoal,306.518555,-2181.818182,Speed,302.124023,-2181.818182,Speed,Off,Off0.000000,0,,,,
08:50:26.162 PM 03/17/2016,Teleop Enabled,9,FALSE,0,NO ERROR,-0.000000,0.000000,0.000000,-0.077000,TRUE,FALSE,TRUE,FALSE,FALSE,FALSE,Disabled,0.000000,0.000000,0.000000,TRUE,-2.558823,-6.057327,0.000000,0.037674,0.041061,0.000000,-0.151000,-0.080000,0.007000,-0.030000,-0.340000,0.710000,-0.162933,Hold,0.937988,0.000000,Hold,-217.000000,2.000000,LowGoal,306.518555,-2181.818182,Speed,301.025391,-2181.818182,Speed,Off,Off0.000000,0,,,,
08:50:26.263 PM 03/17/2016,Teleop Enabled,10,FALSE,0,NO ERROR,-0.000000,0.000000,0.000000,-0.077000,TRUE,FALSE,TRUE,FALSE,FALSE,FALSE,Disabled,0.000000,0.000000,0.000000,TRUE,-2.558823,-6.056671,0.000000,0.000854,0.006348,0.000000,0.125000,-0.012000,-0.040000,-0.030000,-0.330000,0.730000,-0.157986,Hold,0.937988,0.000000,Hold,-217.000000,2.000000,LowGoal,307.617188,-2181.818182,Speed,301.025391,-2181.818182,Speed,Off,Off0.000000,0,,,,
08:50:26.363 PM 03/17/2016,Teleop Enabled,10,FALSE,0,NO ERROR,-0.000000,0.000000,0.000000,-0.077000,TRUE,FALSE,TRUE,FALSE,FALSE,FALSE,Disabled,0.000000,0.000000,0.000000,TRUE,-2.558121,-6.056061,0.000000,0.003311,0.029861,0.000000,0.063000,0.098000,0.062000,-0.030000,-0.380000,0.690000,-0.160661,Hold,0.937988,0.000000,Hold,-217.000000,2.000000,LowGoal,306.518555,-2181.818182,Speed,301.025391,-2181.818182,Speed,Off,Off0.000000,0,,,,
08:50:26.463 PM 03/17/2016,Teleop Enabled,9,FALSE,0,NO ERROR,-0.000000,0.000000,0.000000,-0.077000,TRUE,FALSE,TRUE,FALSE,FALSE,FALSE,Disabled,0.000000,0.000000,0.000000,TRUE,-2.557129,-6.053314,0.000000,0.011902,0.044434,0.000000,-0.027000,-0.027000,0.000000,-0.030000,-0.350000,0.680000,-0.158055,Hold,0.937988,0.000000,Hold,-217.000000,2.000000,LowGoal,306.518555,-2181.818182,Speed,301.025391,-2181.818182,Speed,Off,Off0.000000,0,,,,
08:50:26.565 PM 03/17/2016,Teleop Enabled,10,FALSE,0,NO ERROR,-0.000000,0.000000,0.000000,-0.077000,TRUE,FALSE,TRUE,FALSE,FALSE,FALSE,Disabled,0.000000,0.000000,0.000000,TRUE,-2.557327,-6.051697,0.000000,-0.027893,0.024673,0.000000,-0.008000,-0.087000,-0.145000,-0.030000,-0.360000,0.720000,-0.139523,Hold,0.937988,0.000000,Hold,-217.000000,2.000000,LowGoal,306.518555,-2181.818182,Speed,301.025391,-2181.818182,Speed,Off,Off0.000000,0,,,,
08:50:26.666 PM 03/17/2016,Teleop Enabled,9,FALSE,0,NO ERROR,-0.000000,0.000000,0.000000,-0.077000,TRUE,FALSE,TRUE,FALSE,FALSE,FALSE,Disabled,0.000000,0.000000,0.000000,TRUE,-2.557693,-6.051575,0.000000,-0.008972,-0.008438,0.000000,0.014000,0.092000,0.125000,-0.030000,-0.340000,0.720000,-0.121502,Hold,0.937988,0.000000,Hold,-217.000000,2.000000,LowGoal,307.617188,-2181.818182,Speed,301.025391,-2181.818182,Speed,Off,Off0.000000,0,,,,
08:50:26.767 PM 03/17/2016,Teleop Enabled,12,FALSE,0,NO ERROR,-0.000000,0.000000,0.000000,-0.077000,TRUE,FALSE,TRUE,FALSE,FALSE,FALSE,Disabled,0.000000,0.000000,0.000000,TRUE,-2.556488,-6.049728,0.000000,0.060837,0.073792,0.000000,-0.018000,0.082000,0.113000,-0.030000,-0.380000,0.670000,-0.107828,Hold,0.937988,0.000000,Hold,-217.000000,2.000000,LowGoal,307.617188,-2181.818182,Speed,301.025391,-2181.818182,Speed,Off,Off0.000000,0,,,,
08:50:26.867 PM 03/17/2016,Teleop Enabled,11,FALSE,0,NO ERROR,-0.000000,0.000000,0.000000,-0.077000,TRUE,FALSE,TRUE,FALSE,FALSE,FALSE,Disabled,0.000000,0.000000,0.000000,TRUE,-2.553818,-6.044769,0.000000,0.011902,0.077820,0.000000,-0.081000,-0.082000,-0.038000,-0.030000,-0.400000,0.690000,-0.109931,Hold,0.937988,0.000000,Hold,-217.000000,2.000000,LowGoal,306.518555,-2181.818182,Speed,301.025391,-2181.818182,Speed,Off,Off0.000000,0,,,,
08:50:26.969 PM 03/17/2016,Teleop Enabled,10,FALSE,0,NO ERROR,-0.000000,0.000000,0.000000,-0.077000,TRUE,FALSE,TRUE,FALSE,FALSE,FALSE,Disabled,0.000000,0.000000,0.000000,TRUE,-2.554367,-6.043076,0.000000,-0.011307,0.027435,0.000000,-0.012000,-0.036000,-0.126000,-0.040000,-0.400000,0.690000,-0.121436,Hold,0.937988,0.000000,Hold,-217.000000,2.000000,LowGoal,307.617188,-2181.818182,Speed,301.025391,-2181.818182,Speed,Off,Off0.000000,0,,,,
08:50:27.070 PM 03/17/2016,Teleop Enabled,9,FALSE,0,NO ERROR,-0.000000,0.000000,0.000000,-0.077000,TRUE,FALSE,TRUE,FALSE,FALSE,FALSE,Disabled,0.000000,0.000000,0.000000,TRUE,-2.554260,-6.041733,0.000000,0.023346,0.044708,0.000000,0.104000,0.114000,0.108000,-0.040000,-0.380000,0.700000,-0.121409,Hold,0.937988,0.000000,Hold,-217.000000,2.000000,LowGoal,306.518555,-2181.818182,Speed,299.926758,-2181.818182,Speed,Off,Off0.000000,0,,,,
08:50:27.171 PM 03/17/2016,Teleop Enabled,11,FALSE,0,NO ERROR,-0.000000,0.000000,0.000000,-0.077000,TRUE,FALSE,TRUE,FALSE,FALSE,FALSE,Disabled,0.000000,0.000000,0.000000,TRUE,-2.551819,-6.036438,0.000000,0.029037,0.098251,0.000000,-0.007000,-0.024000,-0.007000,-0.040000,-0.390000,0.710000,-0.125825,Hold,0.937988,0.000000,Hold,-217.000000,2.000000,LowGoal,306.518555,-2181.818182,Speed,301.025391,-2181.818182,Speed,Off,Off0.000000,0,,,,
08:50:27.272 PM 03/17/2016,Teleop Enabled,10,FALSE,0,NO ERROR,-0.000000,0.000000,0.000000,-0.077000,TRUE,FALSE,TRUE,FALSE,FALSE,FALSE,Disabled,0.000000,0.000000,0.000000,TRUE,-2.551727,-6.034210,0.000000,-0.003418,0.011658,0.000000,0.115000,0.000000,-0.065000,-0.040000,-0.390000,0.720000,-0.113821,Hold,0.937988,0.000000,Hold,-217.000000,2.000000,LowGoal,306.518555,-2181.818182,Speed,301.025391,-2181.818182,Speed,Off,Off0.000000,0,,,,
08:50:27.373 PM 03/17/2016,Teleop Enabled,9,FALSE,0,NO ERROR,-0.000000,0.000000,0.000000,-0.077000,TRUE,FALSE,TRUE,FALSE,FALSE,FALSE,Disabled,0.000000,0.000000,0.000000,TRUE,-2.551163,-6.032913,0.000000,0.000290,0.029816,0.000000,0.045000,-0.043000,0.050000,-0.040000,-0.380000,0.740000,-0.119897,Hold,0.937988,0.000000,Hold,-217.000000,2.000000,LowGoal,306.518555,-2181.818182,Speed,301.025391,-2181.818182,Speed,Off,Off0.000000,0,,,,
08:50:27.474 PM 03/17/2016,Teleop Enabled,10,FALSE,0,NO ERROR,-0.000000,0.000000,0.000000,-0.077000,TRUE,FALSE,TRUE,FALSE,FALSE,FALSE,Disabled,0.000000,0.000000,0.000000,TRUE,-2.549561,-6.030167,0.000000,0.026108,0.063797,0.000000,-0.024000,-0.024000,0.053000,-0.040000,-0.410000,0.710000,-0.112733,Hold,0.937988,0.000000,Hold,-217.000000,2.000000,LowGoal,307.617188,-2181.818182,Speed,301.025391,-2181.818182,Speed,Off,Off0.000000,0,,,,
08:50:27.575 PM 03/17/2016,Teleop Enabled,9,FALSE,0,NO ERROR,-0.000000,0.000000,0.000000,-0.077000,TRUE,FALSE,TRUE,FALSE,FALSE,FALSE,Disabled,0.000000,0.000000,0.000000,TRUE,-2.548447,-6.027527,0.000000,0.010574,0.032974,0.000000,-0.110000,-0.053000,-0.084000,-0.040000,-0.390000,0.720000,-0.103349,Hold,0.937988,0.000000,Hold,-217.000000,2.000000,LowGoal,306.518555,-2181.818182,Speed,301.025391,-2181.818182,Speed,Off,Off0.000000,0,,,,
08:50:27.676 PM 03/17/2016,Teleop Enabled,9,FALSE,0,NO ERROR,-0.000000,0.000000,0.000000,-0.077000,TRUE,FALSE,TRUE,FALSE,FALSE,FALSE,Disabled,0.000000,0.000000,0.000000,TRUE,-2.547745,-6.026154,0.000000,0.011292,0.016068,0.000000,-0.062000,-0.003000,0.148000,-0.040000,-0.380000,0.690000,-0.118338,Hold,0.937988,0.000000,Hold,-217.000000,2.000000,LowGoal,307.617188,-2181.818182,Speed,301.025391,-2181.818182,Speed,Off,Off0.000000,0,,,,
08:50:27.776 PM 03/17/2016,Teleop Enabled,10,FALSE,0,NO ERROR,-0.000000,0.000000,0.000000,-0.077000,TRUE,FALSE,TRUE,FALSE,FALSE,FALSE,Disabled,0.000000,0.000000,0.000000,TRUE,-2.547012,-6.025223,0.000000,0.045761,0.050659,0.000000,0.022000,0.075000,0.052000,-0.040000,-0.460000,0.640000,-0.124335,Hold,0.937988,0.000000,Hold,-217.000000,2.000000,LowGoal,307.617188,-2181.818182,Speed,299.926758,-2181.818182,Speed,Off,Off0.000000,0,,,,
08:50:27.877 PM 03/17/2016,Teleop Enabled,10,FALSE,0,NO ERROR,-0.000000,0.000000,0.000000,-0.077000,TRUE,FALSE,TRUE,FALSE,FALSE,FALSE,Disabled,0.000000,0.000000,0.000000,TRUE,-2.542648,-6.024124,0.000000,0.081787,-0.009384,0.000000,-0.142000,-0.160000,-0.032000,-0.050000,-0.430000,0.670000,-0.130105,Hold,0.937988,0.000000,Hold,-217.000000,2.000000,LowGoal,307.617188,-2181.818182,Speed,299.926758,-2181.818182,Speed,Off,Off0.000000,0,,,,
08:50:27.977 PM 03/17/2016,Teleop Enabled,10,FALSE,0,NO ERROR,-0.000000,0.000000,0.000000,-0.077000,TRUE,FALSE,TRUE,FALSE,FALSE,FALSE,Disabled,0.000000,0.000000,0.000000,TRUE,-2.541275,-6.026367,0.000000,0.033798,-0.081223,0.000000,-0.029000,-0.063000,-0.010000,-0.050000,-0.390000,0.680000,-0.145193,Hold,0.937988,0.000000,Hold,-217.000000,2.000000,LowGoal,306.518555,-2181.818182,Speed,301.025391,-2181.818182,Speed,Off,Off0.000000,0,,,,
08:50:28.077 PM 03/17/2016,Teleop Enabled,10,FALSE,0,NO ERROR,-0.000000,0.000000,0.000000,-0.077000,TRUE,FALSE,TRUE,FALSE,FALSE,FALSE,Disabled,0.000000,0.000000,0.000000,TRUE,-2.539322,-6.032333,0.000000,0.041275,-0.088409,0.000000,0.111000,0.131000,0.084000,-0.050000,-0.420000,0.640000,-0.152612,Hold,0.937988,0.000000,Hold,-217.000000,2.000000,LowGoal,307.617188,-2181.818182,Speed,302.124023,-2181.818182,Speed,Off,Off0.000000,0,,,,
08:50:28.178 PM 03/17/2016,Teleop Enabled,10,FALSE,0,NO ERROR,-0.000000,0.000000,0.000000,-0.077000,TRUE,FALSE,TRUE,FALSE,FALSE,FALSE,Disabled,0.000000,0.000000,0.000000,TRUE,-2.535721,-6.034851,0.000000,0.062653,-0.038986,0.000000,0.105000,0.054000,0.083000,-0.050000,-0.420000,0.640000,-0.141747,Hold,0.937988,0.000000,Hold,-217.000000,2.000000,LowGoal,307.617188,-2181.818182,Speed,301.025391,-2181.818182,Speed,Off,Off0.000000,0,,,,
08:50:28.279 PM 03/17/2016,Teleop Enabled,10,FALSE,0,NO ERROR,-0.000000,0.000000,0.000000,-0.077000,TRUE,FALSE,TRUE,FALSE,FALSE,FALSE,Disabled,0.000000,0.000000,0.000000,TRUE,-2.533264,-6.036148,0.000000,0.024582,-0.043137,0.000000,0.082000,-0.027000,-0.025000,-0.050000,-0.400000,0.680000,-0.163181,Hold,0.937988,0.000000,Hold,-217.000000,2.000000,LowGoal,307.617188,-2181.818182,Speed,301.025391,-2181.818182,Speed,Off,Off0.000000,0,,,,
08:50:28.380 PM 03/17/2016,Teleop Enabled,10,FALSE,0,NO ERROR,-0.000000,0.000000,0.000000,-0.077000,TRUE,FALSE,TRUE,FALSE,FALSE,FALSE,Disabled,0.000000,0.000000,0.000000,TRUE,-2.532242,-6.039932,0.000000,0.043594,-0.075729,0.000000,-0.024000,0.051000,0.004000,-0.050000,-0.370000,0.680000,-0.166881,Hold,0.937988,0.000000,Hold,-217.000000,2.000000,LowGoal,307.617188,-2181.818182,Speed,302.124023,-2181.818182,Speed,Off,Off0.000000,0,,,,
08:50:28.480 PM 03/17/2016,Teleop Enabled,10,FALSE,0,NO ERROR,-0.000000,0.000000,0.000000,-0.077000,TRUE,FALSE,TRUE,FALSE,FALSE,FALSE,Disabled,0.000000,0.000000,0.000000,TRUE,-2.528519,-6.042877,0.000000,0.089478,-0.018753,0.000000,-0.081000,0.036000,0.109000,-0.050000,-0.400000,0.680000,-0.167291,Hold,0.937988,0.000000,Hold,-217.000000,2.000000,LowGoal,307.617188,-2181.818182,Speed,301.025391,-2181.818182,Speed,Off,Off0.000000,0,,,,
08:50:28.581 PM 03/17/2016,Teleop Enabled,10,FALSE,0,NO ERROR,-0.000000,0.000000,0.000000,-0.077000,TRUE,FALSE,TRUE,FALSE,FALSE,FALSE,Disabled,0.000000,0.000000,0.000000,TRUE,-2.525146,-6.043854,0.000000,0.078110,-0.040955,0.000000,-0.134000,-0.072000,-0.017000,-0.050000,-0.430000,0.680000,-0.165632,Hold,0.937988,0.000000,Hold,-217.000000,2.000000,LowGoal,307.617188,-2181.818182,Speed,301.025391,-2181.818182,Speed,Off,Off0.000000,0,,,,
08:50:28.682 PM 03/17/2016,Teleop Enabled,11,FALSE,0,NO ERROR,-0.000000,0.000000,0.000000,-0.077000,TRUE,FALSE,TRUE,FALSE,FALSE,FALSE,Disabled,0.000000,0.000000,0.000000,TRUE,-2.523819,-6.047577,0.000000,0.029251,-0.076904,0.000000,0.046000,0.081000,-0.073000,-0.050000,-0.440000,0.670000,-0.181375,Hold,0.937988,0.000000,Hold,-217.000000,2.000000,LowGoal,306.518555,-2181.818182,Speed,301.025391,-2181.818182,Speed,Off,Off0.000000,0,,,,
08:50:28.783 PM 03/17/2016,Teleop Enabled,10,FALSE,0,NO ERROR,-0.000000,0.000000,0.000000,-0.077000,TRUE,FALSE,TRUE,FALSE,FALSE,FALSE,Disabled,0.000000,0.000000,0.000000,TRUE,-2.521286,-6.050735,0.000000,0.059738,-0.019424,0.000000,0.061000,0.140000,0.139000,-0.050000,-0.430000,0.650000,-0.178232,Hold,0.937988,0.000000,Hold,-217.000000,2.000000,LowGoal,306.518555,-2181.818182,Speed,301.025391,-2181.818182,Speed,Off,Off0.000000,0,,,,
08:50:28.884 PM 03/17/2016,Teleop Enabled,10,FALSE,0,NO ERROR,-0.000000,0.000000,0.000000,-0.077000,TRUE,FALSE,TRUE,FALSE,FALSE,FALSE,Disabled,0.000000,0.000000,0.000000,TRUE,-2.518005,-6.049255,0.000000,0.059479,0.044128,0.000000,0.055000,-0.004000,-0.014000,-0.050000,-0.430000,0.650000,-0.192969,Hold,0.937988,0.000000,Hold,-217.000000,2.000000,LowGoal,307.617188,-2181.818182,Speed,302.124023,-2181.818182,Speed,Off,Off0.000000,0,,,,
08:50:28.985 PM 03/17/2016,Teleop Enabled,9,FALSE,0,NO ERROR,-0.000000,0.000000,0.000000,-0.077000,TRUE,FALSE,TRUE,FALSE,FALSE,FALSE,Disabled,0.000000,0.000000,0.000000,TRUE,-2.515640,-6.048187,0.000000,0.004913,0.003143,0.000000,-0.029000,-0.094000,-0.077000,-0.050000,-0.430000,0.680000,-0.197321,Hold,0.937988,0.000000,Hold,-217.000000,2.000000,LowGoal,307.617188,-2181.818182,Speed,301.025391,-2181.818182,Speed,Off,Off0.000000,0,,,,
08:50:29.086 PM 03/17/2016,Teleop Enabled,10,FALSE,0,NO ERROR,-0.000000,0.000000,0.000000,-0.077000,TRUE,FALSE,TRUE,FALSE,FALSE,FALSE,Disabled,0.000000,0.000000,0.000000,TRUE,-2.515305,-6.050278,0.000000,0.003906,-0.067627,0.000000,-0.028000,0.010000,0.054000,-0.050000,-0.430000,0.660000,-0.198694,Hold,0.937988,0.000000,Hold,-217.000000,2.000000,LowGoal,306.518555,-2181.818182,Speed,302.124023,-2181.818182,Speed,Off,Off0.000000,0,,,,
08:50:29.187 PM 03/17/2016,Teleop Enabled,10,FALSE,0,NO ERROR,-0.000000,0.000000,0.000000,-0.077000,TRUE,FALSE,TRUE,FALSE,FALSE,FALSE,Disabled,0.000000,0.000000,0.000000,TRUE,-2.514145,-6.052826,0.000000,0.059769,-0.019089,0.000000,-0.115000,-0.004000,0.079000,-0.050000,-0.400000,0.690000,-0.193899,Hold,0.937988,0.000000,Hold,-217.000000,2.000000,LowGoal,307.617188,-2181.818182,Speed,302.124023,-2181.818182,Speed,Off,Off0.000000,0,,,,
08:50:29.287 PM 03/17/2016,Teleop Enabled,11,FALSE,0,NO ERROR,-0.000000,0.000000,0.000000,-0.077000,TRUE,FALSE,TRUE,FALSE,FALSE,FALSE,Disabled,0.000000,0.000000,0.000000,TRUE,-2.511353,-6.053345,0.000000,0.031326,-0.010986,0.000000,-0.168000,-0.023000,-0.013000,-0.050000,-0.400000,0.690000,-0.183117,Hold,0.937988,0.000000,Hold,-217.000000,2.000000,LowGoal,307.617188,-2181.818182,Speed,301.025391,-2181.818182,Speed,Off,Off0.000000,0,,,,
08:50:29.388 PM 03/17/2016,Teleop Enabled,10,FALSE,0,NO ERROR,-0.000000,0.000000,0.000000,-0.077000,TRUE,FALSE,TRUE,FALSE,FALSE,FALSE,Disabled,0.000000,0.000000,0.000000,TRUE,-2.510864,-6.055634,0.000000,0.031784,-0.043121,0.000000,-0.168000,-0.023000,-0.013000,-0.050000,-0.400000,0.700000,-0.174669,Hold,0.937988,0.000000,Hold,-217.000000,2.000000,LowGoal,306.518555,-2181.818182,Speed,302.124023,-2181.818182,Speed,Off,Off0.000000,0,,,,
08:50:29.490 PM 03/17/2016,Teleop Enabled,10,FALSE,0,NO ERROR,-0.000000,0.000000,0.000000,-0.077000,TRUE,FALSE,TRUE,FALSE,FALSE,FALSE,Disabled,0.000000,0.000000,0.000000,TRUE,-2.510864,-6.055634,0.000000,0.031784,-0.043121,0.000000,0.002000,-0.002000,-0.182000,-0.050000,-0.420000,0.690000,-0.168641,Hold,0.937988,0.000000,Hold,-217.000000,2.000000,LowGoal,307.617188,-2181.818182,Speed,302.124023,-2181.818182,Speed,Off,Off0.000000,0,,,,
08:50:29.591 PM 03/17/2016,Teleop Enabled,11,FALSE,0,NO ERROR,-0.000000,0.000000,0.000000,-0.077000,TRUE,FALSE,TRUE,FALSE,FALSE,FALSE,Disabled,0.000000,0.000000,0.000000,TRUE,-2.508255,-6.052185,0.000000,0.035629,0.048477,0.000000,-0.066000,0.056000,0.018000,-0.060000,-0.420000,0.680000,-0.155786,Hold,0.937988,0.000000,Hold,-217.000000,2.000000,LowGoal,307.617188,-2181.818182,Speed,301.025391,-2181.818182,Speed,Off,Off0.000000,0,,,,
08:50:29.693 PM 03/17/2016,Teleop Enabled,10,FALSE,0,NO ERROR,-0.000000,0.000000,0.000000,-0.077000,TRUE,FALSE,TRUE,FALSE,FALSE,FALSE,Disabled,0.000000,0.000000,0.000000,TRUE,-2.508835,-6.052353,0.000000,-0.024750,-0.027267,0.000000,-0.081000,-0.067000,-0.078000,-0.060000,-0.430000,0.690000,-0.149834,Hold,0.937988,0.000000,Hold,-217.000000,2.000000,LowGoal,307.617188,-2181.818182,Speed,301.025391,-2181.818182,Speed,Off,Off0.000000,0,,,,
08:50:29.792 PM 03/17/2016,Teleop Enabled,9,FALSE,0,NO ERROR,-0.000000,0.000000,0.000000,-0.077000,TRUE,FALSE,TRUE,FALSE,FALSE,FALSE,Disabled,0.000000,0.000000,0.000000,TRUE,-2.509033,-6.053558,0.000000,-0.010330,-0.033340,0.000000,0.052000,0.083000,-0.082000,-0.060000,-0.430000,0.690000,-0.161666,Hold,0.937988,0.000000,Hold,-217.000000,2.000000,LowGoal,307.617188,-2181.818182,Speed,301.025391,-2181.818182,Speed,Off,Off0.000000,0,,,,
08:50:29.892 PM 03/17/2016,Teleop Enabled,10,FALSE,0,NO ERROR,-0.000000,0.000000,0.000000,-0.077000,TRUE,FALSE,TRUE,FALSE,FALSE,FALSE,Disabled,0.000000,0.000000,0.000000,TRUE,-2.508423,-6.052994,0.000000,0.003235,0.033325,0.000000,0.067000,0.103000,0.107000,-0.060000,-0.500000,0.650000,-0.156299,Hold,0.937988,0.000000,Hold,-217.000000,2.000000,LowGoal,306.518555,-2181.818182,Speed,301.025391,-2181.818182,Speed,Off,Off0.000000,0,,,,
08:50:29.993 PM 03/17/2016,Teleop Enabled,11,FALSE,0,NO ERROR,-0.000000,0.000000,0.000000,-0.077000,TRUE,FALSE,TRUE,FALSE,FALSE,FALSE,Disabled,0.000000,0.000000,0.000000,TRUE,-2.507904,-6.052856,0.000000,-0.038742,-0.031815,0.000000,0.077000,0.025000,0.120000,-0.060000,-0.500000,0.650000,-0.161033,Hold,0.937988,0.000000,Hold,-217.000000,2.000000,LowGoal,307.617188,-2181.818182,Speed,301.025391,-2181.818182,Speed,Off,Off0.000000,0,,,,
08:50:30.094 PM 03/17/2016,Teleop Enabled,10,FALSE,0,NO ERROR,-0.000000,0.000000,0.000000,-0.077000,TRUE,FALSE,TRUE,FALSE,FALSE,FALSE,Disabled,0.000000,0.000000,0.000000,TRUE,-2.509598,-6.055725,0.000000,-0.029633,-0.072571,0.000000,-0.109000,-0.014000,-0.102000,-0.060000,-0.480000,0.630000,-0.171209,Hold,0.937988,0.000000,Hold,-217.000000,2.000000,LowGoal,307.617188,-2181.818182,Speed,301.025391,-2181.818182,Speed,Off,Off0.000000,0,,,,
08:50:30.195 PM 03/17/2016,Teleop Enabled,11,FALSE,0,NO ERROR,-0.000000,0.000000,0.000000,-0.077000,TRUE,FALSE,TRUE,FALSE,FALSE,FALSE,Disabled,0.000000,0.000000,0.000000,TRUE,-2.509598,-6.055725,0.000000,-0.029633,-0.072571,0.000000,-0.045000,-0.043000,-0.024000,-0.060000,-0.440000,0.660000,-0.197527,Hold,0.937988,0.000000,Hold,-217.000000,2.000000,LowGoal,306.518555,-2181.818182,Speed,301.025391,-2181.818182,Speed,Off,Off0.000000,0,,,,
08:50:30.295 PM 03/17/2016,Teleop Enabled,10,FALSE,0,NO ERROR,-0.000000,0.000000,0.000000,-0.077000,TRUE,FALSE,TRUE,FALSE,FALSE,FALSE,Disabled,0.000000,0.000000,0.000000,TRUE,-2.508453,-6.058548,0.000000,0.040100,0.000000,0.000000,0.013000,0.029000,0.078000,-0.060000,-0.460000,0.650000,-0.212926,Hold,0.937988,0.000000,Hold,-217.000000,2.000000,LowGoal,307.617188,-2181.818182,Speed,301.025391,-2181.818182,Speed,Off,Off0.000000,0,,,,
08:50:30.396 PM 03/17/2016,Teleop Enabled,11,FALSE,0,NO ERROR,-0.000000,0.000000,0.000000,-0.077000,TRUE,FALSE,TRUE,FALSE,FALSE,FALSE,Disabled,0.000000,0.000000,0.000000,TRUE,-2.509720,-6.060074,0.000000,-0.034927,-0.058990,0.000000,-0.043000,-0.013000,0.019000,-0.060000,-0.370000,0.680000,-0.223804,Hold,0.937988,0.000000,Hold,-217.000000,2.000000,LowGoal,307.617188,-2181.818182,Speed,301.025391,-2181.818182,Speed,Off,Off0.000000,0,,,,
08:50:30.497 PM 03/17/2016,Teleop Enabled,10,FALSE,0,NO ERROR,-0.000000,0.000000,0.000000,-0.077000,TRUE,FALSE,TRUE,FALSE,FALSE,FALSE,Disabled,0.000000,0.000000,0.000000,TRUE,-2.510117,-6.062012,0.000000,-0.004532,-0.043716,0.000000,0.062000,-0.061000,-0.058000,-0.070000,-0.370000,0.670000,-0.232789,Hold,0.937988,0.000000,Hold,-217.000000,2.000000,LowGoal,307.617188,-2181.818182,Speed,301.025391,-2181.818182,Speed,Off,Off0.000000,0,,,,
08:50:30.598 PM 03/17/2016,Teleop Enabled,8,FALSE,0,NO ERROR,-0.000000,0.000000,0.000000,-0.077000,TRUE,FALSE,TRUE,FALSE,FALSE,FALSE,Disabled,0.000000,0.000000,0.000000,TRUE,-2.509583,-6.062027,0.000000,-0.007309,0.023987,0.000000,-0.001000,0.023000,-0.010000,-0.070000,-0.430000,0.670000,-0.238945,Hold,0.937988,0.000000,Hold,-217.000000,2.000000,LowGoal,307.617188,-2181.818182,Speed,301.025391,-2181.818182,Speed,Off,Off0.000000,0,,,,
08:50:30.698 PM 03/17/2016,Teleop Enabled,11,FALSE,0,NO ERROR,-0.000000,0.000000,0.000000,-0.077000,TRUE,FALSE,TRUE,FALSE,FALSE,FALSE,Disabled,0.000000,0.000000,0.000000,TRUE,-2.509628,-6.061783,0.000000,-0.028122,-0.029327,0.000000,0.060000,0.003000,0.017000,-0.070000,-0.430000,0.680000,-0.233106,Hold,0.937988,0.000000,Hold,-217.000000,2.000000,LowGoal,307.617188,-2181.818182,Speed,301.025391,-2181.818182,Speed,Off,Off0.000000,0,,,,
08:50:30.798 PM 03/17/2016,Teleop Enabled,8,FALSE,0,NO ERROR,-0.000000,0.000000,0.000000,-0.077000,TRUE,FALSE,TRUE,FALSE,FALSE,FALSE,Disabled,0.000000,0.000000,0.000000,TRUE,-2.509628,-6.061783,0.000000,-0.028122,-0.029327,0.000000,-0.201000,-0.159000,-0.078000,-0.060000,-0.440000,0.680000,-0.247912,Hold,0.937988,0.000000,Hold,-217.000000,2.000000,LowGoal,307.617188,-2181.818182,Speed,301.025391,-2181.818182,Speed,Off,Off0.000000,0,,,,
08:50:30.899 PM 03/17/2016,Teleop Enabled,10,FALSE,0,NO ERROR,-0.000000,0.000000,0.000000,-0.077000,TRUE,FALSE,TRUE,FALSE,FALSE,FALSE,Disabled,0.000000,0.000000,0.000000,TRUE,-2.511887,-6.064438,0.000000,-0.025848,-0.045563,0.000000,0.038000,0.041000,-0.021000,-0.060000,-0.440000,0.680000,-0.253999,Hold,0.937988,0.000000,Hold,-217.000000,2.000000,LowGoal,307.617188,-2181.818182,Speed,301.025391,-2181.818182,Speed,Off,Off0.000000,0,,,,
08:50:30.999 PM 03/17/2016,Teleop Enabled,2,FALSE,0,NO ERROR,-0.000000,0.000000,0.000000,-0.077000,TRUE,FALSE,TRUE,FALSE,FALSE,FALSE,Disabled,0.000000,0.000000,0.000000,TRUE,-2.512680,-6.066010,0.000000,0.005264,0.018738,0.000000,-0.024000,0.060000,0.084000,-0.060000,-0.460000,0.660000,-0.256006,Hold,0.937988,0.000000,Hold,-217.000000,2.000000,LowGoal,307.617188,-2181.818182,Speed,301.025391,-2181.818182,Speed,Off,Off0.000000,0,,,,
08:50:31.099 PM 03/17/2016,Teleop Enabled,10,FALSE,0,NO ERROR,-0.000000,0.000000,0.000000,-0.077000,TRUE,FALSE,TRUE,FALSE,FALSE,FALSE,Disabled,0.000000,0.000000,0.000000,TRUE,-2.513062,-6.065140,0.000000,-0.001373,0.021255,0.000000,0.019000,-0.042000,-0.025000,-0.060000,-0.460000,0.670000,-0.256212,Hold,0.937988,0.000000,Hold,-217.000000,2.000000,LowGoal,307.617188,-2181.818182,Speed,301.025391,-2181.818182,Speed,Off,Off0.000000,0,,,,
08:50:31.199 PM 03/17/2016,Teleop Enabled,10,FALSE,0,NO ERROR,-0.000000,0.000000,0.000000,-0.077000,TRUE,FALSE,TRUE,FALSE,FALSE,FALSE,Disabled,0.000000,0.000000,0.000000,TRUE,-2.516968,-6.068375,0.000000,-0.054031,-0.070450,0.000000,0.071000,-0.098000,-0.099000,-0.060000,-0.460000,0.660000,-0.261504,Hold,0.937988,0.000000,Hold,-217.000000,2.000000,LowGoal,307.617188,-2181.818182,Speed,301.025391,-2181.818182,Speed,Off,Off0.000000,0,,,,
08:50:31.299 PM 03/17/2016,Teleop Enabled,8,FALSE,0,NO ERROR,-0.000000,0.000000,0.000000,-0.077000,TRUE,FALSE,TRUE,FALSE,FALSE,FALSE,Disabled,0.000000,0.000000,0.000000,TRUE,-2.516968,-6.068375,0.000000,-0.054031,-0.070450,0.000000,-0.061000,-0.026000,-0.001000,-0.060000,-0.420000,0.670000,-0.263404,Hold,0.937988,0.000000,Hold,-217.000000,2.000000,LowGoal,307.617188,-2181.818182,Speed,302.124023,-2181.818182,Speed,Off,Off0.000000,0,,,,
08:50:31.399 PM 03/17/2016,Teleop Enabled,11,FALSE,0,NO ERROR,-0.000000,0.000000,0.000000,-0.077000,TRUE,FALSE,TRUE,FALSE,FALSE,FALSE,Disabled,0.000000,0.000000,0.000000,TRUE,-2.518051,-6.071457,0.000000,-0.005753,-0.026138,0.000000,0.029000,0.052000,0.088000,-0.070000,-0.430000,0.670000,-0.263593,Hold,0.937988,0.000000,Hold,-217.000000,2.000000,LowGoal,307.617188,-2181.818182,Speed,302.124023,-2181.818182,Speed,Off,Off0.000000,0,,,,
08:50:31.499 PM 03/17/2016,Teleop Enabled,14,FALSE,0,NO ERROR,-0.000000,0.000000,0.000000,-0.077000,TRUE,FALSE,TRUE,FALSE,FALSE,FALSE,Disabled,0.000000,0.000000,0.000000,TRUE,-2.517715,-6.072189,0.000000,-0.010468,-0.023804,0.000000,-0.174000,-0.153000,0.026000,-0.070000,-0.410000,0.680000,-0.274923,Hold,0.937988,0.000000,Hold,-217.000000,2.000000,LowGoal,307.617188,-2181.818182,Speed,301.025391,-2181.818182,Speed,Off,Off0.000000,0,,,,
08:50:31.599 PM 03/17/2016,Teleop Enabled,11,FALSE,0,NO ERROR,-0.000000,0.000000,0.000000,-0.077000,TRUE,FALSE,TRUE,FALSE,FALSE,FALSE,Disabled,0.000000,0.000000,0.000000,TRUE,-2.519440,-6.074860,0.000000,-0.017303,-0.039124,0.000000,0.031000,0.042000,-0.026000,-0.070000,-0.410000,0.690000,-0.269339,Hold,0.937988,0.000000,Hold,-217.000000,2.000000,LowGoal,307.617188,-2181.818182,Speed,301.025391,-2181.818182,Speed,Off,Off0.000000,0,,,,
08:50:31.700 PM 03/17/2016,Teleop Enabled,18,FALSE,0,NO ERROR,-0.000000,0.000000,0.000000,-0.077000,TRUE,FALSE,TRUE,FALSE,FALSE,FALSE,Disabled,0.000000,0.000000,0.000000,TRUE,-2.519409,-6.075974,0.000000,0.026855,-0.021866,0.000000,0.004000,0.129000,0.075000,-0.070000,-0.430000,0.650000,-0.272795,Hold,0.937988,0.000000,Hold,-217.000000,2.000000,LowGoal,306.518555,-2181.818182,Speed,302.124023,-2181.818182,Speed,Off,Off0.000000,0,,,,
08:50:31.800 PM 03/17/2016,Teleop Enabled,16,FALSE,0,NO ERROR,-0.000000,0.000000,0.000000,-0.077000,TRUE,FALSE,TRUE,FALSE,FALSE,FALSE,Disabled,0.000000,0.000000,0.000000,TRUE,-2.517822,-6.074219,0.000000,0.015976,0.016098,0.000000,0.003000,-0.121000,0.018000,-0.060000,-0.490000,0.650000,-0.272795,Hold,0.937988,0.000000,Hold,-217.000000,2.000000,LowGoal,307.617188,-2181.818182,Speed,302.124023,-2181.818182,Speed,Off,Off0.000000,0,,,,
08:50:31.902 PM 03/17/2016,Teleop Enabled,12,FALSE,0,NO ERROR,-0.000000,0.000000,0.000000,-0.077000,TRUE,FALSE,TRUE,FALSE,FALSE,FALSE,Disabled,0.000000,0.000000,0.000000,TRUE,-2.519180,-6.075760,0.000000,-0.067169,-0.071304,0.000000,0.103000,0.008000,-0.092000,-0.070000,-0.450000,0.670000,-0.285151,Hold,0.937988,0.000000,Hold,-217.000000,2.000000,LowGoal,307.617188,-2181.818182,Speed,301.025391,-2181.818182,Speed,Off,Off0.000000,0,,,,
08:50:32.003 PM 03/17/2016,Teleop Enabled,9,FALSE,0,NO ERROR,-0.000000,0.000000,0.000000,-0.077000,TRUE,FALSE,TRUE,FALSE,FALSE,FALSE,Disabled,0.000000,0.000000,0.000000,TRUE,-2.521255,-6.079163,0.000000,-0.043762,-0.074753,0.000000,-0.044000,0.062000,0.127000,-0.060000,-0.450000,0.630000,-0.308763,Hold,0.937988,0.000000,Hold,-217.000000,2.000000,LowGoal,307.617188,-2181.818182,Speed,302.124023,-2181.818182,Speed,Off,Off0.000000,0,,,,
08:50:32.103 PM 03/17/2016,Teleop Enabled,11,FALSE,0,NO ERROR,-0.000000,0.000000,0.000000,-0.077000,TRUE,FALSE,TRUE,FALSE,FALSE,FALSE,Disabled,0.000000,0.000000,0.000000,TRUE,-2.522339,-6.080429,0.000000,-0.007050,0.010742,0.000000,-0.063000,-0.050000,0.067000,-0.060000,-0.450000,0.640000,-0.304105,Hold,0.937988,0.000000,Hold,-217.000000,2.000000,LowGoal,307.617188,-2181.818182,Speed,302.124023,-2181.818182,Speed,Off,Off0.000000,0,,,,
08:50:32.203 PM 03/17/2016,Teleop Enabled,10,FALSE,0,NO ERROR,-0.000000,0.000000,0.000000,-0.077000,TRUE,FALSE,TRUE,FALSE,FALSE,FALSE,Disabled,0.000000,0.000000,0.000000,TRUE,-2.522293,-6.079529,0.000000,0.010269,0.029572,0.000000,-0.097000,-0.085000,-0.055000,-0.060000,-0.430000,0.660000,-0.307531,Hold,0.937988,0.000000,Hold,-217.000000,2.000000,LowGoal,307.617188,-2181.818182,Speed,301.025391,-2181.818182,Speed,Off,Off0.000000,0,,,,
08:50:32.304 PM 03/17/2016,Teleop Enabled,10,FALSE,0,NO ERROR,-0.000000,0.000000,0.000000,-0.077000,TRUE,FALSE,TRUE,FALSE,FALSE,FALSE,Disabled,0.000000,0.000000,0.000000,TRUE,-2.524551,-6.079987,0.000000,-0.036774,-0.031281,0.000000,-0.029000,-0.025000,-0.049000,-0.060000,-0.410000,0.690000,-0.292476,Hold,0.937988,0.000000,Hold,-217.000000,2.000000,LowGoal,307.617188,-2181.818182,Speed,301.025391,-2181.818182,Speed,Off,Off0.000000,0,,,,
08:50:32.407 PM 03/17/2016,Teleop Enabled,9,FALSE,0,NO ERROR,-0.000000,0.000000,0.000000,-0.077000,TRUE,FALSE,TRUE,FALSE,FALSE,FALSE,Disabled,0.000000,0.000000,0.000000,TRUE,-2.526184,-6.080597,0.000000,-0.031494,-0.003113,0.000000,0.189000,0.071000,0.037000,-0.060000,-0.420000,0.700000,-0.293437,Hold,0.937988,0.000000,Hold,-217.000000,2.000000,LowGoal,307.617188,-2181.818182,Speed,302.124023,-2181.818182,Speed,Off,Off0.000000,0,,,,
08:50:32.507 PM 03/17/2016,Teleop Enabled,10,FALSE,0,NO ERROR,-0.000000,0.000000,0.000000,-0.077000,TRUE,FALSE,TRUE,FALSE,FALSE,FALSE,Disabled,0.000000,0.000000,0.000000,TRUE,-2.525055,-6.078247,0.000000,0.013641,0.071762,0.000000,0.065000,0.043000,0.018000,-0.060000,-0.420000,0.680000,-0.304900,Hold,0.937988,0.000000,Hold,-217.000000,2.000000,LowGoal,307.617188,-2181.818182,Speed,301.025391,-2181.818182,Speed,Off,Off0.000000,0,,,,
08:50:32.607 PM 03/17/2016,Teleop Enabled,9,FALSE,0,NO ERROR,-0.000000,0.000000,0.000000,-0.077000,TRUE,FALSE,TRUE,FALSE,FALSE,FALSE,Disabled,0.000000,0.000000,0.000000,TRUE,-2.524643,-6.076279,0.000000,-0.020935,0.025497,0.000000,-0.078000,-0.069000,0.006000,-0.060000,-0.420000,0.660000,-0.289970,Hold,0.937988,0.000000,Hold,-217.000000,2.000000,LowGoal,308.715820,-2181.818182,Speed,301.025391,-2181.818182,Speed,Off,Off0.000000,0,,,,
08:50:32.707 PM 03/17/2016,Teleop Enabled,9,FALSE,0,NO ERROR,-0.000000,0.000000,0.000000,-0.077000,TRUE,FALSE,TRUE,FALSE,FALSE,FALSE,Disabled,0.000000,0.000000,0.000000,TRUE,-2.526901,-6.075897,0.000000,-0.043060,0.020935,0.000000,0.031000,0.086000,-0.021000,-0.060000,-0.450000,0.660000,-0.294356,Hold,0.937988,0.000000,Hold,-217.000000,2.000000,LowGoal,307.617188,-2181.818182,Speed,302.124023,-2181.818182,Speed,Off,Off0.000000,0,,,,
08:50:32.807 PM 03/17/2016,Teleop Enabled,10,FALSE,0,NO ERROR,-0.000000,0.000000,0.000000,-0.077000,TRUE,FALSE,TRUE,FALSE,FALSE,FALSE,Disabled,0.000000,0.000000,0.000000,TRUE,-2.526764,-6.072418,0.000000,0.042755,0.106613,0.000000,-0.071000,0.133000,0.004000,-0.060000,-0.400000,0.640000,-0.311407,Hold,0.937988,0.000000,Hold,-217.000000,2.000000,LowGoal,307.617188,-2181.818182,Speed,301.025391,-2181.818182,Speed,Off,Off0.000000,0,,,,
08:50:32.909 PM 03/17/2016,Teleop Enabled,11,FALSE,0,NO ERROR,-0.000000,0.000000,0.000000,-0.077000,TRUE,FALSE,TRUE,FALSE,FALSE,FALSE,Disabled,0.000000,0.000000,0.000000,TRUE,-2.526062,-6.066895,0.000000,0.011963,0.100693,0.000000,-0.030000,-0.021000,-0.035000,-0.060000,-0.390000,0.660000,-0.325683,Hold,0.937988,0.000000,Hold,-217.000000,2.000000,LowGoal,307.617188,-2181.818182,Speed,301.025391,-2181.818182,Speed,Off,Off0.000000,0,,,,
08:50:33.010 PM 03/17/2016,Teleop Enabled,10,FALSE,0,NO ERROR,-0.000000,0.000000,0.000000,-0.077000,TRUE,FALSE,TRUE,FALSE,FALSE,FALSE,Disabled,0.000000,0.000000,0.000000,TRUE,-2.527802,-6.064880,0.000000,-0.039307,0.007278,0.000000,0.049000,0.012000,-0.056000,-0.060000,-0.410000,0.680000,-0.349086,Hold,0.937988,0.000000,Hold,-217.000000,2.000000,LowGoal,307.617188,-2181.818182,Speed,301.025391,-2181.818182,Speed,Off,Off0.000000,0,,,,
08:50:33.111 PM 03/17/2016,Teleop Enabled,10,FALSE,0,NO ERROR,-0.000000,0.000000,0.000000,-0.077000,TRUE,FALSE,TRUE,FALSE,FALSE,FALSE,Disabled,0.000000,0.000000,0.000000,TRUE,-2.528702,-6.064194,0.000000,-0.016190,0.026901,0.000000,0.184000,0.085000,0.099000,-0.060000,-0.380000,0.670000,-0.344328,Hold,0.937988,0.000000,Hold,-217.000000,2.000000,LowGoal,308.715820,-2181.818182,Speed,299.926758,-2181.818182,Speed,Off,Off0.000000,0,,,,
08:50:33.216 PM 03/17/2016,Teleop Enabled,10,FALSE,0,NO ERROR,-0.000000,0.000000,0.000000,-0.077000,TRUE,FALSE,TRUE,FALSE,FALSE,FALSE,Disabled,0.000000,0.000000,0.000000,TRUE,-2.528275,-6.061676,0.000000,-0.002548,0.049606,0.000000,0.015000,0.075000,0.012000,-0.070000,-0.360000,0.640000,-0.353048,Hold,0.937988,0.000000,Hold,-217.000000,2.000000,LowGoal,307.617188,-2181.818182,Speed,301.025391,-2181.818182,Speed,Off,Off0.000000,0,,,,
08:50:33.315 PM 03/17/2016,Teleop Enabled,11,FALSE,0,NO ERROR,-0.000000,0.000000,0.000000,-0.077000,TRUE,FALSE,TRUE,FALSE,FALSE,FALSE,Disabled,0.000000,0.000000,0.000000,TRUE,-2.528641,-6.059448,0.000000,-0.036270,0.009872,0.000000,0.084000,-0.023000,-0.075000,-0.070000,-0.370000,0.670000,-0.356047,Hold,0.937988,0.000000,Hold,-217.000000,2.000000,LowGoal,307.617188,-2181.818182,Speed,302.124023,-2181.818182,Speed,Off,Off0.000000,0,,,,
08:50:33.415 PM 03/17/2016,Teleop Enabled,10,FALSE,0,NO ERROR,-0.000000,0.000000,0.000000,-0.077000,TRUE,FALSE,TRUE,FALSE,FALSE,FALSE,Disabled,0.000000,0.000000,0.000000,TRUE,-2.530029,-6.059708,0.000000,-0.037979,0.007278,0.000000,-0.018000,0.011000,0.040000,-0.070000,-0.340000,0.690000,-0.357303,Hold,0.937988,0.000000,Hold,-217.000000,2.000000,LowGoal,307.617188,-2181.818182,Speed,302.124023,-2181.818182,Speed,Off,Off0.000000,0,,,,
08:50:33.516 PM 03/17/2016,Teleop Enabled,11,FALSE,0,NO ERROR,-0.000000,0.000000,0.000000,-0.077000,TRUE,FALSE,TRUE,FALSE,FALSE,FALSE,Disabled,0.000000,0.000000,0.000000,TRUE,-2.529999,-6.059006,0.000000,0.020920,0.023926,0.000000,-0.123000,0.005000,0.026000,-0.070000,-0.320000,0.670000,-0.354477,Hold,0.937988,0.000000,Hold,-217.000000,2.000000,LowGoal,308.715820,-2181.818182,Speed,302.124023,-2181.818182,Speed,Off,Off0.000000,0,,,,
08:50:33.616 PM 03/17/2016,Teleop Enabled,10,FALSE,0,NO ERROR,-0.000000,0.000000,0.000000,-0.077000,TRUE,FALSE,TRUE,FALSE,FALSE,FALSE,Disabled,0.000000,0.000000,0.000000,TRUE,-2.529770,-6.058365,0.000000,0.014038,0.026733,0.000000,-0.075000,-0.056000,0.070000,-0.070000,-0.360000,0.700000,-0.365131,Hold,0.937988,0.000000,Hold,-217.000000,2.000000,LowGoal,308.715820,-2181.818182,Speed,301.025391,-2181.818182,Speed,Off,Off0.000000,0,,,,
08:50:33.717 PM 03/17/2016,Teleop Enabled,10,FALSE,0,NO ERROR,-0.000000,0.000000,0.000000,-0.077000,TRUE,FALSE,TRUE,FALSE,FALSE,FALSE,Disabled,0.000000,0.000000,0.000000,TRUE,-2.530502,-6.058701,0.000000,-0.007858,-0.015305,0.000000,-0.022000,-0.007000,-0.036000,-0.070000,-0.400000,0.690000,-0.372233,Hold,0.937988,0.000000,Hold,-217.000000,2.000000,LowGoal,308.715820,-2181.818182,Speed,301.025391,-2181.818182,Speed,Off,Off0.000000,0,,,,
08:50:33.817 PM 03/17/2016,Teleop Enabled,10,FALSE,0,NO ERROR,-0.000000,0.000000,0.000000,-0.077000,TRUE,FALSE,TRUE,FALSE,FALSE,FALSE,Disabled,0.000000,0.000000,0.000000,TRUE,-2.530975,-6.058548,0.000000,0.026978,0.026001,0.000000,0.217000,0.131000,0.043000,-0.070000,-0.450000,0.670000,-0.378323,Hold,0.937988,0.000000,Hold,-217.000000,2.000000,LowGoal,308.715820,-2181.818182,Speed,301.025391,-2181.818182,Speed,Off,Off0.000000,0,,,,
