Time,Robot Mode,Loop Time,Error Status,Error Code,Error Source,Left Motor Output,Left Motor Encoder,Right Motor Output,Right Motor Encoder,Is Level,Is Stalled,Ball Detector Photoeye,Vision Enabled,Vision Teleop Control,Vision Auto Control,Vision Current State,Vision X Output,Vision NavX Error,Vision NavX Target,NavX Connection Status,NavX Displacement X,NavX Displacement Y,NavX Displacement Z,NavX Velocity X,NavX Velocity Y,NavX Velocity Z,NavX Acceleration X,NavX Acceleration Y,NavX Acceleration Z,NavX Pitch,NavX Yaw,NavX Roll,Gyro Angle,Roller Arm State,Roller Arm Actual,Roller Arm Desired,Shooter Arm State,Shooter Arm Actual,Shooter Arm Desired,Shooter State,Actual RPM Left,Desired RPM Left,Control Mode Left,Actual RPM Right,Desired RPM Right,Scaler Motor Output,Auto To Run,Auto Current File,Auto File Status,Auto Current Command,Auto Trimmed Command
08:51:25.074 PM 03/17/2016,Teleop Enabled,28240,FALSE,0,NO ERROR,-0.000000,0.000000,0.000000,0.359332,TRUE,FALSE,TRUE,FALSE,FALSE,FALSE,Disabled,0.000000,0.000000,0.000000,TRUE,-2.634048,-6.041153,0.000000,0.000000,0.000000,0.000000,-0.003000,-0.001000,0.009000,-0.180000,-0.380000,0.630000,-0.623971,Hold,0.937988,0.000000,Hold,-13149.000000,2.000000,LowGoal,0.000000,-2181.818182,Speed,0.000000,-2181.818182,Speed,Off,Off0.000000,0,,,,
08:51:25.179 PM 03/17/2016,Teleop Enabled,11,FALSE,0,NO ERROR,-0.000000,0.000000,0.000000,-0.455582,TRUE,FALSE,TRUE,FALSE,FALSE,FALSE,Disabled,0.000000,0.000000,0.000000,TRUE,-2.634048,-6.041153,0.000000,0.000000,0.000000,0.000000,-0.003000,-0.001000,0.009000,-0.180000,-0.380000,0.630000,0.038109,ResetBack,0.937988,-0.200000,ResetBack,-1647.000000,-0.300000,Empty,0.000000,0.000000,Speed,0.000000,0.000000,Speed,On,Off0.000000,0,,,,
08:51:25.280 PM 03/17/2016,Teleop Enabled,10,FALSE,0,NO ERROR,-0.000000,0.000000,0.000000,-0.436332,TRUE,FALSE,TRUE,FALSE,FALSE,FALSE,Disabled,0.000000,0.000000,0.000000,TRUE,-2.634125,-6.040375,0.000000,0.000000,0.000000,0.000000,-0.010000,0.005000,-0.002000,0.000000,-0.110000,1.170000,0.269841,ResetBack,0.252930,-0.200000,ResetBack,-1647.000000,-0.300000,Empty,0.000000,0.000000,Speed,0.000000,0.000000,Speed,On,Off0.000000,0,,,,
08:51:25.381 PM 03/17/2016,Teleop Enabled,13,FALSE,0,NO ERROR,-0.000000,0.000000,0.000000,-0.436332,TRUE,FALSE,TRUE,FALSE,FALSE,FALSE,Disabled,0.000000,0.000000,0.000000,TRUE,-2.634125,-6.040375,0.000000,0.000000,0.000000,0.000000,-0.007000,-0.004000,0.000000,0.000000,-0.110000,1.180000,0.455595,ResetBack,0.000732,-0.200000,ResetBack,-8.000000,-0.300000,Empty,0.000000,0.000000,Speed,0.000000,0.000000,Speed,On,Off0.000000,0,,,,
08:51:25.482 PM 03/17/2016,Teleop Enabled,11,FALSE,0,NO ERROR,-0.000000,0.000000,0.000000,-0.436332,TRUE,FALSE,TRUE,FALSE,FALSE,FALSE,Disabled,0.000000,0.000000,0.000000,TRUE,-2.634125,-6.040375,0.000000,0.000000,0.000000,0.000000,0.001000,0.000000,0.022000,0.000000,-0.120000,1.160000,0.647290,Reset,0.000732,0.000000,ResetBack,-6.000000,-0.300000,Empty,0.000000,0.000000,Speed,0.000000,0.000000,Speed,On,Off0.000000,0,,,,
08:51:25.582 PM 03/17/2016,Teleop Enabled,11,FALSE,0,NO ERROR,-0.000000,0.000000,0.000000,-0.436332,TRUE,FALSE,TRUE,FALSE,FALSE,FALSE,Disabled,0.000000,0.000000,0.000000,TRUE,-2.634125,-6.040375,0.000000,0.000000,0.000000,0.000000,0.006000,0.000000,0.019000,0.000000,-0.100000,1.180000,0.879453,Hold,0.889404,0.000000,ResetBack,-5.000000,-0.300000,Empty,0.000000,0.000000,Speed,0.000000,0.000000,Speed,On,Off0.000000,0,,,,
08:51:25.683 PM 03/17/2016,Teleop Enabled,11,FALSE,0,NO ERROR,-0.000000,0.000000,0.000000,-0.436332,TRUE,FALSE,TRUE,FALSE,FALSE,FALSE,Disabled,0.000000,0.000000,0.000000,TRUE,-2.634125,-6.040375,0.000000,0.000000,0.000000,0.000000,0.000000,0.000000,0.007000,0.000000,-0.110000,1.190000,1.055185,Hold,0.938232,0.000000,ResetBack,-5.000000,-0.300000,Empty,0.000000,0.000000,Speed,0.000000,0.000000,Speed,On,Off0.000000,0,,,,
08:51:25.783 PM 03/17/2016,Teleop Enabled,11,FALSE,0,NO ERROR,-0.000000,0.000000,0.000000,-0.436332,TRUE,FALSE,TRUE,FALSE,FALSE,FALSE,Disabled,0.000000,0.000000,0.000000,TRUE,-2.634125,-6.040375,0.000000,0.000000,0.000000,0.000000,-0.012000,-0.002000,0.038000,0.000000,-0.120000,1.190000,1.243338,Hold,0.938232,0.000000,ResetBack,-5.000000,-0.300000,Empty,0.000000,0.000000,Speed,0.000000,0.000000,Speed,On,Off0.000000,0,,,,
08:51:25.883 PM 03/17/2016,Teleop Enabled,10,FALSE,0,NO ERROR,-0.000000,0.000000,0.000000,-0.436332,TRUE,FALSE,TRUE,FALSE,FALSE,FALSE,Disabled,0.000000,0.000000,0.000000,TRUE,-2.634125,-6.040375,0.000000,0.000000,0.000000,0.000000,-0.003000,0.000000,0.007000,0.000000,-0.140000,1.190000,1.437271,Hold,0.938232,0.000000,ResetBack,-4.000000,-0.300000,Empty,0.000000,0.000000,Speed,0.000000,0.000000,Speed,On,Off0.000000,0,,,,
08:51:25.986 PM 03/17/2016,Teleop Enabled,10,FALSE,0,NO ERROR,-0.000000,0.000000,0.000000,-0.436332,TRUE,FALSE,TRUE,FALSE,FALSE,FALSE,Disabled,0.000000,0.000000,0.000000,TRUE,-2.634125,-6.040375,0.000000,0.000000,0.000000,0.000000,0.005000,-0.002000,0.011000,-0.010000,-0.120000,1.190000,1.625748,Hold,0.938232,0.000000,ResetBack,-4.000000,-0.300000,Empty,0.000000,0.000000,Speed,0.000000,0.000000,Speed,On,Off0.000000,0,,,,
08:51:26.089 PM 03/17/2016,Teleop Enabled,10,FALSE,0,NO ERROR,-0.000000,0.000000,0.000000,-0.436332,TRUE,FALSE,TRUE,FALSE,FALSE,FALSE,Disabled,0.000000,0.000000,0.000000,TRUE,-2.634125,-6.040375,0.000000,0.000000,0.000000,0.000000,0.000000,0.000000,0.007000,-0.010000,-0.110000,1.190000,1.804971,Hold,0.938232,0.000000,ResetBack,-4.000000,-0.300000,Empty,0.000000,0.000000,Speed,0.000000,0.000000,Speed,On,Off0.000000,0,,,,
08:51:26.190 PM 03/17/2016,Teleop Enabled,10,FALSE,0,NO ERROR,-0.000000,0.000000,0.000000,-0.436332,TRUE,FALSE,TRUE,FALSE,FALSE,FALSE,Disabled,0.000000,0.000000,0.000000,TRUE,-2.634125,-6.040375,0.000000,0.000000,0.000000,0.000000,-0.002000,0.001000,0.006000,-0.010000,-0.120000,1.190000,1.985065,Hold,0.938232,0.000000,ResetBack,-4.000000,-0.300000,Empty,0.000000,0.000000,Speed,0.000000,0.000000,Speed,On,Off0.000000,0,,,,
08:51:26.291 PM 03/17/2016,Teleop Enabled,10,FALSE,0,NO ERROR,-0.000000,0.000000,0.000000,-0.436332,TRUE,FALSE,TRUE,FALSE,FALSE,FALSE,Disabled,0.000000,0.000000,0.000000,TRUE,-2.634125,-6.040375,0.000000,0.000000,0.000000,0.000000,-0.001000,0.000000,0.008000,-0.010000,-0.130000,1.170000,2.172771,Hold,0.938232,0.000000,ResetBack,-3.000000,-0.300000,Empty,0.000000,0.000000,Speed,0.000000,0.000000,Speed,On,Off0.000000,0,,,,
08:51:26.393 PM 03/17/2016,Teleop Enabled,11,FALSE,0,NO ERROR,-0.000000,0.000000,0.000000,-0.436332,TRUE,FALSE,TRUE,FALSE,FALSE,FALSE,Disabled,0.000000,0.000000,0.000000,TRUE,-2.634125,-6.040375,0.000000,0.000000,0.000000,0.000000,-0.003000,0.000000,0.010000,-0.010000,-0.140000,1.180000,2.331011,Hold,0.938232,0.000000,Reset,-2.000000,2.000000,Suck,0.000000,2181.818182,Speed,0.000000,2181.818182,Speed,On,Off0.000000,0,,,,
08:51:26.494 PM 03/17/2016,Teleop Enabled,10,FALSE,0,NO ERROR,-0.000000,0.000000,0.000000,-0.436332,TRUE,FALSE,TRUE,FALSE,FALSE,FALSE,Disabled,0.000000,0.000000,0.000000,TRUE,-2.634125,-6.040375,0.000000,0.000000,0.000000,0.000000,-0.007000,0.016000,-0.006000,-0.010000,-0.120000,1.160000,2.514964,Hold,0.938232,0.000000,Hold,-379.000000,2.000000,Hold,-60.000000,0.000000,Speed,-52.500000,0.000000,Speed,Off,Off0.000000,0,,,,
08:51:26.594 PM 03/17/2016,Teleop Enabled,10,FALSE,0,NO ERROR,-0.000000,0.000000,0.000000,-0.436332,TRUE,FALSE,TRUE,FALSE,FALSE,FALSE,Disabled,0.000000,0.000000,0.000000,TRUE,-2.633972,-6.040405,0.000000,0.011703,-0.002106,0.000000,-0.048000,0.007000,0.044000,-0.020000,-0.120000,1.170000,2.687822,Hold,0.938232,0.000000,Hold,-207.000000,2.000000,Hold,-562.500000,0.000000,Speed,-585.000000,0.000000,Speed,Off,Off0.000000,0,,,,
08:51:26.695 PM 03/17/2016,Teleop Enabled,11,FALSE,0,NO ERROR,-0.000000,0.000000,0.000000,-0.436332,TRUE,FALSE,TRUE,FALSE,FALSE,FALSE,Disabled,0.000000,0.000000,0.000000,TRUE,-2.633667,-6.040497,0.000000,0.003876,0.000000,0.000000,-0.024000,-0.029000,0.044000,-0.020000,-0.090000,1.190000,2.891876,Hold,0.938232,0.000000,Hold,-207.000000,2.000000,Hold,-555.000000,0.000000,Speed,-532.500000,0.000000,Speed,Off,Off0.000000,0,,,,
08:51:26.796 PM 03/17/2016,Teleop Enabled,11,FALSE,0,NO ERROR,-0.000000,0.000000,0.000000,-0.436332,TRUE,FALSE,TRUE,FALSE,FALSE,FALSE,Disabled,0.000000,0.000000,0.000000,TRUE,-2.633621,-6.040619,0.000000,0.000000,0.000000,0.000000,0.011000,-0.005000,-0.022000,-0.020000,-0.070000,1.180000,3.070669,Hold,0.938232,0.000000,Hold,-207.000000,2.000000,Hold,-390.000000,0.000000,Speed,-322.500000,0.000000,Speed,Off,Off0.000000,0,,,,
08:51:26.897 PM 03/17/2016,Teleop Enabled,15,FALSE,0,NO ERROR,-0.000000,0.000000,0.000000,-0.436332,TRUE,FALSE,TRUE,FALSE,FALSE,FALSE,Disabled,0.000000,0.000000,0.000000,TRUE,-2.633621,-6.040604,0.000000,0.000000,0.000809,0.000000,0.026000,-0.013000,0.021000,-0.020000,-0.070000,1.160000,3.250133,Hold,0.938232,0.000000,Hold,-207.000000,2.000000,Hold,-240.000000,0.000000,Speed,-165.000000,0.000000,Speed,Off,Off0.000000,0,,,,
08:51:26.999 PM 03/17/2016,Teleop Enabled,11,FALSE,0,NO ERROR,-0.000000,0.000000,0.000000,-0.436332,TRUE,FALSE,TRUE,FALSE,FALSE,FALSE,Disabled,0.000000,0.000000,0.000000,TRUE,-2.633469,-6.040604,0.000000,0.001770,0.000000,0.000000,-0.005000,0.006000,-0.010000,-0.020000,-0.080000,1.170000,3.422058,Hold,0.938232,0.000000,Hold,-207.000000,2.000000,Hold,-120.000000,0.000000,Speed,-7.500000,0.000000,Speed,Off,Off0.000000,0,,,,
08:51:27.100 PM 03/17/2016,Teleop Enabled,10,FALSE,0,NO ERROR,-0.000000,0.000000,0.000000,-0.436332,TRUE,FALSE,TRUE,FALSE,FALSE,FALSE,Disabled,0.000000,0.000000,0.000000,TRUE,-2.633469,-6.040604,0.000000,0.000000,0.000000,0.000000,-0.001000,-0.001000,0.016000,-0.020000,-0.090000,1.170000,3.596895,Hold,0.938232,0.000000,Hold,-207.000000,2.000000,Hold,-7.500000,0.000000,Speed,0.000000,0.000000,Speed,Off,Off0.000000,0,,,,
08:51:27.200 PM 03/17/2016,Teleop Enabled,10,FALSE,0,NO ERROR,-0.000000,0.000000,0.000000,-0.436332,TRUE,FALSE,TRUE,FALSE,FALSE,FALSE,Disabled,0.000000,0.000000,0.000000,TRUE,-2.633469,-6.040604,0.000000,0.000000,0.000000,0.000000,0.002000,0.002000,0.001000,-0.020000,-0.090000,1.170000,3.792442,Hold,0.938232,0.000000,Hold,-207.000000,2.000000,Hold,0.000000,0.000000,Speed,0.000000,0.000000,Speed,Off,Off0.000000,0,,,,
08:51:27.301 PM 03/17/2016,Teleop Enabled,9,FALSE,0,NO ERROR,-0.000000,0.000000,0.000000,-0.436332,TRUE,FALSE,TRUE,FALSE,FALSE,FALSE,Disabled,0.000000,0.000000,0.000000,TRUE,-2.633469,-6.040604,0.000000,0.000000,0.000000,0.000000,-0.002000,0.002000,0.009000,-0.030000,-0.100000,1.180000,3.958563,Hold,0.938232,0.000000,Hold,-207.000000,2.000000,Hold,0.000000,0.000000,Speed,0.000000,0.000000,Speed,Off,Off0.000000,0,,,,
08:51:27.402 PM 03/17/2016,Teleop Enabled,11,FALSE,0,NO ERROR,-0.000000,0.000000,0.000000,-0.436332,TRUE,FALSE,TRUE,FALSE,FALSE,FALSE,Disabled,0.000000,0.000000,0.000000,TRUE,-2.633469,-6.040604,0.000000,0.000000,0.000000,0.000000,-0.001000,-0.001000,0.011000,-0.020000,-0.100000,1.170000,4.134392,Hold,0.938232,0.000000,Hold,-207.000000,2.000000,Hold,0.000000,0.000000,Speed,0.000000,0.000000,Speed,Off,Off0.000000,0,,,,
08:51:27.504 PM 03/17/2016,Teleop Enabled,10,FALSE,0,NO ERROR,-0.000000,0.000000,0.000000,-0.436332,TRUE,FALSE,TRUE,FALSE,FALSE,FALSE,Disabled,0.000000,0.000000,0.000000,TRUE,-2.633469,-6.040604,0.000000,0.000000,0.000000,0.000000,0.003000,0.003000,-0.004000,-0.020000,-0.110000,1.170000,4.298863,Hold,0.938232,0.000000,Hold,-207.000000,2.000000,Hold,0.000000,0.000000,Speed,0.000000,0.000000,Speed,Off,Off0.000000,0,,,,
08:51:27.607 PM 03/17/2016,Teleop Enabled,11,FALSE,0,NO ERROR,-0.000000,0.000000,0.000000,-0.436332,TRUE,FALSE,TRUE,FALSE,FALSE,FALSE,Disabled,0.000000,0.000000,0.000000,TRUE,-2.633469,-6.040604,0.000000,0.000000,0.000000,0.000000,0.000000,0.003000,0.015000,-0.020000,-0.110000,1.180000,4.501637,Hold,0.938232,0.000000,Hold,-207.000000,2.000000,Hold,0.000000,0.000000,Speed,0.000000,0.000000,Speed,Off,Off0.000000,0,,,,
08:51:27.710 PM 03/17/2016,Teleop Enabled,9,FALSE,0,NO ERROR,-0.000000,0.000000,0.000000,-0.436332,TRUE,FALSE,TRUE,FALSE,FALSE,FALSE,Disabled,0.000000,0.000000,0.000000,TRUE,-2.633469,-6.040604,0.000000,0.000000,0.000000,0.000000,-0.001000,-0.001000,0.014000,-0.030000,-0.120000,1.150000,4.675218,Hold,0.938232,0.000000,Hold,-207.000000,2.000000,LowGoal,0.000000,-2181.818182,Speed,0.000000,-2181.818182,Speed,Off,Off0.000000,0,,,,
08:51:27.810 PM 03/17/2016,Teleop Enabled,9,FALSE,0,NO ERROR,-0.000000,0.000000,0.000000,-0.436332,TRUE,FALSE,TRUE,FALSE,FALSE,FALSE,Disabled,0.000000,0.000000,0.000000,TRUE,-2.633469,-6.040604,0.000000,0.000000,0.000000,0.000000,0.014000,-0.003000,0.009000,-0.030000,-0.120000,1.150000,4.867440,Hold,0.938232,0.000000,Hold,-215.000000,2.000000,LowGoal,75.000000,-2181.818182,Speed,60.000000,-2181.818182,Speed,Off,Off0.000000,0,,,,
08:51:27.911 PM 03/17/2016,Teleop Enabled,12,FALSE,0,NO ERROR,-0.000000,0.000000,0.000000,-0.436332,TRUE,FALSE,TRUE,FALSE,FALSE,FALSE,Disabled,0.000000,0.000000,0.000000,TRUE,-2.633331,-6.040375,0.000000,0.009583,0.007721,0.000000,-0.012000,-0.016000,-0.016000,-0.030000,-0.150000,1.170000,5.039791,Hold,0.938232,0.000000,Hold,-215.000000,2.000000,LowGoal,570.000000,-2181.818182,Speed,630.000000,-2181.818182,Speed,Off,Off0.000000,0,,,,
08:51:28.012 PM 03/17/2016,Teleop Enabled,10,FALSE,0,NO ERROR,-0.000000,0.000000,0.000000,-0.436332,TRUE,FALSE,TRUE,FALSE,FALSE,FALSE,Disabled,0.000000,0.000000,0.000000,TRUE,-2.632721,-6.040146,0.000000,0.031113,0.005020,0.000000,-0.026000,-0.002000,0.066000,-0.040000,-0.130000,1.170000,5.212391,Hold,0.938232,0.000000,Hold,-215.000000,2.000000,LowGoal,1245.000000,-2181.818182,Speed,1252.500000,-2181.818182,Speed,Off,Off0.000000,0,,,,
08:51:28.114 PM 03/17/2016,Teleop Enabled,11,FALSE,0,NO ERROR,-0.000000,0.000000,0.000000,-0.436332,TRUE,FALSE,TRUE,FALSE,FALSE,FALSE,Disabled,0.000000,0.000000,0.000000,TRUE,-2.631393,-6.040192,0.000000,0.030579,0.000397,0.000000,-0.070000,-0.020000,-0.006000,-0.040000,-0.120000,1.180000,5.390509,Hold,0.938232,0.000000,Hold,-215.000000,2.000000,LowGoal,1770.000000,-2181.818182,Speed,1747.500000,-2181.818182,Speed,Off,Off0.000000,0,,,,
08:51:28.217 PM 03/17/2016,Teleop Enabled,9,FALSE,0,NO ERROR,-0.000000,0.000000,0.000000,-0.436332,TRUE,FALSE,TRUE,FALSE,FALSE,FALSE,Disabled,0.000000,0.000000,0.000000,TRUE,-2.629959,-6.040085,0.000000,0.029343,0.007126,0.000000,0.136000,0.103000,0.102000,-0.050000,-0.150000,1.170000,5.583678,Hold,0.938232,0.000000,Hold,-215.000000,2.000000,LowGoal,2137.500000,-2181.818182,Speed,2062.500000,-2181.818182,Speed,Off,Off0.000000,0,,,,
08:51:28.318 PM 03/17/2016,Teleop Enabled,10,FALSE,0,NO ERROR,-0.000000,0.000000,0.000000,-0.436332,TRUE,FALSE,TRUE,FALSE,FALSE,FALSE,Disabled,0.000000,0.000000,0.000000,TRUE,-2.626129,-6.037430,0.000000,0.096725,0.087616,0.000000,0.109000,0.050000,0.167000,-0.050000,-0.100000,1.160000,5.772382,Hold,0.938232,0.000000,Hold,-215.000000,2.000000,LowGoal,2182.500000,-2181.818182,Speed,2182.500000,-2181.818182,Speed,Off,Off0.000000,0,,,,
08:51:28.419 PM 03/17/2016,Teleop Enabled,10,FALSE,0,NO ERROR,-0.000000,0.000000,0.000000,-0.436332,TRUE,FALSE,TRUE,FALSE,FALSE,FALSE,Disabled,0.000000,0.000000,0.000000,TRUE,-2.619431,-6.030762,0.000000,0.144241,0.162704,0.000000,0.044000,0.040000,0.028000,-0.050000,-0.110000,1.150000,5.973823,Hold,0.938232,0.000000,Hold,-215.000000,2.000000,LowGoal,2100.000000,-2181.818182,Speed,2085.000000,-2181.818182,Speed,Off,Off0.000000,0,,,,
08:51:28.519 PM 03/17/2016,Teleop Enabled,10,FALSE,0,NO ERROR,-0.000000,0.000000,0.000000,-0.436332,TRUE,FALSE,TRUE,FALSE,FALSE,FALSE,Disabled,0.000000,0.000000,0.000000,TRUE,-2.612259,-6.027130,0.000000,0.156219,0.007401,0.000000,-0.029000,0.019000,0.032000,-0.050000,-0.130000,1.130000,6.171075,Hold,0.937988,0.000000,Hold,-215.000000,2.000000,LowGoal,2070.000000,-2181.818182,Speed,2040.000000,-2181.818182,Speed,Off,Off0.000000,0,,,,
08:51:28.620 PM 03/17/2016,Teleop Enabled,11,FALSE,0,NO ERROR,-0.000000,0.000000,0.000000,-0.436332,TRUE,FALSE,TRUE,FALSE,FALSE,FALSE,Disabled,0.000000,0.000000,0.000000,TRUE,-2.604965,-6.026489,0.000000,0.140945,0.006195,0.000000,0.081000,-0.060000,-0.053000,-0.050000,-0.150000,1.140000,6.356749,Hold,0.937988,0.000000,Hold,-215.000000,2.000000,LowGoal,2100.000000,-2181.818182,Speed,2070.000000,-2181.818182,Speed,Off,Off0.000000,0,,,,
08:51:28.721 PM 03/17/2016,Teleop Enabled,9,FALSE,0,NO ERROR,-0.000000,0.000000,0.000000,-0.436332,TRUE,FALSE,TRUE,FALSE,FALSE,FALSE,Disabled,0.000000,0.000000,0.000000,TRUE,-2.596390,-6.027252,0.000000,0.127731,-0.010376,0.000000,0.072000,0.031000,0.066000,-0.050000,-0.160000,1.150000,6.566425,Hold,0.937988,0.000000,Hold,-215.000000,2.000000,LowGoal,2107.500000,-2181.818182,Speed,2085.000000,-2181.818182,Speed,Off,Off0.000000,0,,,,
08:51:28.823 PM 03/17/2016,Teleop Enabled,11,FALSE,0,NO ERROR,-0.000000,0.000000,0.000000,-0.436332,TRUE,FALSE,TRUE,FALSE,FALSE,FALSE,Disabled,0.000000,0.000000,0.000000,TRUE,-2.589523,-6.027115,0.000000,0.197952,0.001205,0.000000,-0.088000,-0.087000,0.103000,-0.050000,-0.120000,1.150000,6.761418,Hold,0.937988,0.000000,Hold,-215.000000,2.000000,LowGoal,2092.500000,-2181.818182,Speed,2077.500000,-2181.818182,Speed,Off,Off0.000000,0,,,,
08:51:28.923 PM 03/17/2016,Teleop Enabled,10,FALSE,0,NO ERROR,-0.000000,0.000000,0.000000,-0.436332,TRUE,FALSE,TRUE,FALSE,FALSE,FALSE,Disabled,0.000000,0.000000,0.000000,TRUE,-2.577286,-6.026611,0.000000,0.182999,0.026825,0.000000,-0.076000,0.001000,0.036000,-0.050000,-0.140000,1.120000,6.936648,Hold,0.937988,0.000000,Hold,-215.000000,2.000000,LowGoal,2092.500000,-2181.818182,Speed,2062.500000,-2181.818182,Speed,Off,Off0.000000,0,,,,
08:51:29.023 PM 03/17/2016,Teleop Enabled,9,FALSE,0,NO ERROR,-0.000000,0.000000,0.000000,-0.436332,TRUE,FALSE,TRUE,FALSE,FALSE,FALSE,Disabled,0.000000,0.000000,0.000000,TRUE,-2.567657,-6.026093,0.000000,0.173096,0.012390,0.000000,-0.110000,0.012000,-0.035000,-0.050000,-0.160000,1.130000,7.116325,Hold,0.937988,0.000000,Hold,-215.000000,2.000000,LowGoal,2100.000000,-2181.818182,Speed,2062.500000,-2181.818182,Speed,Off,Off0.000000,0,,,,
08:51:29.124 PM 03/17/2016,Teleop Enabled,10,FALSE,0,NO ERROR,-0.000000,0.000000,0.000000,-0.436332,TRUE,FALSE,TRUE,FALSE,FALSE,FALSE,Disabled,0.000000,0.000000,0.000000,TRUE,-2.561462,-6.025543,0.000000,0.162720,0.016388,0.000000,0.008000,-0.035000,-0.048000,-0.060000,-0.170000,1.130000,7.313701,Hold,0.937988,0.000000,Hold,-215.000000,2.000000,LowGoal,2092.500000,-2181.818182,Speed,2070.000000,-2181.818182,Speed,Off,Off0.000000,0,,,,
08:51:29.225 PM 03/17/2016,Teleop Enabled,10,FALSE,0,NO ERROR,-0.000000,0.000000,0.000000,-0.436332,TRUE,FALSE,TRUE,FALSE,FALSE,FALSE,Disabled,0.000000,0.000000,0.000000,TRUE,-2.553665,-6.025665,0.000000,0.180954,-0.005905,0.000000,0.040000,0.067000,0.096000,-0.060000,-0.140000,1.120000,7.495619,Hold,0.937988,0.000000,Hold,-215.000000,2.000000,LowGoal,2092.500000,-2181.818182,Speed,2070.000000,-2181.818182,Speed,Off,Off0.000000,0,,,,
08:51:29.326 PM 03/17/2016,Teleop Enabled,10,FALSE,0,NO ERROR,-0.000000,0.000000,0.000000,-0.436332,TRUE,FALSE,TRUE,FALSE,FALSE,FALSE,Disabled,0.000000,0.000000,0.000000,TRUE,-2.542603,-6.025436,0.000000,0.181519,-0.003647,0.000000,-0.103000,-0.079000,0.014000,-0.060000,-0.120000,1.150000,7.716353,Hold,0.937988,0.000000,Hold,-215.000000,2.000000,LowGoal,2100.000000,-2181.818182,Speed,2070.000000,-2181.818182,Speed,Off,Off0.000000,0,,,,
08:51:29.429 PM 03/17/2016,Teleop Enabled,10,FALSE,0,NO ERROR,-0.000000,0.000000,0.000000,-0.436332,TRUE,FALSE,TRUE,FALSE,FALSE,FALSE,Disabled,0.000000,0.000000,0.000000,TRUE,-2.531998,-6.025970,0.000000,0.177399,0.000000,0.000000,-0.041000,-0.008000,-0.066000,-0.060000,-0.120000,1.160000,7.893121,Hold,0.937988,0.000000,Hold,-215.000000,2.000000,LowGoal,2100.000000,-2181.818182,Speed,2062.500000,-2181.818182,Speed,Off,Off0.000000,0,,,,
08:51:29.531 PM 03/17/2016,Teleop Enabled,10,FALSE,0,NO ERROR,-0.000000,0.000000,0.000000,-0.436332,TRUE,FALSE,TRUE,FALSE,FALSE,FALSE,Disabled,0.000000,0.000000,0.000000,TRUE,-2.523376,-6.025650,0.000000,0.196945,0.022476,0.000000,0.031000,0.077000,0.087000,-0.060000,-0.140000,1.150000,8.062564,Hold,0.937988,0.000000,Hold,-215.000000,2.000000,LowGoal,2092.500000,-2181.818182,Speed,2062.500000,-2181.818182,Speed,Off,Off0.000000,0,,,,
08:51:29.631 PM 03/17/2016,Teleop Enabled,10,FALSE,0,NO ERROR,-0.000000,0.000000,0.000000,-0.436332,TRUE,FALSE,TRUE,FALSE,FALSE,FALSE,Disabled,0.000000,0.000000,0.000000,TRUE,-2.514465,-6.023727,0.000000,0.184631,0.056030,0.000000,0.079000,0.074000,0.026000,-0.070000,-0.150000,1.140000,8.245805,Hold,0.937988,0.000000,Hold,-215.000000,2.000000,LowGoal,2092.500000,-2181.818182,Speed,2062.500000,-2181.818182,Speed,Off,Off0.000000,0,,,,
08:51:29.733 PM 03/17/2016,Teleop Enabled,11,FALSE,0,NO ERROR,-0.000000,0.000000,0.000000,-0.436332,TRUE,FALSE,TRUE,FALSE,FALSE,FALSE,Disabled,0.000000,0.000000,0.000000,TRUE,-2.507309,-6.022217,0.000000,0.150879,0.015656,0.000000,0.111000,0.035000,0.004000,-0.070000,-0.120000,1.140000,8.416180,Hold,0.937988,0.000000,Hold,-215.000000,2.000000,LowGoal,2100.000000,-2181.818182,Speed,2062.500000,-2181.818182,Speed,Off,Off0.000000,0,,,,
08:51:29.833 PM 03/17/2016,Teleop Enabled,10,FALSE,0,NO ERROR,-0.000000,0.000000,0.000000,-0.436332,TRUE,FALSE,TRUE,FALSE,FALSE,FALSE,Disabled,0.000000,0.000000,0.000000,TRUE,-2.497467,-6.021393,0.000000,0.154190,-0.009827,0.000000,-0.076000,-0.058000,0.051000,-0.070000,-0.070000,1.140000,8.598395,Hold,0.937988,0.000000,Hold,-215.000000,2.000000,LowGoal,2100.000000,-2181.818182,Speed,2062.500000,-2181.818182,Speed,Off,Off0.000000,0,,,,
08:51:29.934 PM 03/17/2016,Teleop Enabled,10,FALSE,0,NO ERROR,-0.000000,0.000000,0.000000,-0.436332,TRUE,FALSE,TRUE,FALSE,FALSE,FALSE,Disabled,0.000000,0.000000,0.000000,TRUE,-2.487213,-6.021011,0.000000,0.165268,0.015778,0.000000,-0.121000,-0.023000,-0.045000,-0.080000,-0.100000,1.140000,8.762832,Hold,0.937988,0.000000,Hold,-215.000000,2.000000,LowGoal,2092.500000,-2181.818182,Speed,2062.500000,-2181.818182,Speed,Off,Off0.000000,0,,,,
08:51:30.036 PM 03/17/2016,Teleop Enabled,10,FALSE,0,NO ERROR,-0.000000,0.000000,0.000000,-0.436332,TRUE,FALSE,TRUE,FALSE,FALSE,FALSE,Disabled,0.000000,0.000000,0.000000,TRUE,-2.479630,-6.019669,0.000000,0.213028,0.039780,0.000000,-0.078000,-0.027000,0.044000,-0.080000,-0.070000,1.150000,8.937683,Hold,0.937988,0.000000,Hold,-215.000000,2.000000,LowGoal,2100.000000,-2181.818182,Speed,2062.500000,-2181.818182,Speed,Off,Off0.000000,0,,,,
08:51:30.137 PM 03/17/2016,Teleop Enabled,10,FALSE,0,NO ERROR,-0.000000,0.000000,0.000000,-0.436332,TRUE,FALSE,TRUE,FALSE,FALSE,FALSE,Disabled,0.000000,0.000000,0.000000,TRUE,-2.472916,-6.018372,0.000000,0.155167,0.034164,0.000000,0.103000,0.021000,-0.064000,-0.080000,-0.110000,1.140000,9.122779,Hold,0.937988,0.000000,Hold,-215.000000,2.000000,LowGoal,2100.000000,-2181.818182,Speed,2062.500000,-2181.818182,Speed,Off,Off0.000000,0,,,,
08:51:30.237 PM 03/17/2016,Teleop Enabled,11,FALSE,0,NO ERROR,-0.000000,0.000000,0.000000,-0.436332,TRUE,FALSE,TRUE,FALSE,FALSE,FALSE,Disabled,0.000000,0.000000,0.000000,TRUE,-2.461929,-6.016479,0.000000,0.159286,0.038742,0.000000,0.077000,0.028000,0.012000,-0.090000,-0.090000,1.170000,9.350064,Hold,0.937988,0.000000,Hold,-215.000000,2.000000,LowGoal,2092.500000,-2181.818182,Speed,2055.000000,-2181.818182,Speed,Off,Off0.000000,0,,,,
08:51:30.337 PM 03/17/2016,Teleop Enabled,9,FALSE,0,NO ERROR,-0.000000,0.000000,0.000000,-0.436332,TRUE,FALSE,TRUE,FALSE,FALSE,FALSE,Disabled,0.000000,0.000000,0.000000,TRUE,-2.453171,-6.014435,0.000000,0.167831,0.029510,0.000000,0.051000,-0.010000,0.108000,-0.090000,-0.140000,1.150000,9.531022,Hold,0.937988,0.000000,Hold,-215.000000,2.000000,LowGoal,2092.500000,-2181.818182,Speed,2062.500000,-2181.818182,Speed,Off,Off0.000000,0,,,,
08:51:30.438 PM 03/17/2016,Teleop Enabled,9,FALSE,0,NO ERROR,-0.000000,0.000000,0.000000,-0.436332,TRUE,FALSE,TRUE,FALSE,FALSE,FALSE,Disabled,0.000000,0.000000,0.000000,TRUE,-2.446487,-6.012939,0.000000,0.150253,0.040421,0.000000,0.051000,-0.010000,0.108000,-0.090000,-0.110000,1.160000,9.704933,Hold,0.937988,0.000000,Hold,-215.000000,2.000000,LowGoal,2100.000000,-2181.818182,Speed,2062.500000,-2181.818182,Speed,Off,Off0.000000,0,,,,
08:51:30.539 PM 03/17/2016,Teleop Enabled,11,FALSE,0,NO ERROR,-0.000000,0.000000,0.000000,-0.436332,TRUE,FALSE,TRUE,FALSE,FALSE,FALSE,Disabled,0.000000,0.000000,0.000000,TRUE,-2.436783,-6.012375,0.000000,0.171204,-0.011581,0.000000,0.068000,-0.013000,0.009000,-0.090000,-0.070000,1.160000,9.893334,Hold,0.937988,0.000000,Hold,-215.000000,2.000000,LowGoal,2092.500000,-2181.818182,Speed,2062.500000,-2181.818182,Speed,Off,Off0.000000,0,,,,
08:51:30.639 PM 03/17/2016,Teleop Enabled,11,FALSE,0,NO ERROR,-0.000000,0.000000,0.000000,-0.436332,TRUE,FALSE,TRUE,FALSE,FALSE,FALSE,Disabled,0.000000,0.000000,0.000000,TRUE,-2.428177,-6.012024,0.000000,0.202057,0.029724,0.000000,-0.066000,-0.016000,-0.024000,-0.090000,-0.060000,1.170000,10.073166,Hold,0.937988,0.000000,Hold,-215.000000,2.000000,LowGoal,2092.500000,-2181.818182,Speed,2055.000000,-2181.818182,Speed,Off,Off0.000000,0,,,,
08:51:30.740 PM 03/17/2016,Teleop Enabled,10,FALSE,0,NO ERROR,-0.000000,0.000000,0.000000,-0.436332,TRUE,FALSE,TRUE,FALSE,FALSE,FALSE,Disabled,0.000000,0.000000,0.000000,TRUE,-2.418900,-6.010651,0.000000,0.202179,0.028458,0.000000,-0.101000,-0.030000,-0.053000,-0.090000,-0.060000,1.170000,10.262125,Hold,0.937988,0.000000,Hold,-215.000000,2.000000,LowGoal,2100.000000,-2181.818182,Speed,2055.000000,-2181.818182,Speed,Off,Off0.000000,0,,,,
08:51:30.840 PM 03/17/2016,Teleop Enabled,9,FALSE,0,NO ERROR,-0.000000,0.000000,0.000000,-0.436332,TRUE,FALSE,TRUE,FALSE,FALSE,FALSE,Disabled,0.000000,0.000000,0.000000,TRUE,-2.411942,-6.009491,0.000000,0.151489,0.021652,0.000000,0.032000,-0.040000,-0.056000,-0.100000,-0.110000,1.170000,10.447720,Hold,0.937988,0.000000,Hold,-215.000000,2.000000,LowGoal,2092.500000,-2181.818182,Speed,2062.500000,-2181.818182,Speed,Off,Off0.000000,0,,,,
08:51:30.940 PM 03/17/2016,Teleop Enabled,10,FALSE,0,NO ERROR,-0.000000,0.000000,0.000000,-0.436332,TRUE,FALSE,TRUE,FALSE,FALSE,FALSE,Disabled,0.000000,0.000000,0.000000,TRUE,-2.403229,-6.009323,0.000000,0.119583,-0.011337,0.000000,0.109000,0.051000,0.108000,-0.100000,-0.140000,1.170000,10.618774,Hold,0.937988,0.000000,Hold,-215.000000,2.000000,LowGoal,2092.500000,-2181.818182,Speed,2062.500000,-2181.818182,Speed,Off,Off0.000000,0,,,,
08:51:31.040 PM 03/17/2016,Teleop Enabled,11,FALSE,0,NO ERROR,-0.000000,0.000000,0.000000,-0.436332,TRUE,FALSE,TRUE,FALSE,FALSE,FALSE,Disabled,0.000000,0.000000,0.000000,TRUE,-2.397293,-6.008850,0.000000,0.164307,0.021011,0.000000,0.023000,-0.028000,0.127000,-0.100000,-0.140000,1.170000,10.810648,Hold,0.937988,0.000000,Hold,-215.000000,2.000000,LowGoal,2100.000000,-2181.818182,Speed,2062.500000,-2181.818182,Speed,Off,Off0.000000,0,,,,
08:51:31.141 PM 03/17/2016,Teleop Enabled,10,FALSE,0,NO ERROR,-0.000000,0.000000,0.000000,-0.436332,TRUE,FALSE,TRUE,FALSE,FALSE,FALSE,Disabled,0.000000,0.000000,0.000000,TRUE,-2.387085,-6.007660,0.000000,0.177246,0.043213,0.000000,0.023000,-0.028000,0.127000,-0.100000,-0.150000,1.160000,10.993527,Hold,0.937988,0.000000,Hold,-215.000000,2.000000,LowGoal,2092.500000,-2181.818182,Speed,2055.000000,-2181.818182,Speed,Off,Off0.000000,0,,,,
08:51:31.242 PM 03/17/2016,Teleop Enabled,10,FALSE,0,NO ERROR,-0.000000,0.000000,0.000000,-0.436332,TRUE,FALSE,TRUE,FALSE,FALSE,FALSE,Disabled,0.000000,0.000000,0.000000,TRUE,-2.378159,-6.006363,0.000000,0.160263,0.001419,0.000000,-0.048000,-0.018000,-0.061000,-0.110000,-0.130000,1.160000,11.194393,Hold,0.937988,0.000000,Hold,-215.000000,2.000000,LowGoal,2092.500000,-2181.818182,Speed,2062.500000,-2181.818182,Speed,Off,Off0.000000,0,,,,
08:51:31.342 PM 03/17/2016,Teleop Enabled,9,FALSE,0,NO ERROR,-0.000000,0.000000,0.000000,-0.436332,TRUE,FALSE,TRUE,FALSE,FALSE,FALSE,Disabled,0.000000,0.000000,0.000000,TRUE,-2.370880,-6.005447,0.000000,0.168701,0.033722,0.000000,-0.051000,-0.038000,-0.026000,-0.110000,-0.130000,1.160000,11.370821,Hold,0.937988,0.000000,Hold,-215.000000,2.000000,LowGoal,2100.000000,-2181.818182,Speed,2055.000000,-2181.818182,Speed,Off,Off0.000000,0,,,,
08:51:31.442 PM 03/17/2016,Teleop Enabled,9,FALSE,0,NO ERROR,-0.000000,0.000000,0.000000,-0.436332,TRUE,FALSE,TRUE,FALSE,FALSE,FALSE,Disabled,0.000000,0.000000,0.000000,TRUE,-2.363113,-6.004333,0.000000,0.153244,0.028381,0.000000,0.064000,-0.023000,0.047000,-0.120000,-0.120000,1.180000,11.582222,Hold,0.937988,0.000000,Hold,-215.000000,2.000000,LowGoal,2092.500000,-2181.818182,Speed,2055.000000,-2181.818182,Speed,Off,Off0.000000,0,,,,
08:51:31.543 PM 03/17/2016,Teleop Enabled,10,FALSE,0,NO ERROR,-0.000000,0.000000,0.000000,-0.436332,TRUE,FALSE,TRUE,FALSE,FALSE,FALSE,Disabled,0.000000,0.000000,0.000000,TRUE,-2.356979,-6.002975,0.000000,0.136154,0.019302,0.000000,0.059000,0.110000,0.094000,-0.120000,-0.140000,1.160000,11.762223,Hold,0.937988,0.000000,Hold,-215.000000,2.000000,LowGoal,2092.500000,-2181.818182,Speed,2055.000000,-2181.818182,Speed,Off,Off0.000000,0,,,,
08:51:31.643 PM 03/17/2016,Teleop Enabled,10,FALSE,0,NO ERROR,-0.000000,0.000000,0.000000,-0.436332,TRUE,FALSE,TRUE,FALSE,FALSE,FALSE,Disabled,0.000000,0.000000,0.000000,TRUE,-2.348282,-6.002899,0.000000,0.115997,-0.005341,0.000000,0.121000,-0.003000,-0.007000,-0.120000,-0.130000,1.170000,11.949687,Hold,0.937988,0.000000,Hold,-215.000000,2.000000,LowGoal,2100.000000,-2181.818182,Speed,2062.500000,-2181.818182,Speed,Off,Off0.000000,0,,,,
08:51:31.743 PM 03/17/2016,Teleop Enabled,11,FALSE,0,NO ERROR,-0.000000,0.000000,0.000000,-0.436332,TRUE,FALSE,TRUE,FALSE,FALSE,FALSE,Disabled,0.000000,0.000000,0.000000,TRUE,-2.340424,-6.002579,0.000000,0.167816,0.005066,0.000000,0.099000,0.043000,0.092000,-0.120000,-0.160000,1.190000,12.143755,Hold,0.937988,0.000000,Hold,-215.000000,2.000000,LowGoal,2100.000000,-2181.818182,Speed,2062.500000,-2181.818182,Speed,Off,Off0.000000,0,,,,
08:51:31.843 PM 03/17/2016,Teleop Enabled,9,FALSE,0,NO ERROR,-0.000000,0.000000,0.000000,-0.436332,TRUE,FALSE,TRUE,FALSE,FALSE,FALSE,Disabled,0.000000,0.000000,0.000000,TRUE,-2.332611,-6.001968,0.000000,0.168427,0.025620,0.000000,-0.055000,-0.036000,-0.084000,-0.120000,-0.130000,1.180000,12.311627,Hold,0.937988,0.000000,Hold,-215.000000,2.000000,LowGoal,2100.000000,-2181.818182,Speed,2055.000000,-2181.818182,Speed,Off,Off0.000000,0,,,,
08:51:31.944 PM 03/17/2016,Teleop Enabled,10,FALSE,0,NO ERROR,-0.000000,0.000000,0.000000,-0.436332,TRUE,FALSE,TRUE,FALSE,FALSE,FALSE,Disabled,0.000000,0.000000,0.000000,TRUE,-2.332611,-6.001968,0.000000,0.168427,0.025620,0.000000,-0.022000,-0.040000,0.021000,-0.120000,-0.100000,1.200000,12.505502,Hold,0.937988,0.000000,Hold,-215.000000,2.000000,LowGoal,2092.500000,-2181.818182,Speed,2062.500000,-2181.818182,Speed,Off,Off0.000000,0,,,,
08:51:32.045 PM 03/17/2016,Teleop Enabled,10,FALSE,0,NO ERROR,-0.000000,0.000000,0.000000,-0.436332,TRUE,FALSE,TRUE,FALSE,FALSE,FALSE,Disabled,0.000000,0.000000,0.000000,TRUE,-2.326385,-6.001770,0.000000,0.124878,-0.002121,0.000000,0.087000,-0.022000,-0.010000,-0.120000,-0.130000,1.180000,12.699624,Hold,0.937988,0.000000,Hold,-215.000000,2.000000,LowGoal,2100.000000,-2181.818182,Speed,2055.000000,-2181.818182,Speed,Off,Off0.000000,0,,,,
08:51:32.145 PM 03/17/2016,Teleop Enabled,10,FALSE,0,NO ERROR,-0.000000,0.000000,0.000000,-0.436332,TRUE,FALSE,TRUE,FALSE,FALSE,FALSE,Disabled,0.000000,0.000000,0.000000,TRUE,-2.320969,-6.002319,0.000000,0.109756,-0.002625,0.000000,0.148000,0.053000,0.063000,-0.120000,-0.130000,1.180000,12.885488,Hold,0.937988,0.000000,Hold,-215.000000,2.000000,LowGoal,2100.000000,-2181.818182,Speed,2055.000000,-2181.818182,Speed,Off,Off0.000000,0,,,,
08:51:32.247 PM 03/17/2016,Teleop Enabled,10,FALSE,0,NO ERROR,-0.000000,0.000000,0.000000,-0.436332,TRUE,FALSE,TRUE,FALSE,FALSE,FALSE,Disabled,0.000000,0.000000,0.000000,TRUE,-2.313675,-6.002487,0.000000,0.138947,-0.005478,0.000000,0.069000,0.103000,0.053000,-0.130000,-0.110000,1.160000,12.885488,Hold,0.937988,0.000000,Hold,-215.000000,2.000000,LowGoal,2100.000000,-2181.818182,Speed,2062.500000,-2181.818182,Speed,Off,Off0.000000,0,,,,
08:51:32.348 PM 03/17/2016,Teleop Enabled,10,FALSE,0,NO ERROR,-0.000000,0.000000,0.000000,-0.436332,TRUE,FALSE,TRUE,FALSE,FALSE,FALSE,Disabled,0.000000,0.000000,0.000000,TRUE,-2.306183,-6.001480,0.000000,0.126709,0.011124,0.000000,-0.112000,-0.058000,-0.031000,-0.130000,-0.100000,1.180000,13.068474,Hold,0.937988,0.000000,Hold,-215.000000,2.000000,LowGoal,2092.500000,-2181.818182,Speed,2062.500000,-2181.818182,Speed,Off,Off0.000000,0,,,,
08:51:32.448 PM 03/17/2016,Teleop Enabled,11,FALSE,0,NO ERROR,-0.000000,0.000000,0.000000,-0.436332,TRUE,FALSE,TRUE,FALSE,FALSE,FALSE,Disabled,0.000000,0.000000,0.000000,TRUE,-2.300171,-6.001907,0.000000,0.113693,-0.008072,0.000000,-0.111000,0.010000,-0.138000,-0.130000,-0.070000,1.190000,13.270022,Hold,0.937988,0.000000,Hold,-215.000000,2.000000,LowGoal,2092.500000,-2181.818182,Speed,2055.000000,-2181.818182,Speed,Off,Off0.000000,0,,,,
08:51:32.549 PM 03/17/2016,Teleop Enabled,10,FALSE,0,NO ERROR,-0.000000,0.000000,0.000000,-0.436332,TRUE,FALSE,TRUE,FALSE,FALSE,FALSE,Disabled,0.000000,0.000000,0.000000,TRUE,-2.294006,-6.001740,0.000000,0.146072,0.003601,0.000000,-0.010000,-0.063000,0.119000,-0.130000,-0.110000,1.190000,13.450402,Hold,0.937988,0.000000,Hold,-215.000000,2.000000,LowGoal,2100.000000,-2181.818182,Speed,2055.000000,-2181.818182,Speed,Off,Off0.000000,0,,,,
08:51:32.649 PM 03/17/2016,Teleop Enabled,10,FALSE,0,NO ERROR,-0.000000,0.000000,0.000000,-0.436332,TRUE,FALSE,TRUE,FALSE,FALSE,FALSE,Disabled,0.000000,0.000000,0.000000,TRUE,-2.286621,-6.000931,0.000000,0.127045,0.030777,0.000000,-0.027000,-0.024000,0.015000,-0.130000,-0.120000,1.190000,13.642565,Hold,0.937988,0.000000,Hold,-215.000000,2.000000,LowGoal,2092.500000,-2181.818182,Speed,2055.000000,-2181.818182,Speed,Off,Off0.000000,0,,,,
08:51:32.751 PM 03/17/2016,Teleop Enabled,10,FALSE,0,NO ERROR,-0.000000,0.000000,0.000000,-0.436332,TRUE,FALSE,TRUE,FALSE,FALSE,FALSE,Disabled,0.000000,0.000000,0.000000,TRUE,-2.281998,-6.000839,0.000000,0.120697,-0.013733,0.000000,0.015000,0.012000,-0.107000,-0.140000,-0.130000,1.160000,13.827062,Hold,0.937988,0.000000,Hold,-215.000000,2.000000,LowGoal,2092.500000,-2181.818182,Speed,2055.000000,-2181.818182,Speed,Off,Off0.000000,0,,,,
08:51:32.852 PM 03/17/2016,Teleop Enabled,10,FALSE,0,NO ERROR,-0.000000,0.000000,0.000000,-0.436332,TRUE,FALSE,TRUE,FALSE,FALSE,FALSE,Disabled,0.000000,0.000000,0.000000,TRUE,-2.276382,-6.001251,0.000000,0.092560,-0.013031,0.000000,0.113000,0.010000,0.055000,-0.150000,-0.170000,1.180000,13.999397,Hold,0.937988,0.000000,Hold,-215.000000,2.000000,LowGoal,2100.000000,-2181.818182,Speed,2055.000000,-2181.818182,Speed,Off,Off0.000000,0,,,,
08:51:32.952 PM 03/17/2016,Teleop Enabled,10,FALSE,0,NO ERROR,-0.000000,0.000000,0.000000,-0.436332,TRUE,FALSE,TRUE,FALSE,FALSE,FALSE,Disabled,0.000000,0.000000,0.000000,TRUE,-2.269928,-6.001846,0.000000,0.119705,-0.026566,0.000000,0.164000,0.033000,0.056000,-0.150000,-0.170000,1.150000,14.185828,Hold,0.937988,0.000000,Hold,-215.000000,2.000000,LowGoal,2100.000000,-2181.818182,Speed,2055.000000,-2181.818182,Speed,Off,Off0.000000,0,,,,
08:51:33.052 PM 03/17/2016,Teleop Enabled,11,FALSE,0,NO ERROR,-0.000000,0.000000,0.000000,-0.436332,TRUE,FALSE,TRUE,FALSE,FALSE,FALSE,Disabled,0.000000,0.000000,0.000000,TRUE,-2.262741,-6.002747,0.000000,0.097107,-0.023300,0.000000,-0.094000,-0.075000,0.015000,-0.150000,-0.150000,1.160000,14.381348,Hold,0.937988,0.000000,Hold,-215.000000,2.000000,LowGoal,2092.500000,-2181.818182,Speed,2055.000000,-2181.818182,Speed,Off,Off0.000000,0,,,,
08:51:33.152 PM 03/17/2016,Teleop Enabled,9,FALSE,0,NO ERROR,-0.000000,0.000000,0.000000,-0.436332,TRUE,FALSE,TRUE,FALSE,FALSE,FALSE,Disabled,0.000000,0.000000,0.000000,TRUE,-2.258926,-6.004105,0.000000,0.066635,-0.023773,0.000000,-0.045000,-0.040000,-0.044000,-0.150000,-0.120000,1.170000,14.601414,Hold,0.937988,0.000000,Hold,-215.000000,2.000000,LowGoal,2100.000000,-2181.818182,Speed,2047.500000,-2181.818182,Speed,Off,Off0.000000,0,,,,
08:51:33.253 PM 03/17/2016,Teleop Enabled,11,FALSE,0,NO ERROR,-0.000000,0.000000,0.000000,-0.436332,TRUE,FALSE,TRUE,FALSE,FALSE,FALSE,Disabled,0.000000,0.000000,0.000000,TRUE,-2.254700,-6.005478,0.000000,0.099670,-0.022842,0.000000,-0.036000,-0.077000,0.051000,-0.160000,-0.130000,1.150000,14.786596,Hold,0.937988,0.000000,Hold,-215.000000,2.000000,LowGoal,2100.000000,-2181.818182,Speed,2055.000000,-2181.818182,Speed,Off,Off0.000000,0,,,,
08:51:33.353 PM 03/17/2016,Teleop Enabled,11,FALSE,0,NO ERROR,-0.000000,0.000000,0.000000,-0.436332,TRUE,FALSE,TRUE,FALSE,FALSE,FALSE,Disabled,0.000000,0.000000,0.000000,TRUE,-2.250671,-6.005859,0.000000,0.121399,0.009201,0.000000,-0.138000,-0.104000,-0.156000,-0.160000,-0.120000,1.150000,14.978932,Hold,0.937988,0.000000,Hold,-215.000000,2.000000,LowGoal,2092.500000,-2181.818182,Speed,2055.000000,-2181.818182,Speed,Off,Off0.000000,0,,,,
08:51:33.453 PM 03/17/2016,Teleop Enabled,10,FALSE,0,NO ERROR,-0.000000,0.000000,0.000000,-0.436332,TRUE,FALSE,TRUE,FALSE,FALSE,FALSE,Disabled,0.000000,0.000000,0.000000,TRUE,-2.243683,-6.007477,0.000000,0.101212,-0.037033,0.000000,-0.104000,-0.043000,-0.041000,-0.160000,-0.110000,1.160000,15.145583,Hold,0.937988,0.000000,Hold,-215.000000,2.000000,LowGoal,2100.000000,-2181.818182,Speed,2055.000000,-2181.818182,Speed,Off,Off0.000000,0,,,,
08:51:33.553 PM 03/17/2016,Teleop Enabled,10,FALSE,0,NO ERROR,-0.000000,0.000000,0.000000,-0.436332,TRUE,FALSE,TRUE,FALSE,FALSE,FALSE,Disabled,0.000000,0.000000,0.000000,TRUE,-2.239105,-6.009094,0.000000,0.124252,-0.020447,0.000000,0.046000,-0.034000,0.046000,-0.160000,-0.110000,1.170000,15.325997,Hold,0.937988,0.000000,Hold,-215.000000,2.000000,LowGoal,2100.000000,-2181.818182,Speed,2055.000000,-2181.818182,Speed,Off,Off0.000000,0,,,,
08:51:33.654 PM 03/17/2016,Teleop Enabled,11,FALSE,0,NO ERROR,-0.000000,0.000000,0.000000,-0.436332,TRUE,FALSE,TRUE,FALSE,FALSE,FALSE,Disabled,0.000000,0.000000,0.000000,TRUE,-2.234146,-6.010727,0.000000,0.097382,-0.015915,0.000000,-0.031000,-0.005000,-0.017000,-0.160000,-0.120000,1.150000,15.499946,Hold,0.937988,0.000000,Hold,-215.000000,2.000000,LowGoal,2092.500000,-2181.818182,Speed,2055.000000,-2181.818182,Speed,Off,Off0.000000,0,,,,
08:51:33.755 PM 03/17/2016,Teleop Enabled,12,FALSE,0,NO ERROR,-0.000000,0.000000,0.000000,-0.436332,TRUE,FALSE,TRUE,FALSE,FALSE,FALSE,Disabled,0.000000,0.000000,0.000000,TRUE,-2.231567,-6.011841,0.000000,0.012573,0.000000,0.000000,0.102000,0.043000,0.038000,-0.170000,-0.150000,1.150000,15.681000,Hold,0.937988,0.000000,Hold,-215.000000,2.000000,LowGoal,2100.000000,-2181.818182,Speed,2055.000000,-2181.818182,Speed,Off,Off0.000000,0,,,,
08:51:33.855 PM 03/17/2016,Teleop Enabled,10,FALSE,0,NO ERROR,-0.000000,0.000000,0.000000,-0.436332,TRUE,FALSE,TRUE,FALSE,FALSE,FALSE,Disabled,0.000000,0.000000,0.000000,TRUE,-2.230896,-6.011475,0.000000,-0.011688,0.007523,0.000000,0.163000,0.107000,0.106000,-0.170000,-0.160000,1.140000,15.849710,Hold,0.937988,0.000000,Hold,-215.000000,2.000000,LowGoal,2100.000000,-2181.818182,Speed,2055.000000,-2181.818182,Speed,Off,Off0.000000,0,,,,
08:51:33.956 PM 03/17/2016,Teleop Enabled,10,FALSE,0,NO ERROR,-0.000000,0.000000,0.000000,-0.436332,TRUE,FALSE,TRUE,FALSE,FALSE,FALSE,Disabled,0.000000,0.000000,0.000000,TRUE,-2.229492,-6.010574,0.000000,0.024124,0.005997,0.000000,-0.011000,0.070000,0.025000,-0.180000,-0.180000,1.140000,16.049078,Hold,0.937988,0.000000,Hold,-215.000000,2.000000,LowGoal,2100.000000,-2181.818182,Speed,2055.000000,-2181.818182,Speed,Off,Off0.000000,0,,,,
08:51:34.056 PM 03/17/2016,Teleop Enabled,12,FALSE,0,NO ERROR,-0.000000,0.000000,0.000000,-0.436332,TRUE,FALSE,TRUE,FALSE,FALSE,FALSE,Disabled,0.000000,0.000000,0.000000,TRUE,-2.227463,-6.009399,0.000000,0.040955,0.020554,0.000000,-0.189000,-0.106000,-0.023000,-0.180000,-0.130000,1.170000,16.217365,Hold,0.937988,0.000000,Hold,-215.000000,2.000000,LowGoal,2100.000000,-2181.818182,Speed,2062.500000,-2181.818182,Speed,Off,Off0.000000,0,,,,
08:51:34.156 PM 03/17/2016,Teleop Enabled,11,FALSE,0,NO ERROR,-0.000000,0.000000,0.000000,-0.436332,TRUE,FALSE,TRUE,FALSE,FALSE,FALSE,Disabled,0.000000,0.000000,0.000000,TRUE,-2.226517,-6.008896,0.000000,0.032135,0.013687,0.000000,-0.029000,-0.013000,0.009000,-0.180000,-0.140000,1.150000,16.408726,Hold,0.937988,0.000000,Hold,-215.000000,2.000000,LowGoal,2100.000000,-2181.818182,Speed,2055.000000,-2181.818182,Speed,Off,Off0.000000,0,,,,
08:51:34.257 PM 03/17/2016,Teleop Enabled,10,FALSE,0,NO ERROR,-0.000000,0.000000,0.000000,-0.436332,TRUE,FALSE,TRUE,FALSE,FALSE,FALSE,Disabled,0.000000,0.000000,0.000000,TRUE,-2.225479,-6.008499,0.000000,0.054672,0.022186,0.000000,0.003000,-0.054000,-0.066000,-0.190000,-0.140000,1.140000,16.643326,Hold,0.937988,0.000000,Hold,-215.000000,2.000000,LowGoal,2100.000000,-2181.818182,Speed,2055.000000,-2181.818182,Speed,Off,Off0.000000,0,,,,
08:51:34.358 PM 03/17/2016,Teleop Enabled,10,FALSE,0,NO ERROR,-0.000000,0.000000,0.000000,-0.436332,TRUE,FALSE,TRUE,FALSE,FALSE,FALSE,Disabled,0.000000,0.000000,0.000000,TRUE,-2.222534,-6.007690,0.000000,0.059402,0.029663,0.000000,0.059000,0.048000,-0.024000,-0.200000,-0.150000,1.150000,16.844860,Hold,0.937988,0.000000,Hold,-215.000000,2.000000,LowGoal,2100.000000,-2181.818182,Speed,2062.500000,-2181.818182,Speed,Off,Off0.000000,0,,,,
08:51:34.460 PM 03/17/2016,Teleop Enabled,10,FALSE,0,NO ERROR,-0.000000,0.000000,0.000000,-0.436332,TRUE,FALSE,TRUE,FALSE,FALSE,FALSE,Disabled,0.000000,0.000000,0.000000,TRUE,-2.219681,-6.005798,0.000000,0.033951,0.018753,0.000000,0.108000,0.000000,-0.079000,-0.200000,-0.120000,1.160000,17.027106,Hold,0.937988,0.000000,Hold,-215.000000,2.000000,LowGoal,2100.000000,-2181.818182,Speed,2055.000000,-2181.818182,Speed,Off,Off0.000000,0,,,,
08:51:34.560 PM 03/17/2016,Teleop Enabled,11,FALSE,0,NO ERROR,-0.000000,0.000000,0.000000,-0.436332,TRUE,FALSE,TRUE,FALSE,FALSE,FALSE,Disabled,0.000000,0.000000,0.000000,TRUE,-2.217682,-6.006302,0.000000,0.015472,-0.017822,0.000000,0.020000,0.084000,-0.006000,-0.200000,-0.120000,1.210000,17.212371,Hold,0.937988,0.000000,Hold,-215.000000,2.000000,LowGoal,2100.000000,-2181.818182,Speed,2055.000000,-2181.818182,Speed,Off,Off0.000000,0,,,,
08:51:34.660 PM 03/17/2016,Teleop Enabled,10,FALSE,0,NO ERROR,-0.000000,0.000000,0.000000,-0.436332,TRUE,FALSE,TRUE,FALSE,FALSE,FALSE,Disabled,0.000000,0.000000,0.000000,TRUE,-2.216003,-6.006363,0.000000,0.043732,-0.006851,0.000000,-0.026000,0.003000,0.184000,-0.200000,-0.140000,1.190000,17.400310,Hold,0.937988,0.000000,Hold,-215.000000,2.000000,LowGoal,2100.000000,-2181.818182,Speed,2055.000000,-2181.818182,Speed,Off,Off0.000000,0,,,,
08:51:34.761 PM 03/17/2016,Teleop Enabled,10,FALSE,0,NO ERROR,-0.000000,0.000000,0.000000,-0.436332,TRUE,FALSE,TRUE,FALSE,FALSE,FALSE,Disabled,0.000000,0.000000,0.000000,TRUE,-2.213684,-6.005249,0.000000,0.029938,0.023895,0.000000,-0.026000,-0.024000,0.029000,-0.200000,-0.130000,1.200000,17.587658,Hold,0.937988,0.000000,Hold,-215.000000,2.000000,LowGoal,2100.000000,-2181.818182,Speed,2062.500000,-2181.818182,Speed,Off,Off0.000000,0,,,,
08:51:34.862 PM 03/17/2016,Teleop Enabled,11,FALSE,0,NO ERROR,-0.000000,0.000000,0.000000,-0.436332,TRUE,FALSE,TRUE,FALSE,FALSE,FALSE,Disabled,0.000000,0.000000,0.000000,TRUE,-2.211884,-6.004486,0.000000,0.061646,0.014572,0.000000,0.009000,-0.039000,-0.064000,-0.210000,-0.130000,1.210000,17.750401,Hold,0.937988,0.000000,Hold,-215.000000,2.000000,LowGoal,2107.500000,-2181.818182,Speed,2062.500000,-2181.818182,Speed,Off,Off0.000000,0,,,,
08:51:34.962 PM 03/17/2016,Teleop Enabled,10,FALSE,0,NO ERROR,-0.000000,0.000000,0.000000,-0.436332,TRUE,FALSE,TRUE,FALSE,FALSE,FALSE,Disabled,0.000000,0.000000,0.000000,TRUE,-2.209991,-6.004044,0.000000,0.058838,0.023911,0.000000,0.123000,0.041000,0.061000,-0.220000,-0.140000,1.200000,17.917826,Hold,0.937988,0.000000,Hold,-215.000000,2.000000,LowGoal,2107.500000,-2181.818182,Speed,2055.000000,-2181.818182,Speed,Off,Off0.000000,0,,,,
08:51:35.063 PM 03/17/2016,Teleop Enabled,11,FALSE,0,NO ERROR,-0.000000,0.000000,0.000000,-0.436332,TRUE,FALSE,TRUE,FALSE,FALSE,FALSE,Disabled,0.000000,0.000000,0.000000,TRUE,-2.205368,-6.002121,0.000000,0.080612,0.000000,0.000000,0.055000,0.012000,0.039000,-0.220000,-0.130000,1.180000,18.101088,Hold,0.937988,0.000000,Hold,-215.000000,2.000000,LowGoal,2100.000000,-2181.818182,Speed,2055.000000,-2181.818182,Speed,Off,Off0.000000,0,,,,
08:51:35.163 PM 03/17/2016,Teleop Enabled,10,FALSE,0,NO ERROR,-0.000000,0.000000,0.000000,-0.436332,TRUE,FALSE,TRUE,FALSE,FALSE,FALSE,Disabled,0.000000,0.000000,0.000000,TRUE,-2.202393,-6.001968,0.000000,0.049362,0.003174,0.000000,0.127000,0.017000,-0.047000,-0.220000,-0.150000,1.200000,18.284552,Hold,0.937988,0.000000,Hold,-215.000000,2.000000,LowGoal,2100.000000,-2181.818182,Speed,2062.500000,-2181.818182,Speed,Off,Off0.000000,0,,,,
08:51:35.263 PM 03/17/2016,Teleop Enabled,9,FALSE,0,NO ERROR,-0.000000,0.000000,0.000000,-0.436332,TRUE,FALSE,TRUE,FALSE,FALSE,FALSE,Disabled,0.000000,0.000000,0.000000,TRUE,-2.198853,-6.002594,0.000000,0.048431,-0.036697,0.000000,0.040000,0.057000,0.026000,-0.220000,-0.090000,1.200000,18.445402,Hold,0.937988,0.000000,Hold,-215.000000,2.000000,LowGoal,2107.500000,-2181.818182,Speed,2055.000000,-2181.818182,Speed,Off,Off0.000000,0,,,,
08:51:35.365 PM 03/17/2016,Teleop Enabled,10,FALSE,0,NO ERROR,-0.000000,0.000000,0.000000,-0.436332,TRUE,FALSE,TRUE,FALSE,FALSE,FALSE,Disabled,0.000000,0.000000,0.000000,TRUE,-2.196075,-6.003036,0.000000,0.098587,0.007904,0.000000,-0.029000,0.003000,0.098000,-0.230000,-0.070000,1.200000,18.626625,Hold,0.937988,0.000000,Hold,-215.000000,2.000000,LowGoal,2107.500000,-2181.818182,Speed,2055.000000,-2181.818182,Speed,Off,Off0.000000,0,,,,
08:51:35.465 PM 03/17/2016,Teleop Enabled,10,FALSE,0,NO ERROR,-0.000000,0.000000,0.000000,-0.436332,TRUE,FALSE,TRUE,FALSE,FALSE,FALSE,Disabled,0.000000,0.000000,0.000000,TRUE,-2.191315,-6.002747,0.000000,0.109161,0.006424,0.000000,-0.020000,-0.043000,-0.078000,-0.230000,-0.070000,1.210000,18.809363,Hold,0.937988,0.000000,Hold,-215.000000,2.000000,LowGoal,2100.000000,-2181.818182,Speed,2062.500000,-2181.818182,Speed,Off,Off0.000000,0,,,,
08:51:35.566 PM 03/17/2016,Teleop Enabled,9,FALSE,0,NO ERROR,-0.000000,0.000000,0.000000,-0.436332,TRUE,FALSE,TRUE,FALSE,FALSE,FALSE,Disabled,0.000000,0.000000,0.000000,TRUE,-2.185898,-6.003250,0.000000,0.100861,-0.010193,0.000000,0.091000,-0.009000,-0.081000,-0.230000,-0.090000,1.210000,19.043298,Hold,0.937988,0.000000,Hold,-215.000000,2.000000,LowGoal,2100.000000,-2181.818182,Speed,2055.000000,-2181.818182,Speed,Off,Off0.000000,0,,,,
08:51:35.670 PM 03/17/2016,Teleop Enabled,10,FALSE,0,NO ERROR,-0.000000,0.000000,0.000000,-0.436332,TRUE,FALSE,TRUE,FALSE,FALSE,FALSE,Disabled,0.000000,0.000000,0.000000,TRUE,-2.181931,-6.005203,0.000000,0.084763,-0.047256,0.000000,0.083000,0.067000,0.059000,-0.230000,-0.100000,1.210000,19.235741,Hold,0.937988,0.000000,Hold,-215.000000,2.000000,LowGoal,2100.000000,-2181.818182,Speed,2055.000000,-2181.818182,Speed,Off,Off0.000000,0,,,,
08:51:35.771 PM 03/17/2016,Teleop Enabled,11,FALSE,0,NO ERROR,-0.000000,0.000000,0.000000,-0.436332,TRUE,FALSE,TRUE,FALSE,FALSE,FALSE,Disabled,0.000000,0.000000,0.000000,TRUE,-2.176178,-6.007080,0.000000,0.088516,-0.031586,0.000000,0.071000,0.052000,0.128000,-0.240000,-0.120000,1.200000,19.408499,Hold,0.937988,0.000000,Hold,-215.000000,2.000000,LowGoal,2100.000000,-2181.818182,Speed,2062.500000,-2181.818182,Speed,Off,Off0.000000,0,,,,
08:51:35.873 PM 03/17/2016,Teleop Enabled,11,FALSE,0,NO ERROR,-0.000000,0.000000,0.000000,-0.436332,TRUE,FALSE,TRUE,FALSE,FALSE,FALSE,Disabled,0.000000,0.000000,0.000000,TRUE,-2.172119,-6.008926,0.000000,0.054276,-0.044815,0.000000,0.056000,0.079000,-0.027000,-0.240000,-0.120000,1.180000,19.611868,Hold,0.937988,0.000000,Hold,-215.000000,2.000000,LowGoal,2100.000000,-2181.818182,Speed,2062.500000,-2181.818182,Speed,Off,Off0.000000,0,,,,
08:51:35.974 PM 03/17/2016,Teleop Enabled,10,FALSE,0,NO ERROR,-0.000000,0.000000,0.000000,-0.436332,TRUE,FALSE,TRUE,FALSE,FALSE,FALSE,Disabled,0.000000,0.000000,0.000000,TRUE,-2.168335,-6.010529,0.000000,0.071182,-0.041214,0.000000,0.110000,0.006000,0.033000,-0.240000,-0.140000,1.190000,19.784168,Hold,0.937988,0.000000,Hold,-215.000000,2.000000,LowGoal,2107.500000,-2181.818182,Speed,2047.500000,-2181.818182,Speed,Off,Off0.000000,0,,,,
08:51:36.075 PM 03/17/2016,Teleop Enabled,11,FALSE,0,NO ERROR,-0.000000,0.000000,0.000000,-0.436332,TRUE,FALSE,TRUE,FALSE,FALSE,FALSE,Disabled,0.000000,0.000000,0.000000,TRUE,-2.163040,-6.011398,0.000000,0.098053,-0.000793,0.000000,-0.092000,0.004000,-0.052000,-0.240000,-0.130000,1.180000,19.967106,Hold,0.937988,0.000000,Hold,-215.000000,2.000000,LowGoal,2100.000000,-2181.818182,Speed,2055.000000,-2181.818182,Speed,Off,Off0.000000,0,,,,
08:51:36.175 PM 03/17/2016,Teleop Enabled,10,FALSE,0,NO ERROR,-0.000000,0.000000,0.000000,-0.436332,TRUE,FALSE,TRUE,FALSE,FALSE,FALSE,Disabled,0.000000,0.000000,0.000000,TRUE,-2.157593,-6.010544,0.000000,0.112701,0.017395,0.000000,-0.114000,-0.163000,-0.179000,-0.230000,-0.140000,1.170000,20.157283,Hold,0.937988,0.000000,Hold,-215.000000,2.000000,LowGoal,2100.000000,-2181.818182,Speed,2055.000000,-2181.818182,Speed,Off,Off0.000000,0,,,,
08:51:36.276 PM 03/17/2016,Teleop Enabled,11,FALSE,0,NO ERROR,-0.000000,0.000000,0.000000,-0.436332,TRUE,FALSE,TRUE,FALSE,FALSE,FALSE,Disabled,0.000000,0.000000,0.000000,TRUE,-2.153809,-6.011414,0.000000,0.088287,-0.013153,0.000000,0.078000,-0.012000,-0.040000,-0.230000,-0.160000,1.190000,20.355918,Hold,0.937988,0.000000,Hold,-215.000000,2.000000,LowGoal,2107.500000,-2181.818182,Speed,2055.000000,-2181.818182,Speed,Off,Off0.000000,0,,,,
08:51:36.377 PM 03/17/2016,Teleop Enabled,10,FALSE,0,NO ERROR,-0.000000,0.000000,0.000000,-0.436332,TRUE,FALSE,TRUE,FALSE,FALSE,FALSE,Disabled,0.000000,0.000000,0.000000,TRUE,-2.149612,-6.012848,0.000000,0.101151,-0.027985,0.000000,0.104000,0.038000,0.035000,-0.230000,-0.150000,1.190000,20.559195,Hold,0.937988,0.000000,Hold,-215.000000,2.000000,LowGoal,2100.000000,-2181.818182,Speed,2055.000000,-2181.818182,Speed,Off,Off0.000000,0,,,,
08:51:36.477 PM 03/17/2016,Teleop Enabled,10,FALSE,0,NO ERROR,-0.000000,0.000000,0.000000,-0.436332,TRUE,FALSE,TRUE,FALSE,FALSE,FALSE,Disabled,0.000000,0.000000,0.000000,TRUE,-2.143723,-6.013901,0.000000,0.108932,-0.009644,0.000000,0.104000,0.114000,0.120000,-0.230000,-0.150000,1.170000,20.775855,Hold,0.937988,0.000000,Hold,-215.000000,2.000000,LowGoal,2100.000000,-2181.818182,Speed,2062.500000,-2181.818182,Speed,Off,Off0.000000,0,,,,
08:51:36.577 PM 03/17/2016,Teleop Enabled,10,FALSE,0,NO ERROR,-0.000000,0.000000,0.000000,-0.436332,TRUE,FALSE,TRUE,FALSE,FALSE,FALSE,Disabled,0.000000,0.000000,0.000000,TRUE,-2.136932,-6.013794,0.000000,0.119492,-0.021851,0.000000,0.046000,0.053000,-0.028000,-0.230000,-0.120000,1.150000,20.953233,Hold,0.937988,0.000000,Hold,-215.000000,2.000000,LowGoal,2100.000000,-2181.818182,Speed,2055.000000,-2181.818182,Speed,Off,Off0.000000,0,,,,
08:51:36.678 PM 03/17/2016,Teleop Enabled,10,FALSE,0,NO ERROR,-0.000000,0.000000,0.000000,-0.436332,TRUE,FALSE,TRUE,FALSE,FALSE,FALSE,Disabled,0.000000,0.000000,0.000000,TRUE,-2.130524,-6.013977,0.000000,0.112610,-0.002518,0.000000,0.000000,0.024000,0.044000,-0.220000,-0.130000,1.180000,21.145572,Hold,0.937988,0.000000,Hold,-215.000000,2.000000,LowGoal,2100.000000,-2181.818182,Speed,2055.000000,-2181.818182,Speed,Off,Off0.000000,0,,,,
08:51:36.778 PM 03/17/2016,Teleop Enabled,10,FALSE,0,NO ERROR,-0.000000,0.000000,0.000000,-0.436332,TRUE,FALSE,TRUE,FALSE,FALSE,FALSE,Disabled,0.000000,0.000000,0.000000,TRUE,-2.124252,-6.013672,0.000000,0.133591,0.007996,0.000000,-0.179000,-0.007000,-0.073000,-0.220000,-0.120000,1.190000,21.322041,Hold,0.937988,0.000000,Hold,-215.000000,2.000000,LowGoal,2100.000000,-2181.818182,Speed,2055.000000,-2181.818182,Speed,Off,Off0.000000,0,,,,
08:51:36.879 PM 03/17/2016,Teleop Enabled,10,FALSE,0,NO ERROR,-0.000000,0.000000,0.000000,-0.436332,TRUE,FALSE,TRUE,FALSE,FALSE,FALSE,Disabled,0.000000,0.000000,0.000000,TRUE,-2.118881,-6.013199,0.000000,0.123825,0.016342,0.000000,-0.125000,-0.094000,0.034000,-0.220000,-0.120000,1.210000,21.501956,Hold,0.937988,0.000000,Hold,-215.000000,2.000000,LowGoal,2100.000000,-2181.818182,Speed,2055.000000,-2181.818182,Speed,Off,Off0.000000,0,,,,
08:51:36.979 PM 03/17/2016,Teleop Enabled,9,FALSE,0,NO ERROR,-0.000000,0.000000,0.000000,-0.436332,TRUE,FALSE,TRUE,FALSE,FALSE,FALSE,Disabled,0.000000,0.000000,0.000000,TRUE,-2.114975,-6.013763,0.000000,0.073730,0.000000,0.000000,-0.043000,-0.007000,-0.082000,-0.210000,-0.130000,1.210000,21.681654,Hold,0.937988,0.000000,Hold,-215.000000,2.000000,LowGoal,2100.000000,-2181.818182,Speed,2055.000000,-2181.818182,Speed,Off,Off0.000000,0,,,,
08:51:37.079 PM 03/17/2016,Teleop Enabled,10,FALSE,0,NO ERROR,-0.000000,0.000000,0.000000,-0.436332,TRUE,FALSE,TRUE,FALSE,FALSE,FALSE,Disabled,0.000000,0.000000,0.000000,TRUE,-2.112183,-6.014374,0.000000,0.061386,-0.007767,0.000000,0.147000,0.059000,0.027000,-0.210000,-0.180000,1.210000,21.865955,Hold,0.937988,0.000000,Hold,-215.000000,2.000000,LowGoal,2100.000000,-2181.818182,Speed,2055.000000,-2181.818182,Speed,Off,Off0.000000,0,,,,
08:51:37.180 PM 03/17/2016,Teleop Enabled,11,FALSE,0,NO ERROR,-0.000000,0.000000,0.000000,-0.436332,TRUE,FALSE,TRUE,FALSE,FALSE,FALSE,Disabled,0.000000,0.000000,0.000000,TRUE,-2.106873,-6.014084,0.000000,0.086746,0.015671,0.000000,0.044000,0.080000,0.094000,-0.210000,-0.170000,1.190000,22.054532,Hold,0.937988,0.000000,Hold,-215.000000,2.000000,LowGoal,2100.000000,-2181.818182,Speed,2062.500000,-2181.818182,Speed,Off,Off0.000000,0,,,,
08:51:37.280 PM 03/17/2016,Teleop Enabled,9,FALSE,0,NO ERROR,-0.000000,0.000000,0.000000,-0.436332,TRUE,FALSE,TRUE,FALSE,FALSE,FALSE,Disabled,0.000000,0.000000,0.000000,TRUE,-2.102493,-6.012741,0.000000,0.060516,0.007355,0.000000,0.044000,-0.056000,-0.081000,-0.210000,-0.180000,1.210000,22.225241,Hold,0.937988,0.000000,Hold,-215.000000,2.000000,LowGoal,2100.000000,-2181.818182,Speed,2062.500000,-2181.818182,Speed,Off,Off0.000000,0,,,,
08:51:37.380 PM 03/17/2016,Teleop Enabled,11,FALSE,0,NO ERROR,-0.000000,0.000000,0.000000,-0.436332,TRUE,FALSE,TRUE,FALSE,FALSE,FALSE,Disabled,0.000000,0.000000,0.000000,TRUE,-2.098999,-6.013550,0.000000,0.055771,-0.022354,0.000000,-0.021000,0.027000,0.006000,-0.200000,-0.150000,1.220000,22.404822,Hold,0.937988,0.000000,Hold,-215.000000,2.000000,LowGoal,2100.000000,-2181.818182,Speed,2055.000000,-2181.818182,Speed,Off,Off0.000000,0,,,,
08:51:37.480 PM 03/17/2016,Teleop Enabled,11,FALSE,0,NO ERROR,-0.000000,0.000000,0.000000,-0.436332,TRUE,FALSE,TRUE,FALSE,FALSE,FALSE,Disabled,0.000000,0.000000,0.000000,TRUE,-2.095230,-6.014206,0.000000,0.089233,-0.009521,0.000000,-0.068000,-0.020000,0.093000,-0.200000,-0.130000,1.220000,22.577177,Hold,0.937988,0.000000,Hold,-215.000000,2.000000,LowGoal,2100.000000,-2181.818182,Speed,2055.000000,-2181.818182,Speed,Off,Off0.000000,0,,,,
08:51:37.580 PM 03/17/2016,Teleop Enabled,10,FALSE,0,NO ERROR,-0.000000,0.000000,0.000000,-0.436332,TRUE,FALSE,TRUE,FALSE,FALSE,FALSE,Disabled,0.000000,0.000000,0.000000,TRUE,-2.090958,-6.014618,0.000000,0.102844,0.006287,0.000000,-0.031000,-0.025000,0.001000,-0.200000,-0.130000,1.220000,22.733962,Hold,0.937988,0.000000,Hold,-215.000000,2.000000,LowGoal,2100.000000,-2181.818182,Speed,2062.500000,-2181.818182,Speed,Off,Off0.000000,0,,,,
08:51:37.680 PM 03/17/2016,Teleop Enabled,10,FALSE,0,NO ERROR,-0.000000,0.000000,0.000000,-0.436332,TRUE,FALSE,TRUE,FALSE,FALSE,FALSE,Disabled,0.000000,0.000000,0.000000,TRUE,-2.086929,-6.014999,0.000000,0.079178,-0.017273,0.000000,0.035000,0.012000,-0.104000,-0.200000,-0.120000,1.230000,22.947094,Hold,0.937988,0.000000,Hold,-215.000000,2.000000,LowGoal,2100.000000,-2181.818182,Speed,2062.500000,-2181.818182,Speed,Off,Off0.000000,0,,,,
08:51:37.780 PM 03/17/2016,Teleop Enabled,10,FALSE,0,NO ERROR,-0.000000,0.000000,0.000000,-0.436332,TRUE,FALSE,TRUE,FALSE,FALSE,FALSE,Disabled,0.000000,0.000000,0.000000,TRUE,-2.082855,-6.016052,0.000000,0.065994,-0.022522,0.000000,0.138000,0.069000,-0.034000,-0.190000,-0.170000,1.210000,23.132434,Hold,0.937988,0.000000,Hold,-215.000000,2.000000,LowGoal,2107.500000,-2181.818182,Speed,2055.000000,-2181.818182,Speed,Off,Off0.000000,0,,,,
08:51:37.880 PM 03/17/2016,Teleop Enabled,9,FALSE,0,NO ERROR,-0.000000,0.000000,0.000000,-0.436332,TRUE,FALSE,TRUE,FALSE,FALSE,FALSE,Disabled,0.000000,0.000000,0.000000,TRUE,-2.077286,-6.016541,0.000000,0.085846,-0.014664,0.000000,0.138000,0.069000,-0.034000,-0.190000,-0.170000,1.210000,23.312071,Hold,0.937988,0.000000,Hold,-215.000000,2.000000,LowGoal,2100.000000,-2181.818182,Speed,2062.500000,-2181.818182,Speed,Off,Off0.000000,0,,,,
08:51:37.981 PM 03/17/2016,Teleop Enabled,11,FALSE,0,NO ERROR,-0.000000,0.000000,0.000000,-0.436332,TRUE,FALSE,TRUE,FALSE,FALSE,FALSE,Disabled,0.000000,0.000000,0.000000,TRUE,-2.072586,-6.016830,0.000000,0.071045,-0.010498,0.000000,0.112000,0.024000,0.051000,-0.190000,-0.190000,1.200000,23.493776,Hold,0.937988,0.000000,Hold,-215.000000,2.000000,LowGoal,2100.000000,-2181.818182,Speed,2062.500000,-2181.818182,Speed,Off,Off0.000000,0,,,,
08:51:38.081 PM 03/17/2016,Teleop Enabled,9,FALSE,0,NO ERROR,-0.000000,0.000000,0.000000,-0.436332,TRUE,FALSE,TRUE,FALSE,FALSE,FALSE,Disabled,0.000000,0.000000,0.000000,TRUE,-2.068817,-6.018646,0.000000,0.067459,-0.046448,0.000000,0.009000,-0.075000,-0.065000,-0.190000,-0.160000,1.210000,23.675763,Hold,0.937988,0.000000,Hold,-215.000000,2.000000,LowGoal,2107.500000,-2181.818182,Speed,2062.500000,-2181.818182,Speed,Off,Off0.000000,0,,,,
08:51:38.181 PM 03/17/2016,Teleop Enabled,10,FALSE,0,NO ERROR,-0.000000,0.000000,0.000000,-0.436332,TRUE,FALSE,TRUE,FALSE,FALSE,FALSE,Disabled,0.000000,0.000000,0.000000,TRUE,-2.065491,-6.020523,0.000000,0.104416,-0.017792,0.000000,-0.047000,-0.002000,-0.011000,-0.190000,-0.120000,1.240000,23.850979,Hold,0.937988,0.000000,Hold,-215.000000,2.000000,LowGoal,2100.000000,-2181.818182,Speed,2055.000000,-2181.818182,Speed,Off,Off0.000000,0,,,,
08:51:38.282 PM 03/17/2016,Teleop Enabled,10,FALSE,0,NO ERROR,-0.000000,0.000000,0.000000,-0.436332,TRUE,FALSE,TRUE,FALSE,FALSE,FALSE,Disabled,0.000000,0.000000,0.000000,TRUE,-2.060486,-6.021301,0.000000,0.107117,0.000549,0.000000,0.073000,-0.012000,0.047000,-0.190000,-0.120000,1.190000,24.040209,Hold,0.937988,0.000000,Hold,-215.000000,2.000000,LowGoal,2100.000000,-2181.818182,Speed,2062.500000,-2181.818182,Speed,Off,Off0.000000,0,,,,
08:51:38.382 PM 03/17/2016,Teleop Enabled,10,FALSE,0,NO ERROR,-0.000000,0.000000,0.000000,-0.436332,TRUE,FALSE,TRUE,FALSE,FALSE,FALSE,Disabled,0.000000,0.000000,0.000000,TRUE,-2.056763,-6.020920,0.000000,0.054855,-0.000687,0.000000,-0.012000,0.031000,0.073000,-0.190000,-0.130000,1.180000,24.224734,Hold,0.937988,0.000000,Hold,-215.000000,2.000000,LowGoal,2100.000000,-2181.818182,Speed,2062.500000,-2181.818182,Speed,Off,Off0.000000,0,,,,
08:51:38.482 PM 03/17/2016,Teleop Enabled,10,FALSE,0,NO ERROR,-0.000000,0.000000,0.000000,-0.436332,TRUE,FALSE,TRUE,FALSE,FALSE,FALSE,Disabled,0.000000,0.000000,0.000000,TRUE,-2.056763,-6.020920,0.000000,0.054855,-0.000687,0.000000,0.031000,-0.022000,-0.106000,-0.190000,-0.130000,1.190000,24.452266,Hold,0.937988,0.000000,Hold,-215.000000,2.000000,LowGoal,2107.500000,-2181.818182,Speed,2055.000000,-2181.818182,Speed,Off,Off0.000000,0,,,,
08:51:38.582 PM 03/17/2016,Teleop Enabled,9,FALSE,0,NO ERROR,-0.000000,0.000000,0.000000,-0.436332,TRUE,FALSE,TRUE,FALSE,FALSE,FALSE,Disabled,0.000000,0.000000,0.000000,TRUE,-2.050629,-6.023209,0.000000,0.059525,-0.028122,0.000000,0.126000,0.053000,0.022000,-0.180000,-0.160000,1.200000,24.622002,Hold,0.937988,0.000000,Hold,-215.000000,2.000000,LowGoal,2100.000000,-2181.818182,Speed,2055.000000,-2181.818182,Speed,Off,Off0.000000,0,,,,
