Time,Robot Mode,Loop Time,Error Status,Error Code,Error Source,Left Motor Output,Left Motor Encoder,Right Motor Output,Right Motor Encoder,Is Level,Is Stalled,Ball Detector Photoeye,Vision Enabled,Vision Teleop Control,Vision Auto Control,Vision Current State,Vision X Output,Vision NavX Error,Vision NavX Target,NavX Connection Status,NavX Displacement X,NavX Displacement Y,NavX Displacement Z,NavX Velocity X,NavX Velocity Y,NavX Velocity Z,NavX Acceleration X,NavX Acceleration Y,NavX Acceleration Z,NavX Pitch,NavX Yaw,NavX Roll,Gyro Angle,Roller Arm State,Roller Arm Actual,Roller Arm Desired,Shooter Arm State,Shooter Arm Actual,Shooter Arm Desired,Shooter State,Actual RPM Left,Desired RPM Left,Control Mode Left,Actual RPM Right,Desired RPM Right,Scaler Motor Output,Auto To Run,Auto Current File,Auto File Status,Auto Current Command,Auto Trimmed Command
02:46:48.404 PM 03/20/2016,Teleop Enabled,10,TRUE,-44003,<LOCATION>WPI_CameraIssue HTTP Request with Authentication.vi<CALLSTACK>WPI_CameraIssue HTTP Request with Authentication.vi< <WPI_CameraIssue Get.vi< <WPI_CameraSet Image Appearance Property.vi< <WPI_CameraSet Image Size.vi< <Vision Processing.vi< <Robot Main.vi,0.000000,-0.250249,0.000000,0.333666,TRUE,FALSE,FALSE,FALSE,FALSE,FALSE,Disabled,0.000000,0.000000,0.000000,TRUE,0.000809,-0.003281,0.000000,0.000000,0.000000,0.000000,0.000000,-0.001000,0.012000,-5.060000,-0.330000,2.750000,-1.811588,ResetBack,0.695801,-0.000049,ResetBack,-7178.000000,-0.300000,Suck,0.000000,2181.818182,Speed,0.000000,2181.818182,Speed,Off,On0.000000,0,,,,
02:46:48.505 PM 03/20/2016,Teleop Enabled,10,FALSE,0,NO ERROR,-0.000000,-0.250249,0.000000,0.333666,TRUE,FALSE,FALSE,FALSE,FALSE,FALSE,Disabled,0.000000,0.000000,0.000000,TRUE,0.001648,-0.003342,0.000000,0.039078,0.003342,0.000000,-0.001000,0.000000,0.015000,-5.070000,-0.300000,2.710000,-1.803336,ResetBack,0.451416,-0.000049,ResetBack,-7178.000000,-0.300000,Suck,0.000000,2181.818182,Speed,-15.000000,2181.818182,Speed,Off,On0.000000,0,,,,
02:46:48.605 PM 03/20/2016,Teleop Enabled,9,FALSE,0,NO ERROR,-0.000000,-0.250249,0.000000,0.333666,TRUE,FALSE,FALSE,FALSE,FALSE,FALSE,Disabled,0.000000,0.000000,0.000000,TRUE,0.002670,-0.002884,0.000000,0.008194,0.011581,0.000000,0.043000,0.012000,0.048000,-5.070000,-0.300000,2.750000,-1.805574,ResetBack,-1.374512,-0.000049,ResetBack,-5011.000000,-0.300000,Suck,-420.000000,2181.818182,Speed,-540.000000,2181.818182,Speed,Off,On0.000000,0,,,,
02:46:48.705 PM 03/20/2016,Teleop Enabled,10,FALSE,0,NO ERROR,-0.000000,-0.243833,0.000000,0.333666,TRUE,FALSE,FALSE,FALSE,FALSE,FALSE,Disabled,0.000000,0.000000,0.000000,TRUE,0.003281,-0.001709,0.000000,0.008438,0.030853,0.000000,0.043000,0.012000,0.048000,-5.080000,-0.340000,2.810000,-1.830236,ResetBack,-1.397949,-0.000049,ResetBack,3213.000000,-0.300000,Suck,-1335.000000,2181.818182,Speed,-1297.500000,2181.818182,Speed,Off,On0.000000,0,,,,
02:46:48.805 PM 03/20/2016,Teleop Enabled,11,FALSE,0,NO ERROR,-0.000000,-0.243833,0.000000,0.333666,TRUE,FALSE,FALSE,FALSE,FALSE,FALSE,Disabled,0.000000,0.000000,0.000000,TRUE,0.002838,-0.000168,0.000000,-0.029556,0.014481,0.000000,-0.035000,-0.003000,-0.027000,-5.080000,-0.330000,2.790000,-1.845538,Reset,-1.409424,0.000000,ResetBack,9623.000000,-0.300000,Suck,-2055.000000,2181.818182,Speed,-1950.000000,2181.818182,Speed,Off,On0.000000,0,,,,
02:46:48.905 PM 03/20/2016,Teleop Enabled,9,FALSE,0,NO ERROR,-0.000000,-0.243833,0.000000,0.333666,TRUE,FALSE,FALSE,FALSE,FALSE,FALSE,Disabled,0.000000,0.000000,0.000000,TRUE,0.002075,0.001511,0.000000,-0.036469,0.066559,0.000000,-0.095000,0.081000,-0.077000,-5.080000,-0.330000,2.790000,-1.835713,Hold,0.956055,0.000000,ResetBack,13120.000000,-0.300000,Suck,-2370.000000,2181.818182,Speed,-2295.000000,2181.818182,Speed,Off,On0.000000,0,,,,
02:46:49.006 PM 03/20/2016,Teleop Enabled,9,FALSE,0,NO ERROR,-0.000000,-0.243833,0.000000,0.333666,TRUE,FALSE,FALSE,FALSE,FALSE,FALSE,Disabled,0.000000,0.000000,0.000000,TRUE,-0.001022,0.006424,0.000000,-0.075165,0.103088,0.000000,-0.095000,0.081000,-0.077000,-5.080000,-0.400000,2.770000,-1.816617,Hold,0.943359,0.000000,ResetBack,14856.000000,-0.300000,Suck,-2205.000000,2181.818182,Speed,-2212.500000,2181.818182,Speed,Off,On0.000000,0,,,,
02:46:49.106 PM 03/20/2016,Teleop Enabled,9,FALSE,0,NO ERROR,-0.000000,-0.237416,0.000000,0.333666,TRUE,FALSE,FALSE,FALSE,FALSE,FALSE,Disabled,0.000000,0.000000,0.000000,TRUE,-0.004257,0.006165,0.000000,-0.081726,-0.018875,0.000000,0.063000,-0.017000,0.102000,-5.070000,-0.420000,2.810000,-1.813595,Hold,0.943359,0.000000,ResetBack,15342.000000,-0.300000,Suck,-2100.000000,2181.818182,Speed,-2032.500000,2181.818182,Speed,Off,On0.000000,0,,,,
02:46:49.206 PM 03/20/2016,Teleop Enabled,9,FALSE,0,NO ERROR,-0.000000,-0.237416,0.000000,0.333666,TRUE,FALSE,FALSE,FALSE,FALSE,FALSE,Disabled,0.000000,0.000000,0.000000,TRUE,-0.009766,0.003983,0.000000,-0.122437,-0.067856,0.000000,-0.038000,-0.006000,0.020000,-5.070000,-0.430000,2.800000,-1.829754,Hold,0.943359,0.000000,ResetBack,15342.000000,-0.300000,Suck,-2182.500000,2181.818182,Speed,-2092.500000,2181.818182,Speed,Off,On0.000000,0,,,,
02:46:49.306 PM 03/20/2016,Teleop Enabled,10,FALSE,0,NO ERROR,-0.000000,-0.237416,0.000000,0.333666,TRUE,FALSE,FALSE,FALSE,FALSE,FALSE,Disabled,0.000000,0.000000,0.000000,TRUE,-0.009766,0.003983,0.000000,-0.122437,-0.067856,0.000000,-0.025000,-0.124000,-0.075000,-5.070000,-0.460000,2.860000,-1.823465,Hold,0.943359,0.000000,ResetBack,15343.000000,-0.300000,Suck,-2212.500000,2181.818182,Speed,-2160.000000,2181.818182,Speed,Off,On0.000000,0,,,,
02:46:49.406 PM 03/20/2016,Teleop Enabled,9,FALSE,0,NO ERROR,-0.000000,-0.237416,0.000000,0.333666,TRUE,FALSE,FALSE,FALSE,FALSE,FALSE,Disabled,0.000000,0.000000,0.000000,TRUE,-0.023972,-0.012909,0.000000,-0.142227,-0.249313,0.000000,-0.068000,-0.124000,-0.135000,-5.070000,-0.460000,2.790000,-1.817791,Hold,0.943359,0.000000,ResetBack,15343.000000,-0.300000,Suck,-2175.000000,2181.818182,Speed,-2122.500000,2181.818182,Speed,Off,On0.000000,0,,,,
02:46:49.506 PM 03/20/2016,Teleop Enabled,9,FALSE,0,NO ERROR,-0.000000,-0.237416,0.000000,0.333666,TRUE,FALSE,FALSE,FALSE,FALSE,FALSE,Disabled,0.000000,0.000000,0.000000,TRUE,-0.030670,-0.026169,0.000000,-0.159317,-0.265732,0.000000,0.020000,-0.015000,-0.012000,-5.070000,-0.450000,2.750000,-1.818287,Hold,0.943359,0.000000,ResetBack,15343.000000,-0.300000,Suck,-2152.500000,2181.818182,Speed,-2092.500000,2181.818182,Speed,Off,On0.000000,0,,,,
02:46:49.607 PM 03/20/2016,Teleop Enabled,8,FALSE,0,NO ERROR,-0.000000,-0.237416,0.000000,0.333666,TRUE,FALSE,FALSE,FALSE,FALSE,FALSE,Disabled,0.000000,0.000000,0.000000,TRUE,-0.041504,-0.031372,0.000000,-0.237854,0.000000,0.000000,-0.115000,0.015000,-0.083000,-5.070000,-0.470000,2.750000,-1.817371,Hold,0.943359,0.000000,ResetBack,15343.000000,-0.300000,Suck,-2167.500000,2181.818182,Speed,-2115.000000,2181.818182,Speed,Off,On0.000000,0,,,,
02:46:49.707 PM 03/20/2016,Teleop Enabled,9,FALSE,0,NO ERROR,-0.000000,-0.237416,0.000000,0.333666,TRUE,FALSE,FALSE,FALSE,FALSE,FALSE,Disabled,0.000000,0.000000,0.000000,TRUE,-0.041504,-0.031372,0.000000,-0.237854,0.000000,0.000000,-0.048000,0.074000,0.030000,-5.080000,-0.440000,2.710000,-1.810052,Hold,0.943359,0.000000,Reset,15343.000000,2.000000,Suck,-2175.000000,2181.818182,Speed,-2130.000000,2181.818182,Speed,Off,On0.000000,0,,,,
02:46:49.807 PM 03/20/2016,Teleop Enabled,10,FALSE,0,NO ERROR,-0.000000,-0.237416,0.000000,0.333666,TRUE,FALSE,FALSE,FALSE,FALSE,FALSE,Disabled,0.000000,0.000000,0.000000,TRUE,-0.069031,-0.029449,0.000000,-0.312347,0.001099,0.000000,0.027000,0.023000,0.051000,-5.080000,-0.490000,2.760000,-1.816813,Hold,0.943359,0.000000,Hold,15343.000000,2.000000,Suck,-2167.500000,2181.818182,Speed,-2115.000000,2181.818182,Speed,Off,On0.000000,0,,,,
02:46:49.908 PM 03/20/2016,Teleop Enabled,10,FALSE,0,NO ERROR,-0.000000,-0.237416,0.000000,0.333666,TRUE,FALSE,FALSE,FALSE,FALSE,FALSE,Disabled,0.000000,0.000000,0.000000,TRUE,-0.069031,-0.029449,0.000000,-0.312347,0.001099,0.000000,-0.019000,-0.061000,-0.039000,-5.080000,-0.440000,2.790000,-1.786367,Hold,0.943359,0.000000,Hold,-240.000000,2.000000,Suck,-2167.500000,2181.818182,Speed,-2122.500000,2181.818182,Speed,Off,On0.000000,0,,,,
02:46:50.007 PM 03/20/2016,Teleop Enabled,11,FALSE,0,NO ERROR,-0.000000,-0.237416,0.000000,0.333666,TRUE,FALSE,FALSE,FALSE,FALSE,FALSE,Disabled,0.000000,0.000000,0.000000,TRUE,-0.075272,-0.030548,0.000000,0.008102,-0.032333,0.000000,0.027000,-0.048000,-0.026000,-5.080000,-0.400000,2.830000,-1.790863,Hold,0.943359,0.000000,Hold,-237.000000,2.000000,Suck,-2167.500000,2181.818182,Speed,-2130.000000,2181.818182,Speed,Off,On0.000000,0,,,,
02:46:50.109 PM 03/20/2016,Teleop Enabled,9,FALSE,0,NO ERROR,-0.000000,-0.237416,0.000000,0.333666,TRUE,FALSE,FALSE,FALSE,FALSE,FALSE,Disabled,0.000000,0.000000,0.000000,TRUE,-0.073807,-0.031784,0.000000,0.038361,-0.006348,0.000000,0.089000,-0.106000,-0.029000,-5.090000,-0.340000,2.860000,-1.776188,Hold,0.943359,0.000000,Hold,-236.000000,2.000000,Suck,-2167.500000,2181.818182,Speed,-2130.000000,2181.818182,Speed,Off,On0.000000,0,,,,
02:46:50.209 PM 03/20/2016,Teleop Enabled,11,FALSE,0,NO ERROR,-0.000000,-0.237416,0.000000,0.333666,TRUE,FALSE,FALSE,FALSE,FALSE,FALSE,Disabled,0.000000,0.000000,0.000000,TRUE,-0.064514,-0.039536,0.000000,0.169968,-0.109863,0.000000,0.043000,-0.026000,0.010000,-5.090000,-0.370000,2.790000,-1.776188,Hold,0.943359,0.000000,Hold,-229.000000,2.000000,Suck,-2167.500000,2181.818182,Speed,-2122.500000,2181.818182,Speed,Off,On0.000000,0,,,,
02:46:50.310 PM 03/20/2016,Teleop Enabled,9,FALSE,0,NO ERROR,-0.000000,-0.237416,0.000000,0.333666,TRUE,FALSE,FALSE,FALSE,FALSE,FALSE,Disabled,0.000000,0.000000,0.000000,TRUE,-0.064514,-0.039536,0.000000,0.169968,-0.109863,0.000000,0.118000,0.013000,0.094000,-5.090000,-0.350000,2.750000,-1.772990,Hold,0.943359,0.000000,Hold,-228.000000,2.000000,Suck,-2167.500000,2181.818182,Speed,-2122.500000,2181.818182,Speed,Off,On0.000000,0,,,,
02:46:50.412 PM 03/20/2016,Teleop Enabled,10,FALSE,0,NO ERROR,-0.000000,-0.237416,0.000000,0.333666,TRUE,FALSE,FALSE,FALSE,FALSE,FALSE,Disabled,0.000000,0.000000,0.000000,TRUE,-0.051331,-0.041199,0.000000,0.226242,0.031052,0.000000,0.035000,0.034000,0.039000,-5.090000,-0.400000,2.760000,-1.783844,Hold,0.943359,0.000000,Hold,-228.000000,2.000000,Suck,-2167.500000,2181.818182,Speed,-2130.000000,2181.818182,Speed,Off,On0.000000,0,,,,
02:46:50.513 PM 03/20/2016,Teleop Enabled,12,FALSE,0,NO ERROR,-0.000000,-0.237416,0.000000,0.333666,TRUE,FALSE,FALSE,FALSE,FALSE,FALSE,Disabled,0.000000,0.000000,0.000000,TRUE,-0.044342,-0.038208,0.000000,0.009598,0.080307,0.000000,-0.010000,0.106000,0.058000,-5.090000,-0.410000,2.740000,-1.788677,Hold,0.943359,0.000000,Hold,-228.000000,2.000000,Suck,-2175.000000,2181.818182,Speed,-2122.500000,2181.818182,Speed,Off,On0.000000,0,,,,
02:46:50.614 PM 03/20/2016,Teleop Enabled,11,FALSE,0,NO ERROR,-0.000000,-0.237416,0.000000,0.333666,TRUE,FALSE,FALSE,FALSE,FALSE,FALSE,Disabled,0.000000,0.000000,0.000000,TRUE,-0.042603,-0.031601,0.000000,0.052765,0.168518,0.000000,0.065000,0.024000,0.000000,-5.090000,-0.450000,2.730000,-1.779245,Hold,0.943359,0.000000,Hold,-228.000000,2.000000,Suck,-2167.500000,2181.818182,Speed,-2130.000000,2181.818182,Speed,Off,On0.000000,0,,,,
02:46:50.714 PM 03/20/2016,Teleop Enabled,12,FALSE,0,NO ERROR,-0.000000,-0.237416,0.000000,0.333666,TRUE,FALSE,FALSE,FALSE,FALSE,FALSE,Disabled,0.000000,0.000000,0.000000,TRUE,-0.038971,-0.021637,0.000000,0.076935,0.222488,0.000000,0.051000,0.032000,0.042000,-5.090000,-0.490000,2.770000,-1.772408,Hold,0.943359,0.000000,Hold,-228.000000,2.000000,Suck,-2175.000000,2181.818182,Speed,-2137.500000,2181.818182,Speed,Off,On0.000000,0,,,,
02:46:50.814 PM 03/20/2016,Teleop Enabled,11,FALSE,0,NO ERROR,-0.000000,-0.237416,0.000000,0.333666,TRUE,FALSE,FALSE,FALSE,FALSE,FALSE,Disabled,0.000000,0.000000,0.000000,TRUE,-0.036087,-0.014526,0.000000,0.050140,0.000000,0.000000,0.009000,0.009000,0.032000,-5.090000,-0.560000,2.770000,-1.778825,Hold,0.943359,0.000000,Hold,-228.000000,2.000000,Suck,-2182.500000,2181.818182,Speed,-2130.000000,2181.818182,Speed,Off,On0.000000,0,,,,
02:46:50.914 PM 03/20/2016,Teleop Enabled,13,FALSE,0,NO ERROR,-0.000000,-0.237416,0.000000,0.333666,TRUE,FALSE,FALSE,FALSE,FALSE,FALSE,Disabled,0.000000,0.000000,0.000000,TRUE,-0.032867,-0.013092,0.000000,0.071655,0.048035,0.000000,-0.010000,0.063000,0.109000,-5.080000,-0.580000,2.840000,-1.772632,Hold,0.943359,0.000000,Hold,-228.000000,2.000000,Suck,-2152.500000,2181.818182,Speed,-2130.000000,2181.818182,Speed,Off,On0.000000,0,,,,
02:46:51.014 PM 03/20/2016,Teleop Enabled,12,FALSE,0,NO ERROR,-0.000000,-0.237416,0.000000,0.333666,TRUE,FALSE,FALSE,FALSE,FALSE,FALSE,Disabled,0.000000,0.000000,0.000000,TRUE,-0.029495,-0.010101,0.000000,0.053329,0.051117,0.000000,-0.044000,-0.091000,-0.141000,-5.090000,-0.520000,2.860000,-1.784842,Hold,0.943359,0.000000,Hold,-228.000000,2.000000,Suck,-2160.000000,2181.818182,Speed,-2137.500000,2181.818182,Speed,Off,On0.000000,0,,,,
02:46:51.115 PM 03/20/2016,Teleop Enabled,10,FALSE,0,NO ERROR,-0.000000,-0.237416,0.000000,0.333666,TRUE,FALSE,FALSE,FALSE,FALSE,FALSE,Disabled,0.000000,0.000000,0.000000,TRUE,-0.027542,-0.008560,0.000000,0.029877,0.023315,0.000000,0.006000,-0.021000,-0.088000,-5.090000,-0.480000,2.870000,-1.780192,Hold,0.943359,0.000000,Hold,-228.000000,2.000000,Suck,-2160.000000,2181.818182,Speed,-2130.000000,2181.818182,Speed,Off,On0.000000,0,,,,
02:46:51.215 PM 03/20/2016,Teleop Enabled,12,FALSE,0,NO ERROR,-0.000000,-0.230999,0.000000,0.333666,TRUE,FALSE,FALSE,FALSE,FALSE,FALSE,Disabled,0.000000,0.000000,0.000000,TRUE,-0.025696,-0.007080,0.000000,0.045700,0.033188,0.000000,0.045000,0.077000,0.063000,-5.100000,-0.390000,2.850000,-1.777985,Hold,0.943359,0.000000,Hold,-228.000000,2.000000,Suck,-2182.500000,2181.818182,Speed,-2130.000000,2181.818182,Speed,Off,On0.000000,0,,,,
02:46:51.315 PM 03/20/2016,Teleop Enabled,12,FALSE,0,NO ERROR,-0.000000,-0.230999,0.000000,0.333666,TRUE,FALSE,FALSE,FALSE,FALSE,FALSE,Disabled,0.000000,0.000000,0.000000,TRUE,-0.023514,-0.004120,0.000000,0.026901,0.082657,0.000000,-0.124000,0.107000,-0.082000,-5.100000,-0.350000,2.860000,-1.774745,Hold,0.943359,0.000000,Hold,-228.000000,2.000000,Suck,-2182.500000,2181.818182,Speed,-2130.000000,2181.818182,Speed,Off,On0.000000,0,,,,
02:46:51.415 PM 03/20/2016,Teleop Enabled,11,FALSE,0,NO ERROR,-0.000000,-0.230999,0.000000,0.333666,TRUE,FALSE,FALSE,FALSE,FALSE,FALSE,Disabled,0.000000,0.000000,0.000000,TRUE,-0.025818,0.004715,0.000000,-0.083893,0.191879,0.000000,-0.049000,0.034000,0.000000,-5.100000,-0.320000,2.890000,-1.764845,Hold,0.943359,0.000000,Hold,-228.000000,2.000000,Suck,-2167.500000,2181.818182,Speed,-2137.500000,2181.818182,Speed,Off,On0.000000,0,,,,
02:46:51.516 PM 03/20/2016,Teleop Enabled,11,FALSE,0,NO ERROR,-0.000000,-0.230999,0.000000,0.333666,TRUE,FALSE,FALSE,FALSE,FALSE,FALSE,Disabled,0.000000,0.000000,0.000000,TRUE,-0.031021,0.016525,0.000000,-0.120560,0.274414,0.000000,-0.058000,0.094000,0.086000,-5.110000,-0.270000,2.820000,-1.749119,Hold,0.943359,0.000000,Hold,-228.000000,2.000000,Suck,-2175.000000,2181.818182,Speed,-2137.500000,2181.818182,Speed,Off,On0.000000,0,,,,
02:46:51.616 PM 03/20/2016,Teleop Enabled,11,FALSE,0,NO ERROR,-0.000000,-0.230999,0.000000,0.333666,TRUE,FALSE,FALSE,FALSE,FALSE,FALSE,Disabled,0.000000,0.000000,0.000000,TRUE,-0.038422,0.032440,0.000000,-0.156586,0.345764,0.000000,-0.112000,0.020000,-0.050000,-5.110000,-0.280000,2.870000,-1.739883,Hold,0.943359,0.000000,Hold,-228.000000,2.000000,Suck,-2182.500000,2181.818182,Speed,-2130.000000,2181.818182,Speed,Off,On0.000000,0,,,,
02:46:51.716 PM 03/20/2016,Teleop Enabled,11,FALSE,0,NO ERROR,-0.000000,-0.230999,0.000000,0.333666,TRUE,FALSE,FALSE,FALSE,FALSE,FALSE,Disabled,0.000000,0.000000,0.000000,TRUE,-0.048187,0.050934,0.000000,-0.215363,0.387863,0.000000,-0.028000,0.044000,0.043000,-5.110000,-0.230000,2.820000,-1.725173,Hold,0.943359,0.000000,Hold,-228.000000,2.000000,Suck,-2167.500000,2181.818182,Speed,-2137.500000,2181.818182,Speed,Off,On0.000000,0,,,,
02:46:51.816 PM 03/20/2016,Teleop Enabled,11,FALSE,0,NO ERROR,-0.000000,-0.230999,0.000000,0.333666,TRUE,FALSE,FALSE,FALSE,FALSE,FALSE,Disabled,0.000000,0.000000,0.000000,TRUE,-0.050522,0.071228,0.000000,-0.010178,0.418152,0.000000,-0.007000,-0.005000,0.049000,-5.110000,-0.210000,2.810000,-1.730739,Hold,0.943359,0.000000,Hold,-228.000000,2.000000,Suck,-2167.500000,2181.818182,Speed,-2130.000000,2181.818182,Speed,Off,On0.000000,0,,,,
02:46:51.916 PM 03/20/2016,Teleop Enabled,10,FALSE,0,NO ERROR,-0.000000,-0.230999,0.000000,0.333666,TRUE,FALSE,FALSE,FALSE,FALSE,FALSE,Disabled,0.000000,0.000000,0.000000,TRUE,-0.050552,0.071732,0.000000,0.007202,0.015945,0.000000,-0.039000,-0.002000,0.041000,-5.120000,-0.190000,2.760000,-1.713113,Hold,0.943359,0.000000,Hold,-228.000000,2.000000,Suck,-2175.000000,2181.818182,Speed,-2130.000000,2181.818182,Speed,Off,On0.000000,0,,,,
02:46:52.016 PM 03/20/2016,Teleop Enabled,12,FALSE,0,NO ERROR,-0.000000,-0.230999,0.000000,0.333666,TRUE,FALSE,FALSE,FALSE,FALSE,FALSE,Disabled,0.000000,0.000000,0.000000,TRUE,-0.051514,0.071503,0.000000,-0.039444,-0.017975,0.000000,-0.066000,-0.034000,-0.029000,-5.110000,-0.240000,2.750000,-1.710115,Hold,0.943359,0.000000,Hold,-228.000000,2.000000,Suck,-2160.000000,2181.818182,Speed,-2137.500000,2181.818182,Speed,Off,On0.000000,0,,,,
02:46:52.116 PM 03/20/2016,Teleop Enabled,9,FALSE,0,NO ERROR,-0.000000,-0.230999,0.000000,0.333666,TRUE,FALSE,FALSE,FALSE,FALSE,FALSE,Disabled,0.000000,0.000000,0.000000,TRUE,-0.053391,0.069824,0.000000,-0.014099,0.000000,0.000000,0.129000,-0.035000,0.158000,-5.110000,-0.310000,2.780000,-1.697870,Hold,0.943359,0.000000,Hold,-228.000000,2.000000,Suck,-2175.000000,2181.818182,Speed,-2130.000000,2181.818182,Speed,Off,On0.000000,0,,,,
02:46:52.216 PM 03/20/2016,Teleop Enabled,11,FALSE,0,NO ERROR,-0.000000,-0.230999,0.000000,0.333666,TRUE,FALSE,FALSE,FALSE,FALSE,FALSE,Disabled,0.000000,0.000000,0.000000,TRUE,-0.052002,0.069885,0.000000,0.053802,0.000000,0.000000,0.030000,0.076000,0.096000,-5.110000,-0.310000,2.700000,-1.701381,Hold,0.943359,0.000000,Hold,-228.000000,2.000000,Suck,-2160.000000,2181.818182,Speed,-2130.000000,2181.818182,Speed,Off,On0.000000,0,,,,
02:46:52.316 PM 03/20/2016,Teleop Enabled,10,FALSE,0,NO ERROR,-0.000000,-0.230999,0.000000,0.333666,TRUE,FALSE,FALSE,FALSE,FALSE,FALSE,Disabled,0.000000,0.000000,0.000000,TRUE,-0.048737,0.072327,0.000000,0.061462,0.087173,0.000000,0.000000,0.054000,0.096000,-5.110000,-0.310000,2.740000,-1.700362,Hold,0.943359,51.000000,Hold,-228.000000,143360.000000,Suck,-2175.000000,2181.818182,Speed,-2137.500000,2181.818182,Speed,Off,On0.000000,0,,,,
02:46:52.416 PM 03/20/2016,Teleop Enabled,11,FALSE,0,NO ERROR,-0.000000,-0.224583,0.000000,0.333666,TRUE,FALSE,FALSE,FALSE,FALSE,FALSE,Disabled,0.000000,0.000000,0.000000,TRUE,-0.047287,0.081863,0.000000,0.018387,0.166260,0.000000,0.105000,-0.064000,0.063000,-5.110000,-0.250000,2.770000,-1.696097,Hold,4.704834,51.000000,Hold,-7522.000000,143360.000000,Suck,-2175.000000,2181.818182,Speed,-2137.500000,2181.818182,Speed,Off,On0.000000,0,,,,
02:46:52.516 PM 03/20/2016,Teleop Enabled,10,FALSE,0,NO ERROR,-0.000000,-0.102666,0.000000,0.372166,TRUE,FALSE,FALSE,FALSE,FALSE,FALSE,Disabled,0.000000,0.000000,0.000000,TRUE,-0.045868,0.088455,0.000000,0.032654,0.165192,0.000000,0.015000,0.004000,0.099000,-5.030000,-0.240000,2.710000,-1.615121,Hold,9.333740,51.000000,Hold,-22216.000000,143360.000000,Suck,-2160.000000,2181.818182,Speed,-2145.000000,2181.818182,Speed,Off,On0.000000,0,,,,
02:46:52.616 PM 03/20/2016,Teleop Enabled,10,FALSE,0,NO ERROR,-0.000000,0.064167,0.000000,0.378582,TRUE,FALSE,FALSE,FALSE,FALSE,FALSE,Disabled,0.000000,0.000000,0.000000,TRUE,-0.045517,0.098618,0.000000,-0.003082,0.157959,0.000000,0.049000,-0.094000,-0.122000,-4.840000,-0.030000,2.770000,-1.457049,Hold,15.694092,51.000000,Hold,-22216.000000,143360.000000,Suck,-2167.500000,2181.818182,Speed,-2160.000000,2181.818182,Speed,Off,On0.000000,0,,,,
02:46:52.716 PM 03/20/2016,Teleop Enabled,11,FALSE,0,NO ERROR,-0.000000,0.295166,0.000000,0.410666,TRUE,FALSE,FALSE,FALSE,FALSE,FALSE,Disabled,0.000000,0.000000,0.000000,TRUE,-0.044495,0.104614,0.000000,0.033356,0.102371,0.000000,0.045000,-0.003000,-0.006000,-4.580000,-0.330000,2.910000,-1.239066,Hold,22.828369,51.000000,Hold,-33954.000000,143360.000000,Suck,-2175.000000,2181.818182,Speed,-2160.000000,2181.818182,Speed,Off,On0.000000,0,,,,
02:46:52.816 PM 03/20/2016,Teleop Enabled,10,FALSE,0,NO ERROR,-0.000000,0.295166,0.000000,0.410666,TRUE,FALSE,FALSE,FALSE,FALSE,FALSE,Disabled,0.000000,0.000000,0.000000,TRUE,-0.041885,0.107330,0.000000,0.059006,0.009872,0.000000,0.071000,0.019000,0.054000,-4.430000,-0.140000,2.710000,-0.993378,Hold,29.226318,51.000000,Hold,-46248.000000,143360.000000,Suck,-2190.000000,2181.818182,Speed,-2160.000000,2181.818182,Speed,Off,On0.000000,0,,,,
02:46:52.916 PM 03/20/2016,Teleop Enabled,10,FALSE,0,NO ERROR,-0.000000,0.295166,0.000000,0.442749,TRUE,FALSE,FALSE,FALSE,FALSE,FALSE,Disabled,0.000000,0.000000,0.000000,TRUE,-0.037125,0.107498,0.000000,0.119095,-0.011475,0.000000,0.049000,-0.146000,0.104000,-4.500000,-0.370000,2.810000,-1.081755,Hold,38.419434,51.000000,Hold,-59981.000000,143360.000000,Suck,-2175.000000,2181.818182,Speed,-2167.500000,2181.818182,Speed,Off,On0.000000,0,,,,
02:46:53.016 PM 03/20/2016,Teleop Enabled,11,FALSE,0,NO ERROR,-0.000000,0.256666,0.000000,0.410666,TRUE,FALSE,FALSE,FALSE,FALSE,FALSE,Disabled,0.000000,0.000000,0.000000,TRUE,-0.029938,0.102875,0.000000,0.162735,-0.131943,0.000000,0.023000,0.026000,-0.106000,-4.560000,-1.150000,2.770000,-1.100944,Hold,49.031982,51.000000,Hold,-74282.000000,143360.000000,Suck,-2160.000000,2181.818182,Speed,-2167.500000,2181.818182,Speed,Off,On0.000000,0,,,,
02:46:53.116 PM 03/20/2016,Teleop Enabled,11,FALSE,0,NO ERROR,-0.000000,0.102666,0.000000,0.282333,TRUE,FALSE,FALSE,FALSE,FALSE,FALSE,Disabled,0.000000,0.000000,0.000000,TRUE,-0.021210,0.096924,0.000000,0.181656,-0.105804,0.000000,-0.104000,-0.127000,0.310000,-4.350000,-1.480000,2.790000,-0.888913,Hold,55.758545,51.000000,Hold,-93462.000000,143360.000000,Suck,-2182.500000,2181.818182,Speed,-2160.000000,2181.818182,Speed,Off,On0.000000,0,,,,
02:46:53.216 PM 03/20/2016,Teleop Enabled,10,FALSE,0,NO ERROR,-0.000000,0.070583,0.000000,0.288749,TRUE,FALSE,FALSE,FALSE,FALSE,FALSE,Disabled,0.000000,0.000000,0.000000,TRUE,-0.012756,0.090332,0.000000,0.190979,-0.142136,0.000000,0.007000,0.036000,-0.032000,-4.450000,-1.080000,2.690000,-0.949451,Hold,56.783936,51.000000,Hold,-113331.000000,143360.000000,Suck,-2175.000000,2181.818182,Speed,-2152.500000,2181.818182,Speed,Off,On0.000000,0,,,,
02:46:53.316 PM 03/20/2016,Teleop Enabled,12,FALSE,0,NO ERROR,-0.000000,0.077000,0.000000,0.423499,TRUE,FALSE,FALSE,FALSE,FALSE,FALSE,Disabled,0.000000,0.000000,0.000000,TRUE,-0.001221,0.084167,0.000000,0.264420,-0.113831,0.000000,0.131000,0.028000,-0.075000,-4.650000,-0.990000,2.770000,-1.175565,Hold,55.931396,51.000000,Hold,-113331.000000,143360.000000,Suck,-2167.500000,2181.818182,Speed,-2160.000000,2181.818182,Speed,Off,On0.000000,0,,,,
02:46:53.416 PM 03/20/2016,Teleop Enabled,10,FALSE,0,NO ERROR,-0.000000,0.077000,0.000000,0.429916,TRUE,FALSE,FALSE,FALSE,FALSE,FALSE,Disabled,0.000000,0.000000,0.000000,TRUE,0.014694,0.079163,0.000000,0.350922,-0.086563,0.000000,0.055000,-0.139000,-0.033000,-4.620000,-1.090000,2.810000,-1.137814,Hold,55.645020,51.000000,Hold,-133611.000000,143360.000000,Suck,-2182.500000,2181.818182,Speed,-2160.000000,2181.818182,Speed,Off,On0.000000,0,,,,
02:46:53.516 PM 03/20/2016,Teleop Enabled,11,FALSE,0,NO ERROR,-0.000000,0.070583,0.000000,0.352916,TRUE,FALSE,FALSE,FALSE,FALSE,FALSE,Disabled,0.000000,0.000000,0.000000,TRUE,0.029922,0.075790,0.000000,0.294540,-0.091309,0.000000,-0.027000,0.050000,-0.037000,-4.560000,-0.910000,2.730000,-1.075059,Hold,55.644531,51.000000,Hold,-144586.000000,143360.000000,Suck,-2175.000000,2181.818182,Speed,-2130.000000,2181.818182,Speed,Off,On0.000000,0,,,,
02:46:53.616 PM 03/20/2016,Teleop Enabled,9,FALSE,0,NO ERROR,-0.000000,0.077000,0.000000,0.346499,TRUE,FALSE,FALSE,FALSE,FALSE,FALSE,Disabled,0.000000,0.000000,0.000000,TRUE,0.044418,0.071899,0.000000,0.299744,-0.051392,0.000000,-0.011000,-0.023000,0.020000,-4.550000,-0.870000,2.780000,-1.095952,Hold,55.613770,51.000000,Hold,-143716.000000,143360.000000,Suck,-2160.000000,2181.818182,Speed,-2092.500000,2181.818182,Speed,Off,On0.000000,0,,,,
02:46:53.716 PM 03/20/2016,Teleop Enabled,11,FALSE,0,NO ERROR,-0.000000,0.077000,0.000000,0.384999,TRUE,FALSE,FALSE,FALSE,FALSE,FALSE,Disabled,0.000000,0.000000,0.000000,TRUE,0.060486,0.069901,0.000000,0.327347,-0.033661,0.000000,0.018000,-0.098000,-0.126000,-4.570000,-1.230000,2.730000,-1.129748,Hold,55.510742,51.000000,Hold,-143479.000000,143360.000000,Suck,-2175.000000,2181.818182,Speed,-2145.000000,2181.818182,Speed,Off,On0.000000,0,,,,
02:46:53.816 PM 03/20/2016,Teleop Enabled,9,FALSE,0,NO ERROR,-0.000000,0.077000,0.000000,0.384999,TRUE,FALSE,FALSE,FALSE,FALSE,FALSE,Disabled,0.000000,0.000000,0.000000,TRUE,0.077408,0.068695,0.000000,0.350601,0.000000,0.000000,0.042000,0.051000,-0.134000,-4.620000,-0.910000,2.720000,-1.161385,Hold,55.494873,51.000000,Hold,-143479.000000,143360.000000,Suck,-2182.500000,2181.818182,Speed,-2167.500000,2181.818182,Speed,Off,On0.000000,0,,,,
02:46:53.916 PM 03/20/2016,Teleop Enabled,12,FALSE,0,NO ERROR,-0.000000,0.077000,0.000000,0.391416,TRUE,FALSE,FALSE,FALSE,FALSE,FALSE,Disabled,0.000000,0.000000,0.000000,TRUE,0.100342,0.070648,0.000000,0.404617,0.057388,0.000000,-0.063000,-0.030000,0.111000,-4.600000,-1.090000,2.770000,-1.137060,Hold,55.457031,51.000000,Hold,-143479.000000,143360.000000,Suck,-2167.500000,2181.818182,Speed,-2145.000000,2181.818182,Speed,Off,On0.000000,0,,,,
02:46:54.017 PM 03/20/2016,Teleop Enabled,11,FALSE,0,NO ERROR,-0.000000,0.077000,0.000000,0.397832,TRUE,FALSE,FALSE,FALSE,FALSE,FALSE,Disabled,0.000000,0.000000,0.000000,TRUE,0.117310,0.072983,0.000000,0.437180,0.056244,0.000000,0.050000,0.089000,-0.113000,-4.560000,-1.120000,2.730000,-1.103502,Hold,55.457031,51.000000,Hold,-143479.000000,143360.000000,Suck,-2167.500000,2181.818182,Speed,-2145.000000,2181.818182,Speed,Off,On0.000000,0,,,,
02:46:54.117 PM 03/20/2016,Teleop Enabled,11,FALSE,0,NO ERROR,-0.000000,0.077000,0.000000,0.397832,TRUE,FALSE,FALSE,FALSE,FALSE,FALSE,Disabled,0.000000,0.000000,0.000000,TRUE,0.126678,0.077667,0.000000,0.006638,0.107376,0.000000,0.000000,0.069000,0.058000,-4.620000,-0.910000,2.680000,-1.168790,Hold,55.414307,51.000000,Hold,-143479.000000,143360.000000,Suck,-2175.000000,2181.818182,Speed,-2160.000000,2181.818182,Speed,Off,On0.000000,0,,,,
02:46:54.217 PM 03/20/2016,Teleop Enabled,10,FALSE,0,NO ERROR,-0.692913,0.064167,-0.692913,0.160416,TRUE,FALSE,FALSE,FALSE,FALSE,FALSE,Disabled,0.000000,0.000000,0.000000,TRUE,0.126755,0.084015,0.000000,0.006073,0.125504,0.000000,0.412000,0.295000,-0.127000,-4.590000,-0.980000,2.660000,-1.123403,Hold,55.413086,51.000000,Hold,-143479.000000,143360.000000,Suck,-2175.000000,2181.818182,Speed,-2152.500000,2181.818182,Speed,Off,On0.000000,0,,,,
02:46:54.317 PM 03/20/2016,Teleop Enabled,10,FALSE,0,NO ERROR,-1.000000,-1.950662,-1.000000,-1.411663,TRUE,FALSE,FALSE,FALSE,FALSE,FALSE,Disabled,0.000000,0.000000,0.000000,TRUE,0.140091,0.092819,0.000000,0.515289,0.169449,0.000000,0.630000,0.087000,0.244000,-4.370000,2.420000,2.510000,-0.805273,Hold,55.526611,51.000000,Hold,-143479.000000,143360.000000,Suck,-2167.500000,2181.818182,Speed,-2145.000000,2181.818182,Speed,Off,On0.000000,0,,,,
02:46:54.417 PM 03/20/2016,Teleop Enabled,10,FALSE,0,NO ERROR,-0.944882,-6.224152,-0.944882,-7.321400,FALSE,FALSE,FALSE,FALSE,FALSE,FALSE,Disabled,0.000000,0.000000,0.000000,TRUE,0.182495,0.103241,0.000000,1.025574,0.236618,0.000000,0.553000,0.140000,0.622000,-4.640000,5.530000,2.490000,-0.963500,Hold,55.618408,51.000000,Hold,-143470.000000,143360.000000,Suck,-2100.000000,2181.818182,Speed,-2077.500000,2181.818182,Speed,Off,On0.000000,0,,,,
02:46:54.517 PM 03/20/2016,Teleop Enabled,12,FALSE,0,NO ERROR,-0.273247,-11.357473,-0.608643,-13.680301,FALSE,FALSE,FALSE,FALSE,FALSE,FALSE,Disabled,0.000000,0.000000,0.000000,TRUE,0.245834,0.116592,0.000000,1.391602,0.294891,0.000000,-0.167000,-0.024000,0.032000,-3.970000,5.750000,2.670000,-0.389701,Hold,55.406250,51.000000,Hold,-143410.000000,143360.000000,Suck,-2047.500000,2181.818182,Speed,-2017.500000,2181.818182,Speed,Off,On0.000000,0,,,,
02:46:54.617 PM 03/20/2016,Teleop Enabled,11,FALSE,0,NO ERROR,-0.185114,-16.728211,-0.964493,-19.506621,FALSE,FALSE,FALSE,FALSE,FALSE,FALSE,Disabled,0.000000,0.000000,0.000000,TRUE,0.312317,0.131577,0.000000,1.263840,0.289749,0.000000,-0.259000,-0.024000,-0.156000,-2.410000,3.240000,2.640000,1.132763,Hold,55.671631,51.000000,Hold,-143410.000000,143360.000000,Suck,-2122.500000,2181.818182,Speed,-2085.000000,2181.818182,Speed,Off,On0.000000,0,,,,
02:46:54.717 PM 03/20/2016,Teleop Enabled,11,FALSE,0,NO ERROR,-0.240945,-23.305279,-1.365354,-25.223858,FALSE,FALSE,FALSE,FALSE,FALSE,FALSE,Disabled,0.000000,0.000000,0.000000,TRUE,0.370728,0.145279,0.000000,1.141342,0.241379,0.000000,-0.190000,0.065000,0.173000,-2.610000,3.540000,2.140000,0.815394,Hold,55.675049,51.000000,Hold,-143496.000000,143360.000000,Suck,-2212.500000,2181.818182,Speed,-2197.500000,2181.818182,Speed,Off,On0.000000,0,,,,
02:46:54.817 PM 03/20/2016,Teleop Enabled,10,FALSE,0,NO ERROR,-0.300000,-30.414929,-1.700000,-30.613845,FALSE,FALSE,FALSE,FALSE,FALSE,FALSE,Disabled,0.000000,0.000000,0.000000,TRUE,0.413254,0.155884,0.000000,1.028976,0.293365,0.000000,0.018000,-0.040000,-0.677000,-5.520000,3.820000,1.950000,-2.234430,Hold,55.415283,51.000000,Hold,-143495.000000,143360.000000,Suck,-2160.000000,2181.818182,Speed,-2145.000000,2181.818182,Speed,Off,On0.000000,0,,,,
02:46:54.918 PM 03/20/2016,Teleop Enabled,12,FALSE,0,NO ERROR,-0.349606,-38.146994,-1.650394,-35.913999,FALSE,FALSE,FALSE,FALSE,FALSE,FALSE,Disabled,0.000000,0.000000,0.000000,TRUE,0.413284,0.174698,0.000000,0.001190,0.346481,0.000000,0.018000,-0.040000,-0.677000,-11.110000,3.200000,1.960000,-6.824717,Hold,55.062988,51.000000,Hold,-143449.000000,143360.000000,Suck,-2122.500000,2181.818182,Speed,-2107.500000,2181.818182,Speed,Off,On0.000000,0,,,,
02:46:55.018 PM 03/20/2016,Teleop Enabled,12,FALSE,0,NO ERROR,-0.807087,-46.116475,-1.192913,-42.247235,TRUE,FALSE,FALSE,FALSE,FALSE,FALSE,Disabled,0.000000,0.000000,0.000000,TRUE,0.413162,0.194748,0.000000,0.017044,0.463013,0.000000,0.163000,0.444000,-0.103000,-14.870000,2.910000,1.910000,-11.366377,Hold,55.260254,51.000000,Hold,-143474.000000,143360.000000,Suck,-2152.500000,2181.818182,Speed,-2137.500000,2181.818182,Speed,Off,On0.000000,0,,,,
02:46:55.117 PM 03/20/2016,Teleop Enabled,11,FALSE,0,NO ERROR,-0.856693,-53.803624,-1.143307,-49.767550,FALSE,FALSE,FALSE,FALSE,FALSE,FALSE,Disabled,0.000000,0.000000,0.000000,TRUE,0.419434,0.228790,0.000000,0.170135,0.808365,0.000000,0.086000,0.193000,0.029000,-17.080000,4.950000,2.940000,-12.972929,Hold,55.260986,51.000000,Hold,-143474.000000,143360.000000,Suck,-2160.000000,2181.818182,Speed,-2137.500000,2181.818182,Speed,Off,On0.000000,0,,,,
02:46:55.218 PM 03/20/2016,Teleop Enabled,11,FALSE,0,NO ERROR,-0.250394,-61.612689,-1.418898,-58.006531,FALSE,FALSE,FALSE,FALSE,FALSE,FALSE,Disabled,0.000000,0.000000,0.000000,TRUE,0.431061,0.270172,0.000000,0.257751,0.798386,0.000000,0.086000,0.193000,0.029000,-15.940000,5.250000,3.210000,-11.657593,Hold,55.148682,51.000000,Hold,-143474.000000,143360.000000,Suck,-2137.500000,2181.818182,Speed,-2092.500000,2181.818182,Speed,Off,On0.000000,0,,,,
02:46:55.318 PM 03/20/2016,Teleop Enabled,11,FALSE,0,NO ERROR,1.000000,-69.299838,-1.000000,-64.282016,TRUE,FALSE,FALSE,FALSE,FALSE,FALSE,Disabled,0.000000,0.000000,0.000000,TRUE,0.438736,0.303955,0.000000,0.061005,0.607025,0.000000,-0.095000,-0.200000,0.254000,-15.630000,2.520000,2.390000,-11.845688,Hold,55.161865,51.000000,Hold,-143474.000000,143360.000000,Suck,-2152.500000,2181.818182,Speed,-2130.000000,2181.818182,Speed,Off,On0.000000,0,,,,
02:46:55.418 PM 03/20/2016,Teleop Enabled,10,FALSE,0,NO ERROR,-0.000000,-76.345321,0.000000,-63.422185,TRUE,FALSE,FALSE,FALSE,FALSE,FALSE,Disabled,0.000000,0.000000,0.000000,TRUE,0.425858,0.320969,0.000000,-0.531906,0.108841,0.000000,-0.708000,-0.618000,0.161000,-15.630000,2.520000,2.390000,-16.656490,Hold,55.276611,51.000000,Hold,-143488.000000,143360.000000,Suck,-2137.500000,2181.818182,Speed,-2130.000000,2181.818182,Speed,Off,On0.000000,0,,,,
02:46:55.519 PM 03/20/2016,Teleop Enabled,10,FALSE,0,NO ERROR,-0.000000,-78.944065,0.000000,-65.642346,TRUE,FALSE,FALSE,FALSE,FALSE,FALSE,Disabled,0.000000,0.000000,0.000000,TRUE,0.382339,0.319504,0.000000,-1.018356,0.028290,0.000000,-0.623000,0.208000,0.193000,-28.380000,-2.880000,1.970000,-23.804411,Hold,55.191895,51.000000,Hold,-143488.000000,143360.000000,Suck,-2085.000000,2181.818182,Speed,-2070.000000,2181.818182,Speed,Off,On0.000000,0,,,,
02:46:55.619 PM 03/20/2016,Teleop Enabled,11,FALSE,0,NO ERROR,-0.000000,-80.471228,0.000000,-66.957760,FALSE,FALSE,FALSE,FALSE,FALSE,FALSE,Disabled,0.000000,0.000000,0.000000,TRUE,0.382339,0.319504,0.000000,-1.018356,0.028290,0.000000,-0.623000,0.208000,0.193000,-30.220000,-3.660000,3.760000,-25.945855,Hold,55.084961,51.000000,Hold,-143488.000000,143360.000000,Suck,-2175.000000,2181.818182,Speed,-2152.500000,2181.818182,Speed,Off,On0.000000,0,,,,
02:46:55.719 PM 03/20/2016,Teleop Enabled,11,FALSE,0,NO ERROR,0.181102,-80.984561,-0.181102,-67.747008,FALSE,FALSE,FALSE,FALSE,FALSE,FALSE,Disabled,0.000000,0.000000,0.000000,TRUE,0.236359,0.341263,0.000000,-1.628937,0.217300,0.000000,-0.155000,0.189000,0.102000,-30.220000,-3.660000,3.760000,-25.085804,Hold,55.095947,51.000000,Hold,-143488.000000,143360.000000,Suck,-2227.500000,2181.818182,Speed,-2182.500000,2181.818182,Speed,Off,On0.000000,0,,,,
02:46:55.820 PM 03/20/2016,Teleop Enabled,11,FALSE,0,NO ERROR,-0.453804,-81.927808,-0.585566,-68.061424,FALSE,FALSE,FALSE,FALSE,FALSE,FALSE,Disabled,0.000000,0.000000,0.000000,TRUE,0.134659,0.346252,0.000000,-1.671219,0.024612,0.000000,-0.118000,-0.301000,-0.018000,-29.840000,-4.420000,3.150000,-25.880542,Hold,55.089844,51.000000,Hold,-143488.000000,143360.000000,Suck,-2152.500000,2181.818182,Speed,-2160.000000,2181.818182,Speed,Off,On0.000000,0,,,,
02:46:55.921 PM 03/20/2016,Teleop Enabled,8,FALSE,0,NO ERROR,-0.618823,-84.494469,-0.798500,-69.639920,FALSE,FALSE,FALSE,FALSE,FALSE,FALSE,Disabled,0.000000,0.000000,0.000000,TRUE,0.064911,0.359192,0.000000,-1.201019,0.434937,0.000000,0.269000,0.198000,0.114000,-32.570000,-0.240000,3.370000,-28.173062,Hold,55.338379,51.000000,Hold,-143488.000000,143360.000000,Suck,-2122.500000,2181.818182,Speed,-2130.000000,2181.818182,Speed,Off,On0.000000,0,,,,
02:46:56.022 PM 03/20/2016,Teleop Enabled,8,FALSE,0,NO ERROR,-0.618823,-88.767959,-0.798500,-73.117746,FALSE,FALSE,FALSE,FALSE,FALSE,FALSE,Disabled,0.000000,0.000000,0.000000,TRUE,0.064911,0.359192,0.000000,-1.201019,0.434937,0.000000,0.436000,0.322000,0.226000,-34.150000,2.020000,3.310000,-29.700636,Hold,55.164307,51.000000,Hold,-143486.000000,143360.000000,Suck,-2122.500000,2181.818182,Speed,-2085.000000,2181.818182,Speed,Off,On0.000000,0,,,,
02:46:56.123 PM 03/20/2016,Teleop Enabled,9,FALSE,0,NO ERROR,0.181102,-93.477781,-0.181102,-77.493902,FALSE,FALSE,FALSE,FALSE,FALSE,FALSE,Disabled,0.000000,0.000000,0.000000,TRUE,-0.018372,0.424500,0.000000,-0.656479,0.789215,0.000000,0.301000,0.375000,0.262000,-34.150000,2.020000,3.310000,-30.447963,Hold,55.159424,51.000000,Hold,-143472.000000,143360.000000,Suck,-2122.500000,2181.818182,Speed,-2092.500000,2181.818182,Speed,Off,On0.000000,0,,,,
02:46:56.224 PM 03/20/2016,Teleop Enabled,11,FALSE,0,NO ERROR,-0.000000,-96.737440,0.000000,-79.662730,FALSE,FALSE,FALSE,FALSE,FALSE,FALSE,Disabled,0.000000,0.000000,0.000000,TRUE,-0.018372,0.424500,0.000000,-0.656479,0.789215,0.000000,-0.224000,0.014000,0.405000,-35.340000,-2.780000,3.260000,-31.010443,Hold,55.145996,51.000000,Hold,-143510.000000,143360.000000,Suck,-2160.000000,2181.818182,Speed,-2160.000000,2181.818182,Speed,Off,On0.000000,0,,,,
02:46:56.324 PM 03/20/2016,Teleop Enabled,8,FALSE,0,NO ERROR,-0.000000,-98.431436,0.000000,-81.645476,FALSE,FALSE,FALSE,FALSE,FALSE,FALSE,Disabled,0.000000,0.000000,0.000000,TRUE,-0.066528,0.455429,0.000000,-1.203720,0.498154,0.000000,-0.013000,-0.151000,-0.563000,-35.580000,-3.130000,3.740000,-30.999829,Hold,55.296143,51.000000,Hold,-143476.000000,143360.000000,Suck,-2190.000000,2181.818182,Speed,-2167.500000,2181.818182,Speed,Off,On0.000000,0,,,,
02:46:56.425 PM 03/20/2016,Teleop Enabled,11,FALSE,0,NO ERROR,-0.000000,-98.944769,0.000000,-82.569474,FALSE,FALSE,FALSE,FALSE,FALSE,FALSE,Disabled,0.000000,0.000000,0.000000,TRUE,-0.133484,0.473770,0.000000,-1.492325,0.331924,0.000000,-0.198000,-0.215000,0.207000,-35.580000,-3.130000,3.740000,-30.074449,Hold,54.837402,51.000000,Hold,-143473.000000,143360.000000,Suck,-2182.500000,2181.818182,Speed,-2152.500000,2181.818182,Speed,Off,On0.000000,0,,,,
02:46:56.525 PM 03/20/2016,Teleop Enabled,10,FALSE,0,NO ERROR,-0.000000,-99.034602,0.000000,-82.672140,FALSE,FALSE,FALSE,FALSE,FALSE,FALSE,Disabled,0.000000,0.000000,0.000000,TRUE,-0.212082,0.481857,0.000000,-1.586868,0.069519,0.000000,0.027000,-0.137000,0.015000,-34.240000,-4.180000,3.300000,-30.009406,Hold,54.832764,51.000000,Hold,-143484.000000,143360.000000,Suck,-2160.000000,2181.818182,Speed,-2160.000000,2181.818182,Speed,Off,On0.000000,0,,,,
02:46:56.627 PM 03/20/2016,Teleop Enabled,8,FALSE,0,NO ERROR,-0.000000,-99.053852,0.000000,-82.665723,FALSE,FALSE,FALSE,FALSE,FALSE,FALSE,Disabled,0.000000,0.000000,0.000000,TRUE,-0.293594,0.482834,0.000000,-1.668396,0.018906,0.000000,-0.090000,0.044000,-0.011000,-34.240000,-4.180000,3.300000,-30.076535,Hold,54.920898,51.000000,Hold,-143484.000000,143360.000000,Suck,-2175.000000,2181.818182,Speed,-2160.000000,2181.818182,Speed,Off,On0.000000,0,,,,
02:46:56.727 PM 03/20/2016,Teleop Enabled,10,FALSE,0,NO ERROR,-0.000000,-99.047435,0.000000,-82.575890,FALSE,FALSE,FALSE,FALSE,FALSE,FALSE,Disabled,0.000000,0.000000,0.000000,TRUE,-0.361023,0.485962,0.000000,-0.012177,0.077530,0.000000,-0.104000,0.091000,-0.044000,-34.380000,-4.050000,3.130000,-30.164087,Hold,54.906006,51.000000,Hold,-143484.000000,143360.000000,Suck,-2182.500000,2181.818182,Speed,-2152.500000,2181.818182,Speed,Off,On0.000000,0,,,,
02:46:56.827 PM 03/20/2016,Teleop Enabled,8,FALSE,0,NO ERROR,-0.000000,-99.041018,0.000000,-82.518140,FALSE,FALSE,FALSE,FALSE,FALSE,FALSE,Disabled,0.000000,0.000000,0.000000,TRUE,-0.362808,0.491364,0.000000,-0.022537,0.109940,0.000000,0.024000,0.010000,0.092000,-34.410000,-3.280000,3.170000,-30.215030,Hold,54.918945,51.000000,Hold,-143482.000000,143360.000000,Suck,-2175.000000,2181.818182,Speed,-2160.000000,2181.818182,Speed,Off,On0.000000,0,,,,
02:46:56.929 PM 03/20/2016,Teleop Enabled,6,FALSE,0,NO ERROR,-0.393701,-99.477351,-0.393701,-83.005806,FALSE,FALSE,FALSE,FALSE,FALSE,FALSE,Disabled,0.000000,0.000000,0.000000,TRUE,-0.363541,0.496902,0.000000,-0.029099,0.166763,0.000000,0.037000,0.009000,-0.183000,-34.500000,-3.460000,3.150000,-30.246956,Hold,54.919189,51.000000,Hold,-143481.000000,143360.000000,Suck,-2167.500000,2181.818182,Speed,-2160.000000,2181.818182,Speed,Off,On0.000000,0,,,,
02:46:57.029 PM 03/20/2016,Teleop Enabled,10,FALSE,0,NO ERROR,-0.559055,-99.477351,-0.559055,-83.005806,FALSE,FALSE,FALSE,FALSE,FALSE,FALSE,Disabled,0.000000,0.000000,0.000000,TRUE,-0.364670,0.507401,0.000000,0.006638,0.194656,0.000000,0.288000,0.382000,-0.154000,-34.540000,-3.240000,3.040000,-30.246956,Hold,55.172119,51.000000,Hold,-143481.000000,143360.000000,Suck,-2167.500000,2181.818182,Speed,-2145.000000,2181.818182,Speed,Off,On0.000000,0,,,,
02:46:57.131 PM 03/20/2016,Teleop Enabled,10,FALSE,0,NO ERROR,-0.435799,-101.203430,-0.682311,-84.648469,TRUE,FALSE,FALSE,FALSE,FALSE,FALSE,Disabled,0.000000,0.000000,0.000000,TRUE,-0.352936,0.523972,0.000000,0.385712,0.439240,0.000000,0.346000,0.316000,0.091000,-34.580000,0.400000,2.950000,-30.292690,Hold,55.105469,51.000000,Hold,-143475.000000,143360.000000,Suck,-2130.000000,2181.818182,Speed,-2100.000000,2181.818182,Speed,Off,On0.000000,0,,,,
02:46:57.233 PM 03/20/2016,Teleop Enabled,12,FALSE,0,NO ERROR,-0.316945,-104.565755,-0.816914,-87.837545,TRUE,FALSE,FALSE,FALSE,FALSE,FALSE,Disabled,0.000000,0.000000,0.000000,TRUE,-0.324219,0.550430,0.000000,0.703949,0.574539,0.000000,0.269000,0.127000,0.330000,-34.860000,1.990000,2.790000,-30.545694,Hold,55.105469,51.000000,Hold,-143475.000000,143360.000000,Suck,-2122.500000,2181.818182,Speed,-2115.000000,2181.818182,Speed,Off,On0.000000,0,,,,
02:46:57.334 PM 03/20/2016,Teleop Enabled,11,FALSE,0,NO ERROR,-0.167717,-109.134411,-0.950394,-91.681119,TRUE,FALSE,FALSE,FALSE,FALSE,FALSE,Disabled,0.000000,0.000000,0.000000,TRUE,-0.282593,0.582260,0.000000,0.919998,0.654312,0.000000,0.066000,-0.037000,-0.066000,-35.870000,1.330000,2.760000,-31.522248,Hold,55.159180,51.000000,Hold,-143498.000000,143360.000000,Suck,-2145.000000,2181.818182,Speed,-2137.500000,2181.818182,Speed,Off,On0.000000,0,,,,
02:46:57.435 PM 03/20/2016,Teleop Enabled,9,FALSE,0,NO ERROR,-0.165354,-114.973564,-0.937008,-95.736443,TRUE,FALSE,FALSE,FALSE,FALSE,FALSE,Disabled,0.000000,0.000000,0.000000,TRUE,-0.233536,0.595032,0.000000,1.018997,-0.020050,0.000000,-0.094000,-0.046000,-0.089000,-38.110000,1.830000,2.640000,-33.724256,Hold,55.373291,51.000000,Hold,-143504.000000,143360.000000,Suck,-2160.000000,2181.818182,Speed,-2130.000000,2181.818182,Speed,Off,On0.000000,0,,,,
02:46:57.536 PM 03/20/2016,Teleop Enabled,9,FALSE,0,NO ERROR,-0.165354,-121.704632,-0.937008,-99.926516,TRUE,FALSE,FALSE,FALSE,FALSE,FALSE,Disabled,0.000000,0.000000,0.000000,TRUE,-0.185516,0.592392,0.000000,0.927795,-0.071213,0.000000,-0.044000,-0.016000,-0.041000,-42.480000,1.930000,2.650000,-38.026438,Hold,55.363525,51.000000,Hold,-143490.000000,143360.000000,Suck,-2160.000000,2181.818182,Speed,-2137.500000,2181.818182,Speed,Off,On0.000000,0,,,,
02:46:57.636 PM 03/20/2016,Teleop Enabled,10,FALSE,0,NO ERROR,-0.412549,-128.795032,-0.532333,-103.930507,TRUE,FALSE,FALSE,FALSE,FALSE,FALSE,Disabled,0.000000,0.000000,0.000000,TRUE,-0.149582,0.591721,0.000000,0.000000,-0.009064,0.000000,0.005000,-0.001000,-0.227000,-49.620000,1.510000,2.400000,-43.833569,Hold,55.390625,51.000000,Hold,-143489.000000,143360.000000,Suck,-2160.000000,2181.818182,Speed,-2145.000000,2181.818182,Speed,Off,On0.000000,0,,,,
02:46:57.736 PM 03/20/2016,Teleop Enabled,11,FALSE,0,NO ERROR,-0.401575,-136.187015,-0.401575,-108.210414,TRUE,FALSE,FALSE,FALSE,FALSE,FALSE,Disabled,0.000000,0.000000,0.000000,TRUE,-0.152496,0.593140,0.000000,-0.118637,0.072449,0.000000,-0.290000,0.170000,0.157000,-54.450000,1.960000,2.800000,-50.985656,Hold,55.351074,51.000000,Hold,-143485.000000,143360.000000,Suck,-2160.000000,2181.818182,Speed,-2137.500000,2181.818182,Speed,Off,On0.000000,0,,,,
02:46:57.836 PM 03/20/2016,Teleop Enabled,10,FALSE,0,NO ERROR,-0.000000,-141.897835,0.000000,-113.087069,FALSE,FALSE,FALSE,FALSE,FALSE,FALSE,Disabled,0.000000,0.000000,0.000000,TRUE,-0.165054,0.599884,0.000000,-0.348663,0.169144,0.000000,-0.201000,0.199000,0.178000,-60.400000,1.400000,3.810000,-55.511101,Hold,55.122803,51.000000,Hold,-143485.000000,143360.000000,Suck,-2190.000000,2181.818182,Speed,-2152.500000,2181.818182,Speed,Off,On0.000000,0,,,,
02:46:57.936 PM 03/20/2016,Teleop Enabled,9,FALSE,0,NO ERROR,-0.000000,-144.971411,0.000000,-117.065393,FALSE,FALSE,FALSE,FALSE,FALSE,FALSE,Disabled,0.000000,0.000000,0.000000,TRUE,-0.190872,0.607483,0.000000,-0.666733,-0.006027,0.000000,-0.083000,-0.466000,-0.183000,-60.040000,-1.460000,4.580000,-55.091047,Hold,55.104736,51.000000,Hold,-143481.000000,143360.000000,Suck,-2197.500000,2181.818182,Speed,-2152.500000,2181.818182,Speed,Off,On0.000000,0,,,,
02:46:58.035 PM 03/20/2016,Teleop Enabled,10,FALSE,0,NO ERROR,-0.000000,-146.440824,0.000000,-120.126136,FALSE,FALSE,FALSE,FALSE,FALSE,FALSE,Disabled,0.000000,0.000000,0.000000,TRUE,-0.233093,0.593506,0.000000,-0.946533,-0.426575,0.000000,-0.215000,-0.302000,0.079000,-57.570000,-2.680000,4.470000,-52.729084,Hold,55.051514,51.000000,Hold,-143481.000000,143360.000000,Suck,-2197.500000,2181.818182,Speed,-2152.500000,2181.818182,Speed,Off,On0.000000,0,,,,
02:46:58.136 PM 03/20/2016,Teleop Enabled,12,FALSE,0,NO ERROR,-0.000000,-147.210822,0.000000,-121.845798,FALSE,FALSE,FALSE,FALSE,FALSE,FALSE,Disabled,0.000000,0.000000,0.000000,TRUE,-0.291901,0.549973,0.000000,-0.953674,-0.907288,0.000000,0.147000,-0.057000,0.271000,-55.240000,-2.580000,3.650000,-50.601573,Hold,53.685791,51.000000,Hold,-143492.000000,143360.000000,Suck,-1155.000000,2181.818182,Speed,-2152.500000,2181.818182,Speed,Off,On0.000000,0,,,,
02:46:58.237 PM 03/20/2016,Teleop Enabled,9,FALSE,0,NO ERROR,-0.000000,-147.441822,0.000000,-122.487464,FALSE,FALSE,TRUE,FALSE,FALSE,FALSE,Disabled,0.000000,0.000000,0.000000,TRUE,-0.342392,0.501572,0.000000,-1.094772,-0.972458,0.000000,0.110000,0.043000,0.188000,-54.140000,-3.920000,3.840000,-49.527336,Hold,52.982910,51.000000,Hold,-143492.000000,143360.000000,Suck,-1155.000000,2181.818182,Speed,-1357.500000,2181.818182,Speed,Off,On0.000000,0,,,,
02:46:58.337 PM 03/20/2016,Teleop Enabled,10,FALSE,0,NO ERROR,-0.000000,-147.544488,0.000000,-122.609380,FALSE,FALSE,TRUE,FALSE,FALSE,FALSE,Disabled,0.000000,0.000000,0.000000,TRUE,-0.395233,0.449905,0.000000,-1.036392,-1.096893,0.000000,-0.046000,-0.009000,-0.039000,-54.020000,-4.250000,3.270000,-49.385159,Hold,54.644043,51.000000,Hold,-143492.000000,143360.000000,Suck,-165.000000,2181.818182,Speed,-292.500000,2181.818182,Speed,Off,Off0.000000,0,,,,
02:46:58.437 PM 03/20/2016,Teleop Enabled,10,FALSE,0,NO ERROR,0.968504,-147.544488,0.968504,-122.442547,FALSE,FALSE,TRUE,FALSE,FALSE,FALSE,Disabled,0.000000,0.000000,0.000000,TRUE,-0.448074,0.395081,0.000000,-1.056808,-1.096069,0.000000,0.183000,0.045000,-0.001000,-54.310000,-3.930000,3.360000,-49.756952,Hold,55.208496,51.000000,Hold,-143492.000000,143360.000000,Suck,-832.500000,2181.818182,Speed,-825.000000,2181.818182,Speed,Off,Off0.000000,0,,,,
02:46:58.537 PM 03/20/2016,Teleop Enabled,9,FALSE,0,NO ERROR,0.818898,-146.633324,0.818898,-121.409466,FALSE,FALSE,TRUE,FALSE,FALSE,FALSE,Disabled,0.000000,0.000000,0.000000,TRUE,-0.499512,0.340698,0.000000,-1.059006,-1.146973,0.000000,-0.773000,-0.810000,1.081000,-54.520000,-3.780000,3.360000,-49.975668,Hold,55.234375,51.000000,Hold,-143492.000000,143360.000000,Suck,-1680.000000,2181.818182,Speed,-1642.500000,2181.818182,Speed,Off,Off0.000000,0,,,,
02:46:58.637 PM 03/20/2016,Teleop Enabled,10,FALSE,0,NO ERROR,0.527559,-142.956582,0.527559,-116.860060,FALSE,FALSE,TRUE,FALSE,FALSE,FALSE,Disabled,0.000000,0.000000,0.000000,TRUE,-0.566101,0.261948,0.000000,-1.390991,-1.769836,0.000000,-0.280000,-0.435000,-0.207000,-54.910000,-9.210000,3.240000,-50.023681,Hold,55.276611,51.000000,Hold,-143492.000000,143360.000000,Suck,-2205.000000,2181.818182,Speed,-2175.000000,2181.818182,Speed,Off,Off0.000000,0,,,,
02:46:58.737 PM 03/20/2016,Teleop Enabled,10,FALSE,0,NO ERROR,0.414539,-139.068091,0.672075,-111.944905,FALSE,FALSE,TRUE,FALSE,FALSE,FALSE,Disabled,0.000000,0.000000,0.000000,TRUE,-0.642670,0.161270,0.000000,-1.555496,-2.112106,0.000000,-0.010000,0.306000,0.448000,-55.650000,-8.250000,3.090000,-50.731533,Hold,55.766602,51.000000,Hold,-143491.000000,143360.000000,Suck,-2167.500000,2181.818182,Speed,-2137.500000,2181.818182,Speed,Off,Off0.000000,0,,,,
02:46:58.837 PM 03/20/2016,Teleop Enabled,10,FALSE,0,NO ERROR,0.339674,-134.493019,0.746940,-106.208418,FALSE,FALSE,TRUE,FALSE,FALSE,FALSE,Disabled,0.000000,0.000000,0.000000,TRUE,-0.658188,0.058517,0.000000,0.008926,-2.034225,0.000000,0.149000,-0.016000,-0.329000,-57.260000,-7.270000,3.150000,-52.738427,Hold,55.292480,51.000000,Hold,-143513.000000,143360.000000,Suck,-2092.500000,2181.818182,Speed,-2085.000000,2181.818182,Speed,Off,Off0.000000,0,,,,
02:46:58.937 PM 03/20/2016,Teleop Enabled,10,FALSE,0,NO ERROR,-1.000000,-129.366114,1.000000,-100.401349,FALSE,FALSE,TRUE,FALSE,FALSE,FALSE,Disabled,0.000000,0.000000,0.000000,TRUE,-0.654083,-0.044815,0.000000,0.132523,-2.058395,0.000000,0.049000,0.120000,0.071000,-59.920000,-8.000000,2.840000,-54.984115,Hold,54.963867,51.000000,Hold,-143451.000000,143360.000000,Suck,-2145.000000,2181.818182,Speed,-2152.500000,2181.818182,Speed,Off,Off0.000000,0,,,,
02:46:59.038 PM 03/20/2016,Teleop Enabled,10,FALSE,0,NO ERROR,-0.889764,-123.745127,0.889764,-99.997099,FALSE,FALSE,TRUE,FALSE,FALSE,FALSE,Disabled,0.000000,0.000000,0.000000,TRUE,-0.650681,-0.156921,0.000000,-0.003738,-1.559952,0.000000,-0.283000,0.938000,-0.244000,-59.420000,-5.700000,3.260000,-54.480627,Hold,55.312744,51.000000,Hold,-143483.000000,143360.000000,Suck,-2197.500000,2181.818182,Speed,-2167.500000,2181.818182,Speed,Off,Off0.000000,0,,,,
02:46:59.138 PM 03/20/2016,Teleop Enabled,10,FALSE,0,NO ERROR,-0.000000,-118.111307,0.000000,-101.126430,FALSE,FALSE,TRUE,FALSE,FALSE,FALSE,Disabled,0.000000,0.000000,0.000000,TRUE,-0.646317,-0.209259,0.000000,0.187180,-0.766281,0.000000,0.308000,0.499000,-0.646000,-50.740000,-1.050000,3.900000,-45.852901,Hold,55.488525,51.000000,Hold,-143495.000000,143360.000000,Suck,-2115.000000,2181.818182,Speed,-2062.500000,2181.818182,Speed,Off,Off0.000000,0,,,,
02:46:59.238 PM 03/20/2016,Teleop Enabled,10,FALSE,0,NO ERROR,-0.559055,-115.275147,0.559055,-101.774512,FALSE,FALSE,TRUE,FALSE,FALSE,FALSE,Disabled,0.000000,0.000000,0.000000,TRUE,-0.633835,-0.233643,0.000000,0.418259,-0.573196,0.000000,0.317000,-0.142000,0.312000,-38.070000,-0.980000,3.760000,-33.964915,Hold,54.999023,51.000000,Hold,-143472.000000,143360.000000,Suck,-2055.000000,2181.818182,Speed,-2002.500000,2181.818182,Speed,Off,Off0.000000,0,,,,
02:46:59.338 PM 03/20/2016,Teleop Enabled,11,FALSE,0,NO ERROR,-0.000000,-113.318068,0.000000,-103.218259,FALSE,FALSE,TRUE,FALSE,FALSE,FALSE,Disabled,0.000000,0.000000,0.000000,TRUE,-0.606094,-0.260529,0.000000,0.613663,-0.528641,0.000000,0.614000,0.389000,-0.169000,-32.580000,-1.450000,3.660000,-29.047138,Hold,55.431152,51.000000,Hold,-143472.000000,143360.000000,Suck,-2182.500000,2181.818182,Speed,-2190.000000,2181.818182,Speed,Off,Off0.000000,0,,,,
02:46:59.438 PM 03/20/2016,Teleop Enabled,11,FALSE,0,NO ERROR,-0.000000,-111.104324,0.000000,-104.893005,FALSE,FALSE,TRUE,FALSE,FALSE,FALSE,Disabled,0.000000,0.000000,0.000000,TRUE,-0.562057,-0.290222,0.000000,0.747375,-0.522095,0.000000,0.063000,-0.216000,-0.021000,-26.160000,-0.200000,4.070000,-22.459077,Hold,55.337402,51.000000,Hold,-143505.000000,143360.000000,Suck,-2197.500000,2181.818182,Speed,-2190.000000,2181.818182,Speed,Off,Off0.000000,0,,,,
02:46:59.538 PM 03/20/2016,Teleop Enabled,10,FALSE,0,NO ERROR,0.385827,-110.359992,0.385827,-106.003085,FALSE,FALSE,TRUE,FALSE,FALSE,FALSE,Disabled,0.000000,0.000000,0.000000,TRUE,-0.522141,-0.324051,0.000000,0.806580,-0.739426,0.000000,-0.090000,-0.089000,0.180000,-19.660000,-1.060000,3.440000,-16.628313,Hold,54.892090,51.000000,Hold,-143499.000000,143360.000000,Hold,-2152.500000,0.000000,Speed,-2100.000000,0.000000,Speed,Off,Off0.000000,0,,,,
02:46:59.638 PM 03/20/2016,Teleop Enabled,10,FALSE,0,NO ERROR,0.559055,-109.243495,0.559055,-105.663003,FALSE,FALSE,TRUE,FALSE,FALSE,FALSE,Disabled,0.000000,0.000000,0.000000,TRUE,-0.487762,-0.366913,0.000000,0.554672,-0.996597,0.000000,-0.407000,-0.328000,0.329000,-18.220000,-3.050000,2.710000,-15.565867,Hold,54.940430,51.000000,Hold,-143496.000000,143360.000000,Hold,-2137.500000,0.000000,Speed,-2092.500000,0.000000,Speed,Off,Off0.000000,0,,,,
02:46:59.738 PM 03/20/2016,Teleop Enabled,11,FALSE,0,NO ERROR,0.559055,-107.087500,0.559055,-103.243925,FALSE,FALSE,TRUE,FALSE,FALSE,FALSE,Disabled,0.000000,0.000000,0.000000,TRUE,-0.471481,-0.421249,0.000000,0.169647,-1.175430,0.000000,-0.605000,0.071000,-0.144000,-18.300000,-5.670000,2.780000,-15.730187,Hold,54.979980,51.000000,Hold,-143496.000000,143360.000000,Hold,-1995.000000,0.000000,Speed,-1927.500000,0.000000,Speed,Off,Off0.000000,0,,,,
02:46:59.838 PM 03/20/2016,Teleop Enabled,10,FALSE,0,NO ERROR,0.551181,-103.924090,0.551181,-99.567184,FALSE,FALSE,TRUE,FALSE,FALSE,FALSE,Disabled,0.000000,0.000000,0.000000,TRUE,-0.472992,-0.482117,0.000000,-0.118057,-1.251251,0.000000,-0.185000,-0.123000,0.560000,-18.940000,-5.920000,2.520000,-16.527904,Hold,55.414307,51.000000,Hold,-143496.000000,143360.000000,Hold,-1800.000000,0.000000,Speed,-1650.000000,0.000000,Speed,Off,Off0.000000,0,,,,
02:46:59.938 PM 03/20/2016,Teleop Enabled,11,FALSE,0,NO ERROR,0.423585,-99.920100,0.678777,-94.395363,FALSE,FALSE,TRUE,FALSE,FALSE,FALSE,Disabled,0.000000,0.000000,0.000000,TRUE,-0.483932,-0.546753,0.000000,-0.292160,-1.335999,0.000000,-0.024000,-0.033000,0.075000,-20.530000,-5.860000,2.490000,-18.272124,Hold,55.255371,51.000000,Hold,-143496.000000,143360.000000,Hold,-1620.000000,0.000000,Speed,-1380.000000,0.000000,Speed,Off,Off0.000000,0,,,,
02:47:00.038 PM 03/20/2016,Teleop Enabled,10,FALSE,0,NO ERROR,0.399281,-95.409194,0.703081,-88.812876,FALSE,FALSE,TRUE,FALSE,FALSE,FALSE,Disabled,0.000000,0.000000,0.000000,TRUE,-0.498596,-0.616257,0.000000,-0.271118,-1.434204,0.000000,0.100000,0.033000,-0.034000,-23.280000,-6.700000,2.040000,-20.903812,Hold,55.235596,51.000000,Hold,-143493.000000,143360.000000,Hold,-1462.500000,0.000000,Speed,-1110.000000,0.000000,Speed,Off,Off0.000000,0,,,,
02:47:00.138 PM 03/20/2016,Teleop Enabled,9,FALSE,0,NO ERROR,0.399281,-90.295122,0.703081,-83.326638,FALSE,FALSE,TRUE,FALSE,FALSE,FALSE,Disabled,0.000000,0.000000,0.000000,TRUE,-0.513168,-0.644653,0.000000,-0.319092,0.018433,0.000000,0.005000,0.174000,0.092000,-24.630000,-5.850000,2.450000,-22.026423,Hold,55.239502,51.000000,Hold,-143493.000000,143360.000000,Hold,-1350.000000,0.000000,Speed,-862.500000,0.000000,Speed,Off,Off0.000000,0,,,,
02:47:00.237 PM 03/20/2016,Teleop Enabled,11,FALSE,0,NO ERROR,0.336679,-84.680552,0.749935,-77.615819,FALSE,FALSE,TRUE,FALSE,FALSE,FALSE,Disabled,0.000000,0.000000,0.000000,TRUE,-0.512436,-0.643005,0.000000,0.036667,0.035187,0.000000,-0.102000,-0.214000,0.121000,-24.760000,-5.240000,2.510000,-22.243449,Hold,55.225098,51.000000,Hold,-143493.000000,143360.000000,Hold,-1207.500000,0.000000,Speed,-667.500000,0.000000,Speed,Off,Off0.000000,0,,,,
02:47:00.337 PM 03/20/2016,Teleop Enabled,11,FALSE,0,NO ERROR,0.336679,-78.879899,0.749935,-71.834415,FALSE,FALSE,TRUE,FALSE,FALSE,FALSE,Disabled,0.000000,0.000000,0.000000,TRUE,-0.509918,-0.641907,0.000000,0.076355,0.039551,0.000000,-0.102000,0.154000,-0.065000,-24.930000,-5.760000,2.490000,-22.350605,Hold,55.227051,51.000000,Hold,-143493.000000,143360.000000,Hold,-1065.000000,0.000000,Speed,-405.000000,0.000000,Speed,Off,Off0.000000,0,,,,
02:47:00.437 PM 03/20/2016,Teleop Enabled,11,FALSE,0,NO ERROR,0.336679,-72.861080,0.749935,-66.155679,FALSE,FALSE,TRUE,FALSE,FALSE,FALSE,Disabled,0.000000,0.000000,0.000000,TRUE,-0.503677,-0.636612,0.000000,0.131607,0.114548,0.000000,0.148000,0.059000,-0.026000,-24.470000,-5.460000,2.550000,-21.874923,Hold,55.253174,51.000000,Hold,-143493.000000,143360.000000,Hold,-937.500000,0.000000,Speed,-172.500000,0.000000,Speed,Off,Off0.000000,0,,,,
02:47:00.537 PM 03/20/2016,Teleop Enabled,11,FALSE,0,NO ERROR,0.315289,-66.758844,0.739829,-60.419192,FALSE,FALSE,TRUE,FALSE,FALSE,FALSE,Disabled,0.000000,0.000000,0.000000,TRUE,-0.494736,-0.629517,0.000000,0.192673,0.168076,0.000000,0.066000,0.000000,0.054000,-23.700000,-4.800000,2.620000,-21.149118,Hold,55.251709,51.000000,Hold,-143493.000000,143360.000000,Hold,-795.000000,0.000000,Speed,0.000000,0.000000,Speed,Off,Off0.000000,0,,,,
02:47:00.637 PM 03/20/2016,Teleop Enabled,11,FALSE,0,NO ERROR,0.315289,-60.637358,0.739829,-54.714789,FALSE,FALSE,TRUE,FALSE,FALSE,FALSE,Disabled,0.000000,0.000000,0.000000,TRUE,-0.485992,-0.621246,0.000000,0.237091,0.222977,0.000000,0.126000,0.189000,0.032000,-22.690000,-5.110000,2.740000,-20.325228,Hold,55.251709,51.000000,Hold,-143493.000000,143360.000000,Hold,-660.000000,0.000000,Speed,0.000000,0.000000,Speed,Off,Off0.000000,0,,,,
02:47:00.738 PM 03/20/2016,Teleop Enabled,9,FALSE,0,NO ERROR,0.249426,-54.458123,0.600967,-48.991135,FALSE,FALSE,TRUE,FALSE,FALSE,FALSE,Disabled,0.000000,0.000000,0.000000,TRUE,-0.467575,-0.608582,0.000000,0.344833,0.000000,0.000000,0.044000,0.023000,0.024000,-21.770000,-4.570000,2.900000,-19.263546,Hold,55.251709,51.000000,Hold,-143492.000000,143360.000000,LowGoal,-562.500000,-1454.545455,Speed,0.000000,-1454.545455,Speed,Off,Off0.000000,0,,,,
02:47:00.838 PM 03/20/2016,Teleop Enabled,11,FALSE,0,NO ERROR,-0.740157,-48.805053,0.740157,-43.562648,FALSE,FALSE,TRUE,FALSE,FALSE,FALSE,Disabled,0.000000,0.000000,0.000000,TRUE,-0.448669,-0.608139,0.000000,0.407272,0.027191,0.000000,0.463000,0.188000,-0.049000,-20.780000,-4.040000,2.870000,-18.342700,Hold,55.251709,51.000000,Hold,-143492.000000,143360.000000,LowGoal,-382.500000,-1454.545455,Speed,82.500000,-1454.545455,Speed,Off,Off0.000000,0,,,,
02:47:00.938 PM 03/20/2016,Teleop Enabled,10,FALSE,0,NO ERROR,-0.755906,-44.069564,0.755906,-42.484651,FALSE,FALSE,TRUE,FALSE,FALSE,FALSE,Disabled,0.000000,0.000000,0.000000,TRUE,-0.414124,-0.601303,0.000000,0.965134,0.280304,0.000000,0.714000,0.481000,0.100000,-19.770000,-0.530000,3.100000,-16.917815,Hold,55.713623,51.000000,Hold,-143492.000000,143360.000000,LowGoal,435.000000,-1454.545455,Speed,817.500000,-1454.545455,Speed,Off,Off0.000000,0,,,,
02:47:01.038 PM 03/20/2016,Teleop Enabled,10,FALSE,0,NO ERROR,-0.574803,-39.346908,0.574803,-43.171232,FALSE,FALSE,TRUE,FALSE,FALSE,FALSE,Disabled,0.000000,0.000000,0.000000,TRUE,-0.347473,-0.576584,0.000000,1.534851,0.610779,0.000000,0.333000,0.387000,0.402000,-13.150000,2.360000,3.920000,-9.532044,Hold,55.657471,51.000000,Hold,-143492.000000,143360.000000,LowGoal,1237.500000,-1454.545455,Speed,1365.000000,-1454.545455,Speed,Off,Off0.000000,0,,,,
02:47:01.138 PM 03/20/2016,Teleop Enabled,10,FALSE,0,NO ERROR,-0.000000,-35.150418,0.000000,-45.487644,FALSE,FALSE,TRUE,FALSE,FALSE,FALSE,Disabled,0.000000,0.000000,0.000000,TRUE,-0.257965,-0.536331,0.000000,1.961502,0.906174,0.000000,-0.014000,-0.172000,0.074000,-0.450000,2.180000,5.700000,3.569475,Hold,55.678711,51.000000,Hold,-143508.000000,143360.000000,LowGoal,1575.000000,-1454.545455,Speed,1522.500000,-1454.545455,Speed,Off,Off0.000000,0,,,,
02:47:01.238 PM 03/20/2016,Teleop Enabled,10,FALSE,0,NO ERROR,0.212598,-33.725921,0.212598,-47.149556,FALSE,FALSE,TRUE,FALSE,FALSE,FALSE,Disabled,0.000000,0.000000,0.000000,TRUE,-0.157471,-0.497711,0.000000,2.001282,0.632751,0.000000,-0.109000,-0.326000,0.201000,12.030000,1.480000,5.320000,14.621126,Hold,55.726562,51.000000,Hold,-143508.000000,143360.000000,LowGoal,1432.500000,-1454.545455,Speed,1335.000000,-1454.545455,Speed,Off,Off0.000000,0,,,,
02:47:01.338 PM 03/20/2016,Teleop Enabled,10,FALSE,0,NO ERROR,0.499275,-32.461841,0.382615,-47.585889,FALSE,FALSE,TRUE,FALSE,FALSE,FALSE,Disabled,0.000000,0.000000,0.000000,TRUE,-0.063477,-0.475235,0.000000,1.758789,0.397614,0.000000,-0.282000,0.191000,-0.113000,17.640000,0.100000,4.480000,18.719502,Hold,55.432861,51.000000,Hold,-143508.000000,143360.000000,LowGoal,1365.000000,-1454.545455,Speed,1342.500000,-1454.545455,Speed,Off,Off0.000000,0,,,,
02:47:01.438 PM 03/20/2016,Teleop Enabled,11,FALSE,0,NO ERROR,0.457313,-30.787095,0.172608,-45.968893,FALSE,FALSE,TRUE,FALSE,FALSE,FALSE,Disabled,0.000000,0.000000,0.000000,TRUE,0.013351,-0.451172,0.000000,1.356155,0.483231,0.000000,-0.692000,-0.162000,-0.425000,18.250000,-2.860000,4.160000,19.222780,Hold,55.200439,51.000000,Hold,-143434.000000,143360.000000,LowGoal,1417.500000,-1454.545455,Speed,1417.500000,-1454.545455,Speed,Off,Off0.000000,0,,,,
