Time,Robot Mode,Loop Time,Error Status,Error Code,Error Source,Left Motor Output,Left Motor Encoder,Right Motor Output,Right Motor Encoder,Is Level,Is Stalled,Ball Detector Photoeye,Vision Enabled,Vision Teleop Control,Vision Auto Control,Vision Current State,Vision X Output,Vision NavX Error,Vision NavX Target,NavX Connection Status,NavX Displacement X,NavX Displacement Y,NavX Displacement Z,NavX Velocity X,NavX Velocity Y,NavX Velocity Z,NavX Acceleration X,NavX Acceleration Y,NavX Acceleration Z,NavX Pitch,NavX Yaw,NavX Roll,Gyro Angle,Roller Arm State,Roller Arm Actual,Roller Arm Desired,Shooter Arm State,Shooter Arm Actual,Shooter Arm Desired,Shooter State,Actual RPM Left,Desired RPM Left,Control Mode Left,Actual RPM Right,Desired RPM Right,Scaler Motor Output,Auto To Run,Auto Current File,Auto File Status,Auto Current Command,Auto Trimmed Command
11:48:17.997 AM 03/20/2016,Teleop Enabled,11,FALSE,0,NO ERROR,-0.000000,0.000000,0.000000,0.000000,TRUE,FALSE,TRUE,FALSE,FALSE,FALSE,Disabled,-0.071875,3.203125,170.216875,TRUE,-30.272995,-0.622330,0.000000,0.000000,0.000000,0.000000,0.001000,-0.001000,0.017000,0.000000,0.230000,2.640000,-0.006448,ResetBack,0.945801,-0.000049,ResetBack,-231.000000,-0.300000,Empty,0.000000,0.000000,Speed,0.000000,0.000000,Speed,Off,Off0.000000,0,,,,
11:48:18.098 AM 03/20/2016,Teleop Enabled,10,FALSE,0,NO ERROR,-0.000000,0.000000,0.000000,0.000000,TRUE,FALSE,TRUE,FALSE,FALSE,FALSE,Disabled,-0.071875,3.203125,170.216875,TRUE,-30.272995,-0.622330,0.000000,0.000000,0.000000,0.000000,-0.001000,0.007000,0.040000,0.000000,0.240000,2.630000,-0.012720,ResetBack,-0.039307,-0.000049,ResetBack,-56.000000,-0.300000,Suck,0.000000,2181.818182,Speed,0.000000,2181.818182,Speed,Off,Off0.000000,0,,,,
11:48:18.197 AM 03/20/2016,Teleop Enabled,9,FALSE,0,NO ERROR,-0.000000,0.000000,0.000000,0.000000,TRUE,FALSE,TRUE,FALSE,FALSE,FALSE,Disabled,-0.071875,3.203125,170.216875,TRUE,-30.272858,-0.622391,0.000000,0.010529,-0.006027,0.000000,-0.037000,0.045000,0.082000,0.000000,0.240000,2.600000,-0.000668,ResetBack,-0.140869,-0.000049,ResetBack,54.000000,-0.300000,Hold,-52.500000,0.000000,Speed,-30.000000,0.000000,Speed,Off,Off0.000000,0,,,,
11:48:18.298 AM 03/20/2016,Teleop Enabled,10,FALSE,0,NO ERROR,-0.000000,0.000000,0.000000,0.000000,TRUE,FALSE,TRUE,FALSE,FALSE,FALSE,Disabled,-0.071875,3.203125,170.216875,TRUE,-30.272675,-0.622253,0.000000,0.005829,0.015518,0.000000,0.010000,0.012000,-0.023000,0.000000,0.240000,2.600000,-0.007405,Reset,-0.143555,0.000000,ResetBack,134.000000,-0.300000,Hold,-592.500000,0.000000,Speed,-420.000000,0.000000,Speed,Off,Off0.000000,0,,,,
11:48:18.401 AM 03/20/2016,Teleop Enabled,9,FALSE,0,NO ERROR,-0.000000,0.000000,0.000000,0.000000,TRUE,FALSE,TRUE,FALSE,FALSE,FALSE,Disabled,-0.071875,3.203125,170.216875,TRUE,-30.272003,-0.621796,0.000000,0.014923,0.012756,0.000000,0.029000,-0.032000,0.054000,0.000000,0.240000,2.630000,-0.001573,Hold,0.870117,0.000000,ResetBack,134.000000,-0.300000,Hold,-637.500000,0.000000,Speed,-555.000000,0.000000,Speed,Off,Off0.000000,0,,,,
11:48:18.501 AM 03/20/2016,Teleop Enabled,9,FALSE,0,NO ERROR,-0.000000,0.000000,0.000000,0.000000,TRUE,FALSE,TRUE,FALSE,FALSE,FALSE,Disabled,-0.071875,3.203125,170.216875,TRUE,-30.271835,-0.621490,0.000000,0.001175,0.009125,0.000000,0.028000,-0.033000,0.003000,0.000000,0.240000,2.600000,-0.000792,Hold,0.985352,0.000000,ResetBack,134.000000,-0.300000,Hold,-547.500000,0.000000,Speed,-345.000000,0.000000,Speed,Off,Off0.000000,0,,,,
11:48:18.601 AM 03/20/2016,Teleop Enabled,10,FALSE,0,NO ERROR,-0.000000,0.000000,0.000000,0.000000,TRUE,FALSE,TRUE,FALSE,FALSE,FALSE,Disabled,-0.071875,3.203125,170.216875,TRUE,-30.271362,-0.621414,0.000000,0.000000,0.003281,0.000000,0.005000,0.020000,0.055000,0.000000,0.230000,2.610000,-0.004613,Hold,0.943359,0.000000,ResetBack,134.000000,-0.300000,Hold,-420.000000,0.000000,Speed,-127.500000,0.000000,Speed,Off,Off0.000000,0,,,,
11:48:18.701 AM 03/20/2016,Teleop Enabled,10,FALSE,0,NO ERROR,-0.000000,0.000000,0.000000,0.000000,TRUE,FALSE,TRUE,FALSE,FALSE,FALSE,Disabled,-0.071875,3.203125,170.216875,TRUE,-30.271362,-0.621338,0.000000,0.000000,0.003326,0.000000,0.001000,0.006000,0.031000,0.000000,0.220000,2.620000,-0.005154,Hold,0.943359,0.000000,ResetBack,134.000000,-0.300000,Hold,-292.500000,0.000000,Speed,-7.500000,0.000000,Speed,Off,Off0.000000,0,,,,
11:48:18.801 AM 03/20/2016,Teleop Enabled,10,FALSE,0,NO ERROR,-0.000000,0.000000,0.000000,0.000000,TRUE,FALSE,TRUE,FALSE,FALSE,FALSE,Disabled,-0.071875,3.203125,170.216875,TRUE,-30.271362,-0.621048,0.000000,0.000000,0.004257,0.000000,-0.011000,-0.001000,0.015000,0.000000,0.230000,2.620000,-0.002658,Hold,0.943359,0.000000,ResetBack,134.000000,-0.300000,Hold,-150.000000,0.000000,Speed,0.000000,0.000000,Speed,Off,Off0.000000,0,,,,
11:48:18.902 AM 03/20/2016,Teleop Enabled,11,FALSE,0,NO ERROR,-0.000000,0.000000,0.000000,0.000000,TRUE,FALSE,TRUE,FALSE,FALSE,FALSE,Disabled,-0.071875,3.203125,170.216875,TRUE,-30.271362,-0.620834,0.000000,0.000000,-0.000031,0.000000,0.000000,0.019000,0.040000,0.000000,0.230000,2.610000,0.001683,Hold,0.943359,0.000000,ResetBack,134.000000,-0.300000,Hold,-22.500000,0.000000,Speed,0.000000,0.000000,Speed,Off,Off0.000000,0,,,,
11:48:19.001 AM 03/20/2016,Teleop Enabled,10,FALSE,0,NO ERROR,-0.000000,0.000000,0.000000,0.000000,TRUE,FALSE,TRUE,FALSE,FALSE,FALSE,Disabled,-0.071875,3.203125,170.216875,TRUE,-30.271362,-0.620834,0.000000,0.000000,0.000000,0.000000,-0.001000,0.007000,0.038000,0.000000,0.230000,2.610000,0.008803,Hold,0.943359,0.000000,ResetBack,134.000000,-0.300000,Hold,0.000000,0.000000,Speed,0.000000,0.000000,Speed,Off,Off0.000000,0,,,,
11:48:19.102 AM 03/20/2016,Teleop Enabled,10,FALSE,0,NO ERROR,-0.000000,0.000000,0.000000,0.000000,TRUE,FALSE,TRUE,FALSE,FALSE,FALSE,Disabled,-0.071875,3.203125,170.216875,TRUE,-30.271362,-0.620834,0.000000,0.000000,0.000000,0.000000,0.002000,0.005000,0.022000,0.000000,0.240000,2.620000,0.011708,Hold,0.943359,0.000000,ResetBack,134.000000,-0.300000,Hold,0.000000,0.000000,Speed,0.000000,0.000000,Speed,Off,Off0.000000,0,,,,
11:48:19.202 AM 03/20/2016,Teleop Enabled,10,FALSE,0,NO ERROR,-0.000000,0.000000,0.000000,0.000000,TRUE,FALSE,TRUE,FALSE,FALSE,FALSE,Disabled,-0.071875,3.203125,170.216875,TRUE,-30.271362,-0.620834,0.000000,0.000000,0.000000,0.000000,-0.003000,0.007000,0.022000,0.000000,0.240000,2.610000,0.010865,Hold,0.943359,0.000000,Reset,134.000000,2.000000,Hold,0.000000,0.000000,Speed,0.000000,0.000000,Speed,Off,Off0.000000,0,,,,
11:48:19.302 AM 03/20/2016,Teleop Enabled,11,FALSE,0,NO ERROR,-0.000000,0.000000,0.000000,0.000000,TRUE,FALSE,TRUE,FALSE,FALSE,FALSE,Disabled,-0.071875,3.203125,170.216875,TRUE,-30.271362,-0.620834,0.000000,0.000000,0.000000,0.000000,-0.013000,-0.006000,-0.020000,0.000000,0.240000,2.600000,0.009002,Hold,0.943359,0.000000,Hold,-368.000000,2.000000,Hold,0.000000,0.000000,Speed,0.000000,0.000000,Speed,Off,Off0.000000,0,,,,
11:48:19.402 AM 03/20/2016,Teleop Enabled,10,FALSE,0,NO ERROR,-0.000000,0.000000,0.000000,0.000000,TRUE,FALSE,TRUE,FALSE,FALSE,FALSE,Disabled,-0.071875,3.203125,170.216875,TRUE,-30.271439,-0.620834,0.000000,-0.002304,0.000000,0.000000,-0.033000,-0.015000,-0.006000,0.000000,0.240000,2.600000,0.010503,Hold,0.943359,0.000000,Hold,-249.000000,2.000000,LowGoal,0.000000,-1454.545455,Speed,0.000000,-1454.545455,Speed,Off,Off0.000000,0,,,,
11:48:19.502 AM 03/20/2016,Teleop Enabled,10,FALSE,0,NO ERROR,-0.000000,0.000000,0.000000,0.000000,TRUE,FALSE,TRUE,FALSE,FALSE,FALSE,Disabled,-0.071875,3.203125,170.216875,TRUE,-30.271378,-0.621048,0.000000,0.007309,-0.014206,0.000000,-0.037000,0.028000,0.048000,0.000000,0.220000,2.570000,0.008076,Hold,0.943359,0.000000,Hold,-261.000000,2.000000,LowGoal,142.500000,-1454.545455,Speed,105.000000,-1454.545455,Speed,Off,Off0.000000,0,,,,
11:48:19.602 AM 03/20/2016,Teleop Enabled,10,FALSE,0,NO ERROR,-0.000000,0.000000,0.000000,0.000000,TRUE,FALSE,TRUE,FALSE,FALSE,FALSE,Disabled,-0.071875,3.203125,170.216875,TRUE,-30.271957,-0.621201,0.000000,-0.014481,-0.000732,0.000000,0.002000,0.024000,0.040000,0.000000,0.200000,2.590000,0.016917,Hold,0.943359,0.000000,Hold,-265.000000,2.000000,LowGoal,735.000000,-1454.545455,Speed,802.500000,-1454.545455,Speed,Off,Off0.000000,0,,,,
11:48:19.702 AM 03/20/2016,Teleop Enabled,10,FALSE,0,NO ERROR,-0.000000,0.000000,0.000000,0.000000,TRUE,FALSE,TRUE,FALSE,FALSE,FALSE,Disabled,-0.071875,3.203125,170.216875,TRUE,-30.273300,-0.620895,0.000000,-0.037140,0.019379,0.000000,-0.031000,0.120000,0.031000,0.000000,0.200000,2.680000,0.005377,Hold,0.943359,0.000000,Hold,-265.000000,2.000000,LowGoal,1432.500000,-1454.545455,Speed,1410.000000,-1454.545455,Speed,Off,Off0.000000,0,,,,
11:48:19.801 AM 03/20/2016,Teleop Enabled,10,FALSE,0,NO ERROR,-0.000000,0.000000,0.000000,0.000000,TRUE,FALSE,TRUE,FALSE,FALSE,FALSE,Disabled,-0.071875,3.203125,170.216875,TRUE,-30.275253,-0.619385,0.000000,-0.023560,0.033005,0.000000,-0.049000,0.029000,0.068000,0.000000,0.210000,2.690000,-0.016679,Hold,0.943359,0.000000,Hold,-265.000000,2.000000,LowGoal,1582.500000,-1454.545455,Speed,1545.000000,-1454.545455,Speed,Off,Off0.000000,0,,,,
11:48:19.903 AM 03/20/2016,Teleop Enabled,9,FALSE,0,NO ERROR,-0.000000,0.000000,0.000000,0.000000,TRUE,FALSE,TRUE,FALSE,FALSE,FALSE,Disabled,-0.071875,3.203125,170.216875,TRUE,-30.275864,-0.617935,0.000000,-0.007706,0.024719,0.000000,0.044000,0.079000,-0.033000,0.000000,0.200000,2.720000,-0.025595,Hold,0.943359,0.000000,Hold,-246.000000,2.000000,LowGoal,1387.500000,-1454.545455,Speed,1350.000000,-1454.545455,Speed,Off,Off0.000000,0,,,,
11:48:20.004 AM 03/20/2016,Teleop Enabled,11,FALSE,0,NO ERROR,-0.000000,0.000000,0.000000,0.000000,TRUE,FALSE,TRUE,FALSE,FALSE,FALSE,Disabled,-0.071875,3.203125,170.216875,TRUE,-30.276001,-0.616409,0.000000,0.000000,0.015961,0.000000,-0.002000,-0.036000,0.098000,0.000000,0.160000,2.670000,-0.043920,Hold,0.943359,0.000000,Hold,-246.000000,2.000000,LowGoal,1342.500000,-1454.545455,Speed,1290.000000,-1454.545455,Speed,Off,Off0.000000,0,,,,
11:48:20.103 AM 03/20/2016,Teleop Enabled,11,FALSE,0,NO ERROR,-0.000000,0.000000,0.000000,0.000000,TRUE,FALSE,TRUE,FALSE,FALSE,FALSE,Disabled,-0.071875,3.203125,170.216875,TRUE,-30.275635,-0.615387,0.000000,0.010284,0.015564,0.000000,-0.028000,0.012000,0.016000,0.000000,0.220000,2.670000,-0.045180,Hold,0.943359,0.000000,Hold,-246.000000,2.000000,LowGoal,1425.000000,-1454.545455,Speed,1380.000000,-1454.545455,Speed,Off,Off0.000000,0,,,,
11:48:20.204 AM 03/20/2016,Teleop Enabled,10,FALSE,0,NO ERROR,-0.000000,0.000000,0.000000,0.000000,TRUE,FALSE,TRUE,FALSE,FALSE,FALSE,Disabled,-0.071875,3.203125,170.216875,TRUE,-30.275970,-0.614838,0.000000,-0.012497,0.011566,0.000000,0.017000,-0.060000,-0.035000,0.000000,0.170000,2.640000,-0.044932,Hold,0.943359,0.000000,Hold,-246.000000,2.000000,LowGoal,1440.000000,-1454.545455,Speed,1395.000000,-1454.545455,Speed,Off,Off0.000000,0,,,,
11:48:20.304 AM 03/20/2016,Teleop Enabled,9,FALSE,0,NO ERROR,-0.000000,0.000000,0.000000,0.000000,TRUE,FALSE,TRUE,FALSE,FALSE,FALSE,Disabled,-0.071875,3.203125,170.216875,TRUE,-30.275620,-0.614471,0.000000,0.018417,0.016632,0.000000,-0.043000,0.046000,-0.003000,0.000000,0.170000,2.640000,-0.048729,Hold,0.943359,0.000000,Hold,-246.000000,2.000000,LowGoal,1402.500000,-1454.545455,Speed,1350.000000,-1454.545455,Speed,Off,Off0.000000,0,,,,
11:48:20.405 AM 03/20/2016,Teleop Enabled,11,FALSE,0,NO ERROR,-0.000000,0.000000,0.000000,0.000000,TRUE,FALSE,TRUE,FALSE,FALSE,FALSE,Disabled,-0.071875,3.203125,170.216875,TRUE,-30.274658,-0.613480,0.000000,0.008789,0.011978,0.000000,0.031000,0.024000,-0.037000,0.000000,0.150000,2.660000,-0.054516,Hold,0.943359,0.000000,HighGoal,-246.000000,69632.000000,HighGoal,1402.500000,-3272.727273,Speed,1350.000000,-3272.727273,Speed,Off,Off0.000000,0,,,,
11:48:20.506 AM 03/20/2016,Teleop Enabled,11,FALSE,0,NO ERROR,-0.000000,0.000000,0.000000,0.000000,TRUE,FALSE,TRUE,FALSE,FALSE,FALSE,Disabled,-0.071875,3.203125,170.216875,TRUE,-30.274261,-0.612228,0.000000,0.016342,0.041489,0.000000,0.023000,0.088000,0.058000,0.000000,0.190000,2.710000,-0.047394,Hold,0.943359,0.000000,Hold,-246.000000,69632.000000,HighGoal,1470.000000,-3272.727273,Speed,1395.000000,-3272.727273,Speed,Off,Off0.000000,0,,,,
11:48:20.607 AM 03/20/2016,Teleop Enabled,10,FALSE,0,NO ERROR,-0.000000,0.000000,0.000000,0.000000,TRUE,FALSE,TRUE,FALSE,FALSE,FALSE,Disabled,-0.071875,3.203125,170.216875,TRUE,-30.273880,-0.609375,0.000000,-0.009476,0.067368,0.000000,-0.021000,-0.018000,0.025000,-0.010000,0.150000,2.740000,-0.066266,Hold,0.943359,0.000000,HighGoal,-11869.000000,69632.000000,HighGoal,1942.500000,-3272.727273,Speed,1815.000000,-3272.727273,Speed,Off,Off0.000000,0,,,,
11:48:20.707 AM 03/20/2016,Teleop Enabled,9,FALSE,0,NO ERROR,-0.000000,0.000000,0.000000,0.000000,TRUE,FALSE,TRUE,FALSE,FALSE,FALSE,Disabled,-0.071875,3.203125,170.216875,TRUE,-30.274582,-0.607178,0.000000,-0.000748,-0.002441,0.000000,0.016000,-0.133000,0.125000,0.000000,0.200000,2.760000,-0.063501,Hold,0.943359,0.000000,Hold,-23962.000000,69632.000000,HighGoal,2430.000000,-3272.727273,Speed,2302.500000,-3272.727273,Speed,Off,Off0.000000,0,,,,
11:48:20.808 AM 03/20/2016,Teleop Enabled,10,FALSE,0,NO ERROR,-0.000000,0.000000,0.000000,0.006417,TRUE,FALSE,TRUE,FALSE,FALSE,FALSE,Disabled,-0.071875,3.203125,170.216875,TRUE,-30.275620,-0.607803,0.000000,-0.033463,0.013916,0.000000,0.142000,-0.051000,0.066000,0.020000,0.230000,2.810000,-0.048423,Hold,0.943359,0.000000,Hold,-33063.000000,69632.000000,HighGoal,2812.500000,-3272.727273,Speed,2715.000000,-3272.727273,Speed,Off,Off0.000000,0,,,,
11:48:20.909 AM 03/20/2016,Teleop Enabled,10,FALSE,0,NO ERROR,-0.000000,0.000000,0.000000,0.006417,TRUE,FALSE,TRUE,FALSE,FALSE,FALSE,Disabled,-0.071875,3.203125,170.216875,TRUE,-30.275848,-0.607574,0.000000,-0.007812,0.008575,0.000000,-0.034000,0.088000,0.186000,-0.020000,0.180000,2.790000,-0.099428,Hold,0.943359,0.000000,Hold,-43733.000000,69632.000000,HighGoal,3060.000000,-3272.727273,Speed,3052.500000,-3272.727273,Speed,Off,Off0.000000,0,,,,
11:48:21.008 AM 03/20/2016,Teleop Enabled,10,FALSE,0,NO ERROR,-0.000000,0.000000,0.000000,0.006417,TRUE,FALSE,TRUE,FALSE,FALSE,FALSE,Disabled,-0.071875,3.203125,170.216875,TRUE,-30.276489,-0.606293,0.000000,-0.001923,0.011658,0.000000,-0.040000,0.078000,0.179000,0.000000,0.140000,2.800000,-0.066517,Hold,0.943359,0.000000,Hold,-56158.000000,69632.000000,HighGoal,3262.500000,-3272.727273,Speed,3292.500000,-3272.727273,Speed,Off,Off0.000000,0,,,,
11:48:21.112 AM 03/20/2016,Teleop Enabled,11,FALSE,0,NO ERROR,-0.000000,0.000000,0.000000,0.006417,TRUE,FALSE,TRUE,FALSE,FALSE,FALSE,Disabled,-0.071875,3.203125,170.216875,TRUE,-30.275986,-0.604492,0.000000,0.016693,0.054977,0.000000,0.214000,0.037000,0.002000,0.020000,0.220000,2.760000,-0.040030,Hold,0.943359,0.000000,Hold,-56158.000000,69632.000000,HighGoal,3277.500000,-3272.727273,Speed,3307.500000,-3272.727273,Speed,Off,Off0.000000,0,,,,
11:48:21.213 AM 03/20/2016,Teleop Enabled,10,FALSE,0,NO ERROR,-0.000000,0.000000,0.000000,0.006417,TRUE,FALSE,TRUE,FALSE,FALSE,FALSE,Disabled,-0.071875,3.203125,170.216875,TRUE,-30.273605,-0.602615,0.000000,0.090134,0.000000,0.000000,0.254000,-0.024000,0.088000,0.040000,-0.130000,2.740000,-0.017240,Hold,0.943359,0.000000,Hold,-69668.000000,69632.000000,HighGoal,3232.500000,-3272.727273,Speed,3255.000000,-3272.727273,Speed,Off,Off0.000000,0,,,,
11:48:21.312 AM 03/20/2016,Teleop Enabled,9,FALSE,0,NO ERROR,-0.000000,-0.128333,0.000000,-0.147583,TRUE,FALSE,TRUE,FALSE,FALSE,FALSE,Disabled,-0.071875,3.203125,170.216875,TRUE,-30.266205,-0.603073,0.000000,0.097458,-0.007904,0.000000,-0.136000,0.036000,-0.022000,-0.120000,-0.130000,2.700000,-0.161687,Hold,0.943359,0.000000,Hold,-69509.000000,69632.000000,HighGoal,3217.500000,-3272.727273,Speed,3217.500000,-3272.727273,Speed,Off,Off0.000000,0,,,,
11:48:21.412 AM 03/20/2016,Teleop Enabled,9,FALSE,0,NO ERROR,-0.000000,-0.089833,0.000000,-0.064167,TRUE,FALSE,TRUE,FALSE,FALSE,FALSE,Disabled,-0.071875,3.203125,170.216875,TRUE,-30.265945,-0.603745,0.000000,-0.025833,-0.008987,0.000000,0.146000,-0.037000,0.237000,0.000000,0.010000,2.790000,-0.047315,Hold,0.943115,0.000000,Hold,-69623.000000,69632.000000,HighGoal,3202.500000,-3272.727273,Speed,3232.500000,-3272.727273,Speed,Off,Off0.000000,0,,,,
11:48:21.516 AM 03/20/2016,Teleop Enabled,10,FALSE,0,NO ERROR,-0.000000,-0.051333,0.000000,0.038500,TRUE,FALSE,TRUE,FALSE,FALSE,FALSE,Disabled,-0.071875,3.203125,170.216875,TRUE,-30.265137,-0.604019,0.000000,0.076920,-0.006561,0.000000,-0.062000,-0.025000,-0.209000,-0.070000,-0.130000,2.730000,-0.126390,Hold,0.943115,0.000000,Hold,-69738.000000,69632.000000,HighGoal,3225.000000,-3272.727273,Speed,3255.000000,-3272.727273,Speed,Off,Off0.000000,0,,,,
11:48:21.615 AM 03/20/2016,Teleop Enabled,9,FALSE,0,NO ERROR,-0.000000,-0.051333,0.000000,0.012833,TRUE,FALSE,TRUE,FALSE,FALSE,FALSE,Disabled,-0.071875,3.203125,170.216875,TRUE,-30.258881,-0.606888,0.000000,0.099274,-0.053253,0.000000,0.061000,-0.029000,-0.208000,-0.080000,0.110000,2.790000,-0.143424,Hold,0.943115,0.000000,Hold,-69695.000000,69632.000000,HighGoal,3240.000000,-3272.727273,Speed,3240.000000,-3272.727273,Speed,Off,Off0.000000,0,,,,
11:48:21.716 AM 03/20/2016,Teleop Enabled,11,FALSE,0,NO ERROR,-0.267717,-0.051333,0.267717,0.019250,TRUE,FALSE,TRUE,FALSE,FALSE,FALSE,Disabled,-0.071875,3.203125,170.216875,TRUE,-30.253632,-0.610092,0.000000,0.125885,-0.082138,0.000000,-0.152000,-0.030000,-0.075000,-0.030000,0.080000,2.690000,-0.104330,Hold,0.943115,0.000000,Hold,-69695.000000,69632.000000,HighGoal,3255.000000,-3272.727273,Speed,3232.500000,-3272.727273,Speed,Off,Off0.000000,0,,,,
11:48:21.816 AM 03/20/2016,Teleop Enabled,10,FALSE,0,NO ERROR,-0.354331,0.596749,0.354331,-0.538999,TRUE,FALSE,TRUE,FALSE,FALSE,FALSE,Disabled,-0.071875,3.203125,170.216875,TRUE,-30.245651,-0.612900,0.000000,0.175339,0.002014,0.000000,0.119000,0.176000,0.048000,-0.030000,0.080000,2.690000,0.898656,Hold,0.943115,0.000000,Hold,-69695.000000,69632.000000,HighGoal,3240.000000,-3272.727273,Speed,3247.500000,-3272.727273,Speed,Off,Off0.000000,0,,,,
11:48:21.917 AM 03/20/2016,Teleop Enabled,11,FALSE,0,NO ERROR,-0.000000,1.475830,0.000000,-1.289747,FALSE,FALSE,TRUE,FALSE,FALSE,FALSE,Disabled,-0.071875,3.203125,170.216875,TRUE,-30.236893,-0.609299,0.000000,0.142441,0.058029,0.000000,-0.197000,-0.263000,0.040000,5.030000,0.190000,3.090000,5.000577,Hold,0.943115,0.000000,Hold,-69695.000000,69632.000000,HighGoal,3210.000000,-3272.727273,Speed,3247.500000,-3272.727273,Speed,Off,Off0.000000,0,,,,
11:48:22.020 AM 03/20/2016,Teleop Enabled,10,FALSE,0,NO ERROR,-0.000000,1.578496,0.000000,-1.244830,TRUE,FALSE,TRUE,FALSE,FALSE,FALSE,Disabled,-0.071875,3.203125,170.216875,TRUE,-30.233902,-0.610718,0.000000,0.029694,-0.022552,0.000000,0.127000,0.114000,0.017000,6.130000,-0.070000,2.560000,5.852414,Hold,0.943115,0.000000,Hold,-69695.000000,69632.000000,HighGoal,3232.500000,-3272.727273,Speed,3225.000000,-3272.727273,Speed,Off,Off0.000000,0,,,,
11:48:22.120 AM 03/20/2016,Teleop Enabled,10,FALSE,0,NO ERROR,-0.000000,1.578496,0.000000,-1.142164,TRUE,FALSE,TRUE,FALSE,FALSE,FALSE,Disabled,-0.071875,3.203125,170.216875,TRUE,-30.230499,-0.610611,0.000000,0.102005,-0.015442,0.000000,-0.012000,0.017000,-0.080000,5.570000,-0.150000,2.610000,5.343683,Hold,0.943115,0.000000,Hold,-69710.000000,69632.000000,HighGoal,3255.000000,-3272.727273,Speed,3247.500000,-3272.727273,Speed,Off,Off0.000000,0,,,,
11:48:22.220 AM 03/20/2016,Teleop Enabled,10,FALSE,0,NO ERROR,0.173228,1.572080,-0.173228,-1.154997,TRUE,FALSE,TRUE,FALSE,FALSE,FALSE,Disabled,-0.071875,3.203125,170.216875,TRUE,-30.223221,-0.611145,0.000000,0.153534,0.023285,0.000000,0.252000,-0.016000,0.166000,5.500000,-0.080000,2.740000,5.336581,Hold,0.943115,0.000000,Hold,-69703.000000,69632.000000,HighGoal,3255.000000,-3272.727273,Speed,3262.500000,-3272.727273,Speed,Off,Off0.000000,0,,,,
11:48:22.321 AM 03/20/2016,Teleop Enabled,10,FALSE,0,NO ERROR,0.425197,0.962498,-0.425197,-0.513332,TRUE,FALSE,TRUE,FALSE,FALSE,FALSE,Disabled,-0.071875,3.203125,170.216875,TRUE,-30.215973,-0.611267,0.000000,0.109116,-0.059860,0.000000,-0.135000,-0.251000,0.011000,4.640000,-0.220000,2.180000,4.865367,Hold,0.943115,0.000000,Hold,-69703.000000,69632.000000,HighGoal,3187.500000,-3272.727273,Speed,3262.500000,-3272.727273,Speed,Off,Off0.000000,0,,,,
11:48:22.423 AM 03/20/2016,Teleop Enabled,10,FALSE,0,NO ERROR,0.425197,-0.513332,-0.425197,0.731498,TRUE,FALSE,TRUE,FALSE,FALSE,FALSE,Disabled,-0.071875,3.203125,170.216875,TRUE,-30.211212,-0.618668,0.000000,0.087479,-0.199753,0.000000,-0.135000,-0.251000,0.011000,-0.760000,-0.600000,1.760000,0.063674,Hold,0.943115,0.000000,Hold,-69703.000000,69632.000000,HighGoal,3187.500000,-3272.727273,Speed,3232.500000,-3272.727273,Speed,Off,Off0.000000,0,,,,
11:48:22.523 AM 03/20/2016,Teleop Enabled,10,FALSE,0,NO ERROR,0.196850,-2.386994,-0.196850,2.515327,TRUE,FALSE,TRUE,FALSE,FALSE,FALSE,Disabled,-0.071875,3.203125,170.216875,TRUE,-30.206833,-0.634628,0.000000,0.065659,-0.274078,0.000000,-0.090000,-0.042000,0.256000,-0.760000,-0.600000,1.760000,-7.038455,Hold,0.943115,0.000000,Hold,-69702.000000,69632.000000,HighGoal,3187.500000,-3272.727273,Speed,3180.000000,-3272.727273,Speed,Off,Off0.000000,0,,,,
11:48:22.623 AM 03/20/2016,Teleop Enabled,10,FALSE,0,NO ERROR,-0.000000,-3.458575,0.000000,3.497075,TRUE,FALSE,TRUE,FALSE,FALSE,FALSE,Disabled,-0.071875,3.203125,170.216875,TRUE,-30.201233,-0.642990,0.000000,0.184555,-0.150909,0.000000,0.155000,0.137000,0.000000,-8.220000,-0.830000,1.510000,-13.854981,Hold,0.943115,0.000000,Hold,-69702.000000,69632.000000,HighGoal,3172.500000,-3272.727273,Speed,3165.000000,-3272.727273,Speed,Off,Off0.000000,0,,,,
11:48:22.723 AM 03/20/2016,Teleop Enabled,10,FALSE,0,NO ERROR,-0.000000,-3.651075,0.000000,3.708825,TRUE,FALSE,TRUE,FALSE,FALSE,FALSE,Disabled,-0.071875,3.203125,170.216875,TRUE,-30.186478,-0.647934,0.000000,0.273727,-0.075455,0.000000,0.000000,0.125000,-0.067000,-15.950000,0.250000,2.410000,-15.532302,Hold,0.943115,0.000000,Hold,-69702.000000,69632.000000,HighGoal,3187.500000,-3272.727273,Speed,3210.000000,-3272.727273,Speed,Off,Off0.000000,0,,,,
11:48:22.823 AM 03/20/2016,Teleop Enabled,11,FALSE,0,NO ERROR,-0.000000,-3.638241,0.000000,3.631825,TRUE,FALSE,TRUE,FALSE,FALSE,FALSE,Disabled,-0.071875,3.203125,170.216875,TRUE,-30.175323,-0.648499,0.000000,0.207199,0.002045,0.000000,0.000000,0.125000,-0.067000,-15.950000,0.250000,2.410000,-15.109494,Hold,0.943115,0.000000,Hold,-69702.000000,69632.000000,HighGoal,3217.500000,-3272.727273,Speed,3255.000000,-3272.727273,Speed,Off,Off0.000000,0,,,,
11:48:22.923 AM 03/20/2016,Teleop Enabled,11,FALSE,0,NO ERROR,-0.000000,-3.625408,0.000000,3.631825,TRUE,FALSE,TRUE,FALSE,FALSE,FALSE,Disabled,-0.071875,3.203125,170.216875,TRUE,-30.162979,-0.651077,0.000000,0.257156,-0.082016,0.000000,-0.140000,-0.213000,-0.180000,-15.530000,0.330000,2.530000,-15.094915,Hold,0.943115,0.000000,Hold,-69702.000000,69632.000000,HighGoal,3240.000000,-3272.727273,Speed,3240.000000,-3272.727273,Speed,Off,Off0.000000,0,,,,
11:48:23.024 AM 03/20/2016,Teleop Enabled,10,FALSE,0,NO ERROR,-0.000000,-3.631825,0.000000,3.631825,TRUE,FALSE,TRUE,FALSE,FALSE,FALSE,Disabled,-0.071875,3.203125,170.216875,TRUE,-30.151260,-0.655029,0.000000,0.214432,-0.057144,0.000000,-0.140000,-0.213000,-0.180000,-15.530000,0.330000,2.530000,-15.144557,Hold,0.943115,0.000000,Hold,-69702.000000,69632.000000,HighGoal,3217.500000,-3272.727273,Speed,3225.000000,-3272.727273,Speed,Off,Off0.000000,0,,,,
11:48:23.125 AM 03/20/2016,Teleop Enabled,11,FALSE,0,NO ERROR,-0.000000,-3.631825,0.000000,3.631825,TRUE,FALSE,TRUE,FALSE,FALSE,FALSE,Disabled,-0.071875,3.203125,170.216875,TRUE,-30.140808,-0.655640,0.000000,0.225815,0.003967,0.000000,-0.211000,-0.105000,-0.090000,-15.580000,0.210000,2.430000,-15.120796,Hold,0.943115,0.000000,Hold,-69702.000000,69632.000000,HighGoal,3217.500000,-3272.727273,Speed,3232.500000,-3272.727273,Speed,Off,Off0.000000,0,,,,
11:48:23.226 AM 03/20/2016,Teleop Enabled,10,FALSE,0,NO ERROR,0.000000,-3.631825,-0.000000,3.631825,TRUE,FALSE,TRUE,TRUE,TRUE,FALSE,Disabled,-0.071875,3.203125,170.216875,TRUE,-30.127548,-0.657837,0.000000,0.284836,-0.084305,0.000000,0.149000,0.086000,0.192000,-15.550000,0.210000,2.490000,-15.124772,Hold,0.943115,0.000000,Hold,-69702.000000,69632.000000,HighGoal,3217.500000,-3272.727273,Speed,3232.500000,-3272.727273,Speed,Off,Off0.000000,0,,,,
11:48:23.326 AM 03/20/2016,Teleop Enabled,10,FALSE,0,NO ERROR,0.000000,-3.631825,-0.000000,3.631825,TRUE,FALSE,TRUE,TRUE,TRUE,FALSE,Disabled,-0.071875,3.203125,170.216875,TRUE,-30.114990,-0.660446,0.000000,0.241776,-0.026260,0.000000,-0.100000,-0.047000,0.126000,-15.550000,0.250000,2.460000,-15.136009,Hold,0.943115,0.000000,Hold,-69702.000000,69632.000000,HighGoal,3217.500000,-3272.727273,Speed,3247.500000,-3272.727273,Speed,Off,Off0.000000,0,,,,
11:48:23.426 AM 03/20/2016,Teleop Enabled,10,FALSE,0,NO ERROR,0.000000,-3.631825,-0.000000,3.631825,TRUE,FALSE,TRUE,TRUE,TRUE,FALSE,Disabled,-0.071875,3.203125,170.216875,TRUE,-30.101562,-0.663116,0.000000,0.282272,-0.089905,0.000000,0.050000,-0.021000,0.005000,-15.550000,0.190000,2.500000,-15.148072,Hold,0.943115,0.000000,Hold,-69702.000000,69632.000000,HighGoal,3225.000000,-3272.727273,Speed,3255.000000,-3272.727273,Speed,Off,Off0.000000,0,,,,
11:48:23.528 AM 03/20/2016,Teleop Enabled,11,FALSE,0,NO ERROR,0.000000,-3.631825,-0.000000,3.631825,TRUE,FALSE,TRUE,TRUE,TRUE,FALSE,Disabled,-0.071875,3.203125,170.216875,TRUE,-30.102875,-0.666901,0.000000,-0.060211,-0.035950,0.000000,-0.007000,0.020000,0.272000,-15.550000,0.190000,2.500000,-15.158953,Hold,0.943115,0.000000,Hold,-69701.000000,69632.000000,HighGoal,3217.500000,-3272.727273,Speed,3247.500000,-3272.727273,Speed,Off,Off0.000000,0,,,,
11:48:23.629 AM 03/20/2016,Teleop Enabled,10,FALSE,0,NO ERROR,0.000000,-3.631825,-0.000000,3.631825,TRUE,FALSE,TRUE,TRUE,TRUE,FALSE,Enable,0.550000,-22.550000,7.000000,TRUE,-30.106583,-0.666245,0.000000,-0.065765,0.030045,0.000000,-0.081000,0.000000,-0.182000,-15.550000,0.180000,2.530000,-15.162441,Hold,0.943115,0.000000,Hold,-69701.000000,69632.000000,HighGoal,3225.000000,-3272.727273,Speed,3232.500000,-3272.727273,Speed,Off,Off0.000000,0,,,,
11:48:23.729 AM 03/20/2016,Teleop Enabled,11,FALSE,0,NO ERROR,-0.535641,-3.118493,-0.535641,2.983743,TRUE,FALSE,TRUE,TRUE,TRUE,FALSE,PID,0.550000,-22.550000,7.000000,TRUE,-30.106583,-0.666245,0.000000,-0.065765,0.030045,0.000000,0.064000,-0.039000,0.163000,-15.550000,0.190000,2.490000,-14.757338,Hold,0.943115,0.000000,Hold,-69701.000000,69632.000000,HighGoal,3217.500000,-3272.727273,Speed,3247.500000,-3272.727273,Speed,Off,Off0.000000,0,,,,
11:48:23.830 AM 03/20/2016,Teleop Enabled,10,FALSE,0,NO ERROR,-0.510689,-1.681163,-0.510689,1.154997,TRUE,FALSE,TRUE,TRUE,TRUE,FALSE,PID,0.550000,-22.550000,7.000000,TRUE,-30.107986,-0.667160,0.000000,0.034729,0.054596,0.000000,-0.355000,0.410000,0.320000,-15.050000,1.190000,2.560000,-9.018673,Hold,0.943115,0.000000,Hold,-69701.000000,69632.000000,HighGoal,3225.000000,-3272.727273,Speed,3240.000000,-3272.727273,Speed,Off,Off0.000000,0,,,,
11:48:23.932 AM 03/20/2016,Teleop Enabled,10,FALSE,0,NO ERROR,-0.390938,0.404249,-0.390938,-1.315414,FALSE,FALSE,TRUE,TRUE,TRUE,FALSE,PID,0.550000,-22.550000,7.000000,TRUE,-30.109100,-0.661621,0.000000,-0.027328,0.215363,0.000000,0.301000,-0.092000,0.022000,-8.740000,1.160000,3.690000,-0.102681,Hold,0.943115,0.000000,Hold,-69713.000000,69632.000000,HighGoal,3142.500000,-3272.727273,Speed,3157.500000,-3272.727273,Speed,Off,Off0.000000,0,,,,
11:48:24.033 AM 03/20/2016,Teleop Enabled,10,FALSE,0,NO ERROR,-0.258572,2.399828,-0.258572,-3.618992,FALSE,FALSE,TRUE,TRUE,TRUE,FALSE,PID,0.550000,-22.550000,7.000000,TRUE,-30.106644,-0.650330,0.000000,0.041153,0.165314,0.000000,0.150000,-0.198000,-0.204000,0.490000,1.110000,3.830000,8.930664,Hold,0.943115,0.000000,Hold,-69713.000000,69632.000000,HighGoal,3127.500000,-3272.727273,Speed,3142.500000,-3272.727273,Speed,Off,Off0.000000,0,,,,
11:48:24.133 AM 03/20/2016,Teleop Enabled,10,FALSE,0,NO ERROR,0.253135,3.208326,0.253135,-4.613573,FALSE,FALSE,TRUE,TRUE,TRUE,FALSE,PID,0.550000,-22.550000,7.000000,TRUE,-30.104401,-0.645844,0.000000,0.031784,0.068008,0.000000,-0.165000,-0.140000,-0.130000,9.730000,0.690000,3.760000,15.762406,Hold,0.942383,0.000000,Hold,-69713.000000,69632.000000,HighGoal,3180.000000,-3272.727273,Speed,3195.000000,-3272.727273,Speed,Off,Off0.000000,0,,,,
11:48:24.233 AM 03/20/2016,Teleop Enabled,10,FALSE,0,NO ERROR,0.334807,2.714244,0.334807,-4.138740,FALSE,FALSE,TRUE,TRUE,TRUE,FALSE,PID,0.550000,-22.550000,7.000000,TRUE,-30.104813,-0.647232,0.000000,-0.066559,-0.036682,0.000000,-0.305000,0.064000,0.095000,16.590000,0.090000,3.190000,15.762406,Hold,0.941895,0.000000,Hold,-69704.000000,69632.000000,HighGoal,3217.500000,-3272.727273,Speed,3232.500000,-3272.727273,Speed,Off,Off0.000000,0,,,,
11:48:24.333 AM 03/20/2016,Teleop Enabled,10,FALSE,0,NO ERROR,0.303877,2.714244,0.303877,-4.138740,TRUE,FALSE,TRUE,TRUE,TRUE,FALSE,PID,0.550000,-22.550000,7.000000,TRUE,-30.115982,-0.649979,0.000000,-0.294464,-0.056366,0.000000,-0.164000,-0.144000,0.044000,15.850000,-0.950000,2.130000,14.768922,Hold,0.942627,0.000000,Hold,-69704.000000,69632.000000,HighGoal,3225.000000,-3272.727273,Speed,3210.000000,-3272.727273,Speed,Off,Off0.000000,0,,,,
11:48:24.436 AM 03/20/2016,Teleop Enabled,10,FALSE,0,NO ERROR,0.245273,1.700413,0.245273,-2.977326,TRUE,FALSE,TRUE,TRUE,TRUE,FALSE,PID,0.550000,-22.550000,7.000000,TRUE,-30.131210,-0.655273,0.000000,-0.276764,-0.086395,0.000000,0.036000,0.054000,0.046000,11.470000,-0.980000,2.240000,10.445059,Hold,0.942627,0.000000,Hold,-69702.000000,69632.000000,HighGoal,3195.000000,-3272.727273,Speed,3202.500000,-3272.727273,Speed,Off,Off0.000000,0,,,,
11:48:24.536 AM 03/20/2016,Teleop Enabled,9,FALSE,0,NO ERROR,-0.208849,0.725082,-0.208849,-1.969912,TRUE,FALSE,TRUE,TRUE,TRUE,FALSE,PID,-0.193750,-22.550000,7.000000,TRUE,-30.143570,-0.659927,0.000000,-0.221786,-0.082535,0.000000,0.128000,0.099000,0.001000,7.170000,-0.770000,2.140000,6.376010,Hold,0.942627,0.000000,Hold,-69702.000000,69632.000000,HighGoal,3187.500000,-3272.727273,Speed,3210.000000,-3272.727273,Speed,Off,Off0.000000,0,,,,
11:48:24.636 AM 03/20/2016,Teleop Enabled,10,FALSE,0,NO ERROR,0.000000,0.725082,-0.000000,-1.950662,TRUE,FALSE,TRUE,TRUE,TRUE,FALSE,Enable,-0.193750,7.943750,-3.663750,TRUE,-30.152649,-0.661469,0.000000,-0.112762,-0.010925,0.000000,-0.085000,-0.112000,0.167000,4.280000,-0.050000,2.630000,4.160142,Hold,0.942627,0.000000,Hold,-69702.000000,69632.000000,HighGoal,3202.500000,-3272.727273,Speed,3225.000000,-3272.727273,Speed,Off,Off0.000000,0,,,,
11:48:24.737 AM 03/20/2016,Teleop Enabled,10,FALSE,0,NO ERROR,0.324668,0.898331,0.324668,-2.284328,TRUE,FALSE,TRUE,TRUE,TRUE,FALSE,PID,-0.193750,7.943750,-3.663750,TRUE,-30.155884,-0.662369,0.000000,-0.080521,-0.034637,0.000000,-0.133000,-0.036000,0.000000,5.920000,-0.060000,2.770000,5.704250,Hold,0.942627,0.000000,Hold,-69702.000000,69632.000000,HighGoal,3217.500000,-3272.727273,Speed,3240.000000,-3272.727273,Speed,Off,Off0.000000,0,,,,
11:48:24.837 AM 03/20/2016,Teleop Enabled,9,FALSE,0,NO ERROR,0.311695,0.282333,0.311695,-1.578496,TRUE,FALSE,TRUE,TRUE,TRUE,FALSE,PID,-0.193750,7.943750,-3.663750,TRUE,-30.163513,-0.665695,0.000000,-0.200500,-0.105591,0.000000,-0.175000,-0.073000,-0.112000,5.000000,-0.590000,2.220000,4.885940,Hold,0.942627,0.000000,Hold,-69702.000000,69632.000000,HighGoal,3225.000000,-3272.727273,Speed,3225.000000,-3272.727273,Speed,Off,Off0.000000,0,,,,
11:48:24.937 AM 03/20/2016,Teleop Enabled,10,FALSE,0,NO ERROR,-0.000000,-0.519749,0.000000,-0.641665,TRUE,FALSE,TRUE,FALSE,FALSE,FALSE,PID,-0.193750,7.943750,-3.663750,TRUE,-30.174210,-0.675323,0.000000,-0.204697,-0.217133,0.000000,0.100000,0.050000,-0.099000,1.450000,-0.700000,2.090000,1.459142,Hold,0.942627,0.000000,Hold,-69702.000000,69632.000000,HighGoal,3195.000000,-3272.727273,Speed,3202.500000,-3272.727273,Speed,Off,Off0.000000,0,,,,
11:48:25.037 AM 03/20/2016,Teleop Enabled,10,FALSE,0,NO ERROR,-0.000000,-1.122914,0.000000,0.211750,TRUE,FALSE,TRUE,FALSE,FALSE,FALSE,Suspended,-0.193750,7.943750,-3.663750,TRUE,-30.186203,-0.687973,0.000000,-0.205780,-0.177383,0.000000,0.070000,0.271000,-0.087000,-2.390000,-0.590000,2.060000,-2.279393,Hold,0.942627,0.000000,Hold,-69702.000000,69632.000000,HighGoal,3187.500000,-3272.727273,Speed,3202.500000,-3272.727273,Speed,Off,Off0.000000,0,,,,
11:48:25.137 AM 03/20/2016,Teleop Enabled,10,FALSE,0,NO ERROR,-0.000000,-1.161414,0.000000,0.295166,TRUE,FALSE,TRUE,FALSE,FALSE,FALSE,Suspended,-0.193750,7.943750,-3.663750,TRUE,-30.192368,-0.691925,0.000000,-0.070236,-0.033157,0.000000,-0.042000,0.020000,-0.059000,-3.470000,0.090000,2.590000,-3.393447,Hold,0.942627,0.000000,Hold,-69702.000000,69632.000000,HighGoal,3217.500000,-3272.727273,Speed,3255.000000,-3272.727273,Speed,Off,Off0.000000,0,,,,
11:48:25.238 AM 03/20/2016,Teleop Enabled,10,FALSE,0,NO ERROR,-0.000000,-1.020248,0.000000,0.275916,TRUE,FALSE,TRUE,FALSE,FALSE,FALSE,Suspended,-0.193750,7.943750,-3.663750,TRUE,-30.196762,-0.694687,0.000000,-0.103119,-0.071335,0.000000,-0.258000,-0.106000,-0.195000,-2.840000,-0.010000,2.560000,-2.796331,Hold,0.942627,0.000000,Hold,-69702.000000,69632.000000,HighGoal,3232.500000,-3272.727273,Speed,3270.000000,-3272.727273,Speed,Off,Off0.000000,0,,,,
11:48:25.339 AM 03/20/2016,Teleop Enabled,10,FALSE,0,NO ERROR,-0.000000,-1.013831,0.000000,0.275916,TRUE,FALSE,TRUE,FALSE,FALSE,FALSE,Suspended,-0.193750,7.943750,-3.663750,TRUE,-30.202301,-0.699081,0.000000,-0.105499,-0.102737,0.000000,0.150000,0.194000,0.175000,-2.860000,0.060000,2.550000,-2.816367,Hold,0.942627,0.000000,Hold,-69702.000000,69632.000000,HighGoal,3232.500000,-3272.727273,Speed,3240.000000,-3272.727273,Speed,Off,Off0.000000,0,,,,
11:48:25.439 AM 03/20/2016,Teleop Enabled,14,FALSE,0,NO ERROR,-0.000000,-1.013831,0.000000,0.275916,TRUE,FALSE,TRUE,FALSE,FALSE,FALSE,Suspended,-0.193750,7.943750,-3.663750,TRUE,-30.207443,-0.703934,0.000000,-0.097946,-0.092285,0.000000,-0.146000,-0.053000,0.133000,-2.890000,0.010000,2.540000,-2.849750,Hold,0.942627,0.000000,Hold,-69702.000000,69632.000000,HighGoal,3225.000000,-3272.727273,Speed,3225.000000,-3272.727273,Speed,Off,Off0.000000,0,,,,
11:48:25.539 AM 03/20/2016,Teleop Enabled,10,FALSE,0,NO ERROR,-0.000000,-1.013831,0.000000,0.275916,TRUE,FALSE,TRUE,FALSE,FALSE,FALSE,Disabled,0.221875,7.943750,-3.663750,TRUE,-30.212341,-0.707428,0.000000,-0.101456,-0.060104,0.000000,0.048000,0.132000,-0.051000,-2.890000,0.030000,2.580000,-2.866715,Hold,0.942627,0.000000,Hold,-69701.000000,69632.000000,HighGoal,3225.000000,-3272.727273,Speed,3247.500000,-3272.727273,Speed,Off,Off0.000000,0,,,,
11:48:25.640 AM 03/20/2016,Teleop Enabled,10,FALSE,0,NO ERROR,-0.000000,-1.013831,0.000000,0.275916,TRUE,FALSE,TRUE,FALSE,FALSE,FALSE,Disabled,0.221875,7.943750,-3.663750,TRUE,-30.215469,-0.710297,0.000000,0.000000,-0.055084,0.000000,-0.002000,0.013000,0.127000,-2.880000,0.010000,2.560000,-2.823073,Hold,0.942627,0.000000,Hold,-69701.000000,69632.000000,HighGoal,3225.000000,-3272.727273,Speed,3262.500000,-3272.727273,Speed,Off,Off0.000000,0,,,,
11:48:25.740 AM 03/20/2016,Teleop Enabled,10,FALSE,0,NO ERROR,-0.000000,-1.013831,0.000000,0.275916,TRUE,FALSE,TRUE,FALSE,FALSE,FALSE,Disabled,0.221875,7.943750,-3.663750,TRUE,-30.215210,-0.712723,0.000000,0.007324,-0.042099,0.000000,0.094000,-0.013000,0.076000,-2.880000,0.020000,2.550000,-2.839319,Hold,0.942627,0.000000,Hold,-69701.000000,69632.000000,HighGoal,3232.500000,-3272.727273,Speed,3247.500000,-3272.727273,Speed,Off,Off0.000000,0,,,,
11:48:25.840 AM 03/20/2016,Teleop Enabled,11,FALSE,0,NO ERROR,-0.000000,-1.013831,0.000000,0.275916,TRUE,FALSE,TRUE,FALSE,FALSE,FALSE,Disabled,0.221875,7.943750,-3.663750,TRUE,-30.215408,-0.716019,0.000000,-0.006622,-0.092194,0.000000,-0.197000,-0.062000,-0.091000,-2.880000,0.040000,2.550000,-2.839288,Hold,0.942627,0.000000,Hold,-69701.000000,69632.000000,HighGoal,3232.500000,-3272.727273,Speed,3240.000000,-3272.727273,Speed,Off,Off0.000000,0,,,,
11:48:25.940 AM 03/20/2016,Teleop Enabled,10,FALSE,0,NO ERROR,-0.000000,-1.013831,0.000000,0.275916,TRUE,FALSE,TRUE,FALSE,FALSE,FALSE,Disabled,0.221875,7.943750,-3.663750,TRUE,-30.216888,-0.720612,0.000000,-0.031799,-0.048080,0.000000,0.155000,0.273000,0.045000,-2.880000,0.000000,2.540000,-2.854638,Hold,0.942627,0.000000,Hold,-69701.000000,69632.000000,HighGoal,3225.000000,-3272.727273,Speed,3232.500000,-3272.727273,Speed,Off,Off0.000000,0,,,,
11:48:26.041 AM 03/20/2016,Teleop Enabled,8,FALSE,0,NO ERROR,-0.000000,-1.013831,0.000000,0.275916,TRUE,FALSE,TRUE,FALSE,FALSE,FALSE,Disabled,0.221875,7.943750,-3.663750,TRUE,-30.218079,-0.722427,0.000000,-0.003799,-0.055435,0.000000,0.235000,0.063000,0.128000,-2.880000,0.040000,2.580000,-2.858222,Hold,0.942627,0.000000,Hold,-69701.000000,69632.000000,HighGoal,3240.000000,-3272.727273,Speed,3247.500000,-3272.727273,Speed,Off,Off0.000000,0,,,,
11:48:26.141 AM 03/20/2016,Teleop Enabled,10,FALSE,0,NO ERROR,-0.000000,-1.013831,0.000000,0.275916,TRUE,FALSE,TRUE,FALSE,FALSE,FALSE,Disabled,0.221875,7.943750,-3.663750,TRUE,-30.216812,-0.726044,0.000000,0.035583,-0.060486,0.000000,-0.174000,0.000000,-0.139000,-2.880000,0.010000,2.510000,-2.865840,Hold,0.942627,0.000000,Hold,-69701.000000,69632.000000,HighGoal,3270.000000,-3272.727273,Speed,3262.500000,-3272.727273,Speed,Off,Off0.000000,0,,,,
11:48:26.241 AM 03/20/2016,Teleop Enabled,10,FALSE,0,NO ERROR,-0.000000,-1.013831,0.000000,0.275916,TRUE,FALSE,TRUE,FALSE,FALSE,FALSE,Disabled,0.221875,7.943750,-3.663750,TRUE,-30.214005,-0.727585,0.000000,0.086609,-0.037628,0.000000,-0.013000,-0.162000,-0.021000,-2.880000,0.060000,2.570000,-2.874433,Hold,0.942627,0.000000,Hold,-69701.000000,69632.000000,HighGoal,3247.500000,-3272.727273,Speed,3255.000000,-3272.727273,Speed,Off,Off0.000000,0,,,,
11:48:26.341 AM 03/20/2016,Teleop Enabled,10,FALSE,0,NO ERROR,-0.000000,-1.013831,0.000000,0.275916,TRUE,FALSE,TRUE,FALSE,FALSE,FALSE,Disabled,0.221875,7.943750,-3.663750,TRUE,-30.208405,-0.730453,0.000000,0.116531,-0.052994,0.000000,0.067000,0.184000,0.049000,-2.880000,0.070000,2.530000,-2.898183,Hold,0.942627,0.000000,Hold,-69701.000000,69632.000000,HighGoal,3232.500000,-3272.727273,Speed,3247.500000,-3272.727273,Speed,Off,Off0.000000,0,,,,
11:48:26.441 AM 03/20/2016,Teleop Enabled,10,FALSE,0,NO ERROR,-0.000000,-1.013831,0.000000,0.275916,TRUE,FALSE,TRUE,FALSE,FALSE,FALSE,Disabled,0.221875,7.943750,-3.663750,TRUE,-30.202515,-0.731827,0.000000,0.117813,-0.024689,0.000000,-0.058000,-0.120000,0.049000,-2.880000,0.060000,2.590000,-2.909127,Hold,0.942627,0.000000,Hold,-69701.000000,69632.000000,HighGoal,3240.000000,-3272.727273,Speed,3255.000000,-3272.727273,Speed,Off,Off0.000000,0,,,,
11:48:26.542 AM 03/20/2016,Teleop Enabled,10,FALSE,0,NO ERROR,-0.000000,-1.013831,0.000000,0.275916,TRUE,FALSE,TRUE,FALSE,FALSE,FALSE,Disabled,0.221875,7.943750,-3.663750,TRUE,-30.198715,-0.735123,0.000000,-0.005844,-0.092682,0.000000,-0.025000,-0.079000,0.046000,-2.870000,0.050000,2.530000,-2.920969,Hold,0.942627,0.000000,Hold,-69701.000000,69632.000000,HighGoal,3247.500000,-3272.727273,Speed,3255.000000,-3272.727273,Speed,Off,Off0.000000,0,,,,
11:48:26.643 AM 03/20/2016,Teleop Enabled,10,FALSE,0,NO ERROR,-0.000000,-1.013831,0.000000,0.275916,TRUE,FALSE,TRUE,FALSE,FALSE,FALSE,Disabled,0.221875,7.943750,-3.663750,TRUE,-30.199570,-0.738861,0.000000,-0.024277,-0.081543,0.000000,-0.027000,0.095000,0.128000,-2.870000,0.050000,2.530000,-2.919909,Hold,0.942627,51.000000,Hold,-69701.000000,143360.000000,HighGoal,3225.000000,-3272.727273,Speed,3255.000000,-3272.727273,Speed,Off,Off0.000000,0,,,,
11:48:26.743 AM 03/20/2016,Teleop Enabled,10,FALSE,0,NO ERROR,-0.000000,-1.013831,0.000000,0.275916,TRUE,FALSE,TRUE,FALSE,FALSE,FALSE,Disabled,0.221875,7.943750,-3.663750,TRUE,-30.201385,-0.741501,0.000000,-0.040649,-0.046799,0.000000,-0.059000,-0.072000,-0.066000,-2.870000,0.060000,2.570000,-2.922518,Hold,3.482178,51.000000,Hold,-69701.000000,143360.000000,HighGoal,3202.500000,-3272.727273,Speed,3247.500000,-3272.727273,Speed,Off,Off0.000000,0,,,,
11:48:26.843 AM 03/20/2016,Teleop Enabled,9,FALSE,0,NO ERROR,-0.000000,-0.917581,0.000000,0.282333,TRUE,FALSE,TRUE,FALSE,FALSE,FALSE,Disabled,0.221875,7.943750,-3.663750,TRUE,-30.204254,-0.746078,0.000000,-0.041992,-0.100266,0.000000,-0.076000,-0.087000,-0.189000,-2.780000,0.230000,2.670000,-2.908473,Hold,6.357422,51.000000,Hold,-78265.000000,143360.000000,HighGoal,3232.500000,-3272.727273,Speed,3255.000000,-3272.727273,Speed,Off,Off0.000000,0,,,,
11:48:26.944 AM 03/20/2016,Teleop Enabled,10,FALSE,0,NO ERROR,-0.000000,-0.866248,0.000000,0.288749,TRUE,FALSE,TRUE,FALSE,FALSE,FALSE,Disabled,0.221875,7.943750,-3.663750,TRUE,-30.207596,-0.751144,0.000000,-0.095795,-0.097137,0.000000,0.018000,-0.117000,0.022000,-2.620000,0.020000,2.620000,-2.739295,Hold,10.621094,51.000000,Hold,-92631.000000,143360.000000,HighGoal,3232.500000,-3272.727273,Speed,3262.500000,-3272.727273,Speed,Off,Off0.000000,0,,,,
11:48:27.044 AM 03/20/2016,Teleop Enabled,10,FALSE,0,NO ERROR,-0.000000,-0.866248,0.000000,0.288749,TRUE,FALSE,TRUE,FALSE,FALSE,FALSE,Disabled,0.221875,7.943750,-3.663750,TRUE,-30.212997,-0.758438,0.000000,-0.111420,-0.164444,0.000000,0.120000,-0.139000,0.032000,-2.780000,0.050000,2.600000,-2.890451,Hold,15.806396,51.000000,Hold,-109439.000000,143360.000000,HighGoal,3225.000000,-3272.727273,Speed,3255.000000,-3272.727273,Speed,Off,Off0.000000,0,,,,
11:48:27.144 AM 03/20/2016,Teleop Enabled,10,FALSE,0,NO ERROR,-0.000000,-0.866248,0.000000,0.288749,TRUE,FALSE,TRUE,FALSE,FALSE,FALSE,Disabled,0.221875,7.943750,-3.663750,TRUE,-30.219879,-0.766663,0.000000,-0.158798,-0.145859,0.000000,-0.065000,0.208000,0.024000,-2.690000,-0.090000,2.510000,-2.819397,Hold,21.943359,51.000000,Hold,-126724.000000,143360.000000,HighGoal,3217.500000,-3272.727273,Speed,3255.000000,-3272.727273,Speed,Off,Off0.000000,0,,,,
11:48:27.244 AM 03/20/2016,Teleop Enabled,10,FALSE,0,NO ERROR,-0.000000,-0.866248,0.000000,0.288749,TRUE,FALSE,TRUE,FALSE,FALSE,FALSE,Disabled,0.221875,7.943750,-3.663750,TRUE,-30.226196,-0.773285,0.000000,-0.109787,-0.143280,0.000000,0.168000,-0.170000,-0.097000,-2.690000,-0.090000,2.590000,-2.834730,Hold,21.943359,51.000000,Hold,-144069.000000,143360.000000,HighGoal,3225.000000,-3272.727273,Speed,3255.000000,-3272.727273,Speed,Off,Off0.000000,0,,,,
11:48:27.345 AM 03/20/2016,Teleop Enabled,9,FALSE,0,NO ERROR,-0.000000,-0.866248,0.000000,0.288749,TRUE,FALSE,TRUE,FALSE,FALSE,FALSE,Disabled,0.221875,7.943750,-3.663750,TRUE,-30.231995,-0.781555,0.000000,-0.141449,-0.149811,0.000000,0.058000,-0.257000,-0.080000,-2.680000,-0.340000,2.600000,-2.818415,Hold,29.161133,51.000000,Hold,-144069.000000,143360.000000,HighGoal,3262.500000,-3272.727273,Speed,3255.000000,-3272.727273,Speed,Off,Off0.000000,0,,,,
11:48:27.446 AM 03/20/2016,Teleop Enabled,11,FALSE,0,NO ERROR,-0.000000,-0.879081,0.000000,0.282333,TRUE,FALSE,TRUE,FALSE,FALSE,FALSE,Disabled,0.221875,7.943750,-3.663750,TRUE,-30.239670,-0.789322,0.000000,-0.163559,-0.149765,0.000000,-0.160000,0.025000,0.028000,-2.760000,-0.070000,2.630000,-2.906214,Hold,37.304443,51.000000,Hold,-143732.000000,143360.000000,HighGoal,3255.000000,-3272.727273,Speed,3240.000000,-3272.727273,Speed,Off,Off0.000000,0,,,,
11:48:27.547 AM 03/20/2016,Teleop Enabled,10,FALSE,0,NO ERROR,-0.000000,-0.930414,0.000000,0.083416,TRUE,FALSE,TRUE,FALSE,FALSE,FALSE,Disabled,0.221875,7.943750,-3.663750,TRUE,-30.248993,-0.797073,0.000000,-0.193512,-0.150116,0.000000,0.224000,0.101000,-0.053000,-2.660000,-0.780000,2.570000,-2.842300,Hold,48.270020,51.000000,Hold,-143642.000000,143360.000000,HighGoal,3255.000000,-3272.727273,Speed,3255.000000,-3272.727273,Speed,Off,Off0.000000,0,,,,
11:48:27.648 AM 03/20/2016,Teleop Enabled,10,FALSE,0,NO ERROR,-0.000000,-1.116497,0.000000,-0.109083,TRUE,FALSE,TRUE,FALSE,FALSE,FALSE,Disabled,0.221875,7.943750,-3.663750,TRUE,-30.256592,-0.803482,0.000000,-0.162094,-0.146347,0.000000,-0.234000,-0.160000,0.067000,-2.270000,-0.620000,2.580000,-2.450647,Hold,55.061279,51.000000,HighGoal,-143454.000000,69632.000000,HighGoal,3232.500000,-3272.727273,Speed,3240.000000,-3272.727273,Speed,Off,Off0.000000,0,,,,
11:48:27.752 AM 03/20/2016,Teleop Enabled,11,FALSE,0,NO ERROR,-0.000000,-1.129331,0.000000,-0.102666,TRUE,FALSE,TRUE,FALSE,FALSE,FALSE,Disabled,0.221875,7.943750,-3.663750,TRUE,-30.268295,-0.813431,0.000000,-0.239090,-0.226212,0.000000,0.091000,0.163000,0.142000,-2.590000,-0.770000,2.500000,-2.730565,Hold,57.734863,51.000000,Hold,-141763.000000,69632.000000,HighGoal,3217.500000,-3272.727273,Speed,3240.000000,-3272.727273,Speed,Off,Off0.000000,0,,,,
11:48:27.850 AM 03/20/2016,Teleop Enabled,10,FALSE,0,NO ERROR,-0.000000,-1.129331,0.000000,-0.102666,TRUE,FALSE,TRUE,FALSE,FALSE,FALSE,Disabled,0.221875,7.943750,-3.663750,TRUE,-30.278687,-0.823853,0.000000,-0.197311,-0.185501,0.000000,0.059000,-0.082000,-0.095000,-2.500000,-0.590000,2.630000,-2.719538,Hold,57.087646,51.000000,Hold,-134308.000000,69632.000000,HighGoal,3225.000000,-3272.727273,Speed,3232.500000,-3272.727273,Speed,Off,Off0.000000,0,,,,
11:48:27.951 AM 03/20/2016,Teleop Enabled,10,FALSE,0,NO ERROR,-0.000000,-1.097247,0.000000,-0.083416,TRUE,FALSE,TRUE,FALSE,FALSE,FALSE,Disabled,0.221875,7.943750,-3.663750,TRUE,-30.287567,-0.833298,0.000000,-0.150665,-0.206329,0.000000,-0.128000,0.033000,-0.046000,-2.360000,-0.470000,2.510000,-2.575247,Hold,56.545166,51.000000,Hold,-126074.000000,69632.000000,HighGoal,3225.000000,-3272.727273,Speed,3240.000000,-3272.727273,Speed,Off,Off0.000000,0,,,,
11:48:28.053 AM 03/20/2016,Teleop Enabled,10,FALSE,0,NO ERROR,-0.000000,-1.097247,0.000000,-0.077000,TRUE,FALSE,TRUE,FALSE,FALSE,FALSE,Disabled,0.221875,7.943750,-3.663750,TRUE,-30.295410,-0.844940,0.000000,-0.173218,-0.241730,0.000000,0.288000,0.026000,0.056000,-2.420000,-0.480000,2.500000,-2.628035,Hold,56.432861,51.000000,Hold,-126074.000000,69632.000000,HighGoal,3225.000000,-3272.727273,Speed,3247.500000,-3272.727273,Speed,Off,Off0.000000,0,,,,
11:48:28.153 AM 03/20/2016,Teleop Enabled,10,FALSE,0,NO ERROR,-0.000000,-1.097247,0.000000,-0.077000,TRUE,FALSE,TRUE,FALSE,FALSE,FALSE,Disabled,0.221875,7.943750,-3.663750,TRUE,-30.305527,-0.857605,0.000000,-0.166779,-0.202621,0.000000,-0.237000,-0.187000,-0.017000,-2.430000,-0.440000,2.510000,-2.641396,Hold,56.432861,51.000000,Hold,-126074.000000,69632.000000,HighGoal,3225.000000,-3272.727273,Speed,3247.500000,-3272.727273,Speed,Off,Off0.000000,0,,,,
11:48:28.253 AM 03/20/2016,Teleop Enabled,9,FALSE,0,NO ERROR,-0.000000,-1.097247,0.000000,-0.077000,TRUE,FALSE,TRUE,FALSE,FALSE,FALSE,Disabled,0.221875,7.943750,-3.663750,TRUE,-30.312225,-0.866180,0.000000,-0.167770,-0.213852,0.000000,0.236000,0.138000,0.070000,-2.430000,-0.460000,2.510000,-2.631436,Hold,56.432617,51.000000,Hold,-117516.000000,69632.000000,HighGoal,3217.500000,-3272.727273,Speed,3240.000000,-3272.727273,Speed,Off,Off0.000000,0,,,,
11:48:28.352 AM 03/20/2016,Teleop Enabled,10,FALSE,0,NO ERROR,-0.000000,-1.097247,0.000000,-0.077000,TRUE,FALSE,TRUE,FALSE,FALSE,FALSE,Disabled,0.221875,7.943750,-3.663750,TRUE,-30.321472,-0.879440,0.000000,-0.152069,-0.224380,0.000000,-0.078000,-0.147000,0.097000,-2.410000,-0.410000,2.520000,-2.619133,Hold,56.432617,51.000000,Hold,-108835.000000,69632.000000,HighGoal,3225.000000,-3272.727273,Speed,3240.000000,-3272.727273,Speed,Off,Off0.000000,0,,,,
11:48:28.454 AM 03/20/2016,Teleop Enabled,10,FALSE,0,NO ERROR,-0.000000,-1.097247,0.000000,-0.077000,TRUE,FALSE,TRUE,FALSE,FALSE,FALSE,Disabled,0.221875,7.943750,-3.663750,TRUE,-30.329361,-0.889893,0.000000,-0.156204,-0.207962,0.000000,0.082000,-0.177000,0.086000,-2.420000,-0.410000,2.510000,-2.655944,Hold,56.432373,51.000000,Hold,-99710.000000,69632.000000,HighGoal,3225.000000,-3272.727273,Speed,3240.000000,-3272.727273,Speed,Off,Off0.000000,0,,,,
11:48:28.556 AM 03/20/2016,Teleop Enabled,11,FALSE,0,NO ERROR,-0.000000,-1.097247,0.000000,-0.077000,TRUE,FALSE,TRUE,FALSE,FALSE,FALSE,Disabled,0.221875,7.943750,-3.663750,TRUE,-30.337189,-0.902679,0.000000,-0.161942,-0.276779,0.000000,-0.233000,0.037000,-0.048000,-2.430000,-0.380000,2.530000,-2.655438,Hold,56.432373,51.000000,Hold,-90207.000000,69632.000000,HighGoal,3217.500000,-3272.727273,Speed,3240.000000,-3272.727273,Speed,Off,Off0.000000,0,,,,
11:48:28.656 AM 03/20/2016,Teleop Enabled,12,FALSE,0,NO ERROR,-0.000000,-1.097247,0.000000,-0.077000,TRUE,FALSE,TRUE,FALSE,FALSE,FALSE,Disabled,0.221875,7.943750,-3.663750,TRUE,-30.346298,-0.915619,0.000000,-0.188522,-0.227966,0.000000,0.209000,0.044000,-0.056000,-2.420000,-0.370000,2.480000,-2.637709,Hold,56.432373,51.000000,Hold,-80466.000000,69632.000000,HighGoal,3217.500000,-3272.727273,Speed,3247.500000,-3272.727273,Speed,Off,Off0.000000,0,,,,
11:48:28.757 AM 03/20/2016,Teleop Enabled,11,FALSE,0,NO ERROR,-0.000000,-1.097247,0.000000,-0.077000,TRUE,FALSE,TRUE,FALSE,FALSE,FALSE,Disabled,0.221875,7.943750,-3.663750,TRUE,-30.355286,-0.925842,0.000000,-0.179657,-0.195206,0.000000,-0.170000,-0.143000,-0.081000,-2.420000,-0.260000,2.510000,-2.636036,Hold,56.432373,51.000000,Hold,-70400.000000,69632.000000,HighGoal,3225.000000,-3272.727273,Speed,3240.000000,-3272.727273,Speed,Off,Off0.000000,0,,,,
11:48:28.858 AM 03/20/2016,Teleop Enabled,9,FALSE,0,NO ERROR,-0.000000,-0.988164,0.000000,-0.025667,TRUE,FALSE,TRUE,FALSE,FALSE,FALSE,Disabled,0.221875,7.943750,-3.663750,TRUE,-30.365356,-0.936890,0.000000,-0.205765,-0.230789,0.000000,0.215000,0.124000,-0.039000,-2.330000,-0.200000,2.540000,-2.558847,Hold,56.432373,51.000000,Hold,-70400.000000,69632.000000,HighGoal,3232.500000,-3272.727273,Speed,3240.000000,-3272.727273,Speed,Off,Off0.000000,0,,,,
11:48:28.958 AM 03/20/2016,Teleop Enabled,11,FALSE,0,NO ERROR,-0.000000,-0.988164,0.000000,-0.025667,TRUE,FALSE,TRUE,FALSE,FALSE,FALSE,Disabled,0.221875,7.943750,-3.663750,TRUE,-30.374100,-0.948044,0.000000,-0.186798,-0.248825,0.000000,-0.115000,0.014000,0.103000,-2.340000,-0.380000,2.430000,-2.534959,Hold,56.209717,51.000000,Hold,-70042.000000,69632.000000,HighGoal,3225.000000,-3272.727273,Speed,3247.500000,-3272.727273,Speed,Off,Off0.000000,0,,,,
11:48:29.059 AM 03/20/2016,Teleop Enabled,9,FALSE,0,NO ERROR,-0.000000,-0.988164,0.000000,-0.025667,TRUE,FALSE,TRUE,FALSE,FALSE,FALSE,Disabled,0.221875,7.943750,-3.663750,TRUE,-30.383621,-0.950119,0.000000,-0.188004,0.027802,0.000000,0.077000,-0.017000,0.008000,-2.440000,-0.200000,2.590000,-2.643630,Hold,56.210693,51.000000,Hold,-69811.000000,69632.000000,HighGoal,3225.000000,-3272.727273,Speed,3255.000000,-3272.727273,Speed,Off,Off0.000000,0,,,,
11:48:29.160 AM 03/20/2016,Teleop Enabled,10,FALSE,0,NO ERROR,-0.000000,-0.988164,0.000000,-0.025667,TRUE,FALSE,TRUE,FALSE,FALSE,FALSE,Disabled,0.221875,7.943750,-3.663750,TRUE,-30.394913,-0.947739,0.000000,-0.183899,0.042252,0.000000,-0.121000,0.149000,0.174000,-2.370000,-0.230000,2.550000,-2.581013,Hold,56.144043,51.000000,Hold,-69715.000000,69632.000000,HighGoal,3232.500000,-3272.727273,Speed,3247.500000,-3272.727273,Speed,Off,Off0.000000,0,,,,
11:48:29.261 AM 03/20/2016,Teleop Enabled,10,FALSE,0,NO ERROR,0.188976,-0.988164,-0.188976,-0.025667,TRUE,FALSE,TRUE,FALSE,FALSE,FALSE,Disabled,0.221875,7.943750,-3.663750,TRUE,-30.402283,-0.943970,0.000000,-0.114151,0.099777,0.000000,0.136000,-0.039000,0.038000,-2.400000,-0.250000,2.530000,-2.606175,Hold,56.144043,51.000000,Hold,-69713.000000,69632.000000,HighGoal,3232.500000,-3272.727273,Speed,3255.000000,-3272.727273,Speed,Off,Off0.000000,0,,,,
11:48:29.361 AM 03/20/2016,Teleop Enabled,10,FALSE,0,NO ERROR,0.220472,-1.000998,-0.220472,0.481249,TRUE,FALSE,TRUE,FALSE,FALSE,FALSE,Disabled,0.221875,7.943750,-3.663750,TRUE,-30.407730,-0.940948,0.000000,-0.155090,0.003769,0.000000,-0.202000,-0.274000,0.047000,-2.680000,-0.750000,2.310000,-2.719862,Hold,56.143555,51.000000,Hold,-69712.000000,69632.000000,HighGoal,3247.500000,-3272.727273,Speed,3262.500000,-3272.727273,Speed,Off,Off0.000000,0,,,,
11:48:29.461 AM 03/20/2016,Teleop Enabled,10,FALSE,0,NO ERROR,0.267717,-1.308997,-0.267717,0.923998,TRUE,FALSE,TRUE,FALSE,FALSE,FALSE,Disabled,0.221875,7.943750,-3.663750,TRUE,-30.415558,-0.944504,0.000000,-0.107925,-0.116684,0.000000,0.014000,-0.200000,0.207000,-3.680000,-0.330000,2.060000,-4.184901,Hold,56.142578,51.000000,Hold,-69712.000000,69632.000000,HighGoal,3232.500000,-3272.727273,Speed,3247.500000,-3272.727273,Speed,Off,Off0.000000,0,,,,
11:48:29.562 AM 03/20/2016,Teleop Enabled,10,FALSE,0,NO ERROR,0.283465,-1.924995,-0.283465,1.385997,TRUE,FALSE,TRUE,FALSE,FALSE,FALSE,Disabled,0.221875,7.943750,-3.663750,TRUE,-30.421844,-0.948776,0.000000,-0.130859,-0.093063,0.000000,0.155000,-0.077000,0.029000,-5.620000,-0.130000,2.270000,-6.114806,Hold,56.067139,51.000000,Hold,-69711.000000,69632.000000,HighGoal,3210.000000,-3272.727273,Speed,3232.500000,-3272.727273,Speed,Off,Off0.000000,0,,,,
11:48:29.662 AM 03/20/2016,Teleop Enabled,10,FALSE,0,NO ERROR,0.283465,-2.765577,-0.283465,1.937829,TRUE,FALSE,TRUE,FALSE,FALSE,FALSE,Disabled,0.221875,7.943750,-3.663750,TRUE,-30.427475,-0.955994,0.000000,-0.103210,-0.176056,0.000000,0.242000,0.069000,0.050000,-8.360000,-0.380000,1.880000,-8.857988,Hold,55.913330,51.000000,Hold,-69693.000000,69632.000000,HighGoal,3202.500000,-3272.727273,Speed,3240.000000,-3272.727273,Speed,Off,Off0.000000,0,,,,
11:48:29.762 AM 03/20/2016,Teleop Enabled,10,FALSE,0,NO ERROR,0.173228,-3.618992,-0.173228,2.226578,TRUE,FALSE,TRUE,FALSE,FALSE,FALSE,Disabled,0.221875,7.943750,-3.663750,TRUE,-30.431946,-0.960754,0.000000,-0.091354,-0.040054,0.000000,-0.130000,0.246000,0.035000,-10.960000,-0.240000,2.180000,-11.285928,Hold,55.899902,51.000000,Hold,-69693.000000,69632.000000,HighGoal,3210.000000,-3272.727273,Speed,3225.000000,-3272.727273,Speed,Off,Off0.000000,0,,,,
11:48:29.861 AM 03/20/2016,Teleop Enabled,11,FALSE,0,NO ERROR,-0.000000,-4.106657,0.000000,2.220161,TRUE,FALSE,TRUE,FALSE,FALSE,FALSE,Disabled,0.221875,7.943750,-3.663750,TRUE,-30.435699,-0.960297,0.000000,-0.051926,0.014465,0.000000,0.079000,-0.085000,-0.016000,-12.930000,0.010000,2.250000,-12.785041,Hold,55.886230,51.000000,Hold,-69693.000000,69632.000000,HighGoal,3210.000000,-3272.727273,Speed,3217.500000,-3272.727273,Speed,Off,Off0.000000,0,,,,
11:48:29.962 AM 03/20/2016,Teleop Enabled,11,FALSE,0,NO ERROR,-0.000000,-4.106657,0.000000,2.053329,TRUE,FALSE,TRUE,FALSE,FALSE,FALSE,Disabled,0.221875,7.943750,-3.663750,TRUE,-30.438492,-0.960983,0.000000,-0.068802,0.001663,0.000000,0.079000,-0.085000,-0.016000,-12.620000,-0.330000,2.570000,-12.540926,Hold,55.883057,51.000000,Hold,-69693.000000,69632.000000,HighGoal,3210.000000,-3272.727273,Speed,3240.000000,-3272.727273,Speed,Off,Off0.000000,0,,,,
11:48:30.062 AM 03/20/2016,Teleop Enabled,10,FALSE,0,NO ERROR,-0.000000,-4.080990,0.000000,1.982745,TRUE,FALSE,TRUE,FALSE,FALSE,FALSE,Disabled,0.221875,7.943750,-3.663750,TRUE,-30.443176,-0.958099,0.000000,-0.111893,0.079712,0.000000,0.012000,0.028000,0.052000,-12.270000,-0.210000,2.310000,-12.205951,Hold,55.883057,51.000000,Hold,-69695.000000,69632.000000,HighGoal,3225.000000,-3272.727273,Speed,3262.500000,-3272.727273,Speed,Off,Off0.000000,0,,,,
11:48:30.162 AM 03/20/2016,Teleop Enabled,9,FALSE,0,NO ERROR,-0.000000,-4.080990,0.000000,1.982745,TRUE,FALSE,TRUE,FALSE,FALSE,FALSE,Disabled,0.221875,7.943750,-3.663750,TRUE,-30.448074,-0.953949,0.000000,-0.071060,0.079025,0.000000,0.012000,0.028000,0.052000,-12.310000,-0.080000,2.460000,-12.217009,Hold,55.871094,51.000000,Hold,-69695.000000,69632.000000,HighGoal,3232.500000,-3272.727273,Speed,3255.000000,-3272.727273,Speed,Off,Off0.000000,0,,,,
11:48:30.262 AM 03/20/2016,Teleop Enabled,10,FALSE,0,NO ERROR,-0.000000,-4.080990,0.000000,1.976329,TRUE,FALSE,TRUE,FALSE,FALSE,FALSE,Disabled,0.221875,7.943750,-3.663750,TRUE,-30.450974,-0.953110,0.000000,-0.065735,0.022308,0.000000,-0.269000,0.131000,-0.059000,-12.310000,-0.080000,2.460000,-12.232004,Hold,55.871094,51.000000,Hold,-69695.000000,69632.000000,HighGoal,3225.000000,-3272.727273,Speed,3247.500000,-3272.727273,Speed,Off,Off0.000000,0,,,,
11:48:30.362 AM 03/20/2016,Teleop Enabled,11,FALSE,0,NO ERROR,0.000000,-4.055324,-0.000000,1.976329,TRUE,FALSE,TRUE,TRUE,TRUE,FALSE,Disabled,0.221875,7.943750,-3.663750,TRUE,-30.457184,-0.950119,0.000000,-0.111237,0.018204,0.000000,-0.269000,0.131000,-0.059000,-12.320000,-0.300000,2.390000,-12.205301,Hold,55.870850,51.000000,Hold,-69695.000000,69632.000000,HighGoal,3225.000000,-3272.727273,Speed,3262.500000,-3272.727273,Speed,Off,Off0.000000,0,,,,
11:48:30.461 AM 03/20/2016,Teleop Enabled,10,FALSE,0,NO ERROR,0.000000,-4.048907,-0.000000,1.976329,TRUE,FALSE,TRUE,TRUE,TRUE,FALSE,Enable,0.221875,-9.096875,-3.183125,TRUE,-30.457184,-0.950119,0.000000,-0.111237,0.018204,0.000000,0.072000,-0.014000,-0.150000,-12.310000,-0.200000,2.450000,-12.181358,Hold,55.870850,51.000000,Hold,-69695.000000,69632.000000,HighGoal,3240.000000,-3272.727273,Speed,3262.500000,-3272.727273,Speed,Off,Off0.000000,0,,,,
11:48:30.562 AM 03/20/2016,Teleop Enabled,10,FALSE,0,NO ERROR,0.000000,-4.016824,-0.000000,1.976329,TRUE,FALSE,TRUE,TRUE,TRUE,FALSE,Disabled,0.000000,-9.096875,-3.183125,TRUE,-30.463730,-0.951553,0.000000,-0.161606,-0.047516,0.000000,-0.286000,0.018000,-0.083000,-12.270000,-0.190000,2.470000,-12.134814,Hold,55.870850,51.000000,Hold,-69695.000000,69632.000000,HighGoal,3240.000000,-3272.727273,Speed,3255.000000,-3272.727273,Speed,Off,Off0.000000,0,,,,
11:48:30.662 AM 03/20/2016,Teleop Enabled,10,FALSE,0,NO ERROR,0.000000,-3.997574,-0.000000,1.976329,TRUE,FALSE,TRUE,TRUE,TRUE,FALSE,Disabled,0.000000,-9.096875,-3.183125,TRUE,-30.481827,-0.949005,0.000000,-0.166580,0.024826,0.000000,0.132000,0.126000,0.056000,-12.220000,-0.300000,2.440000,-12.093851,Hold,55.870850,51.000000,Hold,-69695.000000,69632.000000,HighGoal,3232.500000,-3272.727273,Speed,3255.000000,-3272.727273,Speed,Off,Off0.000000,0,,,,
11:48:30.762 AM 03/20/2016,Teleop Enabled,9,FALSE,0,NO ERROR,0.000000,-3.997574,-0.000000,1.976329,TRUE,FALSE,TRUE,TRUE,TRUE,FALSE,Disabled,0.000000,-9.096875,-3.183125,TRUE,-30.491302,-0.947006,0.000000,-0.200256,0.072968,0.000000,0.125000,0.088000,0.108000,-12.170000,-0.210000,2.430000,-12.096175,Hold,55.870850,51.000000,Hold,-69695.000000,69632.000000,HighGoal,3225.000000,-3272.727273,Speed,3262.500000,-3272.727273,Speed,Off,Off0.000000,0,,,,
11:48:30.862 AM 03/20/2016,Teleop Enabled,10,FALSE,0,NO ERROR,0.000000,-3.997574,-0.000000,1.976329,TRUE,FALSE,TRUE,TRUE,TRUE,FALSE,Disabled,0.000000,-9.096875,-3.183125,TRUE,-30.491302,-0.947006,0.000000,-0.200256,0.072968,0.000000,0.161000,0.124000,0.095000,-12.170000,-0.240000,2.450000,-12.096085,Hold,55.870850,51.000000,Hold,-69695.000000,69632.000000,HighGoal,3232.500000,-3272.727273,Speed,3255.000000,-3272.727273,Speed,Off,Off0.000000,0,,,,
11:48:30.962 AM 03/20/2016,Teleop Enabled,10,FALSE,0,NO ERROR,0.000000,-3.997574,-0.000000,1.976329,TRUE,FALSE,TRUE,TRUE,TRUE,FALSE,Disabled,0.000000,-9.096875,-3.183125,TRUE,-30.501083,-0.944931,0.000000,-0.183197,0.004669,0.000000,0.115000,-0.002000,0.050000,-12.170000,-0.230000,2.420000,-12.096134,Hold,55.870850,51.000000,Hold,-69695.000000,69632.000000,HighGoal,3232.500000,-3272.727273,Speed,3255.000000,-3272.727273,Speed,Off,Off0.000000,0,,,,
11:48:31.063 AM 03/20/2016,Teleop Enabled,9,FALSE,0,NO ERROR,0.000000,-3.997574,-0.000000,1.976329,TRUE,FALSE,TRUE,TRUE,TRUE,FALSE,Disabled,0.000000,-9.096875,-3.183125,TRUE,-30.510071,-0.946045,0.000000,-0.204803,-0.022430,0.000000,-0.181000,0.151000,0.034000,-12.180000,-0.200000,2.390000,-12.105136,Hold,55.870850,51.000000,Hold,-69695.000000,69632.000000,HighGoal,3225.000000,-3272.727273,Speed,3270.000000,-3272.727273,Speed,Off,Off0.000000,0,,,,
11:48:31.164 AM 03/20/2016,Teleop Enabled,10,FALSE,0,NO ERROR,0.000000,-3.997574,-0.000000,1.976329,TRUE,FALSE,TRUE,TRUE,TRUE,FALSE,Disabled,0.000000,-9.096875,-3.183125,TRUE,-30.521469,-0.945297,0.000000,-0.228043,0.038116,0.000000,0.239000,-0.117000,0.086000,-12.170000,-0.260000,2.430000,-12.126783,Hold,55.870850,51.000000,Hold,-69695.000000,69632.000000,HighGoal,3225.000000,-3272.727273,Speed,3255.000000,-3272.727273,Speed,Off,Off0.000000,0,,,,
