Time,Robot Mode,Loop Time,Error Status,Error Code,Error Source,Left Motor Output,Left Motor Encoder,Right Motor Output,Right Motor Encoder,Is Level,Is Stalled,Ball Detector Photoeye,Vision Enabled,Vision Teleop Control,Vision Auto Control,Vision Current State,Vision X Output,Vision NavX Error,Vision NavX Target,NavX Connection Status,NavX Displacement X,NavX Displacement Y,NavX Displacement Z,NavX Velocity X,NavX Velocity Y,NavX Velocity Z,NavX Acceleration X,NavX Acceleration Y,NavX Acceleration Z,NavX Pitch,NavX Yaw,NavX Roll,Gyro Angle,Roller Arm State,Roller Arm Actual,Roller Arm Desired,Shooter Arm State,Shooter Arm Actual,Shooter Arm Desired,Shooter State,Actual RPM Left,Desired RPM Left,Control Mode Left,Actual RPM Right,Desired RPM Right,Scaler Motor Output,Auto To Run,Auto Current File,Auto File Status,Auto Current Command,Auto Trimmed Command
11:03:10.561 AM 03/20/2016,Autonomous Enabled,11,FALSE,0,NO ERROR,0.000000,0.000000,0.000000,0.000000,TRUE,FALSE,TRUE,FALSE,FALSE,FALSE,Disabled,0.000000,0.000000,0.000000,TRUE,-1.771484,-1.143890,0.000000,0.009247,0.007004,0.000000,0.000000,0.000000,0.020000,-0.040000,-0.730000,2.250000,0.225012,ResetBack,1.141113,-0.000049,ResetBack,-42426.000000,-0.300000,LowGoal,0.000000,-1454.545455,Speed,0.000000,-1454.545455,Speed,Off,Off0.000000,1,Read: /home/lvuser/scripts/auto_01.bee,File good!,WAIT 1500,WAIT
11:03:10.661 AM 03/20/2016,Autonomous Enabled,11,FALSE,0,NO ERROR,0.000000,0.000000,0.000000,0.000000,TRUE,FALSE,TRUE,FALSE,FALSE,FALSE,Disabled,0.000000,0.000000,0.000000,TRUE,-1.771332,-1.142975,0.000000,0.002243,0.026489,0.000000,-0.024000,-0.002000,0.002000,-0.110000,-0.750000,2.240000,0.160988,ResetBack,0.155029,-0.000049,ResetBack,-38951.000000,-0.300000,LowGoal,105.000000,-1454.545455,Speed,67.500000,-1454.545455,Speed,Off,Off0.000000,1,Read: /home/lvuser/scripts/auto_01.bee,File good!,WAIT 1500,WAIT
11:03:10.760 AM 03/20/2016,Autonomous Enabled,11,FALSE,0,NO ERROR,0.000000,0.012833,0.000000,0.000000,TRUE,FALSE,TRUE,FALSE,FALSE,FALSE,Disabled,0.000000,0.000000,0.000000,TRUE,-1.771805,-1.141479,0.000000,-0.009338,0.037811,0.000000,0.017000,0.010000,0.065000,-0.020000,-0.690000,2.250000,0.206488,ResetBack,0.148682,-0.000049,ResetBack,-32603.000000,-0.300000,LowGoal,667.500000,-1454.545455,Speed,705.000000,-1454.545455,Speed,Off,Off0.000000,1,Read: /home/lvuser/scripts/auto_01.bee,File good!,WAIT 1500,WAIT
11:03:10.860 AM 03/20/2016,Autonomous Enabled,10,FALSE,0,NO ERROR,0.000000,0.000000,0.000000,0.000000,TRUE,FALSE,TRUE,FALSE,FALSE,FALSE,Disabled,0.000000,0.000000,0.000000,TRUE,-1.771454,-1.139664,0.000000,0.007965,0.037216,0.000000,-0.049000,0.017000,-0.047000,-0.100000,-0.690000,2.260000,0.178645,Reset,0.004395,0.000000,ResetBack,-24635.000000,-0.300000,LowGoal,1365.000000,-1454.545455,Speed,1372.500000,-1454.545455,Speed,Off,Off0.000000,1,Read: /home/lvuser/scripts/auto_01.bee,File good!,WAIT 1500,WAIT
11:03:10.961 AM 03/20/2016,Autonomous Enabled,11,FALSE,0,NO ERROR,0.000000,0.000000,0.000000,0.000000,TRUE,FALSE,TRUE,FALSE,FALSE,FALSE,Disabled,0.000000,0.000000,0.000000,TRUE,-1.771866,-1.137665,0.000000,-0.007492,0.044357,0.000000,0.014000,0.014000,-0.004000,-0.080000,-0.700000,2.270000,0.182672,Hold,0.871826,0.000000,ResetBack,-24635.000000,-0.300000,LowGoal,1515.000000,-1454.545455,Speed,1560.000000,-1454.545455,Speed,Off,Off0.000000,1,Read: /home/lvuser/scripts/auto_01.bee,File good!,WAIT 1500,WAIT
11:03:11.061 AM 03/20/2016,Autonomous Enabled,11,FALSE,0,NO ERROR,0.000000,0.012833,0.000000,0.000000,TRUE,FALSE,TRUE,FALSE,FALSE,FALSE,Disabled,0.000000,0.000000,0.000000,TRUE,-1.771973,-1.135361,0.000000,-0.017914,0.024429,0.000000,0.055000,0.265000,0.684000,-0.090000,-0.440000,2.350000,0.176982,Hold,0.929199,0.000000,ResetBack,-14303.000000,-0.300000,LowGoal,1365.000000,-1454.545455,Speed,1350.000000,-1454.545455,Speed,Off,Off0.000000,1,Read: /home/lvuser/scripts/auto_01.bee,File good!,WAIT 1500,WAIT
11:03:11.160 AM 03/20/2016,Autonomous Enabled,10,FALSE,0,NO ERROR,0.000000,0.025667,0.000000,0.012833,TRUE,FALSE,TRUE,FALSE,FALSE,FALSE,Disabled,0.000000,0.000000,0.000000,TRUE,-1.772217,-1.133377,0.000000,0.020859,0.046585,0.000000,-0.046000,-0.044000,-0.101000,0.000000,-0.570000,2.280000,0.258405,Hold,0.929199,0.000000,ResetBack,-4111.000000,-0.300000,LowGoal,1320.000000,-1454.545455,Speed,1260.000000,-1454.545455,Speed,Off,Off0.000000,1,Read: /home/lvuser/scripts/auto_01.bee,File good!,WAIT 1500,WAIT
11:03:11.261 AM 03/20/2016,Autonomous Enabled,11,FALSE,0,NO ERROR,0.000000,0.000000,0.000000,0.000000,TRUE,FALSE,TRUE,FALSE,FALSE,FALSE,Disabled,0.000000,0.000000,0.000000,TRUE,-1.770370,-1.131470,0.000000,0.020355,0.027542,0.000000,-0.097000,-0.030000,0.016000,-0.090000,-0.570000,2.250000,0.166788,Hold,0.929199,0.000000,ResetBack,-1135.000000,-0.300000,LowGoal,1387.500000,-1454.545455,Speed,1365.000000,-1454.545455,Speed,Off,Off0.000000,1,Read: /home/lvuser/scripts/auto_01.bee,File good!,WAIT 1500,WAIT
11:03:11.361 AM 03/20/2016,Autonomous Enabled,11,FALSE,0,NO ERROR,0.000000,0.000000,0.000000,0.000000,TRUE,FALSE,TRUE,FALSE,FALSE,FALSE,Disabled,0.000000,0.000000,0.000000,TRUE,-1.769409,-1.129318,0.000000,0.022720,0.039413,0.000000,0.013000,-0.042000,0.021000,-0.080000,-0.590000,2.300000,0.182259,Hold,0.929199,0.000000,ResetBack,-768.000000,-0.300000,LowGoal,1387.500000,-1454.545455,Speed,1372.500000,-1454.545455,Speed,Off,Off0.000000,1,Read: /home/lvuser/scripts/auto_01.bee,File good!,WAIT 1500,WAIT
11:03:11.461 AM 03/20/2016,Autonomous Enabled,10,FALSE,0,NO ERROR,0.000000,0.000000,0.000000,0.000000,TRUE,FALSE,TRUE,FALSE,FALSE,FALSE,Disabled,0.000000,0.000000,0.000000,TRUE,-1.767715,-1.128235,0.000000,0.033981,0.018112,0.000000,0.083000,0.019000,0.055000,-0.060000,-0.560000,2.290000,0.213507,Hold,0.929199,0.000000,ResetBack,-413.000000,-0.300000,LowGoal,1357.500000,-1454.545455,Speed,1327.500000,-1454.545455,Speed,Off,Off0.000000,1,Read: /home/lvuser/scripts/auto_01.bee,File good!,WAIT 1500,WAIT
11:03:11.561 AM 03/20/2016,Autonomous Enabled,11,FALSE,0,NO ERROR,0.000000,0.000000,0.000000,0.000000,TRUE,FALSE,TRUE,FALSE,FALSE,FALSE,Disabled,0.000000,0.000000,0.000000,TRUE,-1.765717,-1.127838,0.000000,0.047028,0.000000,0.000000,-0.030000,0.009000,0.010000,-0.090000,-0.550000,2.290000,0.192780,Hold,0.929199,0.000000,ResetBack,-395.000000,-0.300000,LowGoal,1357.500000,-1454.545455,Speed,1327.500000,-1454.545455,Speed,Off,Off0.000000,1,Read: /home/lvuser/scripts/auto_01.bee,File good!,WAIT 1500,WAIT
11:03:11.661 AM 03/20/2016,Autonomous Enabled,11,FALSE,0,NO ERROR,0.000000,0.000000,0.000000,0.000000,TRUE,FALSE,TRUE,FALSE,FALSE,FALSE,Disabled,0.000000,0.000000,0.000000,TRUE,-1.765015,-1.127914,0.000000,0.014450,-0.004242,0.000000,-0.003000,-0.094000,-0.034000,-0.070000,-0.570000,2.240000,0.218100,Hold,0.929199,0.000000,ResetBack,-395.000000,-0.300000,LowGoal,1365.000000,-1454.545455,Speed,1350.000000,-1454.545455,Speed,Off,Off0.000000,1,Read: /home/lvuser/scripts/auto_01.bee,File good!,WAIT 1500,WAIT
11:03:11.761 AM 03/20/2016,Autonomous Enabled,10,FALSE,0,NO ERROR,0.000000,0.000000,0.000000,0.000000,TRUE,FALSE,TRUE,FALSE,FALSE,FALSE,Disabled,0.000000,0.000000,0.000000,TRUE,-1.764771,-1.128830,0.000000,0.004028,-0.014389,0.000000,-0.019000,-0.127000,-0.039000,-0.070000,-0.540000,2.280000,0.221663,Hold,0.929199,0.000000,Reset,-392.000000,2.000000,LowGoal,1380.000000,-1454.545455,Speed,1342.500000,-1454.545455,Speed,Off,Off0.000000,1,Read: /home/lvuser/scripts/auto_01.bee,File good!,WAIT 1500,WAIT
11:03:11.861 AM 03/20/2016,Autonomous Enabled,11,FALSE,0,NO ERROR,0.000000,0.000000,0.000000,0.000000,TRUE,FALSE,TRUE,FALSE,FALSE,FALSE,Disabled,0.000000,0.000000,0.000000,TRUE,-1.764664,-1.129715,0.000000,-0.000473,-0.013397,0.000000,0.070000,-0.130000,-0.010000,-0.070000,-0.590000,2.290000,0.224234,Hold,0.929199,0.000000,Hold,-435.000000,2.000000,LowGoal,1372.500000,-1454.545455,Speed,1335.000000,-1454.545455,Speed,Off,Off0.000000,1,Read: /home/lvuser/scripts/auto_01.bee,File good!,WAIT 1500,WAIT
11:03:11.961 AM 03/20/2016,Autonomous Enabled,11,FALSE,0,NO ERROR,0.000000,0.000000,0.000000,0.000000,TRUE,FALSE,TRUE,FALSE,FALSE,FALSE,Disabled,0.000000,0.000000,0.000000,TRUE,-1.763779,-1.131317,0.000000,0.017838,-0.035080,0.000000,-0.023000,-0.042000,-0.031000,-0.070000,-0.530000,2.260000,0.243947,Hold,0.929199,0.000000,Hold,-265.000000,2.000000,LowGoal,1372.500000,-1454.545455,Speed,1350.000000,-1454.545455,Speed,Off,Off0.000000,1,Read: /home/lvuser/scripts/auto_01.bee,File good!,WAIT 1500,WAIT
11:03:12.061 AM 03/20/2016,Autonomous Enabled,10,FALSE,0,NO ERROR,0.000000,0.000000,0.000000,0.000000,TRUE,FALSE,TRUE,FALSE,FALSE,FALSE,Disabled,0.000000,0.000000,0.000000,TRUE,-1.763901,-1.132523,0.000000,-0.014633,-0.017273,0.000000,0.076000,-0.041000,0.066000,-0.070000,-0.590000,2.250000,0.247427,Hold,0.929199,0.000000,Hold,-265.000000,2.000000,LowGoal,1372.500000,-1454.545455,Speed,1342.500000,-1454.545455,Speed,Off,Off0.000000,1,Read: /home/lvuser/scripts/auto_01.bee,File good!,WAIT 1500,WAIT
11:03:12.161 AM 03/20/2016,Autonomous Enabled,11,FALSE,0,NO ERROR,0.000000,0.000000,0.000000,0.000000,TRUE,FALSE,TRUE,FALSE,FALSE,FALSE,Disabled,0.000000,0.000000,0.000000,TRUE,-1.763977,-1.133942,0.000000,-0.006897,-0.036575,0.000000,-0.059000,0.017000,0.031000,0.000000,-0.550000,2.260000,0.010156,Hold,0.929199,0.000000,Hold,-265.000000,2.000000,LowGoal,1380.000000,-1454.545455,Speed,1342.500000,-1454.545455,Speed,Off,Off0.000000,1,Read: /home/lvuser/scripts/auto_01.bee,File good!,DRIVE_STRAIGHT_NAVX 200 10000,DRIVE_STRAIGHT_NAVX
11:03:12.261 AM 03/20/2016,Autonomous Enabled,10,FALSE,0,NO ERROR,0.000000,-1.257664,0.000000,-1.308997,TRUE,FALSE,TRUE,FALSE,FALSE,FALSE,Disabled,0.000000,0.000000,0.000000,TRUE,-1.762039,-1.132599,0.000000,0.194794,0.064285,0.000000,-0.004000,0.211000,0.589000,-0.130000,2.520000,2.270000,-0.068565,Hold,0.929199,0.000000,Hold,-265.000000,2.000000,LowGoal,1365.000000,-1454.545455,Speed,1335.000000,-1454.545455,Speed,Off,Off0.000000,1,Read: /home/lvuser/scripts/auto_01.bee,File good!,DRIVE_STRAIGHT_NAVX 200 10000,DRIVE_STRAIGHT_NAVX
11:03:12.360 AM 03/20/2016,Autonomous Enabled,10,FALSE,0,NO ERROR,0.000000,-3.529158,0.000000,-3.606158,FALSE,FALSE,TRUE,FALSE,FALSE,FALSE,Disabled,0.000000,0.000000,0.000000,TRUE,-1.745667,-1.127975,0.000000,0.439133,0.083969,0.000000,0.280000,-0.007000,0.308000,-0.100000,3.970000,2.170000,0.004324,Hold,0.929932,0.000000,Hold,-261.000000,2.000000,LowGoal,1320.000000,-1454.545455,Speed,1275.000000,-1454.545455,Speed,Off,Off0.000000,1,Read: /home/lvuser/scripts/auto_01.bee,File good!,DRIVE_STRAIGHT_NAVX 200 10000,DRIVE_STRAIGHT_NAVX
11:03:12.461 AM 03/20/2016,Autonomous Enabled,10,FALSE,0,NO ERROR,0.000000,-6.968484,0.000000,-7.019817,FALSE,FALSE,TRUE,FALSE,FALSE,FALSE,Disabled,0.000000,0.000000,0.000000,TRUE,-1.715485,-1.125290,0.000000,0.701447,0.000000,0.000000,0.257000,0.004000,0.121000,-0.170000,3.350000,2.260000,-0.023495,Hold,0.929932,0.000000,Hold,-253.000000,2.000000,LowGoal,1290.000000,-1454.545455,Speed,1252.500000,-1454.545455,Speed,Off,Off0.000000,1,Read: /home/lvuser/scripts/auto_01.bee,File good!,DRIVE_STRAIGHT_NAVX 200 10000,DRIVE_STRAIGHT_NAVX
11:03:12.561 AM 03/20/2016,Autonomous Enabled,8,FALSE,0,NO ERROR,0.000000,-11.678306,0.000000,-11.780972,FALSE,FALSE,TRUE,FALSE,FALSE,FALSE,Disabled,0.000000,0.000000,0.000000,TRUE,-1.665268,-1.124634,0.000000,0.898544,0.004074,0.000000,0.257000,0.004000,0.121000,-0.320000,4.830000,2.310000,-0.160468,Hold,0.929932,0.000000,Hold,-253.000000,2.000000,LowGoal,1327.500000,-1454.545455,Speed,1297.500000,-1454.545455,Speed,Off,Off0.000000,1,Read: /home/lvuser/scripts/auto_01.bee,File good!,DRIVE_STRAIGHT_NAVX 200 10000,DRIVE_STRAIGHT_NAVX
11:03:12.661 AM 03/20/2016,Autonomous Enabled,11,FALSE,0,NO ERROR,0.000000,-16.952794,0.000000,-16.978460,FALSE,FALSE,TRUE,FALSE,FALSE,FALSE,Disabled,0.000000,0.000000,0.000000,TRUE,-1.619400,-1.124496,0.000000,0.937271,-0.003586,0.000000,-0.036000,0.052000,0.011000,-0.360000,5.060000,2.410000,-0.194887,Hold,0.929932,0.000000,Hold,-250.000000,2.000000,LowGoal,1342.500000,-1454.545455,Speed,1312.500000,-1454.545455,Speed,Off,Off0.000000,1,Read: /home/lvuser/scripts/auto_01.bee,File good!,DRIVE_STRAIGHT_NAVX 200 10000,DRIVE_STRAIGHT_NAVX
11:03:12.761 AM 03/20/2016,Autonomous Enabled,10,FALSE,0,NO ERROR,0.000000,-22.952363,0.000000,-22.997280,FALSE,FALSE,TRUE,FALSE,FALSE,FALSE,Disabled,0.000000,0.000000,0.000000,TRUE,-1.571548,-1.124161,0.000000,0.967422,0.020828,0.000000,0.081000,0.114000,-0.075000,-0.630000,5.050000,2.550000,-0.426980,Hold,0.929932,0.000000,Hold,-250.000000,2.000000,LowGoal,1342.500000,-1454.545455,Speed,1305.000000,-1454.545455,Speed,Off,Off0.000000,1,Read: /home/lvuser/scripts/auto_01.bee,File good!,DRIVE_STRAIGHT_NAVX 200 10000,DRIVE_STRAIGHT_NAVX
11:03:12.862 AM 03/20/2016,Autonomous Enabled,10,FALSE,0,NO ERROR,0.000000,-29.317681,0.000000,-29.458848,FALSE,FALSE,TRUE,FALSE,FALSE,FALSE,Disabled,0.000000,0.000000,0.000000,TRUE,-1.523102,-1.122543,0.000000,0.950684,0.012787,0.000000,0.081000,0.114000,-0.075000,-0.670000,5.760000,2.600000,-0.439325,Hold,0.929932,0.000000,Hold,-250.000000,2.000000,LowGoal,1335.000000,-1454.545455,Speed,1312.500000,-1454.545455,Speed,Off,Off0.000000,1,Read: /home/lvuser/scripts/auto_01.bee,File good!,DRIVE_STRAIGHT_NAVX 200 10000,DRIVE_STRAIGHT_NAVX
11:03:12.965 AM 03/20/2016,Autonomous Enabled,9,FALSE,0,NO ERROR,0.000000,-35.939666,0.000000,-36.382415,FALSE,FALSE,TRUE,FALSE,FALSE,FALSE,Disabled,0.000000,0.000000,0.000000,TRUE,-1.494705,-1.122818,0.000000,-0.003738,-0.007721,0.000000,0.115000,0.029000,0.016000,-0.670000,5.760000,2.600000,-0.291712,Hold,0.929932,0.000000,Hold,-250.000000,2.000000,LowGoal,1342.500000,-1454.545455,Speed,1312.500000,-1454.545455,Speed,Off,Off0.000000,1,Read: /home/lvuser/scripts/auto_01.bee,File good!,DRIVE_STRAIGHT_NAVX 200 10000,DRIVE_STRAIGHT_NAVX
11:03:13.066 AM 03/20/2016,Autonomous Enabled,11,FALSE,0,NO ERROR,0.000000,-43.286732,0.000000,-43.658898,FALSE,FALSE,TRUE,FALSE,FALSE,FALSE,Disabled,0.000000,0.000000,0.000000,TRUE,-1.495178,-1.123077,0.000000,-0.003387,-0.010254,0.000000,-0.028000,0.084000,0.122000,-0.410000,5.100000,2.720000,-0.185581,Hold,0.929932,0.000000,Hold,-250.000000,2.000000,LowGoal,1357.500000,-1454.545455,Speed,1320.000000,-1454.545455,Speed,Off,Off0.000000,1,Read: /home/lvuser/scripts/auto_01.bee,File good!,DRIVE_STRAIGHT_NAVX 200 10000,DRIVE_STRAIGHT_NAVX
11:03:13.167 AM 03/20/2016,Autonomous Enabled,11,FALSE,0,NO ERROR,0.000000,-50.383549,0.000000,-50.768548,FALSE,FALSE,TRUE,FALSE,FALSE,FALSE,Disabled,0.000000,0.000000,0.000000,TRUE,-1.496262,-1.123077,0.000000,-0.042496,-0.002853,0.000000,-0.008000,0.063000,-0.094000,-0.270000,5.190000,2.640000,-0.135275,Hold,0.929932,0.000000,Hold,-250.000000,2.000000,LowGoal,1350.000000,-1454.545455,Speed,1320.000000,-1454.545455,Speed,Off,Off0.000000,1,Read: /home/lvuser/scripts/auto_01.bee,File good!,DRIVE_STRAIGHT_NAVX 200 10000,DRIVE_STRAIGHT_NAVX
11:03:13.267 AM 03/20/2016,Autonomous Enabled,10,FALSE,0,NO ERROR,0.000000,-58.577613,0.000000,-57.390532,FALSE,FALSE,TRUE,FALSE,FALSE,FALSE,Disabled,0.000000,0.000000,0.000000,TRUE,-1.504074,-1.130600,0.000000,-0.240936,-0.159866,0.000000,-0.239000,-0.621000,-0.365000,-2.820000,6.060000,1.680000,-3.251630,Hold,0.929932,0.000000,Hold,-250.000000,2.000000,LowGoal,1350.000000,-1454.545455,Speed,1320.000000,-1454.545455,Speed,Off,Off0.000000,1,Read: /home/lvuser/scripts/auto_01.bee,File good!,DRIVE_STRAIGHT_NAVX 200 10000,DRIVE_STRAIGHT_NAVX
11:03:13.371 AM 03/20/2016,Autonomous Enabled,13,FALSE,0,NO ERROR,0.000000,-67.028343,0.000000,-62.780520,FALSE,FALSE,TRUE,FALSE,FALSE,FALSE,Disabled,0.000000,0.000000,0.000000,TRUE,-1.524307,-1.136124,0.000000,-0.513336,-0.064667,0.000000,-0.284000,0.057000,-0.062000,-2.820000,6.060000,1.680000,-9.781691,Hold,0.929443,0.000000,Hold,-250.000000,2.000000,LowGoal,1350.000000,-1454.545455,Speed,1312.500000,-1454.545455,Speed,Off,Off0.000000,1,Read: /home/lvuser/scripts/auto_01.bee,File good!,DRIVE_STRAIGHT_NAVX 200 10000,DRIVE_STRAIGHT_NAVX
11:03:13.471 AM 03/20/2016,Autonomous Enabled,10,FALSE,0,NO ERROR,0.000000,-74.715492,0.000000,-67.843258,FALSE,FALSE,TRUE,FALSE,FALSE,FALSE,Disabled,0.000000,0.000000,0.000000,TRUE,-1.561310,-1.130859,0.000000,-0.666946,0.230164,0.000000,-0.211000,0.135000,0.091000,-10.720000,6.960000,1.870000,-16.758187,Hold,0.929443,0.000000,Hold,-250.000000,2.000000,LowGoal,1335.000000,-1454.545455,Speed,1305.000000,-1454.545455,Speed,Off,Off0.000000,1,Read: /home/lvuser/scripts/auto_01.bee,File good!,DRIVE_STRAIGHT_NAVX 200 10000,DRIVE_STRAIGHT_NAVX
11:03:13.571 AM 03/20/2016,Autonomous Enabled,10,FALSE,0,NO ERROR,0.000000,-80.682978,0.000000,-74.266326,FALSE,FALSE,TRUE,FALSE,FALSE,FALSE,Disabled,0.000000,0.000000,0.000000,TRUE,-1.561310,-1.130859,0.000000,-0.666946,0.230164,0.000000,-0.141000,0.331000,0.295000,-17.770000,6.480000,2.440000,-17.747657,Hold,0.929932,0.000000,Hold,-255.000000,2.000000,LowGoal,1335.000000,-1454.545455,Speed,1267.500000,-1454.545455,Speed,Off,Off0.000000,1,Read: /home/lvuser/scripts/auto_01.bee,File good!,DRIVE_STRAIGHT_NAVX 200 10000,DRIVE_STRAIGHT_NAVX
11:03:13.672 AM 03/20/2016,Autonomous Enabled,9,FALSE,0,NO ERROR,0.000000,-86.419465,0.000000,-82.838973,FALSE,FALSE,TRUE,FALSE,FALSE,FALSE,Disabled,0.000000,0.000000,0.000000,TRUE,-1.612823,-1.084030,0.000000,-0.307190,0.532898,0.000000,0.273000,-0.185000,-0.025000,-18.880000,5.260000,3.580000,-13.078468,Hold,0.929932,0.000000,Hold,-262.000000,2.000000,LowGoal,1290.000000,-1454.545455,Speed,1267.500000,-1454.545455,Speed,Off,Off0.000000,1,Read: /home/lvuser/scripts/auto_01.bee,File good!,DRIVE_STRAIGHT_NAVX 200 10000,DRIVE_STRAIGHT_NAVX
11:03:13.772 AM 03/20/2016,Autonomous Enabled,9,FALSE,0,NO ERROR,0.000000,-92.284284,0.000000,-92.342034,FALSE,FALSE,TRUE,FALSE,FALSE,FALSE,Disabled,0.000000,0.000000,0.000000,TRUE,-1.612823,-1.084030,0.000000,-0.307190,0.532898,0.000000,0.257000,0.095000,-0.262000,-13.410000,4.080000,4.160000,-6.306505,Hold,0.929932,0.000000,Hold,-262.000000,2.000000,LowGoal,1290.000000,-1454.545455,Speed,1260.000000,-1454.545455,Speed,Off,Off0.000000,1,Read: /home/lvuser/scripts/auto_01.bee,File good!,DRIVE_STRAIGHT_NAVX 200 10000,DRIVE_STRAIGHT_NAVX
11:03:13.873 AM 03/20/2016,Autonomous Enabled,9,FALSE,0,NO ERROR,0.000000,-98.675269,0.000000,-101.190597,FALSE,FALSE,TRUE,FALSE,FALSE,FALSE,Disabled,0.000000,0.000000,0.000000,TRUE,-1.623016,-1.062103,0.000000,-0.219345,0.235931,0.000000,-0.185000,-0.358000,-0.021000,-6.470000,4.620000,2.880000,-0.812729,Hold,0.929443,0.000000,Hold,-262.000000,2.000000,LowGoal,1312.500000,-1454.545455,Speed,1297.500000,-1454.545455,Speed,Off,Off0.000000,1,Read: /home/lvuser/scripts/auto_01.bee,File good!,DRIVE_STRAIGHT_NAVX 200 10000,DRIVE_STRAIGHT_NAVX
11:03:13.973 AM 03/20/2016,Autonomous Enabled,9,FALSE,0,NO ERROR,0.000000,-98.675269,0.000000,-101.190597,FALSE,FALSE,TRUE,FALSE,FALSE,FALSE,Disabled,0.000000,0.000000,0.000000,TRUE,-1.637314,-1.053558,0.000000,-0.232010,0.151581,0.000000,-0.121000,0.000000,0.358000,-1.950000,3.300000,3.160000,-0.812729,Hold,0.929443,0.000000,Hold,-262.000000,2.000000,LowGoal,1350.000000,-1454.545455,Speed,1335.000000,-1454.545455,Speed,Off,Off0.000000,1,Read: /home/lvuser/scripts/auto_01.bee,File good!,DRIVE_STRAIGHT_NAVX 200 10000,DRIVE_STRAIGHT_NAVX
11:03:14.074 AM 03/20/2016,Autonomous Enabled,9,FALSE,0,NO ERROR,0.000000,-105.784919,0.000000,-110.007076,FALSE,FALSE,TRUE,FALSE,FALSE,FALSE,Disabled,0.000000,0.000000,0.000000,TRUE,-1.648743,-1.054337,0.000000,-0.329926,-0.143295,0.000000,-0.356000,-0.325000,0.279000,2.540000,4.210000,2.220000,3.094412,Hold,0.929443,0.000000,Hold,-262.000000,2.000000,LowGoal,1357.500000,-1454.545455,Speed,1327.500000,-1454.545455,Speed,Off,Off0.000000,1,Read: /home/lvuser/scripts/auto_01.bee,File good!,DRIVE_STRAIGHT_NAVX 200 10000,DRIVE_STRAIGHT_NAVX
11:03:14.175 AM 03/20/2016,Autonomous Enabled,9,FALSE,0,NO ERROR,0.000000,-113.285985,0.000000,-117.816141,TRUE,FALSE,TRUE,FALSE,FALSE,FALSE,Disabled,0.000000,0.000000,0.000000,TRUE,-1.670609,-1.067825,0.000000,-0.482162,-0.269897,0.000000,-0.132000,0.111000,0.184000,4.030000,2.960000,1.860000,4.160738,Hold,0.929443,0.000000,Hold,-262.000000,2.000000,LowGoal,1342.500000,-1454.545455,Speed,1320.000000,-1454.545455,Speed,Off,Off0.000000,1,Read: /home/lvuser/scripts/auto_01.bee,File good!,DRIVE_STRAIGHT_NAVX 200 10000,DRIVE_STRAIGHT_NAVX
11:03:14.276 AM 03/20/2016,Autonomous Enabled,10,FALSE,0,NO ERROR,0.000000,-121.582716,0.000000,-125.503290,TRUE,FALSE,TRUE,FALSE,FALSE,FALSE,Disabled,0.000000,0.000000,0.000000,TRUE,-1.697113,-1.081451,0.000000,-0.540649,-0.294662,0.000000,-0.008000,0.018000,-0.072000,3.290000,2.690000,1.690000,3.441494,Hold,0.929443,0.000000,Hold,-262.000000,2.000000,LowGoal,1350.000000,-1454.545455,Speed,1312.500000,-1454.545455,Speed,Off,Off0.000000,1,Read: /home/lvuser/scripts/auto_01.bee,File good!,DRIVE_STRAIGHT_NAVX 200 10000,DRIVE_STRAIGHT_NAVX
11:03:14.376 AM 03/20/2016,Autonomous Enabled,10,FALSE,0,NO ERROR,0.000000,-130.418445,0.000000,-133.511271,TRUE,FALSE,TRUE,FALSE,FALSE,FALSE,Disabled,0.000000,0.000000,0.000000,TRUE,-1.731720,-1.097565,0.000000,-0.603012,-0.254623,0.000000,-0.103000,0.103000,0.086000,1.650000,2.760000,1.990000,1.535157,Hold,0.929443,0.000000,Hold,-262.000000,2.000000,LowGoal,1357.500000,-1454.545455,Speed,1327.500000,-1454.545455,Speed,Off,Off0.000000,1,Read: /home/lvuser/scripts/auto_01.bee,File good!,DRIVE_STRAIGHT_NAVX 200 10000,DRIVE_STRAIGHT_NAVX
11:03:14.477 AM 03/20/2016,Autonomous Enabled,10,FALSE,0,NO ERROR,0.000000,-139.530090,0.000000,-142.013335,FALSE,FALSE,TRUE,FALSE,FALSE,FALSE,Disabled,0.000000,0.000000,0.000000,TRUE,-1.763306,-1.108459,0.000000,-0.616257,-0.199799,0.000000,-0.225000,0.179000,-0.048000,-0.030000,5.120000,2.000000,-0.037923,Hold,0.929443,0.000000,Hold,-262.000000,2.000000,LowGoal,1350.000000,-1454.545455,Speed,1327.500000,-1454.545455,Speed,Off,Off0.000000,1,Read: /home/lvuser/scripts/auto_01.bee,File good!,DRIVE_STRAIGHT_NAVX 200 10000,DRIVE_STRAIGHT_NAVX
11:03:14.577 AM 03/20/2016,Autonomous Enabled,10,FALSE,0,NO ERROR,0.000000,-147.659988,0.000000,-150.085482,FALSE,FALSE,TRUE,FALSE,FALSE,FALSE,Disabled,0.000000,0.000000,0.000000,TRUE,-1.797836,-1.113037,0.000000,-0.733231,-0.035706,0.000000,-0.022000,-0.204000,-0.114000,-0.620000,10.410000,2.330000,-0.386372,Hold,0.930664,0.000000,Hold,-262.000000,2.000000,LowGoal,1342.500000,-1454.545455,Speed,1327.500000,-1454.545455,Speed,Off,Off0.000000,1,Read: /home/lvuser/scripts/auto_01.bee,File good!,DRIVE_STRAIGHT_NAVX 200 10000,DRIVE_STRAIGHT_NAVX
11:03:14.677 AM 03/20/2016,Autonomous Enabled,9,FALSE,0,NO ERROR,0.000000,-155.250887,0.000000,-157.759798,FALSE,FALSE,TRUE,FALSE,FALSE,FALSE,Disabled,0.000000,0.000000,0.000000,TRUE,-1.838959,-1.114975,0.000000,-0.933456,0.000778,0.000000,0.476000,0.252000,0.326000,-0.410000,13.650000,2.410000,-0.299850,Hold,0.929932,0.000000,Hold,-244.000000,2.000000,LowGoal,1357.500000,-1454.545455,Speed,1327.500000,-1454.545455,Speed,Off,Off0.000000,1,Read: /home/lvuser/scripts/auto_01.bee,File good!,DRIVE_STRAIGHT_NAVX 200 10000,DRIVE_STRAIGHT_NAVX
11:03:14.777 AM 03/20/2016,Autonomous Enabled,9,FALSE,0,NO ERROR,0.000000,-162.071788,0.000000,-164.606365,FALSE,FALSE,TRUE,FALSE,FALSE,FALSE,Disabled,0.000000,0.000000,0.000000,TRUE,-1.887863,-1.111099,0.000000,-1.096954,0.160461,0.000000,0.436000,-0.225000,-0.571000,-0.220000,21.020000,2.470000,-0.161694,Hold,0.943604,0.000000,Hold,-190.000000,2.000000,LowGoal,1350.000000,-1454.545455,Speed,1320.000000,-1454.545455,Speed,Off,Off0.000000,1,Read: /home/lvuser/scripts/auto_01.bee,File good!,DRIVE_STRAIGHT_NAVX 200 10000,DRIVE_STRAIGHT_NAVX
11:03:14.877 AM 03/20/2016,Autonomous Enabled,10,FALSE,0,NO ERROR,0.000000,-167.596525,0.000000,-170.297935,FALSE,FALSE,TRUE,FALSE,FALSE,FALSE,Disabled,0.000000,0.000000,0.000000,TRUE,-1.938751,-1.105026,0.000000,-0.991272,0.105225,0.000000,-0.571000,0.273000,0.930000,-0.870000,20.210000,1.580000,-0.693266,Hold,0.947021,0.000000,Hold,-277.000000,2.000000,LowGoal,1335.000000,-1454.545455,Speed,1312.500000,-1454.545455,Speed,Off,Off0.000000,1,Read: /home/lvuser/scripts/auto_01.bee,File good!,DRIVE_STRAIGHT_NAVX 200 10000,DRIVE_STRAIGHT_NAVX
11:03:14.977 AM 03/20/2016,Autonomous Enabled,10,FALSE,0,NO ERROR,0.000000,-172.248597,0.000000,-174.738258,FALSE,FALSE,TRUE,FALSE,FALSE,FALSE,Disabled,0.000000,0.000000,0.000000,TRUE,-1.995285,-1.097610,0.000000,-1.115738,0.118195,0.000000,0.063000,-0.043000,-0.886000,0.200000,11.730000,-0.440000,-0.399141,Hold,0.950439,0.000000,Hold,-277.000000,2.000000,LowGoal,1342.500000,-1454.545455,Speed,1305.000000,-1454.545455,Speed,Off,Off0.000000,1,Read: /home/lvuser/scripts/auto_01.bee,File good!,DRIVE_STRAIGHT_NAVX 200 10000,DRIVE_STRAIGHT_NAVX
11:03:15.077 AM 03/20/2016,Autonomous Enabled,10,FALSE,0,NO ERROR,0.000000,-177.959417,0.000000,-178.357250,TRUE,FALSE,TRUE,FALSE,FALSE,FALSE,Disabled,0.000000,0.000000,0.000000,TRUE,-2.065186,-1.099731,0.000000,-1.451035,-0.379379,0.000000,0.203000,-1.140000,0.966000,-1.760000,0.140000,1.750000,-2.389015,Hold,1.384521,0.000000,Hold,-260.000000,2.000000,LowGoal,1335.000000,-1454.545455,Speed,1305.000000,-1454.545455,Speed,Off,Off0.000000,1,Read: /home/lvuser/scripts/auto_01.bee,File good!,DRIVE_STRAIGHT_NAVX 200 10000,DRIVE_STRAIGHT_NAVX
11:03:15.178 AM 03/20/2016,Autonomous Enabled,10,FALSE,0,NO ERROR,0.000000,-182.380490,0.000000,-182.149491,FALSE,FALSE,TRUE,FALSE,FALSE,FALSE,Disabled,0.000000,0.000000,0.000000,TRUE,-2.131256,-1.129349,0.000000,-1.242828,-0.594452,0.000000,1.175000,0.564000,-0.808000,-2.300000,-16.260000,0.990000,-2.806990,Hold,1.222168,0.000000,Hold,-260.000000,2.000000,LowGoal,1312.500000,-1454.545455,Speed,1297.500000,-1454.545455,Speed,Off,Off0.000000,1,Read: /home/lvuser/scripts/auto_01.bee,File good!,DRIVE_STRAIGHT_NAVX 200 10000,DRIVE_STRAIGHT_NAVX
11:03:15.278 AM 03/20/2016,Autonomous Enabled,10,FALSE,0,NO ERROR,0.000000,-188.668809,0.000000,-188.380059,FALSE,FALSE,TRUE,FALSE,FALSE,FALSE,Disabled,0.000000,0.000000,0.000000,TRUE,-2.174942,-1.152237,0.000000,-0.743530,-0.429749,0.000000,0.559000,0.283000,-1.513000,-2.560000,-18.400000,2.800000,-3.567902,Hold,2.175537,0.000000,Hold,-256.000000,2.000000,LowGoal,1305.000000,-1454.545455,Speed,1282.500000,-1454.545455,Speed,Off,Off0.000000,1,Read: /home/lvuser/scripts/auto_01.bee,File good!,DRIVE_STRAIGHT_NAVX 200 10000,DRIVE_STRAIGHT_NAVX
11:03:15.378 AM 03/20/2016,Autonomous Enabled,10,FALSE,0,NO ERROR,0.000000,-196.971956,0.000000,-197.202956,FALSE,FALSE,TRUE,FALSE,FALSE,FALSE,Disabled,0.000000,0.000000,0.000000,TRUE,-2.203796,-1.167160,0.000000,-0.368958,-0.114471,0.000000,0.659000,-0.121000,0.906000,-4.010000,-10.790000,2.800000,-4.755887,Hold,1.928711,0.000000,Hold,-283.000000,2.000000,LowGoal,1335.000000,-1454.545455,Speed,1312.500000,-1454.545455,Speed,Off,Off0.000000,1,Read: /home/lvuser/scripts/auto_01.bee,File good!,DRIVE_STRAIGHT_NAVX 200 10000,DRIVE_STRAIGHT_NAVX
11:03:15.479 AM 03/20/2016,Autonomous Enabled,10,FALSE,0,NO ERROR,0.000000,-204.473022,0.000000,-205.499686,FALSE,FALSE,TRUE,FALSE,FALSE,FALSE,Disabled,0.000000,0.000000,0.000000,TRUE,-2.219406,-1.159515,0.000000,-0.267197,0.483673,0.000000,-1.953000,0.481000,0.369000,-3.650000,-3.600000,1.780000,-4.011062,Hold,1.219971,0.000000,Hold,-264.000000,2.000000,LowGoal,1350.000000,-1454.545455,Speed,1327.500000,-1454.545455,Speed,Off,Off0.000000,1,Read: /home/lvuser/scripts/auto_01.bee,File good!,DRIVE_STRAIGHT_NAVX 200 10000,DRIVE_STRAIGHT_NAVX
11:03:15.579 AM 03/20/2016,Autonomous Enabled,10,FALSE,0,NO ERROR,0.000000,-212.198670,0.000000,-214.290499,FALSE,FALSE,TRUE,FALSE,FALSE,FALSE,Disabled,0.000000,0.000000,0.000000,TRUE,-2.242630,-1.113388,0.000000,-0.314957,0.796555,0.000000,0.271000,-0.471000,-0.906000,-1.820000,-0.460000,4.350000,-2.395132,Hold,1.685303,0.000000,Hold,-260.000000,2.000000,LowGoal,1335.000000,-1454.545455,Speed,1327.500000,-1454.545455,Speed,Off,Off0.000000,1,Read: /home/lvuser/scripts/auto_01.bee,File good!,DRIVE_STRAIGHT_NAVX 200 10000,DRIVE_STRAIGHT_NAVX
11:03:15.679 AM 03/20/2016,Autonomous Enabled,9,FALSE,0,NO ERROR,0.000000,-220.264402,0.000000,-222.914479,FALSE,FALSE,TRUE,FALSE,FALSE,FALSE,Disabled,0.000000,0.000000,0.000000,TRUE,-2.258347,-1.071518,0.000000,-0.354797,0.769791,0.000000,0.193000,0.801000,0.162000,0.300000,5.530000,3.560000,-0.564920,Hold,1.350342,0.000000,Hold,-199.000000,2.000000,LowGoal,1350.000000,-1454.545455,Speed,1327.500000,-1454.545455,Speed,Off,Off0.000000,1,Read: /home/lvuser/scripts/auto_01.bee,File good!,DRIVE_STRAIGHT_NAVX 200 10000,DRIVE_STRAIGHT_NAVX
11:03:15.779 AM 03/20/2016,Autonomous Enabled,9,FALSE,0,NO ERROR,0.000000,-227.765467,0.000000,-230.518211,FALSE,FALSE,TRUE,FALSE,FALSE,FALSE,Disabled,0.000000,0.000000,0.000000,TRUE,-2.270645,-1.028458,0.000000,-0.221497,1.009476,0.000000,0.187000,-0.148000,0.401000,-0.150000,2.620000,3.840000,-0.924303,Hold,1.436768,0.000000,Hold,-238.000000,2.000000,LowGoal,1342.500000,-1454.545455,Speed,1327.500000,-1454.545455,Speed,Off,Off0.000000,1,Read: /home/lvuser/scripts/auto_01.bee,File good!,DRIVE_STRAIGHT_NAVX 200 10000,DRIVE_STRAIGHT_NAVX
11:03:15.881 AM 03/20/2016,Autonomous Enabled,10,FALSE,0,NO ERROR,0.000000,-235.837615,0.000000,-238.571109,FALSE,FALSE,TRUE,FALSE,FALSE,FALSE,Disabled,0.000000,0.000000,0.000000,TRUE,-2.275604,-0.977768,0.000000,0.000000,0.986298,0.000000,-0.094000,0.895000,0.664000,-0.430000,4.360000,3.420000,-1.179551,Hold,1.110352,0.000000,Hold,-238.000000,2.000000,LowGoal,1320.000000,-1454.545455,Speed,1312.500000,-1454.545455,Speed,Off,Off0.000000,1,Read: /home/lvuser/scripts/auto_01.bee,File good!,DRIVE_STRAIGHT_NAVX 200 10000,DRIVE_STRAIGHT_NAVX
11:03:15.980 AM 03/20/2016,Autonomous Enabled,11,FALSE,0,NO ERROR,0.000000,-243.665930,0.000000,-246.482840,FALSE,FALSE,TRUE,FALSE,FALSE,FALSE,Disabled,0.000000,0.000000,0.000000,TRUE,-2.281372,-0.920975,0.000000,-0.172852,1.126221,0.000000,-0.014000,-0.040000,-0.336000,-0.400000,2.010000,3.200000,-1.243741,Hold,0.946045,0.000000,Hold,-238.000000,2.000000,LowGoal,1335.000000,-1454.545455,Speed,1327.500000,-1454.545455,Speed,Off,Off0.000000,1,Read: /home/lvuser/scripts/auto_01.bee,File good!,DRIVE_STRAIGHT_NAVX 200 10000,DRIVE_STRAIGHT_NAVX
11:03:16.081 AM 03/20/2016,Autonomous Enabled,10,FALSE,0,NO ERROR,0.000000,-252.039661,0.000000,-254.792404,FALSE,FALSE,TRUE,FALSE,FALSE,FALSE,Disabled,0.000000,0.000000,0.000000,TRUE,-2.288025,-0.865341,0.000000,-0.117264,1.101044,0.000000,-0.085000,0.168000,0.210000,-0.610000,4.020000,3.300000,-1.461710,Hold,0.941162,0.000000,Hold,-238.000000,2.000000,LowGoal,1365.000000,-1454.545455,Speed,1335.000000,-1454.545455,Speed,Off,Off0.000000,1,Read: /home/lvuser/scripts/auto_01.bee,File good!,DRIVE_STRAIGHT_NAVX 200 10000,DRIVE_STRAIGHT_NAVX
11:03:16.181 AM 03/20/2016,Autonomous Enabled,10,FALSE,0,NO ERROR,0.000000,-259.900059,0.000000,-262.826052,FALSE,FALSE,TRUE,FALSE,FALSE,FALSE,Disabled,0.000000,0.000000,0.000000,TRUE,-2.296356,-0.809158,0.000000,-0.191925,1.115601,0.000000,-0.023000,0.087000,0.023000,-0.530000,2.390000,3.270000,-1.495743,Hold,0.941162,0.000000,Hold,-238.000000,2.000000,LowGoal,1365.000000,-1454.545455,Speed,1327.500000,-1454.545455,Speed,Off,Off0.000000,1,Read: /home/lvuser/scripts/auto_01.bee,File good!,DRIVE_STRAIGHT_NAVX 200 10000,DRIVE_STRAIGHT_NAVX
11:03:16.281 AM 03/20/2016,Autonomous Enabled,9,FALSE,0,NO ERROR,0.000000,-267.952957,0.000000,-270.968783,FALSE,FALSE,TRUE,FALSE,FALSE,FALSE,Disabled,0.000000,0.000000,0.000000,TRUE,-2.307587,-0.753571,0.000000,-0.230637,1.112595,0.000000,0.088000,0.066000,-0.285000,-0.520000,2.580000,3.300000,-1.406949,Hold,0.941162,0.000000,Hold,-238.000000,2.000000,LowGoal,1350.000000,-1454.545455,Speed,1335.000000,-1454.545455,Speed,Off,Off0.000000,1,Read: /home/lvuser/scripts/auto_01.bee,File good!,DRIVE_STRAIGHT_NAVX 200 10000,DRIVE_STRAIGHT_NAVX
11:03:16.380 AM 03/20/2016,Autonomous Enabled,11,FALSE,0,NO ERROR,0.000000,-276.140604,0.000000,-279.336097,FALSE,FALSE,TRUE,FALSE,FALSE,FALSE,Disabled,0.000000,0.000000,0.000000,TRUE,-2.326126,-0.675201,0.000000,-0.323853,1.132614,0.000000,0.047000,-0.115000,-0.285000,-0.310000,2.590000,3.230000,-1.271333,Hold,0.942627,0.000000,Hold,-238.000000,2.000000,LowGoal,1365.000000,-1454.545455,Speed,1342.500000,-1454.545455,Speed,Off,Off0.000000,1,Read: /home/lvuser/scripts/auto_01.bee,File good!,WAIT 500,WAIT
11:03:16.481 AM 03/20/2016,Autonomous Enabled,11,FALSE,0,NO ERROR,0.000000,-284.642668,0.000000,-287.908743,FALSE,FALSE,TRUE,FALSE,FALSE,FALSE,Disabled,0.000000,0.000000,0.000000,TRUE,-2.339111,-0.631058,0.000000,-0.326706,1.101425,0.000000,-0.063000,-0.067000,0.189000,-0.210000,2.260000,3.030000,-1.178942,Hold,0.942627,0.000000,Hold,-238.000000,2.000000,LowGoal,1365.000000,-1454.545455,Speed,1342.500000,-1454.545455,Speed,Off,Off0.000000,1,Read: /home/lvuser/scripts/auto_01.bee,File good!,WAIT 500,WAIT
11:03:16.581 AM 03/20/2016,Autonomous Enabled,9,FALSE,0,NO ERROR,0.000000,-292.932982,0.000000,-296.218307,FALSE,FALSE,TRUE,FALSE,FALSE,FALSE,Disabled,0.000000,0.000000,0.000000,TRUE,-2.361084,-0.565842,0.000000,-0.393799,1.057236,0.000000,-0.027000,-0.135000,-0.055000,-0.240000,2.380000,3.030000,-1.232656,Hold,0.942383,0.000000,Hold,-238.000000,2.000000,LowGoal,1365.000000,-1454.545455,Speed,1342.500000,-1454.545455,Speed,Off,Off0.000000,1,Read: /home/lvuser/scripts/auto_01.bee,File good!,WAIT 500,WAIT
11:03:16.681 AM 03/20/2016,Autonomous Enabled,10,FALSE,0,NO ERROR,0.000000,-301.293879,0.000000,-304.624121,FALSE,FALSE,TRUE,FALSE,FALSE,FALSE,Disabled,0.000000,0.000000,0.000000,TRUE,-2.361084,-0.565842,0.000000,-0.393799,1.057236,0.000000,-0.027000,-0.135000,-0.055000,-0.240000,2.380000,3.030000,-1.304977,Hold,0.942383,0.000000,Hold,-238.000000,2.000000,LowGoal,1357.500000,-1454.545455,Speed,1335.000000,-1454.545455,Speed,Off,Off0.000000,1,Read: /home/lvuser/scripts/auto_01.bee,File good!,WAIT 500,WAIT
11:03:16.782 AM 03/20/2016,Autonomous Enabled,14,FALSE,0,NO ERROR,0.000000,-301.293879,0.000000,-304.624121,FALSE,FALSE,TRUE,FALSE,FALSE,FALSE,Disabled,0.000000,0.000000,0.000000,TRUE,-2.361084,-0.565842,0.000000,-0.393799,1.057236,0.000000,-0.027000,-0.135000,-0.055000,-0.240000,2.380000,3.030000,-1.304977,Hold,0.941650,0.000000,Hold,-1112.000000,2.000000,LowGoal,1297.500000,-1454.545455,Speed,1215.000000,-1454.545455,Speed,Off,Off0.000000,1,Read: /home/lvuser/scripts/auto_01.bee,File good!,WAIT 500,WAIT
11:03:16.882 AM 03/20/2016,Autonomous Disabled,10,FALSE,0,NO ERROR,0.000000,-312.324103,0.000000,-315.044763,FALSE,FALSE,TRUE,FALSE,FALSE,FALSE,Disabled,0.000000,0.000000,0.000000,TRUE,-2.450211,-0.421509,0.000000,-1.133789,0.000000,0.000000,-0.277000,-0.077000,0.060000,-0.850000,-3.170000,2.980000,-2.066096,Hold,0.942139,0.000000,Hold,-10178.000000,2.000000,LowGoal,1117.500000,-1454.545455,Speed,1005.000000,-1454.545455,Speed,Off,Off0.000000,1,Read: /home/lvuser/scripts/auto_01.bee,File good!,WAIT 500,WAIT
11:03:16.982 AM 03/20/2016,Autonomous Disabled,10,FALSE,0,NO ERROR,0.000000,-316.366594,0.000000,-318.708671,FALSE,FALSE,TRUE,FALSE,FALSE,FALSE,Disabled,0.000000,0.000000,0.000000,TRUE,-2.502014,-0.421585,0.000000,-1.390335,0.015594,0.000000,-0.336000,0.018000,0.086000,-1.600000,-3.190000,3.340000,-2.875359,Hold,0.942139,0.000000,Hold,-19841.000000,2.000000,LowGoal,945.000000,-1454.545455,Speed,712.500000,-1454.545455,Speed,Off,Off0.000000,1,Read: /home/lvuser/scripts/auto_01.bee,File good!,WAIT 500,WAIT
11:03:17.082 AM 03/20/2016,Autonomous Disabled,9,FALSE,0,NO ERROR,0.000000,-319.035921,0.000000,-321.044333,FALSE,FALSE,TRUE,FALSE,FALSE,FALSE,Disabled,0.000000,0.000000,0.000000,TRUE,-2.597702,-0.419479,0.000000,-1.711349,0.046509,0.000000,-0.229000,0.048000,-0.076000,-2.190000,-4.800000,3.230000,-3.506662,Hold,0.942139,0.000000,Hold,-27662.000000,2.000000,LowGoal,780.000000,-1454.545455,Speed,442.500000,-1454.545455,Speed,Off,Off0.000000,1,Read: /home/lvuser/scripts/auto_01.bee,File good!,WAIT 500,WAIT
11:03:17.182 AM 03/20/2016,Autonomous Disabled,10,FALSE,0,NO ERROR,0.000000,-320.877500,0.000000,-322.289163,FALSE,FALSE,TRUE,FALSE,FALSE,FALSE,Disabled,0.000000,0.000000,0.000000,TRUE,-2.691559,-0.418640,0.000000,-1.963837,0.017258,0.000000,-0.103000,0.267000,0.182000,-3.450000,-4.450000,3.520000,-4.859353,Hold,0.942139,0.000000,Hold,-37458.000000,2.000000,LowGoal,622.500000,-1454.545455,Speed,195.000000,-1454.545455,Speed,Off,Off0.000000,1,Read: /home/lvuser/scripts/auto_01.bee,File good!,WAIT 500,WAIT
11:03:17.282 AM 03/20/2016,Autonomous Disabled,10,FALSE,0,NO ERROR,0.000000,-321.191916,0.000000,-322.808912,FALSE,FALSE,TRUE,FALSE,FALSE,FALSE,Disabled,0.000000,0.000000,0.000000,TRUE,-2.793365,-0.413818,0.000000,-2.079666,0.088242,0.000000,-0.141000,-0.130000,0.106000,-3.470000,-3.560000,3.620000,-4.705980,Hold,0.942139,0.000000,Hold,-44712.000000,2.000000,LowGoal,457.500000,-1454.545455,Speed,15.000000,-1454.545455,Speed,Off,Off0.000000,1,Read: /home/lvuser/scripts/auto_01.bee,File good!,WAIT 500,WAIT
11:03:17.382 AM 03/20/2016,Autonomous Disabled,9,FALSE,0,NO ERROR,0.000000,-321.069999,0.000000,-322.667745,FALSE,FALSE,TRUE,FALSE,FALSE,FALSE,Disabled,0.000000,0.000000,0.000000,TRUE,-2.899277,-0.410919,0.000000,-2.114365,0.073318,0.000000,0.039000,0.024000,-0.083000,-3.290000,-4.240000,3.680000,-4.652707,Hold,0.942139,0.000000,Hold,-44712.000000,2.000000,LowGoal,352.500000,-1454.545455,Speed,0.000000,-1454.545455,Speed,Off,Off0.000000,1,Read: /home/lvuser/scripts/auto_01.bee,File good!,WAIT 500,WAIT
11:03:17.484 AM 03/20/2016,Autonomous Disabled,10,FALSE,0,NO ERROR,0.000000,-320.800500,0.000000,-322.423913,FALSE,FALSE,TRUE,FALSE,FALSE,FALSE,Disabled,0.000000,0.000000,0.000000,TRUE,-3.002533,-0.407639,0.000000,-2.024948,0.054108,0.000000,0.078000,-0.009000,0.049000,-3.400000,-3.540000,3.410000,-4.660346,Hold,0.942139,0.000000,Hold,-51337.000000,2.000000,LowGoal,247.500000,-1454.545455,Speed,0.000000,-1454.545455,Speed,Off,Off0.000000,1,Read: /home/lvuser/scripts/auto_01.bee,File good!,WAIT 500,WAIT
11:03:17.584 AM 03/20/2016,Autonomous Disabled,10,FALSE,0,NO ERROR,0.000000,-320.377001,0.000000,-322.000414,FALSE,FALSE,TRUE,FALSE,FALSE,FALSE,Disabled,0.000000,0.000000,0.000000,TRUE,-3.101410,-0.407608,0.000000,-1.945740,0.004135,0.000000,0.121000,0.025000,0.003000,-3.280000,-3.770000,3.380000,-4.560580,Hold,0.942139,0.000000,Hold,-55678.000000,2.000000,LowGoal,135.000000,-1454.545455,Speed,0.000000,-1454.545455,Speed,Off,Off0.000000,1,Read: /home/lvuser/scripts/auto_01.bee,File good!,WAIT 500,WAIT
11:03:17.684 AM 03/20/2016,Autonomous Disabled,10,FALSE,0,NO ERROR,0.000000,-320.075418,0.000000,-321.660331,FALSE,TRUE,TRUE,FALSE,FALSE,FALSE,Disabled,0.000000,0.000000,0.000000,TRUE,-3.195312,-0.406982,0.000000,-1.833450,0.000000,0.000000,0.101000,0.007000,-0.007000,-3.450000,-3.540000,3.280000,-4.669720,Hold,0.942139,0.000000,Hold,-59330.000000,2.000000,LowGoal,30.000000,-1454.545455,Speed,0.000000,-1454.545455,Speed,Off,Off0.000000,1,Read: /home/lvuser/scripts/auto_01.bee,File good!,WAIT 500,WAIT
11:03:17.785 AM 03/20/2016,Autonomous Disabled,10,FALSE,0,NO ERROR,0.000000,-319.799502,0.000000,-321.422915,FALSE,TRUE,TRUE,FALSE,FALSE,FALSE,Disabled,0.000000,0.000000,0.000000,TRUE,-3.284149,-0.406982,0.000000,-1.738281,0.000000,0.000000,0.091000,-0.025000,0.008000,-3.370000,-3.400000,3.210000,-4.567861,Hold,0.942139,0.000000,Hold,-61657.000000,2.000000,LowGoal,0.000000,0.000000,Speed,0.000000,0.000000,Speed,Off,Off0.000000,1,Read: /home/lvuser/scripts/auto_01.bee,File good!,WAIT 500,WAIT
11:03:17.887 AM 03/20/2016,Autonomous Disabled,10,FALSE,0,NO ERROR,0.000000,-319.722502,0.000000,-321.307415,FALSE,FALSE,TRUE,FALSE,FALSE,FALSE,Disabled,0.000000,0.000000,0.000000,TRUE,-3.368179,-0.407227,0.000000,-1.642044,0.002548,0.000000,0.110000,0.021000,0.009000,-3.470000,-3.120000,3.210000,-4.625431,Hold,0.942139,0.000000,Hold,-63377.000000,2.000000,LowGoal,0.000000,0.000000,Speed,0.000000,0.000000,Speed,Off,Off0.000000,1,Read: /home/lvuser/scripts/auto_01.bee,File good!,WAIT 500,WAIT
11:03:17.987 AM 03/20/2016,Autonomous Disabled,9,FALSE,0,NO ERROR,0.000000,-319.722502,0.000000,-321.307415,FALSE,FALSE,TRUE,FALSE,FALSE,FALSE,Disabled,0.000000,0.000000,0.000000,TRUE,-3.463135,-0.407242,0.000000,-1.552719,-0.009384,0.000000,0.070000,0.004000,0.009000,-3.490000,-2.890000,3.140000,-4.645601,Hold,0.942139,0.000000,Hold,-63377.000000,2.000000,LowGoal,0.000000,-1454.545455,Speed,0.000000,-1454.545455,Speed,Off,Off0.000000,1,Read: /home/lvuser/scripts/auto_01.bee,File good!,WAIT 500,WAIT
11:03:18.089 AM 03/20/2016,Autonomous Disabled,9,FALSE,0,NO ERROR,0.000000,-319.722502,0.000000,-321.307415,FALSE,FALSE,TRUE,FALSE,FALSE,FALSE,Disabled,0.000000,0.000000,0.000000,TRUE,-3.539032,-0.407242,0.000000,-1.498383,0.000000,0.000000,0.056000,-0.006000,0.002000,-3.520000,-2.650000,3.120000,-4.658163,Hold,0.942139,0.000000,Hold,-64717.000000,2.000000,LowGoal,0.000000,-1454.545455,Speed,0.000000,-1454.545455,Speed,Off,Off0.000000,1,Read: /home/lvuser/scripts/auto_01.bee,File good!,WAIT 500,WAIT
11:03:18.189 AM 03/20/2016,Autonomous Disabled,9,FALSE,0,NO ERROR,0.000000,-319.722502,0.000000,-321.307415,FALSE,FALSE,TRUE,FALSE,FALSE,FALSE,Disabled,0.000000,0.000000,0.000000,TRUE,-3.612488,-0.407242,0.000000,-1.447388,0.000000,0.000000,0.055000,0.001000,0.032000,-3.540000,-2.390000,3.090000,-4.653082,Hold,0.942139,0.000000,Hold,-66065.000000,2.000000,LowGoal,0.000000,-1454.545455,Speed,0.000000,-1454.545455,Speed,Off,Off0.000000,1,Read: /home/lvuser/scripts/auto_01.bee,File good!,WAIT 500,WAIT
11:03:18.290 AM 03/20/2016,Autonomous Disabled,10,FALSE,0,NO ERROR,0.000000,-319.722502,0.000000,-321.307415,FALSE,FALSE,TRUE,FALSE,FALSE,FALSE,Disabled,0.000000,0.000000,0.000000,TRUE,-3.683517,-0.407242,0.000000,-1.402481,0.000000,0.000000,0.045000,0.001000,0.016000,-3.560000,-2.210000,3.060000,-4.658848,Hold,0.942139,0.000000,Hold,-67417.000000,2.000000,LowGoal,0.000000,-1454.545455,Speed,0.000000,-1454.545455,Speed,Off,Off0.000000,1,Read: /home/lvuser/scripts/auto_01.bee,File good!,WAIT 500,WAIT
11:03:18.390 AM 03/20/2016,Autonomous Disabled,10,FALSE,0,NO ERROR,0.000000,-319.722502,0.000000,-321.307415,FALSE,FALSE,TRUE,FALSE,FALSE,FALSE,Disabled,0.000000,0.000000,0.000000,TRUE,-3.752350,-0.407242,0.000000,-1.360672,0.000000,0.000000,0.044000,-0.002000,0.016000,-3.580000,-2.020000,3.040000,-4.670037,Hold,0.942139,0.000000,Hold,-67417.000000,2.000000,LowGoal,0.000000,-1454.545455,Speed,0.000000,-1454.545455,Speed,Off,Off0.000000,1,Read: /home/lvuser/scripts/auto_01.bee,File good!,WAIT 500,WAIT
11:03:18.490 AM 03/20/2016,Autonomous Disabled,9,FALSE,0,NO ERROR,0.000000,-319.722502,0.000000,-321.307415,FALSE,FALSE,TRUE,FALSE,FALSE,FALSE,Disabled,0.000000,0.000000,0.000000,TRUE,-3.832245,-0.407242,0.000000,-1.312454,0.000000,0.000000,0.044000,-0.002000,0.016000,-3.610000,-1.840000,3.010000,-4.681256,Hold,0.942139,0.000000,Hold,-69237.000000,2.000000,LowGoal,0.000000,-1454.545455,Speed,0.000000,-1454.545455,Speed,Off,Off0.000000,1,Read: /home/lvuser/scripts/auto_01.bee,File good!,WAIT 500,WAIT
11:03:18.592 AM 03/20/2016,Autonomous Disabled,9,FALSE,0,NO ERROR,0.000000,-319.722502,0.000000,-321.307415,TRUE,TRUE,TRUE,FALSE,FALSE,FALSE,Disabled,0.000000,0.000000,0.000000,TRUE,-3.896713,-0.407242,0.000000,-1.273361,0.000000,0.000000,0.035000,-0.002000,0.019000,-3.620000,-1.700000,2.990000,-4.694420,Hold,0.942139,0.000000,Hold,-71374.000000,2.000000,LowGoal,0.000000,-1454.545455,Speed,0.000000,-1454.545455,Speed,Off,Off0.000000,1,Read: /home/lvuser/scripts/auto_01.bee,File good!,WAIT 500,WAIT
11:03:18.692 AM 03/20/2016,Autonomous Disabled,10,FALSE,0,NO ERROR,0.000000,-319.722502,0.000000,-321.307415,TRUE,TRUE,TRUE,FALSE,FALSE,FALSE,Disabled,0.000000,0.000000,0.000000,TRUE,-3.959320,-0.407242,0.000000,-1.238495,0.000000,0.000000,0.031000,-0.003000,0.017000,-3.640000,-1.560000,2.980000,-4.694568,Hold,0.942139,0.000000,Hold,-74138.000000,2.000000,LowGoal,0.000000,0.000000,Speed,0.000000,0.000000,Speed,Off,Off0.000000,1,Read: /home/lvuser/scripts/auto_01.bee,File good!,WAIT 500,WAIT
11:03:18.793 AM 03/20/2016,Autonomous Disabled,9,FALSE,0,NO ERROR,0.000000,-319.722502,0.000000,-321.307415,TRUE,FALSE,TRUE,FALSE,FALSE,FALSE,Disabled,0.000000,0.000000,0.000000,TRUE,-4.020340,-0.407242,0.000000,-1.208740,0.000000,0.000000,0.029000,-0.004000,0.019000,-3.660000,-1.420000,2.950000,-4.693887,Hold,0.942139,0.000000,Hold,-74138.000000,2.000000,LowGoal,0.000000,0.000000,Speed,0.000000,0.000000,Speed,Off,Off0.000000,1,Read: /home/lvuser/scripts/auto_01.bee,File good!,WAIT 500,WAIT
11:03:18.894 AM 03/20/2016,Autonomous Disabled,9,FALSE,0,NO ERROR,0.000000,-319.722502,0.000000,-321.307415,TRUE,FALSE,TRUE,FALSE,FALSE,FALSE,Disabled,0.000000,0.000000,0.000000,TRUE,-4.079971,-0.407242,0.000000,-1.181870,0.000000,0.000000,0.032000,0.001000,0.023000,-3.670000,-1.310000,2.940000,-4.704958,Hold,0.942139,0.000000,Hold,-77477.000000,2.000000,LowGoal,0.000000,-1454.545455,Speed,0.000000,-1454.545455,Speed,Off,Off0.000000,1,Read: /home/lvuser/scripts/auto_01.bee,File good!,WAIT 500,WAIT
11:03:18.996 AM 03/20/2016,Autonomous Disabled,11,FALSE,0,NO ERROR,0.000000,-319.722502,0.000000,-321.307415,TRUE,FALSE,TRUE,FALSE,FALSE,FALSE,Disabled,0.000000,0.000000,0.000000,TRUE,-4.138290,-0.407242,0.000000,-1.156693,0.000000,0.000000,0.018000,0.001000,0.021000,-3.690000,-1.190000,2.920000,-4.738695,Hold,0.942139,0.000000,Hold,-81723.000000,2.000000,LowGoal,0.000000,-1454.545455,Speed,0.000000,-1454.545455,Speed,Off,Off0.000000,1,Read: /home/lvuser/scripts/auto_01.bee,File good!,WAIT 500,WAIT
11:03:19.097 AM 03/20/2016,Autonomous Disabled,11,FALSE,0,NO ERROR,0.000000,-319.722502,0.000000,-321.307415,TRUE,FALSE,TRUE,FALSE,FALSE,FALSE,Disabled,0.000000,0.000000,0.000000,TRUE,-4.195419,-0.407242,0.000000,-1.131607,0.000000,0.000000,0.020000,-0.003000,0.014000,-3.710000,-1.100000,2.910000,-4.745818,Hold,0.942139,0.000000,Hold,-87197.000000,2.000000,LowGoal,0.000000,-1454.545455,Speed,0.000000,-1454.545455,Speed,Off,Off0.000000,1,Read: /home/lvuser/scripts/auto_01.bee,File good!,WAIT 500,WAIT
11:03:19.197 AM 03/20/2016,Autonomous Disabled,10,FALSE,0,NO ERROR,0.000000,-319.722502,0.000000,-321.307415,TRUE,FALSE,TRUE,FALSE,FALSE,FALSE,Disabled,0.000000,0.000000,0.000000,TRUE,-4.251236,-0.407242,0.000000,-1.105820,0.000000,0.000000,0.020000,-0.003000,0.014000,-3.730000,-0.990000,2.900000,-4.767736,Hold,0.942139,0.000000,Hold,-94080.000000,2.000000,LowGoal,0.000000,-1454.545455,Speed,0.000000,-1454.545455,Speed,Off,Off0.000000,1,Read: /home/lvuser/scripts/auto_01.bee,File good!,WAIT 500,WAIT
11:03:19.297 AM 03/20/2016,Autonomous Disabled,11,FALSE,0,NO ERROR,0.000000,-319.722502,0.000000,-321.307415,TRUE,FALSE,TRUE,FALSE,FALSE,FALSE,Disabled,0.000000,0.000000,0.000000,TRUE,-4.305862,-0.407242,0.000000,-1.082733,0.000000,0.000000,0.020000,-0.004000,0.021000,-3.740000,-0.910000,2.890000,-4.805105,Hold,0.942139,0.000000,Hold,-102914.000000,2.000000,LowGoal,0.000000,-1454.545455,Speed,0.000000,-1454.545455,Speed,Off,Off0.000000,1,Read: /home/lvuser/scripts/auto_01.bee,File good!,WAIT 500,WAIT
11:03:19.397 AM 03/20/2016,Autonomous Disabled,10,FALSE,0,NO ERROR,0.000000,-319.722502,0.000000,-321.307415,TRUE,TRUE,TRUE,FALSE,FALSE,FALSE,Disabled,0.000000,0.000000,0.000000,TRUE,-4.359573,-0.407242,0.000000,-1.067535,0.000000,0.000000,0.008000,-0.005000,0.012000,-3.760000,-0.820000,2.890000,-4.812514,Hold,0.942139,0.000000,Hold,-113829.000000,2.000000,LowGoal,0.000000,-1454.545455,Speed,0.000000,-1454.545455,Speed,Off,Off0.000000,1,Read: /home/lvuser/scripts/auto_01.bee,File good!,WAIT 500,WAIT
11:03:19.497 AM 03/20/2016,Autonomous Disabled,11,FALSE,0,NO ERROR,0.000000,-319.722502,0.000000,-321.307415,TRUE,TRUE,TRUE,FALSE,FALSE,FALSE,Disabled,0.000000,0.000000,0.000000,TRUE,-4.380798,-0.407242,0.000000,0.000000,0.000000,0.000000,0.020000,0.000000,0.024000,-3.770000,-0.770000,2.880000,-4.823365,Hold,0.942139,0.000000,Hold,-113829.000000,2.000000,LowGoal,0.000000,0.000000,Speed,0.000000,0.000000,Speed,Off,Off0.000000,1,Read: /home/lvuser/scripts/auto_01.bee,File good!,WAIT 500,WAIT
11:03:19.597 AM 03/20/2016,Autonomous Disabled,11,FALSE,0,NO ERROR,0.000000,-319.728919,0.000000,-321.313832,TRUE,FALSE,TRUE,FALSE,FALSE,FALSE,Disabled,0.000000,0.000000,0.000000,TRUE,-4.381058,-0.409531,0.000000,-0.020828,-0.117401,0.000000,0.020000,0.000000,0.024000,-3.820000,-0.580000,2.800000,-4.881169,Hold,0.942139,0.000000,Hold,-127282.000000,2.000000,LowGoal,0.000000,0.000000,Speed,0.000000,0.000000,Speed,Off,Off0.000000,1,Read: /home/lvuser/scripts/auto_01.bee,File good!,WAIT 500,WAIT
11:03:19.697 AM 03/20/2016,Autonomous Disabled,11,FALSE,0,NO ERROR,0.000000,-319.722502,0.000000,-321.294582,TRUE,FALSE,TRUE,FALSE,FALSE,FALSE,Disabled,0.000000,0.000000,0.000000,TRUE,-4.381897,-0.413208,0.000000,-0.017929,-0.097321,0.000000,0.130000,-0.043000,-0.012000,-3.850000,-0.280000,2.790000,-4.900185,Hold,0.942139,0.000000,Hold,-143835.000000,2.000000,LowGoal,0.000000,-1454.545455,Speed,0.000000,-1454.545455,Speed,Off,Off0.000000,1,Read: /home/lvuser/scripts/auto_01.bee,File good!,WAIT 500,WAIT
11:03:19.799 AM 03/20/2016,Autonomous Disabled,11,FALSE,0,NO ERROR,0.000000,-319.722502,0.000000,-321.294582,TRUE,FALSE,TRUE,FALSE,FALSE,FALSE,Disabled,0.000000,0.000000,0.000000,TRUE,-4.380722,-0.418762,0.000000,0.030121,-0.098984,0.000000,0.130000,-0.043000,-0.012000,-3.910000,-0.040000,2.830000,-4.936043,Hold,0.942139,0.000000,Hold,-157024.000000,2.000000,LowGoal,0.000000,-1454.545455,Speed,0.000000,-1454.545455,Speed,Off,Off0.000000,1,Read: /home/lvuser/scripts/auto_01.bee,File good!,WAIT 500,WAIT
11:03:19.900 AM 03/20/2016,Autonomous Disabled,11,FALSE,0,NO ERROR,0.000000,-319.722502,0.000000,-321.294582,TRUE,FALSE,TRUE,FALSE,FALSE,FALSE,Disabled,0.000000,0.000000,0.000000,TRUE,-4.378571,-0.422958,0.000000,0.051529,0.000000,0.000000,0.006000,0.029000,-0.016000,-3.940000,-0.010000,2.770000,-4.956747,Hold,0.942139,0.000000,Hold,-159819.000000,2.000000,LowGoal,0.000000,-1454.545455,Speed,0.000000,-1454.545455,Speed,Off,Off0.000000,1,Read: /home/lvuser/scripts/auto_01.bee,File good!,WAIT 500,WAIT
11:03:20.000 AM 03/20/2016,Autonomous Disabled,10,FALSE,0,NO ERROR,0.000000,-319.722502,0.000000,-321.294582,TRUE,FALSE,TRUE,FALSE,FALSE,FALSE,Disabled,0.000000,0.000000,0.000000,TRUE,-4.378494,-0.422455,0.000000,0.006287,0.007370,0.000000,0.001000,-0.005000,0.024000,-3.940000,0.060000,2.740000,-4.948698,Hold,0.942139,0.000000,Hold,-159798.000000,2.000000,LowGoal,0.000000,-1454.545455,Speed,0.000000,-1454.545455,Speed,Off,Off0.000000,1,Read: /home/lvuser/scripts/auto_01.bee,File good!,WAIT 500,WAIT
11:03:20.101 AM 03/20/2016,Autonomous Disabled,11,FALSE,0,NO ERROR,0.000000,-319.722502,0.000000,-321.294582,TRUE,FALSE,TRUE,FALSE,FALSE,FALSE,Disabled,0.000000,0.000000,0.000000,TRUE,-4.378403,-0.422195,0.000000,0.000000,0.007217,0.000000,0.011000,-0.023000,0.026000,-3.950000,0.110000,2.760000,-4.948849,Hold,0.942139,0.000000,Hold,-159798.000000,2.000000,LowGoal,0.000000,-1454.545455,Speed,0.000000,-1454.545455,Speed,Off,Off0.000000,1,Read: /home/lvuser/scripts/auto_01.bee,File good!,WAIT 500,WAIT
11:03:20.202 AM 03/20/2016,Autonomous Disabled,9,FALSE,0,NO ERROR,0.000000,-319.722502,0.000000,-321.294582,TRUE,TRUE,TRUE,FALSE,FALSE,FALSE,Disabled,0.000000,0.000000,0.000000,TRUE,-4.377899,-0.422195,0.000000,0.018402,-0.004242,0.000000,0.011000,-0.023000,0.026000,-3.970000,0.140000,2.760000,-4.980555,Hold,0.942139,0.000000,Hold,-159798.000000,2.000000,LowGoal,0.000000,-1454.545455,Speed,0.000000,-1454.545455,Speed,Off,Off0.000000,1,Read: /home/lvuser/scripts/auto_01.bee,File good!,WAIT 500,WAIT
11:03:20.302 AM 03/20/2016,Autonomous Disabled,9,FALSE,0,NO ERROR,0.000000,-319.722502,0.000000,-321.294582,TRUE,TRUE,TRUE,FALSE,FALSE,FALSE,Disabled,0.000000,0.000000,0.000000,TRUE,-4.377380,-0.422424,0.000000,0.000000,0.000000,0.000000,-0.001000,0.003000,0.022000,-3.990000,0.170000,2.740000,-4.985795,Hold,0.942139,0.000000,Hold,-159798.000000,2.000000,LowGoal,0.000000,0.000000,Speed,0.000000,0.000000,Speed,Off,Off0.000000,1,Read: /home/lvuser/scripts/auto_01.bee,File good!,WAIT 500,WAIT
11:03:20.402 AM 03/20/2016,Autonomous Disabled,10,FALSE,0,NO ERROR,0.000000,-319.722502,0.000000,-321.294582,TRUE,FALSE,TRUE,FALSE,FALSE,FALSE,Disabled,0.000000,0.000000,0.000000,TRUE,-4.377380,-0.422424,0.000000,0.000000,0.000000,0.000000,-0.001000,0.003000,0.022000,-4.000000,0.220000,2.730000,-4.982542,Hold,0.942139,0.000000,Hold,-159798.000000,2.000000,LowGoal,0.000000,0.000000,Speed,0.000000,0.000000,Speed,Off,Off0.000000,1,Read: /home/lvuser/scripts/auto_01.bee,File good!,WAIT 500,WAIT
11:03:20.502 AM 03/20/2016,Autonomous Disabled,10,FALSE,0,NO ERROR,0.000000,-319.722502,0.000000,-321.294582,TRUE,FALSE,TRUE,FALSE,FALSE,FALSE,Disabled,0.000000,0.000000,0.000000,TRUE,-4.377380,-0.422424,0.000000,0.000000,0.000000,0.000000,0.012000,-0.002000,0.024000,-4.000000,0.220000,2.730000,-4.994002,Hold,0.942139,0.000000,Hold,-159798.000000,2.000000,LowGoal,0.000000,-1454.545455,Speed,0.000000,-1454.545455,Speed,Off,Off0.000000,1,Read: /home/lvuser/scripts/auto_01.bee,File good!,WAIT 500,WAIT
11:03:20.602 AM 03/20/2016,Autonomous Disabled,10,FALSE,0,NO ERROR,0.000000,-319.722502,0.000000,-321.294582,TRUE,FALSE,TRUE,FALSE,FALSE,FALSE,Disabled,0.000000,0.000000,0.000000,TRUE,-4.377380,-0.422424,0.000000,0.000000,0.000000,0.000000,0.012000,-0.002000,0.024000,-4.010000,0.260000,2.720000,-5.003245,Hold,0.942139,0.000000,Hold,-159798.000000,2.000000,LowGoal,0.000000,-1454.545455,Speed,0.000000,-1454.545455,Speed,Off,Off0.000000,1,Read: /home/lvuser/scripts/auto_01.bee,File good!,WAIT 500,WAIT
11:03:20.702 AM 03/20/2016,Autonomous Disabled,11,FALSE,0,NO ERROR,0.000000,-319.722502,0.000000,-321.294582,TRUE,FALSE,TRUE,FALSE,FALSE,FALSE,Disabled,0.000000,0.000000,0.000000,TRUE,-4.377380,-0.422424,0.000000,0.000000,0.000000,0.000000,0.009000,-0.006000,0.018000,-4.040000,0.300000,2.710000,-5.025884,Hold,0.942139,0.000000,Hold,-159798.000000,2.000000,LowGoal,0.000000,-1454.545455,Speed,0.000000,-1454.545455,Speed,Off,Off0.000000,1,Read: /home/lvuser/scripts/auto_01.bee,File good!,WAIT 500,WAIT
11:03:20.802 AM 03/20/2016,Autonomous Disabled,10,FALSE,0,NO ERROR,0.000000,-319.722502,0.000000,-321.294582,TRUE,FALSE,TRUE,FALSE,FALSE,FALSE,Disabled,0.000000,0.000000,0.000000,TRUE,-4.377380,-0.422424,0.000000,0.000000,0.000000,0.000000,0.004000,0.000000,0.013000,-4.040000,0.300000,2.710000,-5.042814,Hold,0.942139,0.000000,Hold,-159798.000000,2.000000,LowGoal,0.000000,-1454.545455,Speed,0.000000,-1454.545455,Speed,Off,Off0.000000,1,Read: /home/lvuser/scripts/auto_01.bee,File good!,WAIT 500,WAIT
11:03:20.902 AM 03/20/2016,Autonomous Disabled,11,FALSE,0,NO ERROR,0.000000,-319.722502,0.000000,-321.294582,TRUE,FALSE,TRUE,FALSE,FALSE,FALSE,Disabled,0.000000,0.000000,0.000000,TRUE,-4.377380,-0.422424,0.000000,0.000000,0.000000,0.000000,0.003000,0.002000,0.015000,-4.050000,0.340000,2.700000,-5.035884,Hold,0.942139,0.000000,Hold,-159798.000000,2.000000,LowGoal,0.000000,-1454.545455,Speed,0.000000,-1454.545455,Speed,Off,Off0.000000,1,Read: /home/lvuser/scripts/auto_01.bee,File good!,WAIT 500,WAIT
11:03:21.002 AM 03/20/2016,Autonomous Disabled,11,FALSE,0,NO ERROR,0.000000,-319.722502,0.000000,-321.294582,TRUE,TRUE,TRUE,FALSE,FALSE,FALSE,Disabled,0.000000,0.000000,0.000000,TRUE,-4.377380,-0.422424,0.000000,0.000000,0.000000,0.000000,0.008000,0.000000,0.019000,-4.060000,0.360000,2.700000,-5.041626,Hold,0.942139,0.000000,Hold,-159798.000000,2.000000,LowGoal,0.000000,-1454.545455,Speed,0.000000,-1454.545455,Speed,Off,Off0.000000,1,Read: /home/lvuser/scripts/auto_01.bee,File good!,WAIT 500,WAIT
11:03:21.103 AM 03/20/2016,Autonomous Disabled,11,FALSE,0,NO ERROR,0.000000,-319.722502,0.000000,-321.294582,TRUE,TRUE,TRUE,FALSE,FALSE,FALSE,Disabled,0.000000,0.000000,0.000000,TRUE,-4.377380,-0.422424,0.000000,0.000000,0.000000,0.000000,0.004000,-0.001000,0.027000,-4.080000,0.390000,2.700000,-5.051183,Hold,0.942139,0.000000,Hold,-159798.000000,2.000000,LowGoal,0.000000,0.000000,Speed,0.000000,0.000000,Speed,Off,Off0.000000,1,Read: /home/lvuser/scripts/auto_01.bee,File good!,WAIT 500,WAIT
11:03:21.204 AM 03/20/2016,Autonomous Disabled,11,FALSE,0,NO ERROR,0.000000,-319.722502,0.000000,-321.294582,TRUE,FALSE,TRUE,FALSE,FALSE,FALSE,Disabled,0.000000,0.000000,0.000000,TRUE,-4.376694,-0.422424,0.000000,0.000000,0.000000,0.000000,0.033000,-0.007000,0.022000,-4.090000,0.400000,2.690000,-5.052426,Hold,0.942139,0.000000,Hold,-159798.000000,2.000000,LowGoal,0.000000,0.000000,Speed,0.000000,0.000000,Speed,Off,Off0.000000,1,Read: /home/lvuser/scripts/auto_01.bee,File good!,WAIT 500,WAIT
11:03:21.304 AM 03/20/2016,Autonomous Disabled,11,FALSE,0,NO ERROR,0.000000,-319.722502,0.000000,-321.294582,TRUE,FALSE,TRUE,FALSE,FALSE,FALSE,Disabled,0.000000,0.000000,0.000000,TRUE,-4.376694,-0.422424,0.000000,0.000000,0.000000,0.000000,-0.006000,0.003000,0.025000,-4.100000,0.430000,2.690000,-5.055823,Hold,0.942139,0.000000,Hold,-159798.000000,2.000000,LowGoal,0.000000,-1454.545455,Speed,0.000000,-1454.545455,Speed,Off,Off0.000000,1,Read: /home/lvuser/scripts/auto_01.bee,File good!,WAIT 500,WAIT
11:03:21.405 AM 03/20/2016,Autonomous Disabled,9,FALSE,0,NO ERROR,0.000000,-319.722502,0.000000,-321.294582,TRUE,FALSE,TRUE,FALSE,FALSE,FALSE,Disabled,0.000000,0.000000,0.000000,TRUE,-4.376694,-0.422424,0.000000,0.000000,0.000000,0.000000,0.008000,0.003000,0.016000,-4.120000,0.440000,2.690000,-5.075697,Hold,0.942139,0.000000,Hold,-159798.000000,2.000000,LowGoal,0.000000,-1454.545455,Speed,0.000000,-1454.545455,Speed,Off,Off0.000000,1,Read: /home/lvuser/scripts/auto_01.bee,File good!,WAIT 500,WAIT
11:03:21.506 AM 03/20/2016,Autonomous Disabled,10,FALSE,0,NO ERROR,0.000000,-319.722502,0.000000,-321.294582,TRUE,FALSE,TRUE,FALSE,FALSE,FALSE,Disabled,0.000000,0.000000,0.000000,TRUE,-4.376694,-0.422424,0.000000,0.000000,0.000000,0.000000,0.001000,-0.002000,0.019000,-4.120000,0.460000,2.680000,-5.077639,Hold,0.942139,0.000000,Hold,-159798.000000,2.000000,LowGoal,0.000000,-1454.545455,Speed,0.000000,-1454.545455,Speed,Off,Off0.000000,1,Read: /home/lvuser/scripts/auto_01.bee,File good!,WAIT 500,WAIT
11:03:21.607 AM 03/20/2016,Autonomous Disabled,10,FALSE,0,NO ERROR,0.000000,-319.722502,0.000000,-321.294582,TRUE,FALSE,TRUE,FALSE,FALSE,FALSE,Disabled,0.000000,0.000000,0.000000,TRUE,-4.376694,-0.422424,0.000000,0.000000,0.000000,0.000000,0.002000,-0.006000,0.024000,-4.140000,0.470000,2.680000,-5.103314,Hold,0.942139,0.000000,Hold,-159798.000000,2.000000,LowGoal,0.000000,-1454.545455,Speed,0.000000,-1454.545455,Speed,Off,Off0.000000,1,Read: /home/lvuser/scripts/auto_01.bee,File good!,WAIT 500,WAIT
11:03:21.710 AM 03/20/2016,Autonomous Disabled,13,FALSE,0,NO ERROR,0.000000,-319.722502,0.000000,-321.294582,TRUE,FALSE,TRUE,FALSE,FALSE,FALSE,Disabled,0.000000,0.000000,0.000000,TRUE,-4.376694,-0.422424,0.000000,0.000000,0.000000,0.000000,0.000000,0.000000,0.027000,-4.150000,0.490000,2.680000,-5.103310,Hold,0.942139,0.000000,Hold,-159798.000000,2.000000,LowGoal,0.000000,-1454.545455,Speed,0.000000,-1454.545455,Speed,Off,Off0.000000,1,Read: /home/lvuser/scripts/auto_01.bee,File good!,WAIT 500,WAIT
11:03:21.812 AM 03/20/2016,Autonomous Disabled,9,FALSE,0,NO ERROR,0.000000,-319.722502,0.000000,-321.294582,TRUE,TRUE,TRUE,FALSE,FALSE,FALSE,Disabled,0.000000,0.000000,0.000000,TRUE,-4.376694,-0.422424,0.000000,0.000000,0.000000,0.000000,0.001000,0.000000,0.018000,-4.160000,0.500000,2.680000,-5.124602,Hold,0.942139,0.000000,Hold,-159798.000000,2.000000,LowGoal,0.000000,-1454.545455,Speed,0.000000,-1454.545455,Speed,Off,Off0.000000,1,Read: /home/lvuser/scripts/auto_01.bee,File good!,WAIT 500,WAIT
