Time,Robot Mode,Loop Time,Error Status,Error Code,Error Source,Left Motor Output,Left Motor Encoder,Right Motor Output,Right Motor Encoder,Is Level,Is Stalled,Ball Detector Photoeye,Vision Enabled,Vision Teleop Control,Vision Auto Control,Vision Current State,Vision X Output,Vision NavX Error,Vision NavX Target,NavX Connection Status,NavX Displacement X,NavX Displacement Y,NavX Displacement Z,NavX Velocity X,NavX Velocity Y,NavX Velocity Z,NavX Acceleration X,NavX Acceleration Y,NavX Acceleration Z,NavX Pitch,NavX Yaw,NavX Roll,Gyro Angle,Roller Arm State,Roller Arm Actual,Roller Arm Desired,Shooter Arm State,Shooter Arm Actual,Shooter Arm Desired,Shooter State,Actual RPM Left,Desired RPM Left,Control Mode Left,Actual RPM Right,Desired RPM Right,Scaler Motor Output,Auto To Run,Auto Current File,Auto File Status,Auto Current Command,Auto Trimmed Command
10:58:24.330 AM 03/20/2016,Autonomous Enabled,10,FALSE,0,NO ERROR,0.000000,0.000000,0.000000,0.000000,TRUE,FALSE,TRUE,FALSE,FALSE,FALSE,Disabled,0.000000,0.000000,0.000000,TRUE,-1.987732,-1.094757,0.000000,0.000000,0.000000,0.000000,0.002000,-0.001000,0.022000,-0.020000,-0.440000,2.380000,0.321790,ResetBack,1.672363,-0.000049,ResetBack,-14898.000000,-0.300000,LowGoal,0.000000,-1454.545455,Speed,0.000000,-1454.545455,Speed,Off,Off0.000000,1,Read: /home/lvuser/scripts/auto_01.bee,File good!,WAIT 1500,WAIT
10:58:24.431 AM 03/20/2016,Autonomous Enabled,10,FALSE,0,NO ERROR,0.000000,0.000000,0.000000,0.000000,TRUE,FALSE,TRUE,FALSE,FALSE,FALSE,Disabled,0.000000,0.000000,0.000000,TRUE,-1.987259,-1.095703,0.000000,0.000000,-0.036133,0.000000,-0.014000,-0.076000,0.040000,-0.030000,-0.450000,2.400000,0.326275,ResetBack,0.681152,-0.000049,ResetBack,-12970.000000,-0.300000,LowGoal,135.000000,-1454.545455,Speed,7.500000,-1454.545455,Speed,Off,Off0.000000,1,Read: /home/lvuser/scripts/auto_01.bee,File good!,WAIT 1500,WAIT
10:58:24.531 AM 03/20/2016,Autonomous Enabled,9,FALSE,0,NO ERROR,0.000000,0.000000,0.000000,0.000000,TRUE,FALSE,TRUE,FALSE,FALSE,FALSE,Disabled,0.000000,0.000000,0.000000,TRUE,-1.987640,-1.097778,0.000000,-0.005997,-0.032990,0.000000,0.066000,-0.042000,0.045000,-0.020000,-0.460000,2.400000,0.323456,ResetBack,0.283447,-0.000049,ResetBack,-6943.000000,-0.300000,LowGoal,765.000000,-1454.545455,Speed,472.500000,-1454.545455,Speed,Off,Off0.000000,1,Read: /home/lvuser/scripts/auto_01.bee,File good!,WAIT 1500,WAIT
10:58:24.633 AM 03/20/2016,Autonomous Enabled,10,FALSE,0,NO ERROR,0.000000,0.000000,0.000000,0.000000,TRUE,FALSE,TRUE,FALSE,FALSE,FALSE,Disabled,0.000000,0.000000,0.000000,TRUE,-1.987289,-1.099213,0.000000,0.000000,-0.000885,0.000000,0.002000,0.127000,0.077000,-0.020000,-0.450000,2.390000,0.331270,ResetBack,0.282227,-0.000049,ResetBack,-6943.000000,-0.300000,LowGoal,1425.000000,-1454.545455,Speed,1080.000000,-1454.545455,Speed,Off,Off0.000000,1,Read: /home/lvuser/scripts/auto_01.bee,File good!,WAIT 1500,WAIT
10:58:24.733 AM 03/20/2016,Autonomous Enabled,10,FALSE,0,NO ERROR,0.000000,0.000000,0.000000,0.000000,TRUE,FALSE,TRUE,FALSE,FALSE,FALSE,Disabled,0.000000,0.000000,0.000000,TRUE,-1.987656,-1.098450,0.000000,-0.018448,0.018082,0.000000,-0.103000,0.070000,0.003000,-0.030000,-0.460000,2.400000,0.326954,Reset,0.141113,0.000000,ResetBack,-2824.000000,-0.300000,LowGoal,1515.000000,-1454.545455,Speed,1582.500000,-1454.545455,Speed,Off,Off0.000000,1,Read: /home/lvuser/scripts/auto_01.bee,File good!,WAIT 1500,WAIT
10:58:24.833 AM 03/20/2016,Autonomous Enabled,11,FALSE,0,NO ERROR,0.000000,0.000000,0.000000,0.000000,TRUE,FALSE,TRUE,FALSE,FALSE,FALSE,Disabled,0.000000,0.000000,0.000000,TRUE,-1.988419,-1.097580,0.000000,0.004807,0.000000,0.000000,-0.064000,-0.026000,0.007000,-0.050000,-0.410000,2.400000,0.344590,Hold,0.964600,0.000000,ResetBack,-202.000000,-0.300000,LowGoal,1327.500000,-1454.545455,Speed,1417.500000,-1454.545455,Speed,Off,Off0.000000,1,Read: /home/lvuser/scripts/auto_01.bee,File good!,WAIT 1500,WAIT
10:58:24.933 AM 03/20/2016,Autonomous Enabled,10,FALSE,0,NO ERROR,0.000000,0.000000,0.000000,0.000000,TRUE,FALSE,TRUE,FALSE,FALSE,FALSE,Disabled,0.000000,0.000000,0.000000,TRUE,-1.987442,-1.097397,0.000000,0.042084,0.013611,0.000000,0.020000,0.041000,0.107000,-0.040000,-0.390000,2.440000,0.358047,Hold,0.928223,0.000000,ResetBack,487.000000,-0.300000,LowGoal,1342.500000,-1454.545455,Speed,1237.500000,-1454.545455,Speed,Off,Off0.000000,1,Read: /home/lvuser/scripts/auto_01.bee,File good!,WAIT 1500,WAIT
10:58:25.033 AM 03/20/2016,Autonomous Enabled,11,FALSE,0,NO ERROR,0.000000,0.000000,0.000000,0.000000,TRUE,FALSE,TRUE,FALSE,FALSE,FALSE,Disabled,0.000000,0.000000,0.000000,TRUE,-1.986145,-1.096817,0.000000,0.003784,-0.000656,0.000000,-0.020000,0.067000,0.037000,-0.030000,-0.400000,2.330000,0.365052,Hold,0.928223,0.000000,ResetBack,488.000000,-0.300000,LowGoal,1402.500000,-1454.545455,Speed,1335.000000,-1454.545455,Speed,Off,Off0.000000,1,Read: /home/lvuser/scripts/auto_01.bee,File good!,WAIT 1500,WAIT
10:58:25.134 AM 03/20/2016,Autonomous Enabled,10,FALSE,0,NO ERROR,0.000000,0.000000,0.000000,0.000000,TRUE,FALSE,TRUE,FALSE,FALSE,FALSE,Disabled,0.000000,0.000000,0.000000,TRUE,-1.985901,-1.096878,0.000000,-0.006271,-0.015427,0.000000,0.010000,0.050000,-0.079000,-0.040000,-0.390000,2.310000,0.362309,Hold,0.928223,0.000000,ResetBack,776.000000,-0.300000,LowGoal,1372.500000,-1454.545455,Speed,1395.000000,-1454.545455,Speed,Off,Off0.000000,1,Read: /home/lvuser/scripts/auto_01.bee,File good!,WAIT 1500,WAIT
10:58:25.235 AM 03/20/2016,Autonomous Enabled,11,FALSE,0,NO ERROR,0.000000,0.000000,0.000000,0.000000,TRUE,FALSE,TRUE,FALSE,FALSE,FALSE,Disabled,0.000000,0.000000,0.000000,TRUE,-1.986252,-1.097168,0.000000,0.001968,-0.012299,0.000000,0.018000,-0.041000,0.126000,-0.040000,-0.390000,2.340000,0.358377,Hold,0.928223,0.000000,ResetBack,777.000000,-0.300000,LowGoal,1357.500000,-1454.545455,Speed,1335.000000,-1454.545455,Speed,Off,Off0.000000,1,Read: /home/lvuser/scripts/auto_01.bee,File good!,WAIT 1500,WAIT
10:58:25.335 AM 03/20/2016,Autonomous Enabled,10,FALSE,0,NO ERROR,0.000000,0.000000,0.000000,0.000000,TRUE,FALSE,TRUE,FALSE,FALSE,FALSE,Disabled,0.000000,0.000000,0.000000,TRUE,-1.985794,-1.098236,0.000000,0.000687,-0.022705,0.000000,-0.116000,-0.041000,0.072000,-0.040000,-0.340000,2.350000,0.350535,Hold,0.928223,0.000000,ResetBack,777.000000,-0.300000,LowGoal,1372.500000,-1454.545455,Speed,1320.000000,-1454.545455,Speed,Off,Off0.000000,1,Read: /home/lvuser/scripts/auto_01.bee,File good!,WAIT 1500,WAIT
10:58:25.435 AM 03/20/2016,Autonomous Enabled,10,FALSE,0,NO ERROR,0.000000,0.000000,0.000000,0.000000,TRUE,FALSE,TRUE,FALSE,FALSE,FALSE,Disabled,0.000000,0.000000,0.000000,TRUE,-1.986877,-1.099289,0.000000,-0.028580,-0.012253,0.000000,0.063000,-0.062000,0.045000,-0.040000,-0.400000,2.300000,0.351413,Hold,0.928223,0.000000,ResetBack,778.000000,-0.300000,LowGoal,1380.000000,-1454.545455,Speed,1350.000000,-1454.545455,Speed,Off,Off0.000000,1,Read: /home/lvuser/scripts/auto_01.bee,File good!,WAIT 1500,WAIT
10:58:25.536 AM 03/20/2016,Autonomous Enabled,11,FALSE,0,NO ERROR,0.000000,0.000000,0.000000,0.000000,TRUE,FALSE,TRUE,FALSE,FALSE,FALSE,Disabled,0.000000,0.000000,0.000000,TRUE,-1.988327,-1.100311,0.000000,-0.026779,-0.015747,0.000000,-0.052000,0.017000,0.086000,-0.040000,-0.350000,2.300000,0.359899,Hold,0.928223,0.000000,ResetBack,781.000000,-0.300000,LowGoal,1372.500000,-1454.545455,Speed,1350.000000,-1454.545455,Speed,Off,Off0.000000,1,Read: /home/lvuser/scripts/auto_01.bee,File good!,WAIT 1500,WAIT
10:58:25.636 AM 03/20/2016,Autonomous Enabled,9,FALSE,0,NO ERROR,0.000000,0.000000,0.000000,0.000000,TRUE,FALSE,TRUE,FALSE,FALSE,FALSE,Disabled,0.000000,0.000000,0.000000,TRUE,-1.990768,-1.100464,0.000000,-0.037766,0.005081,0.000000,0.087000,0.028000,0.139000,-0.040000,-0.420000,2.330000,0.367393,Hold,0.928223,0.000000,Reset,782.000000,2.000000,LowGoal,1372.500000,-1454.545455,Speed,1335.000000,-1454.545455,Speed,Off,Off0.000000,1,Read: /home/lvuser/scripts/auto_01.bee,File good!,WAIT 1500,WAIT
10:58:25.736 AM 03/20/2016,Autonomous Enabled,9,FALSE,0,NO ERROR,0.000000,0.000000,0.000000,0.000000,TRUE,FALSE,TRUE,FALSE,FALSE,FALSE,Disabled,0.000000,0.000000,0.000000,TRUE,-1.991867,-1.100494,0.000000,-0.034012,0.004166,0.000000,-0.006000,-0.079000,-0.042000,-0.040000,-0.400000,2.370000,0.369565,Hold,0.928223,0.000000,Hold,-196.000000,2.000000,LowGoal,1380.000000,-1454.545455,Speed,1342.500000,-1454.545455,Speed,Off,Off0.000000,1,Read: /home/lvuser/scripts/auto_01.bee,File good!,WAIT 1500,WAIT
10:58:25.836 AM 03/20/2016,Autonomous Enabled,9,FALSE,0,NO ERROR,0.000000,0.000000,0.000000,0.000000,TRUE,FALSE,TRUE,FALSE,FALSE,FALSE,Disabled,0.000000,0.000000,0.000000,TRUE,-1.993790,-1.100037,0.000000,-0.022232,0.002686,0.000000,0.038000,-0.054000,-0.013000,-0.040000,-0.410000,2.380000,0.344924,Hold,0.928223,0.000000,Hold,-242.000000,2.000000,LowGoal,1387.500000,-1454.545455,Speed,1357.500000,-1454.545455,Speed,Off,Off0.000000,1,Read: /home/lvuser/scripts/auto_01.bee,File good!,WAIT 1500,WAIT
10:58:25.936 AM 03/20/2016,Autonomous Enabled,10,FALSE,0,NO ERROR,0.000000,0.000000,0.000000,0.000000,TRUE,FALSE,TRUE,FALSE,FALSE,FALSE,Disabled,0.000000,0.000000,0.000000,TRUE,-1.994370,-1.099976,0.000000,0.000000,0.006683,0.000000,-0.011000,0.040000,0.040000,-0.040000,-0.410000,2.360000,0.000303,Hold,0.928223,0.000000,Hold,-242.000000,2.000000,LowGoal,1380.000000,-1454.545455,Speed,1350.000000,-1454.545455,Speed,Off,Off0.000000,1,Read: /home/lvuser/scripts/auto_01.bee,File good!,NAVX_ZERO_YAW,NAVX_ZERO_YAW
10:58:26.036 AM 03/20/2016,Autonomous Enabled,11,FALSE,0,NO ERROR,0.000000,-0.449166,0.000000,-0.564665,TRUE,FALSE,TRUE,FALSE,FALSE,FALSE,Disabled,0.000000,0.000000,0.000000,TRUE,-1.993378,-1.099228,0.000000,0.146790,0.038239,0.000000,0.374000,0.143000,0.154000,-0.160000,0.200000,2.120000,-0.117281,Hold,0.928223,0.000000,Hold,-242.000000,2.000000,LowGoal,1380.000000,-1454.545455,Speed,1350.000000,-1454.545455,Speed,Off,Off0.000000,1,Read: /home/lvuser/scripts/auto_01.bee,File good!,DRIVE_STRAIGHT_NAVX 200 10000,DRIVE_STRAIGHT_NAVX
10:58:26.136 AM 03/20/2016,Autonomous Enabled,10,FALSE,0,NO ERROR,0.000000,-2.200912,0.000000,-2.316411,FALSE,FALSE,TRUE,FALSE,FALSE,FALSE,Disabled,0.000000,0.000000,0.000000,TRUE,-1.968231,-1.091232,0.000000,0.655975,0.199585,0.000000,0.217000,-0.052000,-0.025000,-0.160000,4.000000,2.220000,-0.102781,Hold,0.929199,0.000000,Hold,-282.000000,2.000000,LowGoal,1350.000000,-1454.545455,Speed,1297.500000,-1454.545455,Speed,Off,Off0.000000,1,Read: /home/lvuser/scripts/auto_01.bee,File good!,DRIVE_STRAIGHT_NAVX 200 10000,DRIVE_STRAIGHT_NAVX
10:58:26.237 AM 03/20/2016,Autonomous Enabled,10,FALSE,0,NO ERROR,0.000000,-5.024238,0.000000,-5.158988,FALSE,FALSE,TRUE,FALSE,FALSE,FALSE,Disabled,0.000000,0.000000,0.000000,TRUE,-1.927994,-1.081894,0.000000,0.899521,0.193954,0.000000,0.318000,-0.034000,0.018000,-0.110000,3.410000,2.310000,-0.000885,Hold,0.929199,0.000000,Hold,-303.000000,2.000000,LowGoal,1297.500000,-1454.545455,Speed,1260.000000,-1454.545455,Speed,Off,Off0.000000,1,Read: /home/lvuser/scripts/auto_01.bee,File good!,DRIVE_STRAIGHT_NAVX 200 10000,DRIVE_STRAIGHT_NAVX
10:58:26.337 AM 03/20/2016,Autonomous Enabled,11,FALSE,0,NO ERROR,0.000000,-9.272062,0.000000,-9.393978,FALSE,FALSE,TRUE,FALSE,FALSE,FALSE,Disabled,0.000000,0.000000,0.000000,TRUE,-1.876434,-1.076080,0.000000,1.100449,0.003082,0.000000,0.084000,0.011000,0.107000,-0.350000,4.560000,2.380000,-0.112534,Hold,0.929199,0.000000,Hold,-303.000000,2.000000,LowGoal,1312.500000,-1454.545455,Speed,1275.000000,-1454.545455,Speed,Off,Off0.000000,1,Read: /home/lvuser/scripts/auto_01.bee,File good!,DRIVE_STRAIGHT_NAVX 200 10000,DRIVE_STRAIGHT_NAVX
10:58:26.437 AM 03/20/2016,Autonomous Enabled,9,FALSE,0,NO ERROR,0.000000,-14.405383,0.000000,-14.354050,FALSE,FALSE,TRUE,FALSE,FALSE,FALSE,Disabled,0.000000,0.000000,0.000000,TRUE,-1.819687,-1.075012,0.000000,1.167130,0.022980,0.000000,0.063000,0.035000,0.025000,-0.570000,5.070000,2.390000,-0.364484,Hold,0.929199,0.000000,Hold,-302.000000,2.000000,LowGoal,1342.500000,-1454.545455,Speed,1312.500000,-1454.545455,Speed,Off,Off0.000000,1,Read: /home/lvuser/scripts/auto_01.bee,File good!,DRIVE_STRAIGHT_NAVX 200 10000,DRIVE_STRAIGHT_NAVX
10:58:26.537 AM 03/20/2016,Autonomous Enabled,9,FALSE,0,NO ERROR,0.000000,-19.955787,0.000000,-19.859537,FALSE,FALSE,TRUE,FALSE,FALSE,FALSE,Disabled,0.000000,0.000000,0.000000,TRUE,-1.758392,-1.073349,0.000000,1.277512,0.041534,0.000000,0.112000,-0.020000,-0.058000,-0.930000,4.650000,2.560000,-0.645111,Hold,0.929199,0.000000,Hold,-299.000000,2.000000,LowGoal,1350.000000,-1454.545455,Speed,1312.500000,-1454.545455,Speed,Off,Off0.000000,1,Read: /home/lvuser/scripts/auto_01.bee,File good!,DRIVE_STRAIGHT_NAVX 200 10000,DRIVE_STRAIGHT_NAVX
10:58:26.638 AM 03/20/2016,Autonomous Enabled,9,FALSE,0,NO ERROR,0.000000,-26.224855,0.000000,-26.321105,FALSE,FALSE,TRUE,FALSE,FALSE,FALSE,Disabled,0.000000,0.000000,0.000000,TRUE,-1.692795,-1.070694,0.000000,1.310928,0.057907,0.000000,0.010000,0.008000,0.209000,-0.930000,4.650000,2.560000,-0.686715,Hold,0.929199,0.000000,Hold,-298.000000,2.000000,LowGoal,1342.500000,-1454.545455,Speed,1305.000000,-1454.545455,Speed,Off,Off0.000000,1,Read: /home/lvuser/scripts/auto_01.bee,File good!,DRIVE_STRAIGHT_NAVX 200 10000,DRIVE_STRAIGHT_NAVX
10:58:26.738 AM 03/20/2016,Autonomous Enabled,9,FALSE,0,NO ERROR,0.000000,-32.795507,0.000000,-33.231839,FALSE,FALSE,TRUE,FALSE,FALSE,FALSE,Disabled,0.000000,0.000000,0.000000,TRUE,-1.627777,-1.070450,0.000000,1.296906,0.011429,0.000000,0.010000,0.008000,0.209000,-0.570000,5.450000,2.830000,-0.423214,Hold,0.929199,0.000000,Hold,-298.000000,2.000000,LowGoal,1350.000000,-1454.545455,Speed,1320.000000,-1454.545455,Speed,Off,Off0.000000,1,Read: /home/lvuser/scripts/auto_01.bee,File good!,DRIVE_STRAIGHT_NAVX 200 10000,DRIVE_STRAIGHT_NAVX
10:58:26.839 AM 03/20/2016,Autonomous Enabled,9,FALSE,0,NO ERROR,0.000000,-39.776824,0.000000,-40.270906,FALSE,FALSE,TRUE,FALSE,FALSE,FALSE,Disabled,0.000000,0.000000,0.000000,TRUE,-1.564835,-1.068466,0.000000,1.242783,0.045517,0.000000,0.002000,-0.066000,-0.021000,-0.220000,5.190000,2.860000,-0.019261,Hold,0.929199,0.000000,Hold,-297.000000,2.000000,LowGoal,1357.500000,-1454.545455,Speed,1320.000000,-1454.545455,Speed,Off,Off0.000000,1,Read: /home/lvuser/scripts/auto_01.bee,File good!,DRIVE_STRAIGHT_NAVX 200 10000,DRIVE_STRAIGHT_NAVX
10:58:26.940 AM 03/20/2016,Autonomous Enabled,9,FALSE,0,NO ERROR,0.000000,-46.937807,0.000000,-47.585889,FALSE,FALSE,TRUE,FALSE,FALSE,FALSE,Disabled,0.000000,0.000000,0.000000,TRUE,-1.564896,-1.067383,0.000000,-0.010986,0.006180,0.000000,0.002000,-0.066000,-0.021000,-0.060000,5.120000,2.760000,0.152925,Hold,0.929199,0.000000,Hold,-296.000000,2.000000,LowGoal,1357.500000,-1454.545455,Speed,1320.000000,-1454.545455,Speed,Off,Off0.000000,1,Read: /home/lvuser/scripts/auto_01.bee,File good!,DRIVE_STRAIGHT_NAVX 200 10000,DRIVE_STRAIGHT_NAVX
10:58:27.041 AM 03/20/2016,Autonomous Enabled,10,FALSE,0,NO ERROR,0.000000,-54.233540,0.000000,-54.900872,FALSE,FALSE,TRUE,FALSE,FALSE,FALSE,Disabled,0.000000,0.000000,0.000000,TRUE,-1.566498,-1.067505,0.000000,-0.062210,-0.045044,0.000000,0.003000,0.045000,0.037000,0.010000,4.400000,2.600000,0.187375,Hold,0.929199,0.000000,Hold,-285.000000,2.000000,LowGoal,1357.500000,-1454.545455,Speed,1320.000000,-1454.545455,Speed,Off,Off0.000000,1,Read: /home/lvuser/scripts/auto_01.bee,File good!,DRIVE_STRAIGHT_NAVX 200 10000,DRIVE_STRAIGHT_NAVX
10:58:27.141 AM 03/20/2016,Autonomous Enabled,10,FALSE,0,NO ERROR,0.000000,-62.709937,0.000000,-61.214857,FALSE,FALSE,TRUE,FALSE,FALSE,FALSE,Disabled,0.000000,0.000000,0.000000,TRUE,-1.576706,-1.076492,0.000000,-0.342804,-0.157059,0.000000,-0.213000,-0.402000,-0.147000,-3.190000,6.540000,1.900000,-4.298178,Hold,0.928467,0.000000,Hold,-284.000000,2.000000,LowGoal,1357.500000,-1454.545455,Speed,1327.500000,-1454.545455,Speed,Off,Off0.000000,1,Read: /home/lvuser/scripts/auto_01.bee,File good!,DRIVE_STRAIGHT_NAVX 200 10000,DRIVE_STRAIGHT_NAVX
10:58:27.241 AM 03/20/2016,Autonomous Enabled,10,FALSE,0,NO ERROR,0.000000,-70.904001,0.000000,-65.507597,FALSE,FALSE,TRUE,FALSE,FALSE,FALSE,Disabled,0.000000,0.000000,0.000000,TRUE,-1.606873,-1.082092,0.000000,-0.764954,-0.034256,0.000000,-0.387000,0.000000,-0.190000,-3.190000,6.540000,1.900000,-12.740429,Hold,0.942871,0.000000,Hold,-284.000000,2.000000,LowGoal,1350.000000,-1454.545455,Speed,1312.500000,-1454.545455,Speed,Off,Off0.000000,1,Read: /home/lvuser/scripts/auto_01.bee,File good!,DRIVE_STRAIGHT_NAVX 200 10000,DRIVE_STRAIGHT_NAVX
10:58:27.341 AM 03/20/2016,Autonomous Enabled,10,FALSE,0,NO ERROR,0.000000,-77.660735,0.000000,-68.542673,FALSE,FALSE,TRUE,FALSE,FALSE,FALSE,Disabled,0.000000,0.000000,0.000000,TRUE,-1.654541,-1.078369,0.000000,-1.088120,0.160873,0.000000,-0.303000,-0.010000,-0.140000,-13.190000,7.140000,1.460000,-21.077527,Hold,0.942871,0.000000,Hold,-284.000000,2.000000,LowGoal,1327.500000,-1454.545455,Speed,1290.000000,-1454.545455,Speed,Off,Off0.000000,1,Read: /home/lvuser/scripts/auto_01.bee,File good!,DRIVE_STRAIGHT_NAVX 200 10000,DRIVE_STRAIGHT_NAVX
10:58:27.441 AM 03/20/2016,Autonomous Enabled,11,FALSE,0,NO ERROR,0.000000,-81.940642,0.000000,-72.739163,FALSE,FALSE,TRUE,FALSE,FALSE,FALSE,Disabled,0.000000,0.000000,0.000000,TRUE,-1.711182,-1.058548,0.000000,-1.112793,0.468079,0.000000,-0.104000,0.442000,-0.231000,-21.820000,6.020000,2.380000,-23.233012,Hold,0.942871,0.000000,Hold,-305.000000,2.000000,LowGoal,1290.000000,-1454.545455,Speed,1252.500000,-1454.545455,Speed,Off,Off0.000000,1,Read: /home/lvuser/scripts/auto_01.bee,File good!,DRIVE_STRAIGHT_NAVX 200 10000,DRIVE_STRAIGHT_NAVX
10:58:27.541 AM 03/20/2016,Autonomous Enabled,12,FALSE,0,NO ERROR,0.000000,-85.777799,0.000000,-79.110898,FALSE,FALSE,TRUE,FALSE,FALSE,FALSE,Disabled,0.000000,0.000000,0.000000,TRUE,-1.711182,-1.058548,0.000000,-1.112793,0.468079,0.000000,0.439000,-0.125000,0.122000,-20.850000,1.870000,4.270000,-19.738798,Hold,0.942871,0.000000,Hold,-304.000000,2.000000,LowGoal,1267.500000,-1454.545455,Speed,1222.500000,-1454.545455,Speed,Off,Off0.000000,1,Read: /home/lvuser/scripts/auto_01.bee,File good!,DRIVE_STRAIGHT_NAVX 200 10000,DRIVE_STRAIGHT_NAVX
10:58:27.641 AM 03/20/2016,Autonomous Enabled,10,FALSE,0,NO ERROR,0.000000,-89.903706,0.000000,-87.099630,FALSE,FALSE,TRUE,FALSE,FALSE,FALSE,Disabled,0.000000,0.000000,0.000000,TRUE,-1.754974,-1.035263,0.000000,-0.706467,0.522110,0.000000,0.399000,0.091000,-0.777000,-20.850000,1.870000,4.270000,-12.700977,Hold,0.942383,0.000000,Hold,-304.000000,2.000000,LowGoal,1297.500000,-1454.545455,Speed,1260.000000,-1454.545455,Speed,Off,Off0.000000,1,Read: /home/lvuser/scripts/auto_01.bee,File good!,DRIVE_STRAIGHT_NAVX 200 10000,DRIVE_STRAIGHT_NAVX
10:58:27.742 AM 03/20/2016,Autonomous Enabled,9,FALSE,0,NO ERROR,0.000000,-94.652029,0.000000,-95.210277,FALSE,FALSE,TRUE,FALSE,FALSE,FALSE,Disabled,0.000000,0.000000,0.000000,TRUE,-1.779022,-1.008606,0.000000,-0.418060,0.371506,0.000000,0.112000,-0.185000,0.254000,-12.420000,4.310000,2.950000,-6.220468,Hold,0.942627,0.000000,Hold,-304.000000,2.000000,LowGoal,1335.000000,-1454.545455,Speed,1297.500000,-1454.545455,Speed,Off,Off0.000000,1,Read: /home/lvuser/scripts/auto_01.bee,File good!,DRIVE_STRAIGHT_NAVX 200 10000,DRIVE_STRAIGHT_NAVX
10:58:27.842 AM 03/20/2016,Autonomous Enabled,10,FALSE,0,NO ERROR,0.000000,-100.292265,0.000000,-103.661008,FALSE,FALSE,TRUE,FALSE,FALSE,FALSE,Disabled,0.000000,0.000000,0.000000,TRUE,-1.800858,-0.993271,0.000000,-0.334137,0.236206,0.000000,-0.017000,0.153000,0.667000,-5.710000,2.900000,3.370000,-0.080253,Hold,0.942139,0.000000,Hold,-299.000000,2.000000,LowGoal,1350.000000,-1454.545455,Speed,1320.000000,-1454.545455,Speed,Off,Off0.000000,1,Read: /home/lvuser/scripts/auto_01.bee,File good!,DRIVE_STRAIGHT_NAVX 200 10000,DRIVE_STRAIGHT_NAVX
10:58:27.943 AM 03/20/2016,Autonomous Enabled,9,FALSE,0,NO ERROR,0.000000,-106.599834,0.000000,-111.059407,FALSE,FALSE,TRUE,FALSE,FALSE,FALSE,Disabled,0.000000,0.000000,0.000000,TRUE,-1.799240,-0.986893,0.000000,0.074539,0.065018,0.000000,-0.098000,-0.567000,0.326000,0.320000,4.190000,2.570000,3.321645,Hold,0.942383,0.000000,Hold,-299.000000,2.000000,LowGoal,1350.000000,-1454.545455,Speed,1327.500000,-1454.545455,Speed,Off,Off0.000000,1,Read: /home/lvuser/scripts/auto_01.bee,File good!,DRIVE_STRAIGHT_NAVX 200 10000,DRIVE_STRAIGHT_NAVX
10:58:28.044 AM 03/20/2016,Autonomous Enabled,9,FALSE,0,NO ERROR,0.000000,-113.985400,0.000000,-118.509140,TRUE,FALSE,TRUE,FALSE,FALSE,FALSE,Disabled,0.000000,0.000000,0.000000,TRUE,-1.799896,-0.999588,0.000000,-0.050323,-0.302017,0.000000,-0.005000,0.003000,-0.340000,3.440000,2.500000,1.860000,3.944266,Hold,0.942383,0.000000,Hold,-290.000000,2.000000,LowGoal,1357.500000,-1454.545455,Speed,1327.500000,-1454.545455,Speed,Off,Off0.000000,1,Read: /home/lvuser/scripts/auto_01.bee,File good!,DRIVE_STRAIGHT_NAVX 200 10000,DRIVE_STRAIGHT_NAVX
10:58:28.145 AM 03/20/2016,Autonomous Enabled,10,FALSE,0,NO ERROR,0.000000,-121.678965,0.000000,-125.644456,TRUE,FALSE,TRUE,FALSE,FALSE,FALSE,Disabled,0.000000,0.000000,0.000000,TRUE,-1.802124,-1.011398,0.000000,-0.050812,-0.297653,0.000000,-0.014000,-0.139000,-0.175000,3.580000,2.910000,1.690000,2.787370,Hold,0.942383,0.000000,Hold,-290.000000,2.000000,LowGoal,1350.000000,-1454.545455,Speed,1320.000000,-1454.545455,Speed,Off,Off0.000000,1,Read: /home/lvuser/scripts/auto_01.bee,File good!,DRIVE_STRAIGHT_NAVX 200 10000,DRIVE_STRAIGHT_NAVX
10:58:28.247 AM 03/20/2016,Autonomous Enabled,11,FALSE,0,NO ERROR,0.000000,-129.699780,0.000000,-132.978689,TRUE,FALSE,TRUE,FALSE,FALSE,FALSE,Disabled,0.000000,0.000000,0.000000,TRUE,-1.805908,-1.027176,0.000000,-0.110397,-0.301071,0.000000,0.042000,0.006000,-0.182000,2.280000,2.840000,1.780000,2.787370,Hold,0.942383,0.000000,Hold,-289.000000,2.000000,LowGoal,1350.000000,-1454.545455,Speed,1327.500000,-1454.545455,Speed,Off,Off0.000000,1,Read: /home/lvuser/scripts/auto_01.bee,File good!,DRIVE_STRAIGHT_NAVX 200 10000,DRIVE_STRAIGHT_NAVX
10:58:28.347 AM 03/20/2016,Autonomous Enabled,10,FALSE,0,NO ERROR,0.000000,-136.854347,0.000000,-132.978689,TRUE,FALSE,TRUE,FALSE,FALSE,FALSE,Disabled,0.000000,0.000000,0.000000,TRUE,-1.812180,-1.042450,0.000000,-0.096771,-0.230423,0.000000,0.031000,0.149000,-0.206000,0.920000,2.480000,1.860000,1.516264,Hold,0.942383,0.000000,Hold,-555.000000,2.000000,LowGoal,1342.500000,-1454.545455,Speed,1320.000000,-1454.545455,Speed,Off,Off0.000000,1,Read: /home/lvuser/scripts/auto_01.bee,File good!,DRIVE_STRAIGHT_NAVX 200 10000,DRIVE_STRAIGHT_NAVX
10:58:28.450 AM 03/20/2016,Autonomous Disabled,11,FALSE,0,NO ERROR,0.000000,-136.854347,0.000000,-139.575007,TRUE,FALSE,TRUE,FALSE,FALSE,FALSE,Disabled,0.000000,0.000000,0.000000,TRUE,-1.846939,-1.055038,0.000000,-0.814133,-0.091095,0.000000,0.031000,0.149000,-0.206000,0.920000,2.480000,1.860000,0.381036,Hold,0.942627,0.000000,Hold,-10599.000000,2.000000,LowGoal,1215.000000,-1454.545455,Speed,1140.000000,-1454.545455,Speed,Off,Off0.000000,1,Read: /home/lvuser/scripts/auto_01.bee,File good!,DRIVE_STRAIGHT_NAVX 200 10000,DRIVE_STRAIGHT_NAVX
10:58:28.551 AM 03/20/2016,Autonomous Disabled,9,FALSE,0,NO ERROR,0.000000,-142.244334,0.000000,-144.374662,FALSE,FALSE,TRUE,FALSE,FALSE,FALSE,Disabled,0.000000,0.000000,0.000000,TRUE,-1.865280,-1.056396,0.000000,-1.005981,-0.055618,0.000000,-0.286000,0.090000,0.490000,-0.730000,4.370000,1.830000,-0.278348,Hold,0.942627,0.000000,Hold,-24933.000000,2.000000,LowGoal,1020.000000,-1454.545455,Speed,862.500000,-1454.545455,Speed,Off,Off0.000000,1,Read: /home/lvuser/scripts/auto_01.bee,File good!,DRIVE_STRAIGHT_NAVX 200 10000,DRIVE_STRAIGHT_NAVX
10:58:28.650 AM 03/20/2016,Autonomous Disabled,11,FALSE,0,NO ERROR,0.000000,-145.645159,0.000000,-147.647155,FALSE,FALSE,TRUE,FALSE,FALSE,FALSE,Disabled,0.000000,0.000000,0.000000,TRUE,-1.915665,-1.056931,0.000000,-1.351303,-0.019531,0.000000,-0.449000,0.020000,-0.481000,-0.890000,4.110000,1.950000,-0.555870,Hold,1.221680,0.000000,Hold,-24933.000000,2.000000,LowGoal,810.000000,-1454.545455,Speed,585.000000,-1454.545455,Speed,Off,Off0.000000,1,Read: /home/lvuser/scripts/auto_01.bee,File good!,DRIVE_STRAIGHT_NAVX 200 10000,DRIVE_STRAIGHT_NAVX
10:58:28.750 AM 03/20/2016,Autonomous Disabled,10,FALSE,0,NO ERROR,0.000000,-147.396905,0.000000,-149.353984,FALSE,FALSE,TRUE,FALSE,FALSE,FALSE,Disabled,0.000000,0.000000,0.000000,TRUE,-1.992508,-1.058167,0.000000,-1.618164,-0.050476,0.000000,-0.310000,0.168000,0.282000,-1.160000,4.060000,2.210000,-0.823281,Hold,1.221680,0.000000,Hold,-33115.000000,2.000000,LowGoal,630.000000,-1454.545455,Speed,585.000000,-1454.545455,Speed,Off,Off0.000000,1,Read: /home/lvuser/scripts/auto_01.bee,File good!,DRIVE_STRAIGHT_NAVX 200 10000,DRIVE_STRAIGHT_NAVX
10:58:28.850 AM 03/20/2016,Autonomous Disabled,9,FALSE,0,NO ERROR,0.000000,-147.910237,0.000000,-149.860900,FALSE,FALSE,TRUE,FALSE,FALSE,FALSE,Disabled,0.000000,0.000000,0.000000,TRUE,-2.083252,-1.058105,0.000000,-1.974289,0.020370,0.000000,-0.163000,-0.153000,0.260000,-1.180000,3.450000,2.360000,-0.885939,Hold,1.221436,0.000000,Hold,-33115.000000,2.000000,LowGoal,630.000000,-1454.545455,Speed,142.500000,-1454.545455,Speed,Off,Off0.000000,1,Read: /home/lvuser/scripts/auto_01.bee,File good!,DRIVE_STRAIGHT_NAVX 200 10000,DRIVE_STRAIGHT_NAVX
10:58:28.950 AM 03/20/2016,Autonomous Disabled,9,FALSE,0,NO ERROR,0.000000,-147.807571,0.000000,-149.732567,FALSE,FALSE,TRUE,FALSE,FALSE,FALSE,Disabled,0.000000,0.000000,0.000000,TRUE,-2.204117,-1.058701,0.000000,-1.980652,0.000000,0.000000,0.067000,0.005000,0.200000,-1.060000,3.230000,2.360000,-0.772334,Hold,1.221436,0.000000,Hold,-35443.000000,2.000000,LowGoal,360.000000,-1454.545455,Speed,142.500000,-1454.545455,Speed,Off,Off0.000000,1,Read: /home/lvuser/scripts/auto_01.bee,File good!,DRIVE_STRAIGHT_NAVX 200 10000,DRIVE_STRAIGHT_NAVX
10:58:29.050 AM 03/20/2016,Autonomous Disabled,9,FALSE,0,NO ERROR,0.000000,-147.634321,0.000000,-149.617067,FALSE,FALSE,TRUE,FALSE,FALSE,FALSE,Disabled,0.000000,0.000000,0.000000,TRUE,-2.243332,-1.058838,0.000000,0.018188,-0.001144,0.000000,0.097000,0.029000,0.147000,-1.080000,3.310000,2.280000,-0.780352,Hold,1.221436,0.000000,Hold,-37672.000000,2.000000,LowGoal,360.000000,-1454.545455,Speed,0.000000,-1454.545455,Speed,Off,Off0.000000,1,Read: /home/lvuser/scripts/auto_01.bee,File good!,DRIVE_STRAIGHT_NAVX 200 10000,DRIVE_STRAIGHT_NAVX
10:58:29.152 AM 03/20/2016,Autonomous Disabled,10,FALSE,0,NO ERROR,0.000000,-147.178739,0.000000,-149.161485,FALSE,FALSE,TRUE,FALSE,FALSE,FALSE,Disabled,0.000000,0.000000,0.000000,TRUE,-2.240479,-1.058487,0.000000,0.085159,0.013443,0.000000,0.073000,-0.013000,0.120000,-1.070000,3.360000,2.290000,-0.757896,Hold,1.221436,0.000000,Hold,-38922.000000,2.000000,LowGoal,232.500000,-1454.545455,Speed,0.000000,-1454.545455,Speed,Off,Off0.000000,1,Read: /home/lvuser/scripts/auto_01.bee,File good!,DRIVE_STRAIGHT_NAVX 200 10000,DRIVE_STRAIGHT_NAVX
10:58:29.253 AM 03/20/2016,Autonomous Disabled,9,FALSE,0,NO ERROR,0.000000,-146.703907,0.000000,-148.686652,FALSE,FALSE,TRUE,FALSE,FALSE,FALSE,Disabled,0.000000,0.000000,0.000000,TRUE,-2.234253,-1.057770,0.000000,0.145538,0.000000,0.000000,0.036000,0.020000,0.088000,-1.070000,3.430000,2.310000,-0.750223,Hold,1.221436,0.000000,Hold,-38922.000000,2.000000,LowGoal,127.500000,-1454.545455,Speed,0.000000,-1454.545455,Speed,Off,Off0.000000,1,Read: /home/lvuser/scripts/auto_01.bee,File good!,DRIVE_STRAIGHT_NAVX 200 10000,DRIVE_STRAIGHT_NAVX
10:58:29.353 AM 03/20/2016,Autonomous Disabled,11,FALSE,0,NO ERROR,0.000000,-146.152075,0.000000,-148.147654,FALSE,FALSE,TRUE,FALSE,FALSE,FALSE,Disabled,0.000000,0.000000,0.000000,TRUE,-2.225342,-1.057709,0.000000,0.209946,0.000000,0.000000,0.092000,0.015000,-0.003000,-1.060000,3.330000,2.310000,-0.725134,Hold,1.221436,0.000000,Hold,-38922.000000,2.000000,LowGoal,7.500000,-1454.545455,Speed,0.000000,-1454.545455,Speed,Off,Off0.000000,1,Read: /home/lvuser/scripts/auto_01.bee,File good!,DRIVE_STRAIGHT_NAVX 200 10000,DRIVE_STRAIGHT_NAVX
10:58:29.453 AM 03/20/2016,Autonomous Disabled,11,FALSE,0,NO ERROR,0.000000,-145.690076,0.000000,-147.685655,FALSE,TRUE,TRUE,FALSE,FALSE,FALSE,Disabled,0.000000,0.000000,0.000000,TRUE,-2.209396,-1.057709,0.000000,0.300415,0.000000,0.000000,0.055000,-0.008000,0.037000,-1.060000,3.400000,2.340000,-0.722373,Hold,1.221436,0.000000,Hold,-38922.000000,2.000000,LowGoal,0.000000,-1454.545455,Speed,0.000000,-1454.545455,Speed,Off,Off0.000000,1,Read: /home/lvuser/scripts/auto_01.bee,File good!,DRIVE_STRAIGHT_NAVX 200 10000,DRIVE_STRAIGHT_NAVX
10:58:29.553 AM 03/20/2016,Autonomous Disabled,10,FALSE,0,NO ERROR,0.000000,-145.272994,0.000000,-147.281406,FALSE,TRUE,TRUE,FALSE,FALSE,FALSE,Disabled,0.000000,0.000000,0.000000,TRUE,-2.195923,-1.057800,0.000000,0.356979,-0.003311,0.000000,0.067000,0.024000,0.024000,-1.050000,3.450000,2.340000,-0.714992,Hold,1.221436,0.000000,Hold,-38922.000000,2.000000,LowGoal,0.000000,0.000000,Speed,0.000000,0.000000,Speed,Off,Off0.000000,1,Read: /home/lvuser/scripts/auto_01.bee,File good!,DRIVE_STRAIGHT_NAVX 200 10000,DRIVE_STRAIGHT_NAVX
10:58:29.654 AM 03/20/2016,Autonomous Disabled,11,FALSE,0,NO ERROR,0.000000,-144.855911,0.000000,-146.864323,FALSE,FALSE,TRUE,FALSE,FALSE,FALSE,Disabled,0.000000,0.000000,0.000000,TRUE,-2.176331,-1.057739,0.000000,0.415146,0.000000,0.000000,0.053000,0.000000,0.027000,-1.040000,3.410000,2.350000,-0.709002,Hold,1.221436,0.000000,Hold,-38922.000000,2.000000,LowGoal,0.000000,0.000000,Speed,0.000000,0.000000,Speed,Off,Off0.000000,1,Read: /home/lvuser/scripts/auto_01.bee,File good!,DRIVE_STRAIGHT_NAVX 200 10000,DRIVE_STRAIGHT_NAVX
10:58:29.754 AM 03/20/2016,Autonomous Disabled,11,FALSE,0,NO ERROR,0.000000,-144.470912,0.000000,-146.479324,FALSE,FALSE,TRUE,FALSE,FALSE,FALSE,Disabled,0.000000,0.000000,0.000000,TRUE,-2.153976,-1.057739,0.000000,0.466263,0.000000,0.000000,0.045000,-0.016000,0.029000,-1.050000,3.400000,2.370000,-0.721877,Hold,1.221436,0.000000,Hold,-38922.000000,2.000000,LowGoal,0.000000,-1454.545455,Speed,0.000000,-1454.545455,Speed,Off,Off0.000000,1,Read: /home/lvuser/scripts/auto_01.bee,File good!,DRIVE_STRAIGHT_NAVX 200 10000,DRIVE_STRAIGHT_NAVX
10:58:29.855 AM 03/20/2016,Autonomous Disabled,9,FALSE,0,NO ERROR,0.000000,-144.085913,0.000000,-146.094325,FALSE,FALSE,TRUE,FALSE,FALSE,FALSE,Disabled,0.000000,0.000000,0.000000,TRUE,-2.129578,-1.057785,0.000000,0.502548,-0.002548,0.000000,0.021000,-0.012000,0.050000,-1.060000,3.340000,2.380000,-0.719780,Hold,1.221436,0.000000,Hold,-38922.000000,2.000000,LowGoal,0.000000,-1454.545455,Speed,0.000000,-1454.545455,Speed,Off,Off0.000000,1,Read: /home/lvuser/scripts/auto_01.bee,File good!,DRIVE_STRAIGHT_NAVX 200 10000,DRIVE_STRAIGHT_NAVX
10:58:29.955 AM 03/20/2016,Autonomous Disabled,10,FALSE,0,NO ERROR,0.000000,-143.668831,0.000000,-145.670826,FALSE,FALSE,TRUE,FALSE,FALSE,FALSE,Disabled,0.000000,0.000000,0.000000,TRUE,-2.103409,-1.057800,0.000000,0.535828,0.000000,0.000000,0.033000,0.014000,0.015000,-1.040000,3.250000,2.390000,-0.706055,Hold,1.221436,0.000000,Hold,-38922.000000,2.000000,LowGoal,0.000000,-1454.545455,Speed,0.000000,-1454.545455,Speed,Off,Off0.000000,1,Read: /home/lvuser/scripts/auto_01.bee,File good!,DRIVE_STRAIGHT_NAVX 200 10000,DRIVE_STRAIGHT_NAVX
10:58:30.055 AM 03/20/2016,Autonomous Disabled,9,FALSE,0,NO ERROR,0.000000,-143.245332,0.000000,-145.247327,FALSE,FALSE,TRUE,FALSE,FALSE,FALSE,Disabled,0.000000,0.000000,0.000000,TRUE,-2.069611,-1.057800,0.000000,0.581741,0.000000,0.000000,0.040000,0.012000,0.013000,-1.050000,3.170000,2.400000,-0.715006,Hold,1.221436,0.000000,Hold,-38922.000000,2.000000,LowGoal,0.000000,-1454.545455,Speed,0.000000,-1454.545455,Speed,Off,Off0.000000,1,Read: /home/lvuser/scripts/auto_01.bee,File good!,DRIVE_STRAIGHT_NAVX 200 10000,DRIVE_STRAIGHT_NAVX
10:58:30.155 AM 03/20/2016,Autonomous Disabled,10,FALSE,0,NO ERROR,0.000000,-142.802583,0.000000,-144.804578,FALSE,FALSE,TRUE,FALSE,FALSE,FALSE,Disabled,0.000000,0.000000,0.000000,TRUE,-2.039597,-1.057800,0.000000,0.611908,0.000000,0.000000,0.023000,0.011000,0.068000,-1.040000,3.060000,2.420000,-0.683516,Hold,1.221436,0.000000,Hold,-38922.000000,2.000000,LowGoal,0.000000,-1454.545455,Speed,0.000000,-1454.545455,Speed,Off,Off0.000000,1,Read: /home/lvuser/scripts/auto_01.bee,File good!,DRIVE_STRAIGHT_NAVX 200 10000,DRIVE_STRAIGHT_NAVX
10:58:30.256 AM 03/20/2016,Autonomous Disabled,9,FALSE,0,NO ERROR,0.000000,-142.359834,0.000000,-144.361829,TRUE,TRUE,TRUE,FALSE,FALSE,FALSE,Disabled,0.000000,0.000000,0.000000,TRUE,-2.008087,-1.057999,0.000000,0.644211,-0.008087,0.000000,0.058000,-0.001000,0.055000,-1.050000,2.920000,2.450000,-0.682917,Hold,1.221436,0.000000,Hold,-38922.000000,2.000000,LowGoal,0.000000,-1454.545455,Speed,0.000000,-1454.545455,Speed,Off,Off0.000000,1,Read: /home/lvuser/scripts/auto_01.bee,File good!,DRIVE_STRAIGHT_NAVX 200 10000,DRIVE_STRAIGHT_NAVX
10:58:30.356 AM 03/20/2016,Autonomous Disabled,10,FALSE,0,NO ERROR,0.000000,-141.904251,0.000000,-143.912663,TRUE,TRUE,TRUE,FALSE,FALSE,FALSE,Disabled,0.000000,0.000000,0.000000,TRUE,-1.974945,-1.058060,0.000000,0.677322,-0.003632,0.000000,0.038000,-0.010000,0.008000,-1.040000,2.790000,2.470000,-0.670459,Hold,1.221436,0.000000,Hold,-38922.000000,2.000000,LowGoal,0.000000,0.000000,Speed,0.000000,0.000000,Speed,Off,Off0.000000,1,Read: /home/lvuser/scripts/auto_01.bee,File good!,DRIVE_STRAIGHT_NAVX 200 10000,DRIVE_STRAIGHT_NAVX
10:58:30.456 AM 03/20/2016,Autonomous Disabled,11,FALSE,0,NO ERROR,0.000000,-141.423003,0.000000,-143.450665,TRUE,FALSE,TRUE,FALSE,FALSE,FALSE,Disabled,0.000000,0.000000,0.000000,TRUE,-1.947266,-1.058029,0.000000,0.699097,0.005096,0.000000,0.041000,-0.019000,-0.006000,-1.040000,2.580000,2.490000,-0.645734,Hold,1.221436,0.000000,Hold,-38922.000000,2.000000,LowGoal,0.000000,0.000000,Speed,0.000000,0.000000,Speed,Off,Off0.000000,1,Read: /home/lvuser/scripts/auto_01.bee,File good!,DRIVE_STRAIGHT_NAVX 200 10000,DRIVE_STRAIGHT_NAVX
10:58:30.558 AM 03/20/2016,Autonomous Disabled,9,FALSE,0,NO ERROR,0.000000,-140.928920,0.000000,-142.956582,TRUE,FALSE,TRUE,FALSE,FALSE,FALSE,Disabled,0.000000,0.000000,0.000000,TRUE,-1.904083,-1.057816,0.000000,0.729782,0.005569,0.000000,0.041000,-0.010000,0.008000,-1.010000,2.410000,2.510000,-0.607116,Hold,1.221436,0.000000,Hold,-38922.000000,2.000000,LowGoal,0.000000,-1454.545455,Speed,0.000000,-1454.545455,Speed,Off,Off0.000000,1,Read: /home/lvuser/scripts/auto_01.bee,File good!,DRIVE_STRAIGHT_NAVX 200 10000,DRIVE_STRAIGHT_NAVX
10:58:30.658 AM 03/20/2016,Autonomous Disabled,10,FALSE,0,NO ERROR,0.000000,-140.422005,0.000000,-142.436834,TRUE,FALSE,TRUE,FALSE,FALSE,FALSE,Disabled,0.000000,0.000000,0.000000,TRUE,-1.859192,-1.057709,0.000000,0.762222,0.004959,0.000000,0.019000,0.010000,0.017000,-1.000000,2.200000,2.520000,-0.594633,Hold,1.221436,0.000000,Hold,-38922.000000,2.000000,LowGoal,0.000000,-1454.545455,Speed,0.000000,-1454.545455,Speed,Off,Off0.000000,1,Read: /home/lvuser/scripts/auto_01.bee,File good!,DRIVE_STRAIGHT_NAVX 200 10000,DRIVE_STRAIGHT_NAVX
10:58:30.758 AM 03/20/2016,Autonomous Disabled,11,FALSE,0,NO ERROR,0.000000,-139.921506,0.000000,-141.942751,TRUE,FALSE,TRUE,FALSE,FALSE,FALSE,Disabled,0.000000,0.000000,0.000000,TRUE,-1.828156,-1.057709,0.000000,0.784363,0.000000,0.000000,0.038000,-0.005000,0.013000,-0.990000,2.000000,2.550000,-0.575537,Hold,1.221436,0.000000,Hold,-38922.000000,2.000000,LowGoal,0.000000,-1454.545455,Speed,0.000000,-1454.545455,Speed,Off,Off0.000000,1,Read: /home/lvuser/scripts/auto_01.bee,File good!,DRIVE_STRAIGHT_NAVX 200 10000,DRIVE_STRAIGHT_NAVX
10:58:30.858 AM 03/20/2016,Autonomous Disabled,9,FALSE,0,NO ERROR,0.000000,-139.427424,0.000000,-141.448669,TRUE,FALSE,TRUE,FALSE,FALSE,FALSE,Disabled,0.000000,0.000000,0.000000,TRUE,-1.787735,-1.057602,0.000000,0.824722,0.000000,0.000000,0.014000,0.011000,0.018000,-0.990000,1.800000,2.580000,-0.574177,Hold,1.221436,0.000000,Hold,-38922.000000,2.000000,LowGoal,0.000000,-1454.545455,Speed,0.000000,-1454.545455,Speed,Off,Off0.000000,1,Read: /home/lvuser/scripts/auto_01.bee,File good!,DRIVE_STRAIGHT_NAVX 200 10000,DRIVE_STRAIGHT_NAVX
10:58:30.958 AM 03/20/2016,Autonomous Disabled,11,FALSE,0,NO ERROR,0.000000,-138.978258,0.000000,-141.005920,TRUE,FALSE,TRUE,FALSE,FALSE,FALSE,Disabled,0.000000,0.000000,0.000000,TRUE,-1.745575,-1.057663,0.000000,0.857178,-0.003922,0.000000,0.021000,0.002000,0.009000,-0.980000,1.660000,2.620000,-0.572322,Hold,1.221436,0.000000,Hold,-38922.000000,2.000000,LowGoal,0.000000,-1454.545455,Speed,0.000000,-1454.545455,Speed,Off,Off0.000000,1,Read: /home/lvuser/scripts/auto_01.bee,File good!,DRIVE_STRAIGHT_NAVX 200 10000,DRIVE_STRAIGHT_NAVX
10:58:31.059 AM 03/20/2016,Autonomous Disabled,10,FALSE,0,NO ERROR,0.000000,-138.586843,0.000000,-140.614505,TRUE,TRUE,TRUE,FALSE,FALSE,FALSE,Disabled,0.000000,0.000000,0.000000,TRUE,-1.701813,-1.057693,0.000000,0.883759,0.000000,0.000000,0.023000,0.004000,0.042000,-0.980000,1.570000,2.630000,-0.550617,Hold,1.221436,0.000000,Hold,-38922.000000,2.000000,LowGoal,0.000000,-1454.545455,Speed,0.000000,-1454.545455,Speed,Off,Off0.000000,1,Read: /home/lvuser/scripts/auto_01.bee,File good!,DRIVE_STRAIGHT_NAVX 200 10000,DRIVE_STRAIGHT_NAVX
10:58:31.159 AM 03/20/2016,Autonomous Disabled,11,FALSE,0,NO ERROR,0.000000,-138.266010,0.000000,-140.300089,TRUE,TRUE,TRUE,FALSE,FALSE,FALSE,Disabled,0.000000,0.000000,0.000000,TRUE,-1.656891,-1.057693,0.000000,0.912857,0.000000,0.000000,0.040000,-0.018000,0.007000,-0.980000,1.480000,2.660000,-0.538223,Hold,1.221436,0.000000,Hold,-38922.000000,2.000000,LowGoal,0.000000,0.000000,Speed,0.000000,0.000000,Speed,Off,Off0.000000,1,Read: /home/lvuser/scripts/auto_01.bee,File good!,DRIVE_STRAIGHT_NAVX 200 10000,DRIVE_STRAIGHT_NAVX
10:58:31.259 AM 03/20/2016,Autonomous Disabled,10,FALSE,0,NO ERROR,0.000000,-138.002927,0.000000,-140.030589,TRUE,FALSE,TRUE,FALSE,FALSE,FALSE,Disabled,0.000000,0.000000,0.000000,TRUE,-1.610229,-1.057693,0.000000,0.944458,0.000000,0.000000,0.062000,0.031000,0.018000,-1.000000,1.450000,2.650000,-0.553674,Hold,1.221436,0.000000,Hold,-38922.000000,2.000000,LowGoal,0.000000,0.000000,Speed,0.000000,0.000000,Speed,Off,Off0.000000,1,Read: /home/lvuser/scripts/auto_01.bee,File good!,DRIVE_STRAIGHT_NAVX 200 10000,DRIVE_STRAIGHT_NAVX
10:58:31.359 AM 03/20/2016,Autonomous Disabled,11,FALSE,0,NO ERROR,0.000000,-137.829678,0.000000,-139.850923,TRUE,FALSE,TRUE,FALSE,FALSE,FALSE,Disabled,0.000000,0.000000,0.000000,TRUE,-1.552338,-1.057541,0.000000,0.976868,0.000000,0.000000,0.039000,-0.005000,-0.001000,-1.000000,1.430000,2.670000,-0.544120,Hold,1.221436,0.000000,Hold,-38922.000000,2.000000,LowGoal,0.000000,-1454.545455,Speed,0.000000,-1454.545455,Speed,Off,Off0.000000,1,Read: /home/lvuser/scripts/auto_01.bee,File good!,DRIVE_STRAIGHT_NAVX 200 10000,DRIVE_STRAIGHT_NAVX
10:58:31.460 AM 03/20/2016,Autonomous Disabled,9,FALSE,0,NO ERROR,0.000000,-137.707761,0.000000,-139.716173,TRUE,FALSE,TRUE,FALSE,FALSE,FALSE,Disabled,0.000000,0.000000,0.000000,TRUE,-1.502792,-1.057541,0.000000,0.997635,0.000000,0.000000,0.011000,-0.008000,0.018000,-1.020000,1.440000,2.680000,-0.554056,Hold,1.221436,0.000000,Hold,-38922.000000,2.000000,LowGoal,0.000000,-1454.545455,Speed,0.000000,-1454.545455,Speed,Off,Off0.000000,1,Read: /home/lvuser/scripts/auto_01.bee,File good!,DRIVE_STRAIGHT_NAVX 200 10000,DRIVE_STRAIGHT_NAVX
10:58:31.560 AM 03/20/2016,Autonomous Disabled,10,FALSE,0,NO ERROR,0.000000,-137.624345,0.000000,-139.626340,TRUE,FALSE,TRUE,FALSE,FALSE,FALSE,Disabled,0.000000,0.000000,0.000000,TRUE,-1.472519,-1.057541,0.000000,0.003876,0.000000,0.000000,0.034000,-0.010000,0.006000,-1.020000,1.450000,2.680000,-0.560228,Hold,1.221436,0.000000,Hold,-38922.000000,2.000000,LowGoal,0.000000,-1454.545455,Speed,0.000000,-1454.545455,Speed,Off,Off0.000000,1,Read: /home/lvuser/scripts/auto_01.bee,File good!,DRIVE_STRAIGHT_NAVX 200 10000,DRIVE_STRAIGHT_NAVX
10:58:31.660 AM 03/20/2016,Autonomous Disabled,10,FALSE,0,NO ERROR,0.000000,-137.611512,0.000000,-139.600674,TRUE,FALSE,TRUE,FALSE,FALSE,FALSE,Disabled,0.000000,0.000000,0.000000,TRUE,-1.471405,-1.057541,0.000000,0.033951,0.000000,0.000000,0.008000,-0.003000,0.008000,-1.050000,1.500000,2.690000,-0.573527,Hold,1.221436,0.000000,Hold,-38925.000000,2.000000,LowGoal,0.000000,-1454.545455,Speed,0.000000,-1454.545455,Speed,Off,Off0.000000,1,Read: /home/lvuser/scripts/auto_01.bee,File good!,DRIVE_STRAIGHT_NAVX 200 10000,DRIVE_STRAIGHT_NAVX
10:58:31.760 AM 03/20/2016,Autonomous Disabled,10,FALSE,0,NO ERROR,0.000000,-137.598678,0.000000,-139.587840,TRUE,FALSE,TRUE,FALSE,FALSE,FALSE,Disabled,0.000000,0.000000,0.000000,TRUE,-1.471451,-1.057541,0.000000,-0.020508,0.000000,0.000000,0.027000,-0.004000,0.027000,-1.050000,1.460000,2.690000,-0.564249,Hold,1.221436,0.000000,Hold,-39412.000000,2.000000,LowGoal,0.000000,-1454.545455,Speed,0.000000,-1454.545455,Speed,Off,Off0.000000,1,Read: /home/lvuser/scripts/auto_01.bee,File good!,DRIVE_STRAIGHT_NAVX 200 10000,DRIVE_STRAIGHT_NAVX
10:58:31.860 AM 03/20/2016,Autonomous Disabled,10,FALSE,0,NO ERROR,0.000000,-137.521678,0.000000,-139.517257,TRUE,FALSE,TRUE,FALSE,FALSE,FALSE,Disabled,0.000000,0.000000,0.000000,TRUE,-1.471985,-1.057541,0.000000,0.000000,0.000000,0.000000,0.007000,-0.002000,0.030000,-1.040000,1.460000,2.680000,-0.529345,Hold,1.221436,0.000000,Hold,-39508.000000,2.000000,LowGoal,0.000000,-1454.545455,Speed,0.000000,-1454.545455,Speed,Off,Off0.000000,1,Read: /home/lvuser/scripts/auto_01.bee,File good!,DRIVE_STRAIGHT_NAVX 200 10000,DRIVE_STRAIGHT_NAVX
10:58:31.960 AM 03/20/2016,Autonomous Disabled,10,FALSE,0,NO ERROR,0.000000,-137.508845,0.000000,-139.498007,TRUE,TRUE,TRUE,FALSE,FALSE,FALSE,Disabled,0.000000,0.000000,0.000000,TRUE,-1.471436,-1.057541,0.000000,0.020676,0.000000,0.000000,-0.023000,-0.013000,0.011000,-1.050000,1.520000,2.680000,-0.545780,Hold,1.221436,0.000000,Hold,-39508.000000,2.000000,LowGoal,0.000000,-1454.545455,Speed,0.000000,-1454.545455,Speed,Off,Off0.000000,1,Read: /home/lvuser/scripts/auto_01.bee,File good!,DRIVE_STRAIGHT_NAVX 200 10000,DRIVE_STRAIGHT_NAVX
10:58:32.060 AM 03/20/2016,Autonomous Disabled,10,FALSE,0,NO ERROR,0.000000,-137.496012,0.000000,-139.498007,TRUE,TRUE,TRUE,FALSE,FALSE,FALSE,Disabled,0.000000,0.000000,0.000000,TRUE,-1.470932,-1.057541,0.000000,0.000000,0.000000,0.000000,0.008000,-0.009000,0.010000,-1.050000,1.540000,2.680000,-0.541559,Hold,1.221436,0.000000,Hold,-39508.000000,2.000000,LowGoal,0.000000,0.000000,Speed,0.000000,0.000000,Speed,Off,Off0.000000,1,Read: /home/lvuser/scripts/auto_01.bee,File good!,DRIVE_STRAIGHT_NAVX 200 10000,DRIVE_STRAIGHT_NAVX
10:58:32.160 AM 03/20/2016,Autonomous Disabled,11,FALSE,0,NO ERROR,0.000000,-137.496012,0.000000,-139.498007,TRUE,FALSE,TRUE,FALSE,FALSE,FALSE,Disabled,0.000000,0.000000,0.000000,TRUE,-1.470932,-1.057541,0.000000,0.000000,0.000000,0.000000,-0.008000,-0.005000,0.016000,-1.050000,1.540000,2.690000,-0.535394,Hold,1.221436,0.000000,Hold,-39508.000000,2.000000,LowGoal,0.000000,0.000000,Speed,0.000000,0.000000,Speed,Off,Off0.000000,1,Read: /home/lvuser/scripts/auto_01.bee,File good!,DRIVE_STRAIGHT_NAVX 200 10000,DRIVE_STRAIGHT_NAVX
10:58:32.261 AM 03/20/2016,Autonomous Disabled,9,FALSE,0,NO ERROR,0.000000,-137.496012,0.000000,-139.498007,TRUE,FALSE,TRUE,FALSE,FALSE,FALSE,Disabled,0.000000,0.000000,0.000000,TRUE,-1.470932,-1.057541,0.000000,0.000000,0.000000,0.000000,0.009000,0.000000,0.028000,-1.050000,1.570000,2.690000,-0.529727,Hold,1.221436,0.000000,Hold,-39508.000000,2.000000,LowGoal,0.000000,-1454.545455,Speed,0.000000,-1454.545455,Speed,Off,Off0.000000,1,Read: /home/lvuser/scripts/auto_01.bee,File good!,DRIVE_STRAIGHT_NAVX 200 10000,DRIVE_STRAIGHT_NAVX
10:58:32.361 AM 03/20/2016,Autonomous Disabled,10,FALSE,0,NO ERROR,0.000000,-137.496012,0.000000,-139.498007,TRUE,FALSE,TRUE,FALSE,FALSE,FALSE,Disabled,0.000000,0.000000,0.000000,TRUE,-1.470932,-1.057541,0.000000,0.000000,0.000000,0.000000,0.003000,0.000000,0.021000,-1.050000,1.570000,2.690000,-0.548100,Hold,1.221436,0.000000,Hold,-39508.000000,2.000000,LowGoal,0.000000,-1454.545455,Speed,0.000000,-1454.545455,Speed,Off,Off0.000000,1,Read: /home/lvuser/scripts/auto_01.bee,File good!,DRIVE_STRAIGHT_NAVX 200 10000,DRIVE_STRAIGHT_NAVX
10:58:32.462 AM 03/20/2016,Autonomous Disabled,9,FALSE,0,NO ERROR,0.000000,-137.496012,0.000000,-139.498007,TRUE,FALSE,TRUE,FALSE,FALSE,FALSE,Disabled,0.000000,0.000000,0.000000,TRUE,-1.470932,-1.057541,0.000000,0.000000,0.000000,0.000000,0.005000,0.004000,0.020000,-1.050000,1.580000,2.690000,-0.541594,Hold,1.221436,0.000000,Hold,-39508.000000,2.000000,LowGoal,0.000000,-1454.545455,Speed,0.000000,-1454.545455,Speed,Off,Off0.000000,1,Read: /home/lvuser/scripts/auto_01.bee,File good!,DRIVE_STRAIGHT_NAVX 200 10000,DRIVE_STRAIGHT_NAVX
10:58:32.562 AM 03/20/2016,Autonomous Disabled,10,FALSE,0,NO ERROR,0.000000,-137.496012,0.000000,-139.498007,TRUE,FALSE,TRUE,FALSE,FALSE,FALSE,Disabled,0.000000,0.000000,0.000000,TRUE,-1.470932,-1.057541,0.000000,0.000000,0.000000,0.000000,-0.001000,0.001000,0.013000,-1.050000,1.600000,2.690000,-0.536461,Hold,1.221436,0.000000,Hold,-39508.000000,2.000000,LowGoal,0.000000,-1454.545455,Speed,0.000000,-1454.545455,Speed,Off,Off0.000000,1,Read: /home/lvuser/scripts/auto_01.bee,File good!,DRIVE_STRAIGHT_NAVX 200 10000,DRIVE_STRAIGHT_NAVX
10:58:32.662 AM 03/20/2016,Autonomous Disabled,9,FALSE,0,NO ERROR,0.000000,-137.496012,0.000000,-139.498007,TRUE,FALSE,TRUE,FALSE,FALSE,FALSE,Disabled,0.000000,0.000000,0.000000,TRUE,-1.470932,-1.057541,0.000000,0.000000,0.000000,0.000000,0.000000,0.001000,0.018000,-1.060000,1.600000,2.690000,-0.536413,Hold,1.221436,0.000000,Hold,-39508.000000,2.000000,LowGoal,0.000000,-1454.545455,Speed,0.000000,-1454.545455,Speed,Off,Off0.000000,1,Read: /home/lvuser/scripts/auto_01.bee,File good!,DRIVE_STRAIGHT_NAVX 200 10000,DRIVE_STRAIGHT_NAVX
10:58:32.762 AM 03/20/2016,Autonomous Disabled,10,FALSE,0,NO ERROR,0.000000,-137.496012,0.000000,-139.498007,TRUE,TRUE,TRUE,FALSE,FALSE,FALSE,Disabled,0.000000,0.000000,0.000000,TRUE,-1.470932,-1.057541,0.000000,0.000000,0.000000,0.000000,0.002000,-0.001000,0.022000,-1.060000,1.620000,2.680000,-0.531645,Hold,1.221436,0.000000,Hold,-39508.000000,2.000000,LowGoal,0.000000,-1454.545455,Speed,0.000000,-1454.545455,Speed,Off,Off0.000000,1,Read: /home/lvuser/scripts/auto_01.bee,File good!,DRIVE_STRAIGHT_NAVX 200 10000,DRIVE_STRAIGHT_NAVX
10:58:32.862 AM 03/20/2016,Autonomous Disabled,10,FALSE,0,NO ERROR,0.000000,-137.496012,0.000000,-139.498007,TRUE,TRUE,TRUE,FALSE,FALSE,FALSE,Disabled,0.000000,0.000000,0.000000,TRUE,-1.470932,-1.057541,0.000000,0.000000,0.000000,0.000000,0.000000,0.000000,0.020000,-1.060000,1.620000,2.690000,-0.534127,Hold,1.221436,0.000000,Hold,-39508.000000,2.000000,LowGoal,0.000000,0.000000,Speed,0.000000,0.000000,Speed,Off,Off0.000000,1,Read: /home/lvuser/scripts/auto_01.bee,File good!,DRIVE_STRAIGHT_NAVX 200 10000,DRIVE_STRAIGHT_NAVX
10:58:32.962 AM 03/20/2016,Autonomous Disabled,9,FALSE,0,NO ERROR,0.000000,-137.496012,0.000000,-139.498007,TRUE,FALSE,TRUE,FALSE,FALSE,FALSE,Disabled,0.000000,0.000000,0.000000,TRUE,-1.470932,-1.057541,0.000000,0.000000,0.000000,0.000000,0.003000,-0.002000,0.022000,-1.060000,1.650000,2.690000,-0.529558,Hold,1.221436,0.000000,Hold,-39508.000000,2.000000,LowGoal,0.000000,0.000000,Speed,0.000000,0.000000,Speed,Off,Off0.000000,1,Read: /home/lvuser/scripts/auto_01.bee,File good!,DRIVE_STRAIGHT_NAVX 200 10000,DRIVE_STRAIGHT_NAVX
10:58:33.062 AM 03/20/2016,Autonomous Disabled,10,FALSE,0,NO ERROR,0.000000,-137.496012,0.000000,-139.498007,TRUE,FALSE,TRUE,FALSE,FALSE,FALSE,Disabled,0.000000,0.000000,0.000000,TRUE,-1.470932,-1.057541,0.000000,0.000000,0.000000,0.000000,0.000000,0.000000,0.024000,-1.060000,1.640000,2.700000,-0.532781,Hold,1.221436,0.000000,Hold,-39508.000000,2.000000,LowGoal,0.000000,-1454.545455,Speed,0.000000,-1454.545455,Speed,Off,Off0.000000,1,Read: /home/lvuser/scripts/auto_01.bee,File good!,DRIVE_STRAIGHT_NAVX 200 10000,DRIVE_STRAIGHT_NAVX
10:58:33.162 AM 03/20/2016,Autonomous Disabled,10,FALSE,0,NO ERROR,0.000000,-137.496012,0.000000,-139.498007,TRUE,FALSE,TRUE,FALSE,FALSE,FALSE,Disabled,0.000000,0.000000,0.000000,TRUE,-1.470932,-1.057541,0.000000,0.000000,0.000000,0.000000,0.002000,-0.001000,0.019000,-1.060000,1.660000,2.700000,-0.532123,Hold,1.221436,0.000000,Hold,-39508.000000,2.000000,LowGoal,0.000000,-1454.545455,Speed,0.000000,-1454.545455,Speed,Off,Off0.000000,1,Read: /home/lvuser/scripts/auto_01.bee,File good!,DRIVE_STRAIGHT_NAVX 200 10000,DRIVE_STRAIGHT_NAVX
10:58:33.263 AM 03/20/2016,Autonomous Disabled,10,FALSE,0,NO ERROR,0.000000,-137.496012,0.000000,-139.498007,TRUE,FALSE,TRUE,FALSE,FALSE,FALSE,Disabled,0.000000,0.000000,0.000000,TRUE,-1.470932,-1.057541,0.000000,0.000000,0.000000,0.000000,-0.002000,-0.001000,0.020000,-1.060000,1.660000,2.700000,-0.531063,Hold,1.221436,0.000000,Hold,-39508.000000,2.000000,LowGoal,0.000000,-1454.545455,Speed,0.000000,-1454.545455,Speed,Off,Off0.000000,1,Read: /home/lvuser/scripts/auto_01.bee,File good!,DRIVE_STRAIGHT_NAVX 200 10000,DRIVE_STRAIGHT_NAVX
10:58:33.364 AM 03/20/2016,Autonomous Disabled,9,FALSE,0,NO ERROR,0.000000,-137.496012,0.000000,-139.498007,TRUE,FALSE,TRUE,FALSE,FALSE,FALSE,Disabled,0.000000,0.000000,0.000000,TRUE,-1.470932,-1.057541,0.000000,0.000000,0.000000,0.000000,0.003000,0.003000,0.022000,-1.060000,1.660000,2.700000,-0.539924,Hold,1.221436,0.000000,Hold,-39508.000000,2.000000,LowGoal,0.000000,-1454.545455,Speed,0.000000,-1454.545455,Speed,Off,Off0.000000,1,Read: /home/lvuser/scripts/auto_01.bee,File good!,DRIVE_STRAIGHT_NAVX 200 10000,DRIVE_STRAIGHT_NAVX
10:58:33.465 AM 03/20/2016,Autonomous Disabled,11,FALSE,0,NO ERROR,0.000000,-137.496012,0.000000,-139.498007,TRUE,FALSE,TRUE,FALSE,FALSE,FALSE,Disabled,0.000000,0.000000,0.000000,TRUE,-1.470932,-1.057541,0.000000,0.000000,0.000000,0.000000,-0.002000,0.000000,0.017000,-1.060000,1.660000,2.700000,-0.542306,Hold,1.221436,0.000000,Hold,-39508.000000,2.000000,LowGoal,0.000000,-1454.545455,Speed,0.000000,-1454.545455,Speed,Off,Off0.000000,1,Read: /home/lvuser/scripts/auto_01.bee,File good!,DRIVE_STRAIGHT_NAVX 200 10000,DRIVE_STRAIGHT_NAVX
10:58:33.566 AM 03/20/2016,Autonomous Disabled,12,FALSE,0,NO ERROR,0.000000,-137.496012,0.000000,-139.498007,TRUE,TRUE,TRUE,FALSE,FALSE,FALSE,Disabled,0.000000,0.000000,0.000000,TRUE,-1.470932,-1.057541,0.000000,0.000000,0.000000,0.000000,0.001000,0.000000,0.021000,-1.070000,1.670000,2.700000,-0.537962,Hold,1.221436,0.000000,Hold,-39508.000000,2.000000,LowGoal,0.000000,-1454.545455,Speed,0.000000,-1454.545455,Speed,Off,Off0.000000,1,Read: /home/lvuser/scripts/auto_01.bee,File good!,DRIVE_STRAIGHT_NAVX 200 10000,DRIVE_STRAIGHT_NAVX
10:58:33.666 AM 03/20/2016,Autonomous Disabled,11,FALSE,0,NO ERROR,0.000000,-137.496012,0.000000,-139.498007,TRUE,TRUE,TRUE,FALSE,FALSE,FALSE,Disabled,0.000000,0.000000,0.000000,TRUE,-1.470932,-1.057541,0.000000,0.000000,0.000000,0.000000,0.001000,0.000000,0.022000,-1.070000,1.670000,2.710000,-0.546730,Hold,1.221436,0.000000,Hold,-39508.000000,2.000000,LowGoal,0.000000,0.000000,Speed,0.000000,0.000000,Speed,Off,Off0.000000,1,Read: /home/lvuser/scripts/auto_01.bee,File good!,DRIVE_STRAIGHT_NAVX 200 10000,DRIVE_STRAIGHT_NAVX
10:58:33.768 AM 03/20/2016,Autonomous Disabled,11,FALSE,0,NO ERROR,0.000000,-137.496012,0.000000,-139.498007,TRUE,FALSE,TRUE,FALSE,FALSE,FALSE,Disabled,0.000000,0.000000,0.000000,TRUE,-1.470932,-1.057541,0.000000,0.000000,0.000000,0.000000,0.001000,0.000000,0.018000,-1.070000,1.670000,2.710000,-0.559402,Hold,1.221436,0.000000,Hold,-39508.000000,2.000000,LowGoal,0.000000,0.000000,Speed,0.000000,0.000000,Speed,Off,Off0.000000,1,Read: /home/lvuser/scripts/auto_01.bee,File good!,DRIVE_STRAIGHT_NAVX 200 10000,DRIVE_STRAIGHT_NAVX
10:58:33.869 AM 03/20/2016,Autonomous Disabled,10,FALSE,0,NO ERROR,0.000000,-137.496012,0.000000,-139.498007,TRUE,FALSE,TRUE,FALSE,FALSE,FALSE,Disabled,0.000000,0.000000,0.000000,TRUE,-1.470932,-1.057541,0.000000,0.000000,0.000000,0.000000,0.000000,0.000000,0.020000,-1.070000,1.690000,2.710000,-0.550827,Hold,1.221436,0.000000,Hold,-39508.000000,2.000000,LowGoal,0.000000,0.000000,Speed,0.000000,0.000000,Speed,Off,Off0.000000,1,Read: /home/lvuser/scripts/auto_01.bee,File good!,DRIVE_STRAIGHT_NAVX 200 10000,DRIVE_STRAIGHT_NAVX
10:58:33.970 AM 03/20/2016,Autonomous Disabled,11,FALSE,0,NO ERROR,0.000000,-137.496012,0.000000,-139.498007,TRUE,FALSE,TRUE,FALSE,FALSE,FALSE,Disabled,0.000000,0.000000,0.000000,TRUE,-1.470932,-1.057541,0.000000,0.000000,0.000000,0.000000,0.000000,-0.001000,0.019000,-1.070000,1.690000,2.710000,-0.569347,Hold,1.221436,0.000000,Hold,-39508.000000,2.000000,LowGoal,0.000000,-1454.545455,Speed,0.000000,-1454.545455,Speed,Off,Off0.000000,1,Read: /home/lvuser/scripts/auto_01.bee,File good!,DRIVE_STRAIGHT_NAVX 200 10000,DRIVE_STRAIGHT_NAVX
10:58:34.070 AM 03/20/2016,Autonomous Disabled,11,FALSE,0,NO ERROR,0.000000,-137.496012,0.000000,-139.498007,TRUE,FALSE,TRUE,FALSE,FALSE,FALSE,Disabled,0.000000,0.000000,0.000000,TRUE,-1.470932,-1.057541,0.000000,0.000000,0.000000,0.000000,0.000000,-0.001000,0.019000,-1.070000,1.690000,2.710000,-0.555154,Hold,1.221436,0.000000,Hold,-39508.000000,2.000000,LowGoal,0.000000,-1454.545455,Speed,0.000000,-1454.545455,Speed,Off,Off0.000000,1,Read: /home/lvuser/scripts/auto_01.bee,File good!,DRIVE_STRAIGHT_NAVX 200 10000,DRIVE_STRAIGHT_NAVX
10:58:34.170 AM 03/20/2016,Autonomous Disabled,11,FALSE,0,NO ERROR,0.000000,-137.496012,0.000000,-139.49800                                                                                                                                                                                                                                                                                                                                                                                                                                               