Time,Robot Mode,Loop Time,Error Status,Error Code,Error Source,Left Motor Output,Left Motor Encoder,Right Motor Output,Right Motor Encoder,Is Level,Is Stalled,Ball Detector Photoeye,Vision Enabled,Vision Teleop Control,Vision Auto Control,Vision Current State,Vision X Output,Vision NavX Error,Vision NavX Target,NavX Connection Status,NavX Displacement X,NavX Displacement Y,NavX Displacement Z,NavX Velocity X,NavX Velocity Y,NavX Velocity Z,NavX Acceleration X,NavX Acceleration Y,NavX Acceleration Z,NavX Pitch,NavX Yaw,NavX Roll,Gyro Angle,Roller Arm State,Roller Arm Actual,Roller Arm Desired,Shooter Arm State,Shooter Arm Actual,Shooter Arm Desired,Shooter State,Actual RPM Left,Desired RPM Left,Control Mode Left,Actual RPM Right,Desired RPM Right,Scaler Motor Output,Auto To Run,Auto Current File,Auto File Status,Auto Current Command,Auto Trimmed Command
11:15:40.713 AM 03/20/2016,Autonomous Enabled,11,TRUE,7,Read from Text File in DoesScriptNumberContainNull.vi->Disabled.vi->Robot Main.vi<APPEND> /home/lvuser/scripts/auto_43.bee,0.000000,0.000000,0.000000,0.000000,TRUE,FALSE,TRUE,FALSE,FALSE,FALSE,Disabled,0.000000,0.000000,0.000000,TRUE,-4.140167,-0.640625,0.000000,0.000000,0.000000,0.000000,0.002000,-0.001000,0.024000,-0.150000,-0.180000,2.620000,-0.524846,ResetBack,1.051025,-0.000049,ResetBack,-48492.000000,-0.300000,LowGoal,0.000000,-1454.545455,Speed,0.000000,-1454.545455,Speed,Off,Off0.000000,44,Read: /home/lvuser/scripts/auto_44.bee,File good!,WAIT 1500,WAIT
11:15:40.813 AM 03/20/2016,Autonomous Enabled,11,TRUE,7,Read from Text File in DoesScriptNumberContainNull.vi->Disabled.vi->Robot Main.vi<APPEND> /home/lvuser/scripts/auto_43.bee,0.000000,0.057750,0.000000,-0.102666,TRUE,TRUE,TRUE,FALSE,FALSE,FALSE,Disabled,0.000000,0.000000,0.000000,TRUE,-4.139862,-0.640747,0.000000,0.018585,-0.003769,0.000000,-0.040000,-0.014000,0.020000,-0.150000,-0.200000,2.610000,-0.535297,ResetBack,0.568359,-0.000049,ResetBack,-47595.000000,-0.300000,LowGoal,37.500000,-1454.545455,Speed,22.500000,-1454.545455,Speed,Off,Off0.000000,44,Read: /home/lvuser/scripts/auto_44.bee,File good!,WAIT 1500,WAIT
11:15:40.913 AM 03/20/2016,Autonomous Enabled,10,TRUE,7,Read from Text File in DoesScriptNumberContainNull.vi->Disabled.vi->Robot Main.vi<APPEND> /home/lvuser/scripts/auto_43.bee,0.000000,0.109083,0.000000,-0.224583,TRUE,FALSE,TRUE,FALSE,FALSE,FALSE,Disabled,0.000000,0.000000,0.000000,TRUE,-4.139145,-0.641068,0.000000,0.008224,-0.026184,0.000000,0.130000,-0.048000,0.100000,0.020000,-0.270000,2.600000,-0.359988,ResetBack,0.086426,-0.000049,ResetBack,-47595.000000,-0.300000,LowGoal,682.500000,0.000000,Speed,570.000000,0.000000,Speed,Off,Off0.000000,44,Read: /home/lvuser/scripts/auto_44.bee,File good!,WAIT 1500,WAIT
11:15:41.013 AM 03/20/2016,Autonomous Enabled,10,TRUE,7,Read from Text File in DoesScriptNumberContainNull.vi->Disabled.vi->Robot Main.vi<APPEND> /home/lvuser/scripts/auto_43.bee,0.000000,0.166833,0.000000,-0.224583,TRUE,FALSE,TRUE,FALSE,FALSE,FALSE,Disabled,0.000000,0.000000,0.000000,TRUE,-4.137589,-0.643936,0.000000,0.019852,-0.055145,0.000000,-0.049000,0.021000,-0.018000,0.130000,-0.230000,2.610000,-0.299255,ResetBack,-0.048096,-0.000049,ResetBack,-43527.000000,-0.300000,LowGoal,1237.500000,-1454.545455,Speed,1230.000000,-1454.545455,Speed,Off,Off0.000000,44,Read: /home/lvuser/scripts/auto_44.bee,File good!,WAIT 1500,WAIT
11:15:41.113 AM 03/20/2016,Autonomous Enabled,10,TRUE,7,Read from Text File in DoesScriptNumberContainNull.vi->Disabled.vi->Robot Main.vi<APPEND> /home/lvuser/scripts/auto_43.bee,0.000000,0.173250,0.000000,-0.224583,TRUE,FALSE,TRUE,FALSE,FALSE,FALSE,Disabled,0.000000,0.000000,0.000000,TRUE,-4.137939,-0.645828,0.000000,-0.009232,-0.046997,0.000000,-0.083000,0.042000,0.001000,0.130000,-0.160000,2.630000,-0.295802,Reset,-0.051270,0.000000,ResetBack,-35981.000000,-0.300000,LowGoal,1170.000000,-1454.545455,Speed,1177.500000,-1454.545455,Speed,Off,Off0.000000,44,Read: /home/lvuser/scripts/auto_44.bee,File good!,WAIT 1500,WAIT
11:15:41.213 AM 03/20/2016,Autonomous Enabled,9,TRUE,7,Read from Text File in DoesScriptNumberContainNull.vi->Disabled.vi->Robot Main.vi<APPEND> /home/lvuser/scripts/auto_43.bee,0.000000,0.192500,0.000000,-0.224583,TRUE,FALSE,TRUE,FALSE,FALSE,FALSE,Disabled,0.000000,0.000000,0.000000,TRUE,-4.138748,-0.648071,0.000000,-0.004333,-0.035736,0.000000,-0.006000,-0.022000,0.028000,0.170000,-0.160000,2.690000,-0.245306,Hold,0.899170,0.000000,ResetBack,-27134.000000,-0.300000,LowGoal,1200.000000,-1454.545455,Speed,1245.000000,-1454.545455,Speed,Off,Off0.000000,44,Read: /home/lvuser/scripts/auto_44.bee,File good!,WAIT 1500,WAIT
11:15:41.315 AM 03/20/2016,Autonomous Enabled,10,TRUE,7,Read from Text File in DoesScriptNumberContainNull.vi->Disabled.vi->Robot Main.vi<APPEND> /home/lvuser/scripts/auto_43.bee,0.000000,0.198916,0.000000,-0.224583,TRUE,FALSE,TRUE,FALSE,FALSE,FALSE,Disabled,0.000000,0.000000,0.000000,TRUE,-4.140076,-0.649094,0.000000,-0.040512,-0.000504,0.000000,-0.012000,0.040000,0.007000,0.180000,-0.190000,2.840000,-0.247176,Hold,0.933350,0.000000,ResetBack,-17582.000000,-0.300000,LowGoal,1440.000000,-1454.545455,Speed,1410.000000,-1454.545455,Speed,Off,Off0.000000,44,Read: /home/lvuser/scripts/auto_44.bee,File good!,WAIT 1500,WAIT
11:15:41.415 AM 03/20/2016,Autonomous Enabled,10,TRUE,7,Read from Text File in DoesScriptNumberContainNull.vi->Disabled.vi->Robot Main.vi<APPEND> /home/lvuser/scripts/auto_43.bee,0.000000,0.198916,0.000000,-0.224583,TRUE,FALSE,TRUE,FALSE,FALSE,FALSE,Disabled,0.000000,0.000000,0.000000,TRUE,-4.140610,-0.649109,0.000000,-0.023544,-0.007950,0.000000,0.011000,0.121000,0.154000,0.180000,-0.180000,2.820000,-0.261727,Hold,0.933350,0.000000,ResetBack,-7114.000000,-0.300000,LowGoal,1410.000000,-1454.545455,Speed,1357.500000,-1454.545455,Speed,Off,Off0.000000,44,Read: /home/lvuser/scripts/auto_44.bee,File good!,WAIT 1500,WAIT
11:15:41.516 AM 03/20/2016,Autonomous Enabled,10,TRUE,7,Read from Text File in DoesScriptNumberContainNull.vi->Disabled.vi->Robot Main.vi<APPEND> /home/lvuser/scripts/auto_43.bee,0.000000,0.295166,0.000000,-0.224583,TRUE,FALSE,TRUE,FALSE,FALSE,FALSE,Disabled,0.000000,0.000000,0.000000,TRUE,-4.141495,-0.648346,0.000000,-0.017929,0.026733,0.000000,-0.037000,-0.004000,-0.037000,0.410000,-0.170000,2.860000,-0.076346,Hold,0.933350,0.000000,ResetBack,-699.000000,-0.300000,LowGoal,1327.500000,-1454.545455,Speed,1312.500000,-1454.545455,Speed,Off,Off0.000000,44,Read: /home/lvuser/scripts/auto_44.bee,File good!,WAIT 1500,WAIT
11:15:41.616 AM 03/20/2016,Autonomous Enabled,10,TRUE,7,Read from Text File in DoesScriptNumberContainNull.vi->Disabled.vi->Robot Main.vi<APPEND> /home/lvuser/scripts/auto_43.bee,0.000000,0.295166,0.000000,-0.224583,TRUE,FALSE,TRUE,FALSE,FALSE,FALSE,Disabled,0.000000,0.000000,0.000000,TRUE,-4.143066,-0.648132,0.000000,-0.025574,-0.009735,0.000000,-0.041000,-0.078000,-0.053000,0.400000,-0.200000,2.890000,-0.066462,Hold,0.933350,0.000000,ResetBack,-699.000000,-0.300000,LowGoal,1350.000000,-1454.545455,Speed,1335.000000,-1454.545455,Speed,Off,Off0.000000,44,Read: /home/lvuser/scripts/auto_44.bee,File good!,WAIT 1500,WAIT
11:15:41.717 AM 03/20/2016,Autonomous Enabled,9,TRUE,7,Read from Text File in DoesScriptNumberContainNull.vi->Disabled.vi->Robot Main.vi<APPEND> /home/lvuser/scripts/auto_43.bee,0.000000,0.295166,0.000000,-0.224583,TRUE,FALSE,TRUE,FALSE,FALSE,FALSE,Disabled,0.000000,0.000000,0.000000,TRUE,-4.144928,-0.648575,0.000000,-0.047729,-0.008652,0.000000,0.038000,0.044000,0.034000,0.400000,-0.180000,2.890000,-0.057969,Hold,0.933350,0.000000,ResetBack,185.000000,-0.300000,LowGoal,1380.000000,-1454.545455,Speed,1350.000000,-1454.545455,Speed,Off,Off0.000000,44,Read: /home/lvuser/scripts/auto_44.bee,File good!,WAIT 1500,WAIT
11:15:41.817 AM 03/20/2016,Autonomous Enabled,10,TRUE,7,Read from Text File in DoesScriptNumberContainNull.vi->Disabled.vi->Robot Main.vi<APPEND> /home/lvuser/scripts/auto_43.bee,0.000000,0.295166,0.000000,-0.224583,TRUE,FALSE,TRUE,FALSE,FALSE,FALSE,Disabled,0.000000,0.000000,0.000000,TRUE,-4.146957,-0.648682,0.000000,-0.029831,0.003281,0.000000,-0.070000,-0.040000,-0.029000,0.390000,-0.170000,2.920000,-0.048840,Hold,0.933350,0.000000,ResetBack,482.000000,-0.300000,LowGoal,1357.500000,-1454.545455,Speed,1335.000000,-1454.545455,Speed,Off,Off0.000000,44,Read: /home/lvuser/scripts/auto_44.bee,File good!,WAIT 1500,WAIT
11:15:41.917 AM 03/20/2016,Autonomous Enabled,9,TRUE,7,Read from Text File in DoesScriptNumberContainNull.vi->Disabled.vi->Robot Main.vi<APPEND> /home/lvuser/scripts/auto_43.bee,0.000000,0.295166,0.000000,-0.224583,TRUE,FALSE,TRUE,FALSE,FALSE,FALSE,Disabled,0.000000,0.000000,0.000000,TRUE,-4.147781,-0.649216,0.000000,0.003067,-0.013290,0.000000,0.036000,0.065000,0.063000,0.400000,-0.200000,2.810000,-0.048237,Hold,0.933350,0.000000,ResetBack,482.000000,-0.300000,LowGoal,1357.500000,-1454.545455,Speed,1335.000000,-1454.545455,Speed,Off,Off0.000000,44,Read: /home/lvuser/scripts/auto_44.bee,File good!,WAIT 1500,WAIT
11:15:42.017 AM 03/20/2016,Autonomous Enabled,10,TRUE,7,Read from Text File in DoesScriptNumberContainNull.vi->Disabled.vi->Robot Main.vi<APPEND> /home/lvuser/scripts/auto_43.bee,0.000000,0.295166,0.000000,-0.224583,TRUE,FALSE,TRUE,FALSE,FALSE,FALSE,Disabled,0.000000,0.000000,0.000000,TRUE,-4.147644,-0.649490,0.000000,-0.006989,-0.005707,0.000000,0.011000,0.029000,0.110000,0.390000,-0.170000,2.800000,-0.044801,Hold,0.933350,0.000000,Reset,482.000000,2.000000,LowGoal,1357.500000,-1454.545455,Speed,1342.500000,-1454.545455,Speed,Off,Off0.000000,44,Read: /home/lvuser/scripts/auto_44.bee,File good!,WAIT 1500,WAIT
11:15:42.117 AM 03/20/2016,Autonomous Enabled,10,TRUE,7,Read from Text File in DoesScriptNumberContainNull.vi->Disabled.vi->Robot Main.vi<APPEND> /home/lvuser/scripts/auto_43.bee,0.000000,0.295166,0.000000,-0.224583,TRUE,FALSE,TRUE,FALSE,FALSE,FALSE,Disabled,0.000000,0.000000,0.000000,TRUE,-4.147141,-0.649368,0.000000,0.020966,0.004211,0.000000,-0.036000,0.037000,-0.071000,0.390000,-0.190000,2.820000,-0.046864,Hold,0.933350,0.000000,Hold,-297.000000,2.000000,LowGoal,1372.500000,-1454.545455,Speed,1335.000000,-1454.545455,Speed,Off,Off0.000000,44,Read: /home/lvuser/scripts/auto_44.bee,File good!,WAIT 1500,WAIT
11:15:42.217 AM 03/20/2016,Autonomous Enabled,10,TRUE,7,Read from Text File in DoesScriptNumberContainNull.vi->Disabled.vi->Robot Main.vi<APPEND> /home/lvuser/scripts/auto_43.bee,0.000000,0.295166,0.000000,-0.224583,TRUE,FALSE,TRUE,FALSE,FALSE,FALSE,Disabled,0.000000,0.000000,0.000000,TRUE,-4.146255,-0.649139,0.000000,0.013168,0.004349,0.000000,-0.044000,-0.004000,0.073000,0.390000,-0.150000,2.860000,-0.064782,Hold,0.933350,0.000000,Hold,-297.000000,2.000000,LowGoal,1365.000000,-1454.545455,Speed,1342.500000,-1454.545455,Speed,Off,Off0.000000,44,Read: /home/lvuser/scripts/auto_44.bee,File good!,WAIT 1500,WAIT
11:15:42.317 AM 03/20/2016,Autonomous Enabled,11,TRUE,7,Read from Text File in DoesScriptNumberContainNull.vi->Disabled.vi->Robot Main.vi<APPEND> /home/lvuser/scripts/auto_43.bee,0.000000,0.295166,0.000000,-0.224583,TRUE,FALSE,TRUE,FALSE,FALSE,FALSE,Disabled,0.000000,0.000000,0.000000,TRUE,-4.145737,-0.648880,0.000000,0.020477,0.007156,0.000000,0.053000,-0.074000,-0.003000,0.390000,-0.190000,2.840000,-0.067725,Hold,0.933350,0.000000,Hold,-234.000000,2.000000,LowGoal,1372.500000,-1454.545455,Speed,1342.500000,-1454.545455,Speed,Off,Off0.000000,44,Read: /home/lvuser/scripts/auto_44.bee,File good!,DRIVE_STRAIGHT_NAVX 200 5000,DRIVE_STRAIGHT_NAVX
11:15:42.417 AM 03/20/2016,Autonomous Enabled,9,TRUE,7,Read from Text File in DoesScriptNumberContainNull.vi->Disabled.vi->Robot Main.vi<APPEND> /home/lvuser/scripts/auto_43.bee,0.000000,-0.603165,0.000000,-0.275916,TRUE,FALSE,TRUE,FALSE,FALSE,FALSE,Disabled,0.000000,0.000000,0.000000,TRUE,-4.144394,-0.649063,0.000000,0.053604,0.005341,0.000000,0.464000,-0.296000,-0.503000,-0.040000,1.030000,2.600000,-0.000265,Hold,0.933350,0.000000,Hold,-203.000000,2.000000,LowGoal,1372.500000,2909.090909,Speed,1342.500000,2909.090909,Speed,Off,Off0.000000,44,Read: /home/lvuser/scripts/auto_44.bee,File good!,DRIVE_STRAIGHT_NAVX 200 5000,DRIVE_STRAIGHT_NAVX
11:15:42.517 AM 03/20/2016,Autonomous Enabled,10,TRUE,7,Read from Text File in DoesScriptNumberContainNull.vi->Disabled.vi->Robot Main.vi<APPEND> /home/lvuser/scripts/auto_43.bee,0.000000,-1.976329,0.000000,-1.501496,TRUE,FALSE,TRUE,FALSE,FALSE,FALSE,Disabled,0.000000,0.000000,0.000000,TRUE,-4.131134,-0.649857,0.000000,0.340652,0.027542,0.000000,0.149000,-0.160000,-0.244000,-0.520000,2.870000,2.600000,-0.404308,Hold,0.933350,0.000000,Hold,-302.000000,2.000000,LowGoal,1252.500000,2909.090909,Speed,1147.500000,2909.090909,Speed,Off,Off0.000000,44,Read: /home/lvuser/scripts/auto_44.bee,File good!,DRIVE_STRAIGHT_NAVX 200 5000,DRIVE_STRAIGHT_NAVX
11:15:42.617 AM 03/20/2016,Autonomous Enabled,11,TRUE,7,Read from Text File in DoesScriptNumberContainNull.vi->Disabled.vi->Robot Main.vi<APPEND> /home/lvuser/scripts/auto_43.bee,0.000000,-3.862824,0.000000,-3.355909,TRUE,FALSE,TRUE,FALSE,FALSE,FALSE,Disabled,0.000000,0.000000,0.000000,TRUE,-4.110016,-0.648590,0.000000,0.500778,0.034576,0.000000,0.325000,-0.006000,-0.041000,-0.650000,2.110000,2.620000,-0.561626,Hold,0.933350,0.000000,Hold,-372.000000,2.000000,LowGoal,202.500000,2909.090909,Speed,30.000000,2909.090909,Speed,Off,Off0.000000,44,Read: /home/lvuser/scripts/auto_44.bee,File good!,DRIVE_STRAIGHT_NAVX 200 5000,DRIVE_STRAIGHT_NAVX
11:15:42.719 AM 03/20/2016,Autonomous Enabled,9,TRUE,7,Read from Text File in DoesScriptNumberContainNull.vi->Disabled.vi->Robot Main.vi<APPEND> /home/lvuser/scripts/auto_43.bee,0.000000,-6.763151,0.000000,-6.403818,FALSE,FALSE,TRUE,FALSE,FALSE,FALSE,Disabled,0.000000,0.000000,0.000000,TRUE,-4.078033,-0.646271,0.000000,0.704071,0.065323,0.000000,0.203000,0.063000,0.079000,-0.450000,3.620000,2.590000,-0.376637,Hold,0.933350,0.000000,Hold,-356.000000,2.000000,LowGoal,-757.500000,2909.090909,Speed,-802.500000,2909.090909,Speed,Off,Off0.000000,44,Read: /home/lvuser/scripts/auto_44.bee,File good!,DRIVE_STRAIGHT_NAVX 200 5000,DRIVE_STRAIGHT_NAVX
11:15:42.819 AM 03/20/2016,Autonomous Enabled,9,TRUE,7,Read from Text File in DoesScriptNumberContainNull.vi->Disabled.vi->Robot Main.vi<APPEND> /home/lvuser/scripts/auto_43.bee,0.000000,-10.163976,0.000000,-9.913727,FALSE,FALSE,TRUE,FALSE,FALSE,FALSE,Disabled,0.000000,0.000000,0.000000,TRUE,-4.030823,-0.642014,0.000000,0.804306,0.066681,0.000000,0.076000,-0.135000,-0.071000,-0.380000,3.890000,2.640000,-0.262560,Hold,0.933350,0.000000,Hold,-328.000000,2.000000,LowGoal,-1410.000000,2909.090909,Speed,-1297.500000,2909.090909,Speed,Off,Off0.000000,44,Read: /home/lvuser/scripts/auto_44.bee,File good!,DRIVE_STRAIGHT_NAVX 200 5000,DRIVE_STRAIGHT_NAVX
11:15:42.919 AM 03/20/2016,Autonomous Enabled,10,TRUE,7,Read from Text File in DoesScriptNumberContainNull.vi->Disabled.vi->Robot Main.vi<APPEND> /home/lvuser/scripts/auto_43.bee,0.000000,-14.103800,0.000000,-13.885634,FALSE,FALSE,TRUE,FALSE,FALSE,FALSE,Disabled,0.000000,0.000000,0.000000,TRUE,-3.996368,-0.639252,0.000000,0.889694,0.070328,0.000000,0.145000,0.007000,-0.022000,-0.330000,3.560000,2.700000,-0.200677,Hold,0.933350,0.000000,Hold,-328.000000,2.000000,LowGoal,-1912.500000,2909.090909,Speed,-1800.000000,2909.090909,Speed,Off,Off0.000000,44,Read: /home/lvuser/scripts/auto_44.bee,File good!,DRIVE_STRAIGHT_NAVX 200 5000,DRIVE_STRAIGHT_NAVX
11:15:43.019 AM 03/20/2016,Autonomous Enabled,10,TRUE,7,Read from Text File in DoesScriptNumberContainNull.vi->Disabled.vi->Robot Main.vi<APPEND> /home/lvuser/scripts/auto_43.bee,0.000000,-18.826456,0.000000,-18.666040,FALSE,FALSE,TRUE,FALSE,FALSE,FALSE,Disabled,0.000000,0.000000,0.000000,TRUE,-3.938980,-0.637848,0.000000,0.982803,0.015686,0.000000,0.048000,-0.056000,0.075000,-0.310000,4.200000,2.750000,-0.148274,Hold,0.933350,0.000000,Hold,-323.000000,2.000000,LowGoal,-2310.000000,2909.090909,Speed,-2205.000000,2909.090909,Speed,Off,Off0.000000,44,Read: /home/lvuser/scripts/auto_44.bee,File good!,DRIVE_STRAIGHT_NAVX 200 5000,DRIVE_STRAIGHT_NAVX
11:15:43.119 AM 03/20/2016,Autonomous Enabled,9,TRUE,7,Read from Text File in DoesScriptNumberContainNull.vi->Disabled.vi->Robot Main.vi<APPEND> /home/lvuser/scripts/auto_43.bee,0.000000,-23.760861,0.000000,-23.645361,FALSE,FALSE,TRUE,FALSE,FALSE,FALSE,Disabled,0.000000,0.000000,0.000000,TRUE,-3.889816,-0.638641,0.000000,0.968903,0.025345,0.000000,0.148000,-0.346000,-0.011000,-0.330000,4.100000,2.850000,-0.191052,Hold,0.933350,0.000000,Hold,-279.000000,2.000000,LowGoal,-2580.000000,2909.090909,Speed,-2535.000000,2909.090909,Speed,Off,Off0.000000,44,Read: /home/lvuser/scripts/auto_44.bee,File good!,DRIVE_STRAIGHT_NAVX 200 5000,DRIVE_STRAIGHT_NAVX
11:15:43.219 AM 03/20/2016,Autonomous Enabled,10,TRUE,7,Read from Text File in DoesScriptNumberContainNull.vi->Disabled.vi->Robot Main.vi<APPEND> /home/lvuser/scripts/auto_43.bee,0.000000,-29.189348,0.000000,-29.272765,FALSE,FALSE,TRUE,FALSE,FALSE,FALSE,Disabled,0.000000,0.000000,0.000000,TRUE,-3.838776,-0.640137,0.000000,1.052704,-0.043869,0.000000,0.066000,0.450000,0.065000,-0.160000,4.400000,2.680000,-0.030467,Hold,0.933350,0.000000,Hold,-256.000000,2.000000,LowGoal,-2827.500000,2909.090909,Speed,-2797.500000,2909.090909,Speed,Off,Off0.000000,44,Read: /home/lvuser/scripts/auto_44.bee,File good!,DRIVE_STRAIGHT_NAVX 200 5000,DRIVE_STRAIGHT_NAVX
11:15:43.320 AM 03/20/2016,Autonomous Enabled,10,TRUE,7,Read from Text File in DoesScriptNumberContainNull.vi->Disabled.vi->Robot Main.vi<APPEND> /home/lvuser/scripts/auto_43.bee,0.000000,-35.144001,0.000000,-35.330084,FALSE,FALSE,TRUE,FALSE,FALSE,FALSE,Disabled,0.000000,0.000000,0.000000,TRUE,-3.785309,-0.640884,0.000000,1.064880,0.001740,0.000000,0.096000,-0.469000,-0.104000,0.040000,4.610000,2.700000,0.126466,Hold,0.933350,0.000000,Hold,-234.000000,2.000000,LowGoal,-2872.500000,2909.090909,Speed,-2857.500000,2909.090909,Speed,Off,Off0.000000,44,Read: /home/lvuser/scripts/auto_44.bee,File good!,DRIVE_STRAIGHT_NAVX 200 5000,DRIVE_STRAIGHT_NAVX
11:15:43.420 AM 03/20/2016,Autonomous Enabled,11,TRUE,7,Read from Text File in DoesScriptNumberContainNull.vi->Disabled.vi->Robot Main.vi<APPEND> /home/lvuser/scripts/auto_43.bee,0.000000,-41.413070,0.000000,-41.554236,FALSE,FALSE,TRUE,FALSE,FALSE,FALSE,Disabled,0.000000,0.000000,0.000000,TRUE,-3.731506,-0.643951,0.000000,1.059113,-0.094162,0.000000,0.047000,-0.290000,0.029000,-0.170000,4.940000,2.590000,0.069533,Hold,0.933350,0.000000,Hold,-229.000000,2.000000,LowGoal,-2812.500000,2909.090909,Speed,-2797.500000,2909.090909,Speed,Off,Off0.000000,44,Read: /home/lvuser/scripts/auto_44.bee,File good!,DRIVE_STRAIGHT_NAVX 200 5000,DRIVE_STRAIGHT_NAVX
11:15:43.520 AM 03/20/2016,Autonomous Enabled,10,TRUE,7,Read from Text File in DoesScriptNumberContainNull.vi->Disabled.vi->Robot Main.vi<APPEND> /home/lvuser/scripts/auto_43.bee,0.000000,-48.253220,0.000000,-48.221137,FALSE,FALSE,TRUE,FALSE,FALSE,FALSE,Disabled,0.000000,0.000000,0.000000,TRUE,-3.701172,-0.648529,0.000000,-0.019455,-0.038269,0.000000,-0.067000,0.262000,0.374000,-0.620000,9.520000,2.490000,-0.535411,Hold,0.934814,0.000000,Hold,-214.000000,2.000000,LowGoal,-2805.000000,2909.090909,Speed,-2767.500000,2909.090909,Speed,Off,Off0.000000,44,Read: /home/lvuser/scripts/auto_44.bee,File good!,DRIVE_STRAIGHT_NAVX 200 5000,DRIVE_STRAIGHT_NAVX
11:15:43.620 AM 03/20/2016,Autonomous Enabled,11,TRUE,7,Read from Text File in DoesScriptNumberContainNull.vi->Disabled.vi->Robot Main.vi<APPEND> /home/lvuser/scripts/auto_43.bee,0.000000,-55.260204,0.000000,-55.099788,FALSE,FALSE,TRUE,FALSE,FALSE,FALSE,Disabled,0.000000,0.000000,0.000000,TRUE,-3.704559,-0.648285,0.000000,-0.100311,-0.019775,0.000000,-0.147000,-0.277000,-0.146000,-1.120000,13.310000,2.430000,-1.015878,Hold,0.933838,0.000000,Hold,-214.000000,2.000000,LowGoal,-2805.000000,2909.090909,Speed,-2790.000000,2909.090909,Speed,Off,Off0.000000,44,Read: /home/lvuser/scripts/auto_44.bee,File good!,DRIVE_STRAIGHT_NAVX 200 5000,DRIVE_STRAIGHT_NAVX
11:15:43.720 AM 03/20/2016,Autonomous Enabled,10,TRUE,7,Read from Text File in DoesScriptNumberContainNull.vi->Disabled.vi->Robot Main.vi<APPEND> /home/lvuser/scripts/auto_43.bee,0.000000,-60.874774,0.000000,-60.926108,FALSE,FALSE,TRUE,FALSE,FALSE,FALSE,Disabled,0.000000,0.000000,0.000000,TRUE,-3.715149,-0.649841,0.000000,-0.347488,-0.006027,0.000000,-0.468000,0.349000,0.962000,-0.520000,12.520000,2.520000,-0.689124,Hold,0.934814,0.000000,Hold,-214.000000,2.000000,LowGoal,-2797.500000,2909.090909,Speed,-2790.000000,2909.090909,Speed,Off,Off0.000000,44,Read: /home/lvuser/scripts/auto_44.bee,File good!,DRIVE_STRAIGHT_NAVX 200 5000,DRIVE_STRAIGHT_NAVX
11:15:43.820 AM 03/20/2016,Autonomous Enabled,9,TRUE,7,Read from Text File in DoesScriptNumberContainNull.vi->Disabled.vi->Robot Main.vi<APPEND> /home/lvuser/scripts/auto_43.bee,0.000000,-67.483926,0.000000,-67.766258,FALSE,FALSE,TRUE,FALSE,FALSE,FALSE,Disabled,0.000000,0.000000,0.000000,TRUE,-3.741104,-0.643234,0.000000,-0.556168,0.099716,0.000000,-1.293000,-0.569000,0.629000,-0.520000,12.520000,2.520000,-0.435580,Hold,1.007568,0.000000,Hold,-213.000000,2.000000,LowGoal,-2797.500000,2909.090909,Speed,-2782.500000,2909.090909,Speed,Off,Off0.000000,44,Read: /home/lvuser/scripts/auto_44.bee,File good!,DRIVE_STRAIGHT_NAVX 200 5000,DRIVE_STRAIGHT_NAVX
11:15:43.920 AM 03/20/2016,Autonomous Enabled,10,TRUE,7,Read from Text File in DoesScriptNumberContainNull.vi->Disabled.vi->Robot Main.vi<APPEND> /home/lvuser/scripts/auto_43.bee,0.000000,-72.469664,0.000000,-71.853665,FALSE,FALSE,TRUE,FALSE,FALSE,FALSE,Disabled,0.000000,0.000000,0.000000,TRUE,-3.786804,-0.640091,0.000000,-1.040817,0.144073,0.000000,-1.293000,-0.569000,0.629000,0.380000,10.910000,2.110000,0.031482,Hold,0.970459,0.000000,Hold,-202.000000,2.000000,LowGoal,-2790.000000,2909.090909,Speed,-2775.000000,2909.090909,Speed,Off,Off0.000000,44,Read: /home/lvuser/scripts/auto_44.bee,File good!,DRIVE_STRAIGHT_NAVX 200 5000,DRIVE_STRAIGHT_NAVX
11:15:44.020 AM 03/20/2016,Autonomous Enabled,9,TRUE,7,Read from Text File in DoesScriptNumberContainNull.vi->Disabled.vi->Robot Main.vi<APPEND> /home/lvuser/scripts/auto_43.bee,0.000000,-76.229822,0.000000,-76.030906,FALSE,FALSE,TRUE,FALSE,FALSE,FALSE,Disabled,0.000000,0.000000,0.000000,TRUE,-3.842789,-0.638062,0.000000,-0.805817,0.112930,0.000000,-0.005000,0.032000,-0.841000,0.650000,5.560000,-0.140000,0.149731,Hold,1.270996,0.000000,Hold,-400.000000,2.000000,LowGoal,-2790.000000,2909.090909,Speed,-2745.000000,2909.090909,Speed,Off,Off0.000000,44,Read: /home/lvuser/scripts/auto_44.bee,File good!,DRIVE_STRAIGHT_NAVX 200 5000,DRIVE_STRAIGHT_NAVX
11:15:44.120 AM 03/20/2016,Autonomous Enabled,9,TRUE,7,Read from Text File in DoesScriptNumberContainNull.vi->Disabled.vi->Robot Main.vi<APPEND> /home/lvuser/scripts/auto_43.bee,0.000000,-82.575890,0.000000,-80.817728,FALSE,FALSE,TRUE,FALSE,FALSE,FALSE,Disabled,0.000000,0.000000,0.000000,TRUE,-3.870621,-0.630997,0.000000,-0.642944,0.216309,0.000000,0.307000,0.550000,0.022000,0.650000,5.560000,-0.140000,-0.179251,Hold,1.113525,0.000000,Hold,-248.000000,2.000000,LowGoal,-2760.000000,2909.090909,Speed,-2730.000000,2909.090909,Speed,Off,Off0.000000,44,Read: /home/lvuser/scripts/auto_44.bee,File good!,DRIVE_STRAIGHT_NAVX 200 5000,DRIVE_STRAIGHT_NAVX
11:15:44.220 AM 03/20/2016,Autonomous Enabled,9,TRUE,7,Read from Text File in DoesScriptNumberContainNull.vi->Disabled.vi->Robot Main.vi<APPEND> /home/lvuser/scripts/auto_43.bee,0.000000,-87.260046,0.000000,-87.317796,FALSE,FALSE,TRUE,FALSE,FALSE,FALSE,Disabled,0.000000,0.000000,0.000000,TRUE,-3.917694,-0.624252,0.000000,-1.020309,0.157425,0.000000,-1.520000,-0.308000,-0.588000,-0.050000,3.300000,1.860000,-1.475770,Hold,1.048828,0.000000,Hold,-207.000000,2.000000,LowGoal,-2782.500000,2909.090909,Speed,-2752.500000,2909.090909,Speed,Off,Off0.000000,44,Read: /home/lvuser/scripts/auto_44.bee,File good!,DRIVE_STRAIGHT_NAVX 200 5000,DRIVE_STRAIGHT_NAVX
11:15:44.320 AM 03/20/2016,Autonomous Enabled,10,TRUE,7,Read from Text File in DoesScriptNumberContainNull.vi->Disabled.vi->Robot Main.vi<APPEND> /home/lvuser/scripts/auto_43.bee,0.000000,-93.849947,0.000000,-94.504446,FALSE,FALSE,TRUE,FALSE,FALSE,FALSE,Disabled,0.000000,0.000000,0.000000,TRUE,-3.990753,-0.602127,0.000000,-1.610535,0.298645,0.000000,-0.037000,0.123000,-0.513000,-0.860000,5.780000,-1.690000,-3.301024,Hold,1.186523,0.000000,Hold,-207.000000,2.000000,LowGoal,-2790.000000,2909.090909,Speed,-2767.500000,2909.090909,Speed,Off,Off0.000000,44,Read: /home/lvuser/scripts/auto_44.bee,File good!,DRIVE_STRAIGHT_NAVX 200 5000,DRIVE_STRAIGHT_NAVX
11:15:44.423 AM 03/20/2016,Autonomous Enabled,9,TRUE,7,Read from Text File in DoesScriptNumberContainNull.vi->Disabled.vi->Robot Main.vi<APPEND> /home/lvuser/scripts/auto_43.bee,0.000000,-97.218689,0.000000,-97.648605,FALSE,FALSE,TRUE,FALSE,FALSE,FALSE,Disabled,0.000000,0.000000,0.000000,TRUE,-4.062561,-0.580597,0.000000,-1.285370,0.518768,0.000000,0.124000,-0.430000,-0.107000,-3.590000,5.260000,1.650000,-7.528985,Hold,1.190430,0.000000,Hold,-206.000000,2.000000,LowGoal,-2812.500000,2909.090909,Speed,-2782.500000,2909.090909,Speed,Off,Off0.000000,44,Read: /home/lvuser/scripts/auto_44.bee,File good!,DRIVE_STRAIGHT_NAVX 200 5000,DRIVE_STRAIGHT_NAVX
11:15:44.523 AM 03/20/2016,Autonomous Enabled,11,TRUE,7,Read from Text File in DoesScriptNumberContainNull.vi->Disabled.vi->Robot Main.vi<APPEND> /home/lvuser/scripts/auto_43.bee,0.000000,-99.862350,0.000000,-101.793762,TRUE,FALSE,TRUE,FALSE,FALSE,FALSE,Disabled,0.000000,0.000000,0.000000,TRUE,-4.120209,-0.557785,0.000000,-1.000137,0.569504,0.000000,-0.035000,-0.495000,0.417000,-7.080000,-0.390000,1.080000,-5.277359,Hold,1.171631,0.000000,Hold,-206.000000,2.000000,LowGoal,-2760.000000,2909.090909,Speed,-2730.000000,2909.090909,Speed,Off,Off0.000000,44,Read: /home/lvuser/scripts/auto_44.bee,File good!,DRIVE_STRAIGHT_NAVX 200 5000,DRIVE_STRAIGHT_NAVX
11:15:44.624 AM 03/20/2016,Autonomous Enabled,9,TRUE,7,Read from Text File in DoesScriptNumberContainNull.vi->Disabled.vi->Robot Main.vi<APPEND> /home/lvuser/scripts/auto_43.bee,0.000000,-104.078090,0.000000,-107.312082,FALSE,FALSE,TRUE,FALSE,FALSE,FALSE,Disabled,0.000000,0.000000,0.000000,TRUE,-4.159882,-0.529648,0.000000,-0.826263,0.383896,0.000000,0.629000,0.892000,0.247000,-4.770000,-9.000000,2.770000,-2.539582,Hold,1.152100,0.000000,Hold,-206.000000,2.000000,LowGoal,-2722.500000,2909.090909,Speed,-2700.000000,2909.090909,Speed,Off,Off0.000000,44,Read: /home/lvuser/scripts/auto_44.bee,File good!,DRIVE_STRAIGHT_NAVX 200 5000,DRIVE_STRAIGHT_NAVX
11:15:44.724 AM 03/20/2016,Autonomous Enabled,9,TRUE,7,Read from Text File in DoesScriptNumberContainNull.vi->Disabled.vi->Robot Main.vi<APPEND> /home/lvuser/scripts/auto_43.bee,0.000000,-110.199576,0.000000,-113.626068,FALSE,FALSE,TRUE,FALSE,FALSE,FALSE,Disabled,0.000000,0.000000,0.000000,TRUE,-4.159882,-0.529648,0.000000,-0.826263,0.383896,0.000000,0.141000,-0.047000,-0.649000,-2.080000,-10.000000,3.110000,-2.338936,Hold,1.143799,0.000000,Hold,-206.000000,2.000000,LowGoal,-2752.500000,2909.090909,Speed,-2745.000000,2909.090909,Speed,Off,Off0.000000,44,Read: /home/lvuser/scripts/auto_44.bee,File good!,DRIVE_STRAIGHT_NAVX 200 5000,DRIVE_STRAIGHT_NAVX
11:15:44.825 AM 03/20/2016,Autonomous Enabled,10,TRUE,7,Read from Text File in DoesScriptNumberContainNull.vi->Disabled.vi->Robot Main.vi<APPEND> /home/lvuser/scripts/auto_43.bee,0.000000,-117.116726,0.000000,-120.934634,FALSE,FALSE,TRUE,FALSE,FALSE,FALSE,Disabled,0.000000,0.000000,0.000000,TRUE,-4.200989,-0.509842,0.000000,-0.555756,0.297119,0.000000,0.353000,0.291000,0.104000,-1.800000,-7.630000,3.230000,-1.947834,Hold,1.131348,0.000000,Hold,-192.000000,2.000000,LowGoal,-2797.500000,2909.090909,Speed,-2790.000000,2909.090909,Speed,Off,Off0.000000,44,Read: /home/lvuser/scripts/auto_44.bee,File good!,DRIVE_STRAIGHT_NAVX 200 5000,DRIVE_STRAIGHT_NAVX
11:15:44.927 AM 03/20/2016,Autonomous Enabled,11,TRUE,7,Read from Text File in DoesScriptNumberContainNull.vi->Disabled.vi->Robot Main.vi<APPEND> /home/lvuser/scripts/auto_43.bee,0.000000,-124.367543,0.000000,-128.666699,FALSE,FALSE,TRUE,FALSE,FALSE,FALSE,Disabled,0.000000,0.000000,0.000000,TRUE,-4.226608,-0.497437,0.000000,-0.819260,0.297897,0.000000,-0.251000,-0.089000,-0.470000,-1.290000,-3.470000,3.020000,-1.222759,Hold,1.373291,0.000000,Hold,-192.000000,2.000000,LowGoal,-2805.000000,2909.090909,Speed,-2782.500000,2909.090909,Speed,Off,Off0.000000,44,Read: /home/lvuser/scripts/auto_44.bee,File good!,DRIVE_STRAIGHT_NAVX 200 5000,DRIVE_STRAIGHT_NAVX
11:15:45.029 AM 03/20/2016,Autonomous Enabled,11,TRUE,7,Read from Text File in DoesScriptNumberContainNull.vi->Disabled.vi->Robot Main.vi<APPEND> /home/lvuser/scripts/auto_43.bee,0.000000,-132.016191,0.000000,-136.315348,FALSE,FALSE,TRUE,FALSE,FALSE,FALSE,Disabled,0.000000,0.000000,0.000000,TRUE,-4.264709,-0.483917,0.000000,-0.678604,0.245499,0.000000,0.025000,-0.110000,-1.024000,-0.530000,1.610000,3.050000,-1.261367,Hold,1.579834,0.000000,Hold,-192.000000,2.000000,LowGoal,-2797.500000,2909.090909,Speed,-2782.500000,2909.090909,Speed,Off,Off0.000000,44,Read: /home/lvuser/scripts/auto_44.bee,File good!,DRIVE_STRAIGHT_NAVX 200 5000,DRIVE_STRAIGHT_NAVX
11:15:45.130 AM 03/20/2016,Autonomous Enabled,11,TRUE,7,Read from Text File in DoesScriptNumberContainNull.vi->Disabled.vi->Robot Main.vi<APPEND> /home/lvuser/scripts/auto_43.bee,0.000000,-139.151508,0.000000,-143.386498,FALSE,FALSE,TRUE,FALSE,FALSE,FALSE,Disabled,0.000000,0.000000,0.000000,TRUE,-4.304398,-0.471466,0.000000,-0.930389,0.205978,0.000000,0.184000,0.075000,-0.731000,-0.660000,5.690000,2.670000,-1.491323,Hold,1.221191,0.000000,Hold,-192.000000,2.000000,LowGoal,-2805.000000,2909.090909,Speed,-2782.500000,2909.090909,Speed,Off,Off0.000000,44,Read: /home/lvuser/scripts/auto_44.bee,File good!,DRIVE_STRAIGHT_NAVX 200 5000,DRIVE_STRAIGHT_NAVX
11:15:45.230 AM 03/20/2016,Autonomous Enabled,10,TRUE,7,Read from Text File in DoesScriptNumberContainNull.vi->Disabled.vi->Robot Main.vi<APPEND> /home/lvuser/scripts/auto_43.bee,0.000000,-146.581991,0.000000,-150.893980,FALSE,FALSE,TRUE,FALSE,FALSE,FALSE,Disabled,0.000000,0.000000,0.000000,TRUE,-4.360672,-0.459061,0.000000,-0.967484,0.181763,0.000000,0.000000,0.159000,0.190000,-0.790000,4.710000,3.280000,-1.376300,Hold,1.221191,0.000000,Hold,-192.000000,2.000000,LowGoal,-2805.000000,2909.090909,Speed,-2782.500000,2909.090909,Speed,Off,Off0.000000,44,Read: /home/lvuser/scripts/auto_44.bee,File good!,DRIVE_STRAIGHT_NAVX 200 5000,DRIVE_STRAIGHT_NAVX
11:15:45.331 AM 03/20/2016,Autonomous Enabled,11,TRUE,7,Read from Text File in DoesScriptNumberContainNull.vi->Disabled.vi->Robot Main.vi<APPEND> /home/lvuser/scripts/auto_43.bee,0.000000,-153.961140,0.000000,-158.401463,FALSE,FALSE,TRUE,FALSE,FALSE,FALSE,Disabled,0.000000,0.000000,0.000000,TRUE,-4.405273,-0.450043,0.000000,-0.844421,0.188995,0.000000,-0.108000,-0.017000,-0.329000,-0.640000,3.950000,2.820000,-1.281492,Hold,1.156494,0.000000,Hold,-192.000000,2.000000,LowGoal,-2805.000000,2909.090909,Speed,-2782.500000,2909.090909,Speed,Off,Off0.000000,44,Read: /home/lvuser/scripts/auto_44.bee,File good!,DRIVE_STRAIGHT_NAVX 200 5000,DRIVE_STRAIGHT_NAVX
11:15:45.433 AM 03/20/2016,Autonomous Enabled,10,TRUE,7,Read from Text File in DoesScriptNumberContainNull.vi->Disabled.vi->Robot Main.vi<APPEND> /home/lvuser/scripts/auto_43.bee,0.000000,-161.353123,0.000000,-165.851196,FALSE,FALSE,TRUE,FALSE,FALSE,FALSE,Disabled,0.000000,0.000000,0.000000,TRUE,-4.450607,-0.442078,0.000000,-0.954498,0.121216,0.000000,0.090000,0.040000,0.057000,-0.510000,4.400000,2.930000,-1.254675,Hold,1.141846,0.000000,Hold,-192.000000,2.000000,LowGoal,-2805.000000,2909.090909,Speed,-2782.500000,2909.090909,Speed,Off,Off0.000000,44,Read: /home/lvuser/scripts/auto_44.bee,File good!,DRIVE_STRAIGHT_NAVX 200 5000,DRIVE_STRAIGHT_NAVX
11:15:45.536 AM 03/20/2016,Autonomous Enabled,10,TRUE,7,Read from Text File in DoesScriptNumberContainNull.vi->Disabled.vi->Robot Main.vi<APPEND> /home/lvuser/scripts/auto_43.bee,0.000000,-169.085188,0.000000,-173.628177,FALSE,FALSE,TRUE,FALSE,FALSE,FALSE,Disabled,0.000000,0.000000,0.000000,TRUE,-4.498383,-0.435822,0.000000,-0.968521,0.139832,0.000000,0.146000,-0.281000,-0.049000,-0.500000,3.350000,3.090000,-1.322975,Hold,1.115723,0.000000,Hold,-192.000000,2.000000,LowGoal,-2805.000000,2909.090909,Speed,-2790.000000,2909.090909,Speed,Off,Off0.000000,44,Read: /home/lvuser/scripts/auto_44.bee,File good!,DRIVE_STRAIGHT_NAVX 200 5000,DRIVE_STRAIGHT_NAVX
11:15:45.636 AM 03/20/2016,Autonomous Enabled,11,TRUE,7,Read from Text File in DoesScriptNumberContainNull.vi->Disabled.vi->Robot Main.vi<APPEND> /home/lvuser/scripts/auto_43.bee,0.000000,-176.567004,0.000000,-181.065077,FALSE,FALSE,TRUE,FALSE,FALSE,FALSE,Disabled,0.000000,0.000000,0.000000,TRUE,-4.545959,-0.430695,0.000000,-0.962204,0.087692,0.000000,-0.437000,0.383000,0.576000,-0.570000,3.970000,3.080000,-1.405514,Hold,0.996338,0.000000,Hold,-192.000000,2.000000,LowGoal,-2812.500000,2909.090909,Speed,-2790.000000,2909.090909,Speed,Off,Off0.000000,44,Read: /home/lvuser/scripts/auto_44.bee,File good!,DRIVE_STRAIGHT_NAVX 200 5000,DRIVE_STRAIGHT_NAVX
11:15:45.737 AM 03/20/2016,Autonomous Enabled,11,TRUE,7,Read from Text File in DoesScriptNumberContainNull.vi->Disabled.vi->Robot Main.vi<APPEND> /home/lvuser/scripts/auto_43.bee,0.000000,-184.549318,0.000000,-189.073058,FALSE,FALSE,TRUE,FALSE,FALSE,FALSE,Disabled,0.000000,0.000000,0.000000,TRUE,-4.598526,-0.424408,0.000000,-1.074188,0.135834,0.000000,-0.036000,-0.442000,-0.158000,-0.630000,2.750000,3.190000,-1.574953,Hold,0.946045,0.000000,Hold,-192.000000,2.000000,LowGoal,-2812.500000,2909.090909,Speed,-2790.000000,2909.090909,Speed,Off,Off0.000000,44,Read: /home/lvuser/scripts/auto_44.bee,File good!,DRIVE_STRAIGHT_NAVX 200 5000,DRIVE_STRAIGHT_NAVX
11:15:45.836 AM 03/20/2016,Autonomous Enabled,10,TRUE,7,Read from Text File in DoesScriptNumberContainNull.vi->Disabled.vi->Robot Main.vi<APPEND> /home/lvuser/scripts/auto_43.bee,0.000000,-184.549318,0.000000,-189.073058,FALSE,FALSE,TRUE,FALSE,FALSE,FALSE,Disabled,0.000000,0.000000,0.000000,TRUE,-4.651779,-0.420105,0.000000,-1.073898,0.043518,0.000000,0.018000,0.036000,0.088000,-0.770000,3.320000,3.210000,-1.574953,Hold,0.946533,0.000000,Hold,-192.000000,2.000000,LowGoal,-2812.500000,2909.090909,Speed,-2790.000000,2909.090909,Speed,Off,Off0.000000,44,Read: /home/lvuser/scripts/auto_44.bee,File good!,DRIVE_STRAIGHT_NAVX 200 5000,DRIVE_STRAIGHT_NAVX
11:15:45.936 AM 03/20/2016,Autonomous Enabled,10,TRUE,7,Read from Text File in DoesScriptNumberContainNull.vi->Disabled.vi->Robot Main.vi<APPEND> /home/lvuser/scripts/auto_43.bee,0.000000,-192.037551,0.000000,-196.631874,FALSE,FALSE,TRUE,FALSE,FALSE,FALSE,Disabled,0.000000,0.000000,0.000000,TRUE,-4.706985,-0.417725,0.000000,-1.139709,0.069565,0.000000,0.130000,0.130000,0.226000,-0.750000,2.790000,3.170000,-1.617572,Hold,0.946533,0.000000,Hold,-192.000000,2.000000,LowGoal,-2820.000000,2909.090909,Speed,-2790.000000,2909.090909,Speed,Off,Off0.000000,44,Read: /home/lvuser/scripts/auto_44.bee,File good!,DRIVE_STRAIGHT_NAVX 200 5000,DRIVE_STRAIGHT_NAVX
11:15:46.037 AM 03/20/2016,Autonomous Enabled,11,TRUE,7,Read from Text File in DoesScriptNumberContainNull.vi->Disabled.vi->Robot Main.vi<APPEND> /home/lvuser/scripts/auto_43.bee,0.000000,-199.718283,0.000000,-204.408855,FALSE,FALSE,TRUE,FALSE,FALSE,FALSE,Disabled,0.000000,0.000000,0.000000,TRUE,-4.764618,-0.412598,0.000000,-1.165649,0.119141,0.000000,0.066000,-0.237000,-0.182000,-0.650000,2.620000,3.100000,-1.531270,Hold,0.946533,0.000000,Hold,-192.000000,2.000000,LowGoal,-2827.500000,2909.090909,Speed,-2790.000000,2909.090909,Speed,Off,Off0.000000,44,Read: /home/lvuser/scripts/auto_44.bee,File good!,DRIVE_STRAIGHT_NAVX 200 5000,DRIVE_STRAIGHT_NAVX
11:15:46.136 AM 03/20/2016,Autonomous Enabled,9,TRUE,7,Read from Text File in DoesScriptNumberContainNull.vi->Disabled.vi->Robot Main.vi<APPEND> /home/lvuser/scripts/auto_43.bee,0.000000,-207.488848,0.000000,-212.237170,FALSE,FALSE,TRUE,FALSE,FALSE,FALSE,Disabled,0.000000,0.000000,0.000000,TRUE,-4.823364,-0.409332,0.000000,-1.188263,0.032120,0.000000,-0.153000,0.191000,0.031000,-0.760000,2.700000,3.040000,-1.656394,Hold,0.946533,0.000000,Hold,-192.000000,2.000000,LowGoal,-2820.000000,2909.090909,Speed,-2790.000000,2909.090909,Speed,Off,Off0.000000,44,Read: /home/lvuser/scripts/auto_44.bee,File good!,WAIT_FOR_PID,WAIT_FOR_PID
11:15:46.236 AM 03/20/2016,Autonomous Enabled,10,TRUE,7,Read from Text File in DoesScriptNumberContainNull.vi->Disabled.vi->Robot Main.vi<APPEND> /home/lvuser/scripts/auto_43.bee,0.000000,-215.034830,0.000000,-219.757486,FALSE,FALSE,TRUE,TRUE,FALSE,TRUE,Disabled,0.000000,0.000000,0.000000,TRUE,-4.896408,-0.407303,0.000000,-1.237839,0.044296,0.000000,-1.137000,-0.236000,0.015000,-0.710000,2.360000,3.020000,-1.651598,Hold,0.946533,51.000000,Hold,-192.000000,69632.000000,LowGoal,-2835.000000,-3272.727273,Speed,-2790.000000,-3272.727273,Speed,Off,Off0.000000,44,Read: /home/lvuser/scripts/auto_44.bee,File good!,SEARCH_FOR_GOAL,SEARCH_FOR_GOAL
11:15:46.336 AM 03/20/2016,Autonomous Enabled,10,TRUE,7,Read from Text File in DoesScriptNumberContainNull.vi->Disabled.vi->Robot Main.vi<APPEND> /home/lvuser/scripts/auto_43.bee,0.000000,-220.796984,0.000000,-224.929307,TRUE,FALSE,TRUE,TRUE,FALSE,TRUE,Disabled,0.000000,0.000000,0.000000,TRUE,-4.956985,-0.410233,0.000000,-1.647095,-0.131973,0.000000,-0.468000,-0.293000,0.038000,-1.260000,-2.010000,2.990000,-2.292895,Hold,2.719482,51.000000,Hold,-5328.000000,69632.000000,LowGoal,-2722.500000,-3272.727273,Speed,-2587.500000,-3272.727273,Speed,Off,Off0.000000,44,Read: /home/lvuser/scripts/auto_44.bee,File good!,SEARCH_FOR_GOAL,SEARCH_FOR_GOAL
11:15:46.437 AM 03/20/2016,Autonomous Enabled,10,TRUE,7,Read from Text File in DoesScriptNumberContainNull.vi->Disabled.vi->Robot Main.vi<APPEND> /home/lvuser/scripts/auto_43.bee,0.000000,-225.551723,0.000000,-229.228464,FALSE,FALSE,TRUE,TRUE,FALSE,TRUE,Disabled,0.000000,0.000000,0.000000,TRUE,-5.071472,-0.418686,0.000000,-2.076736,-0.147095,0.000000,-0.278000,0.112000,0.662000,-2.060000,-2.100000,3.230000,-3.149462,Hold,5.506104,51.000000,Hold,-5328.000000,69632.000000,LowGoal,-1417.500000,-3272.727273,Speed,-1192.500000,-3272.727273,Speed,Off,Off0.000000,44,Read: /home/lvuser/scripts/auto_44.bee,File good!,SEARCH_FOR_GOAL,SEARCH_FOR_GOAL
11:15:46.537 AM 03/20/2016,Autonomous Enabled,10,TRUE,7,Read from Text File in DoesScriptNumberContainNull.vi->Disabled.vi->Robot Main.vi<APPEND> /home/lvuser/scripts/auto_43.bee,0.000000,-228.670215,0.000000,-232.128791,FALSE,FALSE,TRUE,TRUE,FALSE,TRUE,Disabled,0.000000,0.000000,0.000000,TRUE,-5.183304,-0.424438,0.000000,-2.343079,-0.119614,0.000000,-0.239000,-0.084000,-0.081000,-2.500000,-3.840000,3.230000,-3.640891,Hold,7.914307,51.000000,Hold,-15498.000000,69632.000000,LowGoal,-7.500000,-3272.727273,Speed,-60.000000,-3272.727273,Speed,Off,Off0.000000,44,Read: /home/lvuser/scripts/auto_44.bee,File good!,SEARCH_FOR_GOAL,SEARCH_FOR_GOAL
11:15:46.637 AM 03/20/2016,Autonomous Enabled,9,TRUE,7,Read from Text File in DoesScriptNumberContainNull.vi->Disabled.vi->Robot Main.vi<APPEND> /home/lvuser/scripts/auto_43.bee,0.000000,-231.044376,0.000000,-234.271952,FALSE,FALSE,TRUE,TRUE,FALSE,TRUE,Disabled,0.000000,0.000000,0.000000,TRUE,-5.280426,-0.429688,0.000000,-2.461472,-0.142212,0.000000,-0.070000,0.096000,0.328000,-2.950000,-3.690000,3.480000,-4.137528,Hold,11.921875,51.000000,Hold,-25808.000000,69632.000000,LowGoal,937.500000,-3272.727273,Speed,870.000000,-3272.727273,Speed,Off,Off0.000000,44,Read: /home/lvuser/scripts/auto_44.bee,File good!,SEARCH_FOR_GOAL,SEARCH_FOR_GOAL
11:15:46.737 AM 03/20/2016,Autonomous Enabled,10,TRUE,7,Read from Text File in DoesScriptNumberContainNull.vi->Disabled.vi->Robot Main.vi<APPEND> /home/lvuser/scripts/auto_43.bee,0.000000,-232.565123,0.000000,-235.696449,FALSE,FALSE,TRUE,TRUE,FALSE,TRUE,Disabled,0.000000,0.000000,0.000000,TRUE,-5.431107,-0.436203,0.000000,-2.560318,-0.138092,0.000000,-0.110000,-0.110000,-0.093000,-3.170000,-4.390000,3.410000,-4.382043,Hold,16.152588,51.000000,Hold,-37463.000000,69632.000000,LowGoal,1515.000000,-3272.727273,Speed,1552.500000,-3272.727273,Speed,Off,Off0.000000,44,Read: /home/lvuser/scripts/auto_44.bee,File good!,SEARCH_FOR_GOAL,SEARCH_FOR_GOAL
11:15:46.837 AM 03/20/2016,Autonomous Enabled,10,TRUE,7,Read from Text File in DoesScriptNumberContainNull.vi->Disabled.vi->Robot Main.vi<APPEND> /home/lvuser/scripts/auto_43.bee,0.000000,-233.386454,0.000000,-236.222614,FALSE,FALSE,TRUE,TRUE,FALSE,TRUE,Disabled,0.000000,0.000000,0.000000,TRUE,-5.563904,-0.442413,0.000000,-2.706100,-0.083038,0.000000,-0.151000,0.113000,-0.128000,-3.770000,-4.400000,3.710000,-5.016341,Hold,20.503174,51.000000,Hold,-49465.000000,69632.000000,LowGoal,2070.000000,-3272.727273,Speed,2077.500000,-3272.727273,Speed,Off,Off0.000000,44,Read: /home/lvuser/scripts/auto_44.bee,File good!,SEARCH_FOR_GOAL,SEARCH_FOR_GOAL
11:15:46.937 AM 03/20/2016,Autonomous Enabled,10,TRUE,7,Read from Text File in DoesScriptNumberContainNull.vi->Disabled.vi->Robot Main.vi<APPEND> /home/lvuser/scripts/auto_43.bee,0.000000,-233.360788,0.000000,-236.184114,FALSE,FALSE,TRUE,TRUE,FALSE,TRUE,Disabled,0.000000,0.000000,0.000000,TRUE,-5.701828,-0.444717,0.000000,-2.743835,-0.052933,0.000000,-0.179000,0.084000,0.250000,-3.950000,-4.330000,3.710000,-5.186565,Hold,26.539307,51.000000,Hold,-63428.000000,69632.000000,LowGoal,2512.500000,-3272.727273,Speed,2497.500000,-3272.727273,Speed,Off,Off0.000000,44,Read: /home/lvuser/scripts/auto_44.bee,File good!,SEARCH_FOR_GOAL,SEARCH_FOR_GOAL
11:15:47.037 AM 03/20/2016,Autonomous Enabled,10,TRUE,7,Read from Text File in DoesScriptNumberContainNull.vi->Disabled.vi->Robot Main.vi<APPEND> /home/lvuser/scripts/auto_43.bee,0.000000,-233.027122,0.000000,-235.882532,FALSE,FALSE,TRUE,TRUE,FALSE,TRUE,Disabled,0.000000,0.000000,0.000000,TRUE,-5.839035,-0.448853,0.000000,-2.691620,-0.098007,0.000000,0.117000,0.279000,0.211000,-3.690000,-4.680000,3.430000,-4.949087,Hold,33.746582,51.000000,Hold,-70513.000000,69632.000000,LowGoal,2857.500000,-3272.727273,Speed,2782.500000,-3272.727273,Speed,Off,Off0.000000,44,Read: /home/lvuser/scripts/auto_44.bee,File good!,SEARCH_FOR_GOAL,SEARCH_FOR_GOAL
11:15:47.137 AM 03/20/2016,Autonomous Enabled,9,TRUE,7,Read from Text File in DoesScriptNumberContainNull.vi->Disabled.vi->Robot Main.vi<APPEND> /home/lvuser/scripts/auto_43.bee,0.000000,-232.937289,0.000000,-235.786282,FALSE,FALSE,TRUE,TRUE,FALSE,TRUE,Disabled,0.000000,0.000000,0.000000,TRUE,-5.969421,-0.453934,0.000000,-2.554031,-0.108231,0.000000,0.142000,-0.159000,0.177000,-3.800000,-3.930000,3.370000,-5.010733,Hold,43.503662,51.000000,Hold,-70513.000000,69632.000000,LowGoal,3120.000000,-3272.727273,Speed,3060.000000,-3272.727273,Speed,Off,Off0.000000,44,Read: /home/lvuser/scripts/auto_44.bee,File good!,SEARCH_FOR_GOAL,SEARCH_FOR_GOAL
11:15:47.237 AM 03/20/2016,Autonomous Enabled,11,TRUE,7,Read from Text File in DoesScriptNumberContainNull.vi->Disabled.vi->Robot Main.vi<APPEND> /home/lvuser/scripts/auto_43.bee,0.000000,-232.860289,0.000000,-235.696449,FALSE,FALSE,TRUE,TRUE,FALSE,TRUE,Disabled,0.000000,0.000000,0.000000,TRUE,-6.095428,-0.460892,0.000000,-2.488251,-0.147324,0.000000,-0.028000,0.075000,0.000000,-3.860000,-3.790000,3.300000,-5.059913,Hold,52.023438,51.000000,Hold,-69683.000000,69632.000000,LowGoal,3247.500000,-3272.727273,Speed,3262.500000,-3272.727273,Speed,Off,Off0.000000,44,Read: /home/lvuser/scripts/auto_44.bee,File good!,SEARCH_FOR_GOAL,SEARCH_FOR_GOAL
11:15:47.339 AM 03/20/2016,Autonomous Enabled,9,TRUE,7,Read from Text File in DoesScriptNumberContainNull.vi->Disabled.vi->Robot Main.vi<APPEND> /home/lvuser/scripts/auto_43.bee,0.000000,-232.866705,0.000000,-235.696449,FALSE,FALSE,TRUE,TRUE,FALSE,TRUE,Disabled,0.000000,0.000000,0.000000,TRUE,-6.240967,-0.468246,0.000000,-2.394211,-0.119583,0.000000,0.024000,0.064000,-0.255000,-3.900000,-4.110000,3.240000,-5.103479,Hold,56.283447,51.000000,Hold,-69717.000000,69632.000000,LowGoal,3225.000000,-3272.727273,Speed,3262.500000,-3272.727273,Speed,Off,Off0.000000,44,Read: /home/lvuser/scripts/auto_44.bee,File good!,SEARCH_FOR_GOAL,SEARCH_FOR_GOAL
11:15:47.439 AM 03/20/2016,Autonomous Enabled,11,TRUE,7,Read from Text File in DoesScriptNumberContainNull.vi->Disabled.vi->Robot Main.vi<APPEND> /home/lvuser/scripts/auto_43.bee,0.000000,-232.879539,0.000000,-235.696449,FALSE,FALSE,TRUE,TRUE,FALSE,TRUE,Disabled,0.000000,0.000000,0.000000,TRUE,-6.334747,-0.473679,0.000000,-2.326126,-0.150192,0.000000,0.130000,-0.148000,0.217000,-4.030000,-3.260000,3.310000,-5.203017,Hold,56.404297,51.000000,Hold,-69755.000000,69632.000000,LowGoal,3165.000000,-3272.727273,Speed,3187.500000,-3272.727273,Speed,Off,Off0.000000,44,Read: /home/lvuser/scripts/auto_44.bee,File good!,SEARCH_FOR_GOAL,SEARCH_FOR_GOAL
11:15:47.539 AM 03/20/2016,Autonomous Enabled,9,TRUE,7,Read from Text File in DoesScriptNumberContainNull.vi->Disabled.vi->Robot Main.vi<APPEND> /home/lvuser/scripts/auto_43.bee,0.000000,-232.808956,0.000000,-235.677199,FALSE,FALSE,TRUE,TRUE,FALSE,TRUE,Disabled,0.000000,0.000000,0.000000,TRUE,-6.470612,-0.486465,0.000000,-2.215866,-0.236694,0.000000,0.201000,0.012000,0.089000,-3.850000,-3.020000,3.170000,-5.029715,Hold,55.864990,51.000000,Hold,-69738.000000,69632.000000,LowGoal,3157.500000,-3272.727273,Speed,3180.000000,-3272.727273,Speed,Off,Off0.000000,44,Read: /home/lvuser/scripts/auto_44.bee,File good!,SEARCH_FOR_GOAL,SEARCH_FOR_GOAL
11:15:47.639 AM 03/20/2016,Autonomous Enabled,10,TRUE,7,Read from Text File in DoesScriptNumberContainNull.vi->Disabled.vi->Robot Main.vi<APPEND> /home/lvuser/scripts/auto_43.bee,0.000000,-232.808956,0.000000,-235.677199,FALSE,FALSE,TRUE,TRUE,FALSE,TRUE,Disabled,0.000000,0.000000,0.000000,TRUE,-6.581039,-0.497223,0.000000,-2.201218,-0.190063,0.000000,0.215000,0.083000,0.065000,-3.850000,-2.870000,3.050000,-5.071997,Hold,55.864990,51.000000,Hold,-69729.000000,69632.000000,LowGoal,3180.000000,-3272.727273,Speed,3210.000000,-3272.727273,Speed,Off,Off0.000000,44,Read: /home/lvuser/scripts/auto_44.bee,File good!,SEARCH_FOR_GOAL,SEARCH_FOR_GOAL
11:15:47.739 AM 03/20/2016,Autonomous Enabled,9,TRUE,7,Read from Text File in DoesScriptNumberContainNull.vi->Disabled.vi->Robot Main.vi<APPEND> /home/lvuser/scripts/auto_43.bee,0.000000,-232.815372,0.000000,-235.677199,FALSE,FALSE,TRUE,TRUE,FALSE,TRUE,Disabled,0.000000,0.000000,0.000000,TRUE,-6.689316,-0.507721,0.000000,-2.136353,-0.239502,0.000000,0.177000,0.041000,0.139000,-3.950000,-2.670000,3.130000,-5.142566,Hold,55.864746,51.000000,Hold,-69729.000000,69632.000000,LowGoal,3180.000000,-3272.727273,Speed,3210.000000,-3272.727273,Speed,Off,Off0.000000,44,Read: /home/lvuser/scripts/auto_44.bee,File good!,SEARCH_FOR_GOAL,SEARCH_FOR_GOAL
11:15:47.839 AM 03/20/2016,Autonomous Enabled,9,TRUE,7,Read from Text File in DoesScriptNumberContainNull.vi->Disabled.vi->Robot Main.vi<APPEND> /home/lvuser/scripts/auto_43.bee,0.000000,-232.808956,0.000000,-235.677199,FALSE,FALSE,TRUE,TRUE,FALSE,TRUE,Disabled,0.000000,0.000000,0.000000,TRUE,-6.793503,-0.521011,0.000000,-2.077057,-0.271790,0.000000,0.195000,-0.065000,0.001000,-3.870000,-2.490000,3.030000,-5.074682,Hold,55.864014,51.000000,Hold,-69729.000000,69632.000000,LowGoal,3187.500000,-3272.727273,Speed,3202.500000,-3272.727273,Speed,Off,Off0.000000,44,Read: /home/lvuser/scripts/auto_44.bee,File good!,SEARCH_FOR_GOAL,SEARCH_FOR_GOAL
11:15:47.939 AM 03/20/2016,Autonomous Enabled,10,TRUE,7,Read from Text File in DoesScriptNumberContainNull.vi->Disabled.vi->Robot Main.vi<APPEND> /home/lvuser/scripts/auto_43.bee,0.000000,-232.808956,0.000000,-235.677199,FALSE,FALSE,TRUE,TRUE,FALSE,TRUE,Disabled,0.000000,0.000000,0.000000,TRUE,-6.897171,-0.533249,0.000000,-2.079117,-0.219055,0.000000,-0.148000,-0.146000,-0.175000,-3.900000,-2.320000,3.030000,-5.069996,Hold,55.863770,51.000000,Hold,-69729.000000,69632.000000,LowGoal,3180.000000,-3272.727273,Speed,3202.500000,-3272.727273,Speed,Off,Off0.000000,44,Read: /home/lvuser/scripts/auto_44.bee,File good!,SEARCH_FOR_GOAL,SEARCH_FOR_GOAL
11:15:48.039 AM 03/20/2016,Autonomous Enabled,11,FALSE,0,NO ERROR,0.000000,-232.815372,0.000000,-235.677199,FALSE,FALSE,TRUE,TRUE,FALSE,TRUE,Disabled,0.000000,0.000000,0.000000,TRUE,-7.019257,-0.547043,0.000000,-1.993744,-0.251602,0.000000,0.158000,-0.238000,-0.016000,-3.930000,-2.140000,3.060000,-5.093833,Hold,55.863770,51.000000,Hold,-69729.000000,69632.000000,LowGoal,3172.500000,-3272.727273,Speed,3202.500000,-3272.727273,Speed,Off,Off0.000000,44,Read: /home/lvuser/scripts/auto_44.bee,File good!,SEARCH_FOR_GOAL,SEARCH_FOR_GOAL
11:15:48.139 AM 03/20/2016,Autonomous Enabled,10,FALSE,0,NO ERROR,0.000000,-232.808956,0.000000,-235.677199,TRUE,FALSE,TRUE,TRUE,FALSE,TRUE,Disabled,0.000000,0.000000,0.000000,TRUE,-7.117035,-0.561722,0.000000,-1.959534,-0.306641,0.000000,-0.253000,0.050000,-0.099000,-3.910000,-1.970000,2.960000,-5.058553,Hold,55.863037,51.000000,Hold,-69729.000000,69632.000000,LowGoal,3195.000000,-3272.727273,Speed,3210.000000,-3272.727273,Speed,Off,Off0.000000,44,Read: /home/lvuser/scripts/auto_44.bee,File good!,SEARCH_FOR_GOAL,SEARCH_FOR_GOAL
11:15:48.239 AM 03/20/2016,Autonomous Enabled,9,FALSE,0,NO ERROR,0.000000,-232.808956,0.000000,-235.677199,TRUE,FALSE,TRUE,TRUE,FALSE,TRUE,Disabled,0.000000,0.000000,0.000000,TRUE,-7.216629,-0.574524,0.000000,-1.986984,-0.226212,0.000000,0.203000,0.156000,0.058000,-3.920000,-1.830000,2.990000,-5.062443,Hold,55.862549,51.000000,Hold,-69729.000000,69632.000000,LowGoal,3180.000000,-3272.727273,Speed,3202.500000,-3272.727273,Speed,Off,Off0.000000,44,Read: /home/lvuser/scripts/auto_44.bee,File good!,SEARCH_FOR_GOAL,SEARCH_FOR_GOAL
11:15:48.339 AM 03/20/2016,Autonomous Enabled,10,FALSE,0,NO ERROR,0.000000,-232.815372,0.000000,-235.677199,TRUE,FALSE,TRUE,TRUE,FALSE,TRUE,Disabled,0.000000,0.000000,0.000000,TRUE,-7.313660,-0.586060,0.000000,-1.907288,-0.263535,0.000000,0.090000,-0.203000,0.105000,-3.940000,-1.680000,2.980000,-5.057634,Hold,55.862061,51.000000,Hold,-69729.000000,69632.000000,LowGoal,3187.500000,-3272.727273,Speed,3202.500000,-3272.727273,Speed,Off,Off0.000000,44,Read: /home/lvuser/scripts/auto_44.bee,File good!,SEARCH_FOR_GOAL,SEARCH_FOR_GOAL
11:15:48.439 AM 03/20/2016,Autonomous Enabled,11,FALSE,0,NO ERROR,0.000000,-232.808956,0.000000,-235.677199,TRUE,FALSE,TRUE,TRUE,FALSE,TRUE,Disabled,0.000000,0.000000,0.000000,TRUE,-7.408554,-0.601791,0.000000,-1.911240,-0.315842,0.000000,-0.171000,0.064000,-0.096000,-3.930000,-1.610000,2.930000,-5.038050,Hold,55.861572,51.000000,Hold,-69729.000000,69632.000000,LowGoal,3217.500000,-3272.727273,Speed,3210.000000,-3272.727273,Speed,Off,Off0.000000,44,Read: /home/lvuser/scripts/auto_44.bee,File good!,SEARCH_FOR_GOAL,SEARCH_FOR_GOAL
11:15:48.539 AM 03/20/2016,Autonomous Enabled,9,FALSE,0,NO ERROR,0.000000,-232.815372,0.000000,-235.677199,TRUE,FALSE,TRUE,TRUE,FALSE,TRUE,Disabled,0.000000,0.000000,0.000000,TRUE,-7.524704,-0.617142,0.000000,-1.934631,-0.233856,0.000000,0.138000,0.080000,0.085000,-3.940000,-1.540000,2.920000,-5.058237,Hold,55.861328,51.000000,Hold,-69729.000000,69632.000000,LowGoal,3202.500000,-3272.727273,Speed,3210.000000,-3272.727273,Speed,Off,Off0.000000,44,Read: /home/lvuser/scripts/auto_44.bee,File good!,SEARCH_FOR_GOAL,SEARCH_FOR_GOAL
11:15:48.638 AM 03/20/2016,Autonomous Enabled,10,FALSE,0,NO ERROR,0.000000,-232.808956,0.000000,-235.677199,TRUE,FALSE,TRUE,TRUE,FALSE,TRUE,Disabled,0.000000,0.000000,0.000000,TRUE,-7.601196,-0.627808,0.000000,-1.893784,-0.288803,0.000000,-0.009000,-0.149000,0.002000,-3.950000,-1.410000,2.900000,-5.067721,Hold,55.860107,51.000000,Hold,-69729.000000,69632.000000,LowGoal,3172.500000,-3272.727273,Speed,3210.000000,-3272.727273,Speed,Off,Off0.000000,44,Read: /home/lvuser/scripts/auto_44.bee,File good!,SEARCH_FOR_GOAL,SEARCH_FOR_GOAL
11:15:48.739 AM 03/20/2016,Autonomous Enabled,9,FALSE,0,NO ERROR,0.000000,-232.808956,0.000000,-235.677199,TRUE,FALSE,TRUE,TRUE,FALSE,TRUE,Disabled,0.000000,0.000000,0.000000,TRUE,-7.713257,-0.645157,0.000000,-1.865158,-0.258438,0.000000,-0.053000,0.066000,-0.051000,-3.950000,-1.280000,2.980000,-5.060268,Hold,55.860107,51.000000,Hold,-69729.000000,69632.000000,LowGoal,3180.000000,-3272.727273,Speed,3210.000000,-3272.727273,Speed,Off,Off0.000000,44,Read: /home/lvuser/scripts/auto_44.bee,File good!,SEARCH_FOR_GOAL,SEARCH_FOR_GOAL
11:15:48.839 AM 03/20/2016,Autonomous Enabled,9,FALSE,0,NO ERROR,0.000000,-232.808956,0.000000,-235.677199,FALSE,FALSE,TRUE,TRUE,FALSE,TRUE,Disabled,0.000000,0.000000,0.000000,TRUE,-7.806320,-0.656174,0.000000,-1.846207,-0.204224,0.000000,0.129000,0.086000,0.107000,-3.960000,-1.220000,3.000000,-5.081057,Hold,55.860107,51.000000,Hold,-69729.000000,69632.000000,LowGoal,3187.500000,-3272.727273,Speed,3202.500000,-3272.727273,Speed,Off,Off0.000000,44,Read: /home/lvuser/scripts/auto_44.bee,File good!,SEARCH_FOR_GOAL,SEARCH_FOR_GOAL
11:15:48.939 AM 03/20/2016,Autonomous Enabled,10,FALSE,0,NO ERROR,0.000000,-232.808956,0.000000,-235.677199,FALSE,FALSE,TRUE,TRUE,FALSE,TRUE,Disabled,0.000000,0.000000,0.000000,TRUE,-7.898911,-0.666992,0.000000,-1.845642,-0.230438,0.000000,-0.061000,-0.091000,0.004000,-3.960000,-1.130000,3.060000,-5.097048,Hold,55.860107,51.000000,Hold,-69729.000000,69632.000000,LowGoal,3195.000000,-3272.727273,Speed,3202.500000,-3272.727273,Speed,Off,Off0.000000,44,Read: /home/lvuser/scripts/auto_44.bee,File good!,SEARCH_FOR_GOAL,SEARCH_FOR_GOAL
11:15:49.039 AM 03/20/2016,Autonomous Enabled,10,FALSE,0,NO ERROR,0.000000,-232.808956,0.000000,-235.677199,FALSE,FALSE,TRUE,TRUE,FALSE,TRUE,Disabled,0.000000,0.000000,0.000000,TRUE,-7.990646,-0.677628,0.000000,-1.820679,-0.191055,0.000000,0.126000,-0.027000,-0.040000,-3.960000,-1.080000,3.100000,-5.095964,Hold,55.860107,51.000000,Hold,-69729.000000,69632.000000,LowGoal,3187.500000,-3272.727273,Speed,3210.000000,-3272.727273,Speed,Off,Off0.000000,44,Read: /home/lvuser/scripts/auto_44.bee,File good!,SEARCH_FOR_GOAL,SEARCH_FOR_GOAL
11:15:49.139 AM 03/20/2016,Autonomous Enabled,10,FALSE,0,NO ERROR,0.000000,-232.808956,0.000000,-235.677199,FALSE,FALSE,TRUE,TRUE,FALSE,TRUE,Disabled,0.000000,0.000000,0.000000,TRUE,-8.079330,-0.687820,0.000000,-1.769043,-0.214249,0.000000,-0.061000,-0.086000,0.010000,-3.970000,-1.000000,3.040000,-5.111345,Hold,55.860107,51.000000,Hold,-69729.000000,69632.000000,LowGoal,3187.500000,-3272.727273,Speed,3210.000000,-3272.727273,Speed,Off,Off0.000000,44,Read: /home/lvuser/scripts/auto_44.bee,File good!,SEARCH_FOR_GOAL,SEARCH_FOR_GOAL
11:15:49.240 AM 03/20/2016,Autonomous Enabled,11,FALSE,0,NO ERROR,0.000000,-232.808956,0.000000,-235.677199,FALSE,FALSE,TRUE,TRUE,FALSE,TRUE,Disabled,0.000000,0.000000,0.000000,TRUE,-8.168839,-0.698868,0.000000,-1.822800,-0.212372,0.000000,0.090000,0.025000,0.016000,-3.970000,-0.960000,3.030000,-5.122616,Hold,55.860107,51.000000,Hold,-69729.000000,69632.000000,LowGoal,3187.500000,-3272.727273,Speed,3210.000000,-3272.727273,Speed,Off,Off0.000000,44,Read: /home/lvuser/scripts/auto_44.bee,File good!,SEARCH_FOR_GOAL,SEARCH_FOR_GOAL
11:15:49.340 AM 03/20/2016,Autonomous Enabled,9,FALSE,0,NO ERROR,0.000000,-232.808956,0.000000,-235.677199,FALSE,FALSE,TRUE,TRUE,FALSE,TRUE,Disabled,0.000000,0.000000,0.000000,TRUE,-8.259521,-0.708389,0.000000,-1.793427,-0.193405,0.000000,0.093000,0.058000,0.178000,-3.970000,-0.940000,3.040000,-5.134400,Hold,55.860107,51.000000,Hold,-69729.000000,69632.000000,LowGoal,3187.500000,-3272.727273,Speed,3202.500000,-3272.727273,Speed,Off,Off0.000000,44,Read: /home/lvuser/scripts/auto_44.bee,File good!,SEARCH_FOR_GOAL,SEARCH_FOR_GOAL
11:15:49.440 AM 03/20/2016,Autonomous Enabled,19,FALSE,0,NO ERROR,0.000000,-232.808956,0.000000,-235.677199,FALSE,FALSE,TRUE,TRUE,FALSE,TRUE,Disabled,0.000000,0.000000,0.000000,TRUE,-8.346603,-0.718536,0.000000,-1.729492,-0.214478,0.000000,0.079000,0.006000,0.219000,-3.980000,-0.850000,3.020000,-5.140944,Hold,55.860107,51.000000,Hold,-69729.000000,69632.000000,LowGoal,3187.500000,-3272.727273,Speed,3210.000000,-3272.727273,Speed,Off,Off0.000000,44,Read: /home/lvuser/scripts/auto_44.bee,File good!,SEARCH_FOR_GOAL,SEARCH_FOR_GOAL
11:15:49.540 AM 03/20/2016,Autonomous Enabled,10,FALSE,0,NO ERROR,0.000000,-232.808956,0.000000,-235.677199,TRUE,FALSE,TRUE,TRUE,FALSE,TRUE,Disabled,0.000000,0.000000,0.000000,TRUE,-8.433304,-0.718063,0.000000,-1.753769,0.027649,0.000000,-0.152000,0.184000,-0.049000,-3.980000,-0.780000,2.960000,-5.138851,Hold,55.860107,51.000000,Hold,-69729.000000,69632.000000,LowGoal,3195.000000,-3272.727273,Speed,3210.000000,-3272.727273,Speed,Off,Off0.000000,44,Read: /home/lvuser/scripts/auto_44.bee,File good!,SEARCH_FOR_GOAL,SEARCH_FOR_GOAL
11:15:49.640 AM 03/20/2016,Autonomous Enabled,9,FALSE,0,NO ERROR,0.000000,-232.808956,0.000000,-235.677199,TRUE,FALSE,TRUE,TRUE,FALSE,TRUE,Disabled,0.000000,0.000000,0.000000,TRUE,-8.520798,-0.715897,0.000000,-1.743362,0.024643,0.000000,-0.038000,-0.025000,0.107000,-3.980000,-0.750000,2.990000,-5.141288,Hold,55.860107,51.000000,Hold,-69729.000000,69632.000000,LowGoal,3195.000000,-3272.727273,Speed,3210.000000,-3272.727273,Speed,Off,Off0.000000,44,Read: /home/lvuser/scripts/auto_44.bee,File good!,SEARCH_FOR_GOAL,SEARCH_FOR_GOAL
11:15:49.740 AM 03/20/2016,Autonomous Enabled,10,FALSE,0,NO ERROR,0.000000,-232.808956,0.000000,-235.677199,TRUE,FALSE,TRUE,TRUE,FALSE,TRUE,Disabled,0.000000,0.000000,0.000000,TRUE,-8.606750,-0.716064,0.000000,-1.706177,-0.003479,0.000000,0.046000,0.182000,0.012000,-3.990000,-0.710000,2.970000,-5.142025,Hold,55.860107,51.000000,Hold,-69728.000000,69632.000000,LowGoal,3195.000000,-3272.727273,Speed,3210.000000,-3272.727273,Speed,Off,Off0.000000,44,Read: /home/lvuser/scripts/auto_44.bee,File good!,SEARCH_FOR_GOAL,SEARCH_FOR_GOAL
11:15:49.840 AM 03/20/2016,Autonomous Enabled,10,FALSE,0,NO ERROR,0.000000,-232.808956,0.000000,-235.677199,TRUE,FALSE,TRUE,TRUE,FALSE,TRUE,Disabled,0.000000,0.000000,0.000000,TRUE,-8.606750,-0.716064,0.000000,-1.706177,-0.003479,0.000000,0.046000,0.182000,0.012000,-3.990000,-0.710000,2.970000,-5.150759,Hold,55.871338,51.000000,Hold,-69728.000000,69632.000000,LowGoal,3187.500000,-3272.727273,Speed,3202.500000,-3272.727273,Speed,Off,Off0.000000,44,Read: /home/lvuser/scripts/auto_44.bee,File good!,SEARCH_FOR_GOAL,SEARCH_FOR_GOAL
11:15:49.940 AM 03/20/2016,Autonomous Enabled,12,FALSE,0,NO ERROR,0.000000,-232.808956,0.000000,-235.677199,TRUE,FALSE,TRUE,TRUE,FALSE,TRUE,Disabled,0.000000,0.000000,0.000000,TRUE,-8.606750,-0.716064,0.000000,-1.706177,-0.003479,0.000000,0.046000,0.182000,0.012000,-3.990000,-0.710000,2.970000,-5.150759,Hold,57.643555,51.000000,Hold,-69795.000000,69632.000000,LowGoal,3105.000000,-3272.727273,Speed,3135.000000,-3272.727273,Speed,Off,Off0.000000,44,Read: /home/lvuser/scripts/auto_44.bee,File good!,SEARCH_FOR_GOAL,SEARCH_FOR_GOAL
11:15:50.041 AM 03/20/2016,Autonomous Disabled,9,FALSE,0,NO ERROR,0.000000,-232.815372,0.000000,-235.677199,TRUE,FALSE,TRUE,TRUE,FALSE,FALSE,Disabled,0.000000,0.000000,0.000000,TRUE,-8.860184,-0.708374,0.000000,-1.667053,-0.000412,0.000000,-0.097000,-0.002000,0.262000,-4.020000,-0.510000,2.990000,-5.193354,Hold,63.658447,51.000000,Hold,-70839.000000,69632.000000,LowGoal,2820.000000,-1454.545455,Speed,2865.000000,-1454.545455,Speed,Off,Off0.000000,44,Read: /home/lvuser/scripts/auto_44.bee,File good!,SEARCH_FOR_GOAL,SEARCH_FOR_GOAL
11:15:50.141 AM 03/20/2016,Autonomous Disabled,9,FALSE,0,NO ERROR,0.000000,-232.821789,0.000000,-235.677199,TRUE,FALSE,TRUE,TRUE,FALSE,FALSE,Disabled,0.000000,0.000000,0.000000,TRUE,-8.927597,-0.708679,0.000000,-1.667465,-0.063126,0.000000,-0.138000,0.291000,0.321000,-4.040000,-0.250000,2.890000,-5.218539,Hold,68.109619,51.000000,Hold,-72700.000000,69632.000000,LowGoal,2565.000000,-1454.545455,Speed,2572.500000,-1454.545455,Speed,Off,Off0.000000,44,Read: /home/lvuser/scripts/auto_44.bee,File good!,SEARCH_FOR_GOAL,SEARCH_FOR_GOAL
