Time,Robot Mode,Loop Time,Error Status,Error Code,Error Source,Left Motor Output,Left Motor Encoder,Right Motor Output,Right Motor Encoder,Is Level,Is Stalled,Ball Detector Photoeye,Vision Enabled,Vision Teleop Control,Vision Auto Control,Vision Current State,Vision X Output,Vision NavX Error,Vision NavX Target,NavX Connection Status,NavX Displacement X,NavX Displacement Y,NavX Displacement Z,NavX Velocity X,NavX Velocity Y,NavX Velocity Z,NavX Acceleration X,NavX Acceleration Y,NavX Acceleration Z,NavX Pitch,NavX Yaw,NavX Roll,Gyro Angle,Roller Arm State,Roller Arm Actual,Roller Arm Desired,Shooter Arm State,Shooter Arm Actual,Shooter Arm Desired,Shooter State,Actual RPM Left,Desired RPM Left,Control Mode Left,Actual RPM Right,Desired RPM Right,Control Mode Right,Ball Shooter Cylinder,Ball Halo Cylinder,Scaler Motor Output,Scaler Solenoid Fire,Auto To Run,Auto Current File,Auto File Status,Auto Current Command,Auto Trimmed Command,Shooter Amps Left,Shooter Amps Right
02:12:33.587 PM 04/02/2016,Teleop Enabled,11,TRUE,-44087,NetComm_CAN_Receive.vi:5470001<APPEND>  <b>Complete call chain:</b>      NetComm_CAN_Receive.vi:5470001      WPI_CAN_PDPReceive.vi      WPI_Power Get PDP Currents.vi      Periodic Tasks.vi      Robot Main.vi,-0.000000,0.000000,-0.000000,0.000000,TRUE,FALSE,FALSE,TRUE,FALSE,FALSE,Disabled,0.000000,0.000000,0.000000,TRUE,-0.000168,0.000961,0.000000,0.000000,0.000000,0.000000,0.002000,-0.001000,0.021000,-0.130000,0.330000,-0.590000,0.073216,ResetBack,0.000000,-0.000049,ResetBack,0.000000,-0.250000,Suck,0.000000,1818.181818,Speed,0.000000,1818.181818,Speed,Off,Off,0.000000,FALSE,0,,,,,0.000000,0.000000
02:12:33.688 PM 04/02/2016,Teleop Enabled,9,TRUE,-44087,NetComm_CAN_Receive.vi:5470001<APPEND>  <b>Complete call chain:</b>      NetComm_CAN_Receive.vi:5470001      WPI_CAN_PDPReceive.vi      WPI_Power Get PDP Currents.vi      Periodic Tasks.vi      Robot Main.vi,-0.000000,-0.025667,-0.000000,0.000000,TRUE,FALSE,FALSE,TRUE,FALSE,FALSE,Disabled,0.000000,0.000000,0.000000,TRUE,-0.000168,0.000961,0.000000,0.000000,0.000000,0.000000,0.001000,-0.004000,0.015000,-0.140000,0.350000,-0.660000,0.071860,ResetBack,-0.274902,-0.000049,ResetBack,240.000000,-0.250000,Suck,-22.500000,1818.181818,Speed,0.000000,1818.181818,Speed,Off,Off,0.000000,FALSE,0,,,,,0.000000,0.000000
02:12:33.787 PM 04/02/2016,Teleop Enabled,11,TRUE,-44087,NetComm_CAN_Receive.vi:5470001<APPEND>  <b>Complete call chain:</b>      NetComm_CAN_Receive.vi:5470001      WPI_CAN_PDPReceive.vi      WPI_Power Get PDP Currents.vi      Periodic Tasks.vi      Robot Main.vi,-0.000000,-0.025667,-0.000000,0.000000,TRUE,FALSE,FALSE,TRUE,FALSE,FALSE,Disabled,0.000000,0.000000,0.000000,TRUE,-0.001114,0.001221,0.000000,-0.035309,0.006500,0.000000,0.035000,-0.020000,0.013000,-0.140000,0.320000,-0.570000,0.058971,ResetBack,-0.465820,-0.000049,ResetBack,5165.000000,-0.250000,Suck,-480.000000,1818.181818,Speed,-180.000000,1818.181818,Speed,Off,Off,0.000000,FALSE,0,,,,,0.000000,0.000000
02:12:33.887 PM 04/02/2016,Teleop Enabled,12,TRUE,-44087,NetComm_CAN_Receive.vi:5470001<APPEND>  <b>Complete call chain:</b>      NetComm_CAN_Receive.vi:5470001      WPI_CAN_PDPReceive.vi      WPI_Power Get PDP Currents.vi      Periodic Tasks.vi      Robot Main.vi,-0.000000,-0.025667,-0.000000,0.000000,TRUE,FALSE,FALSE,TRUE,FALSE,FALSE,Disabled,0.000000,0.000000,0.000000,TRUE,-0.001114,0.001221,0.000000,-0.035309,0.006500,0.000000,-0.048000,0.003000,0.025000,-0.140000,0.300000,-0.560000,0.064737,ResetBack,-0.468262,-0.000049,ResetBack,5165.000000,-0.250000,Suck,-1087.500000,1818.181818,Speed,-502.500000,1818.181818,Speed,Off,Off,0.000000,FALSE,0,,,,,0.000000,0.000000
02:12:33.987 PM 04/02/2016,Teleop Enabled,11,TRUE,-44087,NetComm_CAN_Receive.vi:5470001<APPEND>  <b>Complete call chain:</b>      NetComm_CAN_Receive.vi:5470001      WPI_CAN_PDPReceive.vi      WPI_Power Get PDP Currents.vi      Periodic Tasks.vi      Robot Main.vi,-0.000000,-0.025667,-0.000000,0.000000,TRUE,FALSE,FALSE,TRUE,FALSE,FALSE,Disabled,0.000000,0.000000,0.000000,TRUE,-0.008270,0.001190,0.000000,-0.129944,0.006516,0.000000,0.021000,-0.023000,-0.002000,-0.150000,0.280000,-0.570000,0.078876,Reset,-0.505615,0.000000,ResetBack,10535.000000,-0.250000,Suck,-1575.000000,1818.181818,Speed,-1140.000000,1818.181818,Speed,Off,Off,0.000000,FALSE,0,,,,,0.000000,0.000000
02:12:34.087 PM 04/02/2016,Teleop Enabled,10,TRUE,-44087,NetComm_CAN_Receive.vi:5470001<APPEND>  <b>Complete call chain:</b>      NetComm_CAN_Receive.vi:5470001      WPI_CAN_PDPReceive.vi      WPI_Power Get PDP Currents.vi      Periodic Tasks.vi      Robot Main.vi,-0.000000,-0.025667,-0.000000,0.000000,TRUE,FALSE,FALSE,TRUE,FALSE,FALSE,Disabled,0.000000,0.000000,0.000000,TRUE,-0.008270,0.001190,0.000000,-0.129944,0.006516,0.000000,0.044000,-0.031000,0.098000,-0.150000,0.290000,-0.490000,0.078876,Hold,0.643066,0.000000,ResetBack,16010.000000,-0.250000,Suck,-1792.500000,1818.181818,Speed,-1905.000000,1818.181818,Speed,Off,Off,0.000000,FALSE,0,,,,,0.000000,0.000000
02:12:34.188 PM 04/02/2016,Teleop Enabled,10,TRUE,-44087,NetComm_CAN_Receive.vi:5470001<APPEND>  <b>Complete call chain:</b>      NetComm_CAN_Receive.vi:5470001      WPI_CAN_PDPReceive.vi      WPI_Power Get PDP Currents.vi      Periodic Tasks.vi      Robot Main.vi,-0.000000,-0.025667,-0.000000,0.000000,TRUE,FALSE,FALSE,TRUE,FALSE,FALSE,Disabled,0.000000,0.000000,0.000000,TRUE,-0.014862,-0.000595,0.000000,-0.122040,-0.074692,0.000000,-0.031000,-0.153000,-0.037000,-0.150000,0.280000,-0.560000,0.064135,Hold,0.887207,0.000000,ResetBack,21023.000000,-0.250000,Suck,-1815.000000,1818.181818,Speed,-2055.000000,1818.181818,Speed,Off,Off,0.000000,FALSE,0,,,,,0.000000,0.000000
02:12:34.288 PM 04/02/2016,Teleop Enabled,10,TRUE,-44087,NetComm_CAN_Receive.vi:5470001<APPEND>  <b>Complete call chain:</b>      NetComm_CAN_Receive.vi:5470001      WPI_CAN_PDPReceive.vi      WPI_Power Get PDP Currents.vi      Periodic Tasks.vi      Robot Main.vi,-0.000000,-0.025667,-0.000000,0.000000,TRUE,FALSE,FALSE,TRUE,FALSE,FALSE,Disabled,0.000000,0.000000,0.000000,TRUE,-0.018631,-0.009338,0.000000,0.011444,-0.164978,0.000000,0.051000,0.030000,0.105000,-0.150000,0.270000,-0.550000,0.067657,Hold,0.887207,0.000000,ResetBack,24667.000000,-0.250000,Suck,-1770.000000,1818.181818,Speed,-1800.000000,1818.181818,Speed,Off,Off,0.000000,FALSE,0,,,,,0.000000,0.000000
02:12:34.388 PM 04/02/2016,Teleop Enabled,11,TRUE,-44087,NetComm_CAN_Receive.vi:5470001<APPEND>  <b>Complete call chain:</b>      NetComm_CAN_Receive.vi:5470001      WPI_CAN_PDPReceive.vi      WPI_Power Get PDP Currents.vi      Periodic Tasks.vi      Robot Main.vi,-0.000000,-0.025667,-0.000000,0.000000,TRUE,FALSE,FALSE,TRUE,FALSE,FALSE,Disabled,0.000000,0.000000,0.000000,TRUE,-0.015457,-0.018036,0.000000,0.092117,-0.179306,0.000000,0.147000,-0.020000,0.169000,-0.160000,0.220000,-0.460000,0.086491,Hold,0.887207,0.000000,ResetBack,26892.000000,-0.250000,Suck,-1755.000000,1818.181818,Speed,-1635.000000,1818.181818,Speed,Off,Off,0.000000,FALSE,0,,,,,0.000000,0.000000
02:12:34.488 PM 04/02/2016,Teleop Enabled,10,TRUE,-44087,NetComm_CAN_Receive.vi:5470001<APPEND>  <b>Complete call chain:</b>      NetComm_CAN_Receive.vi:5470001      WPI_CAN_PDPReceive.vi      WPI_Power Get PDP Currents.vi      Periodic Tasks.vi      Robot Main.vi,-0.000000,-0.025667,-0.000000,0.000000,TRUE,FALSE,FALSE,TRUE,FALSE,FALSE,Disabled,0.000000,0.000000,0.000000,TRUE,-0.007309,-0.027817,0.000000,0.206818,-0.199432,0.000000,-0.121000,-0.042000,0.075000,-0.160000,0.250000,-0.450000,0.091448,Hold,0.887207,0.000000,ResetBack,26892.000000,-0.250000,Suck,-1755.000000,1818.181818,Speed,-1672.500000,1818.181818,Speed,Off,Off,0.000000,FALSE,0,,,,,0.000000,0.000000
02:12:34.588 PM 04/02/2016,Teleop Enabled,11,TRUE,-44087,NetComm_CAN_Receive.vi:5470001<APPEND>  <b>Complete call chain:</b>      NetComm_CAN_Receive.vi:5470001      WPI_CAN_PDPReceive.vi      WPI_Power Get PDP Currents.vi      Periodic Tasks.vi      Robot Main.vi,-0.000000,-0.025667,-0.000000,0.000000,TRUE,FALSE,FALSE,TRUE,FALSE,FALSE,Disabled,0.000000,0.000000,0.000000,TRUE,0.001877,-0.037857,0.000000,0.172272,-0.194977,0.000000,-0.081000,0.047000,0.090000,-0.160000,0.290000,-0.560000,0.100836,Hold,0.887207,0.000000,ResetBack,28320.000000,-0.250000,Suck,-1755.000000,1818.181818,Speed,-1762.500000,1818.181818,Speed,Off,Off,0.000000,FALSE,0,,,,,0.000000,0.000000
02:12:34.689 PM 04/02/2016,Teleop Enabled,11,TRUE,-44087,NetComm_CAN_Receive.vi:5470001<APPEND>  <b>Complete call chain:</b>      NetComm_CAN_Receive.vi:5470001      WPI_CAN_PDPReceive.vi      WPI_Power Get PDP Currents.vi      Periodic Tasks.vi      Robot Main.vi,-0.000000,-0.025667,-0.000000,0.000000,TRUE,FALSE,FALSE,TRUE,FALSE,FALSE,Disabled,0.000000,0.000000,0.000000,TRUE,0.009430,-0.047302,0.000000,0.143448,-0.177628,0.000000,0.042000,-0.102000,0.110000,-0.170000,0.240000,-0.540000,0.101611,Hold,0.887207,0.000000,ResetBack,28666.000000,-0.250000,Suck,-1762.500000,1818.181818,Speed,-1770.000000,1818.181818,Speed,Off,Off,0.000000,FALSE,0,,,,,0.000000,0.000000
02:12:34.792 PM 04/02/2016,Teleop Enabled,9,TRUE,-44087,NetComm_CAN_Receive.vi:5470001<APPEND>  <b>Complete call chain:</b>      NetComm_CAN_Receive.vi:5470001      WPI_CAN_PDPReceive.vi      WPI_Power Get PDP Currents.vi      Periodic Tasks.vi      Robot Main.vi,-0.000000,-0.025667,-0.000000,0.000000,TRUE,FALSE,FALSE,TRUE,FALSE,FALSE,Disabled,0.000000,0.000000,0.000000,TRUE,0.016449,-0.056885,0.000000,0.128479,-0.186691,0.000000,-0.033000,-0.020000,0.110000,-0.160000,0.220000,-0.450000,0.109611,Hold,0.887207,0.000000,ResetBack,28667.000000,-0.250000,Suck,-1762.500000,1818.181818,Speed,-1717.500000,1818.181818,Speed,Off,Off,0.000000,FALSE,0,,,,,0.000000,0.000000
02:12:34.895 PM 04/02/2016,Teleop Enabled,10,TRUE,-44087,NetComm_CAN_Receive.vi:5470001<APPEND>  <b>Complete call chain:</b>      NetComm_CAN_Receive.vi:5470001      WPI_CAN_PDPReceive.vi      WPI_Power Get PDP Currents.vi      Periodic Tasks.vi      Robot Main.vi,-0.000000,-0.025667,-0.000000,0.000000,TRUE,FALSE,FALSE,TRUE,FALSE,FALSE,Disabled,0.000000,0.000000,0.000000,TRUE,0.024185,-0.068970,0.000000,0.135529,-0.206787,0.000000,0.150000,-0.041000,0.163000,-0.170000,0.250000,-0.500000,0.098684,Hold,0.887207,0.000000,Reset,28667.000000,2.000000,Suck,-1770.000000,1818.181818,Speed,-1717.500000,1818.181818,Speed,Off,Off,0.000000,FALSE,0,,,,,0.000000,0.000000
02:12:34.996 PM 04/02/2016,Teleop Enabled,10,TRUE,-44087,NetComm_CAN_Receive.vi:5470001<APPEND>  <b>Complete call chain:</b>      NetComm_CAN_Receive.vi:5470001      WPI_CAN_PDPReceive.vi      WPI_Power Get PDP Currents.vi      Periodic Tasks.vi      Robot Main.vi,-0.000000,-0.025667,-0.000000,0.000000,TRUE,FALSE,FALSE,TRUE,FALSE,FALSE,Disabled,0.000000,0.000000,0.000000,TRUE,0.033340,-0.081757,0.000000,0.166718,-0.219345,0.000000,-0.068000,0.025000,-0.027000,-0.170000,0.300000,-0.570000,0.096774,Hold,0.887207,0.000000,Hold,-121.000000,2.000000,Suck,-1762.500000,1818.181818,Speed,-1740.000000,1818.181818,Speed,Off,Off,0.000000,FALSE,0,,,,,0.000000,0.000000
02:12:35.097 PM 04/02/2016,Teleop Enabled,9,TRUE,-44087,NetComm_CAN_Receive.vi:5470001<APPEND>  <b>Complete call chain:</b>      NetComm_CAN_Receive.vi:5470001      WPI_CAN_PDPReceive.vi      WPI_Power Get PDP Currents.vi      Periodic Tasks.vi      Robot Main.vi,-0.000000,-0.025667,-0.000000,0.000000,TRUE,FALSE,FALSE,TRUE,FALSE,FALSE,Disabled,0.000000,0.000000,0.000000,TRUE,0.039780,-0.090485,0.000000,0.170090,-0.215851,0.000000,-0.115000,-0.030000,-0.029000,-0.170000,0.270000,-0.540000,0.089889,Hold,0.887207,0.000000,Hold,-121.000000,2.000000,Suck,-1762.500000,1818.181818,Speed,-1747.500000,1818.181818,Speed,Off,Off,0.000000,FALSE,0,,,,,0.000000,0.000000
02:12:35.198 PM 04/02/2016,Teleop Enabled,9,TRUE,-44087,NetComm_CAN_Receive.vi:5470001<APPEND>  <b>Complete call chain:</b>      NetComm_CAN_Receive.vi:5470001      WPI_CAN_PDPReceive.vi      WPI_Power Get PDP Currents.vi      Periodic Tasks.vi      Robot Main.vi,-0.000000,-0.025667,-0.000000,0.000000,TRUE,FALSE,FALSE,TRUE,FALSE,FALSE,Disabled,0.000000,0.000000,0.000000,TRUE,0.047348,-0.101227,0.000000,0.157715,-0.212418,0.000000,-0.162000,0.033000,-0.048000,-0.180000,0.270000,-0.500000,0.097338,Hold,0.887207,0.000000,Hold,-121.000000,2.000000,Suck,-1770.000000,1818.181818,Speed,-1740.000000,1818.181818,Speed,Off,Off,0.000000,FALSE,0,,,,,0.000000,0.000000
02:12:35.299 PM 04/02/2016,Teleop Enabled,9,TRUE,-44087,NetComm_CAN_Receive.vi:5470001<APPEND>  <b>Complete call chain:</b>      NetComm_CAN_Receive.vi:5470001      WPI_CAN_PDPReceive.vi      WPI_Power Get PDP Currents.vi      Periodic Tasks.vi      Robot Main.vi,-0.000000,-0.025667,-0.000000,0.000000,TRUE,FALSE,FALSE,TRUE,FALSE,FALSE,Disabled,0.000000,0.000000,0.000000,TRUE,0.057877,-0.116196,0.000000,0.150925,-0.220535,0.000000,0.013000,0.071000,0.060000,-0.180000,0.320000,-0.560000,0.086938,Hold,0.887207,0.000000,Hold,-121.000000,2.000000,Suck,-1770.000000,1818.181818,Speed,-1732.500000,1818.181818,Speed,Off,Off,0.000000,FALSE,0,,,,,0.000000,0.000000
02:12:35.400 PM 04/02/2016,Teleop Enabled,7,TRUE,-44087,NetComm_CAN_Receive.vi:5470001<APPEND>  <b>Complete call chain:</b>      NetComm_CAN_Receive.vi:5470001      WPI_CAN_PDPReceive.vi      WPI_Power Get PDP Currents.vi      Periodic Tasks.vi      Robot Main.vi,-0.000000,-0.025667,-0.000000,0.000000,TRUE,FALSE,FALSE,TRUE,FALSE,FALSE,Disabled,0.000000,0.000000,0.000000,TRUE,0.065979,-0.126953,0.000000,0.155380,-0.214447,0.000000,0.018000,-0.019000,0.014000,-0.180000,0.330000,-0.540000,0.084233,Hold,0.887207,0.000000,Hold,-121.000000,2.000000,Suck,-1762.500000,1818.181818,Speed,-1740.000000,1818.181818,Speed,Off,Off,0.000000,FALSE,0,,,,,0.000000,0.000000
02:12:35.501 PM 04/02/2016,Teleop Enabled,9,TRUE,-44087,NetComm_CAN_Receive.vi:5470001<APPEND>  <b>Complete call chain:</b>      NetComm_CAN_Receive.vi:5470001      WPI_CAN_PDPReceive.vi      WPI_Power Get PDP Currents.vi      Periodic Tasks.vi      Robot Main.vi,-0.000000,-0.025667,-0.000000,0.000000,TRUE,FALSE,FALSE,TRUE,FALSE,FALSE,Disabled,0.000000,0.000000,0.000000,TRUE,0.071976,-0.135086,0.000000,0.135651,-0.195053,0.000000,0.114000,-0.020000,0.032000,-0.180000,0.270000,-0.500000,0.078907,Hold,0.887207,0.000000,Hold,-121.000000,2.000000,Suck,-1762.500000,1818.181818,Speed,-1740.000000,1818.181818,Speed,Off,Off,0.000000,FALSE,0,,,,,0.000000,0.000000
02:12:35.602 PM 04/02/2016,Teleop Enabled,10,TRUE,-44087,NetComm_CAN_Receive.vi:5470001<APPEND>  <b>Complete call chain:</b>      NetComm_CAN_Receive.vi:5470001      WPI_CAN_PDPReceive.vi      WPI_Power Get PDP Currents.vi      Periodic Tasks.vi      Robot Main.vi,-0.000000,-0.025667,-0.000000,0.000000,TRUE,FALSE,FALSE,TRUE,FALSE,FALSE,Disabled,0.000000,0.000000,0.000000,TRUE,0.079376,-0.144440,0.000000,0.138229,-0.192932,0.000000,-0.153000,0.087000,0.030000,-0.180000,0.320000,-0.490000,0.084294,Hold,0.887207,0.000000,Hold,-121.000000,2.000000,Suck,-1762.500000,1818.181818,Speed,-1732.500000,1818.181818,Speed,Off,Off,0.000000,FALSE,0,,,,,0.000000,0.000000
02:12:35.702 PM 04/02/2016,Teleop Enabled,9,TRUE,-44087,NetComm_CAN_Receive.vi:5470001<APPEND>  <b>Complete call chain:</b>      NetComm_CAN_Receive.vi:5470001      WPI_CAN_PDPReceive.vi      WPI_Power Get PDP Currents.vi      Periodic Tasks.vi      Robot Main.vi,-0.000000,-0.025667,-0.000000,0.000000,TRUE,FALSE,FALSE,TRUE,FALSE,FALSE,Disabled,0.000000,0.000000,0.000000,TRUE,0.089722,-0.156036,0.000000,0.175003,-0.198196,0.000000,0.051000,0.028000,0.070000,-0.190000,0.350000,-0.600000,0.093118,Hold,0.887207,0.000000,Hold,-121.000000,2.000000,Suck,-1762.500000,1818.181818,Speed,-1717.500000,1818.181818,Speed,Off,Off,0.000000,FALSE,0,,,,,0.000000,0.000000
02:12:35.803 PM 04/02/2016,Teleop Enabled,11,TRUE,-44087,NetComm_CAN_Receive.vi:5470001<APPEND>  <b>Complete call chain:</b>      NetComm_CAN_Receive.vi:5470001      WPI_CAN_PDPReceive.vi      WPI_Power Get PDP Currents.vi      Periodic Tasks.vi      Robot Main.vi,-0.000000,-0.025667,-0.000000,0.000000,TRUE,FALSE,FALSE,TRUE,FALSE,FALSE,Disabled,0.000000,0.000000,0.000000,TRUE,0.095612,-0.162018,0.000000,0.213348,-0.205444,0.000000,-0.092000,0.048000,-0.019000,-0.190000,0.310000,-0.570000,0.113539,Hold,0.887207,0.000000,Hold,-121.000000,2.000000,Suck,-1762.500000,1818.181818,Speed,-1740.000000,1818.181818,Speed,Off,Off,0.000000,FALSE,0,,,,,0.000000,0.000000
02:12:35.904 PM 04/02/2016,Teleop Enabled,11,TRUE,-44087,NetComm_CAN_Receive.vi:5470001<APPEND>  <b>Complete call chain:</b>      NetComm_CAN_Receive.vi:5470001      WPI_CAN_PDPReceive.vi      WPI_Power Get PDP Currents.vi      Periodic Tasks.vi      Robot Main.vi,-0.000000,-0.025667,-0.000000,0.000000,TRUE,FALSE,FALSE,TRUE,FALSE,FALSE,Disabled,0.000000,0.000000,0.000000,TRUE,0.107483,-0.176224,0.000000,0.157028,-0.203796,0.000000,0.103000,-0.036000,-0.029000,-0.180000,0.270000,-0.520000,0.093238,Hold,0.887207,0.000000,Hold,-121.000000,2.000000,Suck,-1762.500000,1818.181818,Speed,-1747.500000,1818.181818,Speed,Off,Off,0.000000,FALSE,0,,,,,0.000000,0.000000
02:12:36.004 PM 04/02/2016,Teleop Enabled,11,TRUE,-44087,NetComm_CAN_Receive.vi:5470001<APPEND>  <b>Complete call chain:</b>      NetComm_CAN_Receive.vi:5470001      WPI_CAN_PDPReceive.vi      WPI_Power Get PDP Currents.vi      Periodic Tasks.vi      Robot Main.vi,-0.000000,-0.025667,-0.000000,0.000000,TRUE,FALSE,FALSE,TRUE,FALSE,FALSE,Disabled,0.000000,0.000000,0.000000,TRUE,0.114655,-0.185181,0.000000,0.186661,-0.236176,0.000000,0.118000,0.026000,0.003000,-0.190000,0.310000,-0.560000,0.080687,Hold,0.887207,0.000000,Hold,-121.000000,2.000000,Suck,-1762.500000,1818.181818,Speed,-1740.000000,1818.181818,Speed,Off,Off,0.000000,FALSE,0,,,,,0.000000,0.000000
02:12:36.105 PM 04/02/2016,Teleop Enabled,10,TRUE,-44087,NetComm_CAN_Receive.vi:5470001<APPEND>  <b>Complete call chain:</b>      NetComm_CAN_Receive.vi:5470001      WPI_CAN_PDPReceive.vi      WPI_Power Get PDP Currents.vi      Periodic Tasks.vi      Robot Main.vi,-0.000000,-0.025667,-0.000000,0.000000,TRUE,FALSE,FALSE,TRUE,FALSE,FALSE,Disabled,0.000000,0.000000,0.000000,TRUE,0.124969,-0.196823,0.000000,0.206284,-0.220093,0.000000,-0.113000,-0.035000,-0.038000,-0.190000,0.320000,-0.630000,0.078239,Hold,0.887207,0.000000,Hold,-121.000000,2.000000,Suck,-1762.500000,1818.181818,Speed,-1740.000000,1818.181818,Speed,Off,Off,0.000000,FALSE,0,,,,,0.000000,0.000000
02:12:36.205 PM 04/02/2016,Teleop Enabled,11,TRUE,-44087,NetComm_CAN_Receive.vi:5470001<APPEND>  <b>Complete call chain:</b>      NetComm_CAN_Receive.vi:5470001      WPI_CAN_PDPReceive.vi      WPI_Power Get PDP Currents.vi      Periodic Tasks.vi      Robot Main.vi,-0.000000,-0.025667,-0.000000,0.000000,TRUE,FALSE,FALSE,TRUE,FALSE,FALSE,Disabled,0.000000,0.000000,0.000000,TRUE,0.137085,-0.210175,0.000000,0.217606,-0.217026,0.000000,-0.145000,-0.049000,-0.014000,-0.200000,0.300000,-0.610000,0.065777,Hold,0.887207,0.000000,Hold,-121.000000,2.000000,Suck,-1755.000000,1818.181818,Speed,-1740.000000,1818.181818,Speed,Off,Off,0.000000,FALSE,0,,,,,0.000000,0.000000
02:12:36.306 PM 04/02/2016,Teleop Enabled,10,TRUE,-44087,NetComm_CAN_Receive.vi:5470001<APPEND>  <b>Complete call chain:</b>      NetComm_CAN_Receive.vi:5470001      WPI_CAN_PDPReceive.vi      WPI_Power Get PDP Currents.vi      Periodic Tasks.vi      Robot Main.vi,-0.000000,-0.025667,-0.000000,0.000000,TRUE,FALSE,FALSE,TRUE,FALSE,FALSE,Disabled,0.000000,0.000000,0.000000,TRUE,0.144485,-0.219315,0.000000,0.190201,-0.223572,0.000000,-0.114000,-0.031000,-0.063000,-0.200000,0.250000,-0.590000,0.078160,Hold,0.887207,0.000000,Hold,-121.000000,2.000000,Suck,-1755.000000,1818.181818,Speed,-1740.000000,1818.181818,Speed,Off,Off,0.000000,FALSE,0,,,,,0.000000,0.000000
02:12:36.406 PM 04/02/2016,Teleop Enabled,10,TRUE,-44087,NetComm_CAN_Receive.vi:5470001<APPEND>  <b>Complete call chain:</b>      NetComm_CAN_Receive.vi:5470001      WPI_CAN_PDPReceive.vi      WPI_Power Get PDP Currents.vi      Periodic Tasks.vi      Robot Main.vi,-0.000000,-0.025667,-0.000000,0.000000,TRUE,FALSE,FALSE,TRUE,FALSE,FALSE,Disabled,0.000000,0.000000,0.000000,TRUE,0.157547,-0.233704,0.000000,0.230759,-0.238174,0.000000,-0.114000,0.020000,0.017000,-0.200000,0.270000,-0.650000,0.068906,Hold,0.887207,0.000000,Hold,-121.000000,2.000000,Suck,-1755.000000,1818.181818,Speed,-1740.000000,1818.181818,Speed,Off,Off,0.000000,FALSE,0,,,,,0.000000,0.000000
02:12:36.506 PM 04/02/2016,Teleop Enabled,9,TRUE,-44087,NetComm_CAN_Receive.vi:5470001<APPEND>  <b>Complete call chain:</b>      NetComm_CAN_Receive.vi:5470001      WPI_CAN_PDPReceive.vi      WPI_Power Get PDP Currents.vi      Periodic Tasks.vi      Robot Main.vi,-0.000000,-0.025667,-0.000000,0.000000,TRUE,FALSE,FALSE,TRUE,FALSE,FALSE,Disabled,0.000000,0.000000,0.000000,TRUE,0.168091,-0.245132,0.000000,0.212265,-0.237259,0.000000,-0.045000,-0.029000,-0.011000,-0.210000,0.320000,-0.680000,0.050427,Hold,0.887207,0.000000,Hold,-121.000000,2.000000,Suck,-1762.500000,1818.181818,Speed,-1740.000000,1818.181818,Speed,Off,Off,0.000000,FALSE,0,,,,,0.000000,0.000000
02:12:36.606 PM 04/02/2016,Teleop Enabled,10,TRUE,-44087,NetComm_CAN_Receive.vi:5470001<APPEND>  <b>Complete call chain:</b>      NetComm_CAN_Receive.vi:5470001      WPI_CAN_PDPReceive.vi      WPI_Power Get PDP Currents.vi      Periodic Tasks.vi      Robot Main.vi,-0.000000,-0.025667,-0.000000,0.000000,TRUE,FALSE,FALSE,TRUE,FALSE,FALSE,Disabled,0.000000,0.000000,0.000000,TRUE,0.178925,-0.257233,0.000000,0.225403,-0.248917,0.000000,-0.112000,-0.014000,-0.014000,-0.210000,0.360000,-0.660000,0.054606,Hold,0.887207,0.000000,Hold,-121.000000,2.000000,Suck,-1762.500000,1818.181818,Speed,-1732.500000,1818.181818,Speed,Off,Off,0.000000,FALSE,0,,,,,0.000000,0.000000
02:12:36.710 PM 04/02/2016,Teleop Enabled,9,TRUE,-44087,NetComm_CAN_Receive.vi:5470001<APPEND>  <b>Complete call chain:</b>      NetComm_CAN_Receive.vi:5470001      WPI_CAN_PDPReceive.vi      WPI_Power Get PDP Currents.vi      Periodic Tasks.vi      Robot Main.vi,-0.000000,-0.025667,-0.000000,0.000000,TRUE,FALSE,FALSE,TRUE,FALSE,FALSE,Disabled,0.000000,0.000000,0.000000,TRUE,0.189011,-0.269638,0.000000,0.192978,-0.256866,0.000000,0.023000,-0.010000,-0.082000,-0.210000,0.370000,-0.630000,0.054392,Hold,0.887207,0.000000,Hold,-121.000000,2.000000,Suck,-1762.500000,1818.181818,Speed,-1740.000000,1818.181818,Speed,Off,Off,0.000000,FALSE,0,,,,,0.000000,0.000000
02:12:36.812 PM 04/02/2016,Teleop Enabled,10,TRUE,-44087,NetComm_CAN_Receive.vi:5470001<APPEND>  <b>Complete call chain:</b>      NetComm_CAN_Receive.vi:5470001      WPI_CAN_PDPReceive.vi      WPI_Power Get PDP Currents.vi      Periodic Tasks.vi      Robot Main.vi,-0.000000,-0.025667,-0.000000,0.000000,TRUE,FALSE,FALSE,TRUE,FALSE,FALSE,Disabled,0.000000,0.000000,0.000000,TRUE,0.198593,-0.282822,0.000000,0.205154,-0.281799,0.000000,0.162000,-0.065000,0.039000,-0.210000,0.340000,-0.560000,0.065529,Hold,0.887207,0.000000,Hold,-121.000000,2.000000,Suck,-1762.500000,1818.181818,Speed,-1747.500000,1818.181818,Speed,Off,Off,0.000000,FALSE,0,,,,,0.000000,0.000000
02:12:36.913 PM 04/02/2016,Teleop Enabled,11,TRUE,-44087,NetComm_CAN_Receive.vi:5470001<APPEND>  <b>Complete call chain:</b>      NetComm_CAN_Receive.vi:5470001      WPI_CAN_PDPReceive.vi      WPI_Power Get PDP Currents.vi      Periodic Tasks.vi      Robot Main.vi,-0.000000,-0.025667,-0.000000,0.000000,TRUE,FALSE,FALSE,TRUE,FALSE,FALSE,Disabled,0.000000,0.000000,0.000000,TRUE,0.210007,-0.291534,0.000000,0.228195,0.000000,0.000000,0.035000,0.010000,-0.005000,-0.210000,0.360000,-0.520000,0.065863,Hold,0.887207,0.000000,Hold,-121.000000,2.000000,Suck,-1762.500000,1818.181818,Speed,-1740.000000,1818.181818,Speed,Off,Off,0.000000,FALSE,0,,,,,0.000000,0.000000
02:12:37.014 PM 04/02/2016,Teleop Enabled,9,TRUE,-44087,NetComm_CAN_Receive.vi:5470001<APPEND>  <b>Complete call chain:</b>      NetComm_CAN_Receive.vi:5470001      WPI_CAN_PDPReceive.vi      WPI_Power Get PDP Currents.vi      Periodic Tasks.vi      Robot Main.vi,-0.000000,-0.025667,-0.000000,0.000000,TRUE,FALSE,FALSE,TRUE,FALSE,FALSE,Disabled,0.000000,0.000000,0.000000,TRUE,0.221390,-0.290634,0.000000,0.198853,0.040039,0.000000,-0.098000,0.054000,0.061000,-0.210000,0.380000,-0.520000,0.062441,Hold,0.887207,0.000000,Hold,-121.000000,2.000000,Suck,-1755.000000,1818.181818,Speed,-1732.500000,1818.181818,Speed,Off,Off,0.000000,FALSE,0,,,,,0.000000,0.000000
02:12:37.115 PM 04/02/2016,Teleop Enabled,10,TRUE,-44087,NetComm_CAN_Receive.vi:5470001<APPEND>  <b>Complete call chain:</b>      NetComm_CAN_Receive.vi:5470001      WPI_CAN_PDPReceive.vi      WPI_Power Get PDP Currents.vi      Periodic Tasks.vi      Robot Main.vi,-0.000000,-0.025667,-0.000000,0.000000,TRUE,FALSE,FALSE,TRUE,FALSE,FALSE,Disabled,0.000000,0.000000,0.000000,TRUE,0.232346,-0.288925,0.000000,0.177597,0.000000,0.000000,0.054000,-0.019000,-0.095000,-0.210000,0.320000,-0.550000,0.072390,Hold,0.887207,0.000000,Hold,-121.000000,2.000000,Suck,-1740.000000,1818.181818,Speed,-1740.000000,1818.181818,Speed,Off,Off,0.000000,FALSE,0,,,,,0.000000,0.000000
02:12:37.216 PM 04/02/2016,Teleop Enabled,10,TRUE,-44087,NetComm_CAN_Receive.vi:5470001<APPEND>  <b>Complete call chain:</b>      NetComm_CAN_Receive.vi:5470001      WPI_CAN_PDPReceive.vi      WPI_Power Get PDP Currents.vi      Periodic Tasks.vi      Robot Main.vi,-0.000000,-0.025667,-0.000000,0.000000,TRUE,FALSE,FALSE,TRUE,FALSE,FALSE,Disabled,0.000000,0.000000,0.000000,TRUE,0.240982,-0.289062,0.000000,0.215759,-0.014847,0.000000,-0.091000,-0.051000,0.012000,-0.220000,0.260000,-0.430000,0.070500,Hold,0.887207,0.000000,Hold,-121.000000,2.000000,Suck,-1740.000000,1818.181818,Speed,-1747.500000,1818.181818,Speed,Off,Off,0.000000,FALSE,0,,,,,0.000000,0.000000
02:12:37.319 PM 04/02/2016,Teleop Enabled,11,TRUE,-44087,NetComm_CAN_Receive.vi:5470001<APPEND>  <b>Complete call chain:</b>      NetComm_CAN_Receive.vi:5470001      WPI_CAN_PDPReceive.vi      WPI_Power Get PDP Currents.vi      Periodic Tasks.vi      Robot Main.vi,-0.000000,-0.025667,-0.000000,0.000000,TRUE,FALSE,FALSE,TRUE,FALSE,FALSE,Disabled,0.000000,0.000000,0.000000,TRUE,0.252197,-0.290390,0.000000,0.248993,-0.031693,0.000000,0.005000,-0.028000,-0.169000,-0.220000,0.190000,-0.250000,0.085386,Hold,0.887207,0.000000,Hold,-121.000000,2.000000,Suck,-1747.500000,1818.181818,Speed,-1740.000000,1818.181818,Speed,Off,Off,0.000000,FALSE,0,,,,,0.000000,0.000000
02:12:37.419 PM 04/02/2016,Teleop Enabled,11,TRUE,-44087,NetComm_CAN_Receive.vi:5470001<APPEND>  <b>Complete call chain:</b>      NetComm_CAN_Receive.vi:5470001      WPI_CAN_PDPReceive.vi      WPI_Power Get PDP Currents.vi      Periodic Tasks.vi      Robot Main.vi,-0.000000,-0.025667,-0.000000,0.000000,TRUE,FALSE,FALSE,TRUE,FALSE,FALSE,Disabled,0.000000,0.000000,0.000000,TRUE,0.262451,-0.291031,0.000000,0.213638,-0.014725,0.000000,-0.035000,-0.011000,-0.066000,-0.230000,0.200000,-0.220000,0.097335,Hold,0.887207,0.000000,Hold,-121.000000,2.000000,Suck,-1747.500000,1818.181818,Speed,-1740.000000,1818.181818,Speed,Off,Off,0.000000,FALSE,0,,,,,0.000000,0.000000
02:12:37.519 PM 04/02/2016,Teleop Enabled,9,TRUE,-44087,NetComm_CAN_Receive.vi:5470001<APPEND>  <b>Complete call chain:</b>      NetComm_CAN_Receive.vi:5470001      WPI_CAN_PDPReceive.vi      WPI_Power Get PDP Currents.vi      Periodic Tasks.vi      Robot Main.vi,-0.000000,-0.025667,-0.000000,0.000000,TRUE,FALSE,FALSE,TRUE,FALSE,FALSE,Disabled,0.000000,0.000000,0.000000,TRUE,0.273453,-0.291718,0.000000,0.241226,-0.027084,0.000000,-0.038000,0.003000,-0.083000,-0.250000,0.270000,-0.580000,0.089861,Hold,0.887207,0.000000,Hold,-121.000000,2.000000,Suck,-1755.000000,1818.181818,Speed,-1732.500000,1818.181818,Speed,Off,Off,0.000000,FALSE,0,,,,,0.000000,0.000000
02:12:37.620 PM 04/02/2016,Teleop Enabled,12,TRUE,-44087,NetComm_CAN_Receive.vi:5470001<APPEND>  <b>Complete call chain:</b>      NetComm_CAN_Receive.vi:5470001      WPI_CAN_PDPReceive.vi      WPI_Power Get PDP Currents.vi      Periodic Tasks.vi      Robot Main.vi,-0.000000,-0.025667,-0.000000,0.000000,TRUE,FALSE,FALSE,TRUE,FALSE,FALSE,Disabled,0.000000,0.000000,0.000000,TRUE,0.286240,-0.291931,0.000000,0.275711,-0.017227,0.000000,-0.027000,0.010000,-0.091000,-0.260000,0.410000,-0.770000,0.088808,Hold,0.887207,0.000000,Hold,-121.000000,2.000000,Suck,-1755.000000,1818.181818,Speed,-1740.000000,1818.181818,Speed,Off,Off,0.000000,FALSE,0,,,,,0.000000,0.000000
02:12:37.721 PM 04/02/2016,Teleop Enabled,8,TRUE,-44087,NetComm_CAN_Receive.vi:5470001<APPEND>  <b>Complete call chain:</b>      NetComm_CAN_Receive.vi:5470001      WPI_CAN_PDPReceive.vi      WPI_Power Get PDP Currents.vi      Periodic Tasks.vi      Robot Main.vi,-0.000000,-0.025667,-0.000000,0.000000,TRUE,FALSE,FALSE,TRUE,FALSE,FALSE,Disabled,0.000000,0.000000,0.000000,TRUE,0.303101,-0.292480,0.000000,0.285614,-0.005783,0.000000,-0.053000,0.076000,0.110000,-0.310000,0.290000,-0.580000,0.046254,Hold,0.887207,0.000000,Hold,-121.000000,2.000000,Suck,-1762.500000,1818.181818,Speed,-1740.000000,1818.181818,Speed,Off,Off,0.000000,FALSE,0,,,,,0.000000,0.000000
02:12:37.823 PM 04/02/2016,Teleop Enabled,9,TRUE,-44087,NetComm_CAN_Receive.vi:5470001<APPEND>  <b>Complete call chain:</b>      NetComm_CAN_Receive.vi:5470001      WPI_CAN_PDPReceive.vi      WPI_Power Get PDP Currents.vi      Periodic Tasks.vi      Robot Main.vi,-0.000000,-0.025667,-0.000000,0.000000,TRUE,FALSE,FALSE,TRUE,FALSE,FALSE,Disabled,0.000000,0.000000,0.000000,TRUE,0.316391,-0.292542,0.000000,0.250992,-0.007248,0.000000,0.072000,-0.004000,-0.002000,-0.510000,0.110000,-0.270000,-0.136012,Hold,0.887207,0.000000,Hold,-121.000000,2.000000,Suck,-1755.000000,1818.181818,Speed,-1740.000000,1818.181818,Speed,Off,Off,0.000000,FALSE,0,,,,,0.000000,0.000000
02:12:37.924 PM 04/02/2016,Teleop Enabled,6,TRUE,-44087,NetComm_CAN_Receive.vi:5470001<APPEND>  <b>Complete call chain:</b>      NetComm_CAN_Receive.vi:5470001      WPI_CAN_PDPReceive.vi      WPI_Power Get PDP Currents.vi      Periodic Tasks.vi      Robot Main.vi,-0.000000,-0.025667,-0.000000,0.000000,TRUE,FALSE,FALSE,TRUE,FALSE,FALSE,Disabled,0.000000,0.000000,0.000000,TRUE,0.330338,-0.292130,0.000000,0.241928,0.035553,0.000000,-0.030000,0.054000,-0.061000,-1.110000,0.020000,-0.140000,-0.640781,Hold,0.887207,0.000000,Hold,-121.000000,2.000000,Suck,-1740.000000,1818.181818,Speed,-1740.000000,1818.181818,Speed,Off,Off,0.000000,FALSE,0,,,,,0.000000,0.000000
02:12:38.024 PM 04/02/2016,Teleop Enabled,9,TRUE,-44087,NetComm_CAN_Receive.vi:5470001<APPEND>  <b>Complete call chain:</b>      NetComm_CAN_Receive.vi:5470001      WPI_CAN_PDPReceive.vi      WPI_Power Get PDP Currents.vi      Periodic Tasks.vi      Robot Main.vi,-0.000000,-0.025667,-0.000000,0.000000,TRUE,FALSE,FALSE,TRUE,FALSE,FALSE,Disabled,0.000000,0.000000,0.000000,TRUE,0.340332,-0.289902,0.000000,0.256638,0.059601,0.000000,-0.040000,0.013000,-0.048000,-1.370000,0.220000,-0.280000,-0.941863,Hold,0.887207,0.000000,Hold,-121.000000,2.000000,Suck,-1740.000000,1818.181818,Speed,-1740.000000,1818.181818,Speed,Off,Off,0.000000,FALSE,0,,,,,0.000000,0.000000
02:12:38.124 PM 04/02/2016,Teleop Enabled,9,TRUE,-44087,NetComm_CAN_Receive.vi:5470001<APPEND>  <b>Complete call chain:</b>      NetComm_CAN_Receive.vi:5470001      WPI_CAN_PDPReceive.vi      WPI_Power Get PDP Currents.vi      Periodic Tasks.vi      Robot Main.vi,-0.000000,-0.025667,-0.000000,0.000000,TRUE,FALSE,FALSE,TRUE,FALSE,FALSE,Disabled,0.000000,0.000000,0.000000,TRUE,0.355515,-0.289337,0.000000,0.247437,-0.009476,0.000000,-0.098000,-0.012000,-0.009000,-1.670000,0.180000,-0.400000,-1.206162,Hold,0.887207,0.000000,Hold,-121.000000,2.000000,Suck,-1755.000000,1818.181818,Speed,-1740.000000,1818.181818,Speed,Off,Off,0.000000,FALSE,0,,,,,0.000000,0.000000
02:12:38.225 PM 04/02/2016,Teleop Enabled,10,TRUE,-44087,NetComm_CAN_Receive.vi:5470001<APPEND>  <b>Complete call chain:</b>      NetComm_CAN_Receive.vi:5470001      WPI_CAN_PDPReceive.vi      WPI_Power Get PDP Currents.vi      Periodic Tasks.vi      Robot Main.vi,-0.000000,-0.025667,-0.000000,0.000000,TRUE,FALSE,FALSE,TRUE,FALSE,FALSE,Disabled,0.000000,0.000000,0.000000,TRUE,0.364639,-0.289368,0.000000,0.226440,0.001862,0.000000,0.027000,-0.032000,-0.041000,-2.180000,0.070000,-0.280000,-1.686513,Hold,0.887207,0.000000,Hold,-121.000000,2.000000,Suck,-1755.000000,1818.181818,Speed,-1740.000000,1818.181818,Speed,Off,Off,0.000000,FALSE,0,,,,,0.000000,0.000000
02:12:38.324 PM 04/02/2016,Teleop Enabled,10,TRUE,-44087,NetComm_CAN_Receive.vi:5470001<APPEND>  <b>Complete call chain:</b>      NetComm_CAN_Receive.vi:5470001      WPI_CAN_PDPReceive.vi      WPI_Power Get PDP Currents.vi      Periodic Tasks.vi      Robot Main.vi,-0.000000,-0.025667,-0.000000,0.000000,TRUE,FALSE,FALSE,TRUE,FALSE,FALSE,Disabled,0.000000,0.000000,0.000000,TRUE,0.377151,-0.288986,0.000000,0.262238,0.005386,0.000000,0.006000,-0.081000,0.055000,-2.620000,0.260000,-0.350000,-2.149957,Hold,0.887207,0.000000,Hold,-121.000000,2.000000,Suck,-1755.000000,1818.181818,Speed,-1747.500000,1818.181818,Speed,Off,Off,0.000000,FALSE,0,,,,,0.000000,0.000000
02:12:38.424 PM 04/02/2016,Teleop Enabled,9,TRUE,-44087,NetComm_CAN_Receive.vi:5470001<APPEND>  <b>Complete call chain:</b>      NetComm_CAN_Receive.vi:5470001      WPI_CAN_PDPReceive.vi      WPI_Power Get PDP Currents.vi      Periodic Tasks.vi      Robot Main.vi,-0.000000,-0.025667,-0.000000,0.000000,TRUE,FALSE,FALSE,TRUE,FALSE,FALSE,Disabled,0.000000,0.000000,0.000000,TRUE,0.377304,-0.288849,0.000000,0.008148,0.001389,0.000000,0.068000,0.075000,0.072000,-2.800000,0.340000,-0.470000,-2.354565,Hold,0.887207,0.000000,Hold,-121.000000,2.000000,Suck,-1740.000000,1818.181818,Speed,-1747.500000,1818.181818,Speed,Off,Off,0.000000,FALSE,0,,,,,0.000000,0.000000
02:12:38.524 PM 04/02/2016,Teleop Enabled,9,TRUE,-44087,NetComm_CAN_Receive.vi:5470001<APPEND>  <b>Complete call chain:</b>      NetComm_CAN_Receive.vi:5470001      WPI_CAN_PDPReceive.vi      WPI_Power Get PDP Currents.vi      Periodic Tasks.vi      Robot Main.vi,-0.000000,-0.025667,-0.000000,0.000000,TRUE,FALSE,FALSE,TRUE,FALSE,FALSE,Disabled,0.000000,0.000000,0.000000,TRUE,0.378693,-0.288269,0.000000,0.035400,0.022476,0.000000,-0.044000,0.091000,-0.056000,-2.880000,0.360000,-0.290000,-2.432615,Hold,0.887207,0.000000,Hold,-121.000000,2.000000,Suck,-1762.500000,1818.181818,Speed,-1732.500000,1818.181818,Speed,Off,Off,0.000000,FALSE,0,,,,,0.000000,0.000000
02:12:38.624 PM 04/02/2016,Teleop Enabled,10,TRUE,-44087,NetComm_CAN_Receive.vi:5470001<APPEND>  <b>Complete call chain:</b>      NetComm_CAN_Receive.vi:5470001      WPI_CAN_PDPReceive.vi      WPI_Power Get PDP Currents.vi      Periodic Tasks.vi      Robot Main.vi,-0.000000,-0.025667,-0.000000,0.000000,TRUE,FALSE,FALSE,TRUE,FALSE,FALSE,Disabled,0.000000,0.000000,0.000000,TRUE,0.379852,-0.286255,0.000000,0.005524,0.031769,0.000000,-0.040000,0.063000,-0.034000,-2.890000,0.360000,-0.310000,-2.458145,Hold,0.887207,0.000000,Hold,-121.000000,2.000000,Suck,-1777.500000,1818.181818,Speed,-1725.000000,1818.181818,Speed,Off,Off,0.000000,FALSE,0,,,,,0.000000,0.000000
02:12:38.724 PM 04/02/2016,Teleop Enabled,10,TRUE,-44087,NetComm_CAN_Receive.vi:5470001<APPEND>  <b>Complete call chain:</b>      NetComm_CAN_Receive.vi:5470001      WPI_CAN_PDPReceive.vi      WPI_Power Get PDP Currents.vi      Periodic Tasks.vi      Robot Main.vi,-0.000000,-0.025667,-0.000000,0.000000,TRUE,FALSE,FALSE,TRUE,FALSE,FALSE,Disabled,0.000000,0.000000,0.000000,TRUE,0.379852,-0.286255,0.000000,0.005524,0.031769,0.000000,-0.040000,0.063000,-0.034000,-2.890000,0.360000,-0.310000,-2.496791,Hold,0.887207,0.000000,Hold,-121.000000,2.000000,Suck,-1770.000000,1818.181818,Speed,-1732.500000,1818.181818,Speed,Off,Off,0.000000,FALSE,0,,,,,0.000000,0.000000
02:12:38.825 PM 04/02/2016,Teleop Enabled,7,TRUE,-44087,NetComm_CAN_Receive.vi:5470001<APPEND>  <b>Complete call chain:</b>      NetComm_CAN_Receive.vi:5470001      WPI_CAN_PDPReceive.vi      WPI_Power Get PDP Currents.vi      Periodic Tasks.vi      Robot Main.vi,-0.000000,-0.025667,-0.000000,0.000000,TRUE,FALSE,FALSE,TRUE,FALSE,FALSE,Disabled,0.000000,0.000000,0.000000,TRUE,0.379395,-0.282867,0.000000,0.001572,0.023788,0.000000,-0.033000,0.044000,0.048000,-2.920000,0.230000,-0.280000,-2.471388,Hold,0.887207,0.000000,Hold,-121.000000,2.000000,Suck,-1770.000000,1818.181818,Speed,-1732.500000,1818.181818,Speed,Off,Off,0.000000,FALSE,0,,,,,0.000000,0.000000
02:12:38.925 PM 04/02/2016,Teleop Enabled,9,TRUE,-44087,NetComm_CAN_Receive.vi:5470001<APPEND>  <b>Complete call chain:</b>      NetComm_CAN_Receive.vi:5470001      WPI_CAN_PDPReceive.vi      WPI_Power Get PDP Currents.vi      Periodic Tasks.vi      Robot Main.vi,-0.000000,-0.025667,-0.000000,0.000000,TRUE,FALSE,FALSE,TRUE,FALSE,FALSE,Disabled,0.000000,0.000000,0.000000,TRUE,0.379272,-0.281921,0.000000,-0.006073,-0.001678,0.000000,-0.014000,0.039000,-0.048000,-2.810000,0.100000,-0.290000,-2.406111,Hold,0.887207,0.000000,Hold,-121.000000,2.000000,Suck,-1770.000000,1818.181818,Speed,-1725.000000,1818.181818,Speed,Off,Off,0.000000,FALSE,0,,,,,0.000000,0.000000
02:12:39.025 PM 04/02/2016,Teleop Enabled,10,TRUE,-44087,NetComm_CAN_Receive.vi:5470001<APPEND>  <b>Complete call chain:</b>      NetComm_CAN_Receive.vi:5470001      WPI_CAN_PDPReceive.vi      WPI_Power Get PDP Currents.vi      Periodic Tasks.vi      Robot Main.vi,-0.000000,-0.025667,-0.000000,0.000000,TRUE,FALSE,FALSE,TRUE,FALSE,FALSE,Disabled,0.000000,0.000000,0.000000,TRUE,0.378738,-0.281845,0.000000,0.000000,0.006882,0.000000,0.114000,0.112000,-0.034000,-2.370000,-0.240000,-0.450000,-2.069869,Hold,0.887207,0.000000,Hold,-121.000000,2.000000,Suck,-1770.000000,1818.181818,Speed,-1732.500000,1818.181818,Speed,Off,Off,0.000000,FALSE,0,,,,,0.000000,0.000000
02:12:39.125 PM 04/02/2016,Teleop Enabled,12,TRUE,-44087,NetComm_CAN_Receive.vi:5470001<APPEND>  <b>Complete call chain:</b>      NetComm_CAN_Receive.vi:5470001      WPI_CAN_PDPReceive.vi      WPI_Power Get PDP Currents.vi      Periodic Tasks.vi      Robot Main.vi,-0.000000,-0.025667,-0.000000,0.000000,TRUE,FALSE,FALSE,TRUE,FALSE,FALSE,Disabled,0.000000,0.000000,0.000000,TRUE,0.381073,-0.280991,0.000000,0.085434,-0.001648,0.000000,0.068000,0.048000,-0.057000,-1.900000,0.100000,-0.900000,-1.548810,Hold,0.887207,0.000000,Hold,-121.000000,2.000000,Suck,-1770.000000,1818.181818,Speed,-1732.500000,1818.181818,Speed,Off,Off,0.000000,FALSE,0,,,,,0.000000,0.000000
02:12:39.226 PM 04/02/2016,Teleop Enabled,11,TRUE,-44087,NetComm_CAN_Receive.vi:5470001<APPEND>  <b>Complete call chain:</b>      NetComm_CAN_Receive.vi:5470001      WPI_CAN_PDPReceive.vi      WPI_Power Get PDP Currents.vi      Periodic Tasks.vi      Robot Main.vi,-0.000000,-0.025667,-0.000000,0.000000,TRUE,FALSE,FALSE,TRUE,FALSE,FALSE,Disabled,0.000000,0.000000,0.000000,TRUE,0.388229,-0.282104,0.000000,0.122147,-0.028702,0.000000,-0.023000,0.084000,-0.053000,-1.880000,-0.040000,-0.790000,-1.518760,Hold,0.887207,0.000000,Hold,-121.000000,2.000000,Suck,-1770.000000,1818.181818,Speed,-1732.500000,1818.181818,Speed,Off,Off,0.000000,FALSE,0,,,,,0.000000,0.000000
02:12:39.326 PM 04/02/2016,Teleop Enabled,9,TRUE,-44087,NetComm_CAN_Receive.vi:5470001<APPEND>  <b>Complete call chain:</b>      NetComm_CAN_Receive.vi:5470001      WPI_CAN_PDPReceive.vi      WPI_Power Get PDP Currents.vi      Periodic Tasks.vi      Robot Main.vi,-0.000000,-0.025667,-0.000000,0.000000,TRUE,FALSE,FALSE,TRUE,FALSE,FALSE,Disabled,0.000000,0.000000,0.000000,TRUE,0.392517,-0.282852,0.000000,0.108398,-0.021561,0.000000,-0.023000,0.056000,-0.003000,-1.880000,0.030000,-0.790000,-1.511183,Hold,0.887207,0.000000,Hold,-121.000000,2.000000,Suck,-1770.000000,1818.181818,Speed,-1740.000000,1818.181818,Speed,Off,Off,0.000000,FALSE,0,,,,,0.000000,0.000000
02:12:39.426 PM 04/02/2016,Teleop Enabled,10,TRUE,-44087,NetComm_CAN_Receive.vi:5470001<APPEND>  <b>Complete call chain:</b>      NetComm_CAN_Receive.vi:5470001      WPI_CAN_PDPReceive.vi      WPI_Power Get PDP Currents.vi      Periodic Tasks.vi      Robot Main.vi,-0.000000,-0.025667,-0.000000,0.000000,TRUE,FALSE,FALSE,TRUE,FALSE,FALSE,Disabled,0.000000,0.000000,0.000000,TRUE,0.397812,-0.284073,0.000000,0.095413,-0.038116,0.000000,0.093000,-0.091000,-0.012000,-1.880000,0.030000,-0.790000,-1.537773,Hold,0.887207,0.000000,Hold,-121.000000,2.000000,Suck,-1770.000000,1818.181818,Speed,-1747.500000,1818.181818,Speed,Off,Off,0.000000,FALSE,0,,,,,0.000000,0.000000
02:12:39.527 PM 04/02/2016,Teleop Enabled,10,TRUE,-44087,NetComm_CAN_Receive.vi:5470001<APPEND>  <b>Complete call chain:</b>      NetComm_CAN_Receive.vi:5470001      WPI_CAN_PDPReceive.vi      WPI_Power Get PDP Currents.vi      Periodic Tasks.vi      Robot Main.vi,-0.000000,-0.025667,-0.000000,0.000000,TRUE,FALSE,FALSE,TRUE,FALSE,FALSE,Disabled,0.000000,0.000000,0.000000,TRUE,0.399475,-0.286606,0.000000,-0.008896,-0.034744,0.000000,0.127000,0.027000,0.018000,-1.890000,-0.090000,-0.690000,-1.538132,Hold,0.887207,0.000000,Hold,-121.000000,2.000000,Suck,-1770.000000,1818.181818,Speed,-1762.500000,1818.181818,Speed,Off,Off,0.000000,FALSE,0,,,,,0.000000,0.000000
02:12:39.628 PM 04/02/2016,Teleop Enabled,10,TRUE,-44087,NetComm_CAN_Receive.vi:5470001<APPEND>  <b>Complete call chain:</b>      NetComm_CAN_Receive.vi:5470001      WPI_CAN_PDPReceive.vi      WPI_Power Get PDP Currents.vi      Periodic Tasks.vi      Robot Main.vi,-0.000000,-0.025667,-0.000000,0.000000,TRUE,FALSE,FALSE,TRUE,FALSE,FALSE,Disabled,0.000000,0.000000,0.000000,TRUE,0.400131,-0.287369,0.000000,0.024307,-0.016571,0.000000,0.127000,0.027000,0.018000,-1.890000,-0.090000,-0.690000,-1.556470,Hold,0.887207,0.000000,Hold,-121.000000,2.000000,Suck,-1777.500000,1818.181818,Speed,-1755.000000,1818.181818,Speed,Off,Off,0.000000,FALSE,0,,,,,0.000000,0.000000
02:12:39.729 PM 04/02/2016,Teleop Enabled,11,TRUE,-44087,NetComm_CAN_Receive.vi:5470001<APPEND>  <b>Complete call chain:</b>      NetComm_CAN_Receive.vi:5470001      WPI_CAN_PDPReceive.vi      WPI_Power Get PDP Currents.vi      Periodic Tasks.vi      Robot Main.vi,-0.000000,-0.025667,-0.000000,0.000000,TRUE,FALSE,FALSE,TRUE,FALSE,FALSE,Disabled,0.000000,0.000000,0.000000,TRUE,0.400131,-0.287369,0.000000,0.024307,-0.016571,0.000000,-0.064000,0.060000,-0.002000,-1.900000,-0.040000,-0.840000,-1.580568,Hold,0.887207,0.000000,Hold,-121.000000,2.000000,Suck,-1770.000000,1818.181818,Speed,-1747.500000,1818.181818,Speed,Off,Off,0.000000,FALSE,0,,,,,0.000000,0.000000
02:12:39.829 PM 04/02/2016,Teleop Enabled,10,TRUE,-44087,NetComm_CAN_Receive.vi:5470001<APPEND>  <b>Complete call chain:</b>      NetComm_CAN_Receive.vi:5470001      WPI_CAN_PDPReceive.vi      WPI_Power Get PDP Currents.vi      Periodic Tasks.vi      Robot Main.vi,-0.000000,-0.025667,-0.000000,0.000000,TRUE,FALSE,FALSE,TRUE,FALSE,FALSE,Disabled,0.000000,0.000000,0.000000,TRUE,0.403748,-0.288300,0.000000,0.040405,-0.003815,0.000000,0.116000,-0.072000,-0.109000,-1.910000,-0.080000,-0.760000,-1.588816,Hold,0.887207,0.000000,Hold,-121.000000,2.000000,Suck,-1770.000000,1818.181818,Speed,-1747.500000,1818.181818,Speed,Off,Off,0.000000,FALSE,0,,,,,0.000000,0.000000
02:12:39.929 PM 04/02/2016,Teleop Enabled,10,TRUE,-44087,NetComm_CAN_Receive.vi:5470001<APPEND>  <b>Complete call chain:</b>      NetComm_CAN_Receive.vi:5470001      WPI_CAN_PDPReceive.vi      WPI_Power Get PDP Currents.vi      Periodic Tasks.vi      Robot Main.vi,-0.000000,-0.025667,-0.000000,0.000000,TRUE,FALSE,FALSE,TRUE,FALSE,FALSE,Disabled,0.000000,0.000000,0.000000,TRUE,0.403748,-0.288300,0.000000,0.040405,-0.003815,0.000000,-0.122000,-0.049000,0.042000,-1.910000,-0.060000,-0.830000,-1.609017,Hold,0.887207,0.000000,Hold,-121.000000,2.000000,Suck,-1762.500000,1818.181818,Speed,-1755.000000,1818.181818,Speed,Off,Off,0.000000,FALSE,0,,,,,0.000000,0.000000
02:12:40.029 PM 04/02/2016,Teleop Enabled,11,TRUE,-44087,NetComm_CAN_Receive.vi:5470001<APPEND>  <b>Complete call chain:</b>      NetComm_CAN_Receive.vi:5470001      WPI_CAN_PDPReceive.vi      WPI_Power Get PDP Currents.vi      Periodic Tasks.vi      Robot Main.vi,-0.000000,-0.025667,-0.000000,0.000000,TRUE,FALSE,FALSE,TRUE,FALSE,FALSE,Disabled,0.000000,0.000000,0.000000,TRUE,0.403809,-0.289185,0.000000,-0.022446,-0.004196,0.000000,0.068000,-0.007000,0.038000,-1.920000,-0.140000,-0.710000,-1.614897,Hold,0.887207,0.000000,Hold,-121.000000,2.000000,Suck,-1762.500000,1818.181818,Speed,-1747.500000,1818.181818,Speed,Off,Off,0.000000,FALSE,0,,,,,0.000000,0.000000
02:12:40.129 PM 04/02/2016,Teleop Enabled,10,TRUE,-44087,NetComm_CAN_Receive.vi:5470001<APPEND>  <b>Complete call chain:</b>      NetComm_CAN_Receive.vi:5470001      WPI_CAN_PDPReceive.vi      WPI_Power Get PDP Currents.vi      Periodic Tasks.vi      Robot Main.vi,-0.000000,-0.025667,-0.000000,0.000000,TRUE,FALSE,FALSE,TRUE,FALSE,FALSE,Disabled,0.000000,0.000000,0.000000,TRUE,0.402161,-0.289398,0.000000,-0.031235,0.009827,0.000000,0.004000,-0.066000,0.008000,-1.920000,-0.130000,-0.740000,-1.608625,Hold,0.887207,0.000000,Hold,-121.000000,2.000000,Suck,-1770.000000,1818.181818,Speed,-1725.000000,1818.181818,Speed,Off,Off,0.000000,FALSE,0,,,,,0.000000,0.000000
02:12:40.231 PM 04/02/2016,Teleop Enabled,10,TRUE,-44087,NetComm_CAN_Receive.vi:5470001<APPEND>  <b>Complete call chain:</b>      NetComm_CAN_Receive.vi:5470001      WPI_CAN_PDPReceive.vi      WPI_Power Get PDP Currents.vi      Periodic Tasks.vi      Robot Main.vi,-0.000000,-0.025667,-0.000000,0.000000,TRUE,FALSE,FALSE,TRUE,FALSE,FALSE,Disabled,0.000000,0.000000,0.000000,TRUE,0.401520,-0.288803,0.000000,-0.010468,0.031937,0.000000,0.055000,-0.133000,0.015000,-1.930000,-0.140000,-0.710000,-1.607120,Hold,0.887207,0.000000,Hold,-121.000000,2.000000,Suck,-1770.000000,1818.181818,Speed,-1725.000000,1818.181818,Speed,Off,Off,0.000000,FALSE,0,,,,,0.000000,0.000000
02:12:40.333 PM 04/02/2016,Teleop Enabled,9,TRUE,-44087,NetComm_CAN_Receive.vi:5470001<APPEND>  <b>Complete call chain:</b>      NetComm_CAN_Receive.vi:5470001      WPI_CAN_PDPReceive.vi      WPI_Power Get PDP Currents.vi      Periodic Tasks.vi      Robot Main.vi,-0.000000,-0.025667,-0.000000,0.000000,TRUE,FALSE,FALSE,TRUE,FALSE,FALSE,Disabled,0.000000,0.000000,0.000000,TRUE,0.401520,-0.288803,0.000000,-0.010468,0.031937,0.000000,0.034000,-0.107000,0.075000,-1.930000,-0.120000,-0.730000,-1.622440,Hold,0.887207,0.000000,Hold,-121.000000,2.000000,Suck,-1762.500000,1818.181818,Speed,-1732.500000,1818.181818,Speed,Off,Off,0.000000,FALSE,0,,,,,0.000000,0.000000
02:12:40.434 PM 04/02/2016,Teleop Enabled,10,TRUE,-44087,NetComm_CAN_Receive.vi:5470001<APPEND>  <b>Complete call chain:</b>      NetComm_CAN_Receive.vi:5470001      WPI_CAN_PDPReceive.vi      WPI_Power Get PDP Currents.vi      Periodic Tasks.vi      Robot Main.vi,-0.000000,-0.025667,-0.000000,0.000000,TRUE,FALSE,FALSE,TRUE,FALSE,FALSE,Disabled,0.000000,0.000000,0.000000,TRUE,0.401749,-0.284332,0.000000,0.007233,0.048157,0.000000,0.123000,-0.026000,0.000000,-1.940000,-0.140000,-0.750000,-1.644871,Hold,0.887207,0.000000,Hold,-121.000000,2.000000,Suck,-1762.500000,1818.181818,Speed,-1747.500000,1818.181818,Speed,Off,Off,0.000000,FALSE,0,,,,,0.000000,0.000000
02:12:40.534 PM 04/02/2016,Teleop Enabled,10,TRUE,-44087,NetComm_CAN_Receive.vi:5470001<APPEND>  <b>Complete call chain:</b>      NetComm_CAN_Receive.vi:5470001      WPI_CAN_PDPReceive.vi      WPI_Power Get PDP Currents.vi      Periodic Tasks.vi      Robot Main.vi,-0.000000,-0.025667,-0.000000,0.000000,TRUE,FALSE,FALSE,TRUE,FALSE,FALSE,Disabled,0.000000,0.000000,0.000000,TRUE,0.401749,-0.284332,0.000000,0.007233,0.048157,0.000000,0.007000,0.012000,0.060000,-1.940000,-0.170000,-0.710000,-1.662194,Hold,0.887207,0.000000,Hold,-121.000000,2.000000,Suck,-1770.000000,1818.181818,Speed,-1747.500000,1818.181818,Speed,Off,Off,0.000000,FALSE,0,,,,,0.000000,0.000000
02:12:40.634 PM 04/02/2016,Teleop Enabled,11,TRUE,-44087,NetComm_CAN_Receive.vi:5470001<APPEND>  <b>Complete call chain:</b>      NetComm_CAN_Receive.vi:5470001      WPI_CAN_PDPReceive.vi      WPI_Power Get PDP Currents.vi      Periodic Tasks.vi      Robot Main.vi,-0.000000,-0.025667,-0.000000,0.000000,TRUE,FALSE,FALSE,TRUE,FALSE,FALSE,Disabled,0.000000,0.000000,0.000000,TRUE,0.401749,-0.281799,0.000000,0.012161,0.036118,0.000000,0.002000,0.028000,-0.016000,-1.950000,-0.140000,-0.790000,-1.662194,Hold,0.887207,0.000000,Hold,-121.000000,2.000000,Suck,-1770.000000,1818.181818,Speed,-1755.000000,1818.181818,Speed,Off,Off,0.000000,FALSE,0,,,,,0.000000,0.000000
02:12:40.735 PM 04/02/2016,Teleop Enabled,11,TRUE,-44087,NetComm_CAN_Receive.vi:5470001<APPEND>  <b>Complete call chain:</b>      NetComm_CAN_Receive.vi:5470001      WPI_CAN_PDPReceive.vi      WPI_Power Get PDP Currents.vi      Periodic Tasks.vi      Robot Main.vi,-0.000000,-0.025667,-0.000000,0.000000,TRUE,FALSE,FALSE,TRUE,FALSE,FALSE,Disabled,0.000000,0.000000,0.000000,TRUE,0.402100,-0.279449,0.000000,0.002655,0.053146,0.000000,-0.145000,0.036000,0.073000,-1.950000,-0.140000,-0.780000,-1.682578,Hold,0.887207,0.000000,Hold,-121.000000,2.000000,Suck,-1770.000000,1818.181818,Speed,-1762.500000,1818.181818,Speed,Off,Off,0.000000,FALSE,0,,,,,0.000000,0.000000
02:12:40.836 PM 04/02/2016,Teleop Enabled,11,TRUE,-44087,NetComm_CAN_Receive.vi:5470001<APPEND>  <b>Complete call chain:</b>      NetComm_CAN_Receive.vi:5470001      WPI_CAN_PDPReceive.vi      WPI_Power Get PDP Currents.vi      Periodic Tasks.vi      Robot Main.vi,-0.000000,-0.025667,-0.000000,0.000000,TRUE,FALSE,FALSE,TRUE,FALSE,FALSE,Disabled,0.000000,0.000000,0.000000,TRUE,0.400589,-0.276978,0.000000,-0.047012,0.053284,0.000000,0.079000,-0.054000,0.015000,-1.970000,-0.190000,-0.740000,-1.697298,Hold,0.887207,0.000000,Hold,-121.000000,2.000000,Suck,-1762.500000,1818.181818,Speed,-1747.500000,1818.181818,Speed,Off,Off,0.000000,FALSE,0,,,,,0.000000,0.000000
02:12:40.939 PM 04/02/2016,Teleop Enabled,9,TRUE,-44087,NetComm_CAN_Receive.vi:5470001<APPEND>  <b>Complete call chain:</b>      NetComm_CAN_Receive.vi:5470001      WPI_CAN_PDPReceive.vi      WPI_Power Get PDP Currents.vi      Periodic Tasks.vi      Robot Main.vi,-0.000000,-0.025667,-0.000000,0.000000,TRUE,FALSE,FALSE,TRUE,FALSE,FALSE,Disabled,0.000000,0.000000,0.000000,TRUE,0.398285,-0.275192,0.000000,-0.047714,0.029434,0.000000,-0.064000,-0.034000,-0.003000,-1.980000,-0.190000,-0.740000,-1.716081,Hold,0.887207,0.000000,Hold,-121.000000,2.000000,Suck,-1762.500000,1818.181818,Speed,-1725.000000,1818.181818,Speed,Off,Off,0.000000,FALSE,0,,,,,0.000000,0.000000
02:12:41.040 PM 04/02/2016,Teleop Enabled,10,TRUE,-44087,NetComm_CAN_Receive.vi:5470001<APPEND>  <b>Complete call chain:</b>      NetComm_CAN_Receive.vi:5470001      WPI_CAN_PDPReceive.vi      WPI_Power Get PDP Currents.vi      Periodic Tasks.vi      Robot Main.vi,-0.000000,-0.025667,-0.000000,0.000000,TRUE,FALSE,FALSE,TRUE,FALSE,FALSE,Disabled,0.000000,0.000000,0.000000,TRUE,0.395905,-0.273849,0.000000,-0.051956,0.036285,0.000000,0.040000,-0.098000,-0.013000,-1.980000,-0.170000,-0.750000,-1.716398,Hold,0.887207,0.000000,Hold,-121.000000,2.000000,Suck,-1755.000000,1818.181818,Speed,-1725.000000,1818.181818,Speed,Off,Off,0.000000,FALSE,0,,,,,0.000000,0.000000
02:12:41.141 PM 04/02/2016,Teleop Enabled,10,TRUE,-44087,NetComm_CAN_Receive.vi:5470001<APPEND>  <b>Complete call chain:</b>      NetComm_CAN_Receive.vi:5470001      WPI_CAN_PDPReceive.vi      WPI_Power Get PDP Currents.vi      Periodic Tasks.vi      Robot Main.vi,-0.000000,-0.025667,-0.000000,0.000000,TRUE,FALSE,FALSE,TRUE,FALSE,FALSE,Disabled,0.000000,0.000000,0.000000,TRUE,0.393753,-0.272415,0.000000,-0.035873,0.047958,0.000000,-0.044000,-0.033000,-0.021000,-1.990000,-0.160000,-0.720000,-1.731607,Hold,0.887207,0.000000,Hold,-121.000000,2.000000,Suck,-1755.000000,1818.181818,Speed,-1732.500000,1818.181818,Speed,Off,Off,0.000000,FALSE,0,,,,,0.000000,0.000000
02:12:41.242 PM 04/02/2016,Teleop Enabled,9,TRUE,-44087,NetComm_CAN_Receive.vi:5470001<APPEND>  <b>Complete call chain:</b>      NetComm_CAN_Receive.vi:5470001      WPI_CAN_PDPReceive.vi      WPI_Power Get PDP Currents.vi      Periodic Tasks.vi      Robot Main.vi,-0.000000,-0.025667,-0.000000,0.000000,TRUE,FALSE,FALSE,TRUE,FALSE,FALSE,Disabled,0.000000,0.000000,0.000000,TRUE,0.392120,-0.270599,0.000000,-0.021088,0.000000,0.000000,0.070000,-0.095000,-0.027000,-2.040000,-0.120000,-0.710000,-1.791222,Hold,0.887207,0.000000,Hold,-121.000000,2.000000,Suck,-1770.000000,1818.181818,Speed,-1740.000000,1818.181818,Speed,Off,Off,0.000000,FALSE,0,,,,,0.000000,0.000000
02:12:41.344 PM 04/02/2016,Teleop Enabled,11,TRUE,-44087,NetComm_CAN_Receive.vi:5470001<APPEND>  <b>Complete call chain:</b>      NetComm_CAN_Receive.vi:5470001      WPI_CAN_PDPReceive.vi      WPI_Power Get PDP Currents.vi      Periodic Tasks.vi      Robot Main.vi,-0.000000,-0.025667,-0.000000,0.000000,TRUE,FALSE,FALSE,TRUE,FALSE,FALSE,Disabled,0.000000,0.000000,0.000000,TRUE,0.392395,-0.271469,0.000000,0.030228,-0.025101,0.000000,0.049000,-0.022000,-0.004000,-2.390000,0.010000,-0.780000,-2.046763,Hold,0.887207,0.000000,Hold,-121.000000,2.000000,Suck,-1770.000000,1818.181818,Speed,-1740.000000,1818.181818,Speed,Off,Off,0.000000,FALSE,0,,,,,0.000000,0.000000
02:12:41.444 PM 04/02/2016,Teleop Enabled,9,TRUE,-44087,NetComm_CAN_Receive.vi:5470001<APPEND>  <b>Complete call chain:</b>      NetComm_CAN_Receive.vi:5470001      WPI_CAN_PDPReceive.vi      WPI_Power Get PDP Currents.vi      Periodic Tasks.vi      Robot Main.vi,-0.000000,-0.025667,-0.000000,0.000000,TRUE,FALSE,FALSE,TRUE,FALSE,FALSE,Disabled,0.000000,0.000000,0.000000,TRUE,0.394501,-0.271988,0.000000,0.059509,-0.008575,0.000000,0.107000,0.026000,0.035000,-2.960000,0.130000,-0.740000,-2.541610,Hold,0.887207,0.000000,Hold,-121.000000,2.000000,Suck,-1777.500000,1818.181818,Speed,-1725.000000,1818.181818,Speed,Off,Off,0.000000,FALSE,0,,,,,0.000000,0.000000
02:12:41.544 PM 04/02/2016,Teleop Enabled,10,TRUE,-44087,NetComm_CAN_Receive.vi:5470001<APPEND>  <b>Complete call chain:</b>      NetComm_CAN_Receive.vi:5470001      WPI_CAN_PDPReceive.vi      WPI_Power Get PDP Currents.vi      Periodic Tasks.vi      Robot Main.vi,-0.000000,-0.025667,-0.000000,0.000000,TRUE,FALSE,FALSE,TRUE,FALSE,FALSE,Disabled,0.000000,0.000000,0.000000,TRUE,0.397980,-0.271027,0.000000,0.052292,0.028442,0.000000,0.018000,0.034000,0.052000,-3.570000,0.140000,-0.720000,-3.147063,Hold,0.887207,0.000000,Hold,-121.000000,2.000000,Suck,-1770.000000,1818.181818,Speed,-1732.500000,1818.181818,Speed,Off,Off,0.000000,FALSE,0,,,,,0.000000,0.000000
02:12:41.645 PM 04/02/2016,Teleop Enabled,9,TRUE,-44087,NetComm_CAN_Receive.vi:5470001<APPEND>  <b>Complete call chain:</b>      NetComm_CAN_Receive.vi:5470001      WPI_CAN_PDPReceive.vi      WPI_Power Get PDP Currents.vi      Periodic Tasks.vi      Robot Main.vi,-0.000000,-0.025667,-0.000000,0.000000,TRUE,FALSE,FALSE,TRUE,FALSE,FALSE,Disabled,0.000000,0.000000,0.000000,TRUE,0.398621,-0.268906,0.000000,0.015335,0.043915,0.000000,-0.015000,0.067000,-0.003000,-3.950000,0.110000,-0.690000,-3.580546,Hold,0.887207,0.000000,Hold,-121.000000,2.000000,Suck,-1770.000000,1818.181818,Speed,-1747.500000,1818.181818,Speed,Off,Off,0.000000,FALSE,0,,,,,0.000000,0.000000
02:12:41.745 PM 04/02/2016,Teleop Enabled,11,TRUE,-44087,NetComm_CAN_Receive.vi:5470001<APPEND>  <b>Complete call chain:</b>      NetComm_CAN_Receive.vi:5470001      WPI_CAN_PDPReceive.vi      WPI_Power Get PDP Currents.vi      Periodic Tasks.vi      Robot Main.vi,-0.000000,-0.025667,-0.000000,0.000000,TRUE,FALSE,FALSE,TRUE,FALSE,FALSE,Disabled,0.000000,0.000000,0.000000,TRUE,0.399353,-0.265579,0.000000,0.003418,0.039627,0.000000,0.041000,0.011000,-0.010000,-4.070000,0.200000,-0.760000,-3.763098,Hold,0.887207,0.000000,Hold,-121.000000,2.000000,Suck,-1770.000000,1818.181818,Speed,-1747.500000,1818.181818,Speed,Off,Off,0.000000,FALSE,0,,,,,0.000000,0.000000
02:12:41.845 PM 04/02/2016,Teleop Enabled,10,TRUE,-44087,NetComm_CAN_Receive.vi:5470001<APPEND>  <b>Complete call chain:</b>      NetComm_CAN_Receive.vi:5470001      WPI_CAN_PDPReceive.vi      WPI_Power Get PDP Currents.vi      Periodic Tasks.vi      Robot Main.vi,-0.000000,-0.025667,-0.000000,0.000000,TRUE,FALSE,FALSE,TRUE,FALSE,FALSE,Disabled,0.000000,0.000000,0.000000,TRUE,0.399780,-0.264725,0.000000,0.023453,0.027069,0.000000,0.047000,0.026000,-0.015000,-4.070000,0.290000,-0.800000,-3.779612,Hold,0.887207,0.000000,Hold,-121.000000,2.000000,Suck,-1770.000000,1818.181818,Speed,-1747.500000,1818.181818,Speed,Off,Off,0.000000,FALSE,0,,,,,0.000000,0.000000
02:12:41.947 PM 04/02/2016,Teleop Enabled,10,TRUE,-44087,NetComm_CAN_Receive.vi:5470001<APPEND>  <b>Complete call chain:</b>      NetComm_CAN_Receive.vi:5470001      WPI_CAN_PDPReceive.vi      WPI_Power Get PDP Currents.vi      Periodic Tasks.vi      Robot Main.vi,-0.000000,-0.025667,-0.000000,0.000000,TRUE,FALSE,FALSE,TRUE,FALSE,FALSE,Disabled,0.000000,0.000000,0.000000,TRUE,0.401260,-0.263809,0.000000,0.045044,0.012405,0.000000,-0.027000,-0.005000,-0.045000,-3.960000,0.340000,-0.800000,-3.687885,Hold,0.887207,0.000000,Hold,-121.000000,2.000000,Suck,-1770.000000,1818.181818,Speed,-1747.500000,1818.181818,Speed,Off,Off,0.000000,FALSE,0,,,,,0.000000,0.000000
02:12:42.047 PM 04/02/2016,Teleop Enabled,11,TRUE,-44087,NetComm_CAN_Receive.vi:5470001<APPEND>  <b>Complete call chain:</b>      NetComm_CAN_Receive.vi:5470001      WPI_CAN_PDPReceive.vi      WPI_Power Get PDP Currents.vi      Periodic Tasks.vi      Robot Main.vi,-0.000000,-0.025667,-0.000000,0.000000,TRUE,FALSE,FALSE,TRUE,FALSE,FALSE,Disabled,0.000000,0.000000,0.000000,TRUE,0.402710,-0.263733,0.000000,0.003906,-0.016708,0.000000,-0.039000,0.022000,-0.036000,-3.650000,0.190000,-0.770000,-3.383367,Hold,0.887207,0.000000,Hold,-121.000000,2.000000,Suck,-1777.500000,1818.181818,Speed,-1747.500000,1818.181818,Speed,Off,Off,0.000000,FALSE,0,,,,,0.000000,0.000000
02:12:42.147 PM 04/02/2016,Teleop Enabled,10,TRUE,-44087,NetComm_CAN_Receive.vi:5470001<APPEND>  <b>Complete call chain:</b>      NetComm_CAN_Receive.vi:5470001      WPI_CAN_PDPReceive.vi      WPI_Power Get PDP Currents.vi      Periodic Tasks.vi      Robot Main.vi,-0.000000,-0.025667,-0.000000,0.000000,TRUE,FALSE,FALSE,TRUE,FALSE,FALSE,Disabled,0.000000,0.000000,0.000000,TRUE,0.401947,-0.264923,0.000000,-0.039108,-0.033661,0.000000,-0.121000,0.058000,-0.047000,-3.370000,-0.100000,-0.800000,-3.104100,Hold,0.887207,0.000000,Hold,-121.000000,2.000000,Suck,-1777.500000,1818.181818,Speed,-1740.000000,1818.181818,Speed,Off,Off,0.000000,FALSE,0,,,,,0.000000,0.000000
02:12:42.247 PM 04/02/2016,Teleop Enabled,10,TRUE,-44087,NetComm_CAN_Receive.vi:5470001<APPEND>  <b>Complete call chain:</b>      NetComm_CAN_Receive.vi:5470001      WPI_CAN_PDPReceive.vi      WPI_Power Get PDP Currents.vi      Periodic Tasks.vi      Robot Main.vi,-0.000000,-0.025667,-0.000000,0.000000,TRUE,FALSE,FALSE,TRUE,FALSE,FALSE,Disabled,0.000000,0.000000,0.000000,TRUE,0.396927,-0.266159,0.000000,-0.116150,-0.031387,0.000000,-0.009000,0.047000,-0.055000,-3.330000,-0.360000,-0.740000,-3.052654,Hold,0.887207,0.000000,Hold,-121.000000,2.000000,Suck,-1777.500000,1818.181818,Speed,-1747.500000,1818.181818,Speed,Off,Off,0.000000,FALSE,0,,,,,0.000000,0.000000
02:12:42.348 PM 04/02/2016,Teleop Enabled,11,TRUE,-44087,NetComm_CAN_Receive.vi:5470001<APPEND>  <b>Complete call chain:</b>      NetComm_CAN_Receive.vi:5470001      WPI_CAN_PDPReceive.vi      WPI_Power Get PDP Currents.vi      Periodic Tasks.vi      Robot Main.vi,-0.000000,-0.025667,-0.000000,0.000000,TRUE,FALSE,FALSE,TRUE,FALSE,FALSE,Disabled,0.000000,0.000000,0.000000,TRUE,0.395981,-0.267670,0.000000,0.010208,-0.034439,0.000000,0.093000,0.059000,0.097000,-3.330000,-0.410000,-0.720000,-3.075444,Hold,0.887207,0.000000,Hold,-121.000000,2.000000,Suck,-1777.500000,1818.181818,Speed,-1755.000000,1818.181818,Speed,Off,Off,0.000000,FALSE,0,,,,,0.000000,0.000000
