Time,Robot Mode,Loop Time,Error Status,Error Code,Error Source,Left Motor Output,Left Motor Encoder,Right Motor Output,Right Motor Encoder,Is Level,Is Stalled,Ball Detector Photoeye,Vision Enabled,Vision Teleop Control,Vision Auto Control,Vision Current State,Vision X Output,Vision NavX Error,Vision NavX Target,NavX Connection Status,NavX Displacement X,NavX Displacement Y,NavX Displacement Z,NavX Velocity X,NavX Velocity Y,NavX Velocity Z,NavX Acceleration X,NavX Acceleration Y,NavX Acceleration Z,NavX Pitch,NavX Yaw,NavX Roll,Gyro Angle,Roller Arm State,Roller Arm Actual,Roller Arm Desired,Shooter Arm State,Shooter Arm Actual,Shooter Arm Desired,Shooter State,Actual RPM Left,Desired RPM Left,Control Mode Left,Actual RPM Right,Desired RPM Right,Scaler Motor Output,Auto To Run,Auto Current File,Auto File Status,Auto Current Command,Auto Trimmed Command
10:08:13.922 AM 03/20/2016,Autonomous Enabled,9,FALSE,0,NO ERROR,-0.000000,0.000000,0.000000,0.000000,TRUE,FALSE,TRUE,FALSE,FALSE,FALSE,Disabled,-0.387500,3.971875,-3.631875,TRUE,0.184433,0.914627,0.000000,0.000000,0.000000,0.000000,0.000000,-0.003000,0.023000,-0.050000,0.120000,2.790000,0.130783,ResetBack,1.239258,-0.200000,ResetBack,-16562.000000,-0.300000,LowGoal,0.000000,-1454.545455,Speed,0.000000,-1454.545455,Speed,Off,Off0.000000,3,Read: /home/lvuser/scripts/auto_03.bee,File good!,WAIT 500,WAIT
10:08:14.022 AM 03/20/2016,Autonomous Enabled,10,FALSE,0,NO ERROR,-0.000000,0.000000,0.000000,0.000000,TRUE,FALSE,TRUE,FALSE,FALSE,FALSE,Disabled,-0.387500,3.971875,-3.631875,TRUE,0.183029,0.914886,0.000000,-0.037445,0.006104,0.000000,-0.019000,-0.047000,0.034000,-0.040000,0.130000,2.780000,0.131340,ResetBack,0.147949,-0.200000,ResetBack,-16502.000000,-0.300000,LowGoal,15.000000,-1454.545455,Speed,255.000000,-1454.545455,Speed,Off,Off0.000000,3,Read: /home/lvuser/scripts/auto_03.bee,File good!,WAIT 500,WAIT
10:08:14.122 AM 03/20/2016,Autonomous Enabled,9,FALSE,0,NO ERROR,-0.000000,0.000000,0.000000,0.000000,TRUE,FALSE,TRUE,FALSE,FALSE,FALSE,Disabled,-0.387500,3.971875,-3.631875,TRUE,0.181671,0.914810,0.000000,-0.021530,-0.007568,0.000000,0.102000,-0.081000,0.036000,-0.060000,0.160000,2.800000,0.158647,ResetBack,0.031982,-0.200000,ResetBack,-9532.000000,-0.300000,LowGoal,622.500000,-1454.545455,Speed,1072.500000,-1454.545455,Speed,Off,Off0.000000,3,Read: /home/lvuser/scripts/auto_03.bee,File good!,WAIT 500,WAIT
10:08:14.223 AM 03/20/2016,Autonomous Enabled,8,FALSE,0,NO ERROR,-0.000000,0.000000,0.000000,0.000000,TRUE,FALSE,TRUE,FALSE,FALSE,FALSE,Disabled,-0.387500,3.971875,-3.631875,TRUE,0.180984,0.914230,0.000000,0.000000,-0.009186,0.000000,-0.048000,0.027000,-0.011000,-0.050000,0.130000,2.820000,0.161125,ResetBack,0.004395,-0.200000,ResetBack,-4459.000000,-0.300000,LowGoal,1410.000000,-1454.545455,Speed,1515.000000,-1454.545455,Speed,Off,Off0.000000,3,Read: /home/lvuser/scripts/auto_03.bee,File good!,WAIT 500,WAIT
10:08:14.323 AM 03/20/2016,Autonomous Enabled,9,FALSE,0,NO ERROR,-0.000000,0.000000,0.000000,0.000000,TRUE,FALSE,TRUE,FALSE,FALSE,FALSE,Disabled,-0.387500,3.971875,-3.631875,TRUE,0.180908,0.913437,0.000000,0.007782,-0.020554,0.000000,0.008000,-0.024000,0.030000,-0.050000,0.140000,2.850000,0.163707,Reset,0.004150,0.000000,ResetBack,-1433.000000,-0.300000,LowGoal,1620.000000,-1454.545455,Speed,1425.000000,-1454.545455,Speed,Off,Off0.000000,3,Read: /home/lvuser/scripts/auto_03.bee,File good!,WAIT 500,WAIT
10:08:14.424 AM 03/20/2016,Autonomous Enabled,9,FALSE,0,NO ERROR,-0.000000,0.000000,0.000000,0.000000,TRUE,FALSE,TRUE,FALSE,FALSE,FALSE,Disabled,-0.387500,3.971875,-3.631875,TRUE,0.182236,0.913345,0.000000,0.016251,0.010941,0.000000,-0.145000,0.026000,-0.033000,-0.050000,0.140000,2.830000,0.150701,Hold,1.004150,0.000000,ResetBack,-758.000000,-0.300000,LowGoal,1365.000000,-1454.545455,Speed,1267.500000,-1454.545455,Speed,Off,Off0.000000,3,Read: /home/lvuser/scripts/auto_03.bee,File good!,WAIT 500,WAIT
10:08:14.523 AM 03/20/2016,Autonomous Enabled,9,FALSE,0,NO ERROR,-0.000000,0.000000,0.000000,0.000000,TRUE,FALSE,TRUE,FALSE,FALSE,FALSE,Disabled,-0.387500,3.971875,-3.631875,TRUE,0.182800,0.913971,0.000000,0.005554,0.025864,0.000000,0.055000,-0.019000,-0.022000,-0.040000,0.150000,2.900000,0.162623,Hold,0.924072,208896.000000,ResetBack,-758.000000,-0.300000,LowGoal,1312.500000,-3272.727273,Speed,1327.500000,-3272.727273,Speed,Off,Off0.000000,3,Read: /home/lvuser/scripts/auto_03.bee,File good!,WAIT_FOR_PID,WAIT_FOR_PID
10:08:14.623 AM 03/20/2016,Autonomous Enabled,9,FALSE,0,NO ERROR,-0.000000,0.000000,0.000000,0.000000,TRUE,FALSE,TRUE,FALSE,FALSE,FALSE,Disabled,-0.387500,3.971875,-3.631875,TRUE,0.183853,0.916443,0.000000,0.033020,0.085022,0.000000,-0.026000,0.084000,-0.077000,-0.040000,0.160000,2.970000,0.146539,Hold,3.849854,208896.000000,ResetBack,-758.000000,-0.300000,LowGoal,1402.500000,-3272.727273,Speed,1387.500000,-3272.727273,Speed,Off,Off0.000000,3,Read: /home/lvuser/scripts/auto_03.bee,File good!,WAIT_FOR_PID,WAIT_FOR_PID
10:08:14.723 AM 03/20/2016,Autonomous Enabled,10,FALSE,0,NO ERROR,-0.000000,0.019250,0.000000,0.000000,TRUE,FALSE,TRUE,FALSE,FALSE,FALSE,Disabled,-0.387500,3.971875,-3.631875,TRUE,0.184631,0.920181,0.000000,0.015244,0.048477,0.000000,0.061000,0.076000,-0.051000,-0.040000,0.130000,2.940000,0.162317,Hold,5.949951,208896.000000,ResetBack,-757.000000,-0.300000,LowGoal,1762.500000,-3272.727273,Speed,1657.500000,-3272.727273,Speed,Off,Off0.000000,3,Read: /home/lvuser/scripts/auto_03.bee,File good!,WAIT_FOR_PID,WAIT_FOR_PID
10:08:14.823 AM 03/20/2016,Autonomous Enabled,10,FALSE,0,NO ERROR,-0.000000,0.025667,0.000000,0.000000,TRUE,FALSE,TRUE,FALSE,FALSE,FALSE,Disabled,-0.387500,3.971875,-3.631875,TRUE,0.186478,0.922012,0.000000,0.058350,-0.011383,0.000000,0.044000,-0.210000,0.078000,-0.050000,0.160000,2.940000,0.132384,Hold,10.025635,208896.000000,ResetBack,-757.000000,-0.300000,LowGoal,2167.500000,-3272.727273,Speed,2182.500000,-3272.727273,Speed,Off,Off0.000000,3,Read: /home/lvuser/scripts/auto_03.bee,File good!,WAIT_FOR_PID,WAIT_FOR_PID
10:08:14.923 AM 03/20/2016,Autonomous Enabled,9,FALSE,0,NO ERROR,-0.000000,0.025667,0.000000,0.000000,TRUE,FALSE,TRUE,FALSE,FALSE,FALSE,Disabled,-0.387500,3.971875,-3.631875,TRUE,0.190186,0.919403,0.000000,0.049438,-0.045090,0.000000,0.011000,-0.129000,-0.171000,-0.060000,0.110000,2.920000,0.131182,Hold,14.894287,208896.000000,ResetBack,-757.000000,-0.300000,LowGoal,2662.500000,-3272.727273,Speed,2535.000000,-3272.727273,Speed,Off,Off0.000000,3,Read: /home/lvuser/scripts/auto_03.bee,File good!,WAIT_FOR_PID,WAIT_FOR_PID
10:08:15.023 AM 03/20/2016,Autonomous Enabled,10,FALSE,0,NO ERROR,-0.000000,0.025667,0.000000,0.000000,TRUE,FALSE,TRUE,FALSE,FALSE,FALSE,Disabled,-0.387500,3.971875,-3.631875,TRUE,0.192245,0.917374,0.000000,0.025299,-0.012543,0.000000,0.035000,-0.216000,-0.110000,-0.050000,0.030000,2.970000,0.144622,Hold,20.636719,208896.000000,ResetBack,-756.000000,-0.300000,LowGoal,2932.500000,-3272.727273,Speed,2895.000000,-3272.727273,Speed,Off,Off0.000000,3,Read: /home/lvuser/scripts/auto_03.bee,File good!,WAIT_FOR_PID,WAIT_FOR_PID
10:08:15.123 AM 03/20/2016,Autonomous Enabled,9,FALSE,0,NO ERROR,-0.000000,0.025667,0.000000,0.000000,TRUE,FALSE,TRUE,FALSE,FALSE,FALSE,Disabled,-0.387500,3.971875,-3.631875,TRUE,0.193802,0.917496,0.000000,0.052994,0.011017,0.000000,0.061000,0.061000,0.024000,-0.050000,0.080000,2.940000,0.146398,Hold,27.562988,208896.000000,ResetBack,-754.000000,-0.300000,LowGoal,3187.500000,-3272.727273,Speed,3187.500000,-3272.727273,Speed,Off,Off0.000000,3,Read: /home/lvuser/scripts/auto_03.bee,File good!,WAIT_FOR_PID,WAIT_FOR_PID
10:08:15.223 AM 03/20/2016,Autonomous Enabled,10,FALSE,0,NO ERROR,-0.000000,0.025667,0.000000,0.000000,TRUE,FALSE,TRUE,FALSE,FALSE,FALSE,Disabled,-0.387500,3.971875,-3.631875,TRUE,0.197586,0.914764,0.000000,0.044525,-0.072281,0.000000,0.040000,-0.127000,0.187000,-0.070000,0.100000,2.960000,0.124521,Hold,35.778564,208896.000000,Reset,3.000000,2.000000,LowGoal,3270.000000,-3272.727273,Speed,3300.000000,-3272.727273,Speed,Off,Off0.000000,3,Read: /home/lvuser/scripts/auto_03.bee,File good!,WAIT_FOR_PID,WAIT_FOR_PID
10:08:15.323 AM 03/20/2016,Autonomous Enabled,9,FALSE,0,NO ERROR,-0.000000,0.012833,0.000000,-0.006417,TRUE,FALSE,TRUE,FALSE,FALSE,FALSE,Disabled,-0.387500,3.971875,-3.631875,TRUE,0.198975,0.912140,0.000000,0.038483,-0.036865,0.000000,-0.078000,-0.055000,-0.186000,-0.090000,0.060000,2.930000,0.097786,Hold,44.105713,208896.000000,Hold,3.000000,69632.000000,LowGoal,3187.500000,-3272.727273,Speed,3232.500000,-3272.727273,Speed,Off,Off0.000000,3,Read: /home/lvuser/scripts/auto_03.bee,File good!,WAIT_FOR_PID,WAIT_FOR_PID
10:08:15.423 AM 03/20/2016,Autonomous Enabled,11,FALSE,0,NO ERROR,-0.000000,-0.012833,0.000000,-0.077000,TRUE,FALSE,TRUE,FALSE,FALSE,FALSE,Disabled,-0.387500,3.971875,-3.631875,TRUE,0.201859,0.912109,0.000000,0.046143,0.005020,0.000000,-0.132000,0.209000,-0.159000,-0.130000,-0.060000,2.850000,0.019068,Hold,53.557861,208896.000000,Hold,-831.000000,69632.000000,LowGoal,3165.000000,-3272.727273,Speed,3202.500000,-3272.727273,Speed,Off,Off0.000000,3,Read: /home/lvuser/scripts/auto_03.bee,File good!,WAIT_FOR_PID,WAIT_FOR_PID
10:08:15.523 AM 03/20/2016,Autonomous Enabled,9,FALSE,0,NO ERROR,-0.000000,-0.012833,0.000000,-0.077000,TRUE,FALSE,TRUE,FALSE,FALSE,FALSE,Disabled,-0.387500,3.971875,-3.631875,TRUE,0.202591,0.912125,0.000000,0.005585,-0.007263,0.000000,0.092000,-0.098000,-0.172000,-0.180000,-0.290000,2.880000,-0.018986,Hold,56.628662,208896.000000,Hold,-14261.000000,69632.000000,LowGoal,3202.500000,-3272.727273,Speed,3240.000000,-3272.727273,Speed,Off,Off0.000000,3,Read: /home/lvuser/scripts/auto_03.bee,File good!,WAIT_FOR_PID,WAIT_FOR_PID
10:08:15.623 AM 03/20/2016,Autonomous Enabled,9,FALSE,0,NO ERROR,-0.000000,0.012833,0.000000,0.000000,TRUE,FALSE,TRUE,FALSE,FALSE,FALSE,Disabled,-0.387500,3.971875,-3.631875,TRUE,0.200333,0.910736,0.000000,-0.088745,-0.027267,0.000000,-0.211000,-0.012000,-0.097000,-0.180000,-0.100000,2.880000,-0.026398,Hold,56.018066,208896.000000,Hold,-27513.000000,69632.000000,LowGoal,3210.000000,-3272.727273,Speed,3247.500000,-3272.727273,Speed,Off,Off0.000000,3,Read: /home/lvuser/scripts/auto_03.bee,File good!,WAIT_FOR_PID,WAIT_FOR_PID
10:08:15.723 AM 03/20/2016,Autonomous Enabled,9,FALSE,0,NO ERROR,-0.000000,0.102666,0.000000,0.057750,TRUE,FALSE,TRUE,FALSE,FALSE,FALSE,Disabled,-0.387500,3.971875,-3.631875,TRUE,0.194656,0.909012,0.000000,-0.108810,-0.046478,0.000000,0.171000,-0.021000,-0.078000,-0.120000,-0.010000,2.840000,0.032952,Hold,55.572266,208896.000000,Hold,-37946.000000,69632.000000,LowGoal,3202.500000,-3272.727273,Speed,3240.000000,-3272.727273,Speed,Off,Off0.000000,3,Read: /home/lvuser/scripts/auto_03.bee,File good!,WAIT_FOR_PID,WAIT_FOR_PID
10:08:15.823 AM 03/20/2016,Autonomous Enabled,9,FALSE,0,NO ERROR,-0.000000,0.102666,0.000000,0.051333,TRUE,FALSE,TRUE,FALSE,FALSE,FALSE,Disabled,-0.387500,3.971875,-3.631875,TRUE,0.190506,0.906082,0.000000,-0.059311,-0.071289,0.000000,0.079000,0.009000,0.054000,-0.150000,0.000000,2.840000,0.013398,Hold,55.566406,208896.000000,Hold,-50510.000000,69632.000000,LowGoal,3202.500000,-3272.727273,Speed,3240.000000,-3272.727273,Speed,Off,Off0.000000,3,Read: /home/lvuser/scripts/auto_03.bee,File good!,WAIT_FOR_PID,WAIT_FOR_PID
10:08:15.923 AM 03/20/2016,Autonomous Enabled,10,FALSE,0,NO ERROR,-0.000000,0.102666,0.000000,0.051333,TRUE,FALSE,TRUE,FALSE,FALSE,FALSE,Disabled,-0.387500,3.971875,-3.631875,TRUE,0.189026,0.901443,0.000000,0.003418,-0.104156,0.000000,0.057000,0.070000,0.124000,-0.160000,-0.050000,2.820000,0.005928,Hold,55.565918,208896.000000,Hold,-63721.000000,69632.000000,LowGoal,3202.500000,-3272.727273,Speed,3240.000000,-3272.727273,Speed,Off,Off0.000000,3,Read: /home/lvuser/scripts/auto_03.bee,File good!,WAIT_FOR_PID,WAIT_FOR_PID
10:08:16.023 AM 03/20/2016,Autonomous Enabled,9,FALSE,0,NO ERROR,-0.000000,0.102666,0.000000,0.051333,TRUE,FALSE,TRUE,FALSE,FALSE,FALSE,Disabled,-0.387500,3.971875,-3.631875,TRUE,0.191528,0.896530,0.000000,0.096497,-0.092072,0.000000,0.248000,0.066000,0.158000,-0.170000,-0.090000,2.850000,0.011801,Hold,55.545166,208896.000000,Hold,-63721.000000,69632.000000,LowGoal,3202.500000,-3272.727273,Speed,3247.500000,-3272.727273,Speed,Off,Off0.000000,3,Read: /home/lvuser/scripts/auto_03.bee,File good!,WAIT_FOR_PID,WAIT_FOR_PID
10:08:16.123 AM 03/20/2016,Autonomous Enabled,7,FALSE,0,NO ERROR,-0.000000,-0.166833,0.000000,-0.224583,TRUE,FALSE,TRUE,FALSE,FALSE,FALSE,Disabled,-0.387500,3.971875,-3.631875,TRUE,0.191528,0.896530,0.000000,0.096497,-0.092072,0.000000,0.248000,0.066000,0.158000,-0.140000,-0.180000,2.750000,0.060148,Hold,55.508301,208896.000000,Hold,-70745.000000,69632.000000,LowGoal,3195.000000,-3272.727273,Speed,3240.000000,-3272.727273,Speed,Off,Off0.000000,3,Read: /home/lvuser/scripts/auto_03.bee,File good!,WAIT_FOR_PID,WAIT_FOR_PID
10:08:16.223 AM 03/20/2016,Autonomous Enabled,8,FALSE,0,NO ERROR,-0.000000,-0.263083,0.000000,-0.243833,TRUE,FALSE,TRUE,FALSE,FALSE,FALSE,Disabled,-0.387500,3.971875,-3.631875,TRUE,0.207794,0.884949,0.000000,0.013016,0.000000,0.000000,-0.307000,-0.118000,0.032000,-0.230000,-0.010000,2.810000,-0.065564,Hold,55.234375,208896.000000,Hold,-69552.000000,69632.000000,LowGoal,3210.000000,-3272.727273,Speed,3217.500000,-3272.727273,Speed,Off,Off0.000000,3,Read: /home/lvuser/scripts/auto_03.bee,File good!,WAIT_FOR_PID,WAIT_FOR_PID
10:08:16.323 AM 03/20/2016,Autonomous Enabled,9,FALSE,0,NO ERROR,-0.000000,-0.147583,0.000000,-0.128333,TRUE,FALSE,TRUE,FALSE,FALSE,FALSE,Disabled,-0.387500,3.971875,-3.631875,TRUE,0.207413,0.884811,0.000000,-0.013992,0.006454,0.000000,0.096000,-0.055000,0.024000,-0.230000,-0.010000,2.810000,-0.050069,Hold,54.917236,208896.000000,Hold,-69657.000000,69632.000000,LowGoal,3195.000000,-3272.727273,Speed,3247.500000,-3272.727273,Speed,Off,Off0.000000,3,Read: /home/lvuser/scripts/auto_03.bee,File good!,WAIT_FOR_PID,WAIT_FOR_PID
10:08:16.423 AM 03/20/2016,Autonomous Enabled,9,FALSE,0,NO ERROR,-0.000000,-0.141166,0.000000,-0.141166,TRUE,FALSE,TRUE,FALSE,FALSE,FALSE,Disabled,-0.387500,3.971875,-3.631875,TRUE,0.210251,0.883789,0.000000,0.090866,-0.049606,0.000000,0.003000,0.000000,-0.062000,-0.150000,-0.230000,2.780000,0.035606,Hold,54.939209,208896.000000,Hold,-69723.000000,69632.000000,LowGoal,3187.500000,-3272.727273,Speed,3262.500000,-3272.727273,Speed,Off,Off0.000000,3,Read: /home/lvuser/scripts/auto_03.bee,File good!,WAIT_FOR_PID,WAIT_FOR_PID
10:08:16.523 AM 03/20/2016,Autonomous Enabled,11,FALSE,0,NO ERROR,-0.000000,-0.121916,0.000000,-0.089833,TRUE,FALSE,TRUE,FALSE,FALSE,FALSE,Disabled,-0.387500,3.971875,-3.631875,TRUE,0.212753,0.880325,0.000000,0.023972,-0.029572,0.000000,-0.206000,-0.087000,0.142000,-0.150000,-0.160000,2.800000,0.015925,Hold,54.768555,208896.000000,Hold,-69690.000000,69632.000000,LowGoal,3225.000000,-3272.727273,Speed,3240.000000,-3272.727273,Speed,Off,Off0.000000,3,Read: /home/lvuser/scripts/auto_03.bee,File good!,WAIT_FOR_PID,WAIT_FOR_PID
10:08:16.623 AM 03/20/2016,Autonomous Enabled,10,FALSE,0,NO ERROR,-0.000000,-0.121916,0.000000,-0.102666,TRUE,FALSE,TRUE,FALSE,FALSE,FALSE,Disabled,-0.387500,3.971875,-3.631875,TRUE,0.214996,0.878876,0.000000,0.071106,-0.055069,0.000000,-0.099000,0.017000,0.091000,-0.150000,-0.160000,2.800000,0.011777,Hold,54.729248,208896.000000,Hold,-69727.000000,69632.000000,LowGoal,3225.000000,-3272.727273,Speed,3247.500000,-3272.727273,Speed,Off,Off0.000000,3,Read: /home/lvuser/scripts/auto_03.bee,File good!,WAIT_FOR_PID,WAIT_FOR_PID
10:08:16.723 AM 03/20/2016,Autonomous Enabled,12,FALSE,0,NO ERROR,-0.000000,-0.121916,0.000000,-0.128333,TRUE,FALSE,TRUE,FALSE,FALSE,FALSE,Disabled,-0.387500,3.971875,-3.631875,TRUE,0.218063,0.874130,0.000000,0.008118,-0.067184,0.000000,-0.085000,-0.196000,-0.134000,-0.170000,-0.120000,2.790000,0.000348,Hold,54.729248,208896.000000,Hold,-69727.000000,69632.000000,LowGoal,3210.000000,-3272.727273,Speed,3247.500000,-3272.727273,Speed,Off,Off0.000000,3,Read: /home/lvuser/scripts/auto_03.bee,File good!,WAIT_FOR_PID,WAIT_FOR_PID
10:08:16.823 AM 03/20/2016,Autonomous Enabled,7,FALSE,0,NO ERROR,-0.000000,-0.121916,0.000000,-0.121916,TRUE,FALSE,TRUE,FALSE,FALSE,FALSE,Disabled,-0.387500,3.971875,-3.631875,TRUE,0.218948,0.871872,0.000000,0.011124,-0.048798,0.000000,0.006000,-0.009000,0.077000,-0.190000,-0.140000,2.780000,-0.021292,Hold,54.716553,208896.000000,Hold,-69725.000000,69632.000000,LowGoal,3210.000000,-3272.727273,Speed,3232.500000,-3272.727273,Speed,Off,Off0.000000,3,Read: /home/lvuser/scripts/auto_03.bee,File good!,WAIT_FOR_PID,WAIT_FOR_PID
10:08:16.923 AM 03/20/2016,Autonomous Enabled,9,FALSE,0,NO ERROR,-0.000000,-0.121916,0.000000,-0.115500,TRUE,FALSE,TRUE,FALSE,FALSE,FALSE,Disabled,-0.387500,3.971875,-3.631875,TRUE,0.219467,0.868225,0.000000,0.006592,-0.113892,0.000000,-0.077000,-0.063000,-0.147000,-0.190000,-0.140000,2.780000,-0.016321,Hold,54.717529,208896.000000,Hold,-69725.000000,69632.000000,LowGoal,3217.500000,-3272.727273,Speed,3240.000000,-3272.727273,Speed,Off,Off0.000000,3,Read: /home/lvuser/scripts/auto_03.bee,File good!,WAIT_FOR_PID,WAIT_FOR_PID
10:08:17.023 AM 03/20/2016,Autonomous Enabled,10,FALSE,0,NO ERROR,-0.000000,-0.121916,0.000000,-0.115500,TRUE,FALSE,TRUE,FALSE,FALSE,FALSE,Disabled,-0.387500,3.971875,-3.631875,TRUE,0.219467,0.868225,0.000000,0.006592,-0.113892,0.000000,-0.222000,0.006000,0.042000,-0.190000,-0.120000,2.810000,-0.011453,Hold,54.717529,208896.000000,Hold,-69724.000000,69632.000000,LowGoal,3210.000000,-3272.727273,Speed,3255.000000,-3272.727273,Speed,Off,Off0.000000,3,Read: /home/lvuser/scripts/auto_03.bee,File good!,WAIT_FOR_PID,WAIT_FOR_PID
10:08:17.123 AM 03/20/2016,Autonomous Enabled,9,FALSE,0,NO ERROR,-0.000000,-0.121916,0.000000,-0.115500,TRUE,FALSE,TRUE,FALSE,FALSE,FALSE,Disabled,-0.387500,3.971875,-3.631875,TRUE,0.216476,0.868744,0.000000,-0.060013,0.062073,0.000000,0.078000,0.130000,-0.072000,-0.170000,-0.180000,2.780000,-0.009915,Hold,54.717529,208896.000000,Hold,-69724.000000,69632.000000,LowGoal,3210.000000,-3272.727273,Speed,3247.500000,-3272.727273,Speed,Off,Off0.000000,3,Read: /home/lvuser/scripts/auto_03.bee,File good!,WAIT_FOR_PID,WAIT_FOR_PID
10:08:17.224 AM 03/20/2016,Autonomous Enabled,9,FALSE,0,NO ERROR,-0.000000,-0.121916,0.000000,-0.109083,TRUE,FALSE,TRUE,FALSE,FALSE,FALSE,Disabled,-0.387500,3.971875,-3.631875,TRUE,0.213165,0.871765,0.000000,-0.068130,0.057022,0.000000,-0.152000,-0.177000,0.005000,-0.190000,-0.180000,2.780000,-0.002121,Hold,54.717529,208896.000000,Hold,-69723.000000,69632.000000,LowGoal,3217.500000,-3272.727273,Speed,3247.500000,-3272.727273,Speed,Off,Off0.000000,3,Read: /home/lvuser/scripts/auto_03.bee,File good!,WAIT_FOR_PID,WAIT_FOR_PID
10:08:17.325 AM 03/20/2016,Autonomous Enabled,8,FALSE,0,NO ERROR,-0.000000,-0.121916,0.000000,-0.109083,TRUE,FALSE,TRUE,FALSE,FALSE,FALSE,Disabled,-0.387500,3.971875,-3.631875,TRUE,0.209183,0.874420,0.000000,-0.076874,0.046631,0.000000,0.094000,0.190000,0.072000,-0.180000,-0.140000,2.820000,-0.000740,Hold,54.717529,208896.000000,Hold,-69723.000000,69632.000000,LowGoal,3217.500000,-3272.727273,Speed,3240.000000,-3272.727273,Speed,Off,Off0.000000,3,Read: /home/lvuser/scripts/auto_03.bee,File good!,WAIT_FOR_PID,WAIT_FOR_PID
10:08:17.424 AM 03/20/2016,Autonomous Enabled,10,FALSE,0,NO ERROR,-0.000000,-0.121916,0.000000,-0.109083,TRUE,FALSE,TRUE,FALSE,FALSE,FALSE,Disabled,-0.387500,3.971875,-3.631875,TRUE,0.204849,0.877625,0.000000,-0.078552,0.047440,0.000000,-0.014000,-0.049000,0.124000,-0.180000,-0.140000,2.820000,0.007371,Hold,54.717529,208896.000000,Hold,-69723.000000,69632.000000,LowGoal,3217.500000,-3272.727273,Speed,3247.500000,-3272.727273,Speed,Off,Off0.000000,3,Read: /home/lvuser/scripts/auto_03.bee,File good!,WAIT_FOR_PID,WAIT_FOR_PID
10:08:17.525 AM 03/20/2016,Autonomous Enabled,9,FALSE,0,NO ERROR,-0.000000,-0.121916,0.000000,-0.109083,TRUE,FALSE,TRUE,FALSE,FALSE,FALSE,Disabled,-0.387500,3.971875,-3.631875,TRUE,0.202240,0.879288,0.000000,-0.049438,0.045227,0.000000,0.085000,-0.096000,-0.101000,-0.190000,-0.170000,2.830000,0.009081,Hold,54.717529,208896.000000,Hold,-69723.000000,69632.000000,LowGoal,3217.500000,-3272.727273,Speed,3247.500000,-3272.727273,Speed,Off,Off0.000000,3,Read: /home/lvuser/scripts/auto_03.bee,File good!,WAIT_FOR_PID,WAIT_FOR_PID
10:08:17.625 AM 03/20/2016,Autonomous Enabled,9,FALSE,0,NO ERROR,-0.000000,-0.121916,0.000000,-0.109083,TRUE,FALSE,TRUE,FALSE,FALSE,FALSE,Disabled,-0.387500,3.971875,-3.631875,TRUE,0.201401,0.880905,0.000000,0.016449,0.013428,0.000000,-0.001000,0.043000,0.097000,-0.180000,-0.170000,2.780000,-0.001535,Hold,54.717529,208896.000000,Hold,-69723.000000,69632.000000,LowGoal,3217.500000,-3272.727273,Speed,3247.500000,-3272.727273,Speed,Off,Off0.000000,3,Read: /home/lvuser/scripts/auto_03.bee,File good!,WAIT_FOR_PID,WAIT_FOR_PID
10:08:17.725 AM 03/20/2016,Autonomous Enabled,9,FALSE,0,NO ERROR,-0.000000,-0.121916,0.000000,-0.109083,TRUE,FALSE,TRUE,FALSE,FALSE,FALSE,Disabled,-0.387500,3.971875,-3.631875,TRUE,0.202759,0.881393,0.000000,0.043594,0.018570,0.000000,0.011000,0.142000,0.168000,-0.190000,-0.170000,2.820000,0.001353,Hold,54.717529,208896.000000,Hold,-69723.000000,69632.000000,LowGoal,3217.500000,-3272.727273,Speed,3232.500000,-3272.727273,Speed,Off,Off0.000000,3,Read: /home/lvuser/scripts/auto_03.bee,File good!,WAIT_FOR_PID,WAIT_FOR_PID
10:08:17.825 AM 03/20/2016,Autonomous Enabled,9,FALSE,0,NO ERROR,-0.000000,-0.121916,0.000000,-0.109083,TRUE,FALSE,TRUE,FALSE,FALSE,FALSE,Disabled,-0.387500,3.971875,-3.631875,TRUE,0.203384,0.882523,0.000000,-0.034622,0.018127,0.000000,-0.037000,0.063000,0.071000,-0.180000,-0.190000,2.770000,0.001408,Hold,54.717529,208896.000000,Hold,-69723.000000,69632.000000,LowGoal,3217.500000,-3272.727273,Speed,3247.500000,-3272.727273,Speed,Off,Off0.000000,3,Read: /home/lvuser/scripts/auto_03.bee,File good!,WAIT_FOR_PID,WAIT_FOR_PID
10:08:17.925 AM 03/20/2016,Autonomous Enabled,9,FALSE,0,NO ERROR,-0.000000,-0.121916,0.000000,-0.109083,TRUE,FALSE,TRUE,FALSE,FALSE,FALSE,Disabled,-0.387500,3.971875,-3.631875,TRUE,0.200363,0.884720,0.000000,-0.092133,0.074966,0.000000,0.047000,0.027000,0.037000,-0.170000,-0.190000,2.760000,-0.004441,Hold,54.717529,208896.000000,Hold,-69723.000000,69632.000000,LowGoal,3210.000000,-3272.727273,Speed,3247.500000,-3272.727273,Speed,Off,Off0.000000,3,Read: /home/lvuser/scripts/auto_03.bee,File good!,WAIT_FOR_PID,WAIT_FOR_PID
10:08:18.025 AM 03/20/2016,Autonomous Enabled,10,FALSE,0,NO ERROR,-0.000000,-0.121916,0.000000,-0.109083,TRUE,FALSE,TRUE,FALSE,FALSE,FALSE,Disabled,-0.387500,3.971875,-3.631875,TRUE,0.194565,0.889877,0.000000,-0.095551,0.079010,0.000000,-0.037000,-0.017000,0.086000,-0.180000,-0.190000,2.720000,0.001921,Hold,54.717529,208896.000000,Hold,-69723.000000,69632.000000,LowGoal,3202.500000,-3272.727273,Speed,3240.000000,-3272.727273,Speed,Off,Off0.000000,3,Read: /home/lvuser/scripts/auto_03.bee,File good!,WAIT_FOR_PID,WAIT_FOR_PID
10:08:18.125 AM 03/20/2016,Autonomous Enabled,10,FALSE,0,NO ERROR,-0.000000,-0.121916,0.000000,-0.109083,TRUE,FALSE,TRUE,FALSE,FALSE,FALSE,Disabled,-0.387500,3.971875,-3.631875,TRUE,0.190598,0.892548,0.000000,-0.078262,0.033417,0.000000,0.095000,-0.010000,-0.059000,-0.170000,-0.180000,2.710000,0.001921,Hold,54.717529,208896.000000,Hold,-69723.000000,69632.000000,LowGoal,3225.000000,-3272.727273,Speed,3240.000000,-3272.727273,Speed,Off,Off0.000000,3,Read: /home/lvuser/scripts/auto_03.bee,File good!,WAIT_FOR_PID,WAIT_FOR_PID
10:08:18.225 AM 03/20/2016,Autonomous Enabled,9,FALSE,0,NO ERROR,-0.000000,-0.121916,0.000000,-0.109083,TRUE,FALSE,TRUE,FALSE,FALSE,FALSE,Disabled,-0.387500,3.971875,-3.631875,TRUE,0.187225,0.893280,0.000000,-0.062347,0.022415,0.000000,-0.015000,0.279000,-0.043000,-0.170000,-0.210000,2.620000,-0.008909,Hold,54.717529,208896.000000,Hold,-69723.000000,69632.000000,LowGoal,3225.000000,-3272.727273,Speed,3247.500000,-3272.727273,Speed,Off,Off0.000000,3,Read: /home/lvuser/scripts/auto_03.bee,File good!,WAIT_FOR_PID,WAIT_FOR_PID
10:08:18.325 AM 03/20/2016,Autonomous Enabled,9,FALSE,0,NO ERROR,-0.000000,-0.121916,0.000000,-0.109083,TRUE,FALSE,TRUE,FALSE,FALSE,FALSE,Disabled,-0.387500,3.971875,-3.631875,TRUE,0.184952,0.895340,0.000000,-0.018982,0.049911,0.000000,0.052000,-0.193000,-0.052000,-0.180000,-0.200000,2.690000,0.000503,Hold,54.717529,208896.000000,Hold,-69723.000000,69632.000000,LowGoal,3217.500000,-3272.727273,Speed,3247.500000,-3272.727273,Speed,Off,Off0.000000,3,Read: /home/lvuser/scripts/auto_03.bee,File good!,WAIT_FOR_PID,WAIT_FOR_PID
10:08:18.425 AM 03/20/2016,Autonomous Enabled,9,FALSE,0,NO ERROR,-0.000000,-0.121916,0.000000,-0.109083,TRUE,FALSE,TRUE,FALSE,FALSE,FALSE,Disabled,-0.387500,3.971875,-3.631875,TRUE,0.184921,0.896820,0.000000,0.001572,0.021637,0.000000,-0.135000,0.172000,0.118000,-0.180000,-0.210000,2.680000,-0.012913,Hold,54.717529,208896.000000,Hold,-69723.000000,69632.000000,LowGoal,3217.500000,-3272.727273,Speed,3240.000000,-3272.727273,Speed,Off,Off0.000000,3,Read: /home/lvuser/scripts/auto_03.bee,File good!,WAIT_FOR_PID,WAIT_FOR_PID
10:08:18.525 AM 03/20/2016,Autonomous Enabled,10,FALSE,0,NO ERROR,-0.000000,-0.121916,0.000000,-0.109083,TRUE,FALSE,TRUE,FALSE,FALSE,FALSE,Disabled,-0.387500,3.971875,-3.631875,TRUE,0.184479,0.899597,0.000000,-0.017212,0.081650,0.000000,0.140000,-0.047000,-0.069000,-0.180000,-0.210000,2.720000,-0.004400,Hold,54.717529,208896.000000,Hold,-69723.000000,69632.000000,LowGoal,3217.500000,-3272.727273,Speed,3240.000000,-3272.727273,Speed,Off,Off0.000000,3,Read: /home/lvuser/scripts/auto_03.bee,File good!,WAIT_FOR_PID,WAIT_FOR_PID
10:08:18.625 AM 03/20/2016,Autonomous Enabled,10,FALSE,0,NO ERROR,-0.000000,-0.121916,0.000000,-0.109083,TRUE,FALSE,TRUE,FALSE,FALSE,FALSE,Disabled,-0.387500,3.971875,-3.631875,TRUE,0.183060,0.903290,0.000000,-0.034851,0.058670,0.000000,-0.176000,-0.164000,-0.077000,-0.190000,-0.180000,2.760000,-0.009822,Hold,54.717529,208896.000000,Hold,-69723.000000,69632.000000,LowGoal,3217.500000,-3272.727273,Speed,3247.500000,-3272.727273,Speed,Off,Off0.000000,3,Read: /home/lvuser/scripts/auto_03.bee,File good!,WAIT_FOR_PID,WAIT_FOR_PID
10:08:18.725 AM 03/20/2016,Autonomous Enabled,10,FALSE,0,NO ERROR,-0.000000,-0.121916,0.000000,-0.109083,TRUE,FALSE,TRUE,FALSE,FALSE,FALSE,Disabled,-0.387500,3.971875,-3.631875,TRUE,0.180786,0.905731,0.000000,-0.045380,0.058884,0.000000,0.092000,0.262000,0.117000,-0.190000,-0.220000,2.750000,-0.005343,Hold,54.717529,208896.000000,Hold,-69723.000000,69632.000000,LowGoal,3225.000000,-3272.727273,Speed,3240.000000,-3272.727273,Speed,Off,Off0.000000,3,Read: /home/lvuser/scripts/auto_03.bee,File good!,WAIT_FOR_PID,WAIT_FOR_PID
10:08:18.825 AM 03/20/2016,Autonomous Enabled,10,FALSE,0,NO ERROR,-0.000000,-0.121916,0.000000,-0.109083,TRUE,FALSE,TRUE,FALSE,FALSE,FALSE,Disabled,-0.387500,3.971875,-3.631875,TRUE,0.179062,0.910019,0.000000,-0.032684,0.122635,0.000000,0.006000,-0.237000,0.024000,-0.190000,-0.230000,2.780000,0.008992,Hold,54.717529,208896.000000,Hold,-69723.000000,69632.000000,LowGoal,3217.500000,-3272.727273,Speed,3240.000000,-3272.727273,Speed,Off,Off0.000000,3,Read: /home/lvuser/scripts/auto_03.bee,File good!,WAIT_FOR_PID,WAIT_FOR_PID
10:08:18.925 AM 03/20/2016,Autonomous Enabled,10,FALSE,0,NO ERROR,-0.000000,-0.121916,0.000000,-0.109083,TRUE,FALSE,TRUE,FALSE,FALSE,FALSE,Disabled,-0.387500,3.971875,-3.631875,TRUE,0.179459,0.916245,0.000000,0.008347,0.029526,0.000000,-0.039000,0.071000,0.116000,-0.190000,-0.230000,2.840000,0.018273,Hold,54.717529,208896.000000,Hold,-69723.000000,69632.000000,LowGoal,3217.500000,-3272.727273,Speed,3247.500000,-3272.727273,Speed,Off,Off0.000000,3,Read: /home/lvuser/scripts/auto_03.bee,File good!,WAIT_FOR_PID,WAIT_FOR_PID
10:08:19.025 AM 03/20/2016,Autonomous Enabled,10,FALSE,0,NO ERROR,-0.000000,-0.121916,0.000000,-0.109083,TRUE,FALSE,TRUE,FALSE,FALSE,FALSE,Disabled,-0.387500,3.971875,-3.631875,TRUE,0.179489,0.918091,0.000000,0.005630,0.077072,0.000000,0.103000,0.076000,0.040000,-0.190000,-0.240000,2.740000,0.016941,Hold,54.717529,208896.000000,Hold,-69722.000000,69632.000000,LowGoal,3217.500000,-3272.727273,Speed,3240.000000,-3272.727273,Speed,Off,Off0.000000,3,Read: /home/lvuser/scripts/auto_03.bee,File good!,WAIT_FOR_PID,WAIT_FOR_PID
10:08:19.125 AM 03/20/2016,Autonomous Enabled,10,FALSE,0,NO ERROR,-0.000000,-0.121916,0.000000,-0.109083,TRUE,FALSE,TRUE,FALSE,FALSE,FALSE,Disabled,-0.387500,3.971875,-3.631875,TRUE,0.180908,0.922821,0.000000,0.049530,0.075851,0.000000,-0.104000,-0.102000,0.009000,-0.200000,-0.230000,2.750000,0.028170,Hold,54.717529,208896.000000,Hold,-69722.000000,69632.000000,LowGoal,3217.500000,-3272.727273,Speed,3240.000000,-3272.727273,Speed,Off,Off0.000000,3,Read: /home/lvuser/scripts/auto_03.bee,File good!,WAIT_FOR_PID,WAIT_FOR_PID
10:08:19.225 AM 03/20/2016,Autonomous Enabled,10,FALSE,0,NO ERROR,-0.000000,-0.121916,0.000000,-0.109083,TRUE,FALSE,TRUE,FALSE,FALSE,FALSE,Disabled,-0.387500,3.971875,-3.631875,TRUE,0.183090,0.924393,0.000000,0.052719,0.036713,0.000000,-0.016000,-0.001000,-0.098000,-0.200000,-0.220000,2.740000,0.030367,Hold,54.717529,208896.000000,Hold,-69722.000000,69632.000000,LowGoal,3225.000000,-3272.727273,Speed,3247.500000,-3272.727273,Speed,Off,Off0.000000,3,Read: /home/lvuser/scripts/auto_03.bee,File good!,WAIT_FOR_PID,WAIT_FOR_PID
10:08:19.325 AM 03/20/2016,Autonomous Enabled,10,FALSE,0,NO ERROR,-0.000000,-0.121916,0.000000,-0.109083,TRUE,FALSE,TRUE,FALSE,FALSE,FALSE,Disabled,-0.387500,3.971875,-3.631875,TRUE,0.186722,0.929260,0.000000,0.059753,0.091202,0.000000,0.118000,0.014000,0.069000,-0.200000,-0.210000,2.760000,0.038236,Hold,54.717529,208896.000000,Hold,-69722.000000,69632.000000,LowGoal,3225.000000,-3272.727273,Speed,3255.000000,-3272.727273,Speed,Off,Off0.000000,3,Read: /home/lvuser/scripts/auto_03.bee,File good!,WAIT_FOR_PID,WAIT_FOR_PID
10:08:19.425 AM 03/20/2016,Autonomous Enabled,10,FALSE,0,NO ERROR,-0.000000,-0.121916,0.000000,-0.109083,TRUE,FALSE,TRUE,FALSE,FALSE,FALSE,Disabled,-0.387500,3.971875,-3.631875,TRUE,0.189453,0.932068,0.000000,0.031509,0.020584,0.000000,-0.170000,-0.007000,0.038000,-0.200000,-0.210000,2.720000,0.045710,Hold,54.717529,208896.000000,Hold,-69722.000000,69632.000000,LowGoal,3217.500000,-3272.727273,Speed,3240.000000,-3272.727273,Speed,Off,Off0.000000,3,Read: /home/lvuser/scripts/auto_03.bee,File good!,WAIT_FOR_PID,WAIT_FOR_PID
10:08:19.525 AM 03/20/2016,Autonomous Enabled,10,FALSE,0,NO ERROR,-0.000000,-0.121916,0.000000,-0.109083,TRUE,FALSE,TRUE,FALSE,FALSE,FALSE,Disabled,-0.387500,3.971875,-3.631875,TRUE,0.188995,0.933212,0.000000,-0.033737,0.055405,0.000000,-0.214000,0.161000,0.012000,-0.200000,-0.220000,2.720000,0.047752,Hold,54.717529,208896.000000,Hold,-69722.000000,69632.000000,LowGoal,3217.500000,-3272.727273,Speed,3240.000000,-3272.727273,Speed,Off,Off0.000000,3,Read: /home/lvuser/scripts/auto_03.bee,File good!,WAIT_FOR_PID,WAIT_FOR_PID
10:08:19.625 AM 03/20/2016,Autonomous Enabled,10,FALSE,0,NO ERROR,-0.000000,-0.121916,0.000000,-0.109083,TRUE,FALSE,TRUE,FALSE,FALSE,FALSE,Disabled,-0.387500,3.971875,-3.631875,TRUE,0.186554,0.936462,0.000000,-0.042679,0.050354,0.000000,-0.120000,-0.055000,0.128000,-0.200000,-0.220000,2.670000,0.054444,Hold,54.717529,208896.000000,Hold,-69722.000000,69632.000000,LowGoal,3232.500000,-3272.727273,Speed,3255.000000,-3272.727273,Speed,Off,Off0.000000,3,Read: /home/lvuser/scripts/auto_03.bee,File good!,WAIT_FOR_PID,WAIT_FOR_PID
10:08:19.725 AM 03/20/2016,Autonomous Enabled,9,FALSE,0,NO ERROR,-0.000000,-0.121916,0.000000,-0.109083,TRUE,FALSE,TRUE,FALSE,FALSE,FALSE,Disabled,-0.387500,3.971875,-3.631875,TRUE,0.184677,0.937286,0.000000,-0.020828,0.004883,0.000000,0.104000,-0.002000,0.103000,-0.200000,-0.250000,2.680000,0.060424,Hold,54.717529,208896.000000,Hold,-69722.000000,69632.000000,LowGoal,3217.500000,-3272.727273,Speed,3240.000000,-3272.727273,Speed,Off,Off0.000000,3,Read: /home/lvuser/scripts/auto_03.bee,File good!,WAIT_FOR_PID,WAIT_FOR_PID
10:08:19.825 AM 03/20/2016,Autonomous Enabled,10,FALSE,0,NO ERROR,-0.000000,-0.121916,0.000000,-0.109083,TRUE,FALSE,TRUE,FALSE,FALSE,FALSE,Disabled,-0.387500,3.971875,-3.631875,TRUE,0.184540,0.938675,0.000000,0.012070,0.040192,0.000000,-0.050000,-0.084000,-0.048000,-0.200000,-0.200000,2.680000,0.043156,Hold,54.717529,208896.000000,Hold,-69722.000000,69632.000000,LowGoal,3225.000000,-3272.727273,Speed,3240.000000,-3272.727273,Speed,Off,Off0.000000,3,Read: /home/lvuser/scripts/auto_03.bee,File good!,WAIT_FOR_PID,WAIT_FOR_PID
10:08:19.925 AM 03/20/2016,Autonomous Enabled,10,FALSE,0,NO ERROR,-0.000000,-0.121916,0.000000,-0.109083,TRUE,FALSE,TRUE,FALSE,FALSE,FALSE,Disabled,-0.387500,3.971875,-3.631875,TRUE,0.185898,0.938446,0.000000,0.005936,-0.036667,0.000000,0.059000,0.120000,0.101000,-0.200000,-0.230000,2.680000,0.046055,Hold,54.717529,208896.000000,Hold,-69722.000000,69632.000000,LowGoal,3225.000000,-3272.727273,Speed,3247.500000,-3272.727273,Speed,Off,Off0.000000,3,Read: /home/lvuser/scripts/auto_03.bee,File good!,WAIT_FOR_PID,WAIT_FOR_PID
10:08:20.025 AM 03/20/2016,Autonomous Enabled,10,FALSE,0,NO ERROR,-0.000000,-0.121916,0.000000,-0.109083,TRUE,FALSE,TRUE,FALSE,FALSE,FALSE,Disabled,-0.387500,3.971875,-3.631875,TRUE,0.185959,0.936584,0.000000,-0.009140,-0.016449,0.000000,0.047000,0.012000,0.034000,-0.200000,-0.230000,2.690000,0.032512,Hold,54.717529,208896.000000,Hold,-69722.000000,69632.000000,LowGoal,3225.000000,-3272.727273,Speed,3247.500000,-3272.727273,Speed,Off,Off0.000000,3,Read: /home/lvuser/scripts/auto_03.bee,File good!,WAIT_FOR_PID,WAIT_FOR_PID
10:08:20.125 AM 03/20/2016,Autonomous Enabled,10,FALSE,0,NO ERROR,-0.000000,-0.121916,0.000000,-0.109083,TRUE,FALSE,TRUE,FALSE,FALSE,FALSE,Disabled,-0.387500,3.971875,-3.631875,TRUE,0.185791,0.936890,0.000000,-0.006912,0.009399,0.000000,0.055000,-0.040000,0.157000,-0.200000,-0.220000,2.720000,0.031592,Hold,54.717529,208896.000000,Hold,-69722.000000,69632.000000,LowGoal,3217.500000,-3272.727273,Speed,3240.000000,-3272.727273,Speed,Off,Off0.000000,3,Read: /home/lvuser/scripts/auto_03.bee,File good!,WAIT_FOR_PID,WAIT_FOR_PID
10:08:20.225 AM 03/20/2016,Autonomous Enabled,10,FALSE,0,NO ERROR,-0.000000,-0.121916,0.000000,-0.109083,TRUE,FALSE,TRUE,FALSE,FALSE,FALSE,Disabled,-0.387500,3.971875,-3.631875,TRUE,0.184341,0.937454,0.000000,-0.053818,0.009308,0.000000,-0.123000,-0.012000,0.002000,-0.200000,-0.220000,2.690000,0.026497,Hold,54.717529,208896.000000,Hold,-69721.000000,69632.000000,LowGoal,3225.000000,-3272.727273,Speed,3247.500000,-3272.727273,Speed,Off,Off0.000000,3,Read: /home/lvuser/scripts/auto_03.bee,File good!,WAIT_FOR_PID,WAIT_FOR_PID
10:08:20.326 AM 03/20/2016,Autonomous Enabled,10,FALSE,0,NO ERROR,-0.000000,-0.121916,0.000000,-0.109083,TRUE,FALSE,TRUE,FALSE,FALSE,FALSE,Disabled,-0.387500,3.971875,-3.631875,TRUE,0.181030,0.937653,0.000000,-0.072266,0.000473,0.000000,-0.188000,-0.063000,0.069000,-0.190000,-0.250000,2.690000,0.027885,Hold,54.717529,208896.000000,Hold,-69721.000000,69632.000000,LowGoal,3225.000000,-3272.727273,Speed,3247.500000,-3272.727273,Speed,Off,Off0.000000,3,Read: /home/lvuser/scripts/auto_03.bee,File good!,WAIT_FOR_PID,WAIT_FOR_PID
10:08:20.426 AM 03/20/2016,Autonomous Enabled,10,FALSE,0,NO ERROR,-0.000000,-0.121916,0.000000,-0.109083,TRUE,FALSE,TRUE,FALSE,FALSE,FALSE,Disabled,-0.387500,3.971875,-3.631875,TRUE,0.176270,0.937759,0.000000,-0.069260,0.010925,0.000000,-0.117000,-0.151000,-0.020000,-0.190000,-0.200000,2.690000,0.036815,Hold,54.717529,208896.000000,Hold,-69721.000000,69632.000000,LowGoal,3225.000000,-3272.727273,Speed,3240.000000,-3272.727273,Speed,Off,Off0.000000,3,Read: /home/lvuser/scripts/auto_03.bee,File good!,WAIT_FOR_PID,WAIT_FOR_PID
10:08:20.526 AM 03/20/2016,Autonomous Enabled,9,FALSE,0,NO ERROR,-0.000000,-0.121916,0.000000,-0.109083,TRUE,FALSE,TRUE,FALSE,FALSE,FALSE,Disabled,-0.387500,3.971875,-3.631875,TRUE,0.173874,0.938797,0.000000,-0.044296,0.022888,0.000000,0.119000,0.184000,0.103000,-0.190000,-0.230000,2.640000,0.044822,Hold,54.717529,208896.000000,Hold,-69721.000000,69632.000000,LowGoal,3225.000000,-3272.727273,Speed,3247.500000,-3272.727273,Speed,Off,Off0.000000,3,Read: /home/lvuser/scripts/auto_03.bee,File good!,WAIT_FOR_PID,WAIT_FOR_PID
10:08:20.626 AM 03/20/2016,Autonomous Enabled,10,FALSE,0,NO ERROR,-0.000000,-0.121916,0.000000,-0.109083,TRUE,FALSE,TRUE,FALSE,FALSE,FALSE,Disabled,-0.387500,3.971875,-3.631875,TRUE,0.172775,0.939590,0.000000,0.004059,0.006836,0.000000,-0.009000,-0.114000,0.076000,-0.200000,-0.190000,2.670000,0.033809,Hold,54.717529,208896.000000,Hold,-69721.000000,69632.000000,LowGoal,3225.000000,-3272.727273,Speed,3255.000000,-3272.727273,Speed,Off,Off0.000000,3,Read: /home/lvuser/scripts/auto_03.bee,File good!,WAIT_FOR_PID,WAIT_FOR_PID
10:08:20.726 AM 03/20/2016,Autonomous Enabled,7,FALSE,0,NO ERROR,-0.000000,-0.121916,0.000000,-0.109083,TRUE,FALSE,TRUE,FALSE,FALSE,FALSE,Disabled,-0.387500,3.971875,-3.631875,TRUE,0.173523,0.941086,0.000000,0.032288,0.048355,0.000000,0.029000,0.054000,-0.074000,-0.200000,-0.210000,2.690000,0.035630,Hold,54.717529,208896.000000,Hold,-69721.000000,69632.000000,LowGoal,3232.500000,-3272.727273,Speed,3247.500000,-3272.727273,Speed,Off,Off0.000000,3,Read: /home/lvuser/scripts/auto_03.bee,File good!,WAIT_FOR_PID,WAIT_FOR_PID
10:08:20.826 AM 03/20/2016,Autonomous Enabled,10,FALSE,0,NO ERROR,-0.000000,-0.121916,0.000000,-0.109083,TRUE,FALSE,TRUE,FALSE,FALSE,FALSE,Disabled,-0.387500,3.971875,-3.631875,TRUE,0.175705,0.941299,0.000000,0.036926,-0.029892,0.000000,0.136000,0.026000,0.254000,-0.200000,-0.190000,2.700000,0.026849,Hold,54.717529,208896.000000,Hold,-69721.000000,69632.000000,LowGoal,3225.000000,-3272.727273,Speed,3240.000000,-3272.727273,Speed,Off,Off0.000000,3,Read: /home/lvuser/scripts/auto_03.bee,File good!,WAIT_FOR_PID,WAIT_FOR_PID
10:08:20.926 AM 03/20/2016,Autonomous Enabled,10,FALSE,0,NO ERROR,-0.000000,-0.121916,0.000000,-0.109083,TRUE,FALSE,TRUE,FALSE,FALSE,FALSE,Disabled,-0.387500,3.971875,-3.631875,TRUE,0.176804,0.941849,0.000000,0.021545,0.034180,0.000000,-0.120000,-0.092000,-0.231000,-0.190000,-0.160000,2.710000,0.033069,Hold,54.717529,208896.000000,Hold,-69721.000000,69632.000000,LowGoal,3232.500000,-3272.727273,Speed,3240.000000,-3272.727273,Speed,Off,Off0.000000,3,Read: /home/lvuser/scripts/auto_03.bee,File good!,WAIT_FOR_PID,WAIT_FOR_PID
10:08:21.026 AM 03/20/2016,Autonomous Enabled,7,FALSE,0,NO ERROR,-0.000000,-0.121916,0.000000,-0.109083,TRUE,FALSE,TRUE,FALSE,FALSE,FALSE,Disabled,-0.387500,3.971875,-3.631875,TRUE,0.177414,0.943604,0.000000,-0.002609,0.022202,0.000000,0.097000,0.083000,0.112000,-0.190000,-0.190000,2.690000,0.025354,Hold,54.717529,208896.000000,Hold,-69721.000000,69632.000000,LowGoal,3232.500000,-3272.727273,Speed,3247.500000,-3272.727273,Speed,Off,Off0.000000,3,Read: /home/lvuser/scripts/auto_03.bee,File good!,WAIT_FOR_PID,WAIT_FOR_PID
10:08:21.126 AM 03/20/2016,Autonomous Enabled,9,FALSE,0,NO ERROR,-0.000000,-0.121916,0.000000,-0.109083,TRUE,FALSE,TRUE,FALSE,FALSE,FALSE,Disabled,-0.387500,3.971875,-3.631875,TRUE,0.176407,0.944092,0.000000,-0.037018,0.025818,0.000000,-0.164000,-0.072000,-0.026000,-0.190000,-0.180000,2.710000,0.001064,Hold,54.717529,208896.000000,Hold,-69721.000000,69632.000000,LowGoal,3225.000000,-3272.727273,Speed,3247.500000,-3272.727273,Speed,Off,Off0.000000,3,Read: /home/lvuser/scripts/auto_03.bee,File good!,WAIT_FOR_PID,WAIT_FOR_PID
10:08:21.226 AM 03/20/2016,Autonomous Enabled,9,FALSE,0,NO ERROR,-0.000000,-0.121916,0.000000,-0.109083,TRUE,FALSE,TRUE,FALSE,FALSE,FALSE,Disabled,-0.387500,3.971875,-3.631875,TRUE,0.173492,0.947067,0.000000,-0.044220,0.038956,0.000000,0.101000,0.020000,0.086000,-0.200000,-0.210000,2.720000,0.008424,Hold,54.717529,208896.000000,Hold,-69721.000000,69632.000000,LowGoal,3225.000000,-3272.727273,Speed,3247.500000,-3272.727273,Speed,Off,Off0.000000,3,Read: /home/lvuser/scripts/auto_03.bee,File good!,WAIT_FOR_PID,WAIT_FOR_PID
10:08:21.327 AM 03/20/2016,Autonomous Enabled,10,FALSE,0,NO ERROR,-0.000000,-0.121916,0.000000,-0.109083,TRUE,FALSE,TRUE,FALSE,FALSE,FALSE,Disabled,-0.387500,3.971875,-3.631875,TRUE,0.170654,0.946014,0.000000,-0.074020,-0.031921,0.000000,0.028000,0.252000,0.176000,-0.190000,-0.220000,2.630000,0.013626,Hold,54.717529,208896.000000,Hold,-69721.000000,69632.000000,LowGoal,3225.000000,-3272.727273,Speed,3247.500000,-3272.727273,Speed,Off,Off0.000000,3,Read: /home/lvuser/scripts/auto_03.bee,File good!,WAIT_FOR_PID,WAIT_FOR_PID
10:08:21.428 AM 03/20/2016,Autonomous Enabled,9,FALSE,0,NO ERROR,-0.000000,-0.121916,0.000000,-0.109083,TRUE,FALSE,TRUE,FALSE,FALSE,FALSE,Disabled,-0.387500,3.971875,-3.631875,TRUE,0.165970,0.948181,0.000000,-0.083221,0.066040,0.000000,-0.016000,-0.048000,-0.084000,-0.200000,-0.230000,2.690000,0.016480,Hold,54.717529,208896.000000,Hold,-69721.000000,69632.000000,LowGoal,3232.500000,-3272.727273,Speed,3247.500000,-3272.727273,Speed,Off,Off0.000000,3,Read: /home/lvuser/scripts/auto_03.bee,File good!,WAIT_FOR_PID,WAIT_FOR_PID
10:08:21.528 AM 03/20/2016,Autonomous Enabled,9,FALSE,0,NO ERROR,-0.000000,-0.121916,0.000000,-0.109083,TRUE,FALSE,TRUE,FALSE,FALSE,FALSE,Disabled,-0.387500,3.971875,-3.631875,TRUE,0.162842,0.949173,0.000000,-0.053482,-0.019333,0.000000,0.050000,-0.020000,0.069000,-0.190000,-0.210000,2.670000,0.036959,Hold,54.717529,208896.000000,Hold,-69721.000000,69632.000000,LowGoal,3225.000000,-3272.727273,Speed,3247.500000,-3272.727273,Speed,Off,Off0.000000,3,Read: /home/lvuser/scripts/auto_03.bee,File good!,WAIT_FOR_PID,WAIT_FOR_PID
10:08:21.629 AM 03/20/2016,Autonomous Enabled,8,FALSE,0,NO ERROR,-0.000000,-0.121916,0.000000,-0.109083,TRUE,FALSE,TRUE,FALSE,FALSE,FALSE,Disabled,-0.387500,3.971875,-3.631875,TRUE,0.161148,0.949097,0.000000,-0.021851,0.028671,0.000000,0.122000,0.084000,0.091000,-0.200000,-0.200000,2.710000,0.047889,Hold,54.717529,208896.000000,Hold,-69721.000000,69632.000000,LowGoal,3225.000000,-3272.727273,Speed,3240.000000,-3272.727273,Speed,Off,Off0.000000,3,Read: /home/lvuser/scripts/auto_03.bee,File good!,WAIT_FOR_PID,WAIT_FOR_PID
10:08:21.729 AM 03/20/2016,Autonomous Enabled,9,FALSE,0,NO ERROR,-0.000000,-0.121916,0.000000,-0.109083,TRUE,FALSE,TRUE,FALSE,FALSE,FALSE,Disabled,-0.387500,3.971875,-3.631875,TRUE,0.162506,0.950851,0.000000,0.040543,0.009445,0.000000,-0.030000,-0.102000,0.077000,-0.200000,-0.180000,2.660000,0.046588,Hold,54.717529,208896.000000,Hold,-69721.000000,69632.000000,LowGoal,3225.000000,-3272.727273,Speed,3240.000000,-3272.727273,Speed,Off,Off0.000000,3,Read: /home/lvuser/scripts/auto_03.bee,File good!,WAIT_FOR_PID,WAIT_FOR_PID
10:08:21.830 AM 03/20/2016,Autonomous Enabled,9,FALSE,0,NO ERROR,-0.000000,-0.121916,0.000000,-0.109083,TRUE,FALSE,TRUE,FALSE,FALSE,FALSE,Disabled,-0.387500,3.971875,-3.631875,TRUE,0.163391,0.948578,0.000000,-0.023651,-0.038574,0.000000,0.004000,-0.012000,-0.078000,-0.190000,-0.210000,2.620000,0.039424,Hold,54.717529,208896.000000,Hold,-69721.000000,69632.000000,LowGoal,3232.500000,-3272.727273,Speed,3247.500000,-3272.727273,Speed,Off,Off0.000000,3,Read: /home/lvuser/scripts/auto_03.bee,File good!,WAIT_FOR_PID,WAIT_FOR_PID
10:08:21.932 AM 03/20/2016,Autonomous Enabled,11,FALSE,0,NO ERROR,-0.000000,-0.121916,0.000000,-0.109083,TRUE,FALSE,TRUE,FALSE,FALSE,FALSE,Disabled,-0.387500,3.971875,-3.631875,TRUE,0.159988,0.949783,0.000000,-0.085907,0.053299,0.000000,-0.179000,0.044000,-0.162000,-0.200000,-0.170000,2.630000,0.053150,Hold,54.717529,208896.000000,Hold,-69721.000000,69632.000000,LowGoal,3232.500000,-3272.727273,Speed,3247.500000,-3272.727273,Speed,Off,Off0.000000,3,Read: /home/lvuser/scripts/auto_03.bee,File good!,WAIT_FOR_PID,WAIT_FOR_PID
10:08:22.033 AM 03/20/2016,Autonomous Enabled,11,FALSE,0,NO ERROR,-0.000000,-0.121916,0.000000,-0.109083,TRUE,FALSE,TRUE,FALSE,FALSE,FALSE,Disabled,-0.387500,3.971875,-3.631875,TRUE,0.154449,0.950241,0.000000,-0.131287,-0.018402,0.000000,0.040000,0.031000,0.185000,-0.200000,-0.220000,2.620000,0.060086,Hold,54.717529,208896.000000,Hold,-69721.000000,69632.000000,LowGoal,3262.500000,-3272.727273,Speed,3240.000000,-3272.727273,Speed,Off,Off0.000000,3,Read: /home/lvuser/scripts/auto_03.bee,File good!,WAIT_FOR_PID,WAIT_FOR_PID
10:08:22.134 AM 03/20/2016,Autonomous Enabled,12,FALSE,0,NO ERROR,-0.000000,-0.121916,0.000000,-0.109083,TRUE,FALSE,TRUE,FALSE,FALSE,FALSE,Disabled,-0.387500,3.971875,-3.631875,TRUE,0.146973,0.952698,0.000000,-0.152130,0.106735,0.000000,-0.107000,0.182000,-0.089000,-0.200000,-0.200000,2.610000,0.054713,Hold,54.717529,208896.000000,Hold,-69721.000000,69632.000000,LowGoal,3232.500000,-3272.727273,Speed,3255.000000,-3272.727273,Speed,Off,Off0.000000,3,Read: /home/lvuser/scripts/auto_03.bee,File good!,WAIT_FOR_PID,WAIT_FOR_PID
10:08:22.234 AM 03/20/2016,Autonomous Enabled,13,FALSE,0,NO ERROR,-0.000000,-0.121916,0.000000,-0.109083,TRUE,FALSE,TRUE,FALSE,FALSE,FALSE,Disabled,-0.387500,3.971875,-3.631875,TRUE,0.140259,0.957687,0.000000,-0.117615,0.053375,0.000000,-0.131000,-0.024000,0.203000,-0.200000,-0.230000,2.650000,0.052950,Hold,54.717529,208896.000000,Hold,-69720.000000,69632.000000,LowGoal,3232.500000,-3272.727273,Speed,3255.000000,-3272.727273,Speed,Off,Off0.000000,3,Read: /home/lvuser/scripts/auto_03.bee,File good!,WAIT_FOR_PID,WAIT_FOR_PID
10:08:22.334 AM 03/20/2016,Autonomous Enabled,12,FALSE,0,NO ERROR,-0.000000,-0.121916,0.000000,-0.109083,TRUE,FALSE,TRUE,FALSE,FALSE,FALSE,Disabled,-0.387500,3.971875,-3.631875,TRUE,0.134537,0.958557,0.000000,-0.100433,0.019669,0.000000,0.118000,0.195000,0.183000,-0.200000,-0.190000,2.630000,0.046853,Hold,54.717529,208896.000000,Hold,-69720.000000,69632.000000,LowGoal,3232.500000,-3272.727273,Speed,3255.000000,-3272.727273,Speed,Off,Off0.000000,3,Read: /home/lvuser/scripts/auto_03.bee,File good!,WAIT_FOR_PID,WAIT_FOR_PID
10:08:22.434 AM 03/20/2016,Autonomous Enabled,9,FALSE,0,NO ERROR,-0.000000,-0.121916,0.000000,-0.109083,TRUE,FALSE,TRUE,FALSE,FALSE,FALSE,Disabled,-0.387500,3.971875,-3.631875,TRUE,0.130356,0.961411,0.000000,-0.072205,0.059418,0.000000,0.026000,-0.149000,0.021000,-0.200000,-0.170000,2.710000,0.043782,Hold,54.717529,208896.000000,Hold,-69720.000000,69632.000000,LowGoal,3232.500000,-3272.727273,Speed,3240.000000,-3272.727273,Speed,Off,Off0.000000,3,Read: /home/lvuser/scripts/auto_03.bee,File good!,WAIT_FOR_PID,WAIT_FOR_PID
10:08:22.534 AM 03/20/2016,Autonomous Enabled,10,FALSE,0,NO ERROR,-0.000000,-0.121916,0.000000,-0.109083,TRUE,FALSE,TRUE,FALSE,FALSE,FALSE,Disabled,-0.387500,3.971875,-3.631875,TRUE,0.127426,0.962143,0.000000,-0.067078,-0.016602,0.000000,-0.069000,-0.098000,0.140000,-0.200000,-0.170000,2.620000,0.025206,Hold,54.717529,208896.000000,Hold,-69720.000000,69632.000000,LowGoal,3232.500000,-3272.727273,Speed,3240.000000,-3272.727273,Speed,Off,Off0.000000,3,Read: /home/lvuser/scripts/auto_03.bee,File good!,WAIT_FOR_PID,WAIT_FOR_PID
10:08:22.634 AM 03/20/2016,Autonomous Enabled,12,FALSE,0,NO ERROR,-0.000000,-0.121916,0.000000,-0.109083,TRUE,FALSE,TRUE,FALSE,FALSE,FALSE,Disabled,-0.387500,3.971875,-3.631875,TRUE,0.122269,0.962891,0.000000,-0.114471,0.040253,0.000000,0.040000,-0.081000,0.039000,-0.210000,-0.180000,2.690000,0.032123,Hold,54.717529,208896.000000,Hold,-69720.000000,69632.000000,LowGoal,3232.500000,-3272.727273,Speed,3247.500000,-3272.727273,Speed,Off,Off0.000000,3,Read: /home/lvuser/scripts/auto_03.bee,File good!,WAIT_FOR_PID,WAIT_FOR_PID
10:08:22.735 AM 03/20/2016,Autonomous Enabled,10,FALSE,0,NO ERROR,-0.000000,-0.121916,0.000000,-0.109083,TRUE,FALSE,TRUE,FALSE,FALSE,FALSE,Disabled,-0.387500,3.971875,-3.631875,TRUE,0.117065,0.964905,0.000000,-0.092606,0.021118,0.000000,-0.136000,0.105000,0.057000,-0.210000,-0.170000,2.650000,0.033451,Hold,54.717529,208896.000000,Hold,-69720.000000,69632.000000,LowGoal,3232.500000,-3272.727273,Speed,3255.000000,-3272.727273,Speed,Off,Off0.000000,3,Read: /home/lvuser/scripts/auto_03.bee,File good!,WAIT_FOR_PID,WAIT_FOR_PID
10:08:22.836 AM 03/20/2016,Autonomous Enabled,10,FALSE,0,NO ERROR,-0.000000,-0.121916,0.000000,-0.109083,TRUE,FALSE,TRUE,FALSE,FALSE,FALSE,Disabled,-0.387500,3.971875,-3.631875,TRUE,0.111435,0.966339,0.000000,-0.123688,0.052582,0.000000,0.122000,0.091000,0.088000,-0.210000,-0.190000,2.690000,0.034457,Hold,54.717529,208896.000000,Hold,-69720.000000,69632.000000,LowGoal,3232.500000,-3272.727273,Speed,3255.000000,-3272.727273,Speed,Off,Off0.000000,3,Read: /home/lvuser/scripts/auto_03.bee,File good!,WAIT_FOR_PID,WAIT_FOR_PID
10:08:22.936 AM 03/20/2016,Autonomous Enabled,10,FALSE,0,NO ERROR,-0.000000,-0.121916,0.000000,-0.109083,TRUE,FALSE,TRUE,FALSE,FALSE,FALSE,Disabled,-0.387500,3.971875,-3.631875,TRUE,0.105286,0.971222,0.000000,-0.123962,0.109299,0.000000,-0.065000,-0.262000,-0.100000,-0.210000,-0.180000,2.730000,0.020793,Hold,54.717529,208896.000000,Hold,-69720.000000,69632.000000,LowGoal,3240.000000,-3272.727273,Speed,3247.500000,-3272.727273,Speed,Off,Off0.000000,3,Read: /home/lvuser/scripts/auto_03.bee,File good!,WAIT_FOR_PID,WAIT_FOR_PID
10:08:23.037 AM 03/20/2016,Autonomous Enabled,11,FALSE,0,NO ERROR,-0.000000,-0.121916,0.000000,-0.109083,TRUE,FALSE,TRUE,FALSE,FALSE,FALSE,Disabled,-0.387500,3.971875,-3.631875,TRUE,0.098907,0.973755,0.000000,-0.144135,0.020966,0.000000,0.023000,0.210000,0.183000,-0.210000,-0.210000,2.680000,0.026119,Hold,54.717529,208896.000000,Hold,-69720.000000,69632.000000,LowGoal,3232.500000,-3272.727273,Speed,3240.000000,-3272.727273,Speed,Off,Off0.000000,3,Read: /home/lvuser/scripts/auto_03.bee,File good!,WAIT_FOR_PID,WAIT_FOR_PID
10:08:23.137 AM 03/20/2016,Autonomous Enabled,10,FALSE,0,NO ERROR,-0.000000,-0.121916,0.000000,-0.109083,TRUE,FALSE,TRUE,FALSE,FALSE,FALSE,Disabled,-0.387500,3.971875,-3.631875,TRUE,0.090652,0.975662,0.000000,-0.157791,0.062637,0.000000,-0.084000,-0.115000,-0.066000,-0.200000,-0.190000,2.720000,0.028167,Hold,54.717529,208896.000000,Hold,-69720.000000,69632.000000,LowGoal,3232.500000,-3272.727273,Speed,3255.000000,-3272.727273,Speed,Off,Off0.000000,3,Read: /home/lvuser/scripts/auto_03.bee,File good!,WAIT_FOR_PID,WAIT_FOR_PID
10:08:23.237 AM 03/20/2016,Autonomous Enabled,11,FALSE,0,NO ERROR,-0.000000,-0.121916,0.000000,-0.109083,TRUE,FALSE,TRUE,FALSE,FALSE,FALSE,Disabled,-0.387500,3.971875,-3.631875,TRUE,0.083435,0.979263,0.000000,-0.100357,0.049316,0.000000,0.134000,0.128000,0.142000,-0.200000,-0.200000,2.640000,0.013877,Hold,54.717529,208896.000000,Hold,-69720.000000,69632.000000,LowGoal,3225.000000,-3272.727273,Speed,3262.500000,-3272.727273,Speed,Off,Off0.000000,3,Read: /home/lvuser/scripts/auto_03.bee,File good!,WAIT_FOR_PID,WAIT_FOR_PID
10:08:23.337 AM 03/20/2016,Autonomous Enabled,10,FALSE,0,NO ERROR,-0.000000,-0.121916,0.000000,-0.109083,TRUE,FALSE,TRUE,FALSE,FALSE,FALSE,Disabled,-0.387500,3.971875,-3.631875,TRUE,0.079102,0.980255,0.000000,-0.069885,0.005630,0.000000,0.001000,-0.170000,-0.063000,-0.210000,-0.170000,2.740000,0.027310,Hold,54.717529,208896.000000,Hold,-69720.000000,69632.000000,LowGoal,3217.500000,-3272.727273,Speed,3255.000000,-3272.727273,Speed,Off,Off0.000000,3,Read: /home/lvuser/scripts/auto_03.bee,File good!,WAIT_FOR_PID,WAIT_FOR_PID
10:08:23.437 AM 03/20/2016,Autonomous Enabled,13,FALSE,0,NO ERROR,-0.000000,-0.121916,0.000000,-0.109083,TRUE,FALSE,TRUE,FALSE,FALSE,FALSE,Disabled,-0.387500,3.971875,-3.631875,TRUE,0.076859,0.980988,0.000000,-0.025223,0.012253,0.000000,0.058000,0.122000,0.048000,-0.210000,-0.170000,2.670000,0.004668,Hold,54.717529,208896.000000,Hold,-69720.000000,69632.000000,LowGoal,3240.000000,-3272.727273,Speed,3255.000000,-3272.727273,Speed,Off,Off0.000000,3,Read: /home/lvuser/scripts/auto_03.bee,File good!,WAIT_FOR_PID,WAIT_FOR_PID
10:08:23.537 AM 03/20/2016,Autonomous Enabled,13,FALSE,0,NO ERROR,-0.000000,-0.121916,0.000000,-0.109083,TRUE,FALSE,TRUE,FALSE,FALSE,FALSE,Disabled,-0.387500,3.971875,-3.631875,TRUE,0.075790,0.981293,0.000000,-0.020767,-0.006973,0.000000,0.001000,0.098000,0.091000,-0.210000,-0.160000,2.710000,0.009126,Hold,54.717529,208896.000000,Hold,-69720.000000,69632.000000,LowGoal,3240.000000,-3272.727273,Speed,3247.500000,-3272.727273,Speed,Off,Off0.000000,3,Read: /home/lvuser/scripts/auto_03.bee,File good!,WAIT_FOR_PID,WAIT_FOR_PID
10:08:23.638 AM 03/20/2016,Autonomous Enabled,10,FALSE,0,NO ERROR,-0.000000,-0.121916,0.000000,-0.109083,TRUE,FALSE,TRUE,FALSE,FALSE,FALSE,Disabled,-0.387500,3.971875,-3.631875,TRUE,0.075546,0.981552,0.000000,-0.008179,0.021912,0.000000,0.179000,0.179000,0.184000,-0.210000,-0.130000,2.700000,0.013526,Hold,54.717529,208896.000000,Hold,-69720.000000,69632.000000,LowGoal,3232.500000,-3272.727273,Speed,3247.500000,-3272.727273,Speed,Off,Off0.000000,3,Read: /home/lvuser/scripts/auto_03.bee,File good!,WAIT_FOR_PID,WAIT_FOR_PID
10:08:23.738 AM 03/20/2016,Autonomous Enabled,11,FALSE,0,NO ERROR,-0.000000,-0.121916,0.000000,-0.109083,TRUE,FALSE,TRUE,FALSE,FALSE,FALSE,Disabled,-0.387500,3.971875,-3.631875,TRUE,0.075974,0.984238,0.000000,0.014725,0.052643,0.000000,-0.145000,-0.129000,-0.205000,-0.210000,-0.140000,2.680000,0.023175,Hold,54.717529,208896.000000,Hold,-69720.000000,69632.000000,LowGoal,3232.500000,-3272.727273,Speed,3247.500000,-3272.727273,Speed,Off,Off0.000000,3,Read: /home/lvuser/scripts/auto_03.bee,File good!,WAIT_FOR_PID,WAIT_FOR_PID
10:08:23.839 AM 03/20/2016,Autonomous Enabled,10,FALSE,0,NO ERROR,-0.000000,-0.121916,0.000000,-0.109083,TRUE,FALSE,TRUE,FALSE,FALSE,FALSE,Disabled,-0.387500,3.971875,-3.631875,TRUE,0.075607,0.986786,0.000000,-0.015701,0.057327,0.000000,-0.145000,-0.129000,-0.205000,-0.210000,-0.150000,2.690000,0.013622,Hold,54.717529,208896.000000,Hold,-69720.000000,69632.000000,LowGoal,3240.000000,-3272.727273,Speed,3255.000000,-3272.727273,Speed,Off,Off0.000000,3,Read: /home/lvuser/scripts/auto_03.bee,File good!,WAIT_FOR_PID,WAIT_FOR_PID
10:08:23.939 AM 03/20/2016,Autonomous Enabled,9,FALSE,0,NO ERROR,-0.000000,-0.121916,0.000000,-0.109083,TRUE,FALSE,TRUE,FALSE,FALSE,FALSE,Disabled,-0.387500,3.971875,-3.631875,TRUE,0.073090,0.992081,0.000000,-0.057724,0.103394,0.000000,0.089000,0.208000,0.165000,-0.210000,-0.150000,2.690000,-0.000052,Hold,54.717529,208896.000000,Hold,-69719.000000,69632.000000,LowGoal,3240.000000,-3272.727273,Speed,3247.500000,-3272.727273,Speed,Off,Off0.000000,3,Read: /home/lvuser/scripts/auto_03.bee,File good!,WAIT_FOR_PID,WAIT_FOR_PID
10:08:24.039 AM 03/20/2016,Autonomous Enabled,10,FALSE,0,NO ERROR,-0.000000,-0.121916,0.000000,-0.109083,TRUE,FALSE,TRUE,FALSE,FALSE,FALSE,Disabled,-0.387500,3.971875,-3.631875,TRUE,0.070572,0.995789,0.000000,-0.074692,0.083755,0.000000,0.035000,0.136000,0.185000,-0.210000,-0.150000,2.740000,0.007467,Hold,54.717529,208896.000000,Hold,-69719.000000,69632.000000,LowGoal,3232.500000,-3272.727273,Speed,3255.000000,-3272.727273,Speed,Off,Off0.000000,3,Read: /home/lvuser/scripts/auto_03.bee,File good!,WAIT_FOR_PID,WAIT_FOR_PID
10:08:24.139 AM 03/20/2016,Autonomous Enabled,10,FALSE,0,NO ERROR,-0.000000,-0.121916,0.000000,-0.109083,TRUE,FALSE,TRUE,FALSE,FALSE,FALSE,Disabled,-0.387500,3.971875,-3.631875,TRUE,0.065811,0.998901,0.000000,-0.104034,0.038773,0.000000,-0.178000,-0.062000,0.091000,-0.210000,-0.140000,2.760000,0.012686,Hold,54.717529,208896.000000,Hold,-69719.000000,69632.000000,LowGoal,3232.500000,-3272.727273,Speed,3247.500000,-3272.727273,Speed,Off,Off0.000000,3,Read: /home/lvuser/scripts/auto_03.bee,File good!,WAIT_FOR_PID,WAIT_FOR_PID
10:08:24.240 AM 03/20/2016,Autonomous Enabled,10,FALSE,0,NO ERROR,-0.000000,-0.121916,0.000000,-0.109083,TRUE,FALSE,TRUE,FALSE,FALSE,FALSE,Disabled,-0.387500,3.971875,-3.631875,TRUE,0.058517,1.001495,0.000000,-0.173462,0.067200,0.000000,-0.178000,-0.062000,0.091000,-0.210000,-0.190000,2.760000,-0.005680,Hold,54.717529,208896.000000,Hold,-69719.000000,69632.000000,LowGoal,3240.000000,-3272.727273,Speed,3247.500000,-3272.727273,Speed,Off,Off0.000000,3,Read: /home/lvuser/scripts/auto_03.bee,File good!,WAIT_FOR_PID,WAIT_FOR_PID
10:08:24.341 AM 03/20/2016,Autonomous Enabled,9,FALSE,0,NO ERROR,-0.000000,-0.121916,0.000000,-0.109083,TRUE,FALSE,TRUE,FALSE,FALSE,FALSE,Disabled,-0.387500,3.971875,-3.631875,TRUE,0.047302,1.004730,0.000000,-0.187576,0.056442,0.000000,0.075000,-0.036000,-0.027000,-0.210000,-0.190000,2.760000,-0.005240,Hold,54.717529,208896.000000,Hold,-69719.000000,69632.000000,LowGoal,3240.000000,-3272.727273,Speed,3255.000000,-3272.727273,Speed,Off,Off0.000000,3,Read: /home/lvuser/scripts/auto_03.bee,File good!,WAIT_FOR_PID,WAIT_FOR_PID
10:08:24.441 AM 03/20/2016,Autonomous Enabled,9,FALSE,0,NO ERROR,-0.000000,-0.121916,0.000000,-0.109083,TRUE,FALSE,TRUE,FALSE,FALSE,FALSE,Disabled,-0.387500,3.971875,-3.631875,TRUE,0.040253,1.007706,0.000000,-0.158997,0.092056,0.000000,-0.073000,0.049000,0.023000,-0.210000,-0.180000,2.760000,-0.009987,Hold,54.717529,208896.000000,Hold,-69719.000000,69632.000000,LowGoal,3247.500000,-3272.727273,Speed,3255.000000,-3272.727273,Speed,Off,Off0.000000,3,Read: /home/lvuser/scripts/auto_03.bee,File good!,WAIT_FOR_PID,WAIT_FOR_PID
10:08:24.541 AM 03/20/2016,Autonomous Enabled,10,FALSE,0,NO ERROR,-0.000000,-0.121916,0.000000,-0.109083,TRUE,FALSE,TRUE,FALSE,FALSE,FALSE,Disabled,-0.387500,3.971875,-3.631875,TRUE,0.034286,1.011719,0.000000,-0.090759,0.049637,0.000000,0.112000,-0.028000,0.173000,-0.200000,-0.210000,2.760000,-0.015553,Hold,54.717529,208896.000000,Hold,-69719.000000,69632.000000,LowGoal,3240.000000,-3272.727273,Speed,3247.500000,-3272.727273,Speed,Off,Off0.000000,3,Read: /home/lvuser/scripts/auto_03.bee,File good!,WAIT_FOR_PID,WAIT_FOR_PID
10:08:24.641 AM 03/20/2016,Autonomous Enabled,9,FALSE,0,NO ERROR,-0.000000,-0.121916,0.000000,-0.109083,TRUE,FALSE,TRUE,FALSE,FALSE,FALSE,Disabled,-0.387500,3.971875,-3.631875,TRUE,0.031204,1.014328,0.000000,-0.020874,0.067215,0.000000,0.112000,-0.028000,0.173000,-0.210000,-0.200000,2.730000,-0.000527,Hold,54.717529,208896.000000,Hold,-69719.000000,69632.000000,LowGoal,3262.500000,-3272.727273,Speed,3255.000000,-3272.727273,Speed,Off,Off0.000000,3,Read: /home/lvuser/scripts/auto_03.bee,File good!,WAIT_FOR_PID,WAIT_FOR_PID
10:08:24.742 AM 03/20/2016,Autonomous Enabled,10,FALSE,0,NO ERROR,-0.000000,-0.121916,0.000000,-0.109083,TRUE,FALSE,TRUE,FALSE,FALSE,FALSE,Disabled,-0.387500,3.971875,-3.631875,TRUE,0.031998,1.018417,0.000000,0.032486,0.073029,0.000000,0.089000,0.016000,-0.035000,-0.210000,-0.200000,2.730000,-0.004069,Hold,54.717529,208896.000000,Hold,-69719.000000,69632.000000,LowGoal,3270.000000,-3272.727273,Speed,3255.000000,-3272.727273,Speed,Off,Off0.000000,3,Read: /home/lvuser/scripts/auto_03.bee,File good!,WAIT_FOR_PID,WAIT_FOR_PID
10:08:24.842 AM 03/20/2016,Autonomous Enabled,9,FALSE,0,NO ERROR,-0.000000,-0.121916,0.000000,-0.109083,TRUE,FALSE,TRUE,FALSE,FALSE,FALSE,Disabled,-0.387500,3.971875,-3.631875,TRUE,0.034576,1.022736,0.000000,0.070847,0.096375,0.000000,-0.013000,-0.037000,0.003000,-0.200000,-0.210000,2.810000,-0.003735,Hold,54.717529,208896.000000,Hold,-69719.000000,69632.000000,LowGoal,3262.500000,-3272.727273,Speed,3247.500000,-3272.727273,Speed,Off,Off0.000000,3,Read: /home/lvuser/scripts/auto_03.bee,File good!,WAIT_FOR_PID,WAIT_FOR_PID
10:08:24.942 AM 03/20/2016,Autonomous Enabled,9,FALSE,0,NO ERROR,-0.000000,-0.121916,0.000000,-0.109083,TRUE,FALSE,TRUE,FALSE,FALSE,FALSE,Disabled,-0.387500,3.971875,-3.631875,TRUE,0.038574,1.028488,0.000000,0.090881,0.111633,0.000000,0.036000,0.187000,0.098000,-0.210000,-0.190000,2.830000,-0.016239,Hold,54.717529,208896.000000,Hold,-69719.000000,69632.000000,LowGoal,3247.500000,-3272.727273,Speed,3262.500000,-3272.727273,Speed,Off,Off0.000000,3,Read: /home/lvuser/scripts/auto_03.bee,File good!,WAIT_FOR_PID,WAIT_FOR_PID
10:08:25.042 AM 03/20/2016,Autonomous Enabled,7,FALSE,0,NO ERROR,-0.000000,-0.121916,0.000000,-0.109083,TRUE,FALSE,TRUE,FALSE,FALSE,FALSE,Disabled,-0.387500,3.971875,-3.631875,TRUE,0.043777,1.033417,0.000000,0.092972,0.094681,0.000000,0.025000,-0.148000,-0.104000,-0.210000,-0.190000,2.820000,-0.001876,Hold,54.717529,208896.000000,Hold,-69719.000000,69632.000000,LowGoal,3262.500000,-3272.727273,Speed,3262.500000,-3272.727273,Speed,Off,Off0.000000,3,Read: /home/lvuser/scripts/auto_03.bee,File good!,WAIT_FOR_PID,WAIT_FOR_PID
