Time,Robot Mode,Loop Time,Error Status,Error Code,Error Source,Left Motor Output,Left Motor Encoder,Right Motor Output,Right Motor Encoder,Is Level,Is Stalled,Ball Detector Photoeye,Vision Enabled,Vision Teleop Control,Vision Auto Control,Vision Current State,Vision X Output,Vision NavX Error,Vision NavX Target,NavX Connection Status,NavX Displacement X,NavX Displacement Y,NavX Displacement Z,NavX Velocity X,NavX Velocity Y,NavX Velocity Z,NavX Acceleration X,NavX Acceleration Y,NavX Acceleration Z,NavX Pitch,NavX Yaw,NavX Roll,Gyro Angle,Roller Arm State,Roller Arm Actual,Roller Arm Desired,Shooter Arm State,Shooter Arm Actual,Shooter Arm Desired,Shooter State,Actual RPM Left,Desired RPM Left,Control Mode Left,Actual RPM Right,Desired RPM Right,Control Mode Right,Ball Shooter Cylinder,Ball Halo Cylinder,Scaler Motor Output,Scaler Solenoid Fire,Auto To Run,Auto Current File,Auto File Status,Auto Current Command,Auto Trimmed Command,Shooter Amps Left,Shooter Amps Right
08:58:21.507 PM 03/30/2016,Teleop Enabled,9,TRUE,-44003,<LOCATION>WPI_CameraIssue HTTP Request with Authentication.vi<CALLSTACK>WPI_CameraIssue HTTP Request with Authentication.vi< <WPI_CameraIssue Get.vi< <WPI_CameraSet Image Appearance Property.vi< <WPI_CameraSet Image Size.vi< <Vision Processing.vi< <Robot Main.vi,-0.000000,0.000000,0.000000,0.000000,TRUE,TRUE,FALSE,TRUE,FALSE,FALSE,Disabled,0.000000,0.000000,0.000000,TRUE,-0.294678,-0.321640,0.000000,0.000000,0.000000,0.000000,0.001000,0.000000,0.016000,0.000000,-0.290000,2.480000,-0.046437,ResetBack,1.000244,-0.000049,ResetBack,27928.000000,-0.250000,Suck,0.000000,0.000000,Speed,0.000000,0.000000,Speed,Off,On,0.000000,FALSE,0,,,,,0.000000,0.000000
08:58:21.607 PM 03/30/2016,Teleop Enabled,9,TRUE,-44087,NetComm_CAN_Receive.vi:5470001<APPEND>  <b>Complete call chain:</b>      NetComm_CAN_Receive.vi:5470001      WPI_CAN_PDPReceive.vi      WPI_Power Get PDP Currents.vi      Periodic Tasks.vi      Robot Main.vi,-0.000000,0.000000,0.000000,0.006417,TRUE,FALSE,FALSE,TRUE,FALSE,FALSE,Disabled,0.000000,0.000000,0.000000,TRUE,-0.294998,-0.321838,0.000000,-0.022751,-0.005569,0.000000,0.038000,-0.021000,-0.028000,0.000000,-0.320000,2.520000,-0.076404,ResetBack,0.022217,-0.000049,ResetBack,29143.000000,-0.250000,Suck,0.000000,0.000000,Speed,-187.500000,0.000000,Speed,Off,On,0.000000,FALSE,0,,,,,0.000000,0.000000
08:58:21.707 PM 03/30/2016,Teleop Enabled,9,TRUE,-44087,NetComm_CAN_Receive.vi:5470001<APPEND>  <b>Complete call chain:</b>      NetComm_CAN_Receive.vi:5470001      WPI_CAN_PDPReceive.vi      WPI_Power Get PDP Currents.vi      Periodic Tasks.vi      Robot Main.vi,-0.000000,-0.006417,0.000000,0.006417,TRUE,FALSE,FALSE,TRUE,FALSE,FALSE,Disabled,0.000000,0.000000,0.000000,TRUE,-0.295074,-0.322174,0.000000,0.005081,0.000000,0.000000,-0.010000,-0.010000,0.020000,0.000000,-0.340000,2.520000,-0.055315,ResetBack,-0.097900,-0.000049,ResetBack,36040.000000,-0.250000,Suck,0.000000,2400.000000,Speed,-240.000000,2400.000000,Speed,Off,On,0.000000,FALSE,0,,,,,0.000000,0.000000
08:58:21.808 PM 03/30/2016,Teleop Enabled,9,TRUE,-44087,NetComm_CAN_Receive.vi:5470001<APPEND>  <b>Complete call chain:</b>      NetComm_CAN_Receive.vi:5470001      WPI_CAN_PDPReceive.vi      WPI_Power Get PDP Currents.vi      Periodic Tasks.vi      Robot Main.vi,-0.000000,-0.006417,0.000000,0.006417,TRUE,FALSE,FALSE,TRUE,FALSE,FALSE,Disabled,0.000000,0.000000,0.000000,TRUE,-0.294998,-0.322174,0.000000,-0.002701,0.000000,0.000000,0.027000,-0.066000,0.007000,0.010000,-0.280000,2.530000,-0.042343,ResetBack,-0.096680,-0.000049,ResetBack,42451.000000,-0.250000,Suck,-150.000000,2400.000000,Speed,-217.500000,2400.000000,Speed,Off,On,0.000000,FALSE,0,,,,,0.000000,0.000000
08:58:21.907 PM 03/30/2016,Teleop Enabled,9,TRUE,-44087,NetComm_CAN_Receive.vi:5470001<APPEND>  <b>Complete call chain:</b>      NetComm_CAN_Receive.vi:5470001      WPI_CAN_PDPReceive.vi      WPI_Power Get PDP Currents.vi      Periodic Tasks.vi      Robot Main.vi,-0.000000,-0.012833,0.000000,0.006417,TRUE,FALSE,FALSE,TRUE,FALSE,FALSE,Disabled,0.000000,0.000000,0.000000,TRUE,-0.294205,-0.322739,0.000000,0.044678,-0.015579,0.000000,-0.044000,0.106000,-0.013000,0.000000,-0.350000,2.500000,-0.057381,Reset,-0.096680,0.000000,ResetBack,46357.000000,-0.250000,Suck,-1012.500000,2400.000000,Speed,-1020.000000,2400.000000,Speed,Off,On,0.000000,FALSE,0,,,,,0.000000,0.000000
08:58:22.008 PM 03/30/2016,Teleop Enabled,11,TRUE,-44087,NetComm_CAN_Receive.vi:5470001<APPEND>  <b>Complete call chain:</b>      NetComm_CAN_Receive.vi:5470001      WPI_CAN_PDPReceive.vi      WPI_Power Get PDP Currents.vi      Periodic Tasks.vi      Robot Main.vi,-0.000000,-0.012833,0.000000,0.000000,TRUE,FALSE,FALSE,TRUE,FALSE,FALSE,Disabled,0.000000,0.000000,0.000000,TRUE,-0.292221,-0.321350,0.000000,0.035095,0.043900,0.000000,-0.049000,0.046000,-0.043000,0.000000,-0.410000,2.550000,-0.061384,Hold,1.000000,0.000000,ResetBack,46357.000000,-0.250000,Suck,-1665.000000,2400.000000,Speed,-1845.000000,2400.000000,Speed,Off,On,0.000000,FALSE,0,,,,,0.000000,0.000000
08:58:22.109 PM 03/30/2016,Teleop Enabled,11,TRUE,-44087,NetComm_CAN_Receive.vi:5470001<APPEND>  <b>Complete call chain:</b>      NetComm_CAN_Receive.vi:5470001      WPI_CAN_PDPReceive.vi      WPI_Power Get PDP Currents.vi      Periodic Tasks.vi      Robot Main.vi,-0.000000,-0.012833,0.000000,0.000000,TRUE,FALSE,FALSE,TRUE,FALSE,FALSE,Disabled,0.000000,0.000000,0.000000,TRUE,-0.291428,-0.318207,0.000000,0.010620,0.061417,0.000000,0.065000,0.097000,0.058000,0.000000,-0.420000,2.530000,-0.053604,Hold,1.165039,0.000000,ResetBack,49275.000000,-0.250000,Suck,-2302.500000,2400.000000,Speed,-2340.000000,2400.000000,Speed,Off,On,0.000000,FALSE,0,,,,,0.000000,0.000000
08:58:22.213 PM 03/30/2016,Teleop Enabled,10,TRUE,-44087,NetComm_CAN_Receive.vi:5470001<APPEND>  <b>Complete call chain:</b>      NetComm_CAN_Receive.vi:5470001      WPI_CAN_PDPReceive.vi      WPI_Power Get PDP Currents.vi      Periodic Tasks.vi      Robot Main.vi,-0.000000,-0.012833,0.000000,0.000000,TRUE,FALSE,FALSE,TRUE,FALSE,FALSE,Disabled,0.000000,0.000000,0.000000,TRUE,-0.290253,-0.313431,0.000000,0.026154,0.069351,0.000000,-0.034000,0.134000,0.055000,0.000000,-0.410000,2.570000,-0.049649,Hold,1.076904,0.000000,ResetBack,51587.000000,-0.250000,Suck,-2542.500000,2400.000000,Speed,-2542.500000,2400.000000,Speed,Off,On,0.000000,FALSE,0,,,,,0.000000,0.000000
08:58:22.314 PM 03/30/2016,Teleop Enabled,9,TRUE,-44087,NetComm_CAN_Receive.vi:5470001<APPEND>  <b>Complete call chain:</b>      NetComm_CAN_Receive.vi:5470001      WPI_CAN_PDPReceive.vi      WPI_Power Get PDP Currents.vi      Periodic Tasks.vi      Robot Main.vi,-0.000000,-0.012833,0.000000,0.000000,TRUE,FALSE,FALSE,TRUE,FALSE,FALSE,Disabled,0.000000,0.000000,0.000000,TRUE,-0.289917,-0.307526,0.000000,0.000580,0.120468,0.000000,-0.107000,-0.024000,-0.106000,0.000000,-0.400000,2.580000,-0.057002,Hold,1.076904,0.000000,ResetBack,54229.000000,-0.250000,Suck,-2347.500000,2400.000000,Speed,-2370.000000,2400.000000,Speed,Off,On,0.000000,FALSE,0,,,,,0.000000,0.000000
08:58:22.414 PM 03/30/2016,Teleop Enabled,9,TRUE,-44087,NetComm_CAN_Receive.vi:5470001<APPEND>  <b>Complete call chain:</b>      NetComm_CAN_Receive.vi:5470001      WPI_CAN_PDPReceive.vi      WPI_Power Get PDP Currents.vi      Periodic Tasks.vi      Robot Main.vi,-0.000000,-0.012833,0.000000,0.000000,TRUE,FALSE,FALSE,TRUE,FALSE,FALSE,Disabled,0.000000,0.000000,0.000000,TRUE,-0.291397,-0.304611,0.000000,-0.009689,-0.018433,0.000000,0.133000,-0.185000,0.020000,0.000000,-0.390000,2.540000,-0.058252,Hold,1.076660,0.000000,ResetBack,54229.000000,-0.250000,Suck,-2272.500000,2400.000000,Speed,-2272.500000,2400.000000,Speed,Off,On,0.000000,FALSE,0,,,,,0.000000,0.000000
08:58:22.513 PM 03/30/2016,Teleop Enabled,10,TRUE,-44087,NetComm_CAN_Receive.vi:5470001<APPEND>  <b>Complete call chain:</b>      NetComm_CAN_Receive.vi:5470001      WPI_CAN_PDPReceive.vi      WPI_Power Get PDP Currents.vi      Periodic Tasks.vi      Robot Main.vi,-0.000000,-0.012833,0.000000,0.000000,TRUE,FALSE,FALSE,TRUE,FALSE,FALSE,Disabled,0.000000,0.000000,0.000000,TRUE,-0.289276,-0.309631,0.000000,0.046234,-0.116562,0.000000,0.031000,0.098000,0.086000,0.000000,-0.400000,2.540000,-0.049359,Hold,1.076416,0.000000,ResetBack,56264.000000,-0.250000,Suck,-2370.000000,2400.000000,Speed,-2272.500000,2400.000000,Speed,Off,On,0.000000,FALSE,0,,,,,0.000000,0.000000
08:58:22.613 PM 03/30/2016,Teleop Enabled,9,TRUE,-44087,NetComm_CAN_Receive.vi:5470001<APPEND>  <b>Complete call chain:</b>      NetComm_CAN_Receive.vi:5470001      WPI_CAN_PDPReceive.vi      WPI_Power Get PDP Currents.vi      Periodic Tasks.vi      Robot Main.vi,-0.000000,-0.012833,0.000000,0.000000,TRUE,FALSE,FALSE,TRUE,FALSE,FALSE,Disabled,0.000000,0.000000,0.000000,TRUE,-0.287521,-0.312668,0.000000,0.041946,-0.039886,0.000000,-0.113000,0.000000,-0.048000,0.000000,-0.370000,2.590000,-0.048977,Hold,1.076172,0.000000,ResetBack,57778.000000,-0.250000,Suck,-2370.000000,2400.000000,Speed,-2340.000000,2400.000000,Speed,Off,On,0.000000,FALSE,0,,,,,0.000000,0.000000
08:58:22.713 PM 03/30/2016,Teleop Enabled,9,TRUE,-44087,NetComm_CAN_Receive.vi:5470001<APPEND>  <b>Complete call chain:</b>      NetComm_CAN_Receive.vi:5470001      WPI_CAN_PDPReceive.vi      WPI_Power Get PDP Currents.vi      Periodic Tasks.vi      Robot Main.vi,-0.000000,-0.012833,0.000000,0.000000,TRUE,FALSE,FALSE,TRUE,FALSE,FALSE,Disabled,0.000000,0.000000,0.000000,TRUE,-0.285767,-0.315506,0.000000,0.036392,-0.074799,0.000000,-0.088000,0.044000,0.145000,0.000000,-0.360000,2.570000,-0.058899,Hold,1.075928,0.000000,ResetBack,58216.000000,-0.250000,Suck,-2332.500000,2400.000000,Speed,-2340.000000,2400.000000,Speed,Off,On,0.000000,FALSE,0,,,,,0.000000,0.000000
08:58:22.813 PM 03/30/2016,Teleop Enabled,11,TRUE,-44087,NetComm_CAN_Receive.vi:5470001<APPEND>  <b>Complete call chain:</b>      NetComm_CAN_Receive.vi:5470001      WPI_CAN_PDPReceive.vi      WPI_Power Get PDP Currents.vi      Periodic Tasks.vi      Robot Main.vi,-0.000000,-0.012833,0.000000,0.000000,TRUE,FALSE,FALSE,TRUE,FALSE,FALSE,Disabled,0.000000,0.000000,0.000000,TRUE,-0.285599,-0.317993,0.000000,-0.003525,-0.017624,0.000000,-0.129000,0.097000,-0.026000,0.010000,-0.350000,2.560000,-0.054134,Hold,1.075928,0.000000,Reset,58216.000000,-0.250000,Suck,-2332.500000,2400.000000,Speed,-2317.500000,2400.000000,Speed,Off,On,0.000000,FALSE,0,,,,,0.000000,0.000000
08:58:22.914 PM 03/30/2016,Teleop Enabled,11,TRUE,-44087,NetComm_CAN_Receive.vi:5470001<APPEND>  <b>Complete call chain:</b>      NetComm_CAN_Receive.vi:5470001      WPI_CAN_PDPReceive.vi      WPI_Power Get PDP Currents.vi      Periodic Tasks.vi      Robot Main.vi,-0.000000,-0.012833,0.000000,0.000000,TRUE,FALSE,FALSE,TRUE,FALSE,FALSE,Disabled,0.000000,0.000000,0.000000,TRUE,-0.287567,-0.317291,0.000000,-0.039413,0.000320,0.000000,0.181000,-0.085000,-0.065000,0.010000,-0.390000,2.530000,-0.047951,Hold,1.075928,0.000000,Hold,58288.000000,2.000000,Suck,-2325.000000,2400.000000,Speed,-2302.500000,2400.000000,Speed,Off,On,0.000000,FALSE,0,,,,,0.000000,0.000000
08:58:23.015 PM 03/30/2016,Teleop Enabled,9,TRUE,-44087,NetComm_CAN_Receive.vi:5470001<APPEND>  <b>Complete call chain:</b>      NetComm_CAN_Receive.vi:5470001      WPI_CAN_PDPReceive.vi      WPI_Power Get PDP Currents.vi      Periodic Tasks.vi      Robot Main.vi,-0.000000,-0.012833,0.000000,0.000000,TRUE,FALSE,FALSE,TRUE,FALSE,FALSE,Disabled,0.000000,0.000000,0.000000,TRUE,-0.287628,-0.318954,0.000000,-0.009964,-0.046616,0.000000,-0.041000,0.094000,0.161000,0.010000,-0.340000,2.530000,-0.051029,Hold,1.075684,0.000000,Hold,-172.000000,2.000000,Suck,-2340.000000,2400.000000,Speed,-2332.500000,2400.000000,Speed,Off,On,0.000000,FALSE,0,,,,,0.000000,0.000000
08:58:23.115 PM 03/30/2016,Teleop Enabled,10,TRUE,-44087,NetComm_CAN_Receive.vi:5470001<APPEND>  <b>Complete call chain:</b>      NetComm_CAN_Receive.vi:5470001      WPI_CAN_PDPReceive.vi      WPI_Power Get PDP Currents.vi      Periodic Tasks.vi      Robot Main.vi,-0.000000,-0.012833,0.000000,0.000000,TRUE,FALSE,FALSE,TRUE,FALSE,FALSE,Disabled,0.000000,0.000000,0.000000,TRUE,-0.288193,-0.319626,0.000000,-0.036118,0.017670,0.000000,-0.144000,0.053000,0.042000,0.010000,-0.340000,2.600000,-0.060658,Hold,1.075684,0.000000,Hold,-184.000000,2.000000,Suck,-2332.500000,2400.000000,Speed,-2332.500000,2400.000000,Speed,Off,On,0.000000,FALSE,0,,,,,0.000000,0.000000
08:58:23.216 PM 03/30/2016,Teleop Enabled,9,TRUE,-44087,NetComm_CAN_Receive.vi:5470001<APPEND>  <b>Complete call chain:</b>      NetComm_CAN_Receive.vi:5470001      WPI_CAN_PDPReceive.vi      WPI_Power Get PDP Currents.vi      Periodic Tasks.vi      Robot Main.vi,-0.000000,-0.012833,0.000000,0.000000,TRUE,FALSE,FALSE,TRUE,FALSE,FALSE,Disabled,0.000000,0.000000,0.000000,TRUE,-0.290970,-0.318436,0.000000,-0.068970,0.013260,0.000000,0.049000,-0.088000,-0.010000,0.010000,-0.360000,2.560000,-0.064252,Hold,1.075684,0.000000,Hold,-183.000000,2.000000,Suck,-2317.500000,2400.000000,Speed,-2332.500000,2400.000000,Speed,Off,On,0.000000,FALSE,0,,,,,0.000000,0.000000
08:58:23.316 PM 03/30/2016,Teleop Enabled,9,TRUE,-44087,NetComm_CAN_Receive.vi:5470001<APPEND>  <b>Complete call chain:</b>      NetComm_CAN_Receive.vi:5470001      WPI_CAN_PDPReceive.vi      WPI_Power Get PDP Currents.vi      Periodic Tasks.vi      Robot Main.vi,-0.000000,-0.012833,0.000000,0.000000,TRUE,FALSE,FALSE,TRUE,FALSE,FALSE,Disabled,0.000000,0.000000,0.000000,TRUE,-0.292923,-0.319778,0.000000,-0.041016,-0.041183,0.000000,0.028000,0.000000,0.233000,0.010000,-0.330000,2.540000,-0.051280,Hold,1.075684,0.000000,HighGoal,-182.000000,69632.000000,Suck,-2317.500000,2400.000000,Speed,-2325.000000,2400.000000,Speed,Off,On,0.000000,FALSE,0,,,,,0.000000,0.000000
08:58:23.416 PM 03/30/2016,Teleop Enabled,9,TRUE,-44087,NetComm_CAN_Receive.vi:5470001<APPEND>  <b>Complete call chain:</b>      NetComm_CAN_Receive.vi:5470001      WPI_CAN_PDPReceive.vi      WPI_Power Get PDP Currents.vi      Periodic Tasks.vi      Robot Main.vi,-0.000000,-0.012833,0.000000,0.000000,TRUE,FALSE,FALSE,TRUE,FALSE,FALSE,Disabled,0.000000,0.000000,0.000000,TRUE,-0.293076,-0.322342,0.000000,0.002960,-0.042252,0.000000,0.028000,0.000000,0.233000,0.010000,-0.310000,2.580000,-0.039235,Hold,1.075439,0.000000,Hold,-9756.000000,69632.000000,Suck,-2332.500000,2400.000000,Speed,-2325.000000,2400.000000,Speed,Off,On,0.000000,FALSE,0,,,,,0.000000,0.000000
08:58:23.518 PM 03/30/2016,Teleop Enabled,11,TRUE,-44087,NetComm_CAN_Receive.vi:5470001<APPEND>  <b>Complete call chain:</b>      NetComm_CAN_Receive.vi:5470001      WPI_CAN_PDPReceive.vi      WPI_Power Get PDP Currents.vi      Periodic Tasks.vi      Robot Main.vi,-0.000000,-0.019250,0.000000,0.000000,TRUE,FALSE,FALSE,TRUE,FALSE,FALSE,Disabled,0.000000,0.000000,0.000000,TRUE,-0.292496,-0.323029,0.000000,-0.009171,-0.003174,0.000000,0.080000,0.039000,0.009000,0.010000,-0.310000,2.580000,-0.046416,Hold,1.075439,0.000000,HighGoal,-9756.000000,69632.000000,Suck,-2332.500000,2400.000000,Speed,-2362.500000,2400.000000,Speed,Off,On,0.000000,FALSE,0,,,,,0.000000,0.000000
08:58:23.620 PM 03/30/2016,Teleop Enabled,11,TRUE,-44087,NetComm_CAN_Receive.vi:5470001<APPEND>  <b>Complete call chain:</b>      NetComm_CAN_Receive.vi:5470001      WPI_CAN_PDPReceive.vi      WPI_Power Get PDP Currents.vi      Periodic Tasks.vi      Robot Main.vi,-0.000000,-0.012833,0.000000,0.012833,TRUE,FALSE,FALSE,TRUE,FALSE,FALSE,Disabled,0.000000,0.000000,0.000000,TRUE,-0.292206,-0.325790,0.000000,-0.016907,-0.073013,0.000000,0.178000,-0.013000,0.089000,0.000000,-0.320000,2.530000,0.014338,Hold,1.075439,0.000000,Hold,-21991.000000,69632.000000,Suck,-2332.500000,2400.000000,Speed,-2392.500000,2400.000000,Speed,Off,On,0.000000,FALSE,0,,,,,0.000000,0.000000
08:58:23.721 PM 03/30/2016,Teleop Enabled,10,TRUE,-44087,NetComm_CAN_Receive.vi:5470001<APPEND>  <b>Complete call chain:</b>      NetComm_CAN_Receive.vi:5470001      WPI_CAN_PDPReceive.vi      WPI_Power Get PDP Currents.vi      Periodic Tasks.vi      Robot Main.vi,-0.000000,0.025667,0.000000,0.070583,TRUE,FALSE,FALSE,TRUE,FALSE,FALSE,Disabled,0.000000,0.000000,0.000000,TRUE,-0.290314,-0.328247,0.000000,0.046265,-0.014877,0.000000,0.035000,0.075000,0.129000,0.060000,-0.250000,2.550000,0.016404,Hold,1.075195,0.000000,HighGoal,-33624.000000,69632.000000,Suck,-2340.000000,2400.000000,Speed,-2377.500000,2400.000000,Speed,Off,On,0.000000,FALSE,0,,,,,0.000000,0.000000
08:58:23.823 PM 03/30/2016,Teleop Enabled,10,TRUE,-44087,NetComm_CAN_Receive.vi:5470001<APPEND>  <b>Complete call chain:</b>      NetComm_CAN_Receive.vi:5470001      WPI_CAN_PDPReceive.vi      WPI_Power Get PDP Currents.vi      Periodic Tasks.vi      Robot Main.vi,-0.000000,0.025667,0.000000,0.070583,TRUE,FALSE,FALSE,TRUE,FALSE,FALSE,Disabled,0.000000,0.000000,0.000000,TRUE,-0.289093,-0.327011,0.000000,-0.004684,0.018799,0.000000,0.035000,0.075000,0.129000,0.050000,-0.260000,2.550000,-0.060579,Hold,1.074951,0.000000,Hold,-45300.000000,69632.000000,Suck,-2340.000000,2400.000000,Speed,-2362.500000,2400.000000,Speed,Off,On,0.000000,FALSE,0,,,,,0.000000,0.000000
08:58:23.923 PM 03/30/2016,Teleop Enabled,11,TRUE,-44087,NetComm_CAN_Receive.vi:5470001<APPEND>  <b>Complete call chain:</b>      NetComm_CAN_Receive.vi:5470001      WPI_CAN_PDPReceive.vi      WPI_Power Get PDP Currents.vi      Periodic Tasks.vi      Robot Main.vi,-0.000000,0.025667,0.000000,0.057750,TRUE,FALSE,FALSE,TRUE,FALSE,FALSE,Disabled,0.000000,0.000000,0.000000,TRUE,-0.290268,-0.327103,0.000000,-0.018051,0.000000,0.000000,-0.032000,0.005000,0.001000,-0.010000,-0.520000,2.540000,-0.080666,Hold,1.074707,0.000000,Hold,-57921.000000,69632.000000,Suck,-2325.000000,2400.000000,Speed,-2370.000000,2400.000000,Speed,Off,On,0.000000,FALSE,0,,,,,0.000000,0.000000
08:58:24.023 PM 03/30/2016,Teleop Enabled,10,TRUE,-44087,NetComm_CAN_Receive.vi:5470001<APPEND>  <b>Complete call chain:</b>      NetComm_CAN_Receive.vi:5470001      WPI_CAN_PDPReceive.vi      WPI_Power Get PDP Currents.vi      Periodic Tasks.vi      Robot Main.vi,-0.000000,-0.218166,0.000000,-0.179666,TRUE,FALSE,FALSE,TRUE,FALSE,FALSE,Disabled,0.000000,0.000000,0.000000,TRUE,-0.287979,-0.325134,0.000000,0.060242,-0.003296,0.000000,0.230000,0.165000,0.076000,-0.010000,-0.520000,2.540000,-0.167367,Hold,1.074219,0.000000,Hold,-71007.000000,69632.000000,Suck,-2340.000000,2400.000000,Speed,-2362.500000,2400.000000,Speed,Off,On,0.000000,FALSE,0,,,,,0.000000,0.000000
08:58:24.124 PM 03/30/2016,Teleop Enabled,10,TRUE,-44087,NetComm_CAN_Receive.vi:5470001<APPEND>  <b>Complete call chain:</b>      NetComm_CAN_Receive.vi:5470001      WPI_CAN_PDPReceive.vi      WPI_Power Get PDP Currents.vi      Periodic Tasks.vi      Robot Main.vi,-0.000000,-0.487666,0.000000,-0.391416,TRUE,FALSE,FALSE,TRUE,FALSE,FALSE,Disabled,0.000000,0.000000,0.000000,TRUE,-0.288132,-0.327438,0.000000,-0.053696,-0.063095,0.000000,-0.003000,-0.059000,-0.130000,-0.100000,-0.540000,2.520000,-0.310391,Hold,1.074219,0.000000,Hold,-69719.000000,69632.000000,Suck,-2340.000000,2400.000000,Speed,-2340.000000,2400.000000,Speed,Off,On,0.000000,FALSE,0,,,,,0.000000,0.000000
08:58:24.223 PM 03/30/2016,Teleop Enabled,10,TRUE,-44087,NetComm_CAN_Receive.vi:5470001<APPEND>  <b>Complete call chain:</b>      NetComm_CAN_Receive.vi:5470001      WPI_CAN_PDPReceive.vi      WPI_Power Get PDP Currents.vi      Periodic Tasks.vi      Robot Main.vi,-0.000000,-0.487666,0.000000,-0.359332,TRUE,FALSE,FALSE,TRUE,FALSE,FALSE,Disabled,0.000000,0.000000,0.000000,TRUE,-0.293259,-0.327515,0.000000,-0.098663,0.009750,0.000000,-0.168000,0.010000,0.057000,-0.230000,-0.220000,2.590000,-0.351482,Hold,1.073975,0.000000,Hold,-69719.000000,69632.000000,Suck,-2332.500000,2400.000000,Speed,-2340.000000,2400.000000,Speed,Off,On,0.000000,FALSE,0,,,,,0.000000,0.000000
08:58:24.324 PM 03/30/2016,Teleop Enabled,10,TRUE,-44087,NetComm_CAN_Receive.vi:5470001<APPEND>  <b>Complete call chain:</b>      NetComm_CAN_Receive.vi:5470001      WPI_CAN_PDPReceive.vi      WPI_Power Get PDP Currents.vi      Periodic Tasks.vi      Robot Main.vi,-0.000000,-0.500499,0.000000,-0.365749,TRUE,FALSE,FALSE,TRUE,FALSE,FALSE,Disabled,0.000000,0.000000,0.000000,TRUE,-0.298386,-0.327866,0.000000,-0.089371,-0.058929,0.000000,0.022000,-0.147000,-0.037000,-0.300000,-0.570000,2.550000,-0.349206,Hold,1.073730,0.000000,Hold,-69686.000000,69632.000000,Suck,-2340.000000,2400.000000,Speed,-2385.000000,2400.000000,Speed,Off,On,0.000000,FALSE,0,,,,,0.000000,0.000000
08:58:24.425 PM 03/30/2016,Teleop Enabled,11,TRUE,-44087,NetComm_CAN_Receive.vi:5470001<APPEND>  <b>Complete call chain:</b>      NetComm_CAN_Receive.vi:5470001      WPI_CAN_PDPReceive.vi      WPI_Power Get PDP Currents.vi      Periodic Tasks.vi      Robot Main.vi,-0.000000,-0.551832,0.000000,-0.384999,TRUE,FALSE,FALSE,TRUE,FALSE,FALSE,Disabled,0.000000,0.000000,0.000000,TRUE,-0.298386,-0.327866,0.000000,-0.089371,-0.058929,0.000000,0.022000,-0.147000,-0.037000,-0.290000,-0.590000,2.510000,-0.404855,Hold,1.073486,0.000000,Hold,-69692.000000,69632.000000,Suck,-2355.000000,2400.000000,Speed,-2385.000000,2400.000000,Speed,Off,On,0.000000,FALSE,0,,,,,0.000000,0.000000
08:58:24.524 PM 03/30/2016,Teleop Enabled,11,TRUE,-44087,NetComm_CAN_Receive.vi:5470001<APPEND>  <b>Complete call chain:</b>      NetComm_CAN_Receive.vi:5470001      WPI_CAN_PDPReceive.vi      WPI_Power Get PDP Currents.vi      Periodic Tasks.vi      Robot Main.vi,-0.000000,-0.532582,0.000000,-0.346499,TRUE,FALSE,FALSE,TRUE,FALSE,FALSE,Disabled,0.000000,0.000000,0.000000,TRUE,-0.302658,-0.332794,0.000000,-0.105896,-0.088257,0.000000,0.100000,-0.019000,-0.054000,-0.360000,-0.550000,2.550000,-0.323267,Hold,1.073242,0.000000,Hold,-69693.000000,69632.000000,Suck,-2332.500000,2400.000000,Speed,-2355.000000,2400.000000,Speed,Off,On,0.000000,FALSE,0,,,,,0.000000,0.000000
08:58:24.624 PM 03/30/2016,Teleop Enabled,10,TRUE,-44087,NetComm_CAN_Receive.vi:5470001<APPEND>  <b>Complete call chain:</b>      NetComm_CAN_Receive.vi:5470001      WPI_CAN_PDPReceive.vi      WPI_Power Get PDP Currents.vi      Periodic Tasks.vi      Robot Main.vi,-0.000000,-0.532582,0.000000,-0.346499,TRUE,FALSE,FALSE,TRUE,FALSE,FALSE,Disabled,0.000000,0.000000,0.000000,TRUE,-0.307587,-0.335953,0.000000,-0.004227,-0.075562,0.000000,0.089000,-0.083000,0.002000,-0.290000,-0.590000,2.560000,-0.417744,Hold,1.072754,0.000000,Hold,-69693.000000,69632.000000,Suck,-2347.500000,2400.000000,Speed,-2355.000000,2400.000000,Speed,Off,On,0.000000,FALSE,0,,,,,0.000000,0.000000
08:58:24.725 PM 03/30/2016,Teleop Enabled,10,TRUE,-44087,NetComm_CAN_Receive.vi:5470001<APPEND>  <b>Complete call chain:</b>      NetComm_CAN_Receive.vi:5470001      WPI_CAN_PDPReceive.vi      WPI_Power Get PDP Currents.vi      Periodic Tasks.vi      Robot Main.vi,-0.000000,-0.532582,0.000000,-0.346499,TRUE,FALSE,FALSE,TRUE,FALSE,FALSE,Disabled,0.000000,0.000000,0.000000,TRUE,-0.307587,-0.335953,0.000000,-0.004227,-0.075562,0.000000,-0.052000,0.006000,-0.044000,-0.380000,-0.510000,2.490000,-0.363393,Hold,1.071045,0.000000,Hold,-69693.000000,69632.000000,Suck,-2370.000000,2400.000000,Speed,-2377.500000,2400.000000,Speed,Off,On,0.000000,FALSE,0,,,,,0.000000,0.000000
08:58:24.827 PM 03/30/2016,Teleop Enabled,9,TRUE,-44087,NetComm_CAN_Receive.vi:5470001<APPEND>  <b>Complete call chain:</b>      NetComm_CAN_Receive.vi:5470001      WPI_CAN_PDPReceive.vi      WPI_Power Get PDP Currents.vi      Periodic Tasks.vi      Robot Main.vi,-0.000000,-0.532582,0.000000,-0.346499,TRUE,FALSE,FALSE,TRUE,FALSE,FALSE,Disabled,0.000000,0.000000,0.000000,TRUE,-0.307373,-0.339432,0.000000,0.033569,-0.064651,0.000000,-0.146000,-0.002000,-0.032000,-0.330000,-0.540000,2.510000,-0.389567,Hold,1.070801,0.000000,Hold,-69693.000000,69632.000000,Suck,-2362.500000,2400.000000,Speed,-2377.500000,2400.000000,Speed,Off,On,0.000000,FALSE,0,,,,,0.000000,0.000000
08:58:24.927 PM 03/30/2016,Teleop Enabled,10,TRUE,-44087,NetComm_CAN_Receive.vi:5470001<APPEND>  <b>Complete call chain:</b>      NetComm_CAN_Receive.vi:5470001      WPI_CAN_PDPReceive.vi      WPI_Power Get PDP Currents.vi      Periodic Tasks.vi      Robot Main.vi,-0.000000,-0.532582,0.000000,-0.346499,TRUE,FALSE,FALSE,TRUE,FALSE,FALSE,Disabled,0.000000,0.000000,0.000000,TRUE,-0.307510,-0.343277,0.000000,-0.011642,-0.103790,0.000000,0.119000,-0.074000,-0.011000,-0.390000,-0.530000,2.460000,-0.383973,Hold,1.070557,0.000000,Hold,-69693.000000,69632.000000,Suck,-2362.500000,2400.000000,Speed,-2370.000000,2400.000000,Speed,Off,On,0.000000,FALSE,0,,,,,0.000000,0.000000
08:58:25.028 PM 03/30/2016,Teleop Enabled,11,TRUE,-44087,NetComm_CAN_Receive.vi:5470001<APPEND>  <b>Complete call chain:</b>      NetComm_CAN_Receive.vi:5470001      WPI_CAN_PDPReceive.vi      WPI_Power Get PDP Currents.vi      Periodic Tasks.vi      Robot Main.vi,-0.000000,-0.532582,0.000000,-0.346499,TRUE,FALSE,FALSE,TRUE,FALSE,FALSE,Disabled,0.000000,0.000000,0.000000,TRUE,-0.307648,-0.349197,0.000000,-0.001236,-0.106094,0.000000,0.095000,0.096000,0.070000,-0.380000,-0.570000,2.500000,-0.351196,Hold,1.070312,0.000000,Hold,-69693.000000,69632.000000,Suck,-2362.500000,2400.000000,Speed,-2370.000000,2400.000000,Speed,Off,On,0.000000,FALSE,0,,,,,0.000000,0.000000
08:58:25.128 PM 03/30/2016,Teleop Enabled,11,TRUE,-44087,NetComm_CAN_Receive.vi:5470001<APPEND>  <b>Complete call chain:</b>      NetComm_CAN_Receive.vi:5470001      WPI_CAN_PDPReceive.vi      WPI_Power Get PDP Currents.vi      Periodic Tasks.vi      Robot Main.vi,0.196850,-0.622415,-0.196850,-0.320833,TRUE,FALSE,FALSE,TRUE,FALSE,FALSE,Disabled,0.000000,0.000000,0.000000,TRUE,-0.307800,-0.352570,0.000000,-0.036789,-0.045166,0.000000,-0.035000,0.019000,0.013000,-0.370000,-0.550000,2.520000,-0.351196,Hold,1.070312,0.000000,Hold,-69693.000000,69632.000000,Suck,-2355.000000,2400.000000,Speed,-2370.000000,2400.000000,Speed,Off,On,0.000000,FALSE,0,,,,,0.000000,0.000000
08:58:25.228 PM 03/30/2016,Teleop Enabled,11,TRUE,-44087,NetComm_CAN_Receive.vi:5470001<APPEND>  <b>Complete call chain:</b>      NetComm_CAN_Receive.vi:5470001      WPI_CAN_PDPReceive.vi      WPI_Power Get PDP Currents.vi      Periodic Tasks.vi      Robot Main.vi,0.393701,-0.622415,-0.393701,-0.320833,TRUE,FALSE,FALSE,TRUE,FALSE,FALSE,Disabled,0.000000,0.000000,0.000000,TRUE,-0.311249,-0.355423,0.000000,-0.082825,-0.069519,0.000000,0.013000,-0.072000,0.039000,-0.380000,-0.540000,2.500000,-0.352139,Hold,1.070068,0.000000,Hold,-69693.000000,69632.000000,Suck,-2355.000000,2400.000000,Speed,-2362.500000,2400.000000,Speed,Off,On,0.000000,FALSE,0,,,,,0.000000,0.000000
08:58:25.328 PM 03/30/2016,Teleop Enabled,11,TRUE,-44087,NetComm_CAN_Receive.vi:5470001<APPEND>  <b>Complete call chain:</b>      NetComm_CAN_Receive.vi:5470001      WPI_CAN_PDPReceive.vi      WPI_Power Get PDP Currents.vi      Periodic Tasks.vi      Robot Main.vi,0.322835,-0.744332,-0.322835,0.500499,TRUE,FALSE,FALSE,TRUE,FALSE,FALSE,Disabled,0.000000,0.000000,0.000000,TRUE,-0.314194,-0.359604,0.000000,-0.114227,-0.098892,0.000000,-0.592000,-0.270000,0.319000,-0.440000,-0.900000,2.470000,-0.386665,Hold,1.069092,0.000000,Hold,-69693.000000,69632.000000,Suck,-2355.000000,2400.000000,Speed,-2355.000000,2400.000000,Speed,Off,On,0.000000,FALSE,0,,,,,0.000000,0.000000
08:58:25.429 PM 03/30/2016,Teleop Enabled,10,TRUE,-44087,NetComm_CAN_Receive.vi:5470001<APPEND>  <b>Complete call chain:</b>      NetComm_CAN_Receive.vi:5470001      WPI_CAN_PDPReceive.vi      WPI_Power Get PDP Currents.vi      Periodic Tasks.vi      Robot Main.vi,0.173228,-2.848993,-0.173228,2.380578,TRUE,FALSE,FALSE,TRUE,FALSE,FALSE,Disabled,0.000000,0.000000,0.000000,TRUE,-0.326431,-0.374756,0.000000,-0.273163,-0.413696,0.000000,0.033000,0.211000,0.320000,-5.450000,-1.290000,1.740000,-6.429328,Hold,1.069336,0.000000,Hold,-69693.000000,69632.000000,Suck,-2340.000000,2400.000000,Speed,-2347.500000,2400.000000,Speed,Off,On,0.000000,FALSE,0,,,,,0.000000,0.000000
08:58:25.528 PM 03/30/2016,Teleop Enabled,10,TRUE,-44087,NetComm_CAN_Receive.vi:5470001<APPEND>  <b>Complete call chain:</b>      NetComm_CAN_Receive.vi:5470001      WPI_CAN_PDPReceive.vi      WPI_Power Get PDP Currents.vi      Periodic Tasks.vi      Robot Main.vi,0.173228,-4.562239,-0.173228,4.119490,TRUE,FALSE,FALSE,TRUE,FALSE,FALSE,Disabled,0.000000,0.000000,0.000000,TRUE,-0.339645,-0.394836,0.000000,-0.191803,-0.422287,0.000000,0.227000,0.077000,0.017000,-14.690000,-1.060000,1.620000,-13.850888,Hold,1.069336,0.000000,Hold,-69693.000000,69632.000000,Suck,-2347.500000,2400.000000,Speed,-2347.500000,2400.000000,Speed,Off,On,0.000000,FALSE,0,,,,,0.000000,0.000000
08:58:25.628 PM 03/30/2016,Teleop Enabled,11,TRUE,-44087,NetComm_CAN_Receive.vi:5470001<APPEND>  <b>Complete call chain:</b>      NetComm_CAN_Receive.vi:5470001      WPI_CAN_PDPReceive.vi      WPI_Power Get PDP Currents.vi      Periodic Tasks.vi      Robot Main.vi,0.173228,-5.864820,-0.173228,5.235988,TRUE,FALSE,FALSE,TRUE,FALSE,FALSE,Disabled,0.000000,0.000000,0.000000,TRUE,-0.343170,-0.413681,0.000000,0.004883,-0.318909,0.000000,0.155000,-0.017000,-0.228000,-19.450000,-0.800000,2.140000,-18.687348,Hold,1.066406,0.000000,Hold,-69693.000000,69632.000000,Suck,-2377.500000,2400.000000,Speed,-2370.000000,2400.000000,Speed,Off,On,0.000000,FALSE,0,,,,,0.000000,0.000000
08:58:25.729 PM 03/30/2016,Teleop Enabled,10,TRUE,-44087,NetComm_CAN_Receive.vi:5470001<APPEND>  <b>Complete call chain:</b>      NetComm_CAN_Receive.vi:5470001      WPI_CAN_PDPReceive.vi      WPI_Power Get PDP Currents.vi      Periodic Tasks.vi      Robot Main.vi,-0.000000,-6.878651,0.000000,6.031653,TRUE,FALSE,FALSE,TRUE,FALSE,FALSE,Disabled,0.000000,0.000000,0.000000,TRUE,-0.341980,-0.417252,0.000000,-0.003540,-0.021545,0.000000,0.073000,0.117000,-0.014000,-24.060000,-0.640000,2.200000,-22.391792,Hold,1.006348,0.000000,Hold,-69693.000000,69632.000000,Suck,-2362.500000,2400.000000,Speed,-2355.000000,2400.000000,Speed,Off,On,0.000000,FALSE,0,,,,,0.000000,0.000000
08:58:25.829 PM 03/30/2016,Teleop Enabled,10,TRUE,-44087,NetComm_CAN_Receive.vi:5470001<APPEND>  <b>Complete call chain:</b>      NetComm_CAN_Receive.vi:5470001      WPI_CAN_PDPReceive.vi      WPI_Power Get PDP Currents.vi      Periodic Tasks.vi      Robot Main.vi,-0.000000,-7.674315,0.000000,6.750318,TRUE,FALSE,FALSE,TRUE,FALSE,FALSE,Disabled,0.000000,0.000000,0.000000,TRUE,-0.342163,-0.415329,0.000000,-0.040771,0.053818,0.000000,0.043000,0.056000,-0.049000,-27.550000,-0.580000,2.020000,-26.015239,Hold,0.988770,0.000000,Hold,-69693.000000,69632.000000,Suck,-2325.000000,2400.000000,Speed,-2355.000000,2400.000000,Speed,Off,On,0.000000,FALSE,0,,,,,0.000000,0.000000
08:58:25.929 PM 03/30/2016,Teleop Enabled,9,TRUE,-44087,NetComm_CAN_Receive.vi:5470001<APPEND>  <b>Complete call chain:</b>      NetComm_CAN_Receive.vi:5470001      WPI_CAN_PDPReceive.vi      WPI_Power Get PDP Currents.vi      Periodic Tasks.vi      Robot Main.vi,-0.000000,-7.828315,0.000000,6.891484,TRUE,FALSE,FALSE,TRUE,FALSE,FALSE,Disabled,0.000000,0.000000,0.000000,TRUE,-0.343597,-0.409973,0.000000,-0.017365,0.171951,0.000000,-0.001000,0.125000,-0.018000,-28.540000,-0.230000,2.590000,-27.754840,Hold,0.988281,0.000000,Hold,-69693.000000,69632.000000,Suck,-2332.500000,2400.000000,Speed,-2355.000000,2400.000000,Speed,Off,On,0.000000,FALSE,0,,,,,0.000000,0.000000
08:58:26.029 PM 03/30/2016,Teleop Enabled,9,TRUE,-44087,NetComm_CAN_Receive.vi:5470001<APPEND>  <b>Complete call chain:</b>      NetComm_CAN_Receive.vi:5470001      WPI_CAN_PDPReceive.vi      WPI_Power Get PDP Currents.vi      Periodic Tasks.vi      Robot Main.vi,-0.000000,-7.796232,0.000000,6.731068,TRUE,FALSE,FALSE,TRUE,FALSE,FALSE,Disabled,0.000000,0.000000,0.000000,TRUE,-0.344254,-0.399338,0.000000,-0.009689,0.195145,0.000000,0.091000,-0.016000,0.122000,-27.820000,-0.140000,2.490000,-27.132277,Hold,0.985840,0.000000,Hold,-69693.000000,69632.000000,Suck,-2355.000000,2400.000000,Speed,-2362.500000,2400.000000,Speed,Off,On,0.000000,FALSE,0,,,,,0.000000,0.000000
08:58:26.130 PM 03/30/2016,Teleop Enabled,9,TRUE,-44087,NetComm_CAN_Receive.vi:5470001<APPEND>  <b>Complete call chain:</b>      NetComm_CAN_Receive.vi:5470001      WPI_CAN_PDPReceive.vi      WPI_Power Get PDP Currents.vi      Periodic Tasks.vi      Robot Main.vi,-0.000000,-7.744899,0.000000,6.731068,TRUE,FALSE,FALSE,TRUE,FALSE,FALSE,Disabled,0.000000,0.000000,0.000000,TRUE,-0.343948,-0.389038,0.000000,0.020782,0.182785,0.000000,-0.033000,-0.032000,0.044000,-27.730000,-0.330000,2.580000,-26.922939,Hold,0.985107,0.000000,Hold,-69693.000000,69632.000000,Suck,-2340.000000,2400.000000,Speed,-2362.500000,2400.000000,Speed,Off,On,0.000000,FALSE,0,,,,,0.000000,0.000000
08:58:26.230 PM 03/30/2016,Teleop Enabled,10,TRUE,-44087,NetComm_CAN_Receive.vi:5470001<APPEND>  <b>Complete call chain:</b>      NetComm_CAN_Receive.vi:5470001      WPI_CAN_PDPReceive.vi      WPI_Power Get PDP Currents.vi      Periodic Tasks.vi      Robot Main.vi,-0.000000,-7.744899,0.000000,6.737484,TRUE,FALSE,FALSE,TRUE,FALSE,FALSE,Disabled,0.000000,0.000000,0.000000,TRUE,-0.342712,-0.380829,0.000000,0.033112,0.141739,0.000000,-0.063000,-0.018000,-0.083000,-27.800000,-0.250000,2.550000,-27.028402,Hold,0.984375,0.000000,Hold,-69693.000000,69632.000000,Suck,-2325.000000,2400.000000,Speed,-2362.500000,2400.000000,Speed,Off,On,0.000000,FALSE,0,,,,,0.000000,0.000000
08:58:26.330 PM 03/30/2016,Teleop Enabled,9,TRUE,-44087,NetComm_CAN_Receive.vi:5470001<APPEND>  <b>Complete call chain:</b>      NetComm_CAN_Receive.vi:5470001      WPI_CAN_PDPReceive.vi      WPI_Power Get PDP Currents.vi      Periodic Tasks.vi      Robot Main.vi,-0.346457,-7.744899,0.346457,6.737484,TRUE,FALSE,FALSE,TRUE,FALSE,FALSE,Disabled,0.000000,0.000000,0.000000,TRUE,-0.342224,-0.378220,0.000000,-0.031952,0.053329,0.000000,-0.046000,0.004000,0.015000,-27.800000,-0.310000,2.550000,-26.976856,Hold,0.983887,0.000000,Hold,-69693.000000,69632.000000,Suck,-2347.500000,2400.000000,Speed,-2362.500000,2400.000000,Speed,Off,On,0.000000,FALSE,0,,,,,0.000000,0.000000
08:58:26.431 PM 03/30/2016,Teleop Enabled,10,TRUE,-44087,NetComm_CAN_Receive.vi:5470001<APPEND>  <b>Complete call chain:</b>      NetComm_CAN_Receive.vi:5470001      WPI_CAN_PDPReceive.vi      WPI_Power Get PDP Currents.vi      Periodic Tasks.vi      Robot Main.vi,-0.000000,-6.769568,0.000000,5.774986,FALSE,FALSE,FALSE,TRUE,FALSE,FALSE,Disabled,0.000000,0.000000,0.000000,TRUE,-0.344986,-0.375610,0.000000,-0.073227,0.093857,0.000000,0.399000,0.570000,-0.171000,-25.390000,0.420000,3.330000,-26.656805,Hold,0.983887,0.000000,Hold,-69693.000000,69632.000000,Suck,-2355.000000,2400.000000,Speed,-2355.000000,2400.000000,Speed,Off,On,0.000000,FALSE,0,,,,,0.000000,0.000000
08:58:26.530 PM 03/30/2016,Teleop Enabled,9,TRUE,-44087,NetComm_CAN_Receive.vi:5470001<APPEND>  <b>Complete call chain:</b>      NetComm_CAN_Receive.vi:5470001      WPI_CAN_PDPReceive.vi      WPI_Power Get PDP Currents.vi      Periodic Tasks.vi      Robot Main.vi,-0.000000,-6.166402,0.000000,5.152571,TRUE,FALSE,FALSE,TRUE,FALSE,FALSE,Disabled,0.000000,0.000000,0.000000,TRUE,-0.343216,-0.368423,0.000000,0.035385,0.035965,0.000000,0.059000,-0.308000,-0.106000,-20.960000,-0.450000,2.650000,-20.619732,Hold,0.982178,0.000000,Hold,-69693.000000,69632.000000,Suck,-2317.500000,2400.000000,Speed,-2332.500000,2400.000000,Speed,Off,On,0.000000,FALSE,0,,,,,0.000000,0.000000
08:58:26.630 PM 03/30/2016,Teleop Enabled,9,TRUE,-44087,NetComm_CAN_Receive.vi:5470001<APPEND>  <b>Complete call chain:</b>      NetComm_CAN_Receive.vi:5470001      WPI_CAN_PDPReceive.vi      WPI_Power Get PDP Currents.vi      Periodic Tasks.vi      Robot Main.vi,-0.000000,-6.070152,0.000000,5.049905,TRUE,FALSE,FALSE,TRUE,FALSE,FALSE,Disabled,0.000000,0.000000,0.000000,TRUE,-0.344193,-0.372482,0.000000,-0.059631,-0.046097,0.000000,-0.016000,-0.021000,0.104000,-21.300000,-0.500000,2.490000,-20.565945,Hold,0.982178,0.000000,Hold,-69693.000000,69632.000000,Suck,-2325.000000,2400.000000,Speed,-2370.000000,2400.000000,Speed,Off,On,0.000000,FALSE,0,,,,,0.000000,0.000000
08:58:26.730 PM 03/30/2016,Teleop Enabled,9,TRUE,-44087,NetComm_CAN_Receive.vi:5470001<APPEND>  <b>Complete call chain:</b>      NetComm_CAN_Receive.vi:5470001      WPI_CAN_PDPReceive.vi      WPI_Power Get PDP Currents.vi      Periodic Tasks.vi      Robot Main.vi,-0.000000,-6.127902,0.000000,5.049905,TRUE,FALSE,FALSE,TRUE,FALSE,FALSE,Disabled,0.000000,0.000000,0.000000,TRUE,-0.346375,-0.375229,0.000000,-0.016296,-0.081772,0.000000,-0.018000,-0.146000,-0.037000,-21.490000,-0.450000,2.530000,-20.875025,Hold,0.981934,0.000000,Hold,-69693.000000,69632.000000,Suck,-2355.000000,2400.000000,Speed,-2370.000000,2400.000000,Speed,Off,On,0.000000,FALSE,0,,,,,0.000000,0.000000
08:58:26.830 PM 03/30/2016,Teleop Enabled,9,TRUE,-44087,NetComm_CAN_Receive.vi:5470001<APPEND>  <b>Complete call chain:</b>      NetComm_CAN_Receive.vi:5470001      WPI_CAN_PDPReceive.vi      WPI_Power Get PDP Currents.vi      Periodic Tasks.vi      Robot Main.vi,-0.000000,-6.127902,0.000000,5.030655,TRUE,FALSE,FALSE,TRUE,FALSE,FALSE,Disabled,0.000000,0.000000,0.000000,TRUE,-0.347961,-0.380997,0.000000,-0.038208,-0.103729,0.000000,-0.177000,0.135000,0.132000,-21.390000,-0.550000,2.460000,-20.755981,Hold,0.981689,0.000000,Hold,-69693.000000,69632.000000,Suck,-2347.500000,2400.000000,Speed,-2355.000000,2400.000000,Speed,Off,On,0.000000,FALSE,0,,,,,0.000000,0.000000
08:58:26.930 PM 03/30/2016,Teleop Enabled,9,TRUE,-44087,NetComm_CAN_Receive.vi:5470001<APPEND>  <b>Complete call chain:</b>      NetComm_CAN_Receive.vi:5470001      WPI_CAN_PDPReceive.vi      WPI_Power Get PDP Currents.vi      Periodic Tasks.vi      Robot Main.vi,-0.000000,-6.134319,0.000000,5.030655,TRUE,FALSE,FALSE,TRUE,FALSE,FALSE,Disabled,0.000000,0.000000,0.000000,TRUE,-0.354965,-0.384918,0.000000,-0.134872,-0.078171,0.000000,0.073000,-0.101000,-0.089000,-21.410000,-0.560000,2.570000,-20.821118,Hold,0.981201,0.000000,Hold,-69693.000000,69632.000000,Suck,-2332.500000,2400.000000,Speed,-2370.000000,2400.000000,Speed,Off,On,0.000000,FALSE,0,,,,,0.000000,0.000000
08:58:27.030 PM 03/30/2016,Teleop Enabled,9,TRUE,-44087,NetComm_CAN_Receive.vi:5470001<APPEND>  <b>Complete call chain:</b>      NetComm_CAN_Receive.vi:5470001      WPI_CAN_PDPReceive.vi      WPI_Power Get PDP Currents.vi      Periodic Tasks.vi      Robot Main.vi,-0.000000,-6.134319,0.000000,5.030655,TRUE,FALSE,FALSE,TRUE,FALSE,FALSE,Disabled,0.000000,0.000000,0.000000,TRUE,-0.358673,-0.388046,0.000000,-0.092636,0.000000,0.000000,0.030000,0.041000,0.006000,-21.380000,-0.510000,2.560000,-20.790772,Hold,0.980957,0.000000,Hold,-69693.000000,69632.000000,Suck,-2340.000000,2400.000000,Speed,-2385.000000,2400.000000,Speed,Off,On,0.000000,FALSE,0,,,,,0.000000,0.000000
08:58:27.130 PM 03/30/2016,Teleop Enabled,9,TRUE,-44087,NetComm_CAN_Receive.vi:5470001<APPEND>  <b>Complete call chain:</b>      NetComm_CAN_Receive.vi:5470001      WPI_CAN_PDPReceive.vi      WPI_Power Get PDP Currents.vi      Periodic Tasks.vi      Robot Main.vi,-0.000000,-6.134319,0.000000,5.030655,TRUE,FALSE,FALSE,TRUE,FALSE,FALSE,Disabled,0.000000,0.000000,0.000000,TRUE,-0.365723,-0.385559,0.000000,-0.160980,0.067429,0.000000,-0.040000,-0.086000,-0.064000,-21.420000,-0.500000,2.550000,-20.801351,Hold,0.980469,0.000000,Hold,-69693.000000,69632.000000,Suck,-2347.500000,2400.000000,Speed,-2377.500000,2400.000000,Speed,Off,On,0.000000,FALSE,0,,,,,0.000000,0.000000
08:58:27.230 PM 03/30/2016,Teleop Enabled,9,TRUE,-44087,NetComm_CAN_Receive.vi:5470001<APPEND>  <b>Complete call chain:</b>      NetComm_CAN_Receive.vi:5470001      WPI_CAN_PDPReceive.vi      WPI_Power Get PDP Currents.vi      Periodic Tasks.vi      Robot Main.vi,-0.000000,-6.134319,0.000000,5.030655,TRUE,FALSE,FALSE,TRUE,FALSE,FALSE,Disabled,0.000000,0.000000,0.000000,TRUE,-0.370941,-0.384888,0.000000,-0.103745,-0.022354,0.000000,0.077000,-0.085000,-0.053000,-21.410000,-0.530000,2.550000,-20.800067,Hold,0.979980,0.000000,Hold,-69693.000000,69632.000000,Suck,-2332.500000,2400.000000,Speed,-2362.500000,2400.000000,Speed,Off,On,0.000000,FALSE,0,,,,,0.000000,0.000000
08:58:27.330 PM 03/30/2016,Teleop Enabled,9,TRUE,-44087,NetComm_CAN_Receive.vi:5470001<APPEND>  <b>Complete call chain:</b>      NetComm_CAN_Receive.vi:5470001      WPI_CAN_PDPReceive.vi      WPI_Power Get PDP Currents.vi      Periodic Tasks.vi      Robot Main.vi,-0.000000,-6.134319,0.000000,5.030655,TRUE,FALSE,FALSE,TRUE,FALSE,FALSE,Disabled,0.000000,0.000000,0.000000,TRUE,-0.374634,-0.386429,0.000000,-0.080170,-0.015518,0.000000,0.016000,0.077000,0.083000,-21.400000,-0.520000,2.540000,-20.796208,Hold,0.979492,0.000000,Hold,-69693.000000,69632.000000,Suck,-2340.000000,2400.000000,Speed,-2370.000000,2400.000000,Speed,Off,On,0.000000,FALSE,0,,,,,0.000000,0.000000
08:58:27.430 PM 03/30/2016,Teleop Enabled,9,TRUE,-44087,NetComm_CAN_Receive.vi:5470001<APPEND>  <b>Complete call chain:</b>      NetComm_CAN_Receive.vi:5470001      WPI_CAN_PDPReceive.vi      WPI_Power Get PDP Currents.vi      Periodic Tasks.vi      Robot Main.vi,-0.000000,-6.134319,0.000000,5.030655,TRUE,FALSE,FALSE,TRUE,FALSE,FALSE,Disabled,0.000000,0.000000,0.000000,TRUE,-0.376328,-0.385483,0.000000,-0.012833,-0.002182,0.000000,0.150000,-0.060000,-0.072000,-21.400000,-0.560000,2.560000,-20.806281,Hold,0.979004,0.000000,Hold,-69693.000000,69632.000000,Suck,-2370.000000,2400.000000,Speed,-2370.000000,2400.000000,Speed,Off,On,0.000000,FALSE,0,,,,,0.000000,0.000000
08:58:27.535 PM 03/30/2016,Teleop Enabled,9,TRUE,-44087,NetComm_CAN_Receive.vi:5470001<APPEND>  <b>Complete call chain:</b>      NetComm_CAN_Receive.vi:5470001      WPI_CAN_PDPReceive.vi      WPI_Power Get PDP Currents.vi      Periodic Tasks.vi      Robot Main.vi,-0.000000,-6.134319,0.000000,5.030655,TRUE,FALSE,FALSE,TRUE,FALSE,FALSE,Disabled,0.000000,0.000000,0.000000,TRUE,-0.375320,-0.386703,0.000000,0.037918,-0.040329,0.000000,-0.057000,0.111000,0.019000,-21.410000,-0.520000,2.550000,-20.799671,Hold,0.978271,0.000000,Hold,-69693.000000,69632.000000,Suck,-2370.000000,2400.000000,Speed,-2370.000000,2400.000000,Speed,Off,On,0.000000,FALSE,0,,,,,0.000000,0.000000
08:58:27.634 PM 03/30/2016,Teleop Enabled,9,TRUE,-44087,NetComm_CAN_Receive.vi:5470001<APPEND>  <b>Complete call chain:</b>      NetComm_CAN_Receive.vi:5470001      WPI_CAN_PDPReceive.vi      WPI_Power Get PDP Currents.vi      Periodic Tasks.vi      Robot Main.vi,-0.000000,-6.134319,0.000000,5.030655,TRUE,FALSE,FALSE,TRUE,FALSE,FALSE,Disabled,0.000000,0.000000,0.000000,TRUE,-0.374054,-0.385803,0.000000,-0.005569,0.037140,0.000000,-0.018000,-0.064000,-0.055000,-21.410000,-0.510000,2.580000,-20.791161,Hold,0.977783,0.000000,Hold,-69693.000000,69632.000000,Suck,-2347.500000,2400.000000,Speed,-2370.000000,2400.000000,Speed,Off,On,0.000000,FALSE,0,,,,,0.000000,0.000000
08:58:27.735 PM 03/30/2016,Teleop Enabled,11,TRUE,-44087,NetComm_CAN_Receive.vi:5470001<APPEND>  <b>Complete call chain:</b>      NetComm_CAN_Receive.vi:5470001      WPI_CAN_PDPReceive.vi      WPI_Power Get PDP Currents.vi      Periodic Tasks.vi      Robot Main.vi,-0.000000,-6.134319,0.000000,5.030655,TRUE,FALSE,FALSE,TRUE,FALSE,FALSE,Disabled,0.000000,0.000000,0.000000,TRUE,-0.374084,-0.385132,0.000000,0.006866,0.012634,0.000000,0.117000,0.043000,-0.029000,-21.410000,-0.530000,2.570000,-20.804535,Hold,0.977051,0.000000,Hold,-69693.000000,69632.000000,Suck,-2347.500000,2400.000000,Speed,-2370.000000,2400.000000,Speed,Off,On,0.000000,FALSE,0,,,,,0.000000,0.000000
08:58:27.837 PM 03/30/2016,Teleop Enabled,10,TRUE,-44087,NetComm_CAN_Receive.vi:5470001<APPEND>  <b>Complete call chain:</b>      NetComm_CAN_Receive.vi:5470001      WPI_CAN_PDPReceive.vi      WPI_Power Get PDP Currents.vi      Periodic Tasks.vi      Robot Main.vi,-0.000000,-6.134319,0.000000,5.030655,TRUE,FALSE,FALSE,TRUE,FALSE,FALSE,Disabled,0.000000,0.000000,0.000000,TRUE,-0.373138,-0.382477,0.000000,0.027267,0.080978,0.000000,-0.085000,-0.083000,-0.066000,-21.410000,-0.560000,2.600000,-20.804735,Hold,0.976318,0.000000,Hold,-69693.000000,69632.000000,Suck,-2370.000000,2400.000000,Speed,-2370.000000,2400.000000,Speed,Off,On,0.000000,FALSE,0,,,,,0.000000,0.000000
08:58:27.937 PM 03/30/2016,Teleop Enabled,11,TRUE,-44087,NetComm_CAN_Receive.vi:5470001<APPEND>  <b>Complete call chain:</b>      NetComm_CAN_Receive.vi:5470001      WPI_CAN_PDPReceive.vi      WPI_Power Get PDP Currents.vi      Periodic Tasks.vi      Robot Main.vi,-0.000000,-6.134319,0.000000,5.030655,TRUE,FALSE,FALSE,TRUE,FALSE,FALSE,Disabled,0.000000,0.000000,0.000000,TRUE,-0.371323,-0.379669,0.000000,0.049164,0.041489,0.000000,-0.005000,-0.014000,-0.074000,-21.410000,-0.550000,2.610000,-20.796786,Hold,0.975830,0.000000,Hold,-69693.000000,69632.000000,Suck,-2377.500000,2400.000000,Speed,-2370.000000,2400.000000,Speed,Off,On,0.000000,FALSE,0,,,,,0.000000,0.000000
08:58:28.038 PM 03/30/2016,Teleop Enabled,11,TRUE,-44087,NetComm_CAN_Receive.vi:5470001<APPEND>  <b>Complete call chain:</b>      NetComm_CAN_Receive.vi:5470001      WPI_CAN_PDPReceive.vi      WPI_Power Get PDP Currents.vi      Periodic Tasks.vi      Robot Main.vi,-0.000000,-6.134319,0.000000,5.030655,TRUE,FALSE,FALSE,TRUE,FALSE,FALSE,Disabled,0.000000,0.000000,0.000000,TRUE,-0.368423,-0.379852,0.000000,0.045471,0.000702,0.000000,0.093000,0.084000,0.191000,-21.410000,-0.560000,2.570000,-20.791354,Hold,0.975586,0.000000,Hold,-69693.000000,69632.000000,Suck,-2377.500000,2400.000000,Speed,-2370.000000,2400.000000,Speed,Off,On,0.000000,FALSE,0,,,,,0.000000,0.000000
08:58:28.139 PM 03/30/2016,Teleop Enabled,11,TRUE,-44087,NetComm_CAN_Receive.vi:5470001<APPEND>  <b>Complete call chain:</b>      NetComm_CAN_Receive.vi:5470001      WPI_CAN_PDPReceive.vi      WPI_Power Get PDP Currents.vi      Periodic Tasks.vi      Robot Main.vi,-0.000000,-6.134319,0.000000,5.030655,TRUE,FALSE,FALSE,TRUE,FALSE,FALSE,Disabled,0.000000,0.000000,0.000000,TRUE,-0.365982,-0.379532,0.000000,0.048843,-0.011292,0.000000,0.061000,-0.014000,-0.023000,-21.410000,-0.580000,2.560000,-20.780641,Hold,0.975098,0.000000,Hold,-69693.000000,69632.000000,Suck,-2370.000000,2400.000000,Speed,-2377.500000,2400.000000,Speed,Off,On,0.000000,FALSE,0,,,,,0.000000,0.000000
08:58:28.239 PM 03/30/2016,Teleop Enabled,11,TRUE,-44087,NetComm_CAN_Receive.vi:5470001<APPEND>  <b>Complete call chain:</b>      NetComm_CAN_Receive.vi:5470001      WPI_CAN_PDPReceive.vi      WPI_Power Get PDP Currents.vi      Periodic Tasks.vi      Robot Main.vi,-0.000000,-6.134319,0.000000,5.030655,TRUE,FALSE,FALSE,TRUE,FALSE,FALSE,Disabled,0.000000,0.000000,0.000000,TRUE,-0.362091,-0.379349,0.000000,0.068741,0.012665,0.000000,0.015000,0.054000,0.152000,-21.420000,-0.550000,2.570000,-20.759816,Hold,0.973145,0.000000,Hold,-69693.000000,69632.000000,Suck,-2370.000000,2400.000000,Speed,-2377.500000,2400.000000,Speed,Off,On,0.000000,FALSE,0,,,,,0.000000,0.000000
08:58:28.340 PM 03/30/2016,Teleop Enabled,11,TRUE,-44087,NetComm_CAN_Receive.vi:5470001<APPEND>  <b>Complete call chain:</b>      NetComm_CAN_Receive.vi:5470001      WPI_CAN_PDPReceive.vi      WPI_Power Get PDP Currents.vi      Periodic Tasks.vi      Robot Main.vi,-0.000000,-6.134319,0.000000,5.030655,TRUE,FALSE,FALSE,TRUE,FALSE,FALSE,Disabled,0.000000,0.000000,0.000000,TRUE,-0.359222,-0.378189,0.000000,0.036316,0.012253,0.000000,0.090000,-0.084000,-0.066000,-21.420000,-0.590000,2.600000,-20.743392,Hold,0.973145,0.000000,Hold,-69693.000000,69632.000000,Suck,-2362.500000,2400.000000,Speed,-2377.500000,2400.000000,Speed,Off,On,0.000000,FALSE,0,,,,,0.000000,0.000000
08:58:28.440 PM 03/30/2016,Teleop Enabled,11,TRUE,-44087,NetComm_CAN_Receive.vi:5470001<APPEND>  <b>Complete call chain:</b>      NetComm_CAN_Receive.vi:5470001      WPI_CAN_PDPReceive.vi      WPI_Power Get PDP Currents.vi      Periodic Tasks.vi      Robot Main.vi,-0.000000,-6.134319,0.000000,5.030655,TRUE,FALSE,FALSE,TRUE,FALSE,FALSE,Disabled,0.000000,0.000000,0.000000,TRUE,-0.355637,-0.380112,0.000000,0.100815,-0.060684,0.000000,-0.164000,-0.007000,0.005000,-21.420000,-0.580000,2.590000,-20.742838,Hold,0.971436,0.000000,Hold,-69693.000000,69632.000000,Suck,-2355.000000,2400.000000,Speed,-2355.000000,2400.000000,Speed,Off,On,0.000000,FALSE,0,,,,,0.000000,0.000000
08:58:28.541 PM 03/30/2016,Teleop Enabled,10,TRUE,-44087,NetComm_CAN_Receive.vi:5470001<APPEND>  <b>Complete call chain:</b>      NetComm_CAN_Receive.vi:5470001      WPI_CAN_PDPReceive.vi      WPI_Power Get PDP Currents.vi      Periodic Tasks.vi      Robot Main.vi,-0.000000,-6.134319,0.000000,5.030655,TRUE,FALSE,FALSE,TRUE,FALSE,FALSE,Disabled,0.000000,0.000000,0.000000,TRUE,-0.351120,-0.382736,0.000000,0.102722,-0.025238,0.000000,-0.139000,0.000000,0.007000,-21.420000,-0.560000,2.590000,-20.738139,Hold,0.971436,0.000000,Hold,-69693.000000,69632.000000,Suck,-2355.000000,2400.000000,Speed,-2332.500000,2400.000000,Speed,Off,On,0.000000,FALSE,0,,,,,0.000000,0.000000
08:58:28.641 PM 03/30/2016,Teleop Enabled,10,TRUE,-44087,NetComm_CAN_Receive.vi:5470001<APPEND>  <b>Complete call chain:</b>      NetComm_CAN_Receive.vi:5470001      WPI_CAN_PDPReceive.vi      WPI_Power Get PDP Currents.vi      Periodic Tasks.vi      Robot Main.vi,-0.000000,-6.134319,0.000000,5.030655,TRUE,FALSE,FALSE,TRUE,FALSE,FALSE,Disabled,0.000000,0.000000,0.000000,TRUE,-0.348602,-0.383026,0.000000,0.042313,-0.006104,0.000000,0.046000,0.065000,0.004000,-21.420000,-0.570000,2.550000,-20.752842,Hold,0.970703,0.000000,Hold,-69693.000000,69632.000000,Suck,-2370.000000,2400.000000,Speed,-2332.500000,2400.000000,Speed,Off,On,0.000000,FALSE,0,,,,,0.000000,0.000000
08:58:28.743 PM 03/30/2016,Teleop Enabled,11,TRUE,-44087,NetComm_CAN_Receive.vi:5470001<APPEND>  <b>Complete call chain:</b>      NetComm_CAN_Receive.vi:5470001      WPI_CAN_PDPReceive.vi      WPI_Power Get PDP Currents.vi      Periodic Tasks.vi      Robot Main.vi,-0.000000,-6.134319,0.000000,5.030655,TRUE,FALSE,FALSE,TRUE,FALSE,FALSE,Disabled,0.000000,0.000000,0.000000,TRUE,-0.345306,-0.381546,0.000000,0.062271,0.068069,0.000000,0.024000,0.067000,0.257000,-21.420000,-0.570000,2.530000,-20.751788,Hold,0.970459,0.000000,Hold,-69693.000000,69632.000000,Suck,-2370.000000,2400.000000,Speed,-2362.500000,2400.000000,Speed,Off,On,0.000000,FALSE,0,,,,,0.000000,0.000000
08:58:28.843 PM 03/30/2016,Teleop Enabled,10,TRUE,-44087,NetComm_CAN_Receive.vi:5470001<APPEND>  <b>Complete call chain:</b>      NetComm_CAN_Receive.vi:5470001      WPI_CAN_PDPReceive.vi      WPI_Power Get PDP Currents.vi      Periodic Tasks.vi      Robot Main.vi,-0.000000,-6.134319,0.000000,5.030655,TRUE,FALSE,FALSE,TRUE,FALSE,FALSE,Disabled,0.000000,0.000000,0.000000,TRUE,-0.342697,-0.378052,0.000000,0.040588,0.044434,0.000000,0.010000,-0.048000,-0.048000,-21.430000,-0.560000,2.570000,-20.748215,Hold,0.969971,0.000000,Hold,-69693.000000,69632.000000,Suck,-2362.500000,2400.000000,Speed,-2362.500000,2400.000000,Speed,Off,On,0.000000,FALSE,0,,,,,0.000000,0.000000
08:58:28.943 PM 03/30/2016,Teleop Enabled,10,TRUE,-44087,NetComm_CAN_Receive.vi:5470001<APPEND>  <b>Complete call chain:</b>      NetComm_CAN_Receive.vi:5470001      WPI_CAN_PDPReceive.vi      WPI_Power Get PDP Currents.vi      Periodic Tasks.vi      Robot Main.vi,-0.000000,-6.134319,0.000000,5.030655,TRUE,FALSE,FALSE,TRUE,FALSE,FALSE,Disabled,0.000000,0.000000,0.000000,TRUE,-0.339752,-0.377167,0.000000,0.059570,0.000000,0.000000,0.010000,-0.048000,-0.048000,-21.420000,-0.520000,2.580000,-20.755018,Hold,0.969727,0.000000,Hold,-69693.000000,69632.000000,Suck,-2347.500000,2400.000000,Speed,-2377.500000,2400.000000,Speed,Off,On,0.000000,FALSE,0,,,,,0.000000,0.000000
08:58:29.045 PM 03/30/2016,Teleop Enabled,11,TRUE,-44087,NetComm_CAN_Receive.vi:5470001<APPEND>  <b>Complete call chain:</b>      NetComm_CAN_Receive.vi:5470001      WPI_CAN_PDPReceive.vi      WPI_Power Get PDP Currents.vi      Periodic Tasks.vi      Robot Main.vi,-0.000000,-6.134319,0.000000,5.030655,TRUE,FALSE,FALSE,TRUE,FALSE,FALSE,Disabled,0.000000,0.000000,0.000000,TRUE,-0.337143,-0.375763,0.000000,0.059036,0.048721,0.000000,-0.077000,0.023000,0.051000,-21.420000,-0.560000,2.630000,-20.740067,Hold,0.969482,0.000000,Hold,-69693.000000,69632.000000,Suck,-2355.000000,2400.000000,Speed,-2370.000000,2400.000000,Speed,Off,On,0.000000,FALSE,0,,,,,0.000000,0.000000
08:58:29.145 PM 03/30/2016,Teleop Enabled,11,TRUE,-44087,NetComm_CAN_Receive.vi:5470001<APPEND>  <b>Complete call chain:</b>      NetComm_CAN_Receive.vi:5470001      WPI_CAN_PDPReceive.vi      WPI_Power Get PDP Currents.vi      Periodic Tasks.vi      Robot Main.vi,-0.000000,-6.134319,0.000000,5.030655,TRUE,FALSE,FALSE,TRUE,FALSE,FALSE,Disabled,0.000000,0.000000,0.000000,TRUE,-0.333923,-0.375549,0.000000,0.068329,0.000000,0.000000,-0.072000,0.049000,0.008000,-21.420000,-0.570000,2.580000,-20.742142,Hold,0.969238,0.000000,Hold,-69693.000000,69632.000000,Suck,-2385.000000,2400.000000,Speed,-2347.500000,2400.000000,Speed,Off,On,0.000000,FALSE,0,,,,,0.000000,0.000000
08:58:29.246 PM 03/30/2016,Teleop Enabled,11,TRUE,-44087,NetComm_CAN_Receive.vi:5470001<APPEND>  <b>Complete call chain:</b>      NetComm_CAN_Receive.vi:5470001      WPI_CAN_PDPReceive.vi      WPI_Power Get PDP Currents.vi      Periodic Tasks.vi      Robot Main.vi,-0.000000,-6.134319,0.000000,5.030655,TRUE,FALSE,FALSE,TRUE,FALSE,FALSE,Disabled,0.000000,0.000000,0.000000,TRUE,-0.331635,-0.374496,0.000000,0.050278,0.035797,0.000000,-0.051000,-0.069000,-0.005000,-21.420000,-0.570000,2.580000,-20.755286,Hold,0.969238,0.000000,Hold,-69693.000000,69632.000000,Suck,-2370.000000,2400.000000,Speed,-2362.500000,2400.000000,Speed,Off,On,0.000000,FALSE,0,,,,,0.000000,0.000000
08:58:29.348 PM 03/30/2016,Teleop Enabled,10,TRUE,-44087,NetComm_CAN_Receive.vi:5470001<APPEND>  <b>Complete call chain:</b>      NetComm_CAN_Receive.vi:5470001      WPI_CAN_PDPReceive.vi      WPI_Power Get PDP Currents.vi      Periodic Tasks.vi      Robot Main.vi,-0.000000,-6.134319,0.000000,5.030655,TRUE,FALSE,FALSE,TRUE,FALSE,FALSE,Disabled,0.000000,0.000000,0.000000,TRUE,-0.328323,-0.374527,0.000000,0.086639,-0.022018,0.000000,0.091000,-0.020000,0.008000,-21.420000,-0.570000,2.630000,-20.768478,Hold,0.968994,0.000000,Hold,-69693.000000,69632.000000,Suck,-2362.500000,2400.000000,Speed,-2377.500000,2400.000000,Speed,Off,On,0.000000,FALSE,0,,,,,0.000000,0.000000
08:58:29.449 PM 03/30/2016,Teleop Enabled,10,TRUE,-44087,NetComm_CAN_Receive.vi:5470001<APPEND>  <b>Complete call chain:</b>      NetComm_CAN_Receive.vi:5470001      WPI_CAN_PDPReceive.vi      WPI_Power Get PDP Currents.vi      Periodic Tasks.vi      Robot Main.vi,-0.000000,-6.134319,0.000000,5.030655,TRUE,FALSE,FALSE,TRUE,FALSE,FALSE,Disabled,0.000000,0.000000,0.000000,TRUE,-0.322479,-0.376038,0.000000,0.084564,0.005951,0.000000,0.091000,-0.020000,0.008000,-21.420000,-0.560000,2.610000,-20.774131,Hold,0.968994,0.000000,Hold,-69693.000000,69632.000000,Suck,-2362.500000,2400.000000,Speed,-2362.500000,2400.000000,Speed,Off,On,0.000000,FALSE,0,,,,,0.000000,0.000000
08:58:29.550 PM 03/30/2016,Teleop Enabled,10,TRUE,-44087,NetComm_CAN_Receive.vi:5470001<APPEND>  <b>Complete call chain:</b>      NetComm_CAN_Receive.vi:5470001      WPI_CAN_PDPReceive.vi      WPI_Power Get PDP Currents.vi      Periodic Tasks.vi      Robot Main.vi,-0.000000,-6.134319,0.000000,5.030655,TRUE,FALSE,FALSE,TRUE,FALSE,FALSE,Disabled,0.000000,0.000000,0.000000,TRUE,-0.319061,-0.376053,0.000000,0.073441,-0.018829,0.000000,0.086000,0.161000,0.153000,-21.430000,-0.570000,2.620000,-20.773714,Hold,0.968750,0.000000,Hold,-69693.000000,69632.000000,Suck,-2370.000000,2400.000000,Speed,-2370.000000,2400.000000,Speed,Off,On,0.000000,FALSE,0,,,,,0.000000,0.000000
08:58:29.650 PM 03/30/2016,Teleop Enabled,11,TRUE,-44087,NetComm_CAN_Receive.vi:5470001<APPEND>  <b>Complete call chain:</b>      NetComm_CAN_Receive.vi:5470001      WPI_CAN_PDPReceive.vi      WPI_Power Get PDP Currents.vi      Periodic Tasks.vi      Robot Main.vi,-0.000000,-6.134319,0.000000,5.030655,TRUE,FALSE,FALSE,TRUE,FALSE,FALSE,Disabled,0.000000,0.000000,0.000000,TRUE,-0.315536,-0.375717,0.000000,0.053619,0.028214,0.000000,0.027000,0.011000,-0.007000,-21.430000,-0.550000,2.610000,-20.778379,Hold,0.968750,0.000000,Hold,-69693.000000,69632.000000,Suck,-2377.500000,2400.000000,Speed,-2385.000000,2400.000000,Speed,Off,On,0.000000,FALSE,0,,,,,0.000000,0.000000
08:58:29.751 PM 03/30/2016,Teleop Enabled,9,TRUE,-44087,NetComm_CAN_Receive.vi:5470001<APPEND>  <b>Complete call chain:</b>      NetComm_CAN_Receive.vi:5470001      WPI_CAN_PDPReceive.vi      WPI_Power Get PDP Currents.vi      Periodic Tasks.vi      Robot Main.vi,-0.000000,-6.134319,0.000000,5.030655,TRUE,FALSE,FALSE,TRUE,FALSE,FALSE,Disabled,0.000000,0.000000,0.000000,TRUE,-0.315536,-0.375717,0.000000,0.053619,0.028214,0.000000,0.145000,0.059000,0.108000,-21.430000,-0.580000,2.610000,-20.785894,Hold,0.968750,0.000000,Hold,-69693.000000,69632.000000,Suck,-2370.000000,2400.000000,Speed,-2370.000000,2400.000000,Speed,Off,On,0.000000,FALSE,0,,,,,0.000000,0.000000
08:58:29.850 PM 03/30/2016,Teleop Enabled,9,TRUE,-44087,NetComm_CAN_Receive.vi:5470001<APPEND>  <b>Complete call chain:</b>      NetComm_CAN_Receive.vi:5470001      WPI_CAN_PDPReceive.vi      WPI_Power Get PDP Currents.vi      Periodic Tasks.vi      Robot Main.vi,-0.000000,-6.134319,0.000000,5.030655,TRUE,FALSE,FALSE,TRUE,FALSE,FALSE,Disabled,0.000000,0.000000,0.000000,TRUE,-0.308868,-0.375824,0.000000,0.100006,0.002319,0.000000,0.063000,-0.100000,-0.122000,-21.430000,-0.550000,2.630000,-20.797898,Hold,0.968506,0.000000,Hold,-69693.000000,69632.000000,Suck,-2362.500000,2400.000000,Speed,-2347.500000,2400.000000,Speed,Off,On,0.000000,FALSE,0,,,,,0.000000,0.000000
08:58:29.955 PM 03/30/2016,Teleop Enabled,8,TRUE,-44087,NetComm_CAN_Receive.vi:5470001<APPEND>  <b>Complete call chain:</b>      NetComm_CAN_Receive.vi:5470001      WPI_CAN_PDPReceive.vi      WPI_Power Get PDP Currents.vi      Periodic Tasks.vi      Robot Main.vi,-0.000000,-6.134319,0.000000,5.030655,TRUE,FALSE,FALSE,TRUE,FALSE,FALSE,Disabled,0.000000,0.000000,0.000000,TRUE,-0.305603,-0.373764,0.000000,0.045792,0.068741,0.000000,-0.064000,0.034000,0.009000,-21.440000,-0.540000,2.610000,-20.811524,Hold,0.968506,0.000000,Hold,-69693.000000,69632.000000,Suck,-2355.000000,2400.000000,Speed,-2362.500000,2400.000000,Speed,Off,On,0.000000,FALSE,0,,,,,0.000000,0.000000
08:58:30.056 PM 03/30/2016,Teleop Enabled,10,TRUE,-44087,NetComm_CAN_Receive.vi:5470001<APPEND>  <b>Complete call chain:</b>      NetComm_CAN_Receive.vi:5470001      WPI_CAN_PDPReceive.vi      WPI_Power Get PDP Currents.vi      Periodic Tasks.vi      Robot Main.vi,-0.000000,-6.134319,0.000000,5.030655,TRUE,FALSE,FALSE,TRUE,FALSE,FALSE,Disabled,0.000000,0.000000,0.000000,TRUE,-0.305511,-0.370789,0.000000,-0.012283,0.061874,0.000000,-0.064000,-0.007000,-0.009000,-21.440000,-0.550000,2.610000,-20.816867,Hold,0.968262,0.000000,Hold,-69693.000000,69632.000000,Suck,-2340.000000,2400.000000,Speed,-2370.000000,2400.000000,Speed,Off,On,0.000000,FALSE,0,,,,,0.000000,0.000000
08:58:30.157 PM 03/30/2016,Teleop Enabled,10,TRUE,-44087,NetComm_CAN_Receive.vi:5470001<APPEND>  <b>Complete call chain:</b>      NetComm_CAN_Receive.vi:5470001      WPI_CAN_PDPReceive.vi      WPI_Power Get PDP Currents.vi      Periodic Tasks.vi      Robot Main.vi,-0.000000,-6.134319,0.000000,5.030655,TRUE,FALSE,FALSE,TRUE,FALSE,FALSE,Disabled,0.000000,0.000000,0.000000,TRUE,-0.306793,-0.367691,0.000000,-0.037125,0.043427,0.000000,-0.001000,0.045000,0.060000,-21.440000,-0.560000,2.590000,-20.825848,Hold,0.968262,0.000000,Hold,-69693.000000,69632.000000,Suck,-2325.000000,2400.000000,Speed,-2370.000000,2400.000000,Speed,Off,On,0.000000,FALSE,0,,,,,0.000000,0.000000
