Time,Robot Mode,Loop Time,Error Status,Error Code,Error Source,Left Motor Output,Left Motor Encoder,Right Motor Output,Right Motor Encoder,Is Level,Is Stalled,Ball Detector Photoeye,Vision Enabled,Vision Teleop Control,Vision Auto Control,Vision Current State,Vision X Output,Vision NavX Error,Vision NavX Target,NavX Connection Status,NavX Displacement X,NavX Displacement Y,NavX Displacement Z,NavX Velocity X,NavX Velocity Y,NavX Velocity Z,NavX Acceleration X,NavX Acceleration Y,NavX Acceleration Z,NavX Pitch,NavX Yaw,NavX Roll,Gyro Angle,Roller Arm State,Roller Arm Actual,Roller Arm Desired,Shooter Arm State,Shooter Arm Actual,Shooter Arm Desired,Shooter State,Actual RPM Left,Desired RPM Left,Control Mode Left,Actual RPM Right,Desired RPM Right,Control Mode Right,Ball Shooter Cylinder,Ball Halo Cylinder,Scaler Motor Output,Scaler Solenoid Fire,Auto To Run,Auto Current File,Auto File Status,Auto Current Command,Auto Trimmed Command,Shooter Amps Left,Shooter Amps Right
07:19:03.047 PM 04/01/2016,Teleop Enabled,11,TRUE,-44087,NetComm_CAN_Receive.vi:5470027<APPEND>  <b>Complete call chain:</b>      NetComm_CAN_Receive.vi:5470027      WPI_CAN_PDPReceive.vi      WPI_Power Get PDP Currents.vi      Periodic Tasks.vi      Robot Main.vi,-0.000000,2.970910,-0.000000,3.381575,TRUE,FALSE,TRUE,TRUE,FALSE,FALSE,Disabled,0.000000,0.000000,0.000000,TRUE,0.001846,0.011200,0.000000,0.000000,0.000000,0.000000,0.003000,0.001000,0.013000,-1.430000,-0.440000,2.370000,-159.048191,ResetBack,-68.768799,-0.000049,ResetBack,40362.000000,-0.250000,LowGoal,0.000000,-2181.818182,Speed,0.000000,-2181.818182,Speed,Off,Off,0.000000,FALSE,0,,,,,0.000000,0.000000
07:19:03.148 PM 04/01/2016,Teleop Enabled,11,TRUE,-44087,NetComm_CAN_Receive.vi:5470027<APPEND>  <b>Complete call chain:</b>      NetComm_CAN_Receive.vi:5470027      WPI_CAN_PDPReceive.vi      WPI_Power Get PDP Currents.vi      Periodic Tasks.vi      Robot Main.vi,-0.000000,2.970910,-0.000000,3.381575,TRUE,FALSE,TRUE,TRUE,FALSE,FALSE,Disabled,0.000000,0.000000,0.000000,TRUE,0.001526,0.011292,0.000000,-0.020432,0.007172,0.000000,0.010000,0.082000,0.019000,-1.430000,-0.490000,2.370000,-159.413781,ResetBack,-68.831543,-0.000049,ResetBack,40362.000000,-0.250000,LowGoal,0.000000,-2181.818182,Speed,22.500000,-2181.818182,Speed,Off,Off,0.000000,FALSE,0,,,,,0.000000,0.000000
07:19:03.247 PM 04/01/2016,Teleop Enabled,11,TRUE,-44087,NetComm_CAN_Receive.vi:5470027<APPEND>  <b>Complete call chain:</b>      NetComm_CAN_Receive.vi:5470027      WPI_CAN_PDPReceive.vi      WPI_Power Get PDP Currents.vi      Periodic Tasks.vi      Robot Main.vi,-0.000000,2.970910,-0.000000,3.599742,TRUE,FALSE,TRUE,TRUE,FALSE,FALSE,Disabled,0.000000,0.000000,0.000000,TRUE,0.000397,0.011963,0.000000,-0.041718,0.004074,0.000000,-0.039000,0.023000,0.021000,-1.520000,-0.500000,2.370000,-159.952372,ResetBack,-71.180908,-0.000049,ResetBack,41012.000000,-0.250000,LowGoal,120.000000,-2181.818182,Speed,495.000000,-2181.818182,Speed,Off,Off,0.000000,FALSE,0,,,,,0.000000,0.000000
07:19:03.347 PM 04/01/2016,Teleop Enabled,11,TRUE,-44087,NetComm_CAN_Receive.vi:5470027<APPEND>  <b>Complete call chain:</b>      NetComm_CAN_Receive.vi:5470027      WPI_CAN_PDPReceive.vi      WPI_Power Get PDP Currents.vi      Periodic Tasks.vi      Robot Main.vi,-0.000000,2.970910,-0.000000,3.606158,TRUE,FALSE,TRUE,TRUE,FALSE,FALSE,Disabled,0.000000,0.000000,0.000000,TRUE,-0.002945,0.012573,0.000000,-0.059784,0.001938,0.000000,0.018000,0.005000,-0.065000,-1.450000,-0.540000,2.360000,-160.268179,ResetBack,-72.004883,-0.000049,ResetBack,43654.000000,-0.250000,LowGoal,682.500000,-2181.818182,Speed,982.500000,-2181.818182,Speed,Off,Off,0.000000,FALSE,0,,,,,0.000000,0.000000
07:19:03.448 PM 04/01/2016,Teleop Enabled,6,TRUE,-44087,NetComm_CAN_Receive.vi:5470027<APPEND>  <b>Complete call chain:</b>      NetComm_CAN_Receive.vi:5470027      WPI_CAN_PDPReceive.vi      WPI_Power Get PDP Currents.vi      Periodic Tasks.vi      Robot Main.vi,-0.000000,2.970910,-0.000000,3.606158,TRUE,FALSE,TRUE,TRUE,FALSE,FALSE,Disabled,0.000000,0.000000,0.000000,TRUE,-0.006012,0.012222,0.000000,-0.050385,-0.013458,0.000000,-0.037000,0.025000,-0.003000,-1.470000,-0.500000,2.350000,-160.664200,Reset,-72.010498,0.000000,ResetBack,46806.000000,-0.250000,LowGoal,1192.500000,-2181.818182,Speed,1500.000000,-2181.818182,Speed,Off,Off,0.000000,FALSE,0,,,,,0.000000,0.000000
07:19:03.548 PM 04/01/2016,Teleop Enabled,11,TRUE,-44087,NetComm_CAN_Receive.vi:5470027<APPEND>  <b>Complete call chain:</b>      NetComm_CAN_Receive.vi:5470027      WPI_CAN_PDPReceive.vi      WPI_Power Get PDP Currents.vi      Periodic Tasks.vi      Robot Main.vi,-0.000000,2.970910,-0.000000,3.599742,TRUE,FALSE,TRUE,TRUE,FALSE,FALSE,Disabled,0.000000,0.000000,0.000000,TRUE,-0.008698,0.012131,0.000000,-0.042084,0.007034,0.000000,-0.048000,-0.045000,-0.006000,-1.470000,-0.460000,2.360000,-161.022261,Hold,0.642822,0.000000,ResetBack,50758.000000,-0.250000,LowGoal,1627.500000,-2181.818182,Speed,1935.000000,-2181.818182,Speed,Off,Off,0.000000,FALSE,0,,,,,0.000000,0.000000
07:19:03.649 PM 04/01/2016,Teleop Enabled,11,TRUE,-44087,NetComm_CAN_Receive.vi:5470027<APPEND>  <b>Complete call chain:</b>      NetComm_CAN_Receive.vi:5470027      WPI_CAN_PDPReceive.vi      WPI_Power Get PDP Currents.vi      Periodic Tasks.vi      Robot Main.vi,-0.000000,2.970910,-0.000000,3.599742,TRUE,FALSE,TRUE,TRUE,FALSE,FALSE,Disabled,0.000000,0.000000,0.000000,TRUE,-0.012146,0.011108,0.000000,-0.084442,-0.038269,0.000000,-0.018000,0.028000,0.095000,-1.470000,-0.510000,2.370000,-161.409827,Hold,0.928711,0.000000,ResetBack,55631.000000,-0.250000,LowGoal,2017.500000,-2181.818182,Speed,2175.000000,-2181.818182,Speed,Off,Off,0.000000,FALSE,0,,,,,0.000000,0.000000
07:19:03.749 PM 04/01/2016,Teleop Enabled,11,TRUE,-44087,NetComm_CAN_Receive.vi:5470027<APPEND>  <b>Complete call chain:</b>      NetComm_CAN_Receive.vi:5470027      WPI_CAN_PDPReceive.vi      WPI_Power Get PDP Currents.vi      Periodic Tasks.vi      Robot Main.vi,-0.000000,2.970910,-0.000000,3.606158,TRUE,FALSE,TRUE,TRUE,FALSE,FALSE,Disabled,0.000000,0.000000,0.000000,TRUE,-0.016251,0.008209,0.000000,-0.069473,-0.070892,0.000000,-0.034000,-0.078000,0.214000,-1.460000,-0.410000,2.370000,-161.758486,Hold,0.923096,0.000000,ResetBack,61099.000000,-0.250000,LowGoal,2212.500000,-2181.818182,Speed,2182.500000,-2181.818182,Speed,Off,Off,0.000000,FALSE,0,,,,,0.000000,0.000000
07:19:03.850 PM 04/01/2016,Teleop Enabled,10,TRUE,-44087,NetComm_CAN_Receive.vi:5470027<APPEND>  <b>Complete call chain:</b>      NetComm_CAN_Receive.vi:5470027      WPI_CAN_PDPReceive.vi      WPI_Power Get PDP Currents.vi      Periodic Tasks.vi      Robot Main.vi,-0.000000,2.970910,-0.000000,3.606158,TRUE,FALSE,TRUE,TRUE,FALSE,FALSE,Disabled,0.000000,0.000000,0.000000,TRUE,-0.019424,0.000488,0.000000,-0.062637,-0.218231,0.000000,-0.008000,-0.154000,-0.036000,-1.460000,-0.450000,2.390000,-162.131512,Hold,0.923096,0.000000,ResetBack,61099.000000,-0.250000,LowGoal,2167.500000,-2181.818182,Speed,2107.500000,-2181.818182,Speed,Off,Off,0.000000,FALSE,0,,,,,0.000000,0.000000
07:19:03.949 PM 04/01/2016,Teleop Enabled,13,TRUE,-44087,NetComm_CAN_Receive.vi:5470027<APPEND>  <b>Complete call chain:</b>      NetComm_CAN_Receive.vi:5470027      WPI_CAN_PDPReceive.vi      WPI_Power Get PDP Currents.vi      Periodic Tasks.vi      Robot Main.vi,-0.000000,2.970910,-0.000000,3.606158,TRUE,FALSE,TRUE,TRUE,FALSE,FALSE,Disabled,0.000000,0.000000,0.000000,TRUE,-0.022263,-0.013031,0.000000,-0.057083,-0.284973,0.000000,0.098000,0.086000,0.046000,-1.470000,-0.520000,2.360000,-162.532363,Hold,0.923096,0.000000,ResetBack,64669.000000,-0.250000,LowGoal,2092.500000,-2181.818182,Speed,2092.500000,-2181.818182,Speed,Off,Off,0.000000,FALSE,0,,,,,0.000000,0.000000
07:19:04.049 PM 04/01/2016,Teleop Enabled,11,TRUE,-44087,NetComm_CAN_Receive.vi:5470027<APPEND>  <b>Complete call chain:</b>      NetComm_CAN_Receive.vi:5470027      WPI_CAN_PDPReceive.vi      WPI_Power Get PDP Currents.vi      Periodic Tasks.vi      Robot Main.vi,-0.000000,2.970910,-0.000000,3.606158,TRUE,FALSE,TRUE,TRUE,FALSE,FALSE,Disabled,0.000000,0.000000,0.000000,TRUE,-0.024231,-0.025757,0.000000,-0.042114,-0.232391,0.000000,0.044000,0.179000,-0.002000,-1.460000,-0.510000,2.300000,-162.830940,Hold,0.923340,0.000000,ResetBack,67160.000000,-0.250000,LowGoal,2062.500000,-2181.818182,Speed,2115.000000,-2181.818182,Speed,Off,Off,0.000000,FALSE,0,,,,,0.000000,0.000000
07:19:04.150 PM 04/01/2016,Teleop Enabled,10,TRUE,-44087,NetComm_CAN_Receive.vi:5470027<APPEND>  <b>Complete call chain:</b>      NetComm_CAN_Receive.vi:5470027      WPI_CAN_PDPReceive.vi      WPI_Power Get PDP Currents.vi      Periodic Tasks.vi      Robot Main.vi,-0.000000,2.970910,-0.000000,3.606158,TRUE,FALSE,TRUE,TRUE,FALSE,FALSE,Disabled,0.000000,0.000000,0.000000,TRUE,-0.026917,-0.033218,0.000000,-0.075424,-0.100235,0.000000,0.011000,0.022000,-0.062000,-1.460000,-0.500000,2.310000,-163.128748,Hold,0.923340,0.000000,ResetBack,68320.000000,-0.250000,LowGoal,2077.500000,-2181.818182,Speed,2137.500000,-2181.818182,Speed,Off,Off,0.000000,FALSE,0,,,,,0.000000,0.000000
07:19:04.249 PM 04/01/2016,Teleop Enabled,11,TRUE,-44087,NetComm_CAN_Receive.vi:5470027<APPEND>  <b>Complete call chain:</b>      NetComm_CAN_Receive.vi:5470027      WPI_CAN_PDPReceive.vi      WPI_Power Get PDP Currents.vi      Periodic Tasks.vi      Robot Main.vi,-0.000000,2.970910,-0.000000,3.606158,TRUE,FALSE,TRUE,TRUE,FALSE,FALSE,Disabled,0.000000,0.000000,0.000000,TRUE,-0.031204,-0.038574,0.000000,-0.090164,-0.134384,0.000000,-0.077000,-0.003000,0.133000,-1.470000,-0.490000,2.340000,-163.439870,Hold,0.923340,0.000000,ResetBack,69091.000000,-0.250000,LowGoal,2122.500000,-2181.818182,Speed,2115.000000,-2181.818182,Speed,Off,Off,0.000000,FALSE,0,,,,,0.000000,0.000000
07:19:04.350 PM 04/01/2016,Teleop Enabled,11,TRUE,-44087,NetComm_CAN_Receive.vi:5470027<APPEND>  <b>Complete call chain:</b>      NetComm_CAN_Receive.vi:5470027      WPI_CAN_PDPReceive.vi      WPI_Power Get PDP Currents.vi      Periodic Tasks.vi      Robot Main.vi,-0.000000,2.970910,-0.000000,3.606158,TRUE,FALSE,TRUE,TRUE,FALSE,FALSE,Disabled,0.000000,0.000000,0.000000,TRUE,-0.036774,-0.050385,0.000000,-0.089172,-0.277466,0.000000,-0.033000,-0.236000,-0.008000,-1.460000,-0.470000,2.390000,-163.725722,Hold,0.923340,0.000000,Reset,69564.000000,2.000000,LowGoal,2130.000000,-2181.818182,Speed,2122.500000,-2181.818182,Speed,Off,Off,0.000000,FALSE,0,,,,,0.000000,0.000000
07:19:04.449 PM 04/01/2016,Teleop Enabled,11,TRUE,-44087,NetComm_CAN_Receive.vi:5470027<APPEND>  <b>Complete call chain:</b>      NetComm_CAN_Receive.vi:5470027      WPI_CAN_PDPReceive.vi      WPI_Power Get PDP Currents.vi      Periodic Tasks.vi      Robot Main.vi,-0.000000,2.970910,-0.000000,3.606158,TRUE,FALSE,TRUE,TRUE,FALSE,FALSE,Disabled,0.000000,0.000000,0.000000,TRUE,-0.039780,-0.068222,0.000000,-0.032288,-0.380997,0.000000,0.112000,-0.096000,0.047000,-1.470000,-0.520000,2.330000,-163.985694,Hold,0.923340,0.000000,Hold,-194.000000,2.000000,LowGoal,2122.500000,-2181.818182,Speed,2122.500000,-2181.818182,Speed,Off,Off,0.000000,FALSE,0,,,,,0.000000,0.000000
07:19:04.549 PM 04/01/2016,Teleop Enabled,11,TRUE,-44087,NetComm_CAN_Receive.vi:5470027<APPEND>  <b>Complete call chain:</b>      NetComm_CAN_Receive.vi:5470027      WPI_CAN_PDPReceive.vi      WPI_Power Get PDP Currents.vi      Periodic Tasks.vi      Robot Main.vi,-0.000000,2.970910,-0.000000,3.606158,TRUE,FALSE,TRUE,TRUE,FALSE,FALSE,Disabled,0.000000,0.000000,0.000000,TRUE,-0.038940,-0.090698,0.000000,0.035492,-0.493210,0.000000,0.117000,0.027000,0.075000,-1.460000,-0.480000,2.270000,-164.183586,Hold,0.923340,0.000000,Hold,-194.000000,2.000000,LowGoal,2115.000000,-2181.818182,Speed,2115.000000,-2181.818182,Speed,Off,Off,0.000000,FALSE,0,,,,,0.000000,0.000000
07:19:04.649 PM 04/01/2016,Teleop Enabled,11,TRUE,-44087,NetComm_CAN_Receive.vi:5470027<APPEND>  <b>Complete call chain:</b>      NetComm_CAN_Receive.vi:5470027      WPI_CAN_PDPReceive.vi      WPI_Power Get PDP Currents.vi      Periodic Tasks.vi      Robot Main.vi,-0.000000,2.970910,-0.000000,3.606158,TRUE,FALSE,TRUE,TRUE,FALSE,FALSE,Disabled,0.000000,0.000000,0.000000,TRUE,-0.035446,-0.115067,0.000000,0.074997,-0.483200,0.000000,-0.033000,0.102000,-0.039000,-1.460000,-0.500000,2.370000,-164.393878,Hold,0.923340,0.000000,Hold,-193.000000,2.000000,LowGoal,2122.500000,-2181.818182,Speed,2122.500000,-2181.818182,Speed,Off,Off,0.000000,FALSE,0,,,,,0.000000,0.000000
07:19:04.750 PM 04/01/2016,Teleop Enabled,11,TRUE,-44087,NetComm_CAN_Receive.vi:5470027<APPEND>  <b>Complete call chain:</b>      NetComm_CAN_Receive.vi:5470027      WPI_CAN_PDPReceive.vi      WPI_Power Get PDP Currents.vi      Periodic Tasks.vi      Robot Main.vi,-0.000000,2.970910,-0.000000,3.606158,TRUE,FALSE,TRUE,TRUE,FALSE,FALSE,Disabled,0.000000,0.000000,0.000000,TRUE,-0.031586,-0.136307,0.000000,0.086487,-0.365219,0.000000,-0.080000,0.178000,-0.122000,-1.460000,-0.460000,2.280000,-164.595206,Hold,0.923340,0.000000,Hold,-192.000000,2.000000,LowGoal,2122.500000,-2181.818182,Speed,2137.500000,-2181.818182,Speed,Off,Off,0.000000,FALSE,0,,,,,0.000000,0.000000
07:19:04.851 PM 04/01/2016,Teleop Enabled,10,TRUE,-44087,NetComm_CAN_Receive.vi:5470027<APPEND>  <b>Complete call chain:</b>      NetComm_CAN_Receive.vi:5470027      WPI_CAN_PDPReceive.vi      WPI_Power Get PDP Currents.vi      Periodic Tasks.vi      Robot Main.vi,-0.000000,2.970910,-0.000000,3.606158,TRUE,FALSE,TRUE,TRUE,FALSE,FALSE,Disabled,0.000000,0.000000,0.000000,TRUE,-0.027863,-0.151672,0.000000,0.037277,-0.164597,0.000000,-0.117000,0.227000,-0.113000,-1.470000,-0.460000,2.300000,-164.803147,Hold,0.923340,0.000000,Hold,-191.000000,2.000000,LowGoal,2130.000000,-2181.818182,Speed,2130.000000,-2181.818182,Speed,Off,Off,0.000000,FALSE,0,,,,,0.000000,0.000000
07:19:04.952 PM 04/01/2016,Teleop Enabled,11,TRUE,-44087,NetComm_CAN_Receive.vi:5470027<APPEND>  <b>Complete call chain:</b>      NetComm_CAN_Receive.vi:5470027      WPI_CAN_PDPReceive.vi      WPI_Power Get PDP Currents.vi      Periodic Tasks.vi      Robot Main.vi,-0.000000,2.970910,-0.000000,3.606158,TRUE,FALSE,TRUE,TRUE,FALSE,FALSE,Disabled,0.000000,0.000000,0.000000,TRUE,-0.027817,-0.156418,0.000000,-0.015274,-0.095734,0.000000,0.005000,-0.081000,-0.045000,-1.470000,-0.420000,2.260000,-165.007697,Hold,0.923340,0.000000,Hold,-190.000000,2.000000,LowGoal,2130.000000,-2181.818182,Speed,2122.500000,-2181.818182,Speed,Off,Off,0.000000,FALSE,0,,,,,0.000000,0.000000
07:19:05.053 PM 04/01/2016,Teleop Enabled,9,TRUE,-44087,NetComm_CAN_Receive.vi:5470027<APPEND>  <b>Complete call chain:</b>      NetComm_CAN_Receive.vi:5470027      WPI_CAN_PDPReceive.vi      WPI_Power Get PDP Currents.vi      Periodic Tasks.vi      Robot Main.vi,-0.000000,2.970910,-0.000000,3.606158,TRUE,FALSE,TRUE,TRUE,FALSE,FALSE,Disabled,0.000000,0.000000,0.000000,TRUE,-0.028061,-0.160507,0.000000,-0.004379,-0.091293,0.000000,-0.019000,0.020000,0.215000,-1.480000,-0.420000,2.300000,-165.193781,Hold,0.923340,0.000000,Hold,-190.000000,2.000000,LowGoal,2130.000000,-2181.818182,Speed,2130.000000,-2181.818182,Speed,Off,Off,0.000000,FALSE,0,,,,,0.000000,0.000000
07:19:05.154 PM 04/01/2016,Teleop Enabled,9,TRUE,-44087,NetComm_CAN_Receive.vi:5470027<APPEND>  <b>Complete call chain:</b>      NetComm_CAN_Receive.vi:5470027      WPI_CAN_PDPReceive.vi      WPI_Power Get PDP Currents.vi      Periodic Tasks.vi      Robot Main.vi,-0.000000,2.970910,-0.000000,3.606158,TRUE,FALSE,TRUE,TRUE,FALSE,FALSE,Disabled,0.000000,0.000000,0.000000,TRUE,-0.029022,-0.166275,0.000000,-0.009186,-0.163086,0.000000,0.142000,-0.097000,0.146000,-1.480000,-0.410000,2.260000,-165.398816,Hold,0.923340,0.000000,Hold,-190.000000,2.000000,LowGoal,2122.500000,-2181.818182,Speed,2130.000000,-2181.818182,Speed,Off,Off,0.000000,FALSE,0,,,,,0.000000,0.000000
07:19:05.254 PM 04/01/2016,Teleop Enabled,9,TRUE,-44087,NetComm_CAN_Receive.vi:5470027<APPEND>  <b>Complete call chain:</b>      NetComm_CAN_Receive.vi:5470027      WPI_CAN_PDPReceive.vi      WPI_Power Get PDP Currents.vi      Periodic Tasks.vi      Robot Main.vi,-0.000000,2.970910,-0.000000,3.606158,TRUE,FALSE,TRUE,TRUE,FALSE,FALSE,Disabled,0.000000,0.000000,0.000000,TRUE,-0.027496,-0.176834,0.000000,0.031601,-0.232407,0.000000,0.196000,-0.087000,0.097000,-1.480000,-0.430000,2.280000,-165.599359,Hold,0.923340,0.000000,Hold,-189.000000,2.000000,LowGoal,2115.000000,-2181.818182,Speed,2130.000000,-2181.818182,Speed,Off,Off,0.000000,FALSE,0,,,,,0.000000,0.000000
07:19:05.354 PM 04/01/2016,Teleop Enabled,5,TRUE,-44087,NetComm_CAN_Receive.vi:5470027<APPEND>  <b>Complete call chain:</b>      NetComm_CAN_Receive.vi:5470027      WPI_CAN_PDPReceive.vi      WPI_Power Get PDP Currents.vi      Periodic Tasks.vi      Robot Main.vi,-0.000000,2.970910,-0.000000,3.606158,TRUE,FALSE,TRUE,TRUE,FALSE,FALSE,Disabled,0.000000,0.000000,0.000000,TRUE,-0.022614,-0.190094,0.000000,0.126343,-0.281265,0.000000,0.071000,-0.065000,-0.002000,-1.480000,-0.410000,2.310000,-165.771690,Hold,0.923340,0.000000,Hold,-189.000000,2.000000,LowGoal,2092.500000,-2181.818182,Speed,2122.500000,-2181.818182,Speed,Off,Off,0.000000,FALSE,0,,,,,0.000000,0.000000
07:19:05.454 PM 04/01/2016,Teleop Enabled,10,TRUE,-44087,NetComm_CAN_Receive.vi:5470027<APPEND>  <b>Complete call chain:</b>      NetComm_CAN_Receive.vi:5470027      WPI_CAN_PDPReceive.vi      WPI_Power Get PDP Currents.vi      Periodic Tasks.vi      Robot Main.vi,-0.000000,2.970910,-0.000000,3.606158,TRUE,FALSE,TRUE,TRUE,FALSE,FALSE,Disabled,0.000000,0.000000,0.000000,TRUE,-0.013718,-0.208450,0.000000,0.140579,-0.313766,0.000000,0.059000,-0.060000,-0.100000,-1.480000,-0.400000,2.280000,-165.962886,Hold,0.923340,0.000000,Hold,-188.000000,2.000000,LowGoal,2062.500000,-2181.818182,Speed,2130.000000,-2181.818182,Speed,Off,Off,0.000000,FALSE,0,,,,,0.000000,0.000000
07:19:05.555 PM 04/01/2016,Teleop Enabled,9,TRUE,-44087,NetComm_CAN_Receive.vi:5470027<APPEND>  <b>Complete call chain:</b>      NetComm_CAN_Receive.vi:5470027      WPI_CAN_PDPReceive.vi      WPI_Power Get PDP Currents.vi      Periodic Tasks.vi      Robot Main.vi,-0.000000,2.970910,-0.000000,3.606158,TRUE,FALSE,TRUE,TRUE,FALSE,FALSE,Disabled,0.000000,0.000000,0.000000,TRUE,-0.005676,-0.226471,0.000000,0.167145,-0.390213,0.000000,0.056000,-0.129000,0.053000,-1.480000,-0.400000,2.260000,-166.171402,Hold,0.923340,0.000000,Hold,-188.000000,2.000000,LowGoal,2062.500000,-2181.818182,Speed,2115.000000,-2181.818182,Speed,Off,Off,0.000000,FALSE,0,,,,,0.000000,0.000000
07:19:05.655 PM 04/01/2016,Teleop Enabled,9,TRUE,-44087,NetComm_CAN_Receive.vi:5470027<APPEND>  <b>Complete call chain:</b>      NetComm_CAN_Receive.vi:5470027      WPI_CAN_PDPReceive.vi      WPI_Power Get PDP Currents.vi      Periodic Tasks.vi      Robot Main.vi,-0.000000,2.970910,-0.000000,3.606158,TRUE,FALSE,TRUE,TRUE,FALSE,FALSE,Disabled,0.000000,0.000000,0.000000,TRUE,0.004120,-0.244019,0.000000,0.200836,0.000000,0.000000,0.133000,-0.019000,0.035000,-1.480000,-0.390000,2.340000,-166.396593,Hold,0.923340,0.000000,Hold,-188.000000,2.000000,LowGoal,2077.500000,-2181.818182,Speed,2115.000000,-2181.818182,Speed,Off,Off,0.000000,FALSE,0,,,,,0.000000,0.000000
07:19:05.756 PM 04/01/2016,Teleop Enabled,9,TRUE,-44087,NetComm_CAN_Receive.vi:5470027<APPEND>  <b>Complete call chain:</b>      NetComm_CAN_Receive.vi:5470027      WPI_CAN_PDPReceive.vi      WPI_Power Get PDP Currents.vi      Periodic Tasks.vi      Robot Main.vi,-0.000000,2.970910,-0.000000,3.606158,TRUE,FALSE,TRUE,TRUE,FALSE,FALSE,Disabled,0.000000,0.000000,0.000000,TRUE,0.016220,-0.243179,0.000000,0.267563,0.043182,0.000000,0.035000,0.073000,-0.153000,-1.480000,-0.380000,2.300000,-166.590908,Hold,0.923340,0.000000,Hold,-188.000000,2.000000,LowGoal,2077.500000,-2181.818182,Speed,2130.000000,-2181.818182,Speed,Off,Off,0.000000,FALSE,0,,,,,0.000000,0.000000
07:19:05.855 PM 04/01/2016,Teleop Enabled,9,TRUE,-44087,NetComm_CAN_Receive.vi:5470027<APPEND>  <b>Complete call chain:</b>      NetComm_CAN_Receive.vi:5470027      WPI_CAN_PDPReceive.vi      WPI_Power Get PDP Currents.vi      Periodic Tasks.vi      Robot Main.vi,-0.000000,2.970910,-0.000000,3.606158,TRUE,FALSE,TRUE,TRUE,FALSE,FALSE,Disabled,0.000000,0.000000,0.000000,TRUE,0.028366,-0.237030,0.000000,0.220749,0.185440,0.000000,-0.059000,0.069000,-0.022000,-1.480000,-0.420000,2.310000,-166.780621,Hold,0.923584,0.000000,Hold,-188.000000,2.000000,LowGoal,2062.500000,-2181.818182,Speed,2122.500000,-2181.818182,Speed,Off,Off,0.000000,FALSE,0,,,,,0.000000,0.000000
07:19:05.956 PM 04/01/2016,Teleop Enabled,9,TRUE,-44087,NetComm_CAN_Receive.vi:5470027<APPEND>  <b>Complete call chain:</b>      NetComm_CAN_Receive.vi:5470027      WPI_CAN_PDPReceive.vi      WPI_Power Get PDP Currents.vi      Periodic Tasks.vi      Robot Main.vi,-0.000000,2.970910,-0.000000,3.606158,TRUE,FALSE,TRUE,TRUE,FALSE,FALSE,Disabled,0.000000,0.000000,0.000000,TRUE,0.038437,-0.225540,0.000000,0.213440,0.248779,0.000000,-0.089000,-0.047000,0.149000,-1.480000,-0.390000,2.350000,-166.983780,Hold,0.923584,0.000000,Hold,-186.000000,2.000000,LowGoal,2070.000000,-2181.818182,Speed,2130.000000,-2181.818182,Speed,Off,Off,0.000000,FALSE,0,,,,,0.000000,0.000000
07:19:06.056 PM 04/01/2016,Teleop Enabled,10,TRUE,-44087,NetComm_CAN_Receive.vi:5470027<APPEND>  <b>Complete call chain:</b>      NetComm_CAN_Receive.vi:5470027      WPI_CAN_PDPReceive.vi      WPI_Power Get PDP Currents.vi      Periodic Tasks.vi      Robot Main.vi,-0.000000,2.970910,-0.000000,3.606158,TRUE,FALSE,TRUE,TRUE,FALSE,FALSE,Disabled,0.000000,0.000000,0.000000,TRUE,0.049210,-0.213089,0.000000,0.235519,0.241455,0.000000,-0.089000,-0.047000,0.149000,-1.480000,-0.430000,2.430000,-167.168336,Hold,0.923584,0.000000,Hold,-186.000000,2.000000,LowGoal,2070.000000,-2181.818182,Speed,2122.500000,-2181.818182,Speed,Off,Off,0.000000,FALSE,0,,,,,0.000000,0.000000
07:19:06.157 PM 04/01/2016,Teleop Enabled,9,TRUE,-44087,NetComm_CAN_Receive.vi:5470027<APPEND>  <b>Complete call chain:</b>      NetComm_CAN_Receive.vi:5470027      WPI_CAN_PDPReceive.vi      WPI_Power Get PDP Currents.vi      Periodic Tasks.vi      Robot Main.vi,-0.000000,2.970910,-0.000000,3.606158,TRUE,FALSE,TRUE,TRUE,FALSE,FALSE,Disabled,0.000000,0.000000,0.000000,TRUE,0.063110,-0.202896,0.000000,0.298096,0.193619,0.000000,-0.092000,0.035000,-0.046000,-1.470000,-0.440000,2.380000,-167.363890,Hold,0.923584,0.000000,Hold,-186.000000,2.000000,LowGoal,2085.000000,-2181.818182,Speed,2122.500000,-2181.818182,Speed,Off,Off,0.000000,FALSE,0,,,,,0.000000,0.000000
07:19:06.256 PM 04/01/2016,Teleop Enabled,9,TRUE,-44087,NetComm_CAN_Receive.vi:5470027<APPEND>  <b>Complete call chain:</b>      NetComm_CAN_Receive.vi:5470027      WPI_CAN_PDPReceive.vi      WPI_Power Get PDP Currents.vi      Periodic Tasks.vi      Robot Main.vi,-0.000000,2.970910,-0.000000,3.606158,TRUE,FALSE,TRUE,TRUE,FALSE,FALSE,Disabled,0.000000,0.000000,0.000000,TRUE,0.076614,-0.191635,0.000000,0.258438,0.265274,0.000000,-0.029000,0.109000,-0.011000,-1.470000,-0.500000,2.430000,-167.566839,Hold,0.923584,0.000000,Hold,-185.000000,2.000000,LowGoal,2092.500000,-2181.818182,Speed,2130.000000,-2181.818182,Speed,Off,Off,0.000000,FALSE,0,,,,,0.000000,0.000000
07:19:06.359 PM 04/01/2016,Teleop Enabled,12,TRUE,-44087,NetComm_CAN_Receive.vi:5470027<APPEND>  <b>Complete call chain:</b>      NetComm_CAN_Receive.vi:5470027      WPI_CAN_PDPReceive.vi      WPI_Power Get PDP Currents.vi      Periodic Tasks.vi      Robot Main.vi,-0.000000,2.970910,-0.000000,3.606158,TRUE,FALSE,TRUE,TRUE,FALSE,FALSE,Disabled,0.000000,0.000000,0.000000,TRUE,0.090088,-0.185806,0.000000,0.281616,-0.009384,0.000000,-0.029000,0.109000,-0.011000,-1.480000,-0.470000,2.410000,-167.752372,Hold,0.923584,0.000000,Hold,-185.000000,2.000000,LowGoal,2085.000000,-2181.818182,Speed,2130.000000,-2181.818182,Speed,Off,Off,0.000000,FALSE,0,,,,,0.000000,0.000000
07:19:06.459 PM 04/01/2016,Teleop Enabled,9,TRUE,-44087,NetComm_CAN_Receive.vi:5470027<APPEND>  <b>Complete call chain:</b>      NetComm_CAN_Receive.vi:5470027      WPI_CAN_PDPReceive.vi      WPI_Power Get PDP Currents.vi      Periodic Tasks.vi      Robot Main.vi,-0.000000,2.970910,-0.000000,3.606158,TRUE,FALSE,TRUE,TRUE,FALSE,FALSE,Disabled,0.000000,0.000000,0.000000,TRUE,0.099152,-0.189224,0.000000,-0.007309,-0.109039,0.000000,-0.086000,-0.054000,0.164000,-1.480000,-0.470000,2.390000,-167.945142,Hold,0.923584,0.000000,Hold,-185.000000,2.000000,LowGoal,2062.500000,-2181.818182,Speed,2122.500000,-2181.818182,Speed,Off,Off,0.000000,FALSE,0,,,,,0.000000,0.000000
07:19:06.559 PM 04/01/2016,Teleop Enabled,7,TRUE,-44087,NetComm_CAN_Receive.vi:5470027<APPEND>  <b>Complete call chain:</b>      NetComm_CAN_Receive.vi:5470027      WPI_CAN_PDPReceive.vi      WPI_Power Get PDP Currents.vi      Periodic Tasks.vi      Robot Main.vi,-0.000000,2.970910,-0.000000,3.606158,TRUE,FALSE,TRUE,TRUE,FALSE,FALSE,Disabled,0.000000,0.000000,0.000000,TRUE,0.099442,-0.195938,0.000000,0.031464,-0.102356,0.000000,-0.086000,-0.054000,0.164000,-1.480000,-0.440000,2.340000,-168.150232,Hold,0.923584,0.000000,Hold,-185.000000,2.000000,LowGoal,2062.500000,-2181.818182,Speed,2130.000000,-2181.818182,Speed,Off,Off,0.000000,FALSE,0,,,,,0.000000,0.000000
07:19:06.659 PM 04/01/2016,Teleop Enabled,9,TRUE,-44087,NetComm_CAN_Receive.vi:5470027<APPEND>  <b>Complete call chain:</b>      NetComm_CAN_Receive.vi:5470027      WPI_CAN_PDPReceive.vi      WPI_Power Get PDP Currents.vi      Periodic Tasks.vi      Robot Main.vi,-0.000000,2.970910,-0.000000,3.606158,TRUE,FALSE,TRUE,TRUE,FALSE,FALSE,Disabled,0.000000,0.000000,0.000000,TRUE,0.100632,-0.198364,0.000000,0.015488,0.003159,0.000000,0.080000,-0.015000,0.032000,-1.480000,-0.450000,2.260000,-168.333982,Hold,0.923584,0.000000,Hold,-185.000000,2.000000,LowGoal,2092.500000,-2181.818182,Speed,2137.500000,-2181.818182,Speed,Off,Off,0.000000,FALSE,0,,,,,0.000000,0.000000
07:19:06.759 PM 04/01/2016,Teleop Enabled,6,TRUE,-44087,NetComm_CAN_Receive.vi:5470027<APPEND>  <b>Complete call chain:</b>      NetComm_CAN_Receive.vi:5470027      WPI_CAN_PDPReceive.vi      WPI_Power Get PDP Currents.vi      Periodic Tasks.vi      Robot Main.vi,-0.000000,2.970910,-0.000000,3.606158,TRUE,FALSE,TRUE,TRUE,FALSE,FALSE,Disabled,0.000000,0.000000,0.000000,TRUE,0.100739,-0.193100,0.000000,-0.007858,0.168259,0.000000,0.056000,0.134000,-0.047000,-1.480000,-0.480000,2.300000,-168.528022,Hold,0.923584,0.000000,Hold,-185.000000,2.000000,LowGoal,2122.500000,-2181.818182,Speed,2137.500000,-2181.818182,Speed,Off,Off,0.000000,FALSE,0,,,,,0.000000,0.000000
07:19:06.860 PM 04/01/2016,Teleop Enabled,10,TRUE,-44087,NetComm_CAN_Receive.vi:5470027<APPEND>  <b>Complete call chain:</b>      NetComm_CAN_Receive.vi:5470027      WPI_CAN_PDPReceive.vi      WPI_Power Get PDP Currents.vi      Periodic Tasks.vi      Robot Main.vi,-0.000000,2.970910,-0.000000,3.606158,TRUE,FALSE,TRUE,TRUE,FALSE,FALSE,Disabled,0.000000,0.000000,0.000000,TRUE,0.100266,-0.189011,0.000000,-0.015350,0.022293,0.000000,0.056000,0.097000,0.030000,-1.480000,-0.480000,2.300000,-168.717180,Hold,0.923584,0.000000,Hold,-185.000000,2.000000,LowGoal,2107.500000,-2181.818182,Speed,2137.500000,-2181.818182,Speed,Off,Off,0.000000,FALSE,0,,,,,0.000000,0.000000
07:19:06.961 PM 04/01/2016,Teleop Enabled,9,TRUE,-44087,NetComm_CAN_Receive.vi:5470027<APPEND>  <b>Complete call chain:</b>      NetComm_CAN_Receive.vi:5470027      WPI_CAN_PDPReceive.vi      WPI_Power Get PDP Currents.vi      Periodic Tasks.vi      Robot Main.vi,-0.000000,2.970910,-0.000000,3.606158,TRUE,FALSE,TRUE,TRUE,FALSE,FALSE,Disabled,0.000000,0.000000,0.000000,TRUE,0.098923,-0.186996,0.000000,-0.034576,0.039871,0.000000,0.056000,0.097000,0.030000,-1.490000,-0.460000,2.240000,-168.914618,Hold,0.923828,0.000000,Hold,-185.000000,2.000000,LowGoal,2077.500000,-2181.818182,Speed,2137.500000,-2181.818182,Speed,Off,Off,0.000000,FALSE,0,,,,,0.000000,0.000000
07:19:07.066 PM 04/01/2016,Teleop Enabled,11,TRUE,-44087,NetComm_CAN_Receive.vi:5470027<APPEND>  <b>Complete call chain:</b>      NetComm_CAN_Receive.vi:5470027      WPI_CAN_PDPReceive.vi      WPI_Power Get PDP Currents.vi      Periodic Tasks.vi      Robot Main.vi,-0.000000,2.970910,-0.000000,3.606158,TRUE,FALSE,TRUE,TRUE,FALSE,FALSE,Disabled,0.000000,0.000000,0.000000,TRUE,0.100067,-0.187637,0.000000,0.051285,-0.038559,0.000000,0.069000,-0.136000,-0.091000,-1.480000,-0.420000,2.320000,-169.104441,Hold,0.923828,0.000000,Hold,-184.000000,2.000000,LowGoal,2107.500000,-2181.818182,Speed,2137.500000,-2181.818182,Speed,Off,Off,0.000000,FALSE,0,,,,,0.000000,0.000000
07:19:07.164 PM 04/01/2016,Teleop Enabled,11,TRUE,-44087,NetComm_CAN_Receive.vi:5470027<APPEND>  <b>Complete call chain:</b>      NetComm_CAN_Receive.vi:5470027      WPI_CAN_PDPReceive.vi      WPI_Power Get PDP Currents.vi      Periodic Tasks.vi      Robot Main.vi,-0.000000,2.970910,-0.000000,3.606158,TRUE,FALSE,TRUE,TRUE,FALSE,FALSE,Disabled,0.000000,0.000000,0.000000,TRUE,0.102798,-0.187683,0.000000,0.068771,-0.002228,0.000000,-0.019000,0.019000,0.012000,-1.480000,-0.420000,2.320000,-169.298935,Hold,0.923828,0.000000,Hold,-184.000000,2.000000,LowGoal,2122.500000,-2181.818182,Speed,2130.000000,-2181.818182,Speed,Off,Off,0.000000,FALSE,0,,,,,0.000000,0.000000
07:19:07.265 PM 04/01/2016,Teleop Enabled,13,TRUE,-44087,NetComm_CAN_Receive.vi:5470027<APPEND>  <b>Complete call chain:</b>      NetComm_CAN_Receive.vi:5470027      WPI_CAN_PDPReceive.vi      WPI_Power Get PDP Currents.vi      Periodic Tasks.vi      Robot Main.vi,-0.000000,2.970910,-0.000000,3.606158,TRUE,FALSE,TRUE,TRUE,FALSE,FALSE,Disabled,0.000000,0.000000,0.000000,TRUE,0.104950,-0.185791,0.000000,0.032532,0.071686,0.000000,-0.099000,0.048000,-0.020000,-1.480000,-0.430000,2.300000,-169.524715,Hold,0.924072,0.000000,Hold,-184.000000,2.000000,LowGoal,2107.500000,-2181.818182,Speed,2130.000000,-2181.818182,Speed,Off,Off,0.000000,FALSE,0,,,,,0.000000,0.000000
07:19:07.368 PM 04/01/2016,Teleop Enabled,14,TRUE,-44087,NetComm_CAN_Receive.vi:5470027<APPEND>  <b>Complete call chain:</b>      NetComm_CAN_Receive.vi:5470027      WPI_CAN_PDPReceive.vi      WPI_Power Get PDP Currents.vi      Periodic Tasks.vi      Robot Main.vi,-0.000000,2.970910,-0.000000,3.606158,TRUE,FALSE,TRUE,TRUE,FALSE,FALSE,Disabled,0.000000,0.000000,0.000000,TRUE,0.104950,-0.185791,0.000000,0.032532,0.071686,0.000000,-0.120000,0.091000,-0.089000,-1.500000,-0.430000,2.250000,-169.714307,Hold,0.924072,0.000000,Hold,-184.000000,2.000000,LowGoal,2062.500000,-2181.818182,Speed,2122.500000,-2181.818182,Speed,Off,Off,0.000000,FALSE,0,,,,,0.000000,0.000000
07:19:07.467 PM 04/01/2016,Teleop Enabled,11,TRUE,-44087,NetComm_CAN_Receive.vi:5470027<APPEND>  <b>Complete call chain:</b>      NetComm_CAN_Receive.vi:5470027      WPI_CAN_PDPReceive.vi      WPI_Power Get PDP Currents.vi      Periodic Tasks.vi      Robot Main.vi,-0.000000,2.970910,-0.000000,3.606158,TRUE,FALSE,TRUE,TRUE,FALSE,FALSE,Disabled,0.000000,0.000000,0.000000,TRUE,0.110062,-0.169647,0.000000,0.087555,0.211563,0.000000,0.118000,-0.026000,-0.132000,-1.500000,-0.430000,2.250000,-169.909362,Hold,0.924072,0.000000,Hold,-184.000000,2.000000,LowGoal,2062.500000,-2181.818182,Speed,2122.500000,-2181.818182,Speed,Off,Off,0.000000,FALSE,0,,,,,0.000000,0.000000
07:19:07.567 PM 04/01/2016,Teleop Enabled,13,TRUE,-44087,NetComm_CAN_Receive.vi:5470027<APPEND>  <b>Complete call chain:</b>      NetComm_CAN_Receive.vi:5470027      WPI_CAN_PDPReceive.vi      WPI_Power Get PDP Currents.vi      Periodic Tasks.vi      Robot Main.vi,-0.000000,2.970910,-0.000000,3.606158,TRUE,FALSE,TRUE,TRUE,FALSE,FALSE,Disabled,0.000000,0.000000,0.000000,TRUE,0.116287,-0.159836,0.000000,0.154312,0.196548,0.000000,-0.016000,-0.061000,-0.018000,-1.490000,-0.420000,2.300000,-170.089973,Hold,0.924072,0.000000,Hold,-184.000000,2.000000,LowGoal,2077.500000,-2181.818182,Speed,2115.000000,-2181.818182,Speed,Off,Off,0.000000,FALSE,0,,,,,0.000000,0.000000
07:19:07.668 PM 04/01/2016,Teleop Enabled,9,TRUE,-44087,NetComm_CAN_Receive.vi:5470027<APPEND>  <b>Complete call chain:</b>      NetComm_CAN_Receive.vi:5470027      WPI_CAN_PDPReceive.vi      WPI_Power Get PDP Currents.vi      Periodic Tasks.vi      Robot Main.vi,-0.000000,2.970910,-0.000000,3.606158,TRUE,FALSE,TRUE,TRUE,FALSE,FALSE,Disabled,0.000000,0.000000,0.000000,TRUE,0.124329,-0.148483,0.000000,0.157196,0.244766,0.000000,0.063000,0.048000,0.077000,-1.490000,-0.440000,2.320000,-170.274012,Hold,0.924072,0.000000,Hold,-184.000000,2.000000,LowGoal,2077.500000,-2181.818182,Speed,2115.000000,-2181.818182,Speed,Off,Off,0.000000,FALSE,0,,,,,0.000000,0.000000
07:19:07.768 PM 04/01/2016,Teleop Enabled,12,TRUE,-44087,NetComm_CAN_Receive.vi:5470027<APPEND>  <b>Complete call chain:</b>      NetComm_CAN_Receive.vi:5470027      WPI_CAN_PDPReceive.vi      WPI_Power Get PDP Currents.vi      Periodic Tasks.vi      Robot Main.vi,-0.000000,2.970910,-0.000000,3.606158,TRUE,FALSE,TRUE,TRUE,FALSE,FALSE,Disabled,0.000000,0.000000,0.000000,TRUE,0.124329,-0.148483,0.000000,0.157196,0.244766,0.000000,-0.050000,0.129000,0.018000,-1.490000,-0.390000,2.270000,-170.478262,Hold,0.923828,0.000000,Hold,-184.000000,2.000000,LowGoal,2085.000000,-2181.818182,Speed,2130.000000,-2181.818182,Speed,Off,Off,0.000000,FALSE,0,,,,,0.000000,0.000000
07:19:07.869 PM 04/01/2016,Teleop Enabled,13,TRUE,-44087,NetComm_CAN_Receive.vi:5470027<APPEND>  <b>Complete call chain:</b>      NetComm_CAN_Receive.vi:5470027      WPI_CAN_PDPReceive.vi      WPI_Power Get PDP Currents.vi      Periodic Tasks.vi      Robot Main.vi,-0.000000,2.970910,-0.000000,3.606158,TRUE,FALSE,TRUE,TRUE,FALSE,FALSE,Disabled,0.000000,0.000000,0.000000,TRUE,0.128311,-0.131790,0.000000,-0.021927,0.271622,0.000000,-0.089000,-0.033000,-0.153000,-1.490000,-0.420000,2.260000,-170.678457,Hold,0.924072,0.000000,Hold,-184.000000,2.000000,LowGoal,2107.500000,-2181.818182,Speed,2130.000000,-2181.818182,Speed,Off,Off,0.000000,FALSE,0,,,,,0.000000,0.000000
07:19:07.970 PM 04/01/2016,Teleop Enabled,11,TRUE,-44087,NetComm_CAN_Receive.vi:5470027<APPEND>  <b>Complete call chain:</b>      NetComm_CAN_Receive.vi:5470027      WPI_CAN_PDPReceive.vi      WPI_Power Get PDP Currents.vi      Periodic Tasks.vi      Robot Main.vi,-0.000000,2.970910,-0.000000,3.606158,TRUE,FALSE,TRUE,TRUE,FALSE,FALSE,Disabled,0.000000,0.000000,0.000000,TRUE,0.127960,-0.122391,0.000000,-0.001251,0.103317,0.000000,-0.008000,-0.263000,0.060000,-1.490000,-0.400000,2.320000,-170.678457,Hold,0.924072,0.000000,Hold,-184.000000,2.000000,LowGoal,2092.500000,-2181.818182,Speed,2122.500000,-2181.818182,Speed,Off,Off,0.000000,FALSE,0,,,,,0.000000,0.000000
07:19:08.070 PM 04/01/2016,Teleop Enabled,11,TRUE,-44087,NetComm_CAN_Receive.vi:5470027<APPEND>  <b>Complete call chain:</b>      NetComm_CAN_Receive.vi:5470027      WPI_CAN_PDPReceive.vi      WPI_Power Get PDP Currents.vi      Periodic Tasks.vi      Robot Main.vi,-0.000000,2.970910,-0.000000,3.606158,TRUE,FALSE,TRUE,TRUE,FALSE,FALSE,Disabled,0.000000,0.000000,0.000000,TRUE,0.128281,-0.122314,0.000000,0.039368,-0.064499,0.000000,0.079000,-0.073000,0.181000,-1.490000,-0.460000,2.350000,-170.870969,Hold,0.924072,0.000000,Hold,-183.000000,2.000000,LowGoal,2085.000000,-2181.818182,Speed,2137.500000,-2181.818182,Speed,Off,Off,0.000000,FALSE,0,,,,,0.000000,0.000000
07:19:08.169 PM 04/01/2016,Teleop Enabled,11,TRUE,-44087,NetComm_CAN_Receive.vi:5470027<APPEND>  <b>Complete call chain:</b>      NetComm_CAN_Receive.vi:5470027      WPI_CAN_PDPReceive.vi      WPI_Power Get PDP Currents.vi      Periodic Tasks.vi      Robot Main.vi,-0.000000,2.970910,-0.000000,3.606158,TRUE,FALSE,TRUE,TRUE,FALSE,FALSE,Disabled,0.000000,0.000000,0.000000,TRUE,0.131989,-0.127060,0.000000,0.091415,-0.083206,0.000000,0.059000,0.090000,-0.141000,-1.490000,-0.400000,2.340000,-171.062234,Hold,0.924072,0.000000,Hold,-183.000000,2.000000,LowGoal,2100.000000,-2181.818182,Speed,2122.500000,-2181.818182,Speed,Off,Off,0.000000,FALSE,0,,,,,0.000000,0.000000
07:19:08.269 PM 04/01/2016,Teleop Enabled,11,TRUE,-44087,NetComm_CAN_Receive.vi:5470027<APPEND>  <b>Complete call chain:</b>      NetComm_CAN_Receive.vi:5470027      WPI_CAN_PDPReceive.vi      WPI_Power Get PDP Currents.vi      Periodic Tasks.vi      Robot Main.vi,-0.000000,2.970910,-0.000000,3.606158,TRUE,FALSE,TRUE,TRUE,FALSE,FALSE,Disabled,0.000000,0.000000,0.000000,TRUE,0.136002,-0.129318,0.000000,0.065460,-0.003693,0.000000,-0.074000,0.256000,-0.062000,-1.490000,-0.430000,2.290000,-171.240896,Hold,0.924072,0.000000,Hold,-183.000000,2.000000,LowGoal,2100.000000,-2181.818182,Speed,2122.500000,-2181.818182,Speed,Off,Off,0.000000,FALSE,0,,,,,0.000000,0.000000
07:19:08.371 PM 04/01/2016,Teleop Enabled,11,TRUE,-44087,NetComm_CAN_Receive.vi:5470027<APPEND>  <b>Complete call chain:</b>      NetComm_CAN_Receive.vi:5470027      WPI_CAN_PDPReceive.vi      WPI_Power Get PDP Currents.vi      Periodic Tasks.vi      Robot Main.vi,-0.000000,2.970910,-0.000000,3.606158,TRUE,FALSE,TRUE,TRUE,FALSE,FALSE,Disabled,0.000000,0.000000,0.000000,TRUE,0.137421,-0.123795,0.000000,0.005295,0.164337,0.000000,0.070000,-0.011000,-0.072000,-1.500000,-0.390000,2.310000,-171.416335,Hold,0.924072,0.000000,Hold,-183.000000,2.000000,LowGoal,2100.000000,-2181.818182,Speed,2122.500000,-2181.818182,Speed,Off,Off,0.000000,FALSE,0,,,,,0.000000,0.000000
07:19:08.471 PM 04/01/2016,Teleop Enabled,11,TRUE,-44087,NetComm_CAN_Receive.vi:5470027<APPEND>  <b>Complete call chain:</b>      NetComm_CAN_Receive.vi:5470027      WPI_CAN_PDPReceive.vi      WPI_Power Get PDP Currents.vi      Periodic Tasks.vi      Robot Main.vi,-0.000000,2.970910,-0.000000,3.606158,TRUE,FALSE,TRUE,TRUE,FALSE,FALSE,Disabled,0.000000,0.000000,0.000000,TRUE,0.137878,-0.121048,0.000000,0.012451,-0.039108,0.000000,-0.064000,-0.095000,0.209000,-1.500000,-0.390000,2.320000,-171.602609,Hold,0.924072,0.000000,Hold,-183.000000,2.000000,LowGoal,2092.500000,-2181.818182,Speed,2137.500000,-2181.818182,Speed,Off,Off,0.000000,FALSE,0,,,,,0.000000,0.000000
07:19:08.572 PM 04/01/2016,Teleop Enabled,11,TRUE,-44087,NetComm_CAN_Receive.vi:5470027<APPEND>  <b>Complete call chain:</b>      NetComm_CAN_Receive.vi:5470027      WPI_CAN_PDPReceive.vi      WPI_Power Get PDP Currents.vi      Periodic Tasks.vi      Robot Main.vi,-0.000000,2.970910,-0.000000,3.606158,TRUE,FALSE,TRUE,TRUE,FALSE,FALSE,Disabled,0.000000,0.000000,0.000000,TRUE,0.138458,-0.122849,0.000000,0.002197,0.000000,0.000000,-0.013000,0.021000,0.068000,-1.500000,-0.410000,2.390000,-171.799368,Hold,0.924072,0.000000,Hold,-182.000000,2.000000,LowGoal,2092.500000,-2181.818182,Speed,2137.500000,-2181.818182,Speed,Off,Off,0.000000,FALSE,0,,,,,0.000000,0.000000
07:19:08.674 PM 04/01/2016,Teleop Enabled,9,TRUE,-44087,NetComm_CAN_Receive.vi:5470027<APPEND>  <b>Complete call chain:</b>      NetComm_CAN_Receive.vi:5470027      WPI_CAN_PDPReceive.vi      WPI_Power Get PDP Currents.vi      Periodic Tasks.vi      Robot Main.vi,-0.000000,2.970910,-0.000000,3.606158,TRUE,FALSE,TRUE,TRUE,FALSE,FALSE,Disabled,0.000000,0.000000,0.000000,TRUE,0.137482,-0.120560,0.000000,-0.021713,0.103806,0.000000,0.020000,0.172000,-0.042000,-1.490000,-0.440000,2.350000,-171.998245,Hold,0.924072,0.000000,Hold,-181.000000,2.000000,LowGoal,2092.500000,-2181.818182,Speed,2115.000000,-2181.818182,Speed,Off,Off,0.000000,FALSE,0,,,,,0.000000,0.000000
07:19:08.775 PM 04/01/2016,Teleop Enabled,9,TRUE,-44087,NetComm_CAN_Receive.vi:5470027<APPEND>  <b>Complete call chain:</b>      NetComm_CAN_Receive.vi:5470027      WPI_CAN_PDPReceive.vi      WPI_Power Get PDP Currents.vi      Periodic Tasks.vi      Robot Main.vi,-0.000000,2.970910,-0.000000,3.606158,TRUE,FALSE,TRUE,TRUE,FALSE,FALSE,Disabled,0.000000,0.000000,0.000000,TRUE,0.135574,-0.110596,0.000000,-0.060944,0.256927,0.000000,-0.023000,0.064000,-0.008000,-1.500000,-0.440000,2.350000,-172.231233,Hold,0.924072,0.000000,Hold,-181.000000,2.000000,LowGoal,2085.000000,-2181.818182,Speed,2100.000000,-2181.818182,Speed,Off,Off,0.000000,FALSE,0,,,,,0.000000,0.000000
07:19:08.875 PM 04/01/2016,Teleop Enabled,9,TRUE,-44087,NetComm_CAN_Receive.vi:5470027<APPEND>  <b>Complete call chain:</b>      NetComm_CAN_Receive.vi:5470027      WPI_CAN_PDPReceive.vi      WPI_Power Get PDP Currents.vi      Periodic Tasks.vi      Robot Main.vi,-0.000000,2.970910,-0.000000,3.606158,TRUE,FALSE,TRUE,TRUE,FALSE,FALSE,Disabled,0.000000,0.000000,0.000000,TRUE,0.132233,-0.099442,0.000000,-0.092499,0.266708,0.000000,0.029000,-0.062000,0.053000,-1.500000,-0.430000,2.390000,-172.423975,Hold,0.924072,0.000000,Hold,-181.000000,2.000000,LowGoal,2077.500000,-2181.818182,Speed,2107.500000,-2181.818182,Speed,Off,Off,0.000000,FALSE,0,,,,,0.000000,0.000000
07:19:08.975 PM 04/01/2016,Teleop Enabled,7,TRUE,-44087,NetComm_CAN_Receive.vi:5470027<APPEND>  <b>Complete call chain:</b>      NetComm_CAN_Receive.vi:5470027      WPI_CAN_PDPReceive.vi      WPI_Power Get PDP Currents.vi      Periodic Tasks.vi      Robot Main.vi,-0.000000,2.970910,-0.000000,3.606158,TRUE,FALSE,TRUE,TRUE,FALSE,FALSE,Disabled,0.000000,0.000000,0.000000,TRUE,0.128448,-0.086472,0.000000,-0.058289,0.168594,0.000000,-0.098000,-0.022000,0.156000,-1.500000,-0.370000,2.340000,-172.604816,Hold,0.924072,0.000000,Hold,-181.000000,2.000000,LowGoal,2077.500000,-2181.818182,Speed,2122.500000,-2181.818182,Speed,Off,Off,0.000000,FALSE,0,,,,,0.000000,0.000000
07:19:09.075 PM 04/01/2016,Teleop Enabled,9,TRUE,-44087,NetComm_CAN_Receive.vi:5470027<APPEND>  <b>Complete call chain:</b>      NetComm_CAN_Receive.vi:5470027      WPI_CAN_PDPReceive.vi      WPI_Power Get PDP Currents.vi      Periodic Tasks.vi      Robot Main.vi,-0.000000,2.970910,-0.000000,3.606158,TRUE,FALSE,TRUE,TRUE,FALSE,FALSE,Disabled,0.000000,0.000000,0.000000,TRUE,0.126328,-0.080719,0.000000,-0.042938,0.134171,0.000000,0.039000,0.150000,0.049000,-1.500000,-0.460000,2.420000,-172.788718,Hold,0.924072,0.000000,Hold,-181.000000,2.000000,LowGoal,2062.500000,-2181.818182,Speed,2130.000000,-2181.818182,Speed,Off,Off,0.000000,FALSE,0,,,,,0.000000,0.000000
07:19:09.175 PM 04/01/2016,Teleop Enabled,9,TRUE,-44087,NetComm_CAN_Receive.vi:5470027<APPEND>  <b>Complete call chain:</b>      NetComm_CAN_Receive.vi:5470027      WPI_CAN_PDPReceive.vi      WPI_Power Get PDP Currents.vi      Periodic Tasks.vi      Robot Main.vi,-0.000000,2.970910,-0.000000,3.606158,TRUE,FALSE,TRUE,TRUE,FALSE,FALSE,Disabled,0.000000,0.000000,0.000000,TRUE,0.122208,-0.067947,0.000000,-0.106750,0.265503,0.000000,-0.008000,0.185000,0.004000,-1.500000,-0.430000,2.370000,-172.971938,Hold,0.924072,0.000000,Hold,-181.000000,2.000000,LowGoal,2077.500000,-2181.818182,Speed,2130.000000,-2181.818182,Speed,Off,Off,0.000000,FALSE,0,,,,,0.000000,0.000000
07:19:09.275 PM 04/01/2016,Teleop Enabled,9,TRUE,-44087,NetComm_CAN_Receive.vi:5470027<APPEND>  <b>Complete call chain:</b>      NetComm_CAN_Receive.vi:5470027      WPI_CAN_PDPReceive.vi      WPI_Power Get PDP Currents.vi      Periodic Tasks.vi      Robot Main.vi,-0.000000,2.970910,-0.000000,3.606158,TRUE,FALSE,TRUE,TRUE,FALSE,FALSE,Disabled,0.000000,0.000000,0.000000,TRUE,0.116013,-0.050446,0.000000,-0.147079,0.398483,0.000000,0.006000,0.134000,0.198000,-1.500000,-0.400000,2.360000,-173.176043,Hold,0.924072,0.000000,Hold,-181.000000,2.000000,LowGoal,2085.000000,-2181.818182,Speed,2115.000000,-2181.818182,Speed,Off,Off,0.000000,FALSE,0,,,,,0.000000,0.000000
07:19:09.375 PM 04/01/2016,Teleop Enabled,9,TRUE,-44087,NetComm_CAN_Receive.vi:5470027<APPEND>  <b>Complete call chain:</b>      NetComm_CAN_Receive.vi:5470027      WPI_CAN_PDPReceive.vi      WPI_Power Get PDP Currents.vi      Periodic Tasks.vi      Robot Main.vi,-0.000000,2.970910,-0.000000,3.606158,TRUE,FALSE,TRUE,TRUE,FALSE,FALSE,Disabled,0.000000,0.000000,0.000000,TRUE,0.106995,-0.027588,0.000000,-0.195297,0.481049,0.000000,0.057000,0.075000,0.152000,-1.500000,-0.430000,2.390000,-173.361480,Hold,0.924072,0.000000,Hold,-181.000000,2.000000,LowGoal,2062.500000,-2181.818182,Speed,2122.500000,-2181.818182,Speed,Off,Off,0.000000,FALSE,0,,,,,0.000000,0.000000
07:19:09.474 PM 04/01/2016,Teleop Enabled,10,TRUE,-44087,NetComm_CAN_Receive.vi:5470027<APPEND>  <b>Complete call chain:</b>      NetComm_CAN_Receive.vi:5470027      WPI_CAN_PDPReceive.vi      WPI_Power Get PDP Currents.vi      Periodic Tasks.vi      Robot Main.vi,-0.000000,2.970910,-0.000000,3.606158,TRUE,FALSE,TRUE,TRUE,FALSE,FALSE,Disabled,0.000000,0.000000,0.000000,TRUE,0.097626,-0.002853,0.000000,-0.171814,0.490112,0.000000,0.140000,-0.068000,0.057000,-1.500000,-0.490000,2.480000,-173.541213,Hold,0.924072,0.000000,Hold,-181.000000,2.000000,LowGoal,2092.500000,-2181.818182,Speed,2130.000000,-2181.818182,Speed,Off,Off,0.000000,FALSE,0,,,,,0.000000,0.000000
07:19:09.574 PM 04/01/2016,Teleop Enabled,10,TRUE,-44087,NetComm_CAN_Receive.vi:5470027<APPEND>  <b>Complete call chain:</b>      NetComm_CAN_Receive.vi:5470027      WPI_CAN_PDPReceive.vi      WPI_Power Get PDP Currents.vi      Periodic Tasks.vi      Robot Main.vi,-0.000000,2.970910,-0.000000,3.606158,TRUE,FALSE,TRUE,TRUE,FALSE,FALSE,Disabled,0.000000,0.000000,0.000000,TRUE,0.090485,0.021194,0.000000,-0.138718,0.480240,0.000000,-0.036000,0.046000,-0.069000,-1.490000,-0.500000,2.440000,-173.730010,Hold,0.924072,0.000000,Hold,-181.000000,2.000000,LowGoal,2122.500000,-2181.818182,Speed,2122.500000,-2181.818182,Speed,Off,Off,0.000000,FALSE,0,,,,,0.000000,0.000000
07:19:09.675 PM 04/01/2016,Teleop Enabled,9,TRUE,-44087,NetComm_CAN_Receive.vi:5470027<APPEND>  <b>Complete call chain:</b>      NetComm_CAN_Receive.vi:5470027      WPI_CAN_PDPReceive.vi      WPI_Power Get PDP Currents.vi      Periodic Tasks.vi      Robot Main.vi,-0.000000,2.970910,-0.000000,3.606158,TRUE,FALSE,TRUE,TRUE,FALSE,FALSE,Disabled,0.000000,0.000000,0.000000,TRUE,0.083511,0.045822,0.000000,-0.143387,0.509506,0.000000,-0.165000,0.015000,-0.076000,-1.490000,-0.500000,2.500000,-173.908227,Hold,0.924072,0.000000,Hold,-181.000000,2.000000,LowGoal,2115.000000,-2181.818182,Speed,2122.500000,-2181.818182,Speed,Off,Off,0.000000,FALSE,0,,,,,0.000000,0.000000
07:19:09.775 PM 04/01/2016,Teleop Enabled,9,TRUE,-44087,NetComm_CAN_Receive.vi:5470027<APPEND>  <b>Complete call chain:</b>      NetComm_CAN_Receive.vi:5470027      WPI_CAN_PDPReceive.vi      WPI_Power Get PDP Currents.vi      Periodic Tasks.vi      Robot Main.vi,-0.000000,2.970910,-0.000000,3.606158,TRUE,FALSE,TRUE,TRUE,FALSE,FALSE,Disabled,0.000000,0.000000,0.000000,TRUE,0.073608,0.051880,0.000000,-0.149628,0.028152,0.000000,-0.042000,0.003000,-0.115000,-1.490000,-0.490000,2.530000,-174.097496,Hold,0.924072,0.000000,Hold,-181.000000,2.000000,LowGoal,2092.500000,-2181.818182,Speed,2145.000000,-2181.818182,Speed,Off,Off,0.000000,FALSE,0,,,,,0.000000,0.000000
07:19:09.875 PM 04/01/2016,Teleop Enabled,7,TRUE,-44087,NetComm_CAN_Receive.vi:5470027<APPEND>  <b>Complete call chain:</b>      NetComm_CAN_Receive.vi:5470027      WPI_CAN_PDPReceive.vi      WPI_Power Get PDP Currents.vi      Periodic Tasks.vi      Robot Main.vi,-0.000000,2.970910,-0.000000,3.606158,TRUE,FALSE,TRUE,TRUE,FALSE,FALSE,Disabled,0.000000,0.000000,0.000000,TRUE,0.064972,0.052032,0.000000,-0.186905,-0.018616,0.000000,-0.099000,-0.005000,0.114000,-1.500000,-0.480000,2.460000,-174.283105,Hold,0.924072,0.000000,Hold,-181.000000,2.000000,LowGoal,2092.500000,-2181.818182,Speed,2152.500000,-2181.818182,Speed,Off,Off,0.000000,FALSE,0,,,,,0.000000,0.000000
07:19:09.975 PM 04/01/2016,Teleop Enabled,9,TRUE,-44087,NetComm_CAN_Receive.vi:5470027<APPEND>  <b>Complete call chain:</b>      NetComm_CAN_Receive.vi:5470027      WPI_CAN_PDPReceive.vi      WPI_Power Get PDP Currents.vi      Periodic Tasks.vi      Robot Main.vi,-0.000000,2.970910,-0.000000,3.606158,TRUE,FALSE,TRUE,TRUE,FALSE,FALSE,Disabled,0.000000,0.000000,0.000000,TRUE,0.056839,0.050522,0.000000,-0.188461,-0.039719,0.000000,0.022000,0.080000,0.135000,-1.490000,-0.480000,2.490000,-174.480064,Hold,0.924072,0.000000,Hold,-181.000000,2.000000,LowGoal,2085.000000,-2181.818182,Speed,2145.000000,-2181.818182,Speed,Off,Off,0.000000,FALSE,0,,,,,0.000000,0.000000
07:19:10.075 PM 04/01/2016,Teleop Enabled,9,TRUE,-44087,NetComm_CAN_Receive.vi:5470027<APPEND>  <b>Complete call chain:</b>      NetComm_CAN_Receive.vi:5470027      WPI_CAN_PDPReceive.vi      WPI_Power Get PDP Currents.vi      Periodic Tasks.vi      Robot Main.vi,-0.000000,2.970910,-0.000000,3.606158,TRUE,FALSE,TRUE,TRUE,FALSE,FALSE,Disabled,0.000000,0.000000,0.000000,TRUE,0.047333,0.051392,0.000000,0.000000,0.050018,0.000000,-0.024000,0.157000,-0.020000,-1.500000,-0.430000,2.490000,-174.668317,Hold,0.924072,0.000000,Hold,-181.000000,2.000000,LowGoal,2100.000000,-2181.818182,Speed,2122.500000,-2181.818182,Speed,Off,Off,0.000000,FALSE,0,,,,,0.000000,0.000000
07:19:10.175 PM 04/01/2016,Teleop Enabled,9,TRUE,-44087,NetComm_CAN_Receive.vi:5470027<APPEND>  <b>Complete call chain:</b>      NetComm_CAN_Receive.vi:5470027      WPI_CAN_PDPReceive.vi      WPI_Power Get PDP Currents.vi      Periodic Tasks.vi      Robot Main.vi,-0.000000,2.970910,-0.000000,3.606158,TRUE,FALSE,TRUE,TRUE,FALSE,FALSE,Disabled,0.000000,0.000000,0.000000,TRUE,0.046417,0.058136,0.000000,-0.050476,0.198761,0.000000,-0.038000,0.155000,-0.144000,-1.500000,-0.450000,2.540000,-174.846910,Hold,0.924072,0.000000,Hold,-181.000000,2.000000,LowGoal,2100.000000,-2181.818182,Speed,2122.500000,-2181.818182,Speed,Off,Off,0.000000,FALSE,0,,,,,0.000000,0.000000
07:19:10.275 PM 04/01/2016,Teleop Enabled,9,TRUE,-44087,NetComm_CAN_Receive.vi:5470027<APPEND>  <b>Complete call chain:</b>      NetComm_CAN_Receive.vi:5470027      WPI_CAN_PDPReceive.vi      WPI_Power Get PDP Currents.vi      Periodic Tasks.vi      Robot Main.vi,-0.000000,2.970910,-0.000000,3.606158,TRUE,FALSE,TRUE,TRUE,FALSE,FALSE,Disabled,0.000000,0.000000,0.000000,TRUE,0.044647,0.073853,0.000000,-0.019547,0.385666,0.000000,-0.054000,0.097000,-0.001000,-1.500000,-0.390000,2.510000,-175.040616,Hold,0.924072,0.000000,Hold,-181.000000,2.000000,LowGoal,2092.500000,-2181.818182,Speed,2130.000000,-2181.818182,Speed,Off,Off,0.000000,FALSE,0,,,,,0.000000,0.000000
07:19:10.376 PM 04/01/2016,Teleop Enabled,10,TRUE,-44087,NetComm_CAN_Receive.vi:5470027<APPEND>  <b>Complete call chain:</b>      NetComm_CAN_Receive.vi:5470027      WPI_CAN_PDPReceive.vi      WPI_Power Get PDP Currents.vi      Periodic Tasks.vi      Robot Main.vi,-0.000000,2.970910,-0.000000,3.606158,TRUE,FALSE,TRUE,TRUE,FALSE,FALSE,Disabled,0.000000,0.000000,0.000000,TRUE,0.043121,0.095016,0.000000,-0.021790,0.427582,0.000000,0.093000,-0.168000,-0.020000,-1.500000,-0.450000,2.530000,-175.227082,Hold,0.924072,0.000000,Hold,-181.000000,2.000000,LowGoal,2085.000000,-2181.818182,Speed,2122.500000,-2181.818182,Speed,Off,Off,0.000000,FALSE,0,,,,,0.000000,0.000000
07:19:10.476 PM 04/01/2016,Teleop Enabled,9,TRUE,-44087,NetComm_CAN_Receive.vi:5470027<APPEND>  <b>Complete call chain:</b>      NetComm_CAN_Receive.vi:5470027      WPI_CAN_PDPReceive.vi      WPI_Power Get PDP Currents.vi      Periodic Tasks.vi      Robot Main.vi,-0.000000,2.970910,-0.000000,3.606158,TRUE,FALSE,TRUE,TRUE,FALSE,FALSE,Disabled,0.000000,0.000000,0.000000,TRUE,0.043503,0.112488,0.000000,0.005127,0.293686,0.000000,-0.008000,-0.164000,0.122000,-1.510000,-0.420000,2.560000,-175.459231,Hold,0.924072,0.000000,Hold,-181.000000,2.000000,LowGoal,2100.000000,-2181.818182,Speed,2130.000000,-2181.818182,Speed,Off,Off,0.000000,FALSE,0,,,,,0.000000,0.000000
07:19:10.575 PM 04/01/2016,Teleop Enabled,10,TRUE,-44087,NetComm_CAN_Receive.vi:5470027<APPEND>  <b>Complete call chain:</b>      NetComm_CAN_Receive.vi:5470027      WPI_CAN_PDPReceive.vi      WPI_Power Get PDP Currents.vi      Periodic Tasks.vi      Robot Main.vi,-0.000000,2.970910,-0.000000,3.606158,TRUE,FALSE,TRUE,TRUE,FALSE,FALSE,Disabled,0.000000,0.000000,0.000000,TRUE,0.044403,0.122116,0.000000,0.025269,0.131439,0.000000,0.017000,-0.148000,-0.041000,-1.500000,-0.450000,2.560000,-175.644640,Hold,0.924072,0.000000,Hold,-181.000000,2.000000,LowGoal,2092.500000,-2181.818182,Speed,2130.000000,-2181.818182,Speed,Off,Off,0.000000,FALSE,0,,,,,0.000000,0.000000
07:19:10.676 PM 04/01/2016,Teleop Enabled,9,TRUE,-44087,NetComm_CAN_Receive.vi:5470027<APPEND>  <b>Complete call chain:</b>      NetComm_CAN_Receive.vi:5470027      WPI_CAN_PDPReceive.vi      WPI_Power Get PDP Currents.vi      Periodic Tasks.vi      Robot Main.vi,-0.000000,2.970910,-0.000000,3.606158,TRUE,FALSE,TRUE,TRUE,FALSE,FALSE,Disabled,0.000000,0.000000,0.000000,TRUE,0.045776,0.126404,0.000000,0.015167,0.087982,0.000000,0.061000,0.059000,0.020000,-1.500000,-0.410000,2.480000,-175.821264,Hold,0.924072,0.000000,Hold,-181.000000,2.000000,LowGoal,2077.500000,-2181.818182,Speed,2115.000000,-2181.818182,Speed,Off,Off,0.000000,FALSE,0,,,,,0.000000,0.000000
07:19:10.778 PM 04/01/2016,Teleop Enabled,9,TRUE,-44087,NetComm_CAN_Receive.vi:5470027<APPEND>  <b>Complete call chain:</b>      NetComm_CAN_Receive.vi:5470027      WPI_CAN_PDPReceive.vi      WPI_Power Get PDP Currents.vi      Periodic Tasks.vi      Robot Main.vi,-0.000000,2.970910,-0.000000,3.606158,TRUE,FALSE,TRUE,TRUE,FALSE,FALSE,Disabled,0.000000,0.000000,0.000000,TRUE,0.046265,0.133087,0.000000,0.008316,0.168839,0.000000,-0.013000,-0.065000,0.028000,-1.500000,-0.430000,2.520000,-176.004718,Hold,0.924072,0.000000,Hold,-181.000000,2.000000,LowGoal,2055.000000,-2181.818182,Speed,2107.500000,-2181.818182,Speed,Off,Off,0.000000,FALSE,0,,,,,0.000000,0.000000
07:19:10.879 PM 04/01/2016,Teleop Enabled,9,TRUE,-44087,NetComm_CAN_Receive.vi:5470027<APPEND>  <b>Complete call chain:</b>      NetComm_CAN_Receive.vi:5470027      WPI_CAN_PDPReceive.vi      WPI_Power Get PDP Currents.vi      Periodic Tasks.vi      Robot Main.vi,-0.000000,2.970910,-0.000000,3.606158,TRUE,FALSE,TRUE,TRUE,FALSE,FALSE,Disabled,0.000000,0.000000,0.000000,TRUE,0.046463,0.139099,0.000000,0.007904,0.078201,0.000000,0.156000,-0.111000,0.191000,-1.510000,-0.420000,2.510000,-176.206255,Hold,0.924072,0.000000,Hold,-181.000000,2.000000,LowGoal,2077.500000,-2181.818182,Speed,2107.500000,-2181.818182,Speed,Off,Off,0.000000,FALSE,0,,,,,0.000000,0.000000
07:19:10.978 PM 04/01/2016,Teleop Enabled,10,TRUE,-44087,NetComm_CAN_Receive.vi:5470027<APPEND>  <b>Complete call chain:</b>      NetComm_CAN_Receive.vi:5470027      WPI_CAN_PDPReceive.vi      WPI_Power Get PDP Currents.vi      Periodic Tasks.vi      Robot Main.vi,-0.000000,2.970910,-0.000000,3.606158,TRUE,FALSE,TRUE,TRUE,FALSE,FALSE,Disabled,0.000000,0.000000,0.000000,TRUE,0.048965,0.140320,0.000000,0.073441,-0.012070,0.000000,0.064000,-0.048000,-0.028000,-1.510000,-0.460000,2.530000,-176.386828,Hold,0.924072,0.000000,Hold,-181.000000,2.000000,LowGoal,2100.000000,-2181.818182,Speed,2122.500000,-2181.818182,Speed,Off,Off,0.000000,FALSE,0,,,,,0.000000,0.000000
07:19:11.079 PM 04/01/2016,Teleop Enabled,9,TRUE,-44087,NetComm_CAN_Receive.vi:5470027<APPEND>  <b>Complete call chain:</b>      NetComm_CAN_Receive.vi:5470027      WPI_CAN_PDPReceive.vi      WPI_Power Get PDP Currents.vi      Periodic Tasks.vi      Robot Main.vi,-0.000000,2.970910,-0.000000,3.606158,TRUE,FALSE,TRUE,TRUE,FALSE,FALSE,Disabled,0.000000,0.000000,0.000000,TRUE,0.053055,0.138702,0.000000,0.055496,0.004425,0.000000,0.053000,0.147000,-0.085000,-1.510000,-0.450000,2.530000,-176.578134,Hold,0.924072,0.000000,Hold,-181.000000,2.000000,LowGoal,2085.000000,-2181.818182,Speed,2130.000000,-2181.818182,Speed,Off,Off,0.000000,FALSE,0,,,,,0.000000,0.000000
07:19:11.179 PM 04/01/2016,Teleop Enabled,9,TRUE,-44087,NetComm_CAN_Receive.vi:5470027<APPEND>  <b>Complete call chain:</b>      NetComm_CAN_Receive.vi:5470027      WPI_CAN_PDPReceive.vi      WPI_Power Get PDP Currents.vi      Periodic Tasks.vi      Robot Main.vi,-0.000000,2.970910,-0.000000,3.606158,TRUE,FALSE,TRUE,TRUE,FALSE,FALSE,Disabled,0.000000,0.000000,0.000000,TRUE,0.055130,0.140121,0.000000,0.033478,0.040543,0.000000,-0.054000,-0.068000,-0.037000,-1.510000,-0.430000,2.530000,-176.758221,Hold,0.924072,0.000000,Hold,-181.000000,2.000000,LowGoal,2077.500000,-2181.818182,Speed,2130.000000,-2181.818182,Speed,Off,Off,0.000000,FALSE,0,,,,,0.000000,0.000000
07:19:11.279 PM 04/01/2016,Teleop Enabled,9,TRUE,-44087,NetComm_CAN_Receive.vi:5470027<APPEND>  <b>Complete call chain:</b>      NetComm_CAN_Receive.vi:5470027      WPI_CAN_PDPReceive.vi      WPI_Power Get PDP Currents.vi      Periodic Tasks.vi      Robot Main.vi,-0.000000,2.970910,-0.000000,3.606158,TRUE,FALSE,TRUE,TRUE,FALSE,FALSE,Disabled,0.000000,0.000000,0.000000,TRUE,0.054886,0.139221,0.000000,-0.030075,-0.064026,0.000000,-0.022000,-0.084000,0.153000,-1.510000,-0.450000,2.590000,-176.942677,Hold,0.924072,0.000000,Hold,-181.000000,2.000000,LowGoal,2115.000000,-2181.818182,Speed,2122.500000,-2181.818182,Speed,Off,Off,0.000000,FALSE,0,,,,,0.000000,0.000000
07:19:11.379 PM 04/01/2016,Teleop Enabled,9,TRUE,-44087,NetComm_CAN_Receive.vi:5470027<APPEND>  <b>Complete call chain:</b>      NetComm_CAN_Receive.vi:5470027      WPI_CAN_PDPReceive.vi      WPI_Power Get PDP Currents.vi      Periodic Tasks.vi      Robot Main.vi,-0.000000,2.970910,-0.000000,3.606158,TRUE,FALSE,TRUE,TRUE,FALSE,FALSE,Disabled,0.000000,0.000000,0.000000,TRUE,0.052795,0.130997,0.000000,-0.033081,-0.236877,0.000000,0.001000,-0.073000,0.171000,-1.510000,-0.500000,2.610000,-177.108925,Hold,0.924072,0.000000,Hold,-181.000000,2.000000,LowGoal,2130.000000,-2181.818182,Speed,2130.000000,-2181.818182,Speed,Off,Off,0.000000,FALSE,0,,,,,0.000000,0.000000
07:19:11.479 PM 04/01/2016,Teleop Enabled,10,TRUE,-44087,NetComm_CAN_Receive.vi:5470027<APPEND>  <b>Complete call chain:</b>      NetComm_CAN_Receive.vi:5470027      WPI_CAN_PDPReceive.vi      WPI_Power Get PDP Currents.vi      Periodic Tasks.vi      Robot Main.vi,-0.000000,2.970910,-0.000000,3.606158,TRUE,FALSE,TRUE,TRUE,FALSE,FALSE,Disabled,0.000000,0.000000,0.000000,TRUE,0.052521,0.118225,0.000000,0.004196,-0.368774,0.000000,0.047000,-0.201000,0.002000,-1.510000,-0.490000,2.560000,-177.289074,Hold,0.924072,0.000000,Hold,-181.000000,2.000000,LowGoal,2115.000000,-2181.818182,Speed,2145.000000,-2181.818182,Speed,Off,Off,0.000000,FALSE,0,,,,,0.000000,0.000000
07:19:11.580 PM 04/01/2016,Teleop Enabled,9,TRUE,-44087,NetComm_CAN_Receive.vi:5470027<APPEND>  <b>Complete call chain:</b>      NetComm_CAN_Receive.vi:5470027      WPI_CAN_PDPReceive.vi      WPI_Power Get PDP Currents.vi      Periodic Tasks.vi      Robot Main.vi,-0.000000,2.970910,-0.000000,3.606158,TRUE,FALSE,TRUE,TRUE,FALSE,FALSE,Disabled,0.000000,0.000000,0.000000,TRUE,0.054565,0.091568,0.000000,0.037476,-0.444397,0.000000,-0.068000,0.090000,-0.037000,-1.510000,-0.540000,2.510000,-177.494843,Hold,0.924072,0.000000,Hold,-181.000000,2.000000,LowGoal,2077.500000,-2181.818182,Speed,2160.000000,-2181.818182,Speed,Off,Off,0.000000,FALSE,0,,,,,0.000000,0.000000
07:19:11.680 PM 04/01/2016,Teleop Enabled,9,TRUE,-44087,NetComm_CAN_Receive.vi:5470027<APPEND>  <b>Complete call chain:</b>      NetComm_CAN_Receive.vi:5470027      WPI_CAN_PDPReceive.vi      WPI_Power Get PDP Currents.vi      Periodic Tasks.vi      Robot Main.vi,-0.000000,2.970910,-0.000000,3.606158,TRUE,FALSE,TRUE,TRUE,FALSE,FALSE,Disabled,0.000000,0.000000,0.000000,TRUE,0.054428,0.072510,0.000000,-0.011215,-0.343216,0.000000,0.055000,0.124000,0.030000,-1.510000,-0.520000,2.450000,-177.679708,Hold,0.924072,0.000000,Hold,-181.000000,2.000000,LowGoal,2077.500000,-2181.818182,Speed,2137.500000,-2181.818182,Speed,Off,Off,0.000000,FALSE,0,,,,,0.000000,0.000000
07:19:11.780 PM 04/01/2016,Teleop Enabled,10,TRUE,-44087,NetComm_CAN_Receive.vi:5470027<APPEND>  <b>Complete call chain:</b>      NetComm_CAN_Receive.vi:5470027      WPI_CAN_PDPReceive.vi      WPI_Power Get PDP Currents.vi      Periodic Tasks.vi      Robot Main.vi,-0.000000,2.970910,-0.000000,3.606158,TRUE,FALSE,TRUE,TRUE,FALSE,FALSE,Disabled,0.000000,0.000000,0.000000,TRUE,0.054886,0.057816,0.000000,0.000778,-0.278458,0.000000,-0.134000,-0.093000,0.057000,-1.510000,-0.520000,2.510000,-177.873665,Hold,0.924072,0.000000,Hold,-181.000000,2.000000,LowGoal,2092.500000,-2181.818182,Speed,2115.000000,-2181.818182,Speed,Off,Off,0.000000,FALSE,0,,,,,0.000000,0.000000
