Time,Robot Mode,Loop Time,Error Status,Error Code,Error Source,Left Motor Output,Left Motor Encoder,Right Motor Output,Right Motor Encoder,Is Level,Is Stalled,Ball Detector Photoeye,Vision Enabled,Vision Teleop Control,Vision Auto Control,Vision Current State,Vision X Output,Vision NavX Error,Vision NavX Target,NavX Connection Status,NavX Displacement X,NavX Displacement Y,NavX Displacement Z,NavX Velocity X,NavX Velocity Y,NavX Velocity Z,NavX Acceleration X,NavX Acceleration Y,NavX Acceleration Z,NavX Pitch,NavX Yaw,NavX Roll,Gyro Angle,Roller Arm State,Roller Arm Actual,Roller Arm Desired,Shooter Arm State,Shooter Arm Actual,Shooter Arm Desired,Shooter State,Actual RPM Left,Desired RPM Left,Control Mode Left,Actual RPM Right,Desired RPM Right,Scaler Motor Output,Auto To Run,Auto Current File,Auto File Status,Auto Current Command,Auto Trimmed Command
02:09:36.021 PM 03/20/2016,Teleop Enabled,10,FALSE,0,NO ERROR,-0.000000,11.434473,0.000000,4.844572,TRUE,FALSE,TRUE,FALSE,FALSE,FALSE,Disabled,0.000000,0.000000,0.000000,TRUE,15.913956,0.602509,0.000000,0.000000,0.000000,0.000000,0.000000,0.000000,0.014000,22.800000,-0.150000,2.650000,23.331721,ResetBack,0.342773,-0.000049,ResetBack,-170519.000000,-0.300000,LowGoal,0.000000,-1454.545455,Speed,0.000000,-1454.545455,Speed,Off,Off0.000000,0,,,,
02:09:36.120 PM 03/20/2016,Teleop Enabled,10,FALSE,0,NO ERROR,-0.000000,11.408807,0.000000,4.844572,TRUE,TRUE,TRUE,FALSE,FALSE,FALSE,Disabled,0.000000,0.000000,0.000000,TRUE,15.914185,0.603027,0.000000,0.015961,0.019302,0.000000,-0.024000,0.022000,0.035000,22.780000,-0.060000,2.640000,23.324684,ResetBack,-0.007324,-0.000049,ResetBack,-169794.000000,-0.300000,LowGoal,67.500000,-1454.545455,Speed,30.000000,-1454.545455,Speed,Off,Off0.000000,0,,,,
02:09:36.221 PM 03/20/2016,Teleop Enabled,11,FALSE,0,NO ERROR,-0.000000,11.395973,0.000000,4.844572,TRUE,FALSE,TRUE,FALSE,FALSE,FALSE,Disabled,0.000000,0.000000,0.000000,TRUE,15.914505,0.604111,0.000000,-0.003540,0.000000,0.000000,0.000000,-0.015000,0.028000,22.760000,-0.070000,2.630000,23.303309,ResetBack,-0.216064,-0.000049,ResetBack,-162349.000000,-0.300000,LowGoal,795.000000,0.000000,Speed,510.000000,0.000000,Speed,Off,Off0.000000,0,,,,
02:09:36.322 PM 03/20/2016,Teleop Enabled,10,FALSE,0,NO ERROR,-0.000000,11.389557,0.000000,4.844572,TRUE,FALSE,TRUE,FALSE,FALSE,FALSE,Disabled,0.000000,0.000000,0.000000,TRUE,15.914490,0.604111,0.000000,0.000000,0.004272,0.000000,0.119000,-0.003000,0.041000,22.740000,-0.240000,2.630000,23.283453,ResetBack,-0.251709,-0.000049,ResetBack,-162349.000000,-0.300000,LowGoal,1395.000000,-1454.545455,Speed,1057.500000,-1454.545455,Speed,Off,Off0.000000,0,,,,
02:09:36.421 PM 03/20/2016,Teleop Enabled,10,FALSE,0,NO ERROR,-0.000000,11.318974,0.000000,4.844572,TRUE,FALSE,TRUE,FALSE,FALSE,FALSE,Disabled,0.000000,0.000000,0.000000,TRUE,15.916611,0.603668,0.000000,0.037338,-0.021896,0.000000,0.027000,0.025000,-0.008000,22.680000,-0.560000,2.600000,23.232578,Reset,-0.251709,0.000000,ResetBack,-152641.000000,-0.300000,LowGoal,1290.000000,-1454.545455,Speed,975.000000,-1454.545455,Speed,Off,Off0.000000,0,,,,
02:09:36.521 PM 03/20/2016,Teleop Enabled,10,FALSE,0,NO ERROR,-0.000000,11.248390,0.000000,4.793239,TRUE,FALSE,TRUE,FALSE,FALSE,FALSE,Disabled,0.000000,0.000000,0.000000,TRUE,15.919693,0.602646,0.000000,0.091339,-0.017349,0.000000,-0.149000,0.039000,0.027000,22.380000,-0.640000,2.600000,22.944371,Hold,0.905762,0.000000,ResetBack,-146467.000000,-0.300000,LowGoal,1252.500000,-1454.545455,Speed,1125.000000,-1454.545455,Speed,Off,Off0.000000,0,,,,
02:09:36.621 PM 03/20/2016,Teleop Enabled,10,FALSE,0,NO ERROR,-0.000000,11.248390,0.000000,4.767572,TRUE,FALSE,TRUE,FALSE,FALSE,FALSE,Disabled,0.000000,0.000000,0.000000,TRUE,15.922409,0.603867,0.000000,0.030884,0.019012,0.000000,0.065000,-0.031000,0.109000,22.590000,-0.760000,2.720000,23.194173,Hold,0.935547,0.000000,ResetBack,-142088.000000,-0.300000,LowGoal,1447.500000,-1454.545455,Speed,1567.500000,-1454.545455,Speed,Off,Off0.000000,0,,,,
02:09:36.721 PM 03/20/2016,Teleop Enabled,10,FALSE,0,NO ERROR,-0.000000,11.248390,0.000000,4.773989,TRUE,FALSE,TRUE,FALSE,FALSE,FALSE,Disabled,0.000000,0.000000,0.000000,TRUE,15.924515,0.604736,0.000000,0.053238,0.019699,0.000000,-0.083000,0.068000,-0.036000,22.640000,-0.710000,2.660000,23.204542,Hold,0.935547,0.000000,ResetBack,-136294.000000,-0.300000,LowGoal,1485.000000,-1454.545455,Speed,1455.000000,-1454.545455,Speed,Off,Off0.000000,0,,,,
02:09:36.821 PM 03/20/2016,Teleop Enabled,10,FALSE,0,NO ERROR,-0.000000,11.248390,0.000000,4.773989,TRUE,FALSE,TRUE,FALSE,FALSE,FALSE,Disabled,0.000000,0.000000,0.000000,TRUE,15.926773,0.605545,0.000000,0.036667,0.007935,0.000000,0.003000,0.009000,0.016000,22.650000,-0.650000,2.700000,23.217920,Hold,0.935547,0.000000,ResetBack,-130182.000000,-0.300000,LowGoal,1402.500000,-1454.545455,Speed,1312.500000,-1454.545455,Speed,Off,Off0.000000,0,,,,
02:09:36.922 PM 03/20/2016,Teleop Enabled,10,FALSE,0,NO ERROR,-0.000000,11.248390,0.000000,4.773989,TRUE,FALSE,TRUE,FALSE,FALSE,FALSE,Disabled,0.000000,0.000000,0.000000,TRUE,15.928329,0.605682,0.000000,0.000000,0.007004,0.000000,0.008000,0.019000,0.030000,22.660000,-0.750000,2.680000,23.216553,Hold,0.935547,0.000000,ResetBack,-124068.000000,-0.300000,LowGoal,1395.000000,-1454.545455,Speed,1395.000000,-1454.545455,Speed,Off,Off0.000000,0,,,,
02:09:37.021 PM 03/20/2016,Teleop Enabled,10,FALSE,0,NO ERROR,-0.000000,11.248390,0.000000,4.773989,TRUE,FALSE,TRUE,FALSE,FALSE,FALSE,Disabled,0.000000,0.000000,0.000000,TRUE,15.927948,0.605988,0.000000,0.002319,0.012833,0.000000,0.030000,0.026000,0.028000,22.660000,-0.790000,2.690000,23.237212,Hold,0.935547,0.000000,ResetBack,-124068.000000,-0.300000,LowGoal,1432.500000,-1454.545455,Speed,1440.000000,-1454.545455,Speed,Off,Off0.000000,0,,,,
02:09:37.123 PM 03/20/2016,Teleop Enabled,10,FALSE,0,NO ERROR,-0.000000,11.248390,0.000000,4.773989,TRUE,FALSE,TRUE,FALSE,FALSE,FALSE,Disabled,0.000000,0.000000,0.000000,TRUE,15.927979,0.607056,0.000000,-0.001160,0.025558,0.000000,0.022000,-0.087000,0.024000,22.650000,-0.790000,2.750000,23.241928,Hold,0.935547,0.000000,ResetBack,-117683.000000,-0.300000,LowGoal,1432.500000,-1454.545455,Speed,1395.000000,-1454.545455,Speed,Off,Off0.000000,0,,,,
02:09:37.223 PM 03/20/2016,Teleop Enabled,11,FALSE,0,NO ERROR,-0.000000,11.248390,0.000000,4.773989,TRUE,FALSE,TRUE,FALSE,FALSE,FALSE,Disabled,0.000000,0.000000,0.000000,TRUE,15.927963,0.606796,0.000000,-0.009888,-0.010620,0.000000,0.031000,0.051000,0.024000,22.660000,-0.780000,2.700000,23.237370,Hold,0.935547,0.000000,ResetBack,-110958.000000,-0.300000,LowGoal,1417.500000,-1454.545455,Speed,1387.500000,-1454.545455,Speed,Off,Off0.000000,0,,,,
02:09:37.324 PM 03/20/2016,Teleop Enabled,10,FALSE,0,NO ERROR,-0.000000,11.248390,0.000000,4.773989,TRUE,FALSE,TRUE,FALSE,FALSE,FALSE,Disabled,0.000000,0.000000,0.000000,TRUE,15.927444,0.606750,0.000000,-0.013062,-0.000076,0.000000,0.014000,-0.028000,-0.067000,22.650000,-0.700000,2.730000,23.237759,Hold,0.935547,0.000000,Reset,-103992.000000,2.000000,LowGoal,1417.500000,-1454.545455,Speed,1410.000000,-1454.545455,Speed,Off,Off0.000000,0,,,,
02:09:37.424 PM 03/20/2016,Teleop Enabled,10,FALSE,0,NO ERROR,-0.000000,11.248390,0.000000,4.773989,TRUE,FALSE,TRUE,FALSE,FALSE,FALSE,Disabled,0.000000,0.000000,0.000000,TRUE,15.925842,0.606995,0.000000,-0.029617,0.015366,0.000000,0.025000,-0.008000,0.116000,22.660000,-0.560000,2.690000,23.219486,Hold,0.935547,0.000000,Hold,-90.000000,2.000000,LowGoal,1425.000000,-1454.545455,Speed,1402.500000,-1454.545455,Speed,Off,Off0.000000,0,,,,
02:09:37.524 PM 03/20/2016,Teleop Enabled,11,FALSE,0,NO ERROR,-0.000000,11.254807,0.000000,4.793239,TRUE,FALSE,TRUE,FALSE,FALSE,FALSE,Disabled,0.000000,0.000000,0.000000,TRUE,15.924500,0.607285,0.000000,-0.031784,0.001663,0.000000,0.033000,-0.010000,-0.057000,22.690000,-0.870000,2.710000,23.279098,Hold,0.935547,0.000000,Hold,-89.000000,2.000000,LowGoal,1425.000000,-1454.545455,Speed,1402.500000,-1454.545455,Speed,Off,Off0.000000,0,,,,
02:09:37.624 PM 03/20/2016,Teleop Enabled,11,FALSE,0,NO ERROR,-0.000000,11.254807,0.000000,4.786822,TRUE,FALSE,TRUE,FALSE,FALSE,FALSE,Disabled,0.000000,0.000000,0.000000,TRUE,15.923447,0.607254,0.000000,0.000000,-0.004013,0.000000,0.000000,-0.053000,0.092000,22.650000,-0.540000,2.700000,23.233425,Hold,0.935547,0.000000,Hold,-124.000000,2.000000,LowGoal,1417.500000,-1454.545455,Speed,1395.000000,-1454.545455,Speed,Off,Off0.000000,0,,,,
02:09:37.724 PM 03/20/2016,Teleop Enabled,10,FALSE,0,NO ERROR,-0.000000,11.254807,0.000000,4.786822,TRUE,FALSE,TRUE,FALSE,FALSE,FALSE,Disabled,0.000000,0.000000,0.000000,TRUE,15.922958,0.607178,0.000000,-0.011398,0.003159,0.000000,0.015000,0.019000,0.009000,22.710000,-0.770000,2.700000,23.286320,Hold,0.935547,0.000000,Hold,-124.000000,2.000000,LowGoal,1425.000000,-1454.545455,Speed,1402.500000,-1454.545455,Speed,Off,Off0.000000,0,,,,
02:09:37.825 PM 03/20/2016,Teleop Enabled,10,FALSE,0,NO ERROR,-0.000000,11.254807,0.000000,4.786822,TRUE,FALSE,TRUE,FALSE,FALSE,FALSE,Disabled,0.000000,0.000000,0.000000,TRUE,15.921906,0.608368,0.000000,-0.007370,0.020569,0.000000,0.053000,-0.103000,0.026000,22.650000,-0.760000,2.730000,23.231721,Hold,0.935547,0.000000,Hold,-124.000000,2.000000,LowGoal,1417.500000,-1454.545455,Speed,1402.500000,-1454.545455,Speed,Off,Off0.000000,0,,,,
02:09:37.925 PM 03/20/2016,Teleop Enabled,10,FALSE,0,NO ERROR,-0.000000,11.254807,0.000000,4.786822,TRUE,FALSE,TRUE,FALSE,FALSE,FALSE,Disabled,0.000000,0.000000,0.000000,TRUE,15.921387,0.607758,0.000000,-0.022156,-0.021362,0.000000,-0.015000,0.034000,0.116000,22.690000,-0.730000,2.630000,23.287363,Hold,0.935547,0.000000,Hold,-124.000000,2.000000,LowGoal,1425.000000,-1454.545455,Speed,1395.000000,-1454.545455,Speed,Off,Off0.000000,0,,,,
02:09:38.025 PM 03/20/2016,Teleop Enabled,10,FALSE,0,NO ERROR,-0.000000,11.254807,0.000000,4.786822,TRUE,FALSE,TRUE,FALSE,FALSE,FALSE,Disabled,0.000000,0.000000,0.000000,TRUE,15.921844,0.607422,0.000000,0.017685,0.006622,0.000000,0.048000,0.001000,-0.008000,22.680000,-0.760000,2.690000,23.285143,Hold,0.935547,0.000000,Hold,-124.000000,2.000000,LowGoal,1425.000000,-1454.545455,Speed,1395.000000,-1454.545455,Speed,Off,Off0.000000,0,,,,
02:09:38.126 PM 03/20/2016,Teleop Enabled,10,FALSE,0,NO ERROR,-0.000000,11.254807,0.000000,4.786822,TRUE,FALSE,TRUE,FALSE,FALSE,FALSE,Disabled,0.000000,0.000000,0.000000,TRUE,15.923859,0.607666,0.000000,0.050690,-0.004684,0.000000,-0.027000,0.061000,0.021000,22.680000,-0.650000,2.650000,23.295257,Hold,0.935547,0.000000,Hold,-124.000000,2.000000,LowGoal,1425.000000,-1454.545455,Speed,1402.500000,-1454.545455,Speed,Off,Off0.000000,0,,,,
02:09:38.227 PM 03/20/2016,Teleop Enabled,9,FALSE,0,NO ERROR,-0.000000,11.254807,0.000000,4.786822,TRUE,FALSE,TRUE,FALSE,FALSE,FALSE,Disabled,0.000000,0.000000,0.000000,TRUE,15.926315,0.608200,0.000000,0.042847,0.024597,0.000000,-0.034000,-0.046000,-0.028000,22.680000,-0.730000,2.720000,23.288103,Hold,0.935547,0.000000,Hold,-124.000000,2.000000,LowGoal,1417.500000,-1454.545455,Speed,1395.000000,-1454.545455,Speed,Off,Off0.000000,0,,,,
02:09:38.328 PM 03/20/2016,Teleop Enabled,11,FALSE,0,NO ERROR,-0.000000,11.254807,0.000000,4.786822,TRUE,FALSE,TRUE,FALSE,FALSE,FALSE,Disabled,0.000000,0.000000,0.000000,TRUE,15.929153,0.609619,0.000000,0.064148,0.027771,0.000000,-0.059000,-0.046000,-0.029000,22.670000,-0.700000,2.750000,23.280750,Hold,0.935547,0.000000,Hold,-124.000000,2.000000,LowGoal,1425.000000,-1454.545455,Speed,1395.000000,-1454.545455,Speed,Off,Off0.000000,0,,,,
02:09:38.428 PM 03/20/2016,Teleop Enabled,9,FALSE,0,NO ERROR,-0.000000,11.254807,0.000000,4.786822,TRUE,FALSE,TRUE,FALSE,FALSE,FALSE,Disabled,0.000000,0.000000,0.000000,TRUE,15.932587,0.609100,0.000000,0.060272,-0.027374,0.000000,0.009000,0.056000,-0.004000,22.670000,-0.680000,2.660000,23.269335,Hold,0.935547,0.000000,Hold,-124.000000,2.000000,LowGoal,1425.000000,-1454.545455,Speed,1395.000000,-1454.545455,Speed,Off,Off0.000000,0,,,,
02:09:38.529 PM 03/20/2016,Teleop Enabled,12,FALSE,0,NO ERROR,-0.000000,11.254807,0.000000,4.786822,TRUE,FALSE,TRUE,FALSE,FALSE,FALSE,Disabled,0.000000,0.000000,0.000000,TRUE,15.933380,0.609009,0.000000,0.017334,0.006348,0.000000,0.067000,-0.108000,-0.028000,22.670000,-0.720000,2.760000,23.269582,Hold,0.935547,0.000000,Hold,-121.000000,2.000000,LowGoal,1417.500000,-1454.545455,Speed,1402.500000,-1454.545455,Speed,Off,Off0.000000,0,,,,
02:09:38.631 PM 03/20/2016,Teleop Enabled,10,FALSE,0,NO ERROR,-0.000000,11.254807,0.000000,4.786822,TRUE,FALSE,TRUE,FALSE,FALSE,FALSE,Disabled,0.000000,0.000000,0.000000,TRUE,15.934937,0.607864,0.000000,0.022583,-0.033768,0.000000,0.062000,0.034000,0.087000,22.680000,-0.690000,2.700000,23.281728,Hold,0.935547,0.000000,Hold,-120.000000,2.000000,LowGoal,1417.500000,-1454.545455,Speed,1395.000000,-1454.545455,Speed,Off,Off0.000000,0,,,,
02:09:38.732 PM 03/20/2016,Teleop Enabled,9,FALSE,0,NO ERROR,-0.000000,11.254807,0.000000,4.786822,TRUE,FALSE,TRUE,FALSE,FALSE,FALSE,Disabled,0.000000,0.000000,0.000000,TRUE,15.935608,0.606308,0.000000,-0.004303,-0.032883,0.000000,-0.043000,-0.031000,0.007000,22.680000,-0.770000,2.710000,23.287436,Hold,0.935547,0.000000,Hold,-119.000000,2.000000,LowGoal,1425.000000,-1454.545455,Speed,1402.500000,-1454.545455,Speed,Off,Off0.000000,0,,,,
02:09:38.832 PM 03/20/2016,Teleop Enabled,10,FALSE,0,NO ERROR,-0.000000,11.254807,0.000000,4.786822,TRUE,FALSE,TRUE,FALSE,FALSE,FALSE,Disabled,0.000000,0.000000,0.000000,TRUE,15.935059,0.605423,0.000000,-0.019943,-0.009399,0.000000,0.015000,0.083000,0.004000,22.670000,-0.690000,2.710000,23.278299,Hold,0.935547,0.000000,Hold,-118.000000,2.000000,LowGoal,1417.500000,-1454.545455,Speed,1402.500000,-1454.545455,Speed,Off,Off0.000000,0,,,,
02:09:38.934 PM 03/20/2016,Teleop Enabled,10,FALSE,0,NO ERROR,-0.000000,11.254807,0.000000,4.786822,TRUE,FALSE,TRUE,FALSE,FALSE,FALSE,Disabled,0.000000,0.000000,0.000000,TRUE,15.934692,0.604416,0.000000,-0.019028,-0.026550,0.000000,-0.010000,-0.019000,-0.038000,22.680000,-0.760000,2.690000,23.289952,Hold,0.935547,0.000000,Hold,-118.000000,2.000000,LowGoal,1425.000000,-1454.545455,Speed,1395.000000,-1454.545455,Speed,Off,Off0.000000,0,,,,
02:09:39.034 PM 03/20/2016,Teleop Enabled,10,FALSE,0,NO ERROR,-0.000000,11.254807,0.000000,4.786822,TRUE,FALSE,TRUE,FALSE,FALSE,FALSE,Disabled,0.000000,0.000000,0.000000,TRUE,15.933060,0.605118,0.000000,-0.022766,0.003555,0.000000,-0.007000,-0.100000,-0.039000,22.680000,-0.750000,2.730000,23.296035,Hold,0.935547,0.000000,Hold,-118.000000,2.000000,LowGoal,1417.500000,-1454.545455,Speed,1402.500000,-1454.545455,Speed,Off,Off0.000000,0,,,,
02:09:39.134 PM 03/20/2016,Teleop Enabled,6,FALSE,0,NO ERROR,-0.000000,11.254807,0.000000,4.786822,TRUE,FALSE,TRUE,FALSE,FALSE,FALSE,Disabled,0.000000,0.000000,0.000000,TRUE,15.931702,0.604462,0.000000,-0.031570,-0.022141,0.000000,-0.006000,0.050000,-0.020000,22.680000,-0.790000,2.670000,23.288479,Hold,0.935547,0.000000,Hold,-118.000000,2.000000,LowGoal,1417.500000,-1454.545455,Speed,1402.500000,-1454.545455,Speed,Off,Off0.000000,0,,,,
02:09:39.235 PM 03/20/2016,Teleop Enabled,9,FALSE,0,NO ERROR,-0.000000,11.254807,0.000000,4.786822,TRUE,FALSE,TRUE,FALSE,FALSE,FALSE,Disabled,0.000000,0.000000,0.000000,TRUE,15.931976,0.603455,0.000000,0.014191,-0.026520,0.000000,0.001000,0.061000,0.080000,22.670000,-0.730000,2.680000,23.288771,Hold,0.935547,0.000000,Hold,-118.000000,2.000000,LowGoal,1410.000000,-1454.545455,Speed,1395.000000,-1454.545455,Speed,Off,Off0.000000,0,,,,
02:09:39.336 PM 03/20/2016,Teleop Enabled,9,FALSE,0,NO ERROR,-0.000000,11.254807,0.000000,4.786822,TRUE,FALSE,TRUE,FALSE,FALSE,FALSE,Disabled,0.000000,0.000000,0.000000,TRUE,15.932068,0.602264,0.000000,0.006714,0.000000,0.000000,0.034000,-0.006000,-0.043000,22.670000,-0.790000,2.690000,23.298472,Hold,0.935547,0.000000,Hold,-118.000000,2.000000,LowGoal,1402.500000,-1454.545455,Speed,1395.000000,-1454.545455,Speed,Off,Off0.000000,0,,,,
02:09:39.437 PM 03/20/2016,Teleop Enabled,11,FALSE,0,NO ERROR,-0.000000,11.254807,0.000000,4.786822,TRUE,FALSE,TRUE,FALSE,FALSE,FALSE,Disabled,0.000000,0.000000,0.000000,TRUE,15.933105,0.601746,0.000000,0.019333,-0.020645,0.000000,-0.029000,0.008000,-0.018000,22.670000,-0.750000,2.690000,23.290782,Hold,0.935547,0.000000,Hold,-118.000000,2.000000,LowGoal,1402.500000,-1454.545455,Speed,1395.000000,-1454.545455,Speed,Off,Off0.000000,0,,,,
02:09:39.537 PM 03/20/2016,Teleop Enabled,11,FALSE,0,NO ERROR,-0.000000,11.254807,0.000000,4.786822,TRUE,FALSE,TRUE,FALSE,FALSE,FALSE,Disabled,0.000000,0.000000,0.000000,TRUE,15.933914,0.601669,0.000000,0.026443,0.005798,0.000000,0.026000,-0.008000,-0.026000,22.670000,-0.790000,2.720000,23.277349,Hold,0.935547,0.000000,Hold,-117.000000,2.000000,LowGoal,1417.500000,-1454.545455,Speed,1395.000000,-1454.545455,Speed,Off,Off0.000000,0,,,,
02:09:39.638 PM 03/20/2016,Teleop Enabled,12,FALSE,0,NO ERROR,-0.000000,11.254807,0.000000,4.786822,TRUE,FALSE,TRUE,FALSE,FALSE,FALSE,Disabled,0.000000,0.000000,0.000000,TRUE,15.935974,0.601334,0.000000,0.041550,-0.016510,0.000000,-0.069000,0.028000,0.055000,22.670000,-0.700000,2.660000,23.276017,Hold,0.935547,0.000000,Hold,-117.000000,2.000000,LowGoal,1417.500000,-1454.545455,Speed,1395.000000,-1454.545455,Speed,Off,Off0.000000,0,,,,
02:09:39.739 PM 03/20/2016,Teleop Enabled,9,FALSE,0,NO ERROR,-0.000000,11.254807,0.000000,4.786822,TRUE,FALSE,TRUE,FALSE,FALSE,FALSE,Disabled,0.000000,0.000000,0.000000,TRUE,15.937851,0.600937,0.000000,0.050919,-0.008621,0.000000,-0.040000,0.054000,-0.002000,22.660000,-0.700000,2.720000,23.289900,Hold,0.935547,0.000000,Hold,-117.000000,2.000000,LowGoal,1417.500000,-1454.545455,Speed,1387.500000,-1454.545455,Speed,Off,Off0.000000,0,,,,
02:09:39.840 PM 03/20/2016,Teleop Enabled,9,FALSE,0,NO ERROR,-0.000000,11.254807,0.000000,4.786822,TRUE,FALSE,TRUE,FALSE,FALSE,FALSE,Disabled,0.000000,0.000000,0.000000,TRUE,15.940918,0.600494,0.000000,0.078903,-0.011658,0.000000,-0.070000,-0.044000,-0.082000,22.650000,-0.630000,2.700000,23.294303,Hold,0.935547,0.000000,Hold,-117.000000,2.000000,LowGoal,1425.000000,-1454.545455,Speed,1395.000000,-1454.545455,Speed,Off,Off0.000000,0,,,,
02:09:39.939 PM 03/20/2016,Teleop Enabled,10,FALSE,0,NO ERROR,-0.000000,11.254807,0.000000,4.786822,TRUE,FALSE,TRUE,FALSE,FALSE,FALSE,Disabled,0.000000,0.000000,0.000000,TRUE,15.944382,0.600357,0.000000,0.064774,0.003113,0.000000,0.050000,0.067000,0.006000,22.650000,-0.730000,2.740000,23.294293,Hold,0.935547,0.000000,Hold,-117.000000,2.000000,LowGoal,1425.000000,-1454.545455,Speed,1395.000000,-1454.545455,Speed,Off,Off0.000000,0,,,,
02:09:40.039 PM 03/20/2016,Teleop Enabled,11,FALSE,0,NO ERROR,-0.000000,11.254807,0.000000,4.786822,TRUE,FALSE,TRUE,FALSE,FALSE,FALSE,Disabled,0.000000,0.000000,0.000000,TRUE,15.948013,0.600632,0.000000,0.074142,0.006088,0.000000,0.050000,0.067000,0.006000,22.650000,-0.670000,2.720000,23.282334,Hold,0.935547,0.000000,Hold,-116.000000,2.000000,LowGoal,1417.500000,-1454.545455,Speed,1395.000000,-1454.545455,Speed,Off,Off0.000000,0,,,,
02:09:40.140 PM 03/20/2016,Teleop Enabled,10,FALSE,0,NO ERROR,-0.000000,11.254807,0.000000,4.786822,TRUE,FALSE,TRUE,FALSE,FALSE,FALSE,Disabled,0.000000,0.000000,0.000000,TRUE,15.951904,0.600769,0.000000,0.055038,0.001175,0.000000,-0.032000,-0.043000,0.013000,22.660000,-0.720000,2.680000,23.290978,Hold,0.935547,0.000000,Hold,-116.000000,2.000000,LowGoal,1417.500000,-1454.545455,Speed,1395.000000,-1454.545455,Speed,Off,Off0.000000,0,,,,
02:09:40.241 PM 03/20/2016,Teleop Enabled,10,FALSE,0,NO ERROR,-0.000000,11.254807,0.000000,4.786822,TRUE,FALSE,TRUE,FALSE,FALSE,FALSE,Disabled,0.000000,0.000000,0.000000,TRUE,15.953995,0.601303,0.000000,0.053970,0.018295,0.000000,0.064000,-0.119000,0.005000,22.650000,-0.750000,2.770000,23.301571,Hold,0.935547,0.000000,Hold,-116.000000,2.000000,LowGoal,1425.000000,-1454.545455,Speed,1402.500000,-1454.545455,Speed,Off,Off0.000000,0,,,,
02:09:40.341 PM 03/20/2016,Teleop Enabled,10,FALSE,0,NO ERROR,-0.000000,11.254807,0.000000,4.786822,TRUE,FALSE,TRUE,FALSE,FALSE,FALSE,Disabled,0.000000,0.000000,0.000000,TRUE,15.959183,0.600555,0.000000,0.087036,-0.022125,0.000000,0.064000,-0.119000,0.005000,22.650000,-0.750000,2.770000,23.295880,Hold,0.935547,0.000000,Hold,-116.000000,2.000000,LowGoal,1425.000000,-1454.545455,Speed,1402.500000,-1454.545455,Speed,Off,Off0.000000,0,,,,
02:09:40.441 PM 03/20/2016,Teleop Enabled,11,FALSE,0,NO ERROR,-0.000000,11.254807,0.000000,4.786822,TRUE,FALSE,TRUE,FALSE,FALSE,FALSE,Disabled,0.000000,0.000000,0.000000,TRUE,15.963364,0.600006,0.000000,0.069702,0.004761,0.000000,0.045000,-0.024000,0.124000,22.660000,-0.720000,2.690000,23.286874,Hold,0.935547,0.000000,Hold,-116.000000,2.000000,LowGoal,1417.500000,-1454.545455,Speed,1395.000000,-1454.545455,Speed,Off,Off0.000000,0,,,,
02:09:40.541 PM 03/20/2016,Teleop Enabled,11,FALSE,0,NO ERROR,-0.000000,11.254807,0.000000,4.786822,TRUE,FALSE,TRUE,FALSE,FALSE,FALSE,Disabled,0.000000,0.000000,0.000000,TRUE,15.965683,0.600098,0.000000,0.003021,-0.008759,0.000000,0.007000,-0.030000,0.011000,22.660000,-0.800000,2.750000,23.286857,Hold,0.935547,0.000000,Hold,-116.000000,2.000000,LowGoal,1417.500000,-1454.545455,Speed,1395.000000,-1454.545455,Speed,Off,Off0.000000,0,,,,
02:09:40.640 PM 03/20/2016,Teleop Enabled,10,FALSE,0,NO ERROR,-0.000000,11.254807,0.000000,4.786822,TRUE,FALSE,TRUE,FALSE,FALSE,FALSE,Disabled,0.000000,0.000000,0.000000,TRUE,15.964935,0.598969,0.000000,-0.021698,-0.026764,0.000000,-0.039000,-0.041000,-0.007000,22.650000,-0.690000,2.720000,23.286003,Hold,0.935547,0.000000,Hold,-116.000000,2.000000,LowGoal,1425.000000,-1454.545455,Speed,1395.000000,-1454.545455,Speed,Off,Off0.000000,0,,,,
02:09:40.741 PM 03/20/2016,Teleop Enabled,10,FALSE,0,NO ERROR,-0.000000,11.254807,0.000000,4.786822,TRUE,FALSE,TRUE,FALSE,FALSE,FALSE,Disabled,0.000000,0.000000,0.000000,TRUE,15.964935,0.598969,0.000000,-0.021698,-0.026764,0.000000,-0.013000,0.054000,0.034000,22.660000,-0.750000,2.670000,23.292847,Hold,0.935547,0.000000,Hold,-116.000000,2.000000,LowGoal,1425.000000,-1454.545455,Speed,1387.500000,-1454.545455,Speed,Off,Off0.000000,0,,,,
02:09:40.842 PM 03/20/2016,Teleop Enabled,11,FALSE,0,NO ERROR,-0.000000,11.254807,0.000000,4.786822,TRUE,FALSE,TRUE,FALSE,FALSE,FALSE,Disabled,0.000000,0.000000,0.000000,TRUE,15.963943,0.598877,0.000000,0.001022,-0.005539,0.000000,0.032000,-0.060000,0.004000,22.660000,-0.710000,2.730000,23.291780,Hold,0.935547,0.000000,Hold,-116.000000,2.000000,LowGoal,1425.000000,-1454.545455,Speed,1395.000000,-1454.545455,Speed,Off,Off0.000000,0,,,,
02:09:40.942 PM 03/20/2016,Teleop Enabled,11,FALSE,0,NO ERROR,-0.000000,11.254807,0.000000,4.786822,TRUE,FALSE,TRUE,FALSE,FALSE,FALSE,Disabled,0.000000,0.000000,0.000000,TRUE,15.964310,0.597672,0.000000,0.010635,-0.027344,0.000000,0.041000,-0.023000,0.016000,22.660000,-0.730000,2.680000,23.285435,Hold,0.935547,0.000000,Hold,-115.000000,2.000000,LowGoal,1425.000000,-1454.545455,Speed,1402.500000,-1454.545455,Speed,Off,Off0.000000,0,,,,
02:09:41.042 PM 03/20/2016,Teleop Enabled,11,FALSE,0,NO ERROR,-0.000000,11.254807,0.000000,4.786822,TRUE,FALSE,TRUE,FALSE,FALSE,FALSE,Disabled,0.000000,0.000000,0.000000,TRUE,15.964935,0.595459,0.000000,0.017532,-0.033691,0.000000,-0.053000,-0.066000,-0.070000,22.670000,-0.740000,2.700000,23.294834,Hold,0.935547,0.000000,Hold,-115.000000,2.000000,LowGoal,1417.500000,-1454.545455,Speed,1395.000000,-1454.545455,Speed,Off,Off0.000000,0,,,,
02:09:41.144 PM 03/20/2016,Teleop Enabled,10,FALSE,0,NO ERROR,0.181102,11.190640,-0.181102,4.902322,TRUE,FALSE,TRUE,FALSE,FALSE,FALSE,Disabled,0.000000,0.000000,0.000000,TRUE,15.964935,0.595459,0.000000,0.017532,-0.033691,0.000000,-0.019000,-0.023000,-0.011000,22.650000,-0.650000,2.680000,23.305096,Hold,0.935547,0.000000,Hold,-115.000000,2.000000,LowGoal,1425.000000,-1454.545455,Speed,1387.500000,-1454.545455,Speed,Off,Off0.000000,0,,,,
02:09:41.244 PM 03/20/2016,Teleop Enabled,9,FALSE,0,NO ERROR,0.181102,10.754308,-0.181102,5.216738,TRUE,FALSE,TRUE,FALSE,FALSE,FALSE,Disabled,0.000000,0.000000,0.000000,TRUE,15.963409,0.592758,0.000000,-0.046829,-0.046753,0.000000,-0.204000,0.038000,-0.034000,22.640000,-0.730000,2.630000,22.213161,Hold,0.935547,0.000000,Hold,-115.000000,2.000000,LowGoal,1425.000000,-1454.545455,Speed,1395.000000,-1454.545455,Speed,Off,Off0.000000,0,,,,
02:09:41.344 PM 03/20/2016,Teleop Enabled,11,FALSE,0,NO ERROR,0.307087,10.754308,-0.307087,5.717237,TRUE,FALSE,TRUE,FALSE,FALSE,FALSE,Disabled,0.000000,0.000000,0.000000,TRUE,15.957825,0.589737,0.000000,-0.094345,-0.046387,0.000000,-0.028000,0.010000,0.083000,21.060000,-0.820000,2.510000,22.213161,Hold,0.935547,0.000000,Hold,-115.000000,2.000000,LowGoal,1425.000000,-1454.545455,Speed,1395.000000,-1454.545455,Speed,Off,Off0.000000,0,,,,
02:09:41.445 PM 03/20/2016,Teleop Enabled,10,FALSE,0,NO ERROR,-0.000000,10.061310,0.000000,5.717237,TRUE,FALSE,TRUE,FALSE,FALSE,FALSE,Disabled,0.000000,0.000000,0.000000,TRUE,15.953217,0.587036,0.000000,-0.095657,-0.066589,0.000000,-0.160000,0.028000,-0.131000,18.800000,-0.830000,2.310000,20.153369,Hold,0.935547,0.000000,Hold,-114.000000,2.000000,LowGoal,1417.500000,-1454.545455,Speed,1387.500000,-1454.545455,Speed,Off,Off0.000000,0,,,,
02:09:41.546 PM 03/20/2016,Teleop Enabled,9,FALSE,0,NO ERROR,-0.000000,8.880646,0.000000,6.577068,TRUE,FALSE,TRUE,FALSE,FALSE,FALSE,Disabled,0.000000,0.000000,0.000000,TRUE,15.945068,0.583115,0.000000,-0.123749,-0.086945,0.000000,0.093000,-0.029000,-0.116000,14.160000,-1.030000,2.130000,16.254282,Hold,0.935547,0.000000,Hold,-114.000000,2.000000,LowGoal,1410.000000,-1454.545455,Speed,1380.000000,-1454.545455,Speed,Off,Off0.000000,0,,,,
02:09:41.648 PM 03/20/2016,Teleop Enabled,9,FALSE,0,NO ERROR,-0.000000,8.200481,0.000000,7.039067,TRUE,FALSE,TRUE,FALSE,FALSE,FALSE,Disabled,0.000000,0.000000,0.000000,TRUE,15.941620,0.580276,0.000000,-0.063339,-0.037323,0.000000,0.044000,0.126000,-0.211000,10.450000,-0.820000,2.450000,11.769621,Hold,0.935547,0.000000,Hold,-113.000000,2.000000,LowGoal,1417.500000,-1454.545455,Speed,1387.500000,-1454.545455,Speed,Off,Off0.000000,0,,,,
02:09:41.748 PM 03/20/2016,Teleop Enabled,9,FALSE,0,NO ERROR,-0.000000,8.078564,0.000000,7.032650,TRUE,FALSE,TRUE,FALSE,FALSE,FALSE,Disabled,0.000000,0.000000,0.000000,TRUE,15.941040,0.581909,0.000000,0.009079,0.061661,0.000000,-0.056000,-0.051000,0.049000,10.580000,-0.330000,2.890000,11.235088,Hold,0.935547,0.000000,Hold,-113.000000,2.000000,LowGoal,1425.000000,-1454.545455,Speed,1410.000000,-1454.545455,Speed,Off,Off0.000000,0,,,,
02:09:41.849 PM 03/20/2016,Teleop Enabled,10,FALSE,0,NO ERROR,-0.000000,8.078564,0.000000,6.929984,TRUE,FALSE,TRUE,FALSE,FALSE,FALSE,Disabled,0.000000,0.000000,0.000000,TRUE,15.941437,0.583618,0.000000,0.007156,0.024628,0.000000,-0.064000,-0.007000,-0.027000,10.940000,-0.550000,2.740000,11.777150,Hold,0.935547,0.000000,Hold,-112.000000,2.000000,LowGoal,1417.500000,-1454.545455,Speed,1402.500000,-1454.545455,Speed,Off,Off0.000000,0,,,,
02:09:41.950 PM 03/20/2016,Teleop Enabled,9,FALSE,0,NO ERROR,-0.000000,8.078564,0.000000,6.929984,TRUE,FALSE,TRUE,FALSE,FALSE,FALSE,Disabled,0.000000,0.000000,0.000000,TRUE,15.940979,0.583755,0.000000,-0.017868,0.003540,0.000000,-0.044000,0.029000,0.003000,10.890000,-0.600000,2.700000,11.770585,Hold,0.935547,0.000000,Hold,-112.000000,2.000000,LowGoal,1425.000000,-1454.545455,Speed,1395.000000,-1454.545455,Speed,Off,Off0.000000,0,,,,
02:09:42.053 PM 03/20/2016,Teleop Enabled,10,FALSE,0,NO ERROR,0.425197,8.078564,-0.425197,6.929984,TRUE,FALSE,TRUE,FALSE,FALSE,FALSE,Disabled,0.000000,0.000000,0.000000,TRUE,15.939682,0.584076,0.000000,-0.017807,0.000000,0.000000,-0.045000,-0.035000,0.087000,10.880000,-0.630000,2.750000,11.620465,Hold,0.935547,0.000000,Hold,-112.000000,2.000000,LowGoal,1425.000000,-1454.545455,Speed,1402.500000,-1454.545455,Speed,Off,Off0.000000,0,,,,
02:09:42.152 PM 03/20/2016,Teleop Enabled,10,FALSE,0,NO ERROR,0.590551,7.545982,-0.590551,7.359899,TRUE,FALSE,TRUE,FALSE,FALSE,FALSE,Disabled,0.000000,0.000000,0.000000,TRUE,15.937683,0.583130,0.000000,-0.096527,-0.050369,0.000000,-0.112000,-0.149000,0.031000,10.770000,-0.840000,2.570000,11.620465,Hold,0.935547,0.000000,Hold,-112.000000,2.000000,LowGoal,1425.000000,-1454.545455,Speed,1402.500000,-1454.545455,Speed,Off,Off0.000000,0,,,,
02:09:42.254 PM 03/20/2016,Teleop Enabled,10,FALSE,0,NO ERROR,0.480315,5.511904,-0.480315,9.239978,TRUE,FALSE,TRUE,FALSE,FALSE,FALSE,Disabled,0.000000,0.000000,0.000000,TRUE,15.924835,0.571854,0.000000,-0.280991,-0.268448,0.000000,-0.146000,-0.250000,-0.032000,3.200000,-1.270000,1.440000,6.363486,Hold,0.935547,0.000000,Hold,-115.000000,2.000000,LowGoal,1402.500000,-1454.545455,Speed,1350.000000,-1454.545455,Speed,Off,Off0.000000,0,,,,
02:09:42.354 PM 03/20/2016,Teleop Enabled,11,FALSE,0,NO ERROR,-0.000000,2.322828,0.000000,12.595887,TRUE,FALSE,TRUE,FALSE,FALSE,FALSE,Disabled,0.000000,0.000000,0.000000,TRUE,15.908142,0.552536,0.000000,-0.332993,-0.436584,0.000000,0.161000,0.000000,-0.009000,-10.070000,-2.240000,0.660000,-8.539338,Hold,0.935547,0.000000,Hold,-134.000000,2.000000,LowGoal,1380.000000,-1454.545455,Speed,1335.000000,-1454.545455,Speed,Off,Off0.000000,0,,,,
02:09:42.455 PM 03/20/2016,Teleop Enabled,9,FALSE,0,NO ERROR,-0.000000,-0.012833,0.000000,15.284464,TRUE,FALSE,TRUE,FALSE,FALSE,FALSE,Disabled,0.000000,0.000000,0.000000,TRUE,15.895691,0.533371,0.000000,-0.189148,-0.281433,0.000000,-0.223000,0.336000,0.448000,-25.510000,-1.010000,1.640000,-21.555739,Hold,0.935547,0.000000,Hold,-127.000000,2.000000,LowGoal,1402.500000,-1454.545455,Speed,1380.000000,-1454.545455,Speed,Off,Off0.000000,0,,,,
02:09:42.555 PM 03/20/2016,Teleop Enabled,11,FALSE,0,NO ERROR,-0.000000,-1.020248,0.000000,17.209460,TRUE,FALSE,TRUE,FALSE,FALSE,FALSE,Disabled,0.000000,0.000000,0.000000,TRUE,15.886703,0.526825,0.000000,-0.132690,-0.077286,0.000000,0.227000,0.065000,-0.298000,-30.480000,-1.040000,1.860000,-28.454061,Hold,0.935791,0.000000,Hold,-126.000000,2.000000,LowGoal,1417.500000,-1454.545455,Speed,1425.000000,-1454.545455,Speed,Off,Off0.000000,0,,,,
02:09:42.655 PM 03/20/2016,Teleop Enabled,10,FALSE,0,NO ERROR,-0.000000,-1.161414,0.000000,17.883208,TRUE,FALSE,TRUE,FALSE,FALSE,FALSE,Disabled,0.000000,0.000000,0.000000,TRUE,15.882584,0.527390,0.000000,-0.097260,0.105011,0.000000,-0.123000,0.103000,0.247000,-32.570000,0.030000,2.730000,-30.482943,Hold,0.935791,0.000000,Hold,-126.000000,2.000000,LowGoal,1425.000000,-1454.545455,Speed,1395.000000,-1454.545455,Speed,Off,Off0.000000,0,,,,
02:09:42.755 PM 03/20/2016,Teleop Enabled,10,FALSE,0,NO ERROR,0.291339,-1.077997,0.291339,18.037208,TRUE,FALSE,TRUE,FALSE,FALSE,FALSE,Disabled,0.000000,0.000000,0.000000,TRUE,15.877426,0.535141,0.000000,-0.040985,0.101257,0.000000,0.052000,-0.036000,0.051000,-32.480000,0.190000,2.510000,-30.442455,Hold,0.935547,0.000000,Hold,-106.000000,2.000000,LowGoal,1425.000000,-1454.545455,Speed,1380.000000,-1454.545455,Speed,Off,Off0.000000,0,,,,
02:09:42.856 PM 03/20/2016,Teleop Enabled,11,FALSE,0,NO ERROR,0.551181,-1.039498,0.551181,18.037208,TRUE,FALSE,TRUE,FALSE,FALSE,FALSE,Disabled,0.000000,0.000000,0.000000,TRUE,15.875153,0.540085,0.000000,-0.062332,0.138580,0.000000,0.011000,0.024000,-0.089000,-32.300000,0.090000,2.610000,-30.277753,Hold,0.935547,0.000000,Hold,-102.000000,2.000000,LowGoal,1417.500000,-1454.545455,Speed,1402.500000,-1454.545455,Speed,Off,Off0.000000,0,,,,
02:09:42.957 PM 03/20/2016,Teleop Enabled,10,FALSE,0,NO ERROR,0.463532,-0.077000,0.654579,19.063872,TRUE,FALSE,TRUE,FALSE,FALSE,FALSE,Disabled,0.000000,0.000000,0.000000,TRUE,15.867218,0.544724,0.000000,-0.296722,0.039032,0.000000,-0.381000,-0.291000,0.134000,-32.180000,-2.550000,2.840000,-30.260805,Hold,0.935547,0.000000,Hold,-107.000000,2.000000,LowGoal,1417.500000,-1454.545455,Speed,1387.500000,-1454.545455,Speed,Off,Off0.000000,0,,,,
02:09:43.058 PM 03/20/2016,Teleop Enabled,11,FALSE,0,NO ERROR,0.426555,2.374161,0.691556,21.412367,FALSE,FALSE,TRUE,FALSE,FALSE,FALSE,Disabled,0.000000,0.000000,0.000000,TRUE,15.836121,0.536957,0.000000,-0.644791,-0.243103,0.000000,-0.231000,-0.193000,-0.151000,-32.140000,-4.940000,2.590000,-30.048961,Hold,0.935547,0.000000,Hold,-186.000000,2.000000,LowGoal,1380.000000,-1454.545455,Speed,1350.000000,-1454.545455,Speed,Off,Off0.000000,0,,,,
02:09:43.158 PM 03/20/2016,Teleop Enabled,9,FALSE,0,NO ERROR,0.423473,6.018819,0.694637,24.761859,FALSE,FALSE,TRUE,FALSE,FALSE,FALSE,Disabled,0.000000,0.000000,0.000000,TRUE,15.806763,0.524826,0.000000,-0.783508,-0.316666,0.000000,-0.137000,-0.120000,0.373000,-31.740000,-4.100000,2.850000,-29.759541,Hold,0.935547,0.000000,Hold,-151.000000,2.000000,LowGoal,1380.000000,-1454.545455,Speed,1342.500000,-1454.545455,Speed,Off,Off0.000000,0,,,,
02:09:43.259 PM 03/20/2016,Teleop Enabled,11,FALSE,0,NO ERROR,0.216281,10.677308,0.350648,29.195765,FALSE,FALSE,TRUE,FALSE,FALSE,FALSE,Disabled,0.000000,0.000000,0.000000,TRUE,15.755295,0.502060,0.000000,-0.901779,-0.427185,0.000000,-0.089000,0.039000,0.013000,-30.950000,-5.000000,2.780000,-29.078947,Hold,0.935547,0.000000,Hold,-151.000000,2.000000,LowGoal,1402.500000,-1454.545455,Speed,1380.000000,-1454.545455,Speed,Off,Off0.000000,0,,,,
02:09:43.359 PM 03/20/2016,Teleop Enabled,10,FALSE,0,NO ERROR,-0.456693,15.630963,0.456693,33.989004,FALSE,FALSE,TRUE,FALSE,FALSE,FALSE,Disabled,0.000000,0.000000,0.000000,TRUE,15.718597,0.486343,0.000000,-0.913788,-0.381516,0.000000,0.201000,0.180000,-0.020000,-30.660000,-5.150000,2.830000,-28.729807,Hold,0.935547,0.000000,Hold,-144.000000,2.000000,LowGoal,1417.500000,-1454.545455,Speed,1395.000000,-1454.545455,Speed,Off,Off0.000000,0,,,,
02:09:43.461 PM 03/20/2016,Teleop Enabled,10,FALSE,0,NO ERROR,-0.464567,19.660621,0.464567,35.022085,TRUE,FALSE,TRUE,FALSE,FALSE,FALSE,Disabled,0.000000,0.000000,0.000000,TRUE,15.681015,0.471786,0.000000,-0.508804,-0.143539,0.000000,0.647000,0.528000,0.525000,-29.160000,-0.180000,2.960000,-27.783520,Hold,0.936035,0.000000,Hold,-104.000000,2.000000,LowGoal,1402.500000,-1454.545455,Speed,1372.500000,-1454.545455,Speed,Off,Off0.000000,0,,,,
02:09:43.561 PM 03/20/2016,Teleop Enabled,11,FALSE,0,NO ERROR,-0.433071,23.350195,0.433071,34.534419,FALSE,FALSE,TRUE,FALSE,FALSE,FALSE,Disabled,0.000000,0.000000,0.000000,TRUE,15.670181,0.477097,0.000000,-0.020279,0.161880,0.000000,0.237000,0.545000,0.428000,-23.780000,1.190000,3.110000,-23.007280,Hold,0.936035,0.000000,Hold,-34.000000,2.000000,LowGoal,1387.500000,-1454.545455,Speed,1372.500000,-1454.545455,Speed,Off,Off0.000000,0,,,,
02:09:43.661 PM 03/20/2016,Teleop Enabled,11,FALSE,0,NO ERROR,-0.377953,26.917854,0.377953,33.751588,FALSE,FALSE,TRUE,FALSE,FALSE,FALSE,Disabled,0.000000,0.000000,0.000000,TRUE,15.674469,0.497818,0.000000,0.164352,0.564240,0.000000,0.379000,0.009000,-0.029000,-15.730000,1.120000,4.730000,-13.690926,Hold,0.935791,0.000000,Hold,-85.000000,2.000000,LowGoal,1387.500000,-1454.545455,Speed,1372.500000,-1454.545455,Speed,Off,Off0.000000,0,,,,
02:09:43.762 PM 03/20/2016,Teleop Enabled,11,FALSE,0,NO ERROR,-0.377953,29.888763,0.377953,31.711093,FALSE,FALSE,TRUE,FALSE,FALSE,FALSE,Disabled,0.000000,0.000000,0.000000,TRUE,15.691147,0.502823,0.000000,0.435593,-0.052994,0.000000,0.254000,-0.096000,-0.293000,-3.680000,1.700000,4.540000,-3.793730,Hold,0.936035,0.000000,Hold,-98.000000,2.000000,LowGoal,1410.000000,-1454.545455,Speed,1372.500000,-1454.545455,Speed,Off,Off0.000000,0,,,,
02:09:43.862 PM 03/20/2016,Teleop Enabled,11,FALSE,0,NO ERROR,-0.377953,32.500341,0.377953,28.907016,FALSE,FALSE,TRUE,FALSE,FALSE,FALSE,Disabled,0.000000,0.000000,0.000000,TRUE,15.718475,0.496048,0.000000,0.578629,-0.173660,0.000000,0.041000,-0.101000,0.200000,5.120000,1.980000,4.660000,6.873783,Hold,0.936035,0.000000,Hold,-98.000000,2.000000,LowGoal,1410.000000,-1454.545455,Speed,1380.000000,-1454.545455,Speed,Off,Off0.000000,0,,,,
02:09:43.962 PM 03/20/2016,Teleop Enabled,10,FALSE,0,NO ERROR,-0.000000,35.022085,0.000000,25.814190,FALSE,FALSE,TRUE,FALSE,FALSE,FALSE,Disabled,0.000000,0.000000,0.000000,TRUE,15.751236,0.488678,0.000000,0.705765,-0.179169,0.000000,0.012000,-0.252000,-0.256000,16.670000,1.180000,5.320000,18.240194,Hold,0.936035,0.000000,Hold,-98.000000,2.000000,LowGoal,1410.000000,-1454.545455,Speed,1380.000000,-1454.545455,Speed,Off,Off0.000000,0,,,,
02:09:44.061 PM 03/20/2016,Teleop Enabled,10,FALSE,0,NO ERROR,-0.000000,36.363165,0.000000,23.375862,FALSE,FALSE,TRUE,FALSE,FALSE,FALSE,Disabled,0.000000,0.000000,0.000000,TRUE,15.783066,0.472565,0.000000,0.526077,-0.396820,0.000000,-0.190000,-0.350000,-0.211000,29.250000,0.730000,4.170000,28.799818,Hold,0.936035,0.000000,Hold,-147.000000,2.000000,LowGoal,1417.500000,-1454.545455,Speed,1387.500000,-1454.545455,Speed,Off,Off0.000000,0,,,,
02:09:44.161 PM 03/20/2016,Teleop Enabled,10,FALSE,0,NO ERROR,-0.000000,36.902164,0.000000,21.861532,FALSE,FALSE,TRUE,FALSE,FALSE,FALSE,Disabled,0.000000,0.000000,0.000000,TRUE,15.805649,0.448822,0.000000,0.422836,-0.452759,0.000000,-0.031000,-0.022000,-0.093000,33.530000,-0.230000,4.050000,33.612318,Hold,0.936035,0.000000,Hold,-102.000000,2.000000,LowGoal,1432.500000,-1454.545455,Speed,1387.500000,-1454.545455,Speed,Off,Off0.000000,0,,,,
02:09:44.262 PM 03/20/2016,Teleop Enabled,5,FALSE,0,NO ERROR,-0.000000,36.895747,0.000000,21.232700,FALSE,FALSE,TRUE,FALSE,FALSE,FALSE,Disabled,0.000000,0.000000,0.000000,TRUE,15.825928,0.419937,0.000000,0.244797,-0.532394,0.000000,-0.196000,-0.026000,-0.021000,34.690000,-0.780000,3.160000,35.067959,Hold,0.935791,0.000000,Hold,-114.000000,2.000000,LowGoal,1432.500000,-1454.545455,Speed,1402.500000,-1454.545455,Speed,Off,Off0.000000,0,,,,
02:09:44.362 PM 03/20/2016,Teleop Enabled,10,FALSE,0,NO ERROR,-0.000000,36.728914,0.000000,21.174950,FALSE,FALSE,TRUE,FALSE,FALSE,FALSE,Disabled,0.000000,0.000000,0.000000,TRUE,15.832916,0.399384,0.000000,0.158783,-0.491165,0.000000,0.000000,0.125000,0.117000,33.990000,-1.070000,3.280000,34.487189,Hold,0.935791,0.000000,Hold,-114.000000,2.000000,LowGoal,1425.000000,-1454.545455,Speed,1402.500000,-1454.545455,Speed,Off,Off0.000000,0,,,,
02:09:44.461 PM 03/20/2016,Teleop Enabled,9,FALSE,0,NO ERROR,-0.000000,36.690414,0.000000,21.174950,FALSE,FALSE,TRUE,FALSE,FALSE,FALSE,Disabled,0.000000,0.000000,0.000000,TRUE,15.841537,0.376572,0.000000,0.183228,-0.466827,0.000000,-0.041000,-0.024000,-0.010000,33.890000,-1.010000,3.220000,34.292678,Hold,0.935791,0.000000,Hold,-114.000000,2.000000,LowGoal,1425.000000,-1454.545455,Speed,1395.000000,-1454.545455,Speed,Off,Off0.000000,0,,,,
02:09:44.562 PM 03/20/2016,Teleop Enabled,10,FALSE,0,NO ERROR,-0.000000,36.690414,0.000000,21.174950,FALSE,FALSE,TRUE,FALSE,FALSE,FALSE,Disabled,0.000000,0.000000,0.000000,TRUE,15.850082,0.353043,0.000000,0.168945,-0.451309,0.000000,-0.018000,-0.020000,-0.047000,33.930000,-0.930000,3.290000,34.352172,Hold,0.935791,0.000000,Hold,-114.000000,2.000000,LowGoal,1425.000000,-1454.545455,Speed,1395.000000,-1454.545455,Speed,Off,Off0.000000,0,,,,
02:09:44.662 PM 03/20/2016,Teleop Enabled,10,FALSE,0,NO ERROR,-0.000000,36.690414,0.000000,21.174950,FALSE,FALSE,TRUE,FALSE,FALSE,FALSE,Disabled,0.000000,0.000000,0.000000,TRUE,15.850327,0.329742,0.000000,0.012039,-0.481293,0.000000,0.030000,0.015000,0.000000,33.890000,-0.980000,3.190000,34.303405,Hold,0.935791,0.000000,Hold,-114.000000,2.000000,LowGoal,1425.000000,-1454.545455,Speed,1395.000000,-1454.545455,Speed,Off,Off0.000000,0,,,,
02:09:44.761 PM 03/20/2016,Teleop Enabled,10,FALSE,0,NO ERROR,-0.000000,36.690414,0.000000,21.174950,FALSE,FALSE,TRUE,FALSE,FALSE,FALSE,Disabled,0.000000,0.000000,0.000000,TRUE,15.852356,0.324707,0.000000,0.047775,-0.019363,0.000000,0.016000,-0.059000,0.001000,33.890000,-0.840000,3.210000,34.305405,Hold,0.935791,0.000000,Hold,-114.000000,2.000000,LowGoal,1432.500000,-1454.545455,Speed,1395.000000,-1454.545455,Speed,Off,Off0.000000,0,,,,
02:09:44.862 PM 03/20/2016,Teleop Enabled,10,FALSE,0,NO ERROR,-0.000000,36.690414,0.000000,21.174950,FALSE,FALSE,TRUE,FALSE,FALSE,FALSE,Disabled,0.000000,0.000000,0.000000,TRUE,15.855469,0.322693,0.000000,0.065979,-0.032654,0.000000,-0.031000,0.125000,0.032000,33.880000,-0.830000,3.150000,34.310823,Hold,0.935791,0.000000,Hold,-114.000000,2.000000,LowGoal,1425.000000,-1454.545455,Speed,1402.500000,-1454.545455,Speed,Off,Off0.000000,0,,,,
02:09:44.961 PM 03/20/2016,Teleop Enabled,10,FALSE,0,NO ERROR,-0.000000,36.690414,0.000000,21.174950,FALSE,FALSE,TRUE,FALSE,FALSE,FALSE,Disabled,0.000000,0.000000,0.000000,TRUE,15.858658,0.321472,0.000000,0.056808,-0.028473,0.000000,0.008000,-0.040000,-0.007000,33.890000,-0.880000,3.170000,34.307763,Hold,0.935791,0.000000,Hold,-114.000000,2.000000,LowGoal,1425.000000,-1454.545455,Speed,1395.000000,-1454.545455,Speed,Off,Off0.000000,0,,,,
02:09:45.062 PM 03/20/2016,Teleop Enabled,10,FALSE,0,NO ERROR,-0.000000,36.690414,0.000000,21.174950,FALSE,FALSE,TRUE,FALSE,FALSE,FALSE,Disabled,0.000000,0.000000,0.000000,TRUE,15.862427,0.319672,0.000000,0.076279,-0.030655,0.000000,0.026000,0.019000,0.054000,33.880000,-0.770000,3.140000,34.305914,Hold,0.935791,0.000000,Hold,-114.000000,2.000000,LowGoal,1425.000000,-1454.545455,Speed,1387.500000,-1454.545455,Speed,Off,Off0.000000,0,,,,
02:09:45.161 PM 03/20/2016,Teleop Enabled,10,FALSE,0,NO ERROR,-0.000000,36.690414,0.000000,21.174950,FALSE,FALSE,TRUE,FALSE,FALSE,FALSE,Disabled,0.000000,0.000000,0.000000,TRUE,15.866135,0.319519,0.000000,0.066864,0.010422,0.000000,0.046000,-0.029000,0.072000,33.880000,-0.820000,3.110000,34.295504,Hold,0.935791,0.000000,Hold,-114.000000,2.000000,LowGoal,1425.000000,-1454.545455,Speed,1395.000000,-1454.545455,Speed,Off,Off0.000000,0,,,,
02:09:45.262 PM 03/20/2016,Teleop Enabled,10,FALSE,0,NO ERROR,-0.000000,36.690414,0.000000,21.174950,FALSE,FALSE,TRUE,FALSE,FALSE,FALSE,Disabled,0.000000,0.000000,0.000000,TRUE,15.869720,0.320068,0.000000,0.079544,0.003983,0.000000,0.010000,-0.017000,-0.039000,33.880000,-0.770000,3.110000,34.307470,Hold,0.935791,0.000000,Hold,-114.000000,2.000000,LowGoal,1425.000000,-1454.545455,Speed,1395.000000,-1454.545455,Speed,Off,Off0.000000,0,,,,
02:09:45.362 PM 03/20/2016,Teleop Enabled,10,FALSE,0,NO ERROR,-0.000000,36.690414,0.000000,21.174950,FALSE,FALSE,TRUE,FALSE,FALSE,FALSE,Disabled,0.000000,0.000000,0.000000,TRUE,15.873657,0.319794,0.000000,0.077454,-0.013672,0.000000,0.006000,-0.046000,0.066000,33.880000,-0.740000,3.060000,34.304844,Hold,0.935791,0.000000,Hold,-114.000000,2.000000,LowGoal,1425.000000,-1454.545455,Speed,1402.500000,-1454.545455,Speed,Off,Off0.000000,0,,,,
02:09:45.463 PM 03/20/2016,Teleop Enabled,11,FALSE,0,NO ERROR,-0.000000,36.690414,0.000000,21.174950,FALSE,FALSE,TRUE,FALSE,FALSE,FALSE,Disabled,0.000000,0.000000,0.000000,TRUE,15.875229,0.319473,0.000000,-0.008286,0.010132,0.000000,0.029000,0.006000,0.014000,33.880000,-0.800000,3.090000,34.297752,Hold,0.935791,0.000000,Hold,-114.000000,2.000000,LowGoal,1425.000000,-1454.545455,Speed,1395.000000,-1454.545455,Speed,Off,Off0.000000,0,,,,
02:09:45.563 PM 03/20/2016,Teleop Enabled,9,FALSE,0,NO ERROR,-0.000000,36.690414,0.000000,21.174950,FALSE,FALSE,TRUE,FALSE,FALSE,FALSE,Disabled,0.000000,0.000000,0.000000,TRUE,15.874924,0.319458,0.000000,-0.013885,0.003036,0.000000,0.057000,-0.086000,0.036000,33.870000,-0.770000,3.070000,34.291803,Hold,0.935791,0.000000,Hold,-114.000000,2.000000,LowGoal,1425.000000,-1454.545455,Speed,1402.500000,-1454.545455,Speed,Off,Off0.000000,0,,,,
02:09:45.664 PM 03/20/2016,Teleop Enabled,11,FALSE,0,NO ERROR,-0.000000,36.690414,0.000000,21.174950,FALSE,FALSE,TRUE,FALSE,FALSE,FALSE,Disabled,0.000000,0.000000,0.000000,TRUE,15.874771,0.318817,0.000000,0.000000,-0.030853,0.000000,-0.020000,0.068000,0.031000,33.870000,-0.690000,3.000000,34.267327,Hold,0.935791,0.000000,Hold,-114.000000,2.000000,LowGoal,1425.000000,-1454.545455,Speed,1402.500000,-1454.545455,Speed,Off,Off0.000000,0,,,,
02:09:45.765 PM 03/20/2016,Teleop Enabled,10,FALSE,0,NO ERROR,-0.000000,36.690414,0.000000,21.174950,FALSE,FALSE,TRUE,FALSE,FALSE,FALSE,Disabled,0.000000,0.000000,0.000000,TRUE,15.873825,0.318329,0.000000,-0.018829,0.006088,0.000000,0.013000,-0.059000,-0.043000,33.870000,-0.770000,3.040000,34.266001,Hold,0.935791,0.000000,Hold,-114.000000,2.000000,LowGoal,1425.000000,-1454.545455,Speed,1395.000000,-1454.545455,Speed,Off,Off0.000000,0,,,,
02:09:45.865 PM 03/20/2016,Teleop Enabled,9,FALSE,0,NO ERROR,-0.000000,36.690414,0.000000,21.174950,FALSE,FALSE,TRUE,FALSE,FALSE,FALSE,Disabled,0.000000,0.000000,0.000000,TRUE,15.873260,0.318024,0.000000,-0.004700,-0.020920,0.000000,0.017000,-0.027000,0.022000,33.870000,-0.690000,3.000000,34.258490,Hold,0.935791,0.000000,Hold,-114.000000,2.000000,LowGoal,1425.000000,-1454.545455,Speed,1395.000000,-1454.545455,Speed,Off,Off0.000000,0,,,,
02:09:45.966 PM 03/20/2016,Teleop Enabled,10,FALSE,0,NO ERROR,0.188976,36.690414,-0.188976,21.174950,TRUE,FALSE,TRUE,FALSE,FALSE,FALSE,Disabled,0.000000,0.000000,0.000000,TRUE,15.873383,0.316437,0.000000,0.004181,-0.039230,0.000000,-0.064000,0.031000,0.002000,33.870000,-0.660000,2.950000,34.254100,Hold,0.935791,0.000000,Hold,-114.000000,2.000000,LowGoal,1425.000000,-1454.545455,Speed,1402.500000,-1454.545455,Speed,Off,Off0.000000,0,,,,
02:09:46.069 PM 03/20/2016,Teleop Enabled,11,FALSE,0,NO ERROR,0.464567,36.414498,-0.464567,21.482950,TRUE,FALSE,TRUE,FALSE,FALSE,FALSE,Disabled,0.000000,0.000000,0.000000,TRUE,15.872681,0.315079,0.000000,-0.040802,-0.014297,0.000000,-0.080000,0.014000,0.040000,33.770000,-1.080000,2.950000,34.177875,Hold,0.935791,0.000000,Hold,-114.000000,2.000000,LowGoal,1425.000000,-1454.545455,Speed,1395.000000,-1454.545455,Speed,Off,Off0.000000,0,,,,
02:09:46.169 PM 03/20/2016,Teleop Enabled,10,FALSE,0,NO ERROR,0.629921,34.861668,-0.629921,22.997280,TRUE,FALSE,TRUE,FALSE,FALSE,FALSE,Disabled,0.000000,0.000000,0.000000,TRUE,15.861908,0.310989,0.000000,-0.290131,-0.123474,0.000000,-0.309000,-0.178000,0.167000,29.630000,-1.210000,2.170000,30.521118,Hold,0.935791,0.000000,Hold,-114.000000,2.000000,LowGoal,1425.000000,-1454.545455,Speed,1372.500000,-1454.545455,Speed,Off,Off0.000000,0,,,,
02:09:46.270 PM 03/20/2016,Teleop Enabled,10,FALSE,0,NO ERROR,-0.000000,31.845842,0.000000,26.507188,TRUE,FALSE,TRUE,FALSE,FALSE,FALSE,Disabled,0.000000,0.000000,0.000000,TRUE,15.838898,0.299896,0.000000,-0.547440,-0.343460,0.000000,0.003000,-0.194000,0.186000,14.900000,-2.530000,0.770000,19.510240,Hold,0.935791,0.000000,Hold,-114.000000,2.000000,LowGoal,1380.000000,-1454.545455,Speed,1327.500000,-1454.545455,Speed,Off,Off0.000000,0,,,,
02:09:46.370 PM 03/20/2016,Teleop Enabled,10,FALSE,0,NO ERROR,-0.000000,30.171096,0.000000,28.971182,TRUE,FALSE,TRUE,FALSE,FALSE,FALSE,Disabled,0.000000,0.000000,0.000000,TRUE,15.817703,0.281036,0.000000,-0.290680,-0.307953,0.000000,0.079000,0.191000,-0.090000,4.410000,-1.770000,1.590000,6.095837,Hold,0.935791,0.000000,Hold,-114.000000,2.000000,LowGoal,1402.500000,-1454.545455,Speed,1327.500000,-1454.545455,Speed,Off,Off0.000000,0,,,,
02:09:46.472 PM 03/20/2016,Teleop Enabled,10,FALSE,0,NO ERROR,-0.000000,29.478098,0.000000,30.280179,TRUE,FALSE,TRUE,FALSE,FALSE,FALSE,Disabled,0.000000,0.000000,0.000000,TRUE,15.807434,0.272293,0.000000,-0.146072,-0.119324,0.000000,0.052000,0.135000,0.047000,-1.410000,-0.520000,2.560000,0.016245,Hold,0.935791,0.000000,Hold,-114.000000,2.000000,LowGoal,1432.500000,-1454.545455,Speed,1387.500000,-1454.545455,Speed,Off,Off0.000000,0,,,,
02:09:46.572 PM 03/20/2016,Teleop Enabled,9,FALSE,0,NO ERROR,-0.000000,29.439598,0.000000,30.690845,TRUE,FALSE,TRUE,FALSE,FALSE,FALSE,Disabled,0.000000,0.000000,0.000000,TRUE,15.802322,0.269089,0.000000,-0.072968,-0.037506,0.000000,0.129000,-0.081000,-0.034000,-2.160000,-0.070000,2.770000,-0.829784,Hold,0.935791,0.000000,Hold,-114.000000,2.000000,LowGoal,1432.500000,-1454.545455,Speed,1440.000000,-1454.545455,Speed,Off,Off0.000000,0,,,,
02:09:46.672 PM 03/20/2016,Teleop Enabled,9,FALSE,0,NO ERROR,-0.000000,29.523014,0.000000,30.697262,TRUE,FALSE,TRUE,FALSE,FALSE,FALSE,Disabled,0.000000,0.000000,0.000000,TRUE,15.801453,0.266525,0.000000,-0.004730,-0.045700,0.000000,0.045000,0.067000,0.051000,-1.810000,0.050000,2.840000,-0.493584,Hold,0.935791,0.000000,Hold,-114.000000,2.000000,LowGoal,1425.000000,-1454.545455,Speed,1402.500000,-1454.545455,Speed,Off,Off0.000000,0,,,,
02:09:46.773 PM 03/20/2016,Teleop Enabled,10,FALSE,0,NO ERROR,-0.000000,29.523014,0.000000,30.697262,TRUE,FALSE,TRUE,FALSE,FALSE,FALSE,Disabled,0.000000,0.000000,0.000000,TRUE,15.800568,0.264099,0.000000,-0.031982,-0.058212,0.000000,0.000000,0.086000,0.058000,-1.880000,-0.030000,2.760000,-0.557570,Hold,0.935791,0.000000,Hold,-114.000000,2.000000,LowGoal,1417.500000,-1454.545455,Speed,1380.000000,-1454.545455,Speed,Off,Off0.000000,0,,,,
02:09:46.874 PM 03/20/2016,Teleop Enabled,9,FALSE,0,NO ERROR,-0.283465,29.567931,0.283465,30.543262,TRUE,FALSE,TRUE,FALSE,FALSE,FALSE,Disabled,0.000000,0.000000,0.000000,TRUE,15.800323,0.263092,0.000000,-0.005768,0.003464,0.000000,0.265000,0.042000,-0.047000,-1.890000,-0.050000,2.820000,-0.561144,Hold,0.935791,0.000000,Hold,-114.000000,2.000000,LowGoal,1425.000000,-1454.545455,Speed,1395.000000,-1454.545455,Speed,Off,Off0.000000,0,,,,
02:09:46.975 PM 03/20/2016,Teleop Enabled,11,FALSE,0,NO ERROR,-0.000000,30.337929,0.000000,29.908013,FALSE,FALSE,TRUE,FALSE,FALSE,FALSE,Disabled,0.000000,0.000000,0.000000,TRUE,15.804626,0.266632,0.000000,0.095200,0.085129,0.000000,-0.100000,-0.167000,-0.177000,0.720000,0.130000,3.440000,1.879947,Hold,0.935791,0.000000,Hold,-114.000000,2.000000,LowGoal,1425.000000,-1454.545455,Speed,1402.500000,-1454.545455,Speed,Off,Off0.000000,0,,,,
02:09:47.075 PM 03/20/2016,Teleop Enabled,10,FALSE,0,NO ERROR,-0.000000,30.594595,0.000000,29.574348,TRUE,FALSE,TRUE,FALSE,FALSE,FALSE,Disabled,0.000000,0.000000,0.000000,TRUE,15.807465,0.267700,0.000000,0.032562,-0.035721,0.000000,0.004000,-0.275000,-0.131000,3.560000,-0.100000,2.930000,4.698245,Hold,0.935791,0.000000,Hold,-114.000000,2.000000,LowGoal,1410.000000,-1454.545455,Speed,1380.000000,-1454.545455,Speed,Off,Off0.000000,0,,,,
02:09:47.175 PM 03/20/2016,Teleop Enabled,10,FALSE,0,NO ERROR,-0.000000,30.620262,0.000000,29.587181,TRUE,FALSE,TRUE,FALSE,FALSE,FALSE,Disabled,0.000000,0.000000,0.000000,TRUE,15.806808,0.264374,0.000000,-0.023590,-0.053894,0.000000,0.100000,0.085000,-0.078000,3.500000,-0.260000,2.830000,4.668164,Hold,0.935791,0.000000,Hold,-114.000000,2.000000,LowGoal,1410.000000,-1454.545455,Speed,1387.500000,-1454.545455,Speed,Off,Off0.000000,0,,,,
02:09:47.276 PM 03/20/2016,Teleop Enabled,10,FALSE,0,NO ERROR,-0.000000,30.620262,0.000000,29.600014,TRUE,FALSE,TRUE,FALSE,FALSE,FALSE,Disabled,0.000000,0.000000,0.000000,TRUE,15.805618,0.262589,0.000000,-0.038071,0.000000,0.000000,-0.063000,-0.003000,-0.032000,3.360000,-0.390000,2.820000,4.522850,Hold,0.935791,0.000000,Hold,-114.000000,2.000000,LowGoal,1425.000000,-1454.545455,Speed,1402.500000,-1454.545455,Speed,Off,Off0.000000,0,,,,
02:09:47.376 PM 03/20/2016,Teleop Enabled,10,FALSE,0,NO ERROR,-0.000000,30.620262,0.000000,29.600014,TRUE,FALSE,TRUE,FALSE,FALSE,FALSE,Disabled,0.000000,0.000000,0.000000,TRUE,15.803970,0.262924,0.000000,0.003677,0.002609,0.000000,0.030000,-0.012000,-0.015000,3.210000,-0.340000,2.890000,4.380170,Hold,0.935791,0.000000,Hold,-114.000000,2.000000,LowGoal,1432.500000,-1454.545455,Speed,1402.500000,-1454.545455,Speed,Off,Off0.000000,0,,,,
02:09:47.476 PM 03/20/2016,Teleop Enabled,11,FALSE,0,NO ERROR,-0.000000,30.620262,0.000000,29.600014,TRUE,FALSE,TRUE,FALSE,FALSE,FALSE,Disabled,0.000000,0.000000,0.000000,TRUE,15.803207,0.262527,0.000000,-0.016159,-0.003464,0.000000,-0.013000,-0.003000,-0.134000,3.230000,-0.430000,2.840000,4.399693,Hold,0.935791,0.000000,Hold,-114.000000,2.000000,LowGoal,1417.500000,-1454.545455,Speed,1395.000000,-1454.545455,Speed,Off,Off0.000000,0,,,,
02:09:47.576 PM 03/20/2016,Teleop Enabled,11,FALSE,0,NO ERROR,-0.000000,30.620262,0.000000,29.600014,TRUE,FALSE,TRUE,FALSE,FALSE,FALSE,Disabled,0.000000,0.000000,0.000000,TRUE,15.802383,0.263077,0.000000,-0.012466,0.000000,0.000000,0.078000,-0.068000,-0.016000,3.230000,-0.410000,2.860000,4.387871,Hold,0.935791,0.000000,Hold,-114.000000,2.000000,LowGoal,1425.000000,-1454.545455,Speed,1395.000000,-1454.545455,Speed,Off,Off0.000000,0,,,,
02:09:47.676 PM 03/20/2016,Teleop Enabled,11,FALSE,0,NO ERROR,-0.000000,30.620262,0.000000,29.600014,TRUE,FALSE,TRUE,FALSE,FALSE,FALSE,Disabled,0.000000,0.000000,0.000000,TRUE,15.802612,0.262222,0.000000,-0.000076,-0.023300,0.000000,0.078000,-0.068000,-0.016000,3.230000,-0.440000,2.840000,4.376552,Hold,0.935791,0.000000,Hold,-114.000000,2.000000,LowGoal,1417.500000,-1454.545455,Speed,1395.000000,-1454.545455,Speed,Off,Off0.000000,0,,,,
02:09:47.777 PM 03/20/2016,Teleop Enabled,10,FALSE,0,NO ERROR,-0.000000,30.620262,0.000000,29.600014,TRUE,FALSE,TRUE,FALSE,FALSE,FALSE,Disabled,0.000000,0.000000,0.000000,TRUE,15.802582,0.261368,0.000000,0.006729,-0.010193,0.000000,0.015000,-0.074000,0.038000,3.240000,-0.490000,2.890000,4.391413,Hold,0.935791,0.000000,Hold,-114.000000,2.000000,LowGoal,1425.000000,-1454.545455,Speed,1395.000000,-1454.545455,Speed,Off,Off0.000000,0,,,,
02:09:47.877 PM 03/20/2016,Teleop Enabled,11,FALSE,0,NO ERROR,-0.000000,30.620262,0.000000,29.600014,TRUE,FALSE,TRUE,FALSE,FALSE,FALSE,Disabled,0.000000,0.000000,0.000000,TRUE,15.802795,0.260666,0.000000,0.004120,-0.013489,0.000000,0.015000,-0.074000,0.038000,3.230000,-0.460000,2.850000,4.393954,Hold,0.935791,0.000000,Hold,-114.000000,2.000000,LowGoal,1425.000000,-1454.545455,Speed,1395.000000,-1454.545455,Speed,Off,Off0.000000,0,,,,
02:09:47.978 PM 03/20/2016,Teleop Enabled,11,FALSE,0,NO ERROR,-0.000000,30.620262,0.000000,29.600014,TRUE,FALSE,TRUE,FALSE,FALSE,FALSE,Disabled,0.000000,0.000000,0.000000,TRUE,15.802368,0.259933,0.000000,-0.004837,-0.018494,0.000000,-0.062000,0.076000,0.044000,3.230000,-0.520000,2.890000,4.381987,Hold,0.935791,0.000000,Hold,-114.000000,2.000000,LowGoal,1417.500000,-1454.545455,Speed,1395.000000,-1454.545455,Speed,Off,Off0.000000,0,,,,
02:09:48.078 PM 03/20/2016,Teleop Enabled,10,FALSE,0,NO ERROR,-0.000000,30.620262,0.000000,29.600014,TRUE,FALSE,TRUE,FALSE,FALSE,FALSE,Disabled,0.000000,0.000000,0.000000,TRUE,15.802155,0.259781,0.000000,0.001419,-0.005859,0.000000,0.055000,0.009000,0.047000,3.230000,-0.490000,2.870000,4.384972,Hold,0.935791,0.000000,Hold,-114.000000,2.000000,LowGoal,1417.500000,-1454.545455,Speed,1395.000000,-1454.545455,Speed,Off,Off0.000000,0,,,,
02:09:48.179 PM 03/20/2016,Teleop Enabled,13,FALSE,0,NO ERROR,-0.000000,30.620262,0.000000,29.600014,TRUE,FALSE,TRUE,FALSE,FALSE,FALSE,Disabled,0.000000,0.000000,0.000000,TRUE,15.803192,0.258850,0.000000,0.002213,-0.003357,0.000000,0.055000,0.009000,0.047000,3.230000,-0.490000,2.870000,4.389372,Hold,0.935791,0.000000,Hold,-114.000000,2.000000,LowGoal,1425.000000,-1454.545455,Speed,1402.500000,-1454.545455,Speed,Off,Off0.000000,0,,,,
02:09:48.279 PM 03/20/2016,Teleop Enabled,9,FALSE,0,NO ERROR,0.362205,30.844845,0.362205,29.869513,TRUE,FALSE,TRUE,FALSE,FALSE,FALSE,Disabled,0.000000,0.000000,0.000000,TRUE,15.802734,0.259521,0.000000,-0.051559,0.011948,0.000000,-0.021000,-0.040000,-0.048000,3.230000,-0.470000,2.830000,4.356203,Hold,0.935791,0.000000,Hold,-114.000000,2.000000,LowGoal,1425.000000,-1454.545455,Speed,1395.000000,-1454.545455,Speed,Off,Off0.000000,0,,,,
02:09:48.379 PM 03/20/2016,Teleop Enabled,11,FALSE,0,NO ERROR,0.362205,32.230841,0.362205,31.063011,FALSE,FALSE,TRUE,FALSE,FALSE,FALSE,Disabled,0.000000,0.000000,0.000000,TRUE,15.802734,0.259521,0.000000,-0.051559,0.011948,0.000000,-0.270000,-0.058000,0.124000,3.190000,-3.040000,2.930000,4.303349,Hold,0.935791,0.000000,Hold,-114.000000,2.000000,LowGoal,1417.500000,-1454.545455,Speed,1395.000000,-1454.545455,Speed,Off,Off0.000000,0,,,,
02:09:48.479 PM 03/20/2016,Teleop Enabled,11,FALSE,0,NO ERROR,0.362205,34.021087,0.362205,32.904590,FALSE,FALSE,TRUE,FALSE,FALSE,FALSE,Disabled,0.000000,0.000000,0.000000,TRUE,15.790634,0.261108,0.000000,-0.331375,0.000000,0.000000,-0.087000,0.086000,-0.277000,3.190000,-3.040000,2.930000,4.403376,Hold,0.935791,0.000000,Hold,-118.000000,2.000000,LowGoal,1402.500000,-1454.545455,Speed,1380.000000,-1454.545455,Speed,Off,Off0.000000,0,,,,
02:09:48.579 PM 03/20/2016,Teleop Enabled,12,FALSE,0,NO ERROR,0.362205,36.356748,0.362205,35.683000,TRUE,FALSE,TRUE,FALSE,FALSE,FALSE,Disabled,0.000000,0.000000,0.000000,TRUE,15.741745,0.262756,0.000000,-0.600006,0.014267,0.000000,-0.151000,-0.014000,-0.022000,3.300000,-2.910000,2.840000,3.847430,Hold,0.935791,0.000000,Hold,-128.000000,2.000000,LowGoal,1402.500000,-1454.545455,Speed,1372.500000,-1454.545455,Speed,Off,Off0.000000,0,,,,
02:09:48.679 PM 03/20/2016,Teleop Enabled,10,FALSE,0,NO ERROR,0.236220,38.910576,0.236220,39.038909,FALSE,FALSE,TRUE,FALSE,FALSE,FALSE,Disabled,0.000000,0.000000,0.000000,TRUE,15.741745,0.262756,0.000000,-0.600006,0.014267,0.000000,-0.053000,-0.134000,-0.040000,2.620000,-3.200000,2.900000,2.413323,Hold,0.935791,0.000000,Hold,-128.000000,2.000000,LowGoal,1410.000000,-1454.545455,Speed,1387.500000,-1454.545455,Speed,Off,Off0.000000,0,,,,
02:09:48.779 PM 03/20/2016,Teleop Enabled,10,FALSE,0,NO ERROR,-0.000000,40.476239,0.000000,41.445153,FALSE,FALSE,TRUE,FALSE,FALSE,FALSE,Disabled,0.000000,0.000000,0.000000,TRUE,15.710907,0.260620,0.000000,-0.594360,-0.058136,0.000000,0.025000,-0.054000,-0.209000,1.110000,-3.700000,2.650000,1.107684,Hold,0.935791,0.000000,Hold,-128.000000,2.000000,LowGoal,1417.500000,-1454.545455,Speed,1395.000000,-1454.545455,Speed,Off,Off0.000000,0,,,,
02:09:48.879 PM 03/20/2016,Teleop Enabled,10,FALSE,0,NO ERROR,-0.000000,40.476239,0.000000,41.445153,TRUE,FALSE,TRUE,FALSE,FALSE,FALSE,Disabled,0.000000,0.000000,0.000000,TRUE,15.683929,0.258286,0.000000,-0.458221,-0.026199,0.000000,0.176000,-0.173000,0.462000,-0.280000,-1.380000,2.830000,1.107684,Hold,0.936035,0.000000,Hold,-140.000000,2.000000,LowGoal,1417.500000,-1454.545455,Speed,1387.500000,-1454.545455,Speed,Off,Off0.000000,0,,,,
02:09:48.981 PM 03/20/2016,Teleop Enabled,10,FALSE,0,NO ERROR,-0.000000,41.438736,0.000000,43.293149,TRUE,FALSE,TRUE,FALSE,FALSE,FALSE,Disabled,0.000000,0.000000,0.000000,TRUE,15.669647,0.257370,0.000000,-0.191666,0.001297,0.000000,0.253000,-0.179000,-0.075000,-2.200000,0.370000,2.740000,-1.042049,Hold,0.936035,0.000000,Hold,-76.000000,2.000000,LowGoal,1425.000000,-1454.545455,Speed,1395.000000,-1454.545455,Speed,Off,Off0.000000,0,,,,
02:09:49.081 PM 03/20/2016,Teleop Enabled,12,FALSE,0,NO ERROR,-0.000000,42.022652,0.000000,44.473813,TRUE,FALSE,TRUE,FALSE,FALSE,FALSE,Disabled,0.000000,0.000000,0.000000,TRUE,15.666672,0.254471,0.000000,0.015137,-0.086990,0.000000,0.117000,-0.041000,0.082000,-3.620000,-0.190000,2.380000,-2.398826,Hold,0.936035,0.000000,Hold,-108.000000,2.000000,LowGoal,1425.000000,-1454.545455,Speed,1402.500000,-1454.545455,Speed,Off,Off0.000000,0,,,,
02:09:49.181 PM 03/20/2016,Teleop Enabled,12,FALSE,0,NO ERROR,-0.000000,42.067568,0.000000,44.839562,TRUE,FALSE,TRUE,FALSE,FALSE,FALSE,Disabled,0.000000,0.000000,0.000000,TRUE,15.672531,0.251328,0.000000,0.131439,0.014648,0.000000,-0.013000,0.110000,-0.129000,-4.560000,0.160000,2.900000,-3.233443,Hold,0.936035,0.000000,Hold,-88.000000,2.000000,LowGoal,1425.000000,-1454.545455,Speed,1395.000000,-1454.545455,Speed,Off,Off0.000000,0,,,,
02:09:49.280 PM 03/20/2016,Teleop Enabled,11,FALSE,0,NO ERROR,-0.000000,42.067568,0.000000,44.858812,TRUE,FALSE,TRUE,FALSE,FALSE,FALSE,Disabled,0.000000,0.000000,0.000000,TRUE,15.679199,0.251831,0.000000,0.148560,-0.027359,0.000000,0.083000,-0.042000,-0.110000,-4.610000,0.720000,2.670000,-3.286252,Hold,0.936035,0.000000,Hold,-88.000000,2.000000,LowGoal,1425.000000,-1454.545455,Speed,1402.500000,-1454.545455,Speed,Off,Off0.000000,0,,,,
02:09:49.380 PM 03/20/2016,Teleop Enabled,10,FALSE,0,NO ERROR,-0.000000,42.067568,0.000000,44.858812,TRUE,FALSE,TRUE,FALSE,FALSE,FALSE,Disabled,0.000000,0.000000,0.000000,TRUE,15.682220,0.250626,0.000000,-0.026093,-0.008240,0.000000,-0.017000,0.009000,-0.060000,-4.550000,0.360000,2.900000,-3.207001,Hold,0.935791,0.000000,Hold,-88.000000,2.000000,LowGoal,1425.000000,-1454.545455,Speed,1402.500000,-1454.545455,Speed,Off,Off0.000000,0,,,,
