Time,Robot Mode,Loop Time,Error Status,Error Code,Error Source,Left Motor Output,Left Motor Encoder,Right Motor Output,Right Motor Encoder,Is Level,Is Stalled,Ball Detector Photoeye,Vision Enabled,Vision Teleop Control,Vision Auto Control,Vision Current State,Vision X Output,Vision NavX Error,Vision NavX Target,NavX Connection Status,NavX Displacement X,NavX Displacement Y,NavX Displacement Z,NavX Velocity X,NavX Velocity Y,NavX Velocity Z,NavX Acceleration X,NavX Acceleration Y,NavX Acceleration Z,NavX Pitch,NavX Yaw,NavX Roll,Gyro Angle,Roller Arm State,Roller Arm Actual,Roller Arm Desired,Shooter Arm State,Shooter Arm Actual,Shooter Arm Desired,Shooter State,Actual RPM Left,Desired RPM Left,Control Mode Left,Actual RPM Right,Desired RPM Right,Scaler Motor Output,Auto To Run,Auto Current File,Auto File Status,Auto Current Command,Auto Trimmed Command
11:17:09.720 AM 03/20/2016,Autonomous Enabled,9,TRUE,7,Read from Text File in DoesScriptNumberContainNull.vi->Disabled.vi->Robot Main.vi<APPEND> /home/lvuser/scripts/auto_12.bee,0.000000,0.198916,0.000000,0.263083,TRUE,FALSE,TRUE,FALSE,FALSE,FALSE,Disabled,0.000000,0.000000,0.000000,TRUE,-9.024200,-0.557022,0.000000,0.000000,0.000000,0.000000,-0.002000,-0.001000,0.018000,-0.150000,-0.050000,2.620000,2.441111,ResetBack,1.372803,-0.000049,ResetBack,-15757.000000,-0.300000,LowGoal,0.000000,-1454.545455,Speed,0.000000,-1454.545455,Speed,Off,Off0.000000,44,Read: /home/lvuser/scripts/auto_44.bee,File good!,SEARCH_FOR_GOAL,SEARCH_FOR_GOAL
11:17:09.820 AM 03/20/2016,Autonomous Enabled,9,TRUE,7,Read from Text File in DoesScriptNumberContainNull.vi->Disabled.vi->Robot Main.vi<APPEND> /home/lvuser/scripts/auto_12.bee,0.000000,0.198916,0.000000,0.263083,TRUE,FALSE,TRUE,FALSE,FALSE,FALSE,Disabled,0.000000,0.000000,0.000000,TRUE,-9.023911,-0.557648,0.000000,0.012421,-0.027298,0.000000,0.059000,0.013000,0.029000,-0.150000,-0.060000,2.540000,2.454678,ResetBack,0.919678,-0.000049,ResetBack,-15757.000000,-0.300000,LowGoal,15.000000,-1454.545455,Speed,22.500000,-1454.545455,Speed,Off,Off0.000000,44,Read: /home/lvuser/scripts/auto_44.bee,File good!,WAIT 1500,WAIT
11:17:09.920 AM 03/20/2016,Autonomous Enabled,9,TRUE,7,Read from Text File in DoesScriptNumberContainNull.vi->Disabled.vi->Robot Main.vi<APPEND> /home/lvuser/scripts/auto_12.bee,0.000000,0.198916,0.000000,0.263083,TRUE,FALSE,TRUE,FALSE,FALSE,FALSE,Disabled,0.000000,0.000000,0.000000,TRUE,-9.021301,-0.557587,0.000000,0.065414,0.003296,0.000000,0.059000,0.013000,0.029000,-0.150000,-0.060000,2.540000,2.480728,ResetBack,0.034912,-0.000049,ResetBack,-14443.000000,-0.300000,LowGoal,547.500000,-1454.545455,Speed,555.000000,-1454.545455,Speed,Off,Off0.000000,44,Read: /home/lvuser/scripts/auto_44.bee,File good!,WAIT 1500,WAIT
11:17:10.020 AM 03/20/2016,Autonomous Enabled,10,TRUE,7,Read from Text File in DoesScriptNumberContainNull.vi->Disabled.vi->Robot Main.vi<APPEND> /home/lvuser/scripts/auto_12.bee,0.000000,0.198916,0.000000,0.263083,TRUE,FALSE,TRUE,FALSE,FALSE,FALSE,Disabled,0.000000,0.000000,0.000000,TRUE,-9.020264,-0.557587,0.000000,0.023880,-0.011414,0.000000,0.050000,0.020000,-0.020000,-0.140000,-0.040000,2.550000,2.487913,ResetBack,-0.004639,-0.000049,ResetBack,-7655.000000,-0.300000,LowGoal,1297.500000,-1454.545455,Speed,1267.500000,-1454.545455,Speed,Off,Off0.000000,44,Read: /home/lvuser/scripts/auto_44.bee,File good!,WAIT 1500,WAIT
11:17:10.120 AM 03/20/2016,Autonomous Enabled,10,TRUE,7,Read from Text File in DoesScriptNumberContainNull.vi->Disabled.vi->Robot Main.vi<APPEND> /home/lvuser/scripts/auto_12.bee,0.000000,0.198916,0.000000,0.263083,TRUE,FALSE,TRUE,FALSE,FALSE,FALSE,Disabled,0.000000,0.000000,0.000000,TRUE,-9.019409,-0.558426,0.000000,0.000610,-0.016235,0.000000,0.038000,-0.047000,0.020000,-0.140000,-0.050000,2.500000,2.498485,Reset,-0.143311,0.000000,ResetBack,-2936.000000,-0.300000,LowGoal,1567.500000,-1454.545455,Speed,1567.500000,-1454.545455,Speed,Off,Off0.000000,44,Read: /home/lvuser/scripts/auto_44.bee,File good!,WAIT 1500,WAIT
11:17:10.220 AM 03/20/2016,Autonomous Enabled,10,TRUE,7,Read from Text File in DoesScriptNumberContainNull.vi->Disabled.vi->Robot Main.vi<APPEND> /home/lvuser/scripts/auto_12.bee,0.000000,0.198916,0.000000,0.263083,TRUE,FALSE,TRUE,FALSE,FALSE,FALSE,Disabled,0.000000,0.000000,0.000000,TRUE,-9.020157,-0.558228,0.000000,-0.016647,0.006485,0.000000,-0.010000,-0.005000,0.038000,-0.140000,-0.070000,2.500000,2.505969,Hold,0.987549,0.000000,ResetBack,-290.000000,-0.300000,LowGoal,1387.500000,-1454.545455,Speed,1395.000000,-1454.545455,Speed,Off,Off0.000000,44,Read: /home/lvuser/scripts/auto_44.bee,File good!,WAIT 1500,WAIT
11:17:10.320 AM 03/20/2016,Autonomous Enabled,10,TRUE,7,Read from Text File in DoesScriptNumberContainNull.vi->Disabled.vi->Robot Main.vi<APPEND> /home/lvuser/scripts/auto_12.bee,0.000000,0.198916,0.000000,0.263083,TRUE,FALSE,TRUE,FALSE,FALSE,FALSE,Disabled,0.000000,0.000000,0.000000,TRUE,-9.020325,-0.558289,0.000000,0.005035,-0.001328,0.000000,0.088000,-0.007000,0.056000,-0.140000,-0.030000,2.510000,2.527936,Hold,0.937012,0.000000,ResetBack,475.000000,-0.300000,LowGoal,1312.500000,-1454.545455,Speed,1245.000000,-1454.545455,Speed,Off,Off0.000000,44,Read: /home/lvuser/scripts/auto_44.bee,File good!,WAIT 1500,WAIT
11:17:10.420 AM 03/20/2016,Autonomous Enabled,10,TRUE,7,Read from Text File in DoesScriptNumberContainNull.vi->Disabled.vi->Robot Main.vi<APPEND> /home/lvuser/scripts/auto_12.bee,0.000000,0.198916,0.000000,0.263083,TRUE,FALSE,TRUE,FALSE,FALSE,FALSE,Disabled,0.000000,0.000000,0.000000,TRUE,-9.020111,-0.558548,0.000000,-0.013351,-0.020630,0.000000,-0.039000,-0.021000,0.043000,-0.140000,-0.010000,2.520000,2.544887,Hold,0.937012,0.000000,ResetBack,559.000000,-0.300000,LowGoal,1380.000000,-1454.545455,Speed,1342.500000,-1454.545455,Speed,Off,Off0.000000,44,Read: /home/lvuser/scripts/auto_44.bee,File good!,WAIT 1500,WAIT
11:17:10.520 AM 03/20/2016,Autonomous Enabled,9,TRUE,7,Read from Text File in DoesScriptNumberContainNull.vi->Disabled.vi->Robot Main.vi<APPEND> /home/lvuser/scripts/auto_12.bee,0.000000,0.198916,0.000000,0.263083,TRUE,FALSE,TRUE,FALSE,FALSE,FALSE,Disabled,0.000000,0.000000,0.000000,TRUE,-9.021164,-0.559555,0.000000,-0.019180,-0.029373,0.000000,-0.058000,-0.050000,0.047000,-0.140000,-0.050000,2.430000,2.541011,Hold,0.937012,0.000000,ResetBack,587.000000,-0.300000,LowGoal,1410.000000,-1454.545455,Speed,1387.500000,-1454.545455,Speed,Off,Off0.000000,44,Read: /home/lvuser/scripts/auto_44.bee,File good!,WAIT 1500,WAIT
11:17:10.620 AM 03/20/2016,Autonomous Enabled,10,TRUE,7,Read from Text File in DoesScriptNumberContainNull.vi->Disabled.vi->Robot Main.vi<APPEND> /home/lvuser/scripts/auto_12.bee,0.000000,0.198916,0.000000,0.263083,TRUE,FALSE,TRUE,FALSE,FALSE,FALSE,Disabled,0.000000,0.000000,0.000000,TRUE,-9.021164,-0.559555,0.000000,-0.019180,-0.029373,0.000000,-0.089000,0.091000,0.024000,-0.140000,-0.060000,2.440000,2.559583,Hold,0.937012,0.000000,ResetBack,587.000000,-0.300000,LowGoal,1380.000000,-1454.545455,Speed,1335.000000,-1454.545455,Speed,Off,Off0.000000,44,Read: /home/lvuser/scripts/auto_44.bee,File good!,WAIT 1500,WAIT
11:17:10.720 AM 03/20/2016,Autonomous Enabled,10,TRUE,7,Read from Text File in DoesScriptNumberContainNull.vi->Disabled.vi->Robot Main.vi<APPEND> /home/lvuser/scripts/auto_12.bee,0.000000,0.198916,0.000000,0.263083,TRUE,FALSE,TRUE,FALSE,FALSE,FALSE,Disabled,0.000000,0.000000,0.000000,TRUE,-9.023224,-0.560059,0.000000,-0.047195,0.004578,0.000000,-0.031000,-0.041000,-0.032000,-0.140000,-0.050000,2.460000,2.580559,Hold,0.937012,0.000000,ResetBack,587.000000,-0.300000,LowGoal,1372.500000,-1454.545455,Speed,1327.500000,-1454.545455,Speed,Off,Off0.000000,44,Read: /home/lvuser/scripts/auto_44.bee,File good!,WAIT 1500,WAIT
11:17:10.820 AM 03/20/2016,Autonomous Enabled,11,TRUE,7,Read from Text File in DoesScriptNumberContainNull.vi->Disabled.vi->Robot Main.vi<APPEND> /home/lvuser/scripts/auto_12.bee,0.000000,0.198916,0.000000,0.263083,TRUE,FALSE,TRUE,FALSE,FALSE,FALSE,Disabled,0.000000,0.000000,0.000000,TRUE,-9.025925,-0.559982,0.000000,-0.041519,0.007446,0.000000,-0.037000,-0.003000,0.000000,-0.140000,-0.040000,2.450000,2.598464,Hold,0.937012,0.000000,ResetBack,587.000000,-0.300000,LowGoal,1387.500000,-1454.545455,Speed,1357.500000,-1454.545455,Speed,Off,Off0.000000,44,Read: /home/lvuser/scripts/auto_44.bee,File good!,WAIT 1500,WAIT
11:17:10.920 AM 03/20/2016,Autonomous Enabled,10,TRUE,7,Read from Text File in DoesScriptNumberContainNull.vi->Disabled.vi->Robot Main.vi<APPEND> /home/lvuser/scripts/auto_12.bee,0.000000,0.198916,0.000000,0.263083,TRUE,FALSE,TRUE,FALSE,FALSE,FALSE,Disabled,0.000000,0.000000,0.000000,TRUE,-9.026978,-0.559662,0.000000,-0.004074,0.013046,0.000000,-0.033000,-0.010000,0.021000,-0.140000,-0.060000,2.460000,2.598464,Hold,0.937012,0.000000,ResetBack,587.000000,-0.300000,LowGoal,1387.500000,-1454.545455,Speed,1350.000000,-1454.545455,Speed,Off,Off0.000000,44,Read: /home/lvuser/scripts/auto_44.bee,File good!,WAIT 1500,WAIT
11:17:11.021 AM 03/20/2016,Autonomous Enabled,10,TRUE,7,Read from Text File in DoesScriptNumberContainNull.vi->Disabled.vi->Robot Main.vi<APPEND> /home/lvuser/scripts/auto_12.bee,0.000000,0.198916,0.000000,0.263083,TRUE,FALSE,TRUE,FALSE,FALSE,FALSE,Disabled,0.000000,0.000000,0.000000,TRUE,-9.027344,-0.559464,0.000000,0.003159,0.006683,0.000000,-0.001000,-0.017000,0.014000,-0.140000,-0.030000,2.440000,2.618348,Hold,0.937012,0.000000,Reset,587.000000,2.000000,LowGoal,1387.500000,-1454.545455,Speed,1342.500000,-1454.545455,Speed,Off,Off0.000000,44,Read: /home/lvuser/scripts/auto_44.bee,File good!,WAIT 1500,WAIT
11:17:11.122 AM 03/20/2016,Autonomous Enabled,11,TRUE,7,Read from Text File in DoesScriptNumberContainNull.vi->Disabled.vi->Robot Main.vi<APPEND> /home/lvuser/scripts/auto_12.bee,0.000000,0.198916,0.000000,0.263083,TRUE,FALSE,TRUE,FALSE,FALSE,FALSE,Disabled,0.000000,0.000000,0.000000,TRUE,-9.027161,-0.559662,0.000000,0.007889,-0.009186,0.000000,-0.034000,0.111000,-0.009000,-0.140000,-0.050000,2.420000,2.636597,Hold,0.937012,0.000000,Hold,-251.000000,2.000000,LowGoal,1387.500000,-1454.545455,Speed,1350.000000,-1454.545455,Speed,Off,Off0.000000,44,Read: /home/lvuser/scripts/auto_44.bee,File good!,WAIT 1500,WAIT
11:17:11.222 AM 03/20/2016,Autonomous Enabled,10,TRUE,7,Read from Text File in DoesScriptNumberContainNull.vi->Disabled.vi->Robot Main.vi<APPEND> /home/lvuser/scripts/auto_33.bee,0.000000,0.198916,0.000000,0.263083,TRUE,FALSE,TRUE,FALSE,FALSE,FALSE,Disabled,0.000000,0.000000,0.000000,TRUE,-9.026886,-0.559006,0.000000,0.000000,0.024460,0.000000,0.005000,0.002000,0.006000,-0.140000,-0.090000,2.470000,2.655121,Hold,0.937012,0.000000,Hold,-239.000000,2.000000,LowGoal,1380.000000,-1454.545455,Speed,1357.500000,-1454.545455,Speed,Off,Off0.000000,44,Read: /home/lvuser/scripts/auto_44.bee,File good!,WAIT 1500,WAIT
11:17:11.322 AM 03/20/2016,Autonomous Enabled,11,TRUE,7,Read from Text File in DoesScriptNumberContainNull.vi->Disabled.vi->Robot Main.vi<APPEND> /home/lvuser/scripts/auto_33.bee,0.000000,0.198916,0.000000,0.263083,TRUE,FALSE,TRUE,FALSE,FALSE,FALSE,Disabled,0.000000,0.000000,0.000000,TRUE,-9.026886,-0.557846,0.000000,0.000000,0.025238,0.000000,-0.016000,0.001000,-0.085000,-0.140000,-0.070000,2.500000,2.668423,Hold,0.937012,0.000000,Hold,-239.000000,2.000000,LowGoal,1387.500000,-1454.545455,Speed,1350.000000,-1454.545455,Speed,Off,Off0.000000,44,Read: /home/lvuser/scripts/auto_44.bee,File good!,NAVX_ZERO_YAW,NAVX_ZERO_YAW
11:17:11.422 AM 03/20/2016,Autonomous Enabled,9,TRUE,7,Read from Text File in DoesScriptNumberContainNull.vi->Disabled.vi->Robot Main.vi<APPEND> /home/lvuser/scripts/auto_33.bee,0.000000,0.198916,0.000000,0.263083,TRUE,FALSE,TRUE,FALSE,FALSE,FALSE,Disabled,0.000000,0.000000,0.000000,TRUE,-9.027634,-0.555847,0.000000,-0.025238,0.030472,0.000000,0.004000,0.038000,0.048000,0.000000,-0.140000,2.530000,0.016362,Hold,0.937012,0.000000,Hold,-238.000000,2.000000,LowGoal,1380.000000,2909.090909,Speed,1350.000000,2909.090909,Speed,Off,Off0.000000,44,Read: /home/lvuser/scripts/auto_44.bee,File good!,DRIVE_STRAIGHT_NAVX 200 5000,DRIVE_STRAIGHT_NAVX
11:17:11.522 AM 03/20/2016,Autonomous Enabled,10,TRUE,7,Read from Text File in DoesScriptNumberContainNull.vi->Disabled.vi->Robot Main.vi<APPEND> /home/lvuser/scripts/auto_33.bee,0.000000,-0.384999,0.000000,-0.352916,TRUE,FALSE,TRUE,FALSE,FALSE,FALSE,Disabled,0.000000,0.000000,0.000000,TRUE,-9.028366,-0.553894,0.000000,0.012543,0.034546,0.000000,0.315000,0.033000,-0.342000,0.000000,-0.110000,2.510000,0.042812,Hold,0.937012,0.000000,Hold,-248.000000,2.000000,LowGoal,1162.500000,2909.090909,Speed,1200.000000,2909.090909,Speed,Off,Off0.000000,44,Read: /home/lvuser/scripts/auto_44.bee,File good!,DRIVE_STRAIGHT_NAVX 200 5000,DRIVE_STRAIGHT_NAVX
11:17:11.622 AM 03/20/2016,Autonomous Enabled,9,TRUE,7,Read from Text File in DoesScriptNumberContainNull.vi->Disabled.vi->Robot Main.vi<APPEND> /home/lvuser/scripts/auto_33.bee,0.000000,-1.584913,0.000000,-1.533580,TRUE,FALSE,TRUE,FALSE,FALSE,FALSE,Disabled,0.000000,0.000000,0.000000,TRUE,-9.023575,-0.551071,0.000000,0.120087,0.070709,0.000000,0.143000,-0.108000,-0.204000,-0.180000,2.270000,2.510000,-0.085654,Hold,0.937012,0.000000,Hold,-249.000000,2.000000,LowGoal,292.500000,2909.090909,Speed,82.500000,2909.090909,Speed,Off,Off0.000000,44,Read: /home/lvuser/scripts/auto_44.bee,File good!,DRIVE_STRAIGHT_NAVX 200 5000,DRIVE_STRAIGHT_NAVX
11:17:11.723 AM 03/20/2016,Autonomous Enabled,9,TRUE,7,Read from Text File in DoesScriptNumberContainNull.vi->Disabled.vi->Robot Main.vi<APPEND> /home/lvuser/scripts/auto_33.bee,0.000000,-3.413659,0.000000,-3.330242,TRUE,FALSE,TRUE,FALSE,FALSE,FALSE,Disabled,0.000000,0.000000,0.000000,TRUE,-9.012939,-0.549194,0.000000,0.290375,0.028366,0.000000,0.307000,0.114000,0.065000,-0.280000,1.970000,2.550000,-0.137162,Hold,0.937012,0.000000,Hold,-249.000000,2.000000,LowGoal,-660.000000,2909.090909,Speed,-622.500000,2909.090909,Speed,Off,Off0.000000,44,Read: /home/lvuser/scripts/auto_44.bee,File good!,DRIVE_STRAIGHT_NAVX 200 5000,DRIVE_STRAIGHT_NAVX
11:17:11.823 AM 03/20/2016,Autonomous Enabled,10,TRUE,7,Read from Text File in DoesScriptNumberContainNull.vi->Disabled.vi->Robot Main.vi<APPEND> /home/lvuser/scripts/auto_33.bee,0.000000,-6.217735,0.000000,-6.179236,FALSE,FALSE,TRUE,FALSE,FALSE,FALSE,Disabled,0.000000,0.000000,0.000000,TRUE,-8.991531,-0.547058,0.000000,0.487106,0.039261,0.000000,0.101000,0.014000,0.129000,-0.260000,3.470000,2.520000,-0.075134,Hold,0.937012,0.000000,Hold,-249.000000,2.000000,LowGoal,-1350.000000,2909.090909,Speed,-1267.500000,2909.090909,Speed,Off,Off0.000000,44,Read: /home/lvuser/scripts/auto_44.bee,File good!,DRIVE_STRAIGHT_NAVX 200 5000,DRIVE_STRAIGHT_NAVX
11:17:11.924 AM 03/20/2016,Autonomous Enabled,11,TRUE,7,Read from Text File in DoesScriptNumberContainNull.vi->Disabled.vi->Robot Main.vi<APPEND> /home/lvuser/scripts/auto_33.bee,0.000000,-9.451728,0.000000,-9.451728,FALSE,FALSE,TRUE,FALSE,FALSE,FALSE,Disabled,0.000000,0.000000,0.000000,TRUE,-8.964035,-0.546371,0.000000,0.605301,-0.013596,0.000000,0.090000,-0.030000,0.111000,-0.280000,3.480000,2.510000,-0.065949,Hold,0.937012,0.000000,Hold,-249.000000,2.000000,LowGoal,-1867.500000,2909.090909,Speed,-1762.500000,2909.090909,Speed,Off,Off0.000000,44,Read: /home/lvuser/scripts/auto_44.bee,File good!,DRIVE_STRAIGHT_NAVX 200 5000,DRIVE_STRAIGHT_NAVX
11:17:12.024 AM 03/20/2016,Autonomous Enabled,9,TRUE,7,Read from Text File in DoesScriptNumberContainNull.vi->Disabled.vi->Robot Main.vi<APPEND> /home/lvuser/scripts/auto_33.bee,0.000000,-13.346635,0.000000,-13.417219,FALSE,FALSE,TRUE,FALSE,FALSE,FALSE,Disabled,0.000000,0.000000,0.000000,TRUE,-8.930496,-0.547226,0.000000,0.718430,-0.039459,0.000000,0.140000,0.006000,-0.082000,-0.290000,3.800000,2.560000,-0.050757,Hold,0.937012,0.000000,Hold,-249.000000,2.000000,LowGoal,-2280.000000,2909.090909,Speed,-2167.500000,2909.090909,Speed,Off,Off0.000000,44,Read: /home/lvuser/scripts/auto_44.bee,File good!,DRIVE_STRAIGHT_NAVX 200 5000,DRIVE_STRAIGHT_NAVX
11:17:12.124 AM 03/20/2016,Autonomous Enabled,10,TRUE,7,Read from Text File in DoesScriptNumberContainNull.vi->Disabled.vi->Robot Main.vi<APPEND> /home/lvuser/scripts/auto_33.bee,0.000000,-17.838292,0.000000,-17.998708,FALSE,FALSE,TRUE,FALSE,FALSE,FALSE,Disabled,0.000000,0.000000,0.000000,TRUE,-8.891708,-0.550995,0.000000,0.796249,-0.092758,0.000000,-0.012000,0.030000,0.000000,-0.180000,4.350000,2.570000,0.052747,Hold,0.937012,0.000000,Hold,-249.000000,2.000000,LowGoal,-2280.000000,2909.090909,Speed,-2497.500000,2909.090909,Speed,Off,Off0.000000,44,Read: /home/lvuser/scripts/auto_44.bee,File good!,DRIVE_STRAIGHT_NAVX 200 5000,DRIVE_STRAIGHT_NAVX
11:17:12.224 AM 03/20/2016,Autonomous Enabled,10,TRUE,7,Read from Text File in DoesScriptNumberContainNull.vi->Disabled.vi->Robot Main.vi<APPEND> /home/lvuser/scripts/auto_33.bee,0.000000,-22.663614,0.000000,-22.933113,FALSE,FALSE,TRUE,FALSE,FALSE,FALSE,Disabled,0.000000,0.000000,0.000000,TRUE,-8.844910,-0.554092,0.000000,0.785339,-0.020599,0.000000,0.164000,-0.182000,0.042000,-0.130000,3.890000,2.700000,0.128635,Hold,0.937012,0.000000,Hold,-249.000000,2.000000,LowGoal,-2790.000000,2909.090909,Speed,-2760.000000,2909.090909,Speed,Off,Off0.000000,44,Read: /home/lvuser/scripts/auto_44.bee,File good!,DRIVE_STRAIGHT_NAVX 200 5000,DRIVE_STRAIGHT_NAVX
11:17:12.327 AM 03/20/2016,Autonomous Enabled,10,TRUE,7,Read from Text File in DoesScriptNumberContainNull.vi->Disabled.vi->Robot Main.vi<APPEND> /home/lvuser/scripts/auto_33.bee,0.000000,-28.130601,0.000000,-28.470683,FALSE,FALSE,TRUE,FALSE,FALSE,FALSE,Disabled,0.000000,0.000000,0.000000,TRUE,-8.802673,-0.557220,0.000000,0.880173,-0.110352,0.000000,-0.144000,0.128000,0.150000,-0.100000,4.810000,2.620000,0.186311,Hold,0.937012,0.000000,Hold,-249.000000,2.000000,LowGoal,-2835.000000,2909.090909,Speed,-2857.500000,2909.090909,Speed,Off,Off0.000000,44,Read: /home/lvuser/scripts/auto_44.bee,File good!,DRIVE_STRAIGHT_NAVX 200 5000,DRIVE_STRAIGHT_NAVX
11:17:12.426 AM 03/20/2016,Autonomous Enabled,11,TRUE,7,Read from Text File in DoesScriptNumberContainNull.vi->Disabled.vi->Robot Main.vi<APPEND> /home/lvuser/scripts/auto_33.bee,0.000000,-33.802921,0.000000,-34.245670,FALSE,FALSE,TRUE,FALSE,FALSE,FALSE,Disabled,0.000000,0.000000,0.000000,TRUE,-8.759750,-0.562180,0.000000,0.848343,-0.104584,0.000000,0.184000,-0.221000,-0.017000,0.040000,4.250000,2.470000,0.286772,Hold,0.937012,0.000000,Hold,-249.000000,2.000000,LowGoal,-2790.000000,2909.090909,Speed,-2797.500000,2909.090909,Speed,Off,Off0.000000,44,Read: /home/lvuser/scripts/auto_44.bee,File good!,DRIVE_STRAIGHT_NAVX 200 5000,DRIVE_STRAIGHT_NAVX
11:17:12.526 AM 03/20/2016,Autonomous Enabled,10,TRUE,7,Read from Text File in DoesScriptNumberContainNull.vi->Disabled.vi->Robot Main.vi<APPEND> /home/lvuser/scripts/auto_33.bee,0.000000,-40.213156,0.000000,-40.649488,FALSE,FALSE,TRUE,FALSE,FALSE,FALSE,Disabled,0.000000,0.000000,0.000000,TRUE,-8.715652,-0.569885,0.000000,0.899567,-0.168777,0.000000,-0.279000,0.276000,0.356000,-0.030000,5.000000,2.400000,0.294322,Hold,0.937012,0.000000,Hold,-249.000000,2.000000,LowGoal,-2782.500000,2909.090909,Speed,-2797.500000,2909.090909,Speed,Off,Off0.000000,44,Read: /home/lvuser/scripts/auto_44.bee,File good!,DRIVE_STRAIGHT_NAVX 200 5000,DRIVE_STRAIGHT_NAVX
11:17:12.626 AM 03/20/2016,Autonomous Enabled,11,TRUE,7,Read from Text File in DoesScriptNumberContainNull.vi->Disabled.vi->Robot Main.vi<APPEND> /home/lvuser/scripts/auto_33.bee,0.000000,-47.200890,0.000000,-47.393389,FALSE,FALSE,TRUE,FALSE,FALSE,FALSE,Disabled,0.000000,0.000000,0.000000,TRUE,-8.666458,-0.577332,0.000000,0.726807,-0.104736,0.000000,0.058000,-0.043000,-0.040000,-0.650000,9.380000,2.370000,-0.230517,Hold,0.937256,0.000000,Hold,-249.000000,2.000000,LowGoal,-2782.500000,2909.090909,Speed,-2767.500000,2909.090909,Speed,Off,Off0.000000,44,Read: /home/lvuser/scripts/auto_44.bee,File good!,DRIVE_STRAIGHT_NAVX 200 5000,DRIVE_STRAIGHT_NAVX
11:17:12.728 AM 03/20/2016,Autonomous Enabled,10,TRUE,7,Read from Text File in DoesScriptNumberContainNull.vi->Disabled.vi->Robot Main.vi<APPEND> /home/lvuser/scripts/auto_33.bee,0.000000,-53.790791,0.000000,-53.790791,FALSE,FALSE,TRUE,FALSE,FALSE,FALSE,Disabled,0.000000,0.000000,0.000000,TRUE,-8.631271,-0.584137,0.000000,0.673416,-0.154007,0.000000,-0.227000,0.081000,0.005000,-1.130000,12.770000,2.160000,-0.767267,Hold,0.937988,0.000000,Hold,-249.000000,2.000000,LowGoal,-2820.000000,2909.090909,Speed,-2790.000000,2909.090909,Speed,Off,Off0.000000,44,Read: /home/lvuser/scripts/auto_44.bee,File good!,DRIVE_STRAIGHT_NAVX 200 5000,DRIVE_STRAIGHT_NAVX
11:17:12.827 AM 03/20/2016,Autonomous Enabled,10,TRUE,7,Read from Text File in DoesScriptNumberContainNull.vi->Disabled.vi->Robot Main.vi<APPEND> /home/lvuser/scripts/auto_43.bee,0.000000,-59.418194,0.000000,-59.629944,FALSE,FALSE,TRUE,FALSE,FALSE,FALSE,Disabled,0.000000,0.000000,0.000000,TRUE,-8.604050,-0.588516,0.000000,0.417709,0.001175,0.000000,-0.122000,0.027000,0.913000,-0.930000,11.430000,2.540000,-0.843936,Hold,0.938721,0.000000,Hold,-249.000000,2.000000,LowGoal,-2827.500000,2909.090909,Speed,-2790.000000,2909.090909,Speed,Off,Off0.000000,44,Read: /home/lvuser/scripts/auto_44.bee,File good!,DRIVE_STRAIGHT_NAVX 200 5000,DRIVE_STRAIGHT_NAVX
11:17:12.927 AM 03/20/2016,Autonomous Enabled,10,TRUE,7,Read from Text File in DoesScriptNumberContainNull.vi->Disabled.vi->Robot Main.vi<APPEND> /home/lvuser/scripts/auto_43.bee,0.000000,-66.393095,0.000000,-66.354595,FALSE,FALSE,TRUE,FALSE,FALSE,FALSE,Disabled,0.000000,0.000000,0.000000,TRUE,-8.584930,-0.583572,0.000000,0.413055,0.128784,0.000000,-0.594000,-0.466000,0.887000,-0.420000,17.120000,2.500000,-0.214974,Hold,0.938965,0.000000,Hold,-246.000000,2.000000,LowGoal,-2797.500000,2909.090909,Speed,-2790.000000,2909.090909,Speed,Off,Off0.000000,44,Read: /home/lvuser/scripts/auto_44.bee,File good!,DRIVE_STRAIGHT_NAVX 200 5000,DRIVE_STRAIGHT_NAVX
11:17:13.027 AM 03/20/2016,Autonomous Enabled,10,TRUE,7,Read from Text File in DoesScriptNumberContainNull.vi->Disabled.vi->Robot Main.vi<APPEND> /home/lvuser/scripts/auto_43.bee,0.000000,-70.923251,0.000000,-70.384252,FALSE,FALSE,TRUE,FALSE,FALSE,FALSE,Disabled,0.000000,0.000000,0.000000,TRUE,-8.569855,-0.582458,0.000000,0.076523,0.016708,0.000000,0.856000,-0.047000,-0.812000,-0.080000,10.800000,1.570000,-0.098547,Hold,0.953613,0.000000,Hold,-244.000000,2.000000,LowGoal,-2782.500000,2909.090909,Speed,-2782.500000,2909.090909,Speed,Off,Off0.000000,44,Read: /home/lvuser/scripts/auto_44.bee,File good!,DRIVE_STRAIGHT_NAVX 200 5000,DRIVE_STRAIGHT_NAVX
11:17:13.127 AM 03/20/2016,Autonomous Enabled,11,TRUE,7,Read from Text File in DoesScriptNumberContainNull.vi->Disabled.vi->Robot Main.vi<APPEND> /home/lvuser/scripts/auto_43.bee,0.000000,-75.536823,0.000000,-74.375409,FALSE,FALSE,TRUE,FALSE,FALSE,FALSE,Disabled,0.000000,0.000000,0.000000,TRUE,-8.565140,-0.583679,0.000000,-0.023590,-0.184311,0.000000,0.352000,0.204000,-1.079000,-0.460000,8.620000,-0.680000,-0.333477,Hold,1.122314,0.000000,Hold,-239.000000,2.000000,LowGoal,-2790.000000,2909.090909,Speed,-2775.000000,2909.090909,Speed,Off,Off0.000000,44,Read: /home/lvuser/scripts/auto_44.bee,File good!,DRIVE_STRAIGHT_NAVX 200 5000,DRIVE_STRAIGHT_NAVX
11:17:13.227 AM 03/20/2016,Autonomous Enabled,10,TRUE,7,Read from Text File in DoesScriptNumberContainNull.vi->Disabled.vi->Robot Main.vi<APPEND> /home/lvuser/scripts/auto_43.bee,0.000000,-82.287141,0.000000,-78.148401,FALSE,FALSE,TRUE,FALSE,FALSE,FALSE,Disabled,0.000000,0.000000,0.000000,TRUE,-8.566193,-0.586014,0.000000,-0.219254,0.057892,0.000000,-0.516000,0.419000,-0.093000,-1.660000,8.610000,0.290000,-1.809099,Hold,1.148682,0.000000,Hold,-244.000000,2.000000,LowGoal,-2775.000000,2909.090909,Speed,-2752.500000,2909.090909,Speed,Off,Off0.000000,44,Read: /home/lvuser/scripts/auto_44.bee,File good!,DRIVE_STRAIGHT_NAVX 200 5000,DRIVE_STRAIGHT_NAVX
11:17:13.328 AM 03/20/2016,Autonomous Enabled,10,TRUE,7,Read from Text File in DoesScriptNumberContainNull.vi->Disabled.vi->Robot Main.vi<APPEND> /home/lvuser/scripts/auto_43.bee,0.000000,-86.554214,0.000000,-81.716059,FALSE,FALSE,TRUE,FALSE,FALSE,FALSE,Disabled,0.000000,0.000000,0.000000,TRUE,-8.572144,-0.590881,0.000000,0.003693,-0.277969,0.000000,-0.002000,1.005000,-0.069000,-7.330000,13.370000,0.440000,-6.403836,Hold,0.987793,0.000000,Hold,-240.000000,2.000000,LowGoal,-2805.000000,2909.090909,Speed,-2730.000000,2909.090909,Speed,Off,Off0.000000,44,Read: /home/lvuser/scripts/auto_44.bee,File good!,DRIVE_STRAIGHT_NAVX 200 5000,DRIVE_STRAIGHT_NAVX
11:17:13.429 AM 03/20/2016,Autonomous Enabled,9,TRUE,7,Read from Text File in DoesScriptNumberContainNull.vi->Disabled.vi->Robot Main.vi<APPEND> /home/lvuser/scripts/auto_43.bee,0.000000,-89.884456,0.000000,-85.431300,FALSE,FALSE,TRUE,FALSE,FALSE,FALSE,Disabled,0.000000,0.000000,0.000000,TRUE,-8.570892,-0.576675,0.000000,0.077316,0.274063,0.000000,-0.544000,0.719000,0.934000,-6.690000,14.560000,-0.960000,-7.767093,Hold,0.962158,0.000000,Hold,-240.000000,2.000000,LowGoal,-2805.000000,2909.090909,Speed,-2730.000000,2909.090909,Speed,Off,Off0.000000,44,Read: /home/lvuser/scripts/auto_44.bee,File good!,DRIVE_STRAIGHT_NAVX 200 5000,DRIVE_STRAIGHT_NAVX
11:17:13.530 AM 03/20/2016,Autonomous Enabled,11,TRUE,7,Read from Text File in DoesScriptNumberContainNull.vi->Disabled.vi->Robot Main.vi<APPEND> /home/lvuser/scripts/auto_43.bee,0.000000,-93.837114,0.000000,-90.198872,FALSE,FALSE,TRUE,FALSE,FALSE,FALSE,Disabled,0.000000,0.000000,0.000000,TRUE,-8.568710,-0.552673,0.000000,0.039398,0.525055,0.000000,-0.065000,0.443000,0.139000,-2.790000,5.290000,-0.400000,-4.387626,Hold,0.967529,0.000000,Hold,-240.000000,2.000000,LowGoal,-2752.500000,2909.090909,Speed,-2722.500000,2909.090909,Speed,Off,Off0.000000,44,Read: /home/lvuser/scripts/auto_44.bee,File good!,DRIVE_STRAIGHT_NAVX 200 5000,DRIVE_STRAIGHT_NAVX
11:17:13.631 AM 03/20/2016,Autonomous Enabled,10,TRUE,7,Read from Text File in DoesScriptNumberContainNull.vi->Disabled.vi->Robot Main.vi<APPEND> /home/lvuser/scripts/auto_43.bee,0.000000,-97.995104,0.000000,-93.432865,TRUE,FALSE,TRUE,FALSE,FALSE,FALSE,Disabled,0.000000,0.000000,0.000000,TRUE,-8.559479,-0.534729,0.000000,0.453308,0.032944,0.000000,2.027000,-0.553000,-0.682000,-0.760000,-2.990000,0.800000,-1.736998,Hold,0.949219,0.000000,Hold,-239.000000,2.000000,LowGoal,-2752.500000,2909.090909,Speed,-2722.500000,2909.090909,Speed,Off,Off0.000000,44,Read: /home/lvuser/scripts/auto_44.bee,File good!,DRIVE_STRAIGHT_NAVX 200 5000,DRIVE_STRAIGHT_NAVX
11:17:13.733 AM 03/20/2016,Autonomous Enabled,11,TRUE,7,Read from Text File in DoesScriptNumberContainNull.vi->Disabled.vi->Robot Main.vi<APPEND> /home/lvuser/scripts/auto_43.bee,0.000000,-101.909262,0.000000,-97.667855,FALSE,FALSE,TRUE,FALSE,FALSE,FALSE,Disabled,0.000000,0.000000,0.000000,TRUE,-8.500427,-0.528244,0.000000,1.169373,0.141098,0.000000,0.346000,-0.280000,0.231000,0.940000,-10.400000,3.050000,-0.578670,Hold,0.970215,0.000000,Hold,-240.000000,2.000000,LowGoal,-2775.000000,2909.090909,Speed,-2752.500000,2909.090909,Speed,Off,Off0.000000,44,Read: /home/lvuser/scripts/auto_44.bee,File good!,DRIVE_STRAIGHT_NAVX 200 5000,DRIVE_STRAIGHT_NAVX
11:17:13.833 AM 03/20/2016,Autonomous Enabled,10,TRUE,7,Read from Text File in DoesScriptNumberContainNull.vi->Disabled.vi->Robot Main.vi<APPEND> /home/lvuser/scripts/auto_43.bee,0.000000,-107.940914,0.000000,-103.507008,FALSE,FALSE,TRUE,FALSE,FALSE,FALSE,Disabled,0.000000,0.000000,0.000000,TRUE,-8.438293,-0.524902,0.000000,1.263504,0.048920,0.000000,0.186000,0.173000,1.003000,0.850000,-10.000000,1.420000,-0.335897,Hold,0.969238,0.000000,Hold,-240.000000,2.000000,LowGoal,-2775.000000,2909.090909,Speed,-2752.500000,2909.090909,Speed,Off,Off0.000000,44,Read: /home/lvuser/scripts/auto_44.bee,File good!,DRIVE_STRAIGHT_NAVX 200 5000,DRIVE_STRAIGHT_NAVX
11:17:13.933 AM 03/20/2016,Autonomous Enabled,9,TRUE,7,Read from Text File in DoesScriptNumberContainNull.vi->Disabled.vi->Robot Main.vi<APPEND> /home/lvuser/scripts/auto_43.bee,0.000000,-115.140397,0.000000,-110.821991,FALSE,FALSE,TRUE,FALSE,FALSE,FALSE,Disabled,0.000000,0.000000,0.000000,TRUE,-8.382660,-0.524597,0.000000,1.488770,-0.125153,0.000000,-0.291000,-0.190000,-0.618000,1.330000,-3.050000,3.460000,-0.416942,Hold,0.969482,0.000000,Hold,-240.000000,2.000000,LowGoal,-2797.500000,2909.090909,Speed,-2760.000000,2909.090909,Speed,Off,Off0.000000,44,Read: /home/lvuser/scripts/auto_44.bee,File good!,DRIVE_STRAIGHT_NAVX 200 5000,DRIVE_STRAIGHT_NAVX
11:17:14.033 AM 03/20/2016,Autonomous Enabled,11,TRUE,7,Read from Text File in DoesScriptNumberContainNull.vi->Disabled.vi->Robot Main.vi<APPEND> /home/lvuser/scripts/auto_43.bee,0.000000,-121.903548,0.000000,-118.085641,FALSE,FALSE,TRUE,FALSE,FALSE,FALSE,Disabled,0.000000,0.000000,0.000000,TRUE,-8.314499,-0.527832,0.000000,1.339798,-0.079910,0.000000,0.178000,-0.045000,-0.931000,2.660000,-2.540000,3.280000,1.225265,Hold,0.994141,0.000000,Hold,-240.000000,2.000000,LowGoal,-2820.000000,2909.090909,Speed,-2782.500000,2909.090909,Speed,Off,Off0.000000,44,Read: /home/lvuser/scripts/auto_44.bee,File good!,DRIVE_STRAIGHT_NAVX 200 5000,DRIVE_STRAIGHT_NAVX
11:17:14.133 AM 03/20/2016,Autonomous Enabled,10,TRUE,7,Read from Text File in DoesScriptNumberContainNull.vi->Disabled.vi->Robot Main.vi<APPEND> /home/lvuser/scripts/auto_43.bee,0.000000,-129.975696,0.000000,-125.811289,FALSE,FALSE,TRUE,FALSE,FALSE,FALSE,Disabled,0.000000,0.000000,0.000000,TRUE,-8.259933,-0.539352,0.000000,1.373611,-0.208817,0.000000,-0.616000,-0.463000,0.930000,2.320000,5.130000,3.100000,1.287561,Hold,2.061523,0.000000,Hold,-240.000000,2.000000,LowGoal,-2812.500000,2909.090909,Speed,-2790.000000,2909.090909,Speed,Off,Off0.000000,44,Read: /home/lvuser/scripts/auto_44.bee,File good!,DRIVE_STRAIGHT_NAVX 200 5000,DRIVE_STRAIGHT_NAVX
11:17:14.233 AM 03/20/2016,Autonomous Enabled,10,TRUE,7,Read from Text File in DoesScriptNumberContainNull.vi->Disabled.vi->Robot Main.vi<APPEND> /home/lvuser/scripts/auto_43.bee,0.000000,-136.167765,0.000000,-132.131691,FALSE,FALSE,TRUE,FALSE,FALSE,FALSE,Disabled,0.000000,0.000000,0.000000,TRUE,-8.185989,-0.551239,0.000000,0.856522,-0.105621,0.000000,-0.850000,0.041000,0.024000,0.920000,4.770000,2.870000,-0.323501,Hold,1.607666,0.000000,Hold,-240.000000,2.000000,LowGoal,-2812.500000,2909.090909,Speed,-2782.500000,2909.090909,Speed,Off,Off0.000000,44,Read: /home/lvuser/scripts/auto_44.bee,File good!,SET_HEADING 0,SET_HEADING
11:17:14.335 AM 03/20/2016,Autonomous Enabled,10,TRUE,7,Read from Text File in DoesScriptNumberContainNull.vi->Disabled.vi->Robot Main.vi<APPEND> /home/lvuser/scripts/auto_43.bee,0.000000,-140.601671,0.000000,-137.425429,FALSE,FALSE,TRUE,TRUE,FALSE,TRUE,Disabled,0.000000,0.000000,0.000000,TRUE,-8.153732,-0.551285,0.000000,0.558899,0.053864,0.000000,-0.023000,-0.399000,-0.953000,3.170000,-0.510000,3.590000,1.259543,Hold,1.399658,51.000000,Hold,-240.000000,69632.000000,LowGoal,-2820.000000,-3272.727273,Speed,-2782.500000,-3272.727273,Speed,Off,Off0.000000,44,Read: /home/lvuser/scripts/auto_44.bee,File good!,SEARCH_FOR_GOAL,SEARCH_FOR_GOAL
11:17:14.435 AM 03/20/2016,Autonomous Enabled,10,TRUE,7,Read from Text File in DoesScriptNumberContainNull.vi->Disabled.vi->Robot Main.vi<APPEND> /home/lvuser/scripts/auto_43.bee,0.000000,-144.233496,0.000000,-140.916087,FALSE,FALSE,TRUE,TRUE,FALSE,TRUE,Disabled,0.000000,0.000000,0.000000,TRUE,-8.140640,-0.551620,0.000000,0.099686,-0.112152,0.000000,-0.400000,-0.495000,0.300000,4.970000,-0.180000,3.130000,3.103050,Hold,3.268799,51.000000,Hold,-3203.000000,69632.000000,LowGoal,-2707.500000,-3272.727273,Speed,-2662.500000,-3272.727273,Speed,Off,Off0.000000,44,Read: /home/lvuser/scripts/auto_44.bee,File good!,SEARCH_FOR_GOAL,SEARCH_FOR_GOAL
11:17:14.535 AM 03/20/2016,Autonomous Enabled,9,TRUE,7,Read from Text File in DoesScriptNumberContainNull.vi->Disabled.vi->Robot Main.vi<APPEND> /home/lvuser/scripts/auto_43.bee,0.000000,-146.986240,0.000000,-143.983247,TRUE,FALSE,TRUE,TRUE,FALSE,TRUE,Disabled,0.000000,0.000000,0.000000,TRUE,-8.149445,-0.568481,0.000000,-0.302460,-0.262009,0.000000,-0.391000,0.159000,0.250000,5.970000,-1.960000,2.900000,3.875322,Hold,4.447510,51.000000,Hold,-14140.000000,69632.000000,LowGoal,-1410.000000,-3272.727273,Speed,-1387.500000,-3272.727273,Speed,Off,Off0.000000,44,Read: /home/lvuser/scripts/auto_44.bee,File good!,SEARCH_FOR_GOAL,SEARCH_FOR_GOAL
11:17:14.637 AM 03/20/2016,Autonomous Enabled,10,TRUE,7,Read from Text File in DoesScriptNumberContainNull.vi->Disabled.vi->Robot Main.vi<APPEND> /home/lvuser/scripts/auto_43.bee,0.000000,-148.853485,0.000000,-145.998075,TRUE,FALSE,TRUE,TRUE,FALSE,TRUE,Disabled,0.000000,0.000000,0.000000,TRUE,-8.170700,-0.578979,0.000000,-0.501099,-0.192780,0.000000,-0.145000,0.012000,-0.442000,6.230000,-2.540000,2.550000,4.408450,Hold,6.914307,51.000000,Hold,-23353.000000,69632.000000,LowGoal,-30.000000,-3272.727273,Speed,7.500000,-3272.727273,Speed,Off,Off0.000000,44,Read: /home/lvuser/scripts/auto_44.bee,File good!,SEARCH_FOR_GOAL,SEARCH_FOR_GOAL
11:17:14.737 AM 03/20/2016,Autonomous Enabled,10,TRUE,7,Read from Text File in DoesScriptNumberContainNull.vi->Disabled.vi->Robot Main.vi<APPEND> /home/lvuser/scripts/auto_43.bee,0.000000,-150.220232,0.000000,-147.307072,TRUE,FALSE,TRUE,TRUE,FALSE,TRUE,Disabled,0.000000,0.000000,0.000000,TRUE,-8.199554,-0.589523,0.000000,-0.606598,-0.208221,0.000000,-0.030000,0.033000,-0.246000,6.170000,-2.810000,2.720000,4.306991,Hold,9.683838,51.000000,Hold,-23353.000000,69632.000000,LowGoal,780.000000,-3272.727273,Speed,952.500000,-3272.727273,Speed,Off,Off0.000000,44,Read: /home/lvuser/scripts/auto_44.bee,File good!,SEARCH_FOR_GOAL,SEARCH_FOR_GOAL
11:17:14.839 AM 03/20/2016,Autonomous Enabled,13,TRUE,7,Read from Text File in DoesScriptNumberContainNull.vi->Disabled.vi->Robot Main.vi<APPEND> /home/lvuser/scripts/auto_43.bee,0.000000,-150.951730,0.000000,-148.038570,FALSE,FALSE,TRUE,TRUE,FALSE,TRUE,Enable,-0.293750,12.043750,-5.913750,TRUE,-8.230469,-0.598923,0.000000,-0.641632,-0.174210,0.000000,0.008000,-0.058000,0.076000,6.120000,-3.230000,2.670000,4.279430,Hold,13.150391,51.000000,Hold,-32643.000000,69632.000000,LowGoal,1545.000000,-3272.727273,Speed,1642.500000,-3272.727273,Speed,Off,Off0.000000,44,Read: /home/lvuser/scripts/auto_44.bee,File good!,SEARCH_FOR_GOAL,SEARCH_FOR_GOAL
11:17:14.939 AM 03/20/2016,Autonomous Enabled,10,TRUE,7,Read from Text File in DoesScriptNumberContainNull.vi->Disabled.vi->Robot Main.vi<APPEND> /home/lvuser/scripts/auto_43.bee,0.000000,-151.246896,0.000000,-148.218237,FALSE,FALSE,TRUE,TRUE,FALSE,TRUE,PID,-0.293750,12.043750,-5.913750,TRUE,-8.271042,-0.609283,0.000000,-0.722000,-0.151779,0.000000,-0.213000,-0.005000,0.038000,6.170000,-3.550000,2.700000,4.294732,Hold,18.031982,51.000000,Hold,-44899.000000,69632.000000,LowGoal,2107.500000,-3272.727273,Speed,2167.500000,-3272.727273,Speed,Off,Off0.000000,44,Read: /home/lvuser/scripts/auto_44.bee,File good!,SEARCH_FOR_GOAL,SEARCH_FOR_GOAL
11:17:15.039 AM 03/20/2016,Autonomous Enabled,10,TRUE,7,Read from Text File in DoesScriptNumberContainNull.vi->Disabled.vi->Robot Main.vi<APPEND> /home/lvuser/scripts/auto_43.bee,0.000000,-152.100311,0.000000,-147.647155,FALSE,FALSE,TRUE,TRUE,FALSE,TRUE,PID,-0.293750,12.043750,-5.913750,TRUE,-8.301636,-0.617264,0.000000,-0.756241,-0.228271,0.000000,-0.036000,0.224000,0.284000,4.150000,-3.610000,2.320000,2.767194,Hold,23.207520,51.000000,Hold,-57604.000000,69632.000000,LowGoal,2527.500000,-3272.727273,Speed,2505.000000,-3272.727273,Speed,Off,Off0.000000,44,Read: /home/lvuser/scripts/auto_44.bee,File good!,SEARCH_FOR_GOAL,SEARCH_FOR_GOAL
11:17:15.139 AM 03/20/2016,Autonomous Enabled,10,TRUE,7,Read from Text File in DoesScriptNumberContainNull.vi->Disabled.vi->Robot Main.vi<APPEND> /home/lvuser/scripts/auto_43.bee,0.000000,-152.806143,0.000000,-146.697490,FALSE,FALSE,TRUE,TRUE,FALSE,TRUE,PID,-0.293750,12.043750,-5.913750,TRUE,-8.344757,-0.628876,0.000000,-0.679962,-0.213135,0.000000,0.216000,-0.148000,0.107000,0.630000,-3.760000,2.360000,-0.548117,Hold,29.297607,51.000000,Hold,-70757.000000,69632.000000,LowGoal,2812.500000,-3272.727273,Speed,2812.500000,-3272.727273,Speed,Off,Off0.000000,44,Read: /home/lvuser/scripts/auto_44.bee,File good!,SEARCH_FOR_GOAL,SEARCH_FOR_GOAL
11:17:15.239 AM 03/20/2016,Autonomous Enabled,9,TRUE,7,Read from Text File in DoesScriptNumberContainNull.vi->Disabled.vi->Robot Main.vi<APPEND> /home/lvuser/scripts/auto_43.bee,0.000000,-153.665974,0.000000,-145.998075,FALSE,FALSE,TRUE,TRUE,FALSE,TRUE,PID,-0.293750,12.043750,-5.913750,TRUE,-8.375732,-0.638214,0.000000,-0.598618,-0.135330,0.000000,0.043000,0.130000,0.346000,-2.630000,-3.010000,2.950000,-3.800966,Hold,36.170166,51.000000,Hold,-69691.000000,69632.000000,LowGoal,3015.000000,-3272.727273,Speed,3045.000000,-3272.727273,Speed,Off,Off0.000000,44,Read: /home/lvuser/scripts/auto_44.bee,File good!,SEARCH_FOR_GOAL,SEARCH_FOR_GOAL
11:17:15.339 AM 03/20/2016,Autonomous Enabled,10,TRUE,7,Read from Text File in DoesScriptNumberContainNull.vi->Disabled.vi->Robot Main.vi<APPEND> /home/lvuser/scripts/auto_43.bee,0.000000,-154.339722,0.000000,-145.208827,FALSE,FALSE,TRUE,TRUE,FALSE,TRUE,PID,-0.293750,12.043750,-5.913750,TRUE,-8.406219,-0.644913,0.000000,-0.608673,-0.202820,0.000000,0.157000,-0.288000,0.067000,-6.360000,-3.170000,2.380000,-6.708602,Hold,46.115234,51.000000,Hold,-69622.000000,69632.000000,LowGoal,3165.000000,-3272.727273,Speed,3202.500000,-3272.727273,Speed,Off,Off0.000000,44,Read: /home/lvuser/scripts/auto_44.bee,File good!,SEARCH_FOR_GOAL,SEARCH_FOR_GOAL
11:17:15.439 AM 03/20/2016,Autonomous Enabled,9,TRUE,7,Read from Text File in DoesScriptNumberContainNull.vi->Disabled.vi->Robot Main.vi<APPEND> /home/lvuser/scripts/auto_43.bee,0.000000,-154.942888,0.000000,-144.676245,FALSE,FALSE,TRUE,TRUE,FALSE,TRUE,PID,-0.293750,12.043750,-5.913750,TRUE,-8.432877,-0.655701,0.000000,-0.481827,-0.155792,0.000000,0.075000,0.165000,-0.058000,-8.520000,-3.130000,2.840000,-9.608927,Hold,53.929932,51.000000,Hold,-69622.000000,69632.000000,LowGoal,3202.500000,-3272.727273,Speed,3225.000000,-3272.727273,Speed,Off,Off0.000000,44,Read: /home/lvuser/scripts/auto_44.bee,File good!,SEARCH_FOR_GOAL,SEARCH_FOR_GOAL
11:17:15.539 AM 03/20/2016,Autonomous Enabled,9,TRUE,7,Read from Text File in DoesScriptNumberContainNull.vi->Disabled.vi->Robot Main.vi<APPEND> /home/lvuser/scripts/auto_43.bee,0.000000,-154.403889,0.000000,-145.484743,FALSE,FALSE,TRUE,TRUE,FALSE,TRUE,PID,-0.293750,12.043750,-5.913750,TRUE,-8.454483,-0.658173,0.000000,-0.407761,-0.029648,0.000000,0.154000,-0.246000,0.083000,-7.590000,-2.110000,3.890000,-9.328782,Hold,56.622070,51.000000,Hold,-69743.000000,69632.000000,LowGoal,3157.500000,-3272.727273,Speed,3187.500000,-3272.727273,Speed,Off,Off0.000000,44,Read: /home/lvuser/scripts/auto_44.bee,File good!,SEARCH_FOR_GOAL,SEARCH_FOR_GOAL
11:17:15.639 AM 03/20/2016,Autonomous Enabled,9,TRUE,7,Read from Text File in DoesScriptNumberContainNull.vi->Disabled.vi->Robot Main.vi<APPEND> /home/lvuser/scripts/auto_43.bee,0.000000,-153.807140,0.000000,-146.209825,FALSE,FALSE,TRUE,TRUE,FALSE,TRUE,PID,-0.293750,12.043750,-5.913750,TRUE,-8.475327,-0.664795,0.000000,-0.430984,-0.201904,0.000000,-0.142000,-0.160000,0.272000,-4.490000,-1.840000,3.220000,-6.278104,Hold,56.245117,51.000000,Hold,-69728.000000,69632.000000,LowGoal,3142.500000,-3272.727273,Speed,3180.000000,-3272.727273,Speed,Off,Off0.000000,44,Read: /home/lvuser/scripts/auto_44.bee,File good!,SEARCH_FOR_GOAL,SEARCH_FOR_GOAL
11:17:15.739 AM 03/20/2016,Autonomous Enabled,8,FALSE,0,NO ERROR,0.000000,-154.127973,0.000000,-145.747826,TRUE,FALSE,TRUE,TRUE,FALSE,FALSE,PID,0.040625,12.043750,-5.913750,TRUE,-8.498993,-0.677017,0.000000,-0.481201,-0.243683,0.000000,-0.191000,0.206000,0.033000,-4.530000,-2.280000,2.700000,-5.791763,Hold,56.022705,51.000000,Hold,-69728.000000,69632.000000,LowGoal,3187.500000,-3272.727273,Speed,3187.500000,-3272.727273,Speed,Off,Off0.000000,44,Read: /home/lvuser/scripts/auto_44.bee,File good!,SHOOT,SHOOT
11:17:15.839 AM 03/20/2016,Autonomous Enabled,6,FALSE,0,NO ERROR,0.000000,-154.589972,0.000000,-145.215244,TRUE,FALSE,TRUE,TRUE,FALSE,FALSE,Enable,0.040625,-1.665625,-3.724375,TRUE,-8.523163,-0.688950,0.000000,-0.478790,-0.241074,0.000000,-0.242000,-0.066000,-0.116000,-6.230000,-2.210000,2.580000,-7.817981,Hold,56.010742,51.000000,Hold,-69728.000000,69632.000000,Shoot,3187.500000,-3272.727273,Speed,3195.000000,-3272.727273,Speed,Off,On0.000000,44,Read: /home/lvuser/scripts/auto_44.bee,File good!,SHOOT,SHOOT
11:17:15.939 AM 03/20/2016,Autonomous Enabled,3,FALSE,0,NO ERROR,0.000000,-154.885138,0.000000,-144.907244,TRUE,FALSE,TRUE,TRUE,FALSE,FALSE,PID,0.040625,-1.665625,-3.724375,TRUE,-8.546539,-0.699982,0.000000,-0.465424,-0.206482,0.000000,0.137000,-0.060000,0.009000,-7.900000,-1.930000,2.910000,-9.137138,Hold,56.010498,51.000000,Hold,-69728.000000,69632.000000,Shoot,3187.500000,-3272.727273,Speed,3195.000000,-3272.727273,Speed,Off,On0.000000,44,Read: /home/lvuser/scripts/auto_44.bee,File good!,SHOOT,SHOOT
11:17:16.039 AM 03/20/2016,Autonomous Enabled,19,FALSE,0,NO ERROR,0.000000,-154.968554,0.000000,-144.862328,TRUE,FALSE,TRUE,TRUE,FALSE,FALSE,PID,0.040625,-1.665625,-3.724375,TRUE,-8.567368,-0.709274,0.000000,-0.408936,-0.172394,0.000000,-0.202000,0.017000,0.024000,-8.120000,-1.710000,2.940000,-9.438826,Hold,56.009766,51.000000,Hold,-69728.000000,69632.000000,Shoot,3165.000000,-3272.727273,Speed,3195.000000,-3272.727273,Speed,Off,On0.000000,44,Read: /home/lvuser/scripts/auto_44.bee,File good!,SHOOT,SHOOT
11:17:16.139 AM 03/20/2016,Autonomous Enabled,14,FALSE,0,NO ERROR,0.000000,-155.013471,0.000000,-144.862328,TRUE,FALSE,TRUE,TRUE,FALSE,FALSE,PID,0.040625,-1.665625,-3.724375,TRUE,-8.588272,-0.717712,0.000000,-0.417175,-0.166168,0.000000,-0.202000,0.017000,0.024000,-8.200000,-1.610000,2.990000,-9.519134,Hold,56.009277,51.000000,Hold,-69728.000000,69632.000000,Shoot,3157.500000,-3272.727273,Speed,3180.000000,-3272.727273,Speed,On,On0.000000,44,Read: /home/lvuser/scripts/auto_44.bee,File good!,SHOOT,SHOOT
11:17:16.239 AM 03/20/2016,Autonomous Enabled,19,FALSE,0,NO ERROR,0.000000,-155.013471,0.000000,-144.843078,FALSE,FALSE,FALSE,TRUE,FALSE,FALSE,PID,0.040625,-1.665625,-3.724375,TRUE,-8.607712,-0.725037,0.000000,-0.371109,-0.137375,0.000000,0.063000,0.195000,0.079000,-8.250000,-1.630000,3.000000,-9.574797,Hold,56.009033,51.000000,Hold,-69728.000000,69632.000000,Shoot,3142.500000,-3272.727273,Speed,3090.000000,-3272.727273,Speed,On,On0.000000,44,Read: /home/lvuser/scripts/auto_44.bee,File good!,SHOOT,SHOOT
11:17:16.339 AM 03/20/2016,Autonomous Enabled,4,FALSE,0,NO ERROR,0.000000,-155.039137,0.000000,-144.836661,TRUE,FALSE,FALSE,TRUE,FALSE,FALSE,PID,0.040625,-1.665625,-3.724375,TRUE,-8.625000,-0.731689,0.000000,-0.354095,-0.165543,0.000000,0.063000,0.195000,0.079000,-8.360000,-1.430000,2.870000,-9.644554,Hold,56.009033,51.000000,Hold,-69728.000000,69632.000000,Shoot,2167.500000,-3272.727273,Speed,2205.000000,-3272.727273,Speed,On,On0.000000,44,Read: /home/lvuser/scripts/auto_44.bee,File good!,SHOOT,SHOOT
11:17:16.441 AM 03/20/2016,Autonomous Enabled,9,FALSE,0,NO ERROR,0.000000,-155.039137,0.000000,-144.836661,TRUE,FALSE,FALSE,TRUE,FALSE,FALSE,PID,0.040625,-1.665625,-3.724375,TRUE,-8.641846,-0.741760,0.000000,-0.344559,-0.163208,0.000000,0.074000,-0.165000,-0.036000,-8.360000,-1.430000,2.870000,-9.660179,Hold,56.009033,51.000000,Hold,-69728.000000,69632.000000,Shoot,2347.500000,-3272.727273,Speed,2317.500000,-3272.727273,Speed,On,On0.000000,44,Read: /home/lvuser/scripts/auto_44.bee,File good!,SHOOT,SHOOT
11:17:16.541 AM 03/20/2016,Autonomous Enabled,17,FALSE,0,NO ERROR,0.000000,-155.045554,0.000000,-144.836661,TRUE,FALSE,FALSE,TRUE,FALSE,FALSE,PID,0.040625,-1.665625,-3.724375,TRUE,-8.658508,-0.748947,0.000000,-0.348099,-0.146545,0.000000,0.016000,0.285000,-0.022000,-8.400000,-1.290000,2.870000,-9.675922,Hold,56.009033,51.000000,Hold,-69728.000000,69632.000000,Shoot,2722.500000,-3272.727273,Speed,2677.500000,-3272.727273,Speed,On,On0.000000,44,Read: /home/lvuser/scripts/auto_44.bee,File good!,SHOOT,SHOOT
11:17:16.642 AM 03/20/2016,Autonomous Enabled,20,FALSE,0,NO ERROR,0.000000,-155.058387,0.000000,-144.836661,TRUE,FALSE,FALSE,TRUE,FALSE,FALSE,PID,0.040625,-1.665625,-3.724375,TRUE,-8.675552,-0.759583,0.000000,-0.267899,-0.169144,0.000000,0.402000,-0.352000,-0.077000,-8.430000,-1.190000,2.780000,-9.680377,Hold,56.008301,51.000000,Hold,-69728.000000,69632.000000,Shoot,2962.500000,-3272.727273,Speed,2917.500000,-3272.727273,Speed,On,On0.000000,44,Read: /home/lvuser/scripts/auto_44.bee,File good!,SHOOT,SHOOT
11:17:16.742 AM 03/20/2016,Autonomous Enabled,29,FALSE,0,NO ERROR,0.000000,-155.077637,0.000000,-144.836661,TRUE,FALSE,FALSE,TRUE,FALSE,FALSE,PID,0.059375,-1.665625,-3.724375,TRUE,-8.685974,-0.766357,0.000000,-0.264145,-0.165222,0.000000,0.151000,-0.126000,-0.022000,-8.430000,-1.190000,2.780000,-9.726005,Hold,56.008057,51.000000,Hold,-69728.000000,69632.000000,Shoot,3187.500000,-3272.727273,Speed,3195.000000,-3272.727273,Speed,On,On0.000000,44,Read: /home/lvuser/scripts/auto_44.bee,File good!,SHOOT,SHOOT
11:17:16.842 AM 03/20/2016,Autonomous Enabled,10,FALSE,0,NO ERROR,0.000000,-155.122554,0.000000,-144.836661,TRUE,FALSE,FALSE,TRUE,FALSE,FALSE,Enable,0.059375,-2.434375,-6.055625,TRUE,-8.703033,-0.776047,0.000000,-0.294006,-0.168564,0.000000,-0.237000,0.050000,0.019000,-8.470000,-1.080000,2.810000,-9.799872,Hold,56.007812,51.000000,Hold,-69728.000000,69632.000000,Shoot,3247.500000,-3272.727273,Speed,3262.500000,-3272.727273,Speed,On,On0.000000,44,Read: /home/lvuser/scripts/auto_44.bee,File good!,SHOOT,SHOOT
11:17:16.942 AM 03/20/2016,Autonomous Enabled,9,FALSE,0,NO ERROR,0.000000,-155.128971,0.000000,-144.836661,TRUE,FALSE,FALSE,TRUE,FALSE,FALSE,PID,0.059375,-2.434375,-6.055625,TRUE,-8.718628,-0.785721,0.000000,-0.309769,-0.203278,0.000000,-0.293000,-0.014000,-0.020000,-8.540000,-1.060000,2.790000,-9.855249,Hold,56.007324,51.000000,Hold,-69728.000000,69632.000000,Shoot,3202.500000,-3272.727273,Speed,3210.000000,-3272.727273,Speed,On,On0.000000,44,Read: /home/lvuser/scripts/auto_44.bee,File good!,SHOOT,SHOOT
11:17:17.043 AM 03/20/2016,Autonomous Enabled,10,FALSE,0,NO ERROR,0.000000,-155.135387,0.000000,-144.830245,TRUE,FALSE,FALSE,TRUE,FALSE,FALSE,PID,0.059375,-2.434375,-6.055625,TRUE,-8.718628,-0.785721,0.000000,-0.309769,-0.203278,0.000000,-0.087000,-0.140000,-0.022000,-8.590000,-1.050000,2.740000,-9.857617,Hold,56.007080,51.000000,Hold,-69728.000000,69632.000000,Shoot,3187.500000,-3272.727273,Speed,3180.000000,-3272.727273,Speed,On,On0.000000,44,Read: /home/lvuser/scripts/auto_44.bee,File good!,SHOOT,SHOOT
11:17:17.144 AM 03/20/2016,Autonomous Enabled,10,FALSE,0,NO ERROR,0.000000,-155.135387,0.000000,-144.830245,TRUE,FALSE,FALSE,TRUE,FALSE,FALSE,PID,0.059375,-2.434375,-6.055625,TRUE,-8.733276,-0.794830,0.000000,-0.289551,-0.170456,0.000000,0.152000,-0.038000,0.073000,-8.600000,-0.970000,2.790000,-9.846825,Hold,56.006592,51.000000,Hold,-69728.000000,69632.000000,Shoot,3180.000000,-3272.727273,Speed,3195.000000,-3272.727273,Speed,On,On0.000000,44,Read: /home/lvuser/scripts/auto_44.bee,File good!,SHOOT,SHOOT
11:17:17.245 AM 03/20/2016,Autonomous Enabled,9,FALSE,0,NO ERROR,0.000000,-155.148221,0.000000,-144.830245,TRUE,FALSE,FALSE,TRUE,FALSE,FALSE,PID,0.059375,-2.434375,-6.055625,TRUE,-8.748260,-0.803329,0.000000,-0.307449,-0.187973,0.000000,-0.193000,-0.175000,-0.112000,-8.600000,-0.920000,2.740000,-9.858739,Hold,56.006104,51.000000,Hold,-69728.000000,69632.000000,Shoot,3165.000000,-3272.727273,Speed,3195.000000,-3272.727273,Speed,On,On0.000000,44,Read: /home/lvuser/scripts/auto_44.bee,File good!,WAIT 500,WAIT
11:17:17.347 AM 03/20/2016,Autonomous Enabled,10,FALSE,0,NO ERROR,0.000000,-155.154637,0.000000,-144.830245,TRUE,FALSE,FALSE,TRUE,FALSE,FALSE,PID,0.059375,-2.434375,-6.055625,TRUE,-8.763092,-0.812561,0.000000,-0.276917,-0.157578,0.000000,0.053000,0.119000,0.065000,-8.620000,-0.910000,2.730000,-9.871924,Hold,56.005371,51.000000,Hold,-69728.000000,69632.000000,Shoot,3172.500000,-3272.727273,Speed,3187.500000,-3272.727273,Speed,On,On0.000000,44,Read: /home/lvuser/scripts/auto_44.bee,File good!,WAIT 500,WAIT
11:17:17.447 AM 03/20/2016,Autonomous Enabled,10,FALSE,0,NO ERROR,0.000000,-155.180304,0.000000,-144.830245,TRUE,FALSE,FALSE,TRUE,FALSE,FALSE,PID,0.059375,-2.434375,-6.055625,TRUE,-8.776031,-0.820587,0.000000,-0.261673,-0.170120,0.000000,0.180000,0.065000,0.121000,-8.640000,-0.910000,2.780000,-9.871924,Hold,56.005371,51.000000,Hold,-69728.000000,69632.000000,Shoot,3180.000000,-3272.727273,Speed,3195.000000,-3272.727273,Speed,On,On0.000000,44,Read: /home/lvuser/scripts/auto_44.bee,File good!,WAIT 500,WAIT
11:17:17.548 AM 03/20/2016,Autonomous Enabled,9,FALSE,0,NO ERROR,0.000000,-155.180304,0.000000,-144.830245,TRUE,FALSE,FALSE,TRUE,FALSE,FALSE,PID,0.059375,-2.434375,-6.055625,TRUE,-8.790237,-0.829239,0.000000,-0.284607,-0.169144,0.000000,-0.182000,-0.144000,-0.039000,-8.690000,-0.830000,2.800000,-9.909655,Hold,56.005127,51.000000,Hold,-69728.000000,69632.000000,Shoot,3172.500000,-3272.727273,Speed,3202.500000,-3272.727273,Speed,On,On0.000000,44,Read: /home/lvuser/scripts/auto_44.bee,File good!,WAIT 500,WAIT
11:17:17.648 AM 03/20/2016,Autonomous Enabled,10,FALSE,0,NO ERROR,0.000000,-155.180304,0.000000,-144.830245,TRUE,FALSE,FALSE,TRUE,FALSE,FALSE,PID,0.059375,-2.434375,-6.055625,TRUE,-8.806396,-0.837784,0.000000,-0.253006,-0.137909,0.000000,-0.039000,-0.020000,-0.085000,-8.700000,-0.840000,2.740000,-9.927814,Hold,56.005127,51.000000,Hold,-69728.000000,69632.000000,Shoot,3157.500000,-3272.727273,Speed,3195.000000,-3272.727273,Speed,On,On0.000000,44,Read: /home/lvuser/scripts/auto_44.bee,File good!,WAIT 500,WAIT
11:17:17.748 AM 03/20/2016,Autonomous Enabled,10,FALSE,0,NO ERROR,0.000000,-155.199554,0.000000,-144.830245,TRUE,FALSE,FALSE,TRUE,FALSE,FALSE,PID,0.068750,-2.434375,-6.055625,TRUE,-8.819077,-0.847061,0.000000,-0.271561,-0.217621,0.000000,-0.110000,-0.203000,0.001000,-8.730000,-0.830000,2.760000,-9.954288,Hold,56.004639,51.000000,Hold,-69728.000000,69632.000000,Dwell,3172.500000,-3272.727273,Speed,3187.500000,-3272.727273,Speed,On,On0.000000,44,Read: /home/lvuser/scripts/auto_44.bee,File good!,WAIT 500,WAIT
11:17:17.849 AM 03/20/2016,Autonomous Enabled,11,FALSE,0,NO ERROR,0.000000,-155.199554,0.000000,-144.830245,TRUE,FALSE,FALSE,TRUE,FALSE,FALSE,PID,0.068750,-2.434375,-6.055625,TRUE,-8.831345,-0.859360,0.000000,-0.225464,-0.256577,0.000000,-0.110000,-0.203000,0.001000,-8.740000,-0.780000,2.740000,-9.968381,Hold,56.003906,51.000000,Hold,-69728.000000,69632.000000,Dwell,3180.000000,-3272.727273,Speed,3187.500000,-3272.727273,Speed,Off,Off0.000000,44,Read: /home/lvuser/scripts/auto_44.bee,File good!,STOP_ALL,STOP_ALL
11:17:17.950 AM 03/20/2016,Autonomous Enabled,10,FALSE,0,NO ERROR,0.000000,-155.000638,0.000000,-144.920078,TRUE,FALSE,FALSE,TRUE,FALSE,FALSE,PID,0.068750,-2.434375,-6.055625,TRUE,-8.831345,-0.859360,0.000000,-0.225464,-0.256577,0.000000,0.111000,-0.080000,0.118000,-8.740000,-0.780000,2.740000,-9.552421,Hold,56.002930,51.000000,Hold,-69728.000000,69632.000000,Dwell,3180.000000,-3272.727273,Speed,3187.500000,-3272.727273,Speed,Off,Off0.000000,44,Read: /home/lvuser/scripts/auto_44.bee,File good!,STOP_ALL,STOP_ALL
11:17:18.050 AM 03/20/2016,Autonomous Enabled,9,FALSE,0,NO ERROR,0.000000,-154.981388,0.000000,-144.920078,TRUE,FALSE,FALSE,TRUE,FALSE,FALSE,PID,0.068750,-2.434375,-6.055625,TRUE,-8.861923,-0.888412,0.000000,-0.235703,-0.239838,0.000000,-0.048000,-0.207000,-0.116000,-8.240000,-0.660000,2.690000,-9.520697,Hold,56.001221,51.000000,Hold,-69728.000000,69632.000000,Dwell,3195.000000,-3272.727273,Speed,3225.000000,-3272.727273,Speed,Off,Off0.000000,44,Read: /home/lvuser/scripts/auto_44.bee,File good!,STOP_ALL,STOP_ALL
11:17:18.152 AM 03/20/2016,Autonomous Enabled,10,FALSE,0,NO ERROR,0.000000,-154.981388,0.000000,-144.920078,TRUE,FALSE,FALSE,TRUE,FALSE,FALSE,PID,0.068750,-2.434375,-6.055625,TRUE,-8.874756,-0.899872,0.000000,-0.256088,-0.205536,0.000000,-0.148000,-0.055000,-0.052000,-8.240000,-0.660000,2.690000,-9.514577,Hold,56.000244,51.000000,Hold,-69728.000000,69632.000000,Dwell,3202.500000,-3272.727273,Speed,3225.000000,-3272.727273,Speed,Off,Off0.000000,44,Read: /home/lvuser/scripts/auto_44.bee,File good!,STOP_ALL,STOP_ALL
11:17:18.253 AM 03/20/2016,Autonomous Enabled,10,FALSE,0,NO ERROR,0.000000,-154.981388,0.000000,-144.920078,TRUE,FALSE,FALSE,TRUE,FALSE,FALSE,PID,0.068750,-2.434375,-6.055625,TRUE,-8.885696,-0.901520,0.000000,-0.186447,0.005188,0.000000,0.062000,0.011000,-0.123000,-8.240000,-0.710000,2.740000,-9.516838,Hold,55.996826,51.000000,Hold,-69728.000000,69632.000000,Dwell,3202.500000,-3272.727273,Speed,3210.000000,-3272.727273,Speed,Off,Off0.000000,44,Read: /home/lvuser/scripts/auto_44.bee,File good!,STOP_ALL,STOP_ALL
11:17:18.353 AM 03/20/2016,Autonomous Enabled,10,FALSE,0,NO ERROR,0.000000,-154.981388,0.000000,-144.920078,TRUE,FALSE,FALSE,TRUE,FALSE,FALSE,PID,0.068750,-2.434375,-6.055625,TRUE,-8.895370,-0.902344,0.000000,-0.212692,-0.024185,0.000000,0.071000,0.006000,0.175000,-8.240000,-0.600000,2.700000,-9.524501,Hold,55.974609,51.000000,Hold,-69728.000000,69632.000000,Dwell,3195.000000,-3272.727273,Speed,3210.000000,-3272.727273,Speed,Off,Off0.000000,44,Read: /home/lvuser/scripts/auto_44.bee,File good!,STOP_ALL,STOP_ALL
11:17:18.453 AM 03/20/2016,Autonomous Enabled,11,FALSE,0,NO ERROR,0.000000,-154.981388,0.000000,-144.920078,TRUE,FALSE,FALSE,TRUE,FALSE,FALSE,PID,0.068750,-2.434375,-6.055625,TRUE,-8.909119,-0.901901,0.000000,-0.308670,0.033112,0.000000,-0.176000,0.055000,-0.006000,-8.240000,-0.600000,2.700000,-9.528849,Hold,55.929932,51.000000,Hold,-69728.000000,69632.000000,Dwell,3202.500000,-3272.727273,Speed,3217.500000,-3272.727273,Speed,Off,Off0.000000,44,Read: /home/lvuser/scripts/auto_44.bee,File good!,STOP_ALL,STOP_ALL
11:17:18.553 AM 03/20/2016,Autonomous Enabled,10,FALSE,0,NO ERROR,0.000000,-154.981388,0.000000,-144.920078,TRUE,FALSE,FALSE,TRUE,FALSE,FALSE,PID,0.068750,-2.434375,-6.055625,TRUE,-8.923508,-0.899887,0.000000,-0.247467,0.028381,0.000000,0.045000,0.001000,-0.001000,-8.240000,-0.560000,2.750000,-9.528815,Hold,55.918701,51.000000,Hold,-69728.000000,69632.000000,Dwell,3202.500000,-3272.727273,Speed,3217.500000,-3272.727273,Speed,Off,Off0.000000,44,Read: /home/lvuser/scripts/auto_44.bee,File good!,STOP_ALL,STOP_ALL
11:17:18.653 AM 03/20/2016,Autonomous Enabled,11,FALSE,0,NO ERROR,0.000000,-154.981388,0.000000,-144.920078,TRUE,FALSE,FALSE,TRUE,FALSE,FALSE,PID,0.068750,-2.434375,-6.055625,TRUE,-8.932953,-0.901871,0.000000,-0.174698,-0.065201,0.000000,0.093000,-0.192000,-0.108000,-8.250000,-0.540000,2.730000,-9.528305,Hold,55.917480,51.000000,Hold,-69728.000000,69632.000000,Dwell,3202.500000,-3272.727273,Speed,3210.000000,-3272.727273,Speed,Off,Off0.000000,44,Read: /home/lvuser/scripts/auto_44.bee,File good!,STOP_ALL,STOP_ALL
11:17:18.753 AM 03/20/2016,Autonomous Enabled,10,FALSE,0,NO ERROR,0.000000,-154.981388,0.000000,-144.920078,TRUE,FALSE,FALSE,TRUE,FALSE,FALSE,PID,0.050000,-2.434375,-6.055625,TRUE,-8.943359,-0.902420,0.000000,-0.241165,0.021790,0.000000,-0.137000,0.130000,-0.031000,-8.250000,-0.490000,2.650000,-9.528120,Hold,55.915527,51.000000,Hold,-69728.000000,69632.000000,Empty,3217.500000,0.000000,Speed,3217.500000,0.000000,Speed,Off,Off0.000000,44,Read: /home/lvuser/scripts/auto_44.bee,File good!,STOP_ALL,STOP_ALL
11:17:18.853 AM 03/20/2016,Autonomous Enabled,11,FALSE,0,NO ERROR,0.000000,-154.981388,0.000000,-144.920078,TRUE,FALSE,FALSE,TRUE,FALSE,FALSE,PID,0.050000,-2.434375,-6.055625,TRUE,-8.956055,-0.902710,0.000000,-0.243576,-0.026855,0.000000,-0.034000,-0.098000,-0.043000,-8.250000,-0.450000,2.700000,-9.543160,Hold,55.878418,51.000000,Hold,-69728.000000,69632.000000,Empty,3210.000000,0.000000,Speed,3180.000000,0.000000,Speed,Off,Off0.000000,44,Read: /home/lvuser/scripts/auto_44.bee,File good!,STOP_ALL,STOP_ALL
11:17:18.954 AM 03/20/2016,Autonomous Enabled,10,FALSE,0,NO ERROR,0.000000,-154.981388,0.000000,-144.920078,TRUE,FALSE,FALSE,TRUE,FALSE,FALSE,PID,0.050000,-2.434375,-6.055625,TRUE,-8.970276,-0.906784,0.000000,-0.233124,-0.067017,0.000000,0.120000,-0.149000,-0.028000,-8.260000,-0.460000,2.750000,-9.541435,Hold,55.862549,51.000000,Hold,-69728.000000,69632.000000,Empty,2970.000000,0.000000,Speed,2947.500000,0.000000,Speed,Off,Off0.000000,44,Read: /home/lvuser/scripts/auto_44.bee,File good!,STOP_ALL,STOP_ALL
11:17:19.054 AM 03/20/2016,Autonomous Enabled,11,FALSE,0,NO ERROR,0.000000,-154.981388,0.000000,-144.920078,TRUE,FALSE,FALSE,TRUE,FALSE,FALSE,PID,0.050000,-2.434375,-6.055625,TRUE,-8.970276,-0.906784,0.000000,-0.233124,-0.067017,0.000000,0.124000,-0.022000,0.019000,-8.250000,-0.420000,2.770000,-9.559268,Hold,55.862549,51.000000,Hold,-69728.000000,69632.000000,Empty,2692.500000,0.000000,Speed,2662.500000,0.000000,Speed,Off,Off0.000000,44,Read: /home/lvuser/scripts/auto_44.bee,File good!,STOP_ALL,STOP_ALL
11:17:19.155 AM 03/20/2016,Autonomous Enabled,11,FALSE,0,NO ERROR,0.000000,-154.981388,0.000000,-144.920078,TRUE,FALSE,FALSE,TRUE,FALSE,FALSE,PID,0.050000,-2.434375,-6.055625,TRUE,-8.982361,-0.908203,0.000000,-0.264954,0.009232,0.000000,0.151000,0.016000,-0.030000,-8.250000,-0.450000,2.770000,-9.559268,Hold,55.862549,51.000000,Hold,-69728.000000,69632.000000,Empty,2445.000000,0.000000,Speed,2385.000000,0.000000,Speed,Off,Off0.000000,44,Read: /home/lvuser/scripts/auto_44.bee,File good!,STOP_ALL,STOP_ALL
11:17:19.256 AM 03/20/2016,Autonomous Enabled,11,FALSE,0,NO ERROR,0.000000,-154.981388,0.000000,-144.920078,TRUE,FALSE,FALSE,TRUE,FALSE,FALSE,PID,0.050000,-2.434375,-6.055625,TRUE,-8.993271,-0.909988,0.000000,-0.189178,-0.101440,0.000000,0.019000,-0.194000,0.061000,-8.260000,-0.400000,2.770000,-9.575355,Hold,55.861572,51.000000,Hold,-69728.000000,69632.000000,Empty,2205.000000,0.000000,Speed,2107.500000,0.000000,Speed,Off,Off0.000000,44,Read: /home/lvuser/scripts/auto_44.bee,File good!,STOP_ALL,STOP_ALL
11:17:19.356 AM 03/20/2016,Autonomous Enabled,11,FALSE,0,NO ERROR,0.000000,-154.981388,0.000000,-144.920078,TRUE,FALSE,FALSE,TRUE,FALSE,FALSE,PID,0.050000,-2.434375,-6.055625,TRUE,-9.001892,-0.919281,0.000000,-0.173401,-0.207352,0.000000,-0.020000,-0.068000,0.034000,-8.250000,-0.380000,2.740000,-9.560648,Hold,55.861572,51.000000,Hold,-69728.000000,69632.000000,Empty,2040.000000,0.000000,Speed,1845.000000,0.000000,Speed,Off,Off0.000000,44,Read: /home/lvuser/scripts/auto_44.bee,File good!,STOP_ALL,STOP_ALL
11:17:19.456 AM 03/20/2016,Autonomous Enabled,10,FALSE,0,NO ERROR,0.000000,-154.981388,0.000000,-144.920078,TRUE,FALSE,FALSE,TRUE,FALSE,FALSE,PID,0.050000,-2.434375,-6.055625,TRUE,-9.011108,-0.928787,0.000000,-0.187271,-0.171722,0.000000,-0.094000,-0.085000,0.026000,-8.250000,-0.380000,2.750000,-9.548758,Hold,55.840088,51.000000,Hold,-69728.000000,69632.000000,Empty,1837.500000,0.000000,Speed,1582.500000,0.000000,Speed,Off,Off0.000000,44,Read: /home/lvuser/scripts/auto_44.bee,File good!,STOP_ALL,STOP_ALL
11:17:19.556 AM 03/20/2016,Autonomous Enabled,10,FALSE,0,NO ERROR,0.000000,-154.981388,0.000000,-144.920078,TRUE,FALSE,FALSE,TRUE,FALSE,FALSE,PID,0.050000,-2.434375,-6.055625,TRUE,-9.018784,-0.937210,0.000000,0.000000,-0.171097,0.000000,-0.102000,-0.137000,-0.008000,-8.270000,-0.400000,2.770000,-9.546647,Hold,55.816162,51.000000,Hold,-69728.000000,69632.000000,Empty,1642.500000,0.000000,Speed,1327.500000,0.000000,Speed,Off,Off0.000000,44,Read: /home/lvuser/scripts/auto_44.bee,File good!,STOP_ALL,STOP_ALL
11:17:19.657 AM 03/20/2016,Autonomous Enabled,10,FALSE,0,NO ERROR,0.000000,-154.981388,0.000000,-144.920078,TRUE,FALSE,FALSE,TRUE,FALSE,FALSE,PID,0.050000,-2.434375,-6.055625,TRUE,-9.020187,-0.946289,0.000000,-0.023621,-0.190796,0.000000,0.126000,-0.033000,-0.039000,-8.270000,-0.420000,2.740000,-9.560142,Hold,55.782715,51.000000,Hold,-69728.000000,69632.000000,Empty,1470.000000,0.000000,Speed,1072.500000,0.000000,Speed,Off,Off0.000000,44,Read: /home/lvuser/scripts/auto_44.bee,File good!,STOP_ALL,STOP_ALL
