Time,Robot Mode,Loop Time,Error Status,Error Code,Error Source,Left Motor Output,Left Motor Encoder,Right Motor Output,Right Motor Encoder,Is Level,Is Stalled,Ball Detector Photoeye,Vision Enabled,Vision Teleop Control,Vision Auto Control,Vision Current State,Vision X Output,Vision NavX Error,Vision NavX Target,NavX Connection Status,NavX Displacement X,NavX Displacement Y,NavX Displacement Z,NavX Velocity X,NavX Velocity Y,NavX Velocity Z,NavX Acceleration X,NavX Acceleration Y,NavX Acceleration Z,NavX Pitch,NavX Yaw,NavX Roll,Gyro Angle,Roller Arm State,Roller Arm Actual,Roller Arm Desired,Shooter Arm State,Shooter Arm Actual,Shooter Arm Desired,Shooter State,Actual RPM Left,Desired RPM Left,Control Mode Left,Actual RPM Right,Desired RPM Right,Control Mode Right,Ball Shooter Cylinder,Ball Halo Cylinder,Scaler Motor Output,Scaler Solenoid Fire,Auto To Run,Auto Current File,Auto File Status,Auto Current Command,Auto Trimmed Command,Shooter Amps Left,Shooter Amps Right
02:25:43.323 PM 04/02/2016,Teleop Enabled,9,TRUE,-44087,NetComm_CAN_Receive.vi:5470001<APPEND>  <b>Complete call chain:</b>      NetComm_CAN_Receive.vi:5470001      WPI_CAN_PDPReceive.vi      WPI_Power Get PDP Currents.vi      Periodic Tasks.vi      Robot Main.vi,-0.000000,0.000000,-0.000000,0.000000,TRUE,FALSE,FALSE,TRUE,FALSE,FALSE,Disabled,0.000000,0.000000,0.000000,TRUE,1.693863,-1.358093,0.000000,0.000000,0.000000,0.000000,0.000000,0.000000,0.009000,0.010000,-0.260000,-0.880000,0.031734,ResetBack,1.004395,-0.000049,ResetBack,-29745.000000,-0.250000,Suck,0.000000,1818.181818,Speed,0.000000,1818.181818,Speed,Off,Off,0.000000,FALSE,0,,,,,0.000000,0.000000
02:25:43.424 PM 04/02/2016,Teleop Enabled,10,TRUE,-44087,NetComm_CAN_Receive.vi:5470001<APPEND>  <b>Complete call chain:</b>      NetComm_CAN_Receive.vi:5470001      WPI_CAN_PDPReceive.vi      WPI_Power Get PDP Currents.vi      Periodic Tasks.vi      Robot Main.vi,-0.000000,0.000000,-0.000000,0.000000,TRUE,TRUE,FALSE,TRUE,FALSE,FALSE,Disabled,0.000000,0.000000,0.000000,TRUE,1.693878,-1.357834,0.000000,-0.002045,0.012939,0.000000,-0.033000,-0.061000,-0.003000,0.010000,-0.260000,-0.910000,0.050788,ResetBack,1.004395,-0.000049,ResetBack,-27710.000000,-0.250000,Suck,-195.000000,1818.181818,Speed,-30.000000,1818.181818,Speed,Off,Off,0.000000,FALSE,0,,,,,0.000000,0.000000
02:25:43.527 PM 04/02/2016,Teleop Enabled,11,TRUE,-44087,NetComm_CAN_Receive.vi:5470001<APPEND>  <b>Complete call chain:</b>      NetComm_CAN_Receive.vi:5470001      WPI_CAN_PDPReceive.vi      WPI_Power Get PDP Currents.vi      Periodic Tasks.vi      Robot Main.vi,-0.000000,0.000000,-0.000000,0.000000,TRUE,FALSE,FALSE,TRUE,FALSE,FALSE,Disabled,0.000000,0.000000,0.000000,TRUE,1.693573,-1.358093,0.000000,-0.014999,-0.016861,0.000000,0.079000,-0.028000,0.050000,0.010000,-0.240000,-0.900000,0.055508,ResetBack,-0.013672,-0.000049,ResetBack,-22823.000000,-0.250000,Suck,-712.500000,0.000000,Speed,-67.500000,0.000000,Speed,Off,Off,0.000000,FALSE,0,,,,,0.000000,0.000000
02:25:43.627 PM 04/02/2016,Teleop Enabled,10,TRUE,-44087,NetComm_CAN_Receive.vi:5470001<APPEND>  <b>Complete call chain:</b>      NetComm_CAN_Receive.vi:5470001      WPI_CAN_PDPReceive.vi      WPI_Power Get PDP Currents.vi      Periodic Tasks.vi      Robot Main.vi,-0.000000,0.000000,-0.000000,0.000000,TRUE,FALSE,FALSE,TRUE,FALSE,FALSE,Disabled,0.000000,0.000000,0.000000,TRUE,1.693024,-1.358948,0.000000,0.005692,-0.011261,0.000000,-0.022000,0.055000,-0.078000,0.010000,-0.240000,-0.900000,0.063918,ResetBack,-0.013672,-0.000049,ResetBack,-22823.000000,-0.250000,Suck,-1110.000000,0.000000,Speed,-187.500000,0.000000,Speed,Off,Off,0.000000,FALSE,0,,,,,0.000000,0.000000
02:25:43.727 PM 04/02/2016,Teleop Enabled,10,TRUE,-44087,NetComm_CAN_Receive.vi:5470001<APPEND>  <b>Complete call chain:</b>      NetComm_CAN_Receive.vi:5470001      WPI_CAN_PDPReceive.vi      WPI_Power Get PDP Currents.vi      Periodic Tasks.vi      Robot Main.vi,-0.000000,0.000000,-0.000000,0.000000,TRUE,FALSE,FALSE,TRUE,FALSE,FALSE,Disabled,0.000000,0.000000,0.000000,TRUE,1.693390,-1.359573,0.000000,0.027756,-0.024216,0.000000,0.155000,-0.017000,0.003000,0.000000,-0.240000,-0.870000,0.057962,Reset,-0.196289,-0.000049,ResetBack,-16555.000000,-0.250000,Suck,-1110.000000,1818.181818,Speed,-292.500000,1818.181818,Speed,Off,Off,0.000000,FALSE,0,,,,,0.000000,0.000000
02:25:43.832 PM 04/02/2016,Teleop Enabled,10,TRUE,-44087,NetComm_CAN_Receive.vi:5470001<APPEND>  <b>Complete call chain:</b>      NetComm_CAN_Receive.vi:5470001      WPI_CAN_PDPReceive.vi      WPI_Power Get PDP Currents.vi      Periodic Tasks.vi      Robot Main.vi,-0.000000,0.000000,-0.000000,0.000000,TRUE,FALSE,FALSE,TRUE,FALSE,FALSE,Disabled,0.000000,0.000000,0.000000,TRUE,1.696243,-1.361267,0.000000,0.050339,-0.035278,0.000000,0.000000,0.002000,0.051000,0.000000,-0.070000,-0.990000,0.057973,Hold,0.754150,0.000000,ResetBack,-11372.000000,-0.250000,Suck,-1282.500000,1818.181818,Speed,-667.500000,1818.181818,Speed,Off,Off,0.000000,FALSE,0,,,,,0.000000,0.000000
02:25:43.935 PM 04/02/2016,Teleop Enabled,11,TRUE,-44087,NetComm_CAN_Receive.vi:5470001<APPEND>  <b>Complete call chain:</b>      NetComm_CAN_Receive.vi:5470001      WPI_CAN_PDPReceive.vi      WPI_Power Get PDP Currents.vi      Periodic Tasks.vi      Robot Main.vi,-0.000000,0.000000,-0.000000,0.000000,TRUE,FALSE,FALSE,TRUE,FALSE,FALSE,Disabled,0.000000,0.000000,0.000000,TRUE,1.697113,-1.362076,0.000000,-0.008789,-0.003616,0.000000,0.026000,0.048000,0.083000,0.010000,-0.220000,-0.900000,0.044557,Hold,1.023926,0.000000,ResetBack,-9017.000000,-0.250000,Suck,-1567.500000,1818.181818,Speed,-1140.000000,1818.181818,Speed,Off,Off,0.000000,FALSE,0,,,,,0.000000,0.000000
02:25:44.036 PM 04/02/2016,Teleop Enabled,10,TRUE,-44087,NetComm_CAN_Receive.vi:5470001<APPEND>  <b>Complete call chain:</b>      NetComm_CAN_Receive.vi:5470001      WPI_CAN_PDPReceive.vi      WPI_Power Get PDP Currents.vi      Periodic Tasks.vi      Robot Main.vi,-0.000000,0.000000,-0.000000,0.000000,TRUE,FALSE,FALSE,TRUE,FALSE,FALSE,Disabled,0.000000,0.000000,0.000000,TRUE,1.696320,-1.361404,0.000000,-0.016052,0.023682,0.000000,0.061000,-0.002000,0.118000,0.000000,-0.190000,-0.960000,0.052317,Hold,0.946289,0.000000,ResetBack,-7691.000000,-0.250000,Suck,-1747.500000,1818.181818,Speed,-1612.500000,1818.181818,Speed,Off,Off,0.000000,FALSE,0,,,,,0.000000,0.000000
02:25:44.137 PM 04/02/2016,Teleop Enabled,10,TRUE,-44087,NetComm_CAN_Receive.vi:5470001<APPEND>  <b>Complete call chain:</b>      NetComm_CAN_Receive.vi:5470001      WPI_CAN_PDPReceive.vi      WPI_Power Get PDP Currents.vi      Periodic Tasks.vi      Robot Main.vi,-0.000000,0.000000,-0.000000,0.000000,TRUE,FALSE,FALSE,TRUE,FALSE,FALSE,Disabled,0.000000,0.000000,0.000000,TRUE,1.696671,-1.357788,0.000000,-0.021210,0.124725,0.000000,-0.149000,0.215000,-0.041000,0.000000,-0.120000,-0.980000,0.059040,Hold,0.946289,0.000000,ResetBack,-5315.000000,-0.250000,Suck,-1762.500000,1818.181818,Speed,-2115.000000,1818.181818,Speed,Off,Off,0.000000,FALSE,0,,,,,0.000000,0.000000
02:25:44.239 PM 04/02/2016,Teleop Enabled,10,TRUE,-44087,NetComm_CAN_Receive.vi:5470001<APPEND>  <b>Complete call chain:</b>      NetComm_CAN_Receive.vi:5470001      WPI_CAN_PDPReceive.vi      WPI_Power Get PDP Currents.vi      Periodic Tasks.vi      Robot Main.vi,-0.000000,0.000000,-0.000000,0.000000,TRUE,FALSE,FALSE,TRUE,FALSE,FALSE,Disabled,0.000000,0.000000,0.000000,TRUE,1.692459,-1.343170,0.000000,-0.111465,0.396118,0.000000,0.004000,0.047000,0.002000,0.000000,-0.210000,-0.910000,0.065192,Hold,0.946289,0.000000,ResetBack,-3790.000000,-0.250000,Suck,-1762.500000,1818.181818,Speed,-1950.000000,1818.181818,Speed,Off,Off,0.000000,FALSE,0,,,,,0.000000,0.000000
02:25:44.338 PM 04/02/2016,Teleop Enabled,10,TRUE,-44087,NetComm_CAN_Receive.vi:5470001<APPEND>  <b>Complete call chain:</b>      NetComm_CAN_Receive.vi:5470001      WPI_CAN_PDPReceive.vi      WPI_Power Get PDP Currents.vi      Periodic Tasks.vi      Robot Main.vi,-0.000000,0.000000,-0.000000,0.000000,TRUE,FALSE,FALSE,TRUE,FALSE,FALSE,Disabled,0.000000,0.000000,0.000000,TRUE,1.687134,-1.322113,0.000000,-0.093262,0.416748,0.000000,0.003000,-0.067000,0.022000,0.010000,-0.190000,-0.870000,0.062207,Hold,0.946289,0.000000,ResetBack,-3790.000000,-0.250000,Suck,-1755.000000,1818.181818,Speed,-1695.000000,1818.181818,Speed,Off,Off,0.000000,FALSE,0,,,,,0.000000,0.000000
02:25:44.440 PM 04/02/2016,Teleop Enabled,11,TRUE,-44087,NetComm_CAN_Receive.vi:5470001<APPEND>  <b>Complete call chain:</b>      NetComm_CAN_Receive.vi:5470001      WPI_CAN_PDPReceive.vi      WPI_Power Get PDP Currents.vi      Periodic Tasks.vi      Robot Main.vi,-0.000000,0.000000,-0.000000,0.000000,TRUE,FALSE,FALSE,TRUE,FALSE,FALSE,Disabled,0.000000,0.000000,0.000000,TRUE,1.682098,-1.306137,0.000000,-0.120087,0.000000,0.000000,-0.101000,0.006000,0.064000,0.010000,-0.200000,-0.870000,0.089699,Hold,0.946289,0.000000,ResetBack,-3790.000000,-0.250000,Suck,-1747.500000,1818.181818,Speed,-1695.000000,1818.181818,Speed,Off,Off,0.000000,FALSE,0,,,,,0.000000,0.000000
02:25:44.539 PM 04/02/2016,Teleop Enabled,11,TRUE,-44005,<LOCATION>WPI_CameraWait for Raw Image String.vi:6640001<CALLSTACK>WPI_CameraWait for Raw Image String.vi:6640001< <WPI_CameraGet Image.vi< <Vision Processing.vi< <Robot Main.vi,-0.000000,0.000000,-0.000000,0.000000,TRUE,FALSE,FALSE,TRUE,FALSE,FALSE,Disabled,0.000000,0.000000,0.000000,TRUE,1.677521,-1.306137,0.000000,-0.067413,0.006500,0.000000,-0.104000,0.016000,-0.035000,0.010000,-0.200000,-0.830000,0.079678,Hold,0.946289,0.000000,ResetBack,-2499.000000,-0.250000,Suck,-1740.000000,1818.181818,Speed,-1605.000000,1818.181818,Speed,Off,Off,0.000000,FALSE,0,,,,,0.000000,0.000000
02:25:44.640 PM 04/02/2016,Teleop Enabled,10,TRUE,-44087,NetComm_CAN_Receive.vi:5470001<APPEND>  <b>Complete call chain:</b>      NetComm_CAN_Receive.vi:5470001      WPI_CAN_PDPReceive.vi      WPI_Power Get PDP Currents.vi      Periodic Tasks.vi      Robot Main.vi,-0.000000,0.000000,-0.000000,0.000000,TRUE,FALSE,FALSE,TRUE,FALSE,FALSE,Disabled,0.000000,0.000000,0.000000,TRUE,1.672714,-1.305557,0.000000,-0.099396,0.010056,0.000000,-0.031000,-0.013000,-0.001000,0.000000,-0.220000,-0.890000,0.070335,Hold,0.946289,0.000000,Reset,-2499.000000,2.000000,Suck,-1747.500000,1818.181818,Speed,-1815.000000,1818.181818,Speed,Off,Off,0.000000,FALSE,0,,,,,0.000000,0.000000
02:25:44.742 PM 04/02/2016,Teleop Enabled,11,TRUE,-44087,NetComm_CAN_Receive.vi:5470001<APPEND>  <b>Complete call chain:</b>      NetComm_CAN_Receive.vi:5470001      WPI_CAN_PDPReceive.vi      WPI_Power Get PDP Currents.vi      Periodic Tasks.vi      Robot Main.vi,-0.000000,0.000000,-0.000000,0.000000,TRUE,FALSE,FALSE,TRUE,FALSE,FALSE,Disabled,0.000000,0.000000,0.000000,TRUE,1.667160,-1.305756,0.000000,-0.102371,0.002686,0.000000,0.013000,-0.008000,0.075000,0.000000,-0.240000,-0.870000,0.071516,Hold,0.946289,0.000000,Hold,-2447.000000,2.000000,Suck,-1747.500000,1818.181818,Speed,-1785.000000,1818.181818,Speed,Off,Off,0.000000,FALSE,0,,,,,0.000000,0.000000
02:25:44.844 PM 04/02/2016,Teleop Enabled,10,TRUE,-44087,NetComm_CAN_Receive.vi:5470001<APPEND>  <b>Complete call chain:</b>      NetComm_CAN_Receive.vi:5470001      WPI_CAN_PDPReceive.vi      WPI_Power Get PDP Currents.vi      Periodic Tasks.vi      Robot Main.vi,-0.000000,0.000000,-0.000000,0.000000,TRUE,FALSE,FALSE,TRUE,FALSE,FALSE,Disabled,0.000000,0.000000,0.000000,TRUE,1.662415,-1.305664,0.000000,-0.099075,0.000641,0.000000,-0.015000,0.000000,0.049000,0.000000,-0.240000,-0.900000,0.067464,Hold,0.946289,0.000000,Hold,-157.000000,2.000000,Suck,-1747.500000,1818.181818,Speed,-1717.500000,1818.181818,Speed,Off,Off,0.000000,FALSE,0,,,,,0.000000,0.000000
02:25:44.943 PM 04/02/2016,Teleop Enabled,9,TRUE,-44087,NetComm_CAN_Receive.vi:5470001<APPEND>  <b>Complete call chain:</b>      NetComm_CAN_Receive.vi:5470001      WPI_CAN_PDPReceive.vi      WPI_Power Get PDP Currents.vi      Periodic Tasks.vi      Robot Main.vi,-0.000000,0.000000,-0.000000,0.000000,TRUE,FALSE,FALSE,TRUE,FALSE,FALSE,Disabled,0.000000,0.000000,0.000000,TRUE,1.657990,-1.305344,0.000000,-0.094437,0.016449,0.000000,0.118000,0.033000,0.122000,0.000000,-0.240000,-0.880000,0.043838,Hold,0.946289,0.000000,Hold,-157.000000,2.000000,Suck,-1755.000000,1818.181818,Speed,-1717.500000,1818.181818,Speed,Off,Off,0.000000,FALSE,0,,,,,0.000000,0.000000
02:25:45.044 PM 04/02/2016,Teleop Enabled,10,TRUE,-44087,NetComm_CAN_Receive.vi:5470001<APPEND>  <b>Complete call chain:</b>      NetComm_CAN_Receive.vi:5470001      WPI_CAN_PDPReceive.vi      WPI_Power Get PDP Currents.vi      Periodic Tasks.vi      Robot Main.vi,-0.000000,0.000000,-0.000000,0.000000,TRUE,FALSE,FALSE,TRUE,FALSE,FALSE,Disabled,0.000000,0.000000,0.000000,TRUE,1.654221,-1.304840,0.000000,-0.089859,0.000610,0.000000,0.129000,0.096000,0.097000,0.000000,-0.240000,-0.880000,0.035689,Hold,0.946289,0.000000,Hold,-157.000000,2.000000,Suck,-1755.000000,1818.181818,Speed,-1695.000000,1818.181818,Speed,Off,Off,0.000000,FALSE,0,,,,,0.000000,0.000000
02:25:45.144 PM 04/02/2016,Teleop Enabled,11,TRUE,-44087,NetComm_CAN_Receive.vi:5470001<APPEND>  <b>Complete call chain:</b>      NetComm_CAN_Receive.vi:5470001      WPI_CAN_PDPReceive.vi      WPI_Power Get PDP Currents.vi      Periodic Tasks.vi      Robot Main.vi,-0.000000,0.000000,-0.000000,0.000000,TRUE,FALSE,FALSE,TRUE,FALSE,FALSE,Disabled,0.000000,0.000000,0.000000,TRUE,1.650330,-1.304581,0.000000,-0.073608,0.004837,0.000000,-0.009000,-0.004000,-0.010000,0.000000,-0.220000,-0.900000,0.049036,Hold,0.946289,0.000000,Hold,-157.000000,2.000000,Suck,-1755.000000,1818.181818,Speed,-1717.500000,1818.181818,Speed,Off,Off,0.000000,FALSE,0,,,,,0.000000,0.000000
02:25:45.244 PM 04/02/2016,Teleop Enabled,11,TRUE,-44087,NetComm_CAN_Receive.vi:5470001<APPEND>  <b>Complete call chain:</b>      NetComm_CAN_Receive.vi:5470001      WPI_CAN_PDPReceive.vi      WPI_Power Get PDP Currents.vi      Periodic Tasks.vi      Robot Main.vi,-0.000000,0.000000,-0.000000,0.000000,TRUE,FALSE,FALSE,TRUE,FALSE,FALSE,Disabled,0.000000,0.000000,0.000000,TRUE,1.647400,-1.304260,0.000000,-0.054855,0.004578,0.000000,0.013000,-0.067000,0.010000,0.000000,-0.220000,-0.880000,0.042746,Hold,0.946289,0.000000,Hold,-157.000000,2.000000,Suck,-1755.000000,1818.181818,Speed,-1747.500000,1818.181818,Speed,Off,Off,0.000000,FALSE,0,,,,,0.000000,0.000000
02:25:45.345 PM 04/02/2016,Teleop Enabled,10,TRUE,-44087,NetComm_CAN_Receive.vi:5470001<APPEND>  <b>Complete call chain:</b>      NetComm_CAN_Receive.vi:5470001      WPI_CAN_PDPReceive.vi      WPI_Power Get PDP Currents.vi      Periodic Tasks.vi      Robot Main.vi,-0.000000,0.000000,-0.000000,0.000000,TRUE,FALSE,FALSE,TRUE,FALSE,FALSE,Disabled,0.000000,0.000000,0.000000,TRUE,1.644928,-1.304276,0.000000,-0.055389,0.011276,0.000000,0.019000,0.020000,0.029000,0.000000,-0.220000,-0.920000,0.035758,Hold,0.946289,0.000000,Hold,-157.000000,2.000000,Suck,-1762.500000,1818.181818,Speed,-1755.000000,1818.181818,Speed,Off,Off,0.000000,FALSE,0,,,,,0.000000,0.000000
02:25:45.448 PM 04/02/2016,Teleop Enabled,9,TRUE,-44087,NetComm_CAN_Receive.vi:5470001<APPEND>  <b>Complete call chain:</b>      NetComm_CAN_Receive.vi:5470001      WPI_CAN_PDPReceive.vi      WPI_Power Get PDP Currents.vi      Periodic Tasks.vi      Robot Main.vi,-0.000000,0.000000,-0.000000,0.000000,TRUE,FALSE,FALSE,TRUE,FALSE,FALSE,Disabled,0.000000,0.000000,0.000000,TRUE,1.642670,-1.303513,0.000000,-0.060364,0.025360,0.000000,0.002000,0.102000,0.110000,0.000000,-0.190000,-0.940000,0.034143,Hold,0.946289,0.000000,Hold,-157.000000,2.000000,Suck,-1762.500000,1818.181818,Speed,-1740.000000,1818.181818,Speed,Off,Off,0.000000,FALSE,0,,,,,0.000000,0.000000
02:25:45.551 PM 04/02/2016,Teleop Enabled,9,TRUE,-44087,NetComm_CAN_Receive.vi:5470001<APPEND>  <b>Complete call chain:</b>      NetComm_CAN_Receive.vi:5470001      WPI_CAN_PDPReceive.vi      WPI_Power Get PDP Currents.vi      Periodic Tasks.vi      Robot Main.vi,-0.000000,0.000000,-0.000000,0.000000,TRUE,FALSE,FALSE,TRUE,FALSE,FALSE,Disabled,0.000000,0.000000,0.000000,TRUE,1.639420,-1.300949,0.000000,-0.077148,0.053940,0.000000,-0.042000,-0.064000,0.054000,0.000000,-0.220000,-0.880000,0.034099,Hold,0.946289,0.000000,Hold,-157.000000,2.000000,Suck,-1755.000000,1818.181818,Speed,-1710.000000,1818.181818,Speed,Off,Off,0.000000,FALSE,0,,,,,0.000000,0.000000
02:25:45.652 PM 04/02/2016,Teleop Enabled,10,TRUE,-44087,NetComm_CAN_Receive.vi:5470001<APPEND>  <b>Complete call chain:</b>      NetComm_CAN_Receive.vi:5470001      WPI_CAN_PDPReceive.vi      WPI_Power Get PDP Currents.vi      Periodic Tasks.vi      Robot Main.vi,-0.000000,0.000000,-0.000000,0.000000,TRUE,FALSE,FALSE,TRUE,FALSE,FALSE,Disabled,0.000000,0.000000,0.000000,TRUE,1.636856,-1.299713,0.000000,-0.053833,0.005203,0.000000,0.034000,-0.011000,0.041000,0.000000,-0.230000,-0.910000,0.039789,Hold,0.946289,0.000000,Hold,-157.000000,2.000000,Suck,-1747.500000,1818.181818,Speed,-1695.000000,1818.181818,Speed,Off,Off,0.000000,FALSE,0,,,,,0.000000,0.000000
02:25:45.755 PM 04/02/2016,Teleop Enabled,10,TRUE,-44087,NetComm_CAN_Receive.vi:5470001<APPEND>  <b>Complete call chain:</b>      NetComm_CAN_Receive.vi:5470001      WPI_CAN_PDPReceive.vi      WPI_Power Get PDP Currents.vi      Periodic Tasks.vi      Robot Main.vi,-0.000000,0.000000,-0.000000,0.000000,TRUE,FALSE,FALSE,TRUE,FALSE,FALSE,Disabled,0.000000,0.000000,0.000000,TRUE,1.634842,-1.299530,0.000000,-0.043167,0.003021,0.000000,-0.007000,0.008000,0.061000,0.000000,-0.200000,-0.940000,0.040540,Hold,0.946289,0.000000,Hold,-157.000000,2.000000,Suck,-1732.500000,1818.181818,Speed,-1717.500000,1818.181818,Speed,Off,Off,0.000000,FALSE,0,,,,,0.000000,0.000000
02:25:45.855 PM 04/02/2016,Teleop Enabled,9,TRUE,-44087,NetComm_CAN_Receive.vi:5470001<APPEND>  <b>Complete call chain:</b>      NetComm_CAN_Receive.vi:5470001      WPI_CAN_PDPReceive.vi      WPI_Power Get PDP Currents.vi      Periodic Tasks.vi      Robot Main.vi,-0.000000,0.000000,-0.000000,0.000000,TRUE,FALSE,FALSE,TRUE,FALSE,FALSE,Disabled,0.000000,0.000000,0.000000,TRUE,1.632156,-1.299667,0.000000,-0.064194,-0.002060,0.000000,0.156000,0.031000,0.067000,0.000000,-0.240000,-0.920000,0.046382,Hold,0.946289,0.000000,Hold,-157.000000,2.000000,Suck,-1740.000000,1818.181818,Speed,-1732.500000,1818.181818,Speed,Off,Off,0.000000,FALSE,0,,,,,0.000000,0.000000
02:25:45.956 PM 04/02/2016,Teleop Enabled,9,TRUE,-44087,NetComm_CAN_Receive.vi:5470001<APPEND>  <b>Complete call chain:</b>      NetComm_CAN_Receive.vi:5470001      WPI_CAN_PDPReceive.vi      WPI_Power Get PDP Currents.vi      Periodic Tasks.vi      Robot Main.vi,-0.000000,0.000000,-0.000000,0.000000,TRUE,FALSE,FALSE,TRUE,FALSE,FALSE,Disabled,0.000000,0.000000,0.000000,TRUE,1.630325,-1.300049,0.000000,-0.032959,-0.012192,0.000000,0.108000,0.034000,0.040000,0.000000,-0.210000,-0.930000,0.044443,Hold,0.946289,0.000000,Hold,-157.000000,2.000000,Suck,-1747.500000,1818.181818,Speed,-1732.500000,1818.181818,Speed,Off,Off,0.000000,FALSE,0,,,,,0.000000,0.000000
02:25:46.056 PM 04/02/2016,Teleop Enabled,11,TRUE,-44087,NetComm_CAN_Receive.vi:5470001<APPEND>  <b>Complete call chain:</b>      NetComm_CAN_Receive.vi:5470001      WPI_CAN_PDPReceive.vi      WPI_Power Get PDP Currents.vi      Periodic Tasks.vi      Robot Main.vi,-0.000000,0.000000,-0.000000,0.000000,TRUE,FALSE,FALSE,TRUE,FALSE,FALSE,Disabled,0.000000,0.000000,0.000000,TRUE,1.629593,-1.300583,0.000000,-0.016052,0.000000,0.000000,0.084000,0.005000,0.081000,0.000000,-0.220000,-0.870000,0.046815,Hold,0.946289,0.000000,Hold,-157.000000,2.000000,Suck,-1747.500000,1818.181818,Speed,-1717.500000,1818.181818,Speed,Off,Off,0.000000,FALSE,0,,,,,0.000000,0.000000
02:25:46.157 PM 04/02/2016,Teleop Enabled,11,TRUE,-44087,NetComm_CAN_Receive.vi:5470001<APPEND>  <b>Complete call chain:</b>      NetComm_CAN_Receive.vi:5470001      WPI_CAN_PDPReceive.vi      WPI_Power Get PDP Currents.vi      Periodic Tasks.vi      Robot Main.vi,-0.000000,0.000000,-0.000000,0.000000,TRUE,FALSE,FALSE,TRUE,FALSE,FALSE,Disabled,0.000000,0.000000,0.000000,TRUE,1.629150,-1.300827,0.000000,-0.007477,0.008194,0.000000,-0.017000,0.022000,0.055000,0.000000,-0.180000,-0.880000,0.046492,Hold,0.946289,0.000000,Hold,-157.000000,2.000000,Suck,-1740.000000,1818.181818,Speed,-1725.000000,1818.181818,Speed,Off,Off,0.000000,FALSE,0,,,,,0.000000,0.000000
02:25:46.258 PM 04/02/2016,Teleop Enabled,11,TRUE,-44087,NetComm_CAN_Receive.vi:5470001<APPEND>  <b>Complete call chain:</b>      NetComm_CAN_Receive.vi:5470001      WPI_CAN_PDPReceive.vi      WPI_Power Get PDP Currents.vi      Periodic Tasks.vi      Robot Main.vi,-0.000000,0.000000,-0.000000,0.000000,TRUE,FALSE,FALSE,TRUE,FALSE,FALSE,Disabled,0.000000,0.000000,0.000000,TRUE,1.629166,-1.300018,0.000000,0.003586,0.015411,0.000000,-0.002000,0.007000,0.000000,0.000000,-0.170000,-0.900000,0.035675,Hold,0.946289,0.000000,Hold,-157.000000,2.000000,Suck,-1725.000000,1818.181818,Speed,-1732.500000,1818.181818,Speed,Off,Off,0.000000,FALSE,0,,,,,0.000000,0.000000
02:25:46.359 PM 04/02/2016,Teleop Enabled,10,TRUE,-44087,NetComm_CAN_Receive.vi:5470001<APPEND>  <b>Complete call chain:</b>      NetComm_CAN_Receive.vi:5470001      WPI_CAN_PDPReceive.vi      WPI_Power Get PDP Currents.vi      Periodic Tasks.vi      Robot Main.vi,-0.000000,0.000000,-0.000000,0.000000,TRUE,FALSE,FALSE,TRUE,FALSE,FALSE,Disabled,0.000000,0.000000,0.000000,TRUE,1.629120,-1.299408,0.000000,-0.002960,0.024780,0.000000,0.085000,0.043000,-0.014000,0.000000,-0.200000,-0.920000,0.043593,Hold,0.946289,0.000000,Hold,-157.000000,2.000000,Suck,-1717.500000,1818.181818,Speed,-1710.000000,1818.181818,Speed,Off,Off,0.000000,FALSE,0,,,,,0.000000,0.000000
02:25:46.460 PM 04/02/2016,Teleop Enabled,10,TRUE,-44087,NetComm_CAN_Receive.vi:5470001<APPEND>  <b>Complete call chain:</b>      NetComm_CAN_Receive.vi:5470001      WPI_CAN_PDPReceive.vi      WPI_Power Get PDP Currents.vi      Periodic Tasks.vi      Robot Main.vi,-0.000000,0.000000,-0.000000,0.000000,TRUE,FALSE,FALSE,TRUE,FALSE,FALSE,Disabled,0.000000,0.000000,0.000000,TRUE,1.629120,-1.299408,0.000000,-0.002960,0.024780,0.000000,0.085000,0.043000,-0.014000,0.000000,-0.200000,-0.920000,0.055181,Hold,0.946289,0.000000,Hold,-157.000000,2.000000,Suck,-1710.000000,1818.181818,Speed,-1710.000000,1818.181818,Speed,Off,Off,0.000000,FALSE,0,,,,,0.000000,0.000000
02:25:46.560 PM 04/02/2016,Teleop Enabled,11,TRUE,-44087,NetComm_CAN_Receive.vi:5470001<APPEND>  <b>Complete call chain:</b>      NetComm_CAN_Receive.vi:5470001      WPI_CAN_PDPReceive.vi      WPI_Power Get PDP Currents.vi      Periodic Tasks.vi      Robot Main.vi,-0.000000,0.000000,-0.000000,0.000000,TRUE,FALSE,FALSE,TRUE,FALSE,FALSE,Disabled,0.000000,0.000000,0.000000,TRUE,1.632385,-1.297424,0.000000,0.028549,0.006241,0.000000,-0.007000,0.010000,0.066000,0.000000,-0.180000,-0.900000,0.067381,Hold,0.946289,0.000000,Hold,-157.000000,2.000000,Suck,-1725.000000,1818.181818,Speed,-1710.000000,1818.181818,Speed,Off,Off,0.000000,FALSE,0,,,,,0.000000,0.000000
02:25:46.664 PM 04/02/2016,Teleop Enabled,10,TRUE,-44087,NetComm_CAN_Receive.vi:5470001<APPEND>  <b>Complete call chain:</b>      NetComm_CAN_Receive.vi:5470001      WPI_CAN_PDPReceive.vi      WPI_Power Get PDP Currents.vi      Periodic Tasks.vi      Robot Main.vi,-0.000000,0.000000,-0.000000,0.000000,TRUE,FALSE,FALSE,TRUE,FALSE,FALSE,Disabled,0.000000,0.000000,0.000000,TRUE,1.633575,-1.296860,0.000000,0.014984,0.014954,0.000000,0.052000,-0.062000,0.146000,0.010000,-0.250000,-0.900000,0.073946,Hold,0.946289,0.000000,Hold,-157.000000,2.000000,Suck,-1717.500000,1818.181818,Speed,-1717.500000,1818.181818,Speed,Off,Off,0.000000,FALSE,0,,,,,0.000000,0.000000
02:25:46.765 PM 04/02/2016,Teleop Enabled,9,TRUE,-44087,NetComm_CAN_Receive.vi:5470001<APPEND>  <b>Complete call chain:</b>      NetComm_CAN_Receive.vi:5470001      WPI_CAN_PDPReceive.vi      WPI_Power Get PDP Currents.vi      Periodic Tasks.vi      Robot Main.vi,-0.000000,0.000000,-0.000000,0.000000,TRUE,FALSE,FALSE,TRUE,FALSE,FALSE,Disabled,0.000000,0.000000,0.000000,TRUE,1.634140,-1.295883,0.000000,0.019775,0.037537,0.000000,-0.124000,-0.042000,-0.028000,0.000000,-0.220000,-0.880000,0.060172,Hold,0.946289,0.000000,Hold,-157.000000,2.000000,Suck,-1687.500000,1818.181818,Speed,-1725.000000,1818.181818,Speed,Off,Off,0.000000,FALSE,0,,,,,0.000000,0.000000
02:25:46.866 PM 04/02/2016,Teleop Enabled,9,TRUE,-44087,NetComm_CAN_Receive.vi:5470001<APPEND>  <b>Complete call chain:</b>      NetComm_CAN_Receive.vi:5470001      WPI_CAN_PDPReceive.vi      WPI_Power Get PDP Currents.vi      Periodic Tasks.vi      Robot Main.vi,-0.000000,0.000000,-0.000000,0.000000,TRUE,FALSE,FALSE,TRUE,FALSE,FALSE,Disabled,0.000000,0.000000,0.000000,TRUE,1.634521,-1.294724,0.000000,0.015915,0.000000,0.000000,-0.124000,-0.042000,-0.028000,0.000000,-0.240000,-0.840000,0.057560,Hold,0.946289,0.000000,Hold,-157.000000,2.000000,Suck,-1710.000000,1818.181818,Speed,-1740.000000,1818.181818,Speed,Off,Off,0.000000,FALSE,0,,,,,0.000000,0.000000
02:25:46.967 PM 04/02/2016,Teleop Enabled,9,TRUE,-44087,NetComm_CAN_Receive.vi:5470001<APPEND>  <b>Complete call chain:</b>      NetComm_CAN_Receive.vi:5470001      WPI_CAN_PDPReceive.vi      WPI_Power Get PDP Currents.vi      Periodic Tasks.vi      Robot Main.vi,-0.000000,0.000000,-0.000000,0.000000,TRUE,FALSE,FALSE,TRUE,FALSE,FALSE,Disabled,0.000000,0.000000,0.000000,TRUE,1.636261,-1.294220,0.000000,0.035828,0.019012,0.000000,0.063000,0.029000,0.052000,0.000000,-0.280000,-0.850000,0.056830,Hold,0.946289,0.000000,Hold,-157.000000,2.000000,Suck,-1725.000000,1818.181818,Speed,-1732.500000,1818.181818,Speed,Off,Off,0.000000,FALSE,0,,,,,0.000000,0.000000
02:25:47.068 PM 04/02/2016,Teleop Enabled,10,TRUE,-44087,NetComm_CAN_Receive.vi:5470001<APPEND>  <b>Complete call chain:</b>      NetComm_CAN_Receive.vi:5470001      WPI_CAN_PDPReceive.vi      WPI_Power Get PDP Currents.vi      Periodic Tasks.vi      Robot Main.vi,-0.000000,0.000000,-0.000000,0.000000,TRUE,FALSE,FALSE,TRUE,FALSE,FALSE,Disabled,0.000000,0.000000,0.000000,TRUE,1.637711,-1.293243,0.000000,0.019455,0.018921,0.000000,-0.108000,-0.041000,0.000000,0.000000,-0.290000,-0.830000,0.068603,Hold,0.946289,0.000000,Hold,-157.000000,2.000000,Suck,-1740.000000,1818.181818,Speed,-1710.000000,1818.181818,Speed,Off,Off,0.000000,FALSE,0,,,,,0.000000,0.000000
02:25:47.167 PM 04/02/2016,Teleop Enabled,9,TRUE,-44087,NetComm_CAN_Receive.vi:5470001<APPEND>  <b>Complete call chain:</b>      NetComm_CAN_Receive.vi:5470001      WPI_CAN_PDPReceive.vi      WPI_Power Get PDP Currents.vi      Periodic Tasks.vi      Robot Main.vi,-0.000000,0.000000,-0.000000,0.000000,TRUE,FALSE,FALSE,TRUE,FALSE,FALSE,Disabled,0.000000,0.000000,0.000000,TRUE,1.638672,-1.293381,0.000000,0.036911,0.008347,0.000000,-0.108000,-0.041000,0.000000,0.010000,-0.350000,-0.880000,0.082081,Hold,0.946289,0.000000,Hold,-157.000000,2.000000,Suck,-1740.000000,1818.181818,Speed,-1687.500000,1818.181818,Speed,Off,Off,0.000000,FALSE,0,,,,,0.000000,0.000000
02:25:47.268 PM 04/02/2016,Teleop Enabled,10,TRUE,-44087,NetComm_CAN_Receive.vi:5470001<APPEND>  <b>Complete call chain:</b>      NetComm_CAN_Receive.vi:5470001      WPI_CAN_PDPReceive.vi      WPI_Power Get PDP Currents.vi      Periodic Tasks.vi      Robot Main.vi,-0.000000,0.000000,-0.000000,0.000000,TRUE,FALSE,FALSE,TRUE,FALSE,FALSE,Disabled,0.000000,0.000000,0.000000,TRUE,1.638672,-1.293381,0.000000,0.036911,0.008347,0.000000,-0.092000,-0.009000,-0.020000,0.010000,-0.350000,-0.880000,0.062455,Hold,0.946289,0.000000,Hold,-157.000000,2.000000,Suck,-1747.500000,1818.181818,Speed,-1695.000000,1818.181818,Speed,Off,Off,0.000000,FALSE,0,,,,,0.000000,0.000000
02:25:47.370 PM 04/02/2016,Teleop Enabled,11,TRUE,-44087,NetComm_CAN_Receive.vi:5470001<APPEND>  <b>Complete call chain:</b>      NetComm_CAN_Receive.vi:5470001      WPI_CAN_PDPReceive.vi      WPI_Power Get PDP Currents.vi      Periodic Tasks.vi      Robot Main.vi,-0.000000,0.000000,-0.000000,0.000000,TRUE,FALSE,FALSE,TRUE,FALSE,FALSE,Disabled,0.000000,0.000000,0.000000,TRUE,1.640625,-1.292618,0.000000,0.004868,0.002136,0.000000,-0.018000,-0.047000,-0.037000,0.000000,-0.360000,-0.850000,0.052537,Hold,0.946289,0.000000,Hold,-157.000000,2.000000,Suck,-1740.000000,1818.181818,Speed,-1740.000000,1818.181818,Speed,Off,Off,0.000000,FALSE,0,,,,,0.000000,0.000000
02:25:47.473 PM 04/02/2016,Teleop Enabled,10,TRUE,-44087,NetComm_CAN_Receive.vi:5470001<APPEND>  <b>Complete call chain:</b>      NetComm_CAN_Receive.vi:5470001      WPI_CAN_PDPReceive.vi      WPI_Power Get PDP Currents.vi      Periodic Tasks.vi      Robot Main.vi,-0.000000,0.000000,-0.000000,0.000000,TRUE,FALSE,FALSE,TRUE,FALSE,FALSE,Disabled,0.000000,0.000000,0.000000,TRUE,1.641159,-1.292206,0.000000,0.014389,0.009811,0.000000,-0.010000,0.054000,0.034000,0.000000,-0.420000,-0.810000,0.038319,Hold,0.946289,0.000000,Hold,-157.000000,2.000000,Suck,-1747.500000,1818.181818,Speed,-1755.000000,1818.181818,Speed,Off,Off,0.000000,FALSE,0,,,,,0.000000,0.000000
02:25:47.573 PM 04/02/2016,Teleop Enabled,11,TRUE,-44087,NetComm_CAN_Receive.vi:5470001<APPEND>  <b>Complete call chain:</b>      NetComm_CAN_Receive.vi:5470001      WPI_CAN_PDPReceive.vi      WPI_Power Get PDP Currents.vi      Periodic Tasks.vi      Robot Main.vi,-0.000000,0.000000,-0.000000,0.000000,TRUE,FALSE,FALSE,TRUE,FALSE,FALSE,Disabled,0.000000,0.000000,0.000000,TRUE,1.640808,-1.292374,0.000000,-0.015793,-0.004227,0.000000,0.090000,0.003000,0.069000,0.000000,-0.420000,-0.830000,0.044171,Hold,0.946289,0.000000,Hold,-157.000000,2.000000,Suck,-1755.000000,1818.181818,Speed,-1740.000000,1818.181818,Speed,Off,Off,0.000000,FALSE,0,,,,,0.000000,0.000000
02:25:47.675 PM 04/02/2016,Teleop Enabled,9,TRUE,-44087,NetComm_CAN_Receive.vi:5470001<APPEND>  <b>Complete call chain:</b>      NetComm_CAN_Receive.vi:5470001      WPI_CAN_PDPReceive.vi      WPI_Power Get PDP Currents.vi      Periodic Tasks.vi      Robot Main.vi,-0.000000,0.000000,-0.000000,0.000000,TRUE,FALSE,FALSE,TRUE,FALSE,FALSE,Disabled,0.000000,0.000000,0.000000,TRUE,1.640808,-1.292374,0.000000,-0.015793,-0.004227,0.000000,0.019000,0.006000,0.077000,0.000000,-0.440000,-0.810000,0.040684,Hold,0.946289,0.000000,Hold,-157.000000,2.000000,Suck,-1755.000000,1818.181818,Speed,-1725.000000,1818.181818,Speed,Off,Off,0.000000,FALSE,0,,,,,0.000000,0.000000
02:25:47.777 PM 04/02/2016,Teleop Enabled,10,TRUE,-44087,NetComm_CAN_Receive.vi:5470001<APPEND>  <b>Complete call chain:</b>      NetComm_CAN_Receive.vi:5470001      WPI_CAN_PDPReceive.vi      WPI_Power Get PDP Currents.vi      Periodic Tasks.vi      Robot Main.vi,-0.000000,0.000000,-0.000000,0.000000,TRUE,FALSE,FALSE,TRUE,FALSE,FALSE,Disabled,0.000000,0.000000,0.000000,TRUE,1.643341,-1.290909,0.000000,0.044815,0.036270,0.000000,-0.065000,0.001000,0.037000,0.000000,-0.360000,-0.780000,0.029210,Hold,0.946289,0.000000,Hold,-157.000000,2.000000,Suck,-1762.500000,1818.181818,Speed,-1732.500000,1818.181818,Speed,Off,Off,0.000000,FALSE,0,,,,,0.000000,0.000000
02:25:47.878 PM 04/02/2016,Teleop Enabled,9,TRUE,-44087,NetComm_CAN_Receive.vi:5470001<APPEND>  <b>Complete call chain:</b>      NetComm_CAN_Receive.vi:5470001      WPI_CAN_PDPReceive.vi      WPI_Power Get PDP Currents.vi      Periodic Tasks.vi      Robot Main.vi,-0.000000,0.000000,-0.000000,0.000000,TRUE,FALSE,FALSE,TRUE,FALSE,FALSE,Disabled,0.000000,0.000000,0.000000,TRUE,1.646210,-1.288635,0.000000,0.044617,0.046021,0.000000,-0.065000,0.001000,0.037000,0.000000,-0.360000,-0.780000,0.036174,Hold,0.946289,0.000000,Hold,-157.000000,2.000000,Suck,-1755.000000,1818.181818,Speed,-1747.500000,1818.181818,Speed,Off,Off,0.000000,FALSE,0,,,,,0.000000,0.000000
02:25:47.978 PM 04/02/2016,Teleop Enabled,9,TRUE,-44087,NetComm_CAN_Receive.vi:5470001<APPEND>  <b>Complete call chain:</b>      NetComm_CAN_Receive.vi:5470001      WPI_CAN_PDPReceive.vi      WPI_Power Get PDP Currents.vi      Periodic Tasks.vi      Robot Main.vi,-0.000000,0.000000,-0.000000,0.000000,TRUE,FALSE,FALSE,TRUE,FALSE,FALSE,Disabled,0.000000,0.000000,0.000000,TRUE,1.648727,-1.285950,0.000000,0.047272,0.053955,0.000000,0.136000,-0.003000,0.077000,0.000000,-0.400000,-0.790000,0.038791,Hold,0.946289,0.000000,Hold,-157.000000,2.000000,Suck,-1755.000000,1818.181818,Speed,-1732.500000,1818.181818,Speed,Off,Off,0.000000,FALSE,0,,,,,0.000000,0.000000
02:25:48.080 PM 04/02/2016,Teleop Enabled,9,TRUE,-44087,NetComm_CAN_Receive.vi:5470001<APPEND>  <b>Complete call chain:</b>      NetComm_CAN_Receive.vi:5470001      WPI_CAN_PDPReceive.vi      WPI_Power Get PDP Currents.vi      Periodic Tasks.vi      Robot Main.vi,-0.000000,0.000000,-0.000000,0.000000,TRUE,FALSE,FALSE,TRUE,FALSE,FALSE,Disabled,0.000000,0.000000,0.000000,TRUE,1.650269,-1.282700,0.000000,0.028046,0.062988,0.000000,-0.023000,0.031000,0.043000,0.000000,-0.380000,-0.810000,0.039307,Hold,0.946289,0.000000,Hold,-157.000000,2.000000,Suck,-1755.000000,1818.181818,Speed,-1732.500000,1818.181818,Speed,Off,Off,0.000000,FALSE,0,,,,,0.000000,0.000000
02:25:48.180 PM 04/02/2016,Teleop Enabled,9,TRUE,-44087,NetComm_CAN_Receive.vi:5470001<APPEND>  <b>Complete call chain:</b>      NetComm_CAN_Receive.vi:5470001      WPI_CAN_PDPReceive.vi      WPI_Power Get PDP Currents.vi      Periodic Tasks.vi      Robot Main.vi,-0.000000,0.000000,-0.000000,0.000000,TRUE,FALSE,FALSE,TRUE,FALSE,FALSE,Disabled,0.000000,0.000000,0.000000,TRUE,1.650269,-1.282700,0.000000,0.028046,0.062988,0.000000,0.066000,-0.025000,0.104000,0.000000,-0.370000,-0.810000,0.044447,Hold,0.946289,0.000000,Hold,-157.000000,2.000000,Suck,-1755.000000,1818.181818,Speed,-1747.500000,1818.181818,Speed,Off,Off,0.000000,FALSE,0,,,,,0.000000,0.000000
02:25:48.280 PM 04/02/2016,Teleop Enabled,9,TRUE,-44087,NetComm_CAN_Receive.vi:5470001<APPEND>  <b>Complete call chain:</b>      NetComm_CAN_Receive.vi:5470001      WPI_CAN_PDPReceive.vi      WPI_Power Get PDP Currents.vi      Periodic Tasks.vi      Robot Main.vi,-0.000000,0.000000,-0.000000,0.000000,TRUE,FALSE,FALSE,TRUE,FALSE,FALSE,Disabled,0.000000,0.000000,0.000000,TRUE,1.651443,-1.281586,0.000000,0.031342,0.000000,0.000000,-0.010000,-0.005000,0.023000,0.000000,-0.380000,-0.790000,0.056492,Hold,0.946289,0.000000,Hold,-157.000000,2.000000,Suck,-1747.500000,1818.181818,Speed,-1732.500000,1818.181818,Speed,Off,Off,0.000000,FALSE,0,,,,,0.000000,0.000000
02:25:48.382 PM 04/02/2016,Teleop Enabled,10,TRUE,-44087,NetComm_CAN_Receive.vi:5470001<APPEND>  <b>Complete call chain:</b>      NetComm_CAN_Receive.vi:5470001      WPI_CAN_PDPReceive.vi      WPI_Power Get PDP Currents.vi      Periodic Tasks.vi      Robot Main.vi,-0.000000,0.000000,-0.000000,0.000000,TRUE,FALSE,FALSE,TRUE,FALSE,FALSE,Disabled,0.000000,0.000000,0.000000,TRUE,1.653870,-1.281799,0.000000,0.070587,-0.004776,0.000000,-0.058000,0.022000,-0.011000,0.000000,-0.360000,-0.840000,0.056492,Hold,0.946289,0.000000,Hold,-157.000000,2.000000,Suck,-1732.500000,1818.181818,Speed,-1695.000000,1818.181818,Speed,Off,Off,0.000000,FALSE,0,,,,,0.000000,0.000000
02:25:48.482 PM 04/02/2016,Teleop Enabled,9,TRUE,-44087,NetComm_CAN_Receive.vi:5470001<APPEND>  <b>Complete call chain:</b>      NetComm_CAN_Receive.vi:5470001      WPI_CAN_PDPReceive.vi      WPI_Power Get PDP Currents.vi      Periodic Tasks.vi      Robot Main.vi,-0.000000,0.000000,-0.000000,0.000000,TRUE,FALSE,FALSE,TRUE,FALSE,FALSE,Disabled,0.000000,0.000000,0.000000,TRUE,1.657776,-1.281006,0.000000,0.088287,0.022415,0.000000,0.020000,0.044000,-0.024000,0.000000,-0.360000,-0.830000,0.065787,Hold,0.946289,0.000000,Hold,-157.000000,2.000000,Suck,-1725.000000,1818.181818,Speed,-1695.000000,1818.181818,Speed,Off,Off,0.000000,FALSE,0,,,,,0.000000,0.000000
02:25:48.583 PM 04/02/2016,Teleop Enabled,12,TRUE,-44087,NetComm_CAN_Receive.vi:5470001<APPEND>  <b>Complete call chain:</b>      NetComm_CAN_Receive.vi:5470001      WPI_CAN_PDPReceive.vi      WPI_Power Get PDP Currents.vi      Periodic Tasks.vi      Robot Main.vi,-0.000000,0.000000,-0.000000,0.000000,TRUE,FALSE,FALSE,TRUE,FALSE,FALSE,Disabled,0.000000,0.000000,0.000000,TRUE,1.662155,-1.277405,0.000000,0.072296,0.067139,0.000000,-0.015000,-0.062000,-0.055000,0.000000,-0.370000,-0.810000,0.059921,Hold,0.946289,0.000000,Hold,-157.000000,2.000000,Suck,-1747.500000,1818.181818,Speed,-1717.500000,1818.181818,Speed,Off,Off,0.000000,FALSE,0,,,,,0.000000,0.000000
02:25:48.682 PM 04/02/2016,Teleop Enabled,11,TRUE,-44087,NetComm_CAN_Receive.vi:5470001<APPEND>  <b>Complete call chain:</b>      NetComm_CAN_Receive.vi:5470001      WPI_CAN_PDPReceive.vi      WPI_Power Get PDP Currents.vi      Periodic Tasks.vi      Robot Main.vi,-0.000000,0.000000,-0.000000,0.000000,TRUE,FALSE,FALSE,TRUE,FALSE,FALSE,Disabled,0.000000,0.000000,0.000000,TRUE,1.664078,-1.275085,0.000000,0.046066,0.057434,0.000000,0.028000,-0.027000,0.041000,0.000000,-0.380000,-0.840000,0.067009,Hold,0.946289,0.000000,Hold,-157.000000,2.000000,Suck,-1747.500000,1818.181818,Speed,-1740.000000,1818.181818,Speed,Off,Off,0.000000,FALSE,0,,,,,0.000000,0.000000
02:25:48.782 PM 04/02/2016,Teleop Enabled,11,TRUE,-44087,NetComm_CAN_Receive.vi:5470001<APPEND>  <b>Complete call chain:</b>      NetComm_CAN_Receive.vi:5470001      WPI_CAN_PDPReceive.vi      WPI_Power Get PDP Currents.vi      Periodic Tasks.vi      Robot Main.vi,-0.000000,0.000000,-0.000000,0.000000,TRUE,FALSE,FALSE,TRUE,FALSE,FALSE,Disabled,0.000000,0.000000,0.000000,TRUE,1.666138,-1.271454,0.000000,0.031723,0.057465,0.000000,0.114000,0.045000,-0.018000,0.000000,-0.370000,-0.830000,0.069278,Hold,0.946289,0.000000,Hold,-157.000000,2.000000,Suck,-1755.000000,1818.181818,Speed,-1755.000000,1818.181818,Speed,Off,Off,0.000000,FALSE,0,,,,,0.000000,0.000000
02:25:48.882 PM 04/02/2016,Teleop Enabled,10,TRUE,-44087,NetComm_CAN_Receive.vi:5470001<APPEND>  <b>Complete call chain:</b>      NetComm_CAN_Receive.vi:5470001      WPI_CAN_PDPReceive.vi      WPI_Power Get PDP Currents.vi      Periodic Tasks.vi      Robot Main.vi,-0.000000,0.000000,-0.000000,0.000000,TRUE,FALSE,FALSE,TRUE,FALSE,FALSE,Disabled,0.000000,0.000000,0.000000,TRUE,1.668640,-1.268143,0.000000,0.040985,0.066284,0.000000,0.030000,-0.002000,0.028000,0.000000,-0.330000,-0.810000,0.077554,Hold,0.946289,0.000000,Hold,-157.000000,2.000000,Suck,-1755.000000,1818.181818,Speed,-1732.500000,1818.181818,Speed,Off,Off,0.000000,FALSE,0,,,,,0.000000,0.000000
02:25:48.983 PM 04/02/2016,Teleop Enabled,11,TRUE,-44087,NetComm_CAN_Receive.vi:5470001<APPEND>  <b>Complete call chain:</b>      NetComm_CAN_Receive.vi:5470001      WPI_CAN_PDPReceive.vi      WPI_Power Get PDP Currents.vi      Periodic Tasks.vi      Robot Main.vi,-0.000000,0.000000,-0.000000,0.000000,TRUE,FALSE,FALSE,TRUE,FALSE,FALSE,Disabled,0.000000,0.000000,0.000000,TRUE,1.670837,-1.265839,0.000000,0.043915,0.000000,0.000000,0.094000,-0.007000,0.002000,0.000000,-0.330000,-0.780000,0.079179,Hold,0.946289,0.000000,Hold,-157.000000,2.000000,Suck,-1747.500000,1818.181818,Speed,-1725.000000,1818.181818,Speed,Off,Off,0.000000,FALSE,0,,,,,0.000000,0.000000
02:25:49.082 PM 04/02/2016,Teleop Enabled,10,TRUE,-44087,NetComm_CAN_Receive.vi:5470001<APPEND>  <b>Complete call chain:</b>      NetComm_CAN_Receive.vi:5470001      WPI_CAN_PDPReceive.vi      WPI_Power Get PDP Currents.vi      Periodic Tasks.vi      Robot Main.vi,-0.000000,0.000000,-0.000000,0.000000,TRUE,FALSE,FALSE,TRUE,FALSE,FALSE,Disabled,0.000000,0.000000,0.000000,TRUE,1.672897,-1.266052,0.000000,-0.005066,-0.007294,0.000000,-0.037000,0.036000,0.067000,0.000000,-0.300000,-0.780000,0.082198,Hold,0.946289,0.000000,Hold,-157.000000,2.000000,Suck,-1740.000000,1818.181818,Speed,-1725.000000,1818.181818,Speed,Off,Off,0.000000,FALSE,0,,,,,0.000000,0.000000
02:25:49.183 PM 04/02/2016,Teleop Enabled,10,TRUE,-44087,NetComm_CAN_Receive.vi:5470001<APPEND>  <b>Complete call chain:</b>      NetComm_CAN_Receive.vi:5470001      WPI_CAN_PDPReceive.vi      WPI_Power Get PDP Currents.vi      Periodic Tasks.vi      Robot Main.vi,-0.000000,0.000000,-0.000000,0.000000,TRUE,FALSE,FALSE,TRUE,FALSE,FALSE,Disabled,0.000000,0.000000,0.000000,TRUE,1.672607,-1.265961,0.000000,-0.012314,-0.000977,0.000000,-0.037000,-0.057000,-0.162000,0.000000,-0.340000,-0.780000,0.059491,Hold,0.946289,0.000000,Hold,-157.000000,2.000000,Suck,-1732.500000,1818.181818,Speed,-1747.500000,1818.181818,Speed,Off,Off,0.000000,FALSE,0,,,,,0.000000,0.000000
02:25:49.283 PM 04/02/2016,Teleop Enabled,10,TRUE,-44087,NetComm_CAN_Receive.vi:5470001<APPEND>  <b>Complete call chain:</b>      NetComm_CAN_Receive.vi:5470001      WPI_CAN_PDPReceive.vi      WPI_Power Get PDP Currents.vi      Periodic Tasks.vi      Robot Main.vi,-0.000000,0.000000,-0.000000,0.000000,TRUE,FALSE,FALSE,TRUE,FALSE,FALSE,Disabled,0.000000,0.000000,0.000000,TRUE,1.672440,-1.265808,0.000000,0.004074,0.009171,0.000000,-0.057000,0.007000,-0.136000,0.000000,-0.310000,-0.800000,0.057863,Hold,0.946289,0.000000,Hold,-157.000000,2.000000,Suck,-1740.000000,1818.181818,Speed,-1740.000000,1818.181818,Speed,Off,Off,0.000000,FALSE,0,,,,,0.000000,0.000000
02:25:49.383 PM 04/02/2016,Teleop Enabled,10,TRUE,-44087,NetComm_CAN_Receive.vi:5470001<APPEND>  <b>Complete call chain:</b>      NetComm_CAN_Receive.vi:5470001      WPI_CAN_PDPReceive.vi      WPI_Power Get PDP Currents.vi      Periodic Tasks.vi      Robot Main.vi,-0.000000,0.000000,-0.000000,0.000000,TRUE,FALSE,FALSE,TRUE,FALSE,FALSE,Disabled,0.000000,0.000000,0.000000,TRUE,1.672195,-1.265244,0.000000,-0.004868,0.008087,0.000000,-0.030000,-0.001000,0.012000,0.000000,-0.330000,-0.760000,0.069839,Hold,0.946289,0.000000,Hold,-157.000000,2.000000,Suck,-1740.000000,1818.181818,Speed,-1710.000000,1818.181818,Speed,Off,Off,0.000000,FALSE,0,,,,,0.000000,0.000000
02:25:49.485 PM 04/02/2016,Teleop Enabled,10,TRUE,-44087,NetComm_CAN_Receive.vi:5470001<APPEND>  <b>Complete call chain:</b>      NetComm_CAN_Receive.vi:5470001      WPI_CAN_PDPReceive.vi      WPI_Power Get PDP Currents.vi      Periodic Tasks.vi      Robot Main.vi,-0.000000,0.000000,-0.000000,0.000000,TRUE,FALSE,FALSE,TRUE,FALSE,FALSE,Disabled,0.000000,0.000000,0.000000,TRUE,1.672379,-1.264923,0.000000,0.010864,-0.008102,0.000000,0.040000,-0.044000,-0.043000,0.000000,-0.290000,-0.770000,0.066249,Hold,0.946289,0.000000,Hold,-157.000000,2.000000,Suck,-1740.000000,1818.181818,Speed,-1717.500000,1818.181818,Speed,Off,Off,0.000000,FALSE,0,,,,,0.000000,0.000000
02:25:49.584 PM 04/02/2016,Teleop Enabled,10,TRUE,-44087,NetComm_CAN_Receive.vi:5470001<APPEND>  <b>Complete call chain:</b>      NetComm_CAN_Receive.vi:5470001      WPI_CAN_PDPReceive.vi      WPI_Power Get PDP Currents.vi      Periodic Tasks.vi      Robot Main.vi,-0.000000,0.000000,-0.000000,0.000000,TRUE,FALSE,FALSE,TRUE,FALSE,FALSE,Disabled,0.000000,0.000000,0.000000,TRUE,1.673309,-1.265427,0.000000,0.030930,-0.014587,0.000000,0.077000,-0.024000,-0.085000,0.000000,-0.290000,-0.790000,0.067591,Hold,0.946289,0.000000,Hold,-157.000000,2.000000,Suck,-1740.000000,1818.181818,Speed,-1725.000000,1818.181818,Speed,Off,Off,0.000000,FALSE,0,,,,,0.000000,0.000000
02:25:49.685 PM 04/02/2016,Teleop Enabled,9,TRUE,-44087,NetComm_CAN_Receive.vi:5470001<APPEND>  <b>Complete call chain:</b>      NetComm_CAN_Receive.vi:5470001      WPI_CAN_PDPReceive.vi      WPI_Power Get PDP Currents.vi      Periodic Tasks.vi      Robot Main.vi,-0.000000,0.000000,-0.000000,0.000000,TRUE,FALSE,FALSE,TRUE,FALSE,FALSE,Disabled,0.000000,0.000000,0.000000,TRUE,1.675720,-1.265747,0.000000,0.049850,0.013779,0.000000,0.064000,-0.049000,0.041000,0.000000,-0.280000,-0.760000,0.060186,Hold,0.946289,0.000000,Hold,-157.000000,2.000000,Suck,-1732.500000,1818.181818,Speed,-1732.500000,1818.181818,Speed,Off,Off,0.000000,FALSE,0,,,,,0.000000,0.000000
02:25:49.785 PM 04/02/2016,Teleop Enabled,6,TRUE,-44087,NetComm_CAN_Receive.vi:5470001<APPEND>  <b>Complete call chain:</b>      NetComm_CAN_Receive.vi:5470001      WPI_CAN_PDPReceive.vi      WPI_Power Get PDP Currents.vi      Periodic Tasks.vi      Robot Main.vi,-0.000000,0.000000,-0.000000,0.000000,TRUE,FALSE,FALSE,TRUE,FALSE,FALSE,Disabled,0.000000,0.000000,0.000000,TRUE,1.678085,-1.265106,0.000000,0.035126,0.015472,0.000000,0.002000,0.017000,-0.121000,0.000000,-0.300000,-0.750000,0.068689,Hold,0.946289,0.000000,Hold,-157.000000,2.000000,Suck,-1725.000000,1818.181818,Speed,-1725.000000,1818.181818,Speed,Off,Off,0.000000,FALSE,0,,,,,0.000000,0.000000
02:25:49.886 PM 04/02/2016,Teleop Enabled,9,TRUE,-44087,NetComm_CAN_Receive.vi:5470001<APPEND>  <b>Complete call chain:</b>      NetComm_CAN_Receive.vi:5470001      WPI_CAN_PDPReceive.vi      WPI_Power Get PDP Currents.vi      Periodic Tasks.vi      Robot Main.vi,-0.000000,0.000000,-0.000000,0.000000,TRUE,FALSE,FALSE,TRUE,FALSE,FALSE,Disabled,0.000000,0.000000,0.000000,TRUE,1.679672,-1.264816,0.000000,0.019547,-0.009140,0.000000,0.153000,0.006000,-0.005000,0.000000,-0.320000,-0.730000,0.066786,Hold,0.946289,0.000000,Hold,-157.000000,2.000000,Suck,-1710.000000,1818.181818,Speed,-1725.000000,1818.181818,Speed,Off,Off,0.000000,FALSE,0,,,,,0.000000,0.000000
02:25:49.987 PM 04/02/2016,Teleop Enabled,10,TRUE,-44087,NetComm_CAN_Receive.vi:5470001<APPEND>  <b>Complete call chain:</b>      NetComm_CAN_Receive.vi:5470001      WPI_CAN_PDPReceive.vi      WPI_Power Get PDP Currents.vi      Periodic Tasks.vi      Robot Main.vi,-0.000000,0.000000,-0.000000,0.000000,TRUE,FALSE,FALSE,TRUE,FALSE,FALSE,Disabled,0.000000,0.000000,0.000000,TRUE,1.681793,-1.265167,0.000000,0.029373,-0.011078,0.000000,0.056000,0.015000,-0.016000,0.000000,-0.270000,-0.710000,0.055232,Hold,0.946289,0.000000,Hold,-157.000000,2.000000,Suck,-1710.000000,1818.181818,Speed,-1725.000000,1818.181818,Speed,Off,Off,0.000000,FALSE,0,,,,,0.000000,0.000000
02:25:50.087 PM 04/02/2016,Teleop Enabled,9,TRUE,-44087,NetComm_CAN_Receive.vi:5470001<APPEND>  <b>Complete call chain:</b>      NetComm_CAN_Receive.vi:5470001      WPI_CAN_PDPReceive.vi      WPI_Power Get PDP Currents.vi      Periodic Tasks.vi      Robot Main.vi,-0.000000,0.000000,-0.000000,0.000000,TRUE,FALSE,FALSE,TRUE,FALSE,FALSE,Disabled,0.000000,0.000000,0.000000,TRUE,1.682037,-1.265289,0.000000,-0.017502,-0.002991,0.000000,0.161000,-0.008000,0.095000,0.000000,-0.350000,-0.730000,0.054434,Hold,0.946289,0.000000,Hold,-157.000000,2.000000,Suck,-1717.500000,1818.181818,Speed,-1717.500000,1818.181818,Speed,Off,Off,0.000000,FALSE,0,,,,,0.000000,0.000000
02:25:50.189 PM 04/02/2016,Teleop Enabled,11,TRUE,-44087,NetComm_CAN_Receive.vi:5470001<APPEND>  <b>Complete call chain:</b>      NetComm_CAN_Receive.vi:5470001      WPI_CAN_PDPReceive.vi      WPI_Power Get PDP Currents.vi      Periodic Tasks.vi      Robot Main.vi,-0.000000,0.000000,-0.000000,0.000000,TRUE,FALSE,FALSE,TRUE,FALSE,FALSE,Disabled,0.000000,0.000000,0.000000,TRUE,1.681976,-1.265167,0.000000,0.011505,0.004562,0.000000,0.000000,-0.039000,0.000000,0.000000,-0.310000,-0.690000,0.045128,Hold,0.946289,0.000000,Hold,-157.000000,2.000000,Suck,-1710.000000,1818.181818,Speed,-1717.500000,1818.181818,Speed,Off,Off,0.000000,FALSE,0,,,,,0.000000,0.000000
02:25:50.288 PM 04/02/2016,Teleop Enabled,11,TRUE,-44087,NetComm_CAN_Receive.vi:5470001<APPEND>  <b>Complete call chain:</b>      NetComm_CAN_Receive.vi:5470001      WPI_CAN_PDPReceive.vi      WPI_Power Get PDP Currents.vi      Periodic Tasks.vi      Robot Main.vi,-0.000000,0.000000,-0.000000,0.000000,TRUE,FALSE,FALSE,TRUE,FALSE,FALSE,Disabled,0.000000,0.000000,0.000000,TRUE,1.682770,-1.265274,0.000000,0.037292,0.003479,0.000000,-0.030000,-0.004000,-0.020000,0.000000,-0.270000,-0.760000,0.054571,Hold,0.946289,0.000000,Hold,-157.000000,2.000000,Suck,-1717.500000,1818.181818,Speed,-1732.500000,1818.181818,Speed,Off,Off,0.000000,FALSE,0,,,,,0.000000,0.000000
02:25:50.389 PM 04/02/2016,Teleop Enabled,9,TRUE,-44087,NetComm_CAN_Receive.vi:5470001<APPEND>  <b>Complete call chain:</b>      NetComm_CAN_Receive.vi:5470001      WPI_CAN_PDPReceive.vi      WPI_Power Get PDP Currents.vi      Periodic Tasks.vi      Robot Main.vi,-0.000000,0.000000,-0.000000,0.000000,TRUE,FALSE,FALSE,TRUE,FALSE,FALSE,Disabled,0.000000,0.000000,0.000000,TRUE,1.682938,-1.264969,0.000000,-0.010071,0.009552,0.000000,0.029000,0.033000,0.114000,0.000000,-0.330000,-0.710000,0.052774,Hold,0.946289,0.000000,Hold,-157.000000,2.000000,Suck,-1710.000000,1818.181818,Speed,-1755.000000,1818.181818,Speed,Off,Off,0.000000,FALSE,0,,,,,0.000000,0.000000
02:25:50.490 PM 04/02/2016,Teleop Enabled,9,TRUE,-44087,NetComm_CAN_Receive.vi:5470001<APPEND>  <b>Complete call chain:</b>      NetComm_CAN_Receive.vi:5470001      WPI_CAN_PDPReceive.vi      WPI_Power Get PDP Currents.vi      Periodic Tasks.vi      Robot Main.vi,-0.000000,0.000000,-0.000000,0.000000,TRUE,FALSE,FALSE,TRUE,FALSE,FALSE,Disabled,0.000000,0.000000,0.000000,TRUE,1.682175,-1.264313,0.000000,-0.034500,-0.003616,0.000000,0.011000,-0.011000,0.016000,0.000000,-0.290000,-0.740000,0.042839,Hold,0.946289,0.000000,Hold,-157.000000,2.000000,Suck,-1717.500000,1818.181818,Speed,-1732.500000,1818.181818,Speed,Off,Off,0.000000,FALSE,0,,,,,0.000000,0.000000
02:25:50.591 PM 04/02/2016,Teleop Enabled,11,TRUE,-44087,NetComm_CAN_Receive.vi:5470001<APPEND>  <b>Complete call chain:</b>      NetComm_CAN_Receive.vi:5470001      WPI_CAN_PDPReceive.vi      WPI_Power Get PDP Currents.vi      Periodic Tasks.vi      Robot Main.vi,-0.000000,0.000000,-0.000000,0.000000,TRUE,FALSE,FALSE,TRUE,FALSE,FALSE,Disabled,0.000000,0.000000,0.000000,TRUE,1.679703,-1.264328,0.000000,-0.080414,-0.001205,0.000000,-0.127000,0.002000,-0.003000,0.000000,-0.260000,-0.750000,0.030023,Hold,0.946289,0.000000,Hold,-157.000000,2.000000,Suck,-1740.000000,1818.181818,Speed,-1710.000000,1818.181818,Speed,Off,Off,0.000000,FALSE,0,,,,,0.000000,0.000000
02:25:50.690 PM 04/02/2016,Teleop Enabled,9,TRUE,-44087,NetComm_CAN_Receive.vi:5470001<APPEND>  <b>Complete call chain:</b>      NetComm_CAN_Receive.vi:5470001      WPI_CAN_PDPReceive.vi      WPI_Power Get PDP Currents.vi      Periodic Tasks.vi      Robot Main.vi,-0.000000,0.000000,-0.000000,0.000000,TRUE,FALSE,FALSE,TRUE,FALSE,FALSE,Disabled,0.000000,0.000000,0.000000,TRUE,1.676956,-1.264709,0.000000,-0.055115,-0.022461,0.000000,-0.112000,0.040000,-0.017000,0.000000,-0.260000,-0.750000,0.030715,Hold,0.946289,0.000000,Hold,-157.000000,2.000000,Suck,-1762.500000,1818.181818,Speed,-1710.000000,1818.181818,Speed,Off,Off,0.000000,FALSE,0,,,,,0.000000,0.000000
02:25:50.794 PM 04/02/2016,Teleop Enabled,10,TRUE,-44087,NetComm_CAN_Receive.vi:5470001<APPEND>  <b>Complete call chain:</b>      NetComm_CAN_Receive.vi:5470001      WPI_CAN_PDPReceive.vi      WPI_Power Get PDP Currents.vi      Periodic Tasks.vi      Robot Main.vi,-0.000000,0.000000,-0.000000,0.000000,TRUE,FALSE,FALSE,TRUE,FALSE,FALSE,Disabled,0.000000,0.000000,0.000000,TRUE,1.674881,-1.264648,0.000000,-0.048935,0.006760,0.000000,-0.062000,0.000000,0.047000,0.000000,-0.260000,-0.710000,0.033386,Hold,0.946289,0.000000,Hold,-157.000000,2.000000,Suck,-1762.500000,1818.181818,Speed,-1725.000000,1818.181818,Speed,Off,Off,0.000000,FALSE,0,,,,,0.000000,0.000000
02:25:50.895 PM 04/02/2016,Teleop Enabled,11,TRUE,-44087,NetComm_CAN_Receive.vi:5470001<APPEND>  <b>Complete call chain:</b>      NetComm_CAN_Receive.vi:5470001      WPI_CAN_PDPReceive.vi      WPI_Power Get PDP Currents.vi      Periodic Tasks.vi      Robot Main.vi,-0.000000,0.000000,-0.000000,0.000000,TRUE,FALSE,FALSE,TRUE,FALSE,FALSE,Disabled,0.000000,0.000000,0.000000,TRUE,1.670822,-1.264954,0.000000,-0.098862,-0.010895,0.000000,0.141000,0.007000,0.051000,0.000000,-0.300000,-0.730000,0.026188,Hold,0.946289,0.000000,Hold,-157.000000,2.000000,Suck,-1762.500000,1818.181818,Speed,-1725.000000,1818.181818,Speed,Off,Off,0.000000,FALSE,0,,,,,0.000000,0.000000
02:25:50.996 PM 04/02/2016,Teleop Enabled,10,TRUE,-44087,NetComm_CAN_Receive.vi:5470001<APPEND>  <b>Complete call chain:</b>      NetComm_CAN_Receive.vi:5470001      WPI_CAN_PDPReceive.vi      WPI_Power Get PDP Currents.vi      Periodic Tasks.vi      Robot Main.vi,-0.000000,0.000000,-0.000000,0.000000,TRUE,FALSE,FALSE,TRUE,FALSE,FALSE,Disabled,0.000000,0.000000,0.000000,TRUE,1.666702,-1.264740,0.000000,-0.092102,0.005539,0.000000,0.007000,-0.023000,0.129000,0.000000,-0.280000,-0.740000,0.023761,Hold,0.946289,0.000000,Hold,-157.000000,2.000000,Suck,-1755.000000,1818.181818,Speed,-1695.000000,1818.181818,Speed,Off,Off,0.000000,FALSE,0,,,,,0.000000,0.000000
02:25:51.097 PM 04/02/2016,Teleop Enabled,10,TRUE,-44087,NetComm_CAN_Receive.vi:5470001<APPEND>  <b>Complete call chain:</b>      NetComm_CAN_Receive.vi:5470001      WPI_CAN_PDPReceive.vi      WPI_Power Get PDP Currents.vi      Periodic Tasks.vi      Robot Main.vi,-0.000000,0.000000,-0.000000,0.000000,TRUE,FALSE,FALSE,TRUE,FALSE,FALSE,Disabled,0.000000,0.000000,0.000000,TRUE,1.662277,-1.263931,0.000000,-0.093277,0.028503,0.000000,-0.033000,0.007000,-0.043000,0.000000,-0.260000,-0.800000,0.012073,Hold,0.946289,0.000000,Hold,-157.000000,2.000000,Suck,-1762.500000,1818.181818,Speed,-1695.000000,1818.181818,Speed,Off,Off,0.000000,FALSE,0,,,,,0.000000,0.000000
02:25:51.199 PM 04/02/2016,Teleop Enabled,10,TRUE,-44087,NetComm_CAN_Receive.vi:5470001<APPEND>  <b>Complete call chain:</b>      NetComm_CAN_Receive.vi:5470001      WPI_CAN_PDPReceive.vi      WPI_Power Get PDP Currents.vi      Periodic Tasks.vi      Robot Main.vi,-0.000000,0.000000,-0.000000,0.000000,TRUE,FALSE,FALSE,TRUE,FALSE,FALSE,Disabled,0.000000,0.000000,0.000000,TRUE,1.657700,-1.263382,0.000000,-0.093323,0.006393,0.000000,0.041000,-0.006000,0.003000,0.000000,-0.260000,-0.760000,-0.005150,Hold,0.946289,0.000000,Hold,-157.000000,2.000000,Suck,-1755.000000,1818.181818,Speed,-1740.000000,1818.181818,Speed,Off,Off,0.000000,FALSE,0,,,,,0.000000,0.000000
02:25:51.302 PM 04/02/2016,Teleop Enabled,10,TRUE,-44087,NetComm_CAN_Receive.vi:5470001<APPEND>  <b>Complete call chain:</b>      NetComm_CAN_Receive.vi:5470001      WPI_CAN_PDPReceive.vi      WPI_Power Get PDP Currents.vi      Periodic Tasks.vi      Robot Main.vi,-0.000000,0.000000,-0.000000,0.000000,TRUE,FALSE,FALSE,TRUE,FALSE,FALSE,Disabled,0.000000,0.000000,0.000000,TRUE,1.653748,-1.262512,0.000000,-0.071396,0.015808,0.000000,0.116000,-0.019000,0.070000,0.000000,-0.260000,-0.740000,-0.031782,Hold,0.946289,0.000000,Hold,-157.000000,2.000000,Suck,-1755.000000,1818.181818,Speed,-1732.500000,1818.181818,Speed,Off,Off,0.000000,FALSE,0,,,,,0.000000,0.000000
02:25:51.402 PM 04/02/2016,Teleop Enabled,11,TRUE,-44087,NetComm_CAN_Receive.vi:5470001<APPEND>  <b>Complete call chain:</b>      NetComm_CAN_Receive.vi:5470001      WPI_CAN_PDPReceive.vi      WPI_Power Get PDP Currents.vi      Periodic Tasks.vi      Robot Main.vi,-0.000000,0.000000,-0.000000,0.000000,TRUE,FALSE,FALSE,TRUE,FALSE,FALSE,Disabled,0.000000,0.000000,0.000000,TRUE,1.651535,-1.261978,0.000000,-0.041290,0.009018,0.000000,0.179000,0.064000,0.010000,0.000000,-0.310000,-0.710000,-0.033296,Hold,0.946289,0.000000,Hold,-157.000000,2.000000,Suck,-1755.000000,1818.181818,Speed,-1725.000000,1818.181818,Speed,Off,Off,0.000000,FALSE,0,,,,,0.000000,0.000000
02:25:51.503 PM 04/02/2016,Teleop Enabled,10,TRUE,-44087,NetComm_CAN_Receive.vi:5470001<APPEND>  <b>Complete call chain:</b>      NetComm_CAN_Receive.vi:5470001      WPI_CAN_PDPReceive.vi      WPI_Power Get PDP Currents.vi      Periodic Tasks.vi      Robot Main.vi,-0.000000,0.000000,-0.000000,0.000000,TRUE,FALSE,FALSE,TRUE,FALSE,FALSE,Disabled,0.000000,0.000000,0.000000,TRUE,1.648499,-1.259003,0.000000,-0.052292,0.040314,0.000000,0.179000,0.064000,0.010000,0.000000,-0.350000,-0.700000,-0.037944,Hold,0.946289,0.000000,Hold,-157.000000,2.000000,Suck,-1755.000000,1818.181818,Speed,-1725.000000,1818.181818,Speed,Off,Off,0.000000,FALSE,0,,,,,0.000000,0.000000
02:25:51.603 PM 04/02/2016,Teleop Enabled,11,TRUE,-44087,NetComm_CAN_Receive.vi:5470001<APPEND>  <b>Complete call chain:</b>      NetComm_CAN_Receive.vi:5470001      WPI_CAN_PDPReceive.vi      WPI_Power Get PDP Currents.vi      Periodic Tasks.vi      Robot Main.vi,-0.000000,0.000000,-0.000000,0.000000,TRUE,FALSE,FALSE,TRUE,FALSE,FALSE,Disabled,0.000000,0.000000,0.000000,TRUE,1.646881,-1.257751,0.000000,-0.051453,0.044250,0.000000,-0.073000,0.017000,0.040000,0.000000,-0.370000,-0.690000,-0.065347,Hold,0.946289,0.000000,Hold,-157.000000,2.000000,Suck,-1755.000000,1818.181818,Speed,-1725.000000,1818.181818,Speed,Off,Off,0.000000,FALSE,0,,,,,0.000000,0.000000
02:25:51.704 PM 04/02/2016,Teleop Enabled,11,TRUE,-44087,NetComm_CAN_Receive.vi:5470001<APPEND>  <b>Complete call chain:</b>      NetComm_CAN_Receive.vi:5470001      WPI_CAN_PDPReceive.vi      WPI_Power Get PDP Currents.vi      Periodic Tasks.vi      Robot Main.vi,-0.000000,0.000000,-0.000000,0.000000,TRUE,FALSE,FALSE,TRUE,FALSE,FALSE,Disabled,0.000000,0.000000,0.000000,TRUE,1.644089,-1.255692,0.000000,-0.043655,0.035049,0.000000,-0.126000,0.026000,-0.004000,0.000000,-0.380000,-0.690000,-0.057387,Hold,0.946289,0.000000,Hold,-157.000000,2.000000,Suck,-1755.000000,1818.181818,Speed,-1725.000000,1818.181818,Speed,Off,Off,0.000000,FALSE,0,,,,,0.000000,0.000000
02:25:51.805 PM 04/02/2016,Teleop Enabled,11,TRUE,-44087,NetComm_CAN_Receive.vi:5470001<APPEND>  <b>Complete call chain:</b>      NetComm_CAN_Receive.vi:5470001      WPI_CAN_PDPReceive.vi      WPI_Power Get PDP Currents.vi      Periodic Tasks.vi      Robot Main.vi,-0.000000,0.000000,-0.000000,0.000000,TRUE,FALSE,FALSE,TRUE,FALSE,FALSE,Disabled,0.000000,0.000000,0.000000,TRUE,1.641235,-1.253983,0.000000,-0.051407,0.000000,0.000000,-0.170000,-0.025000,-0.027000,0.000000,-0.310000,-0.710000,-0.063939,Hold,0.946289,0.000000,Hold,-157.000000,2.000000,Suck,-1755.000000,1818.181818,Speed,-1725.000000,1818.181818,Speed,Off,Off,0.000000,FALSE,0,,,,,0.000000,0.000000
02:25:51.907 PM 04/02/2016,Teleop Enabled,11,TRUE,-44087,NetComm_CAN_Receive.vi:5470001<APPEND>  <b>Complete call chain:</b>      NetComm_CAN_Receive.vi:5470001      WPI_CAN_PDPReceive.vi      WPI_Power Get PDP Currents.vi      Periodic Tasks.vi      Robot Main.vi,-0.000000,0.000000,-0.000000,0.000000,TRUE,FALSE,FALSE,TRUE,FALSE,FALSE,Disabled,0.000000,0.000000,0.000000,TRUE,1.637939,-1.254349,0.000000,-0.057861,-0.013641,0.000000,-0.020000,-0.063000,0.030000,0.000000,-0.330000,-0.730000,-0.060634,Hold,0.946289,0.000000,Hold,-157.000000,2.000000,Suck,-1755.000000,1818.181818,Speed,-1725.000000,1818.181818,Speed,Off,Off,0.000000,FALSE,0,,,,,0.000000,0.000000
02:25:52.006 PM 04/02/2016,Teleop Enabled,11,TRUE,-44087,NetComm_CAN_Receive.vi:5470001<APPEND>  <b>Complete call chain:</b>      NetComm_CAN_Receive.vi:5470001      WPI_CAN_PDPReceive.vi      WPI_Power Get PDP Currents.vi      Periodic Tasks.vi      Robot Main.vi,-0.000000,0.000000,-0.000000,0.000000,TRUE,FALSE,FALSE,TRUE,FALSE,FALSE,Disabled,0.000000,0.000000,0.000000,TRUE,1.635956,-1.254837,0.000000,-0.016495,-0.001480,0.000000,0.043000,-0.038000,0.023000,0.000000,-0.300000,-0.730000,-0.059078,Hold,0.946289,0.000000,Hold,-157.000000,2.000000,Suck,-1755.000000,1818.181818,Speed,-1717.500000,1818.181818,Speed,Off,Off,0.000000,FALSE,0,,,,,0.000000,0.000000
02:25:52.108 PM 04/02/2016,Teleop Enabled,11,TRUE,-44087,NetComm_CAN_Receive.vi:5470001<APPEND>  <b>Complete call chain:</b>      NetComm_CAN_Receive.vi:5470001      WPI_CAN_PDPReceive.vi      WPI_Power Get PDP Currents.vi      Periodic Tasks.vi      Robot Main.vi,-0.000000,0.000000,-0.000000,0.000000,TRUE,FALSE,FALSE,TRUE,FALSE,FALSE,Disabled,0.000000,0.000000,0.000000,TRUE,1.636215,-1.254654,0.000000,0.032227,0.008163,0.000000,0.010000,0.026000,-0.026000,0.000000,-0.320000,-0.740000,-0.059587,Hold,0.946289,0.000000,Hold,-157.000000,2.000000,Suck,-1755.000000,1818.181818,Speed,-1725.000000,1818.181818,Speed,Off,Off,0.000000,FALSE,0,,,,,0.000000,0.000000
