Time,Robot Mode,Loop Time,Error Status,Error Code,Error Source,Left Motor Output,Left Motor Encoder,Right Motor Output,Right Motor Encoder,Is Level,Is Stalled,Ball Detector Photoeye,Vision Enabled,Vision Teleop Control,Vision Auto Control,Vision Current State,Vision X Output,Vision NavX Error,Vision NavX Target,NavX Connection Status,NavX Displacement X,NavX Displacement Y,NavX Displacement Z,NavX Velocity X,NavX Velocity Y,NavX Velocity Z,NavX Acceleration X,NavX Acceleration Y,NavX Acceleration Z,NavX Pitch,NavX Yaw,NavX Roll,Gyro Angle,Roller Arm State,Roller Arm Actual,Roller Arm Desired,Shooter Arm State,Shooter Arm Actual,Shooter Arm Desired,Shooter State,Actual RPM Left,Desired RPM Left,Control Mode Left,Actual RPM Right,Desired RPM Right,Control Mode Right,Ball Shooter Cylinder,Ball Halo Cylinder,Scaler Motor Output,Scaler Solenoid Fire,Auto To Run,Auto Current File,Auto File Status,Auto Current Command,Auto Trimmed Command,Shooter Amps Left,Shooter Amps Right
02:30:39.577 PM 04/02/2016,Teleop Enabled,10,TRUE,-44087,NetComm_CAN_Receive.vi:5470001<APPEND>  <b>Complete call chain:</b>      NetComm_CAN_Receive.vi:5470001      WPI_CAN_PDPReceive.vi      WPI_Power Get PDP Currents.vi      Periodic Tasks.vi      Robot Main.vi,-0.000000,0.000000,-0.000000,0.000000,TRUE,TRUE,FALSE,FALSE,FALSE,FALSE,Disabled,0.000000,0.000000,0.000000,TRUE,1.218567,-0.978424,0.000000,0.000000,0.000000,0.000000,-0.001000,0.002000,0.009000,-0.010000,-0.260000,-0.940000,-0.120830,ResetBack,0.937500,-0.000049,ResetBack,-2238.000000,-0.250000,Suck,0.000000,0.000000,Speed,0.000000,0.000000,Speed,Off,On,0.000000,FALSE,0,,,,,0.000000,0.000000
02:30:39.676 PM 04/02/2016,Teleop Enabled,11,TRUE,-44087,NetComm_CAN_Receive.vi:5470001<APPEND>  <b>Complete call chain:</b>      NetComm_CAN_Receive.vi:5470001      WPI_CAN_PDPReceive.vi      WPI_Power Get PDP Currents.vi      Periodic Tasks.vi      Robot Main.vi,-0.000000,0.000000,-0.000000,0.000000,TRUE,FALSE,FALSE,FALSE,FALSE,FALSE,Disabled,0.000000,0.000000,0.000000,TRUE,1.218735,-0.978455,0.000000,0.010513,-0.002853,0.000000,0.007000,-0.028000,0.024000,0.000000,-0.250000,-0.910000,-0.170479,ResetBack,0.632812,-0.000049,ResetBack,-2238.000000,-0.250000,Suck,0.000000,0.000000,Speed,0.000000,0.000000,Speed,Off,On,0.000000,FALSE,0,,,,,0.000000,0.000000
02:30:39.777 PM 04/02/2016,Teleop Enabled,10,TRUE,-44087,NetComm_CAN_Receive.vi:5470001<APPEND>  <b>Complete call chain:</b>      NetComm_CAN_Receive.vi:5470001      WPI_CAN_PDPReceive.vi      WPI_Power Get PDP Currents.vi      Periodic Tasks.vi      Robot Main.vi,-0.000000,0.000000,-0.000000,0.000000,TRUE,FALSE,FALSE,FALSE,FALSE,FALSE,Disabled,0.000000,0.000000,0.000000,TRUE,1.219254,-0.978928,0.000000,0.007919,-0.007568,0.000000,-0.013000,-0.012000,0.049000,0.000000,-0.230000,-0.930000,-0.174328,ResetBack,0.001221,-0.000049,ResetBack,-1092.000000,-0.250000,Suck,0.000000,1818.181818,Speed,0.000000,1818.181818,Speed,Off,On,0.000000,FALSE,0,,,,,0.000000,0.000000
02:30:39.877 PM 04/02/2016,Teleop Enabled,10,TRUE,-44087,NetComm_CAN_Receive.vi:5470001<APPEND>  <b>Complete call chain:</b>      NetComm_CAN_Receive.vi:5470001      WPI_CAN_PDPReceive.vi      WPI_Power Get PDP Currents.vi      Periodic Tasks.vi      Robot Main.vi,-0.000000,0.000000,-0.000000,0.000000,TRUE,FALSE,FALSE,FALSE,FALSE,FALSE,Disabled,0.000000,0.000000,0.000000,TRUE,1.219437,-0.980392,0.000000,0.012741,-0.033981,0.000000,0.081000,0.057000,0.009000,-0.010000,-0.260000,-0.950000,-0.175157,ResetBack,0.002197,-0.000049,ResetBack,-614.000000,-0.250000,Suck,-37.500000,1818.181818,Speed,0.000000,1818.181818,Speed,Off,On,0.000000,FALSE,0,,,,,0.000000,0.000000
02:30:39.977 PM 04/02/2016,Teleop Enabled,9,TRUE,-44087,NetComm_CAN_Receive.vi:5470001<APPEND>  <b>Complete call chain:</b>      NetComm_CAN_Receive.vi:5470001      WPI_CAN_PDPReceive.vi      WPI_Power Get PDP Currents.vi      Periodic Tasks.vi      Robot Main.vi,-0.000000,0.000000,-0.000000,0.000000,TRUE,FALSE,FALSE,FALSE,FALSE,FALSE,Disabled,0.000000,0.000000,0.000000,TRUE,1.220123,-0.981644,0.000000,0.011322,-0.019760,0.000000,-0.024000,-0.035000,-0.008000,-0.010000,-0.230000,-0.910000,-0.186896,Reset,0.002197,0.000000,ResetBack,-614.000000,-0.250000,Suck,-495.000000,1818.181818,Speed,-112.500000,1818.181818,Speed,Off,On,0.000000,FALSE,0,,,,,0.000000,0.000000
02:30:40.079 PM 04/02/2016,Teleop Enabled,10,TRUE,-44087,NetComm_CAN_Receive.vi:5470001<APPEND>  <b>Complete call chain:</b>      NetComm_CAN_Receive.vi:5470001      WPI_CAN_PDPReceive.vi      WPI_Power Get PDP Currents.vi      Periodic Tasks.vi      Robot Main.vi,-0.000000,0.000000,-0.000000,0.000000,TRUE,FALSE,FALSE,FALSE,FALSE,FALSE,Disabled,0.000000,0.000000,0.000000,TRUE,1.220642,-0.982422,0.000000,0.014130,-0.006485,0.000000,-0.024000,-0.035000,-0.008000,-0.010000,-0.230000,-0.930000,-0.191998,Hold,1.034424,0.000000,ResetBack,-614.000000,-0.250000,Suck,-997.500000,1818.181818,Speed,-202.500000,1818.181818,Speed,Off,On,0.000000,FALSE,0,,,,,0.000000,0.000000
02:30:40.180 PM 04/02/2016,Teleop Enabled,9,TRUE,-44087,NetComm_CAN_Receive.vi:5470001<APPEND>  <b>Complete call chain:</b>      NetComm_CAN_Receive.vi:5470001      WPI_CAN_PDPReceive.vi      WPI_Power Get PDP Currents.vi      Periodic Tasks.vi      Robot Main.vi,-0.000000,0.000000,-0.000000,0.000000,TRUE,FALSE,FALSE,FALSE,FALSE,FALSE,Disabled,0.000000,0.000000,0.000000,TRUE,1.221771,-0.984283,0.000000,0.035614,-0.029617,0.000000,0.101000,0.069000,0.078000,-0.010000,-0.220000,-1.000000,-0.190435,Hold,1.097900,0.000000,ResetBack,-614.000000,-0.250000,Suck,-1402.500000,1818.181818,Speed,-352.500000,1818.181818,Speed,Off,On,0.000000,FALSE,0,,,,,0.000000,0.000000
02:30:40.279 PM 04/02/2016,Teleop Enabled,11,TRUE,-44087,NetComm_CAN_Receive.vi:5470001<APPEND>  <b>Complete call chain:</b>      NetComm_CAN_Receive.vi:5470001      WPI_CAN_PDPReceive.vi      WPI_Power Get PDP Currents.vi      Periodic Tasks.vi      Robot Main.vi,-0.000000,0.000000,-0.000000,0.000000,TRUE,FALSE,FALSE,FALSE,FALSE,FALSE,Disabled,0.000000,0.000000,0.000000,TRUE,1.224091,-0.985489,0.000000,0.060120,-0.008347,0.000000,0.053000,0.132000,0.027000,-0.010000,-0.200000,-1.000000,-0.175870,Hold,1.097168,0.000000,ResetBack,-614.000000,-0.250000,Suck,-1687.500000,1818.181818,Speed,-637.500000,1818.181818,Speed,Off,On,0.000000,FALSE,0,,,,,0.000000,0.000000
02:30:40.381 PM 04/02/2016,Teleop Enabled,10,TRUE,-44087,NetComm_CAN_Receive.vi:5470001<APPEND>  <b>Complete call chain:</b>      NetComm_CAN_Receive.vi:5470001      WPI_CAN_PDPReceive.vi      WPI_Power Get PDP Currents.vi      Periodic Tasks.vi      Robot Main.vi,-0.000000,0.000000,-0.000000,0.000000,TRUE,FALSE,FALSE,FALSE,FALSE,FALSE,Disabled,0.000000,0.000000,0.000000,TRUE,1.225159,-0.982559,0.000000,-0.006592,0.121201,0.000000,0.044000,0.000000,-0.037000,-0.010000,-0.200000,-1.000000,-0.182094,Hold,1.096436,0.000000,ResetBack,-610.000000,-0.250000,Suck,-1762.500000,1818.181818,Speed,-1087.500000,1818.181818,Speed,Off,On,0.000000,FALSE,0,,,,,0.000000,0.000000
02:30:40.482 PM 04/02/2016,Teleop Enabled,10,TRUE,-44087,NetComm_CAN_Receive.vi:5470001<APPEND>  <b>Complete call chain:</b>      NetComm_CAN_Receive.vi:5470001      WPI_CAN_PDPReceive.vi      WPI_Power Get PDP Currents.vi      Periodic Tasks.vi      Robot Main.vi,-0.000000,0.000000,-0.000000,0.000000,TRUE,FALSE,FALSE,FALSE,FALSE,FALSE,Disabled,0.000000,0.000000,0.000000,TRUE,1.225220,-0.980057,0.000000,-0.001205,-0.026321,0.000000,0.033000,0.248000,-0.176000,-0.010000,-0.200000,-1.000000,-0.168307,Hold,1.095215,0.000000,ResetBack,-606.000000,-0.250000,Suck,-1747.500000,1818.181818,Speed,-1582.500000,1818.181818,Speed,Off,On,0.000000,FALSE,0,,,,,0.000000,0.000000
02:30:40.585 PM 04/02/2016,Teleop Enabled,8,TRUE,-44087,NetComm_CAN_Receive.vi:5470001<APPEND>  <b>Complete call chain:</b>      NetComm_CAN_Receive.vi:5470001      WPI_CAN_PDPReceive.vi      WPI_Power Get PDP Currents.vi      Periodic Tasks.vi      Robot Main.vi,-0.000000,0.000000,-0.000000,0.000000,TRUE,FALSE,FALSE,FALSE,FALSE,FALSE,Disabled,0.000000,0.000000,0.000000,TRUE,1.225250,-0.981262,0.000000,0.003891,-0.036118,0.000000,-0.035000,0.323000,-0.024000,-0.010000,-0.200000,-1.000000,-0.169302,Hold,1.090332,0.000000,ResetBack,-556.000000,-0.250000,Suck,-1732.500000,1818.181818,Speed,-2220.000000,1818.181818,Speed,Off,On,0.000000,FALSE,0,,,,,0.000000,0.000000
02:30:40.686 PM 04/02/2016,Teleop Enabled,9,TRUE,-44087,NetComm_CAN_Receive.vi:5470001<APPEND>  <b>Complete call chain:</b>      NetComm_CAN_Receive.vi:5470001      WPI_CAN_PDPReceive.vi      WPI_Power Get PDP Currents.vi      Periodic Tasks.vi      Robot Main.vi,-0.000000,0.000000,-0.000000,0.000000,TRUE,FALSE,FALSE,FALSE,FALSE,FALSE,Disabled,0.000000,0.000000,0.000000,TRUE,1.223709,-0.975174,0.000000,-0.053284,0.187347,0.000000,-0.062000,0.038000,-0.011000,-0.020000,-0.200000,-1.030000,-0.176362,Hold,1.008789,0.000000,ResetBack,-556.000000,-0.250000,Suck,-1747.500000,1818.181818,Speed,-2280.000000,1818.181818,Speed,Off,On,0.000000,FALSE,0,,,,,0.000000,0.000000
02:30:40.787 PM 04/02/2016,Teleop Enabled,10,TRUE,-44087,NetComm_CAN_Receive.vi:5470001<APPEND>  <b>Complete call chain:</b>      NetComm_CAN_Receive.vi:5470001      WPI_CAN_PDPReceive.vi      WPI_Power Get PDP Currents.vi      Periodic Tasks.vi      Robot Main.vi,-0.000000,0.000000,-0.000000,0.000000,TRUE,FALSE,FALSE,FALSE,FALSE,FALSE,Disabled,0.000000,0.000000,0.000000,TRUE,1.221115,-0.965347,0.000000,-0.031204,0.192841,0.000000,-0.062000,0.038000,-0.011000,-0.020000,-0.170000,-1.050000,-0.172978,Hold,0.946777,0.000000,ResetBack,-373.000000,-0.250000,Suck,-1755.000000,1818.181818,Speed,-1882.500000,1818.181818,Speed,Off,On,0.000000,FALSE,0,,,,,0.000000,0.000000
02:30:40.888 PM 04/02/2016,Teleop Enabled,9,TRUE,-44087,NetComm_CAN_Receive.vi:5470001<APPEND>  <b>Complete call chain:</b>      NetComm_CAN_Receive.vi:5470001      WPI_CAN_PDPReceive.vi      WPI_Power Get PDP Currents.vi      Periodic Tasks.vi      Robot Main.vi,-0.000000,0.000000,-0.000000,0.000000,TRUE,FALSE,FALSE,FALSE,FALSE,FALSE,Disabled,0.000000,0.000000,0.000000,TRUE,1.220322,-0.956100,0.000000,0.000000,0.184586,0.000000,-0.088000,0.002000,0.016000,-0.020000,-0.220000,-1.040000,-0.158760,Hold,0.946777,0.000000,Reset,-370.000000,2.000000,Suck,-1755.000000,1818.181818,Speed,-1567.500000,1818.181818,Speed,Off,On,0.000000,FALSE,0,,,,,0.000000,0.000000
02:30:40.988 PM 04/02/2016,Teleop Enabled,9,TRUE,-44087,NetComm_CAN_Receive.vi:5470001<APPEND>  <b>Complete call chain:</b>      NetComm_CAN_Receive.vi:5470001      WPI_CAN_PDPReceive.vi      WPI_Power Get PDP Currents.vi      Periodic Tasks.vi      Robot Main.vi,-0.000000,0.000000,-0.000000,0.000000,TRUE,FALSE,FALSE,FALSE,FALSE,FALSE,Disabled,0.000000,0.000000,0.000000,TRUE,1.222351,-0.946335,0.000000,0.040085,0.194992,0.000000,0.128000,0.033000,0.069000,-0.020000,-0.250000,-1.040000,-0.153696,Hold,0.946533,0.000000,Hold,-148.000000,2.000000,Suck,-1747.500000,1818.181818,Speed,-1522.500000,1818.181818,Speed,Off,On,0.000000,FALSE,0,,,,,0.000000,0.000000
02:30:41.089 PM 04/02/2016,Teleop Enabled,11,TRUE,-44087,NetComm_CAN_Receive.vi:5470001<APPEND>  <b>Complete call chain:</b>      NetComm_CAN_Receive.vi:5470001      WPI_CAN_PDPReceive.vi      WPI_Power Get PDP Currents.vi      Periodic Tasks.vi      Robot Main.vi,-0.000000,0.000000,-0.000000,0.000000,TRUE,FALSE,FALSE,FALSE,FALSE,FALSE,Disabled,0.000000,0.000000,0.000000,TRUE,1.224991,-0.935562,0.000000,0.038757,0.183411,0.000000,0.110000,0.008000,0.061000,-0.020000,-0.250000,-1.040000,-0.149607,Hold,0.946289,0.000000,Hold,-148.000000,2.000000,Suck,-1740.000000,1818.181818,Speed,-1650.000000,1818.181818,Speed,Off,On,0.000000,FALSE,0,,,,,0.000000,0.000000
02:30:41.190 PM 04/02/2016,Teleop Enabled,10,TRUE,-44087,NetComm_CAN_Receive.vi:5470001<APPEND>  <b>Complete call chain:</b>      NetComm_CAN_Receive.vi:5470001      WPI_CAN_PDPReceive.vi      WPI_Power Get PDP Currents.vi      Periodic Tasks.vi      Robot Main.vi,-0.000000,0.000000,-0.000000,0.000000,TRUE,FALSE,FALSE,FALSE,FALSE,FALSE,Disabled,0.000000,0.000000,0.000000,TRUE,1.227951,-0.926712,0.000000,0.063629,0.170807,0.000000,0.000000,-0.042000,-0.046000,-0.020000,-0.240000,-1.030000,-0.159521,Hold,0.946289,0.000000,Hold,-148.000000,2.000000,Suck,-1740.000000,1818.181818,Speed,-1785.000000,1818.181818,Speed,Off,On,0.000000,FALSE,0,,,,,0.000000,0.000000
02:30:41.293 PM 04/02/2016,Teleop Enabled,11,TRUE,-44087,NetComm_CAN_Receive.vi:5470001<APPEND>  <b>Complete call chain:</b>      NetComm_CAN_Receive.vi:5470001      WPI_CAN_PDPReceive.vi      WPI_Power Get PDP Currents.vi      Periodic Tasks.vi      Robot Main.vi,-0.000000,0.000000,-0.000000,0.000000,TRUE,FALSE,FALSE,FALSE,FALSE,FALSE,Disabled,0.000000,0.000000,0.000000,TRUE,1.230576,-0.921371,0.000000,0.058105,0.000000,0.000000,0.000000,-0.042000,-0.046000,-0.020000,-0.240000,-1.030000,-0.168224,Hold,0.946289,0.000000,Hold,-148.000000,2.000000,Suck,-1747.500000,1818.181818,Speed,-1837.500000,1818.181818,Speed,Off,On,0.000000,FALSE,0,,,,,0.000000,0.000000
02:30:41.393 PM 04/02/2016,Teleop Enabled,10,TRUE,-44087,NetComm_CAN_Receive.vi:5470001<APPEND>  <b>Complete call chain:</b>      NetComm_CAN_Receive.vi:5470001      WPI_CAN_PDPReceive.vi      WPI_Power Get PDP Currents.vi      Periodic Tasks.vi      Robot Main.vi,-0.000000,0.000000,-0.000000,0.000000,TRUE,FALSE,FALSE,FALSE,FALSE,FALSE,Disabled,0.000000,0.000000,0.000000,TRUE,1.231964,-0.921738,0.000000,-0.003952,-0.009460,0.000000,-0.069000,0.004000,0.049000,-0.020000,-0.280000,-0.980000,-0.172944,Hold,0.946289,0.000000,Hold,-148.000000,2.000000,Suck,-1755.000000,1818.181818,Speed,-1792.500000,1818.181818,Speed,Off,On,0.000000,FALSE,0,,,,,0.000000,0.000000
02:30:41.493 PM 04/02/2016,Teleop Enabled,9,TRUE,-44087,NetComm_CAN_Receive.vi:5470001<APPEND>  <b>Complete call chain:</b>      NetComm_CAN_Receive.vi:5470001      WPI_CAN_PDPReceive.vi      WPI_Power Get PDP Currents.vi      Periodic Tasks.vi      Robot Main.vi,-0.000000,0.000000,-0.000000,0.000000,TRUE,FALSE,FALSE,FALSE,FALSE,FALSE,Disabled,0.000000,0.000000,0.000000,TRUE,1.231628,-0.922165,0.000000,0.005264,-0.013840,0.000000,-0.027000,0.022000,-0.015000,-0.020000,-0.260000,-0.970000,-0.181777,Hold,0.946289,0.000000,Hold,-148.000000,2.000000,Suck,-1755.000000,1818.181818,Speed,-1702.500000,1818.181818,Speed,Off,On,0.000000,FALSE,0,,,,,0.000000,0.000000
02:30:41.594 PM 04/02/2016,Teleop Enabled,11,TRUE,-44087,NetComm_CAN_Receive.vi:5470001<APPEND>  <b>Complete call chain:</b>      NetComm_CAN_Receive.vi:5470001      WPI_CAN_PDPReceive.vi      WPI_Power Get PDP Currents.vi      Periodic Tasks.vi      Robot Main.vi,-0.000000,0.000000,-0.000000,0.000000,TRUE,FALSE,FALSE,FALSE,FALSE,FALSE,Disabled,0.000000,0.000000,0.000000,TRUE,1.232193,-0.922806,0.000000,-0.013092,-0.019424,0.000000,0.014000,0.030000,-0.044000,-0.020000,-0.250000,-0.980000,-0.178786,Hold,0.946289,0.000000,Hold,-148.000000,2.000000,Suck,-1755.000000,1818.181818,Speed,-1657.500000,1818.181818,Speed,Off,On,0.000000,FALSE,0,,,,,0.000000,0.000000
02:30:41.697 PM 04/02/2016,Teleop Enabled,10,TRUE,-44087,NetComm_CAN_Receive.vi:5470001<APPEND>  <b>Complete call chain:</b>      NetComm_CAN_Receive.vi:5470001      WPI_CAN_PDPReceive.vi      WPI_Power Get PDP Currents.vi      Periodic Tasks.vi      Robot Main.vi,-0.000000,0.000000,-0.000000,0.000000,TRUE,FALSE,FALSE,FALSE,FALSE,FALSE,Disabled,0.000000,0.000000,0.000000,TRUE,1.232300,-0.922989,0.000000,-0.004669,-0.002197,0.000000,0.014000,0.030000,-0.044000,-0.020000,-0.250000,-0.920000,-0.188508,Hold,0.946289,0.000000,Hold,-148.000000,2.000000,Suck,-1755.000000,1818.181818,Speed,-1680.000000,1818.181818,Speed,Off,On,0.000000,FALSE,0,,,,,0.000000,0.000000
02:30:41.796 PM 04/02/2016,Teleop Enabled,11,TRUE,-44087,NetComm_CAN_Receive.vi:5470001<APPEND>  <b>Complete call chain:</b>      NetComm_CAN_Receive.vi:5470001      WPI_CAN_PDPReceive.vi      WPI_Power Get PDP Currents.vi      Periodic Tasks.vi      Robot Main.vi,-0.000000,0.000000,-0.000000,0.000000,TRUE,FALSE,FALSE,FALSE,FALSE,FALSE,Disabled,0.000000,0.000000,0.000000,TRUE,1.232300,-0.922989,0.000000,-0.004669,-0.002197,0.000000,0.046000,-0.006000,0.016000,-0.020000,-0.240000,-0.880000,-0.182400,Hold,0.946289,0.000000,Hold,-148.000000,2.000000,Suck,-1755.000000,1818.181818,Speed,-1725.000000,1818.181818,Speed,Off,On,0.000000,FALSE,0,,,,,0.000000,0.000000
02:30:41.897 PM 04/02/2016,Teleop Enabled,10,TRUE,-44087,NetComm_CAN_Receive.vi:5470001<APPEND>  <b>Complete call chain:</b>      NetComm_CAN_Receive.vi:5470001      WPI_CAN_PDPReceive.vi      WPI_Power Get PDP Currents.vi      Periodic Tasks.vi      Robot Main.vi,-0.000000,0.000000,-0.000000,0.000000,TRUE,FALSE,FALSE,FALSE,FALSE,FALSE,Disabled,0.000000,0.000000,0.000000,TRUE,1.228455,-0.922928,0.000000,-0.064438,0.006119,0.000000,0.001000,0.053000,-0.049000,-0.020000,-0.270000,-0.880000,-0.166069,Hold,0.946289,0.000000,Hold,-148.000000,2.000000,Suck,-1755.000000,1818.181818,Speed,-1732.500000,1818.181818,Speed,Off,On,0.000000,FALSE,0,,,,,0.000000,0.000000
02:30:41.998 PM 04/02/2016,Teleop Enabled,11,TRUE,-44087,NetComm_CAN_Receive.vi:5470001<APPEND>  <b>Complete call chain:</b>      NetComm_CAN_Receive.vi:5470001      WPI_CAN_PDPReceive.vi      WPI_Power Get PDP Currents.vi      Periodic Tasks.vi      Robot Main.vi,-0.000000,0.000000,-0.000000,0.000000,TRUE,FALSE,FALSE,FALSE,FALSE,FALSE,Disabled,0.000000,0.000000,0.000000,TRUE,1.228455,-0.922928,0.000000,-0.064438,0.006119,0.000000,0.017000,0.014000,0.005000,-0.020000,-0.270000,-0.840000,-0.167219,Hold,0.946289,0.000000,Hold,-148.000000,2.000000,Suck,-1747.500000,1818.181818,Speed,-1702.500000,1818.181818,Speed,Off,On,0.000000,FALSE,0,,,,,0.000000,0.000000
02:30:42.099 PM 04/02/2016,Teleop Enabled,11,TRUE,-44087,NetComm_CAN_Receive.vi:5470001<APPEND>  <b>Complete call chain:</b>      NetComm_CAN_Receive.vi:5470001      WPI_CAN_PDPReceive.vi      WPI_Power Get PDP Currents.vi      Periodic Tasks.vi      Robot Main.vi,-0.000000,0.000000,-0.000000,0.000000,TRUE,FALSE,FALSE,FALSE,FALSE,FALSE,Disabled,0.000000,0.000000,0.000000,TRUE,1.226822,-0.923386,0.000000,-0.029678,-0.021500,0.000000,-0.007000,0.021000,0.091000,-0.020000,-0.280000,-0.850000,-0.164768,Hold,0.946289,0.000000,Hold,-148.000000,2.000000,Suck,-1747.500000,1818.181818,Speed,-1687.500000,1818.181818,Speed,Off,On,0.000000,FALSE,0,,,,,0.000000,0.000000
02:30:42.200 PM 04/02/2016,Teleop Enabled,10,TRUE,-44087,NetComm_CAN_Receive.vi:5470001<APPEND>  <b>Complete call chain:</b>      NetComm_CAN_Receive.vi:5470001      WPI_CAN_PDPReceive.vi      WPI_Power Get PDP Currents.vi      Periodic Tasks.vi      Robot Main.vi,-0.000000,0.000000,-0.000000,0.000000,TRUE,FALSE,FALSE,FALSE,FALSE,FALSE,Disabled,0.000000,0.000000,0.000000,TRUE,1.226822,-0.923386,0.000000,-0.029678,-0.021500,0.000000,-0.045000,-0.013000,-0.034000,-0.020000,-0.300000,-0.870000,-0.159318,Hold,0.946289,0.000000,Hold,-148.000000,2.000000,Suck,-1755.000000,1818.181818,Speed,-1725.000000,1818.181818,Speed,Off,On,0.000000,FALSE,0,,,,,0.000000,0.000000
02:30:42.301 PM 04/02/2016,Teleop Enabled,10,TRUE,-44087,NetComm_CAN_Receive.vi:5470001<APPEND>  <b>Complete call chain:</b>      NetComm_CAN_Receive.vi:5470001      WPI_CAN_PDPReceive.vi      WPI_Power Get PDP Currents.vi      Periodic Tasks.vi      Robot Main.vi,-0.000000,0.000000,-0.000000,0.000000,TRUE,FALSE,FALSE,FALSE,FALSE,FALSE,Disabled,0.000000,0.000000,0.000000,TRUE,1.222702,-0.925247,0.000000,-0.061249,-0.016830,0.000000,0.083000,-0.019000,-0.003000,-0.020000,-0.320000,-0.870000,-0.164503,Hold,0.946289,0.000000,Hold,-148.000000,2.000000,Suck,-1747.500000,1818.181818,Speed,-1732.500000,1818.181818,Speed,Off,On,0.000000,FALSE,0,,,,,0.000000,0.000000
02:30:42.403 PM 04/02/2016,Teleop Enabled,11,TRUE,-44087,NetComm_CAN_Receive.vi:5470001<APPEND>  <b>Complete call chain:</b>      NetComm_CAN_Receive.vi:5470001      WPI_CAN_PDPReceive.vi      WPI_Power Get PDP Currents.vi      Periodic Tasks.vi      Robot Main.vi,-0.000000,0.000000,-0.000000,0.000000,TRUE,FALSE,FALSE,FALSE,FALSE,FALSE,Disabled,0.000000,0.000000,0.000000,TRUE,1.222702,-0.925247,0.000000,-0.061249,-0.016830,0.000000,0.067000,0.134000,0.117000,-0.020000,-0.320000,-0.860000,-0.160017,Hold,0.946289,0.000000,Hold,-148.000000,2.000000,Suck,-1747.500000,1818.181818,Speed,-1702.500000,1818.181818,Speed,Off,On,0.000000,FALSE,0,,,,,0.000000,0.000000
02:30:42.505 PM 04/02/2016,Teleop Enabled,10,TRUE,-44087,NetComm_CAN_Receive.vi:5470001<APPEND>  <b>Complete call chain:</b>      NetComm_CAN_Receive.vi:5470001      WPI_CAN_PDPReceive.vi      WPI_Power Get PDP Currents.vi      Periodic Tasks.vi      Robot Main.vi,-0.000000,0.000000,-0.000000,0.000000,TRUE,FALSE,FALSE,FALSE,FALSE,FALSE,Disabled,0.000000,0.000000,0.000000,TRUE,1.219208,-0.925598,0.000000,-0.010712,0.000000,0.000000,-0.005000,-0.002000,0.071000,-0.020000,-0.280000,-0.860000,-0.158299,Hold,0.946289,0.000000,Hold,-148.000000,2.000000,Suck,-1747.500000,1818.181818,Speed,-1695.000000,1818.181818,Speed,Off,On,0.000000,FALSE,0,,,,,0.000000,0.000000
02:30:42.606 PM 04/02/2016,Teleop Enabled,10,TRUE,-44087,NetComm_CAN_Receive.vi:5470001<APPEND>  <b>Complete call chain:</b>      NetComm_CAN_Receive.vi:5470001      WPI_CAN_PDPReceive.vi      WPI_Power Get PDP Currents.vi      Periodic Tasks.vi      Robot Main.vi,-0.000000,0.000000,-0.000000,0.000000,TRUE,FALSE,FALSE,FALSE,FALSE,FALSE,Disabled,0.000000,0.000000,0.000000,TRUE,1.218918,-0.925613,0.000000,-0.005951,0.001785,0.000000,0.024000,-0.011000,-0.028000,-0.020000,-0.280000,-0.900000,-0.155125,Hold,0.946289,0.000000,Hold,-148.000000,2.000000,Suck,-1747.500000,1818.181818,Speed,-1695.000000,1818.181818,Speed,Off,On,0.000000,FALSE,0,,,,,0.000000,0.000000
02:30:42.708 PM 04/02/2016,Teleop Enabled,10,TRUE,-44087,NetComm_CAN_Receive.vi:5470001<APPEND>  <b>Complete call chain:</b>      NetComm_CAN_Receive.vi:5470001      WPI_CAN_PDPReceive.vi      WPI_Power Get PDP Currents.vi      Periodic Tasks.vi      Robot Main.vi,-0.000000,0.000000,-0.000000,0.000000,TRUE,FALSE,FALSE,FALSE,FALSE,FALSE,Disabled,0.000000,0.000000,0.000000,TRUE,1.218918,-0.925613,0.000000,-0.005951,0.001785,0.000000,-0.008000,0.021000,0.033000,-0.020000,-0.250000,-0.940000,-0.145823,Hold,0.946289,0.000000,Hold,-148.000000,2.000000,Suck,-1747.500000,1818.181818,Speed,-1695.000000,1818.181818,Speed,Off,On,0.000000,FALSE,0,,,,,0.000000,0.000000
02:30:42.810 PM 04/02/2016,Teleop Enabled,10,TRUE,-44087,NetComm_CAN_Receive.vi:5470001<APPEND>  <b>Complete call chain:</b>      NetComm_CAN_Receive.vi:5470001      WPI_CAN_PDPReceive.vi      WPI_Power Get PDP Currents.vi      Periodic Tasks.vi      Robot Main.vi,-0.000000,0.000000,-0.000000,0.000000,TRUE,FALSE,FALSE,FALSE,FALSE,FALSE,Disabled,0.000000,0.000000,0.000000,TRUE,1.219177,-0.925079,0.000000,0.008270,0.022064,0.000000,0.005000,-0.008000,-0.014000,-0.020000,-0.270000,-0.920000,-0.149352,Hold,0.946289,0.000000,Hold,-148.000000,2.000000,Suck,-1740.000000,1818.181818,Speed,-1710.000000,1818.181818,Speed,Off,On,0.000000,FALSE,0,,,,,0.000000,0.000000
02:30:42.911 PM 04/02/2016,Teleop Enabled,10,TRUE,-44087,NetComm_CAN_Receive.vi:5470001<APPEND>  <b>Complete call chain:</b>      NetComm_CAN_Receive.vi:5470001      WPI_CAN_PDPReceive.vi      WPI_Power Get PDP Currents.vi      Periodic Tasks.vi      Robot Main.vi,-0.000000,0.000000,-0.000000,0.000000,TRUE,FALSE,FALSE,FALSE,FALSE,FALSE,Disabled,0.000000,0.000000,0.000000,TRUE,1.219360,-0.924881,0.000000,-0.000641,-0.003189,0.000000,-0.022000,-0.021000,-0.028000,-0.020000,-0.250000,-0.910000,-0.158406,Hold,0.946289,0.000000,Hold,-148.000000,2.000000,Suck,-1740.000000,1818.181818,Speed,-1725.000000,1818.181818,Speed,Off,On,0.000000,FALSE,0,,,,,0.000000,0.000000
02:30:43.011 PM 04/02/2016,Teleop Enabled,9,TRUE,-44087,NetComm_CAN_Receive.vi:5470001<APPEND>  <b>Complete call chain:</b>      NetComm_CAN_Receive.vi:5470001      WPI_CAN_PDPReceive.vi      WPI_Power Get PDP Currents.vi      Periodic Tasks.vi      Robot Main.vi,-0.000000,0.000000,-0.000000,0.000000,TRUE,FALSE,FALSE,FALSE,FALSE,FALSE,Disabled,0.000000,0.000000,0.000000,TRUE,1.219269,-0.925171,0.000000,0.002045,-0.010422,0.000000,0.066000,-0.030000,0.002000,-0.020000,-0.250000,-0.910000,-0.158406,Hold,0.946289,0.000000,Hold,-148.000000,2.000000,Suck,-1747.500000,1818.181818,Speed,-1725.000000,1818.181818,Speed,Off,On,0.000000,FALSE,0,,,,,0.000000,0.000000
02:30:43.112 PM 04/02/2016,Teleop Enabled,11,TRUE,-44087,NetComm_CAN_Receive.vi:5470001<APPEND>  <b>Complete call chain:</b>      NetComm_CAN_Receive.vi:5470001      WPI_CAN_PDPReceive.vi      WPI_Power Get PDP Currents.vi      Periodic Tasks.vi      Robot Main.vi,-0.000000,0.000000,-0.000000,0.000000,TRUE,FALSE,FALSE,FALSE,FALSE,FALSE,Disabled,0.000000,0.000000,0.000000,TRUE,1.220230,-0.925598,0.000000,0.009888,0.000000,0.000000,0.018000,0.030000,-0.026000,-0.020000,-0.240000,-0.890000,-0.172097,Hold,0.946289,0.000000,Hold,-148.000000,2.000000,Suck,-1747.500000,1818.181818,Speed,-1695.000000,1818.181818,Speed,Off,On,0.000000,FALSE,0,,,,,0.000000,0.000000
02:30:43.212 PM 04/02/2016,Teleop Enabled,10,TRUE,-44087,NetComm_CAN_Receive.vi:5470001<APPEND>  <b>Complete call chain:</b>      NetComm_CAN_Receive.vi:5470001      WPI_CAN_PDPReceive.vi      WPI_Power Get PDP Currents.vi      Periodic Tasks.vi      Robot Main.vi,-0.000000,0.000000,-0.000000,0.000000,TRUE,FALSE,FALSE,FALSE,FALSE,FALSE,Disabled,0.000000,0.000000,0.000000,TRUE,1.224045,-0.925110,0.000000,0.080978,0.000000,0.000000,-0.141000,-0.009000,0.016000,-0.020000,-0.160000,-0.940000,-0.175498,Hold,0.946289,0.000000,Hold,-148.000000,2.000000,Suck,-1747.500000,1818.181818,Speed,-1680.000000,1818.181818,Speed,Off,On,0.000000,FALSE,0,,,,,0.000000,0.000000
02:30:43.312 PM 04/02/2016,Teleop Enabled,9,TRUE,-44087,NetComm_CAN_Receive.vi:5470001<APPEND>  <b>Complete call chain:</b>      NetComm_CAN_Receive.vi:5470001      WPI_CAN_PDPReceive.vi      WPI_Power Get PDP Currents.vi      Periodic Tasks.vi      Robot Main.vi,-0.000000,0.000000,-0.000000,0.000000,TRUE,FALSE,FALSE,FALSE,FALSE,FALSE,Disabled,0.000000,0.000000,0.000000,TRUE,1.226517,-0.925140,0.000000,0.070541,-0.003342,0.000000,0.122000,-0.059000,0.020000,-0.010000,-0.130000,-0.980000,-0.180600,Hold,0.946289,0.000000,Hold,-148.000000,2.000000,Suck,-1740.000000,1818.181818,Speed,-1687.500000,1818.181818,Speed,Off,On,0.000000,FALSE,0,,,,,0.000000,0.000000
02:30:43.412 PM 04/02/2016,Teleop Enabled,10,TRUE,-44087,NetComm_CAN_Receive.vi:5470001<APPEND>  <b>Complete call chain:</b>      NetComm_CAN_Receive.vi:5470001      WPI_CAN_PDPReceive.vi      WPI_Power Get PDP Currents.vi      Periodic Tasks.vi      Robot Main.vi,-0.000000,0.000000,-0.000000,0.000000,TRUE,FALSE,FALSE,FALSE,FALSE,FALSE,Disabled,0.000000,0.000000,0.000000,TRUE,1.232040,-0.926102,0.000000,0.097488,-0.014786,0.000000,0.048000,-0.014000,-0.034000,-0.020000,-0.140000,-0.980000,-0.184318,Hold,0.946289,0.000000,Hold,-148.000000,2.000000,Suck,-1747.500000,1818.181818,Speed,-1717.500000,1818.181818,Speed,Off,On,0.000000,FALSE,0,,,,,0.000000,0.000000
02:30:43.513 PM 04/02/2016,Teleop Enabled,9,TRUE,-44087,NetComm_CAN_Receive.vi:5470001<APPEND>  <b>Complete call chain:</b>      NetComm_CAN_Receive.vi:5470001      WPI_CAN_PDPReceive.vi      WPI_Power Get PDP Currents.vi      Periodic Tasks.vi      Robot Main.vi,-0.000000,0.000000,-0.000000,0.000000,TRUE,FALSE,FALSE,FALSE,FALSE,FALSE,Disabled,0.000000,0.000000,0.000000,TRUE,1.237152,-0.927078,0.000000,0.100372,-0.019363,0.000000,-0.021000,0.057000,0.022000,-0.010000,-0.090000,-0.990000,-0.176266,Hold,0.946289,0.000000,Hold,-148.000000,2.000000,Suck,-1747.500000,1818.181818,Speed,-1740.000000,1818.181818,Speed,Off,On,0.000000,FALSE,0,,,,,0.000000,0.000000
02:30:43.613 PM 04/02/2016,Teleop Enabled,11,TRUE,-44087,NetComm_CAN_Receive.vi:5470001<APPEND>  <b>Complete call chain:</b>      NetComm_CAN_Receive.vi:5470001      WPI_CAN_PDPReceive.vi      WPI_Power Get PDP Currents.vi      Periodic Tasks.vi      Robot Main.vi,-0.000000,0.000000,-0.000000,0.000000,TRUE,FALSE,FALSE,FALSE,FALSE,FALSE,Disabled,0.000000,0.000000,0.000000,TRUE,1.241730,-0.927704,0.000000,0.082672,-0.012695,0.000000,0.173000,-0.037000,0.049000,-0.010000,-0.070000,-0.960000,-0.172403,Hold,0.946289,0.000000,Hold,-148.000000,2.000000,Suck,-1747.500000,1818.181818,Speed,-1710.000000,1818.181818,Speed,Off,On,0.000000,FALSE,0,,,,,0.000000,0.000000
02:30:43.713 PM 04/02/2016,Teleop Enabled,10,TRUE,-44087,NetComm_CAN_Receive.vi:5470001<APPEND>  <b>Complete call chain:</b>      NetComm_CAN_Receive.vi:5470001      WPI_CAN_PDPReceive.vi      WPI_Power Get PDP Currents.vi      Periodic Tasks.vi      Robot Main.vi,-0.000000,0.000000,-0.000000,0.000000,TRUE,FALSE,FALSE,FALSE,FALSE,FALSE,Disabled,0.000000,0.000000,0.000000,TRUE,1.248276,-0.928772,0.000000,0.147095,-0.028641,0.000000,-0.072000,-0.029000,0.027000,-0.010000,-0.070000,-0.960000,-0.190398,Hold,0.946289,0.000000,Hold,-148.000000,2.000000,Suck,-1747.500000,1818.181818,Speed,-1695.000000,1818.181818,Speed,Off,On,0.000000,FALSE,0,,,,,0.000000,0.000000
02:30:43.814 PM 04/02/2016,Teleop Enabled,10,TRUE,-44087,NetComm_CAN_Receive.vi:5470001<APPEND>  <b>Complete call chain:</b>      NetComm_CAN_Receive.vi:5470001      WPI_CAN_PDPReceive.vi      WPI_Power Get PDP Currents.vi      Periodic Tasks.vi      Robot Main.vi,-0.000000,0.000000,-0.000000,0.000000,TRUE,FALSE,FALSE,FALSE,FALSE,FALSE,Disabled,0.000000,0.000000,0.000000,TRUE,1.255234,-0.929810,0.000000,0.145035,0.000000,0.000000,-0.021000,-0.018000,-0.054000,-0.020000,-0.070000,-0.950000,-0.169133,Hold,0.946289,0.000000,Hold,-148.000000,2.000000,Suck,-1747.500000,1818.181818,Speed,-1717.500000,1818.181818,Speed,Off,On,0.000000,FALSE,0,,,,,0.000000,0.000000
02:30:43.916 PM 04/02/2016,Teleop Enabled,10,TRUE,-44087,NetComm_CAN_Receive.vi:5470001<APPEND>  <b>Complete call chain:</b>      NetComm_CAN_Receive.vi:5470001      WPI_CAN_PDPReceive.vi      WPI_Power Get PDP Currents.vi      Periodic Tasks.vi      Robot Main.vi,-0.000000,0.000000,-0.000000,0.000000,TRUE,FALSE,FALSE,FALSE,FALSE,FALSE,Disabled,0.000000,0.000000,0.000000,TRUE,1.262146,-0.929794,0.000000,0.126404,0.003296,0.000000,-0.078000,0.027000,0.069000,-0.020000,-0.090000,-0.940000,-0.160647,Hold,0.946289,0.000000,Hold,-148.000000,2.000000,Suck,-1740.000000,1818.181818,Speed,-1732.500000,1818.181818,Speed,Off,On,0.000000,FALSE,0,,,,,0.000000,0.000000
02:30:44.017 PM 04/02/2016,Teleop Enabled,9,TRUE,-44087,NetComm_CAN_Receive.vi:5470001<APPEND>  <b>Complete call chain:</b>      NetComm_CAN_Receive.vi:5470001      WPI_CAN_PDPReceive.vi      WPI_Power Get PDP Currents.vi      Periodic Tasks.vi      Robot Main.vi,-0.000000,0.000000,-0.000000,0.000000,TRUE,FALSE,FALSE,FALSE,FALSE,FALSE,Disabled,0.000000,0.000000,0.000000,TRUE,1.268173,-0.929962,0.000000,0.103333,-0.008316,0.000000,-0.016000,0.004000,0.045000,-0.020000,-0.120000,-0.900000,-0.161422,Hold,0.946289,0.000000,Hold,-148.000000,2.000000,Suck,-1747.500000,1818.181818,Speed,-1717.500000,1818.181818,Speed,Off,On,0.000000,FALSE,0,,,,,0.000000,0.000000
02:30:44.116 PM 04/02/2016,Teleop Enabled,11,TRUE,-44087,NetComm_CAN_Receive.vi:5470001<APPEND>  <b>Complete call chain:</b>      NetComm_CAN_Receive.vi:5470001      WPI_CAN_PDPReceive.vi      WPI_Power Get PDP Currents.vi      Periodic Tasks.vi      Robot Main.vi,-0.000000,0.000000,-0.000000,0.000000,TRUE,FALSE,FALSE,FALSE,FALSE,FALSE,Disabled,0.000000,0.000000,0.000000,TRUE,1.274384,-0.930771,0.000000,0.118851,-0.020447,0.000000,0.088000,0.047000,-0.007000,-0.020000,-0.140000,-0.890000,-0.161194,Hold,0.946289,0.000000,Hold,-148.000000,2.000000,Suck,-1747.500000,1818.181818,Speed,-1702.500000,1818.181818,Speed,Off,On,0.000000,FALSE,0,,,,,0.000000,0.000000
02:30:44.216 PM 04/02/2016,Teleop Enabled,10,TRUE,-44087,NetComm_CAN_Receive.vi:5470001<APPEND>  <b>Complete call chain:</b>      NetComm_CAN_Receive.vi:5470001      WPI_CAN_PDPReceive.vi      WPI_Power Get PDP Currents.vi      Periodic Tasks.vi      Robot Main.vi,-0.000000,0.000000,-0.000000,0.000000,TRUE,FALSE,FALSE,FALSE,FALSE,FALSE,Disabled,0.000000,0.000000,0.000000,TRUE,1.281006,-0.931076,0.000000,0.120514,0.000000,0.000000,-0.008000,0.010000,-0.015000,-0.020000,-0.140000,-0.870000,-0.169701,Hold,0.946289,0.000000,Hold,-148.000000,2.000000,Suck,-1747.500000,1818.181818,Speed,-1710.000000,1818.181818,Speed,Off,On,0.000000,FALSE,0,,,,,0.000000,0.000000
02:30:44.316 PM 04/02/2016,Teleop Enabled,11,TRUE,-44087,NetComm_CAN_Receive.vi:5470001<APPEND>  <b>Complete call chain:</b>      NetComm_CAN_Receive.vi:5470001      WPI_CAN_PDPReceive.vi      WPI_Power Get PDP Currents.vi      Periodic Tasks.vi      Robot Main.vi,-0.000000,0.000000,-0.000000,0.000000,TRUE,FALSE,FALSE,FALSE,FALSE,FALSE,Disabled,0.000000,0.000000,0.000000,TRUE,1.286850,-0.931061,0.000000,0.098267,-0.004898,0.000000,0.175000,-0.014000,0.080000,-0.020000,-0.220000,-0.890000,-0.177154,Hold,0.946289,0.000000,Hold,-148.000000,2.000000,Suck,-1747.500000,1818.181818,Speed,-1702.500000,1818.181818,Speed,Off,On,0.000000,FALSE,0,,,,,0.000000,0.000000
02:30:44.417 PM 04/02/2016,Teleop Enabled,11,TRUE,-44087,NetComm_CAN_Receive.vi:5470001<APPEND>  <b>Complete call chain:</b>      NetComm_CAN_Receive.vi:5470001      WPI_CAN_PDPReceive.vi      WPI_Power Get PDP Currents.vi      Periodic Tasks.vi      Robot Main.vi,-0.000000,0.000000,-0.000000,0.000000,TRUE,FALSE,FALSE,FALSE,FALSE,FALSE,Disabled,0.000000,0.000000,0.000000,TRUE,1.293304,-0.930008,0.000000,0.120468,0.044296,0.000000,0.019000,0.040000,0.025000,-0.020000,-0.230000,-0.880000,-0.167047,Hold,0.946289,0.000000,Hold,-148.000000,2.000000,Suck,-1747.500000,1818.181818,Speed,-1680.000000,1818.181818,Speed,Off,On,0.000000,FALSE,0,,,,,0.000000,0.000000
02:30:44.519 PM 04/02/2016,Teleop Enabled,11,TRUE,-44087,NetComm_CAN_Receive.vi:5470001<APPEND>  <b>Complete call chain:</b>      NetComm_CAN_Receive.vi:5470001      WPI_CAN_PDPReceive.vi      WPI_Power Get PDP Currents.vi      Periodic Tasks.vi      Robot Main.vi,-0.000000,0.000000,-0.000000,0.000000,TRUE,FALSE,FALSE,FALSE,FALSE,FALSE,Disabled,0.000000,0.000000,0.000000,TRUE,1.297928,-0.926651,0.000000,0.100113,0.066818,0.000000,-0.044000,0.013000,-0.076000,-0.020000,-0.250000,-0.880000,-0.153593,Hold,0.946289,0.000000,Hold,-148.000000,2.000000,Suck,-1747.500000,1818.181818,Speed,-1672.500000,1818.181818,Speed,Off,On,0.000000,FALSE,0,,,,,0.000000,0.000000
02:30:44.620 PM 04/02/2016,Teleop Enabled,9,TRUE,-44087,NetComm_CAN_Receive.vi:5470001<APPEND>  <b>Complete call chain:</b>      NetComm_CAN_Receive.vi:5470001      WPI_CAN_PDPReceive.vi      WPI_Power Get PDP Currents.vi      Periodic Tasks.vi      Robot Main.vi,-0.000000,0.000000,-0.000000,0.000000,TRUE,FALSE,FALSE,FALSE,FALSE,FALSE,Disabled,0.000000,0.000000,0.000000,TRUE,1.301849,-0.924545,0.000000,0.071411,0.025696,0.000000,-0.071000,0.048000,-0.028000,-0.020000,-0.280000,-0.930000,-0.148612,Hold,0.946289,0.000000,Hold,-148.000000,2.000000,Suck,-1747.500000,1818.181818,Speed,-1702.500000,1818.181818,Speed,Off,On,0.000000,FALSE,0,,,,,0.000000,0.000000
02:30:44.723 PM 04/02/2016,Teleop Enabled,10,TRUE,-44087,NetComm_CAN_Receive.vi:5470001<APPEND>  <b>Complete call chain:</b>      NetComm_CAN_Receive.vi:5470001      WPI_CAN_PDPReceive.vi      WPI_Power Get PDP Currents.vi      Periodic Tasks.vi      Robot Main.vi,-0.000000,0.000000,-0.000000,0.000000,TRUE,FALSE,FALSE,FALSE,FALSE,FALSE,Disabled,0.000000,0.000000,0.000000,TRUE,1.305435,-0.922333,0.000000,0.079010,0.045929,0.000000,-0.034000,-0.085000,-0.059000,-0.020000,-0.290000,-0.910000,-0.158647,Hold,0.946289,0.000000,Hold,-148.000000,2.000000,Suck,-1747.500000,1818.181818,Speed,-1725.000000,1818.181818,Speed,Off,On,0.000000,FALSE,0,,,,,0.000000,0.000000
02:30:44.825 PM 04/02/2016,Teleop Enabled,9,TRUE,-44087,NetComm_CAN_Receive.vi:5470001<APPEND>  <b>Complete call chain:</b>      NetComm_CAN_Receive.vi:5470001      WPI_CAN_PDPReceive.vi      WPI_Power Get PDP Currents.vi      Periodic Tasks.vi      Robot Main.vi,-0.000000,0.000000,-0.000000,0.000000,TRUE,FALSE,FALSE,FALSE,FALSE,FALSE,Disabled,0.000000,0.000000,0.000000,TRUE,1.308533,-0.920868,0.000000,0.053894,0.023026,0.000000,0.100000,0.023000,-0.027000,-0.020000,-0.290000,-0.900000,-0.143816,Hold,0.946289,0.000000,Hold,-148.000000,2.000000,Suck,-1747.500000,1818.181818,Speed,-1747.500000,1818.181818,Speed,Off,On,0.000000,FALSE,0,,,,,0.000000,0.000000
02:30:44.926 PM 04/02/2016,Teleop Enabled,10,TRUE,-44087,NetComm_CAN_Receive.vi:5470001<APPEND>  <b>Complete call chain:</b>      NetComm_CAN_Receive.vi:5470001      WPI_CAN_PDPReceive.vi      WPI_Power Get PDP Currents.vi      Periodic Tasks.vi      Robot Main.vi,-0.000000,0.000000,-0.000000,0.000000,TRUE,FALSE,FALSE,FALSE,FALSE,FALSE,Disabled,0.000000,0.000000,0.000000,TRUE,1.311661,-0.919250,0.000000,0.056824,0.042908,0.000000,0.021000,0.065000,-0.012000,-0.020000,-0.280000,-0.900000,-0.164403,Hold,0.946289,0.000000,Hold,-148.000000,2.000000,Suck,-1747.500000,1818.181818,Speed,-1732.500000,1818.181818,Speed,Off,On,0.000000,FALSE,0,,,,,0.000000,0.000000
02:30:45.026 PM 04/02/2016,Teleop Enabled,10,TRUE,-44087,NetComm_CAN_Receive.vi:5470001<APPEND>  <b>Complete call chain:</b>      NetComm_CAN_Receive.vi:5470001      WPI_CAN_PDPReceive.vi      WPI_Power Get PDP Currents.vi      Periodic Tasks.vi      Robot Main.vi,-0.000000,0.000000,-0.000000,0.000000,TRUE,FALSE,FALSE,FALSE,FALSE,FALSE,Disabled,0.000000,0.000000,0.000000,TRUE,1.314941,-0.914886,0.000000,0.061920,0.081543,0.000000,0.053000,-0.045000,0.022000,-0.020000,-0.290000,-0.900000,-0.186952,Hold,0.946289,0.000000,Hold,-148.000000,2.000000,Suck,-1747.500000,1818.181818,Speed,-1710.000000,1818.181818,Speed,Off,On,0.000000,FALSE,0,,,,,0.000000,0.000000
02:30:45.126 PM 04/02/2016,Teleop Enabled,10,TRUE,-44087,NetComm_CAN_Receive.vi:5470001<APPEND>  <b>Complete call chain:</b>      NetComm_CAN_Receive.vi:5470001      WPI_CAN_PDPReceive.vi      WPI_Power Get PDP Currents.vi      Periodic Tasks.vi      Robot Main.vi,-0.000000,0.000000,-0.000000,0.000000,TRUE,FALSE,FALSE,FALSE,FALSE,FALSE,Disabled,0.000000,0.000000,0.000000,TRUE,1.316711,-0.912247,0.000000,0.045181,0.042496,0.000000,0.152000,0.011000,0.013000,-0.020000,-0.270000,-0.950000,-0.189830,Hold,0.946289,0.000000,Hold,-148.000000,2.000000,Suck,-1747.500000,1818.181818,Speed,-1695.000000,1818.181818,Speed,Off,On,0.000000,FALSE,0,,,,,0.000000,0.000000
02:30:45.227 PM 04/02/2016,Teleop Enabled,9,TRUE,-44087,NetComm_CAN_Receive.vi:5470001<APPEND>  <b>Complete call chain:</b>      NetComm_CAN_Receive.vi:5470001      WPI_CAN_PDPReceive.vi      WPI_Power Get PDP Currents.vi      Periodic Tasks.vi      Robot Main.vi,-0.000000,0.000000,-0.000000,0.000000,TRUE,FALSE,FALSE,FALSE,FALSE,FALSE,Disabled,0.000000,0.000000,0.000000,TRUE,1.319092,-0.909943,0.000000,0.059372,0.049301,0.000000,0.168000,0.022000,0.011000,-0.020000,-0.270000,-0.940000,-0.193644,Hold,0.946289,0.000000,Hold,-148.000000,2.000000,Suck,-1747.500000,1818.181818,Speed,-1695.000000,1818.181818,Speed,Off,On,0.000000,FALSE,0,,,,,0.000000,0.000000
02:30:45.328 PM 04/02/2016,Teleop Enabled,10,TRUE,-44087,NetComm_CAN_Receive.vi:5470001<APPEND>  <b>Complete call chain:</b>      NetComm_CAN_Receive.vi:5470001      WPI_CAN_PDPReceive.vi      WPI_Power Get PDP Currents.vi      Periodic Tasks.vi      Robot Main.vi,-0.000000,0.000000,-0.000000,0.000000,TRUE,FALSE,FALSE,FALSE,FALSE,FALSE,Disabled,0.000000,0.000000,0.000000,TRUE,1.321884,-0.906906,0.000000,0.047256,0.062653,0.000000,-0.040000,0.005000,-0.045000,-0.020000,-0.280000,-0.900000,-0.185860,Hold,0.946289,0.000000,Hold,-148.000000,2.000000,Suck,-1747.500000,1818.181818,Speed,-1702.500000,1818.181818,Speed,Off,On,0.000000,FALSE,0,,,,,0.000000,0.000000
02:30:45.429 PM 04/02/2016,Teleop Enabled,11,TRUE,-44087,NetComm_CAN_Receive.vi:5470001<APPEND>  <b>Complete call chain:</b>      NetComm_CAN_Receive.vi:5470001      WPI_CAN_PDPReceive.vi      WPI_Power Get PDP Currents.vi      Periodic Tasks.vi      Robot Main.vi,-0.000000,0.000000,-0.000000,0.000000,TRUE,FALSE,FALSE,FALSE,FALSE,FALSE,Disabled,0.000000,0.000000,0.000000,TRUE,1.323532,-0.906128,0.000000,0.013138,0.006302,0.000000,-0.066000,-0.006000,-0.014000,-0.020000,-0.300000,-0.850000,-0.194288,Hold,0.946289,0.000000,Hold,-148.000000,2.000000,Suck,-1740.000000,1818.181818,Speed,-1710.000000,1818.181818,Speed,Off,On,0.000000,FALSE,0,,,,,0.000000,0.000000
02:30:45.530 PM 04/02/2016,Teleop Enabled,11,TRUE,-44087,NetComm_CAN_Receive.vi:5470001<APPEND>  <b>Complete call chain:</b>      NetComm_CAN_Receive.vi:5470001      WPI_CAN_PDPReceive.vi      WPI_Power Get PDP Currents.vi      Periodic Tasks.vi      Robot Main.vi,-0.000000,0.000000,-0.000000,0.000000,TRUE,FALSE,FALSE,FALSE,FALSE,FALSE,Disabled,0.000000,0.000000,0.000000,TRUE,1.323578,-0.905701,0.000000,0.008133,0.018997,0.000000,-0.071000,-0.005000,-0.014000,-0.020000,-0.320000,-0.830000,-0.193327,Hold,0.946289,0.000000,Hold,-148.000000,2.000000,Suck,-1747.500000,1818.181818,Speed,-1717.500000,1818.181818,Speed,Off,On,0.000000,FALSE,0,,,,,0.000000,0.000000
02:30:45.631 PM 04/02/2016,Teleop Enabled,9,TRUE,-44087,NetComm_CAN_Receive.vi:5470001<APPEND>  <b>Complete call chain:</b>      NetComm_CAN_Receive.vi:5470001      WPI_CAN_PDPReceive.vi      WPI_Power Get PDP Currents.vi      Periodic Tasks.vi      Robot Main.vi,-0.000000,0.000000,-0.000000,0.000000,TRUE,FALSE,FALSE,FALSE,FALSE,FALSE,Disabled,0.000000,0.000000,0.000000,TRUE,1.323929,-0.904282,0.000000,0.011673,0.036865,0.000000,0.017000,-0.034000,0.003000,-0.020000,-0.300000,-0.820000,-0.176672,Hold,0.946289,0.000000,Hold,-148.000000,2.000000,Suck,-1747.500000,1818.181818,Speed,-1717.500000,1818.181818,Speed,Off,On,0.000000,FALSE,0,,,,,0.000000,0.000000
02:30:45.730 PM 04/02/2016,Teleop Enabled,11,TRUE,-44087,NetComm_CAN_Receive.vi:5470001<APPEND>  <b>Complete call chain:</b>      NetComm_CAN_Receive.vi:5470001      WPI_CAN_PDPReceive.vi      WPI_Power Get PDP Currents.vi      Periodic Tasks.vi      Robot Main.vi,-0.000000,0.000000,-0.000000,0.000000,TRUE,FALSE,FALSE,FALSE,FALSE,FALSE,Disabled,0.000000,0.000000,0.000000,TRUE,1.324280,-0.902222,0.000000,-0.008896,0.048111,0.000000,-0.019000,-0.047000,0.009000,-0.020000,-0.310000,-0.800000,-0.174039,Hold,0.946289,0.000000,Hold,-148.000000,2.000000,Suck,-1740.000000,1818.181818,Speed,-1702.500000,1818.181818,Speed,Off,On,0.000000,FALSE,0,,,,,0.000000,0.000000
02:30:45.830 PM 04/02/2016,Teleop Enabled,11,TRUE,-44087,NetComm_CAN_Receive.vi:5470001<APPEND>  <b>Complete call chain:</b>      NetComm_CAN_Receive.vi:5470001      WPI_CAN_PDPReceive.vi      WPI_Power Get PDP Currents.vi      Periodic Tasks.vi      Robot Main.vi,-0.000000,0.000000,-0.000000,0.000000,TRUE,FALSE,FALSE,FALSE,FALSE,FALSE,Disabled,0.000000,0.000000,0.000000,TRUE,1.323715,-0.900665,0.000000,-0.020279,0.023499,0.000000,0.057000,0.007000,0.065000,-0.020000,-0.320000,-0.810000,-0.170424,Hold,0.946289,0.000000,Hold,-148.000000,2.000000,Suck,-1740.000000,1818.181818,Speed,-1717.500000,1818.181818,Speed,Off,On,0.000000,FALSE,0,,,,,0.000000,0.000000
02:30:45.931 PM 04/02/2016,Teleop Enabled,10,TRUE,-44087,NetComm_CAN_Receive.vi:5470001<APPEND>  <b>Complete call chain:</b>      NetComm_CAN_Receive.vi:5470001      WPI_CAN_PDPReceive.vi      WPI_Power Get PDP Currents.vi      Periodic Tasks.vi      Robot Main.vi,-0.000000,0.000000,-0.000000,0.000000,TRUE,FALSE,FALSE,FALSE,FALSE,FALSE,Disabled,0.000000,0.000000,0.000000,TRUE,1.322815,-0.900497,0.000000,-0.022095,-0.003815,0.000000,-0.079000,0.051000,-0.009000,-0.020000,-0.320000,-0.820000,-0.184332,Hold,0.946289,0.000000,Hold,-148.000000,2.000000,Suck,-1740.000000,1818.181818,Speed,-1725.000000,1818.181818,Speed,Off,On,0.000000,FALSE,0,,,,,0.000000,0.000000
02:30:46.032 PM 04/02/2016,Teleop Enabled,11,TRUE,-44087,NetComm_CAN_Receive.vi:5470001<APPEND>  <b>Complete call chain:</b>      NetComm_CAN_Receive.vi:5470001      WPI_CAN_PDPReceive.vi      WPI_Power Get PDP Currents.vi      Periodic Tasks.vi      Robot Main.vi,-0.000000,0.000000,-0.000000,0.000000,TRUE,FALSE,FALSE,FALSE,FALSE,FALSE,Disabled,0.000000,0.000000,0.000000,TRUE,1.321625,-0.899948,0.000000,-0.021225,0.015335,0.000000,-0.080000,-0.036000,0.035000,-0.020000,-0.310000,-0.840000,-0.175763,Hold,0.946289,0.000000,Hold,-148.000000,2.000000,Suck,-1747.500000,1818.181818,Speed,-1710.000000,1818.181818,Speed,Off,On,0.000000,FALSE,0,,,,,0.000000,0.000000
02:30:46.133 PM 04/02/2016,Teleop Enabled,10,TRUE,-44087,NetComm_CAN_Receive.vi:5470001<APPEND>  <b>Complete call chain:</b>      NetComm_CAN_Receive.vi:5470001      WPI_CAN_PDPReceive.vi      WPI_Power Get PDP Currents.vi      Periodic Tasks.vi      Robot Main.vi,-0.000000,0.000000,-0.000000,0.000000,TRUE,FALSE,FALSE,FALSE,FALSE,FALSE,Disabled,0.000000,0.000000,0.000000,TRUE,1.320694,-0.899155,0.000000,-0.013229,0.033279,0.000000,-0.212000,0.026000,-0.090000,-0.030000,-0.300000,-0.870000,-0.159267,Hold,0.946289,0.000000,Hold,-148.000000,2.000000,Suck,-1740.000000,1818.181818,Speed,-1702.500000,1818.181818,Speed,Off,On,0.000000,FALSE,0,,,,,0.000000,0.000000
02:30:46.234 PM 04/02/2016,Teleop Enabled,9,TRUE,-44087,NetComm_CAN_Receive.vi:5470001<APPEND>  <b>Complete call chain:</b>      NetComm_CAN_Receive.vi:5470001      WPI_CAN_PDPReceive.vi      WPI_Power Get PDP Currents.vi      Periodic Tasks.vi      Robot Main.vi,-0.000000,0.000000,-0.000000,0.000000,TRUE,FALSE,FALSE,FALSE,FALSE,FALSE,Disabled,0.000000,0.000000,0.000000,TRUE,1.319199,-0.897293,0.000000,-0.011276,0.029114,0.000000,-0.055000,-0.040000,0.021000,-0.020000,-0.310000,-0.830000,-0.159253,Hold,0.946289,0.000000,Hold,-148.000000,2.000000,Suck,-1725.000000,1818.181818,Speed,-1687.500000,1818.181818,Speed,Off,On,0.000000,FALSE,0,,,,,0.000000,0.000000
02:30:46.334 PM 04/02/2016,Teleop Enabled,9,TRUE,-44087,NetComm_CAN_Receive.vi:5470001<APPEND>  <b>Complete call chain:</b>      NetComm_CAN_Receive.vi:5470001      WPI_CAN_PDPReceive.vi      WPI_Power Get PDP Currents.vi      Periodic Tasks.vi      Robot Main.vi,-0.000000,0.000000,-0.000000,0.000000,TRUE,FALSE,FALSE,FALSE,FALSE,FALSE,Disabled,0.000000,0.000000,0.000000,TRUE,1.318222,-0.896149,0.000000,-0.007248,0.022278,0.000000,0.003000,-0.016000,-0.016000,-0.020000,-0.340000,-0.850000,-0.158736,Hold,0.946289,0.000000,Hold,-148.000000,2.000000,Suck,-1702.500000,1818.181818,Speed,-1680.000000,1818.181818,Speed,Off,On,0.000000,FALSE,0,,,,,0.000000,0.000000
02:30:46.433 PM 04/02/2016,Teleop Enabled,10,TRUE,-44087,NetComm_CAN_Receive.vi:5470001<APPEND>  <b>Complete call chain:</b>      NetComm_CAN_Receive.vi:5470001      WPI_CAN_PDPReceive.vi      WPI_Power Get PDP Currents.vi      Periodic Tasks.vi      Robot Main.vi,-0.000000,0.000000,-0.000000,0.000000,TRUE,FALSE,FALSE,FALSE,FALSE,FALSE,Disabled,0.000000,0.000000,0.000000,TRUE,1.318436,-0.895493,0.000000,0.006088,0.013168,0.000000,0.066000,0.003000,0.131000,-0.020000,-0.260000,-0.910000,-0.160110,Hold,0.946289,0.000000,Hold,-148.000000,2.000000,Suck,-1687.500000,1818.181818,Speed,-1710.000000,1818.181818,Speed,Off,On,0.000000,FALSE,0,,,,,0.000000,0.000000
02:30:46.534 PM 04/02/2016,Teleop Enabled,9,TRUE,-44087,NetComm_CAN_Receive.vi:5470001<APPEND>  <b>Complete call chain:</b>      NetComm_CAN_Receive.vi:5470001      WPI_CAN_PDPReceive.vi      WPI_Power Get PDP Currents.vi      Periodic Tasks.vi      Robot Main.vi,-0.000000,0.000000,-0.000000,0.000000,TRUE,FALSE,FALSE,FALSE,FALSE,FALSE,Disabled,0.000000,0.000000,0.000000,TRUE,1.318619,-0.895050,0.000000,0.011673,0.008789,0.000000,0.095000,-0.062000,0.036000,-0.020000,-0.260000,-0.880000,-0.163921,Hold,0.946289,0.000000,Hold,-148.000000,2.000000,Suck,-1695.000000,1818.181818,Speed,-1725.000000,1818.181818,Speed,Off,On,0.000000,FALSE,0,,,,,0.000000,0.000000
02:30:46.634 PM 04/02/2016,Teleop Enabled,9,TRUE,-44087,NetComm_CAN_Receive.vi:5470001<APPEND>  <b>Complete call chain:</b>      NetComm_CAN_Receive.vi:5470001      WPI_CAN_PDPReceive.vi      WPI_Power Get PDP Currents.vi      Periodic Tasks.vi      Robot Main.vi,-0.000000,0.000000,-0.000000,0.000000,TRUE,FALSE,FALSE,FALSE,FALSE,FALSE,Disabled,0.000000,0.000000,0.000000,TRUE,1.320312,-0.895996,0.000000,-0.001572,-0.025314,0.000000,0.158000,-0.054000,-0.002000,-0.020000,-0.310000,-0.740000,-0.168699,Hold,0.946289,0.000000,Hold,-148.000000,2.000000,Suck,-1695.000000,1818.181818,Speed,-1740.000000,1818.181818,Speed,Off,On,0.000000,FALSE,0,,,,,0.000000,0.000000
02:30:46.734 PM 04/02/2016,Teleop Enabled,10,TRUE,-44087,NetComm_CAN_Receive.vi:5470001<APPEND>  <b>Complete call chain:</b>      NetComm_CAN_Receive.vi:5470001      WPI_CAN_PDPReceive.vi      WPI_Power Get PDP Currents.vi      Periodic Tasks.vi      Robot Main.vi,-0.000000,0.000000,-0.000000,0.000000,TRUE,FALSE,FALSE,FALSE,FALSE,FALSE,Disabled,0.000000,0.000000,0.000000,TRUE,1.321304,-0.897491,0.000000,0.030426,-0.046463,0.000000,-0.115000,0.053000,-0.019000,-0.030000,-0.280000,-0.820000,-0.162802,Hold,0.946289,0.000000,Hold,-148.000000,2.000000,Suck,-1710.000000,1818.181818,Speed,-1740.000000,1818.181818,Speed,Off,On,0.000000,FALSE,0,,,,,0.000000,0.000000
02:30:46.834 PM 04/02/2016,Teleop Enabled,10,TRUE,-44087,NetComm_CAN_Receive.vi:5470001<APPEND>  <b>Complete call chain:</b>      NetComm_CAN_Receive.vi:5470001      WPI_CAN_PDPReceive.vi      WPI_Power Get PDP Currents.vi      Periodic Tasks.vi      Robot Main.vi,-0.000000,0.000000,-0.000000,0.000000,TRUE,FALSE,FALSE,FALSE,FALSE,FALSE,Disabled,0.000000,0.000000,0.000000,TRUE,1.321350,-0.899307,0.000000,-0.006927,-0.029984,0.000000,-0.037000,0.014000,-0.034000,-0.020000,-0.270000,-0.840000,-0.158316,Hold,0.946289,0.000000,Hold,-148.000000,2.000000,Suck,-1725.000000,1818.181818,Speed,-1710.000000,1818.181818,Speed,Off,On,0.000000,FALSE,0,,,,,0.000000,0.000000
02:30:46.934 PM 04/02/2016,Teleop Enabled,9,TRUE,-44087,NetComm_CAN_Receive.vi:5470001<APPEND>  <b>Complete call chain:</b>      NetComm_CAN_Receive.vi:5470001      WPI_CAN_PDPReceive.vi      WPI_Power Get PDP Currents.vi      Periodic Tasks.vi      Robot Main.vi,-0.000000,0.000000,-0.000000,0.000000,TRUE,FALSE,FALSE,FALSE,FALSE,FALSE,Disabled,0.000000,0.000000,0.000000,TRUE,1.321014,-0.901428,0.000000,-0.012299,-0.038284,0.000000,-0.047000,-0.016000,-0.027000,-0.020000,-0.280000,-0.830000,-0.149851,Hold,0.946289,0.000000,Hold,-148.000000,2.000000,Suck,-1732.500000,1818.181818,Speed,-1695.000000,1818.181818,Speed,Off,On,0.000000,FALSE,0,,,,,0.000000,0.000000
02:30:47.034 PM 04/02/2016,Teleop Enabled,11,TRUE,-44087,NetComm_CAN_Receive.vi:5470001<APPEND>  <b>Complete call chain:</b>      NetComm_CAN_Receive.vi:5470001      WPI_CAN_PDPReceive.vi      WPI_Power Get PDP Currents.vi      Periodic Tasks.vi      Robot Main.vi,-0.000000,0.000000,-0.000000,0.000000,TRUE,FALSE,FALSE,FALSE,FALSE,FALSE,Disabled,0.000000,0.000000,0.000000,TRUE,1.320374,-0.903824,0.000000,0.004257,-0.050278,0.000000,0.009000,-0.009000,0.080000,-0.020000,-0.250000,-0.890000,-0.129488,Hold,0.946289,0.000000,Hold,-148.000000,2.000000,Suck,-1740.000000,1818.181818,Speed,-1710.000000,1818.181818,Speed,Off,On,0.000000,FALSE,0,,,,,0.000000,0.000000
02:30:47.135 PM 04/02/2016,Teleop Enabled,10,TRUE,-44087,NetComm_CAN_Receive.vi:5470001<APPEND>  <b>Complete call chain:</b>      NetComm_CAN_Receive.vi:5470001      WPI_CAN_PDPReceive.vi      WPI_Power Get PDP Currents.vi      Periodic Tasks.vi      Robot Main.vi,-0.000000,0.000000,-0.000000,0.000000,TRUE,FALSE,FALSE,FALSE,FALSE,FALSE,Disabled,0.000000,0.000000,0.000000,TRUE,1.319626,-0.906418,0.000000,-0.003876,-0.035080,0.000000,0.032000,0.025000,0.020000,-0.020000,-0.250000,-0.880000,-0.146064,Hold,0.946289,0.000000,Hold,-148.000000,2.000000,Suck,-1755.000000,1818.181818,Speed,-1732.500000,1818.181818,Speed,Off,On,0.000000,FALSE,0,,,,,0.000000,0.000000
02:30:47.235 PM 04/02/2016,Teleop Enabled,9,TRUE,-44087,NetComm_CAN_Receive.vi:5470001<APPEND>  <b>Complete call chain:</b>      NetComm_CAN_Receive.vi:5470001      WPI_CAN_PDPReceive.vi      WPI_Power Get PDP Currents.vi      Periodic Tasks.vi      Robot Main.vi,-0.000000,0.000000,-0.000000,0.000000,TRUE,FALSE,FALSE,FALSE,FALSE,FALSE,Disabled,0.000000,0.000000,0.000000,TRUE,1.319382,-0.907928,0.000000,-0.005890,-0.041382,0.000000,-0.038000,-0.011000,-0.056000,-0.020000,-0.230000,-0.930000,-0.151776,Hold,0.946289,0.000000,Hold,-148.000000,2.000000,Suck,-1747.500000,1818.181818,Speed,-1747.500000,1818.181818,Speed,Off,On,0.000000,FALSE,0,,,,,0.000000,0.000000
02:30:47.336 PM 04/02/2016,Teleop Enabled,9,TRUE,-44087,NetComm_CAN_Receive.vi:5470001<APPEND>  <b>Complete call chain:</b>      NetComm_CAN_Receive.vi:5470001      WPI_CAN_PDPReceive.vi      WPI_Power Get PDP Currents.vi      Periodic Tasks.vi      Robot Main.vi,-0.000000,0.000000,-0.000000,0.000000,TRUE,FALSE,FALSE,FALSE,FALSE,FALSE,Disabled,0.000000,0.000000,0.000000,TRUE,1.319656,-0.910202,0.000000,0.010727,-0.054184,0.000000,-0.035000,0.048000,-0.023000,-0.020000,-0.230000,-0.950000,-0.139093,Hold,0.946289,0.000000,Hold,-148.000000,2.000000,Suck,-1755.000000,1818.181818,Speed,-1747.500000,1818.181818,Speed,Off,On,0.000000,FALSE,0,,,,,0.000000,0.000000
02:30:47.436 PM 04/02/2016,Teleop Enabled,8,TRUE,-44087,NetComm_CAN_Receive.vi:5470001<APPEND>  <b>Complete call chain:</b>      NetComm_CAN_Receive.vi:5470001      WPI_CAN_PDPReceive.vi      WPI_Power Get PDP Currents.vi      Periodic Tasks.vi      Robot Main.vi,-0.000000,0.000000,-0.000000,0.000000,TRUE,FALSE,FALSE,FALSE,FALSE,FALSE,Disabled,0.000000,0.000000,0.000000,TRUE,1.321121,-0.912155,0.000000,0.041275,-0.035461,0.000000,-0.144000,-0.049000,-0.090000,-0.010000,-0.180000,-0.950000,-0.143496,Hold,0.946289,0.000000,Hold,-148.000000,2.000000,Suck,-1740.000000,1818.181818,Speed,-1725.000000,1818.181818,Speed,Off,On,0.000000,FALSE,0,,,,,0.000000,0.000000
02:30:47.536 PM 04/02/2016,Teleop Enabled,9,TRUE,-44087,NetComm_CAN_Receive.vi:5470001<APPEND>  <b>Complete call chain:</b>      NetComm_CAN_Receive.vi:5470001      WPI_CAN_PDPReceive.vi      WPI_Power Get PDP Currents.vi      Periodic Tasks.vi      Robot Main.vi,-0.000000,0.000000,-0.000000,0.000000,TRUE,FALSE,FALSE,FALSE,FALSE,FALSE,Disabled,0.000000,0.000000,0.000000,TRUE,1.322678,-0.914459,0.000000,0.038544,-0.048325,0.000000,-0.067000,-0.008000,0.012000,-0.020000,-0.190000,-1.020000,-0.152898,Hold,0.946289,0.000000,Hold,-148.000000,2.000000,Suck,-1717.500000,1818.181818,Speed,-1710.000000,1818.181818,Speed,Off,On,0.000000,FALSE,0,,,,,0.000000,0.000000
02:30:47.637 PM 04/02/2016,Teleop Enabled,10,TRUE,-44087,NetComm_CAN_Receive.vi:5470001<APPEND>  <b>Complete call chain:</b>      NetComm_CAN_Receive.vi:5470001      WPI_CAN_PDPReceive.vi      WPI_Power Get PDP Currents.vi      Periodic Tasks.vi      Robot Main.vi,-0.000000,0.000000,-0.000000,0.000000,TRUE,FALSE,FALSE,FALSE,FALSE,FALSE,Disabled,0.000000,0.000000,0.000000,TRUE,1.323639,-0.916290,0.000000,0.027328,-0.016708,0.000000,-0.017000,0.011000,0.111000,-0.020000,-0.240000,-1.020000,-0.153256,Hold,0.946289,0.000000,Hold,-148.000000,2.000000,Suck,-1717.500000,1818.181818,Speed,-1687.500000,1818.181818,Speed,Off,On,0.000000,FALSE,0,,,,,0.000000,0.000000
02:30:47.737 PM 04/02/2016,Teleop Enabled,9,TRUE,-44087,NetComm_CAN_Receive.vi:5470001<APPEND>  <b>Complete call chain:</b>      NetComm_CAN_Receive.vi:5470001      WPI_CAN_PDPReceive.vi      WPI_Power Get PDP Currents.vi      Periodic Tasks.vi      Robot Main.vi,-0.000000,0.000000,-0.000000,0.000000,TRUE,FALSE,FALSE,FALSE,FALSE,FALSE,Disabled,0.000000,0.000000,0.000000,TRUE,1.325211,-0.917221,0.000000,0.043228,-0.019913,0.000000,0.077000,-0.031000,0.124000,-0.020000,-0.240000,-1.000000,-0.160785,Hold,0.946289,0.000000,Hold,-148.000000,2.000000,Suck,-1717.500000,1818.181818,Speed,-1702.500000,1818.181818,Speed,Off,On,0.000000,FALSE,0,,,,,0.000000,0.000000
02:30:47.837 PM 04/02/2016,Teleop Enabled,9,TRUE,-44087,NetComm_CAN_Receive.vi:5470001<APPEND>  <b>Complete call chain:</b>      NetComm_CAN_Receive.vi:5470001      WPI_CAN_PDPReceive.vi      WPI_Power Get PDP Currents.vi      Periodic Tasks.vi      Robot Main.vi,-0.000000,0.000000,-0.000000,0.000000,TRUE,FALSE,FALSE,FALSE,FALSE,FALSE,Disabled,0.000000,0.000000,0.000000,TRUE,1.326462,-0.918289,0.000000,0.023117,-0.018951,0.000000,-0.029000,-0.019000,-0.011000,-0.020000,-0.210000,-1.010000,-0.156716,Hold,0.946289,0.000000,Hold,-148.000000,2.000000,Suck,-1717.500000,1818.181818,Speed,-1702.500000,1818.181818,Speed,Off,On,0.000000,FALSE,0,,,,,0.000000,0.000000
02:30:47.940 PM 04/02/2016,Teleop Enabled,11,TRUE,-44087,NetComm_CAN_Receive.vi:5470001<APPEND>  <b>Complete call chain:</b>      NetComm_CAN_Receive.vi:5470001      WPI_CAN_PDPReceive.vi      WPI_Power Get PDP Currents.vi      Periodic Tasks.vi      Robot Main.vi,-0.000000,0.000000,-0.000000,0.000000,TRUE,FALSE,FALSE,FALSE,FALSE,FALSE,Disabled,0.000000,0.000000,0.000000,TRUE,1.327713,-0.919998,0.000000,0.031815,-0.054031,0.000000,-0.029000,-0.019000,-0.011000,-0.020000,-0.210000,-1.010000,-0.165759,Hold,0.946289,0.000000,Hold,-148.000000,2.000000,Suck,-1717.500000,1818.181818,Speed,-1702.500000,1818.181818,Speed,Off,On,0.000000,FALSE,0,,,,,0.000000,0.000000
02:30:48.041 PM 04/02/2016,Teleop Enabled,10,TRUE,-44087,NetComm_CAN_Receive.vi:5470001<APPEND>  <b>Complete call chain:</b>      NetComm_CAN_Receive.vi:5470001      WPI_CAN_PDPReceive.vi      WPI_Power Get PDP Currents.vi      Periodic Tasks.vi      Robot Main.vi,-0.000000,0.000000,-0.000000,0.000000,TRUE,FALSE,FALSE,FALSE,FALSE,FALSE,Disabled,0.000000,0.000000,0.000000,TRUE,1.329025,-0.923233,0.000000,0.015442,-0.070587,0.000000,0.013000,0.032000,0.022000,-0.020000,-0.200000,-0.930000,-0.184321,Hold,0.946289,0.000000,Hold,-148.000000,2.000000,Suck,-1732.500000,1818.181818,Speed,-1702.500000,1818.181818,Speed,Off,On,0.000000,FALSE,0,,,,,0.000000,0.000000
02:30:48.142 PM 04/02/2016,Teleop Enabled,10,TRUE,-44087,NetComm_CAN_Receive.vi:5470001<APPEND>  <b>Complete call chain:</b>      NetComm_CAN_Receive.vi:5470001      WPI_CAN_PDPReceive.vi      WPI_Power Get PDP Currents.vi      Periodic Tasks.vi      Robot Main.vi,-0.000000,0.000000,-0.000000,0.000000,TRUE,FALSE,FALSE,FALSE,FALSE,FALSE,Disabled,0.000000,0.000000,0.000000,TRUE,1.331024,-0.926788,0.000000,0.038101,-0.071289,0.000000,0.101000,0.049000,0.055000,-0.020000,-0.200000,-0.930000,-0.200267,Hold,0.946289,0.000000,Hold,-148.000000,2.000000,Suck,-1732.500000,1818.181818,Speed,-1710.000000,1818.181818,Speed,Off,On,0.000000,FALSE,0,,,,,0.000000,0.000000
02:30:48.243 PM 04/02/2016,Teleop Enabled,9,TRUE,-44087,NetComm_CAN_Receive.vi:5470001<APPEND>  <b>Complete call chain:</b>      NetComm_CAN_Receive.vi:5470001      WPI_CAN_PDPReceive.vi      WPI_Power Get PDP Currents.vi      Periodic Tasks.vi      Robot Main.vi,-0.000000,0.000000,-0.000000,0.000000,TRUE,FALSE,FALSE,FALSE,FALSE,FALSE,Disabled,0.000000,0.000000,0.000000,TRUE,1.332947,-0.927307,0.000000,0.039307,-0.019928,0.000000,0.017000,-0.001000,0.052000,-0.020000,-0.180000,-0.980000,-0.208585,Hold,0.946289,0.000000,Hold,-148.000000,2.000000,Suck,-1740.000000,1818.181818,Speed,-1717.500000,1818.181818,Speed,Off,On,0.000000,FALSE,0,,,,,0.000000,0.000000
02:30:48.345 PM 04/02/2016,Teleop Enabled,10,TRUE,-44087,NetComm_CAN_Receive.vi:5470001<APPEND>  <b>Complete call chain:</b>      NetComm_CAN_Receive.vi:5470001      WPI_CAN_PDPReceive.vi      WPI_Power Get PDP Currents.vi      Periodic Tasks.vi      Robot Main.vi,-0.000000,0.000000,-0.000000,0.000000,TRUE,FALSE,FALSE,FALSE,FALSE,FALSE,Disabled,0.000000,0.000000,0.000000,TRUE,1.335510,-0.928711,0.000000,0.059708,-0.019196,0.000000,0.073000,-0.013000,0.045000,-0.020000,-0.170000,-0.980000,-0.186604,Hold,0.946289,0.000000,Hold,-148.000000,2.000000,Suck,-1740.000000,1818.181818,Speed,-1717.500000,1818.181818,Speed,Off,On,0.000000,FALSE,0,,,,,0.000000,0.000000
