Time,Robot Mode,Loop Time,Error Status,Error Code,Error Source,Left Motor Output,Left Motor Encoder,Right Motor Output,Right Motor Encoder,Is Level,Is Stalled,Ball Detector Photoeye,Vision Enabled,Vision Teleop Control,Vision Auto Control,Vision Current State,Vision X Output,Vision NavX Error,Vision NavX Target,NavX Connection Status,NavX Displacement X,NavX Displacement Y,NavX Displacement Z,NavX Velocity X,NavX Velocity Y,NavX Velocity Z,NavX Acceleration X,NavX Acceleration Y,NavX Acceleration Z,NavX Pitch,NavX Yaw,NavX Roll,Gyro Angle,Roller Arm State,Roller Arm Actual,Roller Arm Desired,Shooter Arm State,Shooter Arm Actual,Shooter Arm Desired,Shooter State,Actual RPM Left,Desired RPM Left,Control Mode Left,Actual RPM Right,Desired RPM Right,Control Mode Right,Ball Shooter Cylinder,Ball Halo Cylinder,Scaler Motor Output,Scaler Solenoid Fire,Auto To Run,Auto Current File,Auto File Status,Auto Current Command,Auto Trimmed Command,Shooter Amps Left,Shooter Amps Right
02:29:00.018 PM 04/02/2016,Autonomous Disabled,11,TRUE,-44087,NetComm_CAN_Receive.vi:5470001<APPEND>  <b>Complete call chain:</b>      NetComm_CAN_Receive.vi:5470001      WPI_CAN_PDPReceive.vi      WPI_Power Get PDP Currents.vi      Periodic Tasks.vi      Robot Main.vi,-0.000000,0.000000,-0.000000,0.012833,TRUE,FALSE,FALSE,FALSE,FALSE,FALSE,Disabled,0.000000,0.000000,0.000000,TRUE,1.434006,-0.854248,0.000000,0.078598,-0.011276,0.000000,-0.068000,-0.050000,-0.044000,0.020000,-0.300000,-0.480000,3.033575,Hold,51.926758,47.000000,Hold,-143420.000000,143360.000000,Suck,-1807.500000,1818.181818,Speed,-1747.500000,1818.181818,Speed,Off,Off,0.000000,FALSE,0,,,,,0.000000,0.000000
02:29:00.117 PM 04/02/2016,Teleop Disabled,10,TRUE,-44087,NetComm_CAN_Receive.vi:5470001<APPEND>  <b>Complete call chain:</b>      NetComm_CAN_Receive.vi:5470001      WPI_CAN_PDPReceive.vi      WPI_Power Get PDP Currents.vi      Periodic Tasks.vi      Robot Main.vi,-0.000000,0.000000,-0.000000,0.000000,TRUE,FALSE,FALSE,TRUE,FALSE,FALSE,Disabled,0.000000,0.000000,0.000000,TRUE,1.367584,-0.858658,0.000000,0.000000,0.000000,0.000000,-0.068000,-0.050000,-0.044000,0.000000,-0.270000,-0.980000,-0.004093,ResetBack,0.925781,-0.000049,ResetBack,-23316.000000,-0.250000,Empty,0.000000,0.000000,Speed,0.000000,0.000000,Speed,Off,On,0.000000,FALSE,0,,,,,0.000000,0.000000
02:29:00.217 PM 04/02/2016,Teleop Disabled,10,TRUE,-44087,NetComm_CAN_Receive.vi:5470001<APPEND>  <b>Complete call chain:</b>      NetComm_CAN_Receive.vi:5470001      WPI_CAN_PDPReceive.vi      WPI_Power Get PDP Currents.vi      Periodic Tasks.vi      Robot Main.vi,-0.000000,0.000000,-0.000000,0.000000,TRUE,FALSE,FALSE,TRUE,FALSE,FALSE,Disabled,0.000000,0.000000,0.000000,TRUE,1.367584,-0.858658,0.000000,0.000000,0.000000,0.000000,0.000000,0.001000,0.013000,0.000000,-0.270000,-0.970000,-0.009508,ResetBack,0.925781,-0.000049,ResetBack,-23316.000000,-0.250000,Empty,0.000000,0.000000,Speed,0.000000,0.000000,Speed,Off,On,0.000000,FALSE,0,,,,,0.000000,0.000000
02:29:00.317 PM 04/02/2016,Teleop Enabled,10,TRUE,-44087,NetComm_CAN_Receive.vi:5470001<APPEND>  <b>Complete call chain:</b>      NetComm_CAN_Receive.vi:5470001      WPI_CAN_PDPReceive.vi      WPI_Power Get PDP Currents.vi      Periodic Tasks.vi      Robot Main.vi,-0.000000,0.000000,-0.000000,0.000000,TRUE,FALSE,FALSE,FALSE,FALSE,FALSE,Disabled,0.000000,0.000000,0.000000,TRUE,1.367584,-0.858658,0.000000,0.000000,0.000000,0.000000,-0.002000,0.000000,0.014000,0.000000,-0.270000,-0.970000,-0.023792,ResetBack,0.916016,-0.000049,ResetBack,-23316.000000,-0.250000,Empty,0.000000,0.000000,Speed,0.000000,0.000000,Speed,Off,On,0.000000,FALSE,0,,,,,0.000000,0.000000
02:29:00.417 PM 04/02/2016,Teleop Enabled,10,TRUE,-44087,NetComm_CAN_Receive.vi:5470001<APPEND>  <b>Complete call chain:</b>      NetComm_CAN_Receive.vi:5470001      WPI_CAN_PDPReceive.vi      WPI_Power Get PDP Currents.vi      Periodic Tasks.vi      Robot Main.vi,-0.000000,0.000000,-0.000000,0.000000,TRUE,FALSE,FALSE,FALSE,FALSE,FALSE,Disabled,0.000000,0.000000,0.000000,TRUE,1.367508,-0.858658,0.000000,-0.005569,0.000000,0.000000,0.076000,0.011000,0.109000,0.000000,-0.270000,-0.970000,-0.028050,ResetBack,-0.150146,-0.000049,ResetBack,-23316.000000,-0.250000,Empty,-15.000000,0.000000,Speed,0.000000,0.000000,Speed,Off,On,0.000000,FALSE,0,,,,,0.000000,0.000000
02:29:00.517 PM 04/02/2016,Teleop Enabled,10,TRUE,-44087,NetComm_CAN_Receive.vi:5470001<APPEND>  <b>Complete call chain:</b>      NetComm_CAN_Receive.vi:5470001      WPI_CAN_PDPReceive.vi      WPI_Power Get PDP Currents.vi      Periodic Tasks.vi      Robot Main.vi,-0.000000,0.000000,-0.000000,0.000000,TRUE,FALSE,FALSE,FALSE,FALSE,FALSE,Disabled,0.000000,0.000000,0.000000,TRUE,1.368271,-0.858704,0.000000,0.024002,0.000000,0.000000,0.005000,0.015000,0.015000,0.000000,-0.270000,-0.940000,-0.034198,ResetBack,-0.165527,-0.000049,ResetBack,-18550.000000,-0.250000,Empty,-22.500000,0.000000,Speed,0.000000,0.000000,Speed,On,On,0.000000,FALSE,0,,,,,0.000000,0.000000
02:29:00.617 PM 04/02/2016,Teleop Enabled,10,TRUE,-44087,NetComm_CAN_Receive.vi:5470001<APPEND>  <b>Complete call chain:</b>      NetComm_CAN_Receive.vi:5470001      WPI_CAN_PDPReceive.vi      WPI_Power Get PDP Currents.vi      Periodic Tasks.vi      Robot Main.vi,-0.000000,0.000000,-0.000000,0.000000,TRUE,FALSE,FALSE,FALSE,FALSE,FALSE,Disabled,0.000000,0.000000,0.000000,TRUE,1.368179,-0.858597,0.000000,-0.027237,0.009766,0.000000,-0.033000,-0.088000,0.157000,0.000000,-0.240000,-0.960000,-0.044540,ResetBack,-0.172363,-0.000049,ResetBack,-11665.000000,-0.250000,Empty,0.000000,0.000000,Speed,0.000000,0.000000,Speed,On,On,0.000000,FALSE,0,,,,,0.000000,0.000000
02:29:00.718 PM 04/02/2016,Teleop Enabled,10,TRUE,-44087,NetComm_CAN_Receive.vi:5470001<APPEND>  <b>Complete call chain:</b>      NetComm_CAN_Receive.vi:5470001      WPI_CAN_PDPReceive.vi      WPI_Power Get PDP Currents.vi      Periodic Tasks.vi      Robot Main.vi,-0.000000,0.000000,-0.000000,0.000000,TRUE,FALSE,FALSE,FALSE,FALSE,FALSE,Disabled,0.000000,0.000000,0.000000,TRUE,1.366196,-0.858643,0.000000,-0.053375,-0.002319,0.000000,-0.010000,-0.038000,0.077000,0.000000,-0.210000,-0.960000,-0.033093,Reset,-0.174561,0.000000,ResetBack,-6210.000000,-0.250000,Empty,0.000000,0.000000,Speed,0.000000,0.000000,Speed,On,On,0.000000,FALSE,0,,,,,0.000000,0.000000
02:29:00.818 PM 04/02/2016,Teleop Enabled,11,TRUE,-44087,NetComm_CAN_Receive.vi:5470001<APPEND>  <b>Complete call chain:</b>      NetComm_CAN_Receive.vi:5470001      WPI_CAN_PDPReceive.vi      WPI_Power Get PDP Currents.vi      Periodic Tasks.vi      Robot Main.vi,-0.000000,0.000000,-0.000000,0.000000,TRUE,FALSE,FALSE,FALSE,FALSE,FALSE,Disabled,0.000000,0.000000,0.000000,TRUE,1.365662,-0.859039,0.000000,0.000000,-0.007095,0.000000,-0.019000,-0.006000,-0.007000,0.000000,-0.270000,-0.950000,-0.036670,Hold,1.102295,0.000000,ResetBack,-6210.000000,-0.250000,Empty,0.000000,0.000000,Speed,0.000000,0.000000,Speed,On,On,0.000000,FALSE,0,,,,,0.000000,0.000000
02:29:00.918 PM 04/02/2016,Teleop Enabled,11,TRUE,-44087,NetComm_CAN_Receive.vi:5470001<APPEND>  <b>Complete call chain:</b>      NetComm_CAN_Receive.vi:5470001      WPI_CAN_PDPReceive.vi      WPI_Power Get PDP Currents.vi      Periodic Tasks.vi      Robot Main.vi,-0.000000,0.000000,-0.000000,0.000000,TRUE,FALSE,FALSE,FALSE,FALSE,FALSE,Disabled,0.000000,0.000000,0.000000,TRUE,1.365662,-0.859039,0.000000,0.000000,0.000000,0.000000,-0.097000,0.018000,-0.012000,0.000000,-0.240000,-0.950000,-0.034154,Hold,0.980225,0.000000,ResetBack,-3855.000000,-0.250000,Empty,0.000000,0.000000,Speed,0.000000,0.000000,Speed,On,On,0.000000,FALSE,0,,,,,0.000000,0.000000
02:29:01.018 PM 04/02/2016,Teleop Enabled,9,TRUE,-44087,NetComm_CAN_Receive.vi:5470001<APPEND>  <b>Complete call chain:</b>      NetComm_CAN_Receive.vi:5470001      WPI_CAN_PDPReceive.vi      WPI_Power Get PDP Currents.vi      Periodic Tasks.vi      Robot Main.vi,-0.000000,0.000000,-0.000000,0.000000,TRUE,FALSE,FALSE,FALSE,FALSE,FALSE,Disabled,0.000000,0.000000,0.000000,TRUE,1.365097,-0.859039,0.000000,0.000000,0.000000,0.000000,0.001000,-0.011000,0.033000,0.000000,-0.240000,-0.950000,-0.052217,Hold,0.937744,0.000000,ResetBack,-2159.000000,-0.250000,Empty,0.000000,0.000000,Speed,0.000000,0.000000,Speed,On,On,0.000000,FALSE,0,,,,,0.000000,0.000000
02:29:01.119 PM 04/02/2016,Teleop Enabled,7,TRUE,-44087,NetComm_CAN_Receive.vi:5470001<APPEND>  <b>Complete call chain:</b>      NetComm_CAN_Receive.vi:5470001      WPI_CAN_PDPReceive.vi      WPI_Power Get PDP Currents.vi      Periodic Tasks.vi      Robot Main.vi,-0.000000,0.000000,-0.000000,0.000000,TRUE,FALSE,FALSE,FALSE,FALSE,FALSE,Disabled,0.000000,0.000000,0.000000,TRUE,1.365097,-0.859039,0.000000,0.000000,0.000000,0.000000,0.002000,0.002000,0.011000,0.000000,-0.270000,-0.940000,-0.056833,Hold,0.937744,0.000000,ResetBack,-1154.000000,-0.250000,Empty,0.000000,0.000000,Speed,0.000000,0.000000,Speed,On,On,0.000000,FALSE,0,,,,,0.000000,0.000000
02:29:01.219 PM 04/02/2016,Teleop Enabled,9,TRUE,-44087,NetComm_CAN_Receive.vi:5470001<APPEND>  <b>Complete call chain:</b>      NetComm_CAN_Receive.vi:5470001      WPI_CAN_PDPReceive.vi      WPI_Power Get PDP Currents.vi      Periodic Tasks.vi      Robot Main.vi,-0.000000,0.000000,-0.000000,0.000000,TRUE,FALSE,FALSE,FALSE,FALSE,FALSE,Disabled,0.000000,0.000000,0.000000,TRUE,1.365097,-0.859039,0.000000,0.000000,0.000000,0.000000,-0.013000,0.002000,0.003000,0.000000,-0.270000,-0.940000,-0.061243,Hold,0.937744,0.000000,ResetBack,-447.000000,-0.250000,Empty,0.000000,0.000000,Speed,0.000000,0.000000,Speed,On,On,0.000000,FALSE,0,,,,,0.000000,0.000000
02:29:01.319 PM 04/02/2016,Teleop Enabled,10,TRUE,-44087,NetComm_CAN_Receive.vi:5470001<APPEND>  <b>Complete call chain:</b>      NetComm_CAN_Receive.vi:5470001      WPI_CAN_PDPReceive.vi      WPI_Power Get PDP Currents.vi      Periodic Tasks.vi      Robot Main.vi,-0.000000,0.000000,-0.000000,0.000000,TRUE,FALSE,FALSE,FALSE,FALSE,FALSE,Disabled,0.000000,0.000000,0.000000,TRUE,1.365097,-0.859039,0.000000,0.000000,0.000000,0.000000,-0.005000,0.003000,0.007000,0.000000,-0.270000,-0.940000,-0.050819,Hold,0.937744,0.000000,ResetBack,395.000000,-0.250000,Suck,0.000000,1818.181818,Speed,0.000000,1818.181818,Speed,On,On,0.000000,FALSE,0,,,,,0.000000,0.000000
02:29:01.419 PM 04/02/2016,Teleop Enabled,10,TRUE,-44087,NetComm_CAN_Receive.vi:5470001<APPEND>  <b>Complete call chain:</b>      NetComm_CAN_Receive.vi:5470001      WPI_CAN_PDPReceive.vi      WPI_Power Get PDP Currents.vi      Periodic Tasks.vi      Robot Main.vi,-0.000000,0.000000,-0.000000,0.000000,TRUE,FALSE,FALSE,FALSE,FALSE,FALSE,Disabled,0.000000,0.000000,0.000000,TRUE,1.364990,-0.859039,0.000000,-0.007217,0.000000,0.000000,0.001000,-0.003000,-0.011000,0.000000,-0.270000,-0.930000,-0.040581,Hold,0.937744,0.000000,ResetBack,395.000000,-0.250000,Suck,-22.500000,1818.181818,Speed,-22.500000,1818.181818,Speed,Off,On,0.000000,FALSE,0,,,,,0.000000,0.000000
02:29:01.519 PM 04/02/2016,Teleop Enabled,11,TRUE,-44087,NetComm_CAN_Receive.vi:5470001<APPEND>  <b>Complete call chain:</b>      NetComm_CAN_Receive.vi:5470001      WPI_CAN_PDPReceive.vi      WPI_Power Get PDP Currents.vi      Periodic Tasks.vi      Robot Main.vi,-0.000000,0.000000,-0.000000,0.000000,TRUE,FALSE,FALSE,FALSE,FALSE,FALSE,Disabled,0.000000,0.000000,0.000000,TRUE,1.365204,-0.859695,0.000000,0.002121,-0.028030,0.000000,0.057000,-0.012000,-0.049000,0.000000,-0.310000,-0.930000,-0.061095,Hold,0.937744,0.000000,ResetBack,395.000000,-0.250000,Suck,-465.000000,1818.181818,Speed,-157.500000,1818.181818,Speed,Off,On,0.000000,FALSE,0,,,,,0.000000,0.000000
02:29:01.619 PM 04/02/2016,Teleop Enabled,11,TRUE,-44087,NetComm_CAN_Receive.vi:5470001<APPEND>  <b>Complete call chain:</b>      NetComm_CAN_Receive.vi:5470001      WPI_CAN_PDPReceive.vi      WPI_Power Get PDP Currents.vi      Periodic Tasks.vi      Robot Main.vi,-0.000000,0.000000,-0.000000,0.000000,TRUE,FALSE,FALSE,FALSE,FALSE,FALSE,Disabled,0.000000,0.000000,0.000000,TRUE,1.365555,-0.861740,0.000000,0.009293,-0.053879,0.000000,0.036000,0.035000,-0.031000,0.000000,-0.340000,-0.920000,-0.086477,Hold,0.937744,0.000000,Reset,395.000000,2.000000,Suck,-1020.000000,1818.181818,Speed,-255.000000,1818.181818,Speed,Off,On,0.000000,FALSE,0,,,,,0.000000,0.000000
02:29:01.719 PM 04/02/2016,Teleop Enabled,11,TRUE,-44087,NetComm_CAN_Receive.vi:5470001<APPEND>  <b>Complete call chain:</b>      NetComm_CAN_Receive.vi:5470001      WPI_CAN_PDPReceive.vi      WPI_Power Get PDP Currents.vi      Periodic Tasks.vi      Robot Main.vi,-0.000000,0.000000,-0.000000,0.000000,TRUE,FALSE,FALSE,FALSE,FALSE,FALSE,Disabled,0.000000,0.000000,0.000000,TRUE,1.365799,-0.864670,0.000000,-0.008041,-0.064667,0.000000,-0.008000,0.053000,-0.083000,0.000000,-0.320000,-0.930000,-0.063364,Hold,0.937744,0.000000,Hold,-143.000000,2.000000,Suck,-1455.000000,1818.181818,Speed,-367.500000,1818.181818,Speed,Off,On,0.000000,FALSE,0,,,,,0.000000,0.000000
02:29:01.819 PM 04/02/2016,Teleop Enabled,11,TRUE,-44087,NetComm_CAN_Receive.vi:5470001<APPEND>  <b>Complete call chain:</b>      NetComm_CAN_Receive.vi:5470001      WPI_CAN_PDPReceive.vi      WPI_Power Get PDP Currents.vi      Periodic Tasks.vi      Robot Main.vi,-0.000000,0.000000,-0.000000,0.000000,TRUE,FALSE,FALSE,FALSE,FALSE,FALSE,Disabled,0.000000,0.000000,0.000000,TRUE,1.363297,-0.867950,0.000000,-0.058411,-0.063416,0.000000,0.037000,-0.033000,-0.068000,0.000000,-0.350000,-0.870000,-0.054372,Hold,0.937744,0.000000,Hold,-143.000000,2.000000,Suck,-1455.000000,1818.181818,Speed,-870.000000,1818.181818,Speed,Off,On,0.000000,FALSE,0,,,,,0.000000,0.000000
02:29:01.920 PM 04/02/2016,Teleop Enabled,10,TRUE,-44087,NetComm_CAN_Receive.vi:5470001<APPEND>  <b>Complete call chain:</b>      NetComm_CAN_Receive.vi:5470001      WPI_CAN_PDPReceive.vi      WPI_Power Get PDP Currents.vi      Periodic Tasks.vi      Robot Main.vi,-0.000000,0.000000,-0.000000,0.000000,TRUE,FALSE,FALSE,FALSE,FALSE,FALSE,Disabled,0.000000,0.000000,0.000000,TRUE,1.361160,-0.874252,0.000000,-0.014847,-0.165100,0.000000,-0.031000,-0.177000,-0.106000,0.000000,-0.350000,-0.850000,-0.042371,Hold,0.937500,0.000000,Hold,-143.000000,2.000000,Suck,-1762.500000,1818.181818,Speed,-1687.500000,1818.181818,Speed,Off,On,0.000000,FALSE,0,,,,,0.000000,0.000000
02:29:02.021 PM 04/02/2016,Teleop Enabled,9,TRUE,-44087,NetComm_CAN_Receive.vi:5470001<APPEND>  <b>Complete call chain:</b>      NetComm_CAN_Receive.vi:5470001      WPI_CAN_PDPReceive.vi      WPI_Power Get PDP Currents.vi      Periodic Tasks.vi      Robot Main.vi,-0.000000,0.000000,-0.000000,0.000000,TRUE,FALSE,FALSE,FALSE,FALSE,FALSE,Disabled,0.000000,0.000000,0.000000,TRUE,1.363129,-0.891144,0.000000,0.077820,-0.475739,0.000000,0.100000,-0.332000,0.093000,0.000000,-0.350000,-0.860000,-0.040715,Hold,0.937500,0.000000,Hold,-143.000000,2.000000,Suck,-1755.000000,1818.181818,Speed,-2190.000000,1818.181818,Speed,Off,On,0.000000,FALSE,0,,,,,0.000000,0.000000
02:29:02.122 PM 04/02/2016,Teleop Enabled,11,TRUE,-44087,NetComm_CAN_Receive.vi:5470001<APPEND>  <b>Complete call chain:</b>      NetComm_CAN_Receive.vi:5470001      WPI_CAN_PDPReceive.vi      WPI_Power Get PDP Currents.vi      Periodic Tasks.vi      Robot Main.vi,-0.000000,0.000000,-0.000000,0.000000,TRUE,FALSE,FALSE,FALSE,FALSE,FALSE,Disabled,0.000000,0.000000,0.000000,TRUE,1.370514,-0.919678,0.000000,0.171875,-0.594009,0.000000,-0.017000,-0.001000,0.001000,0.000000,-0.320000,-0.890000,-0.041996,Hold,0.937500,0.000000,Hold,-143.000000,2.000000,Suck,-1755.000000,1818.181818,Speed,-2040.000000,1818.181818,Speed,Off,On,0.000000,FALSE,0,,,,,0.000000,0.000000
02:29:02.223 PM 04/02/2016,Teleop Enabled,10,TRUE,-44087,NetComm_CAN_Receive.vi:5470001<APPEND>  <b>Complete call chain:</b>      NetComm_CAN_Receive.vi:5470001      WPI_CAN_PDPReceive.vi      WPI_Power Get PDP Currents.vi      Periodic Tasks.vi      Robot Main.vi,-0.000000,0.000000,-0.000000,0.000000,TRUE,FALSE,FALSE,FALSE,FALSE,FALSE,Disabled,0.000000,0.000000,0.000000,TRUE,1.380005,-0.948135,0.000000,0.202774,-0.552841,0.000000,0.050000,-0.018000,0.000000,0.000000,-0.310000,-0.930000,-0.043889,Hold,0.937500,0.000000,Hold,-143.000000,2.000000,Suck,-1762.500000,1818.181818,Speed,-1852.500000,1818.181818,Speed,Off,On,0.000000,FALSE,0,,,,,0.000000,0.000000
02:29:02.324 PM 04/02/2016,Teleop Enabled,11,TRUE,-44087,NetComm_CAN_Receive.vi:5470001<APPEND>  <b>Complete call chain:</b>      NetComm_CAN_Receive.vi:5470001      WPI_CAN_PDPReceive.vi      WPI_Power Get PDP Currents.vi      Periodic Tasks.vi      Robot Main.vi,-0.000000,0.000000,-0.000000,0.000000,TRUE,FALSE,FALSE,FALSE,FALSE,FALSE,Disabled,0.000000,0.000000,0.000000,TRUE,1.390579,-0.948029,0.000000,0.206390,0.006241,0.000000,-0.027000,-0.010000,0.090000,0.000000,-0.310000,-0.900000,-0.024618,Hold,0.937500,0.000000,Hold,-143.000000,2.000000,Suck,-1762.500000,1818.181818,Speed,-1657.500000,1818.181818,Speed,Off,On,0.000000,FALSE,0,,,,,0.000000,0.000000
02:29:02.425 PM 04/02/2016,Teleop Enabled,10,TRUE,-44087,NetComm_CAN_Receive.vi:5470001<APPEND>  <b>Complete call chain:</b>      NetComm_CAN_Receive.vi:5470001      WPI_CAN_PDPReceive.vi      WPI_Power Get PDP Currents.vi      Periodic Tasks.vi      Robot Main.vi,-0.000000,0.000000,-0.000000,0.000000,TRUE,FALSE,FALSE,FALSE,FALSE,FALSE,Disabled,0.000000,0.000000,0.000000,TRUE,1.399948,-0.947968,0.000000,0.192474,0.000000,0.000000,-0.066000,-0.005000,0.011000,0.000000,-0.290000,-0.920000,-0.037400,Hold,0.937500,0.000000,Hold,-143.000000,2.000000,Suck,-1755.000000,1818.181818,Speed,-1620.000000,1818.181818,Speed,Off,On,0.000000,FALSE,0,,,,,0.000000,0.000000
02:29:02.525 PM 04/02/2016,Teleop Enabled,9,TRUE,-44087,NetComm_CAN_Receive.vi:5470001<APPEND>  <b>Complete call chain:</b>      NetComm_CAN_Receive.vi:5470001      WPI_CAN_PDPReceive.vi      WPI_Power Get PDP Currents.vi      Periodic Tasks.vi      Robot Main.vi,-0.000000,0.000000,-0.000000,0.000000,TRUE,FALSE,FALSE,FALSE,FALSE,FALSE,Disabled,0.000000,0.000000,0.000000,TRUE,1.409531,-0.947815,0.000000,0.210007,0.000031,0.000000,-0.053000,-0.082000,-0.098000,0.000000,-0.250000,-0.930000,-0.038240,Hold,0.937500,0.000000,Hold,-143.000000,2.000000,Suck,-1747.500000,1818.181818,Speed,-1725.000000,1818.181818,Speed,Off,On,0.000000,FALSE,0,,,,,0.000000,0.000000
02:29:02.626 PM 04/02/2016,Teleop Enabled,10,TRUE,-44087,NetComm_CAN_Receive.vi:5470001<APPEND>  <b>Complete call chain:</b>      NetComm_CAN_Receive.vi:5470001      WPI_CAN_PDPReceive.vi      WPI_Power Get PDP Currents.vi      Periodic Tasks.vi      Robot Main.vi,-0.000000,0.000000,-0.000000,0.000000,TRUE,FALSE,FALSE,FALSE,FALSE,FALSE,Disabled,0.000000,0.000000,0.000000,TRUE,1.416962,-0.948914,0.000000,0.000000,-0.031845,0.000000,-0.046000,-0.029000,0.006000,0.000000,-0.250000,-0.960000,-0.034340,Hold,0.937500,0.000000,Hold,-143.000000,2.000000,Suck,-1747.500000,1818.181818,Speed,-1747.500000,1818.181818,Speed,Off,On,0.000000,FALSE,0,,,,,0.000000,0.000000
02:29:02.726 PM 04/02/2016,Teleop Enabled,9,TRUE,-44087,NetComm_CAN_Receive.vi:5470001<APPEND>  <b>Complete call chain:</b>      NetComm_CAN_Receive.vi:5470001      WPI_CAN_PDPReceive.vi      WPI_Power Get PDP Currents.vi      Periodic Tasks.vi      Robot Main.vi,-0.000000,0.000000,-0.000000,0.000000,TRUE,FALSE,FALSE,FALSE,FALSE,FALSE,Disabled,0.000000,0.000000,0.000000,TRUE,1.416443,-0.950134,0.000000,-0.014633,-0.015976,0.000000,0.126000,0.028000,0.072000,0.000000,-0.270000,-0.970000,-0.042794,Hold,0.937500,0.000000,Hold,-143.000000,2.000000,Suck,-1755.000000,1818.181818,Speed,-1717.500000,1818.181818,Speed,Off,On,0.000000,FALSE,0,,,,,0.000000,0.000000
02:29:02.827 PM 04/02/2016,Teleop Enabled,11,TRUE,-44087,NetComm_CAN_Receive.vi:5470001<APPEND>  <b>Complete call chain:</b>      NetComm_CAN_Receive.vi:5470001      WPI_CAN_PDPReceive.vi      WPI_Power Get PDP Currents.vi      Periodic Tasks.vi      Robot Main.vi,-0.000000,0.000000,-0.000000,0.000000,TRUE,FALSE,FALSE,FALSE,FALSE,FALSE,Disabled,0.000000,0.000000,0.000000,TRUE,1.416672,-0.950073,0.000000,0.005493,0.005081,0.000000,0.018000,0.024000,0.024000,0.000000,-0.220000,-0.970000,-0.037142,Hold,0.937500,0.000000,Hold,-143.000000,2.000000,Suck,-1755.000000,1818.181818,Speed,-1702.500000,1818.181818,Speed,Off,On,0.000000,FALSE,0,,,,,0.000000,0.000000
02:29:02.928 PM 04/02/2016,Teleop Enabled,10,TRUE,-44087,NetComm_CAN_Receive.vi:5470001<APPEND>  <b>Complete call chain:</b>      NetComm_CAN_Receive.vi:5470001      WPI_CAN_PDPReceive.vi      WPI_Power Get PDP Currents.vi      Periodic Tasks.vi      Robot Main.vi,-0.000000,0.000000,-0.000000,0.000000,TRUE,FALSE,FALSE,FALSE,FALSE,FALSE,Disabled,0.000000,0.000000,0.000000,TRUE,1.416489,-0.950409,0.000000,-0.026672,-0.016037,0.000000,0.108000,-0.081000,0.043000,0.000000,-0.210000,-0.980000,-0.037610,Hold,0.937500,0.000000,Hold,-143.000000,2.000000,Suck,-1755.000000,1818.181818,Speed,-1710.000000,1818.181818,Speed,Off,On,0.000000,FALSE,0,,,,,0.000000,0.000000
02:29:03.029 PM 04/02/2016,Teleop Enabled,9,TRUE,-44087,NetComm_CAN_Receive.vi:5470001<APPEND>  <b>Complete call chain:</b>      NetComm_CAN_Receive.vi:5470001      WPI_CAN_PDPReceive.vi      WPI_Power Get PDP Currents.vi      Periodic Tasks.vi      Robot Main.vi,-0.000000,0.000000,-0.000000,0.000000,TRUE,FALSE,FALSE,FALSE,FALSE,FALSE,Disabled,0.000000,0.000000,0.000000,TRUE,1.415649,-0.951996,0.000000,-0.006241,-0.040390,0.000000,0.209000,0.012000,0.063000,0.000000,-0.190000,-1.010000,-0.034949,Hold,0.937500,0.000000,Hold,-143.000000,2.000000,Suck,-1755.000000,1818.181818,Speed,-1717.500000,1818.181818,Speed,Off,On,0.000000,FALSE,0,,,,,0.000000,0.000000
02:29:03.130 PM 04/02/2016,Teleop Enabled,10,TRUE,-44087,NetComm_CAN_Receive.vi:5470001<APPEND>  <b>Complete call chain:</b>      NetComm_CAN_Receive.vi:5470001      WPI_CAN_PDPReceive.vi      WPI_Power Get PDP Currents.vi      Periodic Tasks.vi      Robot Main.vi,-0.000000,0.000000,-0.000000,0.000000,TRUE,FALSE,FALSE,FALSE,FALSE,FALSE,Disabled,0.000000,0.000000,0.000000,TRUE,1.415985,-0.953552,0.000000,0.013779,-0.004562,0.000000,0.044000,-0.043000,0.030000,0.000000,-0.270000,-0.990000,-0.046554,Hold,0.937500,0.000000,Hold,-143.000000,2.000000,Suck,-1755.000000,1818.181818,Speed,-1717.500000,1818.181818,Speed,Off,On,0.000000,FALSE,0,,,,,0.000000,0.000000
02:29:03.231 PM 04/02/2016,Teleop Enabled,11,TRUE,-44087,NetComm_CAN_Receive.vi:5470001<APPEND>  <b>Complete call chain:</b>      NetComm_CAN_Receive.vi:5470001      WPI_CAN_PDPReceive.vi      WPI_Power Get PDP Currents.vi      Periodic Tasks.vi      Robot Main.vi,-0.000000,0.000000,-0.000000,0.000000,TRUE,FALSE,FALSE,FALSE,FALSE,FALSE,Disabled,0.000000,0.000000,0.000000,TRUE,1.416229,-0.953751,0.000000,0.020828,-0.001602,0.000000,-0.093000,-0.037000,-0.014000,0.000000,-0.250000,-1.000000,-0.054936,Hold,0.937500,0.000000,Hold,-143.000000,2.000000,Suck,-1755.000000,1818.181818,Speed,-1732.500000,1818.181818,Speed,Off,On,0.000000,FALSE,0,,,,,0.000000,0.000000
02:29:03.332 PM 04/02/2016,Teleop Enabled,8,TRUE,-44087,NetComm_CAN_Receive.vi:5470001<APPEND>  <b>Complete call chain:</b>      NetComm_CAN_Receive.vi:5470001      WPI_CAN_PDPReceive.vi      WPI_Power Get PDP Currents.vi      Periodic Tasks.vi      Robot Main.vi,-0.000000,0.000000,-0.000000,0.000000,TRUE,FALSE,FALSE,FALSE,FALSE,FALSE,Disabled,0.000000,0.000000,0.000000,TRUE,1.416321,-0.954071,0.000000,0.004532,-0.005661,0.000000,-0.143000,-0.048000,-0.030000,0.000000,-0.230000,-1.000000,-0.060496,Hold,0.937500,0.000000,Hold,-143.000000,2.000000,Suck,-1755.000000,1818.181818,Speed,-1740.000000,1818.181818,Speed,Off,On,0.000000,FALSE,0,,,,,0.000000,0.000000
02:29:03.433 PM 04/02/2016,Teleop Enabled,10,TRUE,-44087,NetComm_CAN_Receive.vi:5470001<APPEND>  <b>Complete call chain:</b>      NetComm_CAN_Receive.vi:5470001      WPI_CAN_PDPReceive.vi      WPI_Power Get PDP Currents.vi      Periodic Tasks.vi      Robot Main.vi,-0.000000,0.000000,-0.000000,0.000000,TRUE,FALSE,FALSE,FALSE,FALSE,FALSE,Disabled,0.000000,0.000000,0.000000,TRUE,1.416840,-0.954300,0.000000,0.015106,-0.010178,0.000000,-0.176000,-0.046000,-0.085000,0.000000,-0.210000,-1.000000,-0.066448,Hold,0.937500,0.000000,Hold,-143.000000,2.000000,Suck,-1755.000000,1818.181818,Speed,-1725.000000,1818.181818,Speed,Off,On,0.000000,FALSE,0,,,,,0.000000,0.000000
02:29:03.534 PM 04/02/2016,Teleop Enabled,9,TRUE,-44087,NetComm_CAN_Receive.vi:5470001<APPEND>  <b>Complete call chain:</b>      NetComm_CAN_Receive.vi:5470001      WPI_CAN_PDPReceive.vi      WPI_Power Get PDP Currents.vi      Periodic Tasks.vi      Robot Main.vi,-0.000000,0.000000,-0.000000,0.000000,TRUE,FALSE,FALSE,FALSE,FALSE,FALSE,Disabled,0.000000,0.000000,0.000000,TRUE,1.417725,-0.955338,0.000000,0.028305,-0.028809,0.000000,-0.172000,-0.063000,-0.058000,-0.010000,-0.160000,-0.990000,-0.083878,Hold,0.937500,0.000000,Hold,-143.000000,2.000000,Suck,-1755.000000,1818.181818,Speed,-1717.500000,1818.181818,Speed,Off,On,0.000000,FALSE,0,,,,,0.000000,0.000000
02:29:03.635 PM 04/02/2016,Teleop Enabled,10,TRUE,-44087,NetComm_CAN_Receive.vi:5470001<APPEND>  <b>Complete call chain:</b>      NetComm_CAN_Receive.vi:5470001      WPI_CAN_PDPReceive.vi      WPI_Power Get PDP Currents.vi      Periodic Tasks.vi      Robot Main.vi,-0.000000,0.000000,-0.000000,0.000000,TRUE,FALSE,FALSE,FALSE,FALSE,FALSE,Disabled,0.000000,0.000000,0.000000,TRUE,1.417984,-0.956665,0.000000,-0.000565,0.000000,0.000000,0.107000,-0.050000,0.018000,-0.010000,-0.220000,-0.940000,-0.090708,Hold,0.937500,0.000000,Hold,-143.000000,2.000000,Suck,-1755.000000,1818.181818,Speed,-1717.500000,1818.181818,Speed,Off,On,0.000000,FALSE,0,,,,,0.000000,0.000000
02:29:03.737 PM 04/02/2016,Teleop Enabled,10,TRUE,-44087,NetComm_CAN_Receive.vi:5470001<APPEND>  <b>Complete call chain:</b>      NetComm_CAN_Receive.vi:5470001      WPI_CAN_PDPReceive.vi      WPI_Power Get PDP Currents.vi      Periodic Tasks.vi      Robot Main.vi,-0.000000,0.000000,-0.000000,0.000000,TRUE,FALSE,FALSE,FALSE,FALSE,FALSE,Disabled,0.000000,0.000000,0.000000,TRUE,1.418335,-0.956665,0.000000,0.006561,0.001648,0.000000,0.147000,0.000000,0.024000,0.000000,-0.200000,-0.970000,-0.101938,Hold,0.937500,0.000000,Hold,-143.000000,2.000000,Suck,-1755.000000,1818.181818,Speed,-1717.500000,1818.181818,Speed,Off,On,0.000000,FALSE,0,,,,,0.000000,0.000000
02:29:03.838 PM 04/02/2016,Teleop Enabled,11,TRUE,-44087,NetComm_CAN_Receive.vi:5470001<APPEND>  <b>Complete call chain:</b>      NetComm_CAN_Receive.vi:5470001      WPI_CAN_PDPReceive.vi      WPI_Power Get PDP Currents.vi      Periodic Tasks.vi      Robot Main.vi,-0.000000,0.000000,-0.000000,0.000000,TRUE,FALSE,FALSE,FALSE,FALSE,FALSE,Disabled,0.000000,0.000000,0.000000,TRUE,1.419220,-0.956604,0.000000,0.010178,0.011108,0.000000,0.049000,0.016000,0.077000,0.000000,-0.260000,-0.950000,-0.094515,Hold,0.937500,0.000000,Hold,-143.000000,2.000000,Suck,-1747.500000,1818.181818,Speed,-1732.500000,1818.181818,Speed,Off,On,0.000000,FALSE,0,,,,,0.000000,0.000000
02:29:03.938 PM 04/02/2016,Teleop Enabled,9,TRUE,-44087,NetComm_CAN_Receive.vi:5470001<APPEND>  <b>Complete call chain:</b>      NetComm_CAN_Receive.vi:5470001      WPI_CAN_PDPReceive.vi      WPI_Power Get PDP Currents.vi      Periodic Tasks.vi      Robot Main.vi,-0.000000,0.000000,-0.000000,0.000000,TRUE,FALSE,FALSE,FALSE,FALSE,FALSE,Disabled,0.000000,0.000000,0.000000,TRUE,1.419891,-0.955322,0.000000,0.022461,0.030609,0.000000,0.019000,-0.067000,0.004000,-0.010000,-0.280000,-0.970000,-0.083000,Hold,0.937500,0.000000,Hold,-143.000000,2.000000,Suck,-1755.000000,1818.181818,Speed,-1732.500000,1818.181818,Speed,Off,On,0.000000,FALSE,0,,,,,0.000000,0.000000
02:29:04.039 PM 04/02/2016,Teleop Enabled,9,TRUE,-44087,NetComm_CAN_Receive.vi:5470001<APPEND>  <b>Complete call chain:</b>      NetComm_CAN_Receive.vi:5470001      WPI_CAN_PDPReceive.vi      WPI_Power Get PDP Currents.vi      Periodic Tasks.vi      Robot Main.vi,-0.000000,0.000000,-0.000000,0.000000,TRUE,FALSE,FALSE,FALSE,FALSE,FALSE,Disabled,0.000000,0.000000,0.000000,TRUE,1.421844,-0.954865,0.000000,0.032318,-0.007462,0.000000,0.019000,-0.067000,0.004000,-0.010000,-0.280000,-0.970000,-0.076473,Hold,0.937500,0.000000,Hold,-143.000000,2.000000,Suck,-1747.500000,1818.181818,Speed,-1732.500000,1818.181818,Speed,Off,On,0.000000,FALSE,0,,,,,0.000000,0.000000
02:29:04.140 PM 04/02/2016,Teleop Enabled,11,TRUE,-44087,NetComm_CAN_Receive.vi:5470001<APPEND>  <b>Complete call chain:</b>      NetComm_CAN_Receive.vi:5470001      WPI_CAN_PDPReceive.vi      WPI_Power Get PDP Currents.vi      Periodic Tasks.vi      Robot Main.vi,-0.000000,0.000000,-0.000000,0.000000,TRUE,FALSE,FALSE,FALSE,FALSE,FALSE,Disabled,0.000000,0.000000,0.000000,TRUE,1.422867,-0.955536,0.000000,0.017532,-0.008591,0.000000,-0.003000,-0.050000,0.003000,-0.010000,-0.290000,-0.970000,-0.087104,Hold,0.937500,0.000000,Hold,-143.000000,2.000000,Suck,-1747.500000,1818.181818,Speed,-1732.500000,1818.181818,Speed,Off,On,0.000000,FALSE,0,,,,,0.000000,0.000000
02:29:04.239 PM 04/02/2016,Teleop Enabled,10,TRUE,-44087,NetComm_CAN_Receive.vi:5470001<APPEND>  <b>Complete call chain:</b>      NetComm_CAN_Receive.vi:5470001      WPI_CAN_PDPReceive.vi      WPI_Power Get PDP Currents.vi      Periodic Tasks.vi      Robot Main.vi,-0.000000,0.000000,-0.000000,0.000000,TRUE,FALSE,FALSE,FALSE,FALSE,FALSE,Disabled,0.000000,0.000000,0.000000,TRUE,1.422745,-0.956039,0.000000,-0.006287,-0.011551,0.000000,0.003000,-0.022000,0.056000,-0.010000,-0.260000,-1.000000,-0.080683,Hold,0.937500,0.000000,Hold,-143.000000,2.000000,Suck,-1755.000000,1818.181818,Speed,-1732.500000,1818.181818,Speed,Off,On,0.000000,FALSE,0,,,,,0.000000,0.000000
02:29:04.340 PM 04/02/2016,Teleop Enabled,10,TRUE,-44087,NetComm_CAN_Receive.vi:5470001<APPEND>  <b>Complete call chain:</b>      NetComm_CAN_Receive.vi:5470001      WPI_CAN_PDPReceive.vi      WPI_Power Get PDP Currents.vi      Periodic Tasks.vi      Robot Main.vi,-0.000000,0.000000,-0.000000,0.000000,TRUE,FALSE,FALSE,FALSE,FALSE,FALSE,Disabled,0.000000,0.000000,0.000000,TRUE,1.422668,-0.956772,0.000000,0.014572,-0.015671,0.000000,0.073000,-0.055000,0.055000,-0.020000,-0.300000,-0.950000,-0.103346,Hold,0.937500,0.000000,Hold,-143.000000,2.000000,Suck,-1755.000000,1818.181818,Speed,-1740.000000,1818.181818,Speed,Off,On,0.000000,FALSE,0,,,,,0.000000,0.000000
02:29:04.440 PM 04/02/2016,Teleop Enabled,10,TRUE,-44087,NetComm_CAN_Receive.vi:5470001<APPEND>  <b>Complete call chain:</b>      NetComm_CAN_Receive.vi:5470001      WPI_CAN_PDPReceive.vi      WPI_Power Get PDP Currents.vi      Periodic Tasks.vi      Robot Main.vi,-0.000000,0.000000,-0.000000,0.000000,TRUE,FALSE,FALSE,FALSE,FALSE,FALSE,Disabled,0.000000,0.000000,0.000000,TRUE,1.423737,-0.957535,0.000000,0.029709,-0.008423,0.000000,-0.036000,-0.010000,0.012000,-0.020000,-0.270000,-0.960000,-0.112857,Hold,0.937500,0.000000,Hold,-143.000000,2.000000,Suck,-1755.000000,1818.181818,Speed,-1732.500000,1818.181818,Speed,Off,On,0.000000,FALSE,0,,,,,0.000000,0.000000
02:29:04.542 PM 04/02/2016,Teleop Enabled,9,TRUE,-44087,NetComm_CAN_Receive.vi:5470001<APPEND>  <b>Complete call chain:</b>      NetComm_CAN_Receive.vi:5470001      WPI_CAN_PDPReceive.vi      WPI_Power Get PDP Currents.vi      Periodic Tasks.vi      Robot Main.vi,-0.000000,0.000000,-0.000000,0.000000,TRUE,FALSE,FALSE,FALSE,FALSE,FALSE,Disabled,0.000000,0.000000,0.000000,TRUE,1.424866,-0.957077,0.000000,0.032898,0.018204,0.000000,-0.054000,-0.004000,0.023000,-0.020000,-0.250000,-0.960000,-0.119174,Hold,0.937500,0.000000,Hold,-143.000000,2.000000,Suck,-1747.500000,1818.181818,Speed,-1732.500000,1818.181818,Speed,Off,On,0.000000,FALSE,0,,,,,0.000000,0.000000
02:29:04.642 PM 04/02/2016,Teleop Enabled,9,TRUE,-44087,NetComm_CAN_Receive.vi:5470001<APPEND>  <b>Complete call chain:</b>      NetComm_CAN_Receive.vi:5470001      WPI_CAN_PDPReceive.vi      WPI_Power Get PDP Currents.vi      Periodic Tasks.vi      Robot Main.vi,-0.000000,0.000000,-0.000000,0.000000,TRUE,FALSE,FALSE,FALSE,FALSE,FALSE,Disabled,0.000000,0.000000,0.000000,TRUE,1.425766,-0.956833,0.000000,0.000000,0.008591,0.000000,-0.087000,-0.009000,0.074000,-0.020000,-0.240000,-0.960000,-0.135406,Hold,0.937500,0.000000,Hold,-143.000000,2.000000,Suck,-1755.000000,1818.181818,Speed,-1725.000000,1818.181818,Speed,Off,On,0.000000,FALSE,0,,,,,0.000000,0.000000
02:29:04.742 PM 04/02/2016,Teleop Enabled,10,TRUE,-44087,NetComm_CAN_Receive.vi:5470001<APPEND>  <b>Complete call chain:</b>      NetComm_CAN_Receive.vi:5470001      WPI_CAN_PDPReceive.vi      WPI_Power Get PDP Currents.vi      Periodic Tasks.vi      Robot Main.vi,-0.000000,0.000000,-0.000000,0.000000,TRUE,FALSE,FALSE,FALSE,FALSE,FALSE,Disabled,0.000000,0.000000,0.000000,TRUE,1.425186,-0.956741,0.000000,-0.013702,0.000000,0.000000,0.026000,0.016000,0.027000,-0.020000,-0.290000,-0.900000,-0.130611,Hold,0.937500,0.000000,Hold,-143.000000,2.000000,Suck,-1755.000000,1818.181818,Speed,-1725.000000,1818.181818,Speed,Off,On,0.000000,FALSE,0,,,,,0.000000,0.000000
02:29:04.844 PM 04/02/2016,Teleop Enabled,9,TRUE,-44087,NetComm_CAN_Receive.vi:5470001<APPEND>  <b>Complete call chain:</b>      NetComm_CAN_Receive.vi:5470001      WPI_CAN_PDPReceive.vi      WPI_Power Get PDP Currents.vi      Periodic Tasks.vi      Robot Main.vi,-0.000000,0.000000,-0.000000,0.000000,TRUE,FALSE,FALSE,FALSE,FALSE,FALSE,Disabled,0.000000,0.000000,0.000000,TRUE,1.424911,-0.956268,0.000000,-0.016541,0.024063,0.000000,0.026000,0.016000,0.027000,-0.020000,-0.290000,-0.900000,-0.110165,Hold,0.937500,0.000000,Hold,-143.000000,2.000000,Suck,-1747.500000,1818.181818,Speed,-1725.000000,1818.181818,Speed,Off,On,0.000000,FALSE,0,,,,,0.000000,0.000000
02:29:04.944 PM 04/02/2016,Teleop Enabled,11,TRUE,-44087,NetComm_CAN_Receive.vi:5470001<APPEND>  <b>Complete call chain:</b>      NetComm_CAN_Receive.vi:5470001      WPI_CAN_PDPReceive.vi      WPI_Power Get PDP Currents.vi      Periodic Tasks.vi      Robot Main.vi,-0.000000,0.000000,-0.000000,0.000000,TRUE,FALSE,FALSE,FALSE,FALSE,FALSE,Disabled,0.000000,0.000000,0.000000,TRUE,1.424347,-0.955063,0.000000,-0.015961,0.010010,0.000000,0.045000,0.066000,0.142000,-0.020000,-0.310000,-0.910000,-0.126789,Hold,0.937500,0.000000,Hold,-143.000000,2.000000,Suck,-1747.500000,1818.181818,Speed,-1725.000000,1818.181818,Speed,Off,On,0.000000,FALSE,0,,,,,0.000000,0.000000
02:29:05.046 PM 04/02/2016,Teleop Enabled,11,TRUE,-44087,NetComm_CAN_Receive.vi:5470001<APPEND>  <b>Complete call chain:</b>      NetComm_CAN_Receive.vi:5470001      WPI_CAN_PDPReceive.vi      WPI_Power Get PDP Currents.vi      Periodic Tasks.vi      Robot Main.vi,-0.000000,0.000000,-0.000000,0.000000,TRUE,FALSE,FALSE,FALSE,FALSE,FALSE,Disabled,0.000000,0.000000,0.000000,TRUE,1.423691,-0.955048,0.000000,-0.016357,-0.007660,0.000000,-0.054000,0.027000,0.072000,-0.020000,-0.310000,-0.910000,-0.126039,Hold,0.937500,0.000000,Hold,-143.000000,2.000000,Suck,-1755.000000,1818.181818,Speed,-1725.000000,1818.181818,Speed,Off,On,0.000000,FALSE,0,,,,,0.000000,0.000000
02:29:05.146 PM 04/02/2016,Teleop Enabled,11,TRUE,-44087,NetComm_CAN_Receive.vi:5470001<APPEND>  <b>Complete call chain:</b>      NetComm_CAN_Receive.vi:5470001      WPI_CAN_PDPReceive.vi      WPI_Power Get PDP Currents.vi      Periodic Tasks.vi      Robot Main.vi,-0.000000,0.000000,-0.000000,0.000000,TRUE,FALSE,FALSE,FALSE,FALSE,FALSE,Disabled,0.000000,0.000000,0.000000,TRUE,1.421585,-0.954819,0.000000,-0.034531,0.021362,0.000000,-0.054000,0.027000,0.072000,-0.020000,-0.350000,-0.890000,-0.127474,Hold,0.937500,0.000000,Hold,-143.000000,2.000000,Suck,-1747.500000,1818.181818,Speed,-1725.000000,1818.181818,Speed,Off,On,0.000000,FALSE,0,,,,,0.000000,0.000000
02:29:05.247 PM 04/02/2016,Teleop Enabled,10,TRUE,-44087,NetComm_CAN_Receive.vi:5470001<APPEND>  <b>Complete call chain:</b>      NetComm_CAN_Receive.vi:5470001      WPI_CAN_PDPReceive.vi      WPI_Power Get PDP Currents.vi      Periodic Tasks.vi      Robot Main.vi,-0.000000,0.000000,-0.000000,0.000000,TRUE,FALSE,FALSE,FALSE,FALSE,FALSE,Disabled,0.000000,0.000000,0.000000,TRUE,1.419739,-0.954666,0.000000,-0.053024,-0.005829,0.000000,0.019000,0.026000,0.092000,-0.020000,-0.350000,-0.890000,-0.134594,Hold,0.937500,0.000000,Hold,-143.000000,2.000000,Suck,-1747.500000,1818.181818,Speed,-1717.500000,1818.181818,Speed,Off,On,0.000000,FALSE,0,,,,,0.000000,0.000000
02:29:05.349 PM 04/02/2016,Teleop Enabled,10,TRUE,-44087,NetComm_CAN_Receive.vi:5470001<APPEND>  <b>Complete call chain:</b>      NetComm_CAN_Receive.vi:5470001      WPI_CAN_PDPReceive.vi      WPI_Power Get PDP Currents.vi      Periodic Tasks.vi      Robot Main.vi,-0.000000,0.000000,-0.000000,0.000000,TRUE,FALSE,FALSE,FALSE,FALSE,FALSE,Disabled,0.000000,0.000000,0.000000,TRUE,1.419739,-0.954666,0.000000,-0.053024,-0.005829,0.000000,0.057000,0.014000,0.110000,-0.020000,-0.380000,-0.900000,-0.137375,Hold,0.937500,0.000000,Hold,-143.000000,2.000000,Suck,-1747.500000,1818.181818,Speed,-1732.500000,1818.181818,Speed,Off,On,0.000000,FALSE,0,,,,,0.000000,0.000000
02:29:05.449 PM 04/02/2016,Teleop Enabled,9,TRUE,-44087,NetComm_CAN_Receive.vi:5470001<APPEND>  <b>Complete call chain:</b>      NetComm_CAN_Receive.vi:5470001      WPI_CAN_PDPReceive.vi      WPI_Power Get PDP Currents.vi      Periodic Tasks.vi      Robot Main.vi,-0.000000,0.000000,-0.000000,0.000000,TRUE,FALSE,FALSE,FALSE,FALSE,FALSE,Disabled,0.000000,0.000000,0.000000,TRUE,1.416260,-0.955093,0.000000,-0.027969,0.007904,0.000000,-0.050000,-0.013000,0.045000,-0.020000,-0.330000,-0.860000,-0.140491,Hold,0.937500,0.000000,Hold,-143.000000,2.000000,Suck,-1755.000000,1818.181818,Speed,-1740.000000,1818.181818,Speed,Off,On,0.000000,FALSE,0,,,,,0.000000,0.000000
02:29:05.549 PM 04/02/2016,Teleop Enabled,10,TRUE,-44087,NetComm_CAN_Receive.vi:5470001<APPEND>  <b>Complete call chain:</b>      NetComm_CAN_Receive.vi:5470001      WPI_CAN_PDPReceive.vi      WPI_Power Get PDP Currents.vi      Periodic Tasks.vi      Robot Main.vi,-0.000000,0.000000,-0.000000,0.000000,TRUE,FALSE,FALSE,FALSE,FALSE,FALSE,Disabled,0.000000,0.000000,0.000000,TRUE,1.416260,-0.955093,0.000000,-0.027969,0.007904,0.000000,-0.156000,-0.055000,-0.049000,-0.020000,-0.320000,-0.900000,-0.131210,Hold,0.937500,0.000000,Hold,-143.000000,2.000000,Suck,-1755.000000,1818.181818,Speed,-1732.500000,1818.181818,Speed,Off,On,0.000000,FALSE,0,,,,,0.000000,0.000000
02:29:05.651 PM 04/02/2016,Teleop Enabled,11,TRUE,-44087,NetComm_CAN_Receive.vi:5470001<APPEND>  <b>Complete call chain:</b>      NetComm_CAN_Receive.vi:5470001      WPI_CAN_PDPReceive.vi      WPI_Power Get PDP Currents.vi      Periodic Tasks.vi      Robot Main.vi,-0.000000,0.000000,-0.000000,0.000000,TRUE,FALSE,FALSE,FALSE,FALSE,FALSE,Disabled,0.000000,0.000000,0.000000,TRUE,1.413223,-0.954910,0.000000,-0.031616,-0.004166,0.000000,0.023000,0.008000,0.077000,-0.020000,-0.310000,-0.920000,-0.137234,Hold,0.937500,0.000000,Hold,-143.000000,2.000000,Suck,-1755.000000,1818.181818,Speed,-1732.500000,1818.181818,Speed,Off,On,0.000000,FALSE,0,,,,,0.000000,0.000000
02:29:05.751 PM 04/02/2016,Teleop Enabled,10,TRUE,-44087,NetComm_CAN_Receive.vi:5470001<APPEND>  <b>Complete call chain:</b>      NetComm_CAN_Receive.vi:5470001      WPI_CAN_PDPReceive.vi      WPI_Power Get PDP Currents.vi      Periodic Tasks.vi      Robot Main.vi,-0.000000,0.000000,-0.000000,0.000000,TRUE,FALSE,FALSE,FALSE,FALSE,FALSE,Disabled,0.000000,0.000000,0.000000,TRUE,1.412720,-0.955032,0.000000,-0.016693,-0.007721,0.000000,0.124000,0.046000,0.062000,-0.020000,-0.290000,-0.970000,-0.132094,Hold,0.937500,0.000000,Hold,-143.000000,2.000000,Suck,-1755.000000,1818.181818,Speed,-1717.500000,1818.181818,Speed,Off,On,0.000000,FALSE,0,,,,,0.000000,0.000000
02:29:05.851 PM 04/02/2016,Teleop Enabled,9,TRUE,-44087,NetComm_CAN_Receive.vi:5470001<APPEND>  <b>Complete call chain:</b>      NetComm_CAN_Receive.vi:5470001      WPI_CAN_PDPReceive.vi      WPI_Power Get PDP Currents.vi      Periodic Tasks.vi      Robot Main.vi,-0.000000,0.000000,-0.000000,0.000000,TRUE,FALSE,FALSE,FALSE,FALSE,FALSE,Disabled,0.000000,0.000000,0.000000,TRUE,1.411835,-0.955276,0.000000,-0.018906,0.003967,0.000000,-0.022000,-0.020000,-0.020000,-0.030000,-0.310000,-0.990000,-0.132249,Hold,0.937500,0.000000,Hold,-143.000000,2.000000,Suck,-1755.000000,1818.181818,Speed,-1710.000000,1818.181818,Speed,Off,On,0.000000,FALSE,0,,,,,0.000000,0.000000
02:29:05.953 PM 04/02/2016,Teleop Enabled,11,TRUE,-44087,NetComm_CAN_Receive.vi:5470001<APPEND>  <b>Complete call chain:</b>      NetComm_CAN_Receive.vi:5470001      WPI_CAN_PDPReceive.vi      WPI_Power Get PDP Currents.vi      Periodic Tasks.vi      Robot Main.vi,-0.000000,0.000000,-0.000000,0.000000,TRUE,FALSE,FALSE,FALSE,FALSE,FALSE,Disabled,0.000000,0.000000,0.000000,TRUE,1.411224,-0.954941,0.000000,-0.009079,0.000000,0.000000,0.027000,0.032000,0.001000,-0.030000,-0.310000,-0.990000,-0.135699,Hold,0.937500,0.000000,Hold,-143.000000,2.000000,Suck,-1747.500000,1818.181818,Speed,-1725.000000,1818.181818,Speed,Off,On,0.000000,FALSE,0,,,,,0.000000,0.000000
02:29:06.055 PM 04/02/2016,Teleop Enabled,11,TRUE,-44087,NetComm_CAN_Receive.vi:5470001<APPEND>  <b>Complete call chain:</b>      NetComm_CAN_Receive.vi:5470001      WPI_CAN_PDPReceive.vi      WPI_Power Get PDP Currents.vi      Periodic Tasks.vi      Robot Main.vi,-0.000000,0.000000,-0.000000,0.000000,TRUE,FALSE,FALSE,FALSE,FALSE,FALSE,Disabled,0.000000,0.000000,0.000000,TRUE,1.411224,-0.954941,0.000000,-0.009079,0.000000,0.000000,0.082000,0.011000,0.117000,-0.030000,-0.330000,-0.980000,-0.147410,Hold,0.937500,0.000000,Hold,-143.000000,2.000000,Suck,-1740.000000,1818.181818,Speed,-1732.500000,1818.181818,Speed,Off,On,0.000000,FALSE,0,,,,,0.000000,0.000000
02:29:06.155 PM 04/02/2016,Teleop Enabled,11,TRUE,-44087,NetComm_CAN_Receive.vi:5470001<APPEND>  <b>Complete call chain:</b>      NetComm_CAN_Receive.vi:5470001      WPI_CAN_PDPReceive.vi      WPI_Power Get PDP Currents.vi      Periodic Tasks.vi      Robot Main.vi,-0.000000,0.000000,-0.000000,0.000000,TRUE,FALSE,FALSE,FALSE,FALSE,FALSE,Disabled,0.000000,0.000000,0.000000,TRUE,1.412354,-0.954895,0.000000,0.031845,0.014297,0.000000,-0.062000,0.033000,-0.011000,-0.030000,-0.330000,-0.950000,-0.143179,Hold,0.937500,0.000000,Hold,-143.000000,2.000000,Suck,-1747.500000,1818.181818,Speed,-1725.000000,1818.181818,Speed,Off,On,0.000000,FALSE,0,,,,,0.000000,0.000000
02:29:06.255 PM 04/02/2016,Teleop Enabled,10,TRUE,-44087,NetComm_CAN_Receive.vi:5470001<APPEND>  <b>Complete call chain:</b>      NetComm_CAN_Receive.vi:5470001      WPI_CAN_PDPReceive.vi      WPI_Power Get PDP Currents.vi      Periodic Tasks.vi      Robot Main.vi,-0.000000,0.000000,-0.000000,0.000000,TRUE,FALSE,FALSE,FALSE,FALSE,FALSE,Disabled,0.000000,0.000000,0.000000,TRUE,1.412018,-0.953613,0.000000,-0.011795,0.000000,0.000000,-0.008000,0.003000,0.071000,-0.030000,-0.370000,-0.910000,-0.143179,Hold,0.937500,0.000000,Hold,-143.000000,2.000000,Suck,-1755.000000,1818.181818,Speed,-1702.500000,1818.181818,Speed,Off,On,0.000000,FALSE,0,,,,,0.000000,0.000000
02:29:06.356 PM 04/02/2016,Teleop Enabled,10,TRUE,-44087,NetComm_CAN_Receive.vi:5470001<APPEND>  <b>Complete call chain:</b>      NetComm_CAN_Receive.vi:5470001      WPI_CAN_PDPReceive.vi      WPI_Power Get PDP Currents.vi      Periodic Tasks.vi      Robot Main.vi,-0.000000,0.000000,-0.000000,0.000000,TRUE,FALSE,FALSE,FALSE,FALSE,FALSE,Disabled,0.000000,0.000000,0.000000,TRUE,1.410172,-0.953705,0.000000,-0.031601,-0.007156,0.000000,0.064000,-0.014000,0.115000,-0.030000,-0.340000,-0.900000,-0.154554,Hold,0.937500,0.000000,Hold,-143.000000,2.000000,Suck,-1755.000000,1818.181818,Speed,-1695.000000,1818.181818,Speed,Off,On,0.000000,FALSE,0,,,,,0.000000,0.000000
02:29:06.457 PM 04/02/2016,Teleop Enabled,10,TRUE,-44087,NetComm_CAN_Receive.vi:5470001<APPEND>  <b>Complete call chain:</b>      NetComm_CAN_Receive.vi:5470001      WPI_CAN_PDPReceive.vi      WPI_Power Get PDP Currents.vi      Periodic Tasks.vi      Robot Main.vi,-0.000000,0.000000,-0.000000,0.000000,TRUE,FALSE,FALSE,FALSE,FALSE,FALSE,Disabled,0.000000,0.000000,0.000000,TRUE,1.408432,-0.953644,0.000000,-0.034027,0.006226,0.000000,0.030000,0.049000,0.062000,-0.030000,-0.310000,-0.920000,-0.150557,Hold,0.937500,0.000000,Hold,-143.000000,2.000000,Suck,-1755.000000,1818.181818,Speed,-1710.000000,1818.181818,Speed,Off,On,0.000000,FALSE,0,,,,,0.000000,0.000000
02:29:06.557 PM 04/02/2016,Teleop Enabled,9,TRUE,-44087,NetComm_CAN_Receive.vi:5470001<APPEND>  <b>Complete call chain:</b>      NetComm_CAN_Receive.vi:5470001      WPI_CAN_PDPReceive.vi      WPI_Power Get PDP Currents.vi      Periodic Tasks.vi      Robot Main.vi,-0.000000,0.000000,-0.000000,0.000000,TRUE,FALSE,FALSE,FALSE,FALSE,FALSE,Disabled,0.000000,0.000000,0.000000,TRUE,1.408127,-0.952957,0.000000,0.002884,0.015396,0.000000,0.036000,0.011000,0.047000,-0.030000,-0.250000,-0.940000,-0.150557,Hold,0.937500,0.000000,Hold,-143.000000,2.000000,Suck,-1755.000000,1818.181818,Speed,-1702.500000,1818.181818,Speed,Off,On,0.000000,FALSE,0,,,,,0.000000,0.000000
02:29:06.658 PM 04/02/2016,Teleop Enabled,9,TRUE,-44087,NetComm_CAN_Receive.vi:5470001<APPEND>  <b>Complete call chain:</b>      NetComm_CAN_Receive.vi:5470001      WPI_CAN_PDPReceive.vi      WPI_Power Get PDP Currents.vi      Periodic Tasks.vi      Robot Main.vi,-0.000000,0.000000,-0.000000,0.000000,TRUE,FALSE,FALSE,FALSE,FALSE,FALSE,Disabled,0.000000,0.000000,0.000000,TRUE,1.407593,-0.951309,0.000000,-0.035919,0.000000,0.000000,0.094000,-0.012000,0.042000,-0.030000,-0.250000,-0.910000,-0.162998,Hold,0.937500,0.000000,Hold,-143.000000,2.000000,Suck,-1747.500000,1818.181818,Speed,-1687.500000,1818.181818,Speed,Off,On,0.000000,FALSE,0,,,,,0.000000,0.000000
02:29:06.758 PM 04/02/2016,Teleop Enabled,10,TRUE,-44087,NetComm_CAN_Receive.vi:5470001<APPEND>  <b>Complete call chain:</b>      NetComm_CAN_Receive.vi:5470001      WPI_CAN_PDPReceive.vi      WPI_Power Get PDP Currents.vi      Periodic Tasks.vi      Robot Main.vi,-0.000000,0.000000,-0.000000,0.000000,TRUE,FALSE,FALSE,FALSE,FALSE,FALSE,Disabled,0.000000,0.000000,0.000000,TRUE,1.406662,-0.951111,0.000000,-0.012558,0.006287,0.000000,-0.163000,-0.030000,-0.030000,-0.030000,-0.260000,-0.860000,-0.165838,Hold,0.937500,0.000000,Hold,-143.000000,2.000000,Suck,-1755.000000,1818.181818,Speed,-1702.500000,1818.181818,Speed,Off,On,0.000000,FALSE,0,,,,,0.000000,0.000000
02:29:06.858 PM 04/02/2016,Teleop Enabled,10,TRUE,-44087,NetComm_CAN_Receive.vi:5470001<APPEND>  <b>Complete call chain:</b>      NetComm_CAN_Receive.vi:5470001      WPI_CAN_PDPReceive.vi      WPI_Power Get PDP Currents.vi      Periodic Tasks.vi      Robot Main.vi,-0.000000,0.000000,-0.000000,0.000000,TRUE,FALSE,FALSE,FALSE,FALSE,FALSE,Disabled,0.000000,0.000000,0.000000,TRUE,1.405502,-0.950592,0.000000,-0.014069,0.016083,0.000000,0.065000,-0.005000,-0.008000,-0.030000,-0.300000,-0.860000,-0.181065,Hold,0.937500,0.000000,Hold,-143.000000,2.000000,Suck,-1747.500000,1818.181818,Speed,-1717.500000,1818.181818,Speed,Off,On,0.000000,FALSE,0,,,,,0.000000,0.000000
02:29:06.958 PM 04/02/2016,Teleop Enabled,11,TRUE,-44087,NetComm_CAN_Receive.vi:5470001<APPEND>  <b>Complete call chain:</b>      NetComm_CAN_Receive.vi:5470001      WPI_CAN_PDPReceive.vi      WPI_Power Get PDP Currents.vi      Periodic Tasks.vi      Robot Main.vi,-0.000000,0.000000,-0.000000,0.000000,TRUE,FALSE,FALSE,FALSE,FALSE,FALSE,Disabled,0.000000,0.000000,0.000000,TRUE,1.404877,-0.950531,0.000000,-0.018051,-0.021454,0.000000,-0.007000,-0.016000,-0.044000,-0.030000,-0.310000,-0.870000,-0.186714,Hold,0.937500,0.000000,Hold,-143.000000,2.000000,Suck,-1755.000000,1818.181818,Speed,-1732.500000,1818.181818,Speed,Off,On,0.000000,FALSE,0,,,,,0.000000,0.000000
02:29:07.058 PM 04/02/2016,Teleop Enabled,10,TRUE,-44087,NetComm_CAN_Receive.vi:5470001<APPEND>  <b>Complete call chain:</b>      NetComm_CAN_Receive.vi:5470001      WPI_CAN_PDPReceive.vi      WPI_Power Get PDP Currents.vi      Periodic Tasks.vi      Robot Main.vi,-0.000000,0.000000,-0.000000,0.000000,TRUE,FALSE,FALSE,FALSE,FALSE,FALSE,Disabled,0.000000,0.000000,0.000000,TRUE,1.403656,-0.950760,0.000000,-0.026337,-0.004654,0.000000,-0.066000,-0.021000,0.082000,-0.030000,-0.360000,-0.870000,-0.186222,Hold,0.937500,0.000000,Hold,-143.000000,2.000000,Suck,-1747.500000,1818.181818,Speed,-1755.000000,1818.181818,Speed,Off,On,0.000000,FALSE,0,,,,,0.000000,0.000000
02:29:07.159 PM 04/02/2016,Teleop Enabled,9,TRUE,-44087,NetComm_CAN_Receive.vi:5470001<APPEND>  <b>Complete call chain:</b>      NetComm_CAN_Receive.vi:5470001      WPI_CAN_PDPReceive.vi      WPI_Power Get PDP Currents.vi      Periodic Tasks.vi      Robot Main.vi,-0.000000,0.000000,-0.000000,0.000000,TRUE,FALSE,FALSE,FALSE,FALSE,FALSE,Disabled,0.000000,0.000000,0.000000,TRUE,1.401840,-0.951050,0.000000,-0.049316,-0.001740,0.000000,-0.164000,0.049000,0.009000,-0.030000,-0.350000,-0.880000,-0.170741,Hold,0.937500,0.000000,Hold,-143.000000,2.000000,Suck,-1740.000000,1818.181818,Speed,-1732.500000,1818.181818,Speed,Off,On,0.000000,FALSE,0,,,,,0.000000,0.000000
02:29:07.259 PM 04/02/2016,Teleop Enabled,10,TRUE,-44087,NetComm_CAN_Receive.vi:5470001<APPEND>  <b>Complete call chain:</b>      NetComm_CAN_Receive.vi:5470001      WPI_CAN_PDPReceive.vi      WPI_Power Get PDP Currents.vi      Periodic Tasks.vi      Robot Main.vi,-0.000000,0.000000,-0.000000,0.000000,TRUE,FALSE,FALSE,FALSE,FALSE,FALSE,Disabled,0.000000,0.000000,0.000000,TRUE,1.397583,-0.950760,0.000000,-0.098892,0.000000,0.000000,0.008000,-0.058000,0.092000,-0.030000,-0.380000,-0.880000,-0.169828,Hold,0.937500,0.000000,Hold,-143.000000,2.000000,Suck,-1740.000000,1818.181818,Speed,-1710.000000,1818.181818,Speed,Off,On,0.000000,FALSE,0,,,,,0.000000,0.000000
02:29:07.359 PM 04/02/2016,Teleop Enabled,11,TRUE,-44087,NetComm_CAN_Receive.vi:5470001<APPEND>  <b>Complete call chain:</b>      NetComm_CAN_Receive.vi:5470001      WPI_CAN_PDPReceive.vi      WPI_Power Get PDP Currents.vi      Periodic Tasks.vi      Robot Main.vi,-0.000000,0.000000,-0.000000,0.000000,TRUE,FALSE,FALSE,FALSE,FALSE,FALSE,Disabled,0.000000,0.000000,0.000000,TRUE,1.392166,-0.951279,0.000000,-0.119354,-0.003906,0.000000,-0.178000,-0.037000,0.000000,-0.030000,-0.420000,-0.840000,-0.172754,Hold,0.937500,0.000000,Hold,-143.000000,2.000000,Suck,-1740.000000,1818.181818,Speed,-1695.000000,1818.181818,Speed,Off,On,0.000000,FALSE,0,,,,,0.000000,0.000000
02:29:07.459 PM 04/02/2016,Teleop Enabled,11,TRUE,-44087,NetComm_CAN_Receive.vi:5470001<APPEND>  <b>Complete call chain:</b>      NetComm_CAN_Receive.vi:5470001      WPI_CAN_PDPReceive.vi      WPI_Power Get PDP Currents.vi      Periodic Tasks.vi      Robot Main.vi,-0.000000,0.000000,-0.000000,0.000000,TRUE,FALSE,FALSE,FALSE,FALSE,FALSE,Disabled,0.000000,0.000000,0.000000,TRUE,1.382706,-0.952316,0.000000,-0.152954,-0.021683,0.000000,-0.084000,0.023000,0.014000,-0.030000,-0.450000,-0.860000,-0.180610,Hold,0.937500,0.000000,Hold,-143.000000,2.000000,Suck,-1747.500000,1818.181818,Speed,-1710.000000,1818.181818,Speed,Off,On,0.000000,FALSE,0,,,,,0.000000,0.000000
02:29:07.559 PM 04/02/2016,Teleop Enabled,9,TRUE,-44087,NetComm_CAN_Receive.vi:5470001<APPEND>  <b>Complete call chain:</b>      NetComm_CAN_Receive.vi:5470001      WPI_CAN_PDPReceive.vi      WPI_Power Get PDP Currents.vi      Periodic Tasks.vi      Robot Main.vi,-0.000000,0.000000,-0.000000,0.000000,TRUE,FALSE,FALSE,FALSE,FALSE,FALSE,Disabled,0.000000,0.000000,0.000000,TRUE,1.375320,-0.953995,0.000000,-0.135574,-0.043182,0.000000,-0.054000,0.002000,0.057000,-0.030000,-0.430000,-0.880000,-0.171085,Hold,0.937500,0.000000,Hold,-143.000000,2.000000,Suck,-1747.500000,1818.181818,Speed,-1725.000000,1818.181818,Speed,Off,On,0.000000,FALSE,0,,,,,0.000000,0.000000
02:29:07.659 PM 04/02/2016,Teleop Enabled,10,TRUE,-44087,NetComm_CAN_Receive.vi:5470001<APPEND>  <b>Complete call chain:</b>      NetComm_CAN_Receive.vi:5470001      WPI_CAN_PDPReceive.vi      WPI_Power Get PDP Currents.vi      Periodic Tasks.vi      Robot Main.vi,-0.000000,0.000000,-0.000000,0.000000,TRUE,FALSE,FALSE,FALSE,FALSE,FALSE,Disabled,0.000000,0.000000,0.000000,TRUE,1.369019,-0.953720,0.000000,-0.128403,0.000000,0.000000,0.069000,0.032000,-0.048000,-0.040000,-0.410000,-0.880000,-0.175385,Hold,0.937500,0.000000,Hold,-143.000000,2.000000,Suck,-1747.500000,1818.181818,Speed,-1725.000000,1818.181818,Speed,Off,On,0.000000,FALSE,0,,,,,0.000000,0.000000
02:29:07.759 PM 04/02/2016,Teleop Enabled,10,TRUE,-44087,NetComm_CAN_Receive.vi:5470001<APPEND>  <b>Complete call chain:</b>      NetComm_CAN_Receive.vi:5470001      WPI_CAN_PDPReceive.vi      WPI_Power Get PDP Currents.vi      Periodic Tasks.vi      Robot Main.vi,-0.000000,0.000000,-0.000000,0.000000,TRUE,FALSE,FALSE,FALSE,FALSE,FALSE,Disabled,0.000000,0.000000,0.000000,TRUE,1.366211,-0.953781,0.000000,-0.002838,-0.011673,0.000000,-0.105000,-0.028000,0.025000,-0.030000,-0.340000,-0.950000,-0.175085,Hold,0.937500,0.000000,Hold,-143.000000,2.000000,Suck,-1747.500000,1818.181818,Speed,-1695.000000,1818.181818,Speed,Off,On,0.000000,FALSE,0,,,,,0.000000,0.000000
02:29:07.859 PM 04/02/2016,Teleop Enabled,9,TRUE,-44087,NetComm_CAN_Receive.vi:5470001<APPEND>  <b>Complete call chain:</b>      NetComm_CAN_Receive.vi:5470001      WPI_CAN_PDPReceive.vi      WPI_Power Get PDP Currents.vi      Periodic Tasks.vi      Robot Main.vi,-0.000000,0.000000,-0.000000,0.000000,TRUE,FALSE,FALSE,FALSE,FALSE,FALSE,Disabled,0.000000,0.000000,0.000000,TRUE,1.365738,-0.954773,0.000000,-0.002502,-0.018021,0.000000,0.095000,0.000000,0.055000,-0.040000,-0.360000,-0.910000,-0.183685,Hold,0.937500,0.000000,Hold,-143.000000,2.000000,Suck,-1747.500000,1818.181818,Speed,-1657.500000,1818.181818,Speed,Off,On,0.000000,FALSE,0,,,,,0.000000,0.000000
02:29:07.959 PM 04/02/2016,Teleop Enabled,10,TRUE,-44087,NetComm_CAN_Receive.vi:5470001<APPEND>  <b>Complete call chain:</b>      NetComm_CAN_Receive.vi:5470001      WPI_CAN_PDPReceive.vi      WPI_Power Get PDP Currents.vi      Periodic Tasks.vi      Robot Main.vi,-0.000000,0.000000,-0.000000,0.000000,TRUE,FALSE,FALSE,FALSE,FALSE,FALSE,Disabled,0.000000,0.000000,0.000000,TRUE,1.366531,-0.955963,0.000000,-0.003571,-0.038773,0.000000,-0.049000,-0.017000,-0.007000,-0.030000,-0.300000,-0.950000,-0.172310,Hold,0.937500,0.000000,Hold,-143.000000,2.000000,Suck,-1755.000000,1818.181818,Speed,-1680.000000,1818.181818,Speed,Off,On,0.000000,FALSE,0,,,,,0.000000,0.000000
02:29:08.060 PM 04/02/2016,Teleop Enabled,10,TRUE,-44087,NetComm_CAN_Receive.vi:5470001<APPEND>  <b>Complete call chain:</b>      NetComm_CAN_Receive.vi:5470001      WPI_CAN_PDPReceive.vi      WPI_Power Get PDP Currents.vi      Periodic Tasks.vi      Robot Main.vi,-0.000000,0.000000,-0.000000,0.000000,TRUE,FALSE,FALSE,FALSE,FALSE,FALSE,Disabled,0.000000,0.000000,0.000000,TRUE,1.367416,-0.956833,0.000000,0.011612,-0.019165,0.000000,0.060000,0.052000,0.081000,-0.030000,-0.270000,-0.950000,-0.169718,Hold,0.937500,0.000000,Hold,-143.000000,2.000000,Suck,-1755.000000,1818.181818,Speed,-1725.000000,1818.181818,Speed,Off,On,0.000000,FALSE,0,,,,,0.000000,0.000000
02:29:08.164 PM 04/02/2016,Teleop Enabled,12,TRUE,-44087,NetComm_CAN_Receive.vi:5470001<APPEND>  <b>Complete call chain:</b>      NetComm_CAN_Receive.vi:5470001      WPI_CAN_PDPReceive.vi      WPI_Power Get PDP Currents.vi      Periodic Tasks.vi      Robot Main.vi,-0.000000,0.000000,-0.000000,0.000000,TRUE,FALSE,FALSE,FALSE,FALSE,FALSE,Disabled,0.000000,0.000000,0.000000,TRUE,1.367630,-0.957184,0.000000,-0.010986,0.000000,0.000000,-0.098000,0.025000,0.019000,-0.040000,-0.280000,-0.930000,-0.165893,Hold,0.937500,0.000000,Hold,-143.000000,2.000000,Suck,-1747.500000,1818.181818,Speed,-1747.500000,1818.181818,Speed,Off,On,0.000000,FALSE,0,,,,,0.000000,0.000000
02:29:08.264 PM 04/02/2016,Teleop Enabled,12,TRUE,-44087,NetComm_CAN_Receive.vi:5470001<APPEND>  <b>Complete call chain:</b>      NetComm_CAN_Receive.vi:5470001      WPI_CAN_PDPReceive.vi      WPI_Power Get PDP Currents.vi      Periodic Tasks.vi      Robot Main.vi,-0.000000,0.000000,-0.000000,0.000000,TRUE,FALSE,FALSE,FALSE,FALSE,FALSE,Disabled,0.000000,0.000000,0.000000,TRUE,1.366516,-0.957275,0.000000,-0.027603,-0.014069,0.000000,-0.036000,-0.004000,-0.098000,-0.040000,-0.290000,-0.910000,-0.167446,Hold,0.937500,0.000000,Hold,-143.000000,2.000000,Suck,-1755.000000,1818.181818,Speed,-1732.500000,1818.181818,Speed,Off,On,0.000000,FALSE,0,,,,,0.000000,0.000000
02:29:08.365 PM 04/02/2016,Teleop Enabled,10,TRUE,-44087,NetComm_CAN_Receive.vi:5470001<APPEND>  <b>Complete call chain:</b>      NetComm_CAN_Receive.vi:5470001      WPI_CAN_PDPReceive.vi      WPI_Power Get PDP Currents.vi      Periodic Tasks.vi      Robot Main.vi,-0.000000,0.000000,-0.000000,0.000000,TRUE,FALSE,FALSE,FALSE,FALSE,FALSE,Disabled,0.000000,0.000000,0.000000,TRUE,1.364990,-0.957474,0.000000,-0.034637,-0.003723,0.000000,0.068000,0.095000,0.046000,-0.040000,-0.310000,-0.910000,-0.180180,Hold,0.937500,0.000000,Hold,-143.000000,2.000000,Suck,-1755.000000,1818.181818,Speed,-1732.500000,1818.181818,Speed,Off,On,0.000000,FALSE,0,,,,,0.000000,0.000000
02:29:08.467 PM 04/02/2016,Teleop Enabled,10,TRUE,-44087,NetComm_CAN_Receive.vi:5470001<APPEND>  <b>Complete call chain:</b>      NetComm_CAN_Receive.vi:5470001      WPI_CAN_PDPReceive.vi      WPI_Power Get PDP Currents.vi      Periodic Tasks.vi      Robot Main.vi,-0.000000,0.000000,-0.000000,0.000000,TRUE,FALSE,FALSE,FALSE,FALSE,FALSE,Disabled,0.000000,0.000000,0.000000,TRUE,1.364182,-0.957047,0.000000,-0.019257,0.001373,0.000000,-0.077000,0.011000,-0.065000,-0.040000,-0.310000,-0.880000,-0.184707,Hold,0.937500,0.000000,Hold,-143.000000,2.000000,Suck,-1755.000000,1818.181818,Speed,-1747.500000,1818.181818,Speed,Off,On,0.000000,FALSE,0,,,,,0.000000,0.000000
02:29:08.568 PM 04/02/2016,Teleop Enabled,10,TRUE,-44087,NetComm_CAN_Receive.vi:5470001<APPEND>  <b>Complete call chain:</b>      NetComm_CAN_Receive.vi:5470001      WPI_CAN_PDPReceive.vi      WPI_Power Get PDP Currents.vi      Periodic Tasks.vi      Robot Main.vi,-0.000000,0.000000,-0.000000,0.000000,TRUE,FALSE,FALSE,FALSE,FALSE,FALSE,Disabled,0.000000,0.000000,0.000000,TRUE,1.362640,-0.957184,0.000000,-0.032303,-0.005859,0.000000,-0.040000,-0.038000,-0.025000,-0.040000,-0.320000,-0.860000,-0.182779,Hold,0.937500,0.000000,Hold,-143.000000,2.000000,Suck,-1755.000000,1818.181818,Speed,-1755.000000,1818.181818,Speed,Off,On,0.000000,FALSE,0,,,,,0.000000,0.000000
02:29:08.669 PM 04/02/2016,Teleop Enabled,10,TRUE,-44087,NetComm_CAN_Receive.vi:5470001<APPEND>  <b>Complete call chain:</b>      NetComm_CAN_Receive.vi:5470001      WPI_CAN_PDPReceive.vi      WPI_Power Get PDP Currents.vi      Periodic Tasks.vi      Robot Main.vi,-0.000000,0.000000,-0.000000,0.000000,TRUE,FALSE,FALSE,FALSE,FALSE,FALSE,Disabled,0.000000,0.000000,0.000000,TRUE,1.360306,-0.957703,0.000000,-0.051727,-0.011765,0.000000,0.030000,0.018000,0.003000,-0.040000,-0.320000,-0.860000,-0.187265,Hold,0.937500,0.000000,Hold,-143.000000,2.000000,Suck,-1755.000000,1818.181818,Speed,-1755.000000,1818.181818,Speed,Off,On,0.000000,FALSE,0,,,,,0.000000,0.000000
02:29:08.769 PM 04/02/2016,Teleop Enabled,10,TRUE,-44087,NetComm_CAN_Receive.vi:5470001<APPEND>  <b>Complete call chain:</b>      NetComm_CAN_Receive.vi:5470001      WPI_CAN_PDPReceive.vi      WPI_Power Get PDP Currents.vi      Periodic Tasks.vi      Robot Main.vi,-0.000000,0.000000,-0.000000,0.000000,TRUE,FALSE,FALSE,FALSE,FALSE,FALSE,Disabled,0.000000,0.000000,0.000000,TRUE,1.357407,-0.957336,0.000000,-0.064011,0.020233,0.000000,0.124000,0.026000,0.097000,-0.040000,-0.330000,-0.830000,-0.188391,Hold,0.937500,0.000000,Hold,-143.000000,2.000000,Suck,-1762.500000,1818.181818,Speed,-1732.500000,1818.181818,Speed,Off,On,0.000000,FALSE,0,,,,,0.000000,0.000000
