Time,Robot Mode,Loop Time,Error Status,Error Code,Error Source,Left Motor Output,Left Motor Encoder,Right Motor Output,Right Motor Encoder,Is Level,Is Stalled,Ball Detector Photoeye,Vision Enabled,Vision Teleop Control,Vision Auto Control,Vision Current State,Vision X Output,Vision NavX Error,Vision NavX Target,NavX Connection Status,NavX Displacement X,NavX Displacement Y,NavX Displacement Z,NavX Velocity X,NavX Velocity Y,NavX Velocity Z,NavX Acceleration X,NavX Acceleration Y,NavX Acceleration Z,NavX Pitch,NavX Yaw,NavX Roll,Gyro Angle,Roller Arm State,Roller Arm Actual,Roller Arm Desired,Shooter Arm State,Shooter Arm Actual,Shooter Arm Desired,Shooter State,Actual RPM Left,Desired RPM Left,Control Mode Left,Actual RPM Right,Desired RPM Right,Control Mode Right,Ball Shooter Cylinder,Ball Halo Cylinder,Scaler Motor Output,Scaler Solenoid Fire,Auto To Run,Auto Current File,Auto File Status,Auto Current Command,Auto Trimmed Command,Shooter Amps Left,Shooter Amps Right
02:36:18.961 PM 04/02/2016,Autonomous Disabled,3,TRUE,-44087,NetComm_CAN_Receive.vi:5470001<APPEND>  <b>Complete call chain:</b>      NetComm_CAN_Receive.vi:5470001      WPI_CAN_PDPReceive.vi      WPI_Power Get PDP Currents.vi      Periodic Tasks.vi      Robot Main.vi,-0.000000,0.000000,-0.000000,0.000000,TRUE,FALSE,FALSE,FALSE,FALSE,FALSE,Disabled,0.000000,0.000000,0.000000,TRUE,1.617310,-0.871689,0.000000,0.135742,0.035980,0.000000,-0.099000,-0.037000,0.054000,-0.020000,-0.300000,-0.910000,-0.062204,Hold,0.947998,0.000000,Hold,-153.000000,2.000000,Suck,-1755.000000,1818.181818,Speed,-1710.000000,1818.181818,Speed,Off,On,0.000000,FALSE,0,,,,,0.000000,0.000000
02:36:19.062 PM 04/02/2016,Teleop Enabled,9,TRUE,-44087,NetComm_CAN_Receive.vi:5470001<APPEND>  <b>Complete call chain:</b>      NetComm_CAN_Receive.vi:5470001      WPI_CAN_PDPReceive.vi      WPI_Power Get PDP Currents.vi      Periodic Tasks.vi      Robot Main.vi,-0.000000,0.000000,-0.000000,0.000000,TRUE,FALSE,FALSE,FALSE,FALSE,FALSE,Disabled,0.000000,0.000000,0.000000,TRUE,1.610992,-0.840958,0.000000,0.007248,0.000000,0.000000,-0.041000,0.004000,-0.005000,0.000000,-0.310000,-0.910000,-0.001305,ResetBack,0.947998,-0.000049,ResetBack,-543.000000,-0.250000,Empty,0.000000,0.000000,Speed,0.000000,0.000000,Speed,Off,Off,0.000000,FALSE,0,,,,,0.000000,0.000000
02:36:19.162 PM 04/02/2016,Teleop Enabled,10,TRUE,-44087,NetComm_CAN_Receive.vi:5470001<APPEND>  <b>Complete call chain:</b>      NetComm_CAN_Receive.vi:5470001      WPI_CAN_PDPReceive.vi      WPI_Power Get PDP Currents.vi      Periodic Tasks.vi      Robot Main.vi,-0.000000,0.000000,-0.000000,0.000000,TRUE,FALSE,FALSE,FALSE,FALSE,FALSE,Disabled,0.000000,0.000000,0.000000,TRUE,1.611130,-0.840958,0.000000,0.000000,0.000000,0.000000,-0.019000,0.008000,-0.019000,0.000000,-0.300000,-0.930000,0.004606,ResetBack,0.058838,-0.000049,ResetBack,179.000000,-0.250000,Empty,0.000000,0.000000,Speed,0.000000,0.000000,Speed,Off,Off,0.000000,FALSE,0,,,,,0.000000,0.000000
02:36:19.263 PM 04/02/2016,Teleop Enabled,10,TRUE,-44087,NetComm_CAN_Receive.vi:5470001<APPEND>  <b>Complete call chain:</b>      NetComm_CAN_Receive.vi:5470001      WPI_CAN_PDPReceive.vi      WPI_Power Get PDP Currents.vi      Periodic Tasks.vi      Robot Main.vi,-0.000000,0.000000,-0.000000,0.000000,TRUE,FALSE,FALSE,FALSE,FALSE,FALSE,Disabled,0.000000,0.000000,0.000000,TRUE,1.611206,-0.840958,0.000000,0.002457,0.000000,0.000000,-0.004000,-0.002000,-0.003000,0.000000,-0.310000,-0.910000,0.010028,ResetBack,-0.004395,-0.000049,ResetBack,1147.000000,-0.250000,Empty,0.000000,0.000000,Speed,0.000000,0.000000,Speed,Off,Off,0.000000,FALSE,0,,,,,0.000000,0.000000
02:36:19.362 PM 04/02/2016,Teleop Enabled,10,TRUE,-44087,NetComm_CAN_Receive.vi:5470001<APPEND>  <b>Complete call chain:</b>      NetComm_CAN_Receive.vi:5470001      WPI_CAN_PDPReceive.vi      WPI_Power Get PDP Currents.vi      Periodic Tasks.vi      Robot Main.vi,-0.000000,0.000000,-0.000000,0.000000,TRUE,FALSE,FALSE,FALSE,FALSE,FALSE,Disabled,0.000000,0.000000,0.000000,TRUE,1.611206,-0.840958,0.000000,0.000000,0.000000,0.000000,0.012000,0.001000,0.027000,0.000000,-0.300000,-0.920000,0.010589,Reset,-0.009277,0.000000,ResetBack,1203.000000,-0.250000,Empty,0.000000,0.000000,Speed,0.000000,0.000000,Speed,Off,Off,0.000000,FALSE,0,,,,,0.000000,0.000000
02:36:19.462 PM 04/02/2016,Teleop Enabled,10,TRUE,-44087,NetComm_CAN_Receive.vi:5470001<APPEND>  <b>Complete call chain:</b>      NetComm_CAN_Receive.vi:5470001      WPI_CAN_PDPReceive.vi      WPI_Power Get PDP Currents.vi      Periodic Tasks.vi      Robot Main.vi,-0.000000,0.000000,-0.000000,0.000000,TRUE,FALSE,FALSE,FALSE,FALSE,FALSE,Disabled,0.000000,0.000000,0.000000,TRUE,1.611206,-0.840958,0.000000,0.000000,0.000000,0.000000,0.006000,-0.001000,0.016000,0.000000,-0.300000,-0.920000,0.003763,Hold,1.134521,0.000000,ResetBack,1203.000000,-0.250000,Empty,0.000000,0.000000,Speed,0.000000,0.000000,Speed,Off,Off,0.000000,FALSE,0,,,,,0.000000,0.000000
02:36:19.562 PM 04/02/2016,Teleop Enabled,4,TRUE,-44087,NetComm_CAN_Receive.vi:5470001<APPEND>  <b>Complete call chain:</b>      NetComm_CAN_Receive.vi:5470001      WPI_CAN_PDPReceive.vi      WPI_Power Get PDP Currents.vi      Periodic Tasks.vi      Robot Main.vi,-0.000000,0.000000,-0.000000,0.000000,TRUE,FALSE,FALSE,FALSE,FALSE,FALSE,Disabled,0.000000,0.000000,0.000000,TRUE,1.611206,-0.840958,0.000000,0.000000,0.000000,0.000000,0.003000,-0.001000,0.012000,0.000000,-0.310000,-0.900000,0.009598,Hold,1.011475,0.000000,ResetBack,1203.000000,-0.250000,Empty,0.000000,0.000000,Speed,0.000000,0.000000,Speed,Off,Off,0.000000,FALSE,0,,,,,0.000000,0.000000
02:36:19.662 PM 04/02/2016,Teleop Enabled,10,TRUE,-44087,NetComm_CAN_Receive.vi:5470001<APPEND>  <b>Complete call chain:</b>      NetComm_CAN_Receive.vi:5470001      WPI_CAN_PDPReceive.vi      WPI_Power Get PDP Currents.vi      Periodic Tasks.vi      Robot Main.vi,-0.000000,0.000000,-0.000000,0.000000,TRUE,FALSE,FALSE,FALSE,FALSE,FALSE,Disabled,0.000000,0.000000,0.000000,TRUE,1.611206,-0.840958,0.000000,0.000000,0.000000,0.000000,0.000000,-0.005000,0.006000,0.000000,-0.300000,-0.910000,0.011667,Hold,0.948975,0.000000,ResetBack,1203.000000,-0.250000,Empty,0.000000,0.000000,Speed,0.000000,0.000000,Speed,Off,Off,0.000000,FALSE,0,,,,,0.000000,0.000000
02:36:19.762 PM 04/02/2016,Teleop Enabled,10,TRUE,-44087,NetComm_CAN_Receive.vi:5470001<APPEND>  <b>Complete call chain:</b>      NetComm_CAN_Receive.vi:5470001      WPI_CAN_PDPReceive.vi      WPI_Power Get PDP Currents.vi      Periodic Tasks.vi      Robot Main.vi,-0.000000,0.000000,-0.000000,0.000000,TRUE,FALSE,FALSE,FALSE,FALSE,FALSE,Disabled,0.000000,0.000000,0.000000,TRUE,1.611206,-0.840958,0.000000,0.000000,0.000000,0.000000,-0.001000,0.000000,0.011000,0.000000,-0.300000,-0.900000,0.011570,Hold,0.948975,0.000000,ResetBack,1203.000000,-0.250000,Empty,0.000000,0.000000,Speed,0.000000,0.000000,Speed,Off,Off,0.000000,FALSE,0,,,,,0.000000,0.000000
02:36:19.862 PM 04/02/2016,Teleop Enabled,10,TRUE,-44087,NetComm_CAN_Receive.vi:5470001<APPEND>  <b>Complete call chain:</b>      NetComm_CAN_Receive.vi:5470001      WPI_CAN_PDPReceive.vi      WPI_Power Get PDP Currents.vi      Periodic Tasks.vi      Robot Main.vi,-0.000000,0.000000,-0.000000,0.000000,TRUE,FALSE,FALSE,FALSE,FALSE,FALSE,Disabled,0.000000,0.000000,0.000000,TRUE,1.611206,-0.840958,0.000000,0.000000,0.000000,0.000000,-0.002000,0.001000,0.011000,0.000000,-0.300000,-0.910000,0.004234,Hold,0.948975,0.000000,ResetBack,1203.000000,-0.250000,Empty,0.000000,0.000000,Speed,0.000000,0.000000,Speed,Off,Off,0.000000,FALSE,0,,,,,0.000000,0.000000
02:36:19.962 PM 04/02/2016,Teleop Enabled,11,TRUE,-44087,NetComm_CAN_Receive.vi:5470001<APPEND>  <b>Complete call chain:</b>      NetComm_CAN_Receive.vi:5470001      WPI_CAN_PDPReceive.vi      WPI_Power Get PDP Currents.vi      Periodic Tasks.vi      Robot Main.vi,-0.000000,0.000000,-0.000000,0.000000,TRUE,FALSE,FALSE,FALSE,FALSE,FALSE,Disabled,0.000000,0.000000,0.000000,TRUE,1.611206,-0.840958,0.000000,0.000000,0.000000,0.000000,0.003000,-0.001000,0.012000,0.000000,-0.300000,-0.900000,0.002871,Hold,0.948975,0.000000,ResetBack,1203.000000,-0.250000,Empty,0.000000,0.000000,Speed,0.000000,0.000000,Speed,Off,Off,0.000000,FALSE,0,,,,,0.000000,0.000000
02:36:20.062 PM 04/02/2016,Teleop Enabled,10,TRUE,-44087,NetComm_CAN_Receive.vi:5470001<APPEND>  <b>Complete call chain:</b>      NetComm_CAN_Receive.vi:5470001      WPI_CAN_PDPReceive.vi      WPI_Power Get PDP Currents.vi      Periodic Tasks.vi      Robot Main.vi,-0.000000,0.000000,-0.000000,0.000000,TRUE,FALSE,FALSE,FALSE,FALSE,FALSE,Disabled,0.000000,0.000000,0.000000,TRUE,1.611206,-0.840958,0.000000,0.000000,0.000000,0.000000,0.001000,0.001000,0.009000,0.000000,-0.300000,-0.910000,0.009305,Hold,0.948975,0.000000,ResetBack,1203.000000,-0.250000,Empty,0.000000,0.000000,Speed,0.000000,0.000000,Speed,Off,Off,0.000000,FALSE,0,,,,,0.000000,0.000000
02:36:20.163 PM 04/02/2016,Teleop Enabled,10,TRUE,-44087,NetComm_CAN_Receive.vi:5470001<APPEND>  <b>Complete call chain:</b>      NetComm_CAN_Receive.vi:5470001      WPI_CAN_PDPReceive.vi      WPI_Power Get PDP Currents.vi      Periodic Tasks.vi      Robot Main.vi,-0.000000,0.000000,-0.000000,0.000000,TRUE,FALSE,FALSE,FALSE,FALSE,FALSE,Disabled,0.000000,0.000000,0.000000,TRUE,1.611206,-0.840958,0.000000,0.000000,0.000000,0.000000,0.000000,-0.002000,0.008000,0.000000,-0.300000,-0.920000,0.003181,Hold,0.948975,0.000000,ResetBack,1203.000000,-0.250000,Empty,0.000000,0.000000,Speed,0.000000,0.000000,Speed,Off,Off,0.000000,FALSE,0,,,,,0.000000,0.000000
02:36:20.264 PM 04/02/2016,Teleop Enabled,9,TRUE,-44087,NetComm_CAN_Receive.vi:5470001<APPEND>  <b>Complete call chain:</b>      NetComm_CAN_Receive.vi:5470001      WPI_CAN_PDPReceive.vi      WPI_Power Get PDP Currents.vi      Periodic Tasks.vi      Robot Main.vi,-0.000000,0.000000,-0.000000,0.000000,TRUE,FALSE,FALSE,FALSE,FALSE,FALSE,Disabled,0.000000,0.000000,0.000000,TRUE,1.611206,-0.840958,0.000000,0.000000,0.000000,0.000000,0.001000,-0.002000,0.011000,0.000000,-0.300000,-0.910000,0.001164,Hold,0.948975,0.000000,Reset,1203.000000,2.000000,Suck,0.000000,1818.181818,Speed,0.000000,1818.181818,Speed,Off,Off,0.000000,FALSE,0,,,,,0.000000,0.000000
02:36:20.365 PM 04/02/2016,Teleop Enabled,10,TRUE,-44087,NetComm_CAN_Receive.vi:5470001<APPEND>  <b>Complete call chain:</b>      NetComm_CAN_Receive.vi:5470001      WPI_CAN_PDPReceive.vi      WPI_Power Get PDP Currents.vi      Periodic Tasks.vi      Robot Main.vi,-0.000000,0.000000,-0.000000,0.000000,TRUE,FALSE,FALSE,FALSE,FALSE,FALSE,Disabled,0.000000,0.000000,0.000000,TRUE,1.611206,-0.840958,0.000000,0.000000,0.000000,0.000000,-0.004000,0.001000,0.020000,0.000000,-0.300000,-0.930000,0.001229,Hold,0.948975,0.000000,Hold,-25.000000,2.000000,Suck,-30.000000,1818.181818,Speed,0.000000,1818.181818,Speed,Off,Off,0.000000,FALSE,0,,,,,0.000000,0.000000
02:36:20.466 PM 04/02/2016,Teleop Enabled,13,TRUE,-44087,NetComm_CAN_Receive.vi:5470001<APPEND>  <b>Complete call chain:</b>      NetComm_CAN_Receive.vi:5470001      WPI_CAN_PDPReceive.vi      WPI_Power Get PDP Currents.vi      Periodic Tasks.vi      Robot Main.vi,-0.000000,0.000000,-0.000000,0.000000,TRUE,FALSE,FALSE,FALSE,FALSE,FALSE,Disabled,0.000000,0.000000,0.000000,TRUE,1.612961,-0.841278,0.000000,0.044235,-0.014420,0.000000,-0.008000,-0.045000,-0.016000,0.000000,-0.310000,-0.920000,0.010269,Hold,0.948975,0.000000,Hold,-165.000000,2.000000,Suck,-427.500000,1818.181818,Speed,-45.000000,1818.181818,Speed,Off,Off,0.000000,FALSE,0,,,,,0.000000,0.000000
02:36:20.567 PM 04/02/2016,Teleop Enabled,10,TRUE,-44087,NetComm_CAN_Receive.vi:5470001<APPEND>  <b>Complete call chain:</b>      NetComm_CAN_Receive.vi:5470001      WPI_CAN_PDPReceive.vi      WPI_Power Get PDP Currents.vi      Periodic Tasks.vi      Robot Main.vi,-0.000000,0.000000,-0.000000,0.000000,TRUE,FALSE,FALSE,FALSE,FALSE,FALSE,Disabled,0.000000,0.000000,0.000000,TRUE,1.615417,-0.842194,0.000000,0.043747,0.000000,0.000000,-0.016000,0.053000,-0.040000,-0.010000,-0.320000,-0.920000,0.006623,Hold,0.948975,0.000000,Hold,-165.000000,2.000000,Suck,-907.500000,1818.181818,Speed,-67.500000,1818.181818,Speed,Off,Off,0.000000,FALSE,0,,,,,0.000000,0.000000
02:36:20.668 PM 04/02/2016,Teleop Enabled,9,TRUE,-44087,NetComm_CAN_Receive.vi:5470001<APPEND>  <b>Complete call chain:</b>      NetComm_CAN_Receive.vi:5470001      WPI_CAN_PDPReceive.vi      WPI_Power Get PDP Currents.vi      Periodic Tasks.vi      Robot Main.vi,-0.000000,0.000000,-0.000000,0.000000,TRUE,FALSE,FALSE,FALSE,FALSE,FALSE,Disabled,0.000000,0.000000,0.000000,TRUE,1.615768,-0.841064,0.000000,0.002441,0.036316,0.000000,-0.068000,-0.042000,0.040000,0.000000,-0.300000,-0.900000,0.012627,Hold,0.948730,0.000000,Hold,-165.000000,2.000000,Suck,-1320.000000,1818.181818,Speed,-172.500000,1818.181818,Speed,Off,Off,0.000000,FALSE,0,,,,,0.000000,0.000000
02:36:20.769 PM 04/02/2016,Teleop Enabled,9,TRUE,-44087,NetComm_CAN_Receive.vi:5470001<APPEND>  <b>Complete call chain:</b>      NetComm_CAN_Receive.vi:5470001      WPI_CAN_PDPReceive.vi      WPI_Power Get PDP Currents.vi      Periodic Tasks.vi      Robot Main.vi,-0.000000,0.000000,-0.000000,0.000000,TRUE,FALSE,FALSE,FALSE,FALSE,FALSE,Disabled,0.000000,0.000000,0.000000,TRUE,1.613907,-0.838959,0.000000,-0.048325,0.043961,0.000000,0.014000,-0.021000,-0.044000,0.000000,-0.320000,-0.900000,0.014259,Hold,0.948730,0.000000,Hold,-165.000000,2.000000,Suck,-1642.500000,1818.181818,Speed,-397.500000,1818.181818,Speed,Off,Off,0.000000,FALSE,0,,,,,0.000000,0.000000
02:36:20.870 PM 04/02/2016,Teleop Enabled,10,TRUE,-44087,NetComm_CAN_Receive.vi:5470001<APPEND>  <b>Complete call chain:</b>      NetComm_CAN_Receive.vi:5470001      WPI_CAN_PDPReceive.vi      WPI_Power Get PDP Currents.vi      Periodic Tasks.vi      Robot Main.vi,-0.000000,0.000000,-0.000000,0.000000,TRUE,FALSE,FALSE,FALSE,FALSE,FALSE,Disabled,0.000000,0.000000,0.000000,TRUE,1.612320,-0.837585,0.000000,-0.042374,0.000000,0.000000,-0.150000,0.082000,-0.049000,-0.010000,-0.320000,-0.930000,0.015736,Hold,0.948730,0.000000,Hold,-165.000000,2.000000,Suck,-1740.000000,1818.181818,Speed,-1162.500000,1818.181818,Speed,Off,Off,0.000000,FALSE,0,,,,,0.000000,0.000000
02:36:20.971 PM 04/02/2016,Teleop Enabled,10,TRUE,-44087,NetComm_CAN_Receive.vi:5470001<APPEND>  <b>Complete call chain:</b>      NetComm_CAN_Receive.vi:5470001      WPI_CAN_PDPReceive.vi      WPI_Power Get PDP Currents.vi      Periodic Tasks.vi      Robot Main.vi,-0.000000,0.000000,-0.000000,0.000000,TRUE,FALSE,FALSE,FALSE,FALSE,FALSE,Disabled,0.000000,0.000000,0.000000,TRUE,1.607788,-0.835602,0.000000,-0.117966,0.079132,0.000000,0.015000,0.282000,-0.015000,-0.010000,-0.350000,-0.870000,0.014335,Hold,0.948730,0.000000,Hold,-165.000000,2.000000,Suck,-1747.500000,1818.181818,Speed,-1830.000000,1818.181818,Speed,Off,Off,0.000000,FALSE,0,,,,,0.000000,0.000000
02:36:21.075 PM 04/02/2016,Teleop Enabled,9,TRUE,-44087,NetComm_CAN_Receive.vi:5470001<APPEND>  <b>Complete call chain:</b>      NetComm_CAN_Receive.vi:5470001      WPI_CAN_PDPReceive.vi      WPI_Power Get PDP Currents.vi      Periodic Tasks.vi      Robot Main.vi,-0.000000,0.000000,-0.000000,0.000000,TRUE,FALSE,FALSE,FALSE,FALSE,FALSE,Disabled,0.000000,0.000000,0.000000,TRUE,1.599762,-0.823196,0.000000,-0.195862,0.367050,0.000000,-0.132000,0.181000,-0.089000,0.000000,-0.330000,-0.790000,0.035138,Hold,0.948730,0.000000,Hold,-165.000000,2.000000,Suck,-1740.000000,1818.181818,Speed,-2145.000000,1818.181818,Speed,Off,Off,0.000000,FALSE,0,,,,,0.000000,0.000000
02:36:21.176 PM 04/02/2016,Teleop Enabled,14,TRUE,-44087,NetComm_CAN_Receive.vi:5470001<APPEND>  <b>Complete call chain:</b>      NetComm_CAN_Receive.vi:5470001      WPI_CAN_PDPReceive.vi      WPI_Power Get PDP Currents.vi      Periodic Tasks.vi      Robot Main.vi,-0.000000,0.000000,-0.000000,0.000000,TRUE,FALSE,FALSE,FALSE,FALSE,FALSE,Disabled,0.000000,0.000000,0.000000,TRUE,1.587799,-0.806046,0.000000,-0.244644,0.284637,0.000000,-0.116000,-0.083000,-0.015000,-0.010000,-0.320000,-0.840000,0.029771,Hold,0.948730,0.000000,Hold,-165.000000,2.000000,Suck,-1747.500000,1818.181818,Speed,-1950.000000,1818.181818,Speed,Off,Off,0.000000,FALSE,0,,,,,0.000000,0.000000
02:36:21.277 PM 04/02/2016,Teleop Enabled,11,TRUE,-44087,NetComm_CAN_Receive.vi:5470001<APPEND>  <b>Complete call chain:</b>      NetComm_CAN_Receive.vi:5470001      WPI_CAN_PDPReceive.vi      WPI_Power Get PDP Currents.vi      Periodic Tasks.vi      Robot Main.vi,-0.000000,0.000000,-0.000000,0.000000,TRUE,FALSE,FALSE,FALSE,FALSE,FALSE,Disabled,0.000000,0.000000,0.000000,TRUE,1.572632,-0.791748,0.000000,-0.235916,0.231094,0.000000,-0.044000,0.072000,-0.002000,-0.010000,-0.330000,-0.880000,0.025551,Hold,0.948730,0.000000,Hold,-165.000000,2.000000,Suck,-1762.500000,1818.181818,Speed,-1650.000000,1818.181818,Speed,Off,Off,0.000000,FALSE,0,,,,,0.000000,0.000000
02:36:21.379 PM 04/02/2016,Teleop Enabled,9,TRUE,-44087,NetComm_CAN_Receive.vi:5470001<APPEND>  <b>Complete call chain:</b>      NetComm_CAN_Receive.vi:5470001      WPI_CAN_PDPReceive.vi      WPI_Power Get PDP Currents.vi      Periodic Tasks.vi      Robot Main.vi,-0.000000,0.000000,-0.000000,0.000000,TRUE,FALSE,FALSE,FALSE,FALSE,FALSE,Disabled,0.000000,0.000000,0.000000,TRUE,1.560120,-0.779037,0.000000,-0.289169,0.253738,0.000000,-0.096000,-0.118000,-0.045000,-0.010000,-0.320000,-0.880000,0.044048,Hold,0.948730,0.000000,Hold,-165.000000,2.000000,Suck,-1747.500000,1818.181818,Speed,-1567.500000,1818.181818,Speed,Off,Off,0.000000,FALSE,0,,,,,0.000000,0.000000
02:36:21.480 PM 04/02/2016,Teleop Enabled,9,TRUE,-44087,NetComm_CAN_Receive.vi:5470001<APPEND>  <b>Complete call chain:</b>      NetComm_CAN_Receive.vi:5470001      WPI_CAN_PDPReceive.vi      WPI_Power Get PDP Currents.vi      Periodic Tasks.vi      Robot Main.vi,-0.000000,0.000000,-0.000000,0.000000,TRUE,FALSE,FALSE,FALSE,FALSE,FALSE,Disabled,0.000000,0.000000,0.000000,TRUE,1.543900,-0.767746,0.000000,-0.347473,0.215469,0.000000,0.117000,0.000000,0.031000,-0.010000,-0.310000,-0.890000,0.053783,Hold,0.948730,0.000000,Hold,-165.000000,2.000000,Suck,-1740.000000,1818.181818,Speed,-1687.500000,1818.181818,Speed,Off,Off,0.000000,FALSE,0,,,,,0.000000,0.000000
02:36:21.580 PM 04/02/2016,Teleop Enabled,11,TRUE,-44087,NetComm_CAN_Receive.vi:5470001<APPEND>  <b>Complete call chain:</b>      NetComm_CAN_Receive.vi:5470001      WPI_CAN_PDPReceive.vi      WPI_Power Get PDP Currents.vi      Periodic Tasks.vi      Robot Main.vi,-0.000000,0.000000,-0.000000,0.000000,TRUE,FALSE,FALSE,FALSE,FALSE,FALSE,Disabled,0.000000,0.000000,0.000000,TRUE,1.527405,-0.767792,0.000000,-0.333237,-0.004333,0.000000,0.012000,-0.047000,0.001000,-0.010000,-0.360000,-0.880000,0.059728,Hold,0.948730,0.000000,Hold,-165.000000,2.000000,Suck,-1732.500000,1818.181818,Speed,-1770.000000,1818.181818,Speed,Off,Off,0.000000,FALSE,0,,,,,0.000000,0.000000
02:36:21.681 PM 04/02/2016,Teleop Enabled,10,TRUE,-44087,NetComm_CAN_Receive.vi:5470001<APPEND>  <b>Complete call chain:</b>      NetComm_CAN_Receive.vi:5470001      WPI_CAN_PDPReceive.vi      WPI_Power Get PDP Currents.vi      Periodic Tasks.vi      Robot Main.vi,-0.000000,0.000000,-0.000000,0.000000,TRUE,FALSE,FALSE,FALSE,FALSE,FALSE,Disabled,0.000000,0.000000,0.000000,TRUE,1.510925,-0.767685,0.000000,-0.341690,0.007614,0.000000,0.070000,0.067000,0.063000,-0.020000,-0.350000,-0.870000,0.044189,Hold,0.948730,0.000000,Hold,-165.000000,2.000000,Suck,-1740.000000,1818.181818,Speed,-1762.500000,1818.181818,Speed,Off,Off,0.000000,FALSE,0,,,,,0.000000,0.000000
02:36:21.781 PM 04/02/2016,Teleop Enabled,10,TRUE,-44087,NetComm_CAN_Receive.vi:5470001<APPEND>  <b>Complete call chain:</b>      NetComm_CAN_Receive.vi:5470001      WPI_CAN_PDPReceive.vi      WPI_Power Get PDP Currents.vi      Periodic Tasks.vi      Robot Main.vi,-0.000000,0.000000,-0.000000,0.000000,TRUE,FALSE,FALSE,FALSE,FALSE,FALSE,Disabled,0.000000,0.000000,0.000000,TRUE,1.493729,-0.767502,0.000000,-0.361923,-0.006409,0.000000,0.125000,0.042000,0.040000,-0.010000,-0.390000,-0.850000,0.056640,Hold,0.948730,0.000000,Hold,-165.000000,2.000000,Suck,-1740.000000,1818.181818,Speed,-1717.500000,1818.181818,Speed,Off,Off,0.000000,FALSE,0,,,,,0.000000,0.000000
02:36:21.884 PM 04/02/2016,Teleop Enabled,11,TRUE,-44087,NetComm_CAN_Receive.vi:5470001<APPEND>  <b>Complete call chain:</b>      NetComm_CAN_Receive.vi:5470001      WPI_CAN_PDPReceive.vi      WPI_Power Get PDP Currents.vi      Periodic Tasks.vi      Robot Main.vi,-0.000000,0.000000,-0.000000,0.000000,TRUE,FALSE,FALSE,FALSE,FALSE,FALSE,Disabled,0.000000,0.000000,0.000000,TRUE,1.476410,-0.767746,0.000000,-0.359344,-0.009308,0.000000,-0.056000,-0.024000,-0.048000,-0.020000,-0.410000,-0.850000,0.048110,Hold,0.948730,0.000000,Hold,-165.000000,2.000000,Suck,-1740.000000,1818.181818,Speed,-1687.500000,1818.181818,Speed,Off,Off,0.000000,FALSE,0,,,,,0.000000,0.000000
02:36:21.986 PM 04/02/2016,Teleop Enabled,11,TRUE,-44087,NetComm_CAN_Receive.vi:5470001<APPEND>  <b>Complete call chain:</b>      NetComm_CAN_Receive.vi:5470001      WPI_CAN_PDPReceive.vi      WPI_Power Get PDP Currents.vi      Periodic Tasks.vi      Robot Main.vi,-0.000000,0.000000,-0.000000,0.000000,TRUE,FALSE,FALSE,FALSE,FALSE,FALSE,Disabled,0.000000,0.000000,0.000000,TRUE,1.457962,-0.768387,0.000000,-0.361298,-0.010818,0.000000,-0.104000,-0.009000,-0.063000,-0.020000,-0.450000,-0.850000,0.042244,Hold,0.948730,0.000000,Hold,-165.000000,2.000000,Suck,-1747.500000,1818.181818,Speed,-1695.000000,1818.181818,Speed,Off,Off,0.000000,FALSE,0,,,,,0.000000,0.000000
02:36:22.087 PM 04/02/2016,Teleop Enabled,10,TRUE,-44087,NetComm_CAN_Receive.vi:5470001<APPEND>  <b>Complete call chain:</b>      NetComm_CAN_Receive.vi:5470001      WPI_CAN_PDPReceive.vi      WPI_Power Get PDP Currents.vi      Periodic Tasks.vi      Robot Main.vi,-0.000000,0.000000,-0.000000,0.000000,TRUE,FALSE,FALSE,FALSE,FALSE,FALSE,Disabled,0.000000,0.000000,0.000000,TRUE,1.439819,-0.768417,0.000000,-0.350464,0.000000,0.000000,-0.130000,0.021000,-0.003000,-0.010000,-0.390000,-0.870000,0.037193,Hold,0.948730,0.000000,Hold,-165.000000,2.000000,Suck,-1732.500000,1818.181818,Speed,-1710.000000,1818.181818,Speed,Off,Off,0.000000,FALSE,0,,,,,0.000000,0.000000
02:36:22.188 PM 04/02/2016,Teleop Enabled,11,TRUE,-44087,NetComm_CAN_Receive.vi:5470001<APPEND>  <b>Complete call chain:</b>      NetComm_CAN_Receive.vi:5470001      WPI_CAN_PDPReceive.vi      WPI_Power Get PDP Currents.vi      Periodic Tasks.vi      Robot Main.vi,-0.000000,0.000000,-0.000000,0.000000,TRUE,FALSE,FALSE,FALSE,FALSE,FALSE,Disabled,0.000000,0.000000,0.000000,TRUE,1.421875,-0.768250,0.000000,-0.345657,-0.000580,0.000000,-0.092000,-0.045000,-0.030000,-0.020000,-0.380000,-0.870000,0.044695,Hold,0.948730,0.000000,Hold,-165.000000,2.000000,Suck,-1725.000000,1818.181818,Speed,-1717.500000,1818.181818,Speed,Off,Off,0.000000,FALSE,0,,,,,0.000000,0.000000
02:36:22.288 PM 04/02/2016,Teleop Enabled,10,TRUE,-44087,NetComm_CAN_Receive.vi:5470001<APPEND>  <b>Complete call chain:</b>      NetComm_CAN_Receive.vi:5470001      WPI_CAN_PDPReceive.vi      WPI_Power Get PDP Currents.vi      Periodic Tasks.vi      Robot Main.vi,-0.000000,0.000000,-0.000000,0.000000,TRUE,FALSE,FALSE,FALSE,FALSE,FALSE,Disabled,0.000000,0.000000,0.000000,TRUE,1.404800,-0.768768,0.000000,-0.335052,-0.005981,0.000000,-0.057000,-0.004000,-0.001000,-0.020000,-0.350000,-0.870000,0.056055,Hold,0.948730,0.000000,Hold,-165.000000,2.000000,Suck,-1717.500000,1818.181818,Speed,-1732.500000,1818.181818,Speed,Off,Off,0.000000,FALSE,0,,,,,0.000000,0.000000
02:36:22.389 PM 04/02/2016,Teleop Enabled,10,TRUE,-44087,NetComm_CAN_Receive.vi:5470001<APPEND>  <b>Complete call chain:</b>      NetComm_CAN_Receive.vi:5470001      WPI_CAN_PDPReceive.vi      WPI_Power Get PDP Currents.vi      Periodic Tasks.vi      Robot Main.vi,-0.000000,0.000000,-0.000000,0.000000,TRUE,FALSE,FALSE,FALSE,FALSE,FALSE,Disabled,0.000000,0.000000,0.000000,TRUE,1.388168,-0.768936,0.000000,-0.322281,0.009659,0.000000,0.023000,0.004000,-0.017000,-0.020000,-0.380000,-0.830000,0.048943,Hold,0.948730,0.000000,Hold,-165.000000,2.000000,Suck,-1717.500000,1818.181818,Speed,-1732.500000,1818.181818,Speed,Off,Off,0.000000,FALSE,0,,,,,0.000000,0.000000
02:36:22.490 PM 04/02/2016,Teleop Enabled,10,TRUE,-44087,NetComm_CAN_Receive.vi:5470001<APPEND>  <b>Complete call chain:</b>      NetComm_CAN_Receive.vi:5470001      WPI_CAN_PDPReceive.vi      WPI_Power Get PDP Currents.vi      Periodic Tasks.vi      Robot Main.vi,-0.000000,0.000000,-0.000000,0.000000,TRUE,FALSE,FALSE,FALSE,FALSE,FALSE,Disabled,0.000000,0.000000,0.000000,TRUE,1.370453,-0.768433,0.000000,-0.304642,-0.000839,0.000000,0.104000,0.049000,0.091000,-0.020000,-0.420000,-0.830000,0.035565,Hold,0.948730,0.000000,Hold,-165.000000,2.000000,Suck,-1717.500000,1818.181818,Speed,-1702.500000,1818.181818,Speed,Off,Off,0.000000,FALSE,0,,,,,0.000000,0.000000
02:36:22.589 PM 04/02/2016,Teleop Enabled,10,TRUE,-44087,NetComm_CAN_Receive.vi:5470001<APPEND>  <b>Complete call chain:</b>      NetComm_CAN_Receive.vi:5470001      WPI_CAN_PDPReceive.vi      WPI_Power Get PDP Currents.vi      Periodic Tasks.vi      Robot Main.vi,-0.000000,0.000000,-0.000000,0.000000,TRUE,FALSE,FALSE,FALSE,FALSE,FALSE,Disabled,0.000000,0.000000,0.000000,TRUE,1.355469,-0.768326,0.000000,-0.324097,-0.004013,0.000000,-0.125000,-0.001000,-0.031000,-0.020000,-0.390000,-0.830000,0.019506,Hold,0.948730,0.000000,Hold,-165.000000,2.000000,Suck,-1717.500000,1818.181818,Speed,-1702.500000,1818.181818,Speed,Off,Off,0.000000,FALSE,0,,,,,0.000000,0.000000
02:36:22.690 PM 04/02/2016,Teleop Enabled,10,TRUE,-44087,NetComm_CAN_Receive.vi:5470001<APPEND>  <b>Complete call chain:</b>      NetComm_CAN_Receive.vi:5470001      WPI_CAN_PDPReceive.vi      WPI_Power Get PDP Currents.vi      Periodic Tasks.vi      Robot Main.vi,-0.000000,0.000000,-0.000000,0.000000,TRUE,FALSE,FALSE,FALSE,FALSE,FALSE,Disabled,0.000000,0.000000,0.000000,TRUE,1.340240,-0.768509,0.000000,-0.297073,0.000168,0.000000,-0.165000,-0.017000,-0.032000,-0.020000,-0.360000,-0.860000,0.029541,Hold,0.948730,0.000000,Hold,-165.000000,2.000000,Suck,-1717.500000,1818.181818,Speed,-1680.000000,1818.181818,Speed,Off,Off,0.000000,FALSE,0,,,,,0.000000,0.000000
02:36:22.789 PM 04/02/2016,Teleop Enabled,10,TRUE,-44087,NetComm_CAN_Receive.vi:5470001<APPEND>  <b>Complete call chain:</b>      NetComm_CAN_Receive.vi:5470001      WPI_CAN_PDPReceive.vi      WPI_Power Get PDP Currents.vi      Periodic Tasks.vi      Robot Main.vi,-0.000000,0.000000,-0.000000,0.000000,TRUE,FALSE,FALSE,FALSE,FALSE,FALSE,Disabled,0.000000,0.000000,0.000000,TRUE,1.323410,-0.768295,0.000000,-0.329117,0.014908,0.000000,-0.040000,-0.029000,-0.036000,-0.020000,-0.390000,-0.870000,0.027148,Hold,0.948730,0.000000,Hold,-165.000000,2.000000,Suck,-1717.500000,1818.181818,Speed,-1695.000000,1818.181818,Speed,Off,Off,0.000000,FALSE,0,,,,,0.000000,0.000000
02:36:22.891 PM 04/02/2016,Teleop Enabled,10,TRUE,-44087,NetComm_CAN_Receive.vi:5470001<APPEND>  <b>Complete call chain:</b>      NetComm_CAN_Receive.vi:5470001      WPI_CAN_PDPReceive.vi      WPI_Power Get PDP Currents.vi      Periodic Tasks.vi      Robot Main.vi,-0.000000,0.000000,-0.000000,0.000000,TRUE,FALSE,FALSE,FALSE,FALSE,FALSE,Disabled,0.000000,0.000000,0.000000,TRUE,1.305984,-0.767776,0.000000,-0.356140,-0.000473,0.000000,0.019000,-0.043000,-0.053000,-0.020000,-0.420000,-0.860000,0.028005,Hold,0.948730,0.000000,Hold,-165.000000,2.000000,Suck,-1725.000000,1818.181818,Speed,-1702.500000,1818.181818,Speed,Off,Off,0.000000,FALSE,0,,,,,0.000000,0.000000
02:36:22.992 PM 04/02/2016,Teleop Enabled,10,TRUE,-44087,NetComm_CAN_Receive.vi:5470001<APPEND>  <b>Complete call chain:</b>      NetComm_CAN_Receive.vi:5470001      WPI_CAN_PDPReceive.vi      WPI_Power Get PDP Currents.vi      Periodic Tasks.vi      Robot Main.vi,-0.000000,0.000000,-0.000000,0.000000,TRUE,FALSE,FALSE,FALSE,FALSE,FALSE,Disabled,0.000000,0.000000,0.000000,TRUE,1.288071,-0.768509,0.000000,-0.345840,-0.024368,0.000000,0.113000,-0.027000,0.018000,-0.020000,-0.390000,-0.880000,0.030687,Hold,0.948730,0.000000,Hold,-165.000000,2.000000,Suck,-1732.500000,1818.181818,Speed,-1702.500000,1818.181818,Speed,Off,Off,0.000000,FALSE,0,,,,,0.000000,0.000000
02:36:23.093 PM 04/02/2016,Teleop Enabled,10,TRUE,-44087,NetComm_CAN_Receive.vi:5470001<APPEND>  <b>Complete call chain:</b>      NetComm_CAN_Receive.vi:5470001      WPI_CAN_PDPReceive.vi      WPI_Power Get PDP Currents.vi      Periodic Tasks.vi      Robot Main.vi,-0.000000,0.000000,-0.000000,0.000000,TRUE,FALSE,FALSE,FALSE,FALSE,FALSE,Disabled,0.000000,0.000000,0.000000,TRUE,1.272049,-0.769608,0.000000,-0.317612,-0.021637,0.000000,0.029000,0.061000,0.072000,-0.020000,-0.370000,-0.900000,0.041868,Hold,0.948730,0.000000,Hold,-165.000000,2.000000,Suck,-1725.000000,1818.181818,Speed,-1695.000000,1818.181818,Speed,Off,Off,0.000000,FALSE,0,,,,,0.000000,0.000000
02:36:23.194 PM 04/02/2016,Teleop Enabled,9,TRUE,-44087,NetComm_CAN_Receive.vi:5470001<APPEND>  <b>Complete call chain:</b>      NetComm_CAN_Receive.vi:5470001      WPI_CAN_PDPReceive.vi      WPI_Power Get PDP Currents.vi      Periodic Tasks.vi      Robot Main.vi,-0.000000,0.000000,-0.000000,0.000000,TRUE,FALSE,FALSE,FALSE,FALSE,FALSE,Disabled,0.000000,0.000000,0.000000,TRUE,1.256744,-0.770111,0.000000,-0.321854,-0.014862,0.000000,0.075000,0.048000,0.054000,-0.020000,-0.340000,-0.890000,0.038002,Hold,0.948730,0.000000,Hold,-165.000000,2.000000,Suck,-1717.500000,1818.181818,Speed,-1702.500000,1818.181818,Speed,Off,Off,0.000000,FALSE,0,,,,,0.000000,0.000000
02:36:23.294 PM 04/02/2016,Teleop Enabled,10,TRUE,-44087,NetComm_CAN_Receive.vi:5470001<APPEND>  <b>Complete call chain:</b>      NetComm_CAN_Receive.vi:5470001      WPI_CAN_PDPReceive.vi      WPI_Power Get PDP Currents.vi      Periodic Tasks.vi      Robot Main.vi,-0.000000,0.000000,-0.000000,0.000000,TRUE,FALSE,FALSE,FALSE,FALSE,FALSE,Disabled,0.000000,0.000000,0.000000,TRUE,1.241394,-0.771057,0.000000,-0.309494,-0.031631,0.000000,-0.164000,-0.057000,0.005000,-0.020000,-0.330000,-0.860000,0.024835,Hold,0.948730,0.000000,Hold,-165.000000,2.000000,Suck,-1725.000000,1818.181818,Speed,-1732.500000,1818.181818,Speed,Off,Off,0.000000,FALSE,0,,,,,0.000000,0.000000
02:36:23.394 PM 04/02/2016,Teleop Enabled,9,TRUE,-44087,NetComm_CAN_Receive.vi:5470001<APPEND>  <b>Complete call chain:</b>      NetComm_CAN_Receive.vi:5470001      WPI_CAN_PDPReceive.vi      WPI_Power Get PDP Currents.vi      Periodic Tasks.vi      Robot Main.vi,-0.000000,0.000000,-0.000000,0.000000,TRUE,FALSE,FALSE,FALSE,FALSE,FALSE,Disabled,0.000000,0.000000,0.000000,TRUE,1.221878,-0.774841,0.000000,-0.334366,-0.068314,0.000000,0.019000,0.056000,0.066000,-0.020000,-0.340000,-0.860000,0.024604,Hold,0.948730,0.000000,Hold,-165.000000,2.000000,Suck,-1732.500000,1818.181818,Speed,-1710.000000,1818.181818,Speed,Off,Off,0.000000,FALSE,0,,,,,0.000000,0.000000
02:36:23.495 PM 04/02/2016,Teleop Enabled,10,TRUE,-44087,NetComm_CAN_Receive.vi:5470001<APPEND>  <b>Complete call chain:</b>      NetComm_CAN_Receive.vi:5470001      WPI_CAN_PDPReceive.vi      WPI_Power Get PDP Currents.vi      Periodic Tasks.vi      Robot Main.vi,-0.000000,0.000000,-0.000000,0.000000,TRUE,FALSE,FALSE,FALSE,FALSE,FALSE,Disabled,0.000000,0.000000,0.000000,TRUE,1.221771,-0.778397,0.000000,-0.022034,-0.078629,0.000000,-0.020000,-0.017000,0.027000,-0.030000,-0.370000,-0.860000,0.028897,Hold,0.948730,0.000000,Hold,-165.000000,2.000000,Suck,-1740.000000,1818.181818,Speed,-1680.000000,1818.181818,Speed,Off,Off,0.000000,FALSE,0,,,,,0.000000,0.000000
02:36:23.596 PM 04/02/2016,Teleop Enabled,9,TRUE,-44087,NetComm_CAN_Receive.vi:5470001<APPEND>  <b>Complete call chain:</b>      NetComm_CAN_Receive.vi:5470001      WPI_CAN_PDPReceive.vi      WPI_Power Get PDP Currents.vi      Periodic Tasks.vi      Robot Main.vi,-0.000000,0.000000,-0.000000,0.000000,TRUE,FALSE,FALSE,FALSE,FALSE,FALSE,Disabled,0.000000,0.000000,0.000000,TRUE,1.219589,-0.783295,0.000000,-0.048889,-0.101456,0.000000,0.093000,0.041000,0.024000,-0.030000,-0.390000,-0.880000,0.015936,Hold,0.948730,0.000000,Hold,-165.000000,2.000000,Suck,-1740.000000,1818.181818,Speed,-1687.500000,1818.181818,Speed,Off,Off,0.000000,FALSE,0,,,,,0.000000,0.000000
02:36:23.696 PM 04/02/2016,Teleop Enabled,11,TRUE,-44087,NetComm_CAN_Receive.vi:5470001<APPEND>  <b>Complete call chain:</b>      NetComm_CAN_Receive.vi:5470001      WPI_CAN_PDPReceive.vi      WPI_Power Get PDP Currents.vi      Periodic Tasks.vi      Robot Main.vi,-0.000000,0.000000,-0.000000,0.000000,TRUE,FALSE,FALSE,FALSE,FALSE,FALSE,Disabled,0.000000,0.000000,0.000000,TRUE,1.217300,-0.787903,0.000000,-0.034607,-0.085678,0.000000,0.041000,-0.024000,0.003000,-0.030000,-0.390000,-0.840000,0.022793,Hold,0.948730,0.000000,Hold,-165.000000,2.000000,Suck,-1740.000000,1818.181818,Speed,-1710.000000,1818.181818,Speed,Off,Off,0.000000,FALSE,0,,,,,0.000000,0.000000
02:36:23.797 PM 04/02/2016,Teleop Enabled,10,TRUE,-44087,NetComm_CAN_Receive.vi:5470001<APPEND>  <b>Complete call chain:</b>      NetComm_CAN_Receive.vi:5470001      WPI_CAN_PDPReceive.vi      WPI_Power Get PDP Currents.vi      Periodic Tasks.vi      Robot Main.vi,-0.000000,0.000000,-0.000000,0.000000,TRUE,FALSE,FALSE,FALSE,FALSE,FALSE,Disabled,0.000000,0.000000,0.000000,TRUE,1.215820,-0.792435,0.000000,-0.019135,-0.088730,0.000000,0.072000,-0.023000,-0.028000,-0.030000,-0.410000,-0.850000,0.036921,Hold,0.948730,0.000000,Hold,-165.000000,2.000000,Suck,-1740.000000,1818.181818,Speed,-1717.500000,1818.181818,Speed,Off,Off,0.000000,FALSE,0,,,,,0.000000,0.000000
02:36:23.898 PM 04/02/2016,Teleop Enabled,9,TRUE,-44087,NetComm_CAN_Receive.vi:5470001<APPEND>  <b>Complete call chain:</b>      NetComm_CAN_Receive.vi:5470001      WPI_CAN_PDPReceive.vi      WPI_Power Get PDP Currents.vi      Periodic Tasks.vi      Robot Main.vi,-0.000000,0.000000,-0.000000,0.000000,TRUE,FALSE,FALSE,FALSE,FALSE,FALSE,Disabled,0.000000,0.000000,0.000000,TRUE,1.214798,-0.797531,0.000000,-0.036194,-0.108719,0.000000,0.132000,-0.018000,0.020000,-0.020000,-0.410000,-0.880000,0.036168,Hold,0.948730,0.000000,Hold,-165.000000,2.000000,Suck,-1740.000000,1818.181818,Speed,-1695.000000,1818.181818,Speed,Off,Off,0.000000,FALSE,0,,,,,0.000000,0.000000
02:36:23.998 PM 04/02/2016,Teleop Enabled,11,TRUE,-44087,NetComm_CAN_Receive.vi:5470001<APPEND>  <b>Complete call chain:</b>      NetComm_CAN_Receive.vi:5470001      WPI_CAN_PDPReceive.vi      WPI_Power Get PDP Currents.vi      Periodic Tasks.vi      Robot Main.vi,-0.000000,0.000000,-0.000000,0.000000,TRUE,FALSE,FALSE,FALSE,FALSE,FALSE,Disabled,0.000000,0.000000,0.000000,TRUE,1.213699,-0.797195,0.000000,-0.034851,0.020432,0.000000,0.039000,0.041000,0.031000,-0.030000,-0.380000,-0.910000,0.025984,Hold,0.948730,0.000000,Hold,-165.000000,2.000000,Suck,-1740.000000,1818.181818,Speed,-1710.000000,1818.181818,Speed,Off,Off,0.000000,FALSE,0,,,,,0.000000,0.000000
02:36:24.097 PM 04/02/2016,Teleop Enabled,10,TRUE,-44087,NetComm_CAN_Receive.vi:5470001<APPEND>  <b>Complete call chain:</b>      NetComm_CAN_Receive.vi:5470001      WPI_CAN_PDPReceive.vi      WPI_Power Get PDP Currents.vi      Periodic Tasks.vi      Robot Main.vi,-0.000000,0.000000,-0.000000,0.000000,TRUE,FALSE,FALSE,FALSE,FALSE,FALSE,Disabled,0.000000,0.000000,0.000000,TRUE,1.212204,-0.796661,0.000000,-0.046143,-0.003281,0.000000,-0.003000,0.013000,0.035000,-0.030000,-0.370000,-0.920000,0.027630,Hold,0.948730,0.000000,Hold,-165.000000,2.000000,Suck,-1747.500000,1818.181818,Speed,-1710.000000,1818.181818,Speed,Off,Off,0.000000,FALSE,0,,,,,0.000000,0.000000
02:36:24.198 PM 04/02/2016,Teleop Enabled,11,TRUE,-44087,NetComm_CAN_Receive.vi:5470001<APPEND>  <b>Complete call chain:</b>      NetComm_CAN_Receive.vi:5470001      WPI_CAN_PDPReceive.vi      WPI_Power Get PDP Currents.vi      Periodic Tasks.vi      Robot Main.vi,-0.000000,0.000000,-0.000000,0.000000,TRUE,FALSE,FALSE,FALSE,FALSE,FALSE,Disabled,0.000000,0.000000,0.000000,TRUE,1.212708,-0.796310,0.000000,-0.010437,0.008789,0.000000,0.095000,0.000000,0.006000,-0.030000,-0.390000,-0.920000,0.025286,Hold,0.948730,0.000000,Hold,-165.000000,2.000000,Suck,-1747.500000,1818.181818,Speed,-1687.500000,1818.181818,Speed,Off,Off,0.000000,FALSE,0,,,,,0.000000,0.000000
02:36:24.298 PM 04/02/2016,Teleop Enabled,11,TRUE,-44087,NetComm_CAN_Receive.vi:5470001<APPEND>  <b>Complete call chain:</b>      NetComm_CAN_Receive.vi:5470001      WPI_CAN_PDPReceive.vi      WPI_Power Get PDP Currents.vi      Periodic Tasks.vi      Robot Main.vi,-0.000000,0.000000,-0.000000,0.000000,TRUE,FALSE,FALSE,FALSE,FALSE,FALSE,Disabled,0.000000,0.000000,0.000000,TRUE,1.212006,-0.795609,0.000000,-0.027832,0.016693,0.000000,0.017000,0.010000,0.056000,-0.030000,-0.390000,-0.890000,0.020707,Hold,0.948730,0.000000,Hold,-165.000000,2.000000,Suck,-1747.500000,1818.181818,Speed,-1695.000000,1818.181818,Speed,Off,Off,0.000000,FALSE,0,,,,,0.000000,0.000000
02:36:24.397 PM 04/02/2016,Teleop Enabled,9,TRUE,-44087,NetComm_CAN_Receive.vi:5470001<APPEND>  <b>Complete call chain:</b>      NetComm_CAN_Receive.vi:5470001      WPI_CAN_PDPReceive.vi      WPI_Power Get PDP Currents.vi      Periodic Tasks.vi      Robot Main.vi,-0.000000,0.000000,-0.000000,0.000000,TRUE,FALSE,FALSE,FALSE,FALSE,FALSE,Disabled,0.000000,0.000000,0.000000,TRUE,1.210907,-0.793762,0.000000,-0.027573,0.047852,0.000000,0.017000,0.010000,0.056000,-0.030000,-0.390000,-0.890000,-0.003494,Hold,0.948730,0.000000,Hold,-165.000000,2.000000,Suck,-1740.000000,1818.181818,Speed,-1717.500000,1818.181818,Speed,Off,Off,0.000000,FALSE,0,,,,,0.000000,0.000000
02:36:24.498 PM 04/02/2016,Teleop Enabled,10,TRUE,-44087,NetComm_CAN_Receive.vi:5470001<APPEND>  <b>Complete call chain:</b>      NetComm_CAN_Receive.vi:5470001      WPI_CAN_PDPReceive.vi      WPI_Power Get PDP Currents.vi      Periodic Tasks.vi      Robot Main.vi,-0.000000,0.000000,-0.000000,0.000000,TRUE,FALSE,FALSE,FALSE,FALSE,FALSE,Disabled,0.000000,0.000000,0.000000,TRUE,1.208130,-0.792252,0.000000,-0.073486,0.023788,0.000000,-0.029000,-0.016000,0.016000,-0.020000,-0.400000,-0.920000,0.003098,Hold,0.948730,0.000000,Hold,-165.000000,2.000000,Suck,-1732.500000,1818.181818,Speed,-1725.000000,1818.181818,Speed,Off,Off,0.000000,FALSE,0,,,,,0.000000,0.000000
02:36:24.600 PM 04/02/2016,Teleop Enabled,10,TRUE,-44087,NetComm_CAN_Receive.vi:5470001<APPEND>  <b>Complete call chain:</b>      NetComm_CAN_Receive.vi:5470001      WPI_CAN_PDPReceive.vi      WPI_Power Get PDP Currents.vi      Periodic Tasks.vi      Robot Main.vi,-0.000000,0.000000,-0.000000,0.000000,TRUE,FALSE,FALSE,FALSE,FALSE,FALSE,Disabled,0.000000,0.000000,0.000000,TRUE,1.203812,-0.791016,0.000000,-0.104340,0.029114,0.000000,0.027000,0.021000,-0.021000,-0.020000,-0.430000,-0.910000,0.010792,Hold,0.948730,0.000000,Hold,-165.000000,2.000000,Suck,-1740.000000,1818.181818,Speed,-1702.500000,1818.181818,Speed,Off,Off,0.000000,FALSE,0,,,,,0.000000,0.000000
02:36:24.701 PM 04/02/2016,Teleop Enabled,10,TRUE,-44087,NetComm_CAN_Receive.vi:5470001<APPEND>  <b>Complete call chain:</b>      NetComm_CAN_Receive.vi:5470001      WPI_CAN_PDPReceive.vi      WPI_Power Get PDP Currents.vi      Periodic Tasks.vi      Robot Main.vi,-0.000000,0.000000,-0.000000,0.000000,TRUE,FALSE,FALSE,FALSE,FALSE,FALSE,Disabled,0.000000,0.000000,0.000000,TRUE,1.199646,-0.788956,0.000000,-0.093307,0.045547,0.000000,0.027000,0.021000,-0.021000,-0.020000,-0.470000,-0.860000,-0.007398,Hold,0.948730,0.000000,Hold,-165.000000,2.000000,Suck,-1747.500000,1818.181818,Speed,-1695.000000,1818.181818,Speed,Off,Off,0.000000,FALSE,0,,,,,0.000000,0.000000
02:36:24.802 PM 04/02/2016,Teleop Enabled,10,TRUE,-44087,NetComm_CAN_Receive.vi:5470001<APPEND>  <b>Complete call chain:</b>      NetComm_CAN_Receive.vi:5470001      WPI_CAN_PDPReceive.vi      WPI_Power Get PDP Currents.vi      Periodic Tasks.vi      Robot Main.vi,-0.000000,0.000000,-0.000000,0.000000,TRUE,FALSE,FALSE,FALSE,FALSE,FALSE,Disabled,0.000000,0.000000,0.000000,TRUE,1.199646,-0.788956,0.000000,-0.093307,0.045547,0.000000,0.165000,-0.027000,-0.012000,-0.020000,-0.470000,-0.860000,-0.027413,Hold,0.948730,0.000000,Hold,-165.000000,2.000000,Suck,-1740.000000,1818.181818,Speed,-1702.500000,1818.181818,Speed,Off,Off,0.000000,FALSE,0,,,,,0.000000,0.000000
02:36:24.904 PM 04/02/2016,Teleop Enabled,10,TRUE,-44087,NetComm_CAN_Receive.vi:5470001<APPEND>  <b>Complete call chain:</b>      NetComm_CAN_Receive.vi:5470001      WPI_CAN_PDPReceive.vi      WPI_Power Get PDP Currents.vi      Periodic Tasks.vi      Robot Main.vi,-0.000000,0.000000,-0.000000,0.000000,TRUE,FALSE,FALSE,FALSE,FALSE,FALSE,Disabled,0.000000,0.000000,0.000000,TRUE,1.198410,-0.786484,0.000000,0.014587,0.034195,0.000000,0.165000,-0.027000,-0.012000,-0.020000,-0.450000,-0.830000,-0.027413,Hold,0.948730,0.000000,Hold,-165.000000,2.000000,Suck,-1740.000000,1818.181818,Speed,-1717.500000,1818.181818,Speed,Off,Off,0.000000,FALSE,0,,,,,0.000000,0.000000
02:36:25.004 PM 04/02/2016,Teleop Enabled,10,TRUE,-44087,NetComm_CAN_Receive.vi:5470001<APPEND>  <b>Complete call chain:</b>      NetComm_CAN_Receive.vi:5470001      WPI_CAN_PDPReceive.vi      WPI_Power Get PDP Currents.vi      Periodic Tasks.vi      Robot Main.vi,-0.000000,0.000000,-0.000000,0.000000,TRUE,FALSE,FALSE,FALSE,FALSE,FALSE,Disabled,0.000000,0.000000,0.000000,TRUE,1.199387,-0.785141,0.000000,0.025208,0.021439,0.000000,-0.091000,-0.031000,-0.027000,-0.020000,-0.430000,-0.870000,-0.038319,Hold,0.948730,0.000000,Hold,-165.000000,2.000000,Suck,-1725.000000,1818.181818,Speed,-1717.500000,1818.181818,Speed,Off,Off,0.000000,FALSE,0,,,,,0.000000,0.000000
02:36:25.104 PM 04/02/2016,Teleop Enabled,10,TRUE,-44087,NetComm_CAN_Receive.vi:5470001<APPEND>  <b>Complete call chain:</b>      NetComm_CAN_Receive.vi:5470001      WPI_CAN_PDPReceive.vi      WPI_Power Get PDP Currents.vi      Periodic Tasks.vi      Robot Main.vi,-0.000000,0.000000,-0.000000,0.000000,TRUE,FALSE,FALSE,FALSE,FALSE,FALSE,Disabled,0.000000,0.000000,0.000000,TRUE,1.199646,-0.784882,0.000000,0.004349,0.005615,0.000000,-0.079000,0.000000,0.032000,-0.020000,-0.430000,-0.890000,-0.061009,Hold,0.948730,0.000000,Hold,-165.000000,2.000000,Suck,-1725.000000,1818.181818,Speed,-1717.500000,1818.181818,Speed,Off,Off,0.000000,FALSE,0,,,,,0.000000,0.000000
02:36:25.205 PM 04/02/2016,Teleop Enabled,9,TRUE,-44087,NetComm_CAN_Receive.vi:5470001<APPEND>  <b>Complete call chain:</b>      NetComm_CAN_Receive.vi:5470001      WPI_CAN_PDPReceive.vi      WPI_Power Get PDP Currents.vi      Periodic Tasks.vi      Robot Main.vi,-0.000000,0.000000,-0.000000,0.000000,TRUE,FALSE,FALSE,FALSE,FALSE,FALSE,Disabled,0.000000,0.000000,0.000000,TRUE,1.199234,-0.784164,0.000000,-0.024277,0.017822,0.000000,-0.012000,0.063000,-0.045000,-0.020000,-0.410000,-0.870000,-0.066923,Hold,0.948730,0.000000,Hold,-165.000000,2.000000,Suck,-1717.500000,1818.181818,Speed,-1702.500000,1818.181818,Speed,Off,Off,0.000000,FALSE,0,,,,,0.000000,0.000000
02:36:25.306 PM 04/02/2016,Teleop Enabled,10,TRUE,-44087,NetComm_CAN_Receive.vi:5470001<APPEND>  <b>Complete call chain:</b>      NetComm_CAN_Receive.vi:5470001      WPI_CAN_PDPReceive.vi      WPI_Power Get PDP Currents.vi      Periodic Tasks.vi      Robot Main.vi,-0.000000,0.000000,-0.000000,0.000000,TRUE,FALSE,FALSE,FALSE,FALSE,FALSE,Disabled,0.000000,0.000000,0.000000,TRUE,1.197906,-0.783112,0.000000,-0.028824,0.002289,0.000000,0.115000,0.000000,0.084000,-0.030000,-0.370000,-0.900000,-0.072762,Hold,0.948730,0.000000,Hold,-165.000000,2.000000,Suck,-1725.000000,1818.181818,Speed,-1695.000000,1818.181818,Speed,Off,Off,0.000000,FALSE,0,,,,,0.000000,0.000000
02:36:25.408 PM 04/02/2016,Teleop Enabled,11,TRUE,-44087,NetComm_CAN_Receive.vi:5470001<APPEND>  <b>Complete call chain:</b>      NetComm_CAN_Receive.vi:5470001      WPI_CAN_PDPReceive.vi      WPI_Power Get PDP Currents.vi      Periodic Tasks.vi      Robot Main.vi,-0.000000,0.000000,-0.000000,0.000000,TRUE,FALSE,FALSE,FALSE,FALSE,FALSE,Disabled,0.000000,0.000000,0.000000,TRUE,1.197906,-0.783081,0.000000,-0.002960,-0.000275,0.000000,-0.032000,-0.010000,0.087000,-0.030000,-0.380000,-0.890000,-0.051459,Hold,0.948730,0.000000,Hold,-165.000000,2.000000,Suck,-1732.500000,1818.181818,Speed,-1702.500000,1818.181818,Speed,Off,Off,0.000000,FALSE,0,,,,,0.000000,0.000000
02:36:25.508 PM 04/02/2016,Teleop Enabled,10,TRUE,-44087,NetComm_CAN_Receive.vi:5470001<APPEND>  <b>Complete call chain:</b>      NetComm_CAN_Receive.vi:5470001      WPI_CAN_PDPReceive.vi      WPI_Power Get PDP Currents.vi      Periodic Tasks.vi      Robot Main.vi,-0.000000,0.000000,-0.000000,0.000000,TRUE,FALSE,FALSE,FALSE,FALSE,FALSE,Disabled,0.000000,0.000000,0.000000,TRUE,1.196442,-0.783432,0.000000,-0.045654,-0.019745,0.000000,-0.051000,-0.007000,-0.065000,-0.030000,-0.400000,-0.890000,-0.063660,Hold,0.948730,0.000000,Hold,-165.000000,2.000000,Suck,-1732.500000,1818.181818,Speed,-1702.500000,1818.181818,Speed,Off,Off,0.000000,FALSE,0,,,,,0.000000,0.000000
02:36:25.608 PM 04/02/2016,Teleop Enabled,10,TRUE,-44087,NetComm_CAN_Receive.vi:5470001<APPEND>  <b>Complete call chain:</b>      NetComm_CAN_Receive.vi:5470001      WPI_CAN_PDPReceive.vi      WPI_Power Get PDP Currents.vi      Periodic Tasks.vi      Robot Main.vi,-0.000000,0.000000,-0.000000,0.000000,TRUE,FALSE,FALSE,FALSE,FALSE,FALSE,Disabled,0.000000,0.000000,0.000000,TRUE,1.194458,-0.783707,0.000000,-0.032578,0.013870,0.000000,-0.111000,0.034000,-0.002000,-0.030000,-0.400000,-0.910000,-0.088759,Hold,0.948730,0.000000,Hold,-165.000000,2.000000,Suck,-1740.000000,1818.181818,Speed,-1702.500000,1818.181818,Speed,Off,Off,0.000000,FALSE,0,,,,,0.000000,0.000000
02:36:25.711 PM 04/02/2016,Teleop Enabled,11,TRUE,-44087,NetComm_CAN_Receive.vi:5470001<APPEND>  <b>Complete call chain:</b>      NetComm_CAN_Receive.vi:5470001      WPI_CAN_PDPReceive.vi      WPI_Power Get PDP Currents.vi      Periodic Tasks.vi      Robot Main.vi,-0.000000,0.000000,-0.000000,0.000000,TRUE,FALSE,FALSE,FALSE,FALSE,FALSE,Disabled,0.000000,0.000000,0.000000,TRUE,1.191376,-0.783295,0.000000,-0.061600,0.014008,0.000000,0.025000,-0.010000,-0.013000,-0.020000,-0.410000,-0.930000,-0.091858,Hold,0.948730,0.000000,Hold,-165.000000,2.000000,Suck,-1740.000000,1818.181818,Speed,-1687.500000,1818.181818,Speed,Off,Off,0.000000,FALSE,0,,,,,0.000000,0.000000
02:36:25.812 PM 04/02/2016,Teleop Enabled,11,TRUE,-44087,NetComm_CAN_Receive.vi:5470001<APPEND>  <b>Complete call chain:</b>      NetComm_CAN_Receive.vi:5470001      WPI_CAN_PDPReceive.vi      WPI_Power Get PDP Currents.vi      Periodic Tasks.vi      Robot Main.vi,-0.000000,0.000000,-0.000000,0.000000,TRUE,FALSE,FALSE,FALSE,FALSE,FALSE,Disabled,0.000000,0.000000,0.000000,TRUE,1.188492,-0.783035,0.000000,-0.045837,0.008316,0.000000,0.001000,-0.029000,-0.084000,-0.020000,-0.400000,-0.950000,-0.103019,Hold,0.948730,0.000000,Hold,-165.000000,2.000000,Suck,-1740.000000,1818.181818,Speed,-1710.000000,1818.181818,Speed,Off,Off,0.000000,FALSE,0,,,,,0.000000,0.000000
02:36:25.914 PM 04/02/2016,Teleop Enabled,10,TRUE,-44087,NetComm_CAN_Receive.vi:5470001<APPEND>  <b>Complete call chain:</b>      NetComm_CAN_Receive.vi:5470001      WPI_CAN_PDPReceive.vi      WPI_Power Get PDP Currents.vi      Periodic Tasks.vi      Robot Main.vi,-0.000000,0.000000,-0.000000,0.000000,TRUE,FALSE,FALSE,FALSE,FALSE,FALSE,Disabled,0.000000,0.000000,0.000000,TRUE,1.187973,-0.783371,0.000000,-0.010208,-0.006470,0.000000,0.028000,-0.002000,-0.029000,-0.020000,-0.380000,-0.970000,-0.081606,Hold,0.948730,0.000000,Hold,-165.000000,2.000000,Suck,-1732.500000,1818.181818,Speed,-1710.000000,1818.181818,Speed,Off,Off,0.000000,FALSE,0,,,,,0.000000,0.000000
02:36:26.014 PM 04/02/2016,Teleop Enabled,9,TRUE,-44087,NetComm_CAN_Receive.vi:5470001<APPEND>  <b>Complete call chain:</b>      NetComm_CAN_Receive.vi:5470001      WPI_CAN_PDPReceive.vi      WPI_Power Get PDP Currents.vi      Periodic Tasks.vi      Robot Main.vi,-0.000000,0.000000,-0.000000,0.000000,TRUE,FALSE,FALSE,FALSE,FALSE,FALSE,Disabled,0.000000,0.000000,0.000000,TRUE,1.187271,-0.783569,0.000000,0.001007,0.005112,0.000000,0.130000,0.013000,0.065000,-0.020000,-0.400000,-0.970000,-0.098457,Hold,0.948730,0.000000,Hold,-165.000000,2.000000,Suck,-1732.500000,1818.181818,Speed,-1695.000000,1818.181818,Speed,Off,Off,0.000000,FALSE,0,,,,,0.000000,0.000000
02:36:26.114 PM 04/02/2016,Teleop Enabled,7,TRUE,-44087,NetComm_CAN_Receive.vi:5470001<APPEND>  <b>Complete call chain:</b>      NetComm_CAN_Receive.vi:5470001      WPI_CAN_PDPReceive.vi      WPI_Power Get PDP Currents.vi      Periodic Tasks.vi      Robot Main.vi,-0.000000,0.000000,-0.000000,0.000000,TRUE,FALSE,FALSE,FALSE,FALSE,FALSE,Disabled,0.000000,0.000000,0.000000,TRUE,1.188232,-0.783798,0.000000,0.007690,-0.012207,0.000000,0.091000,-0.003000,0.078000,-0.020000,-0.380000,-0.970000,-0.096399,Hold,0.948730,0.000000,Hold,-165.000000,2.000000,Suck,-1725.000000,1818.181818,Speed,-1695.000000,1818.181818,Speed,Off,Off,0.000000,FALSE,0,,,,,0.000000,0.000000
02:36:26.216 PM 04/02/2016,Teleop Enabled,11,TRUE,-44087,NetComm_CAN_Receive.vi:5470001<APPEND>  <b>Complete call chain:</b>      NetComm_CAN_Receive.vi:5470001      WPI_CAN_PDPReceive.vi      WPI_Power Get PDP Currents.vi      Periodic Tasks.vi      Robot Main.vi,-0.000000,0.000000,-0.000000,0.000000,TRUE,FALSE,FALSE,FALSE,FALSE,FALSE,Disabled,0.000000,0.000000,0.000000,TRUE,1.189529,-0.783798,0.000000,0.007568,0.000000,0.000000,0.173000,0.064000,-0.024000,-0.020000,-0.350000,-0.980000,-0.087524,Hold,0.948730,0.000000,Hold,-165.000000,2.000000,Suck,-1732.500000,1818.181818,Speed,-1710.000000,1818.181818,Speed,Off,Off,0.000000,FALSE,0,,,,,0.000000,0.000000
02:36:26.318 PM 04/02/2016,Teleop Enabled,10,TRUE,-44087,NetComm_CAN_Receive.vi:5470001<APPEND>  <b>Complete call chain:</b>      NetComm_CAN_Receive.vi:5470001      WPI_CAN_PDPReceive.vi      WPI_Power Get PDP Currents.vi      Periodic Tasks.vi      Robot Main.vi,-0.000000,0.000000,-0.000000,0.000000,TRUE,FALSE,FALSE,FALSE,FALSE,FALSE,Disabled,0.000000,0.000000,0.000000,TRUE,1.190399,-0.783447,0.000000,0.000046,-0.003296,0.000000,0.068000,-0.017000,-0.008000,-0.020000,-0.370000,-0.930000,-0.090680,Hold,0.948730,0.000000,Hold,-165.000000,2.000000,Suck,-1740.000000,1818.181818,Speed,-1717.500000,1818.181818,Speed,Off,Off,0.000000,FALSE,0,,,,,0.000000,0.000000
02:36:26.420 PM 04/02/2016,Teleop Enabled,11,TRUE,-44087,NetComm_CAN_Receive.vi:5470001<APPEND>  <b>Complete call chain:</b>      NetComm_CAN_Receive.vi:5470001      WPI_CAN_PDPReceive.vi      WPI_Power Get PDP Currents.vi      Periodic Tasks.vi      Robot Main.vi,-0.000000,0.000000,-0.000000,0.000000,TRUE,FALSE,FALSE,FALSE,FALSE,FALSE,Disabled,0.000000,0.000000,0.000000,TRUE,1.190140,-0.783325,0.000000,-0.014709,0.020493,0.000000,-0.047000,0.004000,-0.046000,-0.020000,-0.410000,-0.890000,-0.090047,Hold,0.948730,0.000000,Hold,-165.000000,2.000000,Suck,-1740.000000,1818.181818,Speed,-1695.000000,1818.181818,Speed,Off,Off,0.000000,FALSE,0,,,,,0.000000,0.000000
02:36:26.520 PM 04/02/2016,Teleop Enabled,11,TRUE,-44087,NetComm_CAN_Receive.vi:5470001<APPEND>  <b>Complete call chain:</b>      NetComm_CAN_Receive.vi:5470001      WPI_CAN_PDPReceive.vi      WPI_Power Get PDP Currents.vi      Periodic Tasks.vi      Robot Main.vi,-0.000000,0.000000,-0.000000,0.000000,TRUE,FALSE,FALSE,FALSE,FALSE,FALSE,Disabled,0.000000,0.000000,0.000000,TRUE,1.189438,-0.781509,0.000000,0.018448,0.043701,0.000000,0.074000,-0.025000,-0.013000,-0.020000,-0.420000,-0.870000,-0.092798,Hold,0.948730,0.000000,Hold,-165.000000,2.000000,Suck,-1740.000000,1818.181818,Speed,-1687.500000,1818.181818,Speed,Off,Off,0.000000,FALSE,0,,,,,0.000000,0.000000
02:36:26.626 PM 04/02/2016,Teleop Enabled,11,TRUE,-44087,NetComm_CAN_Receive.vi:5470001<APPEND>  <b>Complete call chain:</b>      NetComm_CAN_Receive.vi:5470001      WPI_CAN_PDPReceive.vi      WPI_Power Get PDP Currents.vi      Periodic Tasks.vi      Robot Main.vi,-0.000000,0.000000,-0.000000,0.000000,TRUE,FALSE,FALSE,FALSE,FALSE,FALSE,Disabled,0.000000,0.000000,0.000000,TRUE,1.188965,-0.780350,0.000000,-0.005814,0.000000,0.000000,0.016000,-0.004000,-0.050000,-0.020000,-0.400000,-0.900000,-0.096949,Hold,0.948730,0.000000,Hold,-165.000000,2.000000,Suck,-1747.500000,1818.181818,Speed,-1687.500000,1818.181818,Speed,Off,Off,0.000000,FALSE,0,,,,,0.000000,0.000000
02:36:26.723 PM 04/02/2016,Teleop Enabled,10,TRUE,-44087,NetComm_CAN_Receive.vi:5470001<APPEND>  <b>Complete call chain:</b>      NetComm_CAN_Receive.vi:5470001      WPI_CAN_PDPReceive.vi      WPI_Power Get PDP Currents.vi      Periodic Tasks.vi      Robot Main.vi,-0.000000,0.000000,-0.000000,0.000000,TRUE,FALSE,FALSE,FALSE,FALSE,FALSE,Disabled,0.000000,0.000000,0.000000,TRUE,1.188446,-0.780228,0.000000,-0.031464,0.009003,0.000000,-0.100000,-0.036000,-0.015000,-0.020000,-0.420000,-0.840000,-0.097755,Hold,0.948730,0.000000,Hold,-165.000000,2.000000,Suck,-1740.000000,1818.181818,Speed,-1672.500000,1818.181818,Speed,Off,Off,0.000000,FALSE,0,,,,,0.000000,0.000000
02:36:26.823 PM 04/02/2016,Teleop Enabled,9,TRUE,-44087,NetComm_CAN_Receive.vi:5470001<APPEND>  <b>Complete call chain:</b>      NetComm_CAN_Receive.vi:5470001      WPI_CAN_PDPReceive.vi      WPI_Power Get PDP Currents.vi      Periodic Tasks.vi      Robot Main.vi,-0.000000,0.000000,-0.000000,0.000000,TRUE,FALSE,FALSE,FALSE,FALSE,FALSE,Disabled,0.000000,0.000000,0.000000,TRUE,1.187119,-0.780319,0.000000,-0.017075,-0.004211,0.000000,-0.047000,-0.045000,-0.003000,-0.020000,-0.420000,-0.880000,-0.095786,Hold,0.948730,0.000000,Hold,-165.000000,2.000000,Suck,-1740.000000,1818.181818,Speed,-1695.000000,1818.181818,Speed,Off,Off,0.000000,FALSE,0,,,,,0.000000,0.000000
02:36:26.924 PM 04/02/2016,Teleop Enabled,9,TRUE,-44087,NetComm_CAN_Receive.vi:5470001<APPEND>  <b>Complete call chain:</b>      NetComm_CAN_Receive.vi:5470001      WPI_CAN_PDPReceive.vi      WPI_Power Get PDP Currents.vi      Periodic Tasks.vi      Robot Main.vi,-0.000000,0.000000,-0.000000,0.000000,TRUE,FALSE,FALSE,FALSE,FALSE,FALSE,Disabled,0.000000,0.000000,0.000000,TRUE,1.184418,-0.780609,0.000000,-0.055115,-0.004654,0.000000,-0.011000,-0.045000,-0.039000,-0.020000,-0.430000,-0.880000,-0.080126,Hold,0.948730,0.000000,Hold,-165.000000,2.000000,Suck,-1740.000000,1818.181818,Speed,-1710.000000,1818.181818,Speed,Off,Off,0.000000,FALSE,0,,,,,0.000000,0.000000
02:36:27.026 PM 04/02/2016,Teleop Enabled,10,TRUE,-44087,NetComm_CAN_Receive.vi:5470001<APPEND>  <b>Complete call chain:</b>      NetComm_CAN_Receive.vi:5470001      WPI_CAN_PDPReceive.vi      WPI_Power Get PDP Currents.vi      Periodic Tasks.vi      Robot Main.vi,-0.000000,0.000000,-0.000000,0.000000,TRUE,FALSE,FALSE,FALSE,FALSE,FALSE,Disabled,0.000000,0.000000,0.000000,TRUE,1.182541,-0.780930,0.000000,-0.001846,0.000504,0.000000,0.005000,0.022000,0.076000,-0.030000,-0.450000,-0.900000,-0.075829,Hold,0.948730,0.000000,Hold,-165.000000,2.000000,Suck,-1740.000000,1818.181818,Speed,-1732.500000,1818.181818,Speed,Off,Off,0.000000,FALSE,0,,,,,0.000000,0.000000
02:36:27.125 PM 04/02/2016,Teleop Enabled,10,TRUE,-44087,NetComm_CAN_Receive.vi:5470001<APPEND>  <b>Complete call chain:</b>      NetComm_CAN_Receive.vi:5470001      WPI_CAN_PDPReceive.vi      WPI_Power Get PDP Currents.vi      Periodic Tasks.vi      Robot Main.vi,-0.000000,0.000000,-0.000000,0.000000,TRUE,FALSE,FALSE,FALSE,FALSE,FALSE,Disabled,0.000000,0.000000,0.000000,TRUE,1.182541,-0.780640,0.000000,0.018509,0.000000,0.000000,-0.041000,0.001000,0.077000,-0.030000,-0.470000,-0.870000,-0.062410,Hold,0.948730,0.000000,Hold,-165.000000,2.000000,Suck,-1747.500000,1818.181818,Speed,-1740.000000,1818.181818,Speed,Off,Off,0.000000,FALSE,0,,,,,0.000000,0.000000
02:36:27.226 PM 04/02/2016,Teleop Enabled,10,TRUE,-44087,NetComm_CAN_Receive.vi:5470001<APPEND>  <b>Complete call chain:</b>      NetComm_CAN_Receive.vi:5470001      WPI_CAN_PDPReceive.vi      WPI_Power Get PDP Currents.vi      Periodic Tasks.vi      Robot Main.vi,-0.000000,0.000000,-0.000000,0.000000,TRUE,FALSE,FALSE,FALSE,FALSE,FALSE,Disabled,0.000000,0.000000,0.000000,TRUE,1.183060,-0.779861,0.000000,0.022888,0.030457,0.000000,-0.114000,0.000000,-0.028000,-0.030000,-0.470000,-0.830000,-0.055043,Hold,0.948730,0.000000,Hold,-165.000000,2.000000,Suck,-1747.500000,1818.181818,Speed,-1725.000000,1818.181818,Speed,Off,Off,0.000000,FALSE,0,,,,,0.000000,0.000000
02:36:27.328 PM 04/02/2016,Teleop Enabled,9,TRUE,-44087,NetComm_CAN_Receive.vi:5470001<APPEND>  <b>Complete call chain:</b>      NetComm_CAN_Receive.vi:5470001      WPI_CAN_PDPReceive.vi      WPI_Power Get PDP Currents.vi      Periodic Tasks.vi      Robot Main.vi,-0.000000,0.000000,-0.000000,0.000000,TRUE,FALSE,FALSE,FALSE,FALSE,FALSE,Disabled,0.000000,0.000000,0.000000,TRUE,1.183441,-0.779495,0.000000,0.026978,0.002396,0.000000,-0.098000,0.012000,-0.011000,-0.030000,-0.460000,-0.920000,-0.030591,Hold,0.948730,0.000000,Hold,-165.000000,2.000000,Suck,-1747.500000,1818.181818,Speed,-1710.000000,1818.181818,Speed,Off,Off,0.000000,FALSE,0,,,,,0.000000,0.000000
02:36:27.429 PM 04/02/2016,Teleop Enabled,10,TRUE,-44087,NetComm_CAN_Receive.vi:5470001<APPEND>  <b>Complete call chain:</b>      NetComm_CAN_Receive.vi:5470001      WPI_CAN_PDPReceive.vi      WPI_Power Get PDP Currents.vi      Periodic Tasks.vi      Robot Main.vi,-0.000000,0.000000,-0.000000,0.000000,TRUE,FALSE,FALSE,FALSE,FALSE,FALSE,Disabled,0.000000,0.000000,0.000000,TRUE,1.184387,-0.779541,0.000000,0.033951,-0.005203,0.000000,-0.103000,-0.039000,-0.093000,-0.030000,-0.460000,-0.920000,-0.016486,Hold,0.948730,0.000000,Hold,-165.000000,2.000000,Suck,-1747.500000,1818.181818,Speed,-1710.000000,1818.181818,Speed,Off,Off,0.000000,FALSE,0,,,,,0.000000,0.000000
02:36:27.530 PM 04/02/2016,Teleop Enabled,10,TRUE,-44087,NetComm_CAN_Receive.vi:5470001<APPEND>  <b>Complete call chain:</b>      NetComm_CAN_Receive.vi:5470001      WPI_CAN_PDPReceive.vi      WPI_Power Get PDP Currents.vi      Periodic Tasks.vi      Robot Main.vi,-0.000000,0.000000,-0.000000,0.000000,TRUE,FALSE,FALSE,FALSE,FALSE,FALSE,Disabled,0.000000,0.000000,0.000000,TRUE,1.185059,-0.780090,0.000000,0.033142,0.000000,0.000000,0.058000,-0.007000,-0.007000,-0.030000,-0.460000,-0.940000,-0.042863,Hold,0.948730,0.000000,Hold,-165.000000,2.000000,Suck,-1747.500000,1818.181818,Speed,-1710.000000,1818.181818,Speed,Off,Off,0.000000,FALSE,0,,,,,0.000000,0.000000
02:36:27.632 PM 04/02/2016,Teleop Enabled,11,TRUE,-44087,NetComm_CAN_Receive.vi:5470001<APPEND>  <b>Complete call chain:</b>      NetComm_CAN_Receive.vi:5470001      WPI_CAN_PDPReceive.vi      WPI_Power Get PDP Currents.vi      Periodic Tasks.vi      Robot Main.vi,-0.000000,0.000000,-0.000000,0.000000,TRUE,FALSE,FALSE,FALSE,FALSE,FALSE,Disabled,0.000000,0.000000,0.000000,TRUE,1.186874,-0.780731,0.000000,0.043716,-0.026459,0.000000,0.006000,-0.010000,-0.022000,-0.020000,-0.450000,-0.990000,-0.042629,Hold,0.948730,0.000000,Hold,-165.000000,2.000000,Suck,-1747.500000,1818.181818,Speed,-1710.000000,1818.181818,Speed,Off,Off,0.000000,FALSE,0,,,,,0.000000,0.000000
02:36:27.734 PM 04/02/2016,Teleop Enabled,10,TRUE,-44087,NetComm_CAN_Receive.vi:5470001<APPEND>  <b>Complete call chain:</b>      NetComm_CAN_Receive.vi:5470001      WPI_CAN_PDPReceive.vi      WPI_Power Get PDP Currents.vi      Periodic Tasks.vi      Robot Main.vi,-0.000000,0.000000,-0.000000,0.000000,TRUE,FALSE,FALSE,FALSE,FALSE,FALSE,Disabled,0.000000,0.000000,0.000000,TRUE,1.187973,-0.782227,0.000000,0.022858,0.000000,0.000000,-0.034000,-0.009000,0.032000,-0.020000,-0.440000,-0.990000,-0.035231,Hold,0.948730,0.000000,Hold,-165.000000,2.000000,Suck,-1747.500000,1818.181818,Speed,-1702.500000,1818.181818,Speed,Off,Off,0.000000,FALSE,0,,,,,0.000000,0.000000
