Time,Robot Mode,Loop Time,Error Status,Error Code,Error Source,Left Motor Output,Left Motor Encoder,Right Motor Output,Right Motor Encoder,Is Level,Is Stalled,Ball Detector Photoeye,Vision Enabled,Vision Teleop Control,Vision Auto Control,Vision Current State,Vision X Output,Vision NavX Error,Vision NavX Target,NavX Connection Status,NavX Displacement X,NavX Displacement Y,NavX Displacement Z,NavX Velocity X,NavX Velocity Y,NavX Velocity Z,NavX Acceleration X,NavX Acceleration Y,NavX Acceleration Z,NavX Pitch,NavX Yaw,NavX Roll,Gyro Angle,Roller Arm State,Roller Arm Actual,Roller Arm Desired,Shooter Arm State,Shooter Arm Actual,Shooter Arm Desired,Shooter State,Actual RPM Left,Desired RPM Left,Control Mode Left,Actual RPM Right,Desired RPM Right,Control Mode Right,Ball Shooter Cylinder,Ball Halo Cylinder,Scaler Motor Output,Scaler Solenoid Fire,Auto To Run,Auto Current File,Auto File Status,Auto Current Command,Auto Trimmed Command,Shooter Amps Left,Shooter Amps Right, Vision After Offset
12:04:14.088 PM 04/28/2016,Teleop Enabled,13,FALSE,0,NO ERROR,-0.000000,0.000000,-0.000000,0.000000,TRUE,FALSE,FALSE,FALSE,FALSE,FALSE,Disabled,0.000000,0.000000,0.000000,TRUE,0.013763,-0.058578,0.000000,0.000000,0.000000,0.000000,0.042000,0.021000,-0.003000,1.330000,0.000000,0.080000,-0.002021,ResetBack,0.015869,-0.000049,ResetBack,-8464.000000,-0.250000,Empty,0.000000,0.000000,Speed,0.000000,0.000000,Speed,Off,On,0.000000,FALSE,0,,,,,0.000000,0.000000,-0.050000
12:04:14.188 PM 04/28/2016,Teleop Enabled,11,FALSE,0,NO ERROR,-0.000000,0.243833,-0.000000,-0.012833,TRUE,FALSE,FALSE,FALSE,FALSE,FALSE,Disabled,0.000000,0.000000,0.000000,TRUE,0.015762,-0.058014,0.000000,0.076828,0.042358,0.000000,-0.026000,0.047000,-0.131000,1.270000,0.010000,0.190000,-0.053749,ResetBack,0.015869,-0.000049,ResetBack,-1757.000000,-0.250000,Suck,0.000000,0.000000,Speed,0.000000,0.000000,Speed,Off,On,0.000000,FALSE,0,,,,,0.000000,0.000000,-0.050000
12:04:14.288 PM 04/28/2016,Teleop Enabled,11,FALSE,0,NO ERROR,-0.000000,0.243833,-0.000000,-0.012833,TRUE,FALSE,FALSE,FALSE,FALSE,FALSE,Disabled,0.000000,0.000000,0.000000,TRUE,0.018265,-0.055908,0.000000,0.095383,0.083481,0.000000,-0.009000,0.000000,0.031000,1.260000,0.000000,0.080000,-0.083138,ResetBack,-0.239746,-0.000049,ResetBack,729.000000,-0.250000,Suck,-22.500000,1818.181818,Speed,0.000000,1818.181818,Speed,Off,On,0.000000,FALSE,0,,,,,0.000000,0.000000,-0.050000
12:04:14.389 PM 04/28/2016,Teleop Enabled,10,FALSE,0,NO ERROR,-0.000000,0.243833,-0.000000,-0.012833,TRUE,FALSE,FALSE,FALSE,FALSE,FALSE,Disabled,0.000000,0.000000,0.000000,TRUE,0.023529,-0.051468,0.000000,0.103119,0.085175,0.000000,-0.022000,0.038000,-0.029000,1.240000,0.010000,-0.050000,-0.061295,Reset,-0.239746,-0.000049,ResetBack,729.000000,-0.250000,Suck,-22.500000,1818.181818,Speed,-22.500000,1818.181818,Speed,Off,On,0.000000,FALSE,0,,,,,0.000000,0.000000,-0.050000
12:04:14.489 PM 04/28/2016,Teleop Enabled,11,FALSE,0,NO ERROR,-0.000000,0.243833,-0.000000,-0.012833,TRUE,FALSE,FALSE,FALSE,FALSE,FALSE,Disabled,0.000000,0.000000,0.000000,TRUE,0.025391,-0.046738,0.000000,0.005203,0.102936,0.000000,0.012000,-0.026000,-0.063000,1.250000,0.000000,-0.020000,-0.068734,Hold,-0.239746,0.000000,ResetBack,2146.000000,-0.250000,Suck,-472.500000,1818.181818,Speed,-390.000000,1818.181818,Speed,Off,On,0.000000,FALSE,0,,,,,0.000000,0.000000,-0.050000
12:04:14.588 PM 04/28/2016,Teleop Enabled,10,FALSE,0,NO ERROR,-0.000000,0.243833,-0.000000,-0.012833,TRUE,FALSE,FALSE,FALSE,FALSE,FALSE,Disabled,0.000000,0.000000,0.000000,TRUE,0.027222,-0.041351,0.000000,0.052261,0.104980,0.000000,-0.035000,0.017000,-0.021000,1.250000,0.010000,-0.070000,-0.056327,Hold,0.127930,0.000000,ResetBack,2146.000000,-0.250000,Suck,-1072.500000,1818.181818,Speed,-952.500000,1818.181818,Speed,Off,On,0.000000,FALSE,0,,,,,0.000000,0.000000,-0.050000
12:04:14.690 PM 04/28/2016,Teleop Enabled,12,FALSE,0,NO ERROR,-0.000000,0.243833,-0.000000,-0.012833,TRUE,FALSE,FALSE,FALSE,FALSE,FALSE,Disabled,0.000000,0.000000,0.000000,TRUE,0.031631,-0.040039,0.000000,0.070770,0.011017,0.000000,-0.035000,0.017000,-0.021000,1.180000,0.010000,0.020000,-0.047707,Hold,0.127930,0.000000,ResetBack,2146.000000,-0.250000,Suck,-1582.500000,1818.181818,Speed,-1492.500000,1818.181818,Speed,Off,On,0.000000,FALSE,0,,,,,0.000000,0.000000,-0.050000
12:04:14.791 PM 04/28/2016,Teleop Enabled,11,FALSE,0,NO ERROR,-0.000000,0.243833,-0.000000,-0.012833,TRUE,FALSE,FALSE,FALSE,FALSE,FALSE,Disabled,0.000000,0.000000,0.000000,TRUE,0.033371,-0.039886,0.000000,0.000000,0.003906,0.000000,0.009000,-0.059000,0.047000,1.200000,0.010000,0.080000,-0.058320,Hold,0.127930,0.000000,ResetBack,2148.000000,-0.250000,Suck,-1845.000000,1818.181818,Speed,-1860.000000,1818.181818,Speed,Off,On,0.000000,FALSE,0,,,,,0.000000,0.000000,-0.050000
12:04:14.891 PM 04/28/2016,Teleop Enabled,10,FALSE,0,NO ERROR,-0.000000,0.243833,-0.000000,-0.012833,TRUE,FALSE,FALSE,FALSE,FALSE,FALSE,Disabled,0.000000,0.000000,0.000000,TRUE,0.032715,-0.039520,0.000000,-0.031921,0.009338,0.000000,-0.090000,0.000000,-0.014000,1.200000,0.010000,0.060000,-0.067519,Hold,0.127930,0.000000,ResetBack,2157.000000,-0.250000,Suck,-1822.500000,1818.181818,Speed,-1837.500000,1818.181818,Speed,Off,On,0.000000,FALSE,0,,,,,0.000000,0.000000,-0.050000
12:04:14.992 PM 04/28/2016,Teleop Enabled,11,FALSE,0,NO ERROR,-0.000000,0.243833,-0.000000,-0.012833,TRUE,FALSE,FALSE,FALSE,FALSE,FALSE,Disabled,0.000000,0.000000,0.000000,TRUE,0.029816,-0.039856,0.000000,-0.053619,-0.009720,0.000000,0.013000,-0.050000,-0.031000,1.210000,0.000000,-0.100000,-0.098096,Hold,0.127930,0.000000,ResetBack,2157.000000,-0.250000,Suck,-1785.000000,1818.181818,Speed,-1747.500000,1818.181818,Speed,Off,On,0.000000,FALSE,0,,,,,0.000000,0.000000,-0.050000
12:04:15.092 PM 04/28/2016,Teleop Enabled,9,FALSE,0,NO ERROR,-0.000000,0.243833,-0.000000,-0.012833,TRUE,FALSE,FALSE,FALSE,FALSE,FALSE,Disabled,0.000000,0.000000,0.000000,TRUE,0.028320,-0.040955,0.000000,0.000000,-0.027664,0.000000,-0.005000,0.039000,0.064000,1.150000,0.000000,0.080000,-0.080614,Hold,0.127930,0.000000,ResetBack,2157.000000,-0.250000,Suck,-1762.500000,1818.181818,Speed,-1687.500000,1818.181818,Speed,Off,On,0.000000,FALSE,0,,,,,0.000000,0.000000,-0.050000
12:04:15.192 PM 04/28/2016,Teleop Enabled,10,FALSE,0,NO ERROR,-0.000000,0.243833,-0.000000,-0.012833,TRUE,FALSE,FALSE,FALSE,FALSE,FALSE,Disabled,0.000000,0.000000,0.000000,TRUE,0.028351,-0.042343,0.000000,0.008728,-0.039459,0.000000,-0.026000,0.034000,0.030000,1.150000,0.000000,0.070000,-0.099903,Hold,0.127930,0.000000,ResetBack,2159.000000,-0.250000,Suck,-1747.500000,1818.181818,Speed,-1702.500000,1818.181818,Speed,Off,On,0.000000,FALSE,0,,,,,0.000000,0.000000,-0.050000
12:04:15.293 PM 04/28/2016,Teleop Enabled,9,FALSE,0,NO ERROR,-0.000000,0.243833,-0.000000,-0.012833,TRUE,FALSE,FALSE,FALSE,FALSE,FALSE,Disabled,0.000000,0.000000,0.000000,TRUE,0.028015,-0.043808,0.000000,-0.020828,-0.023697,0.000000,-0.005000,0.004000,0.023000,1.210000,0.000000,-0.020000,-0.109367,Hold,0.127930,0.000000,ResetBack,2159.000000,-0.250000,Suck,-1762.500000,1818.181818,Speed,-1725.000000,1818.181818,Speed,Off,On,0.000000,FALSE,0,,,,,0.000000,0.000000,-0.050000
12:04:15.393 PM 04/28/2016,Teleop Enabled,10,FALSE,0,NO ERROR,-0.000000,0.243833,-0.000000,-0.012833,TRUE,FALSE,FALSE,FALSE,FALSE,FALSE,Disabled,0.000000,0.000000,0.000000,TRUE,0.026138,-0.043427,0.000000,-0.054352,0.021698,0.000000,-0.024000,0.081000,0.008000,1.280000,0.010000,-0.230000,-0.116627,Hold,0.127930,0.000000,Reset,2160.000000,2.000000,Suck,-1762.500000,1818.181818,Speed,-1740.000000,1818.181818,Speed,Off,On,0.000000,FALSE,0,,,,,0.000000,0.000000,-0.050000
12:04:15.494 PM 04/28/2016,Teleop Enabled,9,FALSE,0,NO ERROR,-0.000000,0.243833,-0.000000,-0.012833,TRUE,FALSE,FALSE,FALSE,FALSE,FALSE,Disabled,0.000000,0.000000,0.000000,TRUE,0.023148,-0.042099,0.000000,-0.052719,0.017899,0.000000,0.026000,0.039000,0.016000,1.290000,0.010000,-0.240000,-0.112592,Hold,0.127930,0.000000,Hold,-184.000000,2.000000,Suck,-1762.500000,1818.181818,Speed,-1740.000000,1818.181818,Speed,Off,On,0.000000,FALSE,0,,,,,0.000000,0.000000,-0.050000
12:04:15.593 PM 04/28/2016,Teleop Enabled,11,FALSE,0,NO ERROR,-0.000000,0.243833,-0.000000,-0.012833,TRUE,FALSE,FALSE,FALSE,FALSE,FALSE,Disabled,0.000000,0.000000,0.000000,TRUE,0.021301,-0.041199,0.000000,-0.031006,0.015762,0.000000,0.023000,0.047000,0.032000,1.290000,0.000000,-0.160000,-0.105673,Hold,0.127930,0.000000,Hold,-184.000000,2.000000,Suck,-1762.500000,1818.181818,Speed,-1725.000000,1818.181818,Speed,Off,On,0.000000,FALSE,0,,,,,0.000000,0.000000,-0.050000
12:04:15.694 PM 04/28/2016,Teleop Enabled,9,FALSE,0,NO ERROR,-0.000000,0.243833,-0.000000,-0.012833,TRUE,FALSE,FALSE,FALSE,FALSE,FALSE,Disabled,0.000000,0.000000,0.000000,TRUE,0.020676,-0.040298,0.000000,-0.007690,0.024765,0.000000,0.016000,-0.011000,0.055000,1.330000,0.010000,-0.080000,-0.116028,Hold,0.127930,0.000000,Hold,-184.000000,2.000000,Suck,-1762.500000,1818.181818,Speed,-1732.500000,1818.181818,Speed,Off,On,0.000000,FALSE,0,,,,,0.000000,0.000000,-0.050000
12:04:15.795 PM 04/28/2016,Teleop Enabled,9,FALSE,0,NO ERROR,-0.000000,0.243833,-0.000000,-0.012833,TRUE,FALSE,FALSE,FALSE,FALSE,FALSE,Disabled,0.000000,0.000000,0.000000,TRUE,0.020477,-0.038788,0.000000,-0.005157,0.033661,0.000000,0.008000,-0.049000,0.081000,1.380000,0.000000,-0.080000,-0.128442,Hold,0.127930,0.000000,Hold,-184.000000,2.000000,Suck,-1762.500000,1818.181818,Speed,-1732.500000,1818.181818,Speed,Off,On,0.000000,FALSE,0,,,,,0.000000,0.000000,-0.050000
12:04:15.894 PM 04/28/2016,Teleop Enabled,10,FALSE,0,NO ERROR,-0.000000,0.243833,-0.000000,-0.012833,TRUE,FALSE,FALSE,FALSE,FALSE,FALSE,Disabled,0.000000,0.000000,0.000000,TRUE,0.020615,-0.036743,0.000000,0.001160,0.043777,0.000000,0.047000,-0.047000,0.059000,1.420000,0.000000,-0.100000,-0.116076,Hold,0.127930,0.000000,Hold,-184.000000,2.000000,Suck,-1762.500000,1818.181818,Speed,-1725.000000,1818.181818,Speed,Off,On,0.000000,FALSE,0,,,,,0.000000,0.000000,-0.050000
12:04:15.995 PM 04/28/2016,Teleop Enabled,9,FALSE,0,NO ERROR,-0.000000,0.243833,-0.000000,-0.012833,TRUE,FALSE,FALSE,FALSE,FALSE,FALSE,Disabled,0.000000,0.000000,0.000000,TRUE,0.020950,-0.034073,0.000000,0.011414,0.041412,0.000000,0.014000,0.050000,-0.002000,1.400000,0.000000,-0.020000,-0.141317,Hold,0.127930,0.000000,Hold,-184.000000,2.000000,Suck,-1762.500000,1818.181818,Speed,-1732.500000,1818.181818,Speed,Off,On,0.000000,FALSE,0,,,,,0.000000,0.000000,-0.050000
12:04:16.095 PM 04/28/2016,Teleop Enabled,9,FALSE,0,NO ERROR,-0.000000,0.243833,-0.000000,-0.012833,TRUE,FALSE,FALSE,FALSE,FALSE,FALSE,Disabled,0.000000,0.000000,0.000000,TRUE,0.022720,-0.033188,0.000000,0.052704,0.004181,0.000000,0.046000,-0.027000,-0.011000,1.400000,0.000000,0.170000,-0.150188,Hold,0.127930,0.000000,Hold,-184.000000,2.000000,Suck,-1762.500000,1818.181818,Speed,-1732.500000,1818.181818,Speed,Off,On,0.000000,FALSE,0,,,,,0.000000,0.000000,-0.050000
12:04:16.195 PM 04/28/2016,Teleop Enabled,10,FALSE,0,NO ERROR,-0.000000,0.243833,-0.000000,-0.012833,TRUE,FALSE,FALSE,FALSE,FALSE,FALSE,Disabled,0.000000,0.000000,0.000000,TRUE,0.024826,-0.033371,0.000000,0.000000,0.003189,0.000000,-0.004000,-0.004000,0.041000,1.410000,0.000000,0.240000,-0.142966,Hold,0.127930,0.000000,Hold,-184.000000,2.000000,Suck,-1762.500000,1818.181818,Speed,-1732.500000,1818.181818,Speed,Off,On,0.000000,FALSE,0,,,,,0.000000,0.000000,-0.050000
12:04:16.295 PM 04/28/2016,Teleop Enabled,10,FALSE,0,NO ERROR,-0.000000,0.243833,-0.000000,-0.012833,TRUE,FALSE,FALSE,FALSE,FALSE,FALSE,Disabled,0.000000,0.000000,0.000000,TRUE,0.025238,-0.033417,0.000000,0.012451,-0.010330,0.000000,0.012000,-0.035000,0.035000,1.360000,0.000000,0.320000,-0.145651,Hold,0.127930,0.000000,Hold,-184.000000,2.000000,Suck,-1762.500000,1818.181818,Speed,-1740.000000,1818.181818,Speed,Off,On,0.000000,FALSE,0,,,,,0.000000,0.000000,-0.050000
12:04:16.396 PM 04/28/2016,Teleop Enabled,9,FALSE,0,NO ERROR,-0.000000,0.243833,-0.000000,-0.012833,TRUE,FALSE,FALSE,FALSE,FALSE,FALSE,Disabled,0.000000,0.000000,0.000000,TRUE,0.026245,-0.034439,0.000000,0.025604,-0.025925,0.000000,0.024000,-0.042000,-0.022000,1.280000,0.000000,0.440000,-0.153679,Hold,0.127930,0.000000,Hold,-184.000000,2.000000,Suck,-1762.500000,1818.181818,Speed,-1732.500000,1818.181818,Speed,Off,On,0.000000,FALSE,0,,,,,0.000000,0.000000,-0.050000
12:04:16.497 PM 04/28/2016,Teleop Enabled,10,FALSE,0,NO ERROR,-0.000000,0.243833,-0.000000,-0.012833,TRUE,FALSE,FALSE,FALSE,FALSE,FALSE,Disabled,0.000000,0.000000,0.000000,TRUE,0.028275,-0.036362,0.000000,0.048981,-0.042908,0.000000,-0.044000,0.079000,0.017000,1.240000,0.000000,0.550000,-0.153690,Hold,0.127930,0.000000,Hold,-184.000000,2.000000,Suck,-1762.500000,1818.181818,Speed,-1725.000000,1818.181818,Speed,Off,On,0.000000,FALSE,0,,,,,0.000000,0.000000,-0.050000
12:04:16.596 PM 04/28/2016,Teleop Enabled,10,FALSE,0,NO ERROR,-0.000000,0.243833,-0.000000,-0.012833,TRUE,FALSE,FALSE,FALSE,FALSE,FALSE,Disabled,0.000000,0.000000,0.000000,TRUE,0.029572,-0.038132,0.000000,0.011780,-0.042175,0.000000,-0.066000,-0.042000,0.057000,1.240000,0.000000,0.550000,-0.171257,Hold,0.127930,0.000000,Hold,-184.000000,2.000000,Suck,-1762.500000,1818.181818,Speed,-1740.000000,1818.181818,Speed,Off,On,0.000000,FALSE,0,,,,,0.000000,0.000000,-0.050000
12:04:16.696 PM 04/28/2016,Teleop Enabled,10,FALSE,0,NO ERROR,-0.000000,0.243833,-0.000000,-0.012833,TRUE,FALSE,FALSE,FALSE,FALSE,FALSE,Disabled,0.000000,0.000000,0.000000,TRUE,0.027374,-0.039597,0.000000,-0.064697,-0.023483,0.000000,-0.024000,0.049000,0.013000,1.300000,0.010000,0.140000,-0.178769,Hold,0.127930,0.000000,Hold,-184.000000,2.000000,Suck,-1770.000000,1818.181818,Speed,-1740.000000,1818.181818,Speed,Off,On,0.000000,FALSE,0,,,,,0.000000,0.000000,-0.050000
12:04:16.796 PM 04/28/2016,Teleop Enabled,10,FALSE,0,NO ERROR,-0.000000,0.243833,-0.000000,-0.012833,TRUE,FALSE,FALSE,FALSE,FALSE,FALSE,Disabled,0.000000,0.000000,0.000000,TRUE,0.024414,-0.040451,0.000000,-0.081451,-0.016846,0.000000,-0.018000,0.042000,0.010000,1.350000,0.020000,0.010000,-0.189410,Hold,0.127930,0.000000,Hold,-184.000000,2.000000,Suck,-1770.000000,1818.181818,Speed,-1740.000000,1818.181818,Speed,Off,On,0.000000,FALSE,0,,,,,0.000000,0.000000,-0.050000
12:04:16.896 PM 04/28/2016,Teleop Enabled,11,FALSE,0,NO ERROR,-0.000000,0.243833,-0.000000,-0.012833,TRUE,FALSE,FALSE,FALSE,FALSE,FALSE,Disabled,0.000000,0.000000,0.000000,TRUE,0.023529,-0.040970,0.000000,0.011963,-0.009949,0.000000,0.068000,0.000000,-0.003000,1.390000,0.020000,-0.030000,-0.185155,Hold,0.127930,0.000000,Hold,-184.000000,2.000000,Suck,-1762.500000,1818.181818,Speed,-1740.000000,1818.181818,Speed,Off,On,0.000000,FALSE,0,,,,,0.000000,0.000000,-0.050000
12:04:16.996 PM 04/28/2016,Teleop Enabled,10,FALSE,0,NO ERROR,-0.000000,0.243833,-0.000000,-0.012833,TRUE,FALSE,FALSE,FALSE,FALSE,FALSE,Disabled,0.000000,0.000000,0.000000,TRUE,0.023560,-0.040909,0.000000,-0.014999,-0.001266,0.000000,0.068000,0.000000,-0.003000,1.450000,0.020000,-0.140000,-0.200123,Hold,0.127930,0.000000,Hold,-184.000000,2.000000,Suck,-1762.500000,1818.181818,Speed,-1732.500000,1818.181818,Speed,Off,On,0.000000,FALSE,0,,,,,0.000000,0.000000,-0.050000
12:04:17.096 PM 04/28/2016,Teleop Enabled,9,FALSE,0,NO ERROR,-0.000000,0.243833,-0.000000,-0.012833,TRUE,FALSE,FALSE,FALSE,FALSE,FALSE,Disabled,0.000000,0.000000,0.000000,TRUE,0.022812,-0.040405,0.000000,-0.021469,0.017365,0.000000,-0.035000,0.027000,0.000000,1.480000,0.020000,-0.130000,-0.218499,Hold,0.127930,0.000000,Hold,-184.000000,2.000000,Suck,-1762.500000,1818.181818,Speed,-1732.500000,1818.181818,Speed,Off,On,0.000000,FALSE,0,,,,,0.000000,0.000000,-0.050000
12:04:17.196 PM 04/28/2016,Teleop Enabled,10,FALSE,0,NO ERROR,-0.000000,0.243833,-0.000000,-0.012833,TRUE,FALSE,FALSE,FALSE,FALSE,FALSE,Disabled,0.000000,0.000000,0.000000,TRUE,0.021347,-0.039429,0.000000,-0.020004,0.021347,0.000000,0.016000,-0.029000,-0.063000,1.500000,0.020000,-0.120000,-0.228558,Hold,0.127930,0.000000,Hold,-184.000000,2.000000,Suck,-1770.000000,1818.181818,Speed,-1740.000000,1818.181818,Speed,Off,On,0.000000,FALSE,0,,,,,0.000000,0.000000,-0.050000
12:04:17.296 PM 04/28/2016,Teleop Enabled,9,FALSE,0,NO ERROR,-0.000000,0.243833,-0.000000,-0.012833,TRUE,FALSE,FALSE,FALSE,FALSE,FALSE,Disabled,0.000000,0.000000,0.000000,TRUE,0.021683,-0.038330,0.000000,0.022339,0.020523,0.000000,0.046000,-0.041000,-0.054000,1.510000,0.010000,0.070000,-0.239044,Hold,0.127930,0.000000,Hold,-184.000000,2.000000,Suck,-1762.500000,1818.181818,Speed,-1732.500000,1818.181818,Speed,Off,On,0.000000,FALSE,0,,,,,0.000000,0.000000,-0.050000
12:04:17.397 PM 04/28/2016,Teleop Enabled,10,FALSE,0,NO ERROR,-0.000000,0.243833,-0.000000,-0.012833,TRUE,FALSE,FALSE,FALSE,FALSE,FALSE,Disabled,0.000000,0.000000,0.000000,TRUE,0.023026,-0.037537,0.000000,0.015976,0.023621,0.000000,-0.029000,-0.026000,-0.050000,1.450000,0.010000,0.090000,-0.252350,Hold,0.127930,0.000000,Hold,-184.000000,2.000000,Suck,-1762.500000,1818.181818,Speed,-1740.000000,1818.181818,Speed,Off,On,0.000000,FALSE,0,,,,,0.000000,0.000000,-0.050000
12:04:17.497 PM 04/28/2016,Teleop Enabled,10,FALSE,0,NO ERROR,-0.000000,0.243833,-0.000000,-0.012833,TRUE,FALSE,FALSE,FALSE,FALSE,FALSE,Disabled,0.000000,0.000000,0.000000,TRUE,0.023590,-0.037140,0.000000,0.022797,0.004593,0.000000,-0.087000,0.046000,0.047000,1.400000,0.010000,0.120000,-0.263215,Hold,0.127930,0.000000,Hold,-184.000000,2.000000,Suck,-1770.000000,1818.181818,Speed,-1740.000000,1818.181818,Speed,Off,On,0.000000,FALSE,0,,,,,0.000000,0.000000,-0.050000
12:04:17.598 PM 04/28/2016,Teleop Enabled,10,FALSE,0,NO ERROR,-0.000000,0.243833,-0.000000,-0.012833,TRUE,FALSE,FALSE,FALSE,FALSE,FALSE,Disabled,0.000000,0.000000,0.000000,TRUE,0.023453,-0.036407,0.000000,-0.017868,0.018509,0.000000,0.015000,0.022000,0.042000,1.430000,0.010000,0.000000,-0.270795,Hold,0.127930,0.000000,Hold,-184.000000,2.000000,Suck,-1762.500000,1818.181818,Speed,-1747.500000,1818.181818,Speed,Off,On,0.000000,FALSE,0,,,,,0.000000,0.000000,-0.050000
12:04:17.698 PM 04/28/2016,Teleop Enabled,10,FALSE,0,NO ERROR,-0.000000,0.243833,-0.000000,-0.012833,TRUE,FALSE,FALSE,FALSE,FALSE,FALSE,Disabled,0.000000,0.000000,0.000000,TRUE,0.021713,-0.034866,0.000000,-0.043350,0.033356,0.000000,0.015000,0.022000,0.042000,1.430000,0.010000,0.000000,-0.274358,Hold,0.127930,0.000000,Hold,-184.000000,2.000000,Suck,-1770.000000,1818.181818,Speed,-1740.000000,1818.181818,Speed,Off,On,0.000000,FALSE,0,,,,,0.000000,0.000000,-0.050000
12:04:17.799 PM 04/28/2016,Teleop Enabled,10,FALSE,0,NO ERROR,-0.000000,0.243833,-0.000000,-0.012833,TRUE,FALSE,FALSE,FALSE,FALSE,FALSE,Disabled,0.000000,0.000000,0.000000,TRUE,0.019424,-0.033401,0.000000,-0.034607,0.035049,0.000000,0.007000,-0.013000,-0.004000,1.500000,0.010000,-0.160000,-0.274083,Hold,0.127930,0.000000,Hold,-184.000000,2.000000,Suck,-1770.000000,1818.181818,Speed,-1747.500000,1818.181818,Speed,Off,On,0.000000,FALSE,0,,,,,0.000000,0.000000,-0.050000
12:04:17.900 PM 04/28/2016,Teleop Enabled,11,FALSE,0,NO ERROR,-0.000000,0.243833,-0.000000,-0.012833,TRUE,FALSE,FALSE,FALSE,FALSE,FALSE,Disabled,0.000000,0.000000,0.000000,TRUE,0.018799,-0.033356,0.000000,0.002396,0.002533,0.000000,-0.043000,-0.007000,0.020000,1.490000,0.000000,-0.130000,-0.275432,Hold,0.127930,0.000000,Hold,-184.000000,2.000000,Suck,-1770.000000,1818.181818,Speed,-1747.500000,1818.181818,Speed,Off,On,0.000000,FALSE,0,,,,,0.000000,0.000000,-0.050000
12:04:18.000 PM 04/28/2016,Teleop Enabled,11,FALSE,0,NO ERROR,-0.000000,0.243833,-0.000000,-0.012833,TRUE,FALSE,FALSE,FALSE,FALSE,FALSE,Disabled,0.000000,0.000000,0.000000,TRUE,0.019455,-0.033691,0.000000,0.015991,0.000000,0.000000,0.021000,-0.054000,0.010000,1.500000,0.000000,0.020000,-0.288018,Hold,0.127930,0.000000,Hold,-184.000000,2.000000,Suck,-1770.000000,1818.181818,Speed,-1740.000000,1818.181818,Speed,Off,On,0.000000,FALSE,0,,,,,0.000000,0.000000,-0.050000
12:04:18.100 PM 04/28/2016,Teleop Enabled,10,FALSE,0,NO ERROR,-0.000000,0.243833,-0.000000,-0.012833,TRUE,FALSE,FALSE,FALSE,FALSE,FALSE,Disabled,0.000000,0.000000,0.000000,TRUE,0.020142,-0.034454,0.000000,0.017960,-0.017960,0.000000,0.017000,-0.062000,-0.061000,1.490000,0.010000,0.090000,-0.273907,Hold,0.127930,0.000000,Hold,-184.000000,2.000000,Suck,-1762.500000,1818.181818,Speed,-1732.500000,1818.181818,Speed,Off,On,0.000000,FALSE,0,,,,,0.000000,0.000000,-0.050000
12:04:18.200 PM 04/28/2016,Teleop Enabled,10,FALSE,0,NO ERROR,-0.000000,0.243833,-0.000000,-0.012833,TRUE,FALSE,FALSE,FALSE,FALSE,FALSE,Disabled,0.000000,0.000000,0.000000,TRUE,0.022385,-0.035934,0.000000,0.052811,-0.036850,0.000000,0.063000,-0.061000,-0.010000,1.430000,0.010000,0.190000,-0.274589,Hold,0.127930,0.000000,Hold,-184.000000,2.000000,Suck,-1762.500000,1818.181818,Speed,-1740.000000,1818.181818,Speed,Off,On,0.000000,FALSE,0,,,,,0.000000,0.000000,-0.050000
12:04:18.300 PM 04/28/2016,Teleop Enabled,10,FALSE,0,NO ERROR,-0.000000,0.243833,-0.000000,-0.012833,TRUE,FALSE,FALSE,FALSE,FALSE,FALSE,Disabled,0.000000,0.000000,0.000000,TRUE,0.024231,-0.037949,0.000000,0.022675,-0.034790,0.000000,-0.031000,-0.021000,-0.046000,1.400000,0.000000,0.200000,-0.274651,Hold,0.127930,0.000000,Hold,-184.000000,2.000000,Suck,-1770.000000,1818.181818,Speed,-1755.000000,1818.181818,Speed,Off,On,0.000000,FALSE,0,,,,,0.000000,0.000000,-0.050000
12:04:18.402 PM 04/28/2016,Teleop Enabled,10,FALSE,0,NO ERROR,-0.000000,0.243833,-0.000000,-0.012833,TRUE,FALSE,FALSE,FALSE,FALSE,FALSE,Disabled,0.000000,0.000000,0.000000,TRUE,0.024231,-0.037949,0.000000,0.022675,-0.034790,0.000000,-0.059000,0.009000,0.058000,1.400000,0.000000,0.200000,-0.272978,Hold,0.127930,0.000000,Hold,-184.000000,2.000000,Suck,-1770.000000,1818.181818,Speed,-1740.000000,1818.181818,Speed,Off,On,0.000000,FALSE,0,,,,,0.000000,0.000000,-0.050000
12:04:18.503 PM 04/28/2016,Teleop Enabled,11,FALSE,0,NO ERROR,-0.000000,0.243833,-0.000000,-0.012833,TRUE,FALSE,FALSE,FALSE,FALSE,FALSE,Disabled,0.000000,0.000000,0.000000,TRUE,0.023300,-0.041733,0.000000,-0.027313,-0.051254,0.000000,0.015000,0.070000,0.051000,1.420000,0.010000,0.030000,-0.287409,Hold,0.127930,0.000000,Hold,-184.000000,2.000000,Suck,-1762.500000,1818.181818,Speed,-1747.500000,1818.181818,Speed,Off,On,0.000000,FALSE,0,,,,,0.000000,0.000000,-0.050000
12:04:18.603 PM 04/28/2016,Teleop Enabled,11,FALSE,0,NO ERROR,-0.000000,0.243833,-0.000000,-0.012833,TRUE,FALSE,FALSE,FALSE,FALSE,FALSE,Disabled,0.000000,0.000000,0.000000,TRUE,0.023300,-0.041733,0.000000,-0.027313,-0.051254,0.000000,0.009000,0.009000,0.077000,1.410000,0.010000,0.000000,-0.285791,Hold,0.127930,0.000000,Hold,-184.000000,2.000000,Suck,-1770.000000,1818.181818,Speed,-1740.000000,1818.181818,Speed,Off,On,0.000000,FALSE,0,,,,,0.000000,0.000000,-0.050000
12:04:18.705 PM 04/28/2016,Teleop Enabled,10,FALSE,0,NO ERROR,-0.000000,0.243833,-0.000000,-0.012833,TRUE,FALSE,FALSE,FALSE,FALSE,FALSE,Disabled,0.000000,0.000000,0.000000,TRUE,0.022690,-0.046860,0.000000,0.005066,-0.055542,0.000000,0.014000,-0.037000,0.010000,1.440000,0.010000,0.060000,-0.303575,Hold,0.127930,0.000000,Hold,-184.000000,2.000000,Suck,-1770.000000,1818.181818,Speed,-1747.500000,1818.181818,Speed,Off,On,0.000000,FALSE,0,,,,,0.000000,0.000000,-0.050000
12:04:18.804 PM 04/28/2016,Teleop Enabled,11,FALSE,0,NO ERROR,-0.000000,0.243833,-0.000000,-0.012833,TRUE,FALSE,FALSE,FALSE,FALSE,FALSE,Disabled,0.000000,0.000000,0.000000,TRUE,0.022690,-0.046860,0.000000,0.005066,-0.055542,0.000000,-0.051000,-0.042000,0.049000,1.420000,0.000000,0.100000,-0.303575,Hold,0.127930,0.000000,Hold,-184.000000,2.000000,Suck,-1770.000000,1818.181818,Speed,-1755.000000,1818.181818,Speed,Off,On,0.000000,FALSE,0,,,,,0.000000,0.000000,-0.050000
12:04:18.904 PM 04/28/2016,Teleop Enabled,10,FALSE,0,NO ERROR,-0.000000,0.243833,-0.000000,-0.012833,TRUE,FALSE,FALSE,FALSE,FALSE,FALSE,Disabled,0.000000,0.000000,0.000000,TRUE,0.022461,-0.050217,0.000000,-0.003159,-0.068192,0.000000,0.000000,0.049000,0.072000,1.360000,0.000000,0.070000,-0.321146,Hold,0.127930,0.000000,Hold,-184.000000,2.000000,Suck,-1770.000000,1818.181818,Speed,-1747.500000,1818.181818,Speed,Off,On,0.000000,FALSE,0,,,,,0.000000,0.000000,-0.050000
12:04:19.005 PM 04/28/2016,Teleop Enabled,10,FALSE,0,NO ERROR,-0.000000,0.243833,-0.000000,-0.012833,TRUE,FALSE,FALSE,FALSE,FALSE,FALSE,Disabled,0.000000,0.000000,0.000000,TRUE,0.022324,-0.053436,0.000000,-0.004837,-0.052475,0.000000,-0.012000,-0.022000,0.061000,1.390000,0.000000,0.040000,-0.325391,Hold,0.127930,0.000000,Hold,-184.000000,2.000000,Suck,-1770.000000,1818.181818,Speed,-1747.500000,1818.181818,Speed,Off,On,0.000000,FALSE,0,,,,,0.000000,0.000000,-0.050000
12:04:19.105 PM 04/28/2016,Teleop Enabled,10,FALSE,0,NO ERROR,-0.000000,0.243833,-0.000000,-0.012833,TRUE,FALSE,FALSE,FALSE,FALSE,FALSE,Disabled,0.000000,0.000000,0.000000,TRUE,0.021347,-0.055923,0.000000,-0.037430,-0.053894,0.000000,0.074000,-0.074000,0.049000,1.430000,0.000000,-0.060000,-0.331326,Hold,0.127930,0.000000,Hold,-184.000000,2.000000,Suck,-1770.000000,1818.181818,Speed,-1747.500000,1818.181818,Speed,Off,On,0.000000,FALSE,0,,,,,0.000000,0.000000,-0.050000
12:04:19.204 PM 04/28/2016,Teleop Enabled,10,FALSE,0,NO ERROR,-0.000000,0.243833,-0.000000,-0.012833,TRUE,FALSE,FALSE,FALSE,FALSE,FALSE,Disabled,0.000000,0.000000,0.000000,TRUE,0.020737,-0.058563,0.000000,0.002823,-0.052032,0.000000,0.056000,0.039000,-0.042000,1.400000,0.000000,0.050000,-0.327979,Hold,0.127930,0.000000,Hold,-184.000000,2.000000,Suck,-1770.000000,1818.181818,Speed,-1747.500000,1818.181818,Speed,Off,On,0.000000,FALSE,0,,,,,0.000000,0.000000,-0.050000
12:04:19.304 PM 04/28/2016,Teleop Enabled,10,FALSE,0,NO ERROR,-0.000000,0.243833,-0.000000,-0.012833,TRUE,FALSE,FALSE,FALSE,FALSE,FALSE,Disabled,0.000000,0.000000,0.000000,TRUE,0.021759,-0.061478,0.000000,0.035217,-0.066406,0.000000,0.022000,-0.025000,0.007000,1.380000,0.000000,0.200000,-0.338493,Hold,0.127930,0.000000,Hold,-184.000000,2.000000,Suck,-1770.000000,1818.181818,Speed,-1755.000000,1818.181818,Speed,Off,On,0.000000,FALSE,0,,,,,0.000000,0.000000,-0.050000
12:04:19.404 PM 04/28/2016,Teleop Enabled,11,FALSE,0,NO ERROR,-0.000000,0.243833,-0.000000,-0.012833,TRUE,FALSE,FALSE,FALSE,FALSE,FALSE,Disabled,0.000000,0.000000,0.000000,TRUE,0.022507,-0.062744,0.000000,0.000076,-0.005692,0.000000,-0.061000,0.037000,-0.044000,1.350000,0.000000,0.070000,-0.352766,Hold,0.127930,0.000000,Hold,-184.000000,2.000000,Suck,-1770.000000,1818.181818,Speed,-1755.000000,1818.181818,Speed,Off,On,0.000000,FALSE,0,,,,,0.000000,0.000000,-0.050000
12:04:19.505 PM 04/28/2016,Teleop Enabled,10,FALSE,0,NO ERROR,-0.000000,0.243833,-0.000000,-0.012833,TRUE,FALSE,FALSE,FALSE,FALSE,FALSE,Disabled,0.000000,0.000000,0.000000,TRUE,0.021454,-0.062607,0.000000,0.000000,0.000000,0.000000,-0.002000,0.007000,-0.030000,1.400000,0.000000,0.000000,-0.365338,Hold,0.127930,0.000000,Hold,-184.000000,2.000000,Suck,-1777.500000,1818.181818,Speed,-1747.500000,1818.181818,Speed,Off,On,0.000000,FALSE,0,,,,,0.000000,0.000000,-0.050000
12:04:19.605 PM 04/28/2016,Teleop Enabled,10,FALSE,0,NO ERROR,-0.000000,0.243833,-0.000000,-0.012833,TRUE,FALSE,FALSE,FALSE,FALSE,FALSE,Disabled,0.000000,0.000000,0.000000,TRUE,0.020889,-0.062286,0.000000,-0.024826,0.010635,0.000000,-0.006000,-0.036000,-0.039000,1.440000,0.000000,-0.080000,-0.371266,Hold,0.127930,0.000000,Hold,-184.000000,2.000000,Suck,-1770.000000,1818.181818,Speed,-1747.500000,1818.181818,Speed,Off,On,0.000000,FALSE,0,,,,,0.000000,0.000000,-0.050000
12:04:19.706 PM 04/28/2016,Teleop Enabled,10,FALSE,0,NO ERROR,-0.000000,0.243833,-0.000000,-0.012833,TRUE,FALSE,FALSE,FALSE,FALSE,FALSE,Disabled,0.000000,0.000000,0.000000,TRUE,0.020279,-0.062225,0.000000,0.008530,-0.000656,0.000000,0.007000,0.010000,-0.028000,1.390000,0.000000,0.030000,-0.380678,Hold,0.127930,0.000000,Hold,-184.000000,2.000000,Suck,-1770.000000,1818.181818,Speed,-1747.500000,1818.181818,Speed,Off,On,0.000000,FALSE,0,,,,,0.000000,0.000000,-0.050000
12:04:19.806 PM 04/28/2016,Teleop Enabled,10,FALSE,0,NO ERROR,-0.000000,0.243833,-0.000000,-0.012833,TRUE,FALSE,FALSE,FALSE,FALSE,FALSE,Disabled,0.000000,0.000000,0.000000,TRUE,0.022095,-0.062347,0.000000,0.047287,-0.011429,0.000000,0.001000,-0.022000,-0.017000,1.390000,0.000000,0.140000,-0.391970,Hold,0.127930,0.000000,Hold,-184.000000,2.000000,Suck,-1777.500000,1818.181818,Speed,-1755.000000,1818.181818,Speed,Off,On,0.000000,FALSE,0,,,,,0.000000,0.000000,-0.050000
12:04:19.907 PM 04/28/2016,Teleop Enabled,11,FALSE,0,NO ERROR,-0.000000,0.243833,-0.000000,-0.012833,TRUE,FALSE,FALSE,FALSE,FALSE,FALSE,Disabled,0.000000,0.000000,0.000000,TRUE,0.021423,-0.062729,0.000000,-0.021011,-0.004211,0.000000,-0.048000,-0.044000,-0.045000,1.350000,0.000000,0.070000,-0.401468,Hold,0.127930,0.000000,Hold,-184.000000,2.000000,Suck,-1770.000000,1818.181818,Speed,-1747.500000,1818.181818,Speed,Off,On,0.000000,FALSE,0,,,,,0.000000,0.000000,-0.050000
12:04:20.007 PM 04/28/2016,Teleop Enabled,7,FALSE,0,NO ERROR,-0.000000,0.243833,-0.000000,-0.012833,TRUE,FALSE,FALSE,FALSE,FALSE,FALSE,Disabled,0.000000,0.000000,0.000000,TRUE,0.019440,-0.063354,0.000000,-0.043915,-0.014160,0.000000,0.026000,0.046000,0.000000,1.350000,0.000000,0.040000,-0.401771,Hold,0.127930,0.000000,Hold,-184.000000,2.000000,Suck,-1777.500000,1818.181818,Speed,-1755.000000,1818.181818,Speed,Off,On,0.000000,FALSE,0,,,,,0.000000,0.000000,-0.050000
12:04:20.107 PM 04/28/2016,Teleop Enabled,10,FALSE,0,NO ERROR,-0.000000,0.243833,-0.000000,-0.012833,TRUE,FALSE,FALSE,FALSE,FALSE,FALSE,Disabled,0.000000,0.000000,0.000000,TRUE,0.018524,-0.063690,0.000000,-0.007370,-0.000977,0.000000,0.015000,0.024000,-0.057000,1.360000,0.000000,0.140000,-0.400425,Hold,0.127930,0.000000,Hold,-184.000000,2.000000,Suck,-1777.500000,1818.181818,Speed,-1755.000000,1818.181818,Speed,Off,On,0.000000,FALSE,0,,,,,0.000000,0.000000,-0.050000
12:04:20.207 PM 04/28/2016,Teleop Enabled,11,FALSE,0,NO ERROR,-0.000000,0.243833,-0.000000,-0.012833,TRUE,FALSE,FALSE,FALSE,FALSE,FALSE,Disabled,0.000000,0.000000,0.000000,TRUE,0.018692,-0.064026,0.000000,0.019257,-0.019119,0.000000,-0.024000,0.038000,0.023000,1.330000,0.000000,0.150000,-0.404504,Hold,0.127930,0.000000,Hold,-184.000000,2.000000,Suck,-1770.000000,1818.181818,Speed,-1755.000000,1818.181818,Speed,Off,On,0.000000,FALSE,0,,,,,0.000000,0.000000,-0.050000
12:04:20.307 PM 04/28/2016,Teleop Enabled,10,FALSE,0,NO ERROR,-0.000000,0.243833,-0.000000,-0.012833,TRUE,FALSE,FALSE,FALSE,FALSE,FALSE,Disabled,0.000000,0.000000,0.000000,TRUE,0.019669,-0.064529,0.000000,0.009064,-0.007446,0.000000,0.001000,0.005000,-0.055000,1.310000,0.000000,0.120000,-0.410136,Hold,0.127930,0.000000,Hold,-184.000000,2.000000,Suck,-1777.500000,1818.181818,Speed,-1755.000000,1818.181818,Speed,Off,On,0.000000,FALSE,0,,,,,0.000000,0.000000,-0.050000
12:04:20.407 PM 04/28/2016,Teleop Enabled,10,FALSE,0,NO ERROR,-0.000000,0.243833,-0.000000,-0.012833,TRUE,FALSE,FALSE,FALSE,FALSE,FALSE,Disabled,0.000000,0.000000,0.000000,TRUE,0.019073,-0.065201,0.000000,-0.034607,-0.009384,0.000000,-0.057000,0.044000,0.028000,1.350000,0.000000,-0.090000,-0.432444,Hold,0.127930,0.000000,Hold,-184.000000,2.000000,Suck,-1777.500000,1818.181818,Speed,-1755.000000,1818.181818,Speed,Off,On,0.000000,FALSE,0,,,,,0.000000,0.000000,-0.050000
12:04:20.508 PM 04/28/2016,Teleop Enabled,9,FALSE,0,NO ERROR,-0.000000,0.243833,-0.000000,-0.012833,TRUE,FALSE,FALSE,FALSE,FALSE,FALSE,Disabled,0.000000,0.000000,0.000000,TRUE,0.016525,-0.065353,0.000000,-0.030243,-0.003723,0.000000,-0.001000,0.027000,0.008000,1.370000,0.000000,0.000000,-0.447068,Hold,0.127930,0.000000,Hold,-184.000000,2.000000,Suck,-1777.500000,1818.181818,Speed,-1755.000000,1818.181818,Speed,Off,On,0.000000,FALSE,0,,,,,0.000000,0.000000,-0.050000
12:04:20.608 PM 04/28/2016,Teleop Enabled,11,FALSE,0,NO ERROR,-0.000000,0.243833,-0.000000,-0.012833,TRUE,FALSE,FALSE,FALSE,FALSE,FALSE,Disabled,0.000000,0.000000,0.000000,TRUE,0.016022,-0.065536,0.000000,-0.009415,-0.005524,0.000000,0.033000,-0.015000,0.030000,1.350000,0.000000,-0.020000,-0.450734,Hold,0.127930,0.000000,Hold,-184.000000,2.000000,Suck,-1777.500000,1818.181818,Speed,-1762.500000,1818.181818,Speed,Off,On,0.000000,FALSE,0,,,,,0.000000,0.000000,-0.050000
12:04:20.708 PM 04/28/2016,Teleop Enabled,10,FALSE,0,NO ERROR,-0.000000,0.243833,-0.000000,-0.012833,TRUE,FALSE,FALSE,FALSE,FALSE,FALSE,Disabled,0.000000,0.000000,0.000000,TRUE,0.015060,-0.066330,0.000000,0.000000,-0.017700,0.000000,0.038000,-0.016000,-0.031000,1.380000,-0.010000,-0.110000,-0.436299,Hold,0.127930,0.000000,Hold,-184.000000,2.000000,Suck,-1777.500000,1818.181818,Speed,-1762.500000,1818.181818,Speed,Off,On,0.000000,FALSE,0,,,,,0.000000,0.000000,-0.050000
12:04:20.808 PM 04/28/2016,Teleop Enabled,10,FALSE,0,NO ERROR,-0.000000,0.243833,-0.000000,-0.012833,TRUE,FALSE,FALSE,FALSE,FALSE,FALSE,Disabled,0.000000,0.000000,0.000000,TRUE,0.015488,-0.066925,0.000000,0.029510,0.000000,0.000000,0.065000,0.012000,0.040000,1.340000,-0.010000,0.080000,-0.430426,Hold,0.127930,0.000000,Hold,-184.000000,2.000000,Suck,-1770.000000,1818.181818,Speed,-1770.000000,1818.181818,Speed,Off,On,0.000000,FALSE,0,,,,,0.000000,0.000000,-0.050000
12:04:20.909 PM 04/28/2016,Teleop Enabled,10,FALSE,0,NO ERROR,-0.000000,0.243833,-0.000000,-0.012833,TRUE,FALSE,FALSE,FALSE,FALSE,FALSE,Disabled,0.000000,0.000000,0.000000,TRUE,0.017639,-0.067169,0.000000,0.018539,-0.005234,0.000000,-0.018000,0.086000,0.062000,1.340000,-0.010000,0.000000,-0.444992,Hold,0.127930,0.000000,Hold,-184.000000,2.000000,Suck,-1770.000000,1818.181818,Speed,-1762.500000,1818.181818,Speed,Off,On,0.000000,FALSE,0,,,,,0.000000,0.000000,-0.050000
12:04:21.009 PM 04/28/2016,Teleop Enabled,11,FALSE,0,NO ERROR,-0.000000,0.243833,-0.000000,-0.012833,TRUE,FALSE,FALSE,FALSE,FALSE,FALSE,Disabled,0.000000,0.000000,0.000000,TRUE,0.018219,-0.066940,0.000000,0.021439,0.010605,0.000000,-0.009000,-0.015000,-0.003000,1.370000,-0.010000,0.000000,-0.447354,Hold,0.127930,0.000000,Hold,-184.000000,2.000000,Suck,-1777.500000,1818.181818,Speed,-1770.000000,1818.181818,Speed,Off,On,0.000000,FALSE,0,,,,,0.000000,0.000000,-0.050000
12:04:21.109 PM 04/28/2016,Teleop Enabled,6,FALSE,0,NO ERROR,-0.000000,0.243833,-0.000000,-0.012833,TRUE,FALSE,FALSE,FALSE,FALSE,FALSE,Disabled,0.000000,0.000000,0.000000,TRUE,0.019012,-0.067108,0.000000,0.022675,-0.017929,0.000000,0.038000,-0.037000,0.055000,1.340000,-0.010000,0.080000,-0.446689,Hold,0.127930,0.000000,Hold,-184.000000,2.000000,Suck,-1777.500000,1818.181818,Speed,-1762.500000,1818.181818,Speed,Off,On,0.000000,FALSE,0,,,,,0.000000,0.000000,-0.050000
12:04:21.209 PM 04/28/2016,Teleop Enabled,10,FALSE,0,NO ERROR,-0.000000,0.243833,-0.000000,-0.012833,TRUE,FALSE,FALSE,FALSE,FALSE,FALSE,Disabled,0.000000,0.000000,0.000000,TRUE,0.019516,-0.068253,0.000000,0.000946,-0.027222,0.000000,-0.001000,-0.018000,-0.027000,1.330000,-0.010000,-0.040000,-0.455757,Hold,0.127930,0.000000,Hold,-184.000000,2.000000,Suck,-1770.000000,1818.181818,Speed,-1762.500000,1818.181818,Speed,Off,On,0.000000,FALSE,0,,,,,0.000000,0.000000,-0.050000
12:04:21.309 PM 04/28/2016,Teleop Enabled,9,FALSE,0,NO ERROR,-0.000000,0.243833,-0.000000,-0.012833,TRUE,FALSE,FALSE,FALSE,FALSE,FALSE,Disabled,0.000000,0.000000,0.000000,TRUE,0.019608,-0.068283,0.000000,0.013412,0.000000,0.000000,0.016000,0.049000,-0.006000,1.360000,-0.010000,0.000000,-0.465551,Hold,0.127930,0.000000,Hold,-184.000000,2.000000,Suck,-1777.500000,1818.181818,Speed,-1770.000000,1818.181818,Speed,Off,On,0.000000,FALSE,0,,,,,0.000000,0.000000,-0.050000
12:04:21.409 PM 04/28/2016,Teleop Enabled,2,FALSE,0,NO ERROR,-0.000000,0.243833,-0.000000,-0.012833,TRUE,FALSE,FALSE,FALSE,FALSE,FALSE,Disabled,0.000000,0.000000,0.000000,TRUE,0.019882,-0.068130,0.000000,0.000565,-0.010651,0.000000,-0.003000,-0.007000,-0.050000,1.340000,-0.010000,0.070000,-0.468054,Hold,0.127930,0.000000,Hold,-184.000000,2.000000,Suck,-1777.500000,1818.181818,Speed,-1755.000000,1818.181818,Speed,Off,On,0.000000,FALSE,0,,,,,0.000000,0.000000,-0.050000
12:04:21.510 PM 04/28/2016,Teleop Enabled,10,FALSE,0,NO ERROR,-0.000000,0.243833,-0.000000,-0.012833,TRUE,FALSE,FALSE,FALSE,FALSE,FALSE,Disabled,0.000000,0.000000,0.000000,TRUE,0.019928,-0.069199,0.000000,-0.000473,-0.018845,0.000000,0.036000,0.027000,-0.035000,1.290000,-0.020000,0.030000,-0.485566,Hold,0.127930,0.000000,Hold,-184.000000,2.000000,Suck,-1777.500000,1818.181818,Speed,-1755.000000,1818.181818,Speed,Off,On,0.000000,FALSE,0,,,,,0.000000,0.000000,-0.050000
12:04:21.610 PM 04/28/2016,Teleop Enabled,8,FALSE,0,NO ERROR,-0.000000,0.243833,-0.000000,-0.012833,TRUE,FALSE,FALSE,FALSE,FALSE,FALSE,Disabled,0.000000,0.000000,0.000000,TRUE,0.020142,-0.069489,0.000000,0.005432,-0.007080,0.000000,-0.047000,-0.040000,-0.027000,1.320000,-0.020000,0.130000,-0.477851,Hold,0.127930,0.000000,Hold,-184.000000,2.000000,Suck,-1777.500000,1818.181818,Speed,-1770.000000,1818.181818,Speed,Off,On,0.000000,FALSE,0,,,,,0.000000,0.000000,-0.050000
12:04:21.709 PM 04/28/2016,Teleop Enabled,6,FALSE,0,NO ERROR,-0.000000,0.243833,-0.000000,-0.012833,TRUE,FALSE,FALSE,FALSE,FALSE,FALSE,Disabled,0.000000,0.000000,0.000000,TRUE,0.020508,-0.070526,0.000000,0.013535,-0.021347,0.000000,-0.032000,0.050000,0.047000,1.280000,-0.020000,0.110000,-0.477414,Hold,0.127930,0.000000,Hold,-184.000000,2.000000,Suck,-1777.500000,1818.181818,Speed,-1770.000000,1818.181818,Speed,Off,On,0.000000,FALSE,0,,,,,0.000000,0.000000,-0.050000
12:04:21.810 PM 04/28/2016,Teleop Enabled,6,FALSE,0,NO ERROR,-0.000000,0.243833,-0.000000,-0.012833,TRUE,FALSE,FALSE,FALSE,FALSE,FALSE,Disabled,0.000000,0.000000,0.000000,TRUE,0.020599,-0.070999,0.000000,-0.001724,-0.004654,0.000000,0.052000,-0.044000,-0.021000,1.300000,-0.020000,0.110000,-0.480137,Hold,0.127930,0.000000,Hold,-184.000000,2.000000,Suck,-1777.500000,1818.181818,Speed,-1770.000000,1818.181818,Speed,Off,On,0.000000,FALSE,0,,,,,0.000000,0.000000,-0.050000
12:04:21.910 PM 04/28/2016,Teleop Enabled,11,FALSE,0,NO ERROR,-0.000000,0.243833,-0.000000,-0.012833,TRUE,FALSE,FALSE,FALSE,FALSE,FALSE,Disabled,0.000000,0.000000,0.000000,TRUE,0.021408,-0.071991,0.000000,0.028549,-0.023697,0.000000,-0.008000,-0.033000,0.044000,1.290000,-0.020000,0.140000,-0.475307,Hold,0.127930,0.000000,Hold,-184.000000,2.000000,Suck,-1777.500000,1818.181818,Speed,-1762.500000,1818.181818,Speed,Off,On,0.000000,FALSE,0,,,,,0.000000,0.000000,-0.050000
12:04:22.010 PM 04/28/2016,Teleop Enabled,13,FALSE,0,NO ERROR,-0.000000,0.243833,-0.000000,-0.012833,TRUE,FALSE,FALSE,FALSE,FALSE,FALSE,Disabled,0.000000,0.000000,0.000000,TRUE,0.022110,-0.072754,0.000000,-0.001022,0.000000,0.000000,0.072000,0.033000,0.008000,1.310000,-0.020000,0.090000,-0.488100,Hold,0.127930,0.000000,Hold,-184.000000,2.000000,Suck,-1777.500000,1818.181818,Speed,-1770.000000,1818.181818,Speed,Off,On,0.000000,FALSE,0,,,,,0.000000,0.000000,-0.050000
12:04:22.112 PM 04/28/2016,Teleop Enabled,10,FALSE,0,NO ERROR,-0.000000,0.243833,-0.000000,-0.012833,TRUE,FALSE,FALSE,FALSE,FALSE,FALSE,Disabled,0.000000,0.000000,0.000000,TRUE,0.022247,-0.072861,0.000000,0.012207,-0.007736,0.000000,0.072000,0.033000,0.008000,1.300000,-0.020000,0.090000,-0.494324,Hold,0.127930,0.000000,Hold,-184.000000,2.000000,Suck,-1777.500000,1818.181818,Speed,-1770.000000,1818.181818,Speed,Off,On,0.000000,FALSE,0,,,,,0.000000,0.000000,-0.050000
12:04:22.212 PM 04/28/2016,Teleop Enabled,9,FALSE,0,NO ERROR,-0.000000,0.243833,-0.000000,-0.012833,TRUE,FALSE,FALSE,FALSE,FALSE,FALSE,Disabled,0.000000,0.000000,0.000000,TRUE,0.023193,-0.073151,0.000000,0.010910,-0.001755,0.000000,0.033000,-0.007000,-0.025000,1.280000,-0.020000,0.120000,-0.504603,Hold,0.127930,0.000000,Hold,-184.000000,2.000000,Suck,-1777.500000,1818.181818,Speed,-1770.000000,1818.181818,Speed,Off,On,0.000000,FALSE,0,,,,,0.000000,0.000000,-0.050000
12:04:22.313 PM 04/28/2016,Teleop Enabled,17,FALSE,0,NO ERROR,-0.000000,0.243833,-0.000000,-0.012833,TRUE,FALSE,FALSE,FALSE,FALSE,FALSE,Disabled,0.000000,0.000000,0.000000,TRUE,0.023468,-0.073547,0.000000,0.000000,-0.013947,0.000000,0.013000,-0.051000,0.015000,1.310000,-0.020000,0.080000,-0.516256,Hold,0.127930,0.000000,Hold,-184.000000,2.000000,Suck,-1777.500000,1818.181818,Speed,-1770.000000,1818.181818,Speed,Off,On,0.000000,FALSE,0,,,,,0.000000,0.000000,-0.050000
12:04:22.413 PM 04/28/2016,Teleop Enabled,7,FALSE,0,NO ERROR,-0.000000,0.243833,-0.000000,-0.012833,TRUE,FALSE,FALSE,FALSE,FALSE,FALSE,Disabled,0.000000,0.000000,0.000000,TRUE,0.023361,-0.074295,0.000000,0.004303,-0.017715,0.000000,0.013000,-0.051000,0.015000,1.260000,-0.020000,0.180000,-0.522697,Hold,0.127930,0.000000,Hold,-184.000000,2.000000,Suck,-1777.500000,1818.181818,Speed,-1770.000000,1818.181818,Speed,Off,On,0.000000,FALSE,0,,,,,0.000000,0.000000,-0.050000
12:04:22.514 PM 04/28/2016,Teleop Enabled,9,FALSE,0,NO ERROR,-0.000000,0.243833,-0.000000,-0.012833,TRUE,FALSE,FALSE,FALSE,FALSE,FALSE,Disabled,0.000000,0.000000,0.000000,TRUE,0.023880,-0.075378,0.000000,0.015244,-0.028976,0.000000,-0.127000,0.050000,-0.054000,1.280000,-0.020000,0.190000,-0.520215,Hold,0.127930,0.000000,Hold,-184.000000,2.000000,Suck,-1777.500000,1818.181818,Speed,-1762.500000,1818.181818,Speed,Off,On,0.000000,FALSE,0,,,,,0.000000,0.000000,-0.050000
12:04:22.615 PM 04/28/2016,Teleop Enabled,3,FALSE,0,NO ERROR,-0.000000,0.243833,-0.000000,-0.012833,TRUE,FALSE,FALSE,FALSE,FALSE,FALSE,Disabled,0.000000,0.000000,0.000000,TRUE,0.023682,-0.076675,0.000000,-0.000854,-0.030594,0.000000,0.047000,-0.027000,-0.004000,1.250000,-0.030000,0.220000,-0.508369,Hold,0.127930,0.000000,Hold,-184.000000,2.000000,Suck,-1785.000000,1818.181818,Speed,-1770.000000,1818.181818,Speed,Off,On,0.000000,FALSE,0,,,,,0.000000,0.000000,-0.050000
12:04:22.716 PM 04/28/2016,Teleop Enabled,12,FALSE,0,NO ERROR,-0.000000,0.243833,-0.000000,-0.012833,TRUE,FALSE,FALSE,FALSE,FALSE,FALSE,Disabled,0.000000,0.000000,0.000000,TRUE,0.023682,-0.078781,0.000000,-0.002792,-0.034012,0.000000,0.047000,-0.027000,-0.004000,1.260000,-0.030000,0.170000,-0.517902,Hold,0.127930,0.000000,Hold,-184.000000,2.000000,Suck,-1777.500000,1818.181818,Speed,-1762.500000,1818.181818,Speed,Off,On,0.000000,FALSE,0,,,,,0.000000,0.000000,-0.050000
12:04:22.816 PM 04/28/2016,Teleop Enabled,9,FALSE,0,NO ERROR,-0.000000,0.243833,-0.000000,-0.012833,TRUE,FALSE,FALSE,FALSE,FALSE,FALSE,Disabled,0.000000,0.000000,0.000000,TRUE,0.022644,-0.080124,0.000000,-0.022598,-0.027344,0.000000,0.072000,0.045000,-0.041000,1.280000,-0.030000,0.110000,-0.512101,Hold,0.127930,0.000000,Hold,-184.000000,2.000000,Suck,-1777.500000,1818.181818,Speed,-1770.000000,1818.181818,Speed,Off,On,0.000000,FALSE,0,,,,,0.000000,0.000000,-0.050000
12:04:22.916 PM 04/28/2016,Teleop Enabled,7,FALSE,0,NO ERROR,-0.000000,0.243833,-0.000000,-0.012833,TRUE,FALSE,FALSE,FALSE,FALSE,FALSE,Disabled,0.000000,0.000000,0.000000,TRUE,0.021851,-0.081436,0.000000,-0.017822,-0.026688,0.000000,-0.001000,-0.047000,-0.041000,1.290000,-0.030000,0.170000,-0.526532,Hold,0.127930,0.000000,Hold,-184.000000,2.000000,Suck,-1777.500000,1818.181818,Speed,-1762.500000,1818.181818,Speed,Off,On,0.000000,FALSE,0,,,,,0.000000,0.000000,-0.050000
12:04:23.016 PM 04/28/2016,Teleop Enabled,15,FALSE,0,NO ERROR,-0.000000,0.243833,-0.000000,-0.012833,TRUE,FALSE,FALSE,FALSE,FALSE,FALSE,Disabled,0.000000,0.000000,0.000000,TRUE,0.019897,-0.082672,0.000000,-0.054382,-0.017990,0.000000,-0.038000,-0.059000,0.017000,1.310000,-0.030000,0.010000,-0.528942,Hold,0.127930,0.000000,Hold,-184.000000,2.000000,Suck,-1777.500000,1818.181818,Speed,-1770.000000,1818.181818,Speed,Off,On,0.000000,FALSE,0,,,,,0.000000,0.000000,-0.050000
12:04:23.119 PM 04/28/2016,Teleop Enabled,11,FALSE,0,NO ERROR,-0.000000,0.243833,-0.000000,-0.012833,TRUE,FALSE,FALSE,FALSE,FALSE,FALSE,Disabled,0.000000,0.000000,0.000000,TRUE,0.017639,-0.083679,0.000000,-0.035782,-0.021606,0.000000,-0.034000,0.036000,0.009000,1.290000,-0.030000,0.100000,-0.537993,Hold,0.127930,0.000000,Hold,-184.000000,2.000000,Suck,-1777.500000,1818.181818,Speed,-1770.000000,1818.181818,Speed,Off,On,0.000000,FALSE,0,,,,,0.000000,0.000000,-0.050000
12:04:23.221 PM 04/28/2016,Teleop Enabled,12,FALSE,0,NO ERROR,-0.000000,0.243833,-0.000000,-0.012833,TRUE,FALSE,FALSE,FALSE,FALSE,FALSE,Disabled,0.000000,0.000000,0.000000,TRUE,0.015213,-0.084946,0.000000,-0.061661,-0.024948,0.000000,-0.034000,0.036000,0.009000,1.320000,-0.030000,-0.050000,-0.541301,Hold,0.127930,0.000000,Hold,-184.000000,2.000000,Suck,-1785.000000,1818.181818,Speed,-1770.000000,1818.181818,Speed,Off,On,0.000000,FALSE,0,,,,,0.000000,0.000000,-0.050000
12:04:23.321 PM 04/28/2016,Teleop Enabled,7,FALSE,0,NO ERROR,-0.000000,0.243833,-0.000000,-0.012833,TRUE,FALSE,FALSE,FALSE,FALSE,FALSE,Disabled,0.000000,0.000000,0.000000,TRUE,0.012878,-0.085846,0.000000,0.000000,-0.017792,0.000000,0.046000,0.026000,0.043000,1.320000,-0.040000,0.050000,-0.545105,Hold,0.127930,0.000000,Hold,-184.000000,2.000000,Suck,-1777.500000,1818.181818,Speed,-1770.000000,1818.181818,Speed,Off,On,0.000000,FALSE,0,,,,,0.000000,0.000000,-0.050000
12:04:23.421 PM 04/28/2016,Teleop Enabled,13,FALSE,0,NO ERROR,-0.000000,0.243833,-0.000000,-0.012833,TRUE,FALSE,FALSE,FALSE,FALSE,FALSE,Disabled,0.000000,0.000000,0.000000,TRUE,0.013504,-0.086838,0.000000,0.015640,-0.024200,0.000000,0.051000,-0.015000,0.003000,1.320000,-0.040000,0.000000,-0.557453,Hold,0.127930,0.000000,Hold,-184.000000,2.000000,Suck,-1777.500000,1818.181818,Speed,-1770.000000,1818.181818,Speed,Off,On,0.000000,FALSE,0,,,,,0.000000,0.000000,-0.050000
12:04:23.521 PM 04/28/2016,Teleop Enabled,11,FALSE,0,NO ERROR,-0.000000,0.243833,-0.000000,-0.012833,TRUE,FALSE,FALSE,FALSE,FALSE,FALSE,Disabled,0.000000,0.000000,0.000000,TRUE,0.014053,-0.087814,0.000000,0.014969,-0.013611,0.000000,-0.101000,0.048000,0.046000,1.320000,-0.040000,0.000000,-0.566046,Hold,0.127930,0.000000,Hold,-184.000000,2.000000,Suck,-1785.000000,1818.181818,Speed,-1770.000000,1818.181818,Speed,Off,On,0.000000,FALSE,0,,,,,0.000000,0.000000,-0.050000
12:04:23.623 PM 04/28/2016,Teleop Enabled,12,FALSE,0,NO ERROR,-0.000000,0.243833,-0.000000,-0.012833,TRUE,FALSE,FALSE,FALSE,FALSE,FALSE,Disabled,0.000000,0.000000,0.000000,TRUE,0.015442,-0.088974,0.000000,0.023682,-0.024902,0.000000,0.102000,-0.036000,0.011000,1.330000,-0.040000,0.040000,-0.555133,Hold,0.127930,0.000000,Hold,-184.000000,2.000000,Suck,-1777.500000,1818.181818,Speed,-1770.000000,1818.181818,Speed,Off,On,0.000000,FALSE,0,,,,,0.000000,0.000000,-0.050000
12:04:23.723 PM 04/28/2016,Teleop Enabled,8,FALSE,0,NO ERROR,-0.000000,0.243833,-0.000000,-0.012833,TRUE,FALSE,FALSE,FALSE,FALSE,FALSE,Disabled,0.000000,0.000000,0.000000,TRUE,0.015961,-0.090134,0.000000,0.007538,-0.017288,0.000000,-0.098000,0.025000,0.061000,1.320000,-0.040000,0.010000,-0.564039,Hold,0.127930,0.000000,Hold,-184.000000,2.000000,Suck,-1777.500000,1818.181818,Speed,-1770.000000,1818.181818,Speed,Off,On,0.000000,FALSE,0,,,,,0.000000,0.000000,-0.050000
12:04:23.824 PM 04/28/2016,Teleop Enabled,9,FALSE,0,NO ERROR,-0.000000,0.243833,-0.000000,-0.012833,TRUE,FALSE,FALSE,FALSE,FALSE,FALSE,Disabled,0.000000,0.000000,0.000000,TRUE,0.016418,-0.090790,0.000000,0.020981,-0.020340,0.000000,-0.006000,0.045000,-0.002000,1.330000,-0.040000,0.010000,-0.562011,Hold,0.127930,0.000000,Hold,-184.000000,2.000000,Suck,-1777.500000,1818.181818,Speed,-1777.500000,1818.181818,Speed,Off,On,0.000000,FALSE,0,,,,,0.000000,0.000000,-0.050000
12:04:23.924 PM 04/28/2016,Teleop Enabled,12,FALSE,0,NO ERROR,-0.000000,0.243833,-0.000000,-0.012833,TRUE,FALSE,FALSE,FALSE,FALSE,FALSE,Disabled,0.000000,0.000000,0.000000,TRUE,0.017624,-0.091919,0.000000,0.018372,-0.022751,0.000000,-0.008000,0.038000,0.058000,1.330000,-0.040000,0.010000,-0.551704,Hold,0.127930,0.000000,Hold,-184.000000,2.000000,Suck,-1785.000000,1818.181818,Speed,-1770.000000,1818.181818,Speed,Off,On,0.000000,FALSE,0,,,,,0.000000,0.000000,-0.050000
12:04:24.025 PM 04/28/2016,Teleop Enabled,10,FALSE,0,NO ERROR,-0.000000,0.243833,-0.000000,-0.012833,TRUE,FALSE,FALSE,FALSE,FALSE,FALSE,Disabled,0.000000,0.000000,0.000000,TRUE,0.018570,-0.092972,0.000000,0.025131,-0.029617,0.000000,-0.023000,-0.016000,0.011000,1.320000,-0.040000,0.000000,-0.555026,Hold,0.127930,0.000000,Hold,-184.000000,2.000000,Suck,-1777.500000,1818.181818,Speed,-1770.000000,1818.181818,Speed,Off,On,0.000000,FALSE,0,,,,,0.000000,0.000000,-0.050000
12:04:24.130 PM 04/28/2016,Teleop Enabled,11,FALSE,0,NO ERROR,-0.000000,0.243833,-0.000000,-0.012833,TRUE,FALSE,FALSE,FALSE,FALSE,FALSE,Disabled,0.000000,0.000000,0.000000,TRUE,0.019455,-0.094025,0.000000,0.011398,-0.013550,0.000000,0.060000,-0.024000,0.031000,1.350000,-0.040000,0.000000,-0.569654,Hold,0.127930,0.000000,Hold,-184.000000,2.000000,Suck,-1777.500000,1818.181818,Speed,-1762.500000,1818.181818,Speed,Off,On,0.000000,FALSE,0,,,,,0.000000,0.000000,-0.050000
12:04:24.229 PM 04/28/2016,Teleop Enabled,11,FALSE,0,NO ERROR,-0.000000,0.243833,-0.000000,-0.012833,TRUE,FALSE,FALSE,FALSE,FALSE,FALSE,Disabled,0.000000,0.000000,0.000000,TRUE,0.019928,-0.094467,0.000000,0.016891,-0.005096,0.000000,0.020000,0.021000,-0.053000,1.330000,-0.040000,-0.050000,-0.583286,Hold,0.127930,0.000000,Hold,-184.000000,2.000000,Suck,-1785.000000,1818.181818,Speed,-1777.500000,1818.181818,Speed,Off,On,0.000000,FALSE,0,,,,,0.000000,0.000000,-0.050000
12:04:24.330 PM 04/28/2016,Teleop Enabled,11,FALSE,0,NO ERROR,-0.000000,0.243833,-0.000000,-0.012833,TRUE,FALSE,FALSE,FALSE,FALSE,FALSE,Disabled,0.000000,0.000000,0.000000,TRUE,0.021027,-0.095184,0.000000,0.024017,-0.012772,0.000000,0.041000,-0.061000,-0.054000,1.360000,-0.040000,0.000000,-0.586164,Hold,0.127930,0.000000,Hold,-184.000000,2.000000,Suck,-1777.500000,1818.181818,Speed,-1785.000000,1818.181818,Speed,Off,On,0.000000,FALSE,0,,,,,0.000000,0.000000,-0.050000
12:04:24.429 PM 04/28/2016,Teleop Enabled,11,FALSE,0,NO ERROR,-0.000000,0.243833,-0.000000,-0.012833,TRUE,FALSE,FALSE,FALSE,FALSE,FALSE,Disabled,0.000000,0.000000,0.000000,TRUE,0.022278,-0.095795,0.000000,0.029022,-0.008774,0.000000,-0.084000,-0.048000,-0.001000,1.360000,-0.040000,-0.070000,-0.600028,Hold,0.127930,0.000000,Hold,-184.000000,2.000000,Suck,-1777.500000,1818.181818,Speed,-1785.000000,1818.181818,Speed,Off,On,0.000000,FALSE,0,,,,,0.000000,0.000000,-0.050000
12:04:24.532 PM 04/28/2016,Teleop Enabled,17,FALSE,0,NO ERROR,-0.000000,0.243833,-0.000000,-0.012833,TRUE,FALSE,FALSE,FALSE,FALSE,FALSE,Disabled,0.000000,0.000000,0.000000,TRUE,0.023239,-0.096664,0.000000,0.022446,-0.025223,0.000000,0.000000,-0.082000,-0.058000,1.360000,-0.050000,-0.060000,-0.603202,Hold,0.127930,0.000000,Hold,-184.000000,2.000000,Suck,-1785.000000,1818.181818,Speed,-1762.500000,1818.181818,Speed,Off,On,0.000000,FALSE,0,,,,,0.000000,0.000000,-0.050000
12:04:24.634 PM 04/28/2016,Teleop Enabled,18,FALSE,0,NO ERROR,-0.000000,0.243833,-0.000000,-0.012833,TRUE,FALSE,FALSE,FALSE,FALSE,FALSE,Disabled,0.000000,0.000000,0.000000,TRUE,0.023590,-0.097672,0.000000,-0.005661,-0.018890,0.000000,-0.009000,0.022000,-0.011000,1.360000,-0.050000,-0.060000,-0.609684,Hold,0.127930,0.000000,Hold,-184.000000,2.000000,Suck,-1777.500000,1818.181818,Speed,-1762.500000,1818.181818,Speed,Off,On,0.000000,FALSE,0,,,,,0.000000,0.000000,-0.050000
12:04:24.736 PM 04/28/2016,Teleop Enabled,16,FALSE,0,NO ERROR,-0.000000,0.243833,-0.000000,-0.012833,TRUE,FALSE,FALSE,FALSE,FALSE,FALSE,Disabled,0.000000,0.000000,0.000000,TRUE,0.024307,-0.098862,0.000000,0.025269,-0.028122,0.000000,0.086000,-0.022000,-0.015000,1.340000,-0.050000,-0.040000,-0.606957,Hold,0.127930,0.000000,Hold,-184.000000,2.000000,Suck,-1785.000000,1818.181818,Speed,-1770.000000,1818.181818,Speed,Off,On,0.000000,FALSE,0,,,,,0.000000,0.000000,-0.050000
12:04:24.836 PM 04/28/2016,Teleop Enabled,12,FALSE,0,NO ERROR,-0.000000,0.243833,-0.000000,-0.012833,TRUE,FALSE,FALSE,FALSE,FALSE,FALSE,Disabled,0.000000,0.000000,0.000000,TRUE,0.025055,-0.099258,0.000000,0.011108,0.009628,0.000000,-0.090000,0.033000,0.031000,1.330000,-0.050000,-0.030000,-0.617440,Hold,0.127930,0.000000,Hold,-184.000000,2.000000,Suck,-1785.000000,1818.181818,Speed,-1770.000000,1818.181818,Speed,Off,On,0.000000,FALSE,0,,,,,0.000000,0.000000,-0.050000
12:04:24.938 PM 04/28/2016,Teleop Enabled,12,FALSE,0,NO ERROR,-0.000000,0.243833,-0.000000,-0.012833,TRUE,FALSE,FALSE,FALSE,FALSE,FALSE,Disabled,0.000000,0.000000,0.000000,TRUE,0.026260,-0.098907,0.000000,0.036346,0.003571,0.000000,0.072000,-0.050000,-0.006000,1.350000,-0.050000,-0.010000,-0.619371,Hold,0.127930,0.000000,Hold,-184.000000,2.000000,Suck,-1777.500000,1818.181818,Speed,-1770.000000,1818.181818,Speed,Off,On,0.000000,FALSE,0,,,,,0.000000,0.000000,-0.050000
12:04:25.039 PM 04/28/2016,Teleop Enabled,10,FALSE,0,NO ERROR,-0.000000,0.243833,-0.000000,-0.012833,TRUE,FALSE,FALSE,FALSE,FALSE,FALSE,Disabled,0.000000,0.000000,0.000000,TRUE,0.027451,-0.098892,0.000000,0.026978,0.000702,0.000000,-0.068000,-0.001000,0.020000,1.350000,-0.050000,-0.010000,-0.615977,Hold,0.127930,0.000000,Hold,-184.000000,2.000000,Suck,-1777.500000,1818.181818,Speed,-1777.500000,1818.181818,Speed,Off,On,0.000000,FALSE,0,,,,,0.000000,0.000000,-0.050000
12:04:25.140 PM 04/28/2016,Teleop Enabled,5,FALSE,0,NO ERROR,-0.000000,0.243833,-0.000000,-0.012833,TRUE,FALSE,FALSE,FALSE,FALSE,FALSE,Disabled,0.000000,0.000000,0.000000,TRUE,0.028229,-0.098862,0.000000,0.011581,-0.004852,0.000000,-0.074000,0.017000,-0.021000,1.320000,-0.050000,-0.020000,-0.620752,Hold,0.127930,0.000000,Hold,-184.000000,2.000000,Suck,-1785.000000,1818.181818,Speed,-1770.000000,1818.181818,Speed,Off,On,0.000000,FALSE,0,,,,,0.000000,0.000000,-0.050000
12:04:25.241 PM 04/28/2016,Teleop Enabled,8,FALSE,0,NO ERROR,-0.000000,0.243833,-0.000000,-0.012833,TRUE,FALSE,FALSE,FALSE,FALSE,FALSE,Disabled,0.000000,0.000000,0.000000,TRUE,0.029861,-0.098877,0.000000,0.035065,0.000732,0.000000,0.150000,-0.024000,-0.004000,1.310000,-0.050000,-0.020000,-0.625496,Hold,0.127930,0.000000,Hold,-184.000000,2.000000,Suck,-1777.500000,1818.181818,Speed,-1777.500000,1818.181818,Speed,Off,On,0.000000,FALSE,0,,,,,0.000000,0.000000,-0.050000
12:04:25.342 PM 04/28/2016,Teleop Enabled,10,FALSE,0,NO ERROR,-0.000000,0.243833,-0.000000,-0.012833,TRUE,FALSE,FALSE,FALSE,FALSE,FALSE,Disabled,0.000000,0.000000,0.000000,TRUE,0.029861,-0.098877,0.000000,0.035065,0.000732,0.000000,-0.029000,-0.010000,-0.040000,1.310000,-0.050000,-0.020000,-0.631035,Hold,0.127930,0.000000,Hold,-184.000000,2.000000,Suck,-1777.500000,1818.181818,Speed,-1777.500000,1818.181818,Speed,Off,On,0.000000,FALSE,0,,,,,0.000000,0.000000,-0.050000
12:04:25.442 PM 04/28/2016,Teleop Enabled,11,FALSE,0,NO ERROR,-0.000000,0.243833,-0.000000,-0.012833,TRUE,FALSE,FALSE,FALSE,FALSE,FALSE,Disabled,0.000000,0.000000,0.000000,TRUE,0.033203,-0.099045,0.000000,0.031876,0.000000,0.000000,-0.070000,0.063000,0.005000,1.320000,-0.050000,0.020000,-0.644746,Hold,0.127930,0.000000,Hold,-184.000000,14336.000000,Suck,-1785.000000,1818.181818,Speed,-1777.500000,1818.181818,Speed,Off,On,0.000000,FALSE,0,,,,,0.000000,0.000000,-0.050000
12:04:25.546 PM 04/28/2016,Teleop Enabled,8,FALSE,0,NO ERROR,-0.000000,0.243833,-0.000000,-0.012833,TRUE,FALSE,FALSE,FALSE,FALSE,FALSE,Disabled,0.000000,0.000000,0.000000,TRUE,0.035522,-0.098633,0.000000,0.056625,0.004044,0.000000,0.089000,0.032000,-0.043000,1.320000,-0.050000,0.020000,-0.655928,Hold,0.127930,0.000000,Hold,-2097.000000,14336.000000,Suck,-1785.000000,1818.181818,Speed,-1777.500000,1818.181818,Speed,Off,On,0.000000,FALSE,0,,,,,0.000000,0.000000,-0.050000
12:04:25.649 PM 04/28/2016,Teleop Enabled,11,FALSE,0,NO ERROR,-0.000000,0.243833,-0.000000,-0.012833,TRUE,FALSE,FALSE,FALSE,FALSE,FALSE,Disabled,0.000000,0.000000,0.000000,TRUE,0.037628,-0.098480,0.000000,0.024170,0.003693,0.000000,-0.030000,0.034000,-0.053000,1.320000,-0.060000,0.130000,-0.649194,Hold,0.127930,0.000000,Hold,-15054.000000,14336.000000,Suck,-1777.500000,1818.181818,Speed,-1770.000000,1818.181818,Speed,Off,On,0.000000,FALSE,0,,,,,0.000000,0.000000,-0.050000
12:04:25.750 PM 04/28/2016,Teleop Enabled,12,FALSE,0,NO ERROR,-0.000000,0.243833,-0.000000,-0.012833,TRUE,FALSE,FALSE,FALSE,FALSE,FALSE,Disabled,0.000000,0.000000,0.000000,TRUE,0.039108,-0.098389,0.000000,0.041306,-0.001648,0.000000,0.014000,-0.001000,0.014000,1.310000,-0.060000,0.010000,-0.655439,Hold,0.127930,0.000000,Hold,-14804.000000,14336.000000,Suck,-1777.500000,1818.181818,Speed,-1762.500000,1818.181818,Speed,Off,On,0.000000,FALSE,0,,,,,0.000000,0.000000,-0.050000
12:04:25.853 PM 04/28/2016,Teleop Enabled,15,FALSE,0,NO ERROR,-0.000000,0.243833,-0.000000,-0.012833,TRUE,FALSE,FALSE,FALSE,FALSE,FALSE,Disabled,0.000000,0.000000,0.000000,TRUE,0.039993,-0.098480,0.000000,-0.000504,0.000000,0.000000,-0.055000,-0.004000,0.000000,1.310000,-0.060000,0.010000,-0.642646,Hold,0.127930,0.000000,Hold,-14708.000000,14336.000000,Suck,-1777.500000,1818.181818,Speed,-1777.500000,1818.181818,Speed,Off,On,0.000000,FALSE,0,,,,,0.000000,0.000000,-0.050000
12:04:25.954 PM 04/28/2016,Teleop Enabled,10,FALSE,0,NO ERROR,-0.000000,0.243833,-0.000000,-0.012833,TRUE,FALSE,FALSE,FALSE,FALSE,FALSE,Disabled,0.000000,0.000000,0.000000,TRUE,0.040237,-0.098648,0.000000,0.015198,-0.007538,0.000000,-0.003000,0.009000,0.010000,1.280000,-0.060000,0.030000,-0.647483,Hold,0.127930,0.000000,Hold,-14708.000000,14336.000000,Suck,-1777.500000,1818.181818,Speed,-1770.000000,1818.181818,Speed,Off,On,0.000000,FALSE,0,,,,,0.000000,0.000000,-0.050000
12:04:26.056 PM 04/28/2016,Teleop Enabled,11,FALSE,0,NO ERROR,-0.000000,0.243833,-0.000000,-0.012833,TRUE,FALSE,FALSE,FALSE,FALSE,FALSE,Disabled,0.000000,0.000000,0.000000,TRUE,0.039871,-0.098572,0.000000,-0.017212,0.013306,0.000000,0.018000,-0.015000,0.011000,1.280000,-0.060000,0.090000,-0.656861,Hold,0.127930,0.000000,Hold,-14818.000000,14336.000000,Suck,-1785.000000,1818.181818,Speed,-1770.000000,1818.181818,Speed,Off,On,0.000000,FALSE,0,,,,,0.000000,0.000000,-0.050000
12:04:26.155 PM 04/28/2016,Teleop Enabled,10,FALSE,0,NO ERROR,-0.000000,0.243833,-0.000000,-0.012833,TRUE,FALSE,FALSE,FALSE,FALSE,FALSE,Disabled,0.000000,0.000000,0.000000,TRUE,0.038818,-0.098190,0.000000,-0.012207,-0.003067,0.000000,-0.048000,-0.020000,0.035000,1.310000,-0.060000,0.050000,-0.660978,Hold,0.127930,0.000000,Hold,-14927.000000,14336.000000,Suck,-1785.000000,1818.181818,Speed,-1770.000000,1818.181818,Speed,Off,On,0.000000,FALSE,0,,,,,0.000000,0.000000,-0.050000
12:04:26.258 PM 04/28/2016,Teleop Enabled,14,FALSE,0,NO ERROR,-0.000000,0.243833,-0.000000,-0.012833,TRUE,FALSE,FALSE,FALSE,FALSE,FALSE,Disabled,0.000000,0.000000,0.000000,TRUE,0.038925,-0.098343,0.000000,-0.000610,-0.003433,0.000000,0.025000,0.016000,0.031000,1.310000,-0.060000,0.050000,-0.653508,Hold,0.127930,0.000000,Hold,-14915.000000,14336.000000,Suck,-1777.500000,1818.181818,Speed,-1770.000000,1818.181818,Speed,Off,On,0.000000,FALSE,0,,,,,0.000000,0.000000,-0.050000
12:04:26.361 PM 04/28/2016,Teleop Enabled,12,FALSE,0,NO ERROR,-0.000000,0.243833,-0.000000,-0.012833,TRUE,FALSE,FALSE,FALSE,FALSE,FALSE,Disabled,0.000000,0.000000,0.000000,TRUE,0.038803,-0.098343,0.000000,-0.009705,0.000000,0.000000,-0.003000,-0.012000,0.011000,1.290000,-0.060000,0.100000,-0.658730,Hold,0.127930,0.000000,Hold,-14779.000000,14336.000000,Suck,-1777.500000,1818.181818,Speed,-1777.500000,1818.181818,Speed,Off,On,0.000000,FALSE,0,,,,,0.000000,0.000000,-0.050000
12:04:26.460 PM 04/28/2016,Teleop Enabled,9,FALSE,0,NO ERROR,-0.000000,0.243833,-0.000000,-0.012833,TRUE,FALSE,FALSE,FALSE,FALSE,FALSE,Disabled,0.000000,0.000000,0.000000,TRUE,0.039169,-0.098557,0.000000,0.014038,-0.012207,0.000000,-0.010000,-0.008000,0.050000,1.250000,-0.060000,0.130000,-0.666500,Hold,0.127930,0.000000,Hold,-14599.000000,14336.000000,Suck,-1777.500000,1818.181818,Speed,-1770.000000,1818.181818,Speed,Off,On,0.000000,FALSE,0,,,,,0.000000,0.000000,-0.050000
