Time,Robot Mode,Loop Time,Error Status,Error Code,Error Source,Left Motor Output,Left Motor Encoder,Right Motor Output,Right Motor Encoder,Is Level,Is Stalled,Ball Detector Photoeye,Vision Enabled,Vision Teleop Control,Vision Auto Control,Vision Current State,Vision X Output,Vision NavX Error,Vision NavX Target,NavX Connection Status,NavX Displacement X,NavX Displacement Y,NavX Displacement Z,NavX Velocity X,NavX Velocity Y,NavX Velocity Z,NavX Acceleration X,NavX Acceleration Y,NavX Acceleration Z,NavX Pitch,NavX Yaw,NavX Roll,Gyro Angle,Roller Arm State,Roller Arm Actual,Roller Arm Desired,Shooter Arm State,Shooter Arm Actual,Shooter Arm Desired,Shooter State,Actual RPM Left,Desired RPM Left,Control Mode Left,Actual RPM Right,Desired RPM Right,Control Mode Right,Ball Shooter Cylinder,Ball Halo Cylinder,Scaler Motor Output,Scaler Solenoid Fire,Auto To Run,Auto Current File,Auto File Status,Auto Current Command,Auto Trimmed Command,Shooter Amps Left,Shooter Amps Right, Vision After Offset
10:17:20.725 AM 04/28/2016,Teleop Enabled,10,FALSE,0,NO ERROR,-0.000000,0.000000,-0.000000,0.000000,TRUE,FALSE,FALSE,FALSE,FALSE,FALSE,Disabled,0.000000,0.000000,0.000000,TRUE,-0.331253,-0.164764,0.000000,0.000000,0.000000,0.000000,0.000000,0.000000,-0.004000,1.860000,0.070000,0.060000,-0.091324,ResetBack,0.031494,-0.000049,ResetBack,-9478.000000,-0.250000,Suck,0.000000,1818.181818,Speed,0.000000,1818.181818,Speed,Off,On,0.000000,FALSE,0,,,,,0.000000,0.000000,-0.050000
10:17:20.825 AM 04/28/2016,Teleop Enabled,10,FALSE,0,NO ERROR,-0.000000,0.000000,-0.000000,0.000000,TRUE,FALSE,FALSE,FALSE,FALSE,FALSE,Disabled,0.000000,0.000000,0.000000,TRUE,-0.331253,-0.164764,0.000000,0.000000,0.000000,0.000000,0.005000,-0.002000,-0.007000,1.860000,0.070000,0.060000,-0.106213,ResetBack,-0.046387,-0.000049,ResetBack,-9198.000000,-0.250000,Suck,-7.500000,1818.181818,Speed,-15.000000,1818.181818,Speed,Off,On,0.000000,FALSE,0,,,,,0.000000,0.000000,-0.050000
10:17:20.926 AM 04/28/2016,Teleop Enabled,9,FALSE,0,NO ERROR,-0.000000,0.000000,-0.000000,0.000000,TRUE,FALSE,FALSE,FALSE,FALSE,FALSE,Disabled,0.000000,0.000000,0.000000,TRUE,-0.330383,-0.165451,0.000000,0.038757,-0.027725,0.000000,0.006000,0.016000,-0.005000,1.820000,0.060000,0.150000,-0.121777,ResetBack,-0.046387,-0.000049,ResetBack,-3309.000000,-0.250000,Suck,-352.500000,1818.181818,Speed,-150.000000,1818.181818,Speed,Off,On,0.000000,FALSE,0,,,,,0.000000,0.000000,-0.050000
10:17:21.026 AM 04/28/2016,Teleop Enabled,10,FALSE,0,NO ERROR,-0.000000,0.000000,-0.000000,0.000000,TRUE,FALSE,FALSE,FALSE,FALSE,FALSE,Disabled,0.000000,0.000000,0.000000,TRUE,-0.328018,-0.165176,0.000000,0.053558,0.012817,0.000000,0.032000,-0.040000,-0.019000,1.840000,0.060000,0.130000,-0.139303,ResetBack,-0.046631,-0.000049,ResetBack,-3309.000000,-0.250000,Suck,-885.000000,1818.181818,Speed,-210.000000,1818.181818,Speed,Off,On,0.000000,FALSE,0,,,,,0.000000,0.000000,-0.050000
10:17:21.127 AM 04/28/2016,Teleop Enabled,10,FALSE,0,NO ERROR,-0.000000,0.000000,-0.000000,0.000000,TRUE,FALSE,FALSE,FALSE,FALSE,FALSE,Disabled,0.000000,0.000000,0.000000,TRUE,-0.324646,-0.164963,0.000000,0.071609,0.005280,0.000000,-0.045000,-0.023000,-0.084000,1.840000,0.050000,0.120000,-0.147992,Reset,-0.047852,0.000000,ResetBack,-754.000000,-0.250000,Suck,-1350.000000,1818.181818,Speed,-937.500000,1818.181818,Speed,Off,On,0.000000,FALSE,0,,,,,0.000000,0.000000,-0.050000
10:17:21.230 AM 04/28/2016,Teleop Enabled,10,FALSE,0,NO ERROR,-0.000000,0.000000,-0.000000,0.000000,TRUE,FALSE,FALSE,FALSE,FALSE,FALSE,Disabled,0.000000,0.000000,0.000000,TRUE,-0.320831,-0.164780,0.000000,0.065887,0.000000,0.000000,-0.052000,0.015000,0.035000,1.820000,0.050000,0.120000,-0.141338,Hold,0.062744,0.000000,ResetBack,-676.000000,-0.250000,Suck,-1695.000000,1818.181818,Speed,-1620.000000,1818.181818,Speed,Off,On,0.000000,FALSE,0,,,,,0.000000,0.000000,-0.050000
10:17:21.334 AM 04/28/2016,Teleop Enabled,12,FALSE,0,NO ERROR,-0.000000,0.000000,-0.000000,0.000000,TRUE,FALSE,FALSE,FALSE,FALSE,FALSE,Disabled,0.000000,0.000000,0.000000,TRUE,-0.318420,-0.165253,0.000000,0.038040,-0.023651,0.000000,-0.053000,0.005000,-0.037000,1.830000,0.050000,0.100000,-0.142580,Hold,0.062744,0.000000,ResetBack,-140.000000,-0.250000,Suck,-1807.500000,1818.181818,Speed,-1882.500000,1818.181818,Speed,Off,On,0.000000,FALSE,0,,,,,0.000000,0.000000,-0.050000
10:17:21.432 AM 04/28/2016,Teleop Enabled,9,FALSE,0,NO ERROR,-0.000000,0.000000,-0.000000,0.000000,TRUE,FALSE,FALSE,FALSE,FALSE,FALSE,Disabled,0.000000,0.000000,0.000000,TRUE,-0.316635,-0.165298,0.000000,0.035477,-0.003067,0.000000,-0.072000,0.042000,-0.004000,1.820000,0.050000,0.100000,-0.142580,Hold,0.062744,0.000000,ResetBack,612.000000,-0.250000,Suck,-1807.500000,1818.181818,Speed,-1860.000000,1818.181818,Speed,Off,On,0.000000,FALSE,0,,,,,0.000000,0.000000,-0.050000
10:17:21.534 AM 04/28/2016,Teleop Enabled,9,FALSE,0,NO ERROR,-0.000000,0.000000,-0.000000,0.000000,TRUE,FALSE,FALSE,FALSE,FALSE,FALSE,Disabled,0.000000,0.000000,0.000000,TRUE,-0.315430,-0.165344,0.000000,0.017044,-0.016068,0.000000,-0.040000,0.039000,-0.009000,1.830000,0.040000,0.080000,-0.145968,Hold,0.062744,0.000000,ResetBack,1763.000000,-0.250000,Suck,-1747.500000,1818.181818,Speed,-1785.000000,1818.181818,Speed,Off,On,0.000000,FALSE,0,,,,,0.000000,0.000000,-0.050000
10:17:21.640 AM 04/28/2016,Teleop Enabled,10,FALSE,0,NO ERROR,-0.000000,0.000000,-0.000000,0.000000,TRUE,FALSE,FALSE,FALSE,FALSE,FALSE,Disabled,0.000000,0.000000,0.000000,TRUE,-0.315521,-0.165726,0.000000,-0.002304,0.001205,0.000000,0.033000,-0.109000,-0.075000,1.820000,0.040000,0.100000,-0.142846,Hold,0.062744,0.000000,ResetBack,3317.000000,-0.250000,Suck,-1717.500000,1818.181818,Speed,-1717.500000,1818.181818,Speed,Off,On,0.000000,FALSE,0,,,,,0.000000,0.000000,-0.050000
10:17:21.740 AM 04/28/2016,Teleop Enabled,10,FALSE,0,NO ERROR,-0.000000,0.000000,-0.000000,0.000000,TRUE,FALSE,FALSE,FALSE,FALSE,FALSE,Disabled,0.000000,0.000000,0.000000,TRUE,-0.314377,-0.167236,0.000000,0.025742,-0.043289,0.000000,-0.032000,-0.053000,-0.024000,1.790000,0.050000,0.250000,-0.142846,Hold,0.062744,0.000000,ResetBack,3317.000000,-0.250000,Suck,-1732.500000,1818.181818,Speed,-1702.500000,1818.181818,Speed,Off,On,0.000000,FALSE,0,,,,,0.000000,0.000000,-0.050000
10:17:21.841 AM 04/28/2016,Teleop Enabled,11,FALSE,0,NO ERROR,-0.000000,0.000000,-0.000000,0.000000,TRUE,FALSE,FALSE,FALSE,FALSE,FALSE,Disabled,0.000000,0.000000,0.000000,TRUE,-0.313782,-0.168976,0.000000,0.010071,-0.036194,0.000000,-0.087000,-0.006000,0.033000,1.800000,0.050000,0.190000,-0.161680,Hold,0.062744,0.000000,ResetBack,3365.000000,-0.250000,Suck,-1755.000000,1818.181818,Speed,-1717.500000,1818.181818,Speed,Off,On,0.000000,FALSE,0,,,,,0.000000,0.000000,-0.050000
10:17:21.941 AM 04/28/2016,Teleop Enabled,9,FALSE,0,NO ERROR,-0.000000,0.000000,-0.000000,0.000000,TRUE,FALSE,FALSE,FALSE,FALSE,FALSE,Disabled,0.000000,0.000000,0.000000,TRUE,-0.313461,-0.170242,0.000000,-0.000229,-0.021545,0.000000,-0.032000,-0.023000,0.033000,1.840000,0.050000,0.110000,-0.151686,Hold,0.062744,0.000000,ResetBack,3375.000000,-0.250000,Suck,-1762.500000,1818.181818,Speed,-1755.000000,1818.181818,Speed,Off,On,0.000000,FALSE,0,,,,,0.000000,0.000000,-0.050000
10:17:22.042 AM 04/28/2016,Teleop Enabled,11,FALSE,0,NO ERROR,-0.000000,0.000000,-0.000000,0.000000,TRUE,FALSE,FALSE,FALSE,FALSE,FALSE,Disabled,0.000000,0.000000,0.000000,TRUE,-0.313187,-0.172134,0.000000,0.003754,-0.052689,0.000000,0.039000,0.072000,-0.018000,1.810000,0.050000,0.190000,-0.171439,Hold,0.062744,0.000000,Reset,3379.000000,2.000000,Suck,-1770.000000,1818.181818,Speed,-1770.000000,1818.181818,Speed,Off,On,0.000000,FALSE,0,,,,,0.000000,0.000000,-0.050000
10:17:22.143 AM 04/28/2016,Teleop Enabled,10,FALSE,0,NO ERROR,-0.000000,0.000000,-0.000000,0.000000,TRUE,FALSE,FALSE,FALSE,FALSE,FALSE,Disabled,0.000000,0.000000,0.000000,TRUE,-0.312897,-0.174774,0.000000,0.001846,-0.068710,0.000000,0.029000,0.062000,-0.071000,1.790000,0.050000,0.220000,-0.174600,Hold,0.062988,0.000000,Hold,-194.000000,2.000000,Suck,-1770.000000,1818.181818,Speed,-1762.500000,1818.181818,Speed,Off,On,0.000000,FALSE,0,,,,,0.000000,0.000000,-0.050000
10:17:22.242 AM 04/28/2016,Teleop Enabled,11,FALSE,0,NO ERROR,-0.000000,0.000000,-0.000000,0.000000,TRUE,FALSE,FALSE,FALSE,FALSE,FALSE,Disabled,0.000000,0.000000,0.000000,TRUE,-0.313278,-0.177185,0.000000,-0.013580,-0.046875,0.000000,0.020000,0.041000,-0.047000,1.790000,0.040000,0.210000,-0.187368,Hold,0.062988,0.000000,Hold,-193.000000,2.000000,Suck,-1777.500000,1818.181818,Speed,-1755.000000,1818.181818,Speed,Off,On,0.000000,FALSE,0,,,,,0.000000,0.000000,-0.050000
10:17:22.342 AM 04/28/2016,Teleop Enabled,10,FALSE,0,NO ERROR,-0.000000,0.000000,-0.000000,0.000000,TRUE,FALSE,FALSE,FALSE,FALSE,FALSE,Disabled,0.000000,0.000000,0.000000,TRUE,-0.313919,-0.179184,0.000000,-0.017548,-0.030197,0.000000,-0.070000,-0.069000,0.012000,1.790000,0.050000,0.240000,-0.200649,Hold,0.062988,0.000000,Hold,-193.000000,2.000000,Suck,-1770.000000,1818.181818,Speed,-1762.500000,1818.181818,Speed,Off,On,0.000000,FALSE,0,,,,,0.000000,0.000000,-0.050000
10:17:22.443 AM 04/28/2016,Teleop Enabled,10,FALSE,0,NO ERROR,-0.000000,0.000000,-0.000000,0.000000,TRUE,FALSE,FALSE,FALSE,FALSE,FALSE,Disabled,0.000000,0.000000,0.000000,TRUE,-0.315506,-0.180359,0.000000,-0.044205,-0.017853,0.000000,0.082000,0.055000,-0.033000,1.810000,0.040000,0.170000,-0.217377,Hold,0.062988,0.000000,Hold,-193.000000,2.000000,Suck,-1762.500000,1818.181818,Speed,-1755.000000,1818.181818,Speed,Off,On,0.000000,FALSE,0,,,,,0.000000,0.000000,-0.050000
10:17:22.543 AM 04/28/2016,Teleop Enabled,8,FALSE,0,NO ERROR,-0.000000,0.000000,-0.000000,0.000000,TRUE,FALSE,FALSE,FALSE,FALSE,FALSE,Disabled,0.000000,0.000000,0.000000,TRUE,-0.317932,-0.180588,0.000000,-0.049713,0.009460,0.000000,-0.005000,0.076000,-0.014000,1.810000,0.040000,0.160000,-0.234080,Hold,0.062988,0.000000,Hold,-192.000000,2.000000,Suck,-1770.000000,1818.181818,Speed,-1755.000000,1818.181818,Speed,Off,On,0.000000,FALSE,0,,,,,0.000000,0.000000,-0.050000
10:17:22.643 AM 04/28/2016,Teleop Enabled,10,FALSE,0,NO ERROR,-0.000000,0.000000,-0.000000,0.000000,TRUE,FALSE,FALSE,FALSE,FALSE,FALSE,Disabled,0.000000,0.000000,0.000000,TRUE,-0.320282,-0.179962,0.000000,-0.052170,0.007172,0.000000,-0.036000,0.001000,0.038000,1.820000,0.020000,0.090000,-0.233140,Hold,0.062988,0.000000,Hold,-191.000000,2.000000,Suck,-1770.000000,1818.181818,Speed,-1762.500000,1818.181818,Speed,Off,On,0.000000,FALSE,0,,,,,0.000000,0.000000,-0.050000
10:17:22.744 AM 04/28/2016,Teleop Enabled,10,FALSE,0,NO ERROR,-0.000000,0.000000,-0.000000,0.000000,TRUE,FALSE,FALSE,FALSE,FALSE,FALSE,Disabled,0.000000,0.000000,0.000000,TRUE,-0.322052,-0.178711,0.000000,0.000000,0.039536,0.000000,-0.090000,-0.077000,-0.029000,1.860000,0.020000,0.070000,-0.248312,Hold,0.062988,0.000000,Hold,-191.000000,2.000000,Suck,-1755.000000,1818.181818,Speed,-1777.500000,1818.181818,Speed,Off,On,0.000000,FALSE,0,,,,,0.000000,0.000000,-0.050000
10:17:22.843 AM 04/28/2016,Teleop Enabled,11,FALSE,0,NO ERROR,-0.000000,0.000000,-0.000000,0.000000,TRUE,FALSE,FALSE,FALSE,FALSE,FALSE,Disabled,0.000000,0.000000,0.000000,TRUE,-0.322327,-0.177032,0.000000,-0.001205,0.046112,0.000000,-0.021000,-0.124000,-0.037000,1.890000,0.040000,0.050000,-0.235681,Hold,0.062988,0.000000,Hold,-191.000000,2.000000,Suck,-1710.000000,1818.181818,Speed,-1777.500000,1818.181818,Speed,Off,On,0.000000,FALSE,0,,,,,0.000000,0.000000,-0.050000
10:17:22.944 AM 04/28/2016,Teleop Enabled,11,FALSE,0,NO ERROR,-0.000000,0.000000,-0.000000,0.000000,TRUE,FALSE,FALSE,FALSE,FALSE,FALSE,Disabled,0.000000,0.000000,0.000000,TRUE,-0.322510,-0.176239,0.000000,0.000000,-0.004089,0.000000,0.024000,0.051000,-0.051000,1.860000,0.040000,0.050000,-0.246687,Hold,0.062988,0.000000,Hold,-190.000000,2.000000,Suck,-1680.000000,1818.181818,Speed,-1770.000000,1818.181818,Speed,Off,On,0.000000,FALSE,0,,,,,0.000000,0.000000,-0.050000
10:17:23.045 AM 04/28/2016,Teleop Enabled,11,FALSE,0,NO ERROR,-0.000000,0.000000,-0.000000,0.000000,TRUE,FALSE,FALSE,FALSE,FALSE,FALSE,Disabled,0.000000,0.000000,0.000000,TRUE,-0.322220,-0.176575,0.000000,0.014954,-0.016144,0.000000,0.020000,0.024000,-0.011000,1.850000,0.040000,0.100000,-0.255706,Hold,0.062988,0.000000,Hold,-190.000000,2.000000,Suck,-1732.500000,1818.181818,Speed,-1747.500000,1818.181818,Speed,Off,On,0.000000,FALSE,0,,,,,0.000000,0.000000,-0.050000
10:17:23.145 AM 04/28/2016,Teleop Enabled,11,FALSE,0,NO ERROR,-0.000000,0.000000,-0.000000,0.000000,TRUE,FALSE,FALSE,FALSE,FALSE,FALSE,Disabled,0.000000,0.000000,0.000000,TRUE,-0.320938,-0.177338,0.000000,0.036926,-0.007355,0.000000,0.080000,0.058000,-0.036000,1.830000,0.040000,0.160000,-0.268354,Hold,0.062988,0.000000,Hold,-190.000000,2.000000,Suck,-1785.000000,1818.181818,Speed,-1725.000000,1818.181818,Speed,Off,On,0.000000,FALSE,0,,,,,0.000000,0.000000,-0.050000
10:17:23.246 AM 04/28/2016,Teleop Enabled,9,FALSE,0,NO ERROR,-0.000000,0.000000,-0.000000,0.000000,TRUE,FALSE,FALSE,FALSE,FALSE,FALSE,Disabled,0.000000,0.000000,0.000000,TRUE,-0.318192,-0.177475,0.000000,0.050858,0.000000,0.000000,0.014000,0.019000,-0.054000,1.820000,0.030000,0.220000,-0.259648,Hold,0.062988,0.000000,Hold,-190.000000,2.000000,Suck,-1800.000000,1818.181818,Speed,-1740.000000,1818.181818,Speed,Off,On,0.000000,FALSE,0,,,,,0.000000,0.000000,-0.050000
10:17:23.347 AM 04/28/2016,Teleop Enabled,10,FALSE,0,NO ERROR,-0.000000,0.000000,-0.000000,0.000000,TRUE,FALSE,FALSE,FALSE,FALSE,FALSE,Disabled,0.000000,0.000000,0.000000,TRUE,-0.316605,-0.177460,0.000000,0.029114,-0.000183,0.000000,0.007000,-0.011000,-0.087000,1.870000,0.030000,0.160000,-0.265679,Hold,0.062988,0.000000,Hold,-190.000000,2.000000,Suck,-1785.000000,1818.181818,Speed,-1762.500000,1818.181818,Speed,Off,On,0.000000,FALSE,0,,,,,0.000000,0.000000,-0.050000
10:17:23.446 AM 04/28/2016,Teleop Enabled,11,FALSE,0,NO ERROR,-0.000000,0.000000,-0.000000,0.000000,TRUE,FALSE,FALSE,FALSE,FALSE,FALSE,Disabled,0.000000,0.000000,0.000000,TRUE,-0.314270,-0.177460,0.000000,0.042633,0.003036,0.000000,-0.058000,-0.032000,0.011000,1.840000,0.030000,0.170000,-0.271580,Hold,0.062988,0.000000,Hold,-189.000000,2.000000,Suck,-1755.000000,1818.181818,Speed,-1770.000000,1818.181818,Speed,Off,On,0.000000,FALSE,0,,,,,0.000000,0.000000,-0.050000
10:17:23.547 AM 04/28/2016,Teleop Enabled,9,FALSE,0,NO ERROR,-0.000000,0.000000,-0.000000,0.000000,TRUE,FALSE,FALSE,FALSE,FALSE,FALSE,Disabled,0.000000,0.000000,0.000000,TRUE,-0.312531,-0.177216,0.000000,0.036041,0.001801,0.000000,-0.078000,0.042000,-0.030000,1.860000,0.040000,0.140000,-0.260880,Hold,0.062988,0.000000,Hold,-189.000000,2.000000,Suck,-1747.500000,1818.181818,Speed,-1785.000000,1818.181818,Speed,Off,On,0.000000,FALSE,0,,,,,0.000000,0.000000,-0.050000
10:17:23.647 AM 04/28/2016,Teleop Enabled,9,FALSE,0,NO ERROR,-0.000000,0.000000,-0.000000,0.000000,TRUE,FALSE,FALSE,FALSE,FALSE,FALSE,Disabled,0.000000,0.000000,0.000000,TRUE,-0.311752,-0.176407,0.000000,0.009521,0.021072,0.000000,0.017000,-0.024000,0.015000,1.910000,0.020000,0.140000,-0.265927,Hold,0.062988,0.000000,Hold,-189.000000,2.000000,Suck,-1762.500000,1818.181818,Speed,-1792.500000,1818.181818,Speed,Off,On,0.000000,FALSE,0,,,,,0.000000,0.000000,-0.050000
10:17:23.748 AM 04/28/2016,Teleop Enabled,10,FALSE,0,NO ERROR,-0.000000,0.000000,-0.000000,0.000000,TRUE,FALSE,FALSE,FALSE,FALSE,FALSE,Disabled,0.000000,0.000000,0.000000,TRUE,-0.311676,-0.175766,0.000000,-0.001816,0.000000,0.000000,-0.027000,-0.023000,-0.031000,1.880000,0.030000,0.140000,-0.257021,Hold,0.062988,0.000000,Hold,-189.000000,2.000000,Suck,-1785.000000,1818.181818,Speed,-1792.500000,1818.181818,Speed,Off,On,0.000000,FALSE,0,,,,,0.000000,0.000000,-0.050000
10:17:23.851 AM 04/28/2016,Teleop Enabled,12,FALSE,0,NO ERROR,-0.000000,0.000000,-0.000000,0.000000,TRUE,FALSE,FALSE,FALSE,FALSE,FALSE,Disabled,0.000000,0.000000,0.000000,TRUE,-0.311646,-0.175903,0.000000,0.008377,-0.000107,0.000000,0.038000,0.044000,-0.021000,1.850000,0.020000,0.180000,-0.268588,Hold,0.062988,0.000000,Hold,-189.000000,2.000000,Suck,-1792.500000,1818.181818,Speed,-1785.000000,1818.181818,Speed,Off,On,0.000000,FALSE,0,,,,,0.000000,0.000000,-0.050000
10:17:23.953 AM 04/28/2016,Teleop Enabled,11,FALSE,0,NO ERROR,-0.000000,0.000000,-0.000000,0.000000,TRUE,FALSE,FALSE,FALSE,FALSE,FALSE,Disabled,0.000000,0.000000,0.000000,TRUE,-0.311096,-0.175980,0.000000,0.013947,0.003159,0.000000,0.011000,-0.066000,0.014000,1.840000,0.020000,0.130000,-0.261758,Hold,0.062988,0.000000,Hold,-188.000000,2.000000,Suck,-1777.500000,1818.181818,Speed,-1777.500000,1818.181818,Speed,Off,On,0.000000,FALSE,0,,,,,0.000000,0.000000,-0.050000
10:17:24.053 AM 04/28/2016,Teleop Enabled,8,FALSE,0,NO ERROR,-0.000000,0.000000,-0.000000,0.000000,TRUE,FALSE,FALSE,FALSE,FALSE,FALSE,Disabled,0.000000,0.000000,0.000000,TRUE,-0.310928,-0.176010,0.000000,0.002258,0.003433,0.000000,0.009000,0.013000,0.000000,1.860000,0.020000,0.130000,-0.271198,Hold,0.062988,0.000000,Hold,-188.000000,2.000000,Suck,-1762.500000,1818.181818,Speed,-1770.000000,1818.181818,Speed,Off,On,0.000000,FALSE,0,,,,,0.000000,0.000000,-0.050000
10:17:24.154 AM 04/28/2016,Teleop Enabled,8,FALSE,0,NO ERROR,-0.000000,0.000000,-0.000000,0.000000,TRUE,FALSE,FALSE,FALSE,FALSE,FALSE,Disabled,0.000000,0.000000,0.000000,TRUE,-0.310333,-0.175919,0.000000,0.005280,0.001007,0.000000,0.026000,0.013000,-0.029000,1.840000,0.020000,0.130000,-0.260591,Hold,0.062988,0.000000,Hold,-188.000000,2.000000,Suck,-1755.000000,1818.181818,Speed,-1770.000000,1818.181818,Speed,Off,On,0.000000,FALSE,0,,,,,0.000000,0.000000,-0.050000
10:17:24.255 AM 04/28/2016,Teleop Enabled,11,FALSE,0,NO ERROR,-0.000000,0.000000,-0.000000,0.000000,TRUE,FALSE,FALSE,FALSE,FALSE,FALSE,Disabled,0.000000,0.000000,0.000000,TRUE,-0.309723,-0.176010,0.000000,0.010223,-0.003845,0.000000,-0.038000,-0.045000,-0.057000,1.850000,0.020000,0.130000,-0.260092,Hold,0.062988,0.000000,Hold,-188.000000,2.000000,Suck,-1755.000000,1818.181818,Speed,-1770.000000,1818.181818,Speed,Off,On,0.000000,FALSE,0,,,,,0.000000,0.000000,-0.050000
10:17:24.357 AM 04/28/2016,Teleop Enabled,9,FALSE,0,NO ERROR,-0.000000,0.000000,-0.000000,0.000000,TRUE,FALSE,FALSE,FALSE,FALSE,FALSE,Disabled,0.000000,0.000000,0.000000,TRUE,-0.309464,-0.176575,0.000000,0.004639,-0.013199,0.000000,0.000000,-0.056000,-0.027000,1.800000,0.020000,0.140000,-0.249503,Hold,0.062988,0.000000,Hold,-188.000000,2.000000,Suck,-1762.500000,1818.181818,Speed,-1762.500000,1818.181818,Speed,Off,On,0.000000,FALSE,0,,,,,0.000000,0.000000,-0.050000
10:17:24.456 AM 04/28/2016,Teleop Enabled,9,FALSE,0,NO ERROR,-0.000000,0.000000,-0.000000,0.000000,TRUE,FALSE,FALSE,FALSE,FALSE,FALSE,Disabled,0.000000,0.000000,0.000000,TRUE,-0.308548,-0.178101,0.000000,0.017532,-0.042938,0.000000,-0.039000,-0.051000,-0.002000,1.810000,0.010000,0.200000,-0.249637,Hold,0.062988,0.000000,Hold,-187.000000,2.000000,Suck,-1755.000000,1818.181818,Speed,-1770.000000,1818.181818,Speed,Off,On,0.000000,FALSE,0,,,,,0.000000,0.000000,-0.050000
10:17:24.557 AM 04/28/2016,Teleop Enabled,11,FALSE,0,NO ERROR,-0.000000,-0.006417,-0.000000,0.000000,TRUE,FALSE,FALSE,FALSE,FALSE,FALSE,Disabled,0.000000,0.000000,0.000000,TRUE,-0.307480,-0.180374,0.000000,0.028519,-0.035980,0.000000,0.020000,0.059000,0.047000,1.820000,0.010000,0.200000,-0.255927,Hold,0.062988,0.000000,Hold,-187.000000,2.000000,Suck,-1717.500000,1818.181818,Speed,-1770.000000,1818.181818,Speed,Off,On,0.000000,FALSE,0,,,,,0.000000,0.000000,-0.050000
10:17:24.658 AM 04/28/2016,Teleop Enabled,9,FALSE,0,NO ERROR,-0.000000,-0.006417,-0.000000,0.000000,TRUE,FALSE,FALSE,FALSE,FALSE,FALSE,Disabled,0.000000,0.000000,0.000000,TRUE,-0.306564,-0.181641,0.000000,0.018723,0.000000,0.000000,-0.051000,0.038000,-0.040000,1.850000,0.010000,0.090000,-0.264688,Hold,0.062988,0.000000,Hold,-187.000000,2.000000,Suck,-1710.000000,1818.181818,Speed,-1770.000000,1818.181818,Speed,Off,On,0.000000,FALSE,0,,,,,0.000000,0.000000,-0.050000
10:17:24.758 AM 04/28/2016,Teleop Enabled,10,FALSE,0,NO ERROR,-0.000000,-0.006417,-0.000000,0.000000,TRUE,FALSE,FALSE,FALSE,FALSE,FALSE,Disabled,0.000000,0.000000,0.000000,TRUE,-0.306152,-0.180939,0.000000,0.011978,0.000000,0.000000,-0.068000,-0.028000,-0.030000,1.860000,0.010000,0.100000,-0.259772,Hold,0.062988,0.000000,Hold,-187.000000,2.000000,Suck,-1732.500000,1818.181818,Speed,-1770.000000,1818.181818,Speed,Off,On,0.000000,FALSE,0,,,,,0.000000,0.000000,-0.050000
10:17:24.859 AM 04/28/2016,Teleop Enabled,8,FALSE,0,NO ERROR,-0.000000,-0.006417,-0.000000,0.000000,TRUE,FALSE,FALSE,FALSE,FALSE,FALSE,Disabled,0.000000,0.000000,0.000000,TRUE,-0.305496,-0.180923,0.000000,0.027466,0.007355,0.000000,0.021000,-0.017000,0.019000,1.850000,0.000000,0.170000,-0.268385,Hold,0.062988,0.000000,Hold,-187.000000,2.000000,Suck,-1762.500000,1818.181818,Speed,-1762.500000,1818.181818,Speed,Off,On,0.000000,FALSE,0,,,,,0.000000,0.000000,-0.050000
10:17:24.960 AM 04/28/2016,Teleop Enabled,12,FALSE,0,NO ERROR,-0.000000,-0.006417,-0.000000,0.000000,TRUE,FALSE,FALSE,FALSE,FALSE,FALSE,Disabled,0.000000,0.000000,0.000000,TRUE,-0.303864,-0.180359,0.000000,0.000000,0.027008,0.000000,0.003000,-0.003000,-0.059000,1.810000,0.000000,0.210000,-0.272447,Hold,0.062988,0.000000,Hold,-187.000000,2.000000,Suck,-1755.000000,1818.181818,Speed,-1762.500000,1818.181818,Speed,Off,On,0.000000,FALSE,0,,,,,0.000000,0.000000,-0.050000
10:17:25.061 AM 04/28/2016,Teleop Enabled,11,FALSE,0,NO ERROR,-0.000000,-0.006417,-0.000000,0.000000,TRUE,FALSE,FALSE,FALSE,FALSE,FALSE,Disabled,0.000000,0.000000,0.000000,TRUE,-0.303558,-0.180069,0.000000,-0.001144,0.005737,0.000000,-0.040000,0.034000,-0.034000,1.840000,0.000000,0.140000,-0.290449,Hold,0.062988,0.000000,Hold,-187.000000,2.000000,Suck,-1747.500000,1818.181818,Speed,-1770.000000,1818.181818,Speed,Off,On,0.000000,FALSE,0,,,,,0.000000,0.000000,-0.050000
10:17:25.161 AM 04/28/2016,Teleop Enabled,12,FALSE,0,NO ERROR,-0.000000,-0.006417,-0.000000,0.000000,TRUE,FALSE,FALSE,FALSE,FALSE,FALSE,Disabled,0.000000,0.000000,0.000000,TRUE,-0.303604,-0.180313,0.000000,-0.002426,-0.007965,0.000000,-0.073000,-0.066000,0.006000,1.880000,0.000000,0.160000,-0.296872,Hold,0.062988,0.000000,Hold,-187.000000,2.000000,Suck,-1717.500000,1818.181818,Speed,-1762.500000,1818.181818,Speed,Off,On,0.000000,FALSE,0,,,,,0.000000,0.000000,-0.050000
10:17:25.261 AM 04/28/2016,Teleop Enabled,10,FALSE,0,NO ERROR,-0.000000,-0.006417,-0.000000,0.000000,TRUE,FALSE,FALSE,FALSE,FALSE,FALSE,Disabled,0.000000,0.000000,0.000000,TRUE,-0.303848,-0.181580,0.000000,0.002502,-0.021027,0.000000,-0.055000,-0.005000,0.019000,1.850000,0.000000,0.200000,-0.284135,Hold,0.062988,0.000000,Hold,-186.000000,2.000000,Suck,-1710.000000,1818.181818,Speed,-1762.500000,1818.181818,Speed,Off,On,0.000000,FALSE,0,,,,,0.000000,0.000000,-0.050000
10:17:25.362 AM 04/28/2016,Teleop Enabled,11,FALSE,0,NO ERROR,-0.000000,-0.006417,-0.000000,0.000000,TRUE,FALSE,FALSE,FALSE,FALSE,FALSE,Disabled,0.000000,0.000000,0.000000,TRUE,-0.304306,-0.181458,0.000000,-0.008957,0.009506,0.000000,-0.083000,-0.053000,-0.051000,1.860000,0.000000,0.140000,-0.296060,Hold,0.062988,0.000000,Hold,-186.000000,2.000000,Suck,-1717.500000,1818.181818,Speed,-1762.500000,1818.181818,Speed,Off,On,0.000000,FALSE,0,,,,,0.000000,0.000000,-0.050000
10:17:25.463 AM 04/28/2016,Teleop Enabled,11,FALSE,0,NO ERROR,-0.000000,-0.006417,-0.000000,0.000000,TRUE,FALSE,FALSE,FALSE,FALSE,FALSE,Disabled,0.000000,0.000000,0.000000,TRUE,-0.305573,-0.181229,0.000000,-0.026917,0.007309,0.000000,0.000000,-0.037000,0.001000,1.840000,0.000000,0.090000,-0.290097,Hold,0.062988,0.000000,Hold,-186.000000,2.000000,Suck,-1717.500000,1818.181818,Speed,-1785.000000,1818.181818,Speed,Off,On,0.000000,FALSE,0,,,,,0.000000,0.000000,-0.050000
10:17:25.571 AM 04/28/2016,Teleop Enabled,14,FALSE,0,NO ERROR,-0.000000,-0.006417,-0.000000,0.000000,TRUE,FALSE,FALSE,FALSE,FALSE,FALSE,Disabled,0.000000,0.000000,0.000000,TRUE,-0.307861,-0.180206,0.000000,-0.061356,0.029770,0.000000,-0.037000,-0.055000,0.013000,1.860000,0.000000,0.050000,-0.285973,Hold,0.062988,0.000000,Hold,-186.000000,2.000000,Suck,-1732.500000,1818.181818,Speed,-1785.000000,1818.181818,Speed,Off,On,0.000000,FALSE,0,,,,,0.000000,0.000000,-0.050000
10:17:25.667 AM 04/28/2016,Teleop Enabled,14,FALSE,0,NO ERROR,-0.000000,-0.006417,-0.000000,0.000000,TRUE,FALSE,FALSE,FALSE,FALSE,FALSE,Disabled,0.000000,0.000000,0.000000,TRUE,-0.311523,-0.178635,0.000000,-0.086273,0.026093,0.000000,-0.084000,0.042000,0.031000,1.860000,0.000000,0.040000,-0.301561,Hold,0.062988,0.000000,Hold,-185.000000,2.000000,Suck,-1717.500000,1818.181818,Speed,-1785.000000,1818.181818,Speed,Off,On,0.000000,FALSE,0,,,,,0.000000,0.000000,-0.050000
10:17:25.766 AM 04/28/2016,Teleop Enabled,9,FALSE,0,NO ERROR,-0.000000,-0.006417,-0.000000,0.000000,TRUE,FALSE,FALSE,FALSE,FALSE,FALSE,Disabled,0.000000,0.000000,0.000000,TRUE,-0.317062,-0.177567,0.000000,-0.126984,0.010239,0.000000,0.011000,-0.005000,0.034000,1.840000,0.000000,0.030000,-0.313531,Hold,0.062988,0.000000,Hold,-185.000000,2.000000,Suck,-1717.500000,1818.181818,Speed,-1770.000000,1818.181818,Speed,Off,On,0.000000,FALSE,0,,,,,0.000000,0.000000,-0.050000
10:17:25.868 AM 04/28/2016,Teleop Enabled,11,FALSE,0,NO ERROR,-0.000000,-0.006417,-0.000000,0.000000,TRUE,FALSE,FALSE,FALSE,FALSE,FALSE,Disabled,0.000000,0.000000,0.000000,TRUE,-0.324921,-0.176270,0.000000,-0.145264,0.028702,0.000000,0.011000,-0.005000,0.034000,1.840000,0.000000,0.030000,-0.332517,Hold,0.062988,0.000000,Hold,-185.000000,2.000000,Suck,-1732.500000,1818.181818,Speed,-1747.500000,1818.181818,Speed,Off,On,0.000000,FALSE,0,,,,,0.000000,0.000000,-0.050000
10:17:25.968 AM 04/28/2016,Teleop Enabled,9,FALSE,0,NO ERROR,-0.000000,-0.006417,-0.000000,0.000000,TRUE,FALSE,FALSE,FALSE,FALSE,FALSE,Disabled,0.000000,0.000000,0.000000,TRUE,-0.330063,-0.176239,0.000000,-0.132797,0.003052,0.000000,-0.007000,0.057000,0.001000,1.900000,-0.010000,0.040000,-0.345571,Hold,0.062988,0.000000,Hold,-185.000000,2.000000,Suck,-1732.500000,1818.181818,Speed,-1755.000000,1818.181818,Speed,Off,On,0.000000,FALSE,0,,,,,0.000000,0.000000,-0.050000
10:17:26.075 AM 04/28/2016,Teleop Enabled,15,FALSE,0,NO ERROR,-0.000000,-0.006417,-0.000000,0.000000,TRUE,FALSE,FALSE,FALSE,FALSE,FALSE,Disabled,0.000000,0.000000,0.000000,TRUE,-0.330536,-0.175903,0.000000,-0.008606,-0.007263,0.000000,-0.007000,0.057000,0.001000,1.910000,-0.010000,0.090000,-0.345974,Hold,0.062988,0.000000,Hold,-185.000000,2.000000,Suck,-1777.500000,1818.181818,Speed,-1755.000000,1818.181818,Speed,Off,On,0.000000,FALSE,0,,,,,0.000000,0.000000,-0.050000
10:17:26.175 AM 04/28/2016,Teleop Enabled,17,FALSE,0,NO ERROR,-0.000000,-0.006417,-0.000000,0.000000,TRUE,FALSE,FALSE,FALSE,FALSE,FALSE,Disabled,0.000000,0.000000,0.000000,TRUE,-0.331863,-0.175674,0.000000,-0.032990,-0.000458,0.000000,-0.034000,0.055000,0.050000,1.940000,-0.010000,0.070000,-0.350081,Hold,0.062988,0.000000,Hold,-184.000000,2.000000,Suck,-1747.500000,1818.181818,Speed,-1762.500000,1818.181818,Speed,Off,On,0.000000,FALSE,0,,,,,0.000000,0.000000,-0.050000
10:17:26.277 AM 04/28/2016,Teleop Enabled,11,FALSE,0,NO ERROR,-0.000000,-0.006417,-0.000000,0.000000,TRUE,FALSE,FALSE,FALSE,FALSE,FALSE,Disabled,0.000000,0.000000,0.000000,TRUE,-0.332458,-0.175873,0.000000,0.003967,-0.012360,0.000000,-0.014000,0.038000,0.013000,1.920000,-0.020000,0.080000,-0.346032,Hold,0.062988,0.000000,Hold,-184.000000,2.000000,Suck,-1732.500000,1818.181818,Speed,-1755.000000,1818.181818,Speed,Off,On,0.000000,FALSE,0,,,,,0.000000,0.000000,-0.050000
10:17:26.378 AM 04/28/2016,Teleop Enabled,10,FALSE,0,NO ERROR,-0.000000,-0.006417,-0.000000,0.000000,TRUE,FALSE,FALSE,FALSE,FALSE,FALSE,Disabled,0.000000,0.000000,0.000000,TRUE,-0.332382,-0.175278,0.000000,-0.000107,0.020462,0.000000,-0.007000,0.001000,0.052000,1.940000,-0.020000,0.070000,-0.357988,Hold,0.062988,0.000000,Hold,-184.000000,2.000000,Suck,-1732.500000,1818.181818,Speed,-1762.500000,1818.181818,Speed,Off,On,0.000000,FALSE,0,,,,,0.000000,0.000000,-0.050000
10:17:26.478 AM 04/28/2016,Teleop Enabled,10,FALSE,0,NO ERROR,-0.000000,-0.006417,-0.000000,0.000000,TRUE,FALSE,FALSE,FALSE,FALSE,FALSE,Disabled,0.000000,0.000000,0.000000,TRUE,-0.332138,-0.173615,0.000000,0.009796,0.034485,0.000000,-0.050000,0.025000,-0.026000,1.920000,-0.020000,0.070000,-0.354986,Hold,0.062988,0.000000,Hold,-184.000000,2.000000,Suck,-1755.000000,1818.181818,Speed,-1740.000000,1818.181818,Speed,Off,On,0.000000,FALSE,0,,,,,0.000000,0.000000,-0.050000
10:17:26.580 AM 04/28/2016,Teleop Enabled,5,FALSE,0,NO ERROR,-0.000000,-0.006417,-0.000000,0.000000,TRUE,FALSE,FALSE,FALSE,FALSE,FALSE,Disabled,0.000000,0.000000,0.000000,TRUE,-0.332443,-0.170807,0.000000,-0.016159,0.064865,0.000000,-0.018000,0.025000,0.068000,1.950000,-0.020000,0.000000,-0.376368,Hold,0.062988,0.000000,Hold,-184.000000,2.000000,Suck,-1762.500000,1818.181818,Speed,-1740.000000,1818.181818,Speed,Off,On,0.000000,FALSE,0,,,,,0.000000,0.000000,-0.050000
10:17:26.680 AM 04/28/2016,Teleop Enabled,12,FALSE,0,NO ERROR,-0.000000,-0.006417,-0.000000,0.000000,TRUE,FALSE,FALSE,FALSE,FALSE,FALSE,Disabled,0.000000,0.000000,0.000000,TRUE,-0.332794,-0.166977,0.000000,0.000000,0.083191,0.000000,-0.017000,-0.073000,-0.074000,1.980000,-0.030000,-0.030000,-0.388885,Hold,0.062988,0.000000,Hold,-183.000000,2.000000,Suck,-1740.000000,1818.181818,Speed,-1747.500000,1818.181818,Speed,Off,On,0.000000,FALSE,0,,,,,0.000000,0.000000,-0.050000
10:17:26.782 AM 04/28/2016,Teleop Enabled,10,FALSE,0,NO ERROR,-0.000000,-0.006417,-0.000000,0.000000,TRUE,FALSE,FALSE,FALSE,FALSE,FALSE,Disabled,0.000000,0.000000,0.000000,TRUE,-0.332367,-0.163574,0.000000,-0.004349,0.058929,0.000000,0.006000,0.061000,0.054000,1.980000,-0.030000,-0.030000,-0.408762,Hold,0.062988,0.000000,Hold,-183.000000,2.000000,Suck,-1725.000000,1818.181818,Speed,-1792.500000,1818.181818,Speed,Off,On,0.000000,FALSE,0,,,,,0.000000,0.000000,-0.050000
10:17:26.884 AM 04/28/2016,Teleop Enabled,9,FALSE,0,NO ERROR,-0.000000,-0.006417,-0.000000,0.000000,TRUE,FALSE,FALSE,FALSE,FALSE,FALSE,Disabled,0.000000,0.000000,0.000000,TRUE,-0.333038,-0.160202,0.000000,-0.019073,0.070389,0.000000,0.002000,0.016000,0.019000,1.940000,-0.030000,-0.020000,-0.427273,Hold,0.062988,0.000000,Hold,-183.000000,2.000000,Suck,-1717.500000,1818.181818,Speed,-1815.000000,1818.181818,Speed,Off,On,0.000000,FALSE,0,,,,,0.000000,0.000000,-0.050000
10:17:26.985 AM 04/28/2016,Teleop Enabled,8,FALSE,0,NO ERROR,-0.000000,-0.006417,-0.000000,0.000000,TRUE,FALSE,FALSE,FALSE,FALSE,FALSE,Disabled,0.000000,0.000000,0.000000,TRUE,-0.333755,-0.156891,0.000000,-0.016815,0.059540,0.000000,0.002000,0.016000,0.019000,1.980000,-0.040000,0.000000,-0.443667,Hold,0.062988,0.000000,Hold,-182.000000,2.000000,Suck,-1717.500000,1818.181818,Speed,-1785.000000,1818.181818,Speed,Off,On,0.000000,FALSE,0,,,,,0.000000,0.000000,-0.050000
10:17:27.088 AM 04/28/2016,Teleop Enabled,11,FALSE,0,NO ERROR,-0.000000,-0.006417,-0.000000,0.000000,TRUE,FALSE,FALSE,FALSE,FALSE,FALSE,Disabled,0.000000,0.000000,0.000000,TRUE,-0.333893,-0.153397,0.000000,-0.008728,0.073471,0.000000,0.014000,0.035000,0.031000,1.920000,-0.040000,-0.010000,-0.456996,Hold,0.062988,0.000000,Hold,-182.000000,2.000000,Suck,-1732.500000,1818.181818,Speed,-1680.000000,1818.181818,Speed,Off,On,0.000000,FALSE,0,,,,,0.000000,0.000000,-0.050000
10:17:27.189 AM 04/28/2016,Teleop Enabled,10,FALSE,0,NO ERROR,-0.000000,-0.006417,-0.000000,0.000000,TRUE,FALSE,FALSE,FALSE,FALSE,FALSE,Disabled,0.000000,0.000000,0.000000,TRUE,-0.333832,-0.150116,0.000000,0.003708,0.079727,0.000000,0.041000,0.031000,0.030000,1.930000,-0.040000,0.000000,-0.465396,Hold,0.062988,0.000000,Hold,-182.000000,2.000000,Suck,-1725.000000,1818.181818,Speed,-1710.000000,1818.181818,Speed,Off,On,0.000000,FALSE,0,,,,,0.000000,0.000000,-0.050000
10:17:27.290 AM 04/28/2016,Teleop Enabled,10,FALSE,0,NO ERROR,-0.000000,-0.006417,-0.000000,0.000000,TRUE,FALSE,FALSE,FALSE,FALSE,FALSE,Disabled,0.000000,0.000000,0.000000,TRUE,-0.333511,-0.146347,0.000000,0.005554,0.069427,0.000000,-0.001000,-0.056000,-0.005000,1.930000,-0.040000,0.010000,-0.451850,Hold,0.062988,0.000000,Hold,-182.000000,2.000000,Suck,-1732.500000,1818.181818,Speed,-1710.000000,1818.181818,Speed,Off,On,0.000000,FALSE,0,,,,,0.000000,0.000000,-0.050000
10:17:27.394 AM 04/28/2016,Teleop Enabled,8,FALSE,0,NO ERROR,-0.000000,-0.006417,-0.000000,0.000000,TRUE,FALSE,FALSE,FALSE,FALSE,FALSE,Disabled,0.000000,0.000000,0.000000,TRUE,-0.333817,-0.142166,0.000000,-0.014465,0.084259,0.000000,-0.001000,-0.056000,-0.005000,1.930000,-0.040000,0.010000,-0.453499,Hold,0.062988,0.000000,Hold,-182.000000,2.000000,Suck,-1740.000000,1818.181818,Speed,-1822.500000,1818.181818,Speed,Off,On,0.000000,FALSE,0,,,,,0.000000,0.000000,-0.050000
10:17:27.496 AM 04/28/2016,Teleop Enabled,9,FALSE,0,NO ERROR,-0.000000,-0.006417,-0.000000,0.000000,TRUE,FALSE,FALSE,FALSE,FALSE,FALSE,Disabled,0.000000,0.000000,0.000000,TRUE,-0.334717,-0.137131,0.000000,-0.026352,0.101013,0.000000,0.039000,-0.038000,-0.039000,1.940000,-0.050000,0.020000,-0.460115,Hold,0.062988,0.000000,Hold,-182.000000,2.000000,Suck,-1747.500000,1818.181818,Speed,-1815.000000,1818.181818,Speed,Off,On,0.000000,FALSE,0,,,,,0.000000,0.000000,-0.050000
10:17:27.598 AM 04/28/2016,Teleop Enabled,9,FALSE,0,NO ERROR,-0.000000,-0.006417,-0.000000,0.000000,TRUE,FALSE,FALSE,FALSE,FALSE,FALSE,Disabled,0.000000,0.000000,0.000000,TRUE,-0.334900,-0.132828,0.000000,0.003189,0.116364,0.000000,0.015000,0.099000,0.019000,1.930000,-0.050000,0.040000,-0.470684,Hold,0.062988,0.000000,Hold,-182.000000,2.000000,Suck,-1747.500000,1818.181818,Speed,-1755.000000,1818.181818,Speed,Off,On,0.000000,FALSE,0,,,,,0.000000,0.000000,-0.050000
10:17:27.706 AM 04/28/2016,Teleop Enabled,10,FALSE,0,NO ERROR,-0.000000,-0.006417,-0.000000,0.000000,TRUE,FALSE,FALSE,FALSE,FALSE,FALSE,Disabled,0.000000,0.000000,0.000000,TRUE,-0.334381,-0.125549,0.000000,0.000427,0.116974,0.000000,0.068000,0.073000,-0.010000,1.960000,-0.060000,0.020000,-0.473076,Hold,0.062988,0.000000,Hold,-182.000000,2.000000,Suck,-1740.000000,1818.181818,Speed,-1762.500000,1818.181818,Speed,Off,On,0.000000,FALSE,0,,,,,0.000000,0.000000,-0.050000
10:17:27.808 AM 04/28/2016,Teleop Enabled,12,FALSE,0,NO ERROR,-0.000000,-0.006417,-0.000000,0.000000,TRUE,FALSE,FALSE,FALSE,FALSE,FALSE,Disabled,0.000000,0.000000,0.000000,TRUE,-0.334320,-0.119537,0.000000,0.000000,0.128387,0.000000,0.006000,0.007000,-0.009000,1.960000,-0.060000,0.040000,-0.485862,Hold,0.062988,0.000000,Hold,-181.000000,2.000000,Suck,-1747.500000,1818.181818,Speed,-1770.000000,1818.181818,Speed,Off,On,0.000000,FALSE,0,,,,,0.000000,0.000000,-0.050000
10:17:27.910 AM 04/28/2016,Teleop Enabled,9,FALSE,0,NO ERROR,-0.000000,-0.006417,-0.000000,0.000000,TRUE,FALSE,FALSE,FALSE,FALSE,FALSE,Disabled,0.000000,0.000000,0.000000,TRUE,-0.334534,-0.117157,0.000000,-0.008270,-0.005966,0.000000,-0.005000,0.042000,-0.030000,1.960000,-0.060000,0.030000,-0.468952,Hold,0.062988,0.000000,Hold,-181.000000,2.000000,Suck,-1755.000000,1818.181818,Speed,-1777.500000,1818.181818,Speed,Off,On,0.000000,FALSE,0,,,,,0.000000,0.000000,-0.050000
10:17:28.017 AM 04/28/2016,Teleop Enabled,17,FALSE,0,NO ERROR,-0.000000,-0.006417,-0.000000,0.000000,TRUE,FALSE,FALSE,FALSE,FALSE,FALSE,Disabled,0.000000,0.000000,0.000000,TRUE,-0.335968,-0.117065,0.000000,-0.028229,0.008377,0.000000,-0.005000,0.042000,-0.030000,1.920000,-0.060000,0.000000,-0.475937,Hold,0.062988,0.000000,Hold,-181.000000,2.000000,Suck,-1770.000000,1818.181818,Speed,-1800.000000,1818.181818,Speed,Off,On,0.000000,FALSE,0,,,,,0.000000,0.000000,-0.050000
10:17:28.117 AM 04/28/2016,Teleop Enabled,16,FALSE,0,NO ERROR,-0.000000,-0.006417,-0.000000,0.000000,TRUE,FALSE,FALSE,FALSE,FALSE,FALSE,Disabled,0.000000,0.000000,0.000000,TRUE,-0.336746,-0.117584,0.000000,-0.013336,-0.006897,0.000000,0.029000,-0.116000,-0.071000,1.920000,-0.060000,0.000000,-0.475431,Hold,0.062988,0.000000,Hold,-181.000000,2.000000,Suck,-1770.000000,1818.181818,Speed,-1792.500000,1818.181818,Speed,Off,On,0.000000,FALSE,0,,,,,0.000000,0.000000,-0.050000
10:17:28.219 AM 04/28/2016,Teleop Enabled,11,FALSE,0,NO ERROR,-0.000000,-0.006417,-0.000000,0.000000,TRUE,FALSE,FALSE,FALSE,FALSE,FALSE,Disabled,0.000000,0.000000,0.000000,TRUE,-0.337082,-0.118149,0.000000,-0.011322,-0.005829,0.000000,-0.017000,-0.053000,-0.036000,1.950000,-0.060000,-0.010000,-0.487366,Hold,0.062988,0.000000,Hold,-181.000000,2.000000,Suck,-1770.000000,1818.181818,Speed,-1777.500000,1818.181818,Speed,Off,On,0.000000,FALSE,0,,,,,0.000000,0.000000,-0.050000
10:17:28.325 AM 04/28/2016,Teleop Enabled,12,FALSE,0,NO ERROR,-0.000000,-0.006417,-0.000000,0.000000,TRUE,FALSE,FALSE,FALSE,FALSE,FALSE,Disabled,0.000000,0.000000,0.000000,TRUE,-0.337784,-0.118958,0.000000,0.000000,0.000000,0.000000,0.011000,-0.042000,-0.046000,1.910000,-0.070000,0.030000,-0.515089,Hold,0.062988,0.000000,Hold,-181.000000,2.000000,Suck,-1762.500000,1818.181818,Speed,-1770.000000,1818.181818,Speed,Off,On,0.000000,FALSE,0,,,,,0.000000,0.000000,-0.050000
10:17:28.427 AM 04/28/2016,Teleop Enabled,13,FALSE,0,NO ERROR,-0.000000,-0.006417,-0.000000,0.000000,TRUE,FALSE,FALSE,FALSE,FALSE,FALSE,Disabled,0.000000,0.000000,0.000000,TRUE,-0.337982,-0.119156,0.000000,0.001053,-0.012558,0.000000,0.035000,-0.053000,-0.030000,1.890000,-0.080000,0.080000,-0.556280,Hold,0.062988,0.000000,Hold,-181.000000,2.000000,Suck,-1740.000000,1818.181818,Speed,-1770.000000,1818.181818,Speed,Off,On,0.000000,FALSE,0,,,,,0.000000,0.000000,-0.050000
10:17:28.526 AM 04/28/2016,Teleop Enabled,9,FALSE,0,NO ERROR,-0.000000,-0.006417,-0.000000,0.000000,TRUE,FALSE,FALSE,FALSE,FALSE,FALSE,Disabled,0.000000,0.000000,0.000000,TRUE,-0.338043,-0.119873,0.000000,-0.005554,-0.006653,0.000000,0.035000,-0.053000,-0.030000,1.880000,-0.090000,0.130000,-0.579479,Hold,0.062988,0.000000,Hold,-180.000000,2.000000,Suck,-1732.500000,1818.181818,Speed,-1777.500000,1818.181818,Speed,Off,On,0.000000,FALSE,0,,,,,0.000000,0.000000,-0.050000
10:17:28.627 AM 04/28/2016,Teleop Enabled,11,FALSE,0,NO ERROR,-0.000000,-0.006417,-0.000000,0.000000,TRUE,FALSE,FALSE,FALSE,FALSE,FALSE,Disabled,0.000000,0.000000,0.000000,TRUE,-0.338516,-0.119675,0.000000,0.000000,0.000000,0.000000,-0.005000,0.057000,0.024000,1.910000,-0.090000,0.120000,-0.590991,Hold,0.062988,0.000000,Hold,-180.000000,2.000000,Suck,-1725.000000,1818.181818,Speed,-1770.000000,1818.181818,Speed,Off,On,0.000000,FALSE,0,,,,,0.000000,0.000000,-0.050000
10:17:28.729 AM 04/28/2016,Teleop Enabled,12,FALSE,0,NO ERROR,-0.000000,-0.006417,-0.000000,0.000000,TRUE,FALSE,FALSE,FALSE,FALSE,FALSE,Disabled,0.000000,0.000000,0.000000,TRUE,-0.338409,-0.118942,0.000000,0.009872,0.014969,0.000000,0.017000,0.039000,-0.028000,1.910000,-0.090000,0.120000,-0.615898,Hold,0.062988,0.000000,Hold,-180.000000,2.000000,Suck,-1717.500000,1818.181818,Speed,-1762.500000,1818.181818,Speed,Off,On,0.000000,FALSE,0,,,,,0.000000,0.000000,-0.050000
10:17:28.830 AM 04/28/2016,Teleop Enabled,9,FALSE,0,NO ERROR,-0.000000,-0.006417,-0.000000,0.000000,TRUE,FALSE,FALSE,FALSE,FALSE,FALSE,Disabled,0.000000,0.000000,0.000000,TRUE,-0.337723,-0.118134,0.000000,0.008942,0.001572,0.000000,0.035000,0.064000,0.007000,1.860000,-0.110000,0.190000,-0.602372,Hold,0.062988,0.000000,Hold,-180.000000,2.000000,Suck,-1732.500000,1818.181818,Speed,-1740.000000,1818.181818,Speed,Off,On,0.000000,FALSE,0,,,,,0.000000,0.000000,-0.050000
10:17:28.938 AM 04/28/2016,Teleop Enabled,7,FALSE,0,NO ERROR,-0.000000,-0.006417,-0.000000,0.000000,TRUE,FALSE,FALSE,FALSE,FALSE,FALSE,Disabled,0.000000,0.000000,0.000000,TRUE,-0.336899,-0.117355,0.000000,0.021194,0.029922,0.000000,0.011000,0.066000,0.029000,1.900000,-0.120000,0.180000,-0.606868,Hold,0.062988,0.000000,Hold,-180.000000,2.000000,Suck,-1747.500000,1818.181818,Speed,-1740.000000,1818.181818,Speed,Off,On,0.000000,FALSE,0,,,,,0.000000,0.000000,-0.050000
10:17:29.040 AM 04/28/2016,Teleop Enabled,12,FALSE,0,NO ERROR,-0.000000,-0.006417,-0.000000,0.000000,TRUE,FALSE,FALSE,FALSE,FALSE,FALSE,Disabled,0.000000,0.000000,0.000000,TRUE,-0.335114,-0.116241,0.000000,0.039459,0.000000,0.000000,0.051000,0.025000,0.035000,1.900000,-0.130000,0.180000,-0.624728,Hold,0.062988,0.000000,Hold,-180.000000,2.000000,Suck,-1777.500000,1818.181818,Speed,-1732.500000,1818.181818,Speed,Off,On,0.000000,FALSE,0,,,,,0.000000,0.000000,-0.050000
10:17:29.143 AM 04/28/2016,Teleop Enabled,11,FALSE,0,NO ERROR,-0.000000,-0.006417,-0.000000,0.000000,TRUE,FALSE,FALSE,FALSE,FALSE,FALSE,Disabled,0.000000,0.000000,0.000000,TRUE,-0.333618,-0.116379,0.000000,0.028641,-0.010880,0.000000,0.038000,-0.050000,0.005000,1.910000,-0.140000,0.150000,-0.629138,Hold,0.062988,0.000000,Hold,-180.000000,2.000000,Suck,-1792.500000,1818.181818,Speed,-1717.500000,1818.181818,Speed,Off,On,0.000000,FALSE,0,,,,,0.000000,0.000000,-0.050000
10:17:29.245 AM 04/28/2016,Teleop Enabled,8,FALSE,0,NO ERROR,-0.000000,-0.006417,-0.000000,0.000000,TRUE,FALSE,FALSE,FALSE,FALSE,FALSE,Disabled,0.000000,0.000000,0.000000,TRUE,-0.331345,-0.117371,0.000000,0.060562,-0.024597,0.000000,0.067000,-0.078000,0.027000,1.900000,-0.140000,0.210000,-0.635916,Hold,0.062988,0.000000,Hold,-179.000000,2.000000,Suck,-1792.500000,1818.181818,Speed,-1717.500000,1818.181818,Speed,Off,On,0.000000,FALSE,0,,,,,0.000000,0.000000,-0.050000
10:17:29.345 AM 04/28/2016,Teleop Enabled,12,FALSE,0,NO ERROR,-0.000000,-0.006417,-0.000000,0.000000,TRUE,FALSE,FALSE,FALSE,FALSE,FALSE,Disabled,0.000000,0.000000,0.000000,TRUE,-0.327652,-0.119431,0.000000,0.078445,-0.047272,0.000000,-0.079000,0.049000,-0.012000,1.860000,-0.140000,0.180000,-0.648320,Hold,0.062988,0.000000,Hold,-179.000000,2.000000,Suck,-1792.500000,1818.181818,Speed,-1740.000000,1818.181818,Speed,Off,On,0.000000,FALSE,0,,,,,0.000000,0.000000,-0.050000
10:17:29.446 AM 04/28/2016,Teleop Enabled,13,FALSE,0,NO ERROR,-0.000000,-0.006417,-0.000000,0.000000,TRUE,FALSE,FALSE,FALSE,FALSE,FALSE,Disabled,0.000000,0.000000,0.000000,TRUE,-0.324707,-0.121399,0.000000,0.000000,-0.043777,0.000000,0.007000,0.084000,-0.043000,1.860000,-0.140000,0.210000,-0.652561,Hold,0.062988,0.000000,Hold,-179.000000,2.000000,Suck,-1785.000000,1818.181818,Speed,-1777.500000,1818.181818,Speed,Off,On,0.000000,FALSE,0,,,,,0.000000,0.000000,-0.050000
10:17:29.548 AM 04/28/2016,Teleop Enabled,11,FALSE,0,NO ERROR,-0.000000,-0.006417,-0.000000,0.000000,TRUE,FALSE,FALSE,FALSE,FALSE,FALSE,Disabled,0.000000,0.000000,0.000000,TRUE,-0.324539,-0.123520,0.000000,0.008392,-0.033218,0.000000,0.007000,0.084000,-0.043000,1.860000,-0.140000,0.210000,-0.656572,Hold,0.062988,0.000000,Hold,-179.000000,2.000000,Suck,-1792.500000,1818.181818,Speed,-1785.000000,1818.181818,Speed,Off,On,0.000000,FALSE,0,,,,,0.000000,0.000000,-0.050000
10:17:29.652 AM 04/28/2016,Teleop Enabled,13,FALSE,0,NO ERROR,-0.000000,-0.006417,-0.000000,0.000000,TRUE,FALSE,FALSE,FALSE,FALSE,FALSE,Disabled,0.000000,0.000000,0.000000,TRUE,-0.323685,-0.123795,0.000000,0.011124,0.005936,0.000000,0.041000,0.017000,-0.010000,1.870000,-0.130000,0.190000,-0.659608,Hold,0.062988,0.000000,Hold,-179.000000,2.000000,Suck,-1785.000000,1818.181818,Speed,-1740.000000,1818.181818,Speed,Off,On,0.000000,FALSE,0,,,,,0.000000,0.000000,-0.050000
10:17:29.749 AM 04/28/2016,Teleop Enabled,5,FALSE,0,NO ERROR,-0.000000,-0.006417,-0.000000,0.000000,TRUE,FALSE,FALSE,FALSE,FALSE,FALSE,Disabled,0.000000,0.000000,0.000000,TRUE,-0.323380,-0.122864,0.000000,0.007462,0.029297,0.000000,-0.029000,0.028000,0.062000,1.870000,-0.130000,0.190000,-0.656300,Hold,0.062988,0.000000,Hold,-179.000000,2.000000,Suck,-1777.500000,1818.181818,Speed,-1725.000000,1818.181818,Speed,Off,On,0.000000,FALSE,0,,,,,0.000000,0.000000,-0.050000
10:17:29.850 AM 04/28/2016,Teleop Enabled,8,FALSE,0,NO ERROR,-0.000000,-0.006417,-0.000000,0.000000,TRUE,FALSE,FALSE,FALSE,FALSE,FALSE,Disabled,0.000000,0.000000,0.000000,TRUE,-0.322922,-0.122162,0.000000,0.017258,0.000000,0.000000,-0.023000,-0.013000,-0.024000,1.870000,-0.120000,0.190000,-0.653704,Hold,0.062988,0.000000,Hold,-179.000000,2.000000,Suck,-1785.000000,1818.181818,Speed,-1755.000000,1818.181818,Speed,Off,On,0.000000,FALSE,0,,,,,0.000000,0.000000,-0.050000
10:17:29.956 AM 04/28/2016,Teleop Enabled,11,FALSE,0,NO ERROR,-0.000000,-0.006417,-0.000000,0.000000,TRUE,FALSE,FALSE,FALSE,FALSE,FALSE,Disabled,0.000000,0.000000,0.000000,TRUE,-0.322601,-0.122375,0.000000,0.002640,-0.008438,0.000000,-0.023000,-0.013000,-0.024000,1.910000,-0.120000,0.180000,-0.637338,Hold,0.062988,0.000000,Hold,-178.000000,2.000000,Suck,-1785.000000,1818.181818,Speed,-1785.000000,1818.181818,Speed,Off,On,0.000000,FALSE,0,,,,,0.000000,0.000000,-0.050000
10:17:30.056 AM 04/28/2016,Teleop Enabled,9,FALSE,0,NO ERROR,-0.000000,-0.006417,-0.000000,0.000000,TRUE,FALSE,FALSE,FALSE,FALSE,FALSE,Disabled,0.000000,0.000000,0.000000,TRUE,-0.321777,-0.122665,0.000000,0.033768,-0.025391,0.000000,-0.024000,0.049000,-0.047000,1.930000,-0.120000,0.210000,-0.651370,Hold,0.062988,0.000000,Hold,-178.000000,2.000000,Suck,-1777.500000,1818.181818,Speed,-1792.500000,1818.181818,Speed,Off,On,0.000000,FALSE,0,,,,,0.000000,0.000000,-0.050000
10:17:30.157 AM 04/28/2016,Teleop Enabled,8,FALSE,0,NO ERROR,-0.000000,-0.006417,-0.000000,0.000000,TRUE,FALSE,FALSE,FALSE,FALSE,FALSE,Disabled,0.000000,0.000000,0.000000,TRUE,-0.320129,-0.124405,0.000000,0.032852,-0.038864,0.000000,0.013000,0.038000,-0.028000,1.900000,-0.120000,0.190000,-0.655363,Hold,0.062988,0.000000,Hold,-178.000000,2.000000,Suck,-1762.500000,1818.181818,Speed,-1792.500000,1818.181818,Speed,Off,On,0.000000,FALSE,0,,,,,0.000000,0.000000,-0.050000
10:17:30.259 AM 04/28/2016,Teleop Enabled,9,FALSE,0,NO ERROR,-0.000000,-0.006417,-0.000000,0.000000,TRUE,FALSE,FALSE,FALSE,FALSE,FALSE,Disabled,0.000000,0.000000,0.000000,TRUE,-0.318436,-0.125778,0.000000,0.037720,-0.021881,0.000000,0.004000,-0.018000,0.001000,1.900000,-0.120000,0.230000,-0.661629,Hold,0.062988,0.000000,Hold,-177.000000,2.000000,Suck,-1747.500000,1818.181818,Speed,-1770.000000,1818.181818,Speed,Off,On,0.000000,FALSE,0,,,,,0.000000,0.000000,-0.050000
10:17:30.359 AM 04/28/2016,Teleop Enabled,10,FALSE,0,NO ERROR,-0.000000,-0.006417,-0.000000,0.000000,TRUE,FALSE,FALSE,FALSE,FALSE,FALSE,Disabled,0.000000,0.000000,0.000000,TRUE,-0.315933,-0.126450,0.000000,0.050949,0.000000,0.000000,0.036000,0.045000,-0.006000,1.930000,-0.120000,0.190000,-0.664906,Hold,0.062988,0.000000,Hold,-177.000000,2.000000,Suck,-1762.500000,1818.181818,Speed,-1755.000000,1818.181818,Speed,Off,On,0.000000,FALSE,0,,,,,0.000000,0.000000,-0.050000
10:17:30.460 AM 04/28/2016,Teleop Enabled,10,FALSE,0,NO ERROR,-0.000000,-0.006417,-0.000000,0.000000,TRUE,FALSE,FALSE,FALSE,FALSE,FALSE,Disabled,0.000000,0.000000,0.000000,TRUE,-0.313599,-0.126480,0.000000,0.039124,-0.002182,0.000000,-0.026000,-0.019000,0.025000,1.930000,-0.120000,0.190000,-0.672194,Hold,0.062988,0.000000,Hold,-177.000000,2.000000,Suck,-1777.500000,1818.181818,Speed,-1762.500000,1818.181818,Speed,Off,On,0.000000,FALSE,0,,,,,0.000000,0.000000,-0.050000
10:17:30.560 AM 04/28/2016,Teleop Enabled,11,FALSE,0,NO ERROR,-0.000000,-0.006417,-0.000000,0.000000,TRUE,FALSE,FALSE,FALSE,FALSE,FALSE,Disabled,0.000000,0.000000,0.000000,TRUE,-0.311813,-0.126968,0.000000,0.037674,-0.020111,0.000000,0.011000,0.021000,0.019000,1.900000,-0.120000,0.190000,-0.681585,Hold,0.062988,0.000000,Hold,-177.000000,2.000000,Suck,-1792.500000,1818.181818,Speed,-1777.500000,1818.181818,Speed,Off,On,0.000000,FALSE,0,,,,,0.000000,0.000000,-0.050000
10:17:30.661 AM 04/28/2016,Teleop Enabled,12,FALSE,0,NO ERROR,-0.000000,-0.006417,-0.000000,0.000000,TRUE,FALSE,FALSE,FALSE,FALSE,FALSE,Disabled,0.000000,0.000000,0.000000,TRUE,-0.310272,-0.127930,0.000000,0.041107,-0.024536,0.000000,0.045000,-0.012000,-0.072000,1.890000,-0.120000,0.170000,-0.674239,Hold,0.062988,0.000000,Hold,-177.000000,2.000000,Suck,-1792.500000,1818.181818,Speed,-1785.000000,1818.181818,Speed,Off,On,0.000000,FALSE,0,,,,,0.000000,0.000000,-0.050000
10:17:30.762 AM 04/28/2016,Teleop Enabled,11,FALSE,0,NO ERROR,-0.000000,-0.006417,-0.000000,0.000000,TRUE,FALSE,FALSE,FALSE,FALSE,FALSE,Disabled,0.000000,0.000000,0.000000,TRUE,-0.307663,-0.130402,0.000000,0.045258,-0.047440,0.000000,0.002000,-0.068000,-0.011000,1.910000,-0.110000,0.160000,-0.664090,Hold,0.062988,0.000000,Hold,-177.000000,2.000000,Suck,-1785.000000,1818.181818,Speed,-1792.500000,1818.181818,Speed,Off,On,0.000000,FALSE,0,,,,,0.000000,0.000000,-0.050000
10:17:30.864 AM 04/28/2016,Teleop Enabled,11,FALSE,0,NO ERROR,-0.000000,-0.006417,-0.000000,0.000000,TRUE,FALSE,FALSE,FALSE,FALSE,FALSE,Disabled,0.000000,0.000000,0.000000,TRUE,-0.306015,-0.132904,0.000000,0.015976,-0.043427,0.000000,0.000000,-0.022000,-0.021000,1.910000,-0.110000,0.160000,-0.666665,Hold,0.062988,0.000000,Hold,-177.000000,2.000000,Suck,-1777.500000,1818.181818,Speed,-1792.500000,1818.181818,Speed,Off,On,0.000000,FALSE,0,,,,,0.000000,0.000000,-0.050000
10:17:30.965 AM 04/28/2016,Teleop Enabled,14,FALSE,0,NO ERROR,-0.000000,-0.006417,-0.000000,0.000000,TRUE,FALSE,FALSE,FALSE,FALSE,FALSE,Disabled,0.000000,0.000000,0.000000,TRUE,-0.304703,-0.134842,0.000000,0.000000,0.000000,0.000000,-0.003000,-0.031000,0.000000,1.890000,-0.100000,0.180000,-0.676301,Hold,0.062988,0.000000,Hold,-177.000000,2.000000,Suck,-1777.500000,1818.181818,Speed,-1762.500000,1818.181818,Speed,Off,On,0.000000,FALSE,0,,,,,0.000000,0.000000,-0.050000
10:17:31.067 AM 04/28/2016,Teleop Enabled,8,FALSE,0,NO ERROR,-0.000000,-0.006417,-0.000000,0.000000,TRUE,FALSE,FALSE,FALSE,FALSE,FALSE,Disabled,0.000000,0.000000,0.000000,TRUE,-0.304703,-0.134842,0.000000,0.000000,0.000000,0.000000,-0.021000,0.090000,0.027000,1.900000,-0.110000,0.210000,-0.668145,Hold,0.062988,0.000000,Hold,-176.000000,2.000000,Suck,-1777.500000,1818.181818,Speed,-1747.500000,1818.181818,Speed,Off,On,0.000000,FALSE,0,,,,,0.000000,0.000000,-0.050000
10:17:31.167 AM 04/28/2016,Teleop Enabled,10,FALSE,0,NO ERROR,-0.000000,-0.006417,-0.000000,0.000000,TRUE,FALSE,FALSE,FALSE,FALSE,FALSE,Disabled,0.000000,0.000000,0.000000,TRUE,-0.304916,-0.133987,0.000000,-0.003845,0.009644,0.000000,0.030000,0.034000,-0.025000,1.890000,-0.110000,0.230000,-0.670480,Hold,0.062988,0.000000,Hold,-176.000000,2.000000,Suck,-1770.000000,1818.181818,Speed,-1755.000000,1818.181818,Speed,Off,On,0.000000,FALSE,0,,,,,0.000000,0.000000,-0.050000
10:17:31.271 AM 04/28/2016,Teleop Enabled,13,FALSE,0,NO ERROR,-0.000000,-0.006417,-0.000000,0.000000,TRUE,FALSE,FALSE,FALSE,FALSE,FALSE,Disabled,0.000000,0.000000,0.000000,TRUE,-0.304764,-0.133453,0.000000,0.003448,0.021118,0.000000,0.001000,0.039000,0.007000,1.890000,-0.110000,0.230000,-0.672270,Hold,0.062988,0.000000,Hold,-176.000000,2.000000,Suck,-1770.000000,1818.181818,Speed,-1770.000000,1818.181818,Speed,Off,On,0.000000,FALSE,0,,,,,0.000000,0.000000,-0.050000
10:17:31.375 AM 04/28/2016,Teleop Enabled,15,FALSE,0,NO ERROR,-0.000000,-0.006417,-0.000000,0.000000,TRUE,FALSE,FALSE,FALSE,FALSE,FALSE,Disabled,0.000000,0.000000,0.000000,TRUE,-0.304230,-0.132446,0.000000,0.005234,0.003815,0.000000,-0.018000,0.010000,-0.063000,1.860000,-0.110000,0.310000,-0.665033,Hold,0.062988,0.000000,Hold,-176.000000,2.000000,Suck,-1785.000000,1818.181818,Speed,-1770.000000,1818.181818,Speed,Off,On,0.000000,FALSE,0,,,,,0.000000,0.000000,-0.050000
10:17:31.474 AM 04/28/2016,Teleop Enabled,10,FALSE,0,NO ERROR,-0.000000,-0.006417,-0.000000,0.000000,TRUE,FALSE,FALSE,FALSE,FALSE,FALSE,Disabled,0.000000,0.000000,0.000000,TRUE,-0.303299,-0.133011,0.000000,0.027527,-0.025650,0.000000,-0.046000,-0.052000,0.044000,1.830000,-0.100000,0.290000,-0.675210,Hold,0.062988,0.000000,Hold,-176.000000,2.000000,Suck,-1800.000000,1818.181818,Speed,-1755.000000,1818.181818,Speed,Off,On,0.000000,FALSE,0,,,,,0.000000,0.000000,-0.050000
10:17:31.576 AM 04/28/2016,Teleop Enabled,9,FALSE,0,NO ERROR,-0.000000,-0.006417,-0.000000,0.000000,TRUE,FALSE,FALSE,FALSE,FALSE,FALSE,Disabled,0.000000,0.000000,0.000000,TRUE,-0.303070,-0.133423,0.000000,0.000000,0.000000,0.000000,-0.022000,0.014000,-0.006000,1.830000,-0.100000,0.290000,-0.674779,Hold,0.062988,0.000000,Hold,-175.000000,2.000000,Suck,-1800.000000,1818.181818,Speed,-1762.500000,1818.181818,Speed,Off,On,0.000000,FALSE,0,,,,,0.000000,0.000000,-0.050000
10:17:31.679 AM 04/28/2016,Teleop Enabled,11,FALSE,0,NO ERROR,-0.000000,-0.006417,-0.000000,0.000000,TRUE,FALSE,FALSE,FALSE,FALSE,FALSE,Disabled,0.000000,0.000000,0.000000,TRUE,-0.304352,-0.132523,0.000000,-0.012924,-0.003738,0.000000,-0.009000,0.053000,-0.041000,1.850000,-0.100000,0.280000,-0.681182,Hold,0.062988,0.000000,Hold,-175.000000,2.000000,Suck,-1800.000000,1818.181818,Speed,-1747.500000,1818.181818,Speed,Off,On,0.000000,FALSE,0,,,,,0.000000,0.000000,-0.050000
10:17:31.779 AM 04/28/2016,Teleop Enabled,10,FALSE,0,NO ERROR,-0.000000,-0.006417,-0.000000,0.000000,TRUE,FALSE,FALSE,FALSE,FALSE,FALSE,Disabled,0.000000,0.000000,0.000000,TRUE,-0.304352,-0.132523,0.000000,-0.012924,-0.003738,0.000000,0.023000,0.064000,-0.010000,1.870000,-0.100000,0.240000,-0.688043,Hold,0.062988,0.000000,Hold,-175.000000,2.000000,Suck,-1792.500000,1818.181818,Speed,-1747.500000,1818.181818,Speed,Off,On,0.000000,FALSE,0,,,,,0.000000,0.000000,-0.050000
10:17:31.881 AM 04/28/2016,Teleop Enabled,13,FALSE,0,NO ERROR,-0.000000,-0.006417,-0.000000,0.000000,TRUE,FALSE,FALSE,FALSE,FALSE,FALSE,Disabled,0.000000,0.000000,0.000000,TRUE,-0.303299,-0.132843,0.000000,0.014221,0.015823,0.000000,-0.036000,0.001000,-0.040000,1.850000,-0.100000,0.240000,-0.693693,Hold,0.062988,0.000000,Hold,-175.000000,2.000000,Suck,-1792.500000,1818.181818,Speed,-1777.500000,1818.181818,Speed,Off,On,0.000000,FALSE,0,,,,,0.000000,0.000000,-0.050000
10:17:31.983 AM 04/28/2016,Teleop Enabled,11,FALSE,0,NO ERROR,-0.000000,-0.006417,-0.000000,0.000000,TRUE,FALSE,FALSE,FALSE,FALSE,FALSE,Disabled,0.000000,0.000000,0.000000,TRUE,-0.303299,-0.132843,0.000000,0.014221,0.015823,0.000000,-0.027000,0.011000,-0.011000,1.840000,-0.100000,0.260000,-0.699968,Hold,0.062988,0.000000,Hold,-175.000000,2.000000,Suck,-1800.000000,1818.181818,Speed,-1785.000000,1818.181818,Speed,Off,On,0.000000,FALSE,0,,,,,0.000000,0.000000,-0.050000
10:17:32.081 AM 04/28/2016,Teleop Enabled,10,FALSE,0,NO ERROR,-0.000000,-0.006417,-0.000000,0.000000,TRUE,FALSE,FALSE,FALSE,FALSE,FALSE,Disabled,0.000000,0.000000,0.000000,TRUE,-0.303253,-0.131653,0.000000,-0.003418,0.001022,0.000000,-0.102000,-0.081000,-0.053000,1.840000,-0.100000,0.260000,-0.705311,Hold,0.062988,0.000000,Hold,-175.000000,2.000000,Suck,-1800.000000,1818.181818,Speed,-1785.000000,1818.181818,Speed,Off,On,0.000000,FALSE,0,,,,,0.000000,0.000000,-0.050000
10:17:32.185 AM 04/28/2016,Teleop Enabled,10,FALSE,0,NO ERROR,-0.000000,-0.006417,-0.000000,0.000000,TRUE,FALSE,FALSE,FALSE,FALSE,FALSE,Disabled,0.000000,0.000000,0.000000,TRUE,-0.303253,-0.131653,0.000000,-0.003418,0.001022,0.000000,-0.024000,0.036000,-0.021000,1.840000,-0.090000,0.250000,-0.691730,Hold,0.062988,0.000000,Hold,-175.000000,2.000000,Suck,-1800.000000,1818.181818,Speed,-1777.500000,1818.181818,Speed,Off,On,0.000000,FALSE,0,,,,,0.000000,0.000000,-0.050000
10:17:32.286 AM 04/28/2016,Teleop Enabled,9,FALSE,0,NO ERROR,-0.000000,-0.006417,-0.000000,0.000000,TRUE,FALSE,FALSE,FALSE,FALSE,FALSE,Disabled,0.000000,0.000000,0.000000,TRUE,-0.303207,-0.131638,0.000000,-0.003113,0.003860,0.000000,0.013000,0.014000,-0.002000,1.840000,-0.090000,0.250000,-0.698264,Hold,0.062988,0.000000,Hold,-174.000000,2.000000,Suck,-1800.000000,1818.181818,Speed,-1762.500000,1818.181818,Speed,Off,On,0.000000,FALSE,0,,,,,0.000000,0.000000,-0.050000
10:17:32.389 AM 04/28/2016,Teleop Enabled,10,FALSE,0,NO ERROR,-0.000000,-0.006417,-0.000000,0.000000,TRUE,FALSE,FALSE,FALSE,FALSE,FALSE,Disabled,0.000000,0.000000,0.000000,TRUE,-0.302567,-0.131607,0.000000,0.022079,0.001022,0.000000,0.050000,0.004000,0.010000,1.850000,-0.090000,0.270000,-0.697927,Hold,0.062988,0.000000,Hold,-174.000000,2.000000,Suck,-1792.500000,1818.181818,Speed,-1755.000000,1818.181818,Speed,Off,On,0.000000,FALSE,0,,,,,0.000000,0.000000,-0.050000
10:17:32.489 AM 04/28/2016,Teleop Enabled,12,FALSE,0,NO ERROR,-0.000000,-0.006417,-0.000000,0.000000,TRUE,FALSE,FALSE,FALSE,FALSE,FALSE,Disabled,0.000000,0.000000,0.000000,TRUE,-0.301224,-0.131500,0.000000,0.021042,0.000000,0.000000,0.048000,0.019000,0.002000,1.890000,-0.090000,0.240000,-0.702533,Hold,0.062988,0.000000,Hold,-174.000000,2.000000,Suck,-1792.500000,1818.181818,Speed,-1762.500000,1818.181818,Speed,Off,On,0.000000,FALSE,0,,,,,0.000000,0.000000,-0.050000
10:17:32.590 AM 04/28/2016,Teleop Enabled,9,FALSE,0,NO ERROR,-0.000000,-0.006417,-0.000000,0.000000,TRUE,FALSE,FALSE,FALSE,FALSE,FALSE,Disabled,0.000000,0.000000,0.000000,TRUE,-0.299850,-0.130829,0.000000,0.033081,0.019791,0.000000,-0.060000,0.023000,-0.009000,1.890000,-0.080000,0.230000,-0.691713,Hold,0.062988,0.000000,Hold,-174.000000,2.000000,Suck,-1785.000000,1818.181818,Speed,-1747.500000,1818.181818,Speed,Off,On,0.000000,FALSE,0,,,,,0.000000,0.000000,-0.050000
10:17:32.694 AM 04/28/2016,Teleop Enabled,10,FALSE,0,NO ERROR,-0.000000,-0.006417,-0.000000,0.000000,TRUE,FALSE,FALSE,FALSE,FALSE,FALSE,Disabled,0.000000,0.000000,0.000000,TRUE,-0.298111,-0.129532,0.000000,0.030212,0.017410,0.000000,-0.025000,-0.042000,-0.005000,1.870000,-0.080000,0.260000,-0.690240,Hold,0.062988,0.000000,Hold,-174.000000,2.000000,Suck,-1785.000000,1818.181818,Speed,-1740.000000,1818.181818,Speed,Off,On,0.000000,FALSE,0,,,,,0.000000,0.000000,-0.050000
10:17:32.795 AM 04/28/2016,Teleop Enabled,11,FALSE,0,NO ERROR,-0.000000,-0.006417,-0.000000,0.000000,TRUE,FALSE,FALSE,FALSE,FALSE,FALSE,Disabled,0.000000,0.000000,0.000000,TRUE,-0.297897,-0.127563,0.000000,-0.008804,0.025253,0.000000,-0.012000,-0.046000,-0.021000,1.860000,-0.080000,0.230000,-0.676280,Hold,0.062988,0.000000,Hold,-174.000000,2.000000,Suck,-1785.000000,1818.181818,Speed,-1755.000000,1818.181818,Speed,Off,On,0.000000,FALSE,0,,,,,0.000000,0.000000,-0.050000
10:17:32.895 AM 04/28/2016,Teleop Enabled,9,FALSE,0,NO ERROR,-0.000000,-0.006417,-0.000000,0.000000,TRUE,FALSE,FALSE,FALSE,FALSE,FALSE,Disabled,0.000000,0.000000,0.000000,TRUE,-0.297897,-0.126358,0.000000,0.000778,0.023422,0.000000,0.063000,0.048000,-0.080000,1.840000,-0.070000,0.190000,-0.668238,Hold,0.062988,0.000000,Hold,-174.000000,2.000000,Suck,-1785.000000,1818.181818,Speed,-1755.000000,1818.181818,Speed,Off,On,0.000000,FALSE,0,,,,,0.000000,0.000000,-0.050000
10:17:32.998 AM 04/28/2016,Teleop Enabled,9,FALSE,0,NO ERROR,-0.000000,-0.006417,-0.000000,0.000000,TRUE,FALSE,FALSE,FALSE,FALSE,FALSE,Disabled,0.000000,0.000000,0.000000,TRUE,-0.298264,-0.125580,0.000000,-0.013428,0.009796,0.000000,-0.044000,-0.033000,0.076000,1.840000,-0.070000,0.190000,-0.678008,Hold,0.062988,0.000000,Hold,-173.000000,2.000000,Suck,-1792.500000,1818.181818,Speed,-1762.500000,1818.181818,Speed,Off,On,0.000000,FALSE,0,,,,,0.000000,0.000000,-0.050000
10:17:33.098 AM 04/28/2016,Teleop Enabled,8,FALSE,0,NO ERROR,-0.000000,-0.006417,-0.000000,0.000000,TRUE,FALSE,FALSE,FALSE,FALSE,FALSE,Disabled,0.000000,0.000000,0.000000,TRUE,-0.298264,-0.125580,0.000000,-0.013428,0.009796,0.000000,0.010000,0.022000,0.011000,1.860000,-0.070000,0.210000,-0.686804,Hold,0.062988,0.000000,Hold,-173.000000,2.000000,Suck,-1785.000000,1818.181818,Speed,-1732.500000,1818.181818,Speed,Off,On,0.000000,FALSE,0,,,,,0.000000,0.000000,-0.050000
10:17:33.200 AM 04/28/2016,Teleop Enabled,11,FALSE,0,NO ERROR,-0.000000,-0.006417,-0.000000,0.000000,TRUE,FALSE,FALSE,FALSE,FALSE,FALSE,Disabled,0.000000,0.000000,0.000000,TRUE,-0.298706,-0.125320,0.000000,-0.008621,0.003906,0.000000,0.020000,0.019000,-0.033000,1.880000,-0.070000,0.200000,-0.694467,Hold,0.062988,0.000000,HighGoal,-173.000000,73728.000000,Suck,-1777.500000,1818.181818,Speed,-1732.500000,1818.181818,Speed,Off,On,0.000000,FALSE,0,,,,,0.000000,0.000000,-0.050000
