Time,Robot Mode,Loop Time,Error Status,Error Code,Error Source,Left Motor Output,Left Motor Encoder,Right Motor Output,Right Motor Encoder,Is Level,Is Stalled,Ball Detector Photoeye,Vision Enabled,Vision Teleop Control,Vision Auto Control,Vision Current State,Vision X Output,Vision NavX Error,Vision NavX Target,NavX Connection Status,NavX Displacement X,NavX Displacement Y,NavX Displacement Z,NavX Velocity X,NavX Velocity Y,NavX Velocity Z,NavX Acceleration X,NavX Acceleration Y,NavX Acceleration Z,NavX Pitch,NavX Yaw,NavX Roll,Gyro Angle,Roller Arm State,Roller Arm Actual,Roller Arm Desired,Shooter Arm State,Shooter Arm Actual,Shooter Arm Desired,Shooter State,Actual RPM Left,Desired RPM Left,Control Mode Left,Actual RPM Right,Desired RPM Right,Control Mode Right,Ball Shooter Cylinder,Ball Halo Cylinder,Scaler Motor Output,Scaler Solenoid Fire,Auto To Run,Auto Current File,Auto File Status,Auto Current Command,Auto Trimmed Command,Shooter Amps Left,Shooter Amps Right, Vision After Offset
08:30:20.019 AM 04/28/2016,Teleop Enabled,9,TRUE,-44005,<LOCATION>WPI_CameraWait for Raw Image String.vi:6640001<CALLSTACK>WPI_CameraWait for Raw Image String.vi:6640001< <WPI_CameraGet Image.vi< <Vision Processing.vi< <Robot Main.vi,-0.000000,-0.211750,-0.000000,0.802081,TRUE,FALSE,FALSE,FALSE,FALSE,FALSE,Disabled,0.000000,0.000000,0.000000,TRUE,-0.069427,-0.024139,0.000000,0.000000,0.000000,0.000000,0.000000,0.001000,0.001000,1.840000,-86.190000,0.130000,-89.250890,ResetBack,1.472168,-0.000049,ResetBack,-4.000000,-0.250000,Suck,0.000000,1818.181818,Speed,0.000000,1818.181818,Speed,Off,On,0.000000,FALSE,0,,,,,0.000000,0.000000,-0.050000
08:30:20.120 AM 04/28/2016,Teleop Enabled,9,FALSE,0,NO ERROR,-0.000000,-0.211750,-0.000000,0.814915,TRUE,FALSE,FALSE,FALSE,FALSE,FALSE,Disabled,0.000000,0.000000,0.000000,TRUE,-0.069427,-0.023865,0.000000,0.000000,0.020554,0.000000,-0.016000,0.091000,0.286000,2.010000,-86.220000,0.200000,-89.319349,ResetBack,0.261963,-0.000049,ResetBack,-4.000000,-0.250000,Suck,-30.000000,1818.181818,Speed,0.000000,1818.181818,Speed,Off,On,0.000000,FALSE,0,,,,,0.000000,0.000000,-0.050000
08:30:20.221 AM 04/28/2016,Teleop Enabled,9,FALSE,0,NO ERROR,-0.000000,-0.211750,-0.000000,0.834165,TRUE,FALSE,FALSE,FALSE,FALSE,FALSE,Disabled,0.000000,0.000000,0.000000,TRUE,-0.068680,-0.020752,0.000000,0.031891,0.100861,0.000000,0.011000,-0.015000,-0.079000,2.010000,-86.240000,0.250000,-89.318234,ResetBack,0.100830,-0.000049,ResetBack,3366.000000,-0.250000,Suck,-427.500000,1818.181818,Speed,-420.000000,1818.181818,Speed,Off,On,0.000000,FALSE,0,,,,,0.000000,0.000000,-0.050000
08:30:20.320 AM 04/28/2016,Teleop Enabled,9,FALSE,0,NO ERROR,-0.000000,-0.211750,-0.000000,0.834165,TRUE,FALSE,FALSE,FALSE,FALSE,FALSE,Disabled,0.000000,0.000000,0.000000,TRUE,-0.068344,-0.017273,0.000000,0.002289,0.041824,0.000000,0.053000,0.003000,-0.040000,2.040000,-86.230000,0.210000,-89.320334,ResetBack,0.092041,-0.000049,ResetBack,9987.000000,-0.250000,Suck,-937.500000,1818.181818,Speed,-817.500000,1818.181818,Speed,Off,On,0.000000,FALSE,0,,,,,0.000000,0.000000,-0.050000
08:30:20.420 AM 04/28/2016,Teleop Enabled,10,FALSE,0,NO ERROR,-0.000000,-0.211750,-0.000000,0.834165,TRUE,FALSE,FALSE,FALSE,FALSE,FALSE,Disabled,0.000000,0.000000,0.000000,TRUE,-0.067917,-0.014877,0.000000,0.011398,0.059036,0.000000,-0.026000,0.041000,0.069000,1.990000,-86.240000,0.260000,-89.326541,Reset,0.082031,0.000000,ResetBack,11735.000000,-0.250000,Suck,-1380.000000,1818.181818,Speed,-1335.000000,1818.181818,Speed,Off,On,0.000000,FALSE,0,,,,,0.000000,0.000000,-0.050000
08:30:20.521 AM 04/28/2016,Teleop Enabled,9,FALSE,0,NO ERROR,-0.000000,-0.211750,-0.000000,0.834165,TRUE,FALSE,FALSE,FALSE,FALSE,FALSE,Disabled,0.000000,0.000000,0.000000,TRUE,-0.067490,-0.012115,0.000000,0.004623,0.047089,0.000000,0.021000,-0.088000,-0.119000,2.030000,-86.240000,0.300000,-89.326541,Hold,-0.000244,0.000000,ResetBack,11943.000000,-0.250000,Suck,-1702.500000,1818.181818,Speed,-1965.000000,1818.181818,Speed,Off,On,0.000000,FALSE,0,,,,,0.000000,0.000000,-0.050000
08:30:20.622 AM 04/28/2016,Teleop Enabled,9,FALSE,0,NO ERROR,-0.000000,-0.211750,-0.000000,0.834165,TRUE,FALSE,FALSE,FALSE,FALSE,FALSE,Disabled,0.000000,0.000000,0.000000,TRUE,-0.067062,-0.011215,0.000000,0.008530,-0.000549,0.000000,-0.048000,-0.125000,0.004000,1.980000,-86.240000,0.170000,-89.329398,Hold,-0.000244,0.000000,ResetBack,11943.000000,-0.250000,Suck,-1785.000000,1818.181818,Speed,-1987.500000,1818.181818,Speed,Off,On,0.000000,FALSE,0,,,,,0.000000,0.000000,-0.050000
08:30:20.721 AM 04/28/2016,Teleop Enabled,10,FALSE,0,NO ERROR,-0.000000,-0.211750,-0.000000,0.834165,TRUE,FALSE,FALSE,FALSE,FALSE,FALSE,Disabled,0.000000,0.000000,0.000000,TRUE,-0.066299,-0.012817,0.000000,0.010529,-0.038635,0.000000,0.061000,0.029000,-0.062000,2.030000,-86.240000,0.070000,-89.313703,Hold,-0.000244,0.000000,ResetBack,11971.000000,-0.250000,Suck,-1755.000000,1818.181818,Speed,-1747.500000,1818.181818,Speed,Off,On,0.000000,FALSE,0,,,,,0.000000,0.000000,-0.050000
08:30:20.822 AM 04/28/2016,Teleop Enabled,9,FALSE,0,NO ERROR,-0.000000,-0.211750,-0.000000,0.834165,TRUE,FALSE,FALSE,FALSE,FALSE,FALSE,Disabled,0.000000,0.000000,0.000000,TRUE,-0.065659,-0.014893,0.000000,0.005463,-0.025803,0.000000,-0.068000,-0.013000,-0.044000,2.040000,-86.240000,0.090000,-89.320847,Hold,-0.000244,0.000000,ResetBack,12194.000000,-0.250000,Suck,-1695.000000,1818.181818,Speed,-1612.500000,1818.181818,Speed,Off,On,0.000000,FALSE,0,,,,,0.000000,0.000000,-0.050000
08:30:20.921 AM 04/28/2016,Teleop Enabled,9,FALSE,0,NO ERROR,-0.000000,-0.211750,-0.000000,0.834165,TRUE,FALSE,FALSE,FALSE,FALSE,FALSE,Disabled,0.000000,0.000000,0.000000,TRUE,-0.064941,-0.016525,0.000000,0.014435,-0.040863,0.000000,0.047000,0.012000,0.060000,2.020000,-86.250000,0.100000,-89.320874,Hold,-0.000244,0.000000,ResetBack,12689.000000,-0.250000,Suck,-1695.000000,1818.181818,Speed,-1627.500000,1818.181818,Speed,Off,On,0.000000,FALSE,0,,,,,0.000000,0.000000,-0.050000
08:30:21.021 AM 04/28/2016,Teleop Enabled,9,FALSE,0,NO ERROR,-0.000000,-0.211750,-0.000000,0.834165,TRUE,FALSE,FALSE,FALSE,FALSE,FALSE,Disabled,0.000000,0.000000,0.000000,TRUE,-0.064148,-0.017105,0.000000,0.005463,-0.010895,0.000000,-0.009000,0.022000,-0.055000,2.040000,-86.250000,0.070000,-89.303341,Hold,-0.000244,0.000000,ResetBack,13010.000000,-0.250000,Suck,-1710.000000,1818.181818,Speed,-1770.000000,1818.181818,Speed,Off,On,0.000000,FALSE,0,,,,,0.000000,0.000000,-0.050000
08:30:21.121 AM 04/28/2016,Teleop Enabled,9,FALSE,0,NO ERROR,-0.000000,-0.211750,-0.000000,0.834165,TRUE,FALSE,FALSE,FALSE,FALSE,FALSE,Disabled,0.000000,0.000000,0.000000,TRUE,-0.063843,-0.017822,0.000000,0.016449,-0.012711,0.000000,0.068000,0.025000,0.025000,2.020000,-86.240000,0.000000,-89.302408,Hold,-0.000244,0.000000,ResetBack,13093.000000,-0.250000,Suck,-1710.000000,1818.181818,Speed,-1815.000000,1818.181818,Speed,Off,On,0.000000,FALSE,0,,,,,0.000000,0.000000,-0.050000
08:30:21.222 AM 04/28/2016,Teleop Enabled,9,FALSE,0,NO ERROR,-0.000000,-0.211750,-0.000000,0.834165,TRUE,FALSE,FALSE,FALSE,FALSE,FALSE,Disabled,0.000000,0.000000,0.000000,TRUE,-0.063629,-0.018402,0.000000,0.001007,-0.010971,0.000000,0.074000,0.020000,0.079000,2.010000,-86.250000,0.030000,-89.289926,Hold,-0.000244,0.000000,ResetBack,13116.000000,-0.250000,Suck,-1710.000000,1818.181818,Speed,-1762.500000,1818.181818,Speed,Off,On,0.000000,FALSE,0,,,,,0.000000,0.000000,-0.050000
08:30:21.322 AM 04/28/2016,Teleop Enabled,9,FALSE,0,NO ERROR,-0.000000,-0.211750,-0.000000,0.834165,TRUE,FALSE,FALSE,FALSE,FALSE,FALSE,Disabled,0.000000,0.000000,0.000000,TRUE,-0.062958,-0.018860,0.000000,0.022873,-0.008514,0.000000,0.017000,-0.005000,0.029000,2.000000,-86.250000,0.080000,-89.302215,Hold,-0.000244,0.000000,Reset,0.000000,2.000000,Suck,-1702.500000,1818.181818,Speed,-1717.500000,1818.181818,Speed,Off,On,0.000000,FALSE,0,,,,,0.000000,0.000000,-0.050000
08:30:21.421 AM 04/28/2016,Teleop Enabled,10,FALSE,0,NO ERROR,-0.000000,-0.211750,-0.000000,0.834165,TRUE,FALSE,FALSE,FALSE,FALSE,FALSE,Disabled,0.000000,0.000000,0.000000,TRUE,-0.062180,-0.018936,0.000000,0.000000,0.011658,0.000000,0.015000,-0.012000,0.027000,1.940000,-86.250000,0.090000,-89.303303,Hold,-0.000244,0.000000,Hold,0.000000,2.000000,Suck,-1702.500000,1818.181818,Speed,-1717.500000,1818.181818,Speed,Off,On,0.000000,FALSE,0,,,,,0.000000,0.000000,-0.050000
08:30:21.522 AM 04/28/2016,Teleop Enabled,10,FALSE,0,NO ERROR,-0.000000,-0.211750,-0.000000,0.834165,TRUE,FALSE,FALSE,FALSE,FALSE,FALSE,Disabled,0.000000,0.000000,0.000000,TRUE,-0.061829,-0.019318,0.000000,0.006226,-0.027863,0.000000,-0.051000,0.006000,0.038000,2.000000,-86.250000,0.030000,-89.308601,Hold,-0.000244,0.000000,Hold,-183.000000,2.000000,Suck,-1717.500000,1818.181818,Speed,-1755.000000,1818.181818,Speed,Off,On,0.000000,FALSE,0,,,,,0.000000,0.000000,-0.050000
08:30:21.621 AM 04/28/2016,Teleop Enabled,10,FALSE,0,NO ERROR,-0.000000,-0.211750,-0.000000,0.834165,TRUE,FALSE,FALSE,FALSE,FALSE,FALSE,Disabled,0.000000,0.000000,0.000000,TRUE,-0.061951,-0.020035,0.000000,0.005600,-0.007156,0.000000,0.031000,-0.056000,0.013000,1.960000,-86.250000,0.080000,-89.312794,Hold,-0.000244,0.000000,HighGoal,-183.000000,83968.000000,Suck,-1710.000000,1818.181818,Speed,-1755.000000,1818.181818,Speed,Off,On,0.000000,FALSE,0,,,,,0.000000,0.000000,-0.050000
08:30:21.721 AM 04/28/2016,Teleop Enabled,9,FALSE,0,NO ERROR,-0.000000,-0.211750,-0.000000,0.834165,TRUE,FALSE,FALSE,FALSE,FALSE,FALSE,Disabled,0.000000,0.000000,0.000000,TRUE,-0.061127,-0.020370,0.000000,-0.011124,0.005585,0.000000,0.000000,-0.002000,-0.038000,1.990000,-86.250000,0.060000,-89.324227,Hold,-0.000244,0.000000,Hold,-5967.000000,83968.000000,Suck,-1695.000000,1818.181818,Speed,-1747.500000,1818.181818,Speed,Off,On,0.000000,FALSE,0,,,,,0.000000,0.000000,-0.050000
08:30:21.822 AM 04/28/2016,Teleop Enabled,9,FALSE,0,NO ERROR,-0.000000,-0.211750,-0.000000,0.834165,TRUE,FALSE,FALSE,FALSE,FALSE,FALSE,Disabled,0.000000,0.000000,0.000000,TRUE,-0.060867,-0.020309,0.000000,0.018692,-0.008041,0.000000,-0.017000,0.032000,-0.029000,2.000000,-86.250000,0.070000,-89.320833,Hold,-0.000244,0.000000,HighGoal,-27763.000000,83968.000000,Suck,-1695.000000,1818.181818,Speed,-1732.500000,1818.181818,Speed,Off,On,0.000000,FALSE,0,,,,,0.000000,0.000000,-0.050000
08:30:21.922 AM 04/28/2016,Teleop Enabled,9,FALSE,0,NO ERROR,-0.000000,-0.211750,-0.000000,0.834165,TRUE,FALSE,FALSE,FALSE,FALSE,FALSE,Disabled,0.000000,0.000000,0.000000,TRUE,-0.060287,-0.020981,0.000000,0.026001,-0.021240,0.000000,0.178000,-0.102000,0.024000,2.010000,-86.250000,0.110000,-89.318158,Hold,-0.000244,0.000000,Hold,-43892.000000,83968.000000,Suck,-1710.000000,1818.181818,Speed,-1732.500000,1818.181818,Speed,Off,On,0.000000,FALSE,0,,,,,0.000000,0.000000,-0.050000
08:30:22.026 AM 04/28/2016,Teleop Enabled,9,FALSE,0,NO ERROR,-0.000000,-0.205333,-0.000000,0.802081,TRUE,FALSE,FALSE,FALSE,FALSE,FALSE,Disabled,0.000000,0.000000,0.000000,TRUE,-0.059097,-0.025040,0.000000,0.013031,-0.085220,0.000000,0.098000,0.085000,-0.031000,1.980000,-86.220000,-0.070000,-89.277474,Hold,-0.000244,0.000000,HighGoal,-43892.000000,83968.000000,Suck,-1702.500000,1818.181818,Speed,-1770.000000,1818.181818,Speed,Off,On,0.000000,FALSE,0,,,,,0.000000,0.000000,-0.050000
08:30:22.123 AM 04/28/2016,Teleop Enabled,11,FALSE,0,NO ERROR,-0.000000,-0.205333,-0.000000,0.795665,TRUE,FALSE,FALSE,FALSE,FALSE,FALSE,Disabled,0.000000,0.000000,0.000000,TRUE,-0.058060,-0.027557,0.000000,0.011368,-0.037872,0.000000,0.004000,-0.053000,0.038000,1.950000,-86.240000,0.120000,-89.295100,Hold,-0.000244,0.000000,Hold,-64988.000000,83968.000000,Suck,-1687.500000,1818.181818,Speed,-1725.000000,1818.181818,Speed,Off,On,0.000000,FALSE,0,,,,,0.000000,0.000000,-0.050000
08:30:22.223 AM 04/28/2016,Teleop Enabled,10,FALSE,0,NO ERROR,-0.000000,-0.205333,-0.000000,0.795665,TRUE,FALSE,FALSE,FALSE,FALSE,FALSE,Disabled,0.000000,0.000000,0.000000,TRUE,-0.057205,-0.028641,0.000000,0.012039,-0.026550,0.000000,-0.020000,0.157000,0.007000,1.930000,-86.230000,0.150000,-89.288084,Hold,-0.000244,0.000000,Hold,-86322.000000,83968.000000,Suck,-1672.500000,1818.181818,Speed,-1717.500000,1818.181818,Speed,Off,On,0.000000,FALSE,0,,,,,0.000000,0.000000,-0.050000
08:30:22.324 AM 04/28/2016,Teleop Enabled,8,FALSE,0,NO ERROR,-0.000000,-0.436332,-0.000000,1.097247,TRUE,FALSE,FALSE,FALSE,FALSE,FALSE,Disabled,0.000000,0.000000,0.000000,TRUE,-0.056900,-0.024216,0.000000,-0.000381,0.151962,0.000000,0.067000,0.123000,-0.476000,1.770000,-86.290000,-0.430000,-89.310450,Hold,-0.000244,0.000000,Hold,-84062.000000,83968.000000,Suck,-1657.500000,1818.181818,Speed,-1680.000000,1818.181818,Speed,Off,On,0.000000,FALSE,0,,,,,0.000000,0.000000,-0.050000
08:30:22.426 AM 04/28/2016,Teleop Enabled,9,FALSE,0,NO ERROR,-0.000000,-1.045914,-0.000000,1.719663,TRUE,FALSE,FALSE,FALSE,FALSE,FALSE,Disabled,0.000000,0.000000,0.000000,TRUE,-0.057129,-0.017609,0.000000,-0.008362,0.043518,0.000000,0.049000,-0.284000,0.368000,1.940000,-86.170000,0.790000,-89.234328,Hold,-0.000244,0.000000,Hold,-83943.000000,83968.000000,Suck,-1687.500000,1818.181818,Speed,-1702.500000,1818.181818,Speed,Off,On,0.000000,FALSE,0,,,,,0.000000,0.000000,-0.050000
08:30:22.525 AM 04/28/2016,Teleop Enabled,9,FALSE,0,NO ERROR,-0.000000,-1.045914,-0.000000,1.751746,TRUE,FALSE,FALSE,FALSE,FALSE,FALSE,Disabled,0.000000,0.000000,0.000000,TRUE,-0.059189,-0.016739,0.000000,-0.046021,0.030792,0.000000,0.037000,-0.132000,0.102000,1.870000,-86.220000,-0.070000,-89.265924,Hold,-0.000244,0.000000,Hold,-83943.000000,83968.000000,Suck,-1695.000000,1818.181818,Speed,-1747.500000,1818.181818,Speed,Off,On,0.000000,FALSE,0,,,,,0.000000,0.000000,-0.050000
08:30:22.626 AM 04/28/2016,Teleop Enabled,9,FALSE,0,NO ERROR,-0.000000,-1.039498,-0.000000,1.732496,TRUE,FALSE,FALSE,FALSE,FALSE,FALSE,Disabled,0.000000,0.000000,0.000000,TRUE,-0.060745,-0.018448,0.000000,-0.029404,-0.067505,0.000000,0.084000,0.058000,0.026000,1.940000,-86.280000,-0.130000,-89.343240,Hold,-0.000244,0.000000,HighGoal,-84234.000000,83968.000000,Suck,-1695.000000,1818.181818,Speed,-1755.000000,1818.181818,Speed,Off,On,0.000000,FALSE,0,,,,,0.000000,0.000000,-0.050000
08:30:22.727 AM 04/28/2016,Teleop Enabled,10,FALSE,0,NO ERROR,-0.000000,-1.007414,-0.000000,1.642663,TRUE,FALSE,FALSE,FALSE,FALSE,FALSE,Disabled,0.000000,0.000000,0.000000,TRUE,-0.061081,-0.018829,0.000000,0.001694,0.052399,0.000000,0.067000,0.061000,-0.305000,1.710000,-86.250000,-0.350000,-89.291337,Hold,-0.000244,0.000000,Hold,-84234.000000,83968.000000,Suck,-1680.000000,1818.181818,Speed,-1657.500000,1818.181818,Speed,Off,On,0.000000,FALSE,0,,,,,0.000000,0.000000,-0.050000
08:30:22.829 AM 04/28/2016,Teleop Enabled,10,FALSE,0,NO ERROR,-0.000000,-1.045914,-0.000000,1.668329,TRUE,FALSE,FALSE,FALSE,FALSE,FALSE,Disabled,0.000000,0.000000,0.000000,TRUE,-0.060104,-0.016388,0.000000,0.027359,0.019394,0.000000,-0.148000,-0.117000,-0.020000,1.860000,-86.180000,0.260000,-89.266179,Hold,-0.000244,0.000000,HighGoal,-84234.000000,83968.000000,Suck,-1680.000000,1818.181818,Speed,-1747.500000,1818.181818,Speed,Off,On,0.000000,FALSE,0,,,,,0.000000,0.000000,-0.050000
08:30:22.930 AM 04/28/2016,Teleop Enabled,11,FALSE,0,NO ERROR,-0.000000,-0.962498,-0.000000,1.514330,TRUE,FALSE,FALSE,FALSE,FALSE,FALSE,Disabled,0.000000,0.000000,0.000000,TRUE,-0.060410,-0.016235,0.000000,0.024704,0.028168,0.000000,0.043000,0.074000,0.158000,1.760000,-86.100000,-0.180000,-89.160885,Hold,-0.000244,0.000000,Hold,-83995.000000,83968.000000,Suck,-1687.500000,1818.181818,Speed,-1770.000000,1818.181818,Speed,Off,On,0.000000,FALSE,0,,,,,0.000000,0.000000,-0.050000
08:30:23.032 AM 04/28/2016,Teleop Enabled,13,FALSE,0,NO ERROR,-0.000000,-0.879081,-0.000000,1.462997,TRUE,FALSE,FALSE,FALSE,FALSE,FALSE,Disabled,0.000000,0.000000,0.000000,TRUE,-0.057480,-0.011993,0.000000,0.055725,0.112305,0.000000,0.035000,-0.005000,-0.098000,1.780000,-86.150000,0.180000,-89.204602,Hold,-0.000244,0.000000,HighGoal,-84031.000000,83968.000000,Suck,-1695.000000,1818.181818,Speed,-1732.500000,1818.181818,Speed,Off,On,0.000000,FALSE,0,,,,,0.000000,0.000000,-0.050000
08:30:23.132 AM 04/28/2016,Teleop Enabled,11,FALSE,0,NO ERROR,-0.000000,-0.879081,-0.000000,1.462997,TRUE,FALSE,FALSE,FALSE,FALSE,FALSE,Disabled,0.000000,0.000000,0.000000,TRUE,-0.055634,-0.013214,0.000000,0.000000,-0.047668,0.000000,0.015000,-0.005000,0.035000,1.800000,-86.200000,0.000000,-89.264158,Hold,-0.000244,0.000000,Hold,-84045.000000,83968.000000,Suck,-1695.000000,1818.181818,Speed,-1732.500000,1818.181818,Speed,Off,On,0.000000,FALSE,0,,,,,0.000000,0.000000,-0.050000
08:30:23.233 AM 04/28/2016,Teleop Enabled,11,FALSE,0,NO ERROR,-0.000000,-0.879081,-0.000000,1.462997,TRUE,FALSE,FALSE,FALSE,FALSE,FALSE,Disabled,0.000000,0.000000,0.000000,TRUE,-0.055450,-0.014435,0.000000,0.006027,0.003082,0.000000,0.051000,0.078000,-0.050000,1.760000,-86.120000,-0.080000,-89.190587,Hold,-0.000244,0.000000,HighGoal,-84022.000000,83968.000000,Suck,-1687.500000,1818.181818,Speed,-1732.500000,1818.181818,Speed,Off,On,0.000000,FALSE,0,,,,,0.000000,0.000000,-0.050000
08:30:23.333 AM 04/28/2016,Teleop Enabled,11,FALSE,0,NO ERROR,-0.000000,-0.879081,-0.000000,1.462997,TRUE,FALSE,FALSE,FALSE,FALSE,FALSE,Disabled,0.000000,0.000000,0.000000,TRUE,-0.054245,-0.014175,0.000000,0.035187,-0.004623,0.000000,-0.093000,-0.021000,-0.061000,1.770000,-86.220000,0.010000,-89.287378,Hold,-0.000244,0.000000,Hold,-84064.000000,83968.000000,Suck,-1687.500000,1818.181818,Speed,-1755.000000,1818.181818,Speed,Off,On,0.000000,FALSE,0,,,,,0.000000,0.000000,-0.050000
08:30:23.433 AM 04/28/2016,Teleop Enabled,11,FALSE,0,NO ERROR,-0.000000,-0.879081,-0.000000,1.462997,TRUE,FALSE,FALSE,FALSE,FALSE,FALSE,Disabled,0.000000,0.000000,0.000000,TRUE,-0.054169,-0.014709,0.000000,-0.002213,0.000000,0.000000,-0.051000,0.045000,-0.088000,1.730000,-86.130000,-0.070000,-89.232486,Hold,-0.000244,0.000000,Hold,-84064.000000,83968.000000,Suck,-1687.500000,1818.181818,Speed,-1732.500000,1818.181818,Speed,Off,On,0.000000,FALSE,0,,,,,0.000000,0.000000,-0.050000
08:30:23.537 AM 04/28/2016,Teleop Enabled,10,FALSE,0,NO ERROR,-0.000000,-0.879081,-0.000000,1.462997,TRUE,FALSE,FALSE,FALSE,FALSE,FALSE,Disabled,0.000000,0.000000,0.000000,TRUE,-0.054306,-0.014465,0.000000,0.000000,0.001511,0.000000,-0.028000,0.009000,0.028000,1.780000,-86.200000,0.000000,-89.277002,Hold,-0.000244,0.000000,Hold,-84054.000000,83968.000000,Suck,-1687.500000,1818.181818,Speed,-1710.000000,1818.181818,Speed,Off,On,0.000000,FALSE,0,,,,,0.000000,0.000000,-0.050000
08:30:23.636 AM 04/28/2016,Teleop Enabled,10,FALSE,0,NO ERROR,-0.000000,-0.879081,-0.000000,1.462997,TRUE,FALSE,FALSE,FALSE,FALSE,FALSE,Disabled,0.000000,0.000000,0.000000,TRUE,-0.054489,-0.014145,0.000000,0.000092,0.011810,0.000000,0.004000,-0.048000,-0.078000,1.770000,-86.130000,-0.060000,-89.221756,Hold,-0.000244,0.000000,Hold,-84054.000000,83968.000000,Suck,-1695.000000,1818.181818,Speed,-1740.000000,1818.181818,Speed,Off,On,0.000000,FALSE,0,,,,,0.000000,0.000000,-0.050000
08:30:23.737 AM 04/28/2016,Teleop Enabled,11,FALSE,0,NO ERROR,-0.000000,-0.879081,-0.000000,1.462997,TRUE,FALSE,FALSE,FALSE,FALSE,FALSE,Disabled,0.000000,0.000000,0.000000,TRUE,-0.054001,-0.014191,0.000000,0.000519,-0.000397,0.000000,-0.062000,0.023000,-0.004000,1.780000,-86.180000,-0.080000,-89.293020,Hold,-0.000244,0.000000,Hold,-84054.000000,83968.000000,Suck,-1695.000000,1818.181818,Speed,-1755.000000,1818.181818,Speed,Off,On,0.000000,FALSE,0,,,,,0.000000,0.000000,-0.050000
08:30:23.838 AM 04/28/2016,Teleop Enabled,9,FALSE,0,NO ERROR,-0.000000,-0.879081,-0.000000,1.462997,TRUE,FALSE,FALSE,FALSE,FALSE,FALSE,Disabled,0.000000,0.000000,0.000000,TRUE,-0.054230,-0.014053,0.000000,0.000000,-0.002182,0.000000,-0.064000,-0.057000,-0.014000,1.750000,-86.150000,-0.150000,-89.248673,Hold,-0.000244,0.000000,Hold,-84054.000000,83968.000000,Suck,-1710.000000,1818.181818,Speed,-1755.000000,1818.181818,Speed,Off,On,0.000000,FALSE,0,,,,,0.000000,0.000000,-0.050000
08:30:23.938 AM 04/28/2016,Teleop Enabled,10,FALSE,0,NO ERROR,-0.000000,-0.879081,-0.000000,1.462997,TRUE,FALSE,FALSE,FALSE,FALSE,FALSE,Disabled,0.000000,0.000000,0.000000,TRUE,-0.054947,-0.014938,0.000000,-0.028488,-0.020248,0.000000,0.031000,0.033000,-0.036000,1.820000,-86.170000,-0.220000,-89.271921,Hold,-0.000244,0.000000,Hold,-84054.000000,83968.000000,Suck,-1710.000000,1818.181818,Speed,-1755.000000,1818.181818,Speed,Off,On,0.000000,FALSE,0,,,,,0.000000,0.000000,-0.050000
08:30:24.038 AM 04/28/2016,Teleop Enabled,10,FALSE,0,NO ERROR,-0.000000,-0.879081,-0.000000,1.462997,TRUE,FALSE,FALSE,FALSE,FALSE,FALSE,Disabled,0.000000,0.000000,0.000000,TRUE,-0.055222,-0.015915,0.000000,-0.001007,-0.028214,0.000000,0.037000,0.032000,0.047000,1.800000,-86.160000,-0.180000,-89.272757,Hold,-0.000244,0.000000,Hold,-84054.000000,83968.000000,Suck,-1672.500000,1818.181818,Speed,-1747.500000,1818.181818,Speed,Off,On,0.000000,FALSE,0,,,,,0.000000,0.000000,-0.050000
08:30:24.139 AM 04/28/2016,Teleop Enabled,10,FALSE,0,NO ERROR,-0.000000,-0.879081,-0.000000,1.462997,TRUE,FALSE,FALSE,FALSE,FALSE,FALSE,Disabled,0.000000,0.000000,0.000000,TRUE,-0.054764,-0.016754,0.000000,0.011093,-0.000488,0.000000,-0.016000,0.000000,0.018000,1.870000,-86.160000,-0.200000,-89.275291,Hold,-0.000244,0.000000,Hold,-84054.000000,83968.000000,Suck,-1650.000000,1818.181818,Speed,-1747.500000,1818.181818,Speed,Off,On,0.000000,FALSE,0,,,,,0.000000,0.000000,-0.050000
08:30:24.238 AM 04/28/2016,Teleop Enabled,9,FALSE,0,NO ERROR,-0.000000,-0.879081,-0.000000,1.462997,TRUE,FALSE,FALSE,FALSE,FALSE,FALSE,Disabled,0.000000,0.000000,0.000000,TRUE,-0.054352,-0.016159,0.000000,0.019547,0.020401,0.000000,-0.001000,-0.049000,0.079000,1.870000,-86.170000,-0.100000,-89.288886,Hold,-0.000244,0.000000,Hold,-84054.000000,83968.000000,Suck,-1657.500000,1818.181818,Speed,-1770.000000,1818.181818,Speed,Off,On,0.000000,FALSE,0,,,,,0.000000,0.000000,-0.050000
08:30:24.338 AM 04/28/2016,Teleop Enabled,10,FALSE,0,NO ERROR,-0.000000,-0.879081,-0.000000,1.462997,TRUE,FALSE,FALSE,FALSE,FALSE,FALSE,Disabled,0.000000,0.000000,0.000000,TRUE,-0.053513,-0.015182,0.000000,-0.002686,0.021164,0.000000,-0.027000,0.021000,-0.050000,1.880000,-86.160000,-0.090000,-89.290700,Hold,-0.000244,0.000000,Hold,-84054.000000,83968.000000,Suck,-1657.500000,1818.181818,Speed,-1777.500000,1818.181818,Speed,Off,On,0.000000,FALSE,0,,,,,0.000000,0.000000,-0.050000
08:30:24.438 AM 04/28/2016,Teleop Enabled,10,FALSE,0,NO ERROR,-0.000000,-0.879081,-0.000000,1.462997,TRUE,FALSE,FALSE,FALSE,FALSE,FALSE,Disabled,0.000000,0.000000,0.000000,TRUE,-0.053833,-0.013992,0.000000,-0.011734,0.003815,0.000000,0.008000,-0.064000,0.012000,1.870000,-86.170000,-0.080000,-89.298308,Hold,-0.000244,0.000000,Hold,-84054.000000,83968.000000,Suck,-1680.000000,1818.181818,Speed,-1717.500000,1818.181818,Speed,Off,On,0.000000,FALSE,0,,,,,0.000000,0.000000,-0.050000
08:30:24.538 AM 04/28/2016,Teleop Enabled,11,FALSE,0,NO ERROR,-0.000000,-0.879081,-0.000000,1.462997,TRUE,FALSE,FALSE,FALSE,FALSE,FALSE,Disabled,0.000000,0.000000,0.000000,TRUE,-0.053970,-0.013550,0.000000,0.001633,0.020645,0.000000,0.010000,0.033000,0.052000,1.890000,-86.160000,-0.090000,-89.315338,Hold,-0.000244,0.000000,Hold,-84054.000000,83968.000000,Suck,-1710.000000,1818.181818,Speed,-1725.000000,1818.181818,Speed,Off,On,0.000000,FALSE,0,,,,,0.000000,0.000000,-0.050000
08:30:24.638 AM 04/28/2016,Teleop Enabled,10,FALSE,0,NO ERROR,-0.000000,-0.879081,-0.000000,1.462997,TRUE,FALSE,FALSE,FALSE,FALSE,FALSE,Disabled,0.000000,0.000000,0.000000,TRUE,-0.054337,-0.011917,0.000000,-0.018616,0.041031,0.000000,0.003000,0.023000,-0.068000,1.880000,-86.170000,0.010000,-89.321614,Hold,-0.000244,0.000000,Hold,-84054.000000,83968.000000,Suck,-1710.000000,1818.181818,Speed,-1770.000000,1818.181818,Speed,Off,On,0.000000,FALSE,0,,,,,0.000000,0.000000,-0.050000
08:30:24.739 AM 04/28/2016,Teleop Enabled,10,FALSE,0,NO ERROR,-0.000000,-0.879081,-0.000000,1.462997,TRUE,FALSE,FALSE,FALSE,FALSE,FALSE,Disabled,0.000000,0.000000,0.000000,TRUE,-0.054886,-0.010300,0.000000,-0.012634,0.000000,0.000000,-0.083000,-0.001000,-0.024000,1.850000,-86.160000,-0.020000,-89.328816,Hold,-0.000244,0.000000,Hold,-84054.000000,83968.000000,Suck,-1695.000000,1818.181818,Speed,-1762.500000,1818.181818,Speed,Off,On,0.000000,FALSE,0,,,,,0.000000,0.000000,-0.050000
08:30:24.839 AM 04/28/2016,Teleop Enabled,9,FALSE,0,NO ERROR,-0.000000,-0.879081,-0.000000,1.462997,TRUE,FALSE,FALSE,FALSE,FALSE,FALSE,Disabled,0.000000,0.000000,0.000000,TRUE,-0.056107,-0.009979,0.000000,0.000000,0.020691,0.000000,0.038000,0.049000,-0.031000,1.890000,-86.160000,-0.010000,-89.331722,Hold,-0.000244,0.000000,Hold,-84054.000000,83968.000000,Suck,-1687.500000,1818.181818,Speed,-1717.500000,1818.181818,Speed,Off,On,0.000000,FALSE,0,,,,,0.000000,0.000000,-0.050000
08:30:24.939 AM 04/28/2016,Teleop Enabled,10,FALSE,0,NO ERROR,-0.000000,-0.879081,-0.000000,1.462997,TRUE,FALSE,FALSE,FALSE,FALSE,FALSE,Disabled,0.000000,0.000000,0.000000,TRUE,-0.055893,-0.008606,0.000000,-0.001511,0.025497,0.000000,0.012000,0.047000,-0.027000,1.860000,-86.170000,0.010000,-89.329043,Hold,-0.000244,0.000000,Hold,-84054.000000,83968.000000,Suck,-1695.000000,1818.181818,Speed,-1740.000000,1818.181818,Speed,Off,On,0.000000,FALSE,0,,,,,0.000000,0.000000,-0.050000
08:30:25.040 AM 04/28/2016,Teleop Enabled,10,FALSE,0,NO ERROR,-0.000000,-0.879081,-0.000000,1.462997,TRUE,FALSE,FALSE,FALSE,FALSE,FALSE,Disabled,0.000000,0.000000,0.000000,TRUE,-0.055649,-0.007202,0.000000,0.013733,0.034531,0.000000,0.012000,0.047000,-0.027000,1.830000,-86.160000,0.040000,-89.324799,Hold,-0.000244,0.000000,Hold,-84054.000000,83968.000000,Suck,-1710.000000,1818.181818,Speed,-1740.000000,1818.181818,Speed,Off,On,0.000000,FALSE,0,,,,,0.000000,0.000000,-0.050000
08:30:25.139 AM 04/28/2016,Teleop Enabled,10,FALSE,0,NO ERROR,-0.000000,-0.879081,-0.000000,1.462997,TRUE,FALSE,FALSE,FALSE,FALSE,FALSE,Disabled,0.000000,0.000000,0.000000,TRUE,-0.054474,-0.004089,0.000000,0.024139,0.064789,0.000000,0.022000,-0.057000,0.028000,1.810000,-86.160000,0.080000,-89.335877,Hold,-0.000244,0.000000,Hold,-84054.000000,83968.000000,Suck,-1717.500000,1818.181818,Speed,-1785.000000,1818.181818,Speed,Off,On,0.000000,FALSE,0,,,,,0.000000,0.000000,-0.050000
08:30:25.239 AM 04/28/2016,Teleop Enabled,10,FALSE,0,NO ERROR,-0.000000,-0.879081,-0.000000,1.462997,TRUE,FALSE,FALSE,FALSE,FALSE,FALSE,Disabled,0.000000,0.000000,0.000000,TRUE,-0.053436,-0.001434,0.000000,0.005905,0.051483,0.000000,-0.047000,0.039000,-0.036000,1.830000,-86.160000,0.070000,-89.345709,Hold,-0.000244,0.000000,Hold,-84054.000000,83968.000000,Suck,-1702.500000,1818.181818,Speed,-1777.500000,1818.181818,Speed,Off,On,0.000000,FALSE,0,,,,,0.000000,0.000000,-0.050000
08:30:25.339 AM 04/28/2016,Teleop Enabled,8,FALSE,0,NO ERROR,-0.000000,-0.879081,-0.000000,1.462997,TRUE,FALSE,FALSE,FALSE,FALSE,FALSE,Disabled,0.000000,0.000000,0.000000,TRUE,-0.052612,0.000397,0.000000,0.028976,0.000000,0.000000,-0.047000,0.039000,-0.036000,1.800000,-86.170000,0.140000,-89.364002,Hold,-0.000244,0.000000,Hold,-84054.000000,83968.000000,Suck,-1702.500000,1818.181818,Speed,-1740.000000,1818.181818,Speed,Off,On,0.000000,FALSE,0,,,,,0.000000,0.000000,-0.050000
08:30:25.439 AM 04/28/2016,Teleop Enabled,10,FALSE,0,NO ERROR,-0.000000,-0.879081,-0.000000,1.462997,TRUE,FALSE,FALSE,FALSE,FALSE,FALSE,Disabled,0.000000,0.000000,0.000000,TRUE,-0.050568,0.000870,0.000000,0.038925,0.005142,0.000000,0.035000,0.070000,-0.005000,1.800000,-86.170000,0.140000,-89.370829,Hold,-0.000244,0.000000,Hold,-84054.000000,83968.000000,Suck,-1710.000000,1818.181818,Speed,-1747.500000,1818.181818,Speed,Off,On,0.000000,FALSE,0,,,,,0.000000,0.000000,-0.050000
08:30:25.539 AM 04/28/2016,Teleop Enabled,10,FALSE,0,NO ERROR,-0.000000,-0.879081,-0.000000,1.462997,TRUE,FALSE,FALSE,FALSE,FALSE,FALSE,Disabled,0.000000,0.000000,0.000000,TRUE,-0.049438,0.002060,0.000000,0.009567,0.033264,0.000000,-0.085000,-0.015000,0.000000,1.790000,-86.160000,0.180000,-89.375373,Hold,-0.000244,0.000000,Hold,-84054.000000,83968.000000,Suck,-1710.000000,1818.181818,Speed,-1747.500000,1818.181818,Speed,Off,On,0.000000,FALSE,0,,,,,0.000000,0.000000,-0.050000
08:30:25.640 AM 04/28/2016,Teleop Enabled,9,FALSE,0,NO ERROR,-0.000000,-0.879081,-0.000000,1.462997,TRUE,FALSE,FALSE,FALSE,FALSE,FALSE,Disabled,0.000000,0.000000,0.000000,TRUE,-0.048538,0.002808,0.000000,0.012909,0.005844,0.000000,0.081000,-0.034000,0.006000,1.820000,-86.160000,0.220000,-89.384324,Hold,-0.000244,0.000000,Hold,-84054.000000,83968.000000,Suck,-1702.500000,1818.181818,Speed,-1770.000000,1818.181818,Speed,Off,On,0.000000,FALSE,0,,,,,0.000000,0.000000,-0.050000
08:30:25.740 AM 04/28/2016,Teleop Enabled,10,FALSE,0,NO ERROR,-0.000000,-0.879081,-0.000000,1.462997,TRUE,FALSE,FALSE,FALSE,FALSE,FALSE,Disabled,0.000000,0.000000,0.000000,TRUE,-0.048538,0.002808,0.000000,0.012909,0.005844,0.000000,-0.021000,0.025000,0.006000,1.780000,-86.160000,0.210000,-89.386661,Hold,-0.000244,0.000000,Hold,-84054.000000,83968.000000,Suck,-1702.500000,1818.181818,Speed,-1747.500000,1818.181818,Speed,Off,On,0.000000,FALSE,0,,,,,0.000000,0.000000,-0.050000
08:30:25.839 AM 04/28/2016,Teleop Enabled,9,FALSE,0,NO ERROR,-0.000000,-0.879081,-0.000000,1.462997,TRUE,FALSE,FALSE,FALSE,FALSE,FALSE,Disabled,0.000000,0.000000,0.000000,TRUE,-0.047089,0.003815,0.000000,0.027405,0.027390,0.000000,0.051000,0.060000,-0.046000,1.800000,-86.160000,0.200000,-89.396762,Hold,-0.000244,0.000000,Hold,-84054.000000,83968.000000,Suck,-1710.000000,1818.181818,Speed,-1695.000000,1818.181818,Speed,Off,On,0.000000,FALSE,0,,,,,0.000000,0.000000,-0.050000
08:30:25.940 AM 04/28/2016,Teleop Enabled,10,FALSE,0,NO ERROR,-0.000000,-0.879081,-0.000000,1.462997,TRUE,FALSE,FALSE,FALSE,FALSE,FALSE,Disabled,0.000000,0.000000,0.000000,TRUE,-0.045334,0.005524,0.000000,0.037125,0.026749,0.000000,0.056000,0.043000,-0.005000,1.820000,-86.160000,0.210000,-89.398259,Hold,-0.000244,0.000000,Hold,-84054.000000,83968.000000,Suck,-1702.500000,1818.181818,Speed,-1777.500000,1818.181818,Speed,Off,On,0.000000,FALSE,0,,,,,0.000000,0.000000,-0.050000
08:30:26.040 AM 04/28/2016,Teleop Enabled,10,FALSE,0,NO ERROR,-0.000000,-0.879081,-0.000000,1.462997,TRUE,FALSE,FALSE,FALSE,FALSE,FALSE,Disabled,0.000000,0.000000,0.000000,TRUE,-0.042130,0.008438,0.000000,0.036896,0.038681,0.000000,-0.009000,0.065000,0.002000,1.780000,-86.160000,0.250000,-89.394566,Hold,-0.000244,0.000000,Hold,-84054.000000,83968.000000,Suck,-1702.500000,1818.181818,Speed,-1807.500000,1818.181818,Speed,Off,On,0.000000,FALSE,0,,,,,0.000000,0.000000,-0.050000
08:30:26.140 AM 04/28/2016,Teleop Enabled,11,FALSE,0,NO ERROR,-0.000000,-0.879081,-0.000000,1.462997,TRUE,FALSE,FALSE,FALSE,FALSE,FALSE,Disabled,0.000000,0.000000,0.000000,TRUE,-0.042130,0.008438,0.000000,0.036896,0.038681,0.000000,0.006000,-0.018000,0.038000,1.780000,-86.160000,0.250000,-89.396428,Hold,-0.000244,0.000000,Hold,-84054.000000,83968.000000,Suck,-1710.000000,1818.181818,Speed,-1740.000000,1818.181818,Speed,Off,On,0.000000,FALSE,0,,,,,0.000000,0.000000,-0.050000
08:30:26.243 AM 04/28/2016,Teleop Enabled,9,FALSE,0,NO ERROR,-0.000000,-0.879081,-0.000000,1.462997,TRUE,FALSE,FALSE,FALSE,FALSE,FALSE,Disabled,0.000000,0.000000,0.000000,TRUE,-0.040695,0.009125,0.000000,0.022629,0.000000,0.000000,-0.033000,0.015000,-0.019000,1.790000,-86.170000,0.160000,-89.392307,Hold,-0.000244,0.000000,Hold,-84054.000000,83968.000000,Suck,-1695.000000,1818.181818,Speed,-1657.500000,1818.181818,Speed,Off,On,0.000000,FALSE,0,,,,,0.000000,0.000000,-0.050000
08:30:26.340 AM 04/28/2016,Teleop Enabled,9,FALSE,0,NO ERROR,-0.000000,-0.879081,-0.000000,1.462997,TRUE,FALSE,FALSE,FALSE,FALSE,FALSE,Disabled,0.000000,0.000000,0.000000,TRUE,-0.039459,0.009247,0.000000,0.028168,0.012161,0.000000,-0.008000,-0.050000,0.017000,1.780000,-86.160000,0.230000,-89.392307,Hold,-0.000244,0.000000,Hold,-84054.000000,83968.000000,Suck,-1695.000000,1818.181818,Speed,-1672.500000,1818.181818,Speed,Off,On,0.000000,FALSE,0,,,,,0.000000,0.000000,-0.050000
08:30:26.443 AM 04/28/2016,Teleop Enabled,9,FALSE,0,NO ERROR,-0.000000,-0.879081,-0.000000,1.462997,TRUE,FALSE,FALSE,FALSE,FALSE,FALSE,Disabled,0.000000,0.000000,0.000000,TRUE,-0.039185,0.009109,0.000000,0.003708,-0.009399,0.000000,-0.031000,0.001000,0.059000,1.750000,-86.170000,0.170000,-89.414484,Hold,-0.000244,0.000000,Hold,-84054.000000,83968.000000,Suck,-1710.000000,1818.181818,Speed,-1717.500000,1818.181818,Speed,Off,On,0.000000,FALSE,0,,,,,0.000000,0.000000,-0.050000
08:30:26.543 AM 04/28/2016,Teleop Enabled,10,FALSE,0,NO ERROR,-0.000000,-0.879081,-0.000000,1.462997,TRUE,FALSE,FALSE,FALSE,FALSE,FALSE,Disabled,0.000000,0.000000,0.000000,TRUE,-0.039581,0.008804,0.000000,-0.017227,-0.008514,0.000000,0.005000,0.018000,-0.027000,1.770000,-86.170000,0.060000,-89.414484,Hold,-0.000244,0.000000,Hold,-84054.000000,83968.000000,Suck,-1717.500000,1818.181818,Speed,-1717.500000,1818.181818,Speed,Off,On,0.000000,FALSE,0,,,,,0.000000,0.000000,-0.050000
08:30:26.643 AM 04/28/2016,Teleop Enabled,10,FALSE,0,NO ERROR,-0.000000,-0.879081,-0.000000,1.462997,TRUE,FALSE,FALSE,FALSE,FALSE,FALSE,Disabled,0.000000,0.000000,0.000000,TRUE,-0.040146,0.008148,0.000000,-0.004623,-0.022018,0.000000,0.016000,0.036000,0.038000,1.780000,-86.170000,0.020000,-89.418137,Hold,-0.000244,0.000000,Hold,-84054.000000,83968.000000,Suck,-1710.000000,1818.181818,Speed,-1695.000000,1818.181818,Speed,Off,On,0.000000,FALSE,0,,,,,0.000000,0.000000,-0.050000
08:30:26.746 AM 04/28/2016,Teleop Enabled,9,FALSE,0,NO ERROR,-0.000000,-0.879081,-0.000000,1.462997,TRUE,FALSE,FALSE,FALSE,FALSE,FALSE,Disabled,0.000000,0.000000,0.000000,TRUE,-0.039902,0.005890,0.000000,0.019882,-0.046143,0.000000,-0.032000,0.012000,-0.003000,1.770000,-86.170000,-0.030000,-89.412274,Hold,-0.000244,0.000000,Hold,-84054.000000,83968.000000,Suck,-1702.500000,1818.181818,Speed,-1672.500000,1818.181818,Speed,Off,On,0.000000,FALSE,0,,,,,0.000000,0.000000,-0.050000
08:30:26.847 AM 04/28/2016,Teleop Enabled,9,FALSE,0,NO ERROR,-0.000000,-0.879081,-0.000000,1.462997,TRUE,FALSE,FALSE,FALSE,FALSE,FALSE,Disabled,0.000000,0.000000,0.000000,TRUE,-0.039185,0.003647,0.000000,0.016891,-0.051849,0.000000,0.064000,-0.010000,0.033000,1.810000,-86.170000,-0.090000,-89.416753,Hold,-0.000244,0.000000,Hold,-84054.000000,83968.000000,Suck,-1695.000000,1818.181818,Speed,-1747.500000,1818.181818,Speed,Off,On,0.000000,FALSE,0,,,,,0.000000,0.000000,-0.050000
08:30:26.947 AM 04/28/2016,Teleop Enabled,8,FALSE,0,NO ERROR,-0.000000,-0.879081,-0.000000,1.462997,TRUE,FALSE,FALSE,FALSE,FALSE,FALSE,Disabled,0.000000,0.000000,0.000000,TRUE,-0.038406,0.001328,0.000000,0.006042,-0.033722,0.000000,0.053000,0.035000,-0.052000,1.790000,-86.170000,-0.010000,-89.422856,Hold,-0.000244,0.000000,Hold,-84054.000000,83968.000000,Suck,-1695.000000,1818.181818,Speed,-1800.000000,1818.181818,Speed,Off,On,0.000000,FALSE,0,,,,,0.000000,0.000000,-0.050000
08:30:27.046 AM 04/28/2016,Teleop Enabled,10,FALSE,0,NO ERROR,-0.000000,-0.879081,-0.000000,1.462997,TRUE,FALSE,FALSE,FALSE,FALSE,FALSE,Disabled,0.000000,0.000000,0.000000,TRUE,-0.037964,0.000214,0.000000,0.010391,-0.032959,0.000000,0.013000,0.037000,-0.017000,1.800000,-86.160000,0.030000,-89.428771,Hold,-0.000244,0.000000,Hold,-84054.000000,83968.000000,Suck,-1702.500000,1818.181818,Speed,-1747.500000,1818.181818,Speed,Off,On,0.000000,FALSE,0,,,,,0.000000,0.000000,-0.050000
08:30:27.147 AM 04/28/2016,Teleop Enabled,9,FALSE,0,NO ERROR,-0.000000,-0.879081,-0.000000,1.462997,TRUE,FALSE,FALSE,FALSE,FALSE,FALSE,Disabled,0.000000,0.000000,0.000000,TRUE,-0.037933,-0.001312,0.000000,0.007156,-0.025833,0.000000,0.048000,-0.041000,-0.006000,1.760000,-86.160000,0.050000,-89.432334,Hold,-0.000244,0.000000,Hold,-84054.000000,83968.000000,Suck,-1702.500000,1818.181818,Speed,-1747.500000,1818.181818,Speed,Off,On,0.000000,FALSE,0,,,,,0.000000,0.000000,-0.050000
08:30:27.248 AM 04/28/2016,Teleop Enabled,9,FALSE,0,NO ERROR,-0.000000,-0.879081,-0.000000,1.462997,TRUE,FALSE,FALSE,FALSE,FALSE,FALSE,Disabled,0.000000,0.000000,0.000000,TRUE,-0.037262,-0.003128,0.000000,0.021576,-0.038361,0.000000,-0.009000,-0.021000,0.025000,1.740000,-86.160000,0.080000,-89.436300,Hold,-0.000244,0.000000,Hold,-84054.000000,83968.000000,Suck,-1695.000000,1818.181818,Speed,-1762.500000,1818.181818,Speed,Off,On,0.000000,FALSE,0,,,,,0.000000,0.000000,-0.050000
08:30:27.349 AM 04/28/2016,Teleop Enabled,10,FALSE,0,NO ERROR,-0.000000,-0.879081,-0.000000,1.462997,TRUE,FALSE,FALSE,FALSE,FALSE,FALSE,Disabled,0.000000,0.000000,0.000000,TRUE,-0.036377,-0.003983,0.000000,0.024261,-0.010742,0.000000,-0.036000,0.003000,0.001000,1.780000,-86.160000,0.010000,-89.443174,Hold,-0.000244,0.000000,Hold,-84054.000000,83968.000000,Suck,-1702.500000,1818.181818,Speed,-1785.000000,1818.181818,Speed,Off,On,0.000000,FALSE,0,,,,,0.000000,0.000000,-0.050000
08:30:27.450 AM 04/28/2016,Teleop Enabled,10,FALSE,0,NO ERROR,-0.000000,-0.879081,-0.000000,1.462997,TRUE,FALSE,FALSE,FALSE,FALSE,FALSE,Disabled,0.000000,0.000000,0.000000,TRUE,-0.035965,-0.003738,0.000000,0.000000,0.019745,0.000000,0.016000,0.016000,-0.007000,1.780000,-86.170000,0.070000,-89.444452,Hold,-0.000244,0.000000,Hold,-84054.000000,83968.000000,Suck,-1710.000000,1818.181818,Speed,-1732.500000,1818.181818,Speed,Off,On,0.000000,FALSE,0,,,,,0.000000,0.000000,-0.050000
08:30:27.551 AM 04/28/2016,Teleop Enabled,12,FALSE,0,NO ERROR,-0.000000,-0.879081,-0.000000,1.462997,TRUE,FALSE,FALSE,FALSE,FALSE,FALSE,Disabled,0.000000,0.000000,0.000000,TRUE,-0.036438,-0.003387,0.000000,-0.029373,-0.005798,0.000000,-0.007000,0.035000,0.011000,1.830000,-86.160000,0.010000,-89.440331,Hold,-0.000244,0.000000,Hold,-84054.000000,83968.000000,Suck,-1717.500000,1818.181818,Speed,-1762.500000,1818.181818,Speed,Off,On,0.000000,FALSE,0,,,,,0.000000,0.000000,-0.050000
08:30:27.650 AM 04/28/2016,Teleop Enabled,10,FALSE,0,NO ERROR,-0.000000,-0.879081,-0.000000,1.462997,TRUE,FALSE,FALSE,FALSE,FALSE,FALSE,Disabled,0.000000,0.000000,0.000000,TRUE,-0.037704,-0.003052,0.000000,-0.017929,0.006332,0.000000,0.050000,0.073000,-0.052000,1.840000,-86.160000,0.030000,-89.431081,Hold,-0.000244,0.000000,Hold,-84054.000000,83968.000000,Suck,-1710.000000,1818.181818,Speed,-1740.000000,1818.181818,Speed,Off,On,0.000000,FALSE,0,,,,,0.000000,0.000000,-0.050000
08:30:27.751 AM 04/28/2016,Teleop Enabled,11,FALSE,0,NO ERROR,-0.000000,-0.879081,-0.000000,1.462997,TRUE,FALSE,FALSE,FALSE,FALSE,FALSE,Disabled,0.000000,0.000000,0.000000,TRUE,-0.038269,-0.001373,0.000000,-0.006104,0.033401,0.000000,0.009000,-0.035000,-0.040000,1.820000,-86.160000,0.100000,-89.456377,Hold,-0.000244,0.000000,Hold,-84054.000000,83968.000000,Suck,-1717.500000,1818.181818,Speed,-1777.500000,1818.181818,Speed,Off,On,0.000000,FALSE,0,,,,,0.000000,0.000000,-0.050000
08:30:27.852 AM 04/28/2016,Teleop Enabled,10,FALSE,0,NO ERROR,-0.000000,-0.879081,-0.000000,1.462997,TRUE,FALSE,FALSE,FALSE,FALSE,FALSE,Disabled,0.000000,0.000000,0.000000,TRUE,-0.039032,-0.000244,0.000000,-0.015442,0.034180,0.000000,0.004000,-0.069000,0.051000,1.840000,-86.160000,0.010000,-89.451474,Hold,-0.000244,0.000000,Hold,-84054.000000,83968.000000,Suck,-1717.500000,1818.181818,Speed,-1777.500000,1818.181818,Speed,Off,On,0.000000,FALSE,0,,,,,0.000000,0.000000,-0.050000
08:30:27.952 AM 04/28/2016,Teleop Enabled,11,FALSE,0,NO ERROR,-0.000000,-0.879081,-0.000000,1.462997,TRUE,FALSE,FALSE,FALSE,FALSE,FALSE,Disabled,0.000000,0.000000,0.000000,TRUE,-0.039902,0.000992,0.000000,-0.024490,0.028915,0.000000,0.000000,-0.011000,-0.117000,1.810000,-86.160000,0.020000,-89.465224,Hold,-0.000244,0.000000,Hold,-84054.000000,83968.000000,Suck,-1710.000000,1818.181818,Speed,-1747.500000,1818.181818,Speed,Off,On,0.000000,FALSE,0,,,,,0.000000,0.000000,-0.050000
08:30:28.053 AM 04/28/2016,Teleop Enabled,10,FALSE,0,NO ERROR,-0.000000,-0.879081,-0.000000,1.462997,TRUE,FALSE,FALSE,FALSE,FALSE,FALSE,Disabled,0.000000,0.000000,0.000000,TRUE,-0.041367,0.001053,0.000000,-0.025620,0.006027,0.000000,0.047000,0.053000,0.058000,1.830000,-86.160000,0.030000,-89.465940,Hold,-0.000244,0.000000,Hold,-84054.000000,83968.000000,Suck,-1702.500000,1818.181818,Speed,-1710.000000,1818.181818,Speed,Off,On,0.000000,FALSE,0,,,,,0.000000,0.000000,-0.050000
08:30:28.153 AM 04/28/2016,Teleop Enabled,10,FALSE,0,NO ERROR,-0.000000,-0.879081,-0.000000,1.462997,TRUE,FALSE,FALSE,FALSE,FALSE,FALSE,Disabled,0.000000,0.000000,0.000000,TRUE,-0.042908,0.001175,0.000000,-0.028748,-0.007828,0.000000,0.007000,-0.077000,0.011000,1.820000,-86.160000,-0.050000,-89.480781,Hold,-0.000244,0.000000,Hold,-84054.000000,83968.000000,Suck,-1702.500000,1818.181818,Speed,-1740.000000,1818.181818,Speed,Off,On,0.000000,FALSE,0,,,,,0.000000,0.000000,-0.050000
08:30:28.254 AM 04/28/2016,Teleop Enabled,11,FALSE,0,NO ERROR,-0.000000,-0.879081,-0.000000,1.462997,TRUE,FALSE,FALSE,FALSE,FALSE,FALSE,Disabled,0.000000,0.000000,0.000000,TRUE,-0.042984,-0.000198,0.000000,0.012650,-0.026825,0.000000,0.023000,0.002000,0.027000,1.800000,-86.160000,-0.130000,-89.486850,Hold,-0.000244,0.000000,Hold,-84054.000000,83968.000000,Suck,-1710.000000,1818.181818,Speed,-1717.500000,1818.181818,Speed,Off,On,0.000000,FALSE,0,,,,,0.000000,0.000000,-0.050000
08:30:28.355 AM 04/28/2016,Teleop Enabled,10,FALSE,0,NO ERROR,-0.000000,-0.879081,-0.000000,1.462997,TRUE,FALSE,FALSE,FALSE,FALSE,FALSE,Disabled,0.000000,0.000000,0.000000,TRUE,-0.042313,-0.000610,0.000000,0.014984,-0.012802,0.000000,-0.077000,0.009000,-0.019000,1.820000,-86.160000,-0.120000,-89.479955,Hold,-0.000244,0.000000,Hold,-84054.000000,83968.000000,Suck,-1710.000000,1818.181818,Speed,-1770.000000,1818.181818,Speed,Off,On,0.000000,FALSE,0,,,,,0.000000,0.000000,-0.050000
08:30:28.455 AM 04/28/2016,Teleop Enabled,10,FALSE,0,NO ERROR,-0.000000,-0.879081,-0.000000,1.462997,TRUE,FALSE,FALSE,FALSE,FALSE,FALSE,Disabled,0.000000,0.000000,0.000000,TRUE,-0.041916,-0.000656,0.000000,0.010513,-0.004715,0.000000,0.019000,-0.048000,0.009000,1.810000,-86.160000,-0.120000,-89.492134,Hold,-0.000244,0.000000,Hold,-84054.000000,83968.000000,Suck,-1702.500000,1818.181818,Speed,-1770.000000,1818.181818,Speed,Off,On,0.000000,FALSE,0,,,,,0.000000,0.000000,-0.050000
08:30:28.555 AM 04/28/2016,Teleop Enabled,11,FALSE,0,NO ERROR,-0.000000,-0.879081,-0.000000,1.462997,TRUE,FALSE,FALSE,FALSE,FALSE,FALSE,Disabled,0.000000,0.000000,0.000000,TRUE,-0.042358,-0.001587,0.000000,-0.024475,-0.024704,0.000000,0.028000,0.044000,-0.044000,1.830000,-86.160000,-0.120000,-89.487983,Hold,-0.000244,0.000000,Hold,-84054.000000,83968.000000,Suck,-1702.500000,1818.181818,Speed,-1747.500000,1818.181818,Speed,Off,On,0.000000,FALSE,0,,,,,0.000000,0.000000,-0.050000
08:30:28.655 AM 04/28/2016,Teleop Enabled,11,FALSE,0,NO ERROR,-0.000000,-0.879081,-0.000000,1.462997,TRUE,FALSE,FALSE,FALSE,FALSE,FALSE,Disabled,0.000000,0.000000,0.000000,TRUE,-0.043732,-0.003052,0.000000,-0.039917,-0.031509,0.000000,-0.042000,0.030000,-0.009000,1.830000,-86.160000,-0.090000,-89.482822,Hold,-0.000244,0.000000,Hold,-84054.000000,83968.000000,Suck,-1717.500000,1818.181818,Speed,-1732.500000,1818.181818,Speed,Off,On,0.000000,FALSE,0,,,,,0.000000,0.000000,-0.050000
08:30:28.755 AM 04/28/2016,Teleop Enabled,10,FALSE,0,NO ERROR,-0.000000,-0.879081,-0.000000,1.462997,TRUE,FALSE,FALSE,FALSE,FALSE,FALSE,Disabled,0.000000,0.000000,0.000000,TRUE,-0.044617,-0.004196,0.000000,-0.006607,-0.033508,0.000000,0.038000,0.094000,-0.047000,1.840000,-86.160000,-0.130000,-89.495319,Hold,-0.000244,0.000000,Hold,-84054.000000,83968.000000,Suck,-1710.000000,1818.181818,Speed,-1777.500000,1818.181818,Speed,Off,On,0.000000,FALSE,0,,,,,0.000000,0.000000,-0.050000
08:30:28.855 AM 04/28/2016,Teleop Enabled,11,FALSE,0,NO ERROR,-0.000000,-0.879081,-0.000000,1.462997,TRUE,FALSE,FALSE,FALSE,FALSE,FALSE,Disabled,0.000000,0.000000,0.000000,TRUE,-0.045471,-0.004868,0.000000,-0.013184,-0.001648,0.000000,0.052000,-0.036000,0.042000,1.860000,-86.160000,-0.140000,-89.497378,Hold,-0.000244,0.000000,Hold,-84054.000000,83968.000000,Suck,-1702.500000,1818.181818,Speed,-1770.000000,1818.181818,Speed,Off,On,0.000000,FALSE,0,,,,,0.000000,0.000000,-0.050000
08:30:28.955 AM 04/28/2016,Teleop Enabled,10,FALSE,0,NO ERROR,-0.000000,-0.879081,-0.000000,1.462997,TRUE,FALSE,FALSE,FALSE,FALSE,FALSE,Disabled,0.000000,0.000000,0.000000,TRUE,-0.045517,-0.005676,0.000000,0.000580,-0.021896,0.000000,-0.004000,-0.028000,-0.040000,1.830000,-86.160000,-0.150000,-89.500824,Hold,-0.000244,0.000000,Hold,-84054.000000,83968.000000,Suck,-1702.500000,1818.181818,Speed,-1785.000000,1818.181818,Speed,Off,On,0.000000,FALSE,0,,,,,0.000000,0.000000,-0.050000
08:30:29.055 AM 04/28/2016,Teleop Enabled,10,FALSE,0,NO ERROR,-0.000000,-0.879081,-0.000000,1.462997,TRUE,FALSE,FALSE,FALSE,FALSE,FALSE,Disabled,0.000000,0.000000,0.000000,TRUE,-0.045349,-0.007736,0.000000,0.014832,-0.039597,0.000000,-0.051000,-0.024000,0.025000,1.840000,-86.160000,-0.220000,-89.496231,Hold,-0.000244,0.000000,Hold,-84054.000000,83968.000000,Suck,-1702.500000,1818.181818,Speed,-1740.000000,1818.181818,Speed,Off,On,0.000000,FALSE,0,,,,,0.000000,0.000000,-0.050000
08:30:29.156 AM 04/28/2016,Teleop Enabled,10,FALSE,0,NO ERROR,-0.000000,-0.879081,-0.000000,1.462997,TRUE,FALSE,FALSE,FALSE,FALSE,FALSE,Disabled,0.000000,0.000000,0.000000,TRUE,-0.044662,-0.009674,0.000000,0.012451,-0.039322,0.000000,0.045000,-0.007000,0.067000,1.820000,-86.160000,-0.190000,-89.481617,Hold,-0.000244,0.000000,Hold,-84054.000000,83968.000000,Suck,-1702.500000,1818.181818,Speed,-1732.500000,1818.181818,Speed,Off,On,0.000000,FALSE,0,,,,,0.000000,0.000000,-0.050000
08:30:29.256 AM 04/28/2016,Teleop Enabled,11,FALSE,0,NO ERROR,-0.000000,-0.879081,-0.000000,1.462997,TRUE,FALSE,FALSE,FALSE,FALSE,FALSE,Disabled,0.000000,0.000000,0.000000,TRUE,-0.043961,-0.009323,0.000000,0.009995,0.017944,0.000000,-0.017000,0.084000,-0.023000,1.770000,-86.160000,-0.130000,-89.472564,Hold,-0.000244,0.000000,Hold,-84054.000000,83968.000000,Suck,-1702.500000,1818.181818,Speed,-1755.000000,1818.181818,Speed,Off,On,0.000000,FALSE,0,,,,,0.000000,0.000000,-0.050000
08:30:29.356 AM 04/28/2016,Teleop Enabled,10,FALSE,0,NO ERROR,-0.000000,-0.879081,-0.000000,1.462997,TRUE,FALSE,FALSE,FALSE,FALSE,FALSE,Disabled,0.000000,0.000000,0.000000,TRUE,-0.043259,-0.008118,0.000000,0.024384,0.019577,0.000000,-0.045000,-0.065000,-0.020000,1.760000,-86.160000,-0.130000,-89.489790,Hold,-0.000244,0.000000,Hold,-84054.000000,83968.000000,Suck,-1695.000000,1818.181818,Speed,-1807.500000,1818.181818,Speed,Off,On,0.000000,FALSE,0,,,,,0.000000,0.000000,-0.050000
08:30:29.457 AM 04/28/2016,Teleop Enabled,11,FALSE,0,NO ERROR,-0.000000,-0.879081,-0.000000,1.462997,TRUE,FALSE,FALSE,FALSE,FALSE,FALSE,Disabled,0.000000,0.000000,0.000000,TRUE,-0.042465,-0.007385,0.000000,0.018402,0.018326,0.000000,0.012000,0.017000,0.031000,1.750000,-86.150000,-0.180000,-89.496637,Hold,-0.000244,0.000000,Hold,-84054.000000,83968.000000,Suck,-1710.000000,1818.181818,Speed,-1762.500000,1818.181818,Speed,Off,On,0.000000,FALSE,0,,,,,0.000000,0.000000,-0.050000
08:30:29.557 AM 04/28/2016,Teleop Enabled,10,FALSE,0,NO ERROR,-0.000000,-0.879081,-0.000000,1.462997,TRUE,FALSE,FALSE,FALSE,FALSE,FALSE,Disabled,0.000000,0.000000,0.000000,TRUE,-0.042526,-0.005493,0.000000,-0.017288,0.045517,0.000000,-0.019000,0.058000,-0.083000,1.770000,-86.150000,-0.140000,-89.506741,Hold,-0.000244,0.000000,Hold,-84054.000000,83968.000000,Suck,-1725.000000,1818.181818,Speed,-1747.500000,1818.181818,Speed,Off,On,0.000000,FALSE,0,,,,,0.000000,0.000000,-0.050000
08:30:29.657 AM 04/28/2016,Teleop Enabled,11,FALSE,0,NO ERROR,-0.000000,-0.879081,-0.000000,1.462997,TRUE,FALSE,FALSE,FALSE,FALSE,FALSE,Disabled,0.000000,0.000000,0.000000,TRUE,-0.043518,-0.004547,0.000000,-0.025757,0.000000,0.000000,0.025000,0.026000,-0.021000,1.770000,-86.150000,-0.120000,-89.498772,Hold,-0.000244,0.000000,Hold,-84054.000000,83968.000000,Suck,-1710.000000,1818.181818,Speed,-1777.500000,1818.181818,Speed,Off,On,0.000000,FALSE,0,,,,,0.000000,0.000000,-0.050000
08:30:29.757 AM 04/28/2016,Teleop Enabled,11,FALSE,0,NO ERROR,-0.000000,-0.879081,-0.000000,1.462997,TRUE,FALSE,FALSE,FALSE,FALSE,FALSE,Disabled,0.000000,0.000000,0.000000,TRUE,-0.045624,-0.004440,0.000000,-0.042160,0.008301,0.000000,0.005000,-0.028000,0.054000,1.750000,-86.150000,-0.050000,-89.486630,Hold,-0.000244,0.000000,Hold,-84054.000000,83968.000000,Suck,-1702.500000,1818.181818,Speed,-1762.500000,1818.181818,Speed,Off,On,0.000000,FALSE,0,,,,,0.000000,0.000000,-0.050000
08:30:29.857 AM 04/28/2016,Teleop Enabled,10,FALSE,0,NO ERROR,-0.000000,-0.879081,-0.000000,1.462997,TRUE,FALSE,FALSE,FALSE,FALSE,FALSE,Disabled,0.000000,0.000000,0.000000,TRUE,-0.047867,-0.004318,0.000000,-0.043045,0.003448,0.000000,-0.016000,-0.026000,-0.081000,1.720000,-86.150000,-0.040000,-89.487931,Hold,-0.000244,0.000000,Hold,-84054.000000,83968.000000,Suck,-1695.000000,1818.181818,Speed,-1770.000000,1818.181818,Speed,Off,On,0.000000,FALSE,0,,,,,0.000000,0.000000,-0.050000
08:30:29.957 AM 04/28/2016,Teleop Enabled,10,FALSE,0,NO ERROR,-0.000000,-0.879081,-0.000000,1.462997,TRUE,FALSE,FALSE,FALSE,FALSE,FALSE,Disabled,0.000000,0.000000,0.000000,TRUE,-0.049988,-0.004303,0.000000,-0.037781,-0.006973,0.000000,-0.048000,-0.071000,-0.011000,1.690000,-86.150000,-0.080000,-89.485105,Hold,-0.000244,0.000000,Hold,-84054.000000,83968.000000,Suck,-1695.000000,1818.181818,Speed,-1732.500000,1818.181818,Speed,Off,On,0.000000,FALSE,0,,,,,0.000000,0.000000,-0.050000
08:30:30.057 AM 04/28/2016,Teleop Enabled,10,FALSE,0,NO ERROR,-0.000000,-0.879081,-0.000000,1.462997,TRUE,FALSE,FALSE,FALSE,FALSE,FALSE,Disabled,0.000000,0.000000,0.000000,TRUE,-0.049866,-0.004776,0.000000,0.027420,-0.009445,0.000000,-0.035000,0.044000,0.108000,1.690000,-86.150000,-0.100000,-89.493112,Hold,-0.000244,0.000000,Hold,-84054.000000,83968.000000,Suck,-1710.000000,1818.181818,Speed,-1755.000000,1818.181818,Speed,Off,On,0.000000,FALSE,0,,,,,0.000000,0.000000,-0.050000
08:30:30.157 AM 04/28/2016,Teleop Enabled,10,FALSE,0,NO ERROR,-0.000000,-0.879081,-0.000000,1.462997,TRUE,FALSE,FALSE,FALSE,FALSE,FALSE,Disabled,0.000000,0.000000,0.000000,TRUE,-0.049423,-0.004944,0.000000,-0.007263,0.000000,0.000000,0.000000,0.013000,0.001000,1.750000,-86.150000,-0.040000,-89.497178,Hold,-0.000244,0.000000,Hold,-84054.000000,83968.000000,Suck,-1687.500000,1818.181818,Speed,-1785.000000,1818.181818,Speed,Off,On,0.000000,FALSE,0,,,,,0.000000,0.000000,-0.050000
08:30:30.257 AM 04/28/2016,Teleop Enabled,12,FALSE,0,NO ERROR,-0.000000,-0.879081,-0.000000,1.462997,TRUE,FALSE,FALSE,FALSE,FALSE,FALSE,Disabled,0.000000,0.000000,0.000000,TRUE,-0.049500,-0.005310,0.000000,0.008530,-0.016205,0.000000,0.036000,0.044000,-0.062000,1.750000,-86.150000,-0.070000,-89.484447,Hold,-0.000244,0.000000,Hold,-84054.000000,83968.000000,Suck,-1687.500000,1818.181818,Speed,-1792.500000,1818.181818,Speed,Off,On,0.000000,FALSE,0,,,,,0.000000,0.000000,-0.050000
08:30:30.357 AM 04/28/2016,Teleop Enabled,11,FALSE,0,NO ERROR,-0.000000,-0.879081,-0.000000,1.462997,TRUE,FALSE,FALSE,FALSE,FALSE,FALSE,Disabled,0.000000,0.000000,0.000000,TRUE,-0.049606,-0.005554,0.000000,0.000000,0.000671,0.000000,0.036000,0.044000,-0.062000,1.780000,-86.150000,-0.030000,-89.472915,Hold,-0.000244,0.000000,Hold,-84054.000000,83968.000000,Suck,-1695.000000,1818.181818,Speed,-1770.000000,1818.181818,Speed,Off,On,0.000000,FALSE,0,,,,,0.000000,0.000000,-0.050000
08:30:30.458 AM 04/28/2016,Teleop Enabled,9,FALSE,0,NO ERROR,-0.000000,-0.879081,-0.000000,1.462997,TRUE,FALSE,FALSE,FALSE,FALSE,FALSE,Disabled,0.000000,0.000000,0.000000,TRUE,-0.049118,-0.005951,0.000000,0.004730,-0.005035,0.000000,0.021000,0.067000,0.015000,1.780000,-86.140000,-0.090000,-89.475204,Hold,-0.000244,0.000000,Hold,-84054.000000,83968.000000,Suck,-1717.500000,1818.181818,Speed,-1755.000000,1818.181818,Speed,Off,On,0.000000,FALSE,0,,,,,0.000000,0.000000,-0.050000
08:30:30.558 AM 04/28/2016,Teleop Enabled,11,FALSE,0,NO ERROR,-0.000000,-0.879081,-0.000000,1.462997,TRUE,FALSE,FALSE,FALSE,FALSE,FALSE,Disabled,0.000000,0.000000,0.000000,TRUE,-0.047699,-0.005844,0.000000,0.038528,0.012436,0.000000,-0.098000,0.007000,0.047000,1.730000,-86.150000,-0.030000,-89.483270,Hold,-0.000244,0.000000,Hold,-84054.000000,83968.000000,Suck,-1725.000000,1818.181818,Speed,-1747.500000,1818.181818,Speed,Off,On,0.000000,FALSE,0,,,,,0.000000,0.000000,-0.050000
08:30:30.659 AM 04/28/2016,Teleop Enabled,10,FALSE,0,NO ERROR,-0.000000,-0.879081,-0.000000,1.462997,TRUE,FALSE,FALSE,FALSE,FALSE,FALSE,Disabled,0.000000,0.000000,0.000000,TRUE,-0.045944,-0.005219,0.000000,0.043411,0.000000,0.000000,-0.098000,0.007000,0.047000,1.730000,-86.150000,0.010000,-89.465437,Hold,-0.000244,0.000000,Hold,-84054.000000,83968.000000,Suck,-1710.000000,1818.181818,Speed,-1747.500000,1818.181818,Speed,Off,On,0.000000,FALSE,0,,,,,0.000000,0.000000,-0.050000
08:30:30.759 AM 04/28/2016,Teleop Enabled,10,FALSE,0,NO ERROR,-0.000000,-0.879081,-0.000000,1.462997,TRUE,FALSE,FALSE,FALSE,FALSE,FALSE,Disabled,0.000000,0.000000,0.000000,TRUE,-0.043762,-0.004333,0.000000,0.046509,0.030960,0.000000,0.022000,0.063000,-0.003000,1.730000,-86.150000,0.010000,-89.465778,Hold,-0.000244,0.000000,Hold,-84054.000000,83968.000000,Suck,-1695.000000,1818.181818,Speed,-1747.500000,1818.181818,Speed,Off,On,0.000000,FALSE,0,,,,,0.000000,0.000000,-0.050000
08:30:30.860 AM 04/28/2016,Teleop Enabled,10,FALSE,0,NO ERROR,-0.000000,-0.879081,-0.000000,1.462997,TRUE,FALSE,FALSE,FALSE,FALSE,FALSE,Disabled,0.000000,0.000000,0.000000,TRUE,-0.041626,-0.002426,0.000000,0.033844,0.038467,0.000000,-0.055000,-0.041000,-0.011000,1.720000,-86.150000,0.100000,-89.452882,Hold,-0.000244,0.000000,Hold,-84054.000000,83968.000000,Suck,-1695.000000,1818.181818,Speed,-1740.000000,1818.181818,Speed,Off,On,0.000000,FALSE,0,,,,,0.000000,0.000000,-0.050000
08:30:30.960 AM 04/28/2016,Teleop Enabled,9,FALSE,0,NO ERROR,-0.000000,-0.879081,-0.000000,1.462997,TRUE,FALSE,FALSE,FALSE,FALSE,FALSE,Disabled,0.000000,0.000000,0.000000,TRUE,-0.041092,-0.002640,0.000000,-0.005356,-0.009964,0.000000,-0.001000,0.013000,-0.065000,1.720000,-86.150000,0.100000,-89.452958,Hold,-0.000244,0.000000,Hold,-84054.000000,83968.000000,Suck,-1702.500000,1818.181818,Speed,-1740.000000,1818.181818,Speed,Off,On,0.000000,FALSE,0,,,,,0.000000,0.000000,-0.050000
08:30:31.061 AM 04/28/2016,Teleop Enabled,9,FALSE,0,NO ERROR,-0.000000,-0.879081,-0.000000,1.462997,TRUE,FALSE,FALSE,FALSE,FALSE,FALSE,Disabled,0.000000,0.000000,0.000000,TRUE,-0.041367,-0.002792,0.000000,-0.007935,-0.014008,0.000000,-0.001000,0.013000,-0.065000,1.750000,-86.150000,0.080000,-89.459871,Hold,-0.000244,0.000000,Hold,-84054.000000,83968.000000,Suck,-1695.000000,1818.181818,Speed,-1777.500000,1818.181818,Speed,Off,On,0.000000,FALSE,0,,,,,0.000000,0.000000,-0.050000
08:30:31.161 AM 04/28/2016,Teleop Enabled,9,FALSE,0,NO ERROR,-0.000000,-0.879081,-0.000000,1.462997,TRUE,FALSE,FALSE,FALSE,FALSE,FALSE,Disabled,0.000000,0.000000,0.000000,TRUE,-0.042328,-0.003937,0.000000,-0.030945,-0.017441,0.000000,-0.037000,-0.029000,0.050000,1.760000,-86.150000,0.080000,-89.463121,Hold,-0.000244,0.000000,Hold,-84054.000000,83968.000000,Suck,-1695.000000,1818.181818,Speed,-1785.000000,1818.181818,Speed,Off,On,0.000000,FALSE,0,,,,,0.000000,0.000000,-0.050000
08:30:31.262 AM 04/28/2016,Teleop Enabled,9,FALSE,0,NO ERROR,-0.000000,-0.879081,-0.000000,1.462997,TRUE,FALSE,FALSE,FALSE,FALSE,FALSE,Disabled,0.000000,0.000000,0.000000,TRUE,-0.042328,-0.003937,0.000000,-0.030945,-0.017441,0.000000,-0.015000,0.003000,-0.013000,1.790000,-86.150000,0.050000,-89.459678,Hold,-0.000244,0.000000,Hold,-84054.000000,83968.000000,Suck,-1702.500000,1818.181818,Speed,-1762.500000,1818.181818,Speed,Off,On,0.000000,FALSE,0,,,,,0.000000,0.000000,-0.050000
08:30:31.361 AM 04/28/2016,Teleop Enabled,10,FALSE,0,NO ERROR,-0.000000,-0.879081,-0.000000,1.462997,TRUE,FALSE,FALSE,FALSE,FALSE,FALSE,Disabled,0.000000,0.000000,0.000000,TRUE,-0.042404,-0.003433,0.000000,-0.000244,0.013321,0.000000,0.060000,0.124000,-0.009000,1.780000,-86.150000,0.060000,-89.449347,Hold,-0.000244,0.000000,Hold,-84054.000000,83968.000000,Suck,-1710.000000,1818.181818,Speed,-1732.500000,1818.181818,Speed,Off,On,0.000000,FALSE,0,,,,,0.000000,0.000000,-0.050000
08:30:31.461 AM 04/28/2016,Teleop Enabled,10,FALSE,0,NO ERROR,-0.000000,-0.879081,-0.000000,1.462997,TRUE,FALSE,FALSE,FALSE,FALSE,FALSE,Disabled,0.000000,0.000000,0.000000,TRUE,-0.042404,-0.003433,0.000000,-0.000244,0.013321,0.000000,0.007000,0.057000,-0.063000,1.770000,-86.160000,0.080000,-89.454456,Hold,-0.000244,0.000000,Hold,-84054.000000,83968.000000,Suck,-1725.000000,1818.181818,Speed,-1725.000000,1818.181818,Speed,Off,On,0.000000,FALSE,0,,,,,0.000000,0.000000,-0.050000
08:30:31.563 AM 04/28/2016,Teleop Enabled,11,FALSE,0,NO ERROR,-0.000000,-0.879081,-0.000000,1.462997,TRUE,FALSE,FALSE,FALSE,FALSE,FALSE,Disabled,0.000000,0.000000,0.000000,TRUE,-0.042603,-0.002884,0.000000,-0.002289,0.004120,0.000000,0.062000,0.019000,-0.018000,1.800000,-86.150000,0.010000,-89.451684,Hold,-0.000244,0.000000,Hold,-84054.000000,83968.000000,Suck,-1710.000000,1818.181818,Speed,-1747.500000,1818.181818,Speed,Off,On,0.000000,FALSE,0,,,,,0.000000,0.000000,-0.050000
08:30:31.663 AM 04/28/2016,Teleop Enabled,10,FALSE,0,NO ERROR,-0.559055,-1.193497,0.559055,1.360330,TRUE,FALSE,FALSE,FALSE,FALSE,FALSE,Disabled,0.000000,0.000000,0.000000,TRUE,-0.042725,-0.004440,0.000000,-0.002060,-0.003632,0.000000,0.036000,-0.054000,0.017000,1.840000,-86.150000,-0.040000,-89.365080,Hold,-0.000244,0.000000,Hold,-84054.000000,83968.000000,Suck,-1687.500000,1818.181818,Speed,-1792.500000,1818.181818,Speed,Off,On,0.000000,FALSE,0,,,,,0.000000,0.000000,-0.050000
08:30:31.764 AM 04/28/2016,Teleop Enabled,10,FALSE,0,NO ERROR,-0.574803,-2.945243,0.574803,3.586908,TRUE,FALSE,FALSE,FALSE,FALSE,FALSE,Disabled,0.000000,0.000000,0.000000,TRUE,-0.042725,-0.004440,0.000000,-0.002060,-0.003632,0.000000,-0.006000,0.176000,-0.014000,1.880000,-86.130000,0.020000,-89.096912,Hold,-0.000244,0.000000,Hold,-84054.000000,83968.000000,Suck,-1695.000000,1818.181818,Speed,-1740.000000,1818.181818,Speed,Off,On,0.000000,FALSE,0,,,,,0.000000,0.000000,-0.050000
08:30:31.865 AM 04/28/2016,Teleop Enabled,11,FALSE,0,NO ERROR,-0.338583,-2.945243,0.338583,3.586908,FALSE,FALSE,FALSE,FALSE,FALSE,FALSE,Disabled,0.000000,0.000000,0.000000,TRUE,-0.041321,0.005692,0.000000,0.070496,0.332199,0.000000,-0.157000,0.237000,0.034000,1.850000,-85.710000,3.430000,-89.096912,Hold,-0.000244,0.000000,Hold,-84053.000000,83968.000000,Suck,-1672.500000,1818.181818,Speed,-1695.000000,1818.181818,Speed,Off,On,0.000000,FALSE,0,,,,,0.000000,0.000000,-0.050000
08:30:31.966 AM 04/28/2016,Teleop Enabled,9,FALSE,0,NO ERROR,-0.330709,-5.717237,0.330709,6.455152,FALSE,FALSE,FALSE,FALSE,FALSE,FALSE,Disabled,0.000000,0.000000,0.000000,TRUE,-0.040817,0.028564,0.000000,-0.009079,0.514481,0.000000,0.066000,-0.051000,0.025000,1.850000,-86.050000,3.730000,-89.369538,Hold,-0.000244,45.000000,Hold,-84004.000000,151552.000000,Suck,-1657.500000,1818.181818,Speed,-1657.500000,1818.181818,Speed,Off,On,0.000000,FALSE,0,,,,,0.000000,0.000000,-0.050000
08:30:32.066 AM 04/28/2016,Teleop Enabled,9,FALSE,0,NO ERROR,-0.000000,-9.066729,-0.000000,9.939393,FALSE,FALSE,FALSE,FALSE,FALSE,FALSE,Disabled,0.000000,0.000000,0.000000,TRUE,-0.039780,0.056244,0.000000,0.056107,0.589432,0.000000,-0.004000,0.017000,-0.176000,1.750000,-86.400000,3.130000,-89.732979,Hold,2.174316,45.000000,Hold,-87081.000000,151552.000000,Suck,-1672.500000,1818.181818,Speed,-1680.000000,1818.181818,Speed,Off,On,0.000000,FALSE,0,,,,,0.000000,0.000000,-0.050000
08:30:32.166 AM 04/28/2016,Teleop Enabled,10,FALSE,0,NO ERROR,-0.000000,-12.287888,-0.000000,13.160553,TRUE,FALSE,FALSE,FALSE,FALSE,FALSE,Disabled,0.000000,0.000000,0.000000,TRUE,-0.038361,0.084412,0.000000,0.003250,0.525040,0.000000,-0.012000,-0.119000,0.027000,1.850000,-86.540000,2.380000,-89.840301,Hold,4.607666,45.000000,Hold,-108611.000000,151552.000000,Suck,-1695.000000,1818.181818,Speed,-1740.000000,1818.181818,Speed,Off,On,0.000000,FALSE,0,,,,,0.000000,0.000000,-0.050000
