Time,Robot Mode,Loop Time,Error Status,Error Code,Error Source,Left Motor Output,Left Motor Encoder,Right Motor Output,Right Motor Encoder,Is Level,Is Stalled,Ball Detector Photoeye,Vision Enabled,Vision Teleop Control,Vision Auto Control,Vision Current State,Vision X Output,Vision NavX Error,Vision NavX Target,NavX Connection Status,NavX Displacement X,NavX Displacement Y,NavX Displacement Z,NavX Velocity X,NavX Velocity Y,NavX Velocity Z,NavX Acceleration X,NavX Acceleration Y,NavX Acceleration Z,NavX Pitch,NavX Yaw,NavX Roll,Gyro Angle,Roller Arm State,Roller Arm Actual,Roller Arm Desired,Shooter Arm State,Shooter Arm Actual,Shooter Arm Desired,Shooter State,Actual RPM Left,Desired RPM Left,Control Mode Left,Actual RPM Right,Desired RPM Right,Control Mode Right,Ball Shooter Cylinder,Ball Halo Cylinder,Scaler Motor Output,Scaler Solenoid Fire,Auto To Run,Auto Current File,Auto File Status,Auto Current Command,Auto Trimmed Command,Shooter Amps Left,Shooter Amps Right, Vision After Offset
04:54:10.825 PM 04/28/2016,Autonomous Disabled,11,FALSE,0,NO ERROR,-0.000000,9.496644,-0.000000,-10.407809,TRUE,FALSE,TRUE,FALSE,FALSE,FALSE,Disabled,0.246875,0.000000,0.000000,TRUE,-1.274796,0.652817,0.000000,0.050430,0.097610,0.000000,0.101000,0.175000,-0.145000,1.790000,0.670000,-0.080000,7.109939,Hold,0.901123,0.000000,Hold,-4144.000000,4096.000000,HighGoal,3210.000000,-3272.727273,Speed,3210.000000,-3272.727273,Speed,Off,Off,0.000000,FALSE,0,,,,,0.000000,0.000000,0.196875
04:54:10.925 PM 04/28/2016,Teleop Enabled,11,FALSE,0,NO ERROR,-0.000000,0.012833,-0.000000,-0.282333,TRUE,FALSE,TRUE,FALSE,FALSE,FALSE,Disabled,0.246875,0.000000,0.000000,TRUE,-1.257050,0.710388,0.000000,0.000000,0.000000,0.000000,0.006000,0.000000,0.002000,1.790000,0.670000,-0.080000,0.010813,ResetBack,0.901123,0.000000,ResetBack,-4144.000000,-0.250000,Empty,3210.000000,-3272.727273,Speed,3210.000000,-3272.727273,Speed,Off,Off,0.000000,FALSE,0,,,,,0.000000,0.000000,0.196875
04:54:11.025 PM 04/28/2016,Teleop Enabled,11,FALSE,0,NO ERROR,-0.000000,0.012833,-0.000000,-0.282333,TRUE,FALSE,TRUE,FALSE,FALSE,FALSE,Disabled,0.246875,0.000000,0.000000,TRUE,-1.257050,0.710388,0.000000,0.000000,0.000000,0.000000,0.023000,-0.001000,0.069000,1.890000,0.000000,-0.060000,0.002441,ResetBack,0.901123,-0.000049,ResetBack,-82.000000,-0.250000,Empty,0.000000,0.000000,Speed,0.000000,0.000000,Speed,Off,On,0.000000,FALSE,0,,,,,0.000000,0.000000,0.196875
04:54:11.129 PM 04/28/2016,Teleop Enabled,13,FALSE,0,NO ERROR,-0.000000,0.012833,-0.000000,-0.275916,TRUE,FALSE,TRUE,FALSE,FALSE,FALSE,Disabled,0.246875,0.000000,0.000000,TRUE,-1.257980,0.711105,0.000000,-0.045624,0.032730,0.000000,0.189000,0.062000,-0.219000,1.850000,-0.010000,-0.050000,-0.029737,ResetBack,0.630127,-0.000049,ResetBack,93.000000,-0.250000,Empty,0.000000,0.000000,Speed,0.000000,0.000000,Speed,Off,On,0.000000,FALSE,0,,,,,0.000000,0.000000,0.196875
04:54:11.228 PM 04/28/2016,Teleop Enabled,11,FALSE,0,NO ERROR,-0.000000,0.012833,-0.000000,-0.275916,TRUE,FALSE,TRUE,FALSE,FALSE,FALSE,Disabled,0.246875,0.000000,0.000000,TRUE,-1.259140,0.712418,0.000000,0.000000,0.000000,0.000000,0.018000,0.012000,0.066000,1.860000,0.000000,-0.020000,0.004324,ResetBack,-0.059082,-0.000049,ResetBack,2244.000000,-0.250000,Empty,0.000000,0.000000,Speed,0.000000,0.000000,Speed,Off,On,0.000000,FALSE,0,,,,,0.000000,0.000000,0.196875
04:54:11.329 PM 04/28/2016,Teleop Enabled,10,FALSE,0,NO ERROR,-0.000000,0.012833,-0.000000,-0.275916,TRUE,FALSE,TRUE,FALSE,FALSE,FALSE,Disabled,0.246875,0.000000,0.000000,TRUE,-1.259140,0.712418,0.000000,0.000000,0.000000,0.000000,-0.027000,-0.005000,0.015000,1.860000,0.000000,-0.020000,-0.010865,Hold,-0.059326,0.000000,ResetBack,2392.000000,-0.250000,Empty,0.000000,0.000000,Speed,0.000000,0.000000,Speed,Off,On,0.000000,FALSE,0,,,,,0.000000,0.000000,0.196875
04:54:11.429 PM 04/28/2016,Teleop Enabled,9,FALSE,0,NO ERROR,-0.000000,0.012833,-0.000000,-0.275916,TRUE,FALSE,TRUE,FALSE,FALSE,FALSE,Disabled,0.246875,0.000000,0.000000,TRUE,-1.259262,0.712418,0.000000,0.000000,0.000000,0.000000,0.000000,0.003000,0.003000,1.860000,0.000000,-0.020000,-0.010906,Hold,0.213379,0.000000,ResetBack,2395.000000,-0.250000,Empty,0.000000,0.000000,Speed,0.000000,0.000000,Speed,Off,On,0.000000,FALSE,0,,,,,0.000000,0.000000,0.196875
04:54:11.530 PM 04/28/2016,Teleop Enabled,10,FALSE,0,NO ERROR,-0.000000,0.012833,-0.000000,-0.275916,TRUE,FALSE,TRUE,FALSE,FALSE,FALSE,Disabled,0.246875,0.000000,0.000000,TRUE,-1.259262,0.712418,0.000000,0.000000,0.000000,0.000000,-0.005000,0.002000,0.005000,1.860000,0.000000,0.000000,-0.006895,Hold,0.213379,0.000000,ResetBack,2396.000000,-0.250000,Empty,0.000000,0.000000,Speed,0.000000,0.000000,Speed,Off,On,0.000000,FALSE,0,,,,,0.000000,0.000000,0.196875
04:54:11.633 PM 04/28/2016,Teleop Enabled,9,FALSE,0,NO ERROR,-0.000000,0.012833,-0.000000,-0.275916,TRUE,FALSE,TRUE,FALSE,FALSE,FALSE,Disabled,0.246875,0.000000,0.000000,TRUE,-1.259262,0.712418,0.000000,0.000000,0.000000,0.000000,-0.004000,-0.001000,-0.001000,1.860000,0.000000,-0.020000,-0.012799,Hold,0.213379,0.000000,ResetBack,2396.000000,-0.250000,Empty,0.000000,0.000000,Speed,0.000000,0.000000,Speed,Off,On,0.000000,FALSE,0,,,,,0.000000,0.000000,0.196875
04:54:11.732 PM 04/28/2016,Teleop Enabled,9,FALSE,0,NO ERROR,-0.000000,0.012833,-0.000000,-0.275916,TRUE,FALSE,TRUE,FALSE,FALSE,FALSE,Disabled,0.246875,0.000000,0.000000,TRUE,-1.259262,0.712418,0.000000,0.000000,0.000000,0.000000,0.001000,0.000000,0.002000,1.860000,0.000000,-0.020000,0.000878,Hold,0.213379,0.000000,ResetBack,2398.000000,-0.250000,Empty,0.000000,0.000000,Speed,0.000000,0.000000,Speed,Off,On,0.000000,FALSE,0,,,,,0.000000,0.000000,0.196875
04:54:11.833 PM 04/28/2016,Teleop Enabled,10,FALSE,0,NO ERROR,-0.000000,0.012833,-0.000000,-0.275916,TRUE,FALSE,TRUE,FALSE,FALSE,FALSE,Disabled,0.246875,0.000000,0.000000,TRUE,-1.259262,0.712418,0.000000,0.000000,0.000000,0.000000,0.002000,-0.001000,-0.007000,1.860000,0.000000,-0.020000,0.010049,Hold,0.213379,0.000000,ResetBack,2399.000000,-0.250000,Empty,0.000000,0.000000,Speed,0.000000,0.000000,Speed,Off,On,0.000000,FALSE,0,,,,,0.000000,0.000000,0.196875
04:54:11.933 PM 04/28/2016,Teleop Enabled,9,FALSE,0,NO ERROR,-0.000000,0.012833,-0.000000,-0.275916,TRUE,FALSE,TRUE,FALSE,FALSE,FALSE,Disabled,0.246875,0.000000,0.000000,TRUE,-1.259262,0.712418,0.000000,0.000000,0.000000,0.000000,0.002000,0.000000,-0.002000,1.860000,0.000000,-0.020000,0.013863,Hold,0.213379,0.000000,ResetBack,2402.000000,-0.250000,Empty,0.000000,0.000000,Speed,0.000000,0.000000,Speed,Off,On,0.000000,FALSE,0,,,,,0.000000,0.000000,0.196875
04:54:12.034 PM 04/28/2016,Teleop Enabled,10,FALSE,0,NO ERROR,-0.000000,0.012833,-0.000000,-0.275916,TRUE,FALSE,TRUE,FALSE,FALSE,FALSE,Disabled,0.246875,0.000000,0.000000,TRUE,-1.259262,0.712418,0.000000,0.000000,0.000000,0.000000,0.003000,0.002000,-0.003000,1.860000,0.000000,-0.020000,0.021922,Hold,0.213379,0.000000,ResetBack,2404.000000,-0.250000,Empty,0.000000,0.000000,Speed,0.000000,0.000000,Speed,Off,On,0.000000,FALSE,0,,,,,0.000000,0.000000,0.196875
04:54:12.133 PM 04/28/2016,Teleop Enabled,10,FALSE,0,NO ERROR,-0.000000,0.012833,-0.000000,-0.275916,TRUE,FALSE,TRUE,FALSE,FALSE,FALSE,Disabled,0.246875,0.000000,0.000000,TRUE,-1.259262,0.712418,0.000000,0.000000,0.000000,0.000000,0.003000,0.002000,-0.003000,1.860000,0.000000,-0.020000,0.021502,Hold,0.213379,0.000000,ResetBack,2405.000000,-0.250000,Empty,0.000000,0.000000,Speed,0.000000,0.000000,Speed,Off,On,0.000000,FALSE,0,,,,,0.000000,0.000000,0.196875
04:54:12.234 PM 04/28/2016,Teleop Enabled,10,FALSE,0,NO ERROR,-0.000000,0.012833,-0.000000,-0.275916,TRUE,FALSE,TRUE,FALSE,FALSE,FALSE,Disabled,0.246875,0.000000,0.000000,TRUE,-1.259323,0.712463,0.000000,-0.004898,0.003738,0.000000,-0.050000,0.033000,0.011000,1.850000,0.000000,-0.020000,0.023678,Hold,0.213379,0.000000,Reset,2405.000000,2.000000,Suck,0.000000,1818.181818,Speed,0.000000,1818.181818,Speed,Off,On,0.000000,FALSE,0,,,,,0.000000,0.000000,0.196875
04:54:12.335 PM 04/28/2016,Teleop Enabled,11,FALSE,0,NO ERROR,-0.000000,0.012833,-0.000000,-0.275916,TRUE,FALSE,TRUE,FALSE,FALSE,FALSE,Disabled,0.246875,0.000000,0.000000,TRUE,-1.259476,0.712875,0.000000,0.003067,0.011642,0.000000,-0.050000,0.033000,0.011000,1.850000,0.000000,-0.020000,0.026460,Hold,0.213379,0.000000,Hold,0.000000,2.000000,Hold,-37.500000,0.000000,Speed,-15.000000,0.000000,Speed,Off,Off,0.000000,FALSE,0,,,,,0.000000,0.000000,0.196875
04:54:12.435 PM 04/28/2016,Teleop Enabled,11,FALSE,0,NO ERROR,-0.000000,0.012833,-0.000000,-0.275916,TRUE,FALSE,TRUE,FALSE,FALSE,FALSE,Disabled,0.246875,0.000000,0.000000,TRUE,-1.259552,0.713043,0.000000,-0.003235,-0.003265,0.000000,-0.075000,-0.077000,-0.009000,1.740000,0.000000,0.040000,0.018521,Hold,0.213379,0.000000,Hold,-221.000000,2.000000,Hold,-472.500000,0.000000,Speed,-97.500000,0.000000,Speed,Off,Off,0.000000,FALSE,0,,,,,0.000000,0.000000,0.196875
04:54:12.535 PM 04/28/2016,Teleop Enabled,10,FALSE,0,NO ERROR,-0.000000,0.012833,-0.000000,-0.275916,TRUE,FALSE,TRUE,FALSE,FALSE,FALSE,Disabled,0.246875,0.000000,0.000000,TRUE,-1.260025,0.712601,0.000000,0.000000,-0.006973,0.000000,0.004000,-0.008000,0.015000,1.760000,0.000000,0.000000,0.032932,Hold,0.213379,0.000000,Hold,-210.000000,2.000000,Hold,-622.500000,0.000000,Speed,-52.500000,0.000000,Speed,Off,Off,0.000000,FALSE,0,,,,,0.000000,0.000000,0.196875
04:54:12.636 PM 04/28/2016,Teleop Enabled,9,FALSE,0,NO ERROR,-0.000000,0.012833,-0.000000,-0.275916,TRUE,FALSE,TRUE,FALSE,FALSE,FALSE,Disabled,0.246875,0.000000,0.000000,TRUE,-1.260071,0.712601,0.000000,0.000397,0.000854,0.000000,0.004000,-0.008000,0.015000,1.770000,0.000000,0.010000,0.038409,Hold,0.213379,0.000000,Hold,-208.000000,2.000000,Hold,-577.500000,0.000000,Speed,0.000000,0.000000,Speed,Off,Off,0.000000,FALSE,0,,,,,0.000000,0.000000,0.196875
04:54:12.736 PM 04/28/2016,Teleop Enabled,10,FALSE,0,NO ERROR,-0.000000,0.012833,-0.000000,-0.275916,TRUE,FALSE,TRUE,FALSE,FALSE,FALSE,Disabled,0.246875,0.000000,0.000000,TRUE,-1.260162,0.712494,0.000000,-0.006790,-0.004395,0.000000,-0.016000,-0.031000,0.020000,1.770000,0.000000,0.010000,0.027396,Hold,0.213379,0.000000,Hold,-208.000000,2.000000,Hold,-532.500000,0.000000,Speed,0.000000,0.000000,Speed,Off,Off,0.000000,FALSE,0,,,,,0.000000,0.000000,0.196875
04:54:12.837 PM 04/28/2016,Teleop Enabled,9,FALSE,0,NO ERROR,-0.000000,0.012833,-0.000000,-0.275916,TRUE,FALSE,TRUE,FALSE,FALSE,FALSE,Disabled,0.246875,0.000000,0.000000,TRUE,-1.260117,0.712280,0.000000,0.007843,0.000000,0.000000,0.014000,0.010000,0.021000,1.770000,0.000000,0.010000,0.043724,Hold,0.213379,0.000000,Hold,-207.000000,2.000000,Hold,-487.500000,0.000000,Speed,-7.500000,0.000000,Speed,Off,Off,0.000000,FALSE,0,,,,,0.000000,0.000000,0.196875
04:54:12.938 PM 04/28/2016,Teleop Enabled,10,FALSE,0,NO ERROR,-0.000000,0.012833,-0.000000,-0.275916,TRUE,FALSE,TRUE,FALSE,FALSE,FALSE,Disabled,0.246875,0.000000,0.000000,TRUE,-1.259933,0.712570,0.000000,0.000000,0.003830,0.000000,0.011000,-0.033000,-0.003000,1.770000,0.000000,0.010000,0.046079,Hold,0.213379,0.000000,Hold,-207.000000,2.000000,Hold,-435.000000,0.000000,Speed,0.000000,0.000000,Speed,Off,Off,0.000000,FALSE,0,,,,,0.000000,0.000000,0.196875
04:54:13.039 PM 04/28/2016,Teleop Enabled,9,FALSE,0,NO ERROR,-0.000000,0.012833,-0.000000,-0.275916,TRUE,FALSE,TRUE,FALSE,FALSE,FALSE,Disabled,0.246875,0.000000,0.000000,TRUE,-1.259933,0.712372,0.000000,0.000000,-0.010941,0.000000,-0.010000,-0.008000,-0.003000,1.780000,0.000000,0.000000,0.062606,Hold,0.213379,0.000000,Hold,-207.000000,2.000000,Hold,-390.000000,0.000000,Speed,0.000000,0.000000,Speed,Off,Off,0.000000,FALSE,0,,,,,0.000000,0.000000,0.196875
04:54:13.139 PM 04/28/2016,Teleop Enabled,9,FALSE,0,NO ERROR,-0.000000,0.012833,-0.000000,-0.275916,TRUE,FALSE,TRUE,FALSE,FALSE,FALSE,Disabled,0.246875,0.000000,0.000000,TRUE,-1.259933,0.712372,0.000000,0.000000,-0.010941,0.000000,-0.010000,-0.008000,-0.003000,1.780000,0.000000,0.000000,0.076136,Hold,0.213379,0.000000,Hold,-207.000000,2.000000,Hold,-330.000000,0.000000,Speed,-7.500000,0.000000,Speed,Off,Off,0.000000,FALSE,0,,,,,0.000000,0.000000,0.196875
04:54:13.240 PM 04/28/2016,Teleop Enabled,10,FALSE,0,NO ERROR,-0.000000,0.012833,-0.000000,-0.275916,TRUE,FALSE,TRUE,FALSE,FALSE,FALSE,Disabled,0.246875,0.000000,0.000000,TRUE,-1.260010,0.712616,0.000000,-0.003830,0.004288,0.000000,-0.016000,-0.030000,0.004000,1.800000,0.000000,-0.010000,0.079079,Hold,0.213379,0.000000,Hold,-207.000000,2.000000,Hold,-300.000000,0.000000,Speed,-30.000000,0.000000,Speed,Off,Off,0.000000,FALSE,0,,,,,0.000000,0.000000,0.196875
04:54:13.340 PM 04/28/2016,Teleop Enabled,9,FALSE,0,NO ERROR,-0.000000,0.012833,-0.000000,-0.275916,TRUE,FALSE,TRUE,FALSE,FALSE,FALSE,Disabled,0.246875,0.000000,0.000000,TRUE,-1.260010,0.712845,0.000000,0.000000,-0.001511,0.000000,-0.017000,0.004000,-0.012000,1.810000,0.000000,-0.030000,0.089286,Hold,0.213379,0.000000,Hold,-207.000000,2.000000,Hold,-262.500000,0.000000,Speed,-52.500000,0.000000,Speed,Off,Off,0.000000,FALSE,0,,,,,0.000000,0.000000,0.196875
04:54:13.441 PM 04/28/2016,Teleop Enabled,10,FALSE,0,NO ERROR,-0.000000,0.012833,-0.000000,-0.275916,TRUE,FALSE,TRUE,FALSE,FALSE,FALSE,Disabled,0.246875,0.000000,0.000000,TRUE,-1.260010,0.712875,0.000000,0.000000,0.000000,0.000000,-0.007000,0.016000,0.015000,1.810000,0.000000,-0.030000,0.094598,Hold,0.213379,0.000000,Hold,-207.000000,2.000000,Hold,-225.000000,0.000000,Speed,-52.500000,0.000000,Speed,Off,Off,0.000000,FALSE,0,,,,,0.000000,0.000000,0.196875
04:54:13.542 PM 04/28/2016,Teleop Enabled,11,FALSE,0,NO ERROR,-0.000000,0.012833,-0.000000,-0.275916,TRUE,FALSE,TRUE,FALSE,FALSE,FALSE,Disabled,0.246875,0.000000,0.000000,TRUE,-1.260010,0.713028,0.000000,0.000000,0.000000,0.000000,-0.017000,-0.010000,0.012000,1.840000,0.000000,-0.040000,0.100089,Hold,0.213379,0.000000,Hold,-207.000000,2.000000,LowGoal,-187.500000,-2181.818182,Speed,-37.500000,-2181.818182,Speed,Off,Off,0.000000,FALSE,0,,,,,0.000000,0.000000,0.196875
04:54:13.643 PM 04/28/2016,Teleop Enabled,9,FALSE,0,NO ERROR,-0.000000,0.012833,-0.000000,-0.275916,TRUE,FALSE,TRUE,FALSE,FALSE,FALSE,Disabled,0.246875,0.000000,0.000000,TRUE,-1.260010,0.713013,0.000000,0.002472,-0.001343,0.000000,-0.017000,-0.010000,0.012000,1.840000,0.000000,-0.040000,0.111036,Hold,0.213379,0.000000,Hold,-207.000000,2.000000,LowGoal,-120.000000,-2181.818182,Speed,-7.500000,-2181.818182,Speed,Off,Off,0.000000,FALSE,0,,,,,0.000000,0.000000,0.196875
04:54:13.744 PM 04/28/2016,Teleop Enabled,11,FALSE,0,NO ERROR,-0.000000,0.012833,-0.000000,-0.275916,TRUE,FALSE,TRUE,FALSE,FALSE,FALSE,Disabled,0.246875,0.000000,0.000000,TRUE,-1.260071,0.712814,0.000000,-0.001801,-0.002228,0.000000,-0.012000,-0.022000,0.011000,1.840000,0.000000,-0.030000,0.113935,Hold,0.213379,0.000000,Hold,-207.000000,2.000000,LowGoal,405.000000,-2181.818182,Speed,7.500000,-2181.818182,Speed,Off,Off,0.000000,FALSE,0,,,,,0.000000,0.000000,0.196875
04:54:13.844 PM 04/28/2016,Teleop Enabled,11,FALSE,0,NO ERROR,-0.000000,0.012833,-0.000000,-0.275916,TRUE,FALSE,TRUE,FALSE,FALSE,FALSE,Disabled,0.246875,0.000000,0.000000,TRUE,-1.260223,0.713303,0.000000,-0.006485,0.016510,0.000000,-0.028000,0.017000,-0.032000,1.860000,0.000000,-0.060000,0.114665,Hold,0.213379,0.000000,Hold,-207.000000,2.000000,LowGoal,892.500000,-2181.818182,Speed,37.500000,-2181.818182,Speed,Off,Off,0.000000,FALSE,0,,,,,0.000000,0.000000,0.196875
04:54:13.945 PM 04/28/2016,Teleop Enabled,11,FALSE,0,NO ERROR,-0.000000,0.012833,-0.000000,-0.275916,TRUE,FALSE,TRUE,FALSE,FALSE,FALSE,Disabled,0.246875,0.000000,0.000000,TRUE,-1.260223,0.713303,0.000000,-0.006485,0.016510,0.000000,-0.046000,-0.005000,-0.037000,1.850000,0.000000,-0.030000,0.105872,Hold,0.213379,0.000000,Hold,-207.000000,2.000000,LowGoal,1515.000000,-2181.818182,Speed,945.000000,-2181.818182,Speed,Off,Off,0.000000,FALSE,0,,,,,0.000000,0.000000,0.196875
04:54:14.046 PM 04/28/2016,Teleop Enabled,10,FALSE,0,NO ERROR,-0.000000,0.012833,-0.000000,-0.275916,TRUE,FALSE,TRUE,FALSE,FALSE,FALSE,Disabled,0.246875,0.000000,0.000000,TRUE,-1.255692,0.708862,0.000000,0.122147,-0.140411,0.000000,0.106000,-0.094000,-0.070000,1.850000,-0.010000,-0.020000,0.114565,Hold,0.213379,0.000000,Hold,-207.000000,2.000000,LowGoal,1875.000000,-2181.818182,Speed,1762.500000,-2181.818182,Speed,Off,Off,0.000000,FALSE,0,,,,,0.000000,0.000000,0.196875
04:54:14.147 PM 04/28/2016,Teleop Enabled,11,FALSE,0,NO ERROR,-0.000000,0.012833,-0.000000,-0.275916,TRUE,FALSE,TRUE,FALSE,FALSE,FALSE,Disabled,0.246875,0.000000,0.000000,TRUE,-1.255692,0.708862,0.000000,0.122147,-0.140411,0.000000,0.085000,-0.018000,0.067000,1.790000,-0.010000,0.040000,0.109794,Hold,0.213379,0.000000,Hold,-207.000000,2.000000,LowGoal,2175.000000,-2181.818182,Speed,2122.500000,-2181.818182,Speed,Off,Off,0.000000,FALSE,0,,,,,0.000000,0.000000,0.196875
04:54:14.246 PM 04/28/2016,Teleop Enabled,10,FALSE,0,NO ERROR,-0.000000,0.012833,-0.000000,-0.275916,TRUE,FALSE,TRUE,FALSE,FALSE,FALSE,Disabled,0.246875,0.000000,0.000000,TRUE,-1.248230,0.700943,0.000000,0.159027,-0.171768,0.000000,0.026000,-0.068000,0.045000,1.840000,-0.010000,-0.030000,0.120187,Hold,0.213379,0.000000,Hold,-206.000000,2.000000,LowGoal,2197.500000,-2181.818182,Speed,2310.000000,-2181.818182,Speed,Off,Off,0.000000,FALSE,0,,,,,0.000000,0.000000,0.196875
04:54:14.346 PM 04/28/2016,Teleop Enabled,10,FALSE,0,NO ERROR,-0.000000,0.012833,-0.000000,-0.275916,TRUE,FALSE,TRUE,FALSE,FALSE,FALSE,Disabled,0.246875,0.000000,0.000000,TRUE,-1.239761,0.690201,0.000000,0.179169,-0.245483,0.000000,0.044000,-0.075000,0.092000,1.890000,-0.010000,-0.180000,0.127416,Hold,0.213379,0.000000,Hold,-204.000000,2.000000,LowGoal,2175.000000,-2181.818182,Speed,2212.500000,-2181.818182,Speed,Off,Off,0.000000,FALSE,0,,,,,0.000000,0.000000,0.196875
04:54:14.446 PM 04/28/2016,Teleop Enabled,10,FALSE,0,NO ERROR,-0.000000,0.012833,-0.000000,-0.275916,TRUE,FALSE,TRUE,FALSE,FALSE,FALSE,Disabled,0.246875,0.000000,0.000000,TRUE,-1.227005,0.672943,0.000000,0.238235,-0.307709,0.000000,-0.019000,-0.045000,0.042000,1.880000,-0.010000,-0.120000,0.127010,Hold,0.213379,0.000000,Hold,-202.000000,2.000000,LowGoal,2145.000000,-2181.818182,Speed,2085.000000,-2181.818182,Speed,Off,Off,0.000000,FALSE,0,,,,,0.000000,0.000000,0.196875
04:54:14.547 PM 04/28/2016,Teleop Enabled,10,FALSE,0,NO ERROR,-0.000000,0.012833,-0.000000,-0.275916,TRUE,FALSE,TRUE,FALSE,FALSE,FALSE,Disabled,0.246875,0.000000,0.000000,TRUE,-1.215744,0.656982,0.000000,0.203934,-0.313751,0.000000,-0.085000,0.122000,-0.023000,1.840000,-0.010000,-0.140000,0.121268,Hold,0.213379,0.000000,Hold,-202.000000,2.000000,LowGoal,2130.000000,-2181.818182,Speed,2047.500000,-2181.818182,Speed,Off,Off,0.000000,FALSE,0,,,,,0.000000,0.000000,0.196875
04:54:14.648 PM 04/28/2016,Teleop Enabled,11,FALSE,0,NO ERROR,-0.000000,0.012833,-0.000000,-0.275916,TRUE,FALSE,TRUE,FALSE,FALSE,FALSE,Disabled,0.246875,0.000000,0.000000,TRUE,-1.207062,0.644302,0.000000,0.169113,-0.207291,0.000000,0.010000,0.134000,-0.088000,1.850000,-0.010000,-0.140000,0.121268,Hold,0.213379,0.000000,Hold,-201.000000,2.000000,LowGoal,2130.000000,-2181.818182,Speed,2062.500000,-2181.818182,Speed,Off,Off,0.000000,FALSE,0,,,,,0.000000,0.000000,0.196875
04:54:14.750 PM 04/28/2016,Teleop Enabled,10,FALSE,0,NO ERROR,-0.000000,0.012833,-0.000000,-0.275916,TRUE,FALSE,TRUE,FALSE,FALSE,FALSE,Disabled,0.246875,0.000000,0.000000,TRUE,-1.199112,0.638657,0.000000,0.135666,-0.052612,0.000000,-0.117000,0.174000,-0.040000,1.820000,-0.010000,-0.030000,0.126507,Hold,0.213379,0.000000,Hold,-200.000000,2.000000,LowGoal,2137.500000,-2181.818182,Speed,2122.500000,-2181.818182,Speed,Off,Off,0.000000,FALSE,0,,,,,0.000000,0.000000,0.196875
04:54:14.850 PM 04/28/2016,Teleop Enabled,10,FALSE,0,NO ERROR,-0.000000,0.012833,-0.000000,-0.275916,TRUE,FALSE,TRUE,FALSE,FALSE,FALSE,Disabled,0.246875,0.000000,0.000000,TRUE,-1.195953,0.640533,0.000000,0.006027,0.089142,0.000000,-0.123000,0.121000,-0.040000,1.840000,-0.010000,-0.120000,0.119040,Hold,0.213379,0.000000,Hold,-200.000000,2.000000,LowGoal,2137.500000,-2181.818182,Speed,2167.500000,-2181.818182,Speed,Off,Off,0.000000,FALSE,0,,,,,0.000000,0.000000,0.196875
04:54:14.951 PM 04/28/2016,Teleop Enabled,10,FALSE,0,NO ERROR,-0.000000,0.012833,-0.000000,-0.275916,TRUE,FALSE,TRUE,FALSE,FALSE,FALSE,Disabled,0.246875,0.000000,0.000000,TRUE,-1.197647,0.646484,0.000000,-0.065536,0.178131,0.000000,-0.047000,0.087000,-0.047000,1.850000,-0.010000,-0.130000,0.114183,Hold,0.213379,0.000000,Hold,-200.000000,2.000000,LowGoal,2137.500000,-2181.818182,Speed,2160.000000,-2181.818182,Speed,Off,Off,0.000000,FALSE,0,,,,,0.000000,0.000000,0.196875
04:54:15.052 PM 04/28/2016,Teleop Enabled,10,FALSE,0,NO ERROR,-0.000000,0.012833,-0.000000,-0.275916,TRUE,FALSE,TRUE,FALSE,FALSE,FALSE,Disabled,0.246875,0.000000,0.000000,TRUE,-1.202988,0.660782,0.000000,-0.095871,0.278336,0.000000,0.018000,0.076000,0.054000,1.840000,-0.010000,-0.140000,0.120858,Hold,0.213379,0.000000,Hold,-200.000000,2.000000,LowGoal,2145.000000,-2181.818182,Speed,2130.000000,-2181.818182,Speed,Off,Off,0.000000,FALSE,0,,,,,0.000000,0.000000,0.196875
04:54:15.152 PM 04/28/2016,Teleop Enabled,10,FALSE,0,NO ERROR,-0.000000,0.012833,-0.000000,-0.275916,TRUE,FALSE,TRUE,FALSE,FALSE,FALSE,Disabled,0.246875,0.000000,0.000000,TRUE,-1.202850,0.676407,0.000000,0.009979,0.330231,0.000000,0.028000,0.028000,0.094000,1.880000,-0.010000,-0.160000,0.128383,Hold,0.213379,0.000000,Hold,-200.000000,2.000000,LowGoal,2137.500000,-2181.818182,Speed,2100.000000,-2181.818182,Speed,Off,Off,0.000000,FALSE,0,,,,,0.000000,0.000000,0.196875
04:54:15.252 PM 04/28/2016,Teleop Enabled,9,FALSE,0,NO ERROR,-0.000000,0.012833,-0.000000,-0.275916,TRUE,FALSE,TRUE,FALSE,FALSE,FALSE,Disabled,0.246875,0.000000,0.000000,TRUE,-1.201355,0.693008,0.000000,0.047287,0.326599,0.000000,0.032000,-0.068000,0.026000,1.830000,-0.020000,-0.040000,0.123402,Hold,0.213379,0.000000,Hold,-199.000000,2.000000,LowGoal,2137.500000,-2181.818182,Speed,2100.000000,-2181.818182,Speed,Off,Off,0.000000,FALSE,0,,,,,0.000000,0.000000,0.196875
04:54:15.353 PM 04/28/2016,Teleop Enabled,11,FALSE,0,NO ERROR,-0.000000,0.012833,-0.000000,-0.275916,TRUE,FALSE,TRUE,FALSE,FALSE,FALSE,Disabled,0.246875,0.000000,0.000000,TRUE,-1.197906,0.708038,0.000000,0.081345,0.283508,0.000000,0.016000,-0.066000,-0.030000,1.810000,-0.020000,-0.030000,0.124862,Hold,0.213379,0.000000,Hold,-199.000000,2.000000,LowGoal,2137.500000,-2181.818182,Speed,2137.500000,-2181.818182,Speed,Off,Off,0.000000,FALSE,0,,,,,0.000000,0.000000,0.196875
04:54:15.453 PM 04/28/2016,Teleop Enabled,10,FALSE,0,NO ERROR,-0.000000,0.012833,-0.000000,-0.275916,TRUE,FALSE,TRUE,FALSE,FALSE,FALSE,Disabled,0.246875,0.000000,0.000000,TRUE,-1.193161,0.721146,0.000000,0.108139,0.251083,0.000000,0.022000,-0.032000,0.033000,1.890000,-0.020000,-0.060000,0.142181,Hold,0.213379,0.000000,Hold,-199.000000,2.000000,LowGoal,2137.500000,-2181.818182,Speed,2160.000000,-2181.818182,Speed,Off,Off,0.000000,FALSE,0,,,,,0.000000,0.000000,0.196875
04:54:15.554 PM 04/28/2016,Teleop Enabled,11,FALSE,0,NO ERROR,-0.000000,0.012833,-0.000000,-0.275916,TRUE,FALSE,TRUE,FALSE,FALSE,FALSE,Disabled,0.246875,0.000000,0.000000,TRUE,-1.186676,0.733337,0.000000,0.136322,0.240494,0.000000,-0.038000,-0.005000,-0.039000,1.840000,-0.020000,0.030000,0.131427,Hold,0.213379,0.000000,Hold,-199.000000,2.000000,LowGoal,2145.000000,-2181.818182,Speed,2137.500000,-2181.818182,Speed,Off,Off,0.000000,FALSE,0,,,,,0.000000,0.000000,0.196875
04:54:15.655 PM 04/28/2016,Teleop Enabled,10,FALSE,0,NO ERROR,-0.000000,0.012833,-0.000000,-0.275916,TRUE,FALSE,TRUE,FALSE,FALSE,FALSE,Disabled,0.246875,0.000000,0.000000,TRUE,-1.180542,0.745850,0.000000,0.112823,0.258942,0.000000,-0.012000,0.044000,-0.032000,1.850000,-0.020000,0.000000,0.113370,Hold,0.213379,0.000000,Hold,-199.000000,2.000000,LowGoal,2137.500000,-2181.818182,Speed,2130.000000,-2181.818182,Speed,Off,Off,0.000000,FALSE,0,,,,,0.000000,0.000000,0.196875
04:54:15.756 PM 04/28/2016,Teleop Enabled,10,FALSE,0,NO ERROR,-0.000000,0.012833,-0.000000,-0.275916,TRUE,FALSE,TRUE,FALSE,FALSE,FALSE,Disabled,0.246875,0.000000,0.000000,TRUE,-1.174728,0.763901,0.000000,0.096359,0.339233,0.000000,0.087000,0.039000,-0.121000,1.870000,-0.020000,-0.060000,0.123805,Hold,0.213379,0.000000,Hold,-199.000000,2.000000,LowGoal,2145.000000,-2181.818182,Speed,2115.000000,-2181.818182,Speed,Off,Off,0.000000,FALSE,0,,,,,0.000000,0.000000,0.196875
04:54:15.856 PM 04/28/2016,Teleop Enabled,10,FALSE,0,NO ERROR,-0.000000,0.012833,-0.000000,-0.275916,TRUE,FALSE,TRUE,FALSE,FALSE,FALSE,Disabled,0.246875,0.000000,0.000000,TRUE,-1.170303,0.778946,0.000000,0.105698,0.400497,0.000000,0.000000,0.081000,-0.057000,1.850000,-0.020000,-0.020000,0.140808,Hold,0.213379,0.000000,Hold,-198.000000,2.000000,LowGoal,2137.500000,-2181.818182,Speed,2107.500000,-2181.818182,Speed,Off,Off,0.000000,FALSE,0,,,,,0.000000,0.000000,0.196875
04:54:15.955 PM 04/28/2016,Teleop Enabled,11,FALSE,0,NO ERROR,-0.000000,0.012833,-0.000000,-0.275916,TRUE,FALSE,TRUE,FALSE,FALSE,FALSE,Disabled,0.246875,0.000000,0.000000,TRUE,-1.165451,0.801041,0.000000,0.092575,0.469437,0.000000,-0.023000,0.070000,-0.025000,1.850000,-0.020000,0.000000,0.141314,Hold,0.213379,0.000000,Hold,-198.000000,2.000000,LowGoal,2137.500000,-2181.818182,Speed,2122.500000,-2181.818182,Speed,Off,Off,0.000000,FALSE,0,,,,,0.000000,0.000000,0.196875
04:54:16.055 PM 04/28/2016,Teleop Enabled,11,FALSE,0,NO ERROR,-0.000000,0.012833,-0.000000,-0.275916,TRUE,FALSE,TRUE,FALSE,FALSE,FALSE,Disabled,0.246875,0.000000,0.000000,TRUE,-1.161377,0.831314,0.000000,0.052841,0.516769,0.000000,0.011000,0.014000,-0.086000,1.860000,-0.020000,0.010000,0.139792,Hold,0.213379,0.000000,Hold,-198.000000,2.000000,LowGoal,2145.000000,-2181.818182,Speed,2145.000000,-2181.818182,Speed,Off,Off,0.000000,FALSE,0,,,,,0.000000,0.000000,0.196875
04:54:16.155 PM 04/28/2016,Teleop Enabled,11,FALSE,0,NO ERROR,-0.000000,0.012833,-0.000000,-0.275916,TRUE,FALSE,TRUE,FALSE,FALSE,FALSE,Disabled,0.246875,0.000000,0.000000,TRUE,-1.160904,0.857880,0.000000,0.018753,0.546082,0.000000,0.015000,-0.012000,-0.023000,1.840000,-0.030000,0.080000,0.143173,Hold,0.213379,0.000000,Hold,-198.000000,2.000000,LowGoal,2137.500000,-2181.818182,Speed,2152.500000,-2181.818182,Speed,Off,Off,0.000000,FALSE,0,,,,,0.000000,0.000000,0.196875
04:54:16.255 PM 04/28/2016,Teleop Enabled,11,FALSE,0,NO ERROR,-0.000000,0.012833,-0.000000,-0.275916,TRUE,FALSE,TRUE,FALSE,FALSE,FALSE,Disabled,0.246875,0.000000,0.000000,TRUE,-1.158951,0.885391,0.000000,0.055862,0.550461,0.000000,0.079000,-0.028000,0.041000,1.850000,-0.030000,0.020000,0.151624,Hold,0.213379,0.000000,Hold,-198.000000,2.000000,LowGoal,2145.000000,-2181.818182,Speed,2137.500000,-2181.818182,Speed,Off,Off,0.000000,FALSE,0,,,,,0.000000,0.000000,0.196875
04:54:16.355 PM 04/28/2016,Teleop Enabled,10,FALSE,0,NO ERROR,-0.000000,0.012833,-0.000000,-0.275916,TRUE,FALSE,TRUE,FALSE,FALSE,FALSE,Disabled,0.246875,0.000000,0.000000,TRUE,-1.153564,0.911469,0.000000,0.149185,0.486816,0.000000,0.149000,-0.196000,0.030000,1.820000,-0.030000,0.170000,0.158633,Hold,0.213379,0.000000,Hold,-197.000000,2.000000,LowGoal,2137.500000,-2181.818182,Speed,2115.000000,-2181.818182,Speed,Off,Off,0.000000,FALSE,0,,,,,0.000000,0.000000,0.196875
04:54:16.456 PM 04/28/2016,Teleop Enabled,10,FALSE,0,NO ERROR,-0.000000,0.012833,-0.000000,-0.275916,TRUE,FALSE,TRUE,FALSE,FALSE,FALSE,Disabled,0.246875,0.000000,0.000000,TRUE,-1.143021,0.930359,0.000000,0.239685,0.295670,0.000000,0.050000,-0.181000,0.010000,1.780000,-0.040000,0.260000,0.158712,Hold,0.213379,0.000000,Hold,-197.000000,2.000000,LowGoal,2137.500000,-2181.818182,Speed,2122.500000,-2181.818182,Speed,Off,Off,0.000000,FALSE,0,,,,,0.000000,0.000000,0.196875
04:54:16.557 PM 04/28/2016,Teleop Enabled,11,FALSE,0,NO ERROR,-0.000000,0.012833,-0.000000,-0.275916,TRUE,FALSE,TRUE,FALSE,FALSE,FALSE,Disabled,0.246875,0.000000,0.000000,TRUE,-1.126205,0.939987,0.000000,0.318466,0.066818,0.000000,0.120000,-0.205000,0.023000,1.810000,-0.040000,0.210000,0.158354,Hold,0.213379,0.000000,Hold,-197.000000,2.000000,LowGoal,2137.500000,-2181.818182,Speed,2137.500000,-2181.818182,Speed,Off,Off,0.000000,FALSE,0,,,,,0.000000,0.000000,0.196875
04:54:16.658 PM 04/28/2016,Teleop Enabled,10,FALSE,0,NO ERROR,-0.000000,0.012833,-0.000000,-0.275916,TRUE,FALSE,TRUE,FALSE,FALSE,FALSE,Disabled,0.246875,0.000000,0.000000,TRUE,-1.107376,0.938095,0.000000,0.405228,-0.102127,0.000000,0.034000,-0.163000,-0.035000,1.800000,-0.040000,0.210000,0.157087,Hold,0.213379,0.000000,Hold,-197.000000,2.000000,LowGoal,2145.000000,-2181.818182,Speed,2145.000000,-2181.818182,Speed,Off,Off,0.000000,FALSE,0,,,,,0.000000,0.000000,0.196875
04:54:16.758 PM 04/28/2016,Teleop Enabled,10,FALSE,0,NO ERROR,-0.000000,0.012833,-0.000000,-0.275916,TRUE,FALSE,TRUE,FALSE,FALSE,FALSE,Disabled,0.246875,0.000000,0.000000,TRUE,-1.085770,0.928909,0.000000,0.440811,-0.231567,0.000000,-0.023000,-0.096000,-0.068000,1.790000,-0.040000,0.210000,0.160316,Hold,0.213379,0.000000,Hold,-197.000000,2.000000,LowGoal,2137.500000,-2181.818182,Speed,2137.500000,-2181.818182,Speed,Off,Off,0.000000,FALSE,0,,,,,0.000000,0.000000,0.196875
04:54:16.858 PM 04/28/2016,Teleop Enabled,11,FALSE,0,NO ERROR,-0.000000,0.012833,-0.000000,-0.275916,TRUE,FALSE,TRUE,FALSE,FALSE,FALSE,Disabled,0.246875,0.000000,0.000000,TRUE,-1.064667,0.915100,0.000000,0.410278,-0.294540,0.000000,0.061000,0.000000,-0.113000,1.840000,-0.040000,0.010000,0.157710,Hold,0.213379,0.000000,Hold,-197.000000,2.000000,LowGoal,2145.000000,-2181.818182,Speed,2130.000000,-2181.818182,Speed,Off,Off,0.000000,FALSE,0,,,,,0.000000,0.000000,0.196875
04:54:16.958 PM 04/28/2016,Teleop Enabled,10,FALSE,0,NO ERROR,-0.000000,0.012833,-0.000000,-0.275916,TRUE,FALSE,TRUE,FALSE,FALSE,FALSE,Disabled,0.246875,0.000000,0.000000,TRUE,-1.042374,0.912079,0.000000,0.475723,-0.000961,0.000000,0.098000,-0.028000,-0.052000,1.880000,-0.040000,0.040000,0.161366,Hold,0.213379,0.000000,Hold,-197.000000,2.000000,LowGoal,2137.500000,-2181.818182,Speed,2122.500000,-2181.818182,Speed,Off,Off,0.000000,FALSE,0,,,,,0.000000,0.000000,0.196875
04:54:17.060 PM 04/28/2016,Teleop Enabled,10,FALSE,0,NO ERROR,-0.000000,0.012833,-0.000000,-0.275916,TRUE,FALSE,TRUE,FALSE,FALSE,FALSE,Disabled,0.246875,0.000000,0.000000,TRUE,-1.017395,0.911804,0.000000,0.505600,-0.002930,0.000000,-0.043000,-0.011000,-0.001000,1.860000,-0.040000,0.120000,0.147851,Hold,0.213379,0.000000,Hold,-196.000000,2.000000,LowGoal,2137.500000,-2181.818182,Speed,2130.000000,-2181.818182,Speed,Off,Off,0.000000,FALSE,0,,,,,0.000000,0.000000,0.196875
04:54:17.160 PM 04/28/2016,Teleop Enabled,9,FALSE,0,NO ERROR,-0.000000,0.012833,-0.000000,-0.275916,TRUE,FALSE,TRUE,FALSE,FALSE,FALSE,Disabled,0.246875,0.000000,0.000000,TRUE,-0.993469,0.911713,0.000000,0.465576,-0.002594,0.000000,0.007000,-0.011000,0.004000,1.890000,-0.050000,0.100000,0.165866,Hold,0.213379,0.000000,Hold,-196.000000,2.000000,LowGoal,2145.000000,-2181.818182,Speed,2137.500000,-2181.818182,Speed,Off,Off,0.000000,FALSE,0,,,,,0.000000,0.000000,0.196875
04:54:17.260 PM 04/28/2016,Teleop Enabled,10,FALSE,0,NO ERROR,-0.000000,0.012833,-0.000000,-0.275916,TRUE,FALSE,TRUE,FALSE,FALSE,FALSE,Disabled,0.246875,0.000000,0.000000,TRUE,-0.970993,0.910675,0.000000,0.445892,-0.034775,0.000000,-0.005000,-0.047000,-0.016000,1.880000,-0.050000,0.150000,0.171636,Hold,0.213379,0.000000,Hold,-196.000000,2.000000,LowGoal,2137.500000,-2181.818182,Speed,2145.000000,-2181.818182,Speed,Off,Off,0.000000,FALSE,0,,,,,0.000000,0.000000,0.196875
04:54:17.360 PM 04/28/2016,Teleop Enabled,17,FALSE,0,NO ERROR,-0.000000,0.012833,-0.000000,-0.275916,TRUE,FALSE,TRUE,FALSE,FALSE,FALSE,Disabled,0.246875,0.000000,0.000000,TRUE,-0.948166,0.907043,0.000000,0.469589,-0.102936,0.000000,0.037000,-0.086000,0.051000,1.840000,-0.050000,0.200000,0.189675,Hold,0.213379,0.000000,Hold,-196.000000,2.000000,LowGoal,2145.000000,-2181.818182,Speed,2137.500000,-2181.818182,Speed,Off,Off,0.000000,FALSE,0,,,,,0.000000,0.000000,0.196875
04:54:17.460 PM 04/28/2016,Teleop Enabled,5,FALSE,0,NO ERROR,-0.000000,0.012833,-0.000000,-0.275916,TRUE,FALSE,TRUE,FALSE,FALSE,FALSE,Disabled,0.246875,0.000000,0.000000,TRUE,-0.929016,0.899704,0.000000,0.000000,-0.178604,0.000000,-0.001000,-0.031000,0.097000,1.830000,-0.050000,0.160000,0.204918,Hold,0.213379,0.000000,Hold,-196.000000,2.000000,LowGoal,2145.000000,-2181.818182,Speed,2130.000000,-2181.818182,Speed,Off,Off,0.000000,FALSE,0,,,,,0.000000,0.000000,0.196875
04:54:17.560 PM 04/28/2016,Teleop Enabled,5,FALSE,0,NO ERROR,-0.000000,0.012833,-0.000000,-0.275916,TRUE,FALSE,TRUE,FALSE,FALSE,FALSE,Disabled,0.246875,0.000000,0.000000,TRUE,-0.928452,0.888779,0.000000,0.025803,-0.250458,0.000000,0.020000,-0.082000,0.047000,1.860000,-0.050000,0.130000,0.201159,Hold,0.213379,0.000000,Hold,-196.000000,2.000000,LowGoal,2137.500000,-2181.818182,Speed,2137.500000,-2181.818182,Speed,Off,Off,0.000000,FALSE,0,,,,,0.000000,0.000000,0.196875
04:54:17.660 PM 04/28/2016,Teleop Enabled,10,FALSE,0,NO ERROR,-0.000000,0.012833,-0.000000,-0.275916,TRUE,FALSE,TRUE,FALSE,FALSE,FALSE,Disabled,0.246875,0.000000,0.000000,TRUE,-0.927429,0.873764,0.000000,0.000000,-0.332169,0.000000,-0.029000,-0.018000,0.076000,1.860000,-0.060000,0.060000,0.207686,Hold,0.213379,0.000000,Hold,-196.000000,2.000000,LowGoal,2145.000000,-2181.818182,Speed,2137.500000,-2181.818182,Speed,Off,Off,0.000000,FALSE,0,,,,,0.000000,0.000000,0.196875
04:54:17.761 PM 04/28/2016,Teleop Enabled,4,FALSE,0,NO ERROR,-0.000000,0.012833,-0.000000,-0.275916,TRUE,FALSE,TRUE,FALSE,FALSE,FALSE,Disabled,0.246875,0.000000,0.000000,TRUE,-0.927902,0.856110,0.000000,-0.012085,-0.364899,0.000000,0.000000,-0.047000,0.074000,1.910000,-0.050000,-0.080000,0.204257,Hold,0.213379,0.000000,Hold,-196.000000,2.000000,LowGoal,2145.000000,-2181.818182,Speed,2122.500000,-2181.818182,Speed,Off,Off,0.000000,FALSE,0,,,,,0.000000,0.000000,0.196875
04:54:17.861 PM 04/28/2016,Teleop Enabled,10,FALSE,0,NO ERROR,-0.000000,0.012833,-0.000000,-0.275916,TRUE,FALSE,TRUE,FALSE,FALSE,FALSE,Disabled,0.246875,0.000000,0.000000,TRUE,-0.928284,0.848587,0.000000,-0.015182,0.000000,0.000000,-0.052000,0.000000,-0.009000,1.890000,-0.050000,-0.020000,0.211404,Hold,0.213379,0.000000,Hold,-196.000000,2.000000,LowGoal,2145.000000,-2181.818182,Speed,2130.000000,-2181.818182,Speed,Off,Off,0.000000,FALSE,0,,,,,0.000000,0.000000,0.196875
04:54:17.961 PM 04/28/2016,Teleop Enabled,13,FALSE,0,NO ERROR,-0.000000,0.012833,-0.000000,-0.275916,TRUE,FALSE,TRUE,FALSE,FALSE,FALSE,Disabled,0.246875,0.000000,0.000000,TRUE,-0.931900,0.849701,0.000000,-0.105087,0.039948,0.000000,-0.091000,0.085000,-0.006000,1.890000,-0.050000,-0.040000,0.205104,Hold,0.213379,0.000000,Hold,-196.000000,2.000000,LowGoal,2145.000000,-2181.818182,Speed,2145.000000,-2181.818182,Speed,Off,Off,0.000000,FALSE,0,,,,,0.000000,0.000000,0.196875
04:54:18.061 PM 04/28/2016,Teleop Enabled,14,FALSE,0,NO ERROR,-0.000000,0.012833,-0.000000,-0.275916,TRUE,FALSE,TRUE,FALSE,FALSE,FALSE,Disabled,0.246875,0.000000,0.000000,TRUE,-0.937408,0.852966,0.000000,-0.157791,0.110184,0.000000,-0.071000,0.130000,-0.040000,1.860000,-0.060000,-0.010000,0.229206,Hold,0.213379,0.000000,Hold,-195.000000,2.000000,LowGoal,2145.000000,-2181.818182,Speed,2137.500000,-2181.818182,Speed,Off,Off,0.000000,FALSE,0,,,,,0.000000,0.000000,0.196875
04:54:18.164 PM 04/28/2016,Teleop Enabled,11,FALSE,0,NO ERROR,-0.000000,0.012833,-0.000000,-0.275916,TRUE,FALSE,TRUE,FALSE,FALSE,FALSE,Disabled,0.246875,0.000000,0.000000,TRUE,-0.949081,0.865509,0.000000,-0.214035,0.287766,0.000000,-0.036000,0.194000,-0.041000,1.810000,-0.060000,0.100000,0.218558,Hold,0.213379,0.000000,Hold,-195.000000,2.000000,LowGoal,2145.000000,-2181.818182,Speed,2137.500000,-2181.818182,Speed,Off,Off,0.000000,FALSE,0,,,,,0.000000,0.000000,0.196875
04:54:18.265 PM 04/28/2016,Teleop Enabled,2,FALSE,0,NO ERROR,-0.000000,0.012833,-0.000000,-0.275916,TRUE,FALSE,TRUE,FALSE,FALSE,FALSE,Disabled,0.246875,0.000000,0.000000,TRUE,-0.960831,0.885574,0.000000,-0.255203,0.479980,0.000000,-0.068000,0.207000,0.039000,1.790000,-0.060000,0.220000,0.218403,Hold,0.213379,0.000000,Hold,-195.000000,2.000000,LowGoal,2145.000000,-2181.818182,Speed,2130.000000,-2181.818182,Speed,Off,Off,0.000000,FALSE,0,,,,,0.000000,0.000000,0.196875
04:54:18.364 PM 04/28/2016,Teleop Enabled,10,FALSE,0,NO ERROR,-0.000000,0.012833,-0.000000,-0.275916,TRUE,FALSE,TRUE,FALSE,FALSE,FALSE,Disabled,0.246875,0.000000,0.000000,TRUE,-0.976166,0.914856,0.000000,-0.350037,0.645035,0.000000,-0.068000,0.207000,0.039000,1.800000,-0.070000,0.180000,0.212258,Hold,0.213379,0.000000,Hold,-195.000000,2.000000,LowGoal,2137.500000,-2181.818182,Speed,2122.500000,-2181.818182,Speed,Off,Off,0.000000,FALSE,0,,,,,0.000000,0.000000,0.196875
04:54:18.465 PM 04/28/2016,Teleop Enabled,11,FALSE,0,NO ERROR,-0.000000,0.012833,-0.000000,-0.275916,TRUE,FALSE,TRUE,FALSE,FALSE,FALSE,Disabled,0.246875,0.000000,0.000000,TRUE,-0.991745,0.943405,0.000000,-0.407440,0.752106,0.000000,-0.028000,0.105000,-0.016000,1.780000,-0.070000,0.230000,0.210795,Hold,0.213379,0.000000,Hold,-195.000000,2.000000,LowGoal,2145.000000,-2181.818182,Speed,2137.500000,-2181.818182,Speed,Off,Off,0.000000,FALSE,0,,,,,0.000000,0.000000,0.196875
04:54:18.565 PM 04/28/2016,Teleop Enabled,11,FALSE,0,NO ERROR,-0.000000,0.012833,-0.000000,-0.275916,TRUE,FALSE,TRUE,FALSE,FALSE,FALSE,Disabled,0.246875,0.000000,0.000000,TRUE,-1.008636,0.993591,0.000000,0.000000,0.896683,0.000000,-0.017000,0.075000,0.053000,1.740000,-0.070000,0.280000,0.216200,Hold,0.213379,0.000000,Hold,-195.000000,2.000000,LowGoal,2145.000000,-2181.818182,Speed,2145.000000,-2181.818182,Speed,Off,Off,0.000000,FALSE,0,,,,,0.000000,0.000000,0.196875
04:54:18.665 PM 04/28/2016,Teleop Enabled,15,FALSE,0,NO ERROR,-0.000000,0.012833,-0.000000,-0.275916,TRUE,FALSE,TRUE,FALSE,FALSE,FALSE,Disabled,0.246875,0.000000,0.000000,TRUE,-1.008484,1.041306,0.000000,0.000000,0.985657,0.000000,-0.001000,0.071000,0.102000,1.780000,-0.070000,0.200000,0.208753,Hold,0.213379,0.000000,Hold,-195.000000,2.000000,LowGoal,2145.000000,-2181.818182,Speed,2152.500000,-2181.818182,Speed,Off,Off,0.000000,FALSE,0,,,,,0.000000,0.000000,0.196875
04:54:18.765 PM 04/28/2016,Teleop Enabled,12,FALSE,0,NO ERROR,-0.000000,0.012833,-0.000000,-0.275916,TRUE,FALSE,TRUE,FALSE,FALSE,FALSE,Disabled,0.246875,0.000000,0.000000,TRUE,-1.008301,1.071564,0.000000,0.010361,-0.002075,0.000000,0.037000,-0.035000,0.090000,1.810000,-0.070000,0.170000,0.213167,Hold,0.213379,0.000000,Hold,-195.000000,2.000000,LowGoal,2145.000000,-2181.818182,Speed,2130.000000,-2181.818182,Speed,Off,Off,0.000000,FALSE,0,,,,,0.000000,0.000000,0.196875
04:54:18.867 PM 04/28/2016,Teleop Enabled,10,FALSE,0,NO ERROR,-0.000000,0.012833,-0.000000,-0.275916,TRUE,FALSE,TRUE,FALSE,FALSE,FALSE,Disabled,0.246875,0.000000,0.000000,TRUE,-1.007919,1.069992,0.000000,0.003159,-0.043625,0.000000,0.035000,-0.008000,0.082000,1.800000,-0.070000,0.110000,0.221677,Hold,0.213379,0.000000,Hold,-195.000000,2.000000,LowGoal,2145.000000,-2181.818182,Speed,2130.000000,-2181.818182,Speed,Off,Off,0.000000,FALSE,0,,,,,0.000000,0.000000,0.196875
04:54:18.967 PM 04/28/2016,Teleop Enabled,8,FALSE,0,NO ERROR,-0.000000,0.012833,-0.000000,-0.275916,TRUE,FALSE,TRUE,FALSE,FALSE,FALSE,Disabled,0.246875,0.000000,0.000000,TRUE,-1.007172,1.067261,0.000000,0.023895,-0.063416,0.000000,0.033000,-0.037000,0.072000,1.890000,-0.060000,-0.030000,0.229216,Hold,0.213379,0.000000,Hold,-195.000000,2.000000,LowGoal,2137.500000,-2181.818182,Speed,2145.000000,-2181.818182,Speed,Off,Off,0.000000,FALSE,0,,,,,0.000000,0.000000,0.196875
04:54:19.070 PM 04/28/2016,Teleop Enabled,11,FALSE,0,NO ERROR,-0.000000,0.012833,-0.000000,-0.275916,TRUE,FALSE,TRUE,FALSE,FALSE,FALSE,Disabled,0.246875,0.000000,0.000000,TRUE,-1.005844,1.063141,0.000000,0.016327,-0.095474,0.000000,0.033000,-0.037000,0.072000,1.890000,-0.060000,-0.050000,0.225408,Hold,0.213379,0.000000,Hold,-195.000000,2.000000,LowGoal,2145.000000,-2181.818182,Speed,2137.500000,-2181.818182,Speed,Off,Off,0.000000,FALSE,0,,,,,0.000000,0.000000,0.196875
04:54:19.169 PM 04/28/2016,Teleop Enabled,10,FALSE,0,NO ERROR,-0.000000,0.012833,-0.000000,-0.275916,TRUE,FALSE,TRUE,FALSE,FALSE,FALSE,Disabled,0.246875,0.000000,0.000000,TRUE,-1.005768,1.059128,0.000000,-0.005020,-0.099045,0.000000,-0.021000,-0.005000,0.038000,1.870000,-0.060000,0.000000,0.229237,Hold,0.213379,0.000000,Hold,-195.000000,2.000000,LowGoal,2145.000000,-2181.818182,Speed,2137.500000,-2181.818182,Speed,Off,Off,0.000000,FALSE,0,,,,,0.000000,0.000000,0.196875
04:54:19.269 PM 04/28/2016,Teleop Enabled,12,FALSE,0,NO ERROR,-0.000000,0.012833,-0.000000,-0.275916,TRUE,FALSE,TRUE,FALSE,FALSE,FALSE,Disabled,0.246875,0.000000,0.000000,TRUE,-1.008621,1.061203,0.000000,-0.054611,0.065872,0.000000,-0.051000,0.081000,-0.074000,1.870000,-0.060000,0.000000,0.235426,Hold,0.213379,0.000000,Hold,-195.000000,2.000000,LowGoal,2145.000000,-2181.818182,Speed,2137.500000,-2181.818182,Speed,Off,Off,0.000000,FALSE,0,,,,,0.000000,0.000000,0.196875
04:54:19.371 PM 04/28/2016,Teleop Enabled,10,FALSE,0,NO ERROR,-0.000000,0.012833,-0.000000,-0.275916,TRUE,FALSE,TRUE,FALSE,FALSE,FALSE,Disabled,0.246875,0.000000,0.000000,TRUE,-1.011154,1.066406,0.000000,-0.064194,0.164261,0.000000,0.019000,0.142000,-0.100000,1.810000,-0.060000,0.080000,0.268891,Hold,0.213379,0.000000,Hold,-194.000000,2.000000,LowGoal,2145.000000,-2181.818182,Speed,2137.500000,-2181.818182,Speed,Off,Off,0.000000,FALSE,0,,,,,0.000000,0.000000,0.196875
04:54:19.473 PM 04/28/2016,Teleop Enabled,9,FALSE,0,NO ERROR,-0.000000,0.012833,-0.000000,-0.275916,TRUE,FALSE,TRUE,FALSE,FALSE,FALSE,Disabled,0.246875,0.000000,0.000000,TRUE,-1.011566,1.075684,0.000000,-0.022797,0.273926,0.000000,0.019000,0.142000,-0.100000,1.790000,-0.060000,0.190000,0.262381,Hold,0.213379,0.000000,Hold,-194.000000,2.000000,LowGoal,2145.000000,-2181.818182,Speed,2152.500000,-2181.818182,Speed,Off,Off,0.000000,FALSE,0,,,,,0.000000,0.000000,0.196875
04:54:19.575 PM 04/28/2016,Teleop Enabled,11,FALSE,0,NO ERROR,-0.000000,0.012833,-0.000000,-0.275916,TRUE,FALSE,TRUE,FALSE,FALSE,FALSE,Disabled,0.246875,0.000000,0.000000,TRUE,-1.014587,1.093002,0.000000,-0.097992,0.393356,0.000000,-0.060000,0.134000,-0.063000,1.760000,-0.060000,0.200000,0.269621,Hold,0.213379,0.000000,Hold,-194.000000,2.000000,LowGoal,2145.000000,-2181.818182,Speed,2145.000000,-2181.818182,Speed,Off,Off,0.000000,FALSE,0,,,,,0.000000,0.000000,0.196875
04:54:19.677 PM 04/28/2016,Teleop Enabled,11,FALSE,0,NO ERROR,-0.000000,0.012833,-0.000000,-0.275916,TRUE,FALSE,TRUE,FALSE,FALSE,FALSE,Disabled,0.246875,0.000000,0.000000,TRUE,-1.024597,1.121246,0.000000,-0.205383,0.521164,0.000000,-0.101000,0.118000,-0.053000,1.750000,-0.070000,0.200000,0.265996,Hold,0.213379,0.000000,Hold,-194.000000,2.000000,LowGoal,2145.000000,-2181.818182,Speed,2137.500000,-2181.818182,Speed,Off,Off,0.000000,FALSE,0,,,,,0.000000,0.000000,0.196875
04:54:19.776 PM 04/28/2016,Teleop Enabled,12,FALSE,0,NO ERROR,-0.000000,0.012833,-0.000000,-0.275916,TRUE,FALSE,TRUE,FALSE,FALSE,FALSE,Disabled,0.246875,0.000000,0.000000,TRUE,-1.033569,1.150116,0.000000,0.000000,0.619858,0.000000,-0.033000,0.129000,-0.066000,1.740000,-0.070000,0.250000,0.277790,Hold,0.213379,0.000000,Hold,-194.000000,2.000000,LowGoal,2145.000000,-2181.818182,Speed,2137.500000,-2181.818182,Speed,Off,Off,0.000000,FALSE,0,,,,,0.000000,0.000000,0.196875
04:54:19.882 PM 04/28/2016,Teleop Enabled,11,FALSE,0,NO ERROR,-0.000000,0.012833,-0.000000,-0.275916,TRUE,FALSE,TRUE,FALSE,FALSE,FALSE,Disabled,0.246875,0.000000,0.000000,TRUE,-1.033340,1.184113,0.000000,0.015945,0.714920,0.000000,-0.002000,0.108000,-0.045000,1.790000,-0.060000,0.140000,0.266767,Hold,0.213379,0.000000,Hold,-194.000000,2.000000,LowGoal,2152.500000,-2181.818182,Speed,2130.000000,-2181.818182,Speed,Off,Off,0.000000,FALSE,0,,,,,0.000000,0.000000,0.196875
04:54:19.984 PM 04/28/2016,Teleop Enabled,8,FALSE,0,NO ERROR,-0.000000,0.012833,-0.000000,-0.275916,TRUE,FALSE,TRUE,FALSE,FALSE,FALSE,Disabled,0.246875,0.000000,0.000000,TRUE,-1.031586,1.222458,0.000000,0.045609,0.799362,0.000000,0.026000,0.039000,0.028000,1.870000,-0.060000,-0.030000,0.250312,Hold,0.213379,0.000000,Hold,-194.000000,2.000000,LowGoal,2145.000000,-2181.818182,Speed,2145.000000,-2181.818182,Speed,Off,Off,0.000000,FALSE,0,,,,,0.000000,0.000000,0.196875
04:54:20.084 PM 04/28/2016,Teleop Enabled,10,FALSE,0,NO ERROR,-0.000000,0.012833,-0.000000,-0.275916,TRUE,FALSE,TRUE,FALSE,FALSE,FALSE,Disabled,0.246875,0.000000,0.000000,TRUE,-1.028198,1.246887,0.000000,0.079132,0.000000,0.000000,0.026000,0.039000,0.028000,1.900000,-0.060000,-0.140000,0.252140,Hold,0.213379,0.000000,Hold,-194.000000,2.000000,LowGoal,2145.000000,-2181.818182,Speed,2152.500000,-2181.818182,Speed,Off,Off,0.000000,FALSE,0,,,,,0.000000,0.000000,0.196875
04:54:20.187 PM 04/28/2016,Teleop Enabled,13,FALSE,0,NO ERROR,-0.000000,0.012833,-0.000000,-0.275916,TRUE,FALSE,TRUE,FALSE,FALSE,FALSE,Disabled,0.246875,0.000000,0.000000,TRUE,-1.022705,1.246353,0.000000,0.137039,-0.028305,0.000000,0.072000,-0.073000,0.045000,1.900000,-0.060000,-0.140000,0.261373,Hold,0.213379,0.000000,Hold,-194.000000,2.000000,LowGoal,2145.000000,-2181.818182,Speed,2145.000000,-2181.818182,Speed,Off,Off,0.000000,FALSE,0,,,,,0.000000,0.000000,0.196875
04:54:20.286 PM 04/28/2016,Teleop Enabled,13,FALSE,0,NO ERROR,-0.000000,0.012833,-0.000000,-0.275916,TRUE,FALSE,TRUE,FALSE,FALSE,FALSE,Disabled,0.246875,0.000000,0.000000,TRUE,-1.013687,1.242935,0.000000,0.214615,-0.095200,0.000000,0.072000,-0.073000,0.045000,1.910000,-0.060000,-0.180000,0.269322,Hold,0.213379,0.000000,Hold,-194.000000,2.000000,LowGoal,2145.000000,-2181.818182,Speed,2137.500000,-2181.818182,Speed,Off,Off,0.000000,FALSE,0,,,,,0.000000,0.000000,0.196875
04:54:20.392 PM 04/28/2016,Teleop Enabled,8,FALSE,0,NO ERROR,-0.000000,0.012833,-0.000000,-0.275916,TRUE,FALSE,TRUE,FALSE,FALSE,FALSE,Disabled,0.246875,0.000000,0.000000,TRUE,-0.996948,1.233963,0.000000,0.329025,-0.184906,0.000000,0.090000,-0.079000,0.009000,1.920000,-0.060000,-0.220000,0.269566,Hold,0.213379,0.000000,Hold,-194.000000,2.000000,LowGoal,2152.500000,-2181.818182,Speed,2137.500000,-2181.818182,Speed,Off,Off,0.000000,FALSE,0,,,,,0.000000,0.000000,0.196875
04:54:20.493 PM 04/28/2016,Teleop Enabled,9,FALSE,0,NO ERROR,-0.000000,0.012833,-0.000000,-0.275916,TRUE,FALSE,TRUE,FALSE,FALSE,FALSE,Disabled,0.246875,0.000000,0.000000,TRUE,-0.981552,1.224426,0.000000,0.418625,-0.269379,0.000000,0.110000,-0.114000,0.010000,1.980000,-0.060000,-0.170000,0.275329,Hold,0.213379,0.000000,Hold,-194.000000,2.000000,LowGoal,2145.000000,-2181.818182,Speed,2122.500000,-2181.818182,Speed,Off,Off,0.000000,FALSE,0,,,,,0.000000,0.000000,0.196875
04:54:20.594 PM 04/28/2016,Teleop Enabled,11,FALSE,0,NO ERROR,-0.000000,0.012833,-0.000000,-0.275916,TRUE,FALSE,TRUE,FALSE,FALSE,FALSE,Disabled,0.246875,0.000000,0.000000,TRUE,-0.957901,1.207504,0.000000,0.503723,-0.388962,0.000000,0.036000,-0.086000,-0.040000,1.920000,-0.060000,-0.040000,0.256887,Hold,0.213379,0.000000,Hold,-194.000000,2.000000,LowGoal,2145.000000,-2181.818182,Speed,2130.000000,-2181.818182,Speed,Off,Off,0.000000,FALSE,0,,,,,0.000000,0.000000,0.196875
04:54:20.696 PM 04/28/2016,Teleop Enabled,9,FALSE,0,NO ERROR,-0.000000,0.012833,-0.000000,-0.275916,TRUE,FALSE,TRUE,FALSE,FALSE,FALSE,Disabled,0.246875,0.000000,0.000000,TRUE,-0.925888,1.180923,0.000000,0.548096,-0.467545,0.000000,0.047000,-0.034000,-0.085000,1.920000,-0.050000,-0.030000,0.261875,Hold,0.213379,0.000000,Hold,-193.000000,2.000000,LowGoal,2145.000000,-2181.818182,Speed,2152.500000,-2181.818182,Speed,Off,Off,0.000000,FALSE,0,,,,,0.000000,0.000000,0.196875
04:54:20.798 PM 04/28/2016,Teleop Enabled,11,FALSE,0,NO ERROR,-0.000000,0.012833,-0.000000,-0.275916,TRUE,FALSE,TRUE,FALSE,FALSE,FALSE,Disabled,0.246875,0.000000,0.000000,TRUE,-0.898087,1.156921,0.000000,0.566345,-0.481216,0.000000,0.047000,-0.034000,-0.085000,1.950000,-0.050000,-0.020000,0.267235,Hold,0.213379,0.000000,Hold,-193.000000,2.000000,LowGoal,2145.000000,-2181.818182,Speed,2145.000000,-2181.818182,Speed,Off,Off,0.000000,FALSE,0,,,,,0.000000,0.000000,0.196875
04:54:20.899 PM 04/28/2016,Teleop Enabled,10,FALSE,0,NO ERROR,-0.000000,0.012833,-0.000000,-0.275916,TRUE,FALSE,TRUE,FALSE,FALSE,FALSE,Disabled,0.246875,0.000000,0.000000,TRUE,-0.868439,1.134125,0.000000,0.609650,-0.448410,0.000000,0.060000,0.097000,-0.088000,1.930000,-0.060000,0.040000,0.287636,Hold,0.213379,0.000000,Hold,-192.000000,2.000000,LowGoal,2145.000000,-2181.818182,Speed,2137.500000,-2181.818182,Speed,Off,Off,0.000000,FALSE,0,,,,,0.000000,0.000000,0.196875
04:54:21.001 PM 04/28/2016,Teleop Enabled,12,FALSE,0,NO ERROR,-0.000000,0.012833,-0.000000,-0.275916,TRUE,FALSE,TRUE,FALSE,FALSE,FALSE,Disabled,0.246875,0.000000,0.000000,TRUE,-0.837112,1.112686,0.000000,0.635239,-0.410645,0.000000,-0.031000,0.015000,-0.094000,1.880000,-0.060000,0.160000,0.291991,Hold,0.213379,0.000000,Hold,-192.000000,2.000000,LowGoal,2152.500000,-2181.818182,Speed,2152.500000,-2181.818182,Speed,Off,Off,0.000000,FALSE,0,,,,,0.000000,0.000000,0.196875
04:54:21.101 PM 04/28/2016,Teleop Enabled,14,FALSE,0,NO ERROR,-0.000000,0.012833,-0.000000,-0.275916,TRUE,FALSE,TRUE,FALSE,FALSE,FALSE,Disabled,0.246875,0.000000,0.000000,TRUE,-0.812561,1.097305,0.000000,0.601257,-0.365341,0.000000,-0.031000,0.015000,-0.094000,1.890000,-0.050000,0.100000,0.283557,Hold,0.213379,0.000000,Hold,-192.000000,2.000000,LowGoal,2145.000000,-2181.818182,Speed,2145.000000,-2181.818182,Speed,Off,Off,0.000000,FALSE,0,,,,,0.000000,0.000000,0.196875
04:54:21.201 PM 04/28/2016,Teleop Enabled,12,FALSE,0,NO ERROR,-0.000000,0.012833,-0.000000,-0.275916,TRUE,FALSE,TRUE,FALSE,FALSE,FALSE,Disabled,0.246875,0.000000,0.000000,TRUE,-0.795120,1.093460,0.000000,-0.004868,-0.019073,0.000000,-0.040000,0.012000,-0.006000,1.900000,-0.060000,0.100000,0.287299,Hold,0.213379,0.000000,Hold,-192.000000,2.000000,LowGoal,2145.000000,-2181.818182,Speed,2145.000000,-2181.818182,Speed,Off,Off,0.000000,FALSE,0,,,,,0.000000,0.000000,0.196875
04:54:21.303 PM 04/28/2016,Teleop Enabled,11,FALSE,0,NO ERROR,-0.000000,0.012833,-0.000000,-0.275916,TRUE,FALSE,TRUE,FALSE,FALSE,FALSE,Disabled,0.246875,0.000000,0.000000,TRUE,-0.794220,1.091034,0.000000,0.041306,-0.060196,0.000000,0.008000,-0.047000,-0.055000,1.840000,-0.060000,0.160000,0.297361,Hold,0.213379,0.000000,Hold,-191.000000,2.000000,LowGoal,2145.000000,-2181.818182,Speed,2152.500000,-2181.818182,Speed,Off,Off,0.000000,FALSE,0,,,,,0.000000,0.000000,0.196875
04:54:21.404 PM 04/28/2016,Teleop Enabled,11,FALSE,0,NO ERROR,-0.000000,0.012833,-0.000000,-0.275916,TRUE,FALSE,TRUE,FALSE,FALSE,FALSE,Disabled,0.246875,0.000000,0.000000,TRUE,-0.790771,1.086548,0.000000,0.078232,-0.109421,0.000000,0.031000,-0.032000,-0.028000,1.850000,-0.060000,0.090000,0.296394,Hold,0.213379,0.000000,Hold,-191.000000,2.000000,LowGoal,2145.000000,-2181.818182,Speed,2145.000000,-2181.818182,Speed,Off,Off,0.000000,FALSE,0,,,,,0.000000,0.000000,0.196875
04:54:21.506 PM 04/28/2016,Teleop Enabled,10,FALSE,0,NO ERROR,-0.000000,0.012833,-0.000000,-0.275916,TRUE,FALSE,TRUE,FALSE,FALSE,FALSE,Disabled,0.246875,0.000000,0.000000,TRUE,-0.790543,1.079636,0.000000,0.013107,-0.163651,0.000000,0.005000,-0.033000,0.057000,1.910000,-0.060000,-0.020000,0.288562,Hold,0.213379,0.000000,Hold,-191.000000,2.000000,LowGoal,2152.500000,-2181.818182,Speed,2137.500000,-2181.818182,Speed,Off,Off,0.000000,FALSE,0,,,,,0.000000,0.000000,0.196875
04:54:21.606 PM 04/28/2016,Teleop Enabled,10,FALSE,0,NO ERROR,-0.000000,0.012833,-0.000000,-0.275916,TRUE,FALSE,TRUE,FALSE,FALSE,FALSE,Disabled,0.246875,0.000000,0.000000,TRUE,-0.788330,1.067398,0.000000,0.075104,-0.305099,0.000000,0.035000,-0.148000,0.040000,1.910000,-0.060000,-0.020000,0.296359,Hold,0.213379,0.000000,Hold,-191.000000,2.000000,LowGoal,2145.000000,-2181.818182,Speed,2145.000000,-2181.818182,Speed,Off,Off,0.000000,FALSE,0,,,,,0.000000,0.000000,0.196875
04:54:21.707 PM 04/28/2016,Teleop Enabled,9,FALSE,0,NO ERROR,-0.000000,0.012833,-0.000000,-0.275916,TRUE,FALSE,TRUE,FALSE,FALSE,FALSE,Disabled,0.246875,0.000000,0.000000,TRUE,-0.782776,1.047134,0.000000,0.132767,-0.480469,0.000000,0.060000,-0.169000,0.036000,1.920000,-0.060000,0.000000,0.295161,Hold,0.213379,0.000000,Hold,-191.000000,2.000000,LowGoal,2152.500000,-2181.818182,Speed,2145.000000,-2181.818182,Speed,Off,Off,0.000000,FALSE,0,,,,,0.000000,0.000000,0.196875
04:54:21.812 PM 04/28/2016,Teleop Enabled,10,FALSE,0,NO ERROR,-0.000000,0.012833,-0.000000,-0.275916,TRUE,FALSE,TRUE,FALSE,FALSE,FALSE,Disabled,0.246875,0.000000,0.000000,TRUE,-0.771927,1.009628,0.000000,0.220932,-0.722382,0.000000,0.062000,-0.233000,0.001000,1.990000,-0.050000,-0.160000,0.294938,Hold,0.213379,0.000000,Hold,-191.000000,2.000000,LowGoal,2152.500000,-2181.818182,Speed,2145.000000,-2181.818182,Speed,Off,Off,0.000000,FALSE,0,,,,,0.000000,0.000000,0.196875
04:54:21.910 PM 04/28/2016,Teleop Enabled,11,FALSE,0,NO ERROR,-0.000000,0.012833,-0.000000,-0.275916,TRUE,FALSE,TRUE,FALSE,FALSE,FALSE,Disabled,0.246875,0.000000,0.000000,TRUE,-0.761276,0.976883,0.000000,0.290604,-0.870270,0.000000,0.108000,-0.204000,0.000000,2.020000,-0.050000,-0.310000,0.306367,Hold,0.213379,0.000000,Hold,-191.000000,2.000000,LowGoal,2145.000000,-2181.818182,Speed,2152.500000,-2181.818182,Speed,Off,Off,0.000000,FALSE,0,,,,,0.000000,0.000000,0.196875
04:54:22.011 PM 04/28/2016,Teleop Enabled,8,FALSE,0,NO ERROR,-0.000000,0.012833,-0.000000,-0.275916,TRUE,FALSE,TRUE,FALSE,FALSE,FALSE,Disabled,0.246875,0.000000,0.000000,TRUE,-0.740372,0.917328,0.000000,0.386444,-1.069183,0.000000,0.081000,-0.228000,-0.005000,2.030000,-0.050000,-0.350000,0.318120,Hold,0.213379,0.000000,Hold,-191.000000,2.000000,LowGoal,2145.000000,-2181.818182,Speed,2145.000000,-2181.818182,Speed,Off,Off,0.000000,FALSE,0,,,,,0.000000,0.000000,0.196875
04:54:22.113 PM 04/28/2016,Teleop Enabled,12,FALSE,0,NO ERROR,-0.000000,0.012833,-0.000000,-0.275916,TRUE,FALSE,TRUE,FALSE,FALSE,FALSE,Disabled,0.246875,0.000000,0.000000,TRUE,-0.724014,0.860092,0.000000,0.000000,-1.194031,0.000000,0.075000,-0.146000,-0.008000,2.030000,-0.050000,-0.300000,0.342373,Hold,0.213379,0.000000,Hold,-191.000000,2.000000,LowGoal,2152.500000,-2181.818182,Speed,2137.500000,-2181.818182,Speed,Off,Off,0.000000,FALSE,0,,,,,0.000000,0.000000,0.196875
04:54:22.215 PM 04/28/2016,Teleop Enabled,9,FALSE,0,NO ERROR,-0.000000,0.012833,-0.000000,-0.275916,TRUE,FALSE,TRUE,FALSE,FALSE,FALSE,Disabled,0.246875,0.000000,0.000000,TRUE,-0.724335,0.797668,0.000000,-0.016495,-1.275070,0.000000,0.012000,-0.130000,-0.009000,2.070000,-0.040000,-0.430000,0.344962,Hold,0.213379,0.000000,Hold,-191.000000,2.000000,LowGoal,2145.000000,-2181.818182,Speed,2145.000000,-2181.818182,Speed,Off,Off,0.000000,FALSE,0,,,,,0.000000,0.000000,0.196875
04:54:22.320 PM 04/28/2016,Teleop Enabled,14,FALSE,0,NO ERROR,-0.000000,0.012833,-0.000000,-0.275916,TRUE,FALSE,TRUE,FALSE,FALSE,FALSE,Disabled,0.246875,0.000000,0.000000,TRUE,-0.724991,0.733017,0.000000,-0.005341,-1.302963,0.000000,0.000000,-0.023000,-0.059000,2.070000,-0.040000,-0.460000,0.342025,Hold,0.213379,0.000000,Hold,-191.000000,2.000000,LowGoal,2152.500000,-2181.818182,Speed,2160.000000,-2181.818182,Speed,Off,Off,0.000000,FALSE,0,,,,,0.000000,0.000000,0.196875
04:54:22.418 PM 04/28/2016,Teleop Enabled,11,FALSE,0,NO ERROR,-0.000000,0.012833,-0.000000,-0.275916,TRUE,FALSE,TRUE,FALSE,FALSE,FALSE,Disabled,0.246875,0.000000,0.000000,TRUE,-0.724945,0.720261,0.000000,0.001556,0.013199,0.000000,-0.010000,-0.008000,-0.069000,2.050000,-0.040000,-0.440000,0.333956,Hold,0.213379,0.000000,Hold,-190.000000,2.000000,LowGoal,2145.000000,-2181.818182,Speed,2152.500000,-2181.818182,Speed,Off,Off,0.000000,FALSE,0,,,,,0.000000,0.000000,0.196875
04:54:22.518 PM 04/28/2016,Teleop Enabled,9,FALSE,0,NO ERROR,-0.000000,0.012833,-0.000000,-0.275916,TRUE,FALSE,TRUE,FALSE,FALSE,FALSE,Disabled,0.246875,0.000000,0.000000,TRUE,-0.725449,0.720688,0.000000,-0.029373,-0.005661,0.000000,-0.086000,-0.042000,-0.022000,2.030000,-0.040000,-0.460000,0.324458,Hold,0.213379,0.000000,Hold,-190.000000,2.000000,LowGoal,2152.500000,-2181.818182,Speed,2137.500000,-2181.818182,Speed,Off,Off,0.000000,FALSE,0,,,,,0.000000,0.000000,0.196875
04:54:22.623 PM 04/28/2016,Teleop Enabled,14,FALSE,0,NO ERROR,-0.000000,0.012833,-0.000000,-0.275916,TRUE,FALSE,TRUE,FALSE,FALSE,FALSE,Disabled,0.246875,0.000000,0.000000,TRUE,-0.727921,0.720428,0.000000,0.000000,0.000000,0.000000,-0.086000,-0.042000,-0.022000,2.030000,-0.040000,-0.460000,0.338162,Hold,0.213379,0.000000,Hold,-190.000000,2.000000,LowGoal,2152.500000,-2181.818182,Speed,2137.500000,-2181.818182,Speed,Off,Off,0.000000,FALSE,0,,,,,0.000000,0.000000,0.196875
04:54:22.726 PM 04/28/2016,Teleop Enabled,11,FALSE,0,NO ERROR,-0.000000,0.012833,-0.000000,-0.275916,TRUE,FALSE,TRUE,FALSE,FALSE,FALSE,Disabled,0.246875,0.000000,0.000000,TRUE,-0.729019,0.718796,0.000000,-0.024048,-0.044922,0.000000,-0.035000,-0.023000,-0.080000,2.080000,-0.040000,-0.560000,0.334782,Hold,0.213379,0.000000,Hold,-190.000000,2.000000,LowGoal,2145.000000,-2181.818182,Speed,2145.000000,-2181.818182,Speed,Off,Off,0.000000,FALSE,0,,,,,0.000000,0.000000,0.196875
04:54:22.827 PM 04/28/2016,Teleop Enabled,13,FALSE,0,NO ERROR,-0.000000,0.012833,-0.000000,-0.275916,TRUE,FALSE,TRUE,FALSE,FALSE,FALSE,Disabled,0.246875,0.000000,0.000000,TRUE,-0.729340,0.715134,0.000000,0.003860,-0.114395,0.000000,0.026000,-0.064000,-0.032000,2.080000,-0.040000,-0.560000,0.366911,Hold,0.213379,0.000000,Hold,-190.000000,2.000000,LowGoal,2152.500000,-2181.818182,Speed,2160.000000,-2181.818182,Speed,Off,Off,0.000000,FALSE,0,,,,,0.000000,0.000000,0.196875
04:54:22.927 PM 04/28/2016,Teleop Enabled,12,FALSE,0,NO ERROR,-0.000000,0.012833,-0.000000,-0.275916,TRUE,FALSE,TRUE,FALSE,FALSE,FALSE,Disabled,0.246875,0.000000,0.000000,TRUE,-0.729340,0.715134,0.000000,0.003860,-0.114395,0.000000,0.014000,-0.060000,-0.011000,2.070000,-0.040000,-0.550000,0.380282,Hold,0.213379,0.000000,Hold,-190.000000,2.000000,LowGoal,2152.500000,-2181.818182,Speed,2145.000000,-2181.818182,Speed,Off,Off,0.000000,FALSE,0,,,,,0.000000,0.000000,0.196875
04:54:23.030 PM 04/28/2016,Teleop Enabled,7,FALSE,0,NO ERROR,-0.000000,0.012833,-0.000000,-0.275916,TRUE,FALSE,TRUE,FALSE,FALSE,FALSE,Disabled,0.246875,0.000000,0.000000,TRUE,-0.725815,0.694916,0.000000,0.060913,-0.289612,0.000000,0.022000,-0.077000,0.032000,2.090000,-0.030000,-0.640000,0.388448,Hold,0.213379,0.000000,Hold,-190.000000,2.000000,LowGoal,2145.000000,-2181.818182,Speed,2145.000000,-2181.818182,Speed,Off,Off,0.000000,FALSE,0,,,,,0.000000,0.000000,0.196875
04:54:23.134 PM 04/28/2016,Teleop Enabled,11,FALSE,0,NO ERROR,-0.000000,0.012833,-0.000000,-0.275916,TRUE,FALSE,TRUE,FALSE,FALSE,FALSE,Disabled,0.246875,0.000000,0.000000,TRUE,-0.720947,0.676865,0.000000,0.123047,-0.424316,0.000000,0.067000,-0.100000,0.077000,2.100000,-0.040000,-0.660000,0.388307,Hold,0.213379,0.000000,Hold,-190.000000,2.000000,LowGoal,2152.500000,-2181.818182,Speed,2152.500000,-2181.818182,Speed,Off,Off,0.000000,FALSE,0,,,,,0.000000,0.000000,0.196875
04:54:23.234 PM 04/28/2016,Teleop Enabled,11,FALSE,0,NO ERROR,-0.000000,0.012833,-0.000000,-0.275916,TRUE,FALSE,TRUE,FALSE,FALSE,FALSE,Disabled,0.246875,0.000000,0.000000,TRUE,-0.711090,0.642944,0.000000,0.193726,-0.673477,0.000000,0.049000,-0.190000,-0.008000,2.130000,-0.040000,-0.630000,0.381432,Hold,0.213379,0.000000,Hold,-190.000000,2.000000,LowGoal,2152.500000,-2181.818182,Speed,2152.500000,-2181.818182,Speed,Off,Off,0.000000,FALSE,0,,,,,0.000000,0.000000,0.196875
04:54:23.336 PM 04/28/2016,Teleop Enabled,11,FALSE,0,NO ERROR,-0.000000,0.012833,-0.000000,-0.275916,TRUE,FALSE,TRUE,FALSE,FALSE,FALSE,Disabled,0.246875,0.000000,0.000000,TRUE,-0.699783,0.603210,0.000000,0.255814,-0.872543,0.000000,0.015000,-0.236000,0.008000,2.180000,-0.040000,-0.700000,0.384117,Hold,0.213379,0.000000,Hold,-190.000000,2.000000,LowGoal,2145.000000,-2181.818182,Speed,2160.000000,-2181.818182,Speed,Off,Off,0.000000,FALSE,0,,,,,0.000000,0.000000,0.196875
