Time,Robot Mode,Loop Time,Error Status,Error Code,Error Source,Left Motor Output,Left Motor Encoder,Right Motor Output,Right Motor Encoder,Is Level,Is Stalled,Ball Detector Photoeye,Vision Enabled,Vision Teleop Control,Vision Auto Control,Vision Current State,Vision X Output,Vision NavX Error,Vision NavX Target,NavX Connection Status,NavX Displacement X,NavX Displacement Y,NavX Displacement Z,NavX Velocity X,NavX Velocity Y,NavX Velocity Z,NavX Acceleration X,NavX Acceleration Y,NavX Acceleration Z,NavX Pitch,NavX Yaw,NavX Roll,Gyro Angle,Roller Arm State,Roller Arm Actual,Roller Arm Desired,Shooter Arm State,Shooter Arm Actual,Shooter Arm Desired,Shooter State,Actual RPM Left,Desired RPM Left,Control Mode Left,Actual RPM Right,Desired RPM Right,Control Mode Right,Ball Shooter Cylinder,Ball Halo Cylinder,Scaler Motor Output,Scaler Solenoid Fire,Auto To Run,Auto Current File,Auto File Status,Auto Current Command,Auto Trimmed Command,Shooter Amps Left,Shooter Amps Right, Vision After Offset
04:49:41.995 PM 04/28/2016,Teleop Enabled,11,FALSE,0,NO ERROR,-0.000000,0.000000,-0.000000,0.000000,TRUE,FALSE,TRUE,FALSE,FALSE,FALSE,Disabled,0.000000,0.000000,0.000000,TRUE,0.000000,0.000000,0.000000,0.000000,0.000000,0.000000,0.001000,0.001000,-0.001000,1.840000,-0.030000,0.190000,0.143238,ResetBack,-0.014893,-0.000049,ResetBack,0.000000,-0.250000,LowGoal,0.000000,-2181.818182,Speed,0.000000,-2181.818182,Speed,Off,Off,0.000000,FALSE,0,,,,,0.000000,0.000000,-0.050000
04:49:42.102 PM 04/28/2016,Teleop Enabled,19,FALSE,0,NO ERROR,-0.000000,0.019250,-0.000000,0.000000,TRUE,FALSE,TRUE,FALSE,FALSE,FALSE,Disabled,0.000000,0.000000,0.000000,TRUE,0.000000,0.000000,0.000000,0.000000,0.000000,0.000000,0.054000,-0.085000,-0.051000,1.810000,-0.040000,0.250000,0.062303,ResetBack,-0.014893,-0.000049,ResetBack,0.000000,-0.250000,LowGoal,285.000000,-2181.818182,Speed,15.000000,-2181.818182,Speed,Off,Off,0.000000,FALSE,0,,,,,0.000000,0.000000,-0.050000
04:49:42.203 PM 04/28/2016,Teleop Enabled,11,FALSE,0,NO ERROR,-0.000000,0.019250,-0.000000,0.000000,TRUE,FALSE,TRUE,FALSE,FALSE,FALSE,Disabled,0.000000,0.000000,0.000000,TRUE,0.000107,-0.003403,0.000000,-0.017624,0.000000,0.000000,-0.011000,0.007000,0.020000,1.760000,-0.030000,0.340000,0.064331,ResetBack,-1.268066,-0.000049,ResetBack,4797.000000,-0.250000,LowGoal,772.500000,-2181.818182,Speed,97.500000,-2181.818182,Speed,Off,Off,0.000000,FALSE,0,,,,,0.000000,0.000000,-0.050000
04:49:42.304 PM 04/28/2016,Teleop Enabled,9,FALSE,0,NO ERROR,-0.000000,0.019250,-0.000000,0.000000,TRUE,FALSE,TRUE,FALSE,FALSE,FALSE,Disabled,0.000000,0.000000,0.000000,TRUE,-0.001526,-0.002884,0.000000,-0.030548,0.018997,0.000000,-0.006000,-0.014000,-0.013000,1.770000,-0.040000,0.300000,0.056658,Reset,-1.268311,-0.000049,ResetBack,5089.000000,-0.250000,LowGoal,1320.000000,-2181.818182,Speed,367.500000,-2181.818182,Speed,Off,Off,0.000000,FALSE,0,,,,,0.000000,0.000000,-0.050000
04:49:42.405 PM 04/28/2016,Teleop Enabled,13,FALSE,0,NO ERROR,-0.000000,0.019250,-0.000000,0.000000,TRUE,FALSE,TRUE,FALSE,FALSE,FALSE,Disabled,0.000000,0.000000,0.000000,TRUE,-0.003021,-0.002060,0.000000,-0.027847,0.014801,0.000000,0.020000,0.034000,0.044000,1.800000,-0.040000,0.290000,0.074146,Hold,0.173828,0.000000,ResetBack,5164.000000,-0.250000,LowGoal,1785.000000,-2181.818182,Speed,1687.500000,-2181.818182,Speed,Off,Off,0.000000,FALSE,0,,,,,0.000000,0.000000,-0.050000
04:49:42.506 PM 04/28/2016,Teleop Enabled,11,FALSE,0,NO ERROR,-0.000000,0.019250,-0.000000,0.000000,TRUE,FALSE,TRUE,FALSE,FALSE,FALSE,Disabled,0.000000,0.000000,0.000000,TRUE,-0.003204,-0.001556,0.000000,0.013916,-0.003906,0.000000,0.047000,0.062000,0.031000,1.800000,-0.040000,0.290000,0.068772,Hold,0.173828,0.000000,ResetBack,5164.000000,-0.250000,LowGoal,2115.000000,-2181.818182,Speed,2137.500000,-2181.818182,Speed,Off,Off,0.000000,FALSE,0,,,,,0.000000,0.000000,-0.050000
04:49:42.606 PM 04/28/2016,Teleop Enabled,11,FALSE,0,NO ERROR,-0.000000,0.019250,-0.000000,0.000000,TRUE,FALSE,TRUE,FALSE,FALSE,FALSE,Disabled,0.000000,0.000000,0.000000,TRUE,-0.001770,-0.002258,0.000000,0.002258,0.000000,0.000000,0.017000,-0.034000,0.104000,1.780000,-0.040000,0.340000,0.067719,Hold,0.173828,0.000000,ResetBack,5718.000000,-0.250000,LowGoal,2197.500000,-2181.818182,Speed,2265.000000,-2181.818182,Speed,Off,Off,0.000000,FALSE,0,,,,,0.000000,0.000000,-0.050000
04:49:42.706 PM 04/28/2016,Teleop Enabled,11,FALSE,0,NO ERROR,-0.000000,0.019250,-0.000000,0.000000,TRUE,FALSE,TRUE,FALSE,FALSE,FALSE,Disabled,0.000000,0.000000,0.000000,TRUE,-0.001770,-0.002258,0.000000,0.002258,0.000000,0.000000,0.033000,0.050000,0.040000,1.820000,-0.050000,0.270000,0.074528,Hold,0.173828,0.000000,ResetBack,6085.000000,-0.250000,LowGoal,2160.000000,-2181.818182,Speed,2197.500000,-2181.818182,Speed,Off,Off,0.000000,FALSE,0,,,,,0.000000,0.000000,-0.050000
04:49:42.811 PM 04/28/2016,Teleop Enabled,11,FALSE,0,NO ERROR,-0.000000,0.019250,-0.000000,0.000000,TRUE,FALSE,TRUE,FALSE,FALSE,FALSE,Disabled,0.000000,0.000000,0.000000,TRUE,0.000305,-0.001770,0.000000,0.050827,-0.018295,0.000000,-0.039000,-0.027000,0.055000,1.850000,-0.040000,0.190000,0.089338,Hold,0.173828,0.000000,ResetBack,6092.000000,-0.250000,LowGoal,2130.000000,-2181.818182,Speed,2085.000000,-2181.818182,Speed,Off,Off,0.000000,FALSE,0,,,,,0.000000,0.000000,-0.050000
04:49:42.912 PM 04/28/2016,Teleop Enabled,13,FALSE,0,NO ERROR,-0.000000,0.019250,-0.000000,0.000000,TRUE,FALSE,TRUE,FALSE,FALSE,FALSE,Disabled,0.000000,0.000000,0.000000,TRUE,0.004913,-0.005768,0.000000,0.117111,-0.130783,0.000000,0.059000,-0.089000,0.049000,1.850000,-0.060000,0.210000,0.086357,Hold,0.173828,0.000000,ResetBack,6096.000000,-0.250000,LowGoal,2122.500000,-2181.818182,Speed,2047.500000,-2181.818182,Speed,Off,Off,0.000000,FALSE,0,,,,,0.000000,0.000000,-0.050000
04:49:43.012 PM 04/28/2016,Teleop Enabled,12,FALSE,0,NO ERROR,-0.000000,0.019250,-0.000000,0.000000,TRUE,FALSE,TRUE,FALSE,FALSE,FALSE,Disabled,0.000000,0.000000,0.000000,TRUE,0.004913,-0.005768,0.000000,0.117111,-0.130783,0.000000,0.089000,-0.102000,-0.031000,1.840000,-0.060000,0.150000,0.086656,Hold,0.173828,0.000000,ResetBack,6100.000000,-0.250000,LowGoal,2122.500000,-2181.818182,Speed,2062.500000,-2181.818182,Speed,Off,Off,0.000000,FALSE,0,,,,,0.000000,0.000000,-0.050000
04:49:43.114 PM 04/28/2016,Teleop Enabled,11,FALSE,0,NO ERROR,-0.000000,0.019250,-0.000000,0.000000,TRUE,FALSE,TRUE,FALSE,FALSE,FALSE,Disabled,0.000000,0.000000,0.000000,TRUE,0.009201,-0.014572,0.000000,-0.001205,-0.195526,0.000000,-0.044000,-0.061000,-0.036000,1.840000,-0.060000,0.150000,0.083813,Hold,0.173828,0.000000,ResetBack,6104.000000,-0.250000,LowGoal,2122.500000,-2181.818182,Speed,2092.500000,-2181.818182,Speed,Off,Off,0.000000,FALSE,0,,,,,0.000000,0.000000,-0.050000
04:49:43.214 PM 04/28/2016,Teleop Enabled,12,FALSE,0,NO ERROR,-0.000000,0.019250,-0.000000,0.000000,TRUE,FALSE,TRUE,FALSE,FALSE,FALSE,Disabled,0.000000,0.000000,0.000000,TRUE,0.007965,-0.023193,0.000000,-0.044968,0.000000,0.000000,-0.040000,0.030000,-0.091000,1.820000,-0.060000,0.120000,0.082508,Hold,0.173828,0.000000,Reset,6104.000000,2.000000,LowGoal,2137.500000,-2181.818182,Speed,2137.500000,-2181.818182,Speed,Off,Off,0.000000,FALSE,0,,,,,0.000000,0.000000,-0.050000
04:49:43.316 PM 04/28/2016,Teleop Enabled,13,FALSE,0,NO ERROR,-0.000000,0.019250,-0.000000,0.000000,TRUE,FALSE,TRUE,FALSE,FALSE,FALSE,Disabled,0.000000,0.000000,0.000000,TRUE,0.006805,-0.021805,0.000000,0.000000,0.053467,0.000000,0.017000,0.079000,0.002000,1.820000,-0.060000,0.120000,0.081234,Hold,0.173828,0.000000,Hold,-77.000000,2.000000,LowGoal,2130.000000,-2181.818182,Speed,2152.500000,-2181.818182,Speed,Off,Off,0.000000,FALSE,0,,,,,0.000000,0.000000,-0.050000
04:49:43.417 PM 04/28/2016,Teleop Enabled,11,FALSE,0,NO ERROR,-0.000000,0.019250,-0.000000,0.000000,TRUE,FALSE,TRUE,FALSE,FALSE,FALSE,Disabled,0.000000,0.000000,0.000000,TRUE,0.006241,-0.012985,0.000000,-0.024567,0.114761,0.000000,-0.001000,0.051000,0.017000,1.840000,-0.070000,0.220000,0.086870,Hold,0.173828,0.000000,Hold,-77.000000,2.000000,LowGoal,2137.500000,-2181.818182,Speed,2122.500000,-2181.818182,Speed,Off,Off,0.000000,FALSE,0,,,,,0.000000,0.000000,-0.050000
04:49:43.523 PM 04/28/2016,Teleop Enabled,10,FALSE,0,NO ERROR,-0.000000,0.019250,-0.000000,0.000000,TRUE,FALSE,TRUE,FALSE,FALSE,FALSE,Disabled,0.000000,0.000000,0.000000,TRUE,0.006241,-0.012985,0.000000,-0.024567,0.114761,0.000000,-0.031000,-0.064000,-0.038000,1.830000,-0.070000,0.220000,0.103180,Hold,0.173828,0.000000,Hold,-187.000000,2.000000,LowGoal,2137.500000,-2181.818182,Speed,2092.500000,-2181.818182,Speed,Off,Off,0.000000,FALSE,0,,,,,0.000000,0.000000,-0.050000
04:49:43.619 PM 04/28/2016,Teleop Enabled,11,FALSE,0,NO ERROR,-0.000000,0.019250,-0.000000,0.000000,TRUE,FALSE,TRUE,FALSE,FALSE,FALSE,Disabled,0.000000,0.000000,0.000000,TRUE,0.004410,-0.008026,0.000000,-0.014664,0.064194,0.000000,0.072000,0.002000,0.001000,1.830000,-0.070000,0.220000,0.119925,Hold,0.173828,0.000000,Hold,-187.000000,2.000000,LowGoal,2145.000000,-2181.818182,Speed,2085.000000,-2181.818182,Speed,Off,Off,0.000000,FALSE,0,,,,,0.000000,0.000000,-0.050000
04:49:43.723 PM 04/28/2016,Teleop Enabled,10,FALSE,0,NO ERROR,-0.000000,0.019250,-0.000000,0.000000,TRUE,FALSE,TRUE,FALSE,FALSE,FALSE,Disabled,0.000000,0.000000,0.000000,TRUE,0.006241,-0.011261,0.000000,0.044952,-0.091019,0.000000,0.025000,0.000000,0.046000,1.860000,-0.070000,0.260000,0.116307,Hold,0.173828,0.000000,Hold,-187.000000,2.000000,LowGoal,2137.500000,-2181.818182,Speed,2115.000000,-2181.818182,Speed,Off,Off,0.000000,FALSE,0,,,,,0.000000,0.000000,-0.050000
04:49:43.822 PM 04/28/2016,Teleop Enabled,9,FALSE,0,NO ERROR,-0.000000,0.019250,-0.000000,0.000000,TRUE,FALSE,TRUE,FALSE,FALSE,FALSE,Disabled,0.000000,0.000000,0.000000,TRUE,0.006241,-0.011261,0.000000,0.044952,-0.091019,0.000000,0.081000,-0.077000,0.110000,1.880000,-0.080000,0.340000,0.120648,Hold,0.173828,0.000000,Hold,-187.000000,2.000000,LowGoal,2137.500000,-2181.818182,Speed,2130.000000,-2181.818182,Speed,Off,Off,0.000000,FALSE,0,,,,,0.000000,0.000000,-0.050000
04:49:43.921 PM 04/28/2016,Teleop Enabled,11,FALSE,0,NO ERROR,-0.000000,0.019250,-0.000000,0.000000,TRUE,FALSE,TRUE,FALSE,FALSE,FALSE,Disabled,0.000000,0.000000,0.000000,TRUE,0.010986,-0.020645,0.000000,0.097153,-0.212753,0.000000,0.038000,-0.139000,0.052000,1.870000,-0.080000,0.210000,0.126772,Hold,0.173828,0.000000,Hold,-187.000000,2.000000,LowGoal,2137.500000,-2181.818182,Speed,2130.000000,-2181.818182,Speed,Off,Off,0.000000,FALSE,0,,,,,0.000000,0.000000,-0.050000
04:49:44.021 PM 04/28/2016,Teleop Enabled,8,FALSE,0,NO ERROR,-0.000000,0.019250,-0.000000,0.000000,TRUE,FALSE,TRUE,FALSE,FALSE,FALSE,Disabled,0.000000,0.000000,0.000000,TRUE,0.015060,-0.049271,0.000000,-0.004623,-0.373962,0.000000,-0.005000,-0.081000,0.091000,1.870000,-0.080000,0.210000,0.118641,Hold,0.173828,0.000000,Hold,-187.000000,2.000000,LowGoal,2137.500000,-2181.818182,Speed,2115.000000,-2181.818182,Speed,Off,Off,0.000000,FALSE,0,,,,,0.000000,0.000000,-0.050000
04:49:44.122 PM 04/28/2016,Teleop Enabled,11,FALSE,0,NO ERROR,-0.000000,0.019250,-0.000000,0.000000,TRUE,FALSE,TRUE,FALSE,FALSE,FALSE,Disabled,0.000000,0.000000,0.000000,TRUE,0.015076,-0.071671,0.000000,0.002686,-0.358124,0.000000,-0.016000,0.064000,0.072000,1.880000,-0.080000,0.170000,0.119123,Hold,0.173828,0.000000,Hold,-187.000000,2.000000,LowGoal,2145.000000,-2181.818182,Speed,2115.000000,-2181.818182,Speed,Off,Off,0.000000,FALSE,0,,,,,0.000000,0.000000,-0.050000
04:49:44.223 PM 04/28/2016,Teleop Enabled,10,FALSE,0,NO ERROR,-0.000000,0.019250,-0.000000,0.000000,TRUE,FALSE,TRUE,FALSE,FALSE,FALSE,Disabled,0.000000,0.000000,0.000000,TRUE,0.015472,-0.088669,0.000000,0.008942,-0.324921,0.000000,-0.013000,0.055000,0.028000,1.860000,-0.080000,0.280000,0.107766,Hold,0.173828,0.000000,Hold,-187.000000,2.000000,LowGoal,2137.500000,-2181.818182,Speed,2115.000000,-2181.818182,Speed,Off,Off,0.000000,FALSE,0,,,,,0.000000,0.000000,-0.050000
04:49:44.328 PM 04/28/2016,Teleop Enabled,14,FALSE,0,NO ERROR,-0.000000,0.019250,-0.000000,0.000000,TRUE,FALSE,TRUE,FALSE,FALSE,FALSE,Disabled,0.000000,0.000000,0.000000,TRUE,0.015472,-0.088669,0.000000,0.008942,-0.324921,0.000000,-0.046000,0.061000,-0.082000,1.840000,-0.080000,0.350000,0.100526,Hold,0.173828,0.000000,Hold,-187.000000,2.000000,LowGoal,2145.000000,-2181.818182,Speed,2115.000000,-2181.818182,Speed,Off,Off,0.000000,FALSE,0,,,,,0.000000,0.000000,-0.050000
04:49:44.427 PM 04/28/2016,Teleop Enabled,10,FALSE,0,NO ERROR,-0.000000,0.019250,-0.000000,0.000000,TRUE,FALSE,TRUE,FALSE,FALSE,FALSE,Disabled,0.000000,0.000000,0.000000,TRUE,0.013672,-0.104843,0.000000,-0.066681,-0.224976,0.000000,-0.128000,0.131000,-0.016000,1.840000,-0.090000,0.300000,0.100946,Hold,0.173828,0.000000,Hold,-187.000000,2.000000,LowGoal,2145.000000,-2181.818182,Speed,2115.000000,-2181.818182,Speed,Off,Off,0.000000,FALSE,0,,,,,0.000000,0.000000,-0.050000
04:49:44.526 PM 04/28/2016,Teleop Enabled,10,FALSE,0,NO ERROR,-0.000000,0.019250,-0.000000,0.000000,TRUE,FALSE,TRUE,FALSE,FALSE,FALSE,Disabled,0.000000,0.000000,0.000000,TRUE,0.006226,-0.112747,0.000000,-0.199524,-0.111099,0.000000,-0.087000,0.129000,-0.015000,1.870000,-0.090000,0.120000,0.100946,Hold,0.173828,0.000000,Hold,-187.000000,2.000000,LowGoal,2145.000000,-2181.818182,Speed,2115.000000,-2181.818182,Speed,Off,Off,0.000000,FALSE,0,,,,,0.000000,0.000000,-0.050000
04:49:44.627 PM 04/28/2016,Teleop Enabled,10,FALSE,0,NO ERROR,-0.000000,0.019250,-0.000000,0.000000,TRUE,FALSE,TRUE,FALSE,FALSE,FALSE,Disabled,0.000000,0.000000,0.000000,TRUE,-0.003326,-0.114746,0.000000,-0.258652,-0.018494,0.000000,-0.027000,0.085000,-0.036000,1.870000,-0.080000,0.100000,0.098151,Hold,0.173828,0.000000,Hold,-187.000000,2.000000,LowGoal,2145.000000,-2181.818182,Speed,2122.500000,-2181.818182,Speed,Off,Off,0.000000,FALSE,0,,,,,0.000000,0.000000,-0.050000
04:49:44.728 PM 04/28/2016,Teleop Enabled,10,FALSE,0,NO ERROR,-0.000000,0.019250,-0.000000,0.000000,TRUE,FALSE,TRUE,FALSE,FALSE,FALSE,Disabled,0.000000,0.000000,0.000000,TRUE,-0.017502,-0.113495,0.000000,-0.293274,0.044388,0.000000,-0.012000,0.018000,-0.088000,1.850000,-0.090000,0.270000,0.102550,Hold,0.173828,0.000000,Hold,-187.000000,2.000000,LowGoal,2145.000000,-2181.818182,Speed,2122.500000,-2181.818182,Speed,Off,Off,0.000000,FALSE,0,,,,,0.000000,0.000000,-0.050000
04:49:44.829 PM 04/28/2016,Teleop Enabled,10,FALSE,0,NO ERROR,-0.000000,0.019250,-0.000000,0.000000,TRUE,FALSE,TRUE,FALSE,FALSE,FALSE,Disabled,0.000000,0.000000,0.000000,TRUE,-0.017014,-0.109573,0.000000,0.019684,0.084427,0.000000,0.054000,0.016000,-0.044000,1.840000,-0.100000,0.350000,0.105139,Hold,0.173828,0.000000,Hold,-187.000000,2.000000,LowGoal,2145.000000,-2181.818182,Speed,2122.500000,-2181.818182,Speed,Off,Off,0.000000,FALSE,0,,,,,0.000000,0.000000,-0.050000
04:49:44.929 PM 04/28/2016,Teleop Enabled,9,FALSE,0,NO ERROR,-0.000000,0.019250,-0.000000,0.000000,TRUE,FALSE,TRUE,FALSE,FALSE,FALSE,Disabled,0.000000,0.000000,0.000000,TRUE,-0.015228,-0.104126,0.000000,0.049225,0.125168,0.000000,0.019000,0.023000,0.006000,1.850000,-0.100000,0.370000,0.100175,Hold,0.173828,0.000000,Hold,-187.000000,2.000000,LowGoal,2145.000000,-2181.818182,Speed,2122.500000,-2181.818182,Speed,Off,Off,0.000000,FALSE,0,,,,,0.000000,0.000000,-0.050000
04:49:45.029 PM 04/28/2016,Teleop Enabled,10,FALSE,0,NO ERROR,-0.000000,0.019250,-0.000000,0.000000,TRUE,FALSE,TRUE,FALSE,FALSE,FALSE,Disabled,0.000000,0.000000,0.000000,TRUE,-0.011581,-0.097778,0.000000,0.091827,0.116714,0.000000,0.057000,-0.075000,0.031000,1.850000,-0.110000,0.310000,0.111666,Hold,0.173828,0.000000,Hold,-187.000000,2.000000,LowGoal,2145.000000,-2181.818182,Speed,2115.000000,-2181.818182,Speed,Off,Off,0.000000,FALSE,0,,,,,0.000000,0.000000,-0.050000
04:49:45.130 PM 04/28/2016,Teleop Enabled,10,FALSE,0,NO ERROR,-0.000000,0.019250,-0.000000,0.000000,TRUE,FALSE,TRUE,FALSE,FALSE,FALSE,Disabled,0.000000,0.000000,0.000000,TRUE,-0.005096,-0.094360,0.000000,0.162033,0.026840,0.000000,0.060000,-0.077000,0.107000,1.850000,-0.110000,0.260000,0.102282,Hold,0.173828,0.000000,Hold,-187.000000,2.000000,LowGoal,2145.000000,-2181.818182,Speed,2115.000000,-2181.818182,Speed,Off,Off,0.000000,FALSE,0,,,,,0.000000,0.000000,-0.050000
04:49:45.230 PM 04/28/2016,Teleop Enabled,10,FALSE,0,NO ERROR,-0.000000,0.019250,-0.000000,0.000000,TRUE,FALSE,TRUE,FALSE,FALSE,FALSE,Disabled,0.000000,0.000000,0.000000,TRUE,0.004318,-0.095764,0.000000,0.203537,-0.064728,0.000000,0.051000,-0.097000,0.018000,1.900000,-0.110000,0.170000,0.097159,Hold,0.173828,0.000000,Hold,-187.000000,2.000000,LowGoal,2145.000000,-2181.818182,Speed,2122.500000,-2181.818182,Speed,Off,Off,0.000000,FALSE,0,,,,,0.000000,0.000000,-0.050000
04:49:45.330 PM 04/28/2016,Teleop Enabled,10,FALSE,0,NO ERROR,-0.000000,0.019250,-0.000000,0.000000,TRUE,FALSE,TRUE,FALSE,FALSE,FALSE,Disabled,0.000000,0.000000,0.000000,TRUE,0.016144,-0.101944,0.000000,0.263000,-0.159973,0.000000,0.072000,-0.078000,0.029000,1.910000,-0.110000,0.120000,0.103869,Hold,0.173828,0.000000,Hold,-187.000000,2.000000,LowGoal,2145.000000,-2181.818182,Speed,2122.500000,-2181.818182,Speed,Off,Off,0.000000,FALSE,0,,,,,0.000000,0.000000,-0.050000
04:49:45.431 PM 04/28/2016,Teleop Enabled,10,FALSE,0,NO ERROR,-0.000000,0.019250,-0.000000,0.000000,TRUE,FALSE,TRUE,FALSE,FALSE,FALSE,Disabled,0.000000,0.000000,0.000000,TRUE,0.031601,-0.112381,0.000000,0.348022,-0.237411,0.000000,0.088000,-0.068000,0.004000,1.870000,-0.120000,0.230000,0.119161,Hold,0.173828,0.000000,Hold,-187.000000,2.000000,LowGoal,2145.000000,-2181.818182,Speed,2122.500000,-2181.818182,Speed,Off,Off,0.000000,FALSE,0,,,,,0.000000,0.000000,-0.050000
04:49:45.531 PM 04/28/2016,Teleop Enabled,9,FALSE,0,NO ERROR,-0.000000,0.019250,-0.000000,0.000000,TRUE,FALSE,TRUE,FALSE,FALSE,FALSE,Disabled,0.000000,0.000000,0.000000,TRUE,0.050415,-0.125793,0.000000,0.385712,-0.289246,0.000000,-0.045000,-0.050000,-0.042000,1.860000,-0.120000,0.380000,0.115308,Hold,0.173828,0.000000,Hold,-187.000000,2.000000,LowGoal,2145.000000,-2181.818182,Speed,2122.500000,-2181.818182,Speed,Off,Off,0.000000,FALSE,0,,,,,0.000000,0.000000,-0.050000
04:49:45.631 PM 04/28/2016,Teleop Enabled,11,FALSE,0,NO ERROR,-0.000000,0.019250,-0.000000,0.000000,TRUE,FALSE,TRUE,FALSE,FALSE,FALSE,Disabled,0.000000,0.000000,0.000000,TRUE,0.068512,-0.141251,0.000000,0.336578,-0.319397,0.000000,-0.051000,0.026000,-0.109000,1.870000,-0.120000,0.290000,0.118032,Hold,0.173828,0.000000,Hold,-187.000000,2.000000,LowGoal,2145.000000,-2181.818182,Speed,2122.500000,-2181.818182,Speed,Off,Off,0.000000,FALSE,0,,,,,0.000000,0.000000,-0.050000
04:49:45.732 PM 04/28/2016,Teleop Enabled,10,FALSE,0,NO ERROR,-0.000000,0.019250,-0.000000,0.000000,TRUE,FALSE,TRUE,FALSE,FALSE,FALSE,Disabled,0.000000,0.000000,0.000000,TRUE,0.083969,-0.150742,0.000000,0.296204,0.000000,0.000000,-0.035000,0.054000,-0.079000,1.840000,-0.110000,0.240000,0.110124,Hold,0.173828,0.000000,Hold,-187.000000,2.000000,LowGoal,2145.000000,-2181.818182,Speed,2130.000000,-2181.818182,Speed,Off,Off,0.000000,FALSE,0,,,,,0.000000,0.000000,-0.050000
04:49:45.832 PM 04/28/2016,Teleop Enabled,10,FALSE,0,NO ERROR,-0.000000,0.019250,-0.000000,0.000000,TRUE,FALSE,TRUE,FALSE,FALSE,FALSE,Disabled,0.000000,0.000000,0.000000,TRUE,0.095413,-0.149597,0.000000,0.000000,0.039932,0.000000,0.008000,0.086000,-0.042000,1.830000,-0.110000,0.180000,0.112706,Hold,0.173828,0.000000,Hold,-187.000000,2.000000,LowGoal,2145.000000,-2181.818182,Speed,2122.500000,-2181.818182,Speed,Off,Off,0.000000,FALSE,0,,,,,0.000000,0.000000,-0.050000
04:49:45.933 PM 04/28/2016,Teleop Enabled,10,FALSE,0,NO ERROR,-0.000000,0.019250,-0.000000,0.000000,TRUE,FALSE,TRUE,FALSE,FALSE,FALSE,Disabled,0.000000,0.000000,0.000000,TRUE,0.095398,-0.145798,0.000000,-0.002060,0.100449,0.000000,-0.050000,0.057000,-0.005000,1.860000,-0.110000,0.190000,0.115928,Hold,0.173828,0.000000,Hold,-187.000000,2.000000,LowGoal,2145.000000,-2181.818182,Speed,2115.000000,-2181.818182,Speed,Off,Off,0.000000,FALSE,0,,,,,0.000000,0.000000,-0.050000
04:49:46.033 PM 04/28/2016,Teleop Enabled,9,FALSE,0,NO ERROR,-0.000000,0.019250,-0.000000,0.000000,TRUE,FALSE,TRUE,FALSE,FALSE,FALSE,Disabled,0.000000,0.000000,0.000000,TRUE,0.093658,-0.142166,0.000000,-0.046753,0.000000,0.000000,-0.071000,-0.017000,-0.035000,1.850000,-0.120000,0.280000,0.111429,Hold,0.173828,0.000000,Hold,-187.000000,2.000000,LowGoal,2145.000000,-2181.818182,Speed,2122.500000,-2181.818182,Speed,Off,Off,0.000000,FALSE,0,,,,,0.000000,0.000000,-0.050000
04:49:46.133 PM 04/28/2016,Teleop Enabled,10,FALSE,0,NO ERROR,-0.000000,0.019250,-0.000000,0.000000,TRUE,FALSE,TRUE,FALSE,FALSE,FALSE,Disabled,0.000000,0.000000,0.000000,TRUE,0.091553,-0.142593,0.000000,0.000000,-0.014542,0.000000,0.025000,-0.011000,-0.011000,1.820000,-0.130000,0.360000,0.099659,Hold,0.173828,0.000000,Hold,-187.000000,2.000000,LowGoal,2145.000000,-2181.818182,Speed,2130.000000,-2181.818182,Speed,Off,Off,0.000000,FALSE,0,,,,,0.000000,0.000000,-0.050000
04:49:46.234 PM 04/28/2016,Teleop Enabled,11,FALSE,0,NO ERROR,-0.000000,0.019250,-0.000000,0.000000,TRUE,FALSE,TRUE,FALSE,FALSE,FALSE,Disabled,0.000000,0.000000,0.000000,TRUE,0.091797,-0.143860,0.000000,0.006638,0.000000,0.000000,-0.034000,-0.017000,0.032000,1.820000,-0.130000,0.400000,0.103649,Hold,0.173828,0.000000,Hold,-187.000000,2.000000,LowGoal,2145.000000,-2181.818182,Speed,2137.500000,-2181.818182,Speed,Off,Off,0.000000,FALSE,0,,,,,0.000000,0.000000,-0.050000
04:49:46.335 PM 04/28/2016,Teleop Enabled,10,FALSE,0,NO ERROR,-0.000000,0.019250,-0.000000,0.000000,TRUE,FALSE,TRUE,FALSE,FALSE,FALSE,Disabled,0.000000,0.000000,0.000000,TRUE,0.091721,-0.144012,0.000000,-0.010132,0.000000,0.000000,-0.017000,0.007000,0.092000,1.850000,-0.130000,0.260000,0.115759,Hold,0.173828,0.000000,Hold,-187.000000,2.000000,LowGoal,2145.000000,-2181.818182,Speed,2130.000000,-2181.818182,Speed,Off,Off,0.000000,FALSE,0,,,,,0.000000,0.000000,-0.050000
04:49:46.435 PM 04/28/2016,Teleop Enabled,11,FALSE,0,NO ERROR,-0.000000,0.019250,-0.000000,0.000000,TRUE,FALSE,TRUE,FALSE,FALSE,FALSE,Disabled,0.000000,0.000000,0.000000,TRUE,0.091904,-0.144287,0.000000,0.018341,-0.013229,0.000000,0.013000,-0.041000,0.084000,1.860000,-0.130000,0.230000,0.117402,Hold,0.173828,0.000000,Hold,-187.000000,2.000000,LowGoal,2145.000000,-2181.818182,Speed,2115.000000,-2181.818182,Speed,Off,Off,0.000000,FALSE,0,,,,,0.000000,0.000000,-0.050000
04:49:46.536 PM 04/28/2016,Teleop Enabled,11,FALSE,0,NO ERROR,-0.000000,0.019250,-0.000000,0.000000,TRUE,FALSE,TRUE,FALSE,FALSE,FALSE,Disabled,0.000000,0.000000,0.000000,TRUE,0.093857,-0.146423,0.000000,0.050446,-0.068237,0.000000,0.033000,-0.059000,0.113000,1.870000,-0.130000,0.270000,0.121780,Hold,0.173828,0.000000,Hold,-187.000000,2.000000,LowGoal,2145.000000,-2181.818182,Speed,2115.000000,-2181.818182,Speed,Off,Off,0.000000,FALSE,0,,,,,0.000000,0.000000,-0.050000
04:49:46.637 PM 04/28/2016,Teleop Enabled,11,FALSE,0,NO ERROR,-0.000000,0.019250,-0.000000,0.000000,TRUE,FALSE,TRUE,FALSE,FALSE,FALSE,Disabled,0.000000,0.000000,0.000000,TRUE,0.097168,-0.151596,0.000000,0.079071,-0.128998,0.000000,0.006000,-0.023000,0.003000,1.870000,-0.140000,0.340000,0.123023,Hold,0.173828,0.000000,Hold,-187.000000,2.000000,LowGoal,2145.000000,-2181.818182,Speed,2130.000000,-2181.818182,Speed,Off,Off,0.000000,FALSE,0,,,,,0.000000,0.000000,-0.050000
04:49:46.738 PM 04/28/2016,Teleop Enabled,9,FALSE,0,NO ERROR,-0.000000,0.019250,-0.000000,0.000000,TRUE,FALSE,TRUE,FALSE,FALSE,FALSE,Disabled,0.000000,0.000000,0.000000,TRUE,0.103027,-0.161346,0.000000,0.115311,-0.186600,0.000000,0.064000,0.003000,0.033000,1.860000,-0.150000,0.400000,0.123481,Hold,0.173828,0.000000,Hold,-187.000000,2.000000,LowGoal,2152.500000,-2181.818182,Speed,2130.000000,-2181.818182,Speed,Off,Off,0.000000,FALSE,0,,,,,0.000000,0.000000,-0.050000
04:49:46.838 PM 04/28/2016,Teleop Enabled,11,FALSE,0,NO ERROR,-0.000000,0.019250,-0.000000,0.000000,TRUE,FALSE,TRUE,FALSE,FALSE,FALSE,Disabled,0.000000,0.000000,0.000000,TRUE,0.108795,-0.169144,0.000000,0.159134,-0.200928,0.000000,-0.004000,0.020000,0.029000,1.830000,-0.150000,0.510000,0.135406,Hold,0.173828,0.000000,Hold,-187.000000,2.000000,LowGoal,2152.500000,-2181.818182,Speed,2130.000000,-2181.818182,Speed,Off,Off,0.000000,FALSE,0,,,,,0.000000,0.000000,-0.050000
04:49:46.939 PM 04/28/2016,Teleop Enabled,9,FALSE,0,NO ERROR,-0.000000,0.019250,-0.000000,0.000000,TRUE,FALSE,TRUE,FALSE,FALSE,FALSE,Disabled,0.000000,0.000000,0.000000,TRUE,0.109802,-0.174988,0.000000,-0.035126,0.005417,0.000000,-0.098000,0.070000,-0.029000,1.790000,-0.150000,0.480000,0.137850,Hold,0.173828,0.000000,Hold,-187.000000,2.000000,LowGoal,2145.000000,-2181.818182,Speed,2122.500000,-2181.818182,Speed,Off,Off,0.000000,FALSE,0,,,,,0.000000,0.000000,-0.050000
04:49:47.039 PM 04/28/2016,Teleop Enabled,10,FALSE,0,NO ERROR,-0.000000,0.019250,-0.000000,0.000000,TRUE,FALSE,TRUE,FALSE,FALSE,FALSE,Disabled,0.000000,0.000000,0.000000,TRUE,0.107010,-0.173477,0.000000,-0.092682,0.059052,0.000000,-0.017000,0.119000,-0.091000,1.790000,-0.140000,0.310000,0.145035,Hold,0.173828,0.000000,Hold,-187.000000,2.000000,LowGoal,2145.000000,-2181.818182,Speed,2122.500000,-2181.818182,Speed,Off,Off,0.000000,FALSE,0,,,,,0.000000,0.000000,-0.050000
04:49:47.139 PM 04/28/2016,Teleop Enabled,12,FALSE,0,NO ERROR,-0.000000,0.019250,-0.000000,0.000000,TRUE,FALSE,TRUE,FALSE,FALSE,FALSE,Disabled,0.000000,0.000000,0.000000,TRUE,0.099045,-0.165680,0.000000,-0.168701,0.185455,0.000000,-0.056000,0.134000,-0.078000,1.800000,-0.150000,0.250000,0.150815,Hold,0.173828,0.000000,Hold,-187.000000,2.000000,LowGoal,2152.500000,-2181.818182,Speed,2137.500000,-2181.818182,Speed,Off,Off,0.000000,FALSE,0,,,,,0.000000,0.000000,-0.050000
04:49:47.240 PM 04/28/2016,Teleop Enabled,11,FALSE,0,NO ERROR,-0.000000,0.019250,-0.000000,0.000000,TRUE,FALSE,TRUE,FALSE,FALSE,FALSE,Disabled,0.000000,0.000000,0.000000,TRUE,0.090927,-0.155869,0.000000,-0.226013,0.285172,0.000000,-0.117000,0.140000,-0.072000,1.790000,-0.150000,0.220000,0.173402,Hold,0.173828,0.000000,Hold,-187.000000,2.000000,LowGoal,2145.000000,-2181.818182,Speed,2130.000000,-2181.818182,Speed,Off,Off,0.000000,FALSE,0,,,,,0.000000,0.000000,-0.050000
04:49:47.339 PM 04/28/2016,Teleop Enabled,11,FALSE,0,NO ERROR,-0.000000,0.019250,-0.000000,0.000000,TRUE,FALSE,TRUE,FALSE,FALSE,FALSE,Disabled,0.000000,0.000000,0.000000,TRUE,0.074295,-0.133850,0.000000,-0.310104,0.420609,0.000000,-0.060000,0.105000,-0.012000,1.800000,-0.150000,0.250000,0.173426,Hold,0.173828,0.000000,HighGoal,-187.000000,73728.000000,HighGoal,2152.500000,-3272.727273,Speed,2122.500000,-3272.727273,Speed,Off,Off,0.000000,FALSE,0,,,,,0.000000,0.000000,-0.050000
04:49:47.439 PM 04/28/2016,Teleop Enabled,10,FALSE,0,NO ERROR,-0.000000,0.019250,-0.000000,0.000000,TRUE,FALSE,TRUE,FALSE,FALSE,FALSE,Disabled,0.000000,0.000000,0.000000,TRUE,0.057281,-0.109863,0.000000,-0.346420,0.504959,0.000000,0.054000,-0.024000,-0.048000,1.850000,-0.160000,0.180000,0.179509,Hold,0.173828,0.000000,Hold,-1173.000000,73728.000000,HighGoal,2122.500000,-3272.727273,Speed,2115.000000,-3272.727273,Speed,Off,Off,0.000000,FALSE,0,,,,,0.000000,0.000000,-0.050000
04:49:47.540 PM 04/28/2016,Teleop Enabled,11,FALSE,0,NO ERROR,-0.000000,0.019250,-0.000000,0.000000,TRUE,FALSE,TRUE,FALSE,FALSE,FALSE,Disabled,0.000000,0.000000,0.000000,TRUE,0.040375,-0.084625,0.000000,-0.348877,0.524033,0.000000,-0.091000,0.146000,-0.129000,1.830000,-0.160000,0.150000,0.188842,Hold,0.173828,0.000000,Hold,-20273.000000,73728.000000,HighGoal,2242.500000,-3272.727273,Speed,2167.500000,-3272.727273,Speed,Off,Off,0.000000,FALSE,0,,,,,0.000000,0.000000,-0.050000
04:49:47.639 PM 04/28/2016,Teleop Enabled,11,FALSE,0,NO ERROR,-0.000000,0.019250,-0.000000,-0.012833,TRUE,FALSE,TRUE,FALSE,FALSE,FALSE,Disabled,0.000000,0.000000,0.000000,TRUE,0.022095,-0.058472,0.000000,-0.364868,0.497864,0.000000,-0.060000,0.135000,0.213000,1.810000,-0.180000,0.100000,0.156168,Hold,0.173828,0.000000,Hold,-40020.000000,73728.000000,HighGoal,2557.500000,-3272.727273,Speed,2497.500000,-3272.727273,Speed,Off,Off,0.000000,FALSE,0,,,,,0.000000,0.000000,-0.050000
04:49:47.739 PM 04/28/2016,Teleop Enabled,10,FALSE,0,NO ERROR,-0.000000,0.019250,-0.000000,-0.083416,TRUE,FALSE,TRUE,FALSE,FALSE,FALSE,Disabled,0.000000,0.000000,0.000000,TRUE,-0.001251,-0.025986,0.000000,-0.390030,0.541992,0.000000,0.109000,0.030000,-0.111000,1.940000,-0.170000,0.030000,0.160168,Hold,0.173828,0.000000,Hold,-57983.000000,73728.000000,HighGoal,2842.500000,-3272.727273,Speed,2827.500000,-3272.727273,Speed,Off,Off,0.000000,FALSE,0,,,,,0.000000,0.000000,-0.050000
04:49:47.841 PM 04/28/2016,Teleop Enabled,10,FALSE,0,NO ERROR,-0.000000,0.019250,-0.000000,-0.083416,TRUE,FALSE,TRUE,FALSE,FALSE,FALSE,Disabled,0.000000,0.000000,0.000000,TRUE,-0.015549,-0.004074,0.000000,-0.332474,0.548279,0.000000,0.031000,-0.101000,0.040000,1.900000,-0.180000,0.210000,0.164131,Hold,0.173828,0.000000,Hold,-75686.000000,73728.000000,HighGoal,3082.500000,-3272.727273,Speed,3105.000000,-3272.727273,Speed,Off,Off,0.000000,FALSE,0,,,,,0.000000,0.000000,-0.050000
04:49:47.940 PM 04/28/2016,Teleop Enabled,10,FALSE,0,NO ERROR,-0.000000,0.019250,-0.000000,0.000000,TRUE,FALSE,TRUE,FALSE,FALSE,FALSE,Disabled,0.000000,0.000000,0.000000,TRUE,-0.028595,0.023972,0.000000,-0.205185,0.576843,0.000000,0.068000,-0.068000,0.095000,1.940000,-0.120000,-0.040000,0.245169,Hold,0.173828,0.000000,Hold,-75686.000000,73728.000000,HighGoal,3195.000000,-3272.727273,Speed,3195.000000,-3272.727273,Speed,Off,Off,0.000000,FALSE,0,,,,,0.000000,0.000000,-0.050000
04:49:48.041 PM 04/28/2016,Teleop Enabled,11,FALSE,0,NO ERROR,-0.000000,-0.404249,-0.000000,0.442749,TRUE,FALSE,TRUE,FALSE,FALSE,FALSE,Disabled,0.000000,0.000000,0.000000,TRUE,-0.043198,0.059601,0.000000,-0.333313,0.592529,0.000000,-0.172000,-0.042000,0.120000,1.890000,-0.080000,0.270000,0.327164,Hold,0.173828,0.000000,Hold,-73792.000000,73728.000000,HighGoal,3195.000000,-3272.727273,Speed,3127.500000,-3272.727273,Speed,Off,Off,0.000000,FALSE,0,,,,,0.000000,0.000000,-0.050000
04:49:48.140 PM 04/28/2016,Teleop Enabled,10,FALSE,0,NO ERROR,-0.000000,-0.397832,-0.000000,0.442749,TRUE,FALSE,TRUE,FALSE,FALSE,FALSE,Disabled,0.000000,0.000000,0.000000,TRUE,-0.061722,0.088867,0.000000,-0.380524,0.589676,0.000000,-0.030000,0.085000,0.071000,1.880000,-0.210000,-0.230000,0.167859,Hold,0.173828,0.000000,Hold,-73468.000000,73728.000000,HighGoal,3195.000000,-3272.727273,Speed,3210.000000,-3272.727273,Speed,Off,Off,0.000000,FALSE,0,,,,,0.000000,0.000000,-0.050000
04:49:48.241 PM 04/28/2016,Teleop Enabled,11,FALSE,0,NO ERROR,-0.000000,-0.301583,-0.000000,0.314416,TRUE,FALSE,TRUE,FALSE,FALSE,FALSE,Disabled,0.000000,0.000000,0.000000,TRUE,-0.081558,0.117889,0.000000,-0.386703,0.560165,0.000000,0.174000,0.099000,-0.206000,1.880000,-0.130000,-0.390000,0.258787,Hold,0.173828,0.000000,Hold,-73468.000000,73728.000000,HighGoal,3195.000000,-3272.727273,Speed,3195.000000,-3272.727273,Speed,Off,Off,0.000000,FALSE,0,,,,,0.000000,0.000000,-0.050000
04:49:48.341 PM 04/28/2016,Teleop Enabled,11,FALSE,0,NO ERROR,-0.000000,-0.224583,-0.000000,0.224583,TRUE,FALSE,TRUE,FALSE,FALSE,FALSE,Disabled,0.000000,0.000000,0.000000,TRUE,-0.094330,0.139465,0.000000,-0.281036,0.531845,0.000000,0.073000,0.044000,-0.190000,1.850000,-0.170000,-0.020000,0.234655,Hold,0.173828,0.000000,Hold,-73922.000000,73728.000000,HighGoal,3202.500000,-3272.727273,Speed,3195.000000,-3272.727273,Speed,Off,Off,0.000000,FALSE,0,,,,,0.000000,0.000000,-0.050000
04:49:48.440 PM 04/28/2016,Teleop Enabled,10,FALSE,0,NO ERROR,-0.000000,-0.224583,-0.000000,0.237416,TRUE,FALSE,TRUE,FALSE,FALSE,FALSE,Disabled,0.000000,0.000000,0.000000,TRUE,-0.111771,0.170441,0.000000,-0.333359,0.500610,0.000000,-0.001000,-0.064000,-0.095000,1.840000,-0.170000,-0.040000,0.221573,Hold,0.173828,0.000000,Hold,-73751.000000,73728.000000,HighGoal,3195.000000,-3272.727273,Speed,3157.500000,-3272.727273,Speed,Off,Off,0.000000,FALSE,0,,,,,0.000000,0.000000,-0.050000
04:49:48.541 PM 04/28/2016,Teleop Enabled,10,FALSE,0,NO ERROR,-0.000000,-0.224583,-0.000000,0.230999,TRUE,FALSE,TRUE,FALSE,FALSE,FALSE,Disabled,0.000000,0.000000,0.000000,TRUE,-0.114822,0.195236,0.000000,0.019516,0.493607,0.000000,0.117000,0.059000,-0.052000,1.890000,-0.170000,-0.020000,0.240817,Hold,0.173828,0.000000,Hold,-73807.000000,73728.000000,HighGoal,3210.000000,-3272.727273,Speed,3195.000000,-3272.727273,Speed,Off,Off,0.000000,FALSE,0,,,,,0.000000,0.000000,-0.050000
04:49:48.641 PM 04/28/2016,Teleop Enabled,10,FALSE,0,NO ERROR,-0.000000,-0.224583,-0.000000,0.224583,TRUE,FALSE,TRUE,FALSE,FALSE,FALSE,Disabled,0.000000,0.000000,0.000000,TRUE,-0.112549,0.218948,0.000000,0.042938,0.463104,0.000000,-0.082000,-0.098000,0.185000,1.860000,-0.160000,0.120000,0.255269,Hold,0.173828,0.000000,Hold,-73807.000000,73728.000000,HighGoal,3210.000000,-3272.727273,Speed,3172.500000,-3272.727273,Speed,Off,Off,0.000000,FALSE,0,,,,,0.000000,0.000000,-0.050000
04:49:48.741 PM 04/28/2016,Teleop Enabled,11,FALSE,0,NO ERROR,-0.000000,-0.224583,-0.000000,0.237416,TRUE,FALSE,TRUE,FALSE,FALSE,FALSE,Disabled,0.000000,0.000000,0.000000,TRUE,-0.111496,0.247131,0.000000,0.007919,0.474503,0.000000,0.024000,0.038000,0.000000,1.840000,-0.190000,-0.040000,0.236993,Hold,0.173828,0.000000,Hold,-73773.000000,73728.000000,HighGoal,3217.500000,-3272.727273,Speed,3195.000000,-3272.727273,Speed,Off,Off,0.000000,FALSE,0,,,,,0.000000,0.000000,-0.050000
04:49:48.842 PM 04/28/2016,Teleop Enabled,5,FALSE,0,NO ERROR,-0.000000,-0.224583,-0.000000,0.237416,TRUE,FALSE,TRUE,FALSE,FALSE,FALSE,Disabled,0.000000,0.000000,0.000000,TRUE,-0.110260,0.266434,0.000000,0.056458,0.484406,0.000000,0.038000,0.017000,0.046000,1.850000,-0.170000,0.000000,0.252006,Hold,0.173828,0.000000,Hold,-73781.000000,73728.000000,HighGoal,3210.000000,-3272.727273,Speed,3195.000000,-3272.727273,Speed,Off,Off,0.000000,FALSE,0,,,,,0.000000,0.000000,-0.050000
04:49:48.942 PM 04/28/2016,Teleop Enabled,9,FALSE,0,NO ERROR,0.291339,-0.224583,0.291339,0.237416,TRUE,FALSE,TRUE,FALSE,FALSE,FALSE,Disabled,0.000000,0.000000,0.000000,TRUE,-0.107956,0.290619,0.000000,0.030014,0.489746,0.000000,-0.010000,-0.082000,0.079000,1.850000,-0.180000,0.000000,0.239482,Hold,0.173828,0.000000,Hold,-73791.000000,73728.000000,HighGoal,3217.500000,-3272.727273,Speed,3210.000000,-3272.727273,Speed,Off,Off,0.000000,FALSE,0,,,,,0.000000,0.000000,-0.050000
04:49:49.044 PM 04/28/2016,Teleop Enabled,4,FALSE,0,NO ERROR,-0.000000,0.263083,-0.000000,0.571082,TRUE,FALSE,TRUE,FALSE,FALSE,FALSE,Disabled,0.000000,0.000000,0.000000,TRUE,-0.106308,0.314713,0.000000,0.023270,0.466751,0.000000,0.083000,-0.139000,-0.068000,1.720000,-0.850000,-0.190000,-0.195517,Hold,0.173828,0.000000,Hold,-73791.000000,73728.000000,HighGoal,3210.000000,-3272.727273,Speed,3157.500000,-3272.727273,Speed,Off,Off,0.000000,FALSE,0,,,,,0.000000,0.000000,-0.050000
04:49:49.143 PM 04/28/2016,Teleop Enabled,5,FALSE,0,NO ERROR,-0.000000,0.423499,-0.000000,0.769998,TRUE,FALSE,TRUE,FALSE,FALSE,FALSE,Disabled,0.000000,0.000000,0.000000,TRUE,-0.105103,0.345169,0.000000,0.064743,0.566727,0.000000,0.011000,-0.016000,0.112000,1.920000,-2.280000,0.140000,-1.921619,Hold,0.173828,0.000000,Hold,-73791.000000,73728.000000,HighGoal,3210.000000,-3272.727273,Speed,3172.500000,-3272.727273,Speed,Off,Off,0.000000,FALSE,0,,,,,0.000000,0.000000,-0.050000
04:49:49.244 PM 04/28/2016,Teleop Enabled,14,FALSE,0,NO ERROR,-0.000000,0.230999,-0.000000,0.449166,TRUE,FALSE,TRUE,FALSE,FALSE,FALSE,Disabled,0.000000,0.000000,0.000000,TRUE,-0.102280,0.368256,0.000000,0.058563,0.585831,0.000000,-0.078000,-0.142000,0.089000,1.990000,-0.720000,0.050000,-0.423555,Hold,0.173828,0.000000,Hold,-73791.000000,73728.000000,HighGoal,3195.000000,-3272.727273,Speed,3187.500000,-3272.727273,Speed,Off,Off,0.000000,FALSE,0,,,,,0.000000,0.000000,-0.050000
04:49:49.345 PM 04/28/2016,Teleop Enabled,12,FALSE,0,NO ERROR,-0.000000,0.224583,-0.000000,0.449166,TRUE,FALSE,TRUE,FALSE,FALSE,FALSE,Disabled,0.000000,0.000000,0.000000,TRUE,-0.100937,0.397797,0.000000,0.034668,0.591965,0.000000,0.016000,0.103000,-0.155000,1.790000,-1.090000,0.000000,-0.635180,Hold,0.173828,0.000000,Hold,-73791.000000,73728.000000,HighGoal,3210.000000,-3272.727273,Speed,3210.000000,-3272.727273,Speed,Off,Off,0.000000,FALSE,0,,,,,0.000000,0.000000,-0.050000
04:49:49.445 PM 04/28/2016,Teleop Enabled,10,FALSE,0,NO ERROR,-0.000000,0.224583,-0.000000,0.449166,TRUE,FALSE,TRUE,FALSE,FALSE,FALSE,Disabled,0.000000,0.000000,0.000000,TRUE,-0.097168,0.433578,0.000000,0.081482,0.606506,0.000000,-0.048000,-0.025000,0.019000,1.910000,-1.010000,0.040000,-0.579937,Hold,0.173828,0.000000,Hold,-73791.000000,73728.000000,HighGoal,3210.000000,-3272.727273,Speed,3202.500000,-3272.727273,Speed,Off,Off,0.000000,FALSE,0,,,,,0.000000,0.000000,-0.050000
04:49:49.546 PM 04/28/2016,Teleop Enabled,16,FALSE,0,NO ERROR,-0.000000,0.224583,-0.000000,0.449166,TRUE,FALSE,TRUE,FALSE,FALSE,FALSE,Disabled,0.000000,0.000000,0.000000,TRUE,-0.092651,0.464020,0.000000,0.094238,0.622131,0.000000,-0.048000,-0.025000,0.019000,1.890000,-1.040000,0.040000,-0.616332,Hold,0.173828,0.000000,Hold,-73791.000000,73728.000000,HighGoal,3217.500000,-3272.727273,Speed,3195.000000,-3272.727273,Speed,Off,Off,0.000000,FALSE,0,,,,,0.000000,0.000000,-0.050000
04:49:49.646 PM 04/28/2016,Teleop Enabled,8,FALSE,0,NO ERROR,-0.000000,0.224583,-0.000000,0.449166,TRUE,FALSE,TRUE,FALSE,FALSE,FALSE,Disabled,0.000000,0.000000,0.000000,TRUE,-0.089874,0.495865,0.000000,0.000504,0.642273,0.000000,0.024000,0.150000,-0.249000,1.870000,-0.950000,0.020000,-0.549171,Hold,0.173828,0.000000,Hold,-73791.000000,73728.000000,HighGoal,3210.000000,-3272.727273,Speed,3180.000000,-3272.727273,Speed,Off,Off,0.000000,FALSE,0,,,,,0.000000,0.000000,-0.050000
04:49:49.748 PM 04/28/2016,Teleop Enabled,12,FALSE,0,NO ERROR,-0.000000,0.224583,-0.000000,0.449166,TRUE,FALSE,TRUE,FALSE,FALSE,FALSE,Disabled,0.000000,0.000000,0.000000,TRUE,-0.089935,0.528641,0.000000,0.000000,0.665237,0.000000,0.000000,0.161000,-0.209000,1.870000,-0.950000,0.020000,-0.594020,Hold,0.173828,0.000000,Hold,-73791.000000,73728.000000,HighGoal,3217.500000,-3272.727273,Speed,3180.000000,-3272.727273,Speed,Off,Off,0.000000,FALSE,0,,,,,0.000000,0.000000,-0.050000
04:49:49.848 PM 04/28/2016,Teleop Enabled,14,FALSE,0,NO ERROR,-0.000000,0.224583,-0.000000,0.449166,TRUE,FALSE,TRUE,FALSE,FALSE,FALSE,Disabled,0.000000,0.000000,0.000000,TRUE,-0.090637,0.561432,0.000000,-0.038895,0.652100,0.000000,0.017000,-0.013000,0.075000,1.880000,-1.000000,0.000000,-0.558152,Hold,0.173828,0.000000,Hold,-73791.000000,73728.000000,HighGoal,3217.500000,-3272.727273,Speed,3210.000000,-3272.727273,Speed,Off,Off,0.000000,FALSE,0,,,,,0.000000,0.000000,-0.050000
04:49:49.951 PM 04/28/2016,Teleop Enabled,9,FALSE,0,NO ERROR,-0.000000,0.224583,-0.000000,0.449166,TRUE,FALSE,TRUE,FALSE,FALSE,FALSE,Disabled,0.000000,0.000000,0.000000,TRUE,-0.092651,0.601166,0.000000,-0.028885,0.651672,0.000000,0.017000,-0.013000,0.075000,1.890000,-0.980000,0.000000,-0.558741,Hold,0.173828,0.000000,Hold,-73791.000000,73728.000000,HighGoal,3217.500000,-3272.727273,Speed,3225.000000,-3272.727273,Speed,Off,Off,0.000000,FALSE,0,,,,,0.000000,0.000000,-0.050000
04:49:50.052 PM 04/28/2016,Teleop Enabled,19,FALSE,0,NO ERROR,-0.000000,0.224583,-0.000000,0.449166,TRUE,FALSE,TRUE,FALSE,FALSE,FALSE,Disabled,0.000000,0.000000,0.000000,TRUE,-0.093597,0.633499,0.000000,-0.012177,0.643448,0.000000,-0.030000,0.051000,-0.114000,1.910000,-0.970000,-0.020000,-0.561960,Hold,0.173828,0.000000,Hold,-73791.000000,73728.000000,Shoot,3217.500000,-3272.727273,Speed,3180.000000,-3272.727273,Speed,Off,On,0.000000,FALSE,0,,,,,0.000000,0.000000,-0.050000
04:49:50.152 PM 04/28/2016,Teleop Enabled,11,FALSE,0,NO ERROR,-0.000000,0.224583,-0.000000,0.449166,TRUE,FALSE,TRUE,FALSE,FALSE,FALSE,Disabled,0.000000,0.000000,0.000000,TRUE,-0.094193,0.665726,0.000000,-0.004059,0.638611,0.000000,0.044000,-0.128000,0.292000,1.880000,-0.990000,-0.010000,-0.545191,Hold,0.173828,0.000000,Hold,-73791.000000,73728.000000,Shoot,3225.000000,-3272.727273,Speed,3195.000000,-3272.727273,Speed,Off,On,0.000000,FALSE,0,,,,,0.000000,0.000000,-0.050000
04:49:50.253 PM 04/28/2016,Teleop Enabled,10,FALSE,0,NO ERROR,-0.000000,0.224583,-0.000000,0.449166,TRUE,FALSE,TRUE,FALSE,FALSE,FALSE,Disabled,0.000000,0.000000,0.000000,TRUE,-0.094696,0.691177,0.000000,-0.020752,0.650497,0.000000,0.010000,0.163000,-0.321000,1.840000,-0.970000,0.000000,-0.544857,Hold,0.173828,0.000000,Hold,-73791.000000,73728.000000,Shoot,3225.000000,-3272.727273,Speed,3217.500000,-3272.727273,Speed,On,On,0.000000,FALSE,0,,,,,0.000000,0.000000,-0.050000
04:49:50.355 PM 04/28/2016,Teleop Enabled,11,FALSE,0,NO ERROR,-0.000000,0.224583,-0.000000,0.449166,TRUE,FALSE,FALSE,FALSE,FALSE,FALSE,Disabled,0.000000,0.000000,0.000000,TRUE,-0.095444,0.730118,0.000000,-0.023712,0.654556,0.000000,0.010000,0.163000,-0.321000,1.870000,-0.970000,-0.040000,-0.541139,Hold,0.173828,0.000000,Hold,-73791.000000,73728.000000,Shoot,3210.000000,-3272.727273,Speed,3210.000000,-3272.727273,Speed,On,On,0.000000,FALSE,0,,,,,0.000000,0.000000,-0.050000
04:49:50.456 PM 04/28/2016,Teleop Enabled,8,FALSE,0,NO ERROR,-0.000000,0.224583,-0.000000,0.442749,TRUE,FALSE,FALSE,FALSE,FALSE,FALSE,Disabled,0.000000,0.000000,0.000000,TRUE,-0.098526,0.765076,0.000000,-0.081757,0.759857,0.000000,-0.009000,0.155000,-0.069000,1.930000,-1.000000,0.050000,-0.559884,Hold,0.173828,0.000000,Hold,-73789.000000,73728.000000,Shoot,2617.500000,-3272.727273,Speed,2677.500000,-3272.727273,Speed,On,On,0.000000,FALSE,0,,,,,0.000000,0.000000,-0.050000
04:49:50.558 PM 04/28/2016,Teleop Enabled,12,FALSE,0,NO ERROR,-0.000000,0.224583,-0.000000,0.442749,TRUE,FALSE,FALSE,FALSE,FALSE,FALSE,Disabled,0.000000,0.000000,0.000000,TRUE,-0.100830,0.805008,0.000000,-0.023392,0.775925,0.000000,-0.009000,0.155000,-0.069000,1.960000,-1.030000,0.210000,-0.551081,Hold,0.173828,0.000000,Hold,-73789.000000,73728.000000,Shoot,2467.500000,-3272.727273,Speed,2385.000000,-3272.727273,Speed,On,On,0.000000,FALSE,0,,,,,0.000000,0.000000,-0.050000
04:49:50.659 PM 04/28/2016,Teleop Enabled,12,FALSE,0,NO ERROR,-0.000000,0.224583,-0.000000,0.442749,TRUE,FALSE,FALSE,FALSE,FALSE,FALSE,Disabled,0.000000,0.000000,0.000000,TRUE,-0.101593,0.843979,0.000000,-0.001465,0.781937,0.000000,0.032000,0.070000,-0.008000,1.850000,-0.980000,0.270000,-0.512896,Hold,0.173828,0.000000,Hold,-73789.000000,73728.000000,Shoot,2782.500000,-3272.727273,Speed,2737.500000,-3272.727273,Speed,On,On,0.000000,FALSE,0,,,,,0.000000,0.000000,-0.050000
04:49:50.760 PM 04/28/2016,Teleop Enabled,10,FALSE,0,NO ERROR,-0.000000,0.224583,-0.000000,0.442749,TRUE,FALSE,FALSE,FALSE,FALSE,FALSE,Disabled,0.000000,0.000000,0.000000,TRUE,-0.102020,0.883072,0.000000,-0.004517,0.778473,0.000000,-0.109000,0.158000,-0.172000,1.900000,-0.990000,0.230000,-0.518621,Hold,0.173828,0.000000,Hold,-73789.000000,73728.000000,Shoot,3007.500000,-3272.727273,Speed,3037.500000,-3272.727273,Speed,On,On,0.000000,FALSE,0,,,,,0.000000,0.000000,-0.050000
04:49:50.867 PM 04/28/2016,Teleop Enabled,10,FALSE,0,NO ERROR,-0.000000,0.224583,-0.000000,0.442749,TRUE,FALSE,FALSE,FALSE,FALSE,FALSE,Disabled,0.000000,0.000000,0.000000,TRUE,-0.103790,0.922089,0.000000,-0.042450,0.779999,0.000000,-0.047000,-0.081000,0.085000,1.940000,-0.990000,0.140000,-0.515113,Hold,0.173828,0.000000,Hold,-73789.000000,73728.000000,Shoot,3225.000000,-3272.727273,Speed,3202.500000,-3272.727273,Speed,On,On,0.000000,FALSE,0,,,,,0.000000,0.000000,-0.050000
04:49:50.966 PM 04/28/2016,Teleop Enabled,11,FALSE,0,NO ERROR,-0.000000,0.224583,-0.000000,0.442749,TRUE,FALSE,FALSE,FALSE,FALSE,FALSE,Disabled,0.000000,0.000000,0.000000,TRUE,-0.105362,0.960999,0.000000,-0.018906,0.783737,0.000000,-0.032000,-0.228000,0.020000,1.950000,-0.980000,0.160000,-0.481786,Hold,0.173828,0.000000,Hold,-73789.000000,73728.000000,Shoot,3240.000000,-3272.727273,Speed,3225.000000,-3272.727273,Speed,On,On,0.000000,FALSE,0,,,,,0.000000,0.000000,-0.050000
04:49:51.066 PM 04/28/2016,Teleop Enabled,11,FALSE,0,NO ERROR,-0.000000,0.224583,-0.000000,0.442749,TRUE,FALSE,FALSE,FALSE,FALSE,FALSE,Disabled,0.000000,0.000000,0.000000,TRUE,-0.106506,0.998917,0.000000,-0.032150,0.746262,0.000000,-0.032000,-0.228000,0.020000,2.020000,-0.990000,0.150000,-0.464856,Hold,0.173828,0.000000,Hold,-73789.000000,73728.000000,Shoot,3225.000000,-3272.727273,Speed,3165.000000,-3272.727273,Speed,On,On,0.000000,FALSE,0,,,,,0.000000,0.000000,-0.050000
04:49:51.170 PM 04/28/2016,Teleop Enabled,13,FALSE,0,NO ERROR,-0.000000,0.224583,-0.000000,0.442749,TRUE,FALSE,FALSE,FALSE,FALSE,FALSE,Disabled,0.000000,0.000000,0.000000,TRUE,-0.108719,1.028625,0.000000,-0.048615,0.000000,0.000000,0.031000,0.115000,-0.108000,2.020000,-0.990000,0.150000,-0.454473,Hold,0.173828,0.000000,Hold,-73789.000000,73728.000000,Shoot,3210.000000,-3272.727273,Speed,3172.500000,-3272.727273,Speed,On,On,0.000000,FALSE,0,,,,,0.000000,0.000000,-0.050000
04:49:51.273 PM 04/28/2016,Teleop Enabled,9,FALSE,0,NO ERROR,-0.000000,0.224583,-0.000000,0.442749,TRUE,FALSE,FALSE,FALSE,FALSE,FALSE,Disabled,0.000000,0.000000,0.000000,TRUE,-0.111221,1.028503,0.000000,-0.066162,0.006332,0.000000,-0.001000,0.009000,-0.085000,1.980000,-0.990000,0.130000,-0.455209,Hold,0.173828,0.000000,Hold,-73789.000000,73728.000000,Shoot,3210.000000,-3272.727273,Speed,3202.500000,-3272.727273,Speed,On,On,0.000000,FALSE,0,,,,,0.000000,0.000000,-0.050000
04:49:51.373 PM 04/28/2016,Teleop Enabled,10,FALSE,0,NO ERROR,-0.000000,0.224583,-0.000000,0.442749,TRUE,FALSE,FALSE,FALSE,FALSE,FALSE,Disabled,0.000000,0.000000,0.000000,TRUE,-0.114685,1.029022,0.000000,-0.061920,0.009003,0.000000,-0.036000,0.155000,-0.180000,1.950000,-0.990000,0.170000,-0.449977,Hold,0.173828,0.000000,Hold,-73789.000000,73728.000000,Shoot,3210.000000,-3272.727273,Speed,3195.000000,-3272.727273,Speed,On,On,0.000000,FALSE,0,,,,,0.000000,0.000000,-0.050000
04:49:51.474 PM 04/28/2016,Teleop Enabled,11,FALSE,0,NO ERROR,-0.000000,0.224583,-0.000000,0.442749,TRUE,FALSE,FALSE,FALSE,FALSE,FALSE,Disabled,0.000000,0.000000,0.000000,TRUE,-0.117264,1.029861,0.000000,-0.031052,0.025513,0.000000,0.056000,0.101000,-0.141000,1.990000,-0.990000,0.160000,-0.425393,Hold,0.173828,0.000000,Hold,-73788.000000,73728.000000,Shoot,3217.500000,-3272.727273,Speed,3172.500000,-3272.727273,Speed,On,On,0.000000,FALSE,0,,,,,0.000000,0.000000,-0.050000
04:49:51.575 PM 04/28/2016,Teleop Enabled,9,FALSE,0,NO ERROR,-0.000000,0.224583,-0.000000,0.442749,TRUE,FALSE,FALSE,FALSE,FALSE,FALSE,Disabled,0.000000,0.000000,0.000000,TRUE,-0.118011,1.032242,0.000000,-0.002396,0.061279,0.000000,-0.024000,0.016000,0.260000,1.960000,-0.990000,0.180000,-0.409324,Hold,0.173828,0.000000,Hold,-73788.000000,73728.000000,Dwell,3217.500000,-3272.727273,Speed,3150.000000,-3272.727273,Speed,On,On,0.000000,FALSE,0,,,,,0.000000,0.000000,-0.050000
04:49:51.675 PM 04/28/2016,Teleop Enabled,9,FALSE,0,NO ERROR,-0.000000,0.224583,-0.000000,0.442749,TRUE,FALSE,FALSE,FALSE,FALSE,FALSE,Disabled,0.000000,0.000000,0.000000,TRUE,-0.117966,1.036407,0.000000,0.004700,0.095490,0.000000,-0.024000,0.016000,0.260000,1.980000,-1.000000,0.160000,-0.406755,Hold,0.173828,0.000000,Hold,-73788.000000,73728.000000,Dwell,3217.500000,-3272.727273,Speed,3225.000000,-3272.727273,Speed,Off,On,0.000000,FALSE,0,,,,,0.000000,0.000000,-0.050000
04:49:51.778 PM 04/28/2016,Teleop Enabled,13,FALSE,0,NO ERROR,-0.000000,0.224583,-0.000000,0.442749,TRUE,FALSE,FALSE,FALSE,FALSE,FALSE,Disabled,0.000000,0.000000,0.000000,TRUE,-0.118240,1.042313,0.000000,-0.005829,0.123596,0.000000,-0.027000,-0.194000,0.175000,2.040000,-1.000000,0.110000,-0.403626,Hold,0.173828,0.000000,Hold,-73788.000000,73728.000000,Dwell,3217.500000,-3272.727273,Speed,3202.500000,-3272.727273,Speed,Off,On,0.000000,FALSE,0,,,,,0.000000,0.000000,-0.050000
04:49:51.879 PM 04/28/2016,Teleop Enabled,11,FALSE,0,NO ERROR,-0.000000,0.224583,-0.000000,0.442749,TRUE,FALSE,FALSE,FALSE,FALSE,FALSE,Disabled,0.000000,0.000000,0.000000,TRUE,-0.118652,1.048691,0.000000,-0.010086,0.130661,0.000000,-0.027000,-0.194000,0.175000,2.010000,-1.000000,0.050000,-0.388369,Hold,0.173828,0.000000,Hold,-73788.000000,73728.000000,Dwell,3210.000000,-3272.727273,Speed,3180.000000,-3272.727273,Speed,Off,On,0.000000,FALSE,0,,,,,0.000000,0.000000,-0.050000
04:49:51.980 PM 04/28/2016,Teleop Enabled,10,FALSE,0,NO ERROR,-0.000000,0.224583,-0.000000,0.442749,TRUE,FALSE,FALSE,FALSE,FALSE,FALSE,Disabled,0.000000,0.000000,0.000000,TRUE,-0.118530,1.055603,0.000000,0.020004,0.148285,0.000000,-0.043000,-0.086000,0.032000,1.940000,-1.000000,0.100000,-0.381253,Hold,0.173828,0.000000,Hold,-73788.000000,73728.000000,Dwell,3217.500000,-3272.727273,Speed,3210.000000,-3272.727273,Speed,Off,On,0.000000,FALSE,0,,,,,0.000000,0.000000,-0.050000
04:49:52.083 PM 04/28/2016,Teleop Enabled,11,FALSE,0,NO ERROR,-0.000000,0.224583,-0.000000,0.442749,TRUE,FALSE,FALSE,FALSE,FALSE,FALSE,Disabled,0.000000,0.000000,0.000000,TRUE,-0.117447,1.062759,0.000000,0.000000,0.142426,0.000000,0.077000,-0.131000,0.206000,1.940000,-1.000000,0.100000,-0.377067,Hold,0.173828,0.000000,Hold,-73788.000000,73728.000000,Dwell,3217.500000,-3272.727273,Speed,3172.500000,-3272.727273,Speed,Off,On,0.000000,FALSE,0,,,,,0.000000,0.000000,-0.050000
04:49:52.184 PM 04/28/2016,Teleop Enabled,10,FALSE,0,NO ERROR,-0.000000,0.224583,-0.000000,0.442749,TRUE,FALSE,FALSE,FALSE,FALSE,FALSE,Disabled,0.000000,0.000000,0.000000,TRUE,-0.117584,1.069595,0.000000,-0.004410,0.124130,0.000000,-0.003000,0.217000,-0.242000,1.890000,-1.000000,0.120000,-0.365882,Hold,0.173828,0.000000,Hold,-73788.000000,73728.000000,Dwell,3217.500000,-3272.727273,Speed,3180.000000,-3272.727273,Speed,Off,On,0.000000,FALSE,0,,,,,0.000000,0.000000,-0.050000
04:49:52.288 PM 04/28/2016,Teleop Enabled,10,FALSE,0,NO ERROR,-0.000000,0.224583,-0.000000,0.442749,TRUE,FALSE,FALSE,FALSE,FALSE,FALSE,Disabled,0.000000,0.000000,0.000000,TRUE,-0.117294,1.076553,0.000000,0.001709,0.118011,0.000000,-0.034000,-0.266000,0.298000,1.880000,-1.010000,0.160000,-0.389267,Hold,0.173828,0.000000,Hold,-73788.000000,73728.000000,Dwell,3217.500000,-3272.727273,Speed,3225.000000,-3272.727273,Speed,Off,On,0.000000,FALSE,0,,,,,0.000000,0.000000,-0.050000
04:49:52.387 PM 04/28/2016,Teleop Enabled,10,FALSE,0,NO ERROR,-0.000000,0.224583,-0.000000,0.442749,TRUE,FALSE,FALSE,FALSE,FALSE,FALSE,Disabled,0.000000,0.000000,0.000000,TRUE,-0.117325,1.081909,0.000000,-0.015350,0.136337,0.000000,0.037000,-0.022000,0.113000,1.800000,-1.030000,0.190000,-0.348125,Hold,0.173828,0.000000,Hold,-73788.000000,73728.000000,Dwell,3217.500000,-3272.727273,Speed,3217.500000,-3272.727273,Speed,Off,On,0.000000,FALSE,0,,,,,0.000000,0.000000,-0.050000
04:49:52.489 PM 04/28/2016,Teleop Enabled,9,FALSE,0,NO ERROR,-0.000000,0.224583,-0.000000,0.442749,TRUE,FALSE,FALSE,FALSE,FALSE,FALSE,Disabled,0.000000,0.000000,0.000000,TRUE,-0.117325,1.081909,0.000000,-0.015350,0.136337,0.000000,-0.001000,-0.062000,0.131000,1.890000,-1.020000,0.210000,-0.378292,Hold,0.173828,0.000000,Hold,-73788.000000,73728.000000,Dwell,3217.500000,-3272.727273,Speed,3172.500000,-3272.727273,Speed,Off,On,0.000000,FALSE,0,,,,,0.000000,0.000000,-0.050000
04:49:52.589 PM 04/28/2016,Teleop Enabled,11,FALSE,0,NO ERROR,-0.000000,0.224583,-0.000000,0.442749,TRUE,FALSE,FALSE,FALSE,FALSE,FALSE,Disabled,0.000000,0.000000,0.000000,TRUE,-0.122681,1.094620,0.000000,-0.071350,0.101410,0.000000,0.007000,0.059000,-0.025000,1.870000,-1.000000,0.130000,-0.341880,Hold,0.173828,0.000000,Hold,-73788.000000,73728.000000,Dwell,3217.500000,-3272.727273,Speed,3082.500000,-3272.727273,Speed,Off,On,0.000000,FALSE,0,,,,,0.000000,0.000000,-0.050000
04:49:52.690 PM 04/28/2016,Teleop Enabled,12,FALSE,0,NO ERROR,-0.000000,0.224583,-0.000000,0.442749,TRUE,FALSE,FALSE,FALSE,FALSE,FALSE,Disabled,0.000000,0.000000,0.000000,TRUE,-0.125427,1.099197,0.000000,-0.043823,0.095520,0.000000,-0.067000,0.185000,-0.114000,1.870000,-1.000000,0.130000,-0.348380,Hold,0.173828,0.000000,Hold,-73788.000000,73728.000000,Dwell,3210.000000,-3272.727273,Speed,3060.000000,-3272.727273,Speed,Off,On,0.000000,FALSE,0,,,,,0.000000,0.000000,-0.050000
04:49:52.794 PM 04/28/2016,Teleop Enabled,12,FALSE,0,NO ERROR,-0.000000,0.224583,-0.000000,0.442749,TRUE,FALSE,FALSE,FALSE,FALSE,FALSE,Disabled,0.000000,0.000000,0.000000,TRUE,-0.127655,1.104187,0.000000,-0.044189,0.095551,0.000000,-0.043000,-0.120000,0.187000,1.820000,-1.010000,0.210000,-0.371115,Hold,0.173828,0.000000,Hold,-73788.000000,73728.000000,Empty,3210.000000,0.000000,Speed,3142.500000,0.000000,Speed,Off,On,0.000000,FALSE,0,,,,,0.000000,0.000000,-0.050000
04:49:52.894 PM 04/28/2016,Teleop Enabled,9,FALSE,0,NO ERROR,-0.000000,0.224583,-0.000000,0.442749,TRUE,FALSE,FALSE,FALSE,FALSE,FALSE,Disabled,0.000000,0.000000,0.000000,TRUE,-0.130753,1.108978,0.000000,-0.071045,0.087463,0.000000,-0.034000,0.002000,0.068000,1.820000,-1.010000,0.210000,-0.364921,Hold,0.173828,0.000000,Hold,-73788.000000,73728.000000,Empty,3187.500000,0.000000,Speed,3187.500000,0.000000,Speed,Off,On,0.000000,FALSE,0,,,,,0.000000,0.000000,-0.050000
04:49:52.996 PM 04/28/2016,Teleop Enabled,11,FALSE,0,NO ERROR,-0.000000,0.224583,-0.000000,0.442749,TRUE,FALSE,FALSE,FALSE,FALSE,FALSE,Disabled,0.000000,0.000000,0.000000,TRUE,-0.135147,1.112762,0.000000,-0.077560,0.086136,0.000000,-0.007000,0.099000,-0.144000,1.800000,-1.010000,0.250000,-0.351688,Hold,0.173828,0.000000,Hold,-73788.000000,73728.000000,Empty,3112.500000,0.000000,Speed,3075.000000,0.000000,Speed,Off,On,0.000000,FALSE,0,,,,,0.000000,0.000000,-0.050000
04:49:53.098 PM 04/28/2016,Teleop Enabled,9,FALSE,0,NO ERROR,-0.000000,0.224583,-0.000000,0.442749,TRUE,FALSE,FALSE,FALSE,FALSE,FALSE,Disabled,0.000000,0.000000,0.000000,TRUE,-0.139023,1.117020,0.000000,-0.063293,0.095703,0.000000,-0.021000,-0.075000,0.171000,1.800000,-1.020000,0.340000,-0.354336,Hold,0.173828,0.000000,Hold,-73788.000000,73728.000000,Empty,3037.500000,0.000000,Speed,2917.500000,0.000000,Speed,Off,On,0.000000,FALSE,0,,,,,0.000000,0.000000,-0.050000
04:49:53.203 PM 04/28/2016,Teleop Enabled,11,FALSE,0,NO ERROR,-0.000000,0.224583,-0.000000,0.442749,TRUE,FALSE,FALSE,FALSE,FALSE,FALSE,Disabled,0.000000,0.000000,0.000000,TRUE,-0.142227,1.120514,0.000000,-0.066040,0.055801,0.000000,-0.071000,-0.145000,0.103000,1.800000,-1.020000,0.340000,-0.331794,Hold,0.173828,0.000000,Hold,-73788.000000,73728.000000,Empty,2940.000000,0.000000,Speed,2745.000000,0.000000,Speed,Off,On,0.000000,FALSE,0,,,,,0.000000,0.000000,-0.050000
04:49:53.304 PM 04/28/2016,Teleop Enabled,10,FALSE,0,NO ERROR,-0.000000,0.224583,-0.000000,0.442749,TRUE,FALSE,FALSE,FALSE,FALSE,FALSE,Disabled,0.000000,0.000000,0.000000,TRUE,-0.143219,1.124176,0.000000,0.008377,0.032288,0.000000,-0.018000,0.034000,0.138000,1.670000,-1.020000,0.260000,-0.331511,Hold,0.173828,0.000000,Hold,-73788.000000,73728.000000,Empty,2842.500000,0.000000,Speed,2625.000000,0.000000,Speed,Off,On,0.000000,FALSE,0,,,,,0.000000,0.000000,-0.050000
04:49:53.405 PM 04/28/2016,Teleop Enabled,9,FALSE,0,NO ERROR,-0.000000,0.224583,-0.000000,0.442749,TRUE,FALSE,FALSE,FALSE,FALSE,FALSE,Disabled,0.000000,0.000000,0.000000,TRUE,-0.143921,1.126938,0.000000,-0.020493,0.059952,0.000000,-0.156000,0.224000,-0.170000,1.670000,-1.020000,0.240000,-0.329642,Hold,0.173828,0.000000,Hold,-73788.000000,73728.000000,Empty,2745.000000,0.000000,Speed,2475.000000,0.000000,Speed,Off,On,0.000000,FALSE,0,,,,,0.000000,0.000000,-0.050000
04:49:53.505 PM 04/28/2016,Teleop Enabled,9,FALSE,0,NO ERROR,-0.000000,0.224583,-0.000000,0.442749,TRUE,FALSE,FALSE,FALSE,FALSE,FALSE,Disabled,0.000000,0.000000,0.000000,TRUE,-0.144028,1.129837,0.000000,-0.002716,0.053345,0.000000,-0.002000,0.151000,0.077000,1.680000,-1.020000,0.190000,-0.326107,Hold,0.173828,0.000000,Hold,-73788.000000,73728.000000,Empty,2655.000000,0.000000,Speed,2475.000000,0.000000,Speed,Off,On,0.000000,FALSE,0,,,,,0.000000,0.000000,-0.050000
04:49:53.607 PM 04/28/2016,Teleop Enabled,9,FALSE,0,NO ERROR,-0.000000,0.224583,-0.000000,0.442749,TRUE,FALSE,FALSE,FALSE,FALSE,FALSE,Disabled,0.000000,0.000000,0.000000,TRUE,-0.145996,1.135773,0.000000,-0.029388,0.073654,0.000000,-0.140000,0.282000,-0.071000,1.650000,-1.010000,0.190000,-0.329484,Hold,0.173828,0.000000,Hold,-73788.000000,73728.000000,Empty,2565.000000,0.000000,Speed,2152.500000,0.000000,Speed,Off,On,0.000000,FALSE,0,,,,,0.000000,0.000000,-0.050000
04:49:53.707 PM 04/28/2016,Teleop Enabled,10,FALSE,0,NO ERROR,-0.000000,0.224583,-0.000000,0.442749,TRUE,FALSE,FALSE,FALSE,FALSE,FALSE,Disabled,0.000000,0.000000,0.000000,TRUE,-0.148651,1.141083,0.000000,-0.035660,0.066406,0.000000,-0.138000,0.172000,-0.007000,1.660000,-1.010000,0.180000,-0.326251,Hold,0.173828,0.000000,Hold,-73788.000000,73728.000000,Empty,2497.500000,0.000000,Speed,2025.000000,0.000000,Speed,Off,On,0.000000,FALSE,0,,,,,0.000000,0.000000,-0.050000
04:49:53.810 PM 04/28/2016,Teleop Enabled,10,FALSE,0,NO ERROR,-0.000000,0.224583,-0.000000,0.442749,TRUE,FALSE,FALSE,FALSE,FALSE,FALSE,Disabled,0.000000,0.000000,0.000000,TRUE,-0.152161,1.145615,0.000000,-0.106018,0.148682,0.000000,0.059000,-0.128000,0.084000,1.680000,-1.010000,0.120000,-0.317648,Hold,0.173828,0.000000,Hold,-73788.000000,73728.000000,Empty,2497.500000,0.000000,Speed,1912.500000,0.000000,Speed,Off,On,0.000000,FALSE,0,,,,,0.000000,0.000000,-0.050000
04:49:53.910 PM 04/28/2016,Teleop Enabled,12,FALSE,0,NO ERROR,-0.000000,0.224583,-0.000000,0.442749,TRUE,FALSE,FALSE,FALSE,FALSE,FALSE,Disabled,0.000000,0.000000,0.000000,TRUE,-0.157074,1.153488,0.000000,-0.079086,0.120193,0.000000,-0.044000,0.147000,-0.170000,1.730000,-1.020000,0.070000,-0.310257,Hold,0.173828,0.000000,Hold,-73788.000000,73728.000000,Empty,2332.500000,0.000000,Speed,1762.500000,0.000000,Speed,Off,On,0.000000,FALSE,0,,,,,0.000000,0.000000,-0.050000
04:49:54.012 PM 04/28/2016,Teleop Enabled,11,FALSE,0,NO ERROR,-0.000000,0.224583,-0.000000,0.442749,TRUE,FALSE,FALSE,FALSE,FALSE,FALSE,Disabled,0.000000,0.000000,0.000000,TRUE,-0.159912,1.156265,0.000000,-0.031387,0.013229,0.000000,0.027000,-0.078000,0.106000,1.730000,-1.020000,0.140000,-0.304587,Hold,0.173828,0.000000,Hold,-73788.000000,73728.000000,Suck,2250.000000,0.000000,Speed,1762.500000,0.000000,Speed,Off,On,0.000000,FALSE,0,,,,,0.000000,0.000000,-0.050000
04:49:54.112 PM 04/28/2016,Teleop Enabled,11,FALSE,0,NO ERROR,-0.000000,0.224583,-0.000000,0.442749,TRUE,FALSE,FALSE,FALSE,FALSE,FALSE,Disabled,0.000000,0.000000,0.000000,TRUE,-0.160294,1.154877,0.000000,0.013779,-0.058472,0.000000,0.046000,-0.098000,0.189000,1.730000,-1.020000,0.140000,-0.312216,Hold,0.173828,0.000000,Hold,-73788.000000,73728.000000,Suck,2092.500000,1818.181818,Speed,1552.500000,1818.181818,Speed,Off,On,0.000000,FALSE,0,,,,,0.000000,0.000000,-0.050000
04:49:54.214 PM 04/28/2016,Teleop Enabled,12,FALSE,0,NO ERROR,-0.000000,0.224583,-0.000000,0.442749,TRUE,FALSE,FALSE,FALSE,FALSE,FALSE,Disabled,0.000000,0.000000,0.000000,TRUE,-0.160294,1.154877,0.000000,0.013779,-0.058472,0.000000,-0.043000,0.033000,-0.086000,1.730000,-1.020000,0.200000,-0.305090,Hold,0.173828,0.000000,Hold,-73788.000000,73728.000000,Suck,1177.500000,1818.181818,Speed,1402.500000,1818.181818,Speed,Off,On,0.000000,FALSE,0,,,,,0.000000,0.000000,-0.050000
04:49:54.317 PM 04/28/2016,Teleop Enabled,12,FALSE,0,NO ERROR,-0.000000,0.224583,-0.000000,0.442749,TRUE,FALSE,FALSE,FALSE,FALSE,FALSE,Disabled,0.000000,0.000000,0.000000,TRUE,-0.159790,1.150925,0.000000,0.000000,-0.072296,0.000000,0.010000,0.018000,0.057000,1.700000,-1.020000,0.190000,-0.288948,Hold,0.173828,0.000000,Hold,-73788.000000,73728.000000,Suck,1177.500000,1818.181818,Speed,322.500000,1818.181818,Speed,Off,On,0.000000,FALSE,0,,,,,0.000000,0.000000,-0.050000
04:49:54.418 PM 04/28/2016,Teleop Enabled,11,FALSE,0,NO ERROR,-0.000000,0.224583,-0.000000,0.442749,TRUE,FALSE,FALSE,FALSE,FALSE,FALSE,Disabled,0.000000,0.000000,0.000000,TRUE,-0.159912,1.150360,0.000000,-0.008209,0.012909,0.000000,0.009000,0.009000,0.036000,1.710000,-1.020000,0.190000,-0.285006,Hold,0.173828,0.000000,Hold,-73788.000000,73728.000000,Suck,-427.500000,1818.181818,Speed,322.500000,1818.181818,Speed,Off,On,0.000000,FALSE,0,,,,,0.000000,0.000000,-0.050000
