Time,Robot Mode,Loop Time,Error Status,Error Code,Error Source,Left Motor Output,Left Motor Encoder,Right Motor Output,Right Motor Encoder,Is Level,Is Stalled,Ball Detector Photoeye,Vision Enabled,Vision Teleop Control,Vision Auto Control,Vision Current State,Vision X Output,Vision NavX Error,Vision NavX Target,NavX Connection Status,NavX Displacement X,NavX Displacement Y,NavX Displacement Z,NavX Velocity X,NavX Velocity Y,NavX Velocity Z,NavX Acceleration X,NavX Acceleration Y,NavX Acceleration Z,NavX Pitch,NavX Yaw,NavX Roll,Gyro Angle,Roller Arm State,Roller Arm Actual,Roller Arm Desired,Shooter Arm State,Shooter Arm Actual,Shooter Arm Desired,Shooter State,Actual RPM Left,Desired RPM Left,Control Mode Left,Actual RPM Right,Desired RPM Right,Control Mode Right,Ball Shooter Cylinder,Ball Halo Cylinder,Scaler Motor Output,Scaler Solenoid Fire,Auto To Run,Auto Current File,Auto File Status,Auto Current Command,Auto Trimmed Command,Shooter Amps Left,Shooter Amps Right, Vision After Offset
11:14:00.672 AM 04/28/2016,Teleop Enabled,11,TRUE,-44005,<LOCATION>WPI_CameraWait for Raw Image String.vi:6640001<CALLSTACK>WPI_CameraWait for Raw Image String.vi:6640001< <WPI_CameraGet Image.vi< <Vision Processing.vi< <Robot Main.vi,-0.000000,0.000000,-0.000000,0.000000,TRUE,FALSE,FALSE,FALSE,FALSE,FALSE,Disabled,0.000000,0.000000,0.000000,TRUE,-0.389252,1.818069,0.000000,0.000000,0.000000,0.000000,0.004000,0.000000,-0.013000,1.730000,30.570000,-0.390000,-36.935970,ResetBack,0.052734,-0.000049,ResetBack,-22023.000000,-0.250000,Suck,0.000000,1818.181818,Speed,0.000000,1818.181818,Speed,Off,On,0.000000,FALSE,10,,,,,0.000000,0.000000,-0.050000
11:14:00.772 AM 04/28/2016,Teleop Enabled,10,TRUE,-1074396154,,-0.000000,0.000000,-0.000000,0.000000,TRUE,FALSE,FALSE,FALSE,FALSE,FALSE,Disabled,0.000000,0.000000,0.000000,TRUE,-0.389252,1.818069,0.000000,0.000000,0.000000,0.000000,0.047000,0.021000,-0.026000,1.730000,30.580000,-0.400000,-36.935970,ResetBack,0.052734,-0.000049,ResetBack,-22023.000000,-0.250000,Suck,-52.500000,1818.181818,Speed,0.000000,1818.181818,Speed,Off,On,0.000000,FALSE,10,,,,,0.000000,0.000000,-0.050000
11:14:00.872 AM 04/28/2016,Teleop Enabled,10,TRUE,-44005,<LOCATION>WPI_CameraWait for Raw Image String.vi:6640001<CALLSTACK>WPI_CameraWait for Raw Image String.vi:6640001< <WPI_CameraGet Image.vi< <Vision Processing.vi< <Robot Main.vi,-0.000000,0.000000,-0.000000,0.000000,TRUE,FALSE,FALSE,FALSE,FALSE,FALSE,Disabled,0.000000,0.000000,0.000000,TRUE,-0.389801,1.818268,0.000000,-0.042206,0.009781,0.000000,0.135000,-0.072000,-0.086000,1.650000,30.600000,-0.590000,-37.149388,ResetBack,0.006104,-0.000049,ResetBack,-18125.000000,-0.250000,Suck,-487.500000,1818.181818,Speed,-187.500000,1818.181818,Speed,Off,On,0.000000,FALSE,10,,,,,0.000000,0.000000,-0.050000
11:14:00.972 AM 04/28/2016,Teleop Enabled,9,TRUE,-1074396154,,-0.000000,0.000000,-0.000000,0.000000,TRUE,FALSE,FALSE,FALSE,FALSE,FALSE,Disabled,0.000000,0.000000,0.000000,TRUE,-0.391006,1.817642,0.000000,-0.017654,-0.017136,0.000000,0.034000,-0.059000,-0.065000,1.660000,30.600000,-0.480000,-37.308624,Reset,0.001709,-0.000049,ResetBack,-18125.000000,-0.250000,Suck,-487.500000,1818.181818,Speed,-772.500000,1818.181818,Speed,Off,On,0.000000,FALSE,10,,,,,0.000000,0.000000,-0.050000
11:14:01.072 AM 04/28/2016,Teleop Enabled,10,TRUE,-1074360311,IMAQdx Open Camera.vi,-0.000000,0.000000,-0.000000,0.000000,TRUE,FALSE,FALSE,FALSE,FALSE,FALSE,Disabled,0.000000,0.000000,0.000000,TRUE,-0.391876,1.816833,0.000000,-0.029129,-0.019958,0.000000,0.042000,0.032000,-0.032000,1.660000,30.600000,-0.540000,-37.473288,Hold,-0.001465,0.000000,ResetBack,-12439.000000,-0.250000,Suck,-1087.500000,1818.181818,Speed,-1252.500000,1818.181818,Speed,Off,On,0.000000,FALSE,10,,,,,0.000000,0.000000,-0.050000
11:14:01.172 AM 04/28/2016,Teleop Enabled,11,FALSE,0,NO ERROR,-0.000000,0.000000,-0.000000,0.000000,TRUE,FALSE,FALSE,FALSE,FALSE,FALSE,Disabled,0.000000,0.000000,0.000000,TRUE,-0.392487,1.815948,0.000000,0.000000,-0.009995,0.000000,0.039000,-0.008000,0.064000,1.670000,30.600000,-0.440000,-37.634668,Hold,0.014404,0.000000,ResetBack,-7145.000000,-0.250000,Suck,-1432.500000,1818.181818,Speed,-1642.500000,1818.181818,Speed,Off,On,0.000000,FALSE,10,,,,,0.000000,0.000000,-0.050000
11:14:01.272 AM 04/28/2016,Teleop Enabled,10,FALSE,0,NO ERROR,-0.000000,0.000000,-0.000000,0.000000,TRUE,FALSE,FALSE,FALSE,FALSE,FALSE,Disabled,0.000000,0.000000,0.000000,TRUE,-0.393051,1.816101,0.000000,-0.021683,0.018402,0.000000,0.024000,0.038000,0.000000,1.730000,30.610000,-0.620000,-37.775913,Hold,0.014648,0.000000,ResetBack,-3714.000000,-0.250000,Suck,-1717.500000,1818.181818,Speed,-1777.500000,1818.181818,Speed,Off,On,0.000000,FALSE,10,,,,,0.000000,0.000000,-0.050000
11:14:01.372 AM 04/28/2016,Teleop Enabled,10,FALSE,0,NO ERROR,-0.000000,0.000000,-0.000000,0.000000,TRUE,FALSE,FALSE,FALSE,FALSE,FALSE,Disabled,0.000000,0.000000,0.000000,TRUE,-0.393753,1.818283,0.000000,-0.018829,0.056503,0.000000,0.001000,-0.030000,0.042000,1.830000,30.600000,-0.650000,-37.993761,Hold,0.014648,0.000000,ResetBack,-1689.000000,-0.250000,Suck,-1822.500000,1818.181818,Speed,-1747.500000,1818.181818,Speed,Off,On,0.000000,FALSE,10,,,,,0.000000,0.000000,-0.050000
11:14:01.472 AM 04/28/2016,Teleop Enabled,10,FALSE,0,NO ERROR,-0.000000,0.000000,-0.000000,0.000000,TRUE,FALSE,FALSE,FALSE,FALSE,FALSE,Disabled,0.000000,0.000000,0.000000,TRUE,-0.394775,1.821213,0.000000,0.000000,0.067886,0.000000,0.000000,-0.093000,-0.050000,1.890000,30.600000,-0.690000,-38.158512,Hold,0.014648,0.000000,ResetBack,-937.000000,-0.250000,Suck,-1777.500000,1818.181818,Speed,-1702.500000,1818.181818,Speed,Off,On,0.000000,FALSE,10,,,,,0.000000,0.000000,-0.050000
11:14:01.572 AM 04/28/2016,Teleop Enabled,10,FALSE,0,NO ERROR,-0.000000,0.000000,-0.000000,0.000000,TRUE,FALSE,FALSE,FALSE,FALSE,FALSE,Disabled,0.000000,0.000000,0.000000,TRUE,-0.394653,1.823242,0.000000,0.012909,0.026459,0.000000,0.047000,0.063000,0.026000,1.810000,30.600000,-0.560000,-38.327545,Hold,0.014648,0.000000,ResetBack,-510.000000,-0.250000,Suck,-1747.500000,1818.181818,Speed,-1695.000000,1818.181818,Speed,Off,On,0.000000,FALSE,10,,,,,0.000000,0.000000,-0.050000
11:14:01.672 AM 04/28/2016,Teleop Enabled,10,FALSE,0,NO ERROR,-0.000000,0.000000,-0.000000,0.000000,TRUE,FALSE,FALSE,FALSE,FALSE,FALSE,Disabled,0.000000,0.000000,0.000000,TRUE,-0.393188,1.825562,0.000000,0.012283,0.034760,0.000000,-0.018000,-0.014000,0.022000,1.830000,30.600000,-0.590000,-38.502527,Hold,0.014648,0.000000,ResetBack,-510.000000,-0.250000,Suck,-1732.500000,1818.181818,Speed,-1702.500000,1818.181818,Speed,Off,On,0.000000,FALSE,10,,,,,0.000000,0.000000,-0.050000
11:14:01.773 AM 04/28/2016,Teleop Enabled,10,FALSE,0,NO ERROR,-0.000000,0.000000,-0.000000,0.000000,TRUE,FALSE,FALSE,FALSE,FALSE,FALSE,Disabled,0.000000,0.000000,0.000000,TRUE,-0.393112,1.826981,0.000000,0.004517,0.038956,0.000000,-0.035000,-0.065000,-0.008000,1.750000,30.600000,-0.550000,-38.665288,Hold,0.014648,0.000000,ResetBack,-328.000000,-0.250000,Suck,-1747.500000,1818.181818,Speed,-1710.000000,1818.181818,Speed,Off,On,0.000000,FALSE,10,,,,,0.000000,0.000000,-0.050000
11:14:01.873 AM 04/28/2016,Teleop Enabled,10,FALSE,0,NO ERROR,-0.000000,0.000000,-0.000000,0.000000,TRUE,FALSE,FALSE,FALSE,FALSE,FALSE,Disabled,0.000000,0.000000,0.000000,TRUE,-0.392883,1.827576,0.000000,0.008850,0.011490,0.000000,0.077000,-0.076000,-0.028000,1.680000,30.590000,-0.440000,-38.833725,Hold,0.014648,0.000000,ResetBack,-298.000000,-0.250000,Suck,-1755.000000,1818.181818,Speed,-1710.000000,1818.181818,Speed,Off,On,0.000000,FALSE,10,,,,,0.000000,0.000000,-0.050000
11:14:01.973 AM 04/28/2016,Teleop Enabled,10,FALSE,0,NO ERROR,-0.000000,0.000000,-0.000000,0.000000,TRUE,FALSE,FALSE,FALSE,FALSE,FALSE,Disabled,0.000000,0.000000,0.000000,TRUE,-0.390869,1.827148,0.000000,0.053802,-0.021011,0.000000,0.000000,0.041000,0.091000,1.710000,30.590000,-0.260000,-39.009932,Hold,0.014648,0.000000,Reset,-292.000000,2.000000,Suck,-1747.500000,1818.181818,Speed,-1710.000000,1818.181818,Speed,Off,On,0.000000,FALSE,10,,,,,0.000000,0.000000,-0.050000
11:14:02.073 AM 04/28/2016,Teleop Enabled,10,FALSE,0,NO ERROR,-0.000000,0.000000,-0.000000,0.000000,TRUE,FALSE,FALSE,FALSE,FALSE,FALSE,Disabled,0.000000,0.000000,0.000000,TRUE,-0.387207,1.827042,0.000000,0.000000,0.003189,0.000000,0.000000,0.071000,0.007000,1.820000,30.580000,-0.270000,-39.186639,Hold,0.014648,0.000000,Hold,-170.000000,2.000000,Suck,-1747.500000,1818.181818,Speed,-1725.000000,1818.181818,Speed,Off,On,0.000000,FALSE,10,,,,,0.000000,0.000000,-0.050000
11:14:02.173 AM 04/28/2016,Teleop Enabled,10,FALSE,0,NO ERROR,-0.000000,0.000000,-0.000000,0.000000,TRUE,FALSE,FALSE,FALSE,FALSE,FALSE,Disabled,0.000000,0.000000,0.000000,TRUE,-0.387772,1.828827,0.000000,-0.020218,0.041595,0.000000,-0.012000,-0.016000,-0.054000,1.920000,30.590000,-0.370000,-39.358109,Hold,0.014648,0.000000,Hold,-170.000000,2.000000,Suck,-1755.000000,1818.181818,Speed,-1725.000000,1818.181818,Speed,Off,On,0.000000,FALSE,10,,,,,0.000000,0.000000,-0.050000
11:14:02.273 AM 04/28/2016,Teleop Enabled,9,FALSE,0,NO ERROR,-0.000000,0.000000,-0.000000,0.000000,TRUE,FALSE,FALSE,FALSE,FALSE,FALSE,Disabled,0.000000,0.000000,0.000000,TRUE,-0.389404,1.831772,0.000000,-0.057236,0.060196,0.000000,0.109000,0.009000,-0.017000,1.960000,30.590000,-0.540000,-39.511799,Hold,0.014648,0.000000,Hold,-170.000000,2.000000,Suck,-1747.500000,1818.181818,Speed,-1717.500000,1818.181818,Speed,Off,On,0.000000,FALSE,10,,,,,0.000000,0.000000,-0.050000
11:14:02.374 AM 04/28/2016,Teleop Enabled,10,FALSE,0,NO ERROR,-0.000000,0.000000,-0.000000,0.000000,TRUE,FALSE,FALSE,FALSE,FALSE,FALSE,Disabled,0.000000,0.000000,0.000000,TRUE,-0.391602,1.834610,0.000000,-0.044662,0.055923,0.000000,-0.051000,-0.082000,-0.074000,1.880000,30.600000,-0.570000,-39.682694,Hold,0.014648,0.000000,Hold,-170.000000,2.000000,Suck,-1747.500000,1818.181818,Speed,-1710.000000,1818.181818,Speed,Off,On,0.000000,FALSE,10,,,,,0.000000,0.000000,-0.050000
11:14:02.474 AM 04/28/2016,Teleop Enabled,10,FALSE,0,NO ERROR,-0.000000,0.000000,-0.000000,0.000000,TRUE,FALSE,FALSE,FALSE,FALSE,FALSE,Disabled,0.000000,0.000000,0.000000,TRUE,-0.392746,1.835846,0.000000,0.000000,0.010178,0.000000,0.084000,-0.055000,-0.023000,1.750000,30.590000,-0.410000,-39.847087,Hold,0.014648,0.000000,Hold,-170.000000,2.000000,Suck,-1755.000000,1818.181818,Speed,-1717.500000,1818.181818,Speed,Off,On,0.000000,FALSE,10,,,,,0.000000,0.000000,-0.050000
11:14:02.574 AM 04/28/2016,Teleop Enabled,9,FALSE,0,NO ERROR,-0.000000,0.000000,-0.000000,0.000000,TRUE,FALSE,FALSE,FALSE,FALSE,FALSE,Disabled,0.000000,0.000000,0.000000,TRUE,-0.391571,1.834991,0.000000,0.038895,-0.026825,0.000000,0.033000,-0.047000,-0.034000,1.700000,30.590000,-0.190000,-40.042810,Hold,0.014648,0.000000,Hold,-170.000000,2.000000,Suck,-1747.500000,1818.181818,Speed,-1725.000000,1818.181818,Speed,Off,On,0.000000,FALSE,10,,,,,0.000000,0.000000,-0.050000
11:14:02.674 AM 04/28/2016,Teleop Enabled,11,FALSE,0,NO ERROR,-0.000000,0.000000,-0.000000,0.000000,TRUE,FALSE,FALSE,FALSE,FALSE,FALSE,Disabled,0.000000,0.000000,0.000000,TRUE,-0.388947,1.832657,0.000000,0.065491,-0.041992,0.000000,-0.001000,0.012000,-0.047000,1.720000,30.590000,-0.090000,-40.208132,Hold,0.014648,0.000000,Hold,-170.000000,2.000000,Suck,-1747.500000,1818.181818,Speed,-1725.000000,1818.181818,Speed,Off,On,0.000000,FALSE,10,,,,,0.000000,0.000000,-0.050000
11:14:02.775 AM 04/28/2016,Teleop Enabled,10,FALSE,0,NO ERROR,-0.000000,0.000000,-0.000000,0.000000,TRUE,FALSE,FALSE,FALSE,FALSE,FALSE,Disabled,0.000000,0.000000,0.000000,TRUE,-0.385498,1.830750,0.000000,0.076126,-0.024490,0.000000,-0.018000,0.015000,-0.004000,1.820000,30.580000,-0.120000,-40.386009,Hold,0.014648,0.000000,Hold,-170.000000,2.000000,Suck,-1755.000000,1818.181818,Speed,-1725.000000,1818.181818,Speed,Off,On,0.000000,FALSE,10,,,,,0.000000,0.000000,-0.050000
11:14:02.876 AM 04/28/2016,Teleop Enabled,11,FALSE,0,NO ERROR,-0.000000,0.000000,-0.000000,0.000000,TRUE,FALSE,FALSE,FALSE,FALSE,FALSE,Disabled,0.000000,0.000000,0.000000,TRUE,-0.381500,1.830734,0.000000,0.064896,0.026062,0.000000,-0.038000,0.009000,-0.009000,2.000000,30.590000,-0.260000,-40.541193,Hold,0.014648,0.000000,Hold,-170.000000,2.000000,Suck,-1755.000000,1818.181818,Speed,-1725.000000,1818.181818,Speed,Off,On,0.000000,FALSE,10,,,,,0.000000,0.000000,-0.050000
11:14:02.976 AM 04/28/2016,Teleop Enabled,10,FALSE,0,NO ERROR,-0.000000,0.000000,-0.000000,0.000000,TRUE,FALSE,FALSE,FALSE,FALSE,FALSE,Disabled,0.000000,0.000000,0.000000,TRUE,-0.379105,1.832916,0.000000,0.031448,0.058685,0.000000,-0.076000,-0.002000,-0.033000,2.080000,30.600000,-0.440000,-40.720564,Hold,0.014648,0.000000,Hold,-170.000000,2.000000,Suck,-1755.000000,1818.181818,Speed,-1725.000000,1818.181818,Speed,Off,On,0.000000,FALSE,10,,,,,0.000000,0.000000,-0.050000
11:14:03.077 AM 04/28/2016,Teleop Enabled,10,FALSE,0,NO ERROR,-0.000000,0.000000,-0.000000,0.000000,TRUE,FALSE,FALSE,FALSE,FALSE,FALSE,Disabled,0.000000,0.000000,0.000000,TRUE,-0.378860,1.834854,0.000000,-0.013184,0.000000,0.000000,0.034000,0.052000,0.061000,2.050000,30.590000,-0.540000,-40.896613,Hold,0.014648,0.000000,Hold,-170.000000,2.000000,Suck,-1755.000000,1818.181818,Speed,-1725.000000,1818.181818,Speed,Off,On,0.000000,FALSE,10,,,,,0.000000,0.000000,-0.050000
11:14:03.178 AM 04/28/2016,Teleop Enabled,10,FALSE,0,NO ERROR,-0.000000,0.000000,-0.000000,0.000000,TRUE,FALSE,FALSE,FALSE,FALSE,FALSE,Disabled,0.000000,0.000000,0.000000,TRUE,-0.379349,1.834595,0.000000,-0.012848,-0.017853,0.000000,0.001000,-0.121000,-0.036000,1.950000,30.590000,-0.500000,-41.060468,Hold,0.014648,0.000000,Hold,-170.000000,2.000000,Suck,-1755.000000,1818.181818,Speed,-1725.000000,1818.181818,Speed,Off,On,0.000000,FALSE,10,,,,,0.000000,0.000000,-0.050000
11:14:03.279 AM 04/28/2016,Teleop Enabled,10,FALSE,0,NO ERROR,-0.000000,0.000000,-0.000000,0.000000,TRUE,FALSE,FALSE,FALSE,FALSE,FALSE,Disabled,0.000000,0.000000,0.000000,TRUE,-0.379959,1.831207,0.000000,-0.012283,-0.087418,0.000000,0.063000,0.006000,0.046000,1.840000,30.600000,-0.440000,-41.225642,Hold,0.014648,0.000000,Hold,-170.000000,2.000000,Suck,-1755.000000,1818.181818,Speed,-1725.000000,1818.181818,Speed,Off,On,0.000000,FALSE,10,,,,,0.000000,0.000000,-0.050000
11:14:03.379 AM 04/28/2016,Teleop Enabled,10,FALSE,0,NO ERROR,-0.000000,0.000000,-0.000000,0.000000,TRUE,FALSE,FALSE,FALSE,FALSE,FALSE,Disabled,0.000000,0.000000,0.000000,TRUE,-0.379883,1.825684,0.000000,-0.001266,-0.124786,0.000000,0.075000,-0.034000,0.037000,1.740000,30.590000,-0.320000,-41.402689,Hold,0.014648,0.000000,Hold,-170.000000,2.000000,Suck,-1755.000000,1818.181818,Speed,-1732.500000,1818.181818,Speed,Off,On,0.000000,FALSE,10,,,,,0.000000,0.000000,-0.050000
11:14:03.479 AM 04/28/2016,Teleop Enabled,10,FALSE,0,NO ERROR,-0.000000,0.000000,-0.000000,0.000000,TRUE,FALSE,FALSE,FALSE,FALSE,FALSE,Disabled,0.000000,0.000000,0.000000,TRUE,-0.378967,1.818665,0.000000,0.025620,-0.142914,0.000000,0.006000,-0.109000,-0.024000,1.690000,30.590000,-0.190000,-41.560754,Hold,0.014648,0.000000,Hold,-170.000000,2.000000,Suck,-1755.000000,1818.181818,Speed,-1732.500000,1818.181818,Speed,Off,On,0.000000,FALSE,10,,,,,0.000000,0.000000,-0.050000
11:14:03.579 AM 04/28/2016,Teleop Enabled,10,FALSE,0,NO ERROR,-0.000000,0.000000,-0.000000,0.000000,TRUE,FALSE,FALSE,FALSE,FALSE,FALSE,Disabled,0.000000,0.000000,0.000000,TRUE,-0.376785,1.810242,0.000000,0.060516,-0.173996,0.000000,0.094000,-0.025000,-0.011000,1.680000,30.590000,0.000000,-41.715893,Hold,0.014648,0.000000,Hold,-170.000000,2.000000,Suck,-1755.000000,1818.181818,Speed,-1732.500000,1818.181818,Speed,Off,On,0.000000,FALSE,10,,,,,0.000000,0.000000,-0.050000
11:14:03.680 AM 04/28/2016,Teleop Enabled,10,FALSE,0,NO ERROR,-0.000000,0.000000,-0.000000,0.000000,TRUE,FALSE,FALSE,FALSE,FALSE,FALSE,Disabled,0.000000,0.000000,0.000000,TRUE,-0.372299,1.800735,0.000000,0.102707,-0.194000,0.000000,-0.016000,-0.047000,-0.041000,1.650000,30.590000,0.130000,-41.920271,Hold,0.014648,0.000000,Hold,-170.000000,2.000000,Suck,-1755.000000,1818.181818,Speed,-1725.000000,1818.181818,Speed,Off,On,0.000000,FALSE,10,,,,,0.000000,0.000000,-0.050000
11:14:03.780 AM 04/28/2016,Teleop Enabled,10,FALSE,0,NO ERROR,-0.000000,0.000000,-0.000000,0.000000,TRUE,FALSE,FALSE,FALSE,FALSE,FALSE,Disabled,0.000000,0.000000,0.000000,TRUE,-0.371628,1.788269,0.000000,0.023392,-0.202255,0.000000,-0.003000,-0.013000,-0.005000,1.650000,30.580000,0.280000,-42.088337,Hold,0.014648,0.000000,Hold,-170.000000,2.000000,Suck,-1755.000000,1818.181818,Speed,-1732.500000,1818.181818,Speed,Off,On,0.000000,FALSE,10,,,,,0.000000,0.000000,-0.050000
11:14:03.881 AM 04/28/2016,Teleop Enabled,11,FALSE,0,NO ERROR,-0.000000,0.000000,-0.000000,0.000000,TRUE,FALSE,FALSE,FALSE,FALSE,FALSE,Disabled,0.000000,0.000000,0.000000,TRUE,-0.369705,1.777191,0.000000,0.052475,-0.224487,0.000000,0.053000,-0.051000,-0.001000,1.590000,30.580000,0.440000,-42.254860,Hold,0.014648,0.000000,Hold,-170.000000,2.000000,Suck,-1755.000000,1818.181818,Speed,-1732.500000,1818.181818,Speed,Off,On,0.000000,FALSE,10,,,,,0.000000,0.000000,-0.050000
11:14:03.982 AM 04/28/2016,Teleop Enabled,9,FALSE,0,NO ERROR,-0.000000,0.000000,-0.000000,0.000000,TRUE,FALSE,FALSE,FALSE,FALSE,FALSE,Disabled,0.000000,0.000000,0.000000,TRUE,-0.366806,1.767624,0.000000,0.071823,-0.244110,0.000000,0.039000,0.049000,0.023000,1.590000,30.570000,0.570000,-42.439829,Hold,0.014648,0.000000,Hold,-170.000000,2.000000,Suck,-1755.000000,1818.181818,Speed,-1725.000000,1818.181818,Speed,Off,On,0.000000,FALSE,10,,,,,0.000000,0.000000,-0.050000
11:14:04.082 AM 04/28/2016,Teleop Enabled,10,FALSE,0,NO ERROR,-0.000000,0.000000,-0.000000,0.000000,TRUE,FALSE,FALSE,FALSE,FALSE,FALSE,Disabled,0.000000,0.000000,0.000000,TRUE,-0.362259,1.754318,0.000000,0.059631,-0.208405,0.000000,0.033000,0.018000,-0.005000,1.660000,30.570000,0.520000,-42.596679,Hold,0.014648,0.000000,Hold,-170.000000,2.000000,Suck,-1762.500000,1818.181818,Speed,-1732.500000,1818.181818,Speed,Off,On,0.000000,FALSE,10,,,,,0.000000,0.000000,-0.050000
11:14:04.182 AM 04/28/2016,Teleop Enabled,9,FALSE,0,NO ERROR,-0.000000,0.000000,-0.000000,0.000000,TRUE,FALSE,FALSE,FALSE,FALSE,FALSE,Disabled,0.000000,0.000000,0.000000,TRUE,-0.359085,1.745346,0.000000,0.060440,-0.180298,0.000000,0.035000,0.017000,0.078000,1.770000,30.570000,0.490000,-42.760410,Hold,0.014648,0.000000,Hold,-170.000000,2.000000,Suck,-1755.000000,1818.181818,Speed,-1740.000000,1818.181818,Speed,Off,On,0.000000,FALSE,10,,,,,0.000000,0.000000,-0.050000
11:14:04.282 AM 04/28/2016,Teleop Enabled,4,FALSE,0,NO ERROR,-0.000000,0.000000,-0.000000,0.000000,TRUE,FALSE,FALSE,FALSE,FALSE,FALSE,Disabled,0.000000,0.000000,0.000000,TRUE,-0.355621,1.736511,0.000000,0.073074,-0.173248,0.000000,0.033000,-0.086000,-0.055000,1.780000,30.570000,0.610000,-42.921522,Hold,0.014648,0.000000,Hold,-170.000000,2.000000,Suck,-1755.000000,1818.181818,Speed,-1740.000000,1818.181818,Speed,Off,On,0.000000,FALSE,10,,,,,0.000000,0.000000,-0.050000
11:14:04.382 AM 04/28/2016,Teleop Enabled,4,FALSE,0,NO ERROR,-0.000000,0.000000,-0.000000,0.000000,TRUE,FALSE,FALSE,FALSE,FALSE,FALSE,Disabled,0.000000,0.000000,0.000000,TRUE,-0.352310,1.726837,0.000000,0.000000,-0.205185,0.000000,0.011000,-0.080000,-0.072000,1.740000,30.570000,0.760000,-43.073514,Hold,0.014648,0.000000,Hold,-170.000000,2.000000,Suck,-1762.500000,1818.181818,Speed,-1732.500000,1818.181818,Speed,Off,On,0.000000,FALSE,10,,,,,0.000000,0.000000,-0.050000
11:14:04.482 AM 04/28/2016,Teleop Enabled,9,FALSE,0,NO ERROR,-0.000000,0.000000,-0.000000,0.000000,TRUE,FALSE,FALSE,FALSE,FALSE,FALSE,Disabled,0.000000,0.000000,0.000000,TRUE,-0.351791,1.722488,0.000000,0.014130,0.005630,0.000000,0.013000,-0.066000,-0.030000,1.720000,30.560000,0.910000,-43.258149,Hold,0.014648,0.000000,Hold,-170.000000,2.000000,Suck,-1755.000000,1818.181818,Speed,-1732.500000,1818.181818,Speed,Off,On,0.000000,FALSE,10,,,,,0.000000,0.000000,-0.050000
11:14:04.582 AM 04/28/2016,Teleop Enabled,10,FALSE,0,NO ERROR,-0.000000,0.000000,-0.000000,0.000000,TRUE,FALSE,FALSE,FALSE,FALSE,FALSE,Disabled,0.000000,0.000000,0.000000,TRUE,-0.351410,1.722305,0.000000,0.013168,0.003754,0.000000,0.000000,-0.104000,-0.023000,1.750000,30.560000,1.000000,-43.420775,Hold,0.014648,0.000000,Hold,-170.000000,2.000000,Suck,-1762.500000,1818.181818,Speed,-1740.000000,1818.181818,Speed,Off,On,0.000000,FALSE,10,,,,,0.000000,0.000000,-0.050000
11:14:04.682 AM 04/28/2016,Teleop Enabled,10,FALSE,0,NO ERROR,-0.000000,0.000000,-0.000000,0.000000,TRUE,FALSE,FALSE,FALSE,FALSE,FALSE,Disabled,0.000000,0.000000,0.000000,TRUE,-0.351181,1.721130,0.000000,0.005020,-0.019287,0.000000,0.030000,-0.025000,0.001000,1.710000,30.560000,1.130000,-43.591364,Hold,0.014648,0.000000,Hold,-170.000000,2.000000,Suck,-1762.500000,1818.181818,Speed,-1732.500000,1818.181818,Speed,Off,On,0.000000,FALSE,10,,,,,0.000000,0.000000,-0.050000
11:14:04.782 AM 04/28/2016,Teleop Enabled,10,FALSE,0,NO ERROR,-0.000000,0.000000,-0.000000,0.000000,TRUE,FALSE,FALSE,FALSE,FALSE,FALSE,Disabled,0.000000,0.000000,0.000000,TRUE,-0.350723,1.719727,0.000000,0.005737,-0.026077,0.000000,0.013000,-0.055000,0.000000,1.680000,30.560000,1.140000,-43.753557,Hold,0.014648,0.000000,Hold,-170.000000,2.000000,Suck,-1755.000000,1818.181818,Speed,-1740.000000,1818.181818,Speed,Off,On,0.000000,FALSE,10,,,,,0.000000,0.000000,-0.050000
11:14:04.882 AM 04/28/2016,Teleop Enabled,11,FALSE,0,NO ERROR,-0.000000,0.000000,-0.000000,0.000000,TRUE,FALSE,FALSE,FALSE,FALSE,FALSE,Disabled,0.000000,0.000000,0.000000,TRUE,-0.350586,1.717819,0.000000,0.003754,-0.034927,0.000000,0.023000,-0.011000,-0.010000,1.650000,30.560000,1.120000,-43.906909,Hold,0.014648,0.000000,Hold,-170.000000,2.000000,Suck,-1762.500000,1818.181818,Speed,-1740.000000,1818.181818,Speed,Off,On,0.000000,FALSE,10,,,,,0.000000,0.000000,-0.050000
11:14:04.983 AM 04/28/2016,Teleop Enabled,13,FALSE,0,NO ERROR,-0.000000,0.000000,-0.000000,0.000000,TRUE,FALSE,FALSE,FALSE,FALSE,FALSE,Disabled,0.000000,0.000000,0.000000,TRUE,-0.350418,1.717392,0.000000,0.005463,-0.013428,0.000000,0.067000,0.024000,0.038000,1.600000,30.560000,1.150000,-44.076328,Hold,0.014648,0.000000,Hold,-170.000000,2.000000,Suck,-1762.500000,1818.181818,Speed,-1740.000000,1818.181818,Speed,Off,On,0.000000,FALSE,10,,,,,0.000000,0.000000,-0.050000
11:14:05.083 AM 04/28/2016,Teleop Enabled,9,FALSE,0,NO ERROR,-0.000000,0.000000,-0.000000,0.000000,TRUE,FALSE,FALSE,FALSE,FALSE,FALSE,Disabled,0.000000,0.000000,0.000000,TRUE,-0.350128,1.717224,0.000000,-0.003357,-0.010986,0.000000,-0.001000,-0.050000,-0.006000,1.620000,30.560000,1.170000,-44.247905,Hold,0.014648,0.000000,Hold,-170.000000,2.000000,Suck,-1755.000000,1818.181818,Speed,-1740.000000,1818.181818,Speed,Off,On,0.000000,FALSE,10,,,,,0.000000,0.000000,-0.050000
11:14:05.183 AM 04/28/2016,Teleop Enabled,9,FALSE,0,NO ERROR,-0.000000,0.000000,-0.000000,0.000000,TRUE,FALSE,FALSE,FALSE,FALSE,FALSE,Disabled,0.000000,0.000000,0.000000,TRUE,-0.350128,1.717438,0.000000,0.003998,0.009537,0.000000,-0.007000,0.060000,0.015000,1.600000,30.560000,1.140000,-44.409778,Hold,0.014648,0.000000,Hold,-170.000000,2.000000,Suck,-1755.000000,1818.181818,Speed,-1732.500000,1818.181818,Speed,Off,On,0.000000,FALSE,10,,,,,0.000000,0.000000,-0.050000
11:14:05.284 AM 04/28/2016,Teleop Enabled,10,FALSE,0,NO ERROR,-0.000000,0.000000,-0.000000,0.000000,TRUE,FALSE,FALSE,FALSE,FALSE,FALSE,Disabled,0.000000,0.000000,0.000000,TRUE,-0.350449,1.717102,0.000000,-0.005920,-0.015839,0.000000,-0.020000,-0.017000,-0.033000,1.510000,30.560000,1.180000,-44.576511,Hold,0.014648,0.000000,Hold,-170.000000,2.000000,Suck,-1762.500000,1818.181818,Speed,-1740.000000,1818.181818,Speed,Off,On,0.000000,FALSE,10,,,,,0.000000,0.000000,-0.050000
11:14:05.385 AM 04/28/2016,Teleop Enabled,12,FALSE,0,NO ERROR,-0.000000,0.000000,-0.000000,0.000000,TRUE,FALSE,FALSE,FALSE,FALSE,FALSE,Disabled,0.000000,0.000000,0.000000,TRUE,-0.351212,1.716827,0.000000,-0.016083,0.000000,0.000000,-0.131000,-0.037000,-0.074000,1.430000,30.560000,1.160000,-44.798800,Hold,0.014648,0.000000,Hold,-170.000000,2.000000,Suck,-1762.500000,1818.181818,Speed,-1747.500000,1818.181818,Speed,Off,On,0.000000,FALSE,10,,,,,0.000000,0.000000,-0.050000
11:14:05.486 AM 04/28/2016,Teleop Enabled,13,FALSE,0,NO ERROR,-0.000000,0.000000,-0.000000,0.000000,TRUE,FALSE,FALSE,FALSE,FALSE,FALSE,Disabled,0.000000,0.000000,0.000000,TRUE,-0.352295,1.717468,0.000000,-0.016724,0.038605,0.000000,-0.131000,-0.037000,-0.074000,1.440000,30.570000,0.920000,-44.991350,Hold,0.014648,0.000000,Hold,-170.000000,2.000000,Suck,-1755.000000,1818.181818,Speed,-1740.000000,1818.181818,Speed,Off,On,0.000000,FALSE,10,,,,,0.000000,0.000000,-0.050000
11:14:05.587 AM 04/28/2016,Teleop Enabled,14,FALSE,0,NO ERROR,-0.000000,0.000000,-0.000000,0.000000,TRUE,FALSE,FALSE,FALSE,FALSE,FALSE,Disabled,0.000000,0.000000,0.000000,TRUE,-0.354904,1.719131,0.000000,-0.075760,0.044174,0.000000,-0.059000,0.052000,-0.041000,1.550000,30.560000,0.550000,-45.162847,Hold,0.014648,0.000000,Hold,-170.000000,2.000000,Suck,-1762.500000,1818.181818,Speed,-1740.000000,1818.181818,Speed,Off,On,0.000000,FALSE,10,,,,,0.000000,0.000000,-0.050000
11:14:05.687 AM 04/28/2016,Teleop Enabled,15,FALSE,0,NO ERROR,-0.000000,0.000000,-0.000000,0.000000,TRUE,FALSE,FALSE,FALSE,FALSE,FALSE,Disabled,0.000000,0.000000,0.000000,TRUE,-0.360199,1.721710,0.000000,-0.127335,0.058228,0.000000,0.012000,0.059000,-0.013000,1.570000,30.570000,0.340000,-45.320895,Hold,0.014648,0.000000,Hold,-170.000000,2.000000,Suck,-1762.500000,1818.181818,Speed,-1740.000000,1818.181818,Speed,Off,On,0.000000,FALSE,10,,,,,0.000000,0.000000,-0.050000
11:14:05.787 AM 04/28/2016,Teleop Enabled,12,FALSE,0,NO ERROR,-0.000000,0.000000,-0.000000,0.000000,TRUE,FALSE,FALSE,FALSE,FALSE,FALSE,Disabled,0.000000,0.000000,0.000000,TRUE,-0.367920,1.725403,0.000000,-0.177536,0.074387,0.000000,0.027000,0.088000,0.025000,1.580000,30.570000,0.120000,-45.493805,Hold,0.014648,0.000000,Hold,-170.000000,2.000000,Suck,-1762.500000,1818.181818,Speed,-1740.000000,1818.181818,Speed,Off,On,0.000000,FALSE,10,,,,,0.000000,0.000000,-0.050000
11:14:05.888 AM 04/28/2016,Teleop Enabled,14,FALSE,0,NO ERROR,-0.000000,0.000000,-0.000000,0.000000,TRUE,FALSE,FALSE,FALSE,FALSE,FALSE,Disabled,0.000000,0.000000,0.000000,TRUE,-0.376801,1.727280,0.000000,-0.174133,-0.003204,0.000000,0.020000,0.176000,0.056000,1.590000,30.590000,0.050000,-45.619365,Hold,0.014648,0.000000,Hold,-170.000000,2.000000,Suck,-1755.000000,1818.181818,Speed,-1740.000000,1818.181818,Speed,Off,On,0.000000,FALSE,10,,,,,0.000000,0.000000,-0.050000
11:14:05.989 AM 04/28/2016,Teleop Enabled,16,FALSE,0,NO ERROR,-0.000000,0.000000,-0.000000,0.000000,TRUE,FALSE,FALSE,FALSE,FALSE,FALSE,Disabled,0.000000,0.000000,0.000000,TRUE,-0.388138,1.727524,0.000000,-0.197342,0.016708,0.000000,0.000000,0.063000,0.010000,1.590000,30.590000,0.050000,-45.799414,Hold,0.014648,0.000000,Hold,-170.000000,2.000000,Suck,-1762.500000,1818.181818,Speed,-1740.000000,1818.181818,Speed,Off,On,0.000000,FALSE,10,,,,,0.000000,0.000000,-0.050000
11:14:06.090 AM 04/28/2016,Teleop Enabled,8,FALSE,0,NO ERROR,-0.000000,0.000000,-0.000000,0.000000,TRUE,FALSE,FALSE,FALSE,FALSE,FALSE,Disabled,0.000000,0.000000,0.000000,TRUE,-0.390152,1.729263,0.000000,-0.008011,0.040588,0.000000,0.012000,0.040000,0.000000,1.640000,30.580000,-0.060000,-45.966540,Hold,0.014648,0.000000,Hold,-170.000000,2.000000,Suck,-1762.500000,1818.181818,Speed,-1740.000000,1818.181818,Speed,Off,On,0.000000,FALSE,10,,,,,0.000000,0.000000,-0.050000
11:14:06.190 AM 04/28/2016,Teleop Enabled,11,FALSE,0,NO ERROR,-0.000000,0.000000,-0.000000,0.000000,TRUE,FALSE,FALSE,FALSE,FALSE,FALSE,Disabled,0.000000,0.000000,0.000000,TRUE,-0.390320,1.730637,0.000000,-0.003204,0.036682,0.000000,-0.014000,-0.003000,0.005000,1.700000,30.580000,-0.090000,-46.135738,Hold,0.014648,0.000000,Hold,-170.000000,2.000000,Suck,-1762.500000,1818.181818,Speed,-1740.000000,1818.181818,Speed,Off,On,0.000000,FALSE,10,,,,,0.000000,0.000000,-0.050000
11:14:06.291 AM 04/28/2016,Teleop Enabled,11,FALSE,0,NO ERROR,-0.000000,0.000000,-0.000000,0.000000,TRUE,FALSE,FALSE,FALSE,FALSE,FALSE,Disabled,0.000000,0.000000,0.000000,TRUE,-0.390320,1.733643,0.000000,0.000000,0.053879,0.000000,0.000000,-0.041000,0.022000,1.760000,30.580000,-0.170000,-46.293380,Hold,0.014648,0.000000,Hold,-170.000000,2.000000,Suck,-1762.500000,1818.181818,Speed,-1747.500000,1818.181818,Speed,Off,On,0.000000,FALSE,10,,,,,0.000000,0.000000,-0.050000
11:14:06.392 AM 04/28/2016,Teleop Enabled,11,FALSE,0,NO ERROR,-0.000000,0.000000,-0.000000,0.000000,TRUE,FALSE,FALSE,FALSE,FALSE,FALSE,Disabled,0.000000,0.000000,0.000000,TRUE,-0.389893,1.735352,0.000000,0.013840,0.033981,0.000000,-0.004000,-0.044000,-0.002000,1.760000,30.580000,-0.170000,-46.461928,Hold,0.014648,0.000000,Hold,-170.000000,2.000000,Suck,-1762.500000,1818.181818,Speed,-1740.000000,1818.181818,Speed,Off,On,0.000000,FALSE,10,,,,,0.000000,0.000000,-0.050000
11:14:06.492 AM 04/28/2016,Teleop Enabled,10,FALSE,0,NO ERROR,-0.000000,0.000000,-0.000000,0.000000,TRUE,FALSE,FALSE,FALSE,FALSE,FALSE,Disabled,0.000000,0.000000,0.000000,TRUE,-0.387390,1.736679,0.000000,0.053345,0.014343,0.000000,0.082000,-0.055000,0.017000,1.760000,30.580000,0.030000,-46.634641,Hold,0.014648,0.000000,Hold,-170.000000,2.000000,Suck,-1762.500000,1818.181818,Speed,-1740.000000,1818.181818,Speed,Off,On,0.000000,FALSE,10,,,,,0.000000,0.000000,-0.050000
11:14:06.592 AM 04/28/2016,Teleop Enabled,13,FALSE,0,NO ERROR,-0.000000,0.000000,-0.000000,0.000000,TRUE,FALSE,FALSE,FALSE,FALSE,FALSE,Disabled,0.000000,0.000000,0.000000,TRUE,-0.385696,1.736511,0.000000,0.000000,-0.011765,0.000000,0.024000,-0.046000,-0.026000,1.670000,30.580000,0.130000,-46.826928,Hold,0.014648,0.000000,Hold,-170.000000,2.000000,Suck,-1762.500000,1818.181818,Speed,-1747.500000,1818.181818,Speed,Off,On,0.000000,FALSE,10,,,,,0.000000,0.000000,-0.050000
11:14:06.693 AM 04/28/2016,Teleop Enabled,11,FALSE,0,NO ERROR,-0.000000,0.000000,-0.000000,0.000000,TRUE,FALSE,FALSE,FALSE,FALSE,FALSE,Disabled,0.000000,0.000000,0.000000,TRUE,-0.386261,1.736435,0.000000,-0.012741,0.000000,0.000000,-0.053000,0.015000,0.081000,1.680000,30.580000,-0.020000,-47.006706,Hold,0.014648,0.000000,Hold,-170.000000,2.000000,Suck,-1762.500000,1818.181818,Speed,-1740.000000,1818.181818,Speed,Off,On,0.000000,FALSE,10,,,,,0.000000,0.000000,-0.050000
11:14:06.795 AM 04/28/2016,Teleop Enabled,11,FALSE,0,NO ERROR,-0.000000,0.000000,-0.000000,0.000000,TRUE,FALSE,FALSE,FALSE,FALSE,FALSE,Disabled,0.000000,0.000000,0.000000,TRUE,-0.388107,1.737152,0.000000,-0.047897,0.028763,0.000000,-0.063000,0.047000,0.035000,1.720000,30.580000,-0.190000,-47.173525,Hold,0.014648,0.000000,Hold,-170.000000,2.000000,Suck,-1762.500000,1818.181818,Speed,-1740.000000,1818.181818,Speed,Off,On,0.000000,FALSE,10,,,,,0.000000,0.000000,-0.050000
11:14:06.896 AM 04/28/2016,Teleop Enabled,11,FALSE,0,NO ERROR,-0.000000,0.000000,-0.000000,0.000000,TRUE,FALSE,FALSE,FALSE,FALSE,FALSE,Disabled,0.000000,0.000000,0.000000,TRUE,-0.389175,1.738510,0.000000,-0.005768,-0.003708,0.000000,0.025000,0.109000,0.042000,1.720000,30.580000,-0.190000,-47.337818,Hold,0.014648,0.000000,Hold,-170.000000,2.000000,Suck,-1762.500000,1818.181818,Speed,-1747.500000,1818.181818,Speed,Off,On,0.000000,FALSE,10,,,,,0.000000,0.000000,-0.050000
11:14:06.998 AM 04/28/2016,Teleop Enabled,10,FALSE,0,NO ERROR,-0.000000,0.000000,-0.000000,0.000000,TRUE,FALSE,FALSE,FALSE,FALSE,FALSE,Disabled,0.000000,0.000000,0.000000,TRUE,-0.389175,1.738510,0.000000,-0.005768,-0.003708,0.000000,0.082000,-0.021000,-0.032000,1.750000,30.580000,-0.230000,-47.505890,Hold,0.014648,0.000000,Hold,-170.000000,2.000000,Suck,-1762.500000,1818.181818,Speed,-1755.000000,1818.181818,Speed,Off,On,0.000000,FALSE,10,,,,,0.000000,0.000000,-0.050000
11:14:07.099 AM 04/28/2016,Teleop Enabled,12,FALSE,0,NO ERROR,-0.000000,0.000000,-0.000000,0.000000,TRUE,FALSE,FALSE,FALSE,FALSE,FALSE,Disabled,0.000000,0.000000,0.000000,TRUE,-0.388550,1.736435,0.000000,0.029129,-0.050613,0.000000,0.084000,-0.012000,0.025000,1.680000,30.580000,-0.040000,-47.672300,Hold,0.014648,0.000000,Hold,-170.000000,2.000000,Suck,-1770.000000,1818.181818,Speed,-1747.500000,1818.181818,Speed,Off,On,0.000000,FALSE,10,,,,,0.000000,0.000000,-0.050000
11:14:07.202 AM 04/28/2016,Teleop Enabled,12,FALSE,0,NO ERROR,-0.000000,0.000000,-0.000000,0.000000,TRUE,FALSE,FALSE,FALSE,FALSE,FALSE,Disabled,0.000000,0.000000,0.000000,TRUE,-0.388184,1.736206,0.000000,-0.001511,-0.014023,0.000000,-0.020000,0.038000,0.017000,1.690000,30.580000,0.040000,-47.841078,Hold,0.014648,0.000000,Hold,-170.000000,2.000000,Suck,-1762.500000,1818.181818,Speed,-1747.500000,1818.181818,Speed,Off,On,0.000000,FALSE,10,,,,,0.000000,0.000000,-0.050000
11:14:07.303 AM 04/28/2016,Teleop Enabled,12,FALSE,0,NO ERROR,-0.000000,0.000000,-0.000000,0.000000,TRUE,FALSE,FALSE,FALSE,FALSE,FALSE,Disabled,0.000000,0.000000,0.000000,TRUE,-0.389267,1.734879,0.000000,-0.015442,-0.015350,0.000000,-0.079000,0.000000,-0.045000,1.660000,30.580000,-0.020000,-48.000710,Hold,0.014648,0.000000,Hold,-170.000000,2.000000,Suck,-1762.500000,1818.181818,Speed,-1740.000000,1818.181818,Speed,Off,On,0.000000,FALSE,10,,,,,0.000000,0.000000,-0.050000
11:14:07.405 AM 04/28/2016,Teleop Enabled,11,FALSE,0,NO ERROR,-0.000000,0.000000,-0.000000,0.000000,TRUE,FALSE,FALSE,FALSE,FALSE,FALSE,Disabled,0.000000,0.000000,0.000000,TRUE,-0.391037,1.733170,0.000000,-0.049133,-0.031448,0.000000,-0.058000,-0.095000,-0.116000,1.580000,30.580000,0.000000,-48.152530,Hold,0.014648,0.000000,Hold,-170.000000,2.000000,Suck,-1770.000000,1818.181818,Speed,-1747.500000,1818.181818,Speed,Off,On,0.000000,FALSE,10,,,,,0.000000,0.000000,-0.050000
11:14:07.508 AM 04/28/2016,Teleop Enabled,10,FALSE,0,NO ERROR,-0.000000,0.000000,-0.000000,0.000000,TRUE,FALSE,FALSE,FALSE,FALSE,FALSE,Disabled,0.000000,0.000000,0.000000,TRUE,-0.392502,1.733261,0.000000,-0.039001,0.000000,0.000000,-0.016000,0.087000,-0.013000,1.520000,30.580000,-0.130000,-48.322458,Hold,0.014648,0.000000,Hold,-170.000000,2.000000,Suck,-1762.500000,1818.181818,Speed,-1747.500000,1818.181818,Speed,Off,On,0.000000,FALSE,10,,,,,0.000000,0.000000,-0.050000
11:14:07.611 AM 04/28/2016,Teleop Enabled,13,FALSE,0,NO ERROR,-0.000000,0.000000,-0.000000,0.000000,TRUE,FALSE,FALSE,FALSE,FALSE,FALSE,Disabled,0.000000,0.000000,0.000000,TRUE,-0.394775,1.733704,0.000000,-0.052567,0.020416,0.000000,-0.099000,0.013000,-0.047000,1.590000,30.590000,-0.380000,-48.473239,Hold,0.014648,0.000000,Hold,-170.000000,2.000000,Suck,-1762.500000,1818.181818,Speed,-1747.500000,1818.181818,Speed,Off,On,0.000000,FALSE,10,,,,,0.000000,0.000000,-0.050000
11:14:07.712 AM 04/28/2016,Teleop Enabled,10,FALSE,0,NO ERROR,-0.000000,0.000000,-0.000000,0.000000,TRUE,FALSE,FALSE,FALSE,FALSE,FALSE,Disabled,0.000000,0.000000,0.000000,TRUE,-0.396347,1.734756,0.000000,0.000000,0.005508,0.000000,-0.028000,0.000000,0.029000,1.670000,30.590000,-0.490000,-48.647945,Hold,0.014648,0.000000,Hold,-170.000000,2.000000,Suck,-1770.000000,1818.181818,Speed,-1747.500000,1818.181818,Speed,Off,On,0.000000,FALSE,10,,,,,0.000000,0.000000,-0.050000
11:14:07.812 AM 04/28/2016,Teleop Enabled,13,FALSE,0,NO ERROR,-0.000000,0.000000,-0.000000,0.000000,TRUE,FALSE,FALSE,FALSE,FALSE,FALSE,Disabled,0.000000,0.000000,0.000000,TRUE,-0.395340,1.734695,0.000000,0.027756,0.011398,0.000000,0.076000,-0.050000,-0.028000,1.700000,30.590000,-0.190000,-48.808393,Hold,0.014648,0.000000,Hold,-170.000000,2.000000,Suck,-1770.000000,1818.181818,Speed,-1747.500000,1818.181818,Speed,Off,On,0.000000,FALSE,10,,,,,0.000000,0.000000,-0.050000
11:14:07.913 AM 04/28/2016,Teleop Enabled,12,FALSE,0,NO ERROR,-0.000000,0.000000,-0.000000,0.000000,TRUE,FALSE,FALSE,FALSE,FALSE,FALSE,Disabled,0.000000,0.000000,0.000000,TRUE,-0.392700,1.734634,0.000000,0.058624,-0.010925,0.000000,0.094000,-0.046000,0.024000,1.690000,30.590000,-0.060000,-48.979422,Hold,0.014648,0.000000,Hold,-170.000000,2.000000,Suck,-1762.500000,1818.181818,Speed,-1747.500000,1818.181818,Speed,Off,On,0.000000,FALSE,10,,,,,0.000000,0.000000,-0.050000
11:14:08.014 AM 04/28/2016,Teleop Enabled,13,FALSE,0,NO ERROR,-0.000000,0.000000,-0.000000,0.000000,TRUE,FALSE,FALSE,FALSE,FALSE,FALSE,Disabled,0.000000,0.000000,0.000000,TRUE,-0.389633,1.733398,0.000000,0.057266,-0.018784,0.000000,0.032000,-0.065000,-0.044000,1.690000,30.590000,-0.060000,-49.154556,Hold,0.014648,0.000000,Hold,-170.000000,2.000000,Suck,-1770.000000,1818.181818,Speed,-1747.500000,1818.181818,Speed,Off,On,0.000000,FALSE,10,,,,,0.000000,0.000000,-0.050000
11:14:08.116 AM 04/28/2016,Teleop Enabled,12,FALSE,0,NO ERROR,-0.000000,0.000000,-0.000000,0.000000,TRUE,FALSE,FALSE,FALSE,FALSE,FALSE,Disabled,0.000000,0.000000,0.000000,TRUE,-0.387421,1.732864,0.000000,0.000000,-0.012222,0.000000,0.006000,-0.029000,-0.011000,1.660000,30.580000,-0.110000,-49.309584,Hold,0.014648,0.000000,Hold,-170.000000,2.000000,Suck,-1770.000000,1818.181818,Speed,-1747.500000,1818.181818,Speed,Off,On,0.000000,FALSE,10,,,,,0.000000,0.000000,-0.050000
11:14:08.217 AM 04/28/2016,Teleop Enabled,12,FALSE,0,NO ERROR,-0.000000,0.000000,-0.000000,0.000000,TRUE,FALSE,FALSE,FALSE,FALSE,FALSE,Disabled,0.000000,0.000000,0.000000,TRUE,-0.388153,1.732422,0.000000,-0.019455,0.009216,0.000000,-0.071000,-0.081000,-0.101000,1.670000,30.590000,-0.160000,-49.505610,Hold,0.014648,0.000000,Hold,-170.000000,2.000000,Suck,-1770.000000,1818.181818,Speed,-1755.000000,1818.181818,Speed,Off,On,0.000000,FALSE,10,,,,,0.000000,0.000000,-0.050000
11:14:08.323 AM 04/28/2016,Teleop Enabled,10,FALSE,0,NO ERROR,-0.000000,0.000000,-0.000000,0.000000,TRUE,FALSE,FALSE,FALSE,FALSE,FALSE,Disabled,0.000000,0.000000,0.000000,TRUE,-0.390198,1.734253,0.000000,-0.051437,0.037415,0.000000,-0.098000,0.086000,-0.043000,1.720000,30.590000,-0.330000,-49.669690,Hold,0.014648,0.000000,Hold,-170.000000,2.000000,Suck,-1770.000000,1818.181818,Speed,-1755.000000,1818.181818,Speed,Off,On,0.000000,FALSE,10,,,,,0.000000,0.000000,-0.050000
11:14:08.419 AM 04/28/2016,Teleop Enabled,11,FALSE,0,NO ERROR,-0.000000,0.000000,-0.000000,0.000000,TRUE,FALSE,FALSE,FALSE,FALSE,FALSE,Disabled,0.000000,0.000000,0.000000,TRUE,-0.390198,1.734253,0.000000,-0.051437,0.037415,0.000000,0.014000,0.046000,-0.032000,1.720000,30.590000,-0.330000,-49.831820,Hold,0.014648,0.000000,Hold,-170.000000,2.000000,Suck,-1770.000000,1818.181818,Speed,-1747.500000,1818.181818,Speed,Off,On,0.000000,FALSE,10,,,,,0.000000,0.000000,-0.050000
11:14:08.519 AM 04/28/2016,Teleop Enabled,12,FALSE,0,NO ERROR,-0.000000,0.000000,-0.000000,0.000000,TRUE,FALSE,FALSE,FALSE,FALSE,FALSE,Disabled,0.000000,0.000000,0.000000,TRUE,-0.392502,1.736420,0.000000,-0.032562,0.045563,0.000000,0.055000,0.028000,0.061000,1.730000,30.580000,-0.230000,-50.006299,Hold,0.014648,0.000000,Hold,-170.000000,2.000000,Suck,-1770.000000,1818.181818,Speed,-1747.500000,1818.181818,Speed,Off,On,0.000000,FALSE,10,,,,,0.000000,0.000000,-0.050000
11:14:08.622 AM 04/28/2016,Teleop Enabled,11,FALSE,0,NO ERROR,-0.000000,0.000000,-0.000000,0.000000,TRUE,FALSE,FALSE,FALSE,FALSE,FALSE,Disabled,0.000000,0.000000,0.000000,TRUE,-0.394043,1.739227,0.000000,-0.034180,0.044769,0.000000,0.036000,-0.059000,0.011000,1.750000,30.580000,-0.240000,-50.158547,Hold,0.014648,0.000000,Hold,-170.000000,2.000000,Suck,-1762.500000,1818.181818,Speed,-1755.000000,1818.181818,Speed,Off,On,0.000000,FALSE,10,,,,,0.000000,0.000000,-0.050000
11:14:08.723 AM 04/28/2016,Teleop Enabled,9,FALSE,0,NO ERROR,-0.000000,0.000000,-0.000000,0.000000,TRUE,FALSE,FALSE,FALSE,FALSE,FALSE,Disabled,0.000000,0.000000,0.000000,TRUE,-0.394363,1.740814,0.000000,0.006256,0.026520,0.000000,-0.020000,-0.018000,0.048000,1.680000,30.580000,-0.250000,-50.337567,Hold,0.014648,0.000000,Hold,-170.000000,2.000000,Suck,-1770.000000,1818.181818,Speed,-1747.500000,1818.181818,Speed,Off,On,0.000000,FALSE,10,,,,,0.000000,0.000000,-0.050000
11:14:08.823 AM 04/28/2016,Teleop Enabled,12,FALSE,0,NO ERROR,-0.000000,0.000000,-0.000000,0.000000,TRUE,FALSE,FALSE,FALSE,FALSE,FALSE,Disabled,0.000000,0.000000,0.000000,TRUE,-0.394943,1.743134,0.000000,-0.017990,0.043045,0.000000,-0.044000,0.034000,0.000000,1.630000,30.580000,-0.270000,-50.522921,Hold,0.014648,0.000000,Hold,-170.000000,2.000000,Suck,-1770.000000,1818.181818,Speed,-1755.000000,1818.181818,Speed,Off,On,0.000000,FALSE,10,,,,,0.000000,0.000000,-0.050000
11:14:08.924 AM 04/28/2016,Teleop Enabled,10,FALSE,0,NO ERROR,-0.000000,0.000000,-0.000000,0.000000,TRUE,FALSE,FALSE,FALSE,FALSE,FALSE,Disabled,0.000000,0.000000,0.000000,TRUE,-0.396027,1.746429,0.000000,-0.027115,0.062164,0.000000,-0.023000,0.129000,0.060000,1.740000,30.580000,-0.450000,-50.675777,Hold,0.014648,0.000000,Hold,-170.000000,2.000000,Suck,-1770.000000,1818.181818,Speed,-1755.000000,1818.181818,Speed,Off,On,0.000000,FALSE,10,,,,,0.000000,0.000000,-0.050000
11:14:09.024 AM 04/28/2016,Teleop Enabled,10,FALSE,0,NO ERROR,-0.000000,0.000000,-0.000000,0.000000,TRUE,FALSE,FALSE,FALSE,FALSE,FALSE,Disabled,0.000000,0.000000,0.000000,TRUE,-0.396027,1.746429,0.000000,-0.027115,0.062164,0.000000,0.087000,-0.049000,0.033000,1.760000,30.580000,-0.440000,-50.848969,Hold,0.014648,0.000000,Hold,-170.000000,2.000000,Suck,-1770.000000,1818.181818,Speed,-1755.000000,1818.181818,Speed,Off,On,0.000000,FALSE,10,,,,,0.000000,0.000000,-0.050000
11:14:09.127 AM 04/28/2016,Teleop Enabled,10,FALSE,0,NO ERROR,-0.000000,0.000000,-0.000000,0.000000,TRUE,FALSE,FALSE,FALSE,FALSE,FALSE,Disabled,0.000000,0.000000,0.000000,TRUE,-0.396118,1.748047,0.000000,0.009186,0.019836,0.000000,0.041000,0.021000,-0.025000,1.660000,30.570000,-0.250000,-51.012576,Hold,0.014648,0.000000,Hold,-170.000000,2.000000,Suck,-1770.000000,1818.181818,Speed,-1755.000000,1818.181818,Speed,Off,On,0.000000,FALSE,10,,,,,0.000000,0.000000,-0.050000
11:14:09.225 AM 04/28/2016,Teleop Enabled,10,FALSE,0,NO ERROR,-0.000000,0.000000,-0.000000,0.000000,TRUE,FALSE,FALSE,FALSE,FALSE,FALSE,Disabled,0.000000,0.000000,0.000000,TRUE,-0.395752,1.748535,0.000000,-0.003296,0.003143,0.000000,-0.059000,0.091000,-0.041000,1.700000,30.580000,-0.320000,-51.012576,Hold,0.014648,0.000000,Hold,-170.000000,2.000000,Suck,-1770.000000,1818.181818,Speed,-1747.500000,1818.181818,Speed,Off,On,0.000000,FALSE,10,,,,,0.000000,0.000000,-0.050000
11:14:09.325 AM 04/28/2016,Teleop Enabled,9,FALSE,0,NO ERROR,-0.000000,0.000000,-0.000000,0.000000,TRUE,FALSE,FALSE,FALSE,FALSE,FALSE,Disabled,0.000000,0.000000,0.000000,TRUE,-0.397385,1.749481,0.000000,-0.047073,0.028229,0.000000,0.011000,0.057000,0.054000,1.700000,30.580000,-0.490000,-51.181513,Hold,0.014648,0.000000,Hold,-170.000000,2.000000,Suck,-1770.000000,1818.181818,Speed,-1747.500000,1818.181818,Speed,Off,On,0.000000,FALSE,10,,,,,0.000000,0.000000,-0.050000
11:14:09.425 AM 04/28/2016,Teleop Enabled,9,FALSE,0,NO ERROR,-0.000000,0.000000,-0.000000,0.000000,TRUE,FALSE,FALSE,FALSE,FALSE,FALSE,Disabled,0.000000,0.000000,0.000000,TRUE,-0.398010,1.751923,0.000000,-0.013672,0.052078,0.000000,-0.028000,0.030000,0.012000,1.700000,30.580000,-0.540000,-51.377216,Hold,0.014648,0.000000,Hold,-170.000000,2.000000,Suck,-1770.000000,1818.181818,Speed,-1755.000000,1818.181818,Speed,Off,On,0.000000,FALSE,10,,,,,0.000000,0.000000,-0.050000
11:14:09.526 AM 04/28/2016,Teleop Enabled,11,FALSE,0,NO ERROR,-0.000000,0.000000,-0.000000,0.000000,TRUE,FALSE,FALSE,FALSE,FALSE,FALSE,Disabled,0.000000,0.000000,0.000000,TRUE,-0.397919,1.754929,0.000000,0.018753,0.064560,0.000000,-0.013000,0.023000,-0.017000,1.750000,30.570000,-0.520000,-51.539863,Hold,0.014648,0.000000,Hold,-170.000000,2.000000,Suck,-1770.000000,1818.181818,Speed,-1755.000000,1818.181818,Speed,Off,On,0.000000,FALSE,10,,,,,0.000000,0.000000,-0.050000
11:14:09.626 AM 04/28/2016,Teleop Enabled,10,FALSE,0,NO ERROR,-0.000000,0.000000,-0.000000,0.000000,TRUE,FALSE,FALSE,FALSE,FALSE,FALSE,Disabled,0.000000,0.000000,0.000000,TRUE,-0.397919,1.758286,0.000000,-0.009186,0.059982,0.000000,-0.012000,0.067000,0.021000,1.760000,30.570000,-0.510000,-51.707095,Hold,0.014648,0.000000,Hold,-170.000000,2.000000,Suck,-1770.000000,1818.181818,Speed,-1762.500000,1818.181818,Speed,Off,On,0.000000,FALSE,10,,,,,0.000000,0.000000,-0.050000
11:14:09.726 AM 04/28/2016,Teleop Enabled,10,FALSE,0,NO ERROR,-0.000000,0.000000,-0.000000,0.000000,TRUE,FALSE,FALSE,FALSE,FALSE,FALSE,Disabled,0.000000,0.000000,0.000000,TRUE,-0.398819,1.761337,0.000000,0.000000,0.065414,0.000000,0.016000,-0.045000,-0.018000,1.680000,30.580000,-0.580000,-51.874641,Hold,0.014648,0.000000,Hold,-170.000000,2.000000,Suck,-1770.000000,1818.181818,Speed,-1755.000000,1818.181818,Speed,Off,On,0.000000,FALSE,10,,,,,0.000000,0.000000,-0.050000
11:14:09.826 AM 04/28/2016,Teleop Enabled,8,FALSE,0,NO ERROR,-0.000000,0.000000,-0.000000,0.000000,TRUE,FALSE,FALSE,FALSE,FALSE,FALSE,Disabled,0.000000,0.000000,0.000000,TRUE,-0.398651,1.763962,0.000000,0.000000,0.068100,0.000000,0.028000,-0.029000,-0.025000,1.700000,30.580000,-0.620000,-52.038197,Hold,0.014648,0.000000,Hold,-170.000000,2.000000,Suck,-1770.000000,1818.181818,Speed,-1755.000000,1818.181818,Speed,Off,On,0.000000,FALSE,10,,,,,0.000000,0.000000,-0.050000
11:14:09.926 AM 04/28/2016,Teleop Enabled,10,FALSE,0,NO ERROR,-0.000000,0.000000,-0.000000,0.000000,TRUE,FALSE,FALSE,FALSE,FALSE,FALSE,Disabled,0.000000,0.000000,0.000000,TRUE,-0.397797,1.766953,0.000000,0.036774,0.054733,0.000000,0.038000,-0.003000,0.009000,1.720000,30.570000,-0.470000,-52.198658,Hold,0.014648,0.000000,Hold,-170.000000,2.000000,Suck,-1770.000000,1818.181818,Speed,-1755.000000,1818.181818,Speed,Off,On,0.000000,FALSE,10,,,,,0.000000,0.000000,-0.050000
11:14:10.027 AM 04/28/2016,Teleop Enabled,10,FALSE,0,NO ERROR,-0.000000,0.000000,-0.000000,0.000000,TRUE,FALSE,FALSE,FALSE,FALSE,FALSE,Disabled,0.000000,0.000000,0.000000,TRUE,-0.395111,1.770081,0.000000,0.038605,0.050003,0.000000,0.018000,-0.015000,-0.081000,1.700000,30.570000,-0.440000,-52.383493,Hold,0.014648,0.000000,Hold,-170.000000,2.000000,Suck,-1770.000000,1818.181818,Speed,-1755.000000,1818.181818,Speed,Off,On,0.000000,FALSE,10,,,,,0.000000,0.000000,-0.050000
11:14:10.128 AM 04/28/2016,Teleop Enabled,11,FALSE,0,NO ERROR,-0.000000,0.000000,-0.000000,0.000000,TRUE,FALSE,FALSE,FALSE,FALSE,FALSE,Disabled,0.000000,0.000000,0.000000,TRUE,-0.393295,1.769684,0.000000,0.042038,-0.013062,0.000000,0.037000,0.009000,0.009000,1.670000,30.570000,-0.420000,-52.541964,Hold,0.014648,0.000000,Hold,-170.000000,2.000000,Suck,-1777.500000,1818.181818,Speed,-1755.000000,1818.181818,Speed,Off,On,0.000000,FALSE,10,,,,,0.000000,0.000000,-0.050000
11:14:10.228 AM 04/28/2016,Teleop Enabled,11,FALSE,0,NO ERROR,-0.000000,0.000000,-0.000000,0.000000,TRUE,FALSE,FALSE,FALSE,FALSE,FALSE,Disabled,0.000000,0.000000,0.000000,TRUE,-0.391327,1.769669,0.000000,0.029755,0.008850,0.000000,-0.026000,-0.055000,-0.058000,1.690000,30.580000,-0.500000,-52.718388,Hold,0.014648,0.000000,Hold,-170.000000,2.000000,Suck,-1770.000000,1818.181818,Speed,-1755.000000,1818.181818,Speed,Off,On,0.000000,FALSE,10,,,,,0.000000,0.000000,-0.050000
11:14:10.329 AM 04/28/2016,Teleop Enabled,10,FALSE,0,NO ERROR,-0.000000,0.000000,-0.000000,0.000000,TRUE,FALSE,FALSE,FALSE,FALSE,FALSE,Disabled,0.000000,0.000000,0.000000,TRUE,-0.390289,1.769836,0.000000,0.027542,0.001541,0.000000,0.056000,-0.043000,-0.045000,1.710000,30.580000,-0.500000,-52.875751,Hold,0.014648,0.000000,Hold,-170.000000,2.000000,Suck,-1770.000000,1818.181818,Speed,-1762.500000,1818.181818,Speed,Off,On,0.000000,FALSE,10,,,,,0.000000,0.000000,-0.050000
11:14:10.429 AM 04/28/2016,Teleop Enabled,10,FALSE,0,NO ERROR,-0.000000,0.000000,-0.000000,0.000000,TRUE,FALSE,FALSE,FALSE,FALSE,FALSE,Disabled,0.000000,0.000000,0.000000,TRUE,-0.387085,1.769516,0.000000,0.057419,0.000000,0.000000,-0.040000,-0.015000,-0.090000,1.680000,30.570000,-0.300000,-53.043992,Hold,0.014648,0.000000,Hold,-170.000000,2.000000,Suck,-1770.000000,1818.181818,Speed,-1762.500000,1818.181818,Speed,Off,On,0.000000,FALSE,10,,,,,0.000000,0.000000,-0.050000
11:14:10.529 AM 04/28/2016,Teleop Enabled,9,FALSE,0,NO ERROR,-0.000000,0.000000,-0.000000,0.000000,TRUE,FALSE,FALSE,FALSE,FALSE,FALSE,Disabled,0.000000,0.000000,0.000000,TRUE,-0.385574,1.770050,0.000000,0.018661,0.027695,0.000000,0.029000,0.086000,0.004000,1.670000,30.580000,-0.490000,-53.219996,Hold,0.014648,0.000000,Hold,-170.000000,2.000000,Suck,-1777.500000,1818.181818,Speed,-1762.500000,1818.181818,Speed,Off,On,0.000000,FALSE,10,,,,,0.000000,0.000000,-0.050000
11:14:10.630 AM 04/28/2016,Teleop Enabled,9,FALSE,0,NO ERROR,-0.000000,0.000000,-0.000000,0.000000,TRUE,FALSE,FALSE,FALSE,FALSE,FALSE,Disabled,0.000000,0.000000,0.000000,TRUE,-0.385483,1.771393,0.000000,0.000046,-0.004120,0.000000,-0.006000,-0.032000,0.034000,1.740000,30.570000,-0.530000,-53.399939,Hold,0.014648,0.000000,Hold,-170.000000,2.000000,Suck,-1770.000000,1818.181818,Speed,-1762.500000,1818.181818,Speed,Off,On,0.000000,FALSE,10,,,,,0.000000,0.000000,-0.050000
11:14:10.730 AM 04/28/2016,Teleop Enabled,9,FALSE,0,NO ERROR,-0.000000,0.000000,-0.000000,0.000000,TRUE,FALSE,FALSE,FALSE,FALSE,FALSE,Disabled,0.000000,0.000000,0.000000,TRUE,-0.385101,1.770508,0.000000,0.027039,-0.023712,0.000000,0.021000,-0.040000,0.063000,1.750000,30.570000,-0.380000,-53.566579,Hold,0.014648,0.000000,Hold,-170.000000,2.000000,Suck,-1777.500000,1818.181818,Speed,-1762.500000,1818.181818,Speed,Off,On,0.000000,FALSE,10,,,,,0.000000,0.000000,-0.050000
11:14:10.830 AM 04/28/2016,Teleop Enabled,10,FALSE,0,NO ERROR,-0.000000,0.000000,-0.000000,0.000000,TRUE,FALSE,FALSE,FALSE,FALSE,FALSE,Disabled,0.000000,0.000000,0.000000,TRUE,-0.383331,1.769211,0.000000,0.025604,-0.035751,0.000000,-0.028000,0.038000,-0.075000,1.710000,30.570000,-0.330000,-53.739688,Hold,0.014648,0.000000,Hold,-170.000000,2.000000,Suck,-1777.500000,1818.181818,Speed,-1755.000000,1818.181818,Speed,Off,On,0.000000,FALSE,10,,,,,0.000000,0.000000,-0.050000
11:14:10.930 AM 04/28/2016,Teleop Enabled,10,FALSE,0,NO ERROR,-0.000000,0.000000,-0.000000,0.000000,TRUE,FALSE,FALSE,FALSE,FALSE,FALSE,Disabled,0.000000,0.000000,0.000000,TRUE,-0.383133,1.768234,0.000000,-0.006790,-0.018417,0.000000,0.060000,0.104000,0.055000,1.710000,30.580000,-0.480000,-53.951753,Hold,0.014648,0.000000,Hold,-170.000000,2.000000,Suck,-1770.000000,1818.181818,Speed,-1755.000000,1818.181818,Speed,Off,On,0.000000,FALSE,10,,,,,0.000000,0.000000,-0.050000
11:14:11.030 AM 04/28/2016,Teleop Enabled,10,FALSE,0,NO ERROR,-0.000000,0.000000,-0.000000,0.000000,TRUE,FALSE,FALSE,FALSE,FALSE,FALSE,Disabled,0.000000,0.000000,0.000000,TRUE,-0.382874,1.768280,0.000000,0.014526,0.001785,0.000000,0.105000,-0.055000,0.012000,1.750000,30.570000,-0.450000,-54.127985,Hold,0.014648,0.000000,Hold,-170.000000,2.000000,Suck,-1777.500000,1818.181818,Speed,-1755.000000,1818.181818,Speed,Off,On,0.000000,FALSE,10,,,,,0.000000,0.000000,-0.050000
11:14:11.130 AM 04/28/2016,Teleop Enabled,10,FALSE,0,NO ERROR,-0.000000,0.000000,-0.000000,0.000000,TRUE,FALSE,FALSE,FALSE,FALSE,FALSE,Disabled,0.000000,0.000000,0.000000,TRUE,-0.381470,1.766785,0.000000,0.046356,-0.046021,0.000000,0.081000,-0.061000,0.005000,1.720000,30.570000,-0.260000,-54.289857,Hold,0.014648,0.000000,Hold,-170.000000,2.000000,Suck,-1777.500000,1818.181818,Speed,-1762.500000,1818.181818,Speed,Off,On,0.000000,FALSE,10,,,,,0.000000,0.000000,-0.050000
11:14:11.230 AM 04/28/2016,Teleop Enabled,10,FALSE,0,NO ERROR,-0.000000,0.000000,-0.000000,0.000000,TRUE,FALSE,FALSE,FALSE,FALSE,FALSE,Disabled,0.000000,0.000000,0.000000,TRUE,-0.380798,1.765381,0.000000,-0.016678,-0.014679,0.000000,0.013000,0.077000,-0.002000,1.770000,30.570000,-0.390000,-54.440576,Hold,0.014648,0.000000,Hold,-170.000000,2.000000,Suck,-1770.000000,1818.181818,Speed,-1755.000000,1818.181818,Speed,Off,On,0.000000,FALSE,10,,,,,0.000000,0.000000,-0.050000
11:14:11.330 AM 04/28/2016,Teleop Enabled,11,FALSE,0,NO ERROR,-0.000000,0.000000,-0.000000,0.000000,TRUE,FALSE,FALSE,FALSE,FALSE,FALSE,Disabled,0.000000,0.000000,0.000000,TRUE,-0.382690,1.764435,0.000000,-0.027725,-0.018890,0.000000,0.140000,0.053000,0.088000,1.740000,30.580000,-0.450000,-54.597884,Hold,0.014648,0.000000,Hold,-170.000000,2.000000,Suck,-1770.000000,1818.181818,Speed,-1762.500000,1818.181818,Speed,Off,On,0.000000,FALSE,10,,,,,0.000000,0.000000,-0.050000
11:14:11.430 AM 04/28/2016,Teleop Enabled,10,FALSE,0,NO ERROR,-0.000000,0.000000,-0.000000,0.000000,TRUE,FALSE,FALSE,FALSE,FALSE,FALSE,Disabled,0.000000,0.000000,0.000000,TRUE,-0.383347,1.763931,0.000000,-0.006210,-0.012268,0.000000,-0.066000,0.065000,0.015000,1.810000,30.570000,-0.370000,-54.769839,Hold,0.014648,0.000000,Hold,-170.000000,2.000000,Suck,-1777.500000,1818.181818,Speed,-1762.500000,1818.181818,Speed,Off,On,0.000000,FALSE,10,,,,,0.000000,0.000000,-0.050000
11:14:11.530 AM 04/28/2016,Teleop Enabled,10,FALSE,0,NO ERROR,-0.000000,0.000000,-0.000000,0.000000,TRUE,FALSE,FALSE,FALSE,FALSE,FALSE,Disabled,0.000000,0.000000,0.000000,TRUE,-0.384308,1.763000,0.000000,-0.024841,-0.025558,0.000000,-0.047000,-0.052000,-0.064000,1.780000,30.570000,-0.330000,-54.937334,Hold,0.014648,0.000000,Hold,-170.000000,2.000000,Suck,-1777.500000,1818.181818,Speed,-1762.500000,1818.181818,Speed,Off,On,0.000000,FALSE,10,,,,,0.000000,0.000000,-0.050000
11:14:11.630 AM 04/28/2016,Teleop Enabled,9,FALSE,0,NO ERROR,-0.000000,0.000000,-0.000000,0.000000,TRUE,FALSE,FALSE,FALSE,FALSE,FALSE,Disabled,0.000000,0.000000,0.000000,TRUE,-0.384872,1.762192,0.000000,-0.002380,-0.008698,0.000000,-0.022000,0.021000,-0.021000,1.750000,30.570000,-0.370000,-55.101168,Hold,0.014648,0.000000,Hold,-170.000000,2.000000,Suck,-1777.500000,1818.181818,Speed,-1762.500000,1818.181818,Speed,Off,On,0.000000,FALSE,10,,,,,0.000000,0.000000,-0.050000
11:14:11.731 AM 04/28/2016,Teleop Enabled,11,FALSE,0,NO ERROR,-0.000000,0.000000,-0.000000,0.000000,TRUE,FALSE,FALSE,FALSE,FALSE,FALSE,Disabled,0.000000,0.000000,0.000000,TRUE,-0.385101,1.761749,0.000000,-0.005875,-0.017700,0.000000,0.007000,-0.039000,-0.023000,1.790000,30.570000,-0.410000,-55.258542,Hold,0.014648,0.000000,Hold,-170.000000,2.000000,Suck,-1777.500000,1818.181818,Speed,-1762.500000,1818.181818,Speed,Off,On,0.000000,FALSE,10,,,,,0.000000,0.000000,-0.050000
11:14:11.831 AM 04/28/2016,Teleop Enabled,10,FALSE,0,NO ERROR,-0.000000,0.000000,-0.000000,0.000000,TRUE,FALSE,FALSE,FALSE,FALSE,FALSE,Disabled,0.000000,0.000000,0.000000,TRUE,-0.384827,1.761093,0.000000,0.009720,-0.012390,0.000000,-0.034000,-0.083000,-0.053000,1.740000,30.570000,-0.340000,-55.414730,Hold,0.014648,0.000000,Hold,-170.000000,2.000000,Suck,-1777.500000,1818.181818,Speed,-1762.500000,1818.181818,Speed,Off,On,0.000000,FALSE,10,,,,,0.000000,0.000000,-0.050000
11:14:11.931 AM 04/28/2016,Teleop Enabled,10,FALSE,0,NO ERROR,-0.000000,0.000000,-0.000000,0.000000,TRUE,FALSE,FALSE,FALSE,FALSE,FALSE,Disabled,0.000000,0.000000,0.000000,TRUE,-0.385315,1.759964,0.000000,-0.026657,-0.014648,0.000000,-0.024000,0.063000,0.021000,1.750000,30.570000,-0.490000,-55.576496,Hold,0.014648,0.000000,Hold,-170.000000,2.000000,Suck,-1770.000000,1818.181818,Speed,-1762.500000,1818.181818,Speed,Off,On,0.000000,FALSE,10,,,,,0.000000,0.000000,-0.050000
11:14:12.031 AM 04/28/2016,Teleop Enabled,10,FALSE,0,NO ERROR,-0.000000,0.000000,-0.000000,0.000000,TRUE,FALSE,FALSE,FALSE,FALSE,FALSE,Disabled,0.000000,0.000000,0.000000,TRUE,-0.387161,1.760559,0.000000,-0.038712,0.010117,0.000000,0.059000,0.010000,0.006000,1.800000,30.570000,-0.540000,-55.783215,Hold,0.014648,0.000000,Hold,-170.000000,2.000000,Suck,-1777.500000,1818.181818,Speed,-1762.500000,1818.181818,Speed,Off,On,0.000000,FALSE,10,,,,,0.000000,0.000000,-0.050000
11:14:12.131 AM 04/28/2016,Teleop Enabled,11,FALSE,0,NO ERROR,-0.000000,0.000000,-0.000000,0.000000,TRUE,FALSE,FALSE,FALSE,FALSE,FALSE,Disabled,0.000000,0.000000,0.000000,TRUE,-0.387756,1.759903,0.000000,0.007080,-0.025970,0.000000,-0.030000,-0.052000,-0.039000,1.730000,30.570000,-0.330000,-55.948248,Hold,0.014648,0.000000,Hold,-170.000000,2.000000,Suck,-1777.500000,1818.181818,Speed,-1762.500000,1818.181818,Speed,Off,On,0.000000,FALSE,10,,,,,0.000000,0.000000,-0.050000
11:14:12.232 AM 04/28/2016,Teleop Enabled,10,FALSE,0,NO ERROR,-0.000000,0.000000,-0.000000,0.000000,TRUE,FALSE,FALSE,FALSE,FALSE,FALSE,Disabled,0.000000,0.000000,0.000000,TRUE,-0.388138,1.758957,0.000000,-0.022324,0.000244,0.000000,0.008000,0.068000,0.013000,1.770000,30.570000,-0.500000,-56.116007,Hold,0.014648,0.000000,Hold,-170.000000,2.000000,Suck,-1777.500000,1818.181818,Speed,-1762.500000,1818.181818,Speed,Off,On,0.000000,FALSE,10,,,,,0.000000,0.000000,-0.050000
11:14:12.332 AM 04/28/2016,Teleop Enabled,10,FALSE,0,NO ERROR,-0.000000,0.000000,-0.000000,0.000000,TRUE,FALSE,FALSE,FALSE,FALSE,FALSE,Disabled,0.000000,0.000000,0.000000,TRUE,-0.389694,1.758774,0.000000,-0.019608,-0.021454,0.000000,-0.007000,-0.077000,-0.017000,1.790000,30.570000,-0.470000,-56.276502,Hold,0.014648,0.000000,Hold,-170.000000,2.000000,Suck,-1777.500000,1818.181818,Speed,-1762.500000,1818.181818,Speed,Off,On,0.000000,FALSE,10,,,,,0.000000,0.000000,-0.050000
11:14:12.432 AM 04/28/2016,Teleop Enabled,11,FALSE,0,NO ERROR,-0.000000,0.000000,-0.000000,0.000000,TRUE,FALSE,FALSE,FALSE,FALSE,FALSE,Disabled,0.000000,0.000000,0.000000,TRUE,-0.390060,1.757401,0.000000,-0.009796,-0.016953,0.000000,-0.051000,0.080000,-0.002000,1.750000,30.570000,-0.380000,-56.435411,Hold,0.014648,0.000000,Hold,-170.000000,2.000000,Suck,-1777.500000,1818.181818,Speed,-1762.500000,1818.181818,Speed,Off,On,0.000000,FALSE,10,,,,,0.000000,0.000000,-0.050000
11:14:12.532 AM 04/28/2016,Teleop Enabled,8,FALSE,0,NO ERROR,-0.000000,0.000000,-0.000000,0.000000,TRUE,FALSE,FALSE,FALSE,FALSE,FALSE,Disabled,0.000000,0.000000,0.000000,TRUE,-0.391891,1.757401,0.000000,-0.052979,-0.000961,0.000000,-0.025000,-0.115000,-0.050000,1.780000,30.570000,-0.590000,-56.606496,Hold,0.014648,0.000000,Hold,-170.000000,2.000000,Suck,-1777.500000,1818.181818,Speed,-1770.000000,1818.181818,Speed,Off,On,0.000000,FALSE,10,,,,,0.000000,0.000000,-0.050000
11:14:12.632 AM 04/28/2016,Teleop Enabled,9,FALSE,0,NO ERROR,-0.000000,0.000000,-0.000000,0.000000,TRUE,FALSE,FALSE,FALSE,FALSE,FALSE,Disabled,0.000000,0.000000,0.000000,TRUE,-0.394318,1.757645,0.000000,-0.034988,0.011337,0.000000,-0.014000,0.006000,-0.014000,1.800000,30.570000,-0.460000,-56.759555,Hold,0.014648,0.000000,Hold,-170.000000,2.000000,Suck,-1777.500000,1818.181818,Speed,-1762.500000,1818.181818,Speed,Off,On,0.000000,FALSE,10,,,,,0.000000,0.000000,-0.050000
11:14:12.732 AM 04/28/2016,Teleop Enabled,6,FALSE,0,NO ERROR,-0.000000,0.000000,-0.000000,0.000000,TRUE,FALSE,FALSE,FALSE,FALSE,FALSE,Disabled,0.000000,0.000000,0.000000,TRUE,-0.395874,1.756958,0.000000,-0.041016,-0.029770,0.000000,-0.032000,0.031000,-0.088000,1.750000,30.570000,-0.380000,-56.922764,Hold,0.014648,0.000000,Hold,-170.000000,2.000000,Suck,-1777.500000,1818.181818,Speed,-1770.000000,1818.181818,Speed,Off,On,0.000000,FALSE,10,,,,,0.000000,0.000000,-0.050000
11:14:12.833 AM 04/28/2016,Teleop Enabled,9,FALSE,0,NO ERROR,-0.000000,0.000000,-0.000000,0.000000,TRUE,FALSE,FALSE,FALSE,FALSE,FALSE,Disabled,0.000000,0.000000,0.000000,TRUE,-0.399033,1.755768,0.000000,-0.079697,-0.001572,0.000000,-0.005000,0.067000,-0.014000,1.720000,30.580000,-0.560000,-57.079290,Hold,0.014648,0.000000,Hold,-170.000000,2.000000,Suck,-1777.500000,1818.181818,Speed,-1762.500000,1818.181818,Speed,Off,On,0.000000,FALSE,10,,,,,0.000000,0.000000,-0.050000
11:14:12.934 AM 04/28/2016,Teleop Enabled,9,FALSE,0,NO ERROR,-0.000000,0.000000,-0.000000,0.000000,TRUE,FALSE,FALSE,FALSE,FALSE,FALSE,Disabled,0.000000,0.000000,0.000000,TRUE,-0.398605,1.755585,0.000000,0.016037,-0.014328,0.000000,0.026000,-0.076000,-0.061000,1.770000,30.570000,-0.550000,-57.248812,Hold,0.014648,0.000000,Hold,-170.000000,2.000000,Suck,-1777.500000,1818.181818,Speed,-1762.500000,1818.181818,Speed,Off,On,0.000000,FALSE,10,,,,,0.000000,0.000000,-0.050000
