Time,Robot Mode,Loop Time,Error Status,Error Code,Error Source,Left Motor Output,Left Motor Encoder,Right Motor Output,Right Motor Encoder,Is Level,Is Stalled,Ball Detector Photoeye,Vision Enabled,Vision Teleop Control,Vision Auto Control,Vision Current State,Vision X Output,Vision NavX Error,Vision NavX Target,NavX Connection Status,NavX Displacement X,NavX Displacement Y,NavX Displacement Z,NavX Velocity X,NavX Velocity Y,NavX Velocity Z,NavX Acceleration X,NavX Acceleration Y,NavX Acceleration Z,NavX Pitch,NavX Yaw,NavX Roll,Gyro Angle,Roller Arm State,Roller Arm Actual,Roller Arm Desired,Shooter Arm State,Shooter Arm Actual,Shooter Arm Desired,Shooter State,Actual RPM Left,Desired RPM Left,Control Mode Left,Actual RPM Right,Desired RPM Right,Control Mode Right,Ball Shooter Cylinder,Ball Halo Cylinder,Scaler Motor Output,Scaler Solenoid Fire,Auto To Run,Auto Current File,Auto File Status,Auto Current Command,Auto Trimmed Command,Shooter Amps Left,Shooter Amps Right, Vision After Offset
12:07:32.425 PM 04/28/2016,Teleop Enabled,10,FALSE,0,NO ERROR,-0.000000,0.000000,-0.000000,0.000000,TRUE,FALSE,FALSE,FALSE,FALSE,FALSE,Disabled,0.000000,0.000000,0.000000,TRUE,-0.024536,-0.092590,0.000000,0.000000,0.000000,0.000000,0.002000,0.001000,-0.001000,1.320000,-0.590000,0.140000,115.454026,ResetBack,0.021973,-0.000049,ResetBack,-37081.000000,-0.250000,Suck,0.000000,1818.181818,Speed,0.000000,1818.181818,Speed,Off,On,0.000000,FALSE,0,,,,,0.000000,0.000000,-0.050000
12:07:32.527 PM 04/28/2016,Teleop Enabled,11,FALSE,0,NO ERROR,-0.000000,0.096250,-0.000000,-0.025667,TRUE,FALSE,FALSE,FALSE,FALSE,FALSE,Disabled,0.000000,0.000000,0.000000,TRUE,-0.025116,-0.092728,0.000000,-0.012161,-0.012329,0.000000,-0.196000,0.014000,-0.167000,1.300000,-0.590000,0.140000,115.842777,ResetBack,-0.005371,-0.000049,ResetBack,-37049.000000,-0.250000,Suck,-75.000000,1818.181818,Speed,-52.500000,1818.181818,Speed,Off,On,0.000000,FALSE,0,,,,,0.000000,0.000000,-0.050000
12:07:32.627 PM 04/28/2016,Teleop Enabled,10,FALSE,0,NO ERROR,-0.000000,0.128333,-0.000000,-0.025667,TRUE,FALSE,FALSE,FALSE,FALSE,FALSE,Disabled,0.000000,0.000000,0.000000,TRUE,-0.027954,-0.093353,0.000000,-0.080292,-0.019745,0.000000,-0.035000,0.052000,0.017000,1.300000,-0.590000,0.140000,116.210804,ResetBack,-0.005371,-0.000049,ResetBack,-30696.000000,-0.250000,Suck,-592.500000,1818.181818,Speed,-52.500000,1818.181818,Speed,Off,On,0.000000,FALSE,0,,,,,0.000000,0.000000,-0.050000
12:07:32.728 PM 04/28/2016,Teleop Enabled,8,FALSE,0,NO ERROR,-0.000000,0.128333,-0.000000,-0.025667,TRUE,FALSE,FALSE,FALSE,FALSE,FALSE,Disabled,0.000000,0.000000,0.000000,TRUE,-0.033325,-0.093643,0.000000,-0.102036,0.001694,0.000000,-0.018000,-0.012000,0.093000,1.310000,-0.590000,0.040000,116.651531,ResetBack,-0.005371,-0.000049,ResetBack,-22024.000000,-0.250000,Suck,-1147.500000,1818.181818,Speed,-1177.500000,1818.181818,Speed,Off,On,0.000000,FALSE,0,,,,,0.000000,0.000000,-0.050000
12:07:32.829 PM 04/28/2016,Teleop Enabled,12,FALSE,0,NO ERROR,-0.000000,0.128333,-0.000000,-0.025667,TRUE,FALSE,FALSE,FALSE,FALSE,FALSE,Disabled,0.000000,0.000000,0.000000,TRUE,-0.038467,-0.093567,0.000000,-0.113754,0.003693,0.000000,-0.038000,0.006000,0.047000,1.270000,-0.580000,0.080000,117.040106,Reset,-0.006836,0.000000,ResetBack,-12907.000000,-0.250000,Suck,-1597.500000,1818.181818,Speed,-1567.500000,1818.181818,Speed,Off,On,0.000000,FALSE,0,,,,,0.000000,0.000000,-0.050000
12:07:32.929 PM 04/28/2016,Teleop Enabled,9,FALSE,0,NO ERROR,-0.000000,0.128333,-0.000000,-0.025667,TRUE,FALSE,FALSE,FALSE,FALSE,FALSE,Disabled,0.000000,0.000000,0.000000,TRUE,-0.044525,-0.093384,0.000000,-0.116760,-0.006958,0.000000,0.005000,-0.026000,0.021000,1.270000,-0.580000,0.010000,117.417503,Hold,0.112305,0.000000,ResetBack,-5067.000000,-0.250000,Suck,-1815.000000,1818.181818,Speed,-1845.000000,1818.181818,Speed,Off,On,0.000000,FALSE,0,,,,,0.000000,0.000000,-0.050000
12:07:33.030 PM 04/28/2016,Teleop Enabled,14,FALSE,0,NO ERROR,-0.000000,0.128333,-0.000000,-0.025667,TRUE,FALSE,FALSE,FALSE,FALSE,FALSE,Disabled,0.000000,0.000000,0.000000,TRUE,-0.049637,-0.095245,0.000000,-0.007660,0.000000,0.000000,0.005000,0.003000,-0.109000,1.280000,-0.590000,0.000000,117.782535,Hold,0.112305,0.000000,ResetBack,-5067.000000,-0.250000,Suck,-1800.000000,1818.181818,Speed,-1800.000000,1818.181818,Speed,Off,On,0.000000,FALSE,0,,,,,0.000000,0.000000,-0.050000
12:07:33.131 PM 04/28/2016,Teleop Enabled,11,FALSE,0,NO ERROR,-0.000000,0.128333,-0.000000,-0.025667,TRUE,FALSE,FALSE,FALSE,FALSE,FALSE,Disabled,0.000000,0.000000,0.000000,TRUE,-0.049881,-0.095428,0.000000,-0.005264,-0.002441,0.000000,-0.051000,0.040000,0.058000,1.310000,-0.580000,-0.060000,118.167964,Hold,0.112549,0.000000,ResetBack,-1976.000000,-0.250000,Suck,-1755.000000,1818.181818,Speed,-1740.000000,1818.181818,Speed,Off,On,0.000000,FALSE,0,,,,,0.000000,0.000000,-0.050000
12:07:33.230 PM 04/28/2016,Teleop Enabled,9,FALSE,0,NO ERROR,-0.000000,0.128333,-0.000000,-0.025667,TRUE,FALSE,FALSE,FALSE,FALSE,FALSE,Disabled,0.000000,0.000000,0.000000,TRUE,-0.050858,-0.095367,0.000000,-0.023712,-0.004700,0.000000,-0.022000,0.015000,0.043000,1.310000,-0.570000,-0.110000,118.555999,Hold,0.112549,0.000000,ResetBack,-1929.000000,-0.250000,Suck,-1740.000000,1818.181818,Speed,-1695.000000,1818.181818,Speed,Off,On,0.000000,FALSE,0,,,,,0.000000,0.000000,-0.050000
12:07:33.331 PM 04/28/2016,Teleop Enabled,9,FALSE,0,NO ERROR,-0.000000,0.128333,-0.000000,-0.025667,TRUE,FALSE,FALSE,FALSE,FALSE,FALSE,Disabled,0.000000,0.000000,0.000000,TRUE,-0.051971,-0.095535,0.000000,-0.013809,0.000168,0.000000,-0.044000,0.006000,0.030000,1.310000,-0.570000,-0.060000,118.937530,Hold,0.112549,0.000000,ResetBack,-1845.000000,-0.250000,Suck,-1747.500000,1818.181818,Speed,-1702.500000,1818.181818,Speed,Off,On,0.000000,FALSE,0,,,,,0.000000,0.000000,-0.050000
12:07:33.431 PM 04/28/2016,Teleop Enabled,9,FALSE,0,NO ERROR,-0.000000,0.128333,-0.000000,-0.025667,TRUE,FALSE,FALSE,FALSE,FALSE,FALSE,Disabled,0.000000,0.000000,0.000000,TRUE,-0.053146,-0.095642,0.000000,-0.021423,0.000000,0.000000,0.030000,-0.020000,0.006000,1.310000,-0.570000,0.000000,119.317985,Hold,0.112549,0.000000,ResetBack,-1773.000000,-0.250000,Suck,-1755.000000,1818.181818,Speed,-1717.500000,1818.181818,Speed,Off,On,0.000000,FALSE,0,,,,,0.000000,0.000000,-0.050000
12:07:33.533 PM 04/28/2016,Teleop Enabled,9,FALSE,0,NO ERROR,-0.000000,0.128333,-0.000000,-0.025667,TRUE,FALSE,FALSE,FALSE,FALSE,FALSE,Disabled,0.000000,0.000000,0.000000,TRUE,-0.054108,-0.095673,0.000000,-0.023041,0.003403,0.000000,-0.041000,0.051000,-0.027000,1.290000,-0.580000,0.080000,119.710237,Hold,0.112549,0.000000,ResetBack,-1749.000000,-0.250000,Suck,-1755.000000,1818.181818,Speed,-1732.500000,1818.181818,Speed,Off,On,0.000000,FALSE,0,,,,,0.000000,0.000000,-0.050000
12:07:33.638 PM 04/28/2016,Teleop Enabled,13,FALSE,0,NO ERROR,-0.000000,0.128333,-0.000000,-0.025667,TRUE,FALSE,FALSE,FALSE,FALSE,FALSE,Disabled,0.000000,0.000000,0.000000,TRUE,-0.054703,-0.095886,0.000000,0.001450,-0.011765,0.000000,0.051000,-0.102000,-0.066000,1.240000,-0.580000,0.190000,120.085696,Hold,0.112549,0.000000,ResetBack,-1749.000000,-0.250000,Suck,-1755.000000,1818.181818,Speed,-1717.500000,1818.181818,Speed,Off,On,0.000000,FALSE,0,,,,,0.000000,0.000000,-0.050000
12:07:33.737 PM 04/28/2016,Teleop Enabled,10,FALSE,0,NO ERROR,-0.000000,0.128333,-0.000000,-0.025667,TRUE,FALSE,FALSE,FALSE,FALSE,FALSE,Disabled,0.000000,0.000000,0.000000,TRUE,-0.053619,-0.097076,0.000000,0.036499,-0.026184,0.000000,0.051000,-0.102000,-0.066000,1.240000,-0.580000,0.190000,120.479252,Hold,0.112549,0.000000,Reset,-1550.000000,2.000000,Suck,-1755.000000,1818.181818,Speed,-1725.000000,1818.181818,Speed,Off,On,0.000000,FALSE,0,,,,,0.000000,0.000000,-0.050000
12:07:33.838 PM 04/28/2016,Teleop Enabled,13,FALSE,0,NO ERROR,-0.000000,0.128333,-0.000000,-0.025667,TRUE,FALSE,FALSE,FALSE,FALSE,FALSE,Disabled,0.000000,0.000000,0.000000,TRUE,-0.051117,-0.098480,0.000000,0.067093,0.000000,0.000000,-0.011000,0.040000,-0.088000,1.180000,-0.580000,0.310000,120.852415,Hold,0.112549,0.000000,Hold,-288.000000,2.000000,Suck,-1755.000000,1818.181818,Speed,-1717.500000,1818.181818,Speed,Off,On,0.000000,FALSE,0,,,,,0.000000,0.000000,-0.050000
12:07:33.939 PM 04/28/2016,Teleop Enabled,12,FALSE,0,NO ERROR,-0.000000,0.128333,-0.000000,-0.025667,TRUE,FALSE,FALSE,FALSE,FALSE,FALSE,Disabled,0.000000,0.000000,0.000000,TRUE,-0.047333,-0.098099,0.000000,0.081558,0.009201,0.000000,0.009000,0.095000,0.041000,1.160000,-0.580000,0.450000,121.251367,Hold,0.112549,0.000000,Hold,-183.000000,2.000000,Suck,-1755.000000,1818.181818,Speed,-1725.000000,1818.181818,Speed,Off,On,0.000000,FALSE,0,,,,,0.000000,0.000000,-0.050000
12:07:34.040 PM 04/28/2016,Teleop Enabled,9,FALSE,0,NO ERROR,-0.000000,0.128333,-0.000000,-0.025667,TRUE,FALSE,FALSE,FALSE,FALSE,FALSE,Disabled,0.000000,0.000000,0.000000,TRUE,-0.043274,-0.097717,0.000000,0.093750,0.001450,0.000000,0.006000,0.045000,0.068000,1.200000,-0.580000,0.480000,121.630585,Hold,0.112549,0.000000,Hold,-183.000000,2.000000,Suck,-1755.000000,1818.181818,Speed,-1732.500000,1818.181818,Speed,Off,On,0.000000,FALSE,0,,,,,0.000000,0.000000,-0.050000
12:07:34.141 PM 04/28/2016,Teleop Enabled,13,FALSE,0,NO ERROR,-0.000000,0.128333,-0.000000,-0.025667,TRUE,FALSE,FALSE,FALSE,FALSE,FALSE,Disabled,0.000000,0.000000,0.000000,TRUE,-0.039551,-0.097290,0.000000,0.093521,0.010315,0.000000,0.031000,0.017000,0.043000,1.260000,-0.580000,0.510000,122.097296,Hold,0.112549,0.000000,Hold,-183.000000,2.000000,Suck,-1762.500000,1818.181818,Speed,-1732.500000,1818.181818,Speed,Off,On,0.000000,FALSE,0,,,,,0.000000,0.000000,-0.050000
12:07:34.243 PM 04/28/2016,Teleop Enabled,12,FALSE,0,NO ERROR,-0.000000,0.128333,-0.000000,-0.025667,TRUE,FALSE,FALSE,FALSE,FALSE,FALSE,Disabled,0.000000,0.000000,0.000000,TRUE,-0.033920,-0.096405,0.000000,0.091629,0.000000,0.000000,0.043000,-0.058000,0.098000,1.300000,-0.580000,0.510000,122.477179,Hold,0.112549,0.000000,Hold,-183.000000,2.000000,Suck,-1755.000000,1818.181818,Speed,-1732.500000,1818.181818,Speed,Off,On,0.000000,FALSE,0,,,,,0.000000,0.000000,-0.050000
12:07:34.342 PM 04/28/2016,Teleop Enabled,13,FALSE,0,NO ERROR,-0.000000,0.128333,-0.000000,-0.025667,TRUE,FALSE,FALSE,FALSE,FALSE,FALSE,Disabled,0.000000,0.000000,0.000000,TRUE,-0.029526,-0.096573,0.000000,0.117722,-0.001862,0.000000,0.045000,-0.037000,0.006000,1.280000,-0.590000,0.630000,122.850521,Hold,0.112549,0.000000,Hold,-183.000000,2.000000,Suck,-1755.000000,1818.181818,Speed,-1725.000000,1818.181818,Speed,Off,On,0.000000,FALSE,0,,,,,0.000000,0.000000,-0.050000
12:07:34.445 PM 04/28/2016,Teleop Enabled,13,FALSE,0,NO ERROR,-0.000000,0.128333,-0.000000,-0.025667,TRUE,FALSE,FALSE,FALSE,FALSE,FALSE,Disabled,0.000000,0.000000,0.000000,TRUE,-0.023834,-0.096542,0.000000,0.003754,0.009201,0.000000,0.045000,-0.037000,0.006000,1.340000,-0.590000,0.690000,123.223013,Hold,0.112549,0.000000,Hold,-183.000000,2.000000,Suck,-1762.500000,1818.181818,Speed,-1725.000000,1818.181818,Speed,Off,On,0.000000,FALSE,0,,,,,0.000000,0.000000,-0.050000
12:07:34.548 PM 04/28/2016,Teleop Enabled,14,FALSE,0,NO ERROR,-0.000000,0.128333,-0.000000,-0.025667,TRUE,FALSE,FALSE,FALSE,FALSE,FALSE,Disabled,0.000000,0.000000,0.000000,TRUE,-0.024216,-0.095444,0.000000,-0.000519,0.034256,0.000000,-0.066000,0.049000,-0.068000,1.420000,-0.590000,0.660000,123.604434,Hold,0.112549,0.000000,Hold,-183.000000,2.000000,Suck,-1755.000000,1818.181818,Speed,-1725.000000,1818.181818,Speed,Off,On,0.000000,FALSE,0,,,,,0.000000,0.000000,-0.050000
12:07:34.648 PM 04/28/2016,Teleop Enabled,9,FALSE,0,NO ERROR,-0.000000,0.128333,-0.000000,-0.025667,TRUE,FALSE,FALSE,FALSE,FALSE,FALSE,Disabled,0.000000,0.000000,0.000000,TRUE,-0.025345,-0.093262,0.000000,-0.033371,0.051086,0.000000,-0.021000,0.003000,0.016000,1.490000,-0.580000,0.530000,123.987364,Hold,0.112549,0.000000,Hold,-183.000000,2.000000,Suck,-1755.000000,1818.181818,Speed,-1740.000000,1818.181818,Speed,Off,On,0.000000,FALSE,0,,,,,0.000000,0.000000,-0.050000
12:07:34.747 PM 04/28/2016,Teleop Enabled,12,FALSE,0,NO ERROR,-0.000000,0.128333,-0.000000,-0.025667,TRUE,FALSE,FALSE,FALSE,FALSE,FALSE,Disabled,0.000000,0.000000,0.000000,TRUE,-0.029602,-0.089554,0.000000,-0.075439,0.059448,0.000000,-0.116000,0.098000,-0.064000,1.490000,-0.580000,0.530000,124.366389,Hold,0.112549,0.000000,Hold,-183.000000,2.000000,Suck,-1762.500000,1818.181818,Speed,-1732.500000,1818.181818,Speed,Off,On,0.000000,FALSE,0,,,,,0.000000,0.000000,-0.050000
12:07:34.847 PM 04/28/2016,Teleop Enabled,15,FALSE,0,NO ERROR,-0.000000,0.128333,-0.000000,-0.025667,TRUE,FALSE,FALSE,FALSE,FALSE,FALSE,Disabled,0.000000,0.000000,0.000000,TRUE,-0.033752,-0.086716,0.000000,-0.080658,0.066391,0.000000,-0.008000,-0.112000,-0.071000,1.540000,-0.570000,0.370000,124.753113,Hold,0.112549,0.000000,Hold,-183.000000,2.000000,Suck,-1762.500000,1818.181818,Speed,-1725.000000,1818.181818,Speed,Off,On,0.000000,FALSE,0,,,,,0.000000,0.000000,-0.050000
12:07:34.948 PM 04/28/2016,Teleop Enabled,16,FALSE,0,NO ERROR,-0.000000,0.128333,-0.000000,-0.025667,TRUE,FALSE,FALSE,FALSE,FALSE,FALSE,Disabled,0.000000,0.000000,0.000000,TRUE,-0.037430,-0.083023,0.000000,-0.063812,0.081451,0.000000,-0.045000,-0.017000,-0.007000,1.530000,-0.580000,0.480000,125.134138,Hold,0.112549,0.000000,Hold,-183.000000,2.000000,Suck,-1755.000000,1818.181818,Speed,-1740.000000,1818.181818,Speed,Off,On,0.000000,FALSE,0,,,,,0.000000,0.000000,-0.050000
12:07:35.049 PM 04/28/2016,Teleop Enabled,13,FALSE,0,NO ERROR,-0.000000,0.128333,-0.000000,-0.025667,TRUE,FALSE,FALSE,FALSE,FALSE,FALSE,Disabled,0.000000,0.000000,0.000000,TRUE,-0.037430,-0.083023,0.000000,-0.063812,0.081451,0.000000,-0.046000,0.016000,0.011000,1.530000,-0.580000,0.480000,125.507659,Hold,0.112549,0.000000,Hold,-183.000000,2.000000,Suck,-1755.000000,1818.181818,Speed,-1740.000000,1818.181818,Speed,Off,On,0.000000,FALSE,0,,,,,0.000000,0.000000,-0.050000
12:07:35.152 PM 04/28/2016,Teleop Enabled,13,FALSE,0,NO ERROR,-0.000000,0.128333,-0.000000,-0.025667,TRUE,FALSE,FALSE,FALSE,FALSE,FALSE,Disabled,0.000000,0.000000,0.000000,TRUE,-0.040451,-0.082855,0.000000,-0.015335,-0.021500,0.000000,-0.075000,0.028000,0.026000,1.530000,-0.580000,0.540000,125.888186,Hold,0.112549,0.000000,Hold,-183.000000,2.000000,Suck,-1762.500000,1818.181818,Speed,-1740.000000,1818.181818,Speed,Off,On,0.000000,FALSE,0,,,,,0.000000,0.000000,-0.050000
12:07:35.251 PM 04/28/2016,Teleop Enabled,11,FALSE,0,NO ERROR,-0.000000,0.128333,-0.000000,-0.025667,TRUE,FALSE,FALSE,FALSE,FALSE,FALSE,Disabled,0.000000,0.000000,0.000000,TRUE,-0.041245,-0.083542,0.000000,-0.013290,-0.006226,0.000000,-0.030000,0.055000,0.001000,1.420000,-0.580000,0.540000,126.246997,Hold,0.112549,0.000000,Hold,-183.000000,2.000000,Suck,-1762.500000,1818.181818,Speed,-1732.500000,1818.181818,Speed,Off,On,0.000000,FALSE,0,,,,,0.000000,0.000000,-0.050000
12:07:35.358 PM 04/28/2016,Teleop Enabled,8,FALSE,0,NO ERROR,-0.000000,0.128333,-0.000000,-0.025667,TRUE,FALSE,FALSE,FALSE,FALSE,FALSE,Disabled,0.000000,0.000000,0.000000,TRUE,-0.040680,-0.084732,0.000000,0.026611,-0.038040,0.000000,0.027000,-0.060000,-0.008000,1.420000,-0.580000,0.540000,126.622177,Hold,0.112549,0.000000,Hold,-183.000000,2.000000,Suck,-1755.000000,1818.181818,Speed,-1732.500000,1818.181818,Speed,Off,On,0.000000,FALSE,0,,,,,0.000000,0.000000,-0.050000
12:07:35.454 PM 04/28/2016,Teleop Enabled,8,FALSE,0,NO ERROR,-0.000000,0.128333,-0.000000,-0.025667,TRUE,FALSE,FALSE,FALSE,FALSE,FALSE,Disabled,0.000000,0.000000,0.000000,TRUE,-0.039291,-0.086121,0.000000,0.033539,-0.042618,0.000000,0.068000,0.032000,0.051000,1.310000,-0.580000,0.720000,126.982197,Hold,0.112549,0.000000,Hold,-183.000000,2.000000,Suck,-1762.500000,1818.181818,Speed,-1732.500000,1818.181818,Speed,Off,On,0.000000,FALSE,0,,,,,0.000000,0.000000,-0.050000
12:07:35.556 PM 04/28/2016,Teleop Enabled,10,FALSE,0,NO ERROR,-0.000000,0.128333,-0.000000,-0.025667,TRUE,FALSE,FALSE,FALSE,FALSE,FALSE,Disabled,0.000000,0.000000,0.000000,TRUE,-0.037430,-0.089188,0.000000,0.012680,-0.052505,0.000000,0.050000,-0.031000,0.019000,1.300000,-0.580000,0.710000,127.371853,Hold,0.112549,0.000000,Hold,-183.000000,2.000000,Suck,-1762.500000,1818.181818,Speed,-1732.500000,1818.181818,Speed,Off,On,0.000000,FALSE,0,,,,,0.000000,0.000000,-0.050000
12:07:35.662 PM 04/28/2016,Teleop Enabled,11,FALSE,0,NO ERROR,-0.000000,0.128333,-0.000000,-0.025667,TRUE,FALSE,FALSE,FALSE,FALSE,FALSE,Disabled,0.000000,0.000000,0.000000,TRUE,-0.037048,-0.092270,0.000000,-0.002823,-0.060333,0.000000,0.011000,-0.143000,0.018000,1.300000,-0.580000,0.710000,127.758338,Hold,0.112549,0.000000,Hold,-183.000000,2.000000,Suck,-1762.500000,1818.181818,Speed,-1732.500000,1818.181818,Speed,Off,On,0.000000,FALSE,0,,,,,0.000000,0.000000,-0.050000
12:07:35.761 PM 04/28/2016,Teleop Enabled,7,FALSE,0,NO ERROR,-0.000000,0.128333,-0.000000,-0.025667,TRUE,FALSE,FALSE,FALSE,FALSE,FALSE,Disabled,0.000000,0.000000,0.000000,TRUE,-0.037903,-0.096222,0.000000,-0.032837,-0.079773,0.000000,-0.005000,-0.102000,0.037000,1.270000,-0.570000,0.550000,128.149998,Hold,0.112549,0.000000,Hold,-183.000000,2.000000,Suck,-1762.500000,1818.181818,Speed,-1747.500000,1818.181818,Speed,Off,On,0.000000,FALSE,0,,,,,0.000000,0.000000,-0.050000
12:07:35.864 PM 04/28/2016,Teleop Enabled,10,FALSE,0,NO ERROR,-0.000000,0.128333,-0.000000,-0.025667,TRUE,FALSE,FALSE,FALSE,FALSE,FALSE,Disabled,0.000000,0.000000,0.000000,TRUE,-0.038956,-0.099991,0.000000,0.000000,-0.070312,0.000000,0.007000,0.015000,0.029000,1.250000,-0.550000,0.400000,128.620200,Hold,0.112549,0.000000,Hold,-183.000000,2.000000,Suck,-1762.500000,1818.181818,Speed,-1732.500000,1818.181818,Speed,Off,On,0.000000,FALSE,0,,,,,0.000000,0.000000,-0.050000
12:07:35.964 PM 04/28/2016,Teleop Enabled,11,FALSE,0,NO ERROR,-0.000000,0.128333,-0.000000,-0.025667,TRUE,FALSE,FALSE,FALSE,FALSE,FALSE,Disabled,0.000000,0.000000,0.000000,TRUE,-0.039444,-0.100281,0.000000,-0.023376,0.018982,0.000000,-0.001000,-0.077000,-0.136000,1.280000,-0.550000,0.260000,129.012345,Hold,0.112549,0.000000,Hold,-183.000000,2.000000,Suck,-1762.500000,1818.181818,Speed,-1740.000000,1818.181818,Speed,Off,On,0.000000,FALSE,0,,,,,0.000000,0.000000,-0.050000
12:07:36.065 PM 04/28/2016,Teleop Enabled,10,FALSE,0,NO ERROR,-0.000000,0.128333,-0.000000,-0.025667,TRUE,FALSE,FALSE,FALSE,FALSE,FALSE,Disabled,0.000000,0.000000,0.000000,TRUE,-0.040314,-0.100098,0.000000,-0.043198,0.014206,0.000000,-0.001000,-0.077000,-0.136000,1.290000,-0.540000,0.010000,129.390686,Hold,0.112549,0.000000,Hold,-183.000000,2.000000,Suck,-1762.500000,1818.181818,Speed,-1740.000000,1818.181818,Speed,Off,On,0.000000,FALSE,0,,,,,0.000000,0.000000,-0.050000
12:07:36.168 PM 04/28/2016,Teleop Enabled,11,FALSE,0,NO ERROR,-0.000000,0.128333,-0.000000,-0.025667,TRUE,FALSE,FALSE,FALSE,FALSE,FALSE,Disabled,0.000000,0.000000,0.000000,TRUE,-0.041245,-0.099686,0.000000,-0.025009,0.014008,0.000000,-0.014000,-0.027000,-0.119000,1.300000,-0.540000,-0.070000,129.761670,Hold,0.112549,0.000000,Hold,-183.000000,2.000000,Suck,-1762.500000,1818.181818,Speed,-1732.500000,1818.181818,Speed,Off,On,0.000000,FALSE,0,,,,,0.000000,0.000000,-0.050000
12:07:36.272 PM 04/28/2016,Teleop Enabled,8,FALSE,0,NO ERROR,-0.000000,0.128333,-0.000000,-0.025667,TRUE,FALSE,FALSE,FALSE,FALSE,FALSE,Disabled,0.000000,0.000000,0.000000,TRUE,-0.042709,-0.098770,0.000000,-0.031723,0.035858,0.000000,0.064000,-0.008000,-0.030000,1.330000,-0.530000,-0.160000,130.133225,Hold,0.112549,0.000000,Hold,-183.000000,2.000000,Suck,-1762.500000,1818.181818,Speed,-1740.000000,1818.181818,Speed,Off,On,0.000000,FALSE,0,,,,,0.000000,0.000000,-0.050000
12:07:36.372 PM 04/28/2016,Teleop Enabled,9,FALSE,0,NO ERROR,-0.000000,0.128333,-0.000000,-0.025667,TRUE,FALSE,FALSE,FALSE,FALSE,FALSE,Disabled,0.000000,0.000000,0.000000,TRUE,-0.046738,-0.098389,0.000000,-0.085266,0.023010,0.000000,-0.028000,-0.036000,-0.067000,1.330000,-0.530000,-0.160000,130.512116,Hold,0.112549,0.000000,Hold,-183.000000,2.000000,Suck,-1762.500000,1818.181818,Speed,-1740.000000,1818.181818,Speed,Off,On,0.000000,FALSE,0,,,,,0.000000,0.000000,-0.050000
12:07:36.473 PM 04/28/2016,Teleop Enabled,8,FALSE,0,NO ERROR,-0.000000,0.128333,-0.000000,-0.025667,TRUE,FALSE,FALSE,FALSE,FALSE,FALSE,Disabled,0.000000,0.000000,0.000000,TRUE,-0.050354,-0.098694,0.000000,-0.080673,-0.012314,0.000000,-0.013000,-0.013000,-0.120000,1.400000,-0.530000,-0.360000,130.898292,Hold,0.112549,0.000000,Hold,-183.000000,2.000000,Suck,-1762.500000,1818.181818,Speed,-1740.000000,1818.181818,Speed,Off,On,0.000000,FALSE,0,,,,,0.000000,0.000000,-0.050000
12:07:36.579 PM 04/28/2016,Teleop Enabled,12,FALSE,0,NO ERROR,-0.000000,0.128333,-0.000000,-0.025667,TRUE,FALSE,FALSE,FALSE,FALSE,FALSE,Disabled,0.000000,0.000000,0.000000,TRUE,-0.053223,-0.099350,0.000000,-0.030426,-0.022385,0.000000,0.096000,0.080000,0.044000,1.400000,-0.530000,-0.330000,131.262381,Hold,0.112549,0.000000,Hold,-183.000000,2.000000,Suck,-1762.500000,1818.181818,Speed,-1740.000000,1818.181818,Speed,Off,On,0.000000,FALSE,0,,,,,0.000000,0.000000,-0.050000
12:07:36.680 PM 04/28/2016,Teleop Enabled,10,FALSE,0,NO ERROR,-0.000000,0.128333,-0.000000,-0.025667,TRUE,FALSE,FALSE,FALSE,FALSE,FALSE,Disabled,0.000000,0.000000,0.000000,TRUE,-0.052139,-0.100632,0.000000,0.041702,-0.025620,0.000000,0.096000,0.080000,0.044000,1.310000,-0.540000,-0.030000,131.639041,Hold,0.112549,0.000000,Hold,-183.000000,2.000000,Suck,-1762.500000,1818.181818,Speed,-1732.500000,1818.181818,Speed,Off,On,0.000000,FALSE,0,,,,,0.000000,0.000000,-0.050000
12:07:36.781 PM 04/28/2016,Teleop Enabled,10,FALSE,0,NO ERROR,-0.000000,0.128333,-0.000000,-0.025667,TRUE,FALSE,FALSE,FALSE,FALSE,FALSE,Disabled,0.000000,0.000000,0.000000,TRUE,-0.051453,-0.102112,0.000000,-0.002991,-0.016098,0.000000,0.005000,-0.029000,-0.022000,1.280000,-0.540000,0.050000,132.092278,Hold,0.112549,0.000000,Hold,-183.000000,2.000000,Suck,-1762.500000,1818.181818,Speed,-1747.500000,1818.181818,Speed,Off,On,0.000000,FALSE,0,,,,,0.000000,0.000000,-0.050000
12:07:36.884 PM 04/28/2016,Teleop Enabled,8,FALSE,0,NO ERROR,-0.000000,0.128333,-0.000000,-0.025667,TRUE,FALSE,FALSE,FALSE,FALSE,FALSE,Disabled,0.000000,0.000000,0.000000,TRUE,-0.052704,-0.102814,0.000000,-0.042252,-0.012085,0.000000,-0.053000,0.117000,0.019000,1.330000,-0.530000,-0.170000,132.470168,Hold,0.112549,0.000000,Hold,-183.000000,2.000000,Suck,-1762.500000,1818.181818,Speed,-1747.500000,1818.181818,Speed,Off,On,0.000000,FALSE,0,,,,,0.000000,0.000000,-0.050000
12:07:36.989 PM 04/28/2016,Teleop Enabled,16,FALSE,0,NO ERROR,-0.000000,0.128333,-0.000000,-0.025667,TRUE,FALSE,FALSE,FALSE,FALSE,FALSE,Disabled,0.000000,0.000000,0.000000,TRUE,-0.055374,-0.102768,0.000000,-0.049728,0.000000,0.000000,-0.051000,0.017000,0.028000,1.360000,-0.530000,-0.160000,132.855321,Hold,0.112549,0.000000,Hold,-183.000000,2.000000,Suck,-1770.000000,1818.181818,Speed,-1747.500000,1818.181818,Speed,Off,On,0.000000,FALSE,0,,,,,0.000000,0.000000,-0.050000
12:07:37.089 PM 04/28/2016,Teleop Enabled,10,FALSE,0,NO ERROR,-0.000000,0.128333,-0.000000,-0.025667,TRUE,FALSE,FALSE,FALSE,FALSE,FALSE,Disabled,0.000000,0.000000,0.000000,TRUE,-0.056717,-0.103149,0.000000,-0.007034,-0.008331,0.000000,0.035000,0.003000,0.077000,1.360000,-0.530000,-0.160000,133.243621,Hold,0.112549,0.000000,Hold,-183.000000,2.000000,Suck,-1762.500000,1818.181818,Speed,-1740.000000,1818.181818,Speed,Off,On,0.000000,FALSE,0,,,,,0.000000,0.000000,-0.050000
12:07:37.192 PM 04/28/2016,Teleop Enabled,12,FALSE,0,NO ERROR,-0.000000,0.128333,-0.000000,-0.025667,TRUE,FALSE,FALSE,FALSE,FALSE,FALSE,Disabled,0.000000,0.000000,0.000000,TRUE,-0.056259,-0.103928,0.000000,0.018051,-0.028885,0.000000,0.077000,-0.036000,0.070000,1.340000,-0.530000,0.050000,133.622292,Hold,0.112549,0.000000,Hold,-183.000000,2.000000,Suck,-1770.000000,1818.181818,Speed,-1747.500000,1818.181818,Speed,Off,On,0.000000,FALSE,0,,,,,0.000000,0.000000,-0.050000
12:07:37.292 PM 04/28/2016,Teleop Enabled,12,FALSE,0,NO ERROR,-0.000000,0.128333,-0.000000,-0.025667,TRUE,FALSE,FALSE,FALSE,FALSE,FALSE,Disabled,0.000000,0.000000,0.000000,TRUE,-0.055038,-0.104599,0.000000,0.000000,-0.002625,0.000000,0.025000,0.017000,0.067000,1.290000,-0.520000,0.090000,134.014578,Hold,0.112549,0.000000,Hold,-183.000000,2.000000,Suck,-1770.000000,1818.181818,Speed,-1747.500000,1818.181818,Speed,Off,On,0.000000,FALSE,0,,,,,0.000000,0.000000,-0.050000
12:07:37.395 PM 04/28/2016,Teleop Enabled,11,FALSE,0,NO ERROR,-0.000000,0.128333,-0.000000,-0.025667,TRUE,FALSE,FALSE,FALSE,FALSE,FALSE,Disabled,0.000000,0.000000,0.000000,TRUE,-0.054535,-0.105057,0.000000,0.012970,-0.002472,0.000000,0.001000,-0.010000,0.100000,1.260000,-0.520000,0.110000,134.400042,Hold,0.112549,0.000000,Hold,-183.000000,2.000000,Suck,-1770.000000,1818.181818,Speed,-1747.500000,1818.181818,Speed,Off,On,0.000000,FALSE,0,,,,,0.000000,0.000000,-0.050000
12:07:37.499 PM 04/28/2016,Teleop Enabled,13,FALSE,0,NO ERROR,-0.000000,0.128333,-0.000000,-0.025667,TRUE,FALSE,FALSE,FALSE,FALSE,FALSE,Disabled,0.000000,0.000000,0.000000,TRUE,-0.054932,-0.104919,0.000000,-0.017105,0.000000,0.000000,-0.023000,0.000000,0.058000,1.240000,-0.510000,0.090000,134.791612,Hold,0.112549,0.000000,Hold,-183.000000,2.000000,Suck,-1762.500000,1818.181818,Speed,-1747.500000,1818.181818,Speed,Off,On,0.000000,FALSE,0,,,,,0.000000,0.000000,-0.050000
12:07:37.602 PM 04/28/2016,Teleop Enabled,11,FALSE,0,NO ERROR,-0.000000,0.128333,-0.000000,-0.025667,TRUE,FALSE,FALSE,FALSE,FALSE,FALSE,Disabled,0.000000,0.000000,0.000000,TRUE,-0.054886,-0.104889,0.000000,0.015167,-0.002670,0.000000,-0.003000,-0.027000,-0.015000,1.340000,-0.500000,-0.110000,135.167784,Hold,0.112549,0.000000,Hold,-183.000000,2.000000,Suck,-1770.000000,1818.181818,Speed,-1747.500000,1818.181818,Speed,Off,On,0.000000,FALSE,0,,,,,0.000000,0.000000,-0.050000
12:07:37.702 PM 04/28/2016,Teleop Enabled,13,FALSE,0,NO ERROR,-0.000000,0.128333,-0.000000,-0.025667,TRUE,FALSE,FALSE,FALSE,FALSE,FALSE,Disabled,0.000000,0.000000,0.000000,TRUE,-0.051849,-0.105347,0.000000,0.089981,-0.008957,0.000000,0.096000,-0.072000,-0.082000,1.310000,-0.510000,0.220000,135.536330,Hold,0.112549,0.000000,Hold,-183.000000,2.000000,Suck,-1762.500000,1818.181818,Speed,-1747.500000,1818.181818,Speed,Off,On,0.000000,FALSE,0,,,,,0.000000,0.000000,-0.050000
12:07:37.803 PM 04/28/2016,Teleop Enabled,11,FALSE,0,NO ERROR,-0.000000,0.128333,-0.000000,-0.025667,TRUE,FALSE,FALSE,FALSE,FALSE,FALSE,Disabled,0.000000,0.000000,0.000000,TRUE,-0.047134,-0.106094,0.000000,0.102066,-0.022476,0.000000,-0.059000,0.016000,-0.113000,1.310000,-0.510000,0.220000,135.912509,Hold,0.112549,0.000000,Hold,-183.000000,2.000000,Suck,-1770.000000,1818.181818,Speed,-1747.500000,1818.181818,Speed,Off,On,0.000000,FALSE,0,,,,,0.000000,0.000000,-0.050000
12:07:37.906 PM 04/28/2016,Teleop Enabled,10,FALSE,0,NO ERROR,-0.000000,0.128333,-0.000000,-0.025667,TRUE,FALSE,FALSE,FALSE,FALSE,FALSE,Disabled,0.000000,0.000000,0.000000,TRUE,-0.042984,-0.107895,0.000000,0.063980,-0.031189,0.000000,-0.063000,0.000000,-0.068000,1.270000,-0.520000,0.140000,136.280598,Hold,0.112549,0.000000,Hold,-183.000000,2.000000,Suck,-1770.000000,1818.181818,Speed,-1747.500000,1818.181818,Speed,Off,On,0.000000,FALSE,0,,,,,0.000000,0.000000,-0.050000
12:07:38.007 PM 04/28/2016,Teleop Enabled,10,FALSE,0,NO ERROR,-0.000000,0.128333,-0.000000,-0.025667,TRUE,FALSE,FALSE,FALSE,FALSE,FALSE,Disabled,0.000000,0.000000,0.000000,TRUE,-0.040161,-0.109833,0.000000,0.055862,-0.040512,0.000000,0.029000,-0.045000,-0.068000,1.310000,-0.520000,0.080000,136.652924,Hold,0.112549,0.000000,Hold,-183.000000,2.000000,Suck,-1770.000000,1818.181818,Speed,-1747.500000,1818.181818,Speed,Off,On,0.000000,FALSE,0,,,,,0.000000,0.000000,-0.050000
12:07:38.106 PM 04/28/2016,Teleop Enabled,8,FALSE,0,NO ERROR,-0.000000,0.128333,-0.000000,-0.025667,TRUE,FALSE,FALSE,FALSE,FALSE,FALSE,Disabled,0.000000,0.000000,0.000000,TRUE,-0.036957,-0.110229,0.000000,0.078583,-0.002594,0.000000,-0.028000,0.000000,-0.103000,1.310000,-0.520000,0.140000,137.014640,Hold,0.112549,0.000000,Hold,-183.000000,2.000000,Suck,-1770.000000,1818.181818,Speed,-1755.000000,1818.181818,Speed,Off,On,0.000000,FALSE,0,,,,,0.000000,0.000000,-0.050000
12:07:38.210 PM 04/28/2016,Teleop Enabled,11,FALSE,0,NO ERROR,-0.000000,0.128333,-0.000000,-0.025667,TRUE,FALSE,FALSE,FALSE,FALSE,FALSE,Disabled,0.000000,0.000000,0.000000,TRUE,-0.032700,-0.110397,0.000000,0.092667,-0.006607,0.000000,-0.044000,0.013000,0.028000,1.280000,-0.510000,0.190000,137.404386,Hold,0.112549,0.000000,Hold,-183.000000,2.000000,Suck,-1762.500000,1818.181818,Speed,-1740.000000,1818.181818,Speed,Off,On,0.000000,FALSE,0,,,,,0.000000,0.000000,-0.050000
12:07:38.314 PM 04/28/2016,Teleop Enabled,13,FALSE,0,NO ERROR,-0.000000,0.128333,-0.000000,-0.025667,TRUE,FALSE,FALSE,FALSE,FALSE,FALSE,Disabled,0.000000,0.000000,0.000000,TRUE,-0.032486,-0.112045,0.000000,0.007355,-0.028275,0.000000,-0.036000,0.007000,-0.018000,1.280000,-0.510000,0.190000,137.788793,Hold,0.112549,0.000000,Hold,-183.000000,2.000000,Suck,-1770.000000,1818.181818,Speed,-1755.000000,1818.181818,Speed,Off,On,0.000000,FALSE,0,,,,,0.000000,0.000000,-0.050000
12:07:38.416 PM 04/28/2016,Teleop Enabled,10,FALSE,0,NO ERROR,-0.000000,0.128333,-0.000000,-0.025667,TRUE,FALSE,FALSE,FALSE,FALSE,FALSE,Disabled,0.000000,0.000000,0.000000,TRUE,-0.032654,-0.113083,0.000000,-0.010468,-0.031815,0.000000,-0.025000,0.007000,0.026000,1.250000,-0.520000,0.180000,138.175399,Hold,0.112549,0.000000,Hold,-183.000000,2.000000,Suck,-1770.000000,1818.181818,Speed,-1747.500000,1818.181818,Speed,Off,On,0.000000,FALSE,0,,,,,0.000000,0.000000,-0.050000
12:07:38.518 PM 04/28/2016,Teleop Enabled,15,FALSE,0,NO ERROR,-0.000000,0.128333,-0.000000,-0.025667,TRUE,FALSE,FALSE,FALSE,FALSE,FALSE,Disabled,0.000000,0.000000,0.000000,TRUE,-0.033295,-0.114105,0.000000,-0.016861,-0.005219,0.000000,0.005000,-0.008000,0.061000,1.250000,-0.520000,0.180000,138.626436,Hold,0.112549,0.000000,Hold,-183.000000,2.000000,Suck,-1770.000000,1818.181818,Speed,-1755.000000,1818.181818,Speed,Off,On,0.000000,FALSE,0,,,,,0.000000,0.000000,-0.050000
12:07:38.619 PM 04/28/2016,Teleop Enabled,11,FALSE,0,NO ERROR,-0.000000,0.128333,-0.000000,-0.025667,TRUE,FALSE,FALSE,FALSE,FALSE,FALSE,Disabled,0.000000,0.000000,0.000000,TRUE,-0.033920,-0.115021,0.000000,-0.008072,-0.017990,0.000000,-0.012000,-0.052000,-0.014000,1.290000,-0.500000,0.170000,139.031739,Hold,0.112549,0.000000,Hold,-183.000000,2.000000,Suck,-1770.000000,1818.181818,Speed,-1755.000000,1818.181818,Speed,Off,On,0.000000,FALSE,0,,,,,0.000000,0.000000,-0.050000
12:07:38.721 PM 04/28/2016,Teleop Enabled,12,FALSE,0,NO ERROR,-0.000000,0.128333,-0.000000,-0.025667,TRUE,FALSE,FALSE,FALSE,FALSE,FALSE,Disabled,0.000000,0.000000,0.000000,TRUE,-0.034348,-0.116058,0.000000,-0.006714,-0.024719,0.000000,-0.012000,-0.052000,-0.014000,1.240000,-0.480000,0.240000,139.406347,Hold,0.112549,0.000000,Hold,-183.000000,2.000000,Suck,-1770.000000,1818.181818,Speed,-1747.500000,1818.181818,Speed,Off,On,0.000000,FALSE,0,,,,,0.000000,0.000000,-0.050000
12:07:38.823 PM 04/28/2016,Teleop Enabled,12,FALSE,0,NO ERROR,-0.000000,0.128333,-0.000000,-0.025667,TRUE,FALSE,FALSE,FALSE,FALSE,FALSE,Disabled,0.000000,0.000000,0.000000,TRUE,-0.035355,-0.117188,0.000000,-0.036682,-0.021271,0.000000,-0.011000,0.060000,0.035000,1.260000,-0.430000,0.100000,139.841673,Hold,0.112549,0.000000,Hold,-183.000000,2.000000,Suck,-1770.000000,1818.181818,Speed,-1755.000000,1818.181818,Speed,Off,On,0.000000,FALSE,0,,,,,0.000000,0.000000,-0.050000
12:07:38.926 PM 04/28/2016,Teleop Enabled,12,FALSE,0,NO ERROR,-0.000000,0.128333,-0.000000,-0.025667,TRUE,FALSE,FALSE,FALSE,FALSE,FALSE,Disabled,0.000000,0.000000,0.000000,TRUE,-0.037476,-0.117691,0.000000,0.000000,-0.012100,0.000000,0.006000,0.100000,0.046000,1.260000,-0.430000,0.100000,140.236710,Hold,0.112549,0.000000,Hold,-183.000000,2.000000,Suck,-1762.500000,1818.181818,Speed,-1747.500000,1818.181818,Speed,Off,On,0.000000,FALSE,0,,,,,0.000000,0.000000,-0.050000
12:07:39.026 PM 04/28/2016,Teleop Enabled,9,FALSE,0,NO ERROR,-0.000000,0.128333,-0.000000,-0.025667,TRUE,FALSE,FALSE,FALSE,FALSE,FALSE,Disabled,0.000000,0.000000,0.000000,TRUE,-0.035934,-0.118088,0.000000,0.045074,-0.005585,0.000000,0.110000,0.024000,-0.020000,1.300000,-0.380000,0.150000,140.637244,Hold,0.112549,0.000000,Hold,-183.000000,2.000000,Suck,-1770.000000,1818.181818,Speed,-1755.000000,1818.181818,Speed,Off,On,0.000000,FALSE,0,,,,,0.000000,0.000000,-0.050000
12:07:39.130 PM 04/28/2016,Teleop Enabled,10,FALSE,0,NO ERROR,-0.000000,0.128333,-0.000000,-0.025667,TRUE,FALSE,FALSE,FALSE,FALSE,FALSE,Disabled,0.000000,0.000000,0.000000,TRUE,-0.032745,-0.118973,0.000000,0.063904,-0.009537,0.000000,0.054000,-0.099000,-0.126000,1.290000,-0.380000,0.150000,141.023141,Hold,0.112549,0.000000,Hold,-183.000000,2.000000,Suck,-1770.000000,1818.181818,Speed,-1755.000000,1818.181818,Speed,Off,On,0.000000,FALSE,0,,,,,0.000000,0.000000,-0.050000
12:07:39.230 PM 04/28/2016,Teleop Enabled,12,FALSE,0,NO ERROR,-0.000000,0.128333,-0.000000,-0.025667,TRUE,FALSE,FALSE,FALSE,FALSE,FALSE,Disabled,0.000000,0.000000,0.000000,TRUE,-0.029953,-0.119965,0.000000,0.064346,-0.026138,0.000000,-0.045000,-0.064000,-0.100000,1.290000,-0.380000,0.100000,141.382761,Hold,0.112549,0.000000,Hold,-183.000000,2.000000,Suck,-1770.000000,1818.181818,Speed,-1755.000000,1818.181818,Speed,Off,On,0.000000,FALSE,0,,,,,0.000000,0.000000,-0.050000
12:07:39.330 PM 04/28/2016,Teleop Enabled,12,FALSE,0,NO ERROR,-0.000000,0.128333,-0.000000,-0.025667,TRUE,FALSE,FALSE,FALSE,FALSE,FALSE,Disabled,0.000000,0.000000,0.000000,TRUE,-0.026474,-0.121475,0.000000,0.067764,-0.027817,0.000000,-0.033000,-0.005000,-0.048000,1.290000,-0.380000,0.080000,141.756458,Hold,0.112549,0.000000,Hold,-183.000000,2.000000,Suck,-1770.000000,1818.181818,Speed,-1755.000000,1818.181818,Speed,Off,On,0.000000,FALSE,0,,,,,0.000000,0.000000,-0.050000
12:07:39.431 PM 04/28/2016,Teleop Enabled,10,FALSE,0,NO ERROR,-0.000000,0.128333,-0.000000,-0.025667,TRUE,FALSE,FALSE,FALSE,FALSE,FALSE,Disabled,0.000000,0.000000,0.000000,TRUE,-0.021927,-0.123291,0.000000,0.079681,-0.017944,0.000000,0.000000,-0.009000,-0.050000,1.290000,-0.380000,0.080000,142.126151,Hold,0.112549,0.000000,Hold,-183.000000,2.000000,Suck,-1770.000000,1818.181818,Speed,-1755.000000,1818.181818,Speed,Off,On,0.000000,FALSE,0,,,,,0.000000,0.000000,-0.050000
12:07:39.536 PM 04/28/2016,Teleop Enabled,11,FALSE,0,NO ERROR,-0.000000,0.128333,-0.000000,-0.025667,TRUE,FALSE,FALSE,FALSE,FALSE,FALSE,Disabled,0.000000,0.000000,0.000000,TRUE,-0.019348,-0.124557,0.000000,0.034485,-0.031967,0.000000,-0.069000,-0.029000,-0.094000,1.300000,-0.380000,0.080000,142.497661,Hold,0.112549,0.000000,Hold,-183.000000,2.000000,Suck,-1770.000000,1818.181818,Speed,-1755.000000,1818.181818,Speed,Off,On,0.000000,FALSE,0,,,,,0.000000,0.000000,-0.050000
12:07:39.632 PM 04/28/2016,Teleop Enabled,9,FALSE,0,NO ERROR,-0.000000,0.128333,-0.000000,-0.025667,TRUE,FALSE,FALSE,FALSE,FALSE,FALSE,Disabled,0.000000,0.000000,0.000000,TRUE,-0.018158,-0.125641,0.000000,0.035583,-0.014420,0.000000,-0.091000,0.035000,-0.026000,1.310000,-0.370000,-0.020000,142.943817,Hold,0.112549,0.000000,Hold,-183.000000,2.000000,Suck,-1770.000000,1818.181818,Speed,-1755.000000,1818.181818,Speed,Off,On,0.000000,FALSE,0,,,,,0.000000,0.000000,-0.050000
12:07:39.732 PM 04/28/2016,Teleop Enabled,10,FALSE,0,NO ERROR,-0.000000,0.128333,-0.000000,-0.025667,TRUE,FALSE,FALSE,FALSE,FALSE,FALSE,Disabled,0.000000,0.000000,0.000000,TRUE,-0.016510,-0.126404,0.000000,0.045624,-0.025848,0.000000,-0.033000,0.014000,0.105000,1.300000,-0.370000,0.040000,143.340923,Hold,0.112549,0.000000,Hold,-183.000000,2.000000,Suck,-1770.000000,1818.181818,Speed,-1755.000000,1818.181818,Speed,Off,On,0.000000,FALSE,0,,,,,0.000000,0.000000,-0.050000
12:07:39.832 PM 04/28/2016,Teleop Enabled,7,FALSE,0,NO ERROR,-0.000000,0.128333,-0.000000,-0.025667,TRUE,FALSE,FALSE,FALSE,FALSE,FALSE,Disabled,0.000000,0.000000,0.000000,TRUE,-0.016800,-0.126984,0.000000,-0.006836,-0.015762,0.000000,-0.007000,0.092000,0.094000,1.300000,-0.370000,0.040000,143.742339,Hold,0.112549,0.000000,Hold,-183.000000,2.000000,Suck,-1777.500000,1818.181818,Speed,-1762.500000,1818.181818,Speed,Off,On,0.000000,FALSE,0,,,,,0.000000,0.000000,-0.050000
12:07:39.939 PM 04/28/2016,Teleop Enabled,17,FALSE,0,NO ERROR,-0.000000,0.128333,-0.000000,-0.025667,TRUE,FALSE,FALSE,FALSE,FALSE,FALSE,Disabled,0.000000,0.000000,0.000000,TRUE,-0.016632,-0.127823,0.000000,0.020065,-0.016022,0.000000,0.062000,0.040000,-0.005000,1.330000,-0.370000,-0.040000,144.115061,Hold,0.112549,0.000000,Hold,-183.000000,2.000000,Suck,-1777.500000,1818.181818,Speed,-1762.500000,1818.181818,Speed,Off,On,0.000000,FALSE,0,,,,,0.000000,0.000000,-0.050000
12:07:40.040 PM 04/28/2016,Teleop Enabled,12,FALSE,0,NO ERROR,-0.000000,0.128333,-0.000000,-0.025667,TRUE,FALSE,FALSE,FALSE,FALSE,FALSE,Disabled,0.000000,0.000000,0.000000,TRUE,-0.015976,-0.128418,0.000000,0.005920,-0.036530,0.000000,0.062000,0.040000,-0.005000,1.340000,-0.360000,0.000000,144.502115,Hold,0.112549,0.000000,Hold,-183.000000,2.000000,Suck,-1770.000000,1818.181818,Speed,-1755.000000,1818.181818,Speed,Off,On,0.000000,FALSE,0,,,,,0.000000,0.000000,-0.050000
12:07:40.141 PM 04/28/2016,Teleop Enabled,17,FALSE,0,NO ERROR,-0.000000,0.128333,-0.000000,-0.025667,TRUE,FALSE,FALSE,FALSE,FALSE,FALSE,Disabled,0.000000,0.000000,0.000000,TRUE,-0.016159,-0.129501,0.000000,-0.011261,-0.019165,0.000000,-0.027000,0.082000,0.067000,1.330000,-0.360000,-0.040000,144.873632,Hold,0.112549,0.000000,Hold,-183.000000,2.000000,Suck,-1770.000000,1818.181818,Speed,-1762.500000,1818.181818,Speed,Off,On,0.000000,FALSE,0,,,,,0.000000,0.000000,-0.050000
12:07:40.243 PM 04/28/2016,Teleop Enabled,11,FALSE,0,NO ERROR,-0.000000,0.128333,-0.000000,-0.025667,TRUE,FALSE,FALSE,FALSE,FALSE,FALSE,Disabled,0.000000,0.000000,0.000000,TRUE,-0.015717,-0.130661,0.000000,0.028641,-0.029572,0.000000,0.003000,0.081000,0.003000,1.330000,-0.360000,0.060000,145.267812,Hold,0.112549,0.000000,Hold,-183.000000,2.000000,Suck,-1770.000000,1818.181818,Speed,-1747.500000,1818.181818,Speed,Off,On,0.000000,FALSE,0,,,,,0.000000,0.000000,-0.050000
12:07:40.344 PM 04/28/2016,Teleop Enabled,14,FALSE,0,NO ERROR,-0.000000,0.128333,-0.000000,-0.025667,TRUE,FALSE,FALSE,FALSE,FALSE,FALSE,Disabled,0.000000,0.000000,0.000000,TRUE,-0.013580,-0.131790,0.000000,0.031815,-0.020279,0.000000,0.061000,0.025000,-0.026000,1.320000,-0.350000,0.090000,145.680348,Hold,0.112549,0.000000,Hold,-183.000000,2.000000,Suck,-1770.000000,1818.181818,Speed,-1755.000000,1818.181818,Speed,Off,On,0.000000,FALSE,0,,,,,0.000000,0.000000,-0.050000
12:07:40.447 PM 04/28/2016,Teleop Enabled,14,FALSE,0,NO ERROR,-0.000000,0.128333,-0.000000,-0.025667,TRUE,FALSE,FALSE,FALSE,FALSE,FALSE,Disabled,0.000000,0.000000,0.000000,TRUE,-0.011429,-0.133713,0.000000,0.045959,-0.036011,0.000000,0.020000,-0.090000,-0.106000,1.320000,-0.330000,0.090000,146.082418,Hold,0.112549,0.000000,Hold,-183.000000,2.000000,Suck,-1777.500000,1818.181818,Speed,-1762.500000,1818.181818,Speed,Off,On,0.000000,FALSE,0,,,,,0.000000,0.000000,-0.050000
12:07:40.547 PM 04/28/2016,Teleop Enabled,11,FALSE,0,NO ERROR,-0.000000,0.128333,-0.000000,-0.025667,TRUE,FALSE,FALSE,FALSE,FALSE,FALSE,Disabled,0.000000,0.000000,0.000000,TRUE,-0.009445,-0.134628,0.000000,0.048111,-0.011932,0.000000,0.056000,0.025000,-0.037000,1.340000,-0.320000,0.140000,146.464590,Hold,0.112549,0.000000,Hold,-183.000000,2.000000,Suck,-1770.000000,1818.181818,Speed,-1770.000000,1818.181818,Speed,Off,On,0.000000,FALSE,0,,,,,0.000000,0.000000,-0.050000
12:07:40.646 PM 04/28/2016,Teleop Enabled,12,FALSE,0,NO ERROR,-0.000000,0.128333,-0.000000,-0.025667,TRUE,FALSE,FALSE,FALSE,FALSE,FALSE,Disabled,0.000000,0.000000,0.000000,TRUE,-0.007797,-0.135971,0.000000,0.023178,-0.025925,0.000000,-0.026000,-0.084000,-0.145000,1.340000,-0.320000,0.140000,146.869693,Hold,0.112549,0.000000,Hold,-183.000000,2.000000,Suck,-1770.000000,1818.181818,Speed,-1762.500000,1818.181818,Speed,Off,On,0.000000,FALSE,0,,,,,0.000000,0.000000,-0.050000
12:07:40.748 PM 04/28/2016,Teleop Enabled,10,FALSE,0,NO ERROR,-0.000000,0.128333,-0.000000,-0.025667,TRUE,FALSE,FALSE,FALSE,FALSE,FALSE,Disabled,0.000000,0.000000,0.000000,TRUE,-0.007111,-0.136795,0.000000,0.012131,-0.011963,0.000000,0.009000,0.019000,-0.011000,1.320000,-0.300000,0.030000,147.244240,Hold,0.112549,0.000000,Hold,-183.000000,2.000000,Suck,-1777.500000,1818.181818,Speed,-1762.500000,1818.181818,Speed,Off,On,0.000000,FALSE,0,,,,,0.000000,0.000000,-0.050000
12:07:40.849 PM 04/28/2016,Teleop Enabled,11,FALSE,0,NO ERROR,-0.000000,0.128333,-0.000000,-0.025667,TRUE,FALSE,FALSE,FALSE,FALSE,FALSE,Disabled,0.000000,0.000000,0.000000,TRUE,-0.007111,-0.136795,0.000000,0.012131,-0.011963,0.000000,0.036000,-0.074000,-0.062000,1.320000,-0.300000,0.080000,147.641752,Hold,0.112549,0.000000,Hold,-183.000000,2.000000,Suck,-1770.000000,1818.181818,Speed,-1762.500000,1818.181818,Speed,Off,On,0.000000,FALSE,0,,,,,0.000000,0.000000,-0.050000
12:07:40.952 PM 04/28/2016,Teleop Enabled,9,FALSE,0,NO ERROR,-0.000000,0.128333,-0.000000,-0.025667,TRUE,FALSE,FALSE,FALSE,FALSE,FALSE,Disabled,0.000000,0.000000,0.000000,TRUE,-0.003464,-0.139847,0.000000,0.042068,-0.038376,0.000000,-0.044000,0.032000,-0.069000,1.320000,-0.300000,0.080000,148.032675,Hold,0.112549,0.000000,Hold,-183.000000,2.000000,Suck,-1777.500000,1818.181818,Speed,-1755.000000,1818.181818,Speed,Off,On,0.000000,FALSE,0,,,,,0.000000,0.000000,-0.050000
12:07:41.055 PM 04/28/2016,Teleop Enabled,12,FALSE,0,NO ERROR,-0.000000,0.128333,-0.000000,-0.025667,TRUE,FALSE,FALSE,FALSE,FALSE,FALSE,Disabled,0.000000,0.000000,0.000000,TRUE,-0.001999,-0.140976,0.000000,0.030319,-0.022964,0.000000,0.019000,0.038000,0.028000,1.320000,-0.280000,0.060000,148.417013,Hold,0.112549,0.000000,Hold,-183.000000,2.000000,Suck,-1777.500000,1818.181818,Speed,-1755.000000,1818.181818,Speed,Off,On,0.000000,FALSE,0,,,,,0.000000,0.000000,-0.050000
12:07:41.155 PM 04/28/2016,Teleop Enabled,9,FALSE,0,NO ERROR,-0.000000,0.128333,-0.000000,-0.025667,TRUE,FALSE,FALSE,FALSE,FALSE,FALSE,Disabled,0.000000,0.000000,0.000000,TRUE,-0.001083,-0.142212,0.000000,0.003159,-0.022812,0.000000,0.038000,-0.051000,0.109000,1.360000,-0.270000,0.020000,148.796438,Hold,0.112549,0.000000,Hold,-183.000000,2.000000,Suck,-1777.500000,1818.181818,Speed,-1762.500000,1818.181818,Speed,Off,On,0.000000,FALSE,0,,,,,0.000000,0.000000,-0.050000
12:07:41.257 PM 04/28/2016,Teleop Enabled,13,FALSE,0,NO ERROR,-0.000000,0.128333,-0.000000,-0.025667,TRUE,FALSE,FALSE,FALSE,FALSE,FALSE,Disabled,0.000000,0.000000,0.000000,TRUE,-0.001587,-0.143021,0.000000,-0.009735,-0.016876,0.000000,0.038000,-0.051000,0.109000,1.330000,-0.280000,0.000000,149.178369,Hold,0.112549,0.000000,Hold,-183.000000,2.000000,Suck,-1777.500000,1818.181818,Speed,-1762.500000,1818.181818,Speed,Off,On,0.000000,FALSE,0,,,,,0.000000,0.000000,-0.050000
12:07:41.362 PM 04/28/2016,Teleop Enabled,10,FALSE,0,NO ERROR,-0.000000,0.128333,-0.000000,-0.025667,TRUE,FALSE,FALSE,FALSE,FALSE,FALSE,Disabled,0.000000,0.000000,0.000000,TRUE,-0.002518,-0.143829,0.000000,-0.024368,-0.013763,0.000000,-0.051000,-0.001000,0.071000,1.350000,-0.270000,-0.030000,149.568631,Hold,0.112549,0.000000,Hold,-183.000000,2.000000,Suck,-1770.000000,1818.181818,Speed,-1762.500000,1818.181818,Speed,Off,On,0.000000,FALSE,0,,,,,0.000000,0.000000,-0.050000
12:07:41.462 PM 04/28/2016,Teleop Enabled,11,FALSE,0,NO ERROR,-0.000000,0.128333,-0.000000,-0.025667,TRUE,FALSE,FALSE,FALSE,FALSE,FALSE,Disabled,0.000000,0.000000,0.000000,TRUE,-0.003632,-0.144287,0.000000,-0.018951,-0.018509,0.000000,0.032000,-0.027000,0.125000,1.340000,-0.260000,-0.050000,150.041614,Hold,0.112549,0.000000,Hold,-183.000000,2.000000,Suck,-1770.000000,1818.181818,Speed,-1762.500000,1818.181818,Speed,Off,On,0.000000,FALSE,0,,,,,0.000000,0.000000,-0.050000
12:07:41.564 PM 04/28/2016,Teleop Enabled,8,FALSE,0,NO ERROR,-0.000000,0.128333,-0.000000,-0.025667,TRUE,FALSE,FALSE,FALSE,FALSE,FALSE,Disabled,0.000000,0.000000,0.000000,TRUE,-0.003998,-0.145676,0.000000,-0.001373,-0.031937,0.000000,0.054000,-0.091000,0.076000,1.320000,-0.270000,0.000000,150.423707,Hold,0.112549,0.000000,Hold,-183.000000,2.000000,Suck,-1777.500000,1818.181818,Speed,-1762.500000,1818.181818,Speed,Off,On,0.000000,FALSE,0,,,,,0.000000,0.000000,-0.050000
12:07:41.663 PM 04/28/2016,Teleop Enabled,9,FALSE,0,NO ERROR,-0.000000,0.128333,-0.000000,-0.025667,TRUE,FALSE,FALSE,FALSE,FALSE,FALSE,Disabled,0.000000,0.000000,0.000000,TRUE,-0.004456,-0.146591,0.000000,-0.020630,-0.015533,0.000000,-0.011000,0.043000,0.033000,1.360000,-0.270000,-0.070000,150.805656,Hold,0.112549,0.000000,Hold,-183.000000,2.000000,Suck,-1777.500000,1818.181818,Speed,-1762.500000,1818.181818,Speed,Off,On,0.000000,FALSE,0,,,,,0.000000,0.000000,-0.050000
12:07:41.764 PM 04/28/2016,Teleop Enabled,9,FALSE,0,NO ERROR,-0.000000,0.128333,-0.000000,-0.025667,TRUE,FALSE,FALSE,FALSE,FALSE,FALSE,Disabled,0.000000,0.000000,0.000000,TRUE,-0.006149,-0.147400,0.000000,-0.015656,-0.018341,0.000000,-0.054000,0.059000,-0.024000,1.360000,-0.270000,-0.070000,151.183617,Hold,0.112549,0.000000,Hold,-183.000000,2.000000,Suck,-1770.000000,1818.181818,Speed,-1762.500000,1818.181818,Speed,Off,On,0.000000,FALSE,0,,,,,0.000000,0.000000,-0.050000
12:07:41.866 PM 04/28/2016,Teleop Enabled,11,FALSE,0,NO ERROR,-0.000000,0.128333,-0.000000,-0.025667,TRUE,FALSE,FALSE,FALSE,FALSE,FALSE,Disabled,0.000000,0.000000,0.000000,TRUE,-0.006577,-0.148483,0.000000,0.000000,-0.024933,0.000000,0.022000,-0.023000,0.044000,1.320000,-0.270000,0.030000,151.560764,Hold,0.112549,0.000000,Hold,-183.000000,2.000000,Suck,-1777.500000,1818.181818,Speed,-1755.000000,1818.181818,Speed,Off,On,0.000000,FALSE,0,,,,,0.000000,0.000000,-0.050000
12:07:41.968 PM 04/28/2016,Teleop Enabled,14,FALSE,0,NO ERROR,-0.000000,0.128333,-0.000000,-0.025667,TRUE,FALSE,FALSE,FALSE,FALSE,FALSE,Disabled,0.000000,0.000000,0.000000,TRUE,-0.006958,-0.149246,0.000000,-0.002686,-0.006561,0.000000,-0.012000,-0.035000,-0.133000,1.320000,-0.270000,0.030000,151.954978,Hold,0.112549,0.000000,Hold,-183.000000,2.000000,Suck,-1777.500000,1818.181818,Speed,-1762.500000,1818.181818,Speed,Off,On,0.000000,FALSE,0,,,,,0.000000,0.000000,-0.050000
12:07:42.072 PM 04/28/2016,Teleop Enabled,10,FALSE,0,NO ERROR,-0.000000,0.128333,-0.000000,-0.025667,TRUE,FALSE,FALSE,FALSE,FALSE,FALSE,Disabled,0.000000,0.000000,0.000000,TRUE,-0.006958,-0.149246,0.000000,-0.002686,-0.006561,0.000000,0.067000,-0.002000,-0.058000,1.320000,-0.260000,0.000000,152.323569,Hold,0.112549,0.000000,Hold,-183.000000,2.000000,Suck,-1777.500000,1818.181818,Speed,-1762.500000,1818.181818,Speed,Off,On,0.000000,FALSE,0,,,,,0.000000,0.000000,-0.050000
12:07:42.177 PM 04/28/2016,Teleop Enabled,10,FALSE,0,NO ERROR,-0.000000,0.128333,-0.000000,-0.025667,TRUE,FALSE,FALSE,FALSE,FALSE,FALSE,Disabled,0.000000,0.000000,0.000000,TRUE,-0.006439,-0.149826,0.000000,-0.009506,0.004959,0.000000,0.020000,0.006000,0.026000,1.310000,-0.280000,0.080000,152.703280,Hold,0.112549,0.000000,Hold,-183.000000,2.000000,Suck,-1777.500000,1818.181818,Speed,-1770.000000,1818.181818,Speed,Off,On,0.000000,FALSE,0,,,,,0.000000,0.000000,-0.050000
12:07:42.279 PM 04/28/2016,Teleop Enabled,11,FALSE,0,NO ERROR,-0.000000,0.128333,-0.000000,-0.025667,TRUE,FALSE,FALSE,FALSE,FALSE,FALSE,Disabled,0.000000,0.000000,0.000000,TRUE,-0.006454,-0.150177,0.000000,-0.004913,-0.005859,0.000000,0.020000,0.006000,0.026000,1.290000,-0.290000,0.100000,153.093611,Hold,0.112549,0.000000,Hold,-183.000000,2.000000,Suck,-1777.500000,1818.181818,Speed,-1762.500000,1818.181818,Speed,Off,On,0.000000,FALSE,0,,,,,0.000000,0.000000,-0.050000
12:07:42.381 PM 04/28/2016,Teleop Enabled,10,FALSE,0,NO ERROR,-0.000000,0.128333,-0.000000,-0.025667,TRUE,FALSE,FALSE,FALSE,FALSE,FALSE,Disabled,0.000000,0.000000,0.000000,TRUE,-0.006714,-0.150330,0.000000,-0.004044,0.000000,0.000000,0.005000,0.012000,0.054000,1.280000,-0.290000,0.120000,153.476010,Hold,0.112549,0.000000,Hold,-183.000000,2.000000,Suck,-1777.500000,1818.181818,Speed,-1762.500000,1818.181818,Speed,Off,On,0.000000,FALSE,0,,,,,0.000000,0.000000,-0.050000
12:07:42.481 PM 04/28/2016,Teleop Enabled,14,FALSE,0,NO ERROR,-0.000000,0.128333,-0.000000,-0.025667,TRUE,FALSE,FALSE,FALSE,FALSE,FALSE,Disabled,0.000000,0.000000,0.000000,TRUE,-0.006851,-0.149796,0.000000,-0.000732,0.009323,0.000000,0.005000,0.012000,0.054000,1.290000,-0.300000,0.170000,153.872197,Hold,0.112549,0.000000,Hold,-183.000000,2.000000,Suck,-1777.500000,1818.181818,Speed,-1770.000000,1818.181818,Speed,Off,On,0.000000,FALSE,0,,,,,0.000000,0.000000,-0.050000
12:07:42.583 PM 04/28/2016,Teleop Enabled,11,FALSE,0,NO ERROR,-0.000000,0.128333,-0.000000,-0.025667,TRUE,FALSE,FALSE,FALSE,FALSE,FALSE,Disabled,0.000000,0.000000,0.000000,TRUE,-0.006683,-0.149490,0.000000,0.008301,-0.003204,0.000000,-0.018000,0.004000,0.000000,1.290000,-0.310000,0.240000,154.262029,Hold,0.112549,0.000000,Hold,-183.000000,2.000000,Suck,-1777.500000,1818.181818,Speed,-1770.000000,1818.181818,Speed,Off,On,0.000000,FALSE,0,,,,,0.000000,0.000000,-0.050000
12:07:42.682 PM 04/28/2016,Teleop Enabled,14,FALSE,0,NO ERROR,-0.000000,0.128333,-0.000000,-0.025667,TRUE,FALSE,FALSE,FALSE,FALSE,FALSE,Disabled,0.000000,0.000000,0.000000,TRUE,-0.006287,-0.149261,0.000000,0.003891,0.000000,0.000000,0.009000,0.016000,0.016000,1.310000,-0.320000,0.210000,154.639495,Hold,0.112549,0.000000,Hold,-183.000000,2.000000,Suck,-1777.500000,1818.181818,Speed,-1770.000000,1818.181818,Speed,Off,On,0.000000,FALSE,0,,,,,0.000000,0.000000,-0.050000
12:07:42.783 PM 04/28/2016,Teleop Enabled,12,FALSE,0,NO ERROR,-0.000000,0.128333,-0.000000,-0.025667,TRUE,FALSE,FALSE,FALSE,FALSE,FALSE,Disabled,0.000000,0.000000,0.000000,TRUE,-0.005981,-0.149490,0.000000,0.014572,-0.011444,0.000000,0.009000,0.016000,0.016000,1.310000,-0.320000,0.210000,155.008909,Hold,0.112549,0.000000,Hold,-183.000000,2.000000,Suck,-1777.500000,1818.181818,Speed,-1770.000000,1818.181818,Speed,Off,On,0.000000,FALSE,0,,,,,0.000000,0.000000,-0.050000
12:07:42.886 PM 04/28/2016,Teleop Enabled,9,FALSE,0,NO ERROR,-0.000000,0.128333,-0.000000,-0.025667,TRUE,FALSE,FALSE,FALSE,FALSE,FALSE,Disabled,0.000000,0.000000,0.000000,TRUE,-0.004974,-0.149536,0.000000,0.021484,0.009918,0.000000,0.000000,-0.007000,-0.065000,1.320000,-0.330000,0.210000,155.381153,Hold,0.112549,0.000000,Hold,-183.000000,2.000000,Suck,-1777.500000,1818.181818,Speed,-1770.000000,1818.181818,Speed,Off,On,0.000000,FALSE,0,,,,,0.000000,0.000000,-0.050000
12:07:42.989 PM 04/28/2016,Teleop Enabled,5,FALSE,0,NO ERROR,-0.000000,0.128333,-0.000000,-0.025667,TRUE,FALSE,FALSE,FALSE,FALSE,FALSE,Disabled,0.000000,0.000000,0.000000,TRUE,-0.004761,-0.149673,0.000000,0.008820,-0.008591,0.000000,0.052000,-0.046000,-0.063000,1.310000,-0.330000,0.220000,155.766778,Hold,0.112549,0.000000,Hold,-183.000000,2.000000,Suck,-1777.500000,1818.181818,Speed,-1770.000000,1818.181818,Speed,Off,On,0.000000,FALSE,0,,,,,0.000000,0.000000,-0.050000
12:07:43.091 PM 04/28/2016,Teleop Enabled,9,FALSE,0,NO ERROR,-0.000000,0.128333,-0.000000,-0.025667,TRUE,FALSE,FALSE,FALSE,FALSE,FALSE,Disabled,0.000000,0.000000,0.000000,TRUE,-0.003983,-0.150146,0.000000,0.014633,-0.005280,0.000000,0.052000,-0.046000,-0.063000,1.300000,-0.340000,0.210000,156.218906,Hold,0.112549,0.000000,Hold,-183.000000,2.000000,Suck,-1777.500000,1818.181818,Speed,-1762.500000,1818.181818,Speed,Off,On,0.000000,FALSE,0,,,,,0.000000,0.000000,-0.050000
12:07:43.198 PM 04/28/2016,Teleop Enabled,14,FALSE,0,NO ERROR,-0.000000,0.128333,-0.000000,-0.025667,TRUE,FALSE,FALSE,FALSE,FALSE,FALSE,Disabled,0.000000,0.000000,0.000000,TRUE,-0.003632,-0.150299,0.000000,0.003952,0.004257,0.000000,-0.018000,-0.001000,-0.060000,1.300000,-0.340000,0.210000,156.599846,Hold,0.112549,0.000000,Hold,-183.000000,2.000000,Suck,-1777.500000,1818.181818,Speed,-1770.000000,1818.181818,Speed,Off,On,0.000000,FALSE,0,,,,,0.000000,0.000000,-0.050000
12:07:43.296 PM 04/28/2016,Teleop Enabled,11,FALSE,0,NO ERROR,-0.000000,0.128333,-0.000000,-0.025667,TRUE,FALSE,FALSE,FALSE,FALSE,FALSE,Disabled,0.000000,0.000000,0.000000,TRUE,-0.003647,-0.150009,0.000000,-0.004944,0.003647,0.000000,0.028000,-0.027000,-0.028000,1.270000,-0.360000,0.270000,156.983605,Hold,0.112549,0.000000,Hold,-183.000000,2.000000,Suck,-1777.500000,1818.181818,Speed,-1770.000000,1818.181818,Speed,Off,On,0.000000,FALSE,0,,,,,0.000000,0.000000,-0.050000
12:07:43.398 PM 04/28/2016,Teleop Enabled,8,FALSE,0,NO ERROR,-0.000000,0.128333,-0.000000,-0.025667,TRUE,FALSE,FALSE,FALSE,FALSE,FALSE,Disabled,0.000000,0.000000,0.000000,TRUE,-0.003876,-0.149536,0.000000,-0.003189,0.000000,0.000000,0.004000,-0.037000,-0.008000,1.330000,-0.360000,0.230000,157.365743,Hold,0.112549,0.000000,Hold,-183.000000,2.000000,Suck,-1777.500000,1818.181818,Speed,-1770.000000,1818.181818,Speed,Off,On,0.000000,FALSE,0,,,,,0.000000,0.000000,-0.050000
12:07:43.499 PM 04/28/2016,Teleop Enabled,8,FALSE,0,NO ERROR,-0.000000,0.128333,-0.000000,-0.025667,TRUE,FALSE,FALSE,FALSE,FALSE,FALSE,Disabled,0.000000,0.000000,0.000000,TRUE,-0.004074,-0.149414,0.000000,-0.016006,-0.007645,0.000000,-0.063000,-0.074000,-0.009000,1.290000,-0.370000,0.220000,157.736327,Hold,0.112549,0.000000,Hold,-183.000000,2.000000,Suck,-1777.500000,1818.181818,Speed,-1770.000000,1818.181818,Speed,Off,On,0.000000,FALSE,0,,,,,0.000000,0.000000,-0.050000
12:07:43.600 PM 04/28/2016,Teleop Enabled,8,FALSE,0,NO ERROR,-0.000000,0.128333,-0.000000,-0.025667,TRUE,FALSE,FALSE,FALSE,FALSE,FALSE,Disabled,0.000000,0.000000,0.000000,TRUE,-0.005035,-0.150131,0.000000,-0.019638,0.000000,0.000000,-0.063000,-0.074000,-0.009000,1.310000,-0.380000,0.200000,158.095589,Hold,0.112549,0.000000,Hold,-183.000000,2.000000,Suck,-1777.500000,1818.181818,Speed,-1770.000000,1818.181818,Speed,Off,On,0.000000,FALSE,0,,,,,0.000000,0.000000,-0.050000
12:07:43.702 PM 04/28/2016,Teleop Enabled,11,FALSE,0,NO ERROR,-0.000000,0.128333,-0.000000,-0.025667,TRUE,FALSE,FALSE,FALSE,FALSE,FALSE,Disabled,0.000000,0.000000,0.000000,TRUE,-0.006210,-0.149216,0.000000,-0.022903,0.017487,0.000000,0.032000,0.048000,-0.026000,1.310000,-0.380000,0.200000,158.463048,Hold,0.112549,0.000000,Hold,-183.000000,2.000000,Suck,-1777.500000,1818.181818,Speed,-1770.000000,1818.181818,Speed,Off,On,0.000000,FALSE,0,,,,,0.000000,0.000000,-0.050000
12:07:43.802 PM 04/28/2016,Teleop Enabled,10,FALSE,0,NO ERROR,-0.000000,0.128333,-0.000000,-0.025667,TRUE,FALSE,FALSE,FALSE,FALSE,FALSE,Disabled,0.000000,0.000000,0.000000,TRUE,-0.006912,-0.148788,0.000000,-0.008743,0.006226,0.000000,-0.006000,-0.065000,-0.073000,1.300000,-0.390000,0.200000,158.840865,Hold,0.112549,0.000000,Hold,-183.000000,2.000000,Suck,-1777.500000,1818.181818,Speed,-1762.500000,1818.181818,Speed,Off,On,0.000000,FALSE,0,,,,,0.000000,0.000000,-0.050000
12:07:43.902 PM 04/28/2016,Teleop Enabled,10,FALSE,0,NO ERROR,-0.000000,0.128333,-0.000000,-0.025667,TRUE,FALSE,FALSE,FALSE,FALSE,FALSE,Disabled,0.000000,0.000000,0.000000,TRUE,-0.006927,-0.148178,0.000000,-0.003098,0.020630,0.000000,0.036000,0.030000,-0.005000,1.290000,-0.390000,0.200000,159.208988,Hold,0.112549,0.000000,Hold,-183.000000,2.000000,Suck,-1777.500000,1818.181818,Speed,-1770.000000,1818.181818,Speed,Off,On,0.000000,FALSE,0,,,,,0.000000,0.000000,-0.050000
12:07:44.006 PM 04/28/2016,Teleop Enabled,13,FALSE,0,NO ERROR,-0.000000,0.128333,-0.000000,-0.025667,TRUE,FALSE,FALSE,FALSE,FALSE,FALSE,Disabled,0.000000,0.000000,0.000000,TRUE,-0.006683,-0.147705,0.000000,0.009476,0.003326,0.000000,0.004000,0.019000,-0.104000,1.250000,-0.400000,0.270000,159.579635,Hold,0.112549,0.000000,Hold,-183.000000,2.000000,Suck,-1785.000000,1818.181818,Speed,-1770.000000,1818.181818,Speed,Off,On,0.000000,FALSE,0,,,,,0.000000,0.000000,-0.050000
12:07:44.106 PM 04/28/2016,Teleop Enabled,9,FALSE,0,NO ERROR,-0.000000,0.128333,-0.000000,-0.025667,TRUE,FALSE,FALSE,FALSE,FALSE,FALSE,Disabled,0.000000,0.000000,0.000000,TRUE,-0.005707,-0.147614,0.000000,0.016907,0.008926,0.000000,0.039000,-0.015000,-0.102000,1.250000,-0.400000,0.270000,159.965318,Hold,0.112549,0.000000,Hold,-183.000000,2.000000,Suck,-1777.500000,1818.181818,Speed,-1762.500000,1818.181818,Speed,Off,On,0.000000,FALSE,0,,,,,0.000000,0.000000,-0.050000
12:07:44.206 PM 04/28/2016,Teleop Enabled,11,FALSE,0,NO ERROR,-0.000000,0.128333,-0.000000,-0.025667,TRUE,FALSE,FALSE,FALSE,FALSE,FALSE,Disabled,0.000000,0.000000,0.000000,TRUE,-0.004700,-0.147888,0.000000,0.013382,0.000000,0.000000,-0.030000,-0.005000,-0.096000,1.270000,-0.400000,0.280000,160.442171,Hold,0.112549,0.000000,Hold,-183.000000,2.000000,Suck,-1777.500000,1818.181818,Speed,-1770.000000,1818.181818,Speed,Off,On,0.000000,FALSE,0,,,,,0.000000,0.000000,-0.050000
12:07:44.308 PM 04/28/2016,Teleop Enabled,10,FALSE,0,NO ERROR,-0.000000,0.128333,-0.000000,-0.025667,TRUE,FALSE,FALSE,FALSE,FALSE,FALSE,Disabled,0.000000,0.000000,0.000000,TRUE,-0.003235,-0.147507,0.000000,0.035294,0.020737,0.000000,0.055000,-0.018000,-0.054000,1.290000,-0.400000,0.220000,160.815176,Hold,0.112549,0.000000,Hold,-183.000000,2.000000,Suck,-1777.500000,1818.181818,Speed,-1777.500000,1818.181818,Speed,Off,On,0.000000,FALSE,0,,,,,0.000000,0.000000,-0.050000
12:07:44.408 PM 04/28/2016,Teleop Enabled,11,FALSE,0,NO ERROR,-0.000000,0.128333,-0.000000,-0.025667,TRUE,FALSE,FALSE,FALSE,FALSE,FALSE,Disabled,0.000000,0.000000,0.000000,TRUE,-0.002304,-0.147400,0.000000,0.000000,-0.004272,0.000000,-0.014000,-0.051000,-0.112000,1.280000,-0.410000,0.290000,161.210096,Hold,0.112549,0.000000,Hold,-183.000000,2.000000,Suck,-1785.000000,1818.181818,Speed,-1770.000000,1818.181818,Speed,Off,On,0.000000,FALSE,0,,,,,0.000000,0.000000,-0.050000
12:07:44.511 PM 04/28/2016,Teleop Enabled,9,FALSE,0,NO ERROR,-0.000000,0.128333,-0.000000,-0.025667,TRUE,FALSE,FALSE,FALSE,FALSE,FALSE,Disabled,0.000000,0.000000,0.000000,TRUE,-0.002304,-0.147400,0.000000,0.000000,-0.004272,0.000000,0.005000,-0.011000,0.059000,1.280000,-0.410000,0.240000,161.591424,Hold,0.112549,0.000000,Hold,-183.000000,2.000000,Suck,-1785.000000,1818.181818,Speed,-1770.000000,1818.181818,Speed,Off,On,0.000000,FALSE,0,,,,,0.000000,0.000000,-0.050000
12:07:44.615 PM 04/28/2016,Teleop Enabled,11,FALSE,0,NO ERROR,-0.000000,0.128333,-0.000000,-0.025667,TRUE,FALSE,FALSE,FALSE,FALSE,FALSE,Disabled,0.000000,0.000000,0.000000,TRUE,-0.001465,-0.147446,0.000000,-0.001022,0.005020,0.000000,0.020000,0.052000,0.070000,1.260000,-0.410000,0.280000,161.979934,Hold,0.112549,0.000000,Hold,-183.000000,2.000000,Suck,-1777.500000,1818.181818,Speed,-1777.500000,1818.181818,Speed,Off,On,0.000000,FALSE,0,,,,,0.000000,0.000000,-0.050000
12:07:44.718 PM 04/28/2016,Teleop Enabled,12,FALSE,0,NO ERROR,-0.000000,0.128333,-0.000000,-0.025667,TRUE,FALSE,FALSE,FALSE,FALSE,FALSE,Disabled,0.000000,0.000000,0.000000,TRUE,-0.000854,-0.147430,0.000000,0.028244,-0.002289,0.000000,0.020000,0.052000,0.070000,1.280000,-0.410000,0.220000,162.355751,Hold,0.112549,0.000000,Hold,-183.000000,2.000000,Suck,-1785.000000,1818.181818,Speed,-1777.500000,1818.181818,Speed,Off,On,0.000000,FALSE,0,,,,,0.000000,0.000000,-0.050000
12:07:44.820 PM 04/28/2016,Teleop Enabled,11,FALSE,0,NO ERROR,-0.000000,0.128333,-0.000000,-0.025667,TRUE,FALSE,FALSE,FALSE,FALSE,FALSE,Disabled,0.000000,0.000000,0.000000,TRUE,0.000183,-0.146790,0.000000,0.005951,0.005981,0.000000,-0.067000,0.036000,0.089000,1.270000,-0.420000,0.210000,162.746447,Hold,0.112549,0.000000,Hold,-183.000000,2.000000,Suck,-1785.000000,1818.181818,Speed,-1762.500000,1818.181818,Speed,Off,On,0.000000,FALSE,0,,,,,0.000000,0.000000,-0.050000
12:07:44.923 PM 04/28/2016,Teleop Enabled,11,FALSE,0,NO ERROR,-0.000000,0.128333,-0.000000,-0.025667,TRUE,FALSE,FALSE,FALSE,FALSE,FALSE,Disabled,0.000000,0.000000,0.000000,TRUE,0.000793,-0.146439,0.000000,0.022598,0.005676,0.000000,0.053000,0.036000,0.019000,1.270000,-0.420000,0.190000,163.140902,Hold,0.112549,0.000000,Hold,-183.000000,2.000000,Suck,-1777.500000,1818.181818,Speed,-1770.000000,1818.181818,Speed,Off,On,0.000000,FALSE,0,,,,,0.000000,0.000000,-0.050000
