Time,Robot Mode,Loop Time,Error Status,Error Code,Error Source,Left Motor Output,Left Motor Encoder,Right Motor Output,Right Motor Encoder,Is Level,Is Stalled,Ball Detector Photoeye,Vision Enabled,Vision Teleop Control,Vision Auto Control,Vision Current State,Vision X Output,Vision NavX Error,Vision NavX Target,NavX Connection Status,NavX Displacement X,NavX Displacement Y,NavX Displacement Z,NavX Velocity X,NavX Velocity Y,NavX Velocity Z,NavX Acceleration X,NavX Acceleration Y,NavX Acceleration Z,NavX Pitch,NavX Yaw,NavX Roll,Gyro Angle,Roller Arm State,Roller Arm Actual,Roller Arm Desired,Shooter Arm State,Shooter Arm Actual,Shooter Arm Desired,Shooter State,Actual RPM Left,Desired RPM Left,Control Mode Left,Actual RPM Right,Desired RPM Right,Control Mode Right,Ball Shooter Cylinder,Ball Halo Cylinder,Scaler Motor Output,Scaler Solenoid Fire,Auto To Run,Auto Current File,Auto File Status,Auto Current Command,Auto Trimmed Command,Shooter Amps Left,Shooter Amps Right, Vision After Offset
02:27:07.892 PM 04/28/2016,Teleop Enabled,9,TRUE,-44003,<LOCATION>WPI_CameraIssue HTTP Request with Authentication.vi<CALLSTACK>WPI_CameraIssue HTTP Request with Authentication.vi< <WPI_CameraIssue Get.vi< <WPI_CameraSet Image Appearance Property.vi< <WPI_CameraSet Image Size.vi< <Vision Processing.vi< <Robot Main.vi,-0.000000,0.038500,-0.000000,-0.038500,TRUE,TRUE,FALSE,FALSE,FALSE,FALSE,Disabled,0.000000,0.000000,0.000000,TRUE,-0.000229,-0.000412,0.000000,0.000000,0.000000,0.000000,0.002000,0.002000,0.000000,2.010000,-1.770000,0.140000,3.009219,ResetBack,-0.147949,-0.000049,ResetBack,0.000000,-0.250000,Suck,0.000000,1818.181818,Speed,-15.000000,1818.181818,Speed,Off,On,0.000000,FALSE,0,,,,,0.000000,0.000000,-0.050000
02:27:07.992 PM 04/28/2016,Teleop Enabled,9,FALSE,0,NO ERROR,-0.000000,0.038500,-0.000000,-0.038500,TRUE,FALSE,FALSE,FALSE,FALSE,FALSE,Disabled,0.000000,0.000000,0.000000,TRUE,0.002090,-0.001114,0.000000,0.043320,0.009766,0.000000,-0.041000,0.030000,0.076000,2.110000,-1.810000,0.260000,3.051439,ResetBack,-0.635254,-0.000049,ResetBack,0.000000,-0.250000,Suck,-187.500000,1818.181818,Speed,-345.000000,1818.181818,Speed,Off,On,0.000000,FALSE,0,,,,,0.000000,0.000000,-0.050000
02:27:08.098 PM 04/28/2016,Teleop Enabled,9,FALSE,0,NO ERROR,-0.000000,0.038500,-0.000000,-0.038500,TRUE,FALSE,FALSE,FALSE,FALSE,FALSE,Disabled,0.000000,0.000000,0.000000,TRUE,0.002090,-0.001114,0.000000,0.043320,0.009766,0.000000,-0.164000,-0.040000,0.145000,2.010000,-1.870000,0.400000,2.972942,ResetBack,-1.221191,-0.000049,ResetBack,9030.000000,-0.250000,Suck,-750.000000,1818.181818,Speed,-960.000000,1818.181818,Speed,Off,On,0.000000,FALSE,0,,,,,0.000000,0.000000,-0.050000
02:27:08.194 PM 04/28/2016,Teleop Enabled,11,FALSE,0,NO ERROR,-0.000000,0.038500,-0.000000,-0.038500,TRUE,FALSE,FALSE,FALSE,FALSE,FALSE,Disabled,0.000000,0.000000,0.000000,TRUE,0.002823,0.000305,0.000000,0.024170,0.040955,0.000000,0.009000,-0.022000,0.048000,2.010000,-1.870000,0.400000,3.047277,Reset,-1.345459,-0.000049,ResetBack,14622.000000,-0.250000,Suck,-885.000000,1818.181818,Speed,-1170.000000,1818.181818,Speed,Off,On,0.000000,FALSE,0,,,,,0.000000,0.000000,-0.050000
02:27:08.298 PM 04/28/2016,Teleop Enabled,13,FALSE,0,NO ERROR,-0.000000,0.038500,-0.000000,-0.038500,TRUE,FALSE,FALSE,FALSE,FALSE,FALSE,Disabled,0.000000,0.000000,0.000000,TRUE,0.003967,0.000473,0.000000,-0.025162,-0.021378,0.000000,-0.045000,-0.042000,-0.036000,2.050000,-1.790000,0.360000,3.012166,Hold,0.130371,0.000000,ResetBack,16091.000000,-0.250000,Suck,-1110.000000,1818.181818,Speed,-1410.000000,1818.181818,Speed,Off,On,0.000000,FALSE,0,,,,,0.000000,0.000000,-0.050000
02:27:08.397 PM 04/28/2016,Teleop Enabled,12,FALSE,0,NO ERROR,-0.000000,0.038500,-0.000000,-0.038500,TRUE,FALSE,FALSE,FALSE,FALSE,FALSE,Disabled,0.000000,0.000000,0.000000,TRUE,0.003967,0.000473,0.000000,-0.025162,-0.021378,0.000000,-0.006000,-0.006000,-0.037000,2.060000,-1.820000,0.240000,3.029265,Hold,0.130371,0.000000,ResetBack,16091.000000,-0.250000,Suck,-1605.000000,1818.181818,Speed,-1777.500000,1818.181818,Speed,Off,On,0.000000,FALSE,0,,,,,0.000000,0.000000,-0.050000
02:27:08.499 PM 04/28/2016,Teleop Enabled,15,FALSE,0,NO ERROR,-0.000000,0.038500,-0.000000,-0.038500,TRUE,FALSE,FALSE,FALSE,FALSE,FALSE,Disabled,0.000000,0.000000,0.000000,TRUE,0.003662,0.000366,0.000000,-0.004517,-0.007767,0.000000,-0.007000,0.019000,-0.004000,2.050000,-1.810000,0.280000,3.023520,Hold,0.130371,0.000000,ResetBack,16664.000000,-0.250000,Suck,-1867.500000,1818.181818,Speed,-1837.500000,1818.181818,Speed,Off,On,0.000000,FALSE,0,,,,,0.000000,0.000000,-0.050000
02:27:08.601 PM 04/28/2016,Teleop Enabled,12,FALSE,0,NO ERROR,-0.000000,0.038500,-0.000000,-0.038500,TRUE,FALSE,FALSE,FALSE,FALSE,FALSE,Disabled,0.000000,0.000000,0.000000,TRUE,0.003311,-0.000198,0.000000,-0.001892,-0.007416,0.000000,0.004000,-0.031000,0.070000,2.000000,-1.830000,0.240000,3.022735,Hold,0.130371,0.000000,ResetBack,17576.000000,-0.250000,Suck,-1822.500000,1818.181818,Speed,-1747.500000,1818.181818,Speed,Off,On,0.000000,FALSE,0,,,,,0.000000,0.000000,-0.050000
02:27:08.702 PM 04/28/2016,Teleop Enabled,13,FALSE,0,NO ERROR,-0.000000,0.038500,-0.000000,-0.038500,TRUE,FALSE,FALSE,FALSE,FALSE,FALSE,Disabled,0.000000,0.000000,0.000000,TRUE,0.003220,-0.000793,0.000000,0.000793,-0.018372,0.000000,0.058000,-0.051000,-0.058000,2.000000,-1.830000,0.240000,3.054386,Hold,0.130371,0.000000,ResetBack,18162.000000,-0.250000,Suck,-1777.500000,1818.181818,Speed,-1687.500000,1818.181818,Speed,Off,On,0.000000,FALSE,0,,,,,0.000000,0.000000,-0.050000
02:27:08.801 PM 04/28/2016,Teleop Enabled,12,FALSE,0,NO ERROR,-0.000000,0.038500,-0.000000,-0.038500,TRUE,FALSE,FALSE,FALSE,FALSE,FALSE,Disabled,0.000000,0.000000,0.000000,TRUE,0.003891,-0.001968,0.000000,0.017838,-0.035477,0.000000,-0.027000,-0.006000,0.057000,1.950000,-1.830000,0.340000,3.036959,Hold,0.130371,0.000000,ResetBack,18162.000000,-0.250000,Suck,-1747.500000,1818.181818,Speed,-1687.500000,1818.181818,Speed,Off,On,0.000000,FALSE,0,,,,,0.000000,0.000000,-0.050000
02:27:08.904 PM 04/28/2016,Teleop Enabled,11,FALSE,0,NO ERROR,-0.000000,0.038500,-0.000000,-0.038500,TRUE,FALSE,FALSE,FALSE,FALSE,FALSE,Disabled,0.000000,0.000000,0.000000,TRUE,0.004410,-0.002213,0.000000,0.001968,0.005234,0.000000,0.028000,-0.019000,-0.018000,1.980000,-1.830000,0.290000,3.048468,Hold,0.130371,0.000000,ResetBack,18241.000000,-0.250000,Suck,-1747.500000,1818.181818,Speed,-1740.000000,1818.181818,Speed,Off,On,0.000000,FALSE,0,,,,,0.000000,0.000000,-0.050000
02:27:09.008 PM 04/28/2016,Teleop Enabled,10,FALSE,0,NO ERROR,-0.000000,0.038500,-0.000000,-0.038500,TRUE,FALSE,FALSE,FALSE,FALSE,FALSE,Disabled,0.000000,0.000000,0.000000,TRUE,0.004944,-0.001556,0.000000,0.012161,0.024353,0.000000,0.031000,-0.079000,-0.050000,1.990000,-1.820000,0.370000,3.061691,Hold,0.130371,0.000000,ResetBack,18249.000000,-0.250000,Suck,-1762.500000,1818.181818,Speed,-1740.000000,1818.181818,Speed,Off,On,0.000000,FALSE,0,,,,,0.000000,0.000000,-0.050000
02:27:09.108 PM 04/28/2016,Teleop Enabled,7,FALSE,0,NO ERROR,-0.000000,0.038500,-0.000000,-0.038500,TRUE,FALSE,FALSE,FALSE,FALSE,FALSE,Disabled,0.000000,0.000000,0.000000,TRUE,0.005753,-0.001175,0.000000,0.017670,0.004684,0.000000,0.012000,0.008000,-0.042000,1.970000,-1.840000,0.420000,3.061481,Hold,0.130371,0.000000,Reset,18249.000000,2.000000,Suck,-1762.500000,1818.181818,Speed,-1732.500000,1818.181818,Speed,Off,On,0.000000,FALSE,0,,,,,0.000000,0.000000,-0.050000
02:27:09.212 PM 04/28/2016,Teleop Enabled,9,FALSE,0,NO ERROR,-0.000000,0.038500,-0.000000,-0.038500,TRUE,FALSE,FALSE,FALSE,FALSE,FALSE,Disabled,0.000000,0.000000,0.000000,TRUE,0.005280,-0.000458,0.000000,-0.015366,0.021698,0.000000,0.010000,-0.038000,-0.050000,1.990000,-1.830000,0.330000,3.068121,Hold,0.130371,0.000000,Hold,1.000000,2.000000,Suck,-1762.500000,1818.181818,Speed,-1710.000000,1818.181818,Speed,Off,On,0.000000,FALSE,0,,,,,0.000000,0.000000,-0.050000
02:27:09.312 PM 04/28/2016,Teleop Enabled,9,FALSE,0,NO ERROR,-0.000000,0.038500,-0.000000,-0.038500,TRUE,FALSE,FALSE,FALSE,FALSE,FALSE,Disabled,0.000000,0.000000,0.000000,TRUE,0.004196,0.000351,0.000000,-0.030533,0.010651,0.000000,-0.022000,0.027000,0.005000,1.980000,-1.830000,0.270000,3.083000,Hold,0.130371,0.000000,Hold,1.000000,2.000000,Suck,-1762.500000,1818.181818,Speed,-1710.000000,1818.181818,Speed,Off,On,0.000000,FALSE,0,,,,,0.000000,0.000000,-0.050000
02:27:09.412 PM 04/28/2016,Teleop Enabled,7,FALSE,0,NO ERROR,-0.000000,0.038500,-0.000000,-0.038500,TRUE,FALSE,FALSE,FALSE,FALSE,FALSE,Disabled,0.000000,0.000000,0.000000,TRUE,0.003372,0.001022,0.000000,-0.003189,0.013931,0.000000,-0.010000,0.000000,-0.003000,1.960000,-1.840000,0.410000,3.081176,Hold,0.130371,0.000000,Hold,-192.000000,2.000000,Suck,-1762.500000,1818.181818,Speed,-1717.500000,1818.181818,Speed,Off,On,0.000000,FALSE,0,,,,,0.000000,0.000000,-0.050000
02:27:09.517 PM 04/28/2016,Teleop Enabled,9,FALSE,0,NO ERROR,-0.000000,0.038500,-0.000000,-0.038500,TRUE,FALSE,FALSE,FALSE,FALSE,FALSE,Disabled,0.000000,0.000000,0.000000,TRUE,0.002914,0.002228,0.000000,-0.012360,0.019958,0.000000,0.021000,0.016000,0.008000,1.960000,-1.840000,0.410000,3.075296,Hold,0.130371,0.000000,Hold,-192.000000,2.000000,Suck,-1762.500000,1818.181818,Speed,-1732.500000,1818.181818,Speed,Off,On,0.000000,FALSE,0,,,,,0.000000,0.000000,-0.050000
02:27:09.614 PM 04/28/2016,Teleop Enabled,11,FALSE,0,NO ERROR,-0.000000,0.038500,-0.000000,-0.038500,TRUE,FALSE,FALSE,FALSE,FALSE,FALSE,Disabled,0.000000,0.000000,0.000000,TRUE,0.002914,0.002228,0.000000,-0.012360,0.019958,0.000000,0.029000,-0.033000,0.086000,1.980000,-1.840000,0.300000,3.079217,Hold,0.130371,0.000000,Hold,-192.000000,2.000000,Suck,-1762.500000,1818.181818,Speed,-1740.000000,1818.181818,Speed,Off,On,0.000000,FALSE,0,,,,,0.000000,0.000000,-0.050000
02:27:09.717 PM 04/28/2016,Teleop Enabled,12,FALSE,0,NO ERROR,-0.000000,0.038500,-0.000000,-0.038500,TRUE,FALSE,FALSE,FALSE,FALSE,FALSE,Disabled,0.000000,0.000000,0.000000,TRUE,0.001801,0.003265,0.000000,-0.022308,0.011993,0.000000,0.046000,-0.079000,0.036000,1.960000,-1.840000,0.340000,3.077912,Hold,0.130371,0.000000,Hold,-192.000000,2.000000,Suck,-1770.000000,1818.181818,Speed,-1740.000000,1818.181818,Speed,Off,On,0.000000,FALSE,0,,,,,0.000000,0.000000,-0.050000
02:27:09.819 PM 04/28/2016,Teleop Enabled,13,FALSE,0,NO ERROR,-0.000000,0.038500,-0.000000,-0.038500,TRUE,FALSE,FALSE,FALSE,FALSE,FALSE,Disabled,0.000000,0.000000,0.000000,TRUE,0.000854,0.003952,0.000000,-0.011871,0.007736,0.000000,-0.012000,0.033000,0.042000,1.960000,-1.840000,0.340000,3.077382,Hold,0.130371,0.000000,Hold,-192.000000,2.000000,Suck,-1770.000000,1818.181818,Speed,-1725.000000,1818.181818,Speed,Off,On,0.000000,FALSE,0,,,,,0.000000,0.000000,-0.050000
02:27:09.919 PM 04/28/2016,Teleop Enabled,12,FALSE,0,NO ERROR,-0.000000,0.038500,-0.000000,-0.038500,TRUE,FALSE,FALSE,FALSE,FALSE,FALSE,Disabled,0.000000,0.000000,0.000000,TRUE,0.000854,0.003952,0.000000,-0.011871,0.007736,0.000000,-0.088000,0.063000,0.029000,2.030000,-1.840000,0.190000,3.074118,Hold,0.130371,0.000000,Hold,-192.000000,2.000000,Suck,-1762.500000,1818.181818,Speed,-1732.500000,1818.181818,Speed,Off,On,0.000000,FALSE,0,,,,,0.000000,0.000000,-0.050000
02:27:10.021 PM 04/28/2016,Teleop Enabled,14,FALSE,0,NO ERROR,-0.000000,0.038500,-0.000000,-0.038500,TRUE,FALSE,FALSE,FALSE,FALSE,FALSE,Disabled,0.000000,0.000000,0.000000,TRUE,-0.001099,0.004196,0.000000,-0.043762,-0.009216,0.000000,0.016000,-0.027000,0.058000,2.030000,-1.840000,0.190000,3.073299,Hold,0.130371,0.000000,Hold,-192.000000,2.000000,Suck,-1762.500000,1818.181818,Speed,-1747.500000,1818.181818,Speed,Off,On,0.000000,FALSE,0,,,,,0.000000,0.000000,-0.050000
02:27:10.122 PM 04/28/2016,Teleop Enabled,14,FALSE,0,NO ERROR,-0.000000,0.038500,-0.000000,-0.038500,TRUE,FALSE,FALSE,FALSE,FALSE,FALSE,Disabled,0.000000,0.000000,0.000000,TRUE,-0.001419,0.003418,0.000000,0.012604,-0.020416,0.000000,-0.004000,-0.040000,0.024000,1.970000,-1.840000,0.270000,3.082966,Hold,0.130371,0.000000,Hold,-192.000000,2.000000,Suck,-1762.500000,1818.181818,Speed,-1740.000000,1818.181818,Speed,Off,On,0.000000,FALSE,0,,,,,0.000000,0.000000,-0.050000
02:27:10.223 PM 04/28/2016,Teleop Enabled,15,FALSE,0,NO ERROR,-0.000000,0.038500,-0.000000,-0.038500,TRUE,FALSE,FALSE,FALSE,FALSE,FALSE,Disabled,0.000000,0.000000,0.000000,TRUE,-0.000610,0.002701,0.000000,0.014343,0.000000,0.000000,-0.031000,0.001000,0.015000,1.970000,-1.840000,0.260000,3.090391,Hold,0.130371,0.000000,Hold,-192.000000,2.000000,Suck,-1770.000000,1818.181818,Speed,-1740.000000,1818.181818,Speed,Off,On,0.000000,FALSE,0,,,,,0.000000,0.000000,-0.050000
02:27:10.324 PM 04/28/2016,Teleop Enabled,12,FALSE,0,NO ERROR,-0.000000,0.038500,-0.000000,-0.038500,TRUE,FALSE,FALSE,FALSE,FALSE,FALSE,Disabled,0.000000,0.000000,0.000000,TRUE,-0.000336,0.002655,0.000000,-0.004578,-0.006241,0.000000,-0.054000,0.036000,0.042000,1.990000,-1.840000,0.250000,3.086284,Hold,0.130371,0.000000,Hold,-192.000000,2.000000,Suck,-1770.000000,1818.181818,Speed,-1725.000000,1818.181818,Speed,Off,On,0.000000,FALSE,0,,,,,0.000000,0.000000,-0.050000
02:27:10.425 PM 04/28/2016,Teleop Enabled,13,FALSE,0,NO ERROR,-0.000000,0.038500,-0.000000,-0.038500,TRUE,FALSE,FALSE,FALSE,FALSE,FALSE,Disabled,0.000000,0.000000,0.000000,TRUE,-0.001221,0.002365,0.000000,-0.023132,-0.007935,0.000000,0.021000,0.036000,0.019000,1.980000,-1.840000,0.130000,3.104623,Hold,0.130371,0.000000,Hold,-192.000000,2.000000,Suck,-1762.500000,1818.181818,Speed,-1732.500000,1818.181818,Speed,Off,On,0.000000,FALSE,0,,,,,0.000000,0.000000,-0.050000
02:27:10.527 PM 04/28/2016,Teleop Enabled,8,FALSE,0,NO ERROR,-0.000000,0.038500,-0.000000,-0.038500,TRUE,FALSE,FALSE,FALSE,FALSE,FALSE,Disabled,0.000000,0.000000,0.000000,TRUE,-0.002625,0.001602,0.000000,-0.019424,-0.019928,0.000000,0.078000,0.053000,0.048000,1.950000,-1.850000,0.210000,3.104351,Hold,0.130371,0.000000,Hold,-192.000000,2.000000,Suck,-1770.000000,1818.181818,Speed,-1732.500000,1818.181818,Speed,Off,On,0.000000,FALSE,0,,,,,0.000000,0.000000,-0.050000
02:27:10.627 PM 04/28/2016,Teleop Enabled,7,FALSE,0,NO ERROR,-0.000000,0.038500,-0.000000,-0.038500,TRUE,FALSE,FALSE,FALSE,FALSE,FALSE,Disabled,0.000000,0.000000,0.000000,TRUE,-0.002502,0.001083,0.000000,0.010284,-0.010513,0.000000,-0.005000,-0.021000,0.047000,1.980000,-1.850000,0.270000,3.115694,Hold,0.130371,0.000000,Hold,-192.000000,2.000000,Suck,-1770.000000,1818.181818,Speed,-1740.000000,1818.181818,Speed,Off,On,0.000000,FALSE,0,,,,,0.000000,0.000000,-0.050000
02:27:10.730 PM 04/28/2016,Teleop Enabled,7,FALSE,0,NO ERROR,-0.000000,0.038500,-0.000000,-0.038500,TRUE,FALSE,FALSE,FALSE,FALSE,FALSE,Disabled,0.000000,0.000000,0.000000,TRUE,-0.002731,0.000748,0.000000,-0.014709,-0.000656,0.000000,-0.050000,-0.041000,0.054000,2.000000,-1.840000,0.160000,3.098533,Hold,0.130371,0.000000,Hold,-192.000000,2.000000,Suck,-1762.500000,1818.181818,Speed,-1747.500000,1818.181818,Speed,Off,On,0.000000,FALSE,0,,,,,0.000000,0.000000,-0.050000
02:27:10.831 PM 04/28/2016,Teleop Enabled,7,FALSE,0,NO ERROR,-0.000000,0.038500,-0.000000,-0.038500,TRUE,FALSE,FALSE,FALSE,FALSE,FALSE,Disabled,0.000000,0.000000,0.000000,TRUE,-0.003387,0.000458,0.000000,0.007965,-0.009354,0.000000,-0.009000,-0.048000,0.078000,1.980000,-1.850000,0.210000,3.097844,Hold,0.130371,0.000000,Hold,-192.000000,2.000000,Suck,-1770.000000,1818.181818,Speed,-1740.000000,1818.181818,Speed,Off,On,0.000000,FALSE,0,,,,,0.000000,0.000000,-0.050000
02:27:10.930 PM 04/28/2016,Teleop Enabled,10,FALSE,0,NO ERROR,-0.000000,0.038500,-0.000000,-0.038500,TRUE,FALSE,FALSE,FALSE,FALSE,FALSE,Disabled,0.000000,0.000000,0.000000,TRUE,-0.002243,-0.000137,0.000000,0.030762,-0.012680,0.000000,0.043000,-0.007000,0.056000,1.980000,-1.850000,0.310000,3.088939,Hold,0.130371,0.000000,Hold,-192.000000,2.000000,Suck,-1770.000000,1818.181818,Speed,-1740.000000,1818.181818,Speed,Off,On,0.000000,FALSE,0,,,,,0.000000,0.000000,-0.050000
02:27:11.036 PM 04/28/2016,Teleop Enabled,9,FALSE,0,NO ERROR,-0.000000,0.038500,-0.000000,-0.038500,TRUE,FALSE,FALSE,FALSE,FALSE,FALSE,Disabled,0.000000,0.000000,0.000000,TRUE,-0.000092,-0.001434,0.000000,0.016891,-0.019562,0.000000,0.006000,-0.003000,-0.009000,1.970000,-1.850000,0.270000,3.097428,Hold,0.130371,0.000000,Hold,-192.000000,2.000000,Suck,-1770.000000,1818.181818,Speed,-1740.000000,1818.181818,Speed,Off,On,0.000000,FALSE,0,,,,,0.000000,0.000000,-0.050000
02:27:11.137 PM 04/28/2016,Teleop Enabled,13,FALSE,0,NO ERROR,-0.000000,0.038500,-0.000000,-0.038500,TRUE,FALSE,FALSE,FALSE,FALSE,FALSE,Disabled,0.000000,0.000000,0.000000,TRUE,-0.000092,-0.001434,0.000000,0.016891,-0.019562,0.000000,-0.004000,-0.022000,-0.033000,1.930000,-1.850000,0.220000,3.105535,Hold,0.130371,0.000000,Hold,-192.000000,2.000000,Suck,-1770.000000,1818.181818,Speed,-1740.000000,1818.181818,Speed,Off,On,0.000000,FALSE,0,,,,,0.000000,0.000000,-0.050000
02:27:11.238 PM 04/28/2016,Teleop Enabled,14,FALSE,0,NO ERROR,-0.000000,0.038500,-0.000000,-0.038500,TRUE,FALSE,FALSE,FALSE,FALSE,FALSE,Disabled,0.000000,0.000000,0.000000,TRUE,0.000671,-0.002731,0.000000,0.002350,0.008621,0.000000,-0.005000,-0.004000,-0.044000,1.920000,-1.850000,0.250000,3.117877,Hold,0.130371,0.000000,Hold,-192.000000,2.000000,Suck,-1770.000000,1818.181818,Speed,-1732.500000,1818.181818,Speed,Off,On,0.000000,FALSE,0,,,,,0.000000,0.000000,-0.050000
02:27:11.339 PM 04/28/2016,Teleop Enabled,13,FALSE,0,NO ERROR,-0.000000,0.038500,-0.000000,-0.038500,TRUE,FALSE,FALSE,FALSE,FALSE,FALSE,Disabled,0.000000,0.000000,0.000000,TRUE,0.000671,-0.002731,0.000000,0.002350,0.008621,0.000000,-0.066000,0.058000,-0.084000,1.990000,-1.840000,0.040000,3.114878,Hold,0.130371,0.000000,Hold,-192.000000,2.000000,Suck,-1770.000000,1818.181818,Speed,-1732.500000,1818.181818,Speed,Off,On,0.000000,FALSE,0,,,,,0.000000,0.000000,-0.050000
02:27:11.441 PM 04/28/2016,Teleop Enabled,11,FALSE,0,NO ERROR,-0.000000,0.038500,-0.000000,-0.038500,TRUE,FALSE,FALSE,FALSE,FALSE,FALSE,Disabled,0.000000,0.000000,0.000000,TRUE,-0.001144,-0.002136,0.000000,-0.038666,0.003189,0.000000,-0.018000,0.015000,-0.015000,1.940000,-1.850000,0.170000,3.120710,Hold,0.130371,0.000000,Hold,-192.000000,2.000000,Suck,-1770.000000,1818.181818,Speed,-1747.500000,1818.181818,Speed,Off,On,0.000000,FALSE,0,,,,,0.000000,0.000000,-0.050000
02:27:11.540 PM 04/28/2016,Teleop Enabled,12,FALSE,0,NO ERROR,-0.000000,0.038500,-0.000000,-0.038500,TRUE,FALSE,FALSE,FALSE,FALSE,FALSE,Disabled,0.000000,0.000000,0.000000,TRUE,-0.002594,-0.002060,0.000000,-0.016159,-0.000992,0.000000,0.099000,-0.042000,-0.015000,1.940000,-1.860000,0.330000,3.129478,Hold,0.130371,0.000000,Hold,-192.000000,2.000000,Suck,-1770.000000,1818.181818,Speed,-1747.500000,1818.181818,Speed,Off,On,0.000000,FALSE,0,,,,,0.000000,0.000000,-0.050000
02:27:11.641 PM 04/28/2016,Teleop Enabled,12,FALSE,0,NO ERROR,-0.000000,0.038500,-0.000000,-0.038500,TRUE,FALSE,FALSE,FALSE,FALSE,FALSE,Disabled,0.000000,0.000000,0.000000,TRUE,-0.001617,-0.002182,0.000000,0.022324,-0.000305,0.000000,0.024000,-0.023000,-0.085000,1.940000,-1.860000,0.330000,3.123244,Hold,0.130371,0.000000,Hold,-192.000000,2.000000,Suck,-1770.000000,1818.181818,Speed,-1740.000000,1818.181818,Speed,Off,On,0.000000,FALSE,0,,,,,0.000000,0.000000,-0.050000
02:27:11.741 PM 04/28/2016,Teleop Enabled,10,FALSE,0,NO ERROR,-0.000000,0.038500,-0.000000,-0.038500,TRUE,FALSE,FALSE,FALSE,FALSE,FALSE,Disabled,0.000000,0.000000,0.000000,TRUE,-0.000977,-0.002640,0.000000,-0.004364,-0.015060,0.000000,0.041000,0.030000,-0.017000,1.970000,-1.850000,0.250000,3.127571,Hold,0.130371,0.000000,Hold,-192.000000,2.000000,Suck,-1770.000000,1818.181818,Speed,-1740.000000,1818.181818,Speed,Off,On,0.000000,FALSE,0,,,,,0.000000,0.000000,-0.050000
02:27:11.844 PM 04/28/2016,Teleop Enabled,13,FALSE,0,NO ERROR,-0.000000,0.038500,-0.000000,-0.038500,TRUE,FALSE,FALSE,FALSE,FALSE,FALSE,Disabled,0.000000,0.000000,0.000000,TRUE,-0.001663,-0.003494,0.000000,-0.027573,-0.017532,0.000000,-0.042000,0.035000,-0.044000,1.950000,-1.850000,0.160000,3.122603,Hold,0.130371,0.000000,Hold,-192.000000,2.000000,Suck,-1770.000000,1818.181818,Speed,-1747.500000,1818.181818,Speed,Off,On,0.000000,FALSE,0,,,,,0.000000,0.000000,-0.050000
02:27:11.944 PM 04/28/2016,Teleop Enabled,12,FALSE,0,NO ERROR,-0.000000,0.038500,-0.000000,-0.038500,TRUE,FALSE,FALSE,FALSE,FALSE,FALSE,Disabled,0.000000,0.000000,0.000000,TRUE,-0.002777,-0.004425,0.000000,-0.017181,0.000000,0.000000,0.011000,0.049000,-0.020000,1.990000,-1.850000,0.180000,3.126697,Hold,0.130371,0.000000,Hold,-192.000000,2.000000,Suck,-1777.500000,1818.181818,Speed,-1755.000000,1818.181818,Speed,Off,On,0.000000,FALSE,0,,,,,0.000000,0.000000,-0.050000
02:27:12.043 PM 04/28/2016,Teleop Enabled,9,FALSE,0,NO ERROR,-0.000000,0.038500,-0.000000,-0.038500,TRUE,FALSE,FALSE,FALSE,FALSE,FALSE,Disabled,0.000000,0.000000,0.000000,TRUE,-0.004242,-0.003784,0.000000,-0.034760,0.013962,0.000000,0.047000,-0.041000,-0.007000,2.000000,-1.850000,0.140000,3.116321,Hold,0.130371,0.000000,Hold,-192.000000,2.000000,Suck,-1770.000000,1818.181818,Speed,-1747.500000,1818.181818,Speed,Off,On,0.000000,FALSE,0,,,,,0.000000,0.000000,-0.050000
02:27:12.146 PM 04/28/2016,Teleop Enabled,12,FALSE,0,NO ERROR,-0.000000,0.038500,-0.000000,-0.038500,TRUE,FALSE,FALSE,FALSE,FALSE,FALSE,Disabled,0.000000,0.000000,0.000000,TRUE,-0.004776,-0.003082,0.000000,0.005966,0.014832,0.000000,-0.005000,0.029000,0.049000,1.970000,-1.850000,0.200000,3.091545,Hold,0.130371,0.000000,Hold,-192.000000,2.000000,Suck,-1777.500000,1818.181818,Speed,-1747.500000,1818.181818,Speed,Off,On,0.000000,FALSE,0,,,,,0.000000,0.000000,-0.050000
02:27:12.247 PM 04/28/2016,Teleop Enabled,10,FALSE,0,NO ERROR,-0.000000,0.038500,-0.000000,-0.038500,TRUE,FALSE,FALSE,FALSE,FALSE,FALSE,Disabled,0.000000,0.000000,0.000000,TRUE,-0.004547,-0.002899,0.000000,0.005219,0.000000,0.000000,-0.037000,-0.012000,0.030000,1.970000,-1.850000,0.210000,3.100822,Hold,0.130371,0.000000,Hold,-192.000000,2.000000,Suck,-1770.000000,1818.181818,Speed,-1747.500000,1818.181818,Speed,Off,On,0.000000,FALSE,0,,,,,0.000000,0.000000,-0.050000
02:27:12.349 PM 04/28/2016,Teleop Enabled,7,FALSE,0,NO ERROR,-0.000000,0.038500,-0.000000,-0.038500,TRUE,FALSE,FALSE,FALSE,FALSE,FALSE,Disabled,0.000000,0.000000,0.000000,TRUE,-0.005371,-0.002625,0.000000,-0.028183,0.000000,0.000000,0.017000,-0.009000,-0.003000,1.970000,-1.840000,0.080000,3.109556,Hold,0.130371,0.000000,Hold,-192.000000,2.000000,Suck,-1770.000000,1818.181818,Speed,-1747.500000,1818.181818,Speed,Off,On,0.000000,FALSE,0,,,,,0.000000,0.000000,-0.050000
02:27:12.457 PM 04/28/2016,Teleop Enabled,9,FALSE,0,NO ERROR,-0.000000,0.038500,-0.000000,-0.038500,TRUE,FALSE,FALSE,FALSE,FALSE,FALSE,Disabled,0.000000,0.000000,0.000000,TRUE,-0.005310,-0.002594,0.000000,0.011917,-0.005508,0.000000,-0.023000,0.003000,-0.008000,2.000000,-1.840000,0.110000,3.114531,Hold,0.130371,0.000000,Hold,-192.000000,2.000000,Suck,-1777.500000,1818.181818,Speed,-1747.500000,1818.181818,Speed,Off,On,0.000000,FALSE,0,,,,,0.000000,0.000000,-0.050000
02:27:12.553 PM 04/28/2016,Teleop Enabled,7,FALSE,0,NO ERROR,-0.000000,0.038500,-0.000000,-0.038500,TRUE,FALSE,FALSE,FALSE,FALSE,FALSE,Disabled,0.000000,0.000000,0.000000,TRUE,-0.004547,-0.002914,0.000000,0.000000,-0.005722,0.000000,0.051000,0.011000,0.003000,2.000000,-1.840000,0.110000,3.116555,Hold,0.130371,0.000000,Hold,-192.000000,2.000000,Suck,-1770.000000,1818.181818,Speed,-1755.000000,1818.181818,Speed,Off,On,0.000000,FALSE,0,,,,,0.000000,0.000000,-0.050000
02:27:12.657 PM 04/28/2016,Teleop Enabled,14,FALSE,0,NO ERROR,-0.000000,0.038500,-0.000000,-0.038500,TRUE,FALSE,FALSE,FALSE,FALSE,FALSE,Disabled,0.000000,0.000000,0.000000,TRUE,-0.004547,-0.002914,0.000000,0.000000,-0.005722,0.000000,-0.035000,0.020000,-0.021000,1.960000,-1.850000,0.130000,3.125399,Hold,0.130371,0.000000,Hold,-192.000000,2.000000,Suck,-1770.000000,1818.181818,Speed,-1747.500000,1818.181818,Speed,Off,On,0.000000,FALSE,0,,,,,0.000000,0.000000,-0.050000
02:27:12.758 PM 04/28/2016,Teleop Enabled,11,FALSE,0,NO ERROR,-0.000000,0.038500,-0.000000,-0.038500,TRUE,FALSE,FALSE,FALSE,FALSE,FALSE,Disabled,0.000000,0.000000,0.000000,TRUE,-0.004669,-0.003174,0.000000,0.002060,-0.000153,0.000000,0.042000,0.043000,0.013000,1.980000,-1.840000,0.130000,3.131237,Hold,0.130371,0.000000,Hold,-192.000000,2.000000,Suck,-1777.500000,1818.181818,Speed,-1747.500000,1818.181818,Speed,Off,On,0.000000,FALSE,0,,,,,0.000000,0.000000,-0.050000
02:27:12.858 PM 04/28/2016,Teleop Enabled,14,FALSE,0,NO ERROR,-0.000000,0.038500,-0.000000,-0.038500,TRUE,FALSE,FALSE,FALSE,FALSE,FALSE,Disabled,0.000000,0.000000,0.000000,TRUE,-0.004761,-0.002960,0.000000,-0.009521,0.010559,0.000000,-0.067000,-0.024000,-0.038000,2.010000,-1.840000,0.040000,3.119870,Hold,0.130371,0.000000,Hold,-192.000000,2.000000,Suck,-1777.500000,1818.181818,Speed,-1747.500000,1818.181818,Speed,Off,On,0.000000,FALSE,0,,,,,0.000000,0.000000,-0.050000
02:27:12.957 PM 04/28/2016,Teleop Enabled,11,FALSE,0,NO ERROR,-0.000000,0.038500,-0.000000,-0.038500,TRUE,FALSE,FALSE,FALSE,FALSE,FALSE,Disabled,0.000000,0.000000,0.000000,TRUE,-0.005844,-0.002350,0.000000,-0.017715,0.016922,0.000000,-0.009000,0.025000,-0.056000,2.020000,-1.840000,0.050000,3.119870,Hold,0.130371,0.000000,Hold,-192.000000,2.000000,Suck,-1770.000000,1818.181818,Speed,-1747.500000,1818.181818,Speed,Off,On,0.000000,FALSE,0,,,,,0.000000,0.000000,-0.050000
02:27:13.057 PM 04/28/2016,Teleop Enabled,12,FALSE,0,NO ERROR,-0.000000,0.038500,-0.000000,-0.038500,TRUE,FALSE,FALSE,FALSE,FALSE,FALSE,Disabled,0.000000,0.000000,0.000000,TRUE,-0.006393,-0.001846,0.000000,0.000000,0.008575,0.000000,0.032000,0.037000,-0.076000,2.010000,-1.840000,0.020000,3.125371,Hold,0.130371,0.000000,Hold,-192.000000,2.000000,Suck,-1777.500000,1818.181818,Speed,-1747.500000,1818.181818,Speed,Off,On,0.000000,FALSE,0,,,,,0.000000,0.000000,-0.050000
02:27:13.157 PM 04/28/2016,Teleop Enabled,13,FALSE,0,NO ERROR,-0.000000,0.038500,-0.000000,-0.038500,TRUE,FALSE,FALSE,FALSE,FALSE,FALSE,Disabled,0.000000,0.000000,0.000000,TRUE,-0.006531,-0.000992,0.000000,-0.005768,0.022141,0.000000,0.052000,-0.007000,-0.033000,2.020000,-1.840000,-0.010000,3.118940,Hold,0.130371,0.000000,Hold,-192.000000,2.000000,Suck,-1777.500000,1818.181818,Speed,-1755.000000,1818.181818,Speed,Off,On,0.000000,FALSE,0,,,,,0.000000,0.000000,-0.050000
02:27:13.257 PM 04/28/2016,Teleop Enabled,12,FALSE,0,NO ERROR,-0.000000,0.038500,-0.000000,-0.038500,TRUE,FALSE,FALSE,FALSE,FALSE,FALSE,Disabled,0.000000,0.000000,0.000000,TRUE,-0.006363,0.000214,0.000000,0.000000,0.026794,0.000000,0.047000,-0.025000,-0.029000,2.030000,-1.840000,0.070000,3.107518,Hold,0.130371,0.000000,Hold,-192.000000,2.000000,Suck,-1770.000000,1818.181818,Speed,-1755.000000,1818.181818,Speed,Off,On,0.000000,FALSE,0,,,,,0.000000,0.000000,-0.050000
02:27:13.357 PM 04/28/2016,Teleop Enabled,14,FALSE,0,NO ERROR,-0.000000,0.038500,-0.000000,-0.038500,TRUE,FALSE,FALSE,FALSE,FALSE,FALSE,Disabled,0.000000,0.000000,0.000000,TRUE,-0.006073,0.001358,0.000000,0.004242,0.016403,0.000000,0.039000,0.012000,0.005000,2.020000,-1.840000,0.040000,3.107053,Hold,0.130371,0.000000,Hold,-192.000000,2.000000,Suck,-1777.500000,1818.181818,Speed,-1747.500000,1818.181818,Speed,Off,On,0.000000,FALSE,0,,,,,0.000000,0.000000,-0.050000
02:27:13.457 PM 04/28/2016,Teleop Enabled,11,FALSE,0,NO ERROR,-0.000000,0.038500,-0.000000,-0.038500,TRUE,FALSE,FALSE,FALSE,FALSE,FALSE,Disabled,0.000000,0.000000,0.000000,TRUE,-0.005844,0.002151,0.000000,0.004868,0.000000,0.000000,-0.015000,0.003000,-0.023000,2.000000,-1.840000,0.050000,3.115594,Hold,0.130371,0.000000,Hold,-192.000000,2.000000,Suck,-1777.500000,1818.181818,Speed,-1747.500000,1818.181818,Speed,Off,On,0.000000,FALSE,0,,,,,0.000000,0.000000,-0.050000
02:27:13.557 PM 04/28/2016,Teleop Enabled,13,FALSE,0,NO ERROR,-0.000000,0.038500,-0.000000,-0.038500,TRUE,FALSE,FALSE,FALSE,FALSE,FALSE,Disabled,0.000000,0.000000,0.000000,TRUE,-0.005432,0.002335,0.000000,0.005310,0.014191,0.000000,0.018000,-0.054000,0.036000,2.040000,-1.840000,0.030000,3.131805,Hold,0.130371,0.000000,Hold,-192.000000,2.000000,Suck,-1770.000000,1818.181818,Speed,-1755.000000,1818.181818,Speed,Off,On,0.000000,FALSE,0,,,,,0.000000,0.000000,-0.050000
02:27:13.657 PM 04/28/2016,Teleop Enabled,11,FALSE,0,NO ERROR,-0.000000,0.038500,-0.000000,-0.038500,TRUE,FALSE,FALSE,FALSE,FALSE,FALSE,Disabled,0.000000,0.000000,0.000000,TRUE,-0.005341,0.002945,0.000000,-0.007263,0.008972,0.000000,0.020000,-0.048000,0.025000,2.030000,-1.840000,-0.010000,3.140305,Hold,0.130371,0.000000,Hold,-192.000000,2.000000,Suck,-1777.500000,1818.181818,Speed,-1755.000000,1818.181818,Speed,Off,On,0.000000,FALSE,0,,,,,0.000000,0.000000,-0.050000
02:27:13.757 PM 04/28/2016,Teleop Enabled,10,FALSE,0,NO ERROR,-0.000000,0.038500,-0.000000,-0.038500,TRUE,FALSE,FALSE,FALSE,FALSE,FALSE,Disabled,0.000000,0.000000,0.000000,TRUE,-0.005234,0.003372,0.000000,0.012894,0.013077,0.000000,-0.008000,0.089000,0.088000,2.000000,-1.840000,0.080000,3.159921,Hold,0.130371,0.000000,Hold,-192.000000,2.000000,Suck,-1777.500000,1818.181818,Speed,-1755.000000,1818.181818,Speed,Off,On,0.000000,FALSE,0,,,,,0.000000,0.000000,-0.050000
02:27:13.857 PM 04/28/2016,Teleop Enabled,12,FALSE,0,NO ERROR,-0.000000,0.038500,-0.000000,-0.038500,TRUE,FALSE,FALSE,FALSE,FALSE,FALSE,Disabled,0.000000,0.000000,0.000000,TRUE,-0.005051,0.005005,0.000000,-0.012726,0.019379,0.000000,-0.028000,-0.002000,0.080000,2.030000,-1.840000,0.040000,3.156333,Hold,0.130371,0.000000,Hold,-192.000000,2.000000,Suck,-1777.500000,1818.181818,Speed,-1740.000000,1818.181818,Speed,Off,On,0.000000,FALSE,0,,,,,0.000000,0.000000,-0.050000
02:27:13.958 PM 04/28/2016,Teleop Enabled,12,FALSE,0,NO ERROR,-0.000000,0.038500,-0.000000,-0.038500,TRUE,FALSE,FALSE,FALSE,FALSE,FALSE,Disabled,0.000000,0.000000,0.000000,TRUE,-0.005127,0.005997,0.000000,0.003082,0.025070,0.000000,0.035000,-0.008000,0.048000,2.010000,-1.840000,0.040000,3.154127,Hold,0.130371,0.000000,Hold,-192.000000,2.000000,Suck,-1777.500000,1818.181818,Speed,-1755.000000,1818.181818,Speed,Off,On,0.000000,FALSE,0,,,,,0.000000,0.000000,-0.050000
02:27:14.059 PM 04/28/2016,Teleop Enabled,11,FALSE,0,NO ERROR,-0.000000,0.038500,-0.000000,-0.038500,TRUE,FALSE,FALSE,FALSE,FALSE,FALSE,Disabled,0.000000,0.000000,0.000000,TRUE,-0.004929,0.006134,0.000000,0.000000,-0.000366,0.000000,-0.051000,0.017000,0.038000,2.010000,-1.850000,0.060000,3.147438,Hold,0.130371,0.000000,Hold,-192.000000,2.000000,Suck,-1777.500000,1818.181818,Speed,-1762.500000,1818.181818,Speed,Off,On,0.000000,FALSE,0,,,,,0.000000,0.000000,-0.050000
02:27:14.159 PM 04/28/2016,Teleop Enabled,13,FALSE,0,NO ERROR,-0.000000,0.038500,-0.000000,-0.038500,TRUE,FALSE,FALSE,FALSE,FALSE,FALSE,Disabled,0.000000,0.000000,0.000000,TRUE,-0.005402,0.006577,0.000000,-0.007706,0.013458,0.000000,0.028000,0.020000,0.034000,2.010000,-1.850000,-0.020000,3.139875,Hold,0.130371,0.000000,Hold,-192.000000,2.000000,Suck,-1777.500000,1818.181818,Speed,-1755.000000,1818.181818,Speed,Off,On,0.000000,FALSE,0,,,,,0.000000,0.000000,-0.050000
02:27:14.260 PM 04/28/2016,Teleop Enabled,14,FALSE,0,NO ERROR,-0.000000,0.038500,-0.000000,-0.038500,TRUE,FALSE,FALSE,FALSE,FALSE,FALSE,Disabled,0.000000,0.000000,0.000000,TRUE,-0.005417,0.007095,0.000000,0.016541,0.003036,0.000000,0.038000,-0.004000,0.070000,2.020000,-1.850000,0.100000,3.129306,Hold,0.130371,0.000000,Hold,-192.000000,2.000000,Suck,-1777.500000,1818.181818,Speed,-1747.500000,1818.181818,Speed,Off,On,0.000000,FALSE,0,,,,,0.000000,0.000000,-0.050000
02:27:14.363 PM 04/28/2016,Teleop Enabled,13,FALSE,0,NO ERROR,-0.000000,0.038500,-0.000000,-0.038500,TRUE,FALSE,FALSE,FALSE,FALSE,FALSE,Disabled,0.000000,0.000000,0.000000,TRUE,-0.004761,0.008011,0.000000,-0.002533,0.030273,0.000000,-0.072000,-0.018000,-0.018000,2.020000,-1.850000,0.100000,3.129939,Hold,0.130371,0.000000,Hold,-192.000000,2.000000,Suck,-1777.500000,1818.181818,Speed,-1755.000000,1818.181818,Speed,Off,On,0.000000,FALSE,0,,,,,0.000000,0.000000,-0.050000
02:27:14.461 PM 04/28/2016,Teleop Enabled,12,FALSE,0,NO ERROR,-0.000000,0.038500,-0.000000,-0.038500,TRUE,FALSE,FALSE,FALSE,FALSE,FALSE,Disabled,0.000000,0.000000,0.000000,TRUE,-0.005188,0.008026,0.000000,0.001755,-0.006454,0.000000,0.025000,-0.004000,0.019000,2.000000,-1.860000,0.140000,3.121009,Hold,0.130371,0.000000,Hold,-192.000000,2.000000,Suck,-1777.500000,1818.181818,Speed,-1755.000000,1818.181818,Speed,Off,On,0.000000,FALSE,0,,,,,0.000000,0.000000,-0.050000
02:27:14.561 PM 04/28/2016,Teleop Enabled,13,FALSE,0,NO ERROR,-0.000000,0.038500,-0.000000,-0.038500,TRUE,FALSE,FALSE,FALSE,FALSE,FALSE,Disabled,0.000000,0.000000,0.000000,TRUE,-0.004623,0.007797,0.000000,0.009995,0.005157,0.000000,0.001000,-0.044000,-0.067000,2.000000,-1.860000,0.140000,3.138470,Hold,0.130371,0.000000,Hold,-192.000000,2.000000,Suck,-1777.500000,1818.181818,Speed,-1755.000000,1818.181818,Speed,Off,On,0.000000,FALSE,0,,,,,0.000000,0.000000,-0.050000
02:27:14.661 PM 04/28/2016,Teleop Enabled,13,FALSE,0,NO ERROR,-0.000000,0.038500,-0.000000,-0.038500,TRUE,FALSE,FALSE,FALSE,FALSE,FALSE,Disabled,0.000000,0.000000,0.000000,TRUE,-0.004700,0.007462,0.000000,-0.003784,-0.019333,0.000000,0.014000,-0.049000,-0.069000,2.000000,-1.860000,0.120000,3.130924,Hold,0.130371,0.000000,Hold,-192.000000,2.000000,Suck,-1777.500000,1818.181818,Speed,-1762.500000,1818.181818,Speed,Off,On,0.000000,FALSE,0,,,,,0.000000,0.000000,-0.050000
02:27:14.761 PM 04/28/2016,Teleop Enabled,11,FALSE,0,NO ERROR,-0.000000,0.038500,-0.000000,-0.038500,TRUE,FALSE,FALSE,FALSE,FALSE,FALSE,Disabled,0.000000,0.000000,0.000000,TRUE,-0.004623,0.006592,0.000000,0.000000,-0.006973,0.000000,-0.020000,0.032000,-0.089000,2.000000,-1.860000,0.150000,3.120796,Hold,0.130371,0.000000,Hold,-192.000000,2.000000,Suck,-1785.000000,1818.181818,Speed,-1762.500000,1818.181818,Speed,Off,On,0.000000,FALSE,0,,,,,0.000000,0.000000,-0.050000
02:27:14.861 PM 04/28/2016,Teleop Enabled,14,FALSE,0,NO ERROR,-0.000000,0.038500,-0.000000,-0.038500,TRUE,FALSE,FALSE,FALSE,FALSE,FALSE,Disabled,0.000000,0.000000,0.000000,TRUE,-0.005234,0.006256,0.000000,-0.007385,-0.008896,0.000000,0.009000,0.034000,-0.093000,2.010000,-1.860000,0.060000,3.130755,Hold,0.130371,0.000000,Hold,-192.000000,2.000000,Suck,-1777.500000,1818.181818,Speed,-1755.000000,1818.181818,Speed,Off,On,0.000000,FALSE,0,,,,,0.000000,0.000000,-0.050000
02:27:14.962 PM 04/28/2016,Teleop Enabled,12,FALSE,0,NO ERROR,-0.000000,0.038500,-0.000000,-0.038500,TRUE,FALSE,FALSE,FALSE,FALSE,FALSE,Disabled,0.000000,0.000000,0.000000,TRUE,-0.005249,0.006516,0.000000,-0.012405,0.017242,0.000000,0.008000,0.004000,-0.093000,2.040000,-1.860000,0.060000,3.137468,Hold,0.130371,0.000000,Hold,-192.000000,2.000000,Suck,-1777.500000,1818.181818,Speed,-1755.000000,1818.181818,Speed,Off,On,0.000000,FALSE,0,,,,,0.000000,0.000000,-0.050000
02:27:15.062 PM 04/28/2016,Teleop Enabled,11,FALSE,0,NO ERROR,-0.000000,0.038500,-0.000000,-0.038500,TRUE,FALSE,FALSE,FALSE,FALSE,FALSE,Disabled,0.000000,0.000000,0.000000,TRUE,-0.005554,0.007187,0.000000,-0.001831,0.005554,0.000000,0.008000,0.054000,-0.029000,2.020000,-1.860000,0.080000,3.138054,Hold,0.130371,0.000000,Hold,-192.000000,2.000000,Suck,-1777.500000,1818.181818,Speed,-1755.000000,1818.181818,Speed,Off,On,0.000000,FALSE,0,,,,,0.000000,0.000000,-0.050000
02:27:15.162 PM 04/28/2016,Teleop Enabled,11,FALSE,0,NO ERROR,-0.000000,0.038500,-0.000000,-0.038500,TRUE,FALSE,FALSE,FALSE,FALSE,FALSE,Disabled,0.000000,0.000000,0.000000,TRUE,-0.004395,0.007355,0.000000,0.038940,0.007309,0.000000,-0.010000,0.037000,-0.022000,1.990000,-1.870000,0.250000,3.142901,Hold,0.130371,0.000000,Hold,-192.000000,2.000000,Suck,-1785.000000,1818.181818,Speed,-1755.000000,1818.181818,Speed,Off,On,0.000000,FALSE,0,,,,,0.000000,0.000000,-0.050000
02:27:15.262 PM 04/28/2016,Teleop Enabled,11,FALSE,0,NO ERROR,-0.000000,0.038500,-0.000000,-0.038500,TRUE,FALSE,FALSE,FALSE,FALSE,FALSE,Disabled,0.000000,0.000000,0.000000,TRUE,-0.004547,0.007401,0.000000,-0.029465,-0.007812,0.000000,0.065000,-0.122000,0.005000,2.030000,-1.870000,0.150000,3.126442,Hold,0.130371,0.000000,Hold,-192.000000,2.000000,Suck,-1777.500000,1818.181818,Speed,-1762.500000,1818.181818,Speed,Off,On,0.000000,FALSE,0,,,,,0.000000,0.000000,-0.050000
02:27:15.362 PM 04/28/2016,Teleop Enabled,10,FALSE,0,NO ERROR,-0.000000,0.038500,-0.000000,-0.038500,TRUE,FALSE,FALSE,FALSE,FALSE,FALSE,Disabled,0.000000,0.000000,0.000000,TRUE,-0.005432,0.006226,0.000000,-0.011368,-0.025955,0.000000,-0.005000,0.050000,0.038000,2.020000,-1.870000,0.170000,3.131409,Hold,0.130371,0.000000,Hold,-192.000000,2.000000,Suck,-1777.500000,1818.181818,Speed,-1755.000000,1818.181818,Speed,Off,On,0.000000,FALSE,0,,,,,0.000000,0.000000,-0.050000
02:27:15.462 PM 04/28/2016,Teleop Enabled,11,FALSE,0,NO ERROR,-0.000000,0.038500,-0.000000,-0.038500,TRUE,FALSE,FALSE,FALSE,FALSE,FALSE,Disabled,0.000000,0.000000,0.000000,TRUE,-0.006134,0.005692,0.000000,-0.018173,-0.010284,0.000000,-0.053000,0.036000,0.026000,2.020000,-1.870000,0.160000,3.120658,Hold,0.130371,0.000000,Hold,-192.000000,2.000000,Suck,-1785.000000,1818.181818,Speed,-1755.000000,1818.181818,Speed,Off,On,0.000000,FALSE,0,,,,,0.000000,0.000000,-0.050000
02:27:15.562 PM 04/28/2016,Teleop Enabled,11,FALSE,0,NO ERROR,-0.000000,0.038500,-0.000000,-0.038500,TRUE,FALSE,FALSE,FALSE,FALSE,FALSE,Disabled,0.000000,0.000000,0.000000,TRUE,-0.006943,0.004852,0.000000,0.000000,-0.018585,0.000000,0.057000,0.035000,0.110000,1.990000,-1.870000,0.200000,3.116414,Hold,0.130371,0.000000,Hold,-192.000000,2.000000,Suck,-1777.500000,1818.181818,Speed,-1762.500000,1818.181818,Speed,Off,On,0.000000,FALSE,0,,,,,0.000000,0.000000,-0.050000
02:27:15.662 PM 04/28/2016,Teleop Enabled,12,FALSE,0,NO ERROR,-0.000000,0.038500,-0.000000,-0.038500,TRUE,FALSE,FALSE,FALSE,FALSE,FALSE,Disabled,0.000000,0.000000,0.000000,TRUE,-0.005554,0.004562,0.000000,0.042618,0.002853,0.000000,-0.049000,-0.031000,0.000000,1.990000,-1.870000,0.280000,3.120152,Hold,0.130371,0.000000,Hold,-192.000000,2.000000,Suck,-1785.000000,1818.181818,Speed,-1762.500000,1818.181818,Speed,Off,On,0.000000,FALSE,0,,,,,0.000000,0.000000,-0.050000
02:27:15.762 PM 04/28/2016,Teleop Enabled,13,FALSE,0,NO ERROR,-0.000000,0.038500,-0.000000,-0.038500,TRUE,FALSE,FALSE,FALSE,FALSE,FALSE,Disabled,0.000000,0.000000,0.000000,TRUE,-0.004074,0.004242,0.000000,0.032578,-0.013229,0.000000,0.014000,0.028000,0.091000,1.990000,-1.880000,0.300000,3.114937,Hold,0.130371,0.000000,Hold,-192.000000,2.000000,Suck,-1785.000000,1818.181818,Speed,-1747.500000,1818.181818,Speed,Off,On,0.000000,FALSE,0,,,,,0.000000,0.000000,-0.050000
02:27:15.862 PM 04/28/2016,Teleop Enabled,11,FALSE,0,NO ERROR,-0.000000,0.038500,-0.000000,-0.038500,TRUE,FALSE,FALSE,FALSE,FALSE,FALSE,Disabled,0.000000,0.000000,0.000000,TRUE,-0.004028,0.004044,0.000000,-0.001465,0.008636,0.000000,-0.055000,0.008000,0.097000,2.000000,-1.870000,0.260000,3.111377,Hold,0.130371,0.000000,Hold,-192.000000,2.000000,Suck,-1777.500000,1818.181818,Speed,-1755.000000,1818.181818,Speed,Off,On,0.000000,FALSE,0,,,,,0.000000,0.000000,-0.050000
02:27:15.962 PM 04/28/2016,Teleop Enabled,11,FALSE,0,NO ERROR,-0.000000,0.038500,-0.000000,-0.038500,TRUE,FALSE,FALSE,FALSE,FALSE,FALSE,Disabled,0.000000,0.000000,0.000000,TRUE,-0.004700,0.003937,0.000000,-0.011444,-0.008865,0.000000,-0.021000,0.025000,0.055000,1.990000,-1.870000,0.210000,3.113522,Hold,0.130371,0.000000,Hold,-192.000000,2.000000,Suck,-1785.000000,1818.181818,Speed,-1755.000000,1818.181818,Speed,Off,On,0.000000,FALSE,0,,,,,0.000000,0.000000,-0.050000
02:27:16.062 PM 04/28/2016,Teleop Enabled,11,FALSE,0,NO ERROR,-0.000000,0.038500,-0.000000,-0.038500,TRUE,FALSE,FALSE,FALSE,FALSE,FALSE,Disabled,0.000000,0.000000,0.000000,TRUE,-0.005829,0.004242,0.000000,-0.031494,0.022690,0.000000,-0.016000,-0.050000,0.003000,2.030000,-1.870000,0.140000,3.096089,Hold,0.130371,0.000000,Hold,-192.000000,2.000000,Suck,-1785.000000,1818.181818,Speed,-1762.500000,1818.181818,Speed,Off,On,0.000000,FALSE,0,,,,,0.000000,0.000000,-0.050000
02:27:16.163 PM 04/28/2016,Teleop Enabled,10,FALSE,0,NO ERROR,-0.000000,0.038500,-0.000000,-0.038500,TRUE,FALSE,FALSE,FALSE,FALSE,FALSE,Disabled,0.000000,0.000000,0.000000,TRUE,-0.006134,0.004562,0.000000,-0.007126,-0.008057,0.000000,0.009000,-0.039000,-0.049000,1.990000,-1.870000,0.120000,3.097287,Hold,0.130371,0.000000,Hold,-192.000000,2.000000,Suck,-1777.500000,1818.181818,Speed,-1770.000000,1818.181818,Speed,Off,On,0.000000,FALSE,0,,,,,0.000000,0.000000,-0.050000
02:27:16.263 PM 04/28/2016,Teleop Enabled,9,FALSE,0,NO ERROR,-0.000000,0.038500,-0.000000,-0.038500,TRUE,FALSE,FALSE,FALSE,FALSE,FALSE,Disabled,0.000000,0.000000,0.000000,TRUE,-0.005814,0.003815,0.000000,0.000000,-0.001816,0.000000,-0.062000,-0.053000,-0.002000,2.000000,-1.870000,0.140000,3.081127,Hold,0.130371,0.000000,Hold,-192.000000,2.000000,Suck,-1785.000000,1818.181818,Speed,-1770.000000,1818.181818,Speed,Off,On,0.000000,FALSE,0,,,,,0.000000,0.000000,-0.050000
02:27:16.363 PM 04/28/2016,Teleop Enabled,9,FALSE,0,NO ERROR,-0.000000,0.038500,-0.000000,-0.038500,TRUE,FALSE,FALSE,FALSE,FALSE,FALSE,Disabled,0.000000,0.000000,0.000000,TRUE,-0.006317,0.003479,0.000000,-0.012802,-0.015335,0.000000,0.064000,0.053000,-0.062000,1.980000,-1.870000,0.130000,3.073096,Hold,0.130371,0.000000,Hold,-192.000000,2.000000,Suck,-1785.000000,1818.181818,Speed,-1755.000000,1818.181818,Speed,Off,On,0.000000,FALSE,0,,,,,0.000000,0.000000,-0.050000
02:27:16.464 PM 04/28/2016,Teleop Enabled,9,FALSE,0,NO ERROR,-0.000000,0.038500,-0.000000,-0.038500,TRUE,FALSE,FALSE,FALSE,FALSE,FALSE,Disabled,0.000000,0.000000,0.000000,TRUE,-0.006226,0.002640,0.000000,0.000000,-0.014084,0.000000,0.044000,-0.011000,-0.016000,1.990000,-1.870000,0.230000,3.081988,Hold,0.130371,0.000000,Hold,-192.000000,2.000000,Suck,-1777.500000,1818.181818,Speed,-1762.500000,1818.181818,Speed,Off,On,0.000000,FALSE,0,,,,,0.000000,0.000000,-0.050000
02:27:16.564 PM 04/28/2016,Teleop Enabled,8,FALSE,0,NO ERROR,-0.000000,0.038500,-0.000000,-0.038500,TRUE,FALSE,FALSE,FALSE,FALSE,FALSE,Disabled,0.000000,0.000000,0.000000,TRUE,-0.006256,0.002243,0.000000,-0.009964,-0.009811,0.000000,0.038000,-0.049000,0.005000,1.990000,-1.870000,0.180000,3.099270,Hold,0.130371,0.000000,Hold,-192.000000,2.000000,Suck,-1785.000000,1818.181818,Speed,-1777.500000,1818.181818,Speed,Off,On,0.000000,FALSE,0,,,,,0.000000,0.000000,-0.050000
02:27:16.665 PM 04/28/2016,Teleop Enabled,9,FALSE,0,NO ERROR,-0.000000,0.038500,-0.000000,-0.038500,TRUE,FALSE,FALSE,FALSE,FALSE,FALSE,Disabled,0.000000,0.000000,0.000000,TRUE,-0.006134,0.001068,0.000000,0.014297,-0.031006,0.000000,-0.046000,0.075000,0.038000,1.980000,-1.870000,0.230000,3.089011,Hold,0.130371,0.000000,Hold,-192.000000,2.000000,Suck,-1785.000000,1818.181818,Speed,-1770.000000,1818.181818,Speed,Off,On,0.000000,FALSE,0,,,,,0.000000,0.000000,-0.050000
02:27:16.765 PM 04/28/2016,Teleop Enabled,8,FALSE,0,NO ERROR,-0.000000,0.038500,-0.000000,-0.038500,TRUE,FALSE,FALSE,FALSE,FALSE,FALSE,Disabled,0.000000,0.000000,0.000000,TRUE,-0.006531,0.000076,0.000000,-0.017258,-0.012650,0.000000,0.018000,-0.027000,0.006000,1.980000,-1.870000,0.230000,3.085014,Hold,0.130371,0.000000,Hold,-192.000000,2.000000,Suck,-1785.000000,1818.181818,Speed,-1770.000000,1818.181818,Speed,Off,On,0.000000,FALSE,0,,,,,0.000000,0.000000,-0.050000
02:27:16.865 PM 04/28/2016,Teleop Enabled,6,FALSE,0,NO ERROR,-0.000000,0.038500,-0.000000,-0.038500,TRUE,FALSE,FALSE,FALSE,FALSE,FALSE,Disabled,0.000000,0.000000,0.000000,TRUE,-0.006134,-0.000351,0.000000,0.015457,0.000000,0.000000,-0.055000,0.044000,0.008000,2.000000,-1.870000,0.160000,3.112809,Hold,0.130371,0.000000,Hold,-192.000000,2.000000,Suck,-1777.500000,1818.181818,Speed,-1770.000000,1818.181818,Speed,Off,On,0.000000,FALSE,0,,,,,0.000000,0.000000,-0.050000
02:27:16.965 PM 04/28/2016,Teleop Enabled,7,FALSE,0,NO ERROR,-0.000000,0.038500,-0.000000,-0.038500,TRUE,FALSE,FALSE,FALSE,FALSE,FALSE,Disabled,0.000000,0.000000,0.000000,TRUE,-0.006378,0.000381,0.000000,-0.016205,0.020355,0.000000,0.042000,-0.019000,0.013000,2.030000,-1.860000,0.080000,3.097634,Hold,0.130371,0.000000,Hold,-192.000000,2.000000,Suck,-1785.000000,1818.181818,Speed,-1770.000000,1818.181818,Speed,Off,On,0.000000,FALSE,0,,,,,0.000000,0.000000,-0.050000
02:27:17.066 PM 04/28/2016,Teleop Enabled,9,FALSE,0,NO ERROR,-0.000000,0.038500,-0.000000,-0.038500,TRUE,FALSE,FALSE,FALSE,FALSE,FALSE,Disabled,0.000000,0.000000,0.000000,TRUE,-0.006607,0.000183,0.000000,0.007477,-0.006989,0.000000,0.042000,-0.019000,0.013000,2.030000,-1.870000,0.140000,3.109673,Hold,0.130371,0.000000,Hold,-192.000000,2.000000,Suck,-1785.000000,1818.181818,Speed,-1770.000000,1818.181818,Speed,Off,On,0.000000,FALSE,0,,,,,0.000000,0.000000,-0.050000
02:27:17.168 PM 04/28/2016,Teleop Enabled,7,FALSE,0,NO ERROR,-0.000000,0.038500,-0.000000,-0.038500,TRUE,FALSE,FALSE,FALSE,FALSE,FALSE,Disabled,0.000000,0.000000,0.000000,TRUE,-0.006714,-0.000153,0.000000,-0.014862,0.003372,0.000000,-0.003000,-0.032000,0.077000,2.020000,-1.870000,0.070000,3.099845,Hold,0.130371,0.000000,Hold,-192.000000,2.000000,Suck,-1785.000000,1818.181818,Speed,-1762.500000,1818.181818,Speed,Off,On,0.000000,FALSE,0,,,,,0.000000,0.000000,-0.050000
02:27:17.269 PM 04/28/2016,Teleop Enabled,8,FALSE,0,NO ERROR,-0.000000,0.038500,-0.000000,-0.038500,TRUE,FALSE,FALSE,FALSE,FALSE,FALSE,Disabled,0.000000,0.000000,0.000000,TRUE,-0.007187,-0.000336,0.000000,0.000000,-0.006470,0.000000,0.014000,-0.029000,0.013000,2.000000,-1.870000,0.180000,3.108220,Hold,0.130371,0.000000,Hold,-192.000000,2.000000,Suck,-1785.000000,1818.181818,Speed,-1762.500000,1818.181818,Speed,Off,On,0.000000,FALSE,0,,,,,0.000000,0.000000,-0.050000
02:27:17.369 PM 04/28/2016,Teleop Enabled,6,FALSE,0,NO ERROR,-0.000000,0.038500,-0.000000,-0.038500,TRUE,FALSE,FALSE,FALSE,FALSE,FALSE,Disabled,0.000000,0.000000,0.000000,TRUE,-0.007462,-0.001022,0.000000,-0.008560,-0.011597,0.000000,0.031000,-0.069000,-0.065000,2.020000,-1.870000,0.140000,3.099359,Hold,0.130371,0.000000,Hold,-192.000000,2.000000,Suck,-1785.000000,1818.181818,Speed,-1770.000000,1818.181818,Speed,Off,On,0.000000,FALSE,0,,,,,0.000000,0.000000,-0.050000
02:27:17.469 PM 04/28/2016,Teleop Enabled,8,FALSE,0,NO ERROR,-0.000000,0.038500,-0.000000,-0.038500,TRUE,FALSE,FALSE,FALSE,FALSE,FALSE,Disabled,0.000000,0.000000,0.000000,TRUE,-0.007523,-0.001328,0.000000,-0.000366,0.000000,0.000000,-0.051000,0.006000,-0.107000,2.020000,-1.870000,0.140000,3.103652,Hold,0.130371,0.000000,Hold,-192.000000,2.000000,Suck,-1785.000000,1818.181818,Speed,-1777.500000,1818.181818,Speed,Off,On,0.000000,FALSE,0,,,,,0.000000,0.000000,-0.050000
02:27:17.570 PM 04/28/2016,Teleop Enabled,9,FALSE,0,NO ERROR,-0.000000,0.038500,-0.000000,-0.038500,TRUE,FALSE,FALSE,FALSE,FALSE,FALSE,Disabled,0.000000,0.000000,0.000000,TRUE,-0.007904,-0.001389,0.000000,-0.003403,-0.002731,0.000000,-0.051000,0.006000,-0.107000,1.990000,-1.870000,0.230000,3.108448,Hold,0.130371,0.000000,Hold,-192.000000,2.000000,Suck,-1785.000000,1818.181818,Speed,-1770.000000,1818.181818,Speed,Off,On,0.000000,FALSE,0,,,,,0.000000,0.000000,-0.050000
02:27:17.670 PM 04/28/2016,Teleop Enabled,9,FALSE,0,NO ERROR,-0.000000,0.038500,-0.000000,-0.038500,TRUE,FALSE,FALSE,FALSE,FALSE,FALSE,Disabled,0.000000,0.000000,0.000000,TRUE,-0.007904,-0.001389,0.000000,-0.003403,-0.002731,0.000000,0.069000,-0.035000,-0.063000,2.000000,-1.880000,0.230000,3.113405,Hold,0.130371,0.000000,Hold,-192.000000,2.000000,Suck,-1785.000000,1818.181818,Speed,-1762.500000,1818.181818,Speed,Off,On,0.000000,FALSE,0,,,,,0.000000,0.000000,-0.050000
02:27:17.771 PM 04/28/2016,Teleop Enabled,9,FALSE,0,NO ERROR,-0.000000,0.038500,-0.000000,-0.038500,TRUE,FALSE,FALSE,FALSE,FALSE,FALSE,Disabled,0.000000,0.000000,0.000000,TRUE,-0.007675,-0.001266,0.000000,-0.000275,0.008896,0.000000,-0.057000,0.052000,-0.125000,1.980000,-1.880000,0.290000,3.108258,Hold,0.130371,0.000000,Hold,-192.000000,2.000000,Suck,-1785.000000,1818.181818,Speed,-1770.000000,1818.181818,Speed,Off,On,0.000000,FALSE,0,,,,,0.000000,0.000000,-0.050000
02:27:17.873 PM 04/28/2016,Teleop Enabled,9,FALSE,0,NO ERROR,-0.000000,0.038500,-0.000000,-0.038500,TRUE,FALSE,FALSE,FALSE,FALSE,FALSE,Disabled,0.000000,0.000000,0.000000,TRUE,-0.007660,-0.000565,0.000000,0.017120,0.014221,0.000000,0.034000,-0.010000,-0.065000,1.990000,-1.870000,0.230000,3.106282,Hold,0.130371,0.000000,Hold,-192.000000,2.000000,Suck,-1785.000000,1818.181818,Speed,-1777.500000,1818.181818,Speed,Off,On,0.000000,FALSE,0,,,,,0.000000,0.000000,-0.050000
02:27:17.978 PM 04/28/2016,Teleop Enabled,13,FALSE,0,NO ERROR,-0.000000,0.038500,-0.000000,-0.038500,TRUE,FALSE,FALSE,FALSE,FALSE,FALSE,Disabled,0.000000,0.000000,0.000000,TRUE,-0.007645,0.000717,0.000000,-0.003738,0.018051,0.000000,-0.039000,-0.032000,-0.024000,2.020000,-1.870000,0.230000,3.115698,Hold,0.130371,0.000000,Hold,-192.000000,2.000000,Suck,-1785.000000,1818.181818,Speed,-1777.500000,1818.181818,Speed,Off,On,0.000000,FALSE,0,,,,,0.000000,0.000000,-0.050000
02:27:18.077 PM 04/28/2016,Teleop Enabled,9,FALSE,0,NO ERROR,-0.000000,0.038500,-0.000000,-0.038500,TRUE,FALSE,FALSE,FALSE,FALSE,FALSE,Disabled,0.000000,0.000000,0.000000,TRUE,-0.007706,0.000809,0.000000,-0.004562,-0.000641,0.000000,0.010000,0.001000,-0.038000,2.010000,-1.870000,0.190000,3.105573,Hold,0.130371,0.000000,Hold,-192.000000,2.000000,Suck,-1785.000000,1818.181818,Speed,-1770.000000,1818.181818,Speed,Off,On,0.000000,FALSE,0,,,,,0.000000,0.000000,-0.050000
02:27:18.177 PM 04/28/2016,Teleop Enabled,11,FALSE,0,NO ERROR,-0.000000,0.038500,-0.000000,-0.038500,TRUE,FALSE,FALSE,FALSE,FALSE,FALSE,Disabled,0.000000,0.000000,0.000000,TRUE,-0.008575,0.000412,0.000000,-0.011917,-0.007843,0.000000,-0.058000,0.017000,0.028000,2.010000,-1.880000,0.150000,3.099968,Hold,0.130371,0.000000,Hold,-192.000000,2.000000,Suck,-1785.000000,1818.181818,Speed,-1770.000000,1818.181818,Speed,Off,On,0.000000,FALSE,0,,,,,0.000000,0.000000,-0.050000
02:27:18.279 PM 04/28/2016,Teleop Enabled,11,FALSE,0,NO ERROR,-0.000000,0.038500,-0.000000,-0.038500,TRUE,FALSE,FALSE,FALSE,FALSE,FALSE,Disabled,0.000000,0.000000,0.000000,TRUE,-0.008820,0.000443,0.000000,-0.014191,0.005783,0.000000,-0.027000,-0.013000,-0.021000,2.010000,-1.880000,0.150000,3.105893,Hold,0.130371,0.000000,Hold,-192.000000,2.000000,Suck,-1785.000000,1818.181818,Speed,-1777.500000,1818.181818,Speed,Off,On,0.000000,FALSE,0,,,,,0.000000,0.000000,-0.050000
02:27:18.380 PM 04/28/2016,Teleop Enabled,11,FALSE,0,NO ERROR,-0.000000,0.038500,-0.000000,-0.038500,TRUE,FALSE,FALSE,FALSE,FALSE,FALSE,Disabled,0.000000,0.000000,0.000000,TRUE,-0.010574,0.000534,0.000000,-0.023239,-0.006241,0.000000,0.030000,-0.023000,0.023000,2.050000,-1.870000,0.140000,3.103821,Hold,0.130371,0.000000,Hold,-192.000000,2.000000,Suck,-1785.000000,1818.181818,Speed,-1770.000000,1818.181818,Speed,Off,On,0.000000,FALSE,0,,,,,0.000000,0.000000,-0.050000
02:27:18.480 PM 04/28/2016,Teleop Enabled,11,FALSE,0,NO ERROR,-0.000000,0.038500,-0.000000,-0.038500,TRUE,FALSE,FALSE,FALSE,FALSE,FALSE,Disabled,0.000000,0.000000,0.000000,TRUE,-0.010574,0.000534,0.000000,-0.023239,-0.006241,0.000000,0.030000,-0.023000,0.023000,2.030000,-1.880000,0.140000,3.116155,Hold,0.130371,0.000000,Hold,-192.000000,2.000000,Suck,-1785.000000,1818.181818,Speed,-1762.500000,1818.181818,Speed,Off,On,0.000000,FALSE,0,,,,,0.000000,0.000000,-0.050000
02:27:18.580 PM 04/28/2016,Teleop Enabled,11,FALSE,0,NO ERROR,-0.000000,0.038500,-0.000000,-0.038500,TRUE,FALSE,FALSE,FALSE,FALSE,FALSE,Disabled,0.000000,0.000000,0.000000,TRUE,-0.011688,0.000366,0.000000,-0.035065,0.000656,0.000000,-0.026000,-0.043000,0.020000,2.060000,-1.880000,0.070000,3.124927,Hold,0.130371,0.000000,Hold,-192.000000,2.000000,Suck,-1785.000000,1818.181818,Speed,-1770.000000,1818.181818,Speed,Off,On,0.000000,FALSE,0,,,,,0.000000,0.000000,-0.050000
02:27:18.680 PM 04/28/2016,Teleop Enabled,10,FALSE,0,NO ERROR,-0.000000,0.038500,-0.000000,-0.038500,TRUE,FALSE,FALSE,FALSE,FALSE,FALSE,Disabled,0.000000,0.000000,0.000000,TRUE,-0.013458,-0.000031,0.000000,-0.023972,-0.007065,0.000000,0.049000,-0.006000,-0.014000,2.020000,-1.880000,0.150000,3.124927,Hold,0.130371,0.000000,Hold,-192.000000,2.000000,Suck,-1785.000000,1818.181818,Speed,-1777.500000,1818.181818,Speed,Off,On,0.000000,FALSE,0,,,,,0.000000,0.000000,-0.050000
02:27:18.781 PM 04/28/2016,Teleop Enabled,11,FALSE,0,NO ERROR,-0.000000,0.038500,-0.000000,-0.038500,TRUE,FALSE,FALSE,FALSE,FALSE,FALSE,Disabled,0.000000,0.000000,0.000000,TRUE,-0.014435,-0.000214,0.000000,-0.020554,0.007095,0.000000,0.014000,0.061000,-0.039000,2.020000,-1.870000,0.100000,3.126693,Hold,0.130371,0.000000,Hold,-192.000000,2.000000,Suck,-1792.500000,1818.181818,Speed,-1770.000000,1818.181818,Speed,Off,On,0.000000,FALSE,0,,,,,0.000000,0.000000,-0.050000
02:27:18.881 PM 04/28/2016,Teleop Enabled,10,FALSE,0,NO ERROR,-0.000000,0.038500,-0.000000,-0.038500,TRUE,FALSE,FALSE,FALSE,FALSE,FALSE,Disabled,0.000000,0.000000,0.000000,TRUE,-0.014069,0.000412,0.000000,0.012756,0.013550,0.000000,-0.003000,0.005000,-0.066000,2.030000,-1.880000,0.150000,3.142990,Hold,0.130371,0.000000,Hold,-192.000000,2.000000,Suck,-1785.000000,1818.181818,Speed,-1770.000000,1818.181818,Speed,Off,On,0.000000,FALSE,0,,,,,0.000000,0.000000,-0.050000
02:27:18.981 PM 04/28/2016,Teleop Enabled,11,FALSE,0,NO ERROR,-0.000000,0.038500,-0.000000,-0.038500,TRUE,FALSE,FALSE,FALSE,FALSE,FALSE,Disabled,0.000000,0.000000,0.000000,TRUE,-0.013870,0.000504,0.000000,-0.005875,-0.006287,0.000000,0.067000,0.021000,-0.023000,2.030000,-1.870000,0.090000,3.154368,Hold,0.130371,0.000000,Hold,-192.000000,2.000000,Suck,-1785.000000,1818.181818,Speed,-1777.500000,1818.181818,Speed,Off,On,0.000000,FALSE,0,,,,,0.000000,0.000000,-0.050000
02:27:19.081 PM 04/28/2016,Teleop Enabled,11,FALSE,0,NO ERROR,-0.000000,0.038500,-0.000000,-0.038500,TRUE,FALSE,FALSE,FALSE,FALSE,FALSE,Disabled,0.000000,0.000000,0.000000,TRUE,-0.013596,0.000076,0.000000,0.009781,0.008652,0.000000,-0.020000,0.078000,0.083000,2.010000,-1.880000,0.180000,3.157752,Hold,0.130371,0.000000,Hold,-192.000000,2.000000,Suck,-1792.500000,1818.181818,Speed,-1777.500000,1818.181818,Speed,Off,On,0.000000,FALSE,0,,,,,0.000000,0.000000,-0.050000
02:27:19.181 PM 04/28/2016,Teleop Enabled,11,FALSE,0,NO ERROR,-0.000000,0.038500,-0.000000,-0.038500,TRUE,FALSE,FALSE,FALSE,FALSE,FALSE,Disabled,0.000000,0.000000,0.000000,TRUE,-0.013382,0.000839,0.000000,0.000000,0.016251,0.000000,-0.033000,-0.062000,-0.008000,2.020000,-1.880000,0.110000,3.177753,Hold,0.130371,0.000000,Hold,-192.000000,2.000000,Suck,-1785.000000,1818.181818,Speed,-1777.500000,1818.181818,Speed,Off,On,0.000000,FALSE,0,,,,,0.000000,0.000000,-0.050000
02:27:19.281 PM 04/28/2016,Teleop Enabled,11,FALSE,0,NO ERROR,-0.000000,0.038500,-0.000000,-0.038500,TRUE,FALSE,FALSE,FALSE,FALSE,FALSE,Disabled,0.000000,0.000000,0.000000,TRUE,-0.013489,0.001053,0.000000,-0.000031,-0.000580,0.000000,-0.021000,0.079000,0.076000,2.050000,-1.870000,0.040000,3.177867,Hold,0.130371,0.000000,Hold,-192.000000,2.000000,Suck,-1785.000000,1818.181818,Speed,-1770.000000,1818.181818,Speed,Off,On,0.000000,FALSE,0,,,,,0.000000,0.000000,-0.050000
02:27:19.381 PM 04/28/2016,Teleop Enabled,11,FALSE,0,NO ERROR,-0.000000,0.038500,-0.000000,-0.038500,TRUE,FALSE,FALSE,FALSE,FALSE,FALSE,Disabled,0.000000,0.000000,0.000000,TRUE,-0.014496,0.001999,0.000000,-0.025269,0.000000,0.000000,0.061000,0.011000,0.060000,2.060000,-1.880000,-0.020000,3.171374,Hold,0.130371,0.000000,Hold,-192.000000,2.000000,Suck,-1785.000000,1818.181818,Speed,-1770.000000,1818.181818,Speed,Off,On,0.000000,FALSE,0,,,,,0.000000,0.000000,-0.050000
02:27:19.481 PM 04/28/2016,Teleop Enabled,11,FALSE,0,NO ERROR,-0.000000,0.038500,-0.000000,-0.038500,TRUE,FALSE,FALSE,FALSE,FALSE,FALSE,Disabled,0.000000,0.000000,0.000000,TRUE,-0.015701,0.001846,0.000000,-0.022400,-0.007996,0.000000,-0.018000,0.040000,0.068000,2.050000,-1.880000,0.000000,3.179209,Hold,0.130371,0.000000,Hold,-192.000000,2.000000,Suck,-1792.500000,1818.181818,Speed,-1770.000000,1818.181818,Speed,Off,On,0.000000,FALSE,0,,,,,0.000000,0.000000,-0.050000
02:27:19.581 PM 04/28/2016,Teleop Enabled,10,FALSE,0,NO ERROR,-0.000000,0.038500,-0.000000,-0.038500,TRUE,FALSE,FALSE,FALSE,FALSE,FALSE,Disabled,0.000000,0.000000,0.000000,TRUE,-0.016876,0.001312,0.000000,-0.026382,-0.016937,0.000000,0.006000,-0.001000,0.046000,2.050000,-1.880000,0.020000,3.181616,Hold,0.130371,0.000000,Hold,-192.000000,2.000000,Suck,-1785.000000,1818.181818,Speed,-1770.000000,1818.181818,Speed,Off,On,0.000000,FALSE,0,,,,,0.000000,0.000000,-0.050000
02:27:19.681 PM 04/28/2016,Teleop Enabled,10,FALSE,0,NO ERROR,-0.000000,0.038500,-0.000000,-0.038500,TRUE,FALSE,FALSE,FALSE,FALSE,FALSE,Disabled,0.000000,0.000000,0.000000,TRUE,-0.018463,0.000870,0.000000,-0.034103,0.000000,0.000000,-0.003000,-0.015000,-0.030000,2.050000,-1.870000,0.000000,3.174190,Hold,0.130371,0.000000,Hold,-192.000000,2.000000,Suck,-1785.000000,1818.181818,Speed,-1777.500000,1818.181818,Speed,Off,On,0.000000,FALSE,0,,,,,0.000000,0.000000,-0.050000
02:27:19.782 PM 04/28/2016,Teleop Enabled,10,FALSE,0,NO ERROR,-0.000000,0.038500,-0.000000,-0.038500,TRUE,FALSE,FALSE,FALSE,FALSE,FALSE,Disabled,0.000000,0.000000,0.000000,TRUE,-0.018738,0.001083,0.000000,0.013550,-0.009888,0.000000,0.032000,-0.001000,0.038000,2.050000,-1.890000,0.060000,3.190349,Hold,0.130371,0.000000,Hold,-192.000000,2.000000,Suck,-1785.000000,1818.181818,Speed,-1770.000000,1818.181818,Speed,Off,On,0.000000,FALSE,0,,,,,0.000000,0.000000,-0.050000
02:27:19.882 PM 04/28/2016,Teleop Enabled,11,FALSE,0,NO ERROR,-0.000000,0.038500,-0.000000,-0.038500,TRUE,FALSE,FALSE,FALSE,FALSE,FALSE,Disabled,0.000000,0.000000,0.000000,TRUE,-0.017807,0.000488,0.000000,0.021683,-0.008530,0.000000,-0.067000,0.042000,-0.089000,2.050000,-1.880000,0.090000,3.200164,Hold,0.130371,0.000000,Hold,-192.000000,2.000000,Suck,-1785.000000,1818.181818,Speed,-1777.500000,1818.181818,Speed,Off,On,0.000000,FALSE,0,,,,,0.000000,0.000000,-0.050000
02:27:19.982 PM 04/28/2016,Teleop Enabled,10,FALSE,0,NO ERROR,-0.000000,0.038500,-0.000000,-0.038500,TRUE,FALSE,FALSE,FALSE,FALSE,FALSE,Disabled,0.000000,0.000000,0.000000,TRUE,-0.017258,0.000290,0.000000,0.010895,-0.007935,0.000000,0.047000,0.090000,0.015000,2.020000,-1.880000,0.100000,3.202626,Hold,0.130371,0.000000,Hold,-192.000000,2.000000,Suck,-1785.000000,1818.181818,Speed,-1770.000000,1818.181818,Speed,Off,On,0.000000,FALSE,0,,,,,0.000000,0.000000,-0.050000
02:27:20.082 PM 04/28/2016,Teleop Enabled,10,FALSE,0,NO ERROR,-0.000000,0.038500,-0.000000,-0.038500,TRUE,FALSE,FALSE,FALSE,FALSE,FALSE,Disabled,0.000000,0.000000,0.000000,TRUE,-0.015457,-0.000183,0.000000,0.023422,-0.005035,0.000000,-0.045000,0.032000,0.081000,2.040000,-1.880000,0.100000,3.206350,Hold,0.130371,0.000000,Hold,-192.000000,2.000000,Suck,-1785.000000,1818.181818,Speed,-1770.000000,1818.181818,Speed,Off,On,0.000000,FALSE,0,,,,,0.000000,0.000000,-0.050000
02:27:20.182 PM 04/28/2016,Teleop Enabled,10,FALSE,0,NO ERROR,-0.000000,0.038500,-0.000000,-0.038500,TRUE,FALSE,FALSE,FALSE,FALSE,FALSE,Disabled,0.000000,0.000000,0.000000,TRUE,-0.015274,-0.000488,0.000000,0.000000,-0.009323,0.000000,0.051000,-0.078000,-0.042000,2.000000,-1.880000,0.180000,3.217663,Hold,0.130371,0.000000,Hold,-192.000000,2.000000,Suck,-1785.000000,1818.181818,Speed,-1770.000000,1818.181818,Speed,Off,On,0.000000,FALSE,0,,,,,0.000000,0.000000,-0.050000
02:27:20.282 PM 04/28/2016,Teleop Enabled,9,FALSE,0,NO ERROR,-0.000000,0.038500,-0.000000,-0.038500,TRUE,FALSE,FALSE,FALSE,FALSE,FALSE,Disabled,0.000000,0.000000,0.000000,TRUE,-0.014511,-0.001480,0.000000,0.009338,-0.024994,0.000000,0.040000,-0.105000,0.007000,2.000000,-1.880000,0.130000,3.234566,Hold,0.130371,0.000000,Hold,-192.000000,2.000000,Suck,-1785.000000,1818.181818,Speed,-1777.500000,1818.181818,Speed,Off,On,0.000000,FALSE,0,,,,,0.000000,0.000000,-0.050000
