Time,RobotMode,AutoToRun,ErrorStatus, ErrorCode,ErrorSource,ActualRPM1,ActualRPM2,DesiredRPM1,DesiredRPM2,ControlMode1,ControlMode2,Yaw,Roll,Pitch,ShooterState,LoopTime,IsLevel,IsAutoTargeting,LeftMotorOutput,RightMotorOutput
12:11:26.712 PM 02/06/2016,Teleop Enabled,0,TRUE,-44087,NetComm_CAN_Receive.vi:5470007<APPEND>

<b>Complete call chain:</b>
     NetComm_CAN_Receive.vi:5470007
     WPI_CANTalonSRX_Receive.vi
     WPI_MotorControlOpenCANTalonSRX.vi
     Begin.vi
     Robot Main.vi,0.000000,0.000000,-6000.000000,-6000.000000,Speed,Speed,-8.990000,2.710000,2.010000,1.000000,101.000000,0,0,-0.003038,0.003038,0
12:11:26.812 PM 02/06/2016,Teleop Enabled,0,TRUE,-44087,NetComm_CAN_Receive.vi:5470007<APPEND>

<b>Complete call chain:</b>
     NetComm_CAN_Receive.vi:5470007
     WPI_CANTalonSRX_Receive.vi
     WPI_MotorControlOpenCANTalonSRX.vi
     Begin.vi
     Robot Main.vi,0.000000,0.000000,-6000.000000,-6000.000000,Speed,Speed,-8.990000,2.710000,2.010000,1.000000,100.000000,0,0,-0.003038,0.003038,0
12:11:26.913 PM 02/06/2016,Teleop Enabled,0,TRUE,-44087,NetComm_CAN_Receive.vi:5470007<APPEND>

<b>Complete call chain:</b>
     NetComm_CAN_Receive.vi:5470007
     WPI_CANTalonSRX_Receive.vi
     WPI_MotorControlOpenCANTalonSRX.vi
     Begin.vi
     Robot Main.vi,0.000000,0.000000,-6000.000000,-6000.000000,Speed,Speed,-8.990000,2.710000,2.010000,1.000000,102.000000,0,0,-0.003038,0.003038,0
12:11:27.014 PM 02/06/2016,Teleop Enabled,0,TRUE,-44087,NetComm_CAN_Receive.vi:5470007<APPEND>

<b>Complete call chain:</b>
     NetComm_CAN_Receive.vi:5470007
     WPI_CANTalonSRX_Receive.vi
     WPI_MotorControlOpenCANTalonSRX.vi
     Begin.vi
     Robot Main.vi,0.000000,0.000000,-6000.000000,-6000.000000,Speed,Speed,-8.990000,2.710000,2.010000,1.000000,102.000000,0,0,-0.003038,0.003038,0
12:11:27.115 PM 02/06/2016,Teleop Enabled,0,TRUE,-44087,NetComm_CAN_Receive.vi:5470007<APPEND>

<b>Complete call chain:</b>
     NetComm_CAN_Receive.vi:5470007
     WPI_CANTalonSRX_Receive.vi
     WPI_MotorControlOpenCANTalonSRX.vi
     Begin.vi
     Robot Main.vi,0.000000,0.000000,-6000.000000,-6000.000000,Speed,Speed,-8.990000,2.710000,2.010000,1.000000,101.000000,0,0,-0.003038,0.003038,0
12:11:27.216 PM 02/06/2016,Teleop Enabled,0,TRUE,-44087,NetComm_CAN_Receive.vi:5470007<APPEND>

<b>Complete call chain:</b>
     NetComm_CAN_Receive.vi:5470007
     WPI_CANTalonSRX_Receive.vi
     WPI_MotorControlOpenCANTalonSRX.vi
     Begin.vi
     Robot Main.vi,0.000000,0.000000,-6000.000000,-6000.000000,Speed,Speed,-8.990000,2.710000,2.010000,1.000000,102.000000,0,0,-0.003038,0.003038,0
12:11:27.315 PM 02/06/2016,Teleop Enabled,0,TRUE,-44087,NetComm_CAN_Receive.vi:5470007<APPEND>

<b>Complete call chain:</b>
     NetComm_CAN_Receive.vi:5470007
     WPI_CANTalonSRX_Receive.vi
     WPI_MotorControlOpenCANTalonSRX.vi
     Begin.vi
     Robot Main.vi,0.000000,0.000000,-6000.000000,-6000.000000,Speed,Speed,-8.990000,2.710000,2.010000,1.000000,103.000000,0,0,-0.003038,0.003038,0
12:11:27.416 PM 02/06/2016,Teleop Enabled,0,TRUE,-44087,NetComm_CAN_Receive.vi:5470007<APPEND>

<b>Complete call chain:</b>
     NetComm_CAN_Receive.vi:5470007
     WPI_CANTalonSRX_Receive.vi
     WPI_MotorControlOpenCANTalonSRX.vi
     Begin.vi
     Robot Main.vi,0.000000,0.000000,-6000.000000,-6000.000000,Speed,Speed,-8.990000,2.710000,2.010000,1.000000,103.000000,0,0,-0.003038,0.003038,0
12:11:27.517 PM 02/06/2016,Teleop Enabled,0,TRUE,-44087,NetComm_CAN_Receive.vi:5470007<APPEND>

<b>Complete call chain:</b>
     NetComm_CAN_Receive.vi:5470007
     WPI_CANTalonSRX_Receive.vi
     WPI_MotorControlOpenCANTalonSRX.vi
     Begin.vi
     Robot Main.vi,0.000000,0.000000,-6000.000000,-6000.000000,Speed,Speed,-8.990000,2.710000,2.010000,1.000000,101.000000,0,0,-0.003038,0.003038,0
12:11:27.617 PM 02/06/2016,Teleop Enabled,0,TRUE,-44087,NetComm_CAN_Receive.vi:5470007<APPEND>

<b>Complete call chain:</b>
     NetComm_CAN_Receive.vi:5470007
     WPI_CANTalonSRX_Receive.vi
     WPI_MotorControlOpenCANTalonSRX.vi
     Begin.vi
     Robot Main.vi,0.000000,0.000000,-6000.000000,-6000.000000,Speed,Speed,-8.990000,2.710000,2.010000,1.000000,101.000000,0,0,-0.003038,0.003038,0
12:11:27.718 PM 02/06/2016,Teleop Enabled,0,TRUE,-44087,NetComm_CAN_Receive.vi:5470007<APPEND>

<b>Complete call chain:</b>
     NetComm_CAN_Receive.vi:5470007
     WPI_CANTalonSRX_Receive.vi
     WPI_MotorControlOpenCANTalonSRX.vi
     Begin.vi
     Robot Main.vi,0.000000,0.000000,-6000.000000,-6000.000000,Speed,Speed,-8.990000,2.710000,2.010000,1.000000,100.000000,0,0,-0.003038,0.003038,0
12:11:27.819 PM 02/06/2016,Teleop Enabled,0,TRUE,-44087,NetComm_CAN_Receive.vi:5470007<APPEND>

<b>Complete call chain:</b>
     NetComm_CAN_Receive.vi:5470007
     WPI_CANTalonSRX_Receive.vi
     WPI_MotorControlOpenCANTalonSRX.vi
     Begin.vi
     Robot Main.vi,0.000000,0.000000,-6000.000000,-6000.000000,Speed,Speed,-8.990000,2.710000,2.000000,1.000000,100.000000,0,0,-0.003038,0.003038,0
12:11:27.920 PM 02/06/2016,Teleop Enabled,0,TRUE,-44087,NetComm_CAN_Receive.vi:5470007<APPEND>

<b>Complete call chain:</b>
     NetComm_CAN_Receive.vi:5470007
     WPI_CANTalonSRX_Receive.vi
     WPI_MotorControlOpenCANTalonSRX.vi
     Begin.vi
     Robot Main.vi,0.000000,0.000000,-6000.000000,-6000.000000,Speed,Speed,-8.990000,2.710000,2.000000,1.000000,102.000000,0,0,-0.003038,0.003038,0
12:11:28.021 PM 02/06/2016,Teleop Enabled,0,TRUE,-44087,NetComm_CAN_Receive.vi:5470007<APPEND>

<b>Complete call chain:</b>
     NetComm_CAN_Receive.vi:5470007
     WPI_CANTalonSRX_Receive.vi
     WPI_CANTalonSRX_GetStatus.vi
     ShooterVI.vi
     Periodic Tasks.vi
     Robot Main.vi,0.000000,0.000000,-6000.000000,-6000.000000,Speed,Speed,-8.990000,2.710000,2.000000,1.000000,103.000000,0,0,-0.003038,0.003038,0
12:11:28.121 PM 02/06/2016,Teleop Enabled,0,TRUE,-44087,NetComm_CAN_Receive.vi:5470007<APPEND>

<b>Complete call chain:</b>
     NetComm_CAN_Receive.vi:5470007
     WPI_CANTalonSRX_Receive.vi
     WPI_CANTalonSRX_GetStatus.vi
     ShooterVI.vi
     Periodic Tasks.vi
     Robot Main.vi,0.000000,0.000000,-6000.000000,-6000.000000,Speed,Speed,-8.990000,2.710000,2.000000,1.000000,100.000000,0,0,-0.003038,0.003038,0
12:11:28.222 PM 02/06/2016,Teleop Enabled,0,TRUE,-44087,NetComm_CAN_Receive.vi:5470007<APPEND>

<b>Complete call chain:</b>
     NetComm_CAN_Receive.vi:5470007
     WPI_CANTalonSRX_Receive.vi
     WPI_MotorControlOpenCANTalonSRX.vi
     Begin.vi
     Robot Main.vi,0.000000,0.000000,-6000.000000,-6000.000000,Speed,Speed,-9.000000,2.710000,2.000000,1.000000,101.000000,0,0,-0.003038,0.003038,0
12:11:28.322 PM 02/06/2016,Teleop Enabled,0,TRUE,-44087,NetComm_CAN_Receive.vi:5470007<APPEND>

<b>Complete call chain:</b>
     NetComm_CAN_Receive.vi:5470007
     WPI_CANTalonSRX_Receive.vi
     WPI_CANTalonSRX_GetStatus.vi
     ShooterVI.vi
     Periodic Tasks.vi
     Robot Main.vi,0.000000,0.000000,-6000.000000,-6000.000000,Speed,Speed,-9.000000,2.710000,2.000000,1.000000,102.000000,0,0,-0.003038,0.003038,0
12:11:28.423 PM 02/06/2016,Teleop Enabled,0,TRUE,-44087,NetComm_CAN_Receive.vi:5470007<APPEND>

<b>Complete call chain:</b>
     NetComm_CAN_Receive.vi:5470007
     WPI_CANTalonSRX_Receive.vi
     WPI_CANTalonSRX_GetStatus.vi
     ShooterVI.vi
     Periodic Tasks.vi
     Robot Main.vi,0.000000,0.000000,-6000.000000,-6000.000000,Speed,Speed,-9.000000,2.710000,2.010000,1.000000,102.000000,0,0,-0.003038,0.003038,0
12:11:28.524 PM 02/06/2016,Teleop Enabled,0,TRUE,-44087,NetComm_CAN_Receive.vi:5470007<APPEND>

<b>Complete call chain:</b>
     NetComm_CAN_Receive.vi:5470007
     WPI_CANTalonSRX_Receive.vi
     WPI_MotorControlOpenCANTalonSRX.vi
     Begin.vi
     Robot Main.vi,0.000000,0.000000,-6000.000000,-6000.000000,Speed,Speed,-9.000000,2.710000,2.010000,1.000000,100.000000,0,0,-0.003038,0.003038,0
12:11:28.625 PM 02/06/2016,Teleop Enabled,0,TRUE,-44087,NetComm_CAN_Receive.vi:5470007<APPEND>

<b>Complete call chain:</b>
     NetComm_CAN_Receive.vi:5470007
     WPI_CANTalonSRX_Receive.vi
     WPI_CANTalonSRX_GetStatus.vi
     ShooterVI.vi
     Periodic Tasks.vi
     Robot Main.vi,0.000000,0.000000,-6000.000000,-6000.000000,Speed,Speed,-9.000000,2.710000,2.010000,1.000000,101.000000,0,0,-0.003038,0.003038,0
12:11:28.725 PM 02/06/2016,Teleop Enabled,0,TRUE,-44087,NetComm_CAN_Receive.vi:5470007<APPEND>

<b>Complete call chain:</b>
     NetComm_CAN_Receive.vi:5470007
     WPI_CANTalonSRX_Receive.vi
     WPI_CANTalonSRX_GetStatus.vi
     ShooterVI.vi
     Periodic Tasks.vi
     Robot Main.vi,0.000000,0.000000,-6000.000000,-6000.000000,Speed,Speed,-9.000000,2.710000,2.010000,1.000000,100.000000,0,0,-0.003038,0.003038,0
12:11:28.826 PM 02/06/2016,Teleop Enabled,0,TRUE,-44087,NetComm_CAN_Receive.vi:5470007<APPEND>

<b>Complete call chain:</b>
     NetComm_CAN_Receive.vi:5470007
     WPI_CANTalonSRX_Receive.vi
     WPI_CANTalonSRX_GetStatus.vi
     ShooterVI.vi
     Periodic Tasks.vi
     Robot Main.vi,0.000000,0.000000,-6000.000000,-6000.000000,Speed,Speed,-9.000000,2.710000,2.010000,1.000000,100.000000,0,0,-0.003038,0.003038,0
12:11:28.928 PM 02/06/2016,Teleop Enabled,0,TRUE,-44087,NetComm_CAN_Receive.vi:5470007<APPEND>

<b>Complete call chain:</b>
     NetComm_CAN_Receive.vi:5470007
     WPI_CANTalonSRX_Receive.vi
     WPI_MotorControlOpenCANTalonSRX.vi
     Begin.vi
     Robot Main.vi,0.000000,0.000000,-6000.000000,-6000.000000,Speed,Speed,-9.000000,2.710000,2.010000,1.000000,100.000000,0,0,-0.003038,0.003038,0
12:11:29.027 PM 02/06/2016,Teleop Enabled,0,TRUE,-44087,NetComm_CAN_Receive.vi:5470007<APPEND>

<b>Complete call chain:</b>
     NetComm_CAN_Receive.vi:5470007
     WPI_CANTalonSRX_Receive.vi
     WPI_CANTalonSRX_GetStatus.vi
     ShooterVI.vi
     Periodic Tasks.vi
     Robot Main.vi,0.000000,0.000000,-6000.000000,-6000.000000,Speed,Speed,-9.000000,2.710000,2.010000,1.000000,101.000000,0,0,-0.003038,0.003038,0
12:11:29.128 PM 02/06/2016,Teleop Enabled,0,TRUE,-44087,NetComm_CAN_Receive.vi:5470007<APPEND>

<b>Complete call chain:</b>
     NetComm_CAN_Receive.vi:5470007
     WPI_CANTalonSRX_Receive.vi
     WPI_CANTalonSRX_GetStatus.vi
     ShooterVI.vi
     Periodic Tasks.vi
     Robot Main.vi,0.000000,0.000000,-6000.000000,-6000.000000,Speed,Speed,-9.000000,2.710000,2.010000,1.000000,101.000000,0,0,-0.003038,0.003038,0
12:11:29.229 PM 02/06/2016,Teleop Enabled,0,TRUE,-44087,NetComm_CAN_Receive.vi:5470007<APPEND>

<b>Complete call chain:</b>
     NetComm_CAN_Receive.vi:5470007
     WPI_CANTalonSRX_Receive.vi
     WPI_MotorControlOpenCANTalonSRX.vi
     Begin.vi
     Robot Main.vi,0.000000,0.000000,-6000.000000,-6000.000000,Speed,Speed,-9.000000,2.710000,2.010000,1.000000,104.000000,0,0,-0.003038,0.003038,0
12:11:29.330 PM 02/06/2016,Teleop Enabled,0,TRUE,-44087,NetComm_CAN_Receive.vi:5470007<APPEND>

<b>Complete call chain:</b>
     NetComm_CAN_Receive.vi:5470007
     WPI_CANTalonSRX_Receive.vi
     WPI_CANTalonSRX_GetStatus.vi
     ShooterVI.vi
     Periodic Tasks.vi
     Robot Main.vi,0.000000,0.000000,-6000.000000,-6000.000000,Speed,Speed,-9.000000,2.710000,2.020000,1.000000,101.000000,0,0,-0.003038,0.003038,0
12:11:29.431 PM 02/06/2016,Teleop Enabled,0,TRUE,-44087,NetComm_CAN_Receive.vi:5470007<APPEND>

<b>Complete call chain:</b>
     NetComm_CAN_Receive.vi:5470007
     WPI_CANTalonSRX_Receive.vi
     WPI_MotorControlOpenCANTalonSRX.vi
     Begin.vi
     Robot Main.vi,0.000000,0.000000,-6000.000000,-6000.000000,Speed,Speed,-9.000000,2.710000,2.010000,1.000000,100.000000,0,0,-0.003038,0.003038,0
12:11:29.531 PM 02/06/2016,Teleop Enabled,0,TRUE,-44087,NetComm_CAN_Receive.vi:5470007<APPEND>

<b>Complete call chain:</b>
     NetComm_CAN_Receive.vi:5470007
     WPI_CANTalonSRX_Receive.vi
     WPI_CANTalonSRX_GetStatus.vi
     ShooterVI.vi
     Periodic Tasks.vi
     Robot Main.vi,0.000000,0.000000,-6000.000000,-6000.000000,Speed,Speed,-9.000000,2.700000,2.020000,1.000000,100.000000,0,0,-0.003038,0.003038,0
12:11:29.632 PM 02/06/2016,Teleop Enabled,0,TRUE,-44087,NetComm_CAN_Receive.vi:5470007<APPEND>

<b>Complete call chain:</b>
     NetComm_CAN_Receive.vi:5470007
     WPI_CANTalonSRX_Receive.vi
     WPI_CANTalonSRX_GetStatus.vi
     ShooterVI.vi
     Periodic Tasks.vi
     Robot Main.vi,0.000000,0.000000,-6000.000000,-6000.000000,Speed,Speed,-9.000000,2.690000,2.030000,1.000000,101.000000,0,0,-0.003038,0.003038,0
12:11:29.732 PM 02/06/2016,Teleop Enabled,0,TRUE,-44087,NetComm_CAN_Receive.vi:5470007<APPEND>

<b>Complete call chain:</b>
     NetComm_CAN_Receive.vi:5470007
     WPI_CANTalonSRX_Receive.vi
     WPI_MotorControlOpenCANTalonSRX.vi
     Begin.vi
     Robot Main.vi,0.000000,0.000000,-6000.000000,-6000.000000,Speed,Speed,-9.000000,2.700000,2.030000,1.000000,100.000000,0,0,-0.003038,0.003038,0
12:11:29.832 PM 02/06/2016,Teleop Enabled,0,TRUE,-44087,NetComm_CAN_Receive.vi:5470007<APPEND>

<b>Complete call chain:</b>
     NetComm_CAN_Receive.vi:5470007
     WPI_CANTalonSRX_Receive.vi
     WPI_CANTalonSRX_GetStatus.vi
     ShooterVI.vi
     Periodic Tasks.vi
     Robot Main.vi,0.000000,0.000000,-6000.000000,-6000.000000,Speed,Speed,-9.010000,2.710000,2.030000,1.000000,102.000000,0,0,-0.003038,0.003038,0
12:11:29.932 PM 02/06/2016,Teleop Enabled,0,TRUE,-44087,NetComm_CAN_Receive.vi:5470007<APPEND>

<b>Complete call chain:</b>
     NetComm_CAN_Receive.vi:5470007
     WPI_CANTalonSRX_Receive.vi
     WPI_CANTalonSRX_GetStatus.vi
     ShooterVI.vi
     Periodic Tasks.vi
     Robot Main.vi,0.000000,0.000000,-6000.000000,-6000.000000,Speed,Speed,-9.010000,2.710000,2.030000,1.000000,100.000000,0,0,-0.003038,0.003038,0
12:11:30.033 PM 02/06/2016,Teleop Enabled,0,TRUE,-44087,NetComm_CAN_Receive.vi:5470007<APPEND>

<b>Complete call chain:</b>
     NetComm_CAN_Receive.vi:5470007
     WPI_CANTalonSRX_Receive.vi
     WPI_MotorControlOpenCANTalonSRX.vi
     Begin.vi
     Robot Main.vi,0.000000,0.000000,-6000.000000,-6000.000000,Speed,Speed,-9.010000,2.710000,2.030000,1.000000,100.000000,0,0,-0.003038,0.003038,0
12:11:30.133 PM 02/06/2016,Teleop Enabled,0,TRUE,-44087,NetComm_CAN_Receive.vi:5470007<APPEND>

<b>Complete call chain:</b>
     NetComm_CAN_Receive.vi:5470007
     WPI_CANTalonSRX_Receive.vi
     WPI_CANTalonSRX_GetStatus.vi
     ShooterVI.vi
     Periodic Tasks.vi
     Robot Main.vi,0.000000,0.000000,-6000.000000,-6000.000000,Speed,Speed,-9.010000,2.710000,2.020000,1.000000,101.000000,0,0,-0.003038,0.003038,0
12:11:30.233 PM 02/06/2016,Teleop Enabled,0,TRUE,-44087,NetComm_CAN_Receive.vi:5470007<APPEND>

<b>Complete call chain:</b>
     NetComm_CAN_Receive.vi:5470007
     WPI_CANTalonSRX_Receive.vi
     WPI_CANTalonSRX_GetStatus.vi
     ShooterVI.vi
     Periodic Tasks.vi
     Robot Main.vi,0.000000,0.000000,-6000.000000,-6000.000000,Speed,Speed,-9.010000,2.710000,2.030000,1.000000,101.000000,0,0,-0.003038,0.003038,0
12:11:30.333 PM 02/06/2016,Teleop Enabled,0,TRUE,-44087,NetComm_CAN_Receive.vi:5470007<APPEND>

<b>Complete call chain:</b>
     NetComm_CAN_Receive.vi:5470007
     WPI_CANTalonSRX_Receive.vi
     WPI_MotorControlOpenCANTalonSRX.vi
     Begin.vi
     Robot Main.vi,0.000000,0.000000,-6000.000000,-6000.000000,Speed,Speed,-9.010000,2.710000,2.030000,1.000000,100.000000,0,0,-0.003038,0.003038,0
12:11:30.433 PM 02/06/2016,Teleop Enabled,0,TRUE,-44087,NetComm_CAN_Receive.vi:5470007<APPEND>

<b>Complete call chain:</b>
     NetComm_CAN_Receive.vi:5470007
     WPI_CANTalonSRX_Receive.vi
     WPI_CANTalonSRX_GetStatus.vi
     ShooterVI.vi
     Periodic Tasks.vi
     Robot Main.vi,0.000000,0.000000,-6000.000000,-6000.000000,Speed,Speed,-9.010000,2.710000,2.030000,1.000000,102.000000,0,0,-0.003038,0.003038,0
12:11:30.533 PM 02/06/2016,Teleop Enabled,0,TRUE,-44087,NetComm_CAN_Receive.vi:5470007<APPEND>

<b>Complete call chain:</b>
     NetComm_CAN_Receive.vi:5470007
     WPI_CANTalonSRX_Receive.vi
     WPI_CANTalonSRX_GetStatus.vi
     ShooterVI.vi
     Periodic Tasks.vi
     Robot Main.vi,0.000000,0.000000,-6000.000000,-6000.000000,Speed,Speed,-9.010000,2.710000,2.030000,1.000000,101.000000,0,0,-0.003038,0.003038,0
12:11:30.634 PM 02/06/2016,Teleop Enabled,0,TRUE,-44087,NetComm_CAN_Receive.vi:5470007<APPEND>

<b>Complete call chain:</b>
     NetComm_CAN_Receive.vi:5470007
     WPI_CANTalonSRX_Receive.vi
     WPI_MotorControlOpenCANTalonSRX.vi
     Begin.vi
     Robot Main.vi,0.000000,0.000000,-6000.000000,-6000.000000,Speed,Speed,-9.010000,2.710000,2.030000,1.000000,100.000000,0,0,-0.003038,0.003038,0
12:11:30.735 PM 02/06/2016,Teleop Enabled,0,TRUE,-44087,NetComm_CAN_Receive.vi:5470007<APPEND>

<b>Complete call chain:</b>
     NetComm_CAN_Receive.vi:5470007
     WPI_CANTalonSRX_Receive.vi
     WPI_CANTalonSRX_GetStatus.vi
     ShooterVI.vi
     Periodic Tasks.vi
     Robot Main.vi,0.000000,0.000000,-6000.000000,-6000.000000,Speed,Speed,-9.000000,2.700000,2.030000,1.000000,100.000000,0,0,-0.003038,0.003038,0
12:11:30.835 PM 02/06/2016,Teleop Enabled,0,TRUE,-44087,NetComm_CAN_Receive.vi:5470007<APPEND>

<b>Complete call chain:</b>
     NetComm_CAN_Receive.vi:5470007
     WPI_CANTalonSRX_Receive.vi
     WPI_CANTalonSRX_GetStatus.vi
     ShooterVI.vi
     Periodic Tasks.vi
     Robot Main.vi,0.000000,0.000000,-6000.000000,-6000.000000,Speed,Speed,-9.010000,2.690000,2.030000,1.000000,101.000000,0,0,-0.003038,0.003038,0
12:11:30.935 PM 02/06/2016,Teleop Enabled,0,TRUE,-44087,NetComm_CAN_Receive.vi:5470007<APPEND>

<b>Complete call chain:</b>
     NetComm_CAN_Receive.vi:5470007
     WPI_CANTalonSRX_Receive.vi
     WPI_MotorControlOpenCANTalonSRX.vi
     Begin.vi
     Robot Main.vi,0.000000,0.000000,-6000.000000,-6000.000000,Speed,Speed,-9.000000,2.690000,2.030000,1.000000,101.000000,0,0,-0.003038,0.003038,0
12:11:31.036 PM 02/06/2016,Teleop Enabled,0,TRUE,-44087,NetComm_CAN_Receive.vi:5470007<APPEND>

<b>Complete call chain:</b>
     NetComm_CAN_Receive.vi:5470007
     WPI_CANTalonSRX_Receive.vi
     WPI_CANTalonSRX_GetStatus.vi
     ShooterVI.vi
     Periodic Tasks.vi
     Robot Main.vi,0.000000,0.000000,-6000.000000,-6000.000000,Speed,Speed,-9.010000,2.690000,2.030000,1.000000,100.000000,0,0,-0.003038,0.003038,0
12:11:31.137 PM 02/06/2016,Teleop Enabled,0,TRUE,-44087,NetComm_CAN_Receive.vi:5470007<APPEND>

<b>Complete call chain:</b>
     NetComm_CAN_Receive.vi:5470007
     WPI_CANTalonSRX_Receive.vi
     WPI_CANTalonSRX_GetStatus.vi
     ShooterVI.vi
     Periodic Tasks.vi
     Robot Main.vi,0.000000,0.000000,-6000.000000,-6000.000000,Speed,Speed,-9.010000,2.690000,2.020000,1.000000,100.000000,0,0,-0.003038,0.003038,0
12:11:31.238 PM 02/06/2016,Teleop Enabled,0,TRUE,-44087,NetComm_CAN_Receive.vi:5470007<APPEND>

<b>Complete call chain:</b>
     NetComm_CAN_Receive.vi:5470007
     WPI_CANTalonSRX_Receive.vi
     WPI_MotorControlOpenCANTalonSRX.vi
     Begin.vi
     Robot Main.vi,0.000000,0.000000,-6000.000000,-6000.000000,Speed,Speed,-9.010000,2.690000,2.020000,1.000000,100.000000,0,0,-0.003038,0.003038,0
12:11:31.339 PM 02/06/2016,Teleop Enabled,0,TRUE,-44087,NetComm_CAN_Receive.vi:5470007<APPEND>

<b>Complete call chain:</b>
     NetComm_CAN_Receive.vi:5470007
     WPI_CANTalonSRX_Receive.vi
     WPI_CANTalonSRX_GetStatus.vi
     ShooterVI.vi
     Periodic Tasks.vi
     Robot Main.vi,0.000000,0.000000,-6000.000000,-6000.000000,Speed,Speed,-9.010000,2.690000,2.030000,1.000000,102.000000,0,0,-0.003038,0.003038,0
12:11:31.439 PM 02/06/2016,Teleop Enabled,0,TRUE,-44087,NetComm_CAN_Receive.vi:5470007<APPEND>

<b>Complete call chain:</b>
     NetComm_CAN_Receive.vi:5470007
     WPI_CANTalonSRX_Receive.vi
     WPI_CANTalonSRX_GetStatus.vi
     ShooterVI.vi
     Periodic Tasks.vi
     Robot Main.vi,0.000000,0.000000,-6000.000000,-6000.000000,Speed,Speed,-9.010000,2.690000,2.030000,1.000000,101.000000,0,0,-0.003038,0.003038,0
12:11:31.540 PM 02/06/2016,Teleop Enabled,0,TRUE,-44087,NetComm_CAN_Receive.vi:5470007<APPEND>

<b>Complete call chain:</b>
     NetComm_CAN_Receive.vi:5470007
     WPI_CANTalonSRX_Receive.vi
     WPI_CANTalonSRX_GetStatus.vi
     ShooterVI.vi
     Periodic Tasks.vi
     Robot Main.vi,0.000000,0.000000,-6000.000000,-6000.000000,Speed,Speed,-9.010000,2.690000,2.030000,1.000000,102.000000,0,0,-0.003038,0.003038,0
12:11:31.640 PM 02/06/2016,Teleop Enabled,0,TRUE,-44087,NetComm_CAN_Receive.vi:5470007<APPEND>

<b>Complete call chain:</b>
     NetComm_CAN_Receive.vi:5470007
     WPI_CANTalonSRX_Receive.vi
     WPI_MotorControlOpenCANTalonSRX.vi
     Begin.vi
     Robot Main.vi,0.000000,0.000000,-6000.000000,-6000.000000,Speed,Speed,-9.010000,2.690000,2.030000,1.000000,100.000000,0,0,-0.003038,0.003038,0
12:11:31.741 PM 02/06/2016,Teleop Enabled,0,TRUE,-44087,NetComm_CAN_Receive.vi:5470007<APPEND>

<b>Complete call chain:</b>
     NetComm_CAN_Receive.vi:5470007
     WPI_CANTalonSRX_Receive.vi
     WPI_CANTalonSRX_GetStatus.vi
     ShooterVI.vi
     Periodic Tasks.vi
     Robot Main.vi,0.000000,0.000000,-6000.000000,-6000.000000,Speed,Speed,-9.010000,2.690000,2.030000,1.000000,102.000000,0,0,-0.003038,0.003038,0
12:11:31.842 PM 02/06/2016,Teleop Enabled,0,TRUE,-44087,NetComm_CAN_Receive.vi:5470007<APPEND>

<b>Complete call chain:</b>
     NetComm_CAN_Receive.vi:5470007
     WPI_CANTalonSRX_Receive.vi
     WPI_MotorControlOpenCANTalonSRX.vi
     Begin.vi
     Robot Main.vi,0.000000,0.000000,-6000.000000,-6000.000000,Speed,Speed,-9.010000,2.690000,2.020000,1.000000,101.000000,0,0,-0.003038,0.003038,0
12:11:31.943 PM 02/06/2016,Teleop Enabled,0,TRUE,-44087,NetComm_CAN_Receive.vi:5470007<APPEND>

<b>Complete call chain:</b>
     NetComm_CAN_Receive.vi:5470007
     WPI_CANTalonSRX_Receive.vi
     WPI_CANTalonSRX_GetStatus.vi
     ShooterVI.vi
     Periodic Tasks.vi
     Robot Main.vi,0.000000,0.000000,-6000.000000,-6000.000000,Speed,Speed,-9.020000,2.690000,2.020000,1.000000,101.000000,0,0,-0.003038,0.003038,0
12:11:32.044 PM 02/06/2016,Teleop Enabled,0,TRUE,-44087,NetComm_CAN_Receive.vi:5470007<APPEND>

<b>Complete call chain:</b>
     NetComm_CAN_Receive.vi:5470007
     WPI_CANTalonSRX_Receive.vi
     WPI_CANTalonSRX_GetStatus.vi
     ShooterVI.vi
     Periodic Tasks.vi
     Robot Main.vi,0.000000,0.000000,-6000.000000,-6000.000000,Speed,Speed,-9.020000,2.690000,2.030000,1.000000,101.000000,0,0,-0.003038,0.003038,0
12:11:32.144 PM 02/06/2016,Teleop Enabled,0,TRUE,-44087,NetComm_CAN_Receive.vi:5470007<APPEND>

<b>Complete call chain:</b>
     NetComm_CAN_Receive.vi:5470007
     WPI_CANTalonSRX_Receive.vi
     WPI_MotorControlOpenCANTalonSRX.vi
     Begin.vi
     Robot Main.vi,0.000000,0.000000,-6000.000000,-6000.000000,Speed,Speed,-9.010000,2.690000,2.030000,1.000000,101.000000,0,0,-0.003038,0.003038,0
12:11:32.245 PM 02/06/2016,Teleop Enabled,0,TRUE,-44087,NetComm_CAN_Receive.vi:5470007<APPEND>

<b>Complete call chain:</b>
     NetComm_CAN_Receive.vi:5470007
     WPI_CANTalonSRX_Receive.vi
     WPI_CANTalonSRX_GetStatus.vi
     ShooterVI.vi
     Periodic Tasks.vi
     Robot Main.vi,0.000000,0.000000,-6000.000000,-6000.000000,Speed,Speed,-9.020000,2.690000,2.030000,1.000000,100.000000,0,0,-0.003038,0.003038,0
12:11:32.347 PM 02/06/2016,Teleop Enabled,0,TRUE,-44087,NetComm_CAN_Receive.vi:5470007<APPEND>

<b>Complete call chain:</b>
     NetComm_CAN_Receive.vi:5470007
     WPI_CANTalonSRX_Receive.vi
     WPI_CANTalonSRX_GetStatus.vi
     ShooterVI.vi
     Periodic Tasks.vi
     Robot Main.vi,0.000000,0.000000,-6000.000000,-6000.000000,Speed,Speed,-9.010000,2.690000,2.020000,1.000000,100.000000,0,0,-0.003038,0.003038,0
12:11:32.449 PM 02/06/2016,Teleop Enabled,0,TRUE,-44087,NetComm_CAN_Receive.vi:5470007<APPEND>

<b>Complete call chain:</b>
     NetComm_CAN_Receive.vi:5470007
     WPI_CANTalonSRX_Receive.vi
     WPI_MotorControlOpenCANTalonSRX.vi
     Begin.vi
     Robot Main.vi,0.000000,0.000000,-6000.000000,-6000.000000,Speed,Speed,-9.010000,2.690000,2.030000,1.000000,102.000000,0,0,-0.003038,0.003038,0
12:11:32.549 PM 02/06/2016,Teleop Enabled,0,TRUE,-44087,NetComm_CAN_Receive.vi:5470007<APPEND>

<b>Complete call chain:</b>
     NetComm_CAN_Receive.vi:5470007
     WPI_CANTalonSRX_Receive.vi
     WPI_CANTalonSRX_GetStatus.vi
     ShooterVI.vi
     Periodic Tasks.vi
     Robot Main.vi,0.000000,0.000000,-6000.000000,-6000.000000,Speed,Speed,-9.010000,2.690000,2.030000,1.000000,101.000000,0,0,-0.003038,0.003038,0
12:11:32.652 PM 02/06/2016,Teleop Enabled,0,TRUE,-44087,NetComm_CAN_Receive.vi:5470007<APPEND>

<b>Complete call chain:</b>
     NetComm_CAN_Receive.vi:5470007
     WPI_CANTalonSRX_Receive.vi
     WPI_CANTalonSRX_GetStatus.vi
     ShooterVI.vi
     Periodic Tasks.vi
     Robot Main.vi,0.000000,0.000000,-6000.000000,-6000.000000,Speed,Speed,-9.010000,2.700000,2.030000,1.000000,101.000000,0,0,-0.003038,0.003038,0
12:11:32.752 PM 02/06/2016,Teleop Enabled,0,TRUE,-44087,NetComm_CAN_Receive.vi:5470007<APPEND>

<b>Complete call chain:</b>
     NetComm_CAN_Receive.vi:5470007
     WPI_CANTalonSRX_Receive.vi
     WPI_CANTalonSRX_GetStatus.vi
     ShooterVI.vi
     Periodic Tasks.vi
     Robot Main.vi,0.000000,0.000000,-6000.000000,-6000.000000,Speed,Speed,-9.020000,2.700000,2.020000,1.000000,100.000000,0,0,-0.003038,0.003038,0
12:11:32.852 PM 02/06/2016,Teleop Enabled,0,TRUE,-44087,NetComm_CAN_Receive.vi:5470007<APPEND>

<b>Complete call chain:</b>
     NetComm_CAN_Receive.vi:5470007
     WPI_CANTalonSRX_Receive.vi
     WPI_MotorControlOpenCANTalonSRX.vi
     Begin.vi
     Robot Main.vi,0.000000,0.000000,-6000.000000,-6000.000000,Speed,Speed,-9.020000,2.710000,2.030000,1.000000,101.000000,0,0,-0.003038,0.003038,0
12:11:32.953 PM 02/06/2016,Teleop Enabled,0,TRUE,-44087,NetComm_CAN_Receive.vi:5470007<APPEND>

<b>Complete call chain:</b>
     NetComm_CAN_Receive.vi:5470007
     WPI_CANTalonSRX_Receive.vi
     WPI_CANTalonSRX_GetStatus.vi
     ShooterVI.vi
     Periodic Tasks.vi
     Robot Main.vi,0.000000,0.000000,-6000.000000,-6000.000000,Speed,Speed,-9.020000,2.710000,2.030000,1.000000,100.000000,0,0,-0.003038,0.003038,0
12:11:33.053 PM 02/06/2016,Teleop Enabled,0,TRUE,-44087,NetComm_CAN_Receive.vi:5470007<APPEND>

<b>Complete call chain:</b>
     NetComm_CAN_Receive.vi:5470007
     WPI_CANTalonSRX_Receive.vi
     WPI_CANTalonSRX_GetStatus.vi
     ShooterVI.vi
     Periodic Tasks.vi
     Robot Main.vi,0.000000,0.000000,-6000.000000,-6000.000000,Speed,Speed,-9.020000,2.710000,2.030000,1.000000,102.000000,0,0,-0.003038,0.003038,0
12:11:33.153 PM 02/06/2016,Teleop Enabled,0,TRUE,-44087,NetComm_CAN_Receive.vi:5470007<APPEND>

<b>Complete call chain:</b>
     NetComm_CAN_Receive.vi:5470007
     WPI_CANTalonSRX_Receive.vi
     WPI_MotorControlOpenCANTalonSRX.vi
     Begin.vi
     Robot Main.vi,0.000000,0.000000,-6000.000000,-6000.000000,Speed,Speed,-9.020000,2.710000,2.030000,1.000000,101.000000,0,0,-0.003038,0.003038,0
12:11:33.253 PM 02/06/2016,Teleop Enabled,0,TRUE,-44087,NetComm_CAN_Receive.vi:5470007<APPEND>

<b>Complete call chain:</b>
     NetComm_CAN_Receive.vi:5470007
     WPI_CANTalonSRX_Receive.vi
     WPI_CANTalonSRX_GetStatus.vi
     ShooterVI.vi
     Periodic Tasks.vi
     Robot Main.vi,0.000000,0.000000,-6000.000000,-6000.000000,Speed,Speed,-9.020000,2.700000,2.030000,1.000000,100.000000,0,0,-0.003038,0.003038,0
12:11:33.354 PM 02/06/2016,Teleop Enabled,0,TRUE,-44087,NetComm_CAN_Receive.vi:5470007<APPEND>

<b>Complete call chain:</b>
     NetComm_CAN_Receive.vi:5470007
     WPI_CANTalonSRX_Receive.vi
     WPI_MotorControlOpenCANTalonSRX.vi
     Begin.vi
     Robot Main.vi,0.000000,0.000000,-6000.000000,-6000.000000,Speed,Speed,-9.010000,2.700000,2.030000,1.000000,100.000000,0,0,-0.003038,0.003038,0
12:11:33.454 PM 02/06/2016,Teleop Enabled,0,TRUE,-44087,NetComm_CAN_Receive.vi:5470007<APPEND>

<b>Complete call chain:</b>
     NetComm_CAN_Receive.vi:5470007
     WPI_CANTalonSRX_Receive.vi
     WPI_CANTalonSRX_GetStatus.vi
     ShooterVI.vi
     Periodic Tasks.vi
     Robot Main.vi,0.000000,0.000000,-6000.000000,-6000.000000,Speed,Speed,-9.020000,2.700000,2.030000,1.000000,101.000000,0,0,-0.003038,0.003038,0
12:11:33.555 PM 02/06/2016,Teleop Enabled,0,TRUE,-44087,NetComm_CAN_Receive.vi:5470007<APPEND>

<b>Complete call chain:</b>
     NetComm_CAN_Receive.vi:5470007
     WPI_CANTalonSRX_Receive.vi
     WPI_CANTalonSRX_GetStatus.vi
     ShooterVI.vi
     Periodic Tasks.vi
     Robot Main.vi,0.000000,0.000000,-6000.000000,-6000.000000,Speed,Speed,-9.010000,2.700000,2.030000,1.000000,100.000000,0,0,-0.003038,0.003038,0
12:11:33.656 PM 02/06/2016,Teleop Enabled,0,TRUE,-44087,NetComm_CAN_Receive.vi:5470007<APPEND>

<b>Complete call chain:</b>
     NetComm_CAN_Receive.vi:5470007
     WPI_CANTalonSRX_Receive.vi
     WPI_MotorControlOpenCANTalonSRX.vi
     Begin.vi
     Robot Main.vi,0.000000,0.000000,-6000.000000,-6000.000000,Speed,Speed,-9.010000,2.700000,2.030000,1.000000,100.000000,0,0,-0.003038,0.003038,0
12:11:33.756 PM 02/06/2016,Teleop Enabled,0,TRUE,-44087,NetComm_CAN_Receive.vi:5470007<APPEND>

<b>Complete call chain:</b>
     NetComm_CAN_Receive.vi:5470007
     WPI_CANTalonSRX_Receive.vi
     WPI_CANTalonSRX_GetStatus.vi
     ShooterVI.vi
     Periodic Tasks.vi
     Robot Main.vi,0.000000,0.000000,-6000.000000,-6000.000000,Speed,Speed,-9.010000,2.700000,2.030000,1.000000,100.000000,0,0,-0.003038,0.003038,0
12:11:33.856 PM 02/06/2016,Teleop Enabled,0,TRUE,-44087,NetComm_CAN_Receive.vi:5470007<APPEND>

<b>Complete call chain:</b>
     NetComm_CAN_Receive.vi:5470007
     WPI_CANTalonSRX_Receive.vi
     WPI_CANTalonSRX_GetStatus.vi
     ShooterVI.vi
     Periodic Tasks.vi
     Robot Main.vi,0.000000,0.000000,-6000.000000,-6000.000000,Speed,Speed,-9.010000,2.690000,2.030000,1.000000,100.000000,0,0,-0.003038,0.003038,0
12:11:33.956 PM 02/06/2016,Teleop Enabled,0,TRUE,-44087,NetComm_CAN_Receive.vi:5470007<APPEND>

<b>Complete call chain:</b>
     NetComm_CAN_Receive.vi:5470007
     WPI_CANTalonSRX_Receive.vi
     WPI_MotorControlOpenCANTalonSRX.vi
     Begin.vi
     Robot Main.vi,0.000000,0.000000,-6000.000000,-6000.000000,Speed,Speed,-9.020000,2.700000,2.020000,1.000000,100.000000,0,0,-0.003038,0.003038,0
12:11:34.057 PM 02/06/2016,Teleop Enabled,0,TRUE,-44087,NetComm_CAN_Receive.vi:5470007<APPEND>

<b>Complete call chain:</b>
     NetComm_CAN_Receive.vi:5470007
     WPI_CANTalonSRX_Receive.vi
     WPI_CANTalonSRX_GetStatus.vi
     ShooterVI.vi
     Periodic Tasks.vi
     Robot Main.vi,0.000000,0.000000,-6000.000000,-6000.000000,Speed,Speed,-9.010000,2.700000,2.020000,1.000000,100.000000,0,0,-0.003038,0.003038,0
12:11:34.158 PM 02/06/2016,Teleop Enabled,0,TRUE,-44087,NetComm_CAN_Receive.vi:5470007<APPEND>

<b>Complete call chain:</b>
     NetComm_CAN_Receive.vi:5470007
     WPI_CANTalonSRX_Receive.vi
     WPI_CANTalonSRX_GetStatus.vi
     ShooterVI.vi
     Periodic Tasks.vi
     Robot Main.vi,0.000000,0.000000,-6000.000000,-6000.000000,Speed,Speed,-9.020000,2.690000,2.030000,1.000000,101.000000,0,0,-0.003038,0.003038,0
12:11:34.259 PM 02/06/2016,Teleop Enabled,0,TRUE,-44087,NetComm_CAN_Receive.vi:5470007<APPEND>

<b>Complete call chain:</b>
     NetComm_CAN_Receive.vi:5470007
     WPI_CANTalonSRX_Receive.vi
     WPI_MotorControlOpenCANTalonSRX.vi
     Begin.vi
     Robot Main.vi,0.000000,0.000000,-6000.000000,-6000.000000,Speed,Speed,-9.010000,2.690000,2.020000,1.000000,101.000000,0,0,-0.003038,0.003038,0
12:11:34.360 PM 02/06/2016,Teleop Enabled,0,TRUE,-44087,NetComm_CAN_Receive.vi:5470007<APPEND>

<b>Complete call chain:</b>
     NetComm_CAN_Receive.vi:5470007
     WPI_CANTalonSRX_Receive.vi
     WPI_CANTalonSRX_GetStatus.vi
     ShooterVI.vi
     Periodic Tasks.vi
     Robot Main.vi,0.000000,0.000000,-6000.000000,-6000.000000,Speed,Speed,-9.050000,2.640000,1.930000,1.000000,101.000000,0,0,-0.003038,0.003038,0
12:11:34.461 PM 02/06/2016,Teleop Enabled,0,TRUE,-44087,NetComm_CAN_Receive.vi:5470007<APPEND>

<b>Complete call chain:</b>
     NetComm_CAN_Receive.vi:5470007
     WPI_CANTalonSRX_Receive.vi
     WPI_CANTalonSRX_GetStatus.vi
     ShooterVI.vi
     Periodic Tasks.vi
     Robot Main.vi,0.000000,0.000000,-6000.000000,-6000.000000,Speed,Speed,-8.990000,2.660000,1.950000,1.000000,101.000000,0,0,-0.003038,0.003038,0
12:11:34.561 PM 02/06/2016,Teleop Enabled,0,TRUE,-44087,NetComm_CAN_Receive.vi:5470007<APPEND>

<b>Complete call chain:</b>
     NetComm_CAN_Receive.vi:5470007
     WPI_CANTalonSRX_Receive.vi
     WPI_MotorControlOpenCANTalonSRX.vi
     Begin.vi
     Robot Main.vi,0.000000,0.000000,-6000.000000,-6000.000000,Speed,Speed,-9.000000,2.690000,2.030000,1.000000,103.000000,0,0,-0.003038,0.003038,0
12:11:34.662 PM 02/06/2016,Teleop Enabled,0,TRUE,-44087,NetComm_CAN_Receive.vi:5470007<APPEND>

<b>Complete call chain:</b>
     NetComm_CAN_Receive.vi:5470007
     WPI_CANTalonSRX_Receive.vi
     WPI_CANTalonSRX_GetStatus.vi
     ShooterVI.vi
     Periodic Tasks.vi
     Robot Main.vi,0.000000,0.000000,-6000.000000,-6000.000000,Speed,Speed,-9.010000,2.710000,2.020000,1.000000,102.000000,0,0,-0.003038,0.003038,0
12:11:34.764 PM 02/06/2016,Teleop Enabled,0,TRUE,-44087,NetComm_CAN_Receive.vi:5470007<APPEND>

<b>Complete call chain:</b>
     NetComm_CAN_Receive.vi:5470007
     WPI_CANTalonSRX_Receive.vi
     WPI_CANTalonSRX_GetStatus.vi
     ShooterVI.vi
     Periodic Tasks.vi
     Robot Main.vi,0.000000,0.000000,-6000.000000,-6000.000000,Speed,Speed,-9.010000,2.710000,2.020000,1.000000,101.000000,0,0,-0.003038,0.003038,0
12:11:34.865 PM 02/06/2016,Teleop Enabled,0,TRUE,-44087,NetComm_CAN_Receive.vi:5470007<APPEND>

<b>Complete call chain:</b>
     NetComm_CAN_Receive.vi:5470007
     WPI_CANTalonSRX_Receive.vi
     WPI_MotorControlOpenCANTalonSRX.vi
     Begin.vi
     Robot Main.vi,0.000000,0.000000,-6000.000000,-6000.000000,Speed,Speed,-9.010000,2.710000,2.020000,1.000000,101.000000,0,0,-0.003038,0.003038,0
12:11:34.965 PM 02/06/2016,Teleop Enabled,0,TRUE,-44087,NetComm_CAN_Receive.vi:5470007<APPEND>

<b>Complete call chain:</b>
     NetComm_CAN_Receive.vi:5470007
     WPI_CANTalonSRX_Receive.vi
     WPI_CANTalonSRX_GetStatus.vi
     ShooterVI.vi
     Periodic Tasks.vi
     Robot Main.vi,0.000000,0.000000,-6000.000000,-6000.000000,Speed,Speed,-9.010000,2.720000,1.990000,1.000000,100.000000,0,0,-0.003038,0.003038,0
12:11:35.065 PM 02/06/2016,Teleop Enabled,0,TRUE,-44087,NetComm_CAN_Receive.vi:5470007<APPEND>

<b>Complete call chain:</b>
     NetComm_CAN_Receive.vi:5470007
     WPI_CANTalonSRX_Receive.vi
     WPI_CANTalonSRX_GetStatus.vi
     ShooterVI.vi
     Periodic Tasks.vi
     Robot Main.vi,0.000000,0.000000,-6000.000000,-6000.000000,Speed,Speed,-9.070000,2.780000,1.910000,1.000000,101.000000,0,0,-0.003038,0.003038,0
12:11:35.165 PM 02/06/2016,Teleop Enabled,0,TRUE,-44087,NetComm_CAN_Receive.vi:5470007<APPEND>

<b>Complete call chain:</b>
     NetComm_CAN_Receive.vi:5470007
     WPI_CANTalonSRX_Receive.vi
     WPI_MotorControlOpenCANTalonSRX.vi
     Begin.vi
     Robot Main.vi,0.000000,0.000000,-6000.000000,-6000.000000,Speed,Speed,-9.530000,2.890000,1.850000,1.000000,102.000000,0,0,-0.003038,0.003038,0
12:11:35.268 PM 02/06/2016,Teleop Enabled,0,TRUE,-44087,NetComm_CAN_Receive.vi:5470007<APPEND>

<b>Complete call chain:</b>
     NetComm_CAN_Receive.vi:5470007
     WPI_CANTalonSRX_Receive.vi
     WPI_CANTalonSRX_GetStatus.vi
     ShooterVI.vi
     Periodic Tasks.vi
     Robot Main.vi,0.000000,0.000000,-6000.000000,-6000.000000,Speed,Speed,-9.840000,2.860000,1.880000,1.000000,100.000000,0,0,-0.003038,0.003038,0
12:11:35.368 PM 02/06/2016,Teleop Enabled,0,TRUE,-44087,NetComm_CAN_Receive.vi:5470007<APPEND>

<b>Complete call chain:</b>
     NetComm_CAN_Receive.vi:5470007
     WPI_CANTalonSRX_Receive.vi
     WPI_CANTalonSRX_GetStatus.vi
     ShooterVI.vi
     Periodic Tasks.vi
     Robot Main.vi,0.000000,0.000000,-6000.000000,-6000.000000,Speed,Speed,-9.700000,2.780000,1.960000,1.000000,101.000000,0,0,-0.003038,0.003038,0
12:11:35.468 PM 02/06/2016,Teleop Enabled,0,TRUE,-44087,NetComm_CAN_Receive.vi:5470007<APPEND>

<b>Complete call chain:</b>
     NetComm_CAN_Receive.vi:5470007
     WPI_CANTalonSRX_Receive.vi
     WPI_MotorControlOpenCANTalonSRX.vi
     Begin.vi
     Robot Main.vi,0.000000,0.000000,-6000.000000,-6000.000000,Speed,Speed,-9.790000,2.890000,1.860000,1.000000,100.000000,0,0,-0.003038,0.003038,0
12:11:35.569 PM 02/06/2016,Teleop Enabled,0,TRUE,-44087,NetComm_CAN_Receive.vi:5470007<APPEND>

<b>Complete call chain:</b>
     NetComm_CAN_Receive.vi:5470007
     WPI_CANTalonSRX_Receive.vi
     WPI_CANTalonSRX_GetStatus.vi
     ShooterVI.vi
     Periodic Tasks.vi
     Robot Main.vi,0.000000,0.000000,-6000.000000,-6000.000000,Speed,Speed,-9.950000,2.890000,1.840000,1.000000,101.000000,0,0,-0.003038,0.003038,0
12:11:35.671 PM 02/06/2016,Teleop Enabled,0,TRUE,-44087,NetComm_CAN_Receive.vi:5470007<APPEND>

<b>Complete call chain:</b>
     NetComm_CAN_Receive.vi:5470007
     WPI_CANTalonSRX_Receive.vi
     WPI_CANTalonSRX_GetStatus.vi
     ShooterVI.vi
     Periodic Tasks.vi
     Robot Main.vi,0.000000,0.000000,-6000.000000,-6000.000000,Speed,Speed,-9.880000,2.780000,1.980000,1.000000,103.000000,0,0,-0.003038,0.003038,0
12:11:35.771 PM 02/06/2016,Teleop Enabled,0,TRUE,-44087,NetComm_CAN_Receive.vi:5470007<APPEND>

<b>Complete call chain:</b>
     NetComm_CAN_Receive.vi:5470007
     WPI_CANTalonSRX_Receive.vi
     WPI_MotorControlOpenCANTalonSRX.vi
     Begin.vi
     Robot Main.vi,0.000000,0.000000,-6000.000000,-6000.000000,Speed,Speed,-9.860000,2.720000,2.020000,1.000000,103.000000,0,0,-0.003038,0.003038,0
12:11:35.872 PM 02/06/2016,Teleop Enabled,0,TRUE,-44087,NetComm_CAN_Receive.vi:5470007<APPEND>

<b>Complete call chain:</b>
     NetComm_CAN_Receive.vi:5470007
     WPI_CANTalonSRX_Receive.vi
     WPI_CANTalonSRX_GetStatus.vi
     ShooterVI.vi
     Periodic Tasks.vi
     Robot Main.vi,0.000000,0.000000,-6000.000000,-6000.000000,Speed,Speed,-9.860000,2.720000,2.020000,1.000000,100.000000,0,0,-0.003038,0.003038,0
12:11:35.973 PM 02/06/2016,Teleop Enabled,0,TRUE,-44087,NetComm_CAN_Receive.vi:5470007<APPEND>

<b>Complete call chain:</b>
     NetComm_CAN_Receive.vi:5470007
     WPI_CANTalonSRX_Receive.vi
     WPI_CANTalonSRX_GetStatus.vi
     ShooterVI.vi
     Periodic Tasks.vi
     Robot Main.vi,0.000000,0.000000,-6000.000000,-6000.000000,Speed,Speed,-9.860000,2.710000,2.030000,1.000000,106.000000,0,0,-0.003038,0.003038,0
12:11:36.073 PM 02/06/2016,Teleop Enabled,0,TRUE,-44087,NetComm_CAN_Receive.vi:5470007<APPEND>

<b>Complete call chain:</b>
     NetComm_CAN_Receive.vi:5470007
     WPI_CANTalonSRX_Receive.vi
     WPI_MotorControlOpenCANTalonSRX.vi
     Begin.vi
     Robot Main.vi,0.000000,0.000000,-6000.000000,-6000.000000,Speed,Speed,-9.850000,2.710000,2.030000,1.000000,100.000000,0,0,-0.003038,0.003038,0
12:11:36.173 PM 02/06/2016,Teleop Enabled,0,TRUE,-44087,NetComm_CAN_Receive.vi:5470007<APPEND>

<b>Complete call chain:</b>
     NetComm_CAN_Receive.vi:5470007
     WPI_CANTalonSRX_Receive.vi
     WPI_CANTalonSRX_GetStatus.vi
     ShooterVI.vi
     Periodic Tasks.vi
     Robot Main.vi,0.000000,0.000000,-6000.000000,-6000.000000,Speed,Speed,-9.850000,2.710000,2.030000,1.000000,102.000000,0,0,-0.003038,0.003038,0
12:11:36.274 PM 02/06/2016,Teleop Enabled,0,TRUE,-44087,NetComm_CAN_Receive.vi:5470007<APPEND>

<b>Complete call chain:</b>
     NetComm_CAN_Receive.vi:5470007
     WPI_CANTalonSRX_Receive.vi
     WPI_CANTalonSRX_GetStatus.vi
     ShooterVI.vi
     Periodic Tasks.vi
     Robot Main.vi,0.000000,0.000000,-6000.000000,-6000.000000,Speed,Speed,-9.850000,2.700000,2.030000,1.000000,101.000000,0,0,-0.003038,0.003038,0
12:11:36.373 PM 02/06/2016,Teleop Enabled,0,TRUE,-44087,NetComm_CAN_Receive.vi:5470007<APPEND>

<b>Complete call chain:</b>
     NetComm_CAN_Receive.vi:5470007
     WPI_CANTalonSRX_Receive.vi
     WPI_MotorControlOpenCANTalonSRX.vi
     Begin.vi
     Robot Main.vi,0.000000,0.000000,-6000.000000,-6000.000000,Speed,Speed,-9.850000,2.700000,2.030000,1.000000,102.000000,0,0,-0.003038,0.003038,0
12:11:36.473 PM 02/06/2016,Teleop Enabled,0,TRUE,-44087,NetComm_CAN_Receive.vi:5470007<APPEND>

<b>Complete call chain:</b>
     NetComm_CAN_Receive.vi:5470007
     WPI_CANTalonSRX_Receive.vi
     WPI_CANTalonSRX_GetStatus.vi
     ShooterVI.vi
     Periodic Tasks.vi
     Robot Main.vi,0.000000,0.000000,-6000.000000,-6000.000000,Speed,Speed,-9.850000,2.710000,2.020000,1.000000,104.000000,0,0,-0.003038,0.003038,0
12:11:36.574 PM 02/06/2016,Teleop Enabled,0,TRUE,-44087,NetComm_CAN_Receive.vi:5470007<APPEND>

<b>Complete call chain:</b>
     NetComm_CAN_Receive.vi:5470007
     WPI_CANTalonSRX_Receive.vi
     WPI_CANTalonSRX_GetStatus.vi
     ShooterVI.vi
     Periodic Tasks.vi
     Robot Main.vi,0.000000,0.000000,-6000.000000,-6000.000000,Speed,Speed,-9.850000,2.710000,2.040000,1.000000,100.000000,0,0,-0.003038,0.003038,0
12:11:36.675 PM 02/06/2016,Teleop Enabled,0,TRUE,-44087,NetComm_CAN_Receive.vi:5470007<APPEND>

<b>Complete call chain:</b>
     NetComm_CAN_Receive.vi:5470007
     WPI_CANTalonSRX_Receive.vi
     WPI_MotorControlOpenCANTalonSRX.vi
     Begin.vi
     Robot Main.vi,0.000000,0.000000,-6000.000000,-6000.000000,Speed,Speed,-9.850000,2.710000,2.030000,1.000000,101.000000,0,0,-0.003038,0.003038,0
12:11:36.774 PM 02/06/2016,Teleop Enabled,0,TRUE,-44087,NetComm_CAN_Receive.vi:5470007<APPEND>

<b>Complete call chain:</b>
     NetComm_CAN_Receive.vi:5470007
     WPI_CANTalonSRX_Receive.vi
     WPI_CANTalonSRX_GetStatus.vi
     ShooterVI.vi
     Periodic Tasks.vi
     Robot Main.vi,0.000000,0.000000,-6000.000000,-6000.000000,Speed,Speed,-9.850000,2.710000,2.020000,1.000000,101.000000,0,0,-0.003038,0.003038,0
12:11:36.875 PM 02/06/2016,Teleop Enabled,0,TRUE,-44087,NetComm_CAN_Receive.vi:5470007<APPEND>

<b>Complete call chain:</b>
     NetComm_CAN_Receive.vi:5470007
     WPI_CANTalonSRX_Receive.vi
     WPI_CANTalonSRX_GetStatus.vi
     ShooterVI.vi
     Periodic Tasks.vi
     Robot Main.vi,0.000000,0.000000,-6000.000000,-6000.000000,Speed,Speed,-9.850000,2.700000,2.030000,1.000000,101.000000,0,0,-0.003038,0.003038,0
12:11:36.974 PM 02/06/2016,Teleop Enabled,0,TRUE,-44087,NetComm_CAN_Receive.vi:5470007<APPEND>

<b>Complete call chain:</b>
     NetComm_CAN_Receive.vi:5470007
     WPI_CANTalonSRX_Receive.vi
     WPI_MotorControlOpenCANTalonSRX.vi
     Begin.vi
     Robot Main.vi,0.000000,0.000000,-6000.000000,-6000.000000,Speed,Speed,-9.850000,2.700000,2.030000,1.000000,102.000000,0,0,-0.003038,0.003038,0
12:11:37.075 PM 02/06/2016,Teleop Enabled,0,TRUE,-44087,NetComm_CAN_Receive.vi:5470007<APPEND>

<b>Complete call chain:</b>
     NetComm_CAN_Receive.vi:5470007
     WPI_CANTalonSRX_Receive.vi
     WPI_CANTalonSRX_GetStatus.vi
     ShooterVI.vi
     Periodic Tasks.vi
     Robot Main.vi,0.000000,0.000000,-6000.000000,-6000.000000,Speed,Speed,-9.850000,2.710000,2.030000,1.000000,100.000000,0,0,-0.003038,0.003038,0
12:11:37.175 PM 02/06/2016,Teleop Enabled,0,TRUE,-44087,NetComm_CAN_Receive.vi:5470007<APPEND>

<b>Complete call chain:</b>
     NetComm_CAN_Receive.vi:5470007
     WPI_CANTalonSRX_Receive.vi
     WPI_CANTalonSRX_GetStatus.vi
     ShooterVI.vi
     Periodic Tasks.vi
     Robot Main.vi,0.000000,0.000000,-6000.000000,-6000.000000,Speed,Speed,-9.850000,2.700000,2.030000,1.000000,101.000000,0,0,-0.003038,0.003038,0
12:11:37.276 PM 02/06/2016,Teleop Enabled,0,TRUE,-44087,NetComm_CAN_Receive.vi:5470007<APPEND>

<b>Complete call chain:</b>
     NetComm_CAN_Receive.vi:5470007
     WPI_CANTalonSRX_Receive.vi
     WPI_CANTalonSRX_GetStatus.vi
     ShooterVI.vi
     Periodic Tasks.vi
     Robot Main.vi,0.000000,0.000000,-6000.000000,-6000.000000,Speed,Speed,-9.850000,2.710000,2.020000,1.000000,101.000000,0,0,-0.002232,0.003968,0
12:11:37.376 PM 02/06/2016,Teleop Enabled,0,TRUE,-44087,NetComm_CAN_Receive.vi:5470007<APPEND>

<b>Complete call chain:</b>
     NetComm_CAN_Receive.vi:5470007
     WPI_CANTalonSRX_Receive.vi
     WPI_CANTalonSRX_GetStatus.vi
     ShooterVI.vi
     Periodic Tasks.vi
     Robot Main.vi,0.000000,0.000000,-6000.000000,-6000.000000,Speed,Speed,0.000000,2.700000,2.030000,1.000000,101.000000,0,0,-0.002232,0.003968,0
12:11:37.476 PM 02/06/2016,Teleop Enabled,0,TRUE,-44087,NetComm_CAN_Receive.vi:5470007<APPEND>

<b>Complete call chain:</b>
     NetComm_CAN_Receive.vi:5470007
     WPI_CANTalonSRX_Receive.vi
     WPI_MotorControlOpenCANTalonSRX.vi
     Begin.vi
     Robot Main.vi,0.000000,0.000000,-6000.000000,-6000.000000,Speed,Speed,0.000000,2.700000,2.020000,1.000000,102.000000,0,0,-0.002232,0.003968,0
12:11:37.576 PM 02/06/2016,Teleop Enabled,0,TRUE,-44087,NetComm_CAN_Receive.vi:5470007<APPEND>

<b>Complete call chain:</b>
     NetComm_CAN_Receive.vi:5470007
     WPI_CANTalonSRX_Receive.vi
     WPI_MotorControlOpenCANTalonSRX.vi
     Begin.vi
     Robot Main.vi,0.000000,0.000000,-6000.000000,-6000.000000,Speed,Speed,0.000000,2.700000,2.020000,1.000000,100.000000,0,0,-0.002232,0.003968,0
12:11:37.676 PM 02/06/2016,Teleop Enabled,0,TRUE,-44087,NetComm_CAN_Receive.vi:5470007<APPEND>

<b>Complete call chain:</b>
     NetComm_CAN_Receive.vi:5470007
     WPI_CANTalonSRX_Receive.vi
     WPI_CANTalonSRX_GetStatus.vi
     ShooterVI.vi
     Periodic Tasks.vi
     Robot Main.vi,0.000000,0.000000,-6000.000000,-6000.000000,Speed,Speed,0.000000,2.700000,2.020000,1.000000,101.000000,0,0,-0.003038,0.003968,0
12:11:37.776 PM 02/06/2016,Teleop Enabled,0,TRUE,-44087,NetComm_CAN_Receive.vi:5470007<APPEND>

<b>Complete call chain:</b>
     NetComm_CAN_Receive.vi:5470007
     WPI_CANTalonSRX_Receive.vi
     WPI_CANTalonSRX_GetStatus.vi
     ShooterVI.vi
     Periodic Tasks.vi
     Robot Main.vi,0.000000,0.000000,-6000.000000,-6000.000000,Speed,Speed,0.000000,2.700000,2.020000,1.000000,100.000000,0,0,-0.003038,0.003968,0
12:11:37.876 PM 02/06/2016,Teleop Enabled,0,TRUE,-44087,NetComm_CAN_Receive.vi:5470007<APPEND>

<b>Complete call chain:</b>
     NetComm_CAN_Receive.vi:5470007
     WPI_CANTalonSRX_Receive.vi
     WPI_MotorControlOpenCANTalonSRX.vi
     Begin.vi
     Robot Main.vi,0.000000,0.000000,-6000.000000,-6000.000000,Speed,Speed,0.000000,2.700000,2.020000,1.000000,100.000000,0,0,-0.003038,0.003968,0
12:11:37.978 PM 02/06/2016,Teleop Enabled,0,TRUE,-44087,NetComm_CAN_Receive.vi:5470007<APPEND>

<b>Complete call chain:</b>
     NetComm_CAN_Receive.vi:5470007
     WPI_CANTalonSRX_Receive.vi
     WPI_CANTalonSRX_GetStatus.vi
     ShooterVI.vi
     Periodic Tasks.vi
     Robot Main.vi,0.000000,0.000000,-6000.000000,-6000.000000,Speed,Speed,0.000000,2.700000,2.020000,1.000000,102.000000,0,0,-0.003038,0.003968,0
12:11:38.078 PM 02/06/2016,Teleop Enabled,0,TRUE,-44087,NetComm_CAN_Receive.vi:5470007<APPEND>

<b>Complete call chain:</b>
     NetComm_CAN_Receive.vi:5470007
     WPI_CANTalonSRX_Receive.vi
     WPI_CANTalonSRX_GetStatus.vi
     ShooterVI.vi
     Periodic Tasks.vi
     Robot Main.vi,0.000000,0.000000,-6000.000000,-6000.000000,Speed,Speed,0.000000,2.700000,2.020000,1.000000,100.000000,0,0,-0.003038,0.003968,0
12:11:38.178 PM 02/06/2016,Teleop Enabled,0,TRUE,-44087,NetComm_CAN_Receive.vi:5470007<APPEND>

<b>Complete call chain:</b>
     NetComm_CAN_Receive.vi:5470007
     WPI_CANTalonSRX_Receive.vi
     WPI_MotorControlOpenCANTalonSRX.vi
     Begin.vi
     Robot Main.vi,0.000000,0.000000,-6000.000000,-6000.000000,Speed,Speed,0.000000,2.700000,2.020000,1.000000,101.000000,0,0,-0.003038,0.003968,0
12:11:38.280 PM 02/06/2016,Teleop Enabled,0,TRUE,-44087,NetComm_CAN_Receive.vi:5470007<APPEND>

<b>Complete call chain:</b>
     NetComm_CAN_Receive.vi:5470007
     WPI_CANTalonSRX_Receive.vi
     WPI_CANTalonSRX_GetStatus.vi
     ShooterVI.vi
     Periodic Tasks.vi
     Robot Main.vi,0.000000,0.000000,-6000.000000,-6000.000000,Speed,Speed,0.000000,2.700000,2.020000,1.000000,100.000000,0,0,-0.003038,0.003968,0
12:11:38.380 PM 02/06/2016,Teleop Enabled,0,TRUE,-44087,NetComm_CAN_Receive.vi:5470007<APPEND>

<b>Complete call chain:</b>
     NetComm_CAN_Receive.vi:5470007
     WPI_CANTalonSRX_Receive.vi
     WPI_CANTalonSRX_GetStatus.vi
     ShooterVI.vi
     Periodic Tasks.vi
     Robot Main.vi,0.000000,0.000000,-6000.000000,-6000.000000,Speed,Speed,0.000000,2.700000,2.020000,1.000000,100.000000,0,0,-0.003038,0.003968,0
12:11:38.481 PM 02/06/2016,Teleop Enabled,0,TRUE,-44087,NetComm_CAN_Receive.vi:5470007<APPEND>

<b>Complete call chain:</b>
     NetComm_CAN_Receive.vi:5470007
     WPI_CANTalonSRX_Receive.vi
     WPI_CANTalonSRX_GetStatus.vi
     ShooterVI.vi
     Periodic Tasks.vi
     Robot Main.vi,0.000000,0.000000,-6000.000000,-6000.000000,Speed,Speed,0.000000,2.700000,2.020000,1.000000,102.000000,0,0,-0.003038,0.003968,0
12:11:38.582 PM 02/06/2016,Teleop Enabled,0,TRUE,-44087,NetComm_CAN_Receive.vi:5470007<APPEND>

<b>Complete call chain:</b>
     NetComm_CAN_Receive.vi:5470007
     WPI_CANTalonSRX_Receive.vi
     WPI_MotorControlOpenCANTalonSRX.vi
     Begin.vi
     Robot Main.vi,0.000000,0.000000,-6000.000000,-6000.000000,Speed,Speed,0.000000,2.700000,2.020000,1.000000,100.000000,0,0,-0.003038,0.003968,0
12:11:38.682 PM 02/06/2016,Teleop Enabled,0,TRUE,-44087,NetComm_CAN_Receive.vi:5470007<APPEND>

<b>Complete call chain:</b>
     NetComm_CAN_Receive.vi:5470007
     WPI_CANTalonSRX_Receive.vi
     WPI_CANTalonSRX_GetStatus.vi
     ShooterVI.vi
     Periodic Tasks.vi
     Robot Main.vi,0.000000,0.000000,-6000.000000,-6000.000000,Speed,Speed,0.000000,2.710000,2.030000,1.000000,101.000000,0,0,-0.003038,0.003968,0
12:11:38.783 PM 02/06/2016,Teleop Enabled,0,TRUE,-44087,NetComm_CAN_Receive.vi:5470007<APPEND>

<b>Complete call chain:</b>
     NetComm_CAN_Receive.vi:5470007
     WPI_CANTalonSRX_Receive.vi
     WPI_CANTalonSRX_GetStatus.vi
     ShooterVI.vi
     Periodic Tasks.vi
     Robot Main.vi,0.000000,0.000000,-6000.000000,-6000.000000,Speed,Speed,0.000000,2.700000,2.020000,1.000000,101.000000,0,0,-0.003038,0.003968,0
12:11:38.883 PM 02/06/2016,Teleop Enabled,0,TRUE,-44087,NetComm_CAN_Receive.vi:5470007<APPEND>

<b>Complete call chain:</b>
     NetComm_CAN_Receive.vi:5470007
     WPI_CANTalonSRX_Receive.vi
     WPI_MotorControlOpenCANTalonSRX.vi
     Begin.vi
     Robot Main.vi,0.000000,0.000000,-6000.000000,-6000.000000,Speed,Speed,0.000000,2.700000,2.030000,1.000000,100.000000,0,0,-0.003038,0.003968,0
12:11:38.984 PM 02/06/2016,Teleop Enabled,0,TRUE,-44087,NetComm_CAN_Receive.vi:5470007<APPEND>

<b>Complete call chain:</b>
     NetComm_CAN_Receive.vi:5470007
     WPI_CANTalonSRX_Receive.vi
     WPI_CANTalonSRX_GetStatus.vi
     ShooterVI.vi
     Periodic Tasks.vi
     Robot Main.vi,0.000000,0.000000,-6000.000000,-6000.000000,Speed,Speed,0.000000,2.710000,2.020000,1.000000,100.000000,0,0,-0.003038,0.003968,0
12:11:39.085 PM 02/06/2016,Teleop Enabled,0,TRUE,-44087,NetComm_CAN_Receive.vi:5470007<APPEND>

<b>Complete call chain:</b>
     NetComm_CAN_Receive.vi:5470007
     WPI_CANTalonSRX_Receive.vi
     WPI_MotorControlOpenCANTalonSRX.vi
     Begin.vi
     Robot Main.vi,0.000000,0.000000,-6000.000000,-6000.000000,Speed,Speed,0.000000,2.710000,2.020000,1.000000,101.000000,0,0,-0.003038,0.003968,0
12:11:39.185 PM 02/06/2016,Teleop Enabled,0,TRUE,-44087,NetComm_CAN_Receive.vi:5470007<APPEND>

<b>Complete call chain:</b>
     NetComm_CAN_Receive.vi:5470007
     WPI_CANTalonSRX_Receive.vi
     WPI_CANTalonSRX_GetStatus.vi
     ShooterVI.vi
     Periodic Tasks.vi
     Robot Main.vi,0.000000,0.000000,-6000.000000,-6000.000000,Speed,Speed,0.000000,2.710000,2.020000,1.000000,102.000000,0,0,-0.002232,0.003968,0
12:11:39.287 PM 02/06/2016,Teleop Enabled,0,TRUE,-44087,NetComm_CAN_Receive.vi:5470007<APPEND>

<b>Complete call chain:</b>
     NetComm_CAN_Receive.vi:5470007
     WPI_CANTalonSRX_Receive.vi
     WPI_CANTalonSRX_GetStatus.vi
     ShooterVI.vi
     Periodic Tasks.vi
     Robot Main.vi,0.000000,0.000000,-6000.000000,-6000.000000,Speed,Speed,0.000000,2.710000,2.020000,1.000000,101.000000,0,0,-0.002232,0.003968,0
12:11:39.390 PM 02/06/2016,Teleop Enabled,0,TRUE,-44087,NetComm_CAN_Receive.vi:5470007<APPEND>

<b>Complete call chain:</b>
     NetComm_CAN_Receive.vi:5470007
     WPI_CANTalonSRX_Receive.vi
     WPI_MotorControlOpenCANTalonSRX.vi
     Begin.vi
     Robot Main.vi,0.000000,0.000000,-6000.000000,-6000.000000,Speed,Speed,0.000000,2.700000,2.020000,1.000000,101.000000,0,0,-0.002232,0.003968,0
12:11:39.491 PM 02/06/2016,Teleop Enabled,0,TRUE,-44087,NetComm_CAN_Receive.vi:5470007<APPEND>

<b>Complete call chain:</b>
     NetComm_CAN_Receive.vi:5470007
     WPI_CANTalonSRX_Receive.vi
     WPI_CANTalonSRX_GetStatus.vi
     ShooterVI.vi
     Periodic Tasks.vi
     Robot Main.vi,0.000000,0.000000,-6000.000000,-6000.000000,Speed,Speed,0.000000,2.700000,2.020000,1.000000,100.000000,0,0,-0.002232,0.003968,0
12:11:39.593 PM 02/06/2016,Teleop Enabled,0,TRUE,-44087,NetComm_CAN_Receive.vi:5470007<APPEND>

<b>Complete call chain:</b>
     NetComm_CAN_Receive.vi:5470007
     WPI_CANTalonSRX_Receive.vi
     WPI_CANTalonSRX_GetStatus.vi
     ShooterVI.vi
     Periodic Tasks.vi
     Robot Main.vi,0.000000,0.000000,-6000.000000,-6000.000000,Speed,Speed,0.000000,2.700000,2.020000,1.000000,101.000000,0,0,-0.002232,0.003968,0
12:11:39.692 PM 02/06/2016,Teleop Enabled,0,TRUE,-44087,NetComm_CAN_Receive.vi:5470007<APPEND>

<b>Complete call chain:</b>
     NetComm_CAN_Receive.vi:5470007
     WPI_CANTalonSRX_Receive.vi
     WPI_MotorControlOpenCANTalonSRX.vi
     Begin.vi
     Robot Main.vi,0.000000,0.000000,-6000.000000,-6000.000000,Speed,Speed,0.000000,2.700000,2.020000,1.000000,101.000000,0,0,-0.002232,0.003968,0
12:11:39.794 PM 02/06/2016,Teleop Enabled,0,TRUE,-44087,NetComm_CAN_Receive.vi:5470007<APPEND>

<b>Complete call chain:</b>
     NetComm_CAN_Receive.vi:5470007
     WPI_CANTalonSRX_Receive.vi
     WPI_CANTalonSRX_GetStatus.vi
     ShooterVI.vi
     Periodic Tasks.vi
     Robot Main.vi,0.000000,0.000000,-6000.000000,-6000.000000,Speed,Speed,0.000000,2.700000,2.020000,1.000000,102.000000,0,0,-0.002232,0.003968,0
12:11:39.895 PM 02/06/2016,Teleop Enabled,0,TRUE,-44087,NetComm_CAN_Receive.vi:5470007<APPEND>

<b>Complete call chain:</b>
     NetComm_CAN_Receive.vi:5470007
     WPI_CANTalonSRX_Receive.vi
     WPI_CANTalonSRX_GetStatus.vi
     ShooterVI.vi
     Periodic Tasks.vi
     Robot Main.vi,0.000000,0.000000,-6000.000000,-6000.000000,Speed,Speed,0.000000,2.700000,2.020000,1.000000,100.000000,0,0,-0.002232,0.003968,0
12:11:39.995 PM 02/06/2016,Teleop Enabled,0,TRUE,-44087,NetComm_CAN_Receive.vi:5470007<APPEND>

<b>Complete call chain:</b>
     NetComm_CAN_Receive.vi:5470007
     WPI_CANTalonSRX_Receive.vi
     WPI_MotorControlOpenCANTalonSRX.vi
     Begin.vi
     Robot Main.vi,0.000000,0.000000,-6000.000000,-6000.000000,Speed,Speed,0.000000,2.700000,2.020000,1.000000,101.000000,0,0,-0.002232,0.003968,0
12:11:40.096 PM 02/06/2016,Teleop Enabled,0,TRUE,-44087,NetComm_CAN_Receive.vi:5470007<APPEND>

<b>Complete call chain:</b>
     NetComm_CAN_Receive.vi:5470007
     WPI_CANTalonSRX_Receive.vi
     WPI_CANTalonSRX_GetStatus.vi
     ShooterVI.vi
     Periodic Tasks.vi
     Robot Main.vi,0.000000,0.000000,-6000.000000,-6000.000000,Speed,Speed,0.000000,2.700000,2.020000,1.000000,101.000000,0,0,-0.002232,0.003968,0
12:11:40.196 PM 02/06/2016,Teleop Enabled,0,TRUE,-44087,NetComm_CAN_Receive.vi:5470007<APPEND>

<b>Complete call chain:</b>
     NetComm_CAN_Receive.vi:5470007
     WPI_CANTalonSRX_Receive.vi
     WPI_CANTalonSRX_GetStatus.vi
     ShooterVI.vi
     Periodic Tasks.vi
     Robot Main.vi,0.000000,0.000000,-6000.000000,-6000.000000,Speed,Speed,0.000000,2.700000,2.020000,1.000000,103.000000,0,0,-0.002232,0.003968,0
12:11:40.297 PM 02/06/2016,Teleop Enabled,0,TRUE,-44087,NetComm_CAN_Receive.vi:5470007<APPEND>

<b>Complete call chain:</b>
     NetComm_CAN_Receive.vi:5470007
     WPI_CANTalonSRX_Receive.vi
     WPI_MotorControlOpenCANTalonSRX.vi
     Begin.vi
     Robot Main.vi,0.000000,0.000000,-6000.000000,-6000.000000,Speed,Speed,0.000000,2.700000,2.030000,1.000000,100.000000,0,0,-0.002232,0.003968,0
12:11:40.397 PM 02/06/2016,Teleop Enabled,0,TRUE,-44087,NetComm_CAN_Receive.vi:5470007<APPEND>

<b>Complete call chain:</b>
     NetComm_CAN_Receive.vi:5470007
     WPI_CANTalonSRX_Receive.vi
     WPI_CANTalonSRX_GetStatus.vi
     ShooterVI.vi
     Periodic Tasks.vi
     Robot Main.vi,0.000000,0.000000,-6000.000000,-6000.000000,Speed,Speed,0.000000,2.700000,2.020000,1.000000,101.000000,0,0,-0.002232,0.003968,0
12:11:40.497 PM 02/06/2016,Teleop Enabled,0,TRUE,-44087,NetComm_CAN_Receive.vi:5470007<APPEND>

<b>Complete call chain:</b>
     NetComm_CAN_Receive.vi:5470007
     WPI_CANTalonSRX_Receive.vi
     WPI_CANTalonSRX_GetStatus.vi
     ShooterVI.vi
     Periodic Tasks.vi
     Robot Main.vi,0.000000,0.000000,-6000.000000,-6000.000000,Speed,Speed,0.000000,2.700000,2.020000,1.000000,101.000000,0,0,-0.002232,0.003968,0
12:11:40.597 PM 02/06/2016,Teleop Enabled,0,TRUE,-44087,NetComm_CAN_Receive.vi:5470007<APPEND>

<b>Complete call chain:</b>
     NetComm_CAN_Receive.vi:5470007
     WPI_CANTalonSRX_Receive.vi
     WPI_MotorControlOpenCANTalonSRX.vi
     Begin.vi
     Robot Main.vi,0.000000,0.000000,-6000.000000,-6000.000000,Speed,Speed,0.000000,2.700000,2.020000,1.000000,100.000000,0,0,-0.003038,0.003968,0
12:11:40.699 PM 02/06/2016,Teleop Enabled,0,TRUE,-44087,NetComm_CAN_Receive.vi:5470007<APPEND>

<b>Complete call chain:</b>
     NetComm_CAN_Receive.vi:5470007
     WPI_CANTalonSRX_Receive.vi
     WPI_CANTalonSRX_GetStatus.vi
     ShooterVI.vi
     Periodic Tasks.vi
     Robot Main.vi,0.000000,0.000000,-6000.000000,-6000.000000,Speed,Speed,0.000000,2.700000,2.020000,1.000000,100.000000,0,0,-0.003038,0.003968,0
12:11:40.799 PM 02/06/2016,Teleop Enabled,0,TRUE,-44087,NetComm_CAN_Receive.vi:5470007<APPEND>

<b>Complete call chain:</b>
     NetComm_CAN_Receive.vi:5470007
     WPI_CANTalonSRX_Receive.vi
     WPI_CANTalonSRX_GetStatus.vi
     ShooterVI.vi
     Periodic Tasks.vi
     Robot Main.vi,0.000000,0.000000,-6000.000000,-6000.000000,Speed,Speed,0.000000,2.700000,2.030000,1.000000,101.000000,0,0,-0.003038,0.003968,0
12:11:40.900 PM 02/06/2016,Teleop Enabled,0,TRUE,-44087,NetComm_CAN_Receive.vi:5470007<APPEND>

<b>Complete call chain:</b>
     NetComm_CAN_Receive.vi:5470007
     WPI_CANTalonSRX_Receive.vi
     WPI_MotorControlOpenCANTalonSRX.vi
     Begin.vi
     Robot Main.vi,0.000000,0.000000,-6000.000000,-6000.000000,Speed,Speed,0.000000,2.700000,2.020000,1.000000,101.000000,0,0,-0.003038,0.003968,0
12:11:41.000 PM 02/06/2016,Teleop Enabled,0,TRUE,-44087,NetComm_CAN_Receive.vi:5470007<APPEND>

<b>Complete call chain:</b>
     NetComm_CAN_Receive.vi:5470007
     WPI_CANTalonSRX_Receive.vi
     WPI_CANTalonSRX_GetStatus.vi
     ShooterVI.vi
     Periodic Tasks.vi
     Robot Main.vi,0.000000,0.000000,-6000.000000,-6000.000000,Speed,Speed,0.000000,2.700000,2.020000,1.000000,101.000000,0,0,-0.003038,0.003968,0
12:11:41.100 PM 02/06/2016,Teleop Enabled,0,TRUE,-44087,NetComm_CAN_Receive.vi:5470007<APPEND>

<b>Complete call chain:</b>
     NetComm_CAN_Receive.vi:5470007
     WPI_CANTalonSRX_Receive.vi
     WPI_CANTalonSRX_GetStatus.vi
     ShooterVI.vi
     Periodic Tasks.vi
     Robot Main.vi,0.000000,0.000000,-6000.000000,-6000.000000,Speed,Speed,0.000000,2.700000,2.020000,1.000000,102.000000,0,0,-0.003038,0.003968,0
12:11:41.201 PM 02/06/2016,Teleop Enabled,0,TRUE,-44087,NetComm_CAN_Receive.vi:5470007<APPEND>

<b>Complete call chain:</b>
     NetComm_CAN_Receive.vi:5470007
     WPI_CANTalonSRX_Receive.vi
     WPI_MotorControlOpenCANTalonSRX.vi
     Begin.vi
     Robot Main.vi,0.000000,0.000000,-6000.000000,-6000.000000,Speed,Speed,0.000000,2.700000,2.020000,1.000000,101.000000,0,0,-0.003038,0.003968,0
12:11:41.302 PM 02/06/2016,Teleop Enabled,0,TRUE,-44087,NetComm_CAN_Receive.vi:5470007<APPEND>

<b>Complete call chain:</b>
     NetComm_CAN_Receive.vi:5470007
     WPI_CANTalonSRX_Receive.vi
     WPI_CANTalonSRX_GetStatus.vi
     ShooterVI.vi
     Periodic Tasks.vi
     Robot Main.vi,0.000000,0.000000,-6000.000000,-6000.000000,Speed,Speed,0.000000,2.700000,2.020000,1.000000,100.000000,0,0,-0.003038,0.003968,0
12:11:41.402 PM 02/06/2016,Teleop Enabled,0,TRUE,-44087,NetComm_CAN_Receive.vi:5470007<APPEND>

<b>Complete call chain:</b>
     NetComm_CAN_Receive.vi:5470007
     WPI_CANTalonSRX_Receive.vi
     WPI_CANTalonSRX_GetStatus.vi
     ShooterVI.vi
     Periodic Tasks.vi
     Robot Main.vi,0.000000,0.000000,-6000.000000,-6000.000000,Speed,Speed,0.000000,2.700000,2.020000,1.000000,101.000000,0,0,-0.003038,0.003968,0
