Time,RobotMode,AutoToRun,ErrorStatus, ErrorCode,ErrorSource,ActualRPM1,ActualRPM2,DesiredRPM1,DesiredRPM2,ControlMode1,ControlMode2,Yaw,Roll,Pitch,ShooterState,LoopTime,IsLevel,IsAutoTargeting,LeftMotorOutput,RightMotorOutput
04:13:51.348 PM 02/06/2016,Teleop Enabled,0,TRUE,-44087,NetComm_CAN_Receive.vi:5470007<APPEND>

<b>Complete call chain:</b>
     NetComm_CAN_Receive.vi:5470007
     WPI_CANTalonSRX_Receive.vi
     WPI_MotorControlOpenCANTalonSRX.vi
     Begin.vi
     Robot Main.vi,0.000000,0.000000,0.000000,0.000000,Speed,Speed,1.030000,1.580000,2.720000,0.000000,204253.000000,0,0,-0.000992,-0.002232,0
04:13:51.450 PM 02/06/2016,Teleop Enabled,0,TRUE,-44087,NetComm_CAN_Receive.vi:5470007<APPEND>

<b>Complete call chain:</b>
     NetComm_CAN_Receive.vi:5470007
     WPI_CANTalonSRX_Receive.vi
     WPI_MotorControlOpenCANTalonSRX.vi
     Begin.vi
     Robot Main.vi,0.000000,0.000000,0.000000,0.000000,Speed,Speed,1.030000,1.580000,2.730000,0.000000,100.000000,0,0,-0.000992,-0.002232,0
04:13:51.550 PM 02/06/2016,Teleop Enabled,0,TRUE,-44087,NetComm_CAN_Receive.vi:5470007<APPEND>

<b>Complete call chain:</b>
     NetComm_CAN_Receive.vi:5470007
     WPI_CANTalonSRX_Receive.vi
     WPI_MotorControlOpenCANTalonSRX.vi
     Begin.vi
     Robot Main.vi,0.000000,0.000000,0.000000,0.000000,Speed,Speed,1.030000,1.580000,2.730000,0.000000,100.000000,0,0,-0.000992,-0.002232,0
04:13:51.651 PM 02/06/2016,Teleop Enabled,0,TRUE,-44087,NetComm_CAN_Receive.vi:5470007<APPEND>

<b>Complete call chain:</b>
     NetComm_CAN_Receive.vi:5470007
     WPI_CANTalonSRX_Receive.vi
     WPI_MotorControlOpenCANTalonSRX.vi
     Begin.vi
     Robot Main.vi,0.000000,0.000000,0.000000,0.000000,Speed,Speed,1.030000,1.580000,2.720000,0.000000,100.000000,0,0,-0.000992,-0.002232,0
04:13:51.751 PM 02/06/2016,Teleop Enabled,0,TRUE,-44087,NetComm_CAN_Receive.vi:5470007<APPEND>

<b>Complete call chain:</b>
     NetComm_CAN_Receive.vi:5470007
     WPI_CANTalonSRX_Receive.vi
     WPI_MotorControlOpenCANTalonSRX.vi
     Begin.vi
     Robot Main.vi,0.000000,0.000000,0.000000,0.000000,Speed,Speed,1.020000,1.590000,2.720000,0.000000,100.000000,0,0,-0.000992,-0.002232,0
04:13:51.851 PM 02/06/2016,Teleop Enabled,0,TRUE,-44087,NetComm_CAN_Receive.vi:5470007<APPEND>

<b>Complete call chain:</b>
     NetComm_CAN_Receive.vi:5470007
     WPI_CANTalonSRX_Receive.vi
     WPI_MotorControlOpenCANTalonSRX.vi
     Begin.vi
     Robot Main.vi,0.000000,0.000000,0.000000,0.000000,Speed,Speed,1.030000,1.580000,2.720000,0.000000,100.000000,0,0,-0.000992,-0.002232,0
04:13:51.952 PM 02/06/2016,Teleop Enabled,0,TRUE,-44087,NetComm_CAN_Receive.vi:5470007<APPEND>

<b>Complete call chain:</b>
     NetComm_CAN_Receive.vi:5470007
     WPI_CANTalonSRX_Receive.vi
     WPI_MotorControlOpenCANTalonSRX.vi
     Begin.vi
     Robot Main.vi,0.000000,0.000000,0.000000,0.000000,Speed,Speed,1.030000,1.580000,2.730000,0.000000,102.000000,0,0,-0.000992,-0.002232,0
04:13:52.052 PM 02/06/2016,Teleop Enabled,0,TRUE,-44087,NetComm_CAN_Receive.vi:5470007<APPEND>

<b>Complete call chain:</b>
     NetComm_CAN_Receive.vi:5470007
     WPI_CANTalonSRX_Receive.vi
     WPI_MotorControlOpenCANTalonSRX.vi
     Begin.vi
     Robot Main.vi,0.000000,0.000000,0.000000,0.000000,Speed,Speed,1.030000,1.580000,2.730000,0.000000,100.000000,0,0,-0.000992,-0.002232,0
04:13:52.153 PM 02/06/2016,Teleop Enabled,0,TRUE,-44087,NetComm_CAN_Receive.vi:5470007<APPEND>

<b>Complete call chain:</b>
     NetComm_CAN_Receive.vi:5470007
     WPI_CANTalonSRX_Receive.vi
     WPI_MotorControlOpenCANTalonSRX.vi
     Begin.vi
     Robot Main.vi,0.000000,0.000000,0.000000,0.000000,Speed,Speed,1.030000,1.570000,2.730000,0.000000,100.000000,0,0,-0.000992,-0.002232,0
04:13:52.253 PM 02/06/2016,Teleop Enabled,0,TRUE,-44087,NetComm_CAN_Receive.vi:5470007<APPEND>

<b>Complete call chain:</b>
     NetComm_CAN_Receive.vi:5470007
     WPI_CANTalonSRX_Receive.vi
     WPI_MotorControlOpenCANTalonSRX.vi
     Begin.vi
     Robot Main.vi,0.000000,0.000000,0.000000,0.000000,Speed,Speed,1.030000,1.570000,2.730000,0.000000,103.000000,0,0,-0.000992,-0.002232,0
04:13:52.354 PM 02/06/2016,Teleop Enabled,0,TRUE,-44087,NetComm_CAN_Receive.vi:5470007<APPEND>

<b>Complete call chain:</b>
     NetComm_CAN_Receive.vi:5470007
     WPI_CANTalonSRX_Receive.vi
     WPI_MotorControlOpenCANTalonSRX.vi
     Begin.vi
     Robot Main.vi,0.000000,0.000000,0.000000,0.000000,Speed,Speed,1.030000,1.570000,2.730000,0.000000,100.000000,0,0,-0.000992,-0.002232,0
04:13:52.459 PM 02/06/2016,Teleop Enabled,0,TRUE,-44087,NetComm_CAN_Receive.vi:5470007<APPEND>

<b>Complete call chain:</b>
     NetComm_CAN_Receive.vi:5470007
     WPI_CANTalonSRX_Receive.vi
     WPI_MotorControlOpenCANTalonSRX.vi
     Begin.vi
     Robot Main.vi,0.000000,0.000000,0.000000,0.000000,Speed,Speed,1.030000,1.570000,2.730000,0.000000,100.000000,0,0,-0.000992,-0.002232,0
04:13:52.560 PM 02/06/2016,Teleop Enabled,0,TRUE,-44087,NetComm_CAN_Receive.vi:5470007<APPEND>

<b>Complete call chain:</b>
     NetComm_CAN_Receive.vi:5470007
     WPI_CANTalonSRX_Receive.vi
     WPI_MotorControlOpenCANTalonSRX.vi
     Begin.vi
     Robot Main.vi,0.000000,0.000000,0.000000,0.000000,Speed,Speed,1.030000,1.560000,2.730000,0.000000,101.000000,0,0,-0.000992,-0.002232,0
04:13:52.660 PM 02/06/2016,Teleop Enabled,0,TRUE,-44087,NetComm_CAN_Receive.vi:5470007<APPEND>

<b>Complete call chain:</b>
     NetComm_CAN_Receive.vi:5470007
     WPI_CANTalonSRX_Receive.vi
     WPI_CANTalonSRX_GetStatus.vi
     ShooterVI.vi
     Periodic Tasks.vi
     Robot Main.vi,0.000000,0.000000,0.000000,0.000000,Speed,Speed,1.030000,1.560000,2.730000,0.000000,102.000000,0,0,-0.000992,-0.002232,0
04:13:52.761 PM 02/06/2016,Teleop Enabled,0,TRUE,-44087,NetComm_CAN_Receive.vi:5470007<APPEND>

<b>Complete call chain:</b>
     NetComm_CAN_Receive.vi:5470007
     WPI_CANTalonSRX_Receive.vi
     WPI_CANTalonSRX_GetStatus.vi
     ShooterVI.vi
     Periodic Tasks.vi
     Robot Main.vi,0.000000,0.000000,0.000000,0.000000,Speed,Speed,1.030000,1.560000,2.730000,0.000000,101.000000,0,0,-0.000992,-0.002232,0
04:13:52.861 PM 02/06/2016,Teleop Enabled,0,TRUE,-44087,NetComm_CAN_Receive.vi:5470007<APPEND>

<b>Complete call chain:</b>
     NetComm_CAN_Receive.vi:5470007
     WPI_CANTalonSRX_Receive.vi
     WPI_CANTalonSRX_GetStatus.vi
     ShooterVI.vi
     Periodic Tasks.vi
     Robot Main.vi,0.000000,0.000000,0.000000,0.000000,Speed,Speed,1.020000,1.560000,2.730000,0.000000,101.000000,0,0,-0.000992,-0.002232,0
04:13:52.961 PM 02/06/2016,Teleop Enabled,0,TRUE,-44087,NetComm_CAN_Receive.vi:5470007<APPEND>

<b>Complete call chain:</b>
     NetComm_CAN_Receive.vi:5470007
     WPI_CANTalonSRX_Receive.vi
     WPI_MotorControlOpenCANTalonSRX.vi
     Begin.vi
     Robot Main.vi,0.000000,0.000000,0.000000,0.000000,Speed,Speed,1.030000,1.560000,2.730000,0.000000,100.000000,0,0,-0.000992,-0.002232,0
04:13:53.062 PM 02/06/2016,Teleop Enabled,0,TRUE,-44087,NetComm_CAN_Receive.vi:5470007<APPEND>

<b>Complete call chain:</b>
     NetComm_CAN_Receive.vi:5470007
     WPI_CANTalonSRX_Receive.vi
     WPI_CANTalonSRX_GetStatus.vi
     ShooterVI.vi
     Periodic Tasks.vi
     Robot Main.vi,0.000000,0.000000,0.000000,0.000000,Speed,Speed,1.030000,1.560000,2.730000,0.000000,102.000000,0,0,-0.000992,-0.002232,0
04:13:53.163 PM 02/06/2016,Teleop Enabled,0,TRUE,-44087,NetComm_CAN_Receive.vi:5470007<APPEND>

<b>Complete call chain:</b>
     NetComm_CAN_Receive.vi:5470007
     WPI_CANTalonSRX_Receive.vi
     WPI_MotorControlOpenCANTalonSRX.vi
     Begin.vi
     Robot Main.vi,0.000000,0.000000,0.000000,0.000000,Speed,Speed,1.020000,1.560000,2.720000,0.000000,102.000000,0,0,-0.000992,-0.002232,0
04:13:53.263 PM 02/06/2016,Teleop Enabled,0,TRUE,-44087,NetComm_CAN_Receive.vi:5470007<APPEND>

<b>Complete call chain:</b>
     NetComm_CAN_Receive.vi:5470007
     WPI_CANTalonSRX_Receive.vi
     WPI_CANTalonSRX_GetStatus.vi
     ShooterVI.vi
     Periodic Tasks.vi
     Robot Main.vi,0.000000,0.000000,0.000000,0.000000,Speed,Speed,1.020000,1.560000,2.720000,0.000000,101.000000,0,0,-0.000992,-0.002232,0
04:13:53.364 PM 02/06/2016,Teleop Enabled,0,TRUE,-44087,NetComm_CAN_Receive.vi:5470007<APPEND>

<b>Complete call chain:</b>
     NetComm_CAN_Receive.vi:5470007
     WPI_CANTalonSRX_Receive.vi
     WPI_CANTalonSRX_GetStatus.vi
     ShooterVI.vi
     Periodic Tasks.vi
     Robot Main.vi,0.000000,0.000000,0.000000,0.000000,Speed,Speed,1.020000,1.560000,2.720000,0.000000,100.000000,0,0,-0.000992,-0.002232,0
04:13:53.463 PM 02/06/2016,Teleop Enabled,0,TRUE,-44087,NetComm_CAN_Receive.vi:5470007<APPEND>

<b>Complete call chain:</b>
     NetComm_CAN_Receive.vi:5470007
     WPI_CANTalonSRX_Receive.vi
     WPI_MotorControlOpenCANTalonSRX.vi
     Begin.vi
     Robot Main.vi,0.000000,0.000000,0.000000,0.000000,Speed,Speed,1.020000,1.560000,2.710000,0.000000,103.000000,0,0,-0.000992,-0.002232,0
04:13:53.563 PM 02/06/2016,Teleop Enabled,0,TRUE,-44087,NetComm_CAN_Receive.vi:5470007<APPEND>

<b>Complete call chain:</b>
     NetComm_CAN_Receive.vi:5470007
     WPI_CANTalonSRX_Receive.vi
     WPI_CANTalonSRX_GetStatus.vi
     ShooterVI.vi
     Periodic Tasks.vi
     Robot Main.vi,0.000000,0.000000,0.000000,0.000000,Speed,Speed,1.020000,1.560000,2.710000,0.000000,100.000000,0,0,-0.007502,-0.001550,0
04:13:53.663 PM 02/06/2016,Teleop Enabled,0,TRUE,-44087,NetComm_CAN_Receive.vi:5470007<APPEND>

<b>Complete call chain:</b>
     NetComm_CAN_Receive.vi:5470007
     WPI_CANTalonSRX_Receive.vi
     WPI_CANTalonSRX_GetStatus.vi
     ShooterVI.vi
     Periodic Tasks.vi
     Robot Main.vi,0.000000,0.000000,0.000000,0.000000,Speed,Speed,1.020000,1.560000,2.720000,0.000000,101.000000,0,0,-0.017918,-0.001550,0
04:13:53.763 PM 02/06/2016,Teleop Enabled,0,TRUE,-44087,NetComm_CAN_Receive.vi:5470007<APPEND>

<b>Complete call chain:</b>
     NetComm_CAN_Receive.vi:5470007
     WPI_CANTalonSRX_Receive.vi
     WPI_CANTalonSRX_GetStatus.vi
     ShooterVI.vi
     Periodic Tasks.vi
     Robot Main.vi,0.000000,0.000000,0.000000,0.000000,Speed,Speed,1.020000,1.560000,2.710000,0.000000,100.000000,0,0,-0.041912,-0.001550,0
04:13:53.863 PM 02/06/2016,Teleop Enabled,0,TRUE,-44087,NetComm_CAN_Receive.vi:5470007<APPEND>

<b>Complete call chain:</b>
     NetComm_CAN_Receive.vi:5470007
     WPI_CANTalonSRX_Receive.vi
     WPI_MotorControlOpenCANTalonSRX.vi
     Begin.vi
     Robot Main.vi,0.000000,0.000000,0.000000,0.000000,Speed,Speed,1.020000,1.560000,2.720000,0.000000,101.000000,0,0,-0.048608,-0.002232,0
04:13:53.963 PM 02/06/2016,Teleop Enabled,0,TRUE,-44087,NetComm_CAN_Receive.vi:5470007<APPEND>

<b>Complete call chain:</b>
     NetComm_CAN_Receive.vi:5470007
     WPI_CANTalonSRX_Receive.vi
     WPI_CANTalonSRX_GetStatus.vi
     ShooterVI.vi
     Periodic Tasks.vi
     Robot Main.vi,0.000000,0.000000,0.000000,0.000000,Speed,Speed,1.020000,1.560000,2.730000,0.000000,103.000000,0,0,-0.048608,-0.002232,0
04:13:54.063 PM 02/06/2016,Teleop Enabled,0,TRUE,-44087,NetComm_CAN_Receive.vi:5470007<APPEND>

<b>Complete call chain:</b>
     NetComm_CAN_Receive.vi:5470007
     WPI_CANTalonSRX_Receive.vi
     WPI_MotorControlOpenCANTalonSRX.vi
     Begin.vi
     Robot Main.vi,0.000000,0.000000,0.000000,0.000000,Speed,Speed,1.020000,1.560000,2.730000,0.000000,100.000000,0,0,-0.215822,-0.002232,0
04:13:54.163 PM 02/06/2016,Teleop Enabled,0,TRUE,-44087,NetComm_CAN_Receive.vi:5470007<APPEND>

<b>Complete call chain:</b>
     NetComm_CAN_Receive.vi:5470007
     WPI_CANTalonSRX_Receive.vi
     WPI_CANTalonSRX_GetStatus.vi
     ShooterVI.vi
     Periodic Tasks.vi
     Robot Main.vi,0.000000,0.000000,0.000000,0.000000,Speed,Speed,1.050000,1.550000,2.830000,0.000000,101.000000,0,0,-0.215822,-0.001550,0
04:13:54.264 PM 02/06/2016,Teleop Enabled,0,TRUE,-44087,NetComm_CAN_Receive.vi:5470007<APPEND>

<b>Complete call chain:</b>
     NetComm_CAN_Receive.vi:5470007
     WPI_CANTalonSRX_Receive.vi
     WPI_CANTalonSRX_GetStatus.vi
     ShooterVI.vi
     Periodic Tasks.vi
     Robot Main.vi,0.000000,0.000000,0.000000,0.000000,Speed,Speed,2.090000,1.460000,3.910000,0.000000,100.000000,0,0,-0.000992,-0.002232,0
04:13:54.364 PM 02/06/2016,Teleop Enabled,0,TRUE,-44087,NetComm_CAN_Receive.vi:5470007<APPEND>

<b>Complete call chain:</b>
     NetComm_CAN_Receive.vi:5470007
     WPI_CANTalonSRX_Receive.vi
     WPI_MotorControlOpenCANTalonSRX.vi
     Begin.vi
     Robot Main.vi,0.000000,0.000000,0.000000,0.000000,Speed,Speed,3.970000,1.090000,3.250000,0.000000,100.000000,0,0,0.000062,-0.001550,0
04:13:54.465 PM 02/06/2016,Teleop Enabled,0,TRUE,-44087,NetComm_CAN_Receive.vi:5470007<APPEND>

<b>Complete call chain:</b>
     NetComm_CAN_Receive.vi:5470007
     WPI_CANTalonSRX_Receive.vi
     WPI_CANTalonSRX_GetStatus.vi
     ShooterVI.vi
     Periodic Tasks.vi
     Robot Main.vi,0.000000,0.000000,0.000000,0.000000,Speed,Speed,4.610000,1.340000,2.770000,0.000000,100.000000,0,0,-0.008928,-0.001550,0
04:13:54.566 PM 02/06/2016,Teleop Enabled,0,TRUE,-44087,NetComm_CAN_Receive.vi:5470007<APPEND>

<b>Complete call chain:</b>
     NetComm_CAN_Receive.vi:5470007
     WPI_CANTalonSRX_Receive.vi
     WPI_CANTalonSRX_GetStatus.vi
     ShooterVI.vi
     Periodic Tasks.vi
     Robot Main.vi,0.000000,0.000000,-6000.000000,-6000.000000,Speed,Speed,4.280000,1.540000,2.470000,1.000000,100.000000,0,0,-0.012152,0.006200,0
04:13:54.666 PM 02/06/2016,Teleop Enabled,0,TRUE,-44087,NetComm_CAN_Receive.vi:5470007<APPEND>

<b>Complete call chain:</b>
     NetComm_CAN_Receive.vi:5470007
     WPI_CANTalonSRX_Receive.vi
     WPI_MotorControlOpenCANTalonSRX.vi
     Begin.vi
     Robot Main.vi,0.000000,0.000000,-6000.000000,-6000.000000,Speed,Speed,4.310000,1.530000,2.360000,1.000000,102.000000,0,0,-0.012152,0.067518,0
04:13:54.767 PM 02/06/2016,Teleop Enabled,0,TRUE,-44087,NetComm_CAN_Receive.vi:5470007<APPEND>

<b>Complete call chain:</b>
     NetComm_CAN_Receive.vi:5470007
     WPI_CANTalonSRX_Receive.vi
     WPI_CANTalonSRX_GetStatus.vi
     ShooterVI.vi
     Periodic Tasks.vi
     Robot Main.vi,0.000000,0.000000,-6000.000000,-6000.000000,Speed,Speed,4.380000,1.500000,2.570000,1.000000,101.000000,0,0,-0.012152,0.080352,0
04:13:54.868 PM 02/06/2016,Teleop Enabled,0,TRUE,-44087,NetComm_CAN_Receive.vi:5470007<APPEND>

<b>Complete call chain:</b>
     NetComm_CAN_Receive.vi:5470007
     WPI_CANTalonSRX_Receive.vi
     WPI_CANTalonSRX_GetStatus.vi
     ShooterVI.vi
     Periodic Tasks.vi
     Robot Main.vi,0.000000,0.000000,-6000.000000,-6000.000000,Speed,Speed,4.120000,1.490000,2.800000,1.000000,101.000000,0,0,-0.012152,0.080352,0
04:13:54.968 PM 02/06/2016,Teleop Enabled,0,TRUE,-44087,NetComm_CAN_Receive.vi:5470007<APPEND>

<b>Complete call chain:</b>
     NetComm_CAN_Receive.vi:5470007
     WPI_CANTalonSRX_Receive.vi
     WPI_MotorControlOpenCANTalonSRX.vi
     Begin.vi
     Robot Main.vi,0.000000,0.000000,-6000.000000,-6000.000000,Speed,Speed,3.990000,1.480000,2.860000,1.000000,102.000000,0,0,-0.012152,0.080352,0
04:13:55.070 PM 02/06/2016,Teleop Enabled,0,TRUE,-44087,NetComm_CAN_Receive.vi:5470007<APPEND>

<b>Complete call chain:</b>
     NetComm_CAN_Receive.vi:5470007
     WPI_CANTalonSRX_Receive.vi
     WPI_CANTalonSRX_GetStatus.vi
     ShooterVI.vi
     Periodic Tasks.vi
     Robot Main.vi,0.000000,0.000000,-6000.000000,-6000.000000,Speed,Speed,3.980000,1.520000,2.820000,1.000000,101.000000,0,0,-0.012152,0.001550,0
04:13:55.169 PM 02/06/2016,Teleop Enabled,0,TRUE,-44087,NetComm_CAN_Receive.vi:5470007<APPEND>

<b>Complete call chain:</b>
     NetComm_CAN_Receive.vi:5470007
     WPI_CANTalonSRX_Receive.vi
     WPI_CANTalonSRX_GetStatus.vi
     ShooterVI.vi
     Periodic Tasks.vi
     Robot Main.vi,0.000000,0.000000,-6000.000000,-6000.000000,Speed,Speed,3.840000,1.520000,2.690000,1.000000,101.000000,0,0,-0.136958,-0.006200,0
04:13:55.269 PM 02/06/2016,Teleop Enabled,0,TRUE,-44087,NetComm_CAN_Receive.vi:5470007<APPEND>

<b>Complete call chain:</b>
     NetComm_CAN_Receive.vi:5470007
     WPI_CANTalonSRX_Receive.vi
     WPI_CANTalonSRX_GetStatus.vi
     ShooterVI.vi
     Periodic Tasks.vi
     Robot Main.vi,0.000000,0.000000,-6000.000000,-6000.000000,Speed,Speed,4.080000,1.510000,2.590000,1.000000,100.000000,0,0,-0.215822,-0.020088,0
04:13:55.369 PM 02/06/2016,Teleop Enabled,0,TRUE,-44087,NetComm_CAN_Receive.vi:5470007<APPEND>

<b>Complete call chain:</b>
     NetComm_CAN_Receive.vi:5470007
     WPI_CANTalonSRX_Receive.vi
     WPI_MotorControlOpenCANTalonSRX.vi
     Begin.vi
     Robot Main.vi,0.000000,0.000000,-6000.000000,-6000.000000,Speed,Speed,4.900000,1.440000,3.880000,1.000000,102.000000,0,0,-0.215822,-0.020088,0
04:13:55.469 PM 02/06/2016,Teleop Enabled,0,TRUE,-44087,NetComm_CAN_Receive.vi:5470007<APPEND>

<b>Complete call chain:</b>
     NetComm_CAN_Receive.vi:5470007
     WPI_CANTalonSRX_Receive.vi
     WPI_CANTalonSRX_GetStatus.vi
     ShooterVI.vi
     Periodic Tasks.vi
     Robot Main.vi,0.000000,0.000000,-6000.000000,-6000.000000,Speed,Speed,7.050000,1.040000,4.200000,1.000000,104.000000,0,0,-0.012152,-0.012152,0
04:13:55.569 PM 02/06/2016,Teleop Enabled,0,TRUE,-44087,NetComm_CAN_Receive.vi:5470007<APPEND>

<b>Complete call chain:</b>
     NetComm_CAN_Receive.vi:5470007
     WPI_CANTalonSRX_Receive.vi
     WPI_CANTalonSRX_GetStatus.vi
     ShooterVI.vi
     Periodic Tasks.vi
     Robot Main.vi,0.000000,0.000000,-6000.000000,-6000.000000,Speed,Speed,10.000000,1.070000,4.240000,1.000000,100.000000,0,0,0.000248,-0.010478,0
04:13:55.669 PM 02/06/2016,Teleop Enabled,0,TRUE,-44087,NetComm_CAN_Receive.vi:5470007<APPEND>

<b>Complete call chain:</b>
     NetComm_CAN_Receive.vi:5470007
     WPI_CANTalonSRX_Receive.vi
     WPI_CANTalonSRX_GetStatus.vi
     ShooterVI.vi
     Periodic Tasks.vi
     Robot Main.vi,0.000000,0.000000,-6000.000000,-6000.000000,Speed,Speed,11.750000,1.310000,3.380000,1.000000,102.000000,0,0,-0.003968,-0.010478,0
04:13:55.769 PM 02/06/2016,Teleop Enabled,0,TRUE,-44087,NetComm_CAN_Receive.vi:5470007<APPEND>

<b>Complete call chain:</b>
     NetComm_CAN_Receive.vi:5470007
     WPI_CANTalonSRX_Receive.vi
     WPI_MotorControlOpenCANTalonSRX.vi
     Begin.vi
     Robot Main.vi,0.000000,0.000000,-6000.000000,-6000.000000,Speed,Speed,12.050000,1.340000,2.650000,1.000000,100.000000,0,0,-0.015872,-0.020088,0
04:13:55.870 PM 02/06/2016,Teleop Enabled,0,TRUE,-44087,NetComm_CAN_Receive.vi:5470007<APPEND>

<b>Complete call chain:</b>
     NetComm_CAN_Receive.vi:5470007
     WPI_CANTalonSRX_Receive.vi
     WPI_CANTalonSRX_GetStatus.vi
     ShooterVI.vi
     Periodic Tasks.vi
     Robot Main.vi,0.000000,0.000000,-6000.000000,-6000.000000,Speed,Speed,11.480000,1.360000,2.520000,1.000000,100.000000,0,0,-0.099200,-0.114638,0
04:13:55.970 PM 02/06/2016,Teleop Enabled,0,TRUE,-44087,NetComm_CAN_Receive.vi:5470007<APPEND>

<b>Complete call chain:</b>
     NetComm_CAN_Receive.vi:5470007
     WPI_CANTalonSRX_Receive.vi
     WPI_CANTalonSRX_GetStatus.vi
     ShooterVI.vi
     Periodic Tasks.vi
     Robot Main.vi,0.000000,0.000000,-6000.000000,-6000.000000,Speed,Speed,11.790000,1.410000,2.230000,1.000000,100.000000,0,0,-0.142848,-0.120032,0
04:13:56.070 PM 02/06/2016,Teleop Enabled,0,TRUE,-44087,NetComm_CAN_Receive.vi:5470007<APPEND>

<b>Complete call chain:</b>
     NetComm_CAN_Receive.vi:5470007
     WPI_CANTalonSRX_Receive.vi
     WPI_MotorControlOpenCANTalonSRX.vi
     Begin.vi
     Robot Main.vi,0.000000,0.000000,-6000.000000,-6000.000000,Speed,Speed,13.050000,1.170000,2.580000,1.000000,101.000000,0,0,-0.142848,-0.120032,0
04:13:56.170 PM 02/06/2016,Teleop Enabled,0,TRUE,-44087,NetComm_CAN_Receive.vi:5470007<APPEND>

<b>Complete call chain:</b>
     NetComm_CAN_Receive.vi:5470007
     WPI_CANTalonSRX_Receive.vi
     WPI_CANTalonSRX_GetStatus.vi
     ShooterVI.vi
     Periodic Tasks.vi
     Robot Main.vi,0.000000,0.000000,-6000.000000,-6000.000000,Speed,Speed,15.820000,0.970000,2.820000,1.000000,100.000000,0,0,-0.035712,-0.035712,0
04:13:56.271 PM 02/06/2016,Teleop Enabled,0,TRUE,-44087,NetComm_CAN_Receive.vi:5470007<APPEND>

<b>Complete call chain:</b>
     NetComm_CAN_Receive.vi:5470007
     WPI_CANTalonSRX_Receive.vi
     WPI_CANTalonSRX_GetStatus.vi
     ShooterVI.vi
     Periodic Tasks.vi
     Robot Main.vi,0.000000,0.000000,-6000.000000,-6000.000000,Speed,Speed,20.160000,0.920000,3.040000,1.000000,101.000000,0,0,-0.006200,0.000992,0
04:13:56.371 PM 02/06/2016,Teleop Enabled,0,TRUE,-44087,NetComm_CAN_Receive.vi:5470007<APPEND>

<b>Complete call chain:</b>
     NetComm_CAN_Receive.vi:5470007
     WPI_CANTalonSRX_Receive.vi
     WPI_MotorControlOpenCANTalonSRX.vi
     Begin.vi
     Robot Main.vi,0.000000,0.000000,-6000.000000,-6000.000000,Speed,Speed,21.800000,1.360000,2.420000,1.000000,100.000000,0,0,-0.006200,0.022382,0
04:13:56.471 PM 02/06/2016,Teleop Enabled,0,TRUE,-44087,NetComm_CAN_Receive.vi:5470007<APPEND>

<b>Complete call chain:</b>
     NetComm_CAN_Receive.vi:5470007
     WPI_CANTalonSRX_Receive.vi
     WPI_CANTalonSRX_GetStatus.vi
     ShooterVI.vi
     Periodic Tasks.vi
     Robot Main.vi,0.000000,0.000000,-6000.000000,-6000.000000,Speed,Speed,21.270000,1.340000,2.300000,1.000000,101.000000,0,0,-0.006200,0.104222,0
04:13:56.571 PM 02/06/2016,Teleop Enabled,0,TRUE,-44087,NetComm_CAN_Receive.vi:5470007<APPEND>

<b>Complete call chain:</b>
     NetComm_CAN_Receive.vi:5470007
     WPI_CANTalonSRX_Receive.vi
     WPI_MotorControlOpenCANTalonSRX.vi
     Begin.vi
     Robot Main.vi,0.000000,0.000000,-6000.000000,-6000.000000,Speed,Speed,21.390000,1.370000,2.480000,1.000000,101.000000,0,0,-0.015872,0.109368,0
04:13:56.671 PM 02/06/2016,Teleop Enabled,0,TRUE,-44087,NetComm_CAN_Receive.vi:5470007<APPEND>

<b>Complete call chain:</b>
     NetComm_CAN_Receive.vi:5470007
     WPI_CANTalonSRX_Receive.vi
     WPI_CANTalonSRX_GetStatus.vi
     ShooterVI.vi
     Periodic Tasks.vi
     Robot Main.vi,0.000000,0.000000,-6000.000000,-6000.000000,Speed,Speed,20.640000,1.460000,2.700000,1.000000,100.000000,0,0,-0.052142,0.125550,0
04:13:56.771 PM 02/06/2016,Teleop Enabled,0,TRUE,-44087,NetComm_CAN_Receive.vi:5470007<APPEND>

<b>Complete call chain:</b>
     NetComm_CAN_Receive.vi:5470007
     WPI_CANTalonSRX_Receive.vi
     WPI_CANTalonSRX_GetStatus.vi
     ShooterVI.vi
     Periodic Tasks.vi
     Robot Main.vi,0.000000,0.000000,-6000.000000,-6000.000000,Speed,Speed,20.390000,1.350000,3.040000,1.000000,101.000000,0,0,-0.055800,0.148862,0
04:13:56.871 PM 02/06/2016,Teleop Enabled,0,TRUE,-44087,NetComm_CAN_Receive.vi:5470007<APPEND>

<b>Complete call chain:</b>
     NetComm_CAN_Receive.vi:5470007
     WPI_CANTalonSRX_Receive.vi
     WPI_CANTalonSRX_GetStatus.vi
     ShooterVI.vi
     Periodic Tasks.vi
     Robot Main.vi,0.000000,0.000000,-6000.000000,-6000.000000,Speed,Speed,20.140000,1.420000,3.310000,1.000000,101.000000,0,0,-0.075950,0.148862,0
04:13:56.973 PM 02/06/2016,Teleop Enabled,0,TRUE,-44087,NetComm_CAN_Receive.vi:5470007<APPEND>

<b>Complete call chain:</b>
     NetComm_CAN_Receive.vi:5470007
     WPI_CANTalonSRX_Receive.vi
     WPI_MotorControlOpenCANTalonSRX.vi
     Begin.vi
     Robot Main.vi,0.000000,0.000000,-6000.000000,-6000.000000,Speed,Speed,19.760000,1.450000,3.610000,1.000000,100.000000,0,0,-0.075950,0.148862,0
04:13:57.073 PM 02/06/2016,Teleop Enabled,0,TRUE,-44087,NetComm_CAN_Receive.vi:5470007<APPEND>

<b>Complete call chain:</b>
     NetComm_CAN_Receive.vi:5470007
     WPI_CANTalonSRX_Receive.vi
     WPI_MotorControlOpenCANTalonSRX.vi
     Begin.vi
     Robot Main.vi,0.000000,0.000000,-6000.000000,-6000.000000,Speed,Speed,19.470000,1.470000,3.620000,1.000000,101.000000,0,0,-0.075950,0.148862,0
04:13:57.173 PM 02/06/2016,Teleop Enabled,0,TRUE,-44087,NetComm_CAN_Receive.vi:5470007<APPEND>

<b>Complete call chain:</b>
     NetComm_CAN_Receive.vi:5470007
     WPI_CANTalonSRX_Receive.vi
     WPI_CANTalonSRX_GetStatus.vi
     ShooterVI.vi
     Periodic Tasks.vi
     Robot Main.vi,0.000000,0.000000,-6000.000000,-6000.000000,Speed,Speed,19.030000,1.470000,3.660000,1.000000,101.000000,0,0,-0.131192,0.148862,0
04:13:57.273 PM 02/06/2016,Teleop Enabled,0,TRUE,-44087,NetComm_CAN_Receive.vi:5470007<APPEND>

<b>Complete call chain:</b>
     NetComm_CAN_Receive.vi:5470007
     WPI_CANTalonSRX_Receive.vi
     WPI_CANTalonSRX_GetStatus.vi
     ShooterVI.vi
     Periodic Tasks.vi
     Robot Main.vi,0.000000,0.000000,-6000.000000,-6000.000000,Speed,Speed,18.610000,1.490000,3.730000,1.000000,101.000000,0,0,-0.136958,0.148862,0
04:13:57.373 PM 02/06/2016,Teleop Enabled,0,TRUE,-44087,NetComm_CAN_Receive.vi:5470007<APPEND>

<b>Complete call chain:</b>
     NetComm_CAN_Receive.vi:5470007
     WPI_CANTalonSRX_Receive.vi
     WPI_CANTalonSRX_GetStatus.vi
     ShooterVI.vi
     Periodic Tasks.vi
     Robot Main.vi,0.000000,0.000000,0.000000,0.000000,Speed,Speed,18.500000,1.480000,3.910000,2.000000,102.000000,0,0,-0.136958,0.148862,0
04:13:57.473 PM 02/06/2016,Teleop Enabled,0,TRUE,-44087,NetComm_CAN_Receive.vi:5470007<APPEND>

<b>Complete call chain:</b>
     NetComm_CAN_Receive.vi:5470007
     WPI_CANTalonSRX_Receive.vi
     WPI_MotorControlOpenCANTalonSRX.vi
     Begin.vi
     Robot Main.vi,0.000000,0.000000,0.000000,0.000000,Speed,Speed,18.250000,1.490000,3.950000,2.000000,102.000000,0,0,-0.330399,0.013950,0
04:13:57.575 PM 02/06/2016,Teleop Enabled,0,TRUE,-44087,NetComm_CAN_Receive.vi:5470007<APPEND>

<b>Complete call chain:</b>
     NetComm_CAN_Receive.vi:5470007
     WPI_CANTalonSRX_Receive.vi
     WPI_CANTalonSRX_GetStatus.vi
     ShooterVI.vi
     Periodic Tasks.vi
     Robot Main.vi,0.000000,0.000000,0.000000,0.000000,Speed,Speed,18.510000,1.410000,4.460000,2.000000,104.000000,0,0,-0.330399,0.013950,0
04:13:57.675 PM 02/06/2016,Teleop Enabled,0,TRUE,-44087,NetComm_CAN_Receive.vi:5470007<APPEND>

<b>Complete call chain:</b>
     NetComm_CAN_Receive.vi:5470007
     WPI_CANTalonSRX_Receive.vi
     WPI_CANTalonSRX_GetStatus.vi
     ShooterVI.vi
     Periodic Tasks.vi
     Robot Main.vi,0.000000,0.000000,0.000000,0.000000,Speed,Speed,21.440000,1.080000,5.130000,2.000000,101.000000,0,0,-0.330399,0.013950,0
04:13:57.777 PM 02/06/2016,Teleop Enabled,0,TRUE,-44087,NetComm_CAN_Receive.vi:5470007<APPEND>

<b>Complete call chain:</b>
     NetComm_CAN_Receive.vi:5470007
     WPI_CANTalonSRX_Receive.vi
     WPI_MotorControlOpenCANTalonSRX.vi
     Begin.vi
     Robot Main.vi,0.000000,0.000000,0.000000,0.000000,Speed,Speed,26.970000,1.010000,5.600000,2.000000,102.000000,0,0,-0.071672,0.223200,0
04:13:57.878 PM 02/06/2016,Teleop Enabled,0,TRUE,-44087,NetComm_CAN_Receive.vi:5470007<APPEND>

<b>Complete call chain:</b>
     NetComm_CAN_Receive.vi:5470007
     WPI_CANTalonSRX_Receive.vi
     WPI_CANTalonSRX_GetStatus.vi
     ShooterVI.vi
     Periodic Tasks.vi
     Robot Main.vi,0.000000,0.000000,0.000000,0.000000,Speed,Speed,31.710000,1.250000,4.610000,2.000000,100.000000,0,0,-0.055800,0.238328,0
04:13:57.978 PM 02/06/2016,Teleop Enabled,0,TRUE,-44087,NetComm_CAN_Receive.vi:5470007<APPEND>

<b>Complete call chain:</b>
     NetComm_CAN_Receive.vi:5470007
     WPI_CANTalonSRX_Receive.vi
     WPI_MotorControlOpenCANTalonSRX.vi
     Begin.vi
     Robot Main.vi,0.000000,0.000000,0.000000,0.000000,Speed,Speed,32.150000,1.970000,4.290000,2.000000,100.000000,0,0,-0.030008,0.238328,0
04:13:58.078 PM 02/06/2016,Teleop Enabled,0,TRUE,-44087,NetComm_CAN_Receive.vi:5470007<APPEND>

<b>Complete call chain:</b>
     NetComm_CAN_Receive.vi:5470007
     WPI_CANTalonSRX_Receive.vi
     WPI_CANTalonSRX_GetStatus.vi
     ShooterVI.vi
     Periodic Tasks.vi
     Robot Main.vi,0.000000,0.000000,0.000000,0.000000,Speed,Speed,29.800000,2.280000,3.600000,2.000000,101.000000,0,0,-0.024800,0.246078,0
04:13:58.178 PM 02/06/2016,Teleop Enabled,0,TRUE,-44087,NetComm_CAN_Receive.vi:5470007<APPEND>

<b>Complete call chain:</b>
     NetComm_CAN_Receive.vi:5470007
     WPI_CANTalonSRX_Receive.vi
     WPI_CANTalonSRX_GetStatus.vi
     ShooterVI.vi
     Periodic Tasks.vi
     Robot Main.vi,0.000000,0.000000,0.000000,0.000000,Speed,Speed,26.570000,2.050000,3.900000,2.000000,100.000000,0,0,-0.030008,0.055800,0
04:13:58.278 PM 02/06/2016,Teleop Enabled,0,TRUE,-44087,NetComm_CAN_Receive.vi:5470007<APPEND>

<b>Complete call chain:</b>
     NetComm_CAN_Receive.vi:5470007
     WPI_CANTalonSRX_Receive.vi
     WPI_MotorControlOpenCANTalonSRX.vi
     Begin.vi
     Robot Main.vi,0.000000,0.000000,0.000000,0.000000,Speed,Speed,23.830000,1.990000,3.540000,2.000000,101.000000,0,0,-0.089528,0.022382,0
04:13:58.378 PM 02/06/2016,Teleop Enabled,0,TRUE,-44087,NetComm_CAN_Receive.vi:5470007<APPEND>

<b>Complete call chain:</b>
     NetComm_CAN_Receive.vi:5470007
     WPI_CANTalonSRX_Receive.vi
     WPI_CANTalonSRX_GetStatus.vi
     ShooterVI.vi
     Periodic Tasks.vi
     Robot Main.vi,0.000000,0.000000,0.000000,0.000000,Speed,Speed,22.490000,1.690000,3.350000,2.000000,103.000000,0,0,-0.161262,0.015872,0
04:13:58.480 PM 02/06/2016,Teleop Enabled,0,TRUE,-44087,NetComm_CAN_Receive.vi:5470007<APPEND>

<b>Complete call chain:</b>
     NetComm_CAN_Receive.vi:5470007
     WPI_CANTalonSRX_Receive.vi
     WPI_CANTalonSRX_GetStatus.vi
     ShooterVI.vi
     Periodic Tasks.vi
     Robot Main.vi,0.000000,0.000000,0.000000,0.000000,Speed,Speed,22.420000,1.600000,2.960000,2.000000,100.000000,0,0,-0.215822,0.015872,0
04:13:58.581 PM 02/06/2016,Teleop Enabled,0,TRUE,-44087,NetComm_CAN_Receive.vi:5470007<APPEND>

<b>Complete call chain:</b>
     NetComm_CAN_Receive.vi:5470007
     WPI_CANTalonSRX_Receive.vi
     WPI_MotorControlOpenCANTalonSRX.vi
     Begin.vi
     Robot Main.vi,0.000000,0.000000,4000.000000,4000.000000,Speed,Speed,23.480000,1.520000,3.710000,3.000000,100.000000,0,0,-0.230702,0.013950,0
04:13:58.682 PM 02/06/2016,Teleop Enabled,0,TRUE,-44087,NetComm_CAN_Receive.vi:5470007<APPEND>

<b>Complete call chain:</b>
     NetComm_CAN_Receive.vi:5470007
     WPI_CANTalonSRX_Receive.vi
     WPI_CANTalonSRX_GetStatus.vi
     ShooterVI.vi
     Periodic Tasks.vi
     Robot Main.vi,0.000000,0.000000,4000.000000,4000.000000,Speed,Speed,25.100000,1.300000,3.800000,3.000000,101.000000,0,0,-0.230702,0.013950,0
04:13:58.782 PM 02/06/2016,Teleop Enabled,0,TRUE,-44087,NetComm_CAN_Receive.vi:5470007<APPEND>

<b>Complete call chain:</b>
     NetComm_CAN_Receive.vi:5470007
     WPI_CANTalonSRX_Receive.vi
     WPI_CANTalonSRX_GetStatus.vi
     ShooterVI.vi
     Periodic Tasks.vi
     Robot Main.vi,0.000000,0.000000,4000.000000,4000.000000,Speed,Speed,27.210000,1.310000,3.800000,3.000000,103.000000,0,0,-0.286689,0.013950,0
04:13:58.882 PM 02/06/2016,Teleop Enabled,0,TRUE,-44087,NetComm_CAN_Receive.vi:5470007<APPEND>

<b>Complete call chain:</b>
     NetComm_CAN_Receive.vi:5470007
     WPI_CANTalonSRX_Receive.vi
     WPI_MotorControlOpenCANTalonSRX.vi
     Begin.vi
     Robot Main.vi,0.000000,0.000000,4000.000000,4000.000000,Speed,Speed,29.690000,1.340000,4.280000,3.000000,101.000000,0,0,-0.295183,0.013950,0
04:13:58.982 PM 02/06/2016,Teleop Enabled,0,TRUE,-44087,NetComm_CAN_Receive.vi:5470007<APPEND>

<b>Complete call chain:</b>
     NetComm_CAN_Receive.vi:5470007
     WPI_CANTalonSRX_Receive.vi
     WPI_CANTalonSRX_GetStatus.vi
     ShooterVI.vi
     Periodic Tasks.vi
     Robot Main.vi,0.000000,0.000000,4000.000000,4000.000000,Speed,Speed,33.110000,1.150000,4.350000,3.000000,102.000000,0,0,-0.295183,0.013950,0
04:13:59.082 PM 02/06/2016,Teleop Enabled,0,TRUE,-44087,NetComm_CAN_Receive.vi:5470007<APPEND>

<b>Complete call chain:</b>
     NetComm_CAN_Receive.vi:5470007
     WPI_CANTalonSRX_Receive.vi
     WPI_CANTalonSRX_GetStatus.vi
     ShooterVI.vi
     Periodic Tasks.vi
     Robot Main.vi,0.000000,0.000000,4000.000000,4000.000000,Speed,Speed,37.640000,1.250000,4.560000,3.000000,102.000000,0,0,-0.295183,0.013950,0
04:13:59.182 PM 02/06/2016,Teleop Enabled,0,TRUE,-44087,NetComm_CAN_Receive.vi:5470007<APPEND>

<b>Complete call chain:</b>
     NetComm_CAN_Receive.vi:5470007
     WPI_CANTalonSRX_Receive.vi
     WPI_MotorControlOpenCANTalonSRX.vi
     Begin.vi
     Robot Main.vi,0.000000,0.000000,4000.000000,4000.000000,Speed,Speed,42.730000,1.280000,4.580000,3.000000,104.000000,0,0,-0.148862,0.015872,0
04:13:59.282 PM 02/06/2016,Teleop Enabled,0,TRUE,-44087,NetComm_CAN_Receive.vi:5470007<APPEND>

<b>Complete call chain:</b>
     NetComm_CAN_Receive.vi:5470007
     WPI_CANTalonSRX_Receive.vi
     WPI_CANTalonSRX_GetStatus.vi
     ShooterVI.vi
     Periodic Tasks.vi
     Robot Main.vi,0.000000,0.000000,4000.000000,4000.000000,Speed,Speed,47.860000,1.530000,4.350000,3.000000,103.000000,0,0,-0.109368,0.015872,0
04:13:59.382 PM 02/06/2016,Teleop Enabled,0,TRUE,-44087,NetComm_CAN_Receive.vi:5470007<APPEND>

<b>Complete call chain:</b>
     NetComm_CAN_Receive.vi:5470007
     WPI_CANTalonSRX_Receive.vi
     WPI_CANTalonSRX_GetStatus.vi
     ShooterVI.vi
     Periodic Tasks.vi
     Robot Main.vi,0.000000,0.000000,4000.000000,4000.000000,Speed,Speed,51.450000,1.840000,3.730000,3.000000,100.000000,0,0,-0.024800,0.187550,0
04:13:59.482 PM 02/06/2016,Teleop Enabled,0,TRUE,-44087,NetComm_CAN_Receive.vi:5470007<APPEND>

<b>Complete call chain:</b>
     NetComm_CAN_Receive.vi:5470007
     WPI_CANTalonSRX_Receive.vi
     WPI_CANTalonSRX_GetStatus.vi
     ShooterVI.vi
     Periodic Tasks.vi
     Robot Main.vi,0.000000,0.000000,4000.000000,4000.000000,Speed,Speed,52.570000,2.140000,2.880000,3.000000,100.000000,0,0,-0.024800,0.246078,0
04:13:59.583 PM 02/06/2016,Teleop Enabled,0,TRUE,-44087,NetComm_CAN_Receive.vi:5470007<APPEND>

<b>Complete call chain:</b>
     NetComm_CAN_Receive.vi:5470007
     WPI_CANTalonSRX_Receive.vi
     WPI_CANTalonSRX_GetStatus.vi
     ShooterVI.vi
     Periodic Tasks.vi
     Robot Main.vi,0.000000,0.000000,4000.000000,4000.000000,Speed,Speed,51.330000,2.260000,3.160000,3.000000,102.000000,0,0,-0.024800,0.246078,0
04:13:59.683 PM 02/06/2016,Teleop Enabled,0,TRUE,-44087,NetComm_CAN_Receive.vi:5470007<APPEND>

<b>Complete call chain:</b>
     NetComm_CAN_Receive.vi:5470007
     WPI_CANTalonSRX_Receive.vi
     WPI_MotorControlOpenCANTalonSRX.vi
     Begin.vi
     Robot Main.vi,0.000000,0.000000,4000.000000,4000.000000,Speed,Speed,48.690000,2.350000,3.290000,3.000000,102.000000,0,0,-0.048608,0.010478,0
04:13:59.783 PM 02/06/2016,Teleop Enabled,0,TRUE,-44087,NetComm_CAN_Receive.vi:5470007<APPEND>

<b>Complete call chain:</b>
     NetComm_CAN_Receive.vi:5470007
     WPI_CANTalonSRX_Receive.vi
     WPI_MotorControlOpenCANTalonSRX.vi
     Begin.vi
     Robot Main.vi,0.000000,0.000000,4000.000000,4000.000000,Speed,Speed,46.430000,2.060000,2.550000,3.000000,101.000000,0,0,-0.120032,0.007502,0
04:13:59.883 PM 02/06/2016,Teleop Enabled,0,TRUE,-44087,NetComm_CAN_Receive.vi:5470007<APPEND>

<b>Complete call chain:</b>
     NetComm_CAN_Receive.vi:5470007
     WPI_CANTalonSRX_Receive.vi
     WPI_CANTalonSRX_GetStatus.vi
     ShooterVI.vi
     Periodic Tasks.vi
     Robot Main.vi,0.000000,0.000000,4000.000000,4000.000000,Speed,Speed,46.070000,1.870000,2.640000,3.000000,101.000000,0,0,-0.104222,0.006200,0
04:13:59.983 PM 02/06/2016,Teleop Enabled,0,TRUE,-44087,NetComm_CAN_Receive.vi:5470007<APPEND>

<b>Complete call chain:</b>
     NetComm_CAN_Receive.vi:5470007
     WPI_CANTalonSRX_Receive.vi
     WPI_CANTalonSRX_GetStatus.vi
     ShooterVI.vi
     Periodic Tasks.vi
     Robot Main.vi,0.000000,0.000000,4000.000000,4000.000000,Speed,Speed,46.470000,1.760000,2.540000,3.000000,100.000000,0,0,-0.017918,0.007502,0
04:14:00.083 PM 02/06/2016,Teleop Enabled,0,TRUE,-44087,NetComm_CAN_Receive.vi:5470007<APPEND>

<b>Complete call chain:</b>
     NetComm_CAN_Receive.vi:5470007
     WPI_CANTalonSRX_Receive.vi
     WPI_MotorControlOpenCANTalonSRX.vi
     Begin.vi
     Robot Main.vi,0.000000,0.000000,4000.000000,4000.000000,Speed,Speed,46.180000,1.760000,1.740000,3.000000,100.000000,0,0,-0.017918,0.007502,0
04:14:00.183 PM 02/06/2016,Teleop Enabled,0,TRUE,-44087,NetComm_CAN_Receive.vi:5470007<APPEND>

<b>Complete call chain:</b>
     NetComm_CAN_Receive.vi:5470007
     WPI_CANTalonSRX_Receive.vi
     WPI_CANTalonSRX_GetStatus.vi
     ShooterVI.vi
     Periodic Tasks.vi
     Robot Main.vi,0.000000,0.000000,4000.000000,4000.000000,Speed,Speed,46.090000,1.720000,1.780000,3.000000,101.000000,0,0,-0.017918,0.007502,0
04:14:00.283 PM 02/06/2016,Teleop Enabled,0,TRUE,-44087,NetComm_CAN_Receive.vi:5470007<APPEND>

<b>Complete call chain:</b>
     NetComm_CAN_Receive.vi:5470007
     WPI_CANTalonSRX_Receive.vi
     WPI_CANTalonSRX_GetStatus.vi
     ShooterVI.vi
     Periodic Tasks.vi
     Robot Main.vi,0.000000,0.000000,4000.000000,4000.000000,Speed,Speed,46.230000,1.720000,1.390000,3.000000,102.000000,0,0,-0.017918,0.007502,0
04:14:00.383 PM 02/06/2016,Teleop Enabled,0,TRUE,-44087,NetComm_CAN_Receive.vi:5470007<APPEND>

<b>Complete call chain:</b>
     NetComm_CAN_Receive.vi:5470007
     WPI_CANTalonSRX_Receive.vi
     WPI_MotorControlOpenCANTalonSRX.vi
     Begin.vi
     Robot Main.vi,0.000000,0.000000,4000.000000,4000.000000,Speed,Speed,46.130000,1.710000,1.050000,3.000000,100.000000,0,0,-0.017918,0.007502,0
04:14:00.483 PM 02/06/2016,Teleop Enabled,0,TRUE,-44087,NetComm_CAN_Receive.vi:5470007<APPEND>

<b>Complete call chain:</b>
     NetComm_CAN_Receive.vi:5470007
     WPI_CANTalonSRX_Receive.vi
     WPI_CANTalonSRX_GetStatus.vi
     ShooterVI.vi
     Periodic Tasks.vi
     Robot Main.vi,0.000000,0.000000,4000.000000,4000.000000,Speed,Speed,46.090000,1.680000,1.050000,3.000000,102.000000,0,0,-0.017918,0.007502,0
04:14:00.584 PM 02/06/2016,Teleop Enabled,0,TRUE,-44087,NetComm_CAN_Receive.vi:5470007<APPEND>

<b>Complete call chain:</b>
     NetComm_CAN_Receive.vi:5470007
     WPI_CANTalonSRX_Receive.vi
     WPI_CANTalonSRX_GetStatus.vi
     ShooterVI.vi
     Periodic Tasks.vi
     Robot Main.vi,0.000000,0.000000,4000.000000,4000.000000,Speed,Speed,46.120000,1.680000,1.130000,3.000000,101.000000,0,0,-0.017918,0.007502,0
04:14:00.684 PM 02/06/2016,Teleop Enabled,0,TRUE,-44087,NetComm_CAN_Receive.vi:5470007<APPEND>

<b>Complete call chain:</b>
     NetComm_CAN_Receive.vi:5470007
     WPI_CANTalonSRX_Receive.vi
     WPI_CANTalonSRX_GetStatus.vi
     ShooterVI.vi
     Periodic Tasks.vi
     Robot Main.vi,0.000000,0.000000,4000.000000,4000.000000,Speed,Speed,46.120000,1.680000,1.170000,3.000000,102.000000,0,0,-0.017918,0.007502,0
04:14:00.784 PM 02/06/2016,Teleop Enabled,0,TRUE,-44087,NetComm_CAN_Receive.vi:5470007<APPEND>

<b>Complete call chain:</b>
     NetComm_CAN_Receive.vi:5470007
     WPI_CANTalonSRX_Receive.vi
     WPI_CANTalonSRX_GetStatus.vi
     ShooterVI.vi
     Periodic Tasks.vi
     Robot Main.vi,0.000000,0.000000,4000.000000,4000.000000,Speed,Speed,46.130000,1.650000,1.470000,3.000000,101.000000,0,0,-0.013950,0.007502,0
04:14:00.885 PM 02/06/2016,Teleop Enabled,0,TRUE,-44087,NetComm_CAN_Receive.vi:5470007<APPEND>

<b>Complete call chain:</b>
     NetComm_CAN_Receive.vi:5470007
     WPI_CANTalonSRX_Receive.vi
     WPI_MotorControlOpenCANTalonSRX.vi
     Begin.vi
     Robot Main.vi,0.000000,0.000000,4000.000000,4000.000000,Speed,Speed,46.150000,1.640000,1.600000,3.000000,101.000000,0,0,-0.012152,0.006200,0
04:14:00.985 PM 02/06/2016,Teleop Enabled,0,TRUE,-44087,NetComm_CAN_Receive.vi:5470007<APPEND>

<b>Complete call chain:</b>
     NetComm_CAN_Receive.vi:5470007
     WPI_CANTalonSRX_Receive.vi
     WPI_MotorControlOpenCANTalonSRX.vi
     Begin.vi
     Robot Main.vi,0.000000,0.000000,4000.000000,4000.000000,Speed,Speed,46.120000,1.620000,1.680000,3.000000,101.000000,0,0,-0.002232,0.006200,0
04:14:01.085 PM 02/06/2016,Teleop Enabled,0,TRUE,-44087,NetComm_CAN_Receive.vi:5470007<APPEND>

<b>Complete call chain:</b>
     NetComm_CAN_Receive.vi:5470007
     WPI_CANTalonSRX_Receive.vi
     WPI_CANTalonSRX_GetStatus.vi
     ShooterVI.vi
     Periodic Tasks.vi
     Robot Main.vi,0.000000,0.000000,4000.000000,4000.000000,Speed,Speed,46.150000,1.620000,1.760000,3.000000,100.000000,0,0,-0.002232,0.006200,0
04:14:01.185 PM 02/06/2016,Teleop Enabled,0,TRUE,-44087,NetComm_CAN_Receive.vi:5470007<APPEND>

<b>Complete call chain:</b>
     NetComm_CAN_Receive.vi:5470007
     WPI_CANTalonSRX_Receive.vi
     WPI_CANTalonSRX_GetStatus.vi
     ShooterVI.vi
     Periodic Tasks.vi
     Robot Main.vi,0.000000,0.000000,4000.000000,4000.000000,Speed,Speed,46.150000,1.600000,1.860000,3.000000,103.000000,0,0,-0.000558,0.006200,0
04:14:01.285 PM 02/06/2016,Teleop Enabled,0,TRUE,-44087,NetComm_CAN_Receive.vi:5470007<APPEND>

<b>Complete call chain:</b>
     NetComm_CAN_Receive.vi:5470007
     WPI_CANTalonSRX_Receive.vi
     WPI_MotorControlOpenCANTalonSRX.vi
     Begin.vi
     Robot Main.vi,0.000000,0.000000,4000.000000,4000.000000,Speed,Speed,46.140000,1.600000,1.930000,3.000000,100.000000,0,0,-0.000992,0.006200,0
04:14:01.385 PM 02/06/2016,Teleop Enabled,0,TRUE,-44087,NetComm_CAN_Receive.vi:5470007<APPEND>

<b>Complete call chain:</b>
     NetComm_CAN_Receive.vi:5470007
     WPI_CANTalonSRX_Receive.vi
     WPI_CANTalonSRX_GetStatus.vi
     ShooterVI.vi
     Periodic Tasks.vi
     Robot Main.vi,0.000000,0.000000,4000.000000,4000.000000,Speed,Speed,46.140000,1.580000,2.010000,3.000000,100.000000,0,0,-0.000992,0.006200,0
04:14:01.485 PM 02/06/2016,Teleop Enabled,0,TRUE,-44087,NetComm_CAN_Receive.vi:5470007<APPEND>

<b>Complete call chain:</b>
     NetComm_CAN_Receive.vi:5470007
     WPI_CANTalonSRX_Receive.vi
     WPI_CANTalonSRX_GetStatus.vi
     ShooterVI.vi
     Periodic Tasks.vi
     Robot Main.vi,0.000000,0.000000,4000.000000,4000.000000,Speed,Speed,46.140000,1.580000,2.060000,3.000000,101.000000,0,0,-0.000992,0.006200,0
04:14:01.586 PM 02/06/2016,Teleop Enabled,0,TRUE,-44087,NetComm_CAN_Receive.vi:5470007<APPEND>

<b>Complete call chain:</b>
     NetComm_CAN_Receive.vi:5470007
     WPI_CANTalonSRX_Receive.vi
     WPI_MotorControlOpenCANTalonSRX.vi
     Begin.vi
     Robot Main.vi,0.000000,0.000000,4000.000000,4000.000000,Speed,Speed,46.140000,1.560000,2.130000,3.000000,101.000000,0,0,-0.000992,0.006200,0
04:14:01.686 PM 02/06/2016,Teleop Enabled,0,TRUE,-44087,NetComm_CAN_Receive.vi:5470007<APPEND>

<b>Complete call chain:</b>
     NetComm_CAN_Receive.vi:5470007
     WPI_CANTalonSRX_Receive.vi
     WPI_CANTalonSRX_GetStatus.vi
     ShooterVI.vi
     Periodic Tasks.vi
     Robot Main.vi,0.000000,0.000000,4000.000000,4000.000000,Speed,Speed,46.130000,1.560000,2.190000,3.000000,101.000000,0,0,-0.000992,0.006200,0
04:14:01.786 PM 02/06/2016,Teleop Enabled,0,TRUE,-44087,NetComm_CAN_Receive.vi:5470007<APPEND>

<b>Complete call chain:</b>
     NetComm_CAN_Receive.vi:5470007
     WPI_CANTalonSRX_Receive.vi
     WPI_CANTalonSRX_GetStatus.vi
     ShooterVI.vi
     Periodic Tasks.vi
     Robot Main.vi,0.000000,0.000000,4000.000000,4000.000000,Speed,Speed,46.130000,1.550000,2.240000,3.000000,101.000000,0,0,-0.000992,0.006200,0
04:14:01.887 PM 02/06/2016,Teleop Enabled,0,TRUE,-44087,NetComm_CAN_Receive.vi:5470007<APPEND>

<b>Complete call chain:</b>
     NetComm_CAN_Receive.vi:5470007
     WPI_CANTalonSRX_Receive.vi
     WPI_MotorControlOpenCANTalonSRX.vi
     Begin.vi
     Robot Main.vi,0.000000,0.000000,4000.000000,4000.000000,Speed,Speed,46.130000,1.540000,2.290000,3.000000,100.000000,0,0,-0.000992,0.006200,0
04:14:01.987 PM 02/06/2016,Teleop Enabled,0,TRUE,-44087,NetComm_CAN_Receive.vi:5470007<APPEND>

<b>Complete call chain:</b>
     NetComm_CAN_Receive.vi:5470007
     WPI_CANTalonSRX_Receive.vi
     WPI_CANTalonSRX_GetStatus.vi
     ShooterVI.vi
     Periodic Tasks.vi
     Robot Main.vi,0.000000,0.000000,4000.000000,4000.000000,Speed,Speed,46.130000,1.530000,2.330000,3.000000,100.000000,0,0,-0.000992,0.006200,0
04:14:02.087 PM 02/06/2016,Teleop Enabled,0,TRUE,-44087,NetComm_CAN_Receive.vi:5470007<APPEND>

<b>Complete call chain:</b>
     NetComm_CAN_Receive.vi:5470007
     WPI_CANTalonSRX_Receive.vi
     WPI_CANTalonSRX_GetStatus.vi
     ShooterVI.vi
     Periodic Tasks.vi
     Robot Main.vi,0.000000,0.000000,4000.000000,4000.000000,Speed,Speed,46.140000,1.520000,2.370000,3.000000,101.000000,0,0,-0.000992,0.006200,0
04:14:02.187 PM 02/06/2016,Teleop Enabled,0,TRUE,-44087,NetComm_CAN_Receive.vi:5470007<APPEND>

<b>Complete call chain:</b>
     NetComm_CAN_Receive.vi:5470007
     WPI_CANTalonSRX_Receive.vi
     WPI_MotorControlOpenCANTalonSRX.vi
     Begin.vi
     Robot Main.vi,0.000000,0.000000,4000.000000,4000.000000,Speed,Speed,46.130000,1.520000,2.410000,3.000000,103.000000,0,0,-0.000992,0.007502,0
04:14:02.287 PM 02/06/2016,Teleop Enabled,0,TRUE,-44087,NetComm_CAN_Receive.vi:5470007<APPEND>

<b>Complete call chain:</b>
     NetComm_CAN_Receive.vi:5470007
     WPI_CANTalonSRX_Receive.vi
     WPI_CANTalonSRX_GetStatus.vi
     ShooterVI.vi
     Periodic Tasks.vi
     Robot Main.vi,0.000000,0.000000,4000.000000,4000.000000,Speed,Speed,46.130000,1.510000,2.450000,3.000000,101.000000,0,0,-0.010478,0.008928,0
04:14:02.388 PM 02/06/2016,Teleop Enabled,0,TRUE,-44087,NetComm_CAN_Receive.vi:5470007<APPEND>

<b>Complete call chain:</b>
     NetComm_CAN_Receive.vi:5470007
     WPI_CANTalonSRX_Receive.vi
     WPI_CANTalonSRX_GetStatus.vi
     ShooterVI.vi
     Periodic Tasks.vi
     Robot Main.vi,0.000000,0.000000,4000.000000,4000.000000,Speed,Speed,46.130000,1.510000,2.480000,3.000000,102.000000,0,0,-0.010478,0.109368,0
04:14:02.489 PM 02/06/2016,Teleop Enabled,0,TRUE,-44087,NetComm_CAN_Receive.vi:5470007<APPEND>

<b>Complete call chain:</b>
     NetComm_CAN_Receive.vi:5470007
     WPI_CANTalonSRX_Receive.vi
     WPI_MotorControlOpenCANTalonSRX.vi
     Begin.vi
     Robot Main.vi,0.000000,0.000000,4000.000000,4000.000000,Speed,Speed,45.620000,1.560000,2.870000,3.000000,100.000000,0,0,-0.010478,0.114638,0
04:14:02.589 PM 02/06/2016,Teleop Enabled,0,TRUE,-44087,NetComm_CAN_Receive.vi:5470007<APPEND>

<b>Complete call chain:</b>
     NetComm_CAN_Receive.vi:5470007
     WPI_CANTalonSRX_Receive.vi
     WPI_CANTalonSRX_GetStatus.vi
     ShooterVI.vi
     Periodic Tasks.vi
     Robot Main.vi,0.000000,0.000000,4000.000000,4000.000000,Speed,Speed,45.110000,1.580000,3.120000,3.000000,102.000000,0,0,-0.012152,0.114638,0
04:14:02.691 PM 02/06/2016,Teleop Enabled,0,TRUE,-44087,NetComm_CAN_Receive.vi:5470007<APPEND>

<b>Complete call chain:</b>
     NetComm_CAN_Receive.vi:5470007
     WPI_CANTalonSRX_Receive.vi
     WPI_CANTalonSRX_GetStatus.vi
     ShooterVI.vi
     Periodic Tasks.vi
     Robot Main.vi,0.000000,0.000000,4000.000000,4000.000000,Speed,Speed,44.750000,1.560000,3.110000,3.000000,101.000000,0,0,-0.035712,0.007502,0
04:14:02.792 PM 02/06/2016,Teleop Enabled,0,TRUE,-44087,NetComm_CAN_Receive.vi:5470007<APPEND>

<b>Complete call chain:</b>
     NetComm_CAN_Receive.vi:5470007
     WPI_CANTalonSRX_Receive.vi
     WPI_CANTalonSRX_GetStatus.vi
     ShooterVI.vi
     Periodic Tasks.vi
     Robot Main.vi,0.000000,0.000000,4000.000000,4000.000000,Speed,Speed,45.230000,1.480000,2.880000,3.000000,101.000000,0,0,-0.089528,0.007502,0
04:14:02.892 PM 02/06/2016,Teleop Enabled,0,TRUE,-44087,NetComm_CAN_Receive.vi:5470007<APPEND>

<b>Complete call chain:</b>
     NetComm_CAN_Receive.vi:5470007
     WPI_CANTalonSRX_Receive.vi
     WPI_CANTalonSRX_GetStatus.vi
     ShooterVI.vi
     Periodic Tasks.vi
     Robot Main.vi,0.000000,0.000000,4000.000000,4000.000000,Speed,Speed,45.770000,1.430000,2.920000,3.000000,100.000000,0,0,-0.084878,0.045198,0
04:14:02.992 PM 02/06/2016,Teleop Enabled,0,TRUE,-44087,NetComm_CAN_Receive.vi:5470007<APPEND>

<b>Complete call chain:</b>
     NetComm_CAN_Receive.vi:5470007
     WPI_CANTalonSRX_Receive.vi
     WPI_MotorControlOpenCANTalonSRX.vi
     Begin.vi
     Robot Main.vi,0.000000,0.000000,4000.000000,4000.000000,Speed,Speed,46.030000,1.490000,2.920000,3.000000,100.000000,0,0,-0.120032,0.059582,0
04:14:03.092 PM 02/06/2016,Teleop Enabled,0,TRUE,-44087,NetComm_CAN_Receive.vi:5470007<APPEND>

<b>Complete call chain:</b>
     NetComm_CAN_Receive.vi:5470007
     WPI_CANTalonSRX_Receive.vi
     WPI_CANTalonSRX_GetStatus.vi
     ShooterVI.vi
     Periodic Tasks.vi
     Robot Main.vi,0.000000,0.000000,4000.000000,4000.000000,Speed,Speed,45.830000,1.470000,3.280000,3.000000,100.000000,0,0,-0.201438,0.063488,0
04:14:03.193 PM 02/06/2016,Teleop Enabled,0,TRUE,-44087,NetComm_CAN_Receive.vi:5470007<APPEND>

<b>Complete call chain:</b>
     NetComm_CAN_Receive.vi:5470007
     WPI_CANTalonSRX_Receive.vi
     WPI_MotorControlOpenCANTalonSRX.vi
     Begin.vi
     Robot Main.vi,0.000000,0.000000,4000.000000,4000.000000,Speed,Speed,46.520000,1.400000,4.030000,3.000000,102.000000,0,0,-0.208568,0.059582,0
04:14:03.295 PM 02/06/2016,Teleop Enabled,0,TRUE,-44087,NetComm_CAN_Receive.vi:5470007<APPEND>

<b>Complete call chain:</b>
     NetComm_CAN_Receive.vi:5470007
     WPI_CANTalonSRX_Receive.vi
     WPI_CANTalonSRX_GetStatus.vi
     ShooterVI.vi
     Periodic Tasks.vi
     Robot Main.vi,0.000000,0.000000,4000.000000,4000.000000,Speed,Speed,48.200000,1.240000,4.410000,3.000000,101.000000,0,0,-0.201438,0.131192,0
04:14:03.395 PM 02/06/2016,Teleop Enabled,0,TRUE,-44087,NetComm_CAN_Receive.vi:5470007<APPEND>

<b>Complete call chain:</b>
     NetComm_CAN_Receive.vi:5470007
     WPI_CANTalonSRX_Receive.vi
     WPI_MotorControlOpenCANTalonSRX.vi
     Begin.vi
     Robot Main.vi,0.000000,0.000000,4000.000000,4000.000000,Speed,Speed,49.700000,1.390000,4.700000,3.000000,101.000000,0,0,-0.174158,0.303801,0
04:14:03.496 PM 02/06/2016,Teleop Enabled,0,TRUE,-44087,NetComm_CAN_Receive.vi:5470007<APPEND>

<b>Complete call chain:</b>
     NetComm_CAN_Receive.vi:5470007
     WPI_CANTalonSRX_Receive.vi
     WPI_CANTalonSRX_GetStatus.vi
     ShooterVI.vi
     Periodic Tasks.vi
     Robot Main.vi,0.000000,0.000000,4000.000000,4000.000000,Speed,Speed,48.400000,1.620000,5.110000,3.000000,100.000000,0,0,-0.161262,0.303801,0
04:14:03.598 PM 02/06/2016,Teleop Enabled,0,TRUE,-44087,NetComm_CAN_Receive.vi:5470007<APPEND>

<b>Complete call chain:</b>
     NetComm_CAN_Receive.vi:5470007
     WPI_CANTalonSRX_Receive.vi
     WPI_CANTalonSRX_GetStatus.vi
     ShooterVI.vi
     Periodic Tasks.vi
     Robot Main.vi,0.000000,0.000000,4000.000000,4000.000000,Speed,Speed,45.940000,1.740000,5.400000,3.000000,101.000000,0,0,-0.161262,0.303801,0
04:14:03.698 PM 02/06/2016,Teleop Enabled,0,TRUE,-44087,NetComm_CAN_Receive.vi:5470007<APPEND>

<b>Complete call chain:</b>
     NetComm_CAN_Receive.vi:5470007
     WPI_CANTalonSRX_Receive.vi
     WPI_CANTalonSRX_GetStatus.vi
     ShooterVI.vi
     Periodic Tasks.vi
     Robot Main.vi,0.000000,0.000000,4000.000000,4000.000000,Speed,Speed,43.420000,1.770000,5.170000,3.000000,101.000000,0,0,-0.155000,0.017918,0
04:14:03.799 PM 02/06/2016,Teleop Enabled,0,TRUE,-44087,NetComm_CAN_Receive.vi:5470007<APPEND>

<b>Complete call chain:</b>
     NetComm_CAN_Receive.vi:5470007
     WPI_CANTalonSRX_Receive.vi
     WPI_MotorControlOpenCANTalonSRX.vi
     Begin.vi
     Robot Main.vi,0.000000,0.000000,4000.000000,4000.000000,Speed,Speed,42.420000,1.530000,4.670000,3.000000,101.000000,0,0,-0.155000,0.015872,0
04:14:03.900 PM 02/06/2016,Teleop Enabled,0,TRUE,-44087,NetComm_CAN_Receive.vi:5470007<APPEND>

<b>Complete call chain:</b>
     NetComm_CAN_Receive.vi:5470007
     WPI_CANTalonSRX_Receive.vi
     WPI_CANTalonSRX_GetStatus.vi
     ShooterVI.vi
     Periodic Tasks.vi
     Robot Main.vi,0.000000,0.000000,4000.000000,4000.000000,Speed,Speed,42.240000,1.590000,4.090000,3.000000,101.000000,0,0,-0.155000,0.030008,0
04:14:04.000 PM 02/06/2016,Teleop Enabled,0,TRUE,-44087,NetComm_CAN_Receive.vi:5470007<APPEND>

<b>Complete call chain:</b>
     NetComm_CAN_Receive.vi:5470007
     WPI_CANTalonSRX_Receive.vi
     WPI_MotorControlOpenCANTalonSRX.vi
     Begin.vi
     Robot Main.vi,0.000000,0.000000,4000.000000,4000.000000,Speed,Speed,42.450000,1.580000,3.640000,3.000000,101.000000,0,0,-0.155000,0.125550,0
04:14:04.101 PM 02/06/2016,Teleop Enabled,0,TRUE,-44087,NetComm_CAN_Receive.vi:5470007<APPEND>

<b>Complete call chain:</b>
     NetComm_CAN_Receive.vi:5470007
     WPI_CANTalonSRX_Receive.vi
     WPI_CANTalonSRX_GetStatus.vi
     ShooterVI.vi
     Periodic Tasks.vi
     Robot Main.vi,0.000000,0.000000,4000.000000,4000.000000,Speed,Speed,42.810000,1.650000,3.520000,3.000000,100.000000,0,0,-0.155000,0.215822,0
04:14:04.205 PM 02/06/2016,Teleop Enabled,0,TRUE,-44087,NetComm_CAN_Receive.vi:5470007<APPEND>

<b>Complete call chain:</b>
     NetComm_CAN_Receive.vi:5470007
     WPI_CANTalonSRX_Receive.vi
     WPI_CANTalonSRX_GetStatus.vi
     ShooterVI.vi
     Periodic Tasks.vi
     Robot Main.vi,0.000000,0.000000,4000.000000,4000.000000,Speed,Speed,42.160000,1.680000,3.600000,3.000000,102.000000,0,0,-0.155000,0.008928,0
04:14:04.305 PM 02/06/2016,Teleop Enabled,0,TRUE,-44087,NetComm_CAN_Receive.vi:5470007<APPEND>

<b>Complete call chain:</b>
     NetComm_CAN_Receive.vi:5470007
     WPI_CANTalonSRX_Receive.vi
     WPI_CANTalonSRX_GetStatus.vi
     ShooterVI.vi
     Periodic Tasks.vi
     Robot Main.vi,0.000000,0.000000,4000.000000,4000.000000,Speed,Speed,42.240000,1.570000,3.200000,3.000000,101.000000,0,0,-0.161262,0.005022,0
04:14:04.406 PM 02/06/2016,Teleop Enabled,0,TRUE,-44087,NetComm_CAN_Receive.vi:5470007<APPEND>

<b>Complete call chain:</b>
     NetComm_CAN_Receive.vi:5470007
     WPI_CANTalonSRX_Receive.vi
     WPI_MotorControlOpenCANTalonSRX.vi
     Begin.vi
     Robot Main.vi,0.000000,0.000000,4000.000000,4000.000000,Speed,Speed,42.560000,1.520000,3.070000,3.000000,101.000000,0,0,-0.022382,0.005022,0
04:14:04.508 PM 02/06/2016,Teleop Enabled,0,TRUE,-44087,NetComm_CAN_Receive.vi:5470007<APPEND>

<b>Complete call chain:</b>
     NetComm_CAN_Receive.vi:5470007
     WPI_CANTalonSRX_Receive.vi
     WPI_CANTalonSRX_GetStatus.vi
     ShooterVI.vi
     Periodic Tasks.vi
     Robot Main.vi,0.000000,0.000000,4000.000000,4000.000000,Speed,Speed,42.300000,1.510000,2.460000,3.000000,101.000000,0,0,-0.017918,0.005022,0
04:14:04.609 PM 02/06/2016,Teleop Enabled,0,TRUE,-44087,NetComm_CAN_Receive.vi:5470007<APPEND>

<b>Complete call chain:</b>
     NetComm_CAN_Receive.vi:5470007
     WPI_CANTalonSRX_Receive.vi
     WPI_MotorControlOpenCANTalonSRX.vi
     Begin.vi
     Robot Main.vi,0.000000,0.000000,4000.000000,4000.000000,Speed,Speed,42.180000,1.400000,1.990000,3.000000,100.000000,0,0,-0.017918,0.005022,0
04:14:04.710 PM 02/06/2016,Teleop Enabled,0,TRUE,-44087,NetComm_CAN_Receive.vi:5470007<APPEND>

<b>Complete call chain:</b>
     NetComm_CAN_Receive.vi:5470007
     WPI_CANTalonSRX_Receive.vi
     WPI_CANTalonSRX_GetStatus.vi
     ShooterVI.vi
     Periodic Tasks.vi
     Robot Main.vi,0.000000,0.000000,4000.000000,4000.000000,Speed,Speed,42.210000,1.370000,1.900000,3.000000,102.000000,0,0,-0.017918,0.005022,0
04:14:04.810 PM 02/06/2016,Teleop Enabled,0,TRUE,-44087,NetComm_CAN_Receive.vi:5470007<APPEND>

<b>Complete call chain:</b>
     NetComm_CAN_Receive.vi:5470007
     WPI_CANTalonSRX_Receive.vi
     WPI_CANTalonSRX_GetStatus.vi
     ShooterVI.vi
     Periodic Tasks.vi
     Robot Main.vi,0.000000,0.000000,4000.000000,4000.000000,Speed,Speed,42.210000,1.320000,1.370000,3.000000,100.000000,0,0,-0.017918,0.005022,0
04:14:04.910 PM 02/06/2016,Teleop Enabled,0,TRUE,-44087,NetComm_CAN_Receive.vi:5470007<APPEND>

<b>Complete call chain:</b>
     NetComm_CAN_Receive.vi:5470007
     WPI_CANTalonSRX_Receive.vi
     WPI_MotorControlOpenCANTalonSRX.vi
     Begin.vi
     Robot Main.vi,0.000000,0.000000,4000.000000,4000.000000,Speed,Speed,42.240000,1.320000,1.230000,3.000000,104.000000,0,0,-0.017918,0.005022,0
04:14:05.011 PM 02/06/2016,Teleop Enabled,0,TRUE,-44087,NetComm_CAN_Receive.vi:5470007<APPEND>

<b>Complete call chain:</b>
     NetComm_CAN_Receive.vi:5470007
     WPI_CANTalonSRX_Receive.vi
     WPI_CANTalonSRX_GetStatus.vi
     ShooterVI.vi
     Periodic Tasks.vi
     Robot Main.vi,0.000000,0.000000,4000.000000,4000.000000,Speed,Speed,42.210000,1.300000,0.980000,3.000000,101.000000,0,0,-0.017918,0.005022,0
04:14:05.111 PM 02/06/2016,Teleop Enabled,0,TRUE,-44087,NetComm_CAN_Receive.vi:5470007<APPEND>

<b>Complete call chain:</b>
     NetComm_CAN_Receive.vi:5470007
     WPI_CANTalonSRX_Receive.vi
     WPI_CANTalonSRX_GetStatus.vi
     ShooterVI.vi
     Periodic Tasks.vi
     Robot Main.vi,0.000000,0.000000,4000.000000,4000.000000,Speed,Speed,42.240000,1.280000,0.680000,3.000000,101.000000,0,0,-0.017918,0.005022,0
04:14:05.213 PM 02/06/2016,Teleop Enabled,0,TRUE,-44087,NetComm_CAN_Receive.vi:5470007<APPEND>

<b>Complete call chain:</b>
     NetComm_CAN_Receive.vi:5470007
     WPI_CANTalonSRX_Receive.vi
     WPI_MotorControlOpenCANTalonSRX.vi
     Begin.vi
     Robot Main.vi,0.000000,0.000000,4000.000000,4000.000000,Speed,Speed,42.230000,1.280000,0.580000,3.000000,101.000000,0,0,-0.017918,0.005022,0
04:14:05.314 PM 02/06/2016,Teleop Enabled,0,TRUE,-44087,NetComm_CAN_Receive.vi:5470007<APPEND>

<b>Complete call chain:</b>
     NetComm_CAN_Receive.vi:5470007
     WPI_CANTalonSRX_Receive.vi
     WPI_CANTalonSRX_GetStatus.vi
     ShooterVI.vi
     Periodic Tasks.vi
     Robot Main.vi,0.000000,0.000000,4000.000000,4000.000000,Speed,Speed,42.210000,1.280000,0.490000,3.000000,101.000000,0,0,-0.017918,0.005022,0
04:14:05.415 PM 02/06/2016,Teleop Enabled,0,TRUE,-44087,NetComm_CAN_Receive.vi:5470007<APPEND>

<b>Complete call chain:</b>
     NetComm_CAN_Receive.vi:5470007
     WPI_CANTalonSRX_Receive.vi
     WPI_CANTalonSRX_GetStatus.vi
     ShooterVI.vi
     Periodic Tasks.vi
     Robot Main.vi,0.000000,0.000000,4000.000000,4000.000000,Speed,Speed,42.250000,1.290000,0.590000,3.000000,100.000000,0,0,-0.017918,0.005022,0
04:14:05.515 PM 02/06/2016,Teleop Enabled,0,TRUE,-44087,NetComm_CAN_Receive.vi:5470007<APPEND>

<b>Complete call chain:</b>
     NetComm_CAN_Receive.vi:5470007
     WPI_CANTalonSRX_Receive.vi
     WPI_MotorControlOpenCANTalonSRX.vi
     Begin.vi
     Robot Main.vi,0.000000,0.000000,4000.000000,4000.000000,Speed,Speed,42.260000,1.300000,0.730000,3.000000,101.000000,0,0,-0.017918,0.005022,0
04:14:05.617 PM 02/06/2016,Teleop Enabled,0,TRUE,-44087,NetComm_CAN_Receive.vi:5470007<APPEND>

<b>Complete call chain:</b>
     NetComm_CAN_Receive.vi:5470007
     WPI_CANTalonSRX_Receive.vi
     WPI_CANTalonSRX_GetStatus.vi
     ShooterVI.vi
     Periodic Tasks.vi
     Robot Main.vi,0.000000,0.000000,4000.000000,4000.000000,Speed,Speed,42.260000,1.300000,0.870000,3.000000,101.000000,0,0,-0.017918,0.005022,0
04:14:05.719 PM 02/06/2016,Teleop Enabled,0,TRUE,-44087,NetComm_CAN_Receive.vi:5470007<APPEND>

<b>Complete call chain:</b>
     NetComm_CAN_Receive.vi:5470007
     WPI_CANTalonSRX_Receive.vi
     WPI_CANTalonSRX_GetStatus.vi
     ShooterVI.vi
     Periodic Tasks.vi
     Robot Main.vi,0.000000,0.000000,4000.000000,4000.000000,Speed,Speed,42.240000,1.290000,0.950000,3.000000,101.000000,0,0,-0.015872,0.005022,0
04:14:05.821 PM 02/06/2016,Teleop Enabled,0,TRUE,-44087,NetComm_CAN_Receive.vi:5470007<APPEND>

<b>Complete call chain:</b>
     NetComm_CAN_Receive.vi:5470007
     WPI_CANTalonSRX_Receive.vi
     WPI_MotorControlOpenCANTalonSRX.vi
     Begin.vi
     Robot Main.vi,0.000000,0.000000,4000.000000,4000.000000,Speed,Speed,42.250000,1.290000,1.020000,3.000000,101.000000,0,0,-0.015872,0.005022,0
04:14:05.920 PM 02/06/2016,Teleop Enabled,0,TRUE,-44087,NetComm_CAN_Receive.vi:5470007<APPEND>

<b>Complete call chain:</b>
     NetComm_CAN_Receive.vi:5470007
     WPI_CANTalonSRX_Receive.vi
     WPI_CANTalonSRX_GetStatus.vi
     ShooterVI.vi
     Periodic Tasks.vi
     Robot Main.vi,0.000000,0.000000,4000.000000,4000.000000,Speed,Speed,42.250000,1.280000,1.100000,3.000000,102.000000,0,0,-0.015872,0.005022,0
04:14:06.021 PM 02/06/2016,Teleop Enabled,0,TRUE,-44087,NetComm_CAN_Receive.vi:5470007<APPEND>

<b>Complete call chain:</b>
     NetComm_CAN_Receive.vi:5470007
     WPI_CANTalonSRX_Receive.vi
     WPI_CANTalonSRX_GetStatus.vi
     ShooterVI.vi
     Periodic Tasks.vi
     Robot Main.vi,0.000000,0.000000,4000.000000,4000.000000,Speed,Speed,42.250000,1.280000,1.180000,3.000000,102.000000,0,0,-0.015872,0.005022,0
04:14:06.122 PM 02/06/2016,Teleop Enabled,0,TRUE,-44087,NetComm_CAN_Receive.vi:5470007<APPEND>

<b>Complete call chain:</b>
     NetComm_CAN_Receive.vi:5470007
     WPI_CANTalonSRX_Receive.vi
     WPI_MotorControlOpenCANTalonSRX.vi
     Begin.vi
     Robot Main.vi,0.000000,0.000000,4000.000000,4000.000000,Speed,Speed,42.240000,1.290000,1.240000,3.000000,100.000000,0,0,-0.015872,0.005022,0
