Time,RobotMode,AutoToRun,ErrorStatus, ErrorCode,ErrorSource,ActualRPM1,ActualRPM2,DesiredRPM1,DesiredRPM2,ControlMode1,ControlMode2,NavXYaw,NavXRoll,NavXPitch,ShooterState,LoopTime,IsLevel,IsAutoTargeting,LeftMotorOutput,RightMotorOutput,IsHaloDrive,NavXVelocityX,NavXVelocityY,NavXVelocityZ,NavXDisplacementX,NavXDisplacementY,NavXDisplacementZ,NavXAccelerationX,NavXAccelerationY,NavXAccelerationZ
07:55:48.856 PM 02/09/2016,Autonomous Enabled,0,TRUE,-44087,NetComm_CAN_Receive.vi:5470007<APPEND>  <b>Complete call chain:</b>      NetComm_CAN_Receive.vi:5470007      WPI_CANTalonSRX_Receive.vi      WPI_MotorControlOpenCANTalonSRX.vi      Begin.vi      Robot Main.vi,0.000000,0.000000,4000.000000,4000.000000,Speed,Speed,0.910000,1.240000,2.870000,3.000000,101.000000,1,0,0.000000,0.000000,0,0.000000,0.000000,0.000000,0.952255,10.660355,0.000000,0.000000,0.000000,0.003000
07:55:48.957 PM 02/09/2016,Autonomous Enabled,0,TRUE,-44087,NetComm_CAN_Receive.vi:5470007<APPEND>  <b>Complete call chain:</b>      NetComm_CAN_Receive.vi:5470007      WPI_CANTalonSRX_Receive.vi      WPI_MotorControlOpenCANTalonSRX.vi      Begin.vi      Robot Main.vi,0.000000,0.000000,4000.000000,4000.000000,Speed,Speed,0.910000,1.250000,2.880000,3.000000,103.000000,1,0,0.000000,0.000000,0,0.000000,0.000000,0.000000,0.952255,10.660355,0.000000,0.000000,-0.003000,0.006000
07:55:49.056 PM 02/09/2016,Autonomous Enabled,0,TRUE,-44087,NetComm_CAN_Receive.vi:5470007<APPEND>  <b>Complete call chain:</b>      NetComm_CAN_Receive.vi:5470007      WPI_CANTalonSRX_Receive.vi      WPI_MotorControlOpenCANTalonSRX.vi      Begin.vi      Robot Main.vi,0.000000,0.000000,4000.000000,4000.000000,Speed,Speed,0.910000,1.250000,2.880000,3.000000,102.000000,1,0,0.000000,0.000000,0,0.000000,0.000000,0.000000,0.952255,10.660355,0.000000,0.000000,0.000000,0.009000
07:55:49.156 PM 02/09/2016,Autonomous Enabled,0,TRUE,-44087,NetComm_CAN_Receive.vi:5470007<APPEND>  <b>Complete call chain:</b>      NetComm_CAN_Receive.vi:5470007      WPI_CANTalonSRX_Receive.vi      WPI_MotorControlOpenCANTalonSRX.vi      Begin.vi      Robot Main.vi,0.000000,0.000000,4000.000000,4000.000000,Speed,Speed,0.910000,1.250000,2.880000,3.000000,103.000000,1,0,0.000000,0.000000,0,0.000000,0.000000,0.000000,0.952255,10.660355,0.000000,0.000000,0.001000,0.002000
07:55:49.256 PM 02/09/2016,Autonomous Enabled,0,TRUE,-44087,NetComm_CAN_Receive.vi:5470007<APPEND>  <b>Complete call chain:</b>      NetComm_CAN_Receive.vi:5470007      WPI_CANTalonSRX_Receive.vi      WPI_MotorControlOpenCANTalonSRX.vi      Begin.vi      Robot Main.vi,0.000000,0.000000,4000.000000,4000.000000,Speed,Speed,0.910000,1.250000,2.880000,3.000000,101.000000,1,0,0.000000,0.000000,0,0.000000,0.000000,0.000000,0.952255,10.660355,0.000000,-0.002000,0.000000,0.004000
07:55:49.357 PM 02/09/2016,Autonomous Enabled,0,TRUE,-44087,NetComm_CAN_Receive.vi:5470007<APPEND>  <b>Complete call chain:</b>      NetComm_CAN_Receive.vi:5470007      WPI_CANTalonSRX_Receive.vi      WPI_MotorControlOpenCANTalonSRX.vi      Begin.vi      Robot Main.vi,0.000000,0.000000,4000.000000,4000.000000,Speed,Speed,0.910000,1.250000,2.880000,3.000000,106.000000,1,0,0.000000,0.000000,0,0.000000,0.000000,0.000000,0.952255,10.660355,0.000000,-0.001000,0.000000,0.004000
07:55:49.458 PM 02/09/2016,Autonomous Enabled,0,TRUE,-44087,NetComm_CAN_Receive.vi:5470007<APPEND>  <b>Complete call chain:</b>      NetComm_CAN_Receive.vi:5470007      WPI_CANTalonSRX_Receive.vi      WPI_MotorControlOpenCANTalonSRX.vi      Begin.vi      Robot Main.vi,0.000000,0.000000,4000.000000,4000.000000,Speed,Speed,0.910000,1.250000,2.880000,3.000000,101.000000,1,0,0.000000,0.000000,0,0.000000,0.000000,0.000000,0.952255,10.660355,0.000000,0.001000,0.000000,0.003000
07:55:49.560 PM 02/09/2016,Autonomous Enabled,0,TRUE,-44087,NetComm_CAN_Receive.vi:5470007<APPEND>  <b>Complete call chain:</b>      NetComm_CAN_Receive.vi:5470007      WPI_CANTalonSRX_Receive.vi      WPI_MotorControlOpenCANTalonSRX.vi      Begin.vi      Robot Main.vi,0.000000,0.000000,4000.000000,4000.000000,Speed,Speed,0.690000,1.360000,3.300000,3.000000,102.000000,1,0,0.000000,0.000000,0,0.014893,0.062149,0.000000,0.952484,10.661087,0.000000,0.000000,0.422000,-0.225000
07:55:49.661 PM 02/09/2016,Autonomous Enabled,0,TRUE,-44087,NetComm_CAN_Receive.vi:5470007<APPEND>  <b>Complete call chain:</b>      NetComm_CAN_Receive.vi:5470007      WPI_CANTalonSRX_Receive.vi      WPI_MotorControlOpenCANTalonSRX.vi      Begin.vi      Robot Main.vi,0.000000,0.000000,4000.000000,4000.000000,Speed,Speed,0.060000,1.250000,5.080000,3.000000,104.000000,1,0,0.000000,0.000000,0,-0.062500,0.366623,0.000000,0.949585,10.675781,0.000000,0.083000,0.188000,0.107000
07:55:49.761 PM 02/09/2016,Autonomous Enabled,0,TRUE,-44087,NetComm_CAN_Receive.vi:5470007<APPEND>  <b>Complete call chain:</b>      NetComm_CAN_Receive.vi:5470007      WPI_CANTalonSRX_Receive.vi      WPI_MotorControlOpenCANTalonSRX.vi      Begin.vi      Robot Main.vi,0.000000,0.000000,4000.000000,4000.000000,Speed,Speed,-0.330000,1.200000,4.830000,3.000000,105.000000,1,0,0.000000,0.000000,0,-0.057419,0.398621,0.000000,0.947174,10.695862,0.000000,-0.026000,-0.093000,0.096000
07:55:49.863 PM 02/09/2016,Autonomous Enabled,0,TRUE,-44087,NetComm_CAN_Receive.vi:5470007<APPEND>  <b>Complete call chain:</b>      NetComm_CAN_Receive.vi:5470007      WPI_CANTalonSRX_Receive.vi      WPI_MotorControlOpenCANTalonSRX.vi      Begin.vi      Robot Main.vi,0.000000,0.000000,4000.000000,4000.000000,Speed,Speed,-0.660000,1.250000,4.900000,3.000000,104.000000,1,0,0.000000,0.000000,0,-0.054886,0.359604,0.000000,0.944214,10.714081,0.000000,-0.033000,0.045000,-0.020000
07:55:49.963 PM 02/09/2016,Autonomous Enabled,0,TRUE,-44087,NetComm_CAN_Receive.vi:5470007<APPEND>  <b>Complete call chain:</b>      NetComm_CAN_Receive.vi:5470007      WPI_CANTalonSRX_Receive.vi      WPI_MotorControlOpenCANTalonSRX.vi      Begin.vi      Robot Main.vi,0.000000,0.000000,4000.000000,4000.000000,Speed,Speed,-0.970000,1.220000,4.760000,3.000000,102.000000,1,0,0.000000,0.000000,0,-0.056244,0.345566,0.000000,0.941299,10.731873,0.000000,-0.006000,-0.006000,0.018000
07:55:50.062 PM 02/09/2016,Autonomous Enabled,0,TRUE,-44087,NetComm_CAN_Receive.vi:5470007<APPEND>  <b>Complete call chain:</b>      NetComm_CAN_Receive.vi:5470007      WPI_CANTalonSRX_Receive.vi      WPI_MotorControlOpenCANTalonSRX.vi      Begin.vi      Robot Main.vi,0.000000,0.000000,4000.000000,4000.000000,Speed,Speed,-0.970000,1.120000,5.750000,3.000000,102.000000,1,0,0.000000,0.000000,0,-0.030716,0.540421,0.000000,0.940872,10.751266,0.000000,0.093000,0.386000,0.634000
07:55:50.164 PM 02/09/2016,Autonomous Enabled,0,TRUE,-44087,NetComm_CAN_Receive.vi:5470007<APPEND>  <b>Complete call chain:</b>      NetComm_CAN_Receive.vi:5470007      WPI_CANTalonSRX_Receive.vi      WPI_MotorControlOpenCANTalonSRX.vi      Begin.vi      Robot Main.vi,0.000000,0.000000,4000.000000,4000.000000,Speed,Speed,4.310000,1.500000,6.950000,3.000000,104.000000,0,0,0.000000,0.000000,0,0.312347,0.682404,0.000000,0.950363,10.787582,0.000000,0.097000,0.113000,-0.235000
07:55:50.265 PM 02/09/2016,Autonomous Enabled,0,TRUE,-44087,NetComm_CAN_Receive.vi:5470007<APPEND>  <b>Complete call chain:</b>      NetComm_CAN_Receive.vi:5470007      WPI_CANTalonSRX_Receive.vi      WPI_MotorControlOpenCANTalonSRX.vi      Begin.vi      Robot Main.vi,0.000000,0.000000,4000.000000,4000.000000,Speed,Speed,-0.920000,3.350000,2.280000,3.000000,104.000000,1,0,0.000000,0.000000,0,0.638947,0.006226,0.000000,0.973740,10.805832,0.000000,0.704000,-0.720000,0.056000
07:55:50.365 PM 02/09/2016,Autonomous Enabled,0,TRUE,-44087,NetComm_CAN_Receive.vi:5470007<APPEND>  <b>Complete call chain:</b>      NetComm_CAN_Receive.vi:5470007      WPI_CANTalonSRX_Receive.vi      WPI_MotorControlOpenCANTalonSRX.vi      Begin.vi      Robot Main.vi,0.000000,0.000000,4000.000000,4000.000000,Speed,Speed,-23.400000,4.830000,0.310000,3.000000,102.000000,1,0,0.000000,0.000000,0,0.980255,-0.095291,0.000000,1.020721,10.796417,0.000000,-0.893000,0.386000,0.430000
07:55:50.465 PM 02/09/2016,Autonomous Enabled,0,TRUE,-44087,NetComm_CAN_Receive.vi:5470007<APPEND>  <b>Complete call chain:</b>      NetComm_CAN_Receive.vi:5470007      WPI_CANTalonSRX_Receive.vi      WPI_MotorControlOpenCANTalonSRX.vi      Begin.vi      Robot Main.vi,0.000000,0.000000,4000.000000,4000.000000,Speed,Speed,-27.060000,0.500000,2.590000,3.000000,104.000000,1,0,0.000000,0.000000,0,-0.093689,0.233139,0.000000,1.036530,10.800110,0.000000,-0.859000,0.401000,-0.429000
07:55:50.566 PM 02/09/2016,Autonomous Enabled,0,TRUE,-44087,NetComm_CAN_Receive.vi:5470007<APPEND>  <b>Complete call chain:</b>      NetComm_CAN_Receive.vi:5470007      WPI_CANTalonSRX_Receive.vi      WPI_MotorControlOpenCANTalonSRX.vi      Begin.vi      Robot Main.vi,0.000000,0.000000,4000.000000,4000.000000,Speed,Speed,0.360000,-1.450000,4.670000,3.000000,100.000000,1,0,0.000000,0.000000,0,-0.393402,0.557434,0.000000,1.016586,10.821335,0.000000,0.674000,0.305000,0.233000
07:55:50.666 PM 02/09/2016,Autonomous Enabled,0,TRUE,-44087,NetComm_CAN_Receive.vi:5470007<APPEND>  <b>Complete call chain:</b>      NetComm_CAN_Receive.vi:5470007      WPI_CANTalonSRX_Receive.vi      WPI_MotorControlOpenCANTalonSRX.vi      Begin.vi      Robot Main.vi,0.000000,0.000000,4000.000000,4000.000000,Speed,Speed,23.980000,-1.380000,4.550000,3.000000,102.000000,1,0,0.000000,0.000000,0,0.105240,0.826721,0.000000,1.012726,10.858368,0.000000,1.098000,0.225000,-1.059000
07:55:50.768 PM 02/09/2016,Autonomous Enabled,0,TRUE,-44087,NetComm_CAN_Receive.vi:5470007<APPEND>  <b>Complete call chain:</b>      NetComm_CAN_Receive.vi:5470007      WPI_CANTalonSRX_Receive.vi      WPI_MotorControlOpenCANTalonSRX.vi      Begin.vi      Robot Main.vi,0.000000,0.000000,4000.000000,4000.000000,Speed,Speed,41.090000,1.500000,1.860000,3.000000,101.000000,1,0,0.000000,0.000000,0,0.321945,-0.078293,0.000000,1.031296,10.878967,0.000000,0.271000,-0.373000,-0.734000
07:55:50.869 PM 02/09/2016,Autonomous Enabled,0,TRUE,-44087,NetComm_CAN_Receive.vi:5470007<APPEND>  <b>Complete call chain:</b>      NetComm_CAN_Receive.vi:5470007      WPI_CANTalonSRX_Receive.vi      WPI_MotorControlOpenCANTalonSRX.vi      Begin.vi      Robot Main.vi,0.000000,0.000000,4000.000000,4000.000000,Speed,Speed,30.420000,3.200000,-0.530000,3.000000,102.000000,1,0,0.000000,0.000000,0,0.304367,-0.667465,0.000000,1.046234,10.859985,0.000000,0.060000,0.204000,-0.591000
07:55:50.968 PM 02/09/2016,Autonomous Enabled,0,TRUE,-44087,NetComm_CAN_Receive.vi:5470007<APPEND>  <b>Complete call chain:</b>      NetComm_CAN_Receive.vi:5470007      WPI_CANTalonSRX_Receive.vi      WPI_MotorControlOpenCANTalonSRX.vi      Begin.vi      Robot Main.vi,0.000000,0.000000,4000.000000,4000.000000,Speed,Speed,8.060000,3.120000,-2.120000,3.000000,101.000000,1,0,0.000000,0.000000,0,0.554733,-0.638397,0.000000,1.066101,10.828445,0.000000,1.115000,0.133000,0.110000
07:55:51.070 PM 02/09/2016,Autonomous Enabled,0,TRUE,-44087,NetComm_CAN_Receive.vi:5470007<APPEND>  <b>Complete call chain:</b>      NetComm_CAN_Receive.vi:5470007      WPI_CANTalonSRX_Receive.vi      WPI_MotorControlOpenCANTalonSRX.vi      Begin.vi      Robot Main.vi,0.000000,0.000000,4000.000000,4000.000000,Speed,Speed,-26.470000,3.910000,-1.120000,3.000000,104.000000,1,0,0.000000,0.000000,0,0.999634,-0.328979,0.000000,1.130646,10.798401,0.000000,-1.730000,0.239000,-0.176000
07:55:51.171 PM 02/09/2016,Autonomous Enabled,0,TRUE,-44087,NetComm_CAN_Receive.vi:5470007<APPEND>  <b>Complete call chain:</b>      NetComm_CAN_Receive.vi:5470007      WPI_CANTalonSRX_Receive.vi      WPI_MotorControlOpenCANTalonSRX.vi      Begin.vi      Robot Main.vi,0.000000,0.000000,4000.000000,4000.000000,Speed,Speed,-26.470000,3.910000,-1.120000,3.000000,100.000000,1,0,0.000000,0.000000,0,0.999634,-0.328979,0.000000,1.130646,10.798401,0.000000,-1.730000,0.239000,-0.176000
07:55:51.273 PM 02/09/2016,Autonomous Disabled,0,TRUE,-44087,NetComm_CAN_Receive.vi:5470007<APPEND>  <b>Complete call chain:</b>      NetComm_CAN_Receive.vi:5470007      WPI_CANTalonSRX_Receive.vi      WPI_CANTalonSRX_GetStatus.vi      ShooterVI.vi      Periodic Tasks.vi      Robot Main.vi,0.000000,0.000000,4000.000000,4000.000000,Speed,Speed,-23.800000,0.160000,3.050000,3.000000,101.000000,1,0,0.000000,0.000000,0,-0.283035,0.693192,0.000000,1.122467,10.840088,0.000000,0.113000,-0.164000,0.020000
07:55:51.375 PM 02/09/2016,Autonomous Disabled,0,TRUE,-44087,NetComm_CAN_Receive.vi:5470007<APPEND>  <b>Complete call chain:</b>      NetComm_CAN_Receive.vi:5470007      WPI_CANTalonSRX_Receive.vi      WPI_CANTalonSRX_GetStatus.vi      ShooterVI.vi      Periodic Tasks.vi      Robot Main.vi,0.000000,0.000000,4000.000000,4000.000000,Speed,Speed,-19.180000,1.270000,2.060000,3.000000,101.000000,1,0,0.000000,0.000000,0,0.035385,0.575272,0.000000,1.116989,10.870102,0.000000,0.113000,-0.164000,0.020000
07:55:51.476 PM 02/09/2016,Autonomous Disabled,0,TRUE,-44087,NetComm_CAN_Receive.vi:5470007<APPEND>  <b>Complete call chain:</b>      NetComm_CAN_Receive.vi:5470007      WPI_CANTalonSRX_Receive.vi      WPI_CANTalonSRX_GetStatus.vi      ShooterVI.vi      Periodic Tasks.vi      Robot Main.vi,0.000000,0.000000,4000.000000,4000.000000,Speed,Speed,-19.010000,1.120000,1.570000,3.000000,103.000000,1,0,0.000000,0.000000,0,0.035629,0.515762,0.000000,1.120209,10.897995,0.000000,-0.039000,0.030000,0.050000
07:55:51.577 PM 02/09/2016,Autonomous Disabled,0,TRUE,-44087,NetComm_CAN_Receive.vi:5470007<APPEND>  <b>Complete call chain:</b>      NetComm_CAN_Receive.vi:5470007      WPI_CANTalonSRX_Receive.vi      WPI_CANTalonSRX_GetStatus.vi      ShooterVI.vi      Periodic Tasks.vi      Robot Main.vi,0.000000,0.000000,4000.000000,4000.000000,Speed,Speed,-19.690000,1.290000,1.810000,3.000000,101.000000,1,0,0.000000,0.000000,0,0.056854,0.537354,0.000000,1.123581,10.924652,0.000000,-0.039000,0.030000,0.050000
07:55:51.678 PM 02/09/2016,Autonomous Disabled,0,TRUE,-44087,NetComm_CAN_Receive.vi:5470007<APPEND>  <b>Complete call chain:</b>      NetComm_CAN_Receive.vi:5470007      WPI_CANTalonSRX_Receive.vi      WPI_CANTalonSRX_GetStatus.vi      ShooterVI.vi      Periodic Tasks.vi      Robot Main.vi,0.000000,0.000000,4000.000000,4000.000000,Speed,Speed,-19.690000,1.320000,1.910000,3.000000,103.000000,1,0,0.000000,0.000000,0,0.033096,0.557510,0.000000,1.125732,10.958115,0.000000,-0.103000,0.047000,-0.001000
07:55:51.780 PM 02/09/2016,Autonomous Disabled,0,TRUE,-44087,NetComm_CAN_Receive.vi:5470007<APPEND>  <b>Complete call chain:</b>      NetComm_CAN_Receive.vi:5470007      WPI_CANTalonSRX_Receive.vi      WPI_CANTalonSRX_GetStatus.vi      ShooterVI.vi      Periodic Tasks.vi      Robot Main.vi,0.000000,0.000000,4000.000000,4000.000000,Speed,Speed,-19.730000,1.300000,1.930000,3.000000,106.000000,1,0,0.000000,0.000000,0,0.029495,0.000000,0.000000,1.127167,10.980530,0.000000,-0.090000,-0.019000,-0.015000
07:55:51.880 PM 02/09/2016,Autonomous Disabled,0,TRUE,-44087,NetComm_CAN_Receive.vi:5470007<APPEND>  <b>Complete call chain:</b>      NetComm_CAN_Receive.vi:5470007      WPI_CANTalonSRX_Receive.vi      WPI_CANTalonSRX_GetStatus.vi      ShooterVI.vi      Periodic Tasks.vi      Robot Main.vi,0.000000,0.000000,4000.000000,4000.000000,Speed,Speed,-19.710000,1.250000,1.940000,3.000000,102.000000,1,0,0.000000,0.000000,0,0.021255,0.000000,0.000000,1.128204,10.980530,0.000000,-0.060000,0.001000,0.013000
07:55:51.982 PM 02/09/2016,Autonomous Disabled,0,TRUE,-44087,NetComm_CAN_Receive.vi:5470007<APPEND>  <b>Complete call chain:</b>      NetComm_CAN_Receive.vi:5470007      WPI_CANTalonSRX_Receive.vi      WPI_CANTalonSRX_GetStatus.vi      ShooterVI.vi      Periodic Tasks.vi      Robot Main.vi,0.000000,0.000000,4000.000000,4000.000000,Speed,Speed,-19.720000,1.230000,1.960000,3.000000,100.000000,1,0,0.000000,0.000000,0,0.000000,0.000000,0.000000,1.128494,10.980530,0.000000,-0.035000,0.017000,0.010000
07:55:52.082 PM 02/09/2016,Autonomous Disabled,0,TRUE,-44087,NetComm_CAN_Receive.vi:5470007<APPEND>  <b>Complete call chain:</b>      NetComm_CAN_Receive.vi:5470007      WPI_CANTalonSRX_Receive.vi      WPI_CANTalonSRX_GetStatus.vi      ShooterVI.vi      Periodic Tasks.vi      Robot Main.vi,0.000000,0.000000,4000.000000,4000.000000,Speed,Speed,-19.700000,1.210000,1.990000,3.000000,100.000000,1,0,0.000000,0.000000,0,0.000000,0.000000,0.000000,1.128494,10.980698,0.000000,-0.016000,0.014000,0.012000
07:55:52.182 PM 02/09/2016,Autonomous Disabled,0,TRUE,-44087,NetComm_CAN_Receive.vi:5470007<APPEND>  <b>Complete call chain:</b>      NetComm_CAN_Receive.vi:5470007      WPI_CANTalonSRX_Receive.vi      WPI_CANTalonSRX_GetStatus.vi      ShooterVI.vi      Periodic Tasks.vi      Robot Main.vi,0.000000,0.000000,4000.000000,4000.000000,Speed,Speed,-19.700000,1.210000,2.010000,3.000000,102.000000,1,0,0.000000,0.000000,0,0.000000,0.000000,0.000000,1.128494,10.980698,0.000000,-0.015000,0.002000,0.003000
07:55:52.286 PM 02/09/2016,Autonomous Disabled,0,TRUE,-44087,NetComm_CAN_Receive.vi:5470007<APPEND>  <b>Complete call chain:</b>      NetComm_CAN_Receive.vi:5470007      WPI_CANTalonSRX_Receive.vi      WPI_CANTalonSRX_GetStatus.vi      ShooterVI.vi      Periodic Tasks.vi      Robot Main.vi,0.000000,0.000000,4000.000000,4000.000000,Speed,Speed,-19.700000,1.200000,2.030000,3.000000,103.000000,1,0,0.000000,0.000000,0,0.000000,0.000000,0.000000,1.128494,10.980698,0.000000,-0.013000,0.001000,0.005000
07:55:52.387 PM 02/09/2016,Autonomous Disabled,0,TRUE,-44087,NetComm_CAN_Receive.vi:5470007<APPEND>  <b>Complete call chain:</b>      NetComm_CAN_Receive.vi:5470007      WPI_CANTalonSRX_Receive.vi      WPI_CANTalonSRX_GetStatus.vi      ShooterVI.vi      Periodic Tasks.vi      Robot Main.vi,0.000000,0.000000,4000.000000,4000.000000,Speed,Speed,-19.700000,1.200000,2.050000,3.000000,103.000000,1,0,0.000000,0.000000,0,0.000000,0.000000,0.000000,1.128494,10.980698,0.000000,-0.007000,0.001000,-0.001000
07:55:52.487 PM 02/09/2016,Autonomous Disabled,0,TRUE,-44087,NetComm_CAN_Receive.vi:5470007<APPEND>  <b>Complete call chain:</b>      NetComm_CAN_Receive.vi:5470007      WPI_CANTalonSRX_Receive.vi      WPI_CANTalonSRX_GetStatus.vi      ShooterVI.vi      Periodic Tasks.vi      Robot Main.vi,0.000000,0.000000,4000.000000,4000.000000,Speed,Speed,-19.700000,1.190000,2.060000,3.000000,104.000000,1,0,0.000000,0.000000,0,0.000000,0.000000,0.000000,1.128494,10.980698,0.000000,0.000000,0.004000,0.002000
07:55:52.588 PM 02/09/2016,Autonomous Disabled,0,TRUE,-44087,NetComm_CAN_Receive.vi:5470007<APPEND>  <b>Complete call chain:</b>      NetComm_CAN_Receive.vi:5470007      WPI_CANTalonSRX_Receive.vi      WPI_CANTalonSRX_GetStatus.vi      ShooterVI.vi      Periodic Tasks.vi      Robot Main.vi,0.000000,0.000000,4000.000000,4000.000000,Speed,Speed,-19.700000,1.180000,2.070000,3.000000,104.000000,1,0,0.000000,0.000000,0,0.000000,0.000000,0.000000,1.128494,10.980698,0.000000,0.002000,0.006000,0.000000
07:55:52.688 PM 02/09/2016,Autonomous Disabled,0,TRUE,-44087,NetComm_CAN_Receive.vi:5470007<APPEND>  <b>Complete call chain:</b>      NetComm_CAN_Receive.vi:5470007      WPI_CANTalonSRX_Receive.vi      WPI_CANTalonSRX_GetStatus.vi      ShooterVI.vi      Periodic Tasks.vi      Robot Main.vi,0.000000,0.000000,4000.000000,4000.000000,Speed,Speed,-19.700000,1.170000,2.080000,3.000000,102.000000,1,0,0.000000,0.000000,0,0.000000,0.000000,0.000000,1.128494,10.980698,0.000000,0.001000,0.003000,0.004000
07:55:52.789 PM 02/09/2016,Autonomous Disabled,0,TRUE,-44087,NetComm_CAN_Receive.vi:5470007<APPEND>  <b>Complete call chain:</b>      NetComm_CAN_Receive.vi:5470007      WPI_CANTalonSRX_Receive.vi      WPI_CANTalonSRX_GetStatus.vi      ShooterVI.vi      Periodic Tasks.vi      Robot Main.vi,0.000000,0.000000,4000.000000,4000.000000,Speed,Speed,-19.700000,1.170000,2.090000,3.000000,100.000000,1,0,0.000000,0.000000,0,0.000000,0.000000,0.000000,1.128494,10.980698,0.000000,0.003000,0.001000,0.005000
07:55:52.888 PM 02/09/2016,Autonomous Disabled,0,TRUE,-44087,NetComm_CAN_Receive.vi:5470007<APPEND>  <b>Complete call chain:</b>      NetComm_CAN_Receive.vi:5470007      WPI_CANTalonSRX_Receive.vi      WPI_CANTalonSRX_GetStatus.vi      ShooterVI.vi      Periodic Tasks.vi      Robot Main.vi,0.000000,0.000000,4000.000000,4000.000000,Speed,Speed,-19.700000,1.170000,2.100000,3.000000,103.000000,1,0,0.000000,0.000000,0,0.000000,0.000000,0.000000,1.128494,10.980698,0.000000,0.001000,0.000000,0.004000
07:55:52.988 PM 02/09/2016,Autonomous Disabled,0,TRUE,-44087,NetComm_CAN_Receive.vi:5470007<APPEND>  <b>Complete call chain:</b>      NetComm_CAN_Receive.vi:5470007      WPI_CANTalonSRX_Receive.vi      WPI_CANTalonSRX_GetStatus.vi      ShooterVI.vi      Periodic Tasks.vi      Robot Main.vi,0.000000,0.000000,4000.000000,4000.000000,Speed,Speed,-19.690000,1.160000,2.120000,3.000000,104.000000,1,0,0.000000,0.000000,0,0.000000,0.000000,0.000000,1.128494,10.980698,0.000000,-0.001000,0.001000,0.008000
07:55:53.090 PM 02/09/2016,Autonomous Disabled,0,TRUE,-44087,NetComm_CAN_Receive.vi:5470007<APPEND>  <b>Complete call chain:</b>      NetComm_CAN_Receive.vi:5470007      WPI_CANTalonSRX_Receive.vi      WPI_CANTalonSRX_GetStatus.vi      ShooterVI.vi      Periodic Tasks.vi      Robot Main.vi,0.000000,0.000000,4000.000000,4000.000000,Speed,Speed,-19.690000,1.160000,2.130000,3.000000,101.000000,1,0,0.000000,0.000000,0,0.000000,0.000000,0.000000,1.128494,10.980698,0.000000,0.004000,0.000000,0.001000
07:55:53.190 PM 02/09/2016,Autonomous Disabled,0,TRUE,-44087,NetComm_CAN_Receive.vi:5470007<APPEND>  <b>Complete call chain:</b>      NetComm_CAN_Receive.vi:5470007      WPI_CANTalonSRX_Receive.vi      WPI_CANTalonSRX_GetStatus.vi      ShooterVI.vi      Periodic Tasks.vi      Robot Main.vi,0.000000,0.000000,4000.000000,4000.000000,Speed,Speed,-19.690000,1.160000,2.140000,3.000000,104.000000,1,0,0.000000,0.000000,0,0.000000,0.000000,0.000000,1.128494,10.980698,0.000000,0.001000,0.000000,0.001000
07:55:53.289 PM 02/09/2016,Autonomous Disabled,0,TRUE,-44087,NetComm_CAN_Receive.vi:5470007<APPEND>  <b>Complete call chain:</b>      NetComm_CAN_Receive.vi:5470007      WPI_CANTalonSRX_Receive.vi      WPI_CANTalonSRX_GetStatus.vi      ShooterVI.vi      Periodic Tasks.vi      Robot Main.vi,0.000000,0.000000,4000.000000,4000.000000,Speed,Speed,-19.690000,1.150000,2.140000,3.000000,101.000000,1,0,0.000000,0.000000,0,0.000000,0.000000,0.000000,1.128494,10.980698,0.000000,0.002000,0.002000,0.004000
07:55:53.390 PM 02/09/2016,Autonomous Disabled,0,TRUE,-44087,NetComm_CAN_Receive.vi:5470007<APPEND>  <b>Complete call chain:</b>      NetComm_CAN_Receive.vi:5470007      WPI_CANTalonSRX_Receive.vi      WPI_CANTalonSRX_GetStatus.vi      ShooterVI.vi      Periodic Tasks.vi      Robot Main.vi,0.000000,0.000000,4000.000000,4000.000000,Speed,Speed,-19.690000,1.150000,2.140000,3.000000,102.000000,1,0,0.000000,0.000000,0,0.000000,0.000000,0.000000,1.128494,10.980698,0.000000,0.001000,0.004000,0.001000
07:55:53.491 PM 02/09/2016,Autonomous Disabled,0,TRUE,-44087,NetComm_CAN_Receive.vi:5470007<APPEND>  <b>Complete call chain:</b>      NetComm_CAN_Receive.vi:5470007      WPI_CANTalonSRX_Receive.vi      WPI_CANTalonSRX_GetStatus.vi      ShooterVI.vi      Periodic Tasks.vi      Robot Main.vi,0.000000,0.000000,4000.000000,4000.000000,Speed,Speed,-19.690000,1.150000,2.160000,3.000000,102.000000,1,0,0.000000,0.000000,0,0.000000,0.000000,0.000000,1.128494,10.980698,0.000000,0.002000,0.001000,0.006000
07:55:53.592 PM 02/09/2016,Autonomous Disabled,0,TRUE,-44087,NetComm_CAN_Receive.vi:5470007<APPEND>  <b>Complete call chain:</b>      NetComm_CAN_Receive.vi:5470007      WPI_CANTalonSRX_Receive.vi      WPI_CANTalonSRX_GetStatus.vi      ShooterVI.vi      Periodic Tasks.vi      Robot Main.vi,0.000000,0.000000,4000.000000,4000.000000,Speed,Speed,-19.690000,1.150000,2.160000,3.000000,101.000000,1,0,0.000000,0.000000,0,0.000000,0.000000,0.000000,1.128494,10.980698,0.000000,0.001000,0.002000,0.006000
07:55:53.692 PM 02/09/2016,Autonomous Disabled,0,TRUE,-44087,NetComm_CAN_Receive.vi:5470007<APPEND>  <b>Complete call chain:</b>      NetComm_CAN_Receive.vi:5470007      WPI_CANTalonSRX_Receive.vi      WPI_CANTalonSRX_GetStatus.vi      ShooterVI.vi      Periodic Tasks.vi      Robot Main.vi,0.000000,0.000000,4000.000000,4000.000000,Speed,Speed,-19.700000,1.150000,2.180000,3.000000,103.000000,1,0,0.000000,0.000000,0,0.000000,0.000000,0.000000,1.128494,10.980698,0.000000,-0.001000,0.002000,0.003000
07:55:53.792 PM 02/09/2016,Autonomous Disabled,0,TRUE,-44087,NetComm_CAN_Receive.vi:5470007<APPEND>  <b>Complete call chain:</b>      NetComm_CAN_Receive.vi:5470007      WPI_CANTalonSRX_Receive.vi      WPI_CANTalonSRX_GetStatus.vi      ShooterVI.vi      Periodic Tasks.vi      Robot Main.vi,0.000000,0.000000,4000.000000,4000.000000,Speed,Speed,-19.700000,1.150000,2.180000,3.000000,101.000000,1,0,0.000000,0.000000,0,0.000000,0.000000,0.000000,1.128494,10.980698,0.000000,0.000000,0.001000,0.004000
07:55:53.892 PM 02/09/2016,Autonomous Disabled,0,TRUE,-44087,NetComm_CAN_Receive.vi:5470007<APPEND>  <b>Complete call chain:</b>      NetComm_CAN_Receive.vi:5470007      WPI_CANTalonSRX_Receive.vi      WPI_CANTalonSRX_GetStatus.vi      ShooterVI.vi      Periodic Tasks.vi      Robot Main.vi,0.000000,0.000000,4000.000000,4000.000000,Speed,Speed,-19.690000,1.150000,2.180000,3.000000,102.000000,1,0,0.000000,0.000000,0,0.000000,0.000000,0.000000,1.128494,10.980698,0.000000,0.000000,0.001000,0.002000
07:55:53.993 PM 02/09/2016,Autonomous Disabled,0,TRUE,-44087,NetComm_CAN_Receive.vi:5470007<APPEND>  <b>Complete call chain:</b>      NetComm_CAN_Receive.vi:5470007      WPI_CANTalonSRX_Receive.vi      WPI_CANTalonSRX_GetStatus.vi      ShooterVI.vi      Periodic Tasks.vi      Robot Main.vi,0.000000,0.000000,4000.000000,4000.000000,Speed,Speed,-19.690000,1.140000,2.190000,3.000000,101.000000,1,0,0.000000,0.000000,0,0.000000,0.000000,0.000000,1.128494,10.980698,0.000000,-0.001000,0.001000,0.002000
07:55:54.093 PM 02/09/2016,Autonomous Disabled,0,TRUE,-44087,NetComm_CAN_Receive.vi:5470007<APPEND>  <b>Complete call chain:</b>      NetComm_CAN_Receive.vi:5470007      WPI_CANTalonSRX_Receive.vi      WPI_CANTalonSRX_GetStatus.vi      ShooterVI.vi      Periodic Tasks.vi      Robot Main.vi,0.000000,0.000000,4000.000000,4000.000000,Speed,Speed,-19.700000,1.140000,2.200000,3.000000,101.000000,1,0,0.000000,0.000000,0,0.000000,0.000000,0.000000,1.128494,10.980698,0.000000,-0.001000,0.002000,0.003000
07:55:54.193 PM 02/09/2016,Autonomous Disabled,0,TRUE,-44087,NetComm_CAN_Receive.vi:5470007<APPEND>  <b>Complete call chain:</b>      NetComm_CAN_Receive.vi:5470007      WPI_CANTalonSRX_Receive.vi      WPI_CANTalonSRX_GetStatus.vi      ShooterVI.vi      Periodic Tasks.vi      Robot Main.vi,0.000000,0.000000,4000.000000,4000.000000,Speed,Speed,-19.700000,1.140000,2.200000,3.000000,101.000000,1,0,0.000000,0.000000,0,0.000000,0.000000,0.000000,1.128494,10.980698,0.000000,0.000000,0.000000,0.002000
07:55:54.294 PM 02/09/2016,Autonomous Disabled,0,TRUE,-44087,NetComm_CAN_Receive.vi:5470007<APPEND>  <b>Complete call chain:</b>      NetComm_CAN_Receive.vi:5470007      WPI_CANTalonSRX_Receive.vi      WPI_CANTalonSRX_GetStatus.vi      ShooterVI.vi      Periodic Tasks.vi      Robot Main.vi,0.000000,0.000000,4000.000000,4000.000000,Speed,Speed,-19.700000,1.140000,2.210000,3.000000,102.000000,1,0,0.000000,0.000000,0,0.000000,0.000000,0.000000,1.128494,10.980698,0.000000,0.000000,0.000000,0.006000
07:55:54.393 PM 02/09/2016,Autonomous Disabled,0,TRUE,-44087,NetComm_CAN_Receive.vi:5470007<APPEND>  <b>Complete call chain:</b>      NetComm_CAN_Receive.vi:5470007      WPI_CANTalonSRX_Receive.vi      WPI_CANTalonSRX_GetStatus.vi      ShooterVI.vi      Periodic Tasks.vi      Robot Main.vi,0.000000,0.000000,4000.000000,4000.000000,Speed,Speed,-19.700000,1.140000,2.210000,3.000000,103.000000,1,0,0.000000,0.000000,0,0.000000,0.000000,0.000000,1.128494,10.980698,0.000000,0.000000,0.002000,0.000000
07:55:54.495 PM 02/09/2016,Autonomous Disabled,0,TRUE,-44087,NetComm_CAN_Receive.vi:5470007<APPEND>  <b>Complete call chain:</b>      NetComm_CAN_Receive.vi:5470007      WPI_CANTalonSRX_Receive.vi      WPI_CANTalonSRX_GetStatus.vi      ShooterVI.vi      Periodic Tasks.vi      Robot Main.vi,0.000000,0.000000,4000.000000,4000.000000,Speed,Speed,-19.700000,1.140000,2.210000,3.000000,101.000000,1,0,0.000000,0.000000,0,0.000000,0.000000,0.000000,1.128494,10.980698,0.000000,0.001000,-0.002000,0.000000
07:55:54.596 PM 02/09/2016,Autonomous Disabled,0,TRUE,-44087,NetComm_CAN_Receive.vi:5470007<APPEND>  <b>Complete call chain:</b>      NetComm_CAN_Receive.vi:5470007      WPI_CANTalonSRX_Receive.vi      WPI_CANTalonSRX_GetStatus.vi      ShooterVI.vi      Periodic Tasks.vi      Robot Main.vi,0.000000,0.000000,4000.000000,4000.000000,Speed,Speed,-19.700000,1.130000,2.210000,3.000000,102.000000,1,0,0.000000,0.000000,0,0.000000,0.000000,0.000000,1.128494,10.980698,0.000000,-0.001000,0.000000,0.000000
07:55:54.695 PM 02/09/2016,Autonomous Disabled,0,TRUE,-44087,NetComm_CAN_Receive.vi:5470007<APPEND>  <b>Complete call chain:</b>      NetComm_CAN_Receive.vi:5470007      WPI_CANTalonSRX_Receive.vi      WPI_CANTalonSRX_GetStatus.vi      ShooterVI.vi      Periodic Tasks.vi      Robot Main.vi,0.000000,0.000000,4000.000000,4000.000000,Speed,Speed,-19.700000,1.140000,2.220000,3.000000,102.000000,1,0,0.000000,0.000000,0,0.000000,0.000000,0.000000,1.128494,10.980698,0.000000,0.000000,0.002000,0.000000
07:55:54.796 PM 02/09/2016,Autonomous Disabled,0,TRUE,-44087,NetComm_CAN_Receive.vi:5470007<APPEND>  <b>Complete call chain:</b>      NetComm_CAN_Receive.vi:5470007      WPI_CANTalonSRX_Receive.vi      WPI_CANTalonSRX_GetStatus.vi      ShooterVI.vi      Periodic Tasks.vi      Robot Main.vi,0.000000,0.000000,4000.000000,4000.000000,Speed,Speed,-19.700000,1.130000,2.230000,3.000000,101.000000,1,0,0.000000,0.000000,0,0.000000,0.000000,0.000000,1.128494,10.980698,0.000000,0.001000,-0.003000,0.005000
07:55:54.896 PM 02/09/2016,Autonomous Disabled,0,TRUE,-44087,NetComm_CAN_Receive.vi:5470007<APPEND>  <b>Complete call chain:</b>      NetComm_CAN_Receive.vi:5470007      WPI_CANTalonSRX_Receive.vi      WPI_CANTalonSRX_GetStatus.vi      ShooterVI.vi      Periodic Tasks.vi      Robot Main.vi,0.000000,0.000000,4000.000000,4000.000000,Speed,Speed,-19.690000,1.130000,2.230000,3.000000,103.000000,1,0,0.000000,0.000000,0,0.000000,0.000000,0.000000,1.128494,10.980698,0.000000,0.000000,0.002000,0.003000
07:55:54.996 PM 02/09/2016,Autonomous Disabled,0,TRUE,-44087,NetComm_CAN_Receive.vi:5470007<APPEND>  <b>Complete call chain:</b>      NetComm_CAN_Receive.vi:5470007      WPI_CANTalonSRX_Receive.vi      WPI_CANTalonSRX_GetStatus.vi      ShooterVI.vi      Periodic Tasks.vi      Robot Main.vi,0.000000,0.000000,4000.000000,4000.000000,Speed,Speed,-19.700000,1.130000,2.230000,3.000000,103.000000,1,0,0.000000,0.000000,0,0.000000,0.000000,0.000000,1.128494,10.980698,0.000000,0.000000,0.000000,0.007000
07:55:55.096 PM 02/09/2016,Autonomous Disabled,0,TRUE,-44087,NetComm_CAN_Receive.vi:5470007<APPEND>  <b>Complete call chain:</b>      NetComm_CAN_Receive.vi:5470007      WPI_CANTalonSRX_Receive.vi      WPI_CANTalonSRX_GetStatus.vi      ShooterVI.vi      Periodic Tasks.vi      Robot Main.vi,0.000000,0.000000,4000.000000,4000.000000,Speed,Speed,-19.690000,1.130000,2.240000,3.000000,102.000000,1,0,0.000000,0.000000,0,0.000000,0.000000,0.000000,1.128494,10.980698,0.000000,-0.001000,0.001000,0.009000
07:55:55.195 PM 02/09/2016,Autonomous Disabled,0,TRUE,-44087,NetComm_CAN_Receive.vi:5470007<APPEND>  <b>Complete call chain:</b>      NetComm_CAN_Receive.vi:5470007      WPI_CANTalonSRX_Receive.vi      WPI_CANTalonSRX_GetStatus.vi      ShooterVI.vi      Periodic Tasks.vi      Robot Main.vi,0.000000,0.000000,4000.000000,4000.000000,Speed,Speed,-19.690000,1.120000,2.240000,3.000000,102.000000,1,0,0.000000,0.000000,0,0.000000,0.000000,0.000000,1.128494,10.980698,0.000000,-0.001000,0.000000,0.005000
07:55:55.295 PM 02/09/2016,Autonomous Disabled,0,TRUE,-44087,NetComm_CAN_Receive.vi:5470007<APPEND>  <b>Complete call chain:</b>      NetComm_CAN_Receive.vi:5470007      WPI_CANTalonSRX_Receive.vi      WPI_CANTalonSRX_GetStatus.vi      ShooterVI.vi      Periodic Tasks.vi      Robot Main.vi,0.000000,0.000000,4000.000000,4000.000000,Speed,Speed,-19.690000,1.120000,2.240000,3.000000,101.000000,1,0,0.000000,0.000000,0,0.000000,0.000000,0.000000,1.128494,10.980698,0.000000,-0.001000,0.003000,0.003000
07:55:55.396 PM 02/09/2016,Autonomous Disabled,0,TRUE,-44087,NetComm_CAN_Receive.vi:5470007<APPEND>  <b>Complete call chain:</b>      NetComm_CAN_Receive.vi:5470007      WPI_CANTalonSRX_Receive.vi      WPI_CANTalonSRX_GetStatus.vi      ShooterVI.vi      Periodic Tasks.vi      Robot Main.vi,0.000000,0.000000,4000.000000,4000.000000,Speed,Speed,-19.690000,1.120000,2.240000,3.000000,101.000000,1,0,0.000000,0.000000,0,0.000000,0.000000,0.000000,1.128494,10.980698,0.000000,-0.002000,0.000000,0.001000
07:55:55.496 PM 02/09/2016,Autonomous Disabled,0,TRUE,-44087,NetComm_CAN_Receive.vi:5470007<APPEND>  <b>Complete call chain:</b>      NetComm_CAN_Receive.vi:5470007      WPI_CANTalonSRX_Receive.vi      WPI_CANTalonSRX_GetStatus.vi      ShooterVI.vi      Periodic Tasks.vi      Robot Main.vi,0.000000,0.000000,4000.000000,4000.000000,Speed,Speed,-19.690000,1.120000,2.240000,3.000000,101.000000,1,0,0.000000,0.000000,0,0.000000,0.000000,0.000000,1.128494,10.980698,0.000000,0.000000,0.002000,0.002000
07:55:55.596 PM 02/09/2016,Autonomous Disabled,0,TRUE,-44087,NetComm_CAN_Receive.vi:5470007<APPEND>  <b>Complete call chain:</b>      NetComm_CAN_Receive.vi:5470007      WPI_CANTalonSRX_Receive.vi      WPI_CANTalonSRX_GetStatus.vi      ShooterVI.vi      Periodic Tasks.vi      Robot Main.vi,0.000000,0.000000,4000.000000,4000.000000,Speed,Speed,-19.680000,1.130000,2.240000,3.000000,102.000000,1,0,0.000000,0.000000,0,0.000000,0.000000,0.000000,1.128494,10.980698,0.000000,0.000000,0.001000,0.000000
07:55:55.697 PM 02/09/2016,Autonomous Disabled,0,TRUE,-44087,NetComm_CAN_Receive.vi:5470007<APPEND>  <b>Complete call chain:</b>      NetComm_CAN_Receive.vi:5470007      WPI_CANTalonSRX_Receive.vi      WPI_CANTalonSRX_GetStatus.vi      ShooterVI.vi      Periodic Tasks.vi      Robot Main.vi,0.000000,0.000000,4000.000000,4000.000000,Speed,Speed,-19.680000,1.130000,2.240000,3.000000,103.000000,1,0,0.000000,0.000000,0,0.000000,0.000000,0.000000,1.128494,10.980698,0.000000,-0.001000,0.000000,0.002000
07:55:55.797 PM 02/09/2016,Autonomous Disabled,0,TRUE,-44087,NetComm_CAN_Receive.vi:5470007<APPEND>  <b>Complete call chain:</b>      NetComm_CAN_Receive.vi:5470007      WPI_CANTalonSRX_Receive.vi      WPI_CANTalonSRX_GetStatus.vi      ShooterVI.vi      Periodic Tasks.vi      Robot Main.vi,0.000000,0.000000,4000.000000,4000.000000,Speed,Speed,-19.680000,1.130000,2.240000,3.000000,101.000000,1,0,0.000000,0.000000,0,0.000000,0.000000,0.000000,1.128494,10.980698,0.000000,0.000000,0.002000,0.006000
07:55:55.897 PM 02/09/2016,Autonomous Disabled,0,TRUE,-44087,NetComm_CAN_Receive.vi:5470007<APPEND>  <b>Complete call chain:</b>      NetComm_CAN_Receive.vi:5470007      WPI_CANTalonSRX_Receive.vi      WPI_CANTalonSRX_GetStatus.vi      ShooterVI.vi      Periodic Tasks.vi      Robot Main.vi,0.000000,0.000000,4000.000000,4000.000000,Speed,Speed,-19.680000,1.130000,2.240000,3.000000,101.000000,1,0,0.000000,0.000000,0,0.000000,0.000000,0.000000,1.128494,10.980698,0.000000,0.000000,0.003000,0.006000
07:55:55.997 PM 02/09/2016,Autonomous Disabled,0,TRUE,-44087,NetComm_CAN_Receive.vi:5470007<APPEND>  <b>Complete call chain:</b>      NetComm_CAN_Receive.vi:5470007      WPI_CANTalonSRX_Receive.vi      WPI_CANTalonSRX_GetStatus.vi      ShooterVI.vi      Periodic Tasks.vi      Robot Main.vi,0.000000,0.000000,4000.000000,4000.000000,Speed,Speed,-19.680000,1.120000,2.250000,3.000000,102.000000,1,0,0.000000,0.000000,0,0.000000,0.000000,0.000000,1.128494,10.980698,0.000000,0.000000,0.000000,0.003000
07:55:56.097 PM 02/09/2016,Autonomous Disabled,0,TRUE,-44087,NetComm_CAN_Receive.vi:5470007<APPEND>  <b>Complete call chain:</b>      NetComm_CAN_Receive.vi:5470007      WPI_CANTalonSRX_Receive.vi      WPI_CANTalonSRX_GetStatus.vi      ShooterVI.vi      Periodic Tasks.vi      Robot Main.vi,0.000000,0.000000,4000.000000,4000.000000,Speed,Speed,-19.680000,1.130000,2.250000,3.000000,102.000000,1,0,0.000000,0.000000,0,0.000000,0.000000,0.000000,1.128494,10.980698,0.000000,0.001000,0.000000,0.000000
07:55:56.198 PM 02/09/2016,Autonomous Disabled,0,TRUE,-44087,NetComm_CAN_Receive.vi:5470007<APPEND>  <b>Complete call chain:</b>      NetComm_CAN_Receive.vi:5470007      WPI_CANTalonSRX_Receive.vi      WPI_CANTalonSRX_GetStatus.vi      ShooterVI.vi      Periodic Tasks.vi      Robot Main.vi,0.000000,0.000000,4000.000000,4000.000000,Speed,Speed,-19.670000,1.130000,2.250000,3.000000,102.000000,1,0,0.000000,0.000000,0,0.000000,0.000000,0.000000,1.128494,10.980698,0.000000,-0.003000,0.001000,0.004000
07:55:56.298 PM 02/09/2016,Autonomous Disabled,0,TRUE,-44087,NetComm_CAN_Receive.vi:5470007<APPEND>  <b>Complete call chain:</b>      NetComm_CAN_Receive.vi:5470007      WPI_CANTalonSRX_Receive.vi      WPI_CANTalonSRX_GetStatus.vi      ShooterVI.vi      Periodic Tasks.vi      Robot Main.vi,0.000000,0.000000,4000.000000,4000.000000,Speed,Speed,-19.670000,1.130000,2.250000,3.000000,103.000000,1,0,0.000000,0.000000,0,0.000000,0.000000,0.000000,1.128494,10.980698,0.000000,-0.001000,0.000000,0.002000
07:55:56.398 PM 02/09/2016,Autonomous Disabled,0,TRUE,-44087,NetComm_CAN_Receive.vi:5470007<APPEND>  <b>Complete call chain:</b>      NetComm_CAN_Receive.vi:5470007      WPI_CANTalonSRX_Receive.vi      WPI_CANTalonSRX_GetStatus.vi      ShooterVI.vi      Periodic Tasks.vi      Robot Main.vi,0.000000,0.000000,4000.000000,4000.000000,Speed,Speed,-19.670000,1.130000,2.260000,3.000000,101.000000,1,0,0.000000,0.000000,0,0.000000,0.000000,0.000000,1.128494,10.980698,0.000000,0.000000,0.001000,0.006000
07:55:56.498 PM 02/09/2016,Autonomous Disabled,0,TRUE,-44087,NetComm_CAN_Receive.vi:5470007<APPEND>  <b>Complete call chain:</b>      NetComm_CAN_Receive.vi:5470007      WPI_CANTalonSRX_Receive.vi      WPI_CANTalonSRX_GetStatus.vi      ShooterVI.vi      Periodic Tasks.vi      Robot Main.vi,0.000000,0.000000,4000.000000,4000.000000,Speed,Speed,-19.670000,1.130000,2.260000,3.000000,101.000000,1,0,0.000000,0.000000,0,0.000000,0.000000,0.000000,1.128494,10.980698,0.000000,0.001000,0.002000,0.003000
07:55:56.598 PM 02/09/2016,Autonomous Disabled,0,TRUE,-44087,NetComm_CAN_Receive.vi:5470007<APPEND>  <b>Complete call chain:</b>      NetComm_CAN_Receive.vi:5470007      WPI_CANTalonSRX_Receive.vi      WPI_CANTalonSRX_GetStatus.vi      ShooterVI.vi      Periodic Tasks.vi      Robot Main.vi,0.000000,0.000000,4000.000000,4000.000000,Speed,Speed,-19.670000,1.130000,2.260000,3.000000,102.000000,1,0,0.000000,0.000000,0,0.000000,0.000000,0.000000,1.128494,10.980698,0.000000,0.000000,-0.001000,0.004000
07:55:56.698 PM 02/09/2016,Autonomous Disabled,0,TRUE,-44087,NetComm_CAN_Receive.vi:5470007<APPEND>  <b>Complete call chain:</b>      NetComm_CAN_Receive.vi:5470007      WPI_CANTalonSRX_Receive.vi      WPI_CANTalonSRX_GetStatus.vi      ShooterVI.vi      Periodic Tasks.vi      Robot Main.vi,0.000000,0.000000,4000.000000,4000.000000,Speed,Speed,-19.670000,1.130000,2.260000,3.000000,103.000000,1,0,0.000000,0.000000,0,0.000000,0.000000,0.000000,1.128494,10.980698,0.000000,0.000000,0.000000,0.004000
07:55:56.798 PM 02/09/2016,Autonomous Disabled,0,TRUE,-44087,NetComm_CAN_Receive.vi:5470007<APPEND>  <b>Complete call chain:</b>      NetComm_CAN_Receive.vi:5470007      WPI_CANTalonSRX_Receive.vi      WPI_CANTalonSRX_GetStatus.vi      ShooterVI.vi      Periodic Tasks.vi      Robot Main.vi,0.000000,0.000000,4000.000000,4000.000000,Speed,Speed,-19.670000,1.120000,2.260000,3.000000,101.000000,1,0,0.000000,0.000000,0,0.000000,0.000000,0.000000,1.128494,10.980698,0.000000,0.000000,-0.001000,0.002000
07:55:56.898 PM 02/09/2016,Autonomous Disabled,0,TRUE,-44087,NetComm_CAN_Receive.vi:5470007<APPEND>  <b>Complete call chain:</b>      NetComm_CAN_Receive.vi:5470007      WPI_CANTalonSRX_Receive.vi      WPI_CANTalonSRX_GetStatus.vi      ShooterVI.vi      Periodic Tasks.vi      Robot Main.vi,0.000000,0.000000,4000.000000,4000.000000,Speed,Speed,-19.670000,1.120000,2.260000,3.000000,102.000000,1,0,0.000000,0.000000,0,0.000000,0.000000,0.000000,1.128494,10.980698,0.000000,0.002000,0.000000,0.002000
07:55:56.998 PM 02/09/2016,Autonomous Disabled,0,TRUE,-44087,NetComm_CAN_Receive.vi:5470007<APPEND>  <b>Complete call chain:</b>      NetComm_CAN_Receive.vi:5470007      WPI_CANTalonSRX_Receive.vi      WPI_CANTalonSRX_GetStatus.vi      ShooterVI.vi      Periodic Tasks.vi      Robot Main.vi,0.000000,0.000000,4000.000000,4000.000000,Speed,Speed,-19.670000,1.120000,2.260000,3.000000,101.000000,1,0,0.000000,0.000000,0,0.000000,0.000000,0.000000,1.128494,10.980698,0.000000,-0.001000,-0.001000,0.005000
07:55:57.098 PM 02/09/2016,Autonomous Disabled,0,TRUE,-44087,NetComm_CAN_Receive.vi:5470007<APPEND>  <b>Complete call chain:</b>      NetComm_CAN_Receive.vi:5470007      WPI_CANTalonSRX_Receive.vi      WPI_CANTalonSRX_GetStatus.vi      ShooterVI.vi      Periodic Tasks.vi      Robot Main.vi,0.000000,0.000000,4000.000000,4000.000000,Speed,Speed,-19.670000,1.130000,2.260000,3.000000,102.000000,1,0,0.000000,0.000000,0,0.000000,0.000000,0.000000,1.128494,10.980698,0.000000,-0.002000,-0.001000,0.001000
07:55:57.197 PM 02/09/2016,Autonomous Disabled,0,TRUE,-44087,NetComm_CAN_Receive.vi:5470007<APPEND>  <b>Complete call chain:</b>      NetComm_CAN_Receive.vi:5470007      WPI_CANTalonSRX_Receive.vi      WPI_CANTalonSRX_GetStatus.vi      ShooterVI.vi      Periodic Tasks.vi      Robot Main.vi,0.000000,0.000000,4000.000000,4000.000000,Speed,Speed,-19.670000,1.130000,2.260000,3.000000,101.000000,1,0,0.000000,0.000000,0,0.000000,0.000000,0.000000,1.128494,10.980698,0.000000,-0.001000,-0.003000,0.005000
07:55:57.298 PM 02/09/2016,Autonomous Disabled,0,TRUE,-44087,NetComm_CAN_Receive.vi:5470007<APPEND>  <b>Complete call chain:</b>      NetComm_CAN_Receive.vi:5470007      WPI_CANTalonSRX_Receive.vi      WPI_CANTalonSRX_GetStatus.vi      ShooterVI.vi      Periodic Tasks.vi      Robot Main.vi,0.000000,0.000000,4000.000000,4000.000000,Speed,Speed,-19.670000,1.120000,2.260000,3.000000,102.000000,1,0,0.000000,0.000000,0,0.000000,0.000000,0.000000,1.128494,10.980698,0.000000,0.000000,0.000000,0.001000
07:55:57.398 PM 02/09/2016,Autonomous Disabled,0,TRUE,-44087,NetComm_CAN_Receive.vi:5470007<APPEND>  <b>Complete call chain:</b>      NetComm_CAN_Receive.vi:5470007      WPI_CANTalonSRX_Receive.vi      WPI_CANTalonSRX_GetStatus.vi      ShooterVI.vi      Periodic Tasks.vi      Robot Main.vi,0.000000,0.000000,4000.000000,4000.000000,Speed,Speed,-19.670000,1.120000,2.260000,3.000000,102.000000,1,0,0.000000,0.000000,0,0.000000,0.000000,0.000000,1.128494,10.980698,0.000000,0.001000,0.000000,0.002000
07:55:57.499 PM 02/09/2016,Autonomous Disabled,0,TRUE,-44087,NetComm_CAN_Receive.vi:5470007<APPEND>  <b>Complete call chain:</b>      NetComm_CAN_Receive.vi:5470007      WPI_CANTalonSRX_Receive.vi      WPI_CANTalonSRX_GetStatus.vi      ShooterVI.vi      Periodic Tasks.vi      Robot Main.vi,0.000000,0.000000,4000.000000,4000.000000,Speed,Speed,-19.670000,1.110000,2.260000,3.000000,102.000000,1,0,0.000000,0.000000,0,0.000000,0.000000,0.000000,1.128494,10.980698,0.000000,0.001000,0.000000,0.000000
07:55:57.601 PM 02/09/2016,Autonomous Disabled,0,TRUE,-44087,NetComm_CAN_Receive.vi:5470007<APPEND>  <b>Complete call chain:</b>      NetComm_CAN_Receive.vi:5470007      WPI_CANTalonSRX_Receive.vi      WPI_CANTalonSRX_GetStatus.vi      ShooterVI.vi      Periodic Tasks.vi      Robot Main.vi,0.000000,0.000000,4000.000000,4000.000000,Speed,Speed,-19.670000,1.120000,2.250000,3.000000,102.000000,1,0,0.000000,0.000000,0,0.000000,0.000000,0.000000,1.128494,10.980698,0.000000,0.002000,0.000000,0.001000
07:55:57.701 PM 02/09/2016,Autonomous Disabled,0,TRUE,-44087,NetComm_CAN_Receive.vi:5470007<APPEND>  <b>Complete call chain:</b>      NetComm_CAN_Receive.vi:5470007      WPI_CANTalonSRX_Receive.vi      WPI_CANTalonSRX_GetStatus.vi      ShooterVI.vi      Periodic Tasks.vi      Robot Main.vi,0.000000,0.000000,4000.000000,4000.000000,Speed,Speed,-19.670000,1.110000,2.260000,3.000000,103.000000,1,0,0.000000,0.000000,0,0.000000,0.000000,0.000000,1.128494,10.980698,0.000000,0.001000,0.000000,0.003000
07:55:57.801 PM 02/09/2016,Autonomous Disabled,0,TRUE,-44087,NetComm_CAN_Receive.vi:5470007<APPEND>  <b>Complete call chain:</b>      NetComm_CAN_Receive.vi:5470007      WPI_CANTalonSRX_Receive.vi      WPI_CANTalonSRX_GetStatus.vi      ShooterVI.vi      Periodic Tasks.vi      Robot Main.vi,0.000000,0.000000,4000.000000,4000.000000,Speed,Speed,-19.670000,1.120000,2.260000,3.000000,100.000000,1,0,0.000000,0.000000,0,0.000000,0.000000,0.000000,1.128494,10.980698,0.000000,0.002000,0.000000,0.003000
07:55:57.900 PM 02/09/2016,Autonomous Disabled,0,TRUE,-44087,NetComm_CAN_Receive.vi:5470007<APPEND>  <b>Complete call chain:</b>      NetComm_CAN_Receive.vi:5470007      WPI_CANTalonSRX_Receive.vi      WPI_CANTalonSRX_GetStatus.vi      ShooterVI.vi      Periodic Tasks.vi      Robot Main.vi,0.000000,0.000000,4000.000000,4000.000000,Speed,Speed,-19.670000,1.110000,2.250000,3.000000,102.000000,1,0,0.000000,0.000000,0,0.000000,0.000000,0.000000,1.128494,10.980698,0.000000,0.002000,0.000000,0.003000
07:55:58.002 PM 02/09/2016,Autonomous Disabled,0,TRUE,-44087,NetComm_CAN_Receive.vi:5470007<APPEND>  <b>Complete call chain:</b>      NetComm_CAN_Receive.vi:5470007      WPI_CANTalonSRX_Receive.vi      WPI_CANTalonSRX_GetStatus.vi      ShooterVI.vi      Periodic Tasks.vi      Robot Main.vi,0.000000,0.000000,4000.000000,4000.000000,Speed,Speed,-19.670000,1.120000,2.250000,3.000000,103.000000,1,0,0.000000,0.000000,0,0.000000,0.000000,0.000000,1.128494,10.980698,0.000000,0.001000,0.001000,0.004000
07:55:58.102 PM 02/09/2016,Autonomous Disabled,0,TRUE,-44087,NetComm_CAN_Receive.vi:5470007<APPEND>  <b>Complete call chain:</b>      NetComm_CAN_Receive.vi:5470007      WPI_CANTalonSRX_Receive.vi      WPI_CANTalonSRX_GetStatus.vi      ShooterVI.vi      Periodic Tasks.vi      Robot Main.vi,0.000000,0.000000,4000.000000,4000.000000,Speed,Speed,-19.670000,1.120000,2.250000,3.000000,101.000000,1,0,0.000000,0.000000,0,0.000000,0.000000,0.000000,1.128494,10.980698,0.000000,0.003000,-0.002000,0.004000
07:55:58.202 PM 02/09/2016,Autonomous Disabled,0,TRUE,-44087,NetComm_CAN_Receive.vi:5470007<APPEND>  <b>Complete call chain:</b>      NetComm_CAN_Receive.vi:5470007      WPI_CANTalonSRX_Receive.vi      WPI_CANTalonSRX_GetStatus.vi      ShooterVI.vi      Periodic Tasks.vi      Robot Main.vi,0.000000,0.000000,4000.000000,4000.000000,Speed,Speed,-19.660000,1.120000,2.250000,3.000000,103.000000,1,0,0.000000,0.000000,0,0.000000,0.000000,0.000000,1.128494,10.980698,0.000000,0.001000,0.001000,0.001000
07:55:58.303 PM 02/09/2016,Autonomous Disabled,0,TRUE,-44087,NetComm_CAN_Receive.vi:5470007<APPEND>  <b>Complete call chain:</b>      NetComm_CAN_Receive.vi:5470007      WPI_CANTalonSRX_Receive.vi      WPI_CANTalonSRX_GetStatus.vi      ShooterVI.vi      Periodic Tasks.vi      Robot Main.vi,0.000000,0.000000,4000.000000,4000.000000,Speed,Speed,-19.660000,1.120000,2.240000,3.000000,102.000000,1,0,0.000000,0.000000,0,0.000000,0.000000,0.000000,1.128494,10.980698,0.000000,0.010000,0.009000,0.004000
07:55:58.404 PM 02/09/2016,Autonomous Disabled,0,TRUE,-44087,NetComm_CAN_Receive.vi:5470007<APPEND>  <b>Complete call chain:</b>      NetComm_CAN_Receive.vi:5470007      WPI_CANTalonSRX_Receive.vi      WPI_CANTalonSRX_GetStatus.vi      ShooterVI.vi      Periodic Tasks.vi      Robot Main.vi,0.000000,0.000000,4000.000000,4000.000000,Speed,Speed,-19.620000,1.100000,2.230000,3.000000,102.000000,1,0,0.000000,0.000000,0,0.000000,-0.003571,0.000000,1.128494,10.980667,0.000000,0.009000,-0.025000,0.011000
07:55:58.505 PM 02/09/2016,Autonomous Disabled,0,TRUE,-44087,NetComm_CAN_Receive.vi:5470007<APPEND>  <b>Complete call chain:</b>      NetComm_CAN_Receive.vi:5470007      WPI_CANTalonSRX_Receive.vi      WPI_CANTalonSRX_GetStatus.vi      ShooterVI.vi      Periodic Tasks.vi      Robot Main.vi,0.000000,0.000000,4000.000000,4000.000000,Speed,Speed,-19.220000,1.050000,2.090000,3.000000,100.000000,1,0,0.000000,0.000000,0,0.002869,-0.010376,0.000000,1.128525,10.980331,0.000000,0.032000,-0.069000,0.068000
07:55:58.606 PM 02/09/2016,Autonomous Disabled,0,TRUE,-44087,NetComm_CAN_Receive.vi:5470007<APPEND>  <b>Complete call chain:</b>      NetComm_CAN_Receive.vi:5470007      WPI_CANTalonSRX_Receive.vi      WPI_CANTalonSRX_GetStatus.vi      ShooterVI.vi      Periodic Tasks.vi      Robot Main.vi,0.000000,0.000000,4000.000000,4000.000000,Speed,Speed,-18.370000,1.020000,2.190000,3.000000,101.000000,1,0,0.000000,0.000000,0,0.013412,-0.054932,0.000000,1.128906,10.978500,0.000000,-0.009000,-0.065000,-0.010000
07:55:58.707 PM 02/09/2016,Autonomous Disabled,0,TRUE,-44087,NetComm_CAN_Receive.vi:5470007<APPEND>  <b>Complete call chain:</b>      NetComm_CAN_Receive.vi:5470007      WPI_CANTalonSRX_Receive.vi      WPI_CANTalonSRX_GetStatus.vi      ShooterVI.vi      Periodic Tasks.vi      Robot Main.vi,0.000000,0.000000,4000.000000,4000.000000,Speed,Speed,-17.990000,1.070000,1.760000,3.000000,101.000000,1,0,0.000000,0.000000,0,0.000000,-0.133163,0.000000,1.129410,10.972275,0.000000,-0.017000,-0.040000,-0.027000
07:55:58.808 PM 02/09/2016,Autonomous Disabled,0,TRUE,-44087,NetComm_CAN_Receive.vi:5470007<APPEND>  <b>Complete call chain:</b>      NetComm_CAN_Receive.vi:5470007      WPI_CANTalonSRX_Receive.vi      WPI_CANTalonSRX_GetStatus.vi      ShooterVI.vi      Periodic Tasks.vi      Robot Main.vi,0.000000,0.000000,4000.000000,4000.000000,Speed,Speed,-17.950000,1.110000,1.570000,3.000000,101.000000,1,0,0.000000,0.000000,0,0.008209,-0.152023,0.000000,1.129730,10.964767,0.000000,-0.025000,-0.004000,-0.006000
07:55:58.909 PM 02/09/2016,Autonomous Disabled,0,TRUE,-44087,NetComm_CAN_Receive.vi:5470007<APPEND>  <b>Complete call chain:</b>      NetComm_CAN_Receive.vi:5470007      WPI_CANTalonSRX_Receive.vi      WPI_CANTalonSRX_GetStatus.vi      ShooterVI.vi      Periodic Tasks.vi      Robot Main.vi,0.000000,0.000000,4000.000000,4000.000000,Speed,Speed,-17.280000,1.030000,1.410000,3.000000,103.000000,1,0,0.000000,0.000000,0,-0.018204,0.032166,0.000000,1.129410,10.963760,0.000000,-0.052000,0.084000,-0.019000
07:55:59.010 PM 02/09/2016,Autonomous Disabled,0,TRUE,-44087,NetComm_CAN_Receive.vi:5470007<APPEND>  <b>Complete call chain:</b>      NetComm_CAN_Receive.vi:5470007      WPI_CANTalonSRX_Receive.vi      WPI_CANTalonSRX_GetStatus.vi      ShooterVI.vi      Periodic Tasks.vi      Robot Main.vi,0.000000,0.000000,4000.000000,4000.000000,Speed,Speed,-14.020000,0.450000,1.850000,3.000000,103.000000,1,0,0.000000,0.000000,0,-0.166290,0.128464,0.000000,1.124466,10.968338,0.000000,-0.147000,0.062000,-0.002000
07:55:59.111 PM 02/09/2016,Autonomous Disabled,0,TRUE,-44087,NetComm_CAN_Receive.vi:5470007<APPEND>  <b>Complete call chain:</b>      NetComm_CAN_Receive.vi:5470007      WPI_CANTalonSRX_Receive.vi      WPI_CANTalonSRX_GetStatus.vi      ShooterVI.vi      Periodic Tasks.vi      Robot Main.vi,0.000000,0.000000,4000.000000,4000.000000,Speed,Speed,-6.670000,-0.040000,1.440000,3.000000,102.000000,1,0,0.000000,0.000000,0,-0.244812,0.118759,0.000000,1.112762,10.974701,0.000000,0.037000,0.061000,-0.107000
07:55:59.211 PM 02/09/2016,Autonomous Disabled,0,TRUE,-44087,NetComm_CAN_Receive.vi:5470007<APPEND>  <b>Complete call chain:</b>      NetComm_CAN_Receive.vi:5470007      WPI_CANTalonSRX_Receive.vi      WPI_CANTalonSRX_GetStatus.vi      ShooterVI.vi      Periodic Tasks.vi      Robot Main.vi,0.000000,0.000000,4000.000000,4000.000000,Speed,Speed,0.440000,0.150000,1.770000,3.000000,102.000000,1,0,0.000000,0.000000,0,-0.193512,0.121643,0.000000,1.101913,10.981461,0.000000,0.058000,-0.067000,0.071000
07:55:59.312 PM 02/09/2016,Autonomous Disabled,0,TRUE,-44087,NetComm_CAN_Receive.vi:5470007<APPEND>  <b>Complete call chain:</b>      NetComm_CAN_Receive.vi:5470007      WPI_CANTalonSRX_Receive.vi      WPI_CANTalonSRX_GetStatus.vi      ShooterVI.vi      Periodic Tasks.vi      Robot Main.vi,0.000000,0.000000,4000.000000,4000.000000,Speed,Speed,2.970000,0.180000,1.740000,3.000000,103.000000,1,0,0.000000,0.000000,0,-0.184341,0.079147,0.000000,1.098236,10.983292,0.000000,-0.035000,-0.145000,-0.094000
07:55:59.412 PM 02/09/2016,Autonomous Disabled,0,TRUE,-44087,NetComm_CAN_Receive.vi:5470007<APPEND>  <b>Complete call chain:</b>      NetComm_CAN_Receive.vi:5470007      WPI_CANTalonSRX_Receive.vi      WPI_CANTalonSRX_GetStatus.vi      ShooterVI.vi      Periodic Tasks.vi      Robot Main.vi,0.000000,0.000000,4000.000000,4000.000000,Speed,Speed,7.860000,0.890000,1.600000,3.000000,101.000000,1,0,0.000000,0.000000,0,-0.053268,0.001480,0.000000,1.088638,10.985611,0.000000,-0.113000,0.039000,-0.007000
07:55:59.512 PM 02/09/2016,Autonomous Disabled,0,TRUE,-44087,NetComm_CAN_Receive.vi:5470007<APPEND>  <b>Complete call chain:</b>      NetComm_CAN_Receive.vi:5470007      WPI_CANTalonSRX_Receive.vi      WPI_CANTalonSRX_GetStatus.vi      ShooterVI.vi      Periodic Tasks.vi      Robot Main.vi,0.000000,0.000000,4000.000000,4000.000000,Speed,Speed,8.840000,0.980000,0.150000,3.000000,102.000000,1,0,0.000000,0.000000,0,-0.052704,0.000000,0.000000,1.084351,10.986786,0.000000,0.196000,0.003000,0.015000
07:55:59.612 PM 02/09/2016,Autonomous Disabled,0,TRUE,-44087,NetComm_CAN_Receive.vi:5470007<APPEND>  <b>Complete call chain:</b>      NetComm_CAN_Receive.vi:5470007      WPI_CANTalonSRX_Receive.vi      WPI_CANTalonSRX_GetStatus.vi      ShooterVI.vi      Periodic Tasks.vi      Robot Main.vi,0.000000,0.000000,4000.000000,4000.000000,Speed,Speed,8.560000,1.140000,-0.030000,3.000000,104.000000,1,0,0.000000,0.000000,0,0.000000,-0.033112,0.000000,1.084244,10.986008,0.000000,-0.005000,-0.029000,-0.034000
07:55:59.712 PM 02/09/2016,Autonomous Disabled,0,TRUE,-44087,NetComm_CAN_Receive.vi:5470007<APPEND>  <b>Complete call chain:</b>      NetComm_CAN_Receive.vi:5470007      WPI_CANTalonSRX_Receive.vi      WPI_CANTalonSRX_GetStatus.vi      ShooterVI.vi      Periodic Tasks.vi      Robot Main.vi,0.000000,0.000000,4000.000000,4000.000000,Speed,Speed,6.620000,1.400000,0.810000,3.000000,102.000000,1,0,0.000000,0.000000,0,0.054153,-0.066971,0.000000,1.085617,10.983246,0.000000,0.040000,0.002000,0.027000
07:55:59.812 PM 02/09/2016,Autonomous Disabled,0,TRUE,-44087,NetComm_CAN_Receive.vi:5470007<APPEND>  <b>Complete call chain:</b>      NetComm_CAN_Receive.vi:5470007      WPI_CANTalonSRX_Receive.vi      WPI_CANTalonSRX_GetStatus.vi      ShooterVI.vi      Periodic Tasks.vi      Robot Main.vi,0.000000,0.000000,4000.000000,4000.000000,Speed,Speed,3.710000,1.310000,1.640000,3.000000,102.000000,1,0,0.000000,0.000000,0,0.035202,0.067673,0.000000,1.088531,10.984451,0.000000,-0.046000,0.134000,-0.002000
07:55:59.912 PM 02/09/2016,Autonomous Disabled,0,TRUE,-44087,NetComm_CAN_Receive.vi:5470007<APPEND>  <b>Complete call chain:</b>      NetComm_CAN_Receive.vi:5470007      WPI_CANTalonSRX_Receive.vi      WPI_CANTalonSRX_GetStatus.vi      ShooterVI.vi      Periodic Tasks.vi      Robot Main.vi,0.000000,0.000000,4000.000000,4000.000000,Speed,Speed,1.920000,1.250000,2.230000,3.000000,104.000000,1,0,0.000000,0.000000,0,0.000000,0.195816,0.000000,1.089035,10.991760,0.000000,-0.010000,0.112000,-0.002000
07:56:00.012 PM 02/09/2016,Autonomous Disabled,0,TRUE,-44087,NetComm_CAN_Receive.vi:5470007<APPEND>  <b>Complete call chain:</b>      NetComm_CAN_Receive.vi:5470007      WPI_CANTalonSRX_Receive.vi      WPI_CANTalonSRX_GetStatus.vi      ShooterVI.vi      Periodic Tasks.vi      Robot Main.vi,0.000000,0.000000,4000.000000,4000.000000,Speed,Speed,1.780000,1.050000,2.530000,3.000000,102.000000,1,0,0.000000,0.000000,0,-0.040009,0.280807,0.000000,1.087891,11.004349,0.000000,-0.025000,0.057000,-0.005000
07:56:00.112 PM 02/09/2016,Autonomous Disabled,0,TRUE,-44087,NetComm_CAN_Receive.vi:5470007<APPEND>  <b>Complete call chain:</b>      NetComm_CAN_Receive.vi:5470007      WPI_CANTalonSRX_Receive.vi      WPI_CANTalonSRX_GetStatus.vi      ShooterVI.vi      Periodic Tasks.vi      Robot Main.vi,0.000000,0.000000,4000.000000,4000.000000,Speed,Speed,2.510000,1.070000,2.880000,3.000000,102.000000,1,0,0.000000,0.000000,0,0.004379,-0.003342,0.000000,1.087051,11.013351,0.000000,0.014000,-0.004000,0.020000
07:56:00.212 PM 02/09/2016,Autonomous Disabled,0,TRUE,-44087,NetComm_CAN_Receive.vi:5470007<APPEND>  <b>Complete call chain:</b>      NetComm_CAN_Receive.vi:5470007      WPI_CANTalonSRX_Receive.vi      WPI_CANTalonSRX_GetStatus.vi      ShooterVI.vi      Periodic Tasks.vi      Robot Main.vi,0.000000,0.000000,4000.000000,4000.000000,Speed,Speed,2.630000,1.100000,3.030000,3.000000,103.000000,1,0,0.000000,0.000000,0,0.000000,-0.014999,0.000000,1.087234,11.012817,0.000000,0.023000,-0.004000,0.003000
07:56:00.312 PM 02/09/2016,Autonomous Disabled,0,TRUE,-44087,NetComm_CAN_Receive.vi:5470007<APPEND>  <b>Complete call chain:</b>      NetComm_CAN_Receive.vi:5470007      WPI_CANTalonSRX_Receive.vi      WPI_CANTalonSRX_GetStatus.vi      ShooterVI.vi      Periodic Tasks.vi      Robot Main.vi,0.000000,0.000000,4000.000000,4000.000000,Speed,Speed,1.890000,1.190000,2.980000,3.000000,101.000000,1,0,0.000000,0.000000,0,0.000000,0.000000,0.000000,1.087479,11.012817,0.000000,0.004000,0.015000,0.003000
07:56:00.413 PM 02/09/2016,Autonomous Disabled,0,TRUE,-44087,NetComm_CAN_Receive.vi:5470007<APPEND>  <b>Complete call chain:</b>      NetComm_CAN_Receive.vi:5470007      WPI_CANTalonSRX_Receive.vi      WPI_CANTalonSRX_GetStatus.vi      ShooterVI.vi      Periodic Tasks.vi      Robot Main.vi,0.000000,0.000000,4000.000000,4000.000000,Speed,Speed,1.260000,1.190000,3.160000,3.000000,105.000000,1,0,0.000000,0.000000,0,-0.008408,0.011993,0.000000,1.087372,11.012985,0.000000,-0.020000,0.065000,0.012000
07:56:00.512 PM 02/09/2016,Autonomous Disabled,0,TRUE,-44087,NetComm_CAN_Receive.vi:5470007<APPEND>  <b>Complete call chain:</b>      NetComm_CAN_Receive.vi:5470007      WPI_CANTalonSRX_Receive.vi      WPI_CANTalonSRX_GetStatus.vi      ShooterVI.vi      Periodic Tasks.vi      Robot Main.vi,0.000000,0.000000,4000.000000,4000.000000,Speed,Speed,1.350000,1.140000,3.630000,3.000000,100.000000,1,0,0.000000,0.000000,0,0.000000,0.068939,0.000000,1.086945,11.015427,0.000000,0.000000,0.034000,-0.011000
07:56:00.613 PM 02/09/2016,Autonomous Disabled,0,TRUE,-44087,NetComm_CAN_Receive.vi:5470007<APPEND>  <b>Complete call chain:</b>      NetComm_CAN_Receive.vi:5470007      WPI_CANTalonSRX_Receive.vi      WPI_CANTalonSRX_GetStatus.vi      ShooterVI.vi      Periodic Tasks.vi      Robot Main.vi,0.000000,0.000000,4000.000000,4000.000000,Speed,Speed,1.620000,1.140000,3.460000,3.000000,101.000000,1,0,0.000000,0.000000,0,0.003586,0.052795,0.000000,1.086975,11.018906,0.000000,0.011000,-0.069000,0.019000
07:56:00.712 PM 02/09/2016,Autonomous Disabled,0,TRUE,-44087,NetComm_CAN_Receive.vi:5470007<APPEND>  <b>Complete call chain:</b>      NetComm_CAN_Receive.vi:5470007      WPI_CANTalonSRX_Receive.vi      WPI_CANTalonSRX_GetStatus.vi      ShooterVI.vi      Periodic Tasks.vi      Robot Main.vi,0.000000,0.000000,4000.000000,4000.000000,Speed,Speed,1.490000,1.130000,3.410000,3.000000,102.000000,1,0,0.000000,0.000000,0,0.001358,0.023422,0.000000,1.087189,11.020203,0.000000,0.014000,0.028000,0.011000
07:56:00.812 PM 02/09/2016,Autonomous Disabled,0,TRUE,-44087,NetComm_CAN_Receive.vi:5470007<APPEND>  <b>Complete call chain:</b>      NetComm_CAN_Receive.vi:5470007      WPI_CANTalonSRX_Receive.vi      WPI_CANTalonSRX_GetStatus.vi      ShooterVI.vi      Periodic Tasks.vi      Robot Main.vi,0.000000,0.000000,4000.000000,4000.000000,Speed,Speed,1.720000,1.110000,3.540000,3.000000,101.000000,1,0,0.000000,0.000000,0,0.000000,0.000000,0.000000,1.087189,11.021622,0.000000,0.010000,-0.016000,0.000000
