Time,RobotMode,AutoToRun,ErrorStatus, ErrorCode,ErrorSource,ActualRPM1,ActualRPM2,DesiredRPM1,DesiredRPM2,ControlMode1,ControlMode2,Yaw,Roll,Pitch,ShooterState,LoopTime,IsLevel,IsAutoTargeting,LeftMotorOutput,RightMotorOutput
02:29:37.053 PM 02/06/2016,Teleop Enabled,0,TRUE,-63195,Read/Write Control in FPGA_UtilitiesRead LocalTime.vi:870006->navX Library v2.lvlib:Z900_navX_Internal_ProcessingLoop.vi:2030001,0.000000,0.000000,0.000000,0.000000,Speed,Speed,0.000000,0.000000,0.000000,0.000000,101.000000,0,0,-0.003968,-0.005022,0
02:29:37.153 PM 02/06/2016,Teleop Enabled,0,TRUE,-63195,Read/Write Control in FPGA_UtilitiesRead LocalTime.vi:870006->navX Library v2.lvlib:Z900_navX_Internal_ProcessingLoop.vi:2030001,0.000000,0.000000,0.000000,0.000000,Speed,Speed,0.000000,0.000000,0.000000,0.000000,102.000000,0,0,-0.003968,-0.005022,0
02:29:37.253 PM 02/06/2016,Teleop Enabled,0,TRUE,-63195,Read/Write Control in FPGA_UtilitiesRead LocalTime.vi:870006->navX Library v2.lvlib:Z900_navX_Internal_ProcessingLoop.vi:2030001,0.000000,0.000000,0.000000,0.000000,Speed,Speed,0.000000,0.000000,0.000000,0.000000,100.000000,0,0,-0.003968,-0.005022,0
02:29:37.354 PM 02/06/2016,Teleop Enabled,0,TRUE,-63195,Read/Write Control in FPGA_UtilitiesRead LocalTime.vi:870006->navX Library v2.lvlib:Z900_navX_Internal_ProcessingLoop.vi:2030001,0.000000,0.000000,0.000000,0.000000,Speed,Speed,0.000000,0.000000,0.000000,0.000000,100.000000,0,0,-0.003968,-0.005022,0
02:29:37.454 PM 02/06/2016,Teleop Enabled,0,TRUE,-63195,Read/Write Control in FPGA_AIAverageBits.vi->WPI_AnalogModuleOpen.vi->WPI_AnalogChannelOpen.vi->WPI_GyroAnalogOpen.vi->Begin.vi->Robot Main.vi,0.000000,0.000000,0.000000,0.000000,Speed,Speed,0.000000,0.000000,0.000000,0.000000,103.000000,0,0,-0.003968,-0.005022,0
02:29:37.556 PM 02/06/2016,Teleop Enabled,0,TRUE,-63195,Read/Write Control in FPGA_AIAverageBits.vi->WPI_AnalogModuleOpen.vi->WPI_AnalogChannelOpen.vi->WPI_GyroAnalogOpen.vi->Begin.vi->Robot Main.vi,0.000000,0.000000,0.000000,0.000000,Speed,Speed,0.000000,0.000000,0.000000,0.000000,100.000000,0,0,-0.003968,-0.005022,0
02:29:37.657 PM 02/06/2016,Teleop Enabled,0,TRUE,-63195,Read/Write Control in FPGA_DIOReadLoopTiming.vi->WPI_DigitalModuleOpen.vi->WPI_MotorControlOpen&ConfigurePWM.vi->WPI_MotorControlOpen VictorSP.vi->WPI_RobotDriveOpen4MotorWithVictorSP.vi->Begin.vi->Robot Main.vi,0.000000,0.000000,0.000000,0.000000,Speed,Speed,0.000000,0.000000,0.000000,0.000000,102.000000,0,0,-0.003968,-0.005022,0
02:29:37.758 PM 02/06/2016,Teleop Enabled,0,TRUE,-63195,Read/Write Control in FPGA_AIAverageBits.vi->WPI_AnalogModuleOpen.vi->WPI_AnalogChannelOpen.vi->WPI_GyroAnalogOpen.vi->Begin.vi->Robot Main.vi,0.000000,0.000000,0.000000,0.000000,Speed,Speed,0.000000,0.000000,0.000000,0.000000,101.000000,0,0,-0.003968,-0.005022,0
02:29:37.859 PM 02/06/2016,Teleop Enabled,0,TRUE,-63195,Read/Write Control in FPGA_DIOReadOutputEnable.vi->WPI_DigitalModuleDIOAllocator.vi->WPI_DigitalInputOpen.vi->Begin.vi->Robot Main.vi,0.000000,0.000000,-6000.000000,-6000.000000,Speed,Speed,0.000000,0.000000,0.000000,1.000000,101.000000,0,0,-0.003968,-0.005022,0
02:29:37.961 PM 02/06/2016,Teleop Enabled,0,TRUE,-63195,Read/Write Control in FPGA_DIOReadLoopTiming.vi->WPI_DigitalModuleOpen.vi->WPI_MotorControlOpen&ConfigurePWM.vi->WPI_MotorControlOpen VictorSP.vi->WPI_RobotDriveOpen4MotorWithVictorSP.vi->Begin.vi->Robot Main.vi,0.000000,0.000000,0.000000,0.000000,Speed,Speed,0.000000,0.000000,0.000000,2.000000,101.000000,0,0,-0.003968,-0.005022,0
02:29:38.062 PM 02/06/2016,Teleop Enabled,0,TRUE,-63195,Read/Write Control in FPGA_UtilitiesRead LocalTime.vi:870006->navX Library v2.lvlib:Z900_navX_Internal_ProcessingLoop.vi:2030001,0.000000,0.000000,0.000000,0.000000,Speed,Speed,0.000000,0.000000,0.000000,2.000000,101.000000,0,0,-0.003968,-0.005022,0
02:29:38.164 PM 02/06/2016,Teleop Enabled,0,TRUE,-63195,Read/Write Control in FPGA_DIOReadOutputEnable.vi->WPI_DigitalModuleDIOAllocator.vi->WPI_DigitalInputOpen.vi->Begin.vi->Robot Main.vi,0.000000,0.000000,0.000000,0.000000,Speed,Speed,0.000000,0.000000,0.000000,2.000000,100.000000,0,0,-0.003968,-0.005022,0
02:29:38.264 PM 02/06/2016,Teleop Enabled,0,TRUE,-63195,Read/Write Control in FPGA_DIOReadOutputEnable.vi->WPI_DigitalModuleDIOAllocator.vi->WPI_DigitalInputOpen.vi->Begin.vi->Robot Main.vi,0.000000,0.000000,0.000000,0.000000,Speed,Speed,0.000000,0.000000,0.000000,2.000000,101.000000,0,0,-0.003968,-0.005022,0
02:29:38.364 PM 02/06/2016,Teleop Enabled,0,TRUE,-63195,Read/Write Control in FPGA_DIOReadOutputEnable.vi->WPI_DigitalModuleDIOAllocator.vi->WPI_DigitalInputOpen.vi->Begin.vi->Robot Main.vi,0.000000,0.000000,0.000000,0.000000,Speed,Speed,0.000000,0.000000,0.000000,2.000000,101.000000,0,0,-0.003968,-0.005022,0
02:29:38.465 PM 02/06/2016,Teleop Enabled,0,TRUE,-63195,Read/Write Control in FPGA_DIOReadOutputEnable.vi->WPI_DigitalModuleDIOAllocator.vi->WPI_DigitalInputOpen.vi->Begin.vi->Robot Main.vi,0.000000,0.000000,0.000000,0.000000,Speed,Speed,0.000000,0.000000,0.000000,2.000000,102.000000,0,0,-0.003968,-0.005022,0
02:29:38.565 PM 02/06/2016,Teleop Enabled,0,TRUE,-63195,Read/Write Control in FPGA_DIOReadOutputEnable.vi->WPI_DigitalModuleDIOAllocator.vi->WPI_DigitalInputOpen.vi->Begin.vi->Robot Main.vi,0.000000,0.000000,0.000000,0.000000,Speed,Speed,0.000000,0.000000,0.000000,2.000000,101.000000,0,0,-0.003968,-0.005022,0
02:29:38.666 PM 02/06/2016,Teleop Enabled,0,TRUE,-63195,Read/Write Control in FPGA_DIOReadOutputEnable.vi->WPI_DigitalModuleDIOAllocator.vi->WPI_DigitalInputOpen.vi->Begin.vi->Robot Main.vi,0.000000,0.000000,0.000000,0.000000,Speed,Speed,0.000000,0.000000,0.000000,2.000000,102.000000,0,0,-0.003968,-0.005022,0
02:29:38.767 PM 02/06/2016,Teleop Enabled,0,TRUE,-63195,Read/Write Control in FPGA_UtilitiesRead LocalTime.vi:870006->navX Library v2.lvlib:Z900_navX_Internal_ProcessingLoop.vi:2030001,0.000000,0.000000,0.000000,0.000000,Speed,Speed,0.000000,0.000000,0.000000,2.000000,100.000000,0,0,-0.003968,-0.005022,0
02:29:38.867 PM 02/06/2016,Teleop Enabled,0,TRUE,-63195,Read/Write Control in FPGA_UtilitiesRead LocalTime.vi:870006->navX Library v2.lvlib:Z900_navX_Internal_ProcessingLoop.vi:2030001,0.000000,0.000000,0.000000,0.000000,Speed,Speed,0.000000,0.000000,0.000000,2.000000,102.000000,0,0,-0.003968,-0.005022,0
02:29:38.967 PM 02/06/2016,Teleop Enabled,0,TRUE,-63195,Read/Write Control in FPGA_UtilitiesRead LocalTime.vi:870006->navX Library v2.lvlib:Z900_navX_Internal_ProcessingLoop.vi:2030001,0.000000,0.000000,0.000000,0.000000,Speed,Speed,0.000000,0.000000,0.000000,2.000000,100.000000,0,0,-0.003968,-0.005022,0
02:29:39.068 PM 02/06/2016,Teleop Enabled,0,TRUE,-63195,Read/Write Control in FPGA_UtilitiesRead LocalTime.vi:870006->navX Library v2.lvlib:Z900_navX_Internal_ProcessingLoop.vi:2030001,0.000000,0.000000,0.000000,0.000000,Speed,Speed,0.000000,0.000000,0.000000,2.000000,101.000000,0,0,-0.003968,-0.005022,0
02:29:39.169 PM 02/06/2016,Teleop Enabled,0,TRUE,-63195,Read/Write Control in FPGA_UtilitiesRead LocalTime.vi:870006->navX Library v2.lvlib:Z900_navX_Internal_ProcessingLoop.vi:2030001,0.000000,0.000000,4000.000000,4000.000000,Speed,Speed,0.000000,0.000000,0.000000,3.000000,100.000000,0,0,-0.003968,-0.005022,0
02:29:39.271 PM 02/06/2016,Teleop Enabled,0,TRUE,-63195,Read/Write Control in FPGA_UtilitiesRead LocalTime.vi:870006->navX Library v2.lvlib:Z900_navX_Internal_ProcessingLoop.vi:2030001,0.000000,0.000000,4000.000000,4000.000000,Speed,Speed,0.000000,0.000000,0.000000,3.000000,102.000000,0,0,-0.003968,-0.005022,0
02:29:39.371 PM 02/06/2016,Teleop Enabled,0,TRUE,-63195,Read/Write Control in FPGA_UtilitiesRead LocalTime.vi:870006->navX Library v2.lvlib:Z900_navX_Internal_ProcessingLoop.vi:2030001,0.000000,0.000000,4000.000000,4000.000000,Speed,Speed,0.000000,0.000000,0.000000,3.000000,100.000000,0,0,-0.003968,-0.005022,0
02:29:39.471 PM 02/06/2016,Teleop Enabled,0,TRUE,-63195,Read/Write Control in FPGA_UtilitiesRead LocalTime.vi:870009->navX Library v2.lvlib:Z900_navX_Internal_ProcessingLoop.vi:2030002,0.000000,0.000000,4000.000000,4000.000000,Speed,Speed,0.000000,0.000000,0.000000,3.000000,100.000000,0,0,-0.003968,-0.005022,0
02:29:39.572 PM 02/06/2016,Teleop Enabled,0,TRUE,-63195,Read/Write Control in FPGA_UtilitiesRead LocalTime.vi:870006->navX Library v2.lvlib:Z900_navX_Internal_ProcessingLoop.vi:2030001,0.000000,0.000000,4000.000000,4000.000000,Speed,Speed,0.000000,0.000000,0.000000,3.000000,101.000000,0,0,-0.003968,-0.005022,0
02:29:39.673 PM 02/06/2016,Teleop Enabled,0,TRUE,-63195,Read/Write Control in FPGA_UtilitiesRead LocalTime.vi:870006->navX Library v2.lvlib:Z900_navX_Internal_ProcessingLoop.vi:2030001,0.000000,0.000000,4000.000000,4000.000000,Speed,Speed,0.000000,0.000000,0.000000,3.000000,101.000000,0,0,-0.003968,-0.005022,0
02:29:39.773 PM 02/06/2016,Teleop Enabled,0,TRUE,-63195,Read/Write Control in FPGA_UtilitiesRead LocalTime.vi:870010->navX Library v2.lvlib:Z900_navX_Internal_ProcessingLoop.vi:2030002,0.000000,0.000000,4000.000000,4000.000000,Speed,Speed,0.000000,0.000000,0.000000,3.000000,101.000000,0,0,-0.003968,-0.005022,0
02:29:39.874 PM 02/06/2016,Teleop Enabled,0,TRUE,-63195,Read/Write Control in FPGA_UtilitiesRead LocalTime.vi:870006->navX Library v2.lvlib:Z900_navX_Internal_ProcessingLoop.vi:2030001,0.000000,0.000000,4000.000000,4000.000000,Speed,Speed,0.000000,0.000000,0.000000,3.000000,100.000000,0,0,-0.003968,-0.005022,0
02:29:39.975 PM 02/06/2016,Teleop Enabled,0,TRUE,-44029,<LOCATION>WPI_SPIBusCache.vi<CALLSTACK>WPI_SPIBusCache.vi< <WPI_SPIOpen.vi< <navX Library v2.lvlib:Z900_navX_Internal_Open.vi< <navX Library v2.lvlib:Z900_navX_Internal_ProcessingLoop.vi:2030002,0.000000,0.000000,4000.000000,4000.000000,Speed,Speed,0.000000,0.000000,0.000000,3.000000,101.000000,0,0,-0.003968,-0.005022,0
02:29:40.075 PM 02/06/2016,Teleop Enabled,0,TRUE,-63195,Read/Write Control in FPGA_UtilitiesRead LocalTime.vi:870006->navX Library v2.lvlib:Z900_navX_Internal_ProcessingLoop.vi:2030001,0.000000,0.000000,4000.000000,4000.000000,Speed,Speed,0.000000,0.000000,0.000000,3.000000,101.000000,0,0,-0.003968,-0.005022,0
02:29:40.175 PM 02/06/2016,Teleop Enabled,0,TRUE,-63195,Read/Write Control in FPGA_UtilitiesRead LocalTime.vi:870010->navX Library v2.lvlib:Z900_navX_Internal_ProcessingLoop.vi:2030002,0.000000,0.000000,4000.000000,4000.000000,Speed,Speed,0.000000,0.000000,0.000000,3.000000,102.000000,0,0,-0.003968,-0.005022,0
02:29:40.275 PM 02/06/2016,Teleop Enabled,0,TRUE,-63195,Read/Write Control in FPGA_UtilitiesRead LocalTime.vi:870006->navX Library v2.lvlib:Z900_navX_Internal_ProcessingLoop.vi:2030001,0.000000,0.000000,4000.000000,4000.000000,Speed,Speed,0.000000,0.000000,0.000000,3.000000,100.000000,0,0,-0.003968,-0.005022,0
02:29:40.375 PM 02/06/2016,Teleop Enabled,0,TRUE,-63195,Read/Write Control in FPGA_UtilitiesRead LocalTime.vi:870006->navX Library v2.lvlib:Z900_navX_Internal_ProcessingLoop.vi:2030001,0.000000,0.000000,4000.000000,4000.000000,Speed,Speed,0.000000,0.000000,0.000000,3.000000,102.000000,0,0,-0.003968,-0.005022,0
02:29:40.475 PM 02/06/2016,Teleop Enabled,0,TRUE,-63195,Read/Write Control in FPGA_UtilitiesRead LocalTime.vi:870006->navX Library v2.lvlib:Z900_navX_Internal_ProcessingLoop.vi:2030001,0.000000,0.000000,4000.000000,4000.000000,Speed,Speed,0.000000,0.000000,0.000000,3.000000,102.000000,0,0,-0.003968,-0.005022,0
02:29:40.576 PM 02/06/2016,Teleop Enabled,0,TRUE,-63195,Read/Write Control in FPGA_UtilitiesRead LocalTime.vi:870006->navX Library v2.lvlib:Z900_navX_Internal_ProcessingLoop.vi:2030001,0.000000,0.000000,4000.000000,4000.000000,Speed,Speed,0.000000,0.000000,0.000000,3.000000,101.000000,0,0,-0.003968,-0.005022,0
02:29:40.676 PM 02/06/2016,Teleop Enabled,0,TRUE,-63195,Read/Write Control in FPGA_UtilitiesRead LocalTime.vi:870006->navX Library v2.lvlib:Z900_navX_Internal_ProcessingLoop.vi:2030001,0.000000,0.000000,4000.000000,4000.000000,Speed,Speed,0.000000,0.000000,0.000000,3.000000,101.000000,0,0,-0.003968,-0.005022,0
02:29:40.777 PM 02/06/2016,Teleop Enabled,0,TRUE,-63195,Read/Write Control in FPGA_UtilitiesRead LocalTime.vi:870006->navX Library v2.lvlib:Z900_navX_Internal_ProcessingLoop.vi:2030001,0.000000,0.000000,4000.000000,4000.000000,Speed,Speed,0.000000,0.000000,0.000000,3.000000,101.000000,0,0,-0.003968,-0.005022,0
02:29:40.877 PM 02/06/2016,Teleop Enabled,0,TRUE,-63195,Read/Write Control in FPGA_UtilitiesRead LocalTime.vi:870006->navX Library v2.lvlib:Z900_navX_Internal_ProcessingLoop.vi:2030001,0.000000,0.000000,4000.000000,4000.000000,Speed,Speed,0.000000,0.000000,0.000000,3.000000,101.000000,0,0,-0.003968,-0.005022,0
02:29:40.977 PM 02/06/2016,Teleop Enabled,0,TRUE,-63195,Read/Write Control in FPGA_UtilitiesRead LocalTime.vi:870006->navX Library v2.lvlib:Z900_navX_Internal_ProcessingLoop.vi:2030001,0.000000,0.000000,4000.000000,4000.000000,Speed,Speed,0.000000,0.000000,0.000000,3.000000,100.000000,0,0,-0.003968,-0.005022,0
02:29:41.077 PM 02/06/2016,Teleop Enabled,0,TRUE,-63195,Read/Write Control in FPGA_UtilitiesRead LocalTime.vi:870006->navX Library v2.lvlib:Z900_navX_Internal_ProcessingLoop.vi:2030001,0.000000,0.000000,4000.000000,4000.000000,Speed,Speed,0.000000,0.000000,0.000000,3.000000,101.000000,0,0,-0.003968,-0.005022,0
02:29:41.179 PM 02/06/2016,Teleop Enabled,0,TRUE,-63195,Read/Write Control in FPGA_UtilitiesRead LocalTime.vi:870006->navX Library v2.lvlib:Z900_navX_Internal_ProcessingLoop.vi:2030001,0.000000,0.000000,4000.000000,4000.000000,Speed,Speed,0.000000,0.000000,0.000000,3.000000,100.000000,0,0,-0.003968,-0.005022,0
02:29:41.280 PM 02/06/2016,Teleop Enabled,0,TRUE,-63195,Read/Write Control in FPGA_UtilitiesRead LocalTime.vi:870006->navX Library v2.lvlib:Z900_navX_Internal_ProcessingLoop.vi:2030001,0.000000,0.000000,4000.000000,4000.000000,Speed,Speed,0.000000,0.000000,0.000000,3.000000,102.000000,0,0,-0.003968,-0.005022,0
02:29:41.380 PM 02/06/2016,Teleop Enabled,0,TRUE,-63195,Read/Write Control in FPGA_UtilitiesRead LocalTime.vi:870006->navX Library v2.lvlib:Z900_navX_Internal_ProcessingLoop.vi:2030001,0.000000,0.000000,4000.000000,4000.000000,Speed,Speed,0.000000,0.000000,0.000000,3.000000,101.000000,0,0,-0.003968,-0.005022,0
02:29:41.481 PM 02/06/2016,Teleop Enabled,0,TRUE,-63195,Read/Write Control in FPGA_UtilitiesRead LocalTime.vi:870006->navX Library v2.lvlib:Z900_navX_Internal_ProcessingLoop.vi:2030001,0.000000,0.000000,4000.000000,4000.000000,Speed,Speed,0.000000,0.000000,0.000000,3.000000,100.000000,0,0,-0.003968,-0.005022,0
02:29:41.583 PM 02/06/2016,Teleop Enabled,0,TRUE,-63195,Read/Write Control in FPGA_UtilitiesRead LocalTime.vi:870006->navX Library v2.lvlib:Z900_navX_Internal_ProcessingLoop.vi:2030001,0.000000,0.000000,4000.000000,4000.000000,Speed,Speed,0.000000,0.000000,0.000000,3.000000,102.000000,0,0,-0.003968,-0.005022,0
02:29:41.683 PM 02/06/2016,Teleop Enabled,0,TRUE,-63195,Read/Write Control in FPGA_UtilitiesRead LocalTime.vi:870006->navX Library v2.lvlib:Z900_navX_Internal_ProcessingLoop.vi:2030001,0.000000,0.000000,4000.000000,4000.000000,Speed,Speed,0.000000,0.000000,0.000000,3.000000,100.000000,0,0,-0.003968,-0.005022,0
02:29:41.784 PM 02/06/2016,Teleop Enabled,0,TRUE,-63195,Read/Write Control in FPGA_UtilitiesRead LocalTime.vi:870006->navX Library v2.lvlib:Z900_navX_Internal_ProcessingLoop.vi:2030001,0.000000,0.000000,4000.000000,4000.000000,Speed,Speed,0.000000,0.000000,0.000000,3.000000,101.000000,0,0,-0.003968,-0.005022,0
02:29:41.884 PM 02/06/2016,Teleop Enabled,0,TRUE,-63195,Read/Write Control in FPGA_AIAverageBits.vi->WPI_AnalogModuleOpen.vi->WPI_AnalogChannelOpen.vi->WPI_GyroAnalogOpen.vi->Begin.vi->Robot Main.vi,0.000000,0.000000,4000.000000,4000.000000,Speed,Speed,0.000000,0.000000,0.000000,3.000000,102.000000,0,0,-0.003968,-0.005022,0
02:29:41.984 PM 02/06/2016,Teleop Enabled,0,TRUE,-44071,<LOCATION>WPI_AccumulatorGetOutput.vi<CALLSTACK>WPI_AccumulatorGetOutput.vi< <WPI_GyroAnalogOpen.vi< <Begin.vi< <Robot Main.vi,0.000000,0.000000,4000.000000,4000.000000,Speed,Speed,0.000000,0.000000,0.000000,3.000000,101.000000,0,0,-0.003968,-0.005022,0
02:29:42.085 PM 02/06/2016,Teleop Enabled,0,TRUE,-44071,<LOCATION>WPI_AccumulatorGetOutput.vi<CALLSTACK>WPI_AccumulatorGetOutput.vi< <WPI_GyroAnalogOpen.vi< <Begin.vi< <Robot Main.vi,0.000000,0.000000,4000.000000,4000.000000,Speed,Speed,0.000000,0.000000,0.000000,3.000000,100.000000,0,0,-0.003968,-0.005022,0
02:29:42.186 PM 02/06/2016,Teleop Enabled,0,TRUE,-44070,<LOCATION>FPGA_AIReadAccumulatorOutput.vi<CALLSTACK>FPGA_AIReadAccumulatorOutput.vi< <WPI_AccumulatorGetOutput.vi< <WPI_GyroAnalogOpen.vi< <Begin.vi< <Robot Main.vi,0.000000,0.000000,4000.000000,4000.000000,Speed,Speed,0.000000,0.000000,0.000000,3.000000,101.000000,0,0,-0.003968,-0.005022,0
02:29:42.287 PM 02/06/2016,Teleop Enabled,0,TRUE,-63195,Read/Write Control in FPGA_AIReadConfig.vi->WPI_AccumulatorGetOutput.vi->WPI_GyroAnalogOpen.vi->Begin.vi->Robot Main.vi,0.000000,0.000000,4000.000000,4000.000000,Speed,Speed,0.000000,0.000000,0.000000,3.000000,100.000000,0,0,-0.003968,-0.005022,0
02:29:42.388 PM 02/06/2016,Teleop Enabled,0,TRUE,-63195,Read/Write Control in FPGA_AIReadConfig.vi->WPI_AccumulatorGetOutput.vi->WPI_GyroAnalogOpen.vi->Begin.vi->Robot Main.vi,0.000000,0.000000,4000.000000,4000.000000,Speed,Speed,0.000000,0.000000,0.000000,3.000000,101.000000,0,0,-0.003968,-0.005022,0
02:29:42.489 PM 02/06/2016,Teleop Enabled,0,TRUE,-44071,<LOCATION>WPI_AccumulatorGetOutput.vi<CALLSTACK>WPI_AccumulatorGetOutput.vi< <WPI_GyroAnalogGetAngle.vi< <WPI_GyroGetAngle.vi< <Periodic Tasks.vi< <Robot Main.vi,0.000000,0.000000,4000.000000,4000.000000,Speed,Speed,0.000000,0.000000,0.000000,3.000000,101.000000,0,0,-0.003968,-0.005022,0
02:29:42.589 PM 02/06/2016,Teleop Enabled,0,TRUE,-44071,<LOCATION>WPI_AccumulatorGetOutput.vi<CALLSTACK>WPI_AccumulatorGetOutput.vi< <WPI_GyroAnalogGetAngle.vi< <WPI_GyroGetAngle.vi< <Periodic Tasks.vi< <Robot Main.vi,0.000000,0.000000,4000.000000,4000.000000,Speed,Speed,0.000000,0.000000,0.000000,3.000000,102.000000,0,0,-0.003968,-0.005022,0
02:29:42.690 PM 02/06/2016,Teleop Enabled,0,TRUE,-44070,<LOCATION>FPGA_AIReadAccumulatorOutput.vi<CALLSTACK>FPGA_AIReadAccumulatorOutput.vi< <WPI_AccumulatorGetOutput.vi< <WPI_GyroAnalogGetAngle.vi< <WPI_GyroGetAngle.vi< <Periodic Tasks.vi< <Robot Main.vi,0.000000,0.000000,4000.000000,4000.000000,Speed,Speed,0.000000,0.000000,0.000000,3.000000,102.000000,0,0,-0.003968,-0.005022,0
02:29:42.790 PM 02/06/2016,Teleop Enabled,0,TRUE,-63195,Read/Write Control in FPGA_AIReadConfig.vi->WPI_AccumulatorGetOutput.vi->WPI_GyroAnalogGetAngle.vi->WPI_GyroGetAngle.vi->Periodic Tasks.vi->Robot Main.vi,0.000000,0.000000,4000.000000,4000.000000,Speed,Speed,0.000000,0.000000,0.000000,3.000000,102.000000,0,0,-0.003968,-0.005022,0
02:29:42.891 PM 02/06/2016,Teleop Enabled,0,TRUE,-44071,<LOCATION>FPGA_ReadAI.vi<CALLSTACK>FPGA_ReadAI.vi< <WPI_GyroAnalogGetAngle.vi< <WPI_GyroGetAngle.vi< <Periodic Tasks.vi< <Robot Main.vi,0.000000,0.000000,4000.000000,4000.000000,Speed,Speed,0.000000,0.000000,0.000000,3.000000,100.000000,0,0,-0.003968,-0.005022,0
02:29:42.992 PM 02/06/2016,Teleop Enabled,0,TRUE,-44071,<LOCATION>FPGA_ReadAI.vi<CALLSTACK>FPGA_ReadAI.vi< <WPI_GyroAnalogGetAngle.vi< <WPI_GyroGetAngle.vi< <Periodic Tasks.vi< <Robot Main.vi,0.000000,0.000000,4000.000000,4000.000000,Speed,Speed,0.000000,0.000000,0.000000,3.000000,100.000000,0,0,-0.003968,-0.005022,0
02:29:43.093 PM 02/06/2016,Teleop Enabled,0,TRUE,-63195,Read/Write Control in FPGA_AIReadConfig.vi->WPI_AccumulatorGetOutput.vi->WPI_GyroAnalogOpen.vi->Begin.vi->Robot Main.vi,0.000000,0.000000,4000.000000,4000.000000,Speed,Speed,0.000000,0.000000,0.000000,3.000000,103.000000,0,0,-0.003968,-0.005022,0
02:29:43.194 PM 02/06/2016,Teleop Enabled,0,TRUE,-44071,<LOCATION>WPI_AnalogChannelValueToVoltage.vi<CALLSTACK>WPI_AnalogChannelValueToVoltage.vi< <WPI_GyroAnalogGetAngle.vi< <WPI_GyroGetAngle.vi< <Periodic Tasks.vi< <Robot Main.vi,0.000000,0.000000,4000.000000,4000.000000,Speed,Speed,0.000000,0.000000,0.000000,3.000000,100.000000,0,0,-0.003968,-0.005022,0
02:29:43.294 PM 02/06/2016,Teleop Enabled,0,TRUE,-63195,Read/Write Control in FPGA_DIOReadOutputEnable.vi->WPI_DigitalModuleDIOAllocator.vi->WPI_DigitalInputOpen.vi->Begin.vi->Robot Main.vi,0.000000,0.000000,4000.000000,4000.000000,Speed,Speed,0.000000,0.000000,0.000000,3.000000,103.000000,0,0,-0.003968,-0.005022,0
02:29:43.395 PM 02/06/2016,Teleop Enabled,0,TRUE,-63195,Read/Write Control in FPGA_DIOReadOutputEnable.vi->WPI_DigitalModuleDIOAllocator.vi->WPI_DigitalInputOpen.vi->Begin.vi->Robot Main.vi,0.000000,0.000000,4000.000000,4000.000000,Speed,Speed,0.000000,0.000000,0.000000,3.000000,101.000000,0,0,-0.003968,-0.005022,0
02:29:43.495 PM 02/06/2016,Teleop Enabled,0,TRUE,-63195,Read/Write Control in FPGA_DIOReadOutputEnable.vi->WPI_DigitalModuleDIOAllocator.vi->WPI_DigitalInputOpen.vi->Begin.vi->Robot Main.vi,0.000000,0.000000,4000.000000,4000.000000,Speed,Speed,0.000000,0.000000,0.000000,3.000000,100.000000,0,0,-0.003968,-0.005022,0
02:29:43.596 PM 02/06/2016,Teleop Enabled,0,TRUE,-63195,Read/Write Control in FPGA_DIOReadOutputEnable.vi->WPI_DigitalModuleDIOAllocator.vi->WPI_DigitalInputOpen.vi->Begin.vi->Robot Main.vi,0.000000,0.000000,4000.000000,4000.000000,Speed,Speed,0.000000,0.000000,0.000000,3.000000,101.000000,0,0,-0.003968,-0.005022,0
02:29:43.696 PM 02/06/2016,Teleop Enabled,0,TRUE,-63195,Read/Write Control in FPGA_DIOReadOutputEnable.vi->WPI_DigitalModuleDIOAllocator.vi->WPI_DigitalInputOpen.vi->Begin.vi->Robot Main.vi,0.000000,0.000000,4000.000000,4000.000000,Speed,Speed,0.000000,0.000000,0.000000,3.000000,101.000000,0,0,-0.003968,-0.005022,0
02:29:43.796 PM 02/06/2016,Teleop Enabled,0,TRUE,-63195,Read/Write Control in FPGA_DIOReadOutputEnable.vi->WPI_DigitalModuleDIOAllocator.vi->WPI_DigitalInputOpen.vi->Begin.vi->Robot Main.vi,0.000000,0.000000,4000.000000,4000.000000,Speed,Speed,0.000000,0.000000,0.000000,3.000000,100.000000,0,0,-0.003968,-0.005022,0
02:29:43.898 PM 02/06/2016,Teleop Enabled,0,TRUE,-44087,NetComm_CAN_Receive.vi:5470007<APPEND>

<b>Complete call chain:</b>
     NetComm_CAN_Receive.vi:5470007
     WPI_CANTalonSRX_Receive.vi
     WPI_MotorControlOpenCANTalonSRX.vi
     Begin.vi
     Robot Main.vi,0.000000,0.000000,4000.000000,4000.000000,Speed,Speed,0.000000,0.000000,0.000000,3.000000,101.000000,0,0,-0.003968,-0.005022,0
02:29:43.999 PM 02/06/2016,Teleop Enabled,0,TRUE,-44087,NetComm_CAN_Receive.vi:5470007<APPEND>

<b>Complete call chain:</b>
     NetComm_CAN_Receive.vi:5470007
     WPI_CANTalonSRX_Receive.vi
     WPI_MotorControlOpenCANTalonSRX.vi
     Begin.vi
     Robot Main.vi,0.000000,0.000000,4000.000000,4000.000000,Speed,Speed,0.000000,0.000000,0.000000,3.000000,101.000000,0,0,-0.003968,-0.005022,0
02:29:44.100 PM 02/06/2016,Teleop Enabled,0,TRUE,-44087,NetComm_CAN_Receive.vi:5470007<APPEND>

<b>Complete call chain:</b>
     NetComm_CAN_Receive.vi:5470007
     WPI_CANTalonSRX_Receive.vi
     WPI_MotorControlOpenCANTalonSRX.vi
     Begin.vi
     Robot Main.vi,0.000000,0.000000,4000.000000,4000.000000,Speed,Speed,0.000000,0.000000,0.000000,3.000000,102.000000,0,0,-0.003968,-0.005022,0
02:29:44.200 PM 02/06/2016,Teleop Enabled,0,TRUE,-44087,NetComm_CAN_Receive.vi:5470007<APPEND>

<b>Complete call chain:</b>
     NetComm_CAN_Receive.vi:5470007
     WPI_CANTalonSRX_Receive.vi
     WPI_MotorControlOpenCANTalonSRX.vi
     Begin.vi
     Robot Main.vi,0.000000,0.000000,4000.000000,4000.000000,Speed,Speed,0.000000,0.000000,0.000000,3.000000,100.000000,0,0,-0.003968,-0.005022,0
02:29:44.303 PM 02/06/2016,Teleop Enabled,0,TRUE,-44087,NetComm_CAN_Receive.vi:5470007<APPEND>

<b>Complete call chain:</b>
     NetComm_CAN_Receive.vi:5470007
     WPI_CANTalonSRX_Receive.vi
     WPI_MotorControlOpenCANTalonSRX.vi
     Begin.vi
     Robot Main.vi,0.000000,0.000000,4000.000000,4000.000000,Speed,Speed,0.000000,0.000000,0.000000,3.000000,100.000000,0,0,-0.003968,-0.005022,0
02:29:44.404 PM 02/06/2016,Teleop Enabled,0,TRUE,-44087,NetComm_CAN_Receive.vi:5470007<APPEND>

<b>Complete call chain:</b>
     NetComm_CAN_Receive.vi:5470007
     WPI_CANTalonSRX_Receive.vi
     WPI_MotorControlOpenCANTalonSRX.vi
     Begin.vi
     Robot Main.vi,0.000000,0.000000,4000.000000,4000.000000,Speed,Speed,0.000000,0.000000,0.000000,3.000000,101.000000,0,0,-0.003968,-0.005022,0
02:29:44.505 PM 02/06/2016,Teleop Enabled,0,TRUE,-44087,NetComm_CAN_Receive.vi:5470007<APPEND>

<b>Complete call chain:</b>
     NetComm_CAN_Receive.vi:5470007
     WPI_CANTalonSRX_Receive.vi
     WPI_MotorControlOpenCANTalonSRX.vi
     Begin.vi
     Robot Main.vi,0.000000,0.000000,4000.000000,4000.000000,Speed,Speed,0.000000,0.000000,0.000000,3.000000,100.000000,0,0,-0.003968,-0.005022,0
02:29:44.605 PM 02/06/2016,Teleop Enabled,0,TRUE,-44087,NetComm_CAN_Receive.vi:5470007<APPEND>

<b>Complete call chain:</b>
     NetComm_CAN_Receive.vi:5470007
     WPI_CANTalonSRX_Receive.vi
     WPI_MotorControlOpenCANTalonSRX.vi
     Begin.vi
     Robot Main.vi,0.000000,0.000000,4000.000000,4000.000000,Speed,Speed,0.000000,0.000000,0.000000,3.000000,101.000000,0,0,-0.003968,-0.005022,0
02:29:44.706 PM 02/06/2016,Teleop Enabled,0,TRUE,-44087,NetComm_CAN_Receive.vi:5470007<APPEND>

<b>Complete call chain:</b>
     NetComm_CAN_Receive.vi:5470007
     WPI_CANTalonSRX_Receive.vi
     WPI_MotorControlOpenCANTalonSRX.vi
     Begin.vi
     Robot Main.vi,0.000000,0.000000,4000.000000,4000.000000,Speed,Speed,0.000000,0.000000,0.000000,3.000000,101.000000,0,0,-0.003968,-0.005022,0
02:29:44.807 PM 02/06/2016,Teleop Enabled,0,TRUE,-44087,NetComm_CAN_Receive.vi:5470007<APPEND>

<b>Complete call chain:</b>
     NetComm_CAN_Receive.vi:5470007
     WPI_CANTalonSRX_Receive.vi
     WPI_MotorControlOpenCANTalonSRX.vi
     Begin.vi
     Robot Main.vi,0.000000,0.000000,4000.000000,4000.000000,Speed,Speed,0.000000,0.000000,0.000000,3.000000,101.000000,0,0,-0.003968,-0.005022,0
02:29:44.908 PM 02/06/2016,Teleop Enabled,0,TRUE,-44087,NetComm_CAN_Receive.vi:5470007<APPEND>

<b>Complete call chain:</b>
     NetComm_CAN_Receive.vi:5470007
     WPI_CANTalonSRX_Receive.vi
     WPI_MotorControlOpenCANTalonSRX.vi
     Begin.vi
     Robot Main.vi,0.000000,0.000000,4000.000000,4000.000000,Speed,Speed,0.000000,0.000000,0.000000,3.000000,100.000000,0,0,-0.003968,-0.005022,0
02:29:45.008 PM 02/06/2016,Teleop Enabled,0,TRUE,-44087,NetComm_CAN_Receive.vi:5470007<APPEND>

<b>Complete call chain:</b>
     NetComm_CAN_Receive.vi:5470007
     WPI_CANTalonSRX_Receive.vi
     WPI_MotorControlOpenCANTalonSRX.vi
     Begin.vi
     Robot Main.vi,0.000000,0.000000,4000.000000,4000.000000,Speed,Speed,0.000000,0.000000,0.000000,3.000000,100.000000,0,0,-0.003968,-0.005022,0
02:29:45.107 PM 02/06/2016,Teleop Enabled,0,TRUE,-63195,Read/Write Control in FPGA_DIOReadOutputEnable.vi->WPI_DigitalModuleDIOAllocator.vi->WPI_DigitalInputOpen.vi->Begin.vi->Robot Main.vi,0.000000,0.000000,4000.000000,4000.000000,Speed,Speed,0.000000,0.000000,0.000000,3.000000,102.000000,0,0,-0.003968,-0.005022,0
02:29:45.207 PM 02/06/2016,Teleop Enabled,0,TRUE,-63195,Read/Write Control in FPGA_DIOReadOutputEnable.vi->WPI_DigitalModuleDIOAllocator.vi->WPI_DigitalInputOpen.vi->Begin.vi->Robot Main.vi,0.000000,0.000000,4000.000000,4000.000000,Speed,Speed,0.000000,0.000000,0.000000,3.000000,101.000000,0,0,-0.003968,-0.005022,0
02:29:45.308 PM 02/06/2016,Teleop Enabled,0,TRUE,-44087,NetComm_CAN_Receive.vi:5470007<APPEND>

<b>Complete call chain:</b>
     NetComm_CAN_Receive.vi:5470007
     WPI_CANTalonSRX_Receive.vi
     WPI_CANTalonSRX_GetStatus.vi
     ShooterVI.vi
     Periodic Tasks.vi
     Robot Main.vi,0.000000,0.000000,4000.000000,4000.000000,Speed,Speed,0.000000,0.000000,0.000000,3.000000,100.000000,0,0,-0.003968,-0.005022,0
02:29:45.408 PM 02/06/2016,Teleop Enabled,0,TRUE,-44087,NetComm_CAN_Receive.vi:5470007<APPEND>

<b>Complete call chain:</b>
     NetComm_CAN_Receive.vi:5470007
     WPI_CANTalonSRX_Receive.vi
     WPI_CANTalonSRX_GetStatus.vi
     ShooterVI.vi
     Periodic Tasks.vi
     Robot Main.vi,0.000000,0.000000,4000.000000,4000.000000,Speed,Speed,0.000000,0.000000,0.000000,3.000000,101.000000,0,0,-0.003968,-0.005022,0
02:29:45.508 PM 02/06/2016,Teleop Enabled,0,TRUE,-44087,NetComm_CAN_Receive.vi:5470007<APPEND>

<b>Complete call chain:</b>
     NetComm_CAN_Receive.vi:5470007
     WPI_CANTalonSRX_Receive.vi
     WPI_MotorControlOpenCANTalonSRX.vi
     Begin.vi
     Robot Main.vi,0.000000,0.000000,4000.000000,4000.000000,Speed,Speed,0.000000,0.000000,0.000000,3.000000,100.000000,0,0,-0.003968,-0.005022,0
02:29:45.609 PM 02/06/2016,Teleop Enabled,0,TRUE,-63195,Read/Write Control in FPGA_DIOReadOutputEnable.vi->WPI_DigitalModuleDIOAllocator.vi->WPI_DigitalInputOpen.vi->Begin.vi->Robot Main.vi,0.000000,0.000000,4000.000000,4000.000000,Speed,Speed,0.000000,0.000000,0.000000,3.000000,101.000000,0,0,-0.003968,-0.005022,0
02:29:45.709 PM 02/06/2016,Teleop Enabled,0,TRUE,-63195,Read/Write Control in FPGA_AIReadConfig.vi->WPI_AccumulatorGetOutput.vi->WPI_GyroAnalogOpen.vi->Begin.vi->Robot Main.vi,0.000000,0.000000,4000.000000,4000.000000,Speed,Speed,0.000000,0.000000,0.000000,3.000000,103.000000,0,0,-0.003968,-0.005022,0
02:29:45.809 PM 02/06/2016,Teleop Enabled,0,TRUE,-63195,Read/Write Control in FPGA_DIOReadOutputEnable.vi->WPI_DigitalModuleDIOAllocator.vi->WPI_DigitalInputOpen.vi->Begin.vi->Robot Main.vi,0.000000,0.000000,4000.000000,4000.000000,Speed,Speed,0.000000,0.000000,0.000000,3.000000,100.000000,0,0,-0.003968,-0.005022,0
02:29:45.909 PM 02/06/2016,Teleop Enabled,0,TRUE,-63195,Read/Write Control in FPGA_DIOReadOutputEnable.vi->WPI_DigitalModuleDIOAllocator.vi->WPI_DigitalInputOpen.vi->Begin.vi->Robot Main.vi,0.000000,0.000000,4000.000000,4000.000000,Speed,Speed,0.000000,0.000000,0.000000,3.000000,100.000000,0,0,-0.003968,-0.005022,0
02:29:46.010 PM 02/06/2016,Teleop Enabled,0,TRUE,-63195,Read/Write Control in FPGA_DIOReadOutputEnable.vi->WPI_DigitalModuleDIOAllocator.vi->WPI_DigitalInputOpen.vi->Begin.vi->Robot Main.vi,0.000000,0.000000,4000.000000,4000.000000,Speed,Speed,0.000000,0.000000,0.000000,3.000000,101.000000,0,0,-0.003968,-0.005022,0
02:29:46.111 PM 02/06/2016,Teleop Enabled,0,TRUE,-63195,Read/Write Control in FPGA_DIOReadOutputEnable.vi->WPI_DigitalModuleDIOAllocator.vi->WPI_DigitalInputOpen.vi->Begin.vi->Robot Main.vi,0.000000,0.000000,4000.000000,4000.000000,Speed,Speed,0.000000,0.000000,0.000000,3.000000,100.000000,0,0,-0.003968,-0.005022,0
02:29:46.212 PM 02/06/2016,Teleop Enabled,0,TRUE,-44071,<LOCATION>WPI_AccumulatorGetOutput.vi<CALLSTACK>WPI_AccumulatorGetOutput.vi< <WPI_GyroAnalogGetAngle.vi< <WPI_GyroGetAngle.vi< <Periodic Tasks.vi< <Robot Main.vi,0.000000,0.000000,4000.000000,4000.000000,Speed,Speed,0.000000,0.000000,0.000000,3.000000,100.000000,0,0,-0.003968,-0.005022,0
02:29:46.314 PM 02/06/2016,Teleop Enabled,0,TRUE,-44071,<LOCATION>WPI_AccumulatorGetOutput.vi<CALLSTACK>WPI_AccumulatorGetOutput.vi< <WPI_GyroAnalogGetAngle.vi< <WPI_GyroGetAngle.vi< <Periodic Tasks.vi< <Robot Main.vi,0.000000,0.000000,4000.000000,4000.000000,Speed,Speed,0.000000,0.000000,0.000000,3.000000,100.000000,0,0,-0.003968,-0.005022,0
02:29:46.414 PM 02/06/2016,Teleop Enabled,0,TRUE,-63195,Read/Write Control in FPGA_DIOReadOutputEnable.vi->WPI_DigitalModuleDIOAllocator.vi->WPI_DigitalInputOpen.vi->Begin.vi->Robot Main.vi,0.000000,0.000000,4000.000000,4000.000000,Speed,Speed,0.000000,0.000000,0.000000,3.000000,101.000000,0,0,-0.003968,-0.005022,0
02:29:46.515 PM 02/06/2016,Teleop Enabled,0,TRUE,-44070,<LOCATION>FPGA_AIReadAccumulatorOutput.vi<CALLSTACK>FPGA_AIReadAccumulatorOutput.vi< <WPI_AccumulatorGetOutput.vi< <WPI_GyroAnalogGetAngle.vi< <WPI_GyroGetAngle.vi< <Periodic Tasks.vi< <Robot Main.vi,0.000000,0.000000,4000.000000,4000.000000,Speed,Speed,0.000000,0.000000,0.000000,3.000000,101.000000,0,0,-0.003968,-0.005022,0
02:29:46.615 PM 02/06/2016,Teleop Enabled,0,TRUE,-63195,Read/Write Control in FPGA_DIOReadOutputEnable.vi->WPI_DigitalModuleDIOAllocator.vi->WPI_DigitalInputOpen.vi->Begin.vi->Robot Main.vi,0.000000,0.000000,4000.000000,4000.000000,Speed,Speed,0.000000,0.000000,0.000000,3.000000,101.000000,0,0,-0.003968,-0.005022,0
02:29:46.716 PM 02/06/2016,Teleop Enabled,0,TRUE,-63195,Read/Write Control in FPGA_DIOReadOutputEnable.vi->WPI_DigitalModuleDIOAllocator.vi->WPI_DigitalInputOpen.vi->Begin.vi->Robot Main.vi,0.000000,0.000000,4000.000000,4000.000000,Speed,Speed,0.000000,0.000000,0.000000,3.000000,100.000000,0,0,-0.003968,-0.005022,0
02:29:46.816 PM 02/06/2016,Teleop Disabled,0,TRUE,-63195,Read/Write Control in FPGA_AIReadConfig.vi->WPI_AccumulatorGetOutput.vi->WPI_GyroAnalogGetAngle.vi->WPI_GyroGetAngle.vi->Periodic Tasks.vi->Robot Main.vi,0.000000,0.000000,4000.000000,4000.000000,Speed,Speed,0.000000,0.000000,0.000000,3.000000,102.000000,0,0,-0.003968,-0.005022,0
02:29:46.917 PM 02/06/2016,Teleop Disabled,0,TRUE,-44071,<LOCATION>FPGA_ReadAI.vi<CALLSTACK>FPGA_ReadAI.vi< <WPI_GyroAnalogGetAngle.vi< <WPI_GyroGetAngle.vi< <Periodic Tasks.vi< <Robot Main.vi,0.000000,0.000000,4000.000000,4000.000000,Speed,Speed,0.000000,0.000000,0.000000,3.000000,100.000000,0,0,-0.003968,-0.005022,0
02:29:47.019 PM 02/06/2016,Teleop Disabled,0,TRUE,-44071,<LOCATION>FPGA_ReadAI.vi<CALLSTACK>FPGA_ReadAI.vi< <WPI_GyroAnalogGetAngle.vi< <WPI_GyroGetAngle.vi< <Periodic Tasks.vi< <Robot Main.vi,0.000000,0.000000,4000.000000,4000.000000,Speed,Speed,0.000000,0.000000,0.000000,3.000000,101.000000,0,0,-0.003968,-0.005022,0
02:29:47.118 PM 02/06/2016,Teleop Disabled,0,TRUE,-63195,Read/Write Control in FPGA_AIReadConfig.vi->WPI_AccumulatorGetOutput.vi->WPI_GyroAnalogOpen.vi->Begin.vi->Robot Main.vi,0.000000,0.000000,4000.000000,4000.000000,Speed,Speed,0.000000,0.000000,0.000000,3.000000,101.000000,0,0,-0.003968,-0.005022,0
02:29:47.218 PM 02/06/2016,Teleop Disabled,0,TRUE,-44071,<LOCATION>WPI_AnalogChannelValueToVoltage.vi<CALLSTACK>WPI_AnalogChannelValueToVoltage.vi< <WPI_GyroAnalogGetAngle.vi< <WPI_GyroGetAngle.vi< <Periodic Tasks.vi< <Robot Main.vi,0.000000,0.000000,4000.000000,4000.000000,Speed,Speed,0.000000,0.000000,0.000000,3.000000,101.000000,0,0,-0.003968,-0.005022,0
02:29:47.319 PM 02/06/2016,Teleop Disabled,0,TRUE,-44087,NetComm_CAN_Receive.vi:5470007<APPEND>

<b>Complete call chain:</b>
     NetComm_CAN_Receive.vi:5470007
     WPI_CANTalonSRX_Receive.vi
     WPI_MotorControlOpenCANTalonSRX.vi
     Begin.vi
     Robot Main.vi,0.000000,0.000000,4000.000000,4000.000000,Speed,Speed,0.000000,0.000000,0.000000,3.000000,101.000000,0,0,-0.003968,-0.005022,0
02:29:47.419 PM 02/06/2016,Teleop Disabled,0,TRUE,-44087,NetComm_CAN_Receive.vi:5470007<APPEND>

<b>Complete call chain:</b>
     NetComm_CAN_Receive.vi:5470007
     WPI_CANTalonSRX_Receive.vi
     WPI_CANTalonSRX_GetStatus.vi
     ShooterVI.vi
     Periodic Tasks.vi
     Robot Main.vi,0.000000,0.000000,4000.000000,4000.000000,Speed,Speed,0.000000,0.000000,0.000000,3.000000,100.000000,0,0,-0.003968,-0.005022,0
02:29:47.519 PM 02/06/2016,Teleop Disabled,0,TRUE,-44087,NetComm_CAN_Receive.vi:5470007<APPEND>

<b>Complete call chain:</b>
     NetComm_CAN_Receive.vi:5470007
     WPI_CANTalonSRX_Receive.vi
     WPI_CANTalonSRX_GetStatus.vi
     ShooterVI.vi
     Periodic Tasks.vi
     Robot Main.vi,0.000000,0.000000,4000.000000,4000.000000,Speed,Speed,0.000000,0.000000,0.000000,3.000000,101.000000,0,0,-0.003968,-0.005022,0
02:29:47.620 PM 02/06/2016,Teleop Disabled,0,TRUE,-63195,Read/Write Control in FPGA_AIReadConfig.vi->WPI_AccumulatorGetOutput.vi->WPI_GyroAnalogOpen.vi->Begin.vi->Robot Main.vi,0.000000,0.000000,4000.000000,4000.000000,Speed,Speed,0.000000,0.000000,0.000000,3.000000,100.000000,0,0,-0.003968,-0.005022,0
02:29:47.719 PM 02/06/2016,Teleop Enabled,0,TRUE,-63195,Read/Write Control in FPGA_DIOReadOutputEnable.vi->WPI_DigitalModuleDIOAllocator.vi->WPI_DigitalInputOpen.vi->Begin.vi->Robot Main.vi,0.000000,0.000000,4000.000000,4000.000000,Speed,Speed,0.000000,0.000000,0.000000,3.000000,100.000000,0,0,-0.003968,-0.005022,0
02:29:47.820 PM 02/06/2016,Teleop Enabled,0,TRUE,-44071,<LOCATION>WPI_AccumulatorGetOutput.vi<CALLSTACK>WPI_AccumulatorGetOutput.vi< <WPI_GyroAnalogGetAngle.vi< <WPI_GyroGetAngle.vi< <Periodic Tasks.vi< <Robot Main.vi,0.000000,0.000000,4000.000000,4000.000000,Speed,Speed,0.000000,0.000000,0.000000,3.000000,101.000000,0,0,-0.003968,-0.005022,0
02:29:47.921 PM 02/06/2016,Teleop Enabled,0,TRUE,-63195,Read/Write Control in FPGA_DIOReadOutputEnable.vi->WPI_DigitalModuleDIOAllocator.vi->WPI_DigitalInputOpen.vi->Begin.vi->Robot Main.vi,0.000000,0.000000,4000.000000,4000.000000,Speed,Speed,0.000000,0.000000,0.000000,3.000000,100.000000,0,0,-0.003968,-0.005022,0
02:29:48.023 PM 02/06/2016,Teleop Enabled,0,TRUE,-63195,Read/Write Control in FPGA_DIOReadOutputEnable.vi->WPI_DigitalModuleDIOAllocator.vi->WPI_DigitalInputOpen.vi->Begin.vi->Robot Main.vi,0.000000,0.000000,4000.000000,4000.000000,Speed,Speed,0.000000,0.000000,0.000000,3.000000,102.000000,0,0,-0.003968,-0.005022,0
02:29:48.123 PM 02/06/2016,Teleop Enabled,0,TRUE,-44071,<LOCATION>WPI_AccumulatorGetOutput.vi<CALLSTACK>WPI_AccumulatorGetOutput.vi< <WPI_GyroAnalogGetAngle.vi< <WPI_GyroGetAngle.vi< <Periodic Tasks.vi< <Robot Main.vi,0.000000,0.000000,4000.000000,4000.000000,Speed,Speed,0.000000,0.000000,0.000000,3.000000,101.000000,0,0,-0.003968,-0.005022,0
02:29:48.223 PM 02/06/2016,Teleop Enabled,0,TRUE,-63195,Read/Write Control in FPGA_DIOReadOutputEnable.vi->WPI_DigitalModuleDIOAllocator.vi->WPI_DigitalInputOpen.vi->Begin.vi->Robot Main.vi,0.000000,0.000000,4000.000000,4000.000000,Speed,Speed,0.000000,0.000000,0.000000,3.000000,100.000000,0,0,-0.003968,-0.005022,0
02:29:48.323 PM 02/06/2016,Teleop Enabled,0,TRUE,-63195,Read/Write Control in FPGA_DIOReadOutputEnable.vi->WPI_DigitalModuleDIOAllocator.vi->WPI_DigitalInputOpen.vi->Begin.vi->Robot Main.vi,0.000000,0.000000,4000.000000,4000.000000,Speed,Speed,0.000000,0.000000,0.000000,3.000000,103.000000,0,0,-0.003968,-0.005022,0
02:29:48.424 PM 02/06/2016,Teleop Enabled,0,TRUE,-63195,Read/Write Control in FPGA_DIOReadOutputEnable.vi->WPI_DigitalModuleDIOAllocator.vi->WPI_DigitalInputOpen.vi->Begin.vi->Robot Main.vi,0.000000,0.000000,4000.000000,4000.000000,Speed,Speed,0.000000,0.000000,0.000000,3.000000,101.000000,0,0,-0.003968,-0.005022,0
02:29:48.525 PM 02/06/2016,Teleop Enabled,0,TRUE,-44070,<LOCATION>FPGA_AIReadAccumulatorOutput.vi<CALLSTACK>FPGA_AIReadAccumulatorOutput.vi< <WPI_AccumulatorGetOutput.vi< <WPI_GyroAnalogGetAngle.vi< <WPI_GyroGetAngle.vi< <Periodic Tasks.vi< <Robot Main.vi,0.000000,0.000000,4000.000000,4000.000000,Speed,Speed,0.000000,0.000000,0.000000,3.000000,100.000000,0,0,-0.003968,-0.005022,0
02:29:48.624 PM 02/06/2016,Teleop Enabled,0,TRUE,-63195,Read/Write Control in FPGA_DIOReadOutputEnable.vi->WPI_DigitalModuleDIOAllocator.vi->WPI_DigitalInputOpen.vi->Begin.vi->Robot Main.vi,0.000000,0.000000,4000.000000,4000.000000,Speed,Speed,0.000000,0.000000,0.000000,3.000000,100.000000,0,0,-0.003968,-0.005022,0
02:29:48.725 PM 02/06/2016,Teleop Enabled,0,TRUE,-63195,Read/Write Control in FPGA_DIOReadOutputEnable.vi->WPI_DigitalModuleDIOAllocator.vi->WPI_DigitalInputOpen.vi->Begin.vi->Robot Main.vi,0.000000,0.000000,4000.000000,4000.000000,Speed,Speed,0.000000,0.000000,0.000000,3.000000,101.000000,0,0,-0.003968,-0.005022,0
02:29:48.825 PM 02/06/2016,Teleop Enabled,0,TRUE,-63195,Read/Write Control in FPGA_AIReadConfig.vi->WPI_AccumulatorGetOutput.vi->WPI_GyroAnalogGetAngle.vi->WPI_GyroGetAngle.vi->Periodic Tasks.vi->Robot Main.vi,0.000000,0.000000,4000.000000,4000.000000,Speed,Speed,0.000000,0.000000,0.000000,3.000000,101.000000,0,0,-0.003968,-0.005022,0
02:29:48.925 PM 02/06/2016,Teleop Enabled,0,TRUE,-44071,<LOCATION>FPGA_ReadAI.vi<CALLSTACK>FPGA_ReadAI.vi< <WPI_GyroAnalogGetAngle.vi< <WPI_GyroGetAngle.vi< <Periodic Tasks.vi< <Robot Main.vi,0.000000,0.000000,4000.000000,4000.000000,Speed,Speed,0.000000,0.000000,0.000000,3.000000,100.000000,0,0,-0.003968,-0.005022,0
02:29:49.025 PM 02/06/2016,Teleop Enabled,0,TRUE,-44071,<LOCATION>FPGA_ReadAI.vi<CALLSTACK>FPGA_ReadAI.vi< <WPI_GyroAnalogGetAngle.vi< <WPI_GyroGetAngle.vi< <Periodic Tasks.vi< <Robot Main.vi,0.000000,0.000000,4000.000000,4000.000000,Speed,Speed,0.000000,0.000000,0.000000,3.000000,102.000000,0,0,-0.003968,-0.005022,0
02:29:49.125 PM 02/06/2016,Teleop Enabled,0,TRUE,-63195,Read/Write Control in FPGA_AIReadConfig.vi->WPI_AccumulatorGetOutput.vi->WPI_GyroAnalogOpen.vi->Begin.vi->Robot Main.vi,0.000000,0.000000,4000.000000,4000.000000,Speed,Speed,0.000000,0.000000,0.000000,3.000000,102.000000,0,0,-0.003968,-0.005022,0
02:29:49.226 PM 02/06/2016,Teleop Enabled,0,TRUE,-44071,<LOCATION>WPI_AnalogChannelValueToVoltage.vi<CALLSTACK>WPI_AnalogChannelValueToVoltage.vi< <WPI_GyroAnalogGetAngle.vi< <WPI_GyroGetAngle.vi< <Periodic Tasks.vi< <Robot Main.vi,0.000000,0.000000,4000.000000,4000.000000,Speed,Speed,0.000000,0.000000,0.000000,3.000000,100.000000,0,0,-0.003968,-0.005022,0
02:29:49.327 PM 02/06/2016,Teleop Enabled,0,TRUE,-44087,NetComm_CAN_Receive.vi:5470007<APPEND>

<b>Complete call chain:</b>
     NetComm_CAN_Receive.vi:5470007
     WPI_CANTalonSRX_Receive.vi
     WPI_CANTalonSRX_GetStatus.vi
     ShooterVI.vi
     Periodic Tasks.vi
     Robot Main.vi,0.000000,0.000000,4000.000000,4000.000000,Speed,Speed,0.000000,0.000000,0.000000,3.000000,102.000000,0,0,-0.003968,-0.005022,0
02:29:49.427 PM 02/06/2016,Teleop Enabled,0,TRUE,-44087,NetComm_CAN_Receive.vi:5470007<APPEND>

<b>Complete call chain:</b>
     NetComm_CAN_Receive.vi:5470007
     WPI_CANTalonSRX_Receive.vi
     WPI_CANTalonSRX_GetStatus.vi
     ShooterVI.vi
     Periodic Tasks.vi
     Robot Main.vi,0.000000,0.000000,4000.000000,4000.000000,Speed,Speed,0.000000,0.000000,0.000000,3.000000,100.000000,0,0,-0.003968,-0.005022,0
02:29:49.528 PM 02/06/2016,Teleop Enabled,0,TRUE,-44087,NetComm_CAN_Receive.vi:5470007<APPEND>

<b>Complete call chain:</b>
     NetComm_CAN_Receive.vi:5470007
     WPI_CANTalonSRX_Receive.vi
     WPI_MotorControlOpenCANTalonSRX.vi
     Begin.vi
     Robot Main.vi,0.000000,0.000000,4000.000000,4000.000000,Speed,Speed,0.000000,0.000000,0.000000,3.000000,101.000000,0,0,-0.003968,-0.005022,0
02:29:49.628 PM 02/06/2016,Teleop Enabled,0,TRUE,-63195,Read/Write Control in FPGA_DIOReadOutputEnable.vi->WPI_DigitalModuleDIOAllocator.vi->WPI_DigitalInputOpen.vi->Begin.vi->Robot Main.vi,0.000000,0.000000,4000.000000,4000.000000,Speed,Speed,0.000000,0.000000,0.000000,3.000000,100.000000,0,0,-0.003968,-0.005022,0
02:29:49.729 PM 02/06/2016,Teleop Enabled,0,TRUE,-63195,Read/Write Control in FPGA_AIReadConfig.vi->WPI_AccumulatorGetOutput.vi->WPI_GyroAnalogOpen.vi->Begin.vi->Robot Main.vi,0.000000,0.000000,4000.000000,4000.000000,Speed,Speed,0.000000,0.000000,0.000000,3.000000,100.000000,0,0,-0.003968,-0.005022,0
02:29:49.830 PM 02/06/2016,Teleop Enabled,0,TRUE,-63195,Read/Write Control in FPGA_DIOReadOutputEnable.vi->WPI_DigitalModuleDIOAllocator.vi->WPI_DigitalInputOpen.vi->Begin.vi->Robot Main.vi,0.000000,0.000000,4000.000000,4000.000000,Speed,Speed,0.000000,0.000000,0.000000,3.000000,101.000000,0,0,-0.003968,-0.005022,0
02:29:49.930 PM 02/06/2016,Teleop Enabled,0,TRUE,-44071,<LOCATION>WPI_AccumulatorGetOutput.vi<CALLSTACK>WPI_AccumulatorGetOutput.vi< <WPI_GyroAnalogGetAngle.vi< <WPI_GyroGetAngle.vi< <Periodic Tasks.vi< <Robot Main.vi,0.000000,0.000000,4000.000000,4000.000000,Speed,Speed,0.000000,0.000000,0.000000,3.000000,100.000000,0,0,-0.003968,-0.005022,0
02:29:50.031 PM 02/06/2016,Teleop Enabled,0,TRUE,-63195,Read/Write Control in FPGA_DIOReadOutputEnable.vi->WPI_DigitalModuleDIOAllocator.vi->WPI_DigitalInputOpen.vi->Begin.vi->Robot Main.vi,0.000000,0.000000,4000.000000,4000.000000,Speed,Speed,0.000000,0.000000,0.000000,3.000000,100.000000,0,0,-0.003968,-0.005022,0
02:29:50.132 PM 02/06/2016,Teleop Enabled,0,TRUE,-44071,<LOCATION>WPI_AccumulatorGetOutput.vi<CALLSTACK>WPI_AccumulatorGetOutput.vi< <WPI_GyroAnalogGetAngle.vi< <WPI_GyroGetAngle.vi< <Periodic Tasks.vi< <Robot Main.vi,0.000000,0.000000,4000.000000,4000.000000,Speed,Speed,0.000000,0.000000,0.000000,3.000000,100.000000,0,0,-0.003968,-0.005022,0
02:29:50.234 PM 02/06/2016,Teleop Enabled,0,TRUE,-63195,Read/Write Control in FPGA_DIOReadOutputEnable.vi->WPI_DigitalModuleDIOAllocator.vi->WPI_DigitalInputOpen.vi->Begin.vi->Robot Main.vi,0.000000,0.000000,4000.000000,4000.000000,Speed,Speed,0.000000,0.000000,0.000000,3.000000,104.000000,0,0,-0.003968,-0.005022,0
02:29:50.334 PM 02/06/2016,Teleop Enabled,0,TRUE,-63195,Read/Write Control in FPGA_DIOReadOutputEnable.vi->WPI_DigitalModuleDIOAllocator.vi->WPI_DigitalInputOpen.vi->Begin.vi->Robot Main.vi,0.000000,0.000000,4000.000000,4000.000000,Speed,Speed,0.000000,0.000000,0.000000,3.000000,102.000000,0,0,-0.003968,-0.005022,0
02:29:50.434 PM 02/06/2016,Teleop Enabled,0,TRUE,-63195,Read/Write Control in FPGA_DIOReadOutputEnable.vi->WPI_DigitalModuleDIOAllocator.vi->WPI_DigitalInputOpen.vi->Begin.vi->Robot Main.vi,0.000000,0.000000,4000.000000,4000.000000,Speed,Speed,0.000000,0.000000,0.000000,3.000000,101.000000,0,0,-0.003968,-0.005022,0
02:29:50.534 PM 02/06/2016,Teleop Enabled,0,TRUE,-63195,Read/Write Control in FPGA_DIOReadOutputEnable.vi->WPI_DigitalModuleDIOAllocator.vi->WPI_DigitalInputOpen.vi->Begin.vi->Robot Main.vi,0.000000,0.000000,4000.000000,4000.000000,Speed,Speed,0.000000,0.000000,0.000000,3.000000,100.000000,0,0,-0.003968,-0.005022,0
02:29:50.635 PM 02/06/2016,Teleop Enabled,0,TRUE,-63195,Read/Write Control in FPGA_DIOReadOutputEnable.vi->WPI_DigitalModuleDIOAllocator.vi->WPI_DigitalInputOpen.vi->Begin.vi->Robot Main.vi,0.000000,0.000000,4000.000000,4000.000000,Speed,Speed,0.000000,0.000000,0.000000,3.000000,100.000000,0,0,-0.003968,-0.005022,0
02:29:50.735 PM 02/06/2016,Teleop Enabled,0,TRUE,-44070,<LOCATION>FPGA_AIReadAccumulatorOutput.vi<CALLSTACK>FPGA_AIReadAccumulatorOutput.vi< <WPI_AccumulatorGetOutput.vi< <WPI_GyroAnalogGetAngle.vi< <WPI_GyroGetAngle.vi< <Periodic Tasks.vi< <Robot Main.vi,0.000000,0.000000,4000.000000,4000.000000,Speed,Speed,0.000000,0.000000,0.000000,3.000000,101.000000,0,0,-0.003968,-0.005022,0
02:29:50.836 PM 02/06/2016,Teleop Enabled,0,TRUE,-63195,Read/Write Control in FPGA_AIReadConfig.vi->WPI_AccumulatorGetOutput.vi->WPI_GyroAnalogGetAngle.vi->WPI_GyroGetAngle.vi->Periodic Tasks.vi->Robot Main.vi,0.000000,0.000000,4000.000000,4000.000000,Speed,Speed,0.000000,0.000000,0.000000,3.000000,102.000000,0,0,-0.003968,-0.005022,0
02:29:50.938 PM 02/06/2016,Teleop Enabled,0,TRUE,-44071,<LOCATION>FPGA_ReadAI.vi<CALLSTACK>FPGA_ReadAI.vi< <WPI_GyroAnalogGetAngle.vi< <WPI_GyroGetAngle.vi< <Periodic Tasks.vi< <Robot Main.vi,0.000000,0.000000,4000.000000,4000.000000,Speed,Speed,0.000000,0.000000,0.000000,3.000000,101.000000,0,0,-0.003968,-0.005022,0
02:29:51.038 PM 02/06/2016,Teleop Enabled,0,TRUE,-44071,<LOCATION>FPGA_ReadAI.vi<CALLSTACK>FPGA_ReadAI.vi< <WPI_GyroAnalogGetAngle.vi< <WPI_GyroGetAngle.vi< <Periodic Tasks.vi< <Robot Main.vi,0.000000,0.000000,4000.000000,4000.000000,Speed,Speed,0.000000,0.000000,0.000000,3.000000,101.000000,0,0,-0.003968,-0.005022,0
02:29:51.138 PM 02/06/2016,Teleop Enabled,0,TRUE,-63195,Read/Write Control in FPGA_AIReadConfig.vi->WPI_AccumulatorGetOutput.vi->WPI_GyroAnalogOpen.vi->Begin.vi->Robot Main.vi,0.000000,0.000000,4000.000000,4000.000000,Speed,Speed,0.000000,0.000000,0.000000,3.000000,103.000000,0,0,-0.003968,-0.005022,0
02:29:51.238 PM 02/06/2016,Teleop Enabled,0,TRUE,-44071,<LOCATION>WPI_AnalogChannelValueToVoltage.vi<CALLSTACK>WPI_AnalogChannelValueToVoltage.vi< <WPI_GyroAnalogGetAngle.vi< <WPI_GyroGetAngle.vi< <Periodic Tasks.vi< <Robot Main.vi,0.000000,0.000000,4000.000000,4000.000000,Speed,Speed,0.000000,0.000000,0.000000,3.000000,101.000000,0,0,-0.003968,-0.005022,0
02:29:51.338 PM 02/06/2016,Teleop Enabled,0,TRUE,-44087,NetComm_CAN_Receive.vi:5470007<APPEND>

<b>Complete call chain:</b>
     NetComm_CAN_Receive.vi:5470007
     WPI_CANTalonSRX_Receive.vi
     WPI_CANTalonSRX_GetStatus.vi
     ShooterVI.vi
     Periodic Tasks.vi
     Robot Main.vi,0.000000,0.000000,4000.000000,4000.000000,Speed,Speed,0.000000,0.000000,0.000000,3.000000,101.000000,0,0,-0.003968,-0.005022,0
02:29:51.440 PM 02/06/2016,Teleop Enabled,0,TRUE,-44087,NetComm_CAN_Receive.vi:5470007<APPEND>

<b>Complete call chain:</b>
     NetComm_CAN_Receive.vi:5470007
     WPI_CANTalonSRX_Receive.vi
     WPI_MotorControlOpenCANTalonSRX.vi
     Begin.vi
     Robot Main.vi,0.000000,0.000000,4000.000000,4000.000000,Speed,Speed,0.000000,0.000000,0.000000,3.000000,102.000000,0,0,-0.003968,-0.005022,0
02:29:51.541 PM 02/06/2016,Teleop Enabled,0,TRUE,-44087,NetComm_CAN_Receive.vi:5470007<APPEND>

<b>Complete call chain:</b>
     NetComm_CAN_Receive.vi:5470007
     WPI_CANTalonSRX_Receive.vi
     WPI_CANTalonSRX_GetStatus.vi
     ShooterVI.vi
     Periodic Tasks.vi
     Robot Main.vi,0.000000,0.000000,4000.000000,4000.000000,Speed,Speed,0.000000,0.000000,0.000000,3.000000,101.000000,0,0,-0.003968,-0.005022,0
02:29:51.642 PM 02/06/2016,Teleop Enabled,0,TRUE,-63195,Read/Write Control in FPGA_AIReadConfig.vi->WPI_AccumulatorGetOutput.vi->WPI_GyroAnalogOpen.vi->Begin.vi->Robot Main.vi,0.000000,0.000000,4000.000000,4000.000000,Speed,Speed,0.000000,0.000000,0.000000,3.000000,101.000000,0,0,-0.003968,-0.005022,0
02:29:51.744 PM 02/06/2016,Teleop Enabled,0,TRUE,-44071,<LOCATION>WPI_AccumulatorGetOutput.vi<CALLSTACK>WPI_AccumulatorGetOutput.vi< <WPI_GyroAnalogGetAngle.vi< <WPI_GyroGetAngle.vi< <Periodic Tasks.vi< <Robot Main.vi,0.000000,0.000000,4000.000000,4000.000000,Speed,Speed,0.000000,0.000000,0.000000,3.000000,100.000000,0,0,-0.003968,-0.005022,0
02:29:51.845 PM 02/06/2016,Teleop Enabled,0,TRUE,-44071,<LOCATION>WPI_AccumulatorGetOutput.vi<CALLSTACK>WPI_AccumulatorGetOutput.vi< <WPI_GyroAnalogGetAngle.vi< <WPI_GyroGetAngle.vi< <Periodic Tasks.vi< <Robot Main.vi,0.000000,0.000000,4000.000000,4000.000000,Speed,Speed,0.000000,0.000000,0.000000,3.000000,100.000000,0,0,-0.003968,-0.005022,0
02:29:51.946 PM 02/06/2016,Teleop Enabled,0,TRUE,-44070,<LOCATION>FPGA_AIReadAccumulatorOutput.vi<CALLSTACK>FPGA_AIReadAccumulatorOutput.vi< <WPI_AccumulatorGetOutput.vi< <WPI_GyroAnalogGetAngle.vi< <WPI_GyroGetAngle.vi< <Periodic Tasks.vi< <Robot Main.vi,0.000000,0.000000,4000.000000,4000.000000,Speed,Speed,0.000000,0.000000,0.000000,3.000000,101.000000,0,0,-0.003968,-0.005022,0
02:29:52.046 PM 02/06/2016,Teleop Enabled,0,TRUE,-63195,Read/Write Control in FPGA_AIReadConfig.vi->WPI_AccumulatorGetOutput.vi->WPI_GyroAnalogGetAngle.vi->WPI_GyroGetAngle.vi->Periodic Tasks.vi->Robot Main.vi,0.000000,0.000000,4000.000000,4000.000000,Speed,Speed,0.000000,0.000000,0.000000,3.000000,101.000000,0,0,-0.003968,-0.005022,0
02:29:52.147 PM 02/06/2016,Teleop Enabled,0,TRUE,-44071,<LOCATION>FPGA_ReadAI.vi<CALLSTACK>FPGA_ReadAI.vi< <WPI_GyroAnalogGetAngle.vi< <WPI_GyroGetAngle.vi< <Periodic Tasks.vi< <Robot Main.vi,0.000000,0.000000,4000.000000,4000.000000,Speed,Speed,0.000000,0.000000,0.000000,3.000000,101.000000,0,0,-0.003968,-0.005022,0
02:29:52.247 PM 02/06/2016,Teleop Enabled,0,TRUE,-44071,<LOCATION>FPGA_ReadAI.vi<CALLSTACK>FPGA_ReadAI.vi< <WPI_GyroAnalogGetAngle.vi< <WPI_GyroGetAngle.vi< <Periodic Tasks.vi< <Robot Main.vi,0.000000,0.000000,4000.000000,4000.000000,Speed,Speed,0.000000,0.000000,0.000000,3.000000,100.000000,0,0,-0.003968,-0.005022,0
02:29:52.347 PM 02/06/2016,Teleop Enabled,0,TRUE,-63195,Read/Write Control in FPGA_AIReadConfig.vi->WPI_AccumulatorGetOutput.vi->WPI_GyroAnalogOpen.vi->Begin.vi->Robot Main.vi,0.000000,0.000000,4000.000000,4000.000000,Speed,Speed,0.000000,0.000000,0.000000,3.000000,102.000000,0,0,-0.003968,-0.005022,0
02:29:52.448 PM 02/06/2016,Teleop Enabled,0,TRUE,-44071,<LOCATION>WPI_AnalogChannelValueToVoltage.vi<CALLSTACK>WPI_AnalogChannelValueToVoltage.vi< <WPI_GyroAnalogGetAngle.vi< <WPI_GyroGetAngle.vi< <Periodic Tasks.vi< <Robot Main.vi,0.000000,0.000000,4000.000000,4000.000000,Speed,Speed,0.000000,0.000000,0.000000,3.000000,102.000000,0,0,-0.003968,-0.005022,0
02:29:52.549 PM 02/06/2016,Teleop Enabled,0,TRUE,-63195,Read/Write Control in FPGA_DIOReadOutputEnable.vi->WPI_DigitalModuleDIOAllocator.vi->WPI_DigitalInputOpen.vi->Begin.vi->Robot Main.vi,0.000000,0.000000,4000.000000,4000.000000,Speed,Speed,0.000000,0.000000,0.000000,3.000000,100.000000,0,0,-0.003968,-0.005022,0
02:29:52.649 PM 02/06/2016,Teleop Enabled,0,TRUE,-63195,Read/Write Control in FPGA_DIOReadOutputEnable.vi->WPI_DigitalModuleDIOAllocator.vi->WPI_DigitalInputOpen.vi->Begin.vi->Robot Main.vi,0.000000,0.000000,4000.000000,4000.000000,Speed,Speed,0.000000,0.000000,0.000000,3.000000,100.000000,0,0,-0.003968,-0.005022,0
02:29:52.749 PM 02/06/2016,Teleop Enabled,0,TRUE,-63195,Read/Write Control in FPGA_DIOReadOutputEnable.vi->WPI_DigitalModuleDIOAllocator.vi->WPI_DigitalInputOpen.vi->Begin.vi->Robot Main.vi,0.000000,0.000000,4000.000000,4000.000000,Speed,Speed,0.000000,0.000000,0.000000,3.000000,100.000000,0,0,-0.003968,-0.005022,0
02:29:52.850 PM 02/06/2016,Teleop Enabled,0,TRUE,-63195,Read/Write Control in FPGA_DIOReadOutputEnable.vi->WPI_DigitalModuleDIOAllocator.vi->WPI_DigitalInputOpen.vi->Begin.vi->Robot Main.vi,0.000000,0.000000,4000.000000,4000.000000,Speed,Speed,0.000000,0.000000,0.000000,3.000000,102.000000,0,0,-0.003968,-0.005022,0
02:29:52.950 PM 02/06/2016,Teleop Enabled,0,TRUE,-63195,Read/Write Control in FPGA_DIOReadOutputEnable.vi->WPI_DigitalModuleDIOAllocator.vi->WPI_DigitalInputOpen.vi->Begin.vi->Robot Main.vi,0.000000,0.000000,4000.000000,4000.000000,Speed,Speed,0.000000,0.000000,0.000000,3.000000,100.000000,0,0,-0.003968,-0.005022,0
02:29:53.050 PM 02/06/2016,Teleop Enabled,0,TRUE,-63195,Read/Write Control in FPGA_DIOReadOutputEnable.vi->WPI_DigitalModuleDIOAllocator.vi->WPI_DigitalInputOpen.vi->Begin.vi->Robot Main.vi,0.000000,0.000000,4000.000000,4000.000000,Speed,Speed,0.000000,0.000000,0.000000,3.000000,100.000000,0,0,-0.003968,-0.005022,0
02:29:53.151 PM 02/06/2016,Teleop Enabled,0,TRUE,-63195,Read/Write Control in FPGA_DIOReadOutputEnable.vi->WPI_DigitalModuleDIOAllocator.vi->WPI_DigitalInputOpen.vi->Begin.vi->Robot Main.vi,0.000000,0.000000,4000.000000,4000.000000,Speed,Speed,0.000000,0.000000,0.000000,3.000000,102.000000,0,0,-0.003968,-0.005022,0
02:29:53.251 PM 02/06/2016,Teleop Enabled,0,TRUE,-63195,Read/Write Control in FPGA_DIOReadOutputEnable.vi->WPI_DigitalModuleDIOAllocator.vi->WPI_DigitalInputOpen.vi->Begin.vi->Robot Main.vi,0.000000,0.000000,4000.000000,4000.000000,Speed,Speed,0.000000,0.000000,0.000000,3.000000,103.000000,0,0,-0.003968,-0.005022,0
02:29:53.351 PM 02/06/2016,Teleop Enabled,0,TRUE,-44087,NetComm_CAN_Receive.vi:5470007<APPEND>

<b>Complete call chain:</b>
     NetComm_CAN_Receive.vi:5470007
     WPI_CANTalonSRX_Receive.vi
     WPI_CANTalonSRX_GetStatus.vi
     ShooterVI.vi
     Periodic Tasks.vi
     Robot Main.vi,0.000000,0.000000,4000.000000,4000.000000,Speed,Speed,0.000000,0.000000,0.000000,3.000000,100.000000,0,0,-0.003968,-0.005022,0
02:29:53.452 PM 02/06/2016,Teleop Enabled,0,TRUE,-44087,NetComm_CAN_Receive.vi:5470007<APPEND>

<b>Complete call chain:</b>
     NetComm_CAN_Receive.vi:5470007
     WPI_CANTalonSRX_Receive.vi
     WPI_CANTalonSRX_GetStatus.vi
     ShooterVI.vi
     Periodic Tasks.vi
     Robot Main.vi,0.000000,0.000000,4000.000000,4000.000000,Speed,Speed,0.000000,0.000000,0.000000,3.000000,100.000000,0,0,-0.003968,-0.005022,0
02:29:53.553 PM 02/06/2016,Teleop Enabled,0,TRUE,-44087,NetComm_CAN_Receive.vi:5470007<APPEND>

<b>Complete call chain:</b>
     NetComm_CAN_Receive.vi:5470007
     WPI_CANTalonSRX_Receive.vi
     WPI_MotorControlOpenCANTalonSRX.vi
     Begin.vi
     Robot Main.vi,0.000000,0.000000,4000.000000,4000.000000,Speed,Speed,0.000000,0.000000,0.000000,3.000000,100.000000,0,0,-0.003968,-0.005022,0
02:29:53.653 PM 02/06/2016,Teleop Enabled,0,TRUE,-63195,Read/Write Control in FPGA_DIOReadOutputEnable.vi->WPI_DigitalModuleDIOAllocator.vi->WPI_DigitalInputOpen.vi->Begin.vi->Robot Main.vi,0.000000,0.000000,4000.000000,4000.000000,Speed,Speed,0.000000,0.000000,0.000000,3.000000,100.000000,0,0,-0.003968,-0.005022,0
02:29:53.754 PM 02/06/2016,Teleop Enabled,0,TRUE,-63195,Read/Write Control in FPGA_DIOReadOutputEnable.vi->WPI_DigitalModuleDIOAllocator.vi->WPI_DigitalInputOpen.vi->Begin.vi->Robot Main.vi,0.000000,0.000000,4000.000000,4000.000000,Speed,Speed,0.000000,0.000000,0.000000,3.000000,101.000000,0,0,-0.003968,-0.005022,0
02:29:53.854 PM 02/06/2016,Teleop Enabled,0,TRUE,-63195,Read/Write Control in FPGA_AIReadConfig.vi->WPI_AccumulatorGetOutput.vi->WPI_GyroAnalogOpen.vi->Begin.vi->Robot Main.vi,0.000000,0.000000,4000.000000,4000.000000,Speed,Speed,0.000000,0.000000,0.000000,3.000000,102.000000,0,0,-0.003968,-0.005022,0
02:29:53.955 PM 02/06/2016,Teleop Enabled,0,TRUE,-44071,<LOCATION>WPI_AccumulatorGetOutput.vi<CALLSTACK>WPI_AccumulatorGetOutput.vi< <WPI_GyroAnalogGetAngle.vi< <WPI_GyroGetAngle.vi< <Periodic Tasks.vi< <Robot Main.vi,0.000000,0.000000,4000.000000,4000.000000,Speed,Speed,0.000000,0.000000,0.000000,3.000000,101.000000,0,0,-0.003968,-0.005022,0
02:29:54.056 PM 02/06/2016,Teleop Enabled,0,TRUE,-44071,<LOCATION>WPI_AccumulatorGetOutput.vi<CALLSTACK>WPI_AccumulatorGetOutput.vi< <WPI_GyroAnalogGetAngle.vi< <WPI_GyroGetAngle.vi< <Periodic Tasks.vi< <Robot Main.vi,0.000000,0.000000,4000.000000,4000.000000,Speed,Speed,0.000000,0.000000,0.000000,3.000000,101.000000,0,0,-0.003968,-0.005022,0
02:29:54.156 PM 02/06/2016,Teleop Enabled,0,TRUE,-44070,<LOCATION>FPGA_AIReadAccumulatorOutput.vi<CALLSTACK>FPGA_AIReadAccumulatorOutput.vi< <WPI_AccumulatorGetOutput.vi< <WPI_GyroAnalogGetAngle.vi< <WPI_GyroGetAngle.vi< <Periodic Tasks.vi< <Robot Main.vi,0.000000,0.000000,4000.000000,4000.000000,Speed,Speed,0.000000,0.000000,0.000000,3.000000,101.000000,0,0,-0.003968,-0.005022,0
02:29:54.257 PM 02/06/2016,Teleop Enabled,0,TRUE,-63195,Read/Write Control in FPGA_AIReadConfig.vi->WPI_AccumulatorGetOutput.vi->WPI_GyroAnalogGetAngle.vi->WPI_GyroGetAngle.vi->Periodic Tasks.vi->Robot Main.vi,0.000000,0.000000,4000.000000,4000.000000,Speed,Speed,0.000000,0.000000,0.000000,3.000000,100.000000,0,0,-0.003968,-0.005022,0
02:29:54.358 PM 02/06/2016,Teleop Enabled,0,TRUE,-44071,<LOCATION>FPGA_ReadAI.vi<CALLSTACK>FPGA_ReadAI.vi< <WPI_GyroAnalogGetAngle.vi< <WPI_GyroGetAngle.vi< <Periodic Tasks.vi< <Robot Main.vi,0.000000,0.000000,4000.000000,4000.000000,Speed,Speed,0.000000,0.000000,0.000000,3.000000,101.000000,0,0,-0.003968,-0.005022,0
02:29:54.458 PM 02/06/2016,Teleop Disabled,0,TRUE,-44071,<LOCATION>FPGA_ReadAI.vi<CALLSTACK>FPGA_ReadAI.vi< <WPI_GyroAnalogGetAngle.vi< <WPI_GyroGetAngle.vi< <Periodic Tasks.vi< <Robot Main.vi,0.000000,0.000000,4000.000000,4000.000000,Speed,Speed,0.000000,0.000000,0.000000,3.000000,101.000000,0,0,-0.003968,-0.005022,0
02:29:54.558 PM 02/06/2016,Teleop Disabled,0,TRUE,-63195,Read/Write Control in FPGA_AIReadConfig.vi->WPI_AccumulatorGetOutput.vi->WPI_GyroAnalogOpen.vi->Begin.vi->Robot Main.vi,0.000000,0.000000,4000.000000,4000.000000,Speed,Speed,0.000000,0.000000,0.000000,3.000000,101.000000,0,0,-0.003968,-0.005022,0
02:29:54.658 PM 02/06/2016,Teleop Disabled,0,TRUE,-44071,<LOCATION>WPI_AnalogChannelValueToVoltage.vi<CALLSTACK>WPI_AnalogChannelValueToVoltage.vi< <WPI_GyroAnalogGetAngle.vi< <WPI_GyroGetAngle.vi< <Periodic Tasks.vi< <Robot Main.vi,0.000000,0.000000,4000.000000,4000.000000,Speed,Speed,0.000000,0.000000,0.000000,3.000000,100.000000,0,0,-0.003968,-0.005022,0
02:29:54.758 PM 02/06/2016,Teleop Disabled,0,TRUE,-63195,Read/Write Control in FPGA_DIOReadOutputEnable.vi->WPI_DigitalModuleDIOAllocator.vi->WPI_DigitalInputOpen.vi->Begin.vi->Robot Main.vi,0.000000,0.000000,4000.000000,4000.000000,Speed,Speed,0.000000,0.000000,0.000000,3.000000,100.000000,0,0,-0.003968,-0.005022,0
02:29:54.859 PM 02/06/2016,Teleop Disabled,0,TRUE,-63195,Read/Write Control in FPGA_DIOReadOutputEnable.vi->WPI_DigitalModuleDIOAllocator.vi->WPI_DigitalInputOpen.vi->Begin.vi->Robot Main.vi,0.000000,0.000000,4000.000000,4000.000000,Speed,Speed,0.000000,0.000000,0.000000,3.000000,102.000000,0,0,-0.003968,-0.005022,0
