Time,RobotMode,AutoToRun,ErrorStatus, ErrorCode,ErrorSource,ActualRPM1,ActualRPM2,DesiredRPM1,DesiredRPM2,ControlMode1,ControlMode2,Yaw,Roll,Pitch,ShooterState,LoopTime,IsLevel,IsAutoTargeting,LeftMotorOutput,RightMotorOutput
04:42:36.308 PM 02/06/2016,Teleop Enabled,0,TRUE,-44087,NetComm_CAN_Receive.vi:5470007<APPEND>

<b>Complete call chain:</b>
     NetComm_CAN_Receive.vi:5470007
     WPI_CANTalonSRX_Receive.vi
     WPI_MotorControlOpenCANTalonSRX.vi
     Begin.vi
     Robot Main.vi,0.000000,0.000000,0.000000,0.000000,Speed,Speed,-0.530000,1.220000,2.620000,0.000000,100.000000,0,0,-0.001550,-0.000000,0
04:42:36.408 PM 02/06/2016,Teleop Enabled,0,TRUE,-44087,NetComm_CAN_Receive.vi:5470007<APPEND>

<b>Complete call chain:</b>
     NetComm_CAN_Receive.vi:5470007
     WPI_CANTalonSRX_Receive.vi
     WPI_MotorControlOpenCANTalonSRX.vi
     Begin.vi
     Robot Main.vi,0.000000,0.000000,0.000000,0.000000,Speed,Speed,-0.530000,1.220000,2.620000,0.000000,101.000000,0,0,-0.001550,-0.000000,0
04:42:36.509 PM 02/06/2016,Teleop Enabled,0,TRUE,-44087,NetComm_CAN_Receive.vi:5470007<APPEND>

<b>Complete call chain:</b>
     NetComm_CAN_Receive.vi:5470007
     WPI_CANTalonSRX_Receive.vi
     WPI_MotorControlOpenCANTalonSRX.vi
     Begin.vi
     Robot Main.vi,0.000000,0.000000,0.000000,0.000000,Speed,Speed,-0.530000,1.220000,2.620000,0.000000,101.000000,0,0,-0.001550,-0.000000,0
04:42:36.610 PM 02/06/2016,Teleop Enabled,0,TRUE,-44087,NetComm_CAN_Receive.vi:5470007<APPEND>

<b>Complete call chain:</b>
     NetComm_CAN_Receive.vi:5470007
     WPI_CANTalonSRX_Receive.vi
     WPI_MotorControlOpenCANTalonSRX.vi
     Begin.vi
     Robot Main.vi,0.000000,0.000000,0.000000,0.000000,Speed,Speed,-0.530000,1.220000,2.620000,0.000000,101.000000,0,0,-0.001550,-0.000000,0
04:42:36.710 PM 02/06/2016,Teleop Enabled,0,TRUE,-44087,NetComm_CAN_Receive.vi:5470007<APPEND>

<b>Complete call chain:</b>
     NetComm_CAN_Receive.vi:5470007
     WPI_CANTalonSRX_Receive.vi
     WPI_MotorControlOpenCANTalonSRX.vi
     Begin.vi
     Robot Main.vi,0.000000,0.000000,0.000000,0.000000,Speed,Speed,-0.530000,1.220000,2.620000,0.000000,101.000000,0,0,-0.001550,-0.000000,0
04:42:36.810 PM 02/06/2016,Teleop Enabled,0,TRUE,-44087,NetComm_CAN_Receive.vi:5470007<APPEND>

<b>Complete call chain:</b>
     NetComm_CAN_Receive.vi:5470007
     WPI_CANTalonSRX_Receive.vi
     WPI_MotorControlOpenCANTalonSRX.vi
     Begin.vi
     Robot Main.vi,0.000000,0.000000,0.000000,0.000000,Speed,Speed,-0.520000,1.220000,2.620000,0.000000,101.000000,0,0,-0.001550,-0.000000,0
04:42:36.912 PM 02/06/2016,Teleop Enabled,0,TRUE,-44087,NetComm_CAN_Receive.vi:5470007<APPEND>

<b>Complete call chain:</b>
     NetComm_CAN_Receive.vi:5470007
     WPI_CANTalonSRX_Receive.vi
     WPI_MotorControlOpenCANTalonSRX.vi
     Begin.vi
     Robot Main.vi,0.000000,0.000000,0.000000,0.000000,Speed,Speed,-0.510000,1.220000,2.620000,0.000000,101.000000,0,0,-0.001550,-0.000000,0
04:42:37.012 PM 02/06/2016,Teleop Enabled,0,TRUE,-44087,NetComm_CAN_Receive.vi:5470007<APPEND>

<b>Complete call chain:</b>
     NetComm_CAN_Receive.vi:5470007
     WPI_CANTalonSRX_Receive.vi
     WPI_MotorControlOpenCANTalonSRX.vi
     Begin.vi
     Robot Main.vi,0.000000,0.000000,0.000000,0.000000,Speed,Speed,-0.510000,1.220000,2.620000,0.000000,102.000000,0,0,-0.001550,-0.000000,0
04:42:37.113 PM 02/06/2016,Teleop Enabled,0,TRUE,-44087,NetComm_CAN_Receive.vi:5470007<APPEND>

<b>Complete call chain:</b>
     NetComm_CAN_Receive.vi:5470007
     WPI_CANTalonSRX_Receive.vi
     WPI_MotorControlOpenCANTalonSRX.vi
     Begin.vi
     Robot Main.vi,0.000000,0.000000,0.000000,0.000000,Speed,Speed,-0.530000,1.220000,2.640000,0.000000,102.000000,0,0,-0.001550,-0.000000,0
04:42:37.214 PM 02/06/2016,Teleop Enabled,0,TRUE,-44087,NetComm_CAN_Receive.vi:5470007<APPEND>

<b>Complete call chain:</b>
     NetComm_CAN_Receive.vi:5470007
     WPI_CANTalonSRX_Receive.vi
     WPI_MotorControlOpenCANTalonSRX.vi
     Begin.vi
     Robot Main.vi,0.000000,0.000000,0.000000,0.000000,Speed,Speed,-0.560000,1.230000,2.660000,0.000000,104.000000,0,0,-0.001550,-0.000000,0
04:42:37.314 PM 02/06/2016,Teleop Enabled,0,TRUE,-44087,NetComm_CAN_Receive.vi:5470007<APPEND>

<b>Complete call chain:</b>
     NetComm_CAN_Receive.vi:5470007
     WPI_CANTalonSRX_Receive.vi
     WPI_MotorControlOpenCANTalonSRX.vi
     Begin.vi
     Robot Main.vi,0.000000,0.000000,0.000000,0.000000,Speed,Speed,-0.570000,1.230000,2.680000,0.000000,102.000000,0,0,-0.001550,-0.000000,0
04:42:37.417 PM 02/06/2016,Teleop Enabled,0,TRUE,-44087,NetComm_CAN_Receive.vi:5470007<APPEND>

<b>Complete call chain:</b>
     NetComm_CAN_Receive.vi:5470007
     WPI_CANTalonSRX_Receive.vi
     WPI_MotorControlOpenCANTalonSRX.vi
     Begin.vi
     Robot Main.vi,0.000000,0.000000,0.000000,0.000000,Speed,Speed,-0.570000,1.230000,2.700000,0.000000,100.000000,0,0,-0.001550,-0.000000,0
04:42:37.519 PM 02/06/2016,Teleop Enabled,0,TRUE,-44087,NetComm_CAN_Receive.vi:5470007<APPEND>

<b>Complete call chain:</b>
     NetComm_CAN_Receive.vi:5470007
     WPI_CANTalonSRX_Receive.vi
     WPI_MotorControlOpenCANTalonSRX.vi
     Begin.vi
     Robot Main.vi,0.000000,0.000000,-6000.000000,-6000.000000,Speed,Speed,-0.570000,1.230000,2.710000,1.000000,100.000000,0,0,-0.001550,-0.000000,0
04:42:37.620 PM 02/06/2016,Teleop Enabled,0,TRUE,-44087,NetComm_CAN_Receive.vi:5470007<APPEND>

<b>Complete call chain:</b>
     NetComm_CAN_Receive.vi:5470007
     WPI_CANTalonSRX_Receive.vi
     WPI_CANTalonSRX_GetStatus.vi
     ShooterVI.vi
     Periodic Tasks.vi
     Robot Main.vi,0.000000,0.000000,-6000.000000,-6000.000000,Speed,Speed,-0.560000,1.230000,2.700000,1.000000,101.000000,0,0,-0.001550,-0.000000,0
04:42:37.721 PM 02/06/2016,Teleop Enabled,0,TRUE,-44087,NetComm_CAN_Receive.vi:5470007<APPEND>

<b>Complete call chain:</b>
     NetComm_CAN_Receive.vi:5470007
     WPI_CANTalonSRX_Receive.vi
     WPI_CANTalonSRX_GetStatus.vi
     ShooterVI.vi
     Periodic Tasks.vi
     Robot Main.vi,0.000000,0.000000,-6000.000000,-6000.000000,Speed,Speed,-0.560000,1.230000,2.710000,1.000000,102.000000,0,0,-0.001550,-0.000000,0
04:42:37.823 PM 02/06/2016,Teleop Enabled,0,TRUE,-44087,NetComm_CAN_Receive.vi:5470007<APPEND>

<b>Complete call chain:</b>
     NetComm_CAN_Receive.vi:5470007
     WPI_CANTalonSRX_Receive.vi
     WPI_MotorControlOpenCANTalonSRX.vi
     Begin.vi
     Robot Main.vi,0.000000,0.000000,-6000.000000,-6000.000000,Speed,Speed,-0.560000,1.220000,2.710000,1.000000,103.000000,0,0,-0.001550,-0.000000,0
04:42:37.924 PM 02/06/2016,Teleop Enabled,0,TRUE,-44087,NetComm_CAN_Receive.vi:5470007<APPEND>

<b>Complete call chain:</b>
     NetComm_CAN_Receive.vi:5470007
     WPI_CANTalonSRX_Receive.vi
     WPI_CANTalonSRX_GetStatus.vi
     ShooterVI.vi
     Periodic Tasks.vi
     Robot Main.vi,0.000000,0.000000,-6000.000000,-6000.000000,Speed,Speed,-0.540000,1.220000,2.710000,1.000000,102.000000,0,0,-0.001550,-0.000000,0
04:42:38.027 PM 02/06/2016,Teleop Enabled,0,TRUE,-44087,NetComm_CAN_Receive.vi:5470007<APPEND>

<b>Complete call chain:</b>
     NetComm_CAN_Receive.vi:5470007
     WPI_CANTalonSRX_Receive.vi
     WPI_CANTalonSRX_GetStatus.vi
     ShooterVI.vi
     Periodic Tasks.vi
     Robot Main.vi,0.000000,0.000000,0.000000,0.000000,Speed,Speed,-0.540000,1.230000,2.700000,2.000000,100.000000,0,0,-0.001550,-0.000000,0
04:42:38.128 PM 02/06/2016,Teleop Enabled,0,TRUE,-44087,NetComm_CAN_Receive.vi:5470007<APPEND>

<b>Complete call chain:</b>
     NetComm_CAN_Receive.vi:5470007
     WPI_CANTalonSRX_Receive.vi
     WPI_CANTalonSRX_GetStatus.vi
     ShooterVI.vi
     Periodic Tasks.vi
     Robot Main.vi,0.000000,0.000000,0.000000,0.000000,Speed,Speed,-0.540000,1.230000,2.710000,2.000000,100.000000,0,0,-0.001550,-0.000000,0
04:42:38.230 PM 02/06/2016,Teleop Enabled,0,TRUE,-44087,NetComm_CAN_Receive.vi:5470007<APPEND>

<b>Complete call chain:</b>
     NetComm_CAN_Receive.vi:5470007
     WPI_CANTalonSRX_Receive.vi
     WPI_MotorControlOpenCANTalonSRX.vi
     Begin.vi
     Robot Main.vi,0.000000,0.000000,0.000000,0.000000,Speed,Speed,-0.540000,1.230000,2.700000,2.000000,102.000000,0,0,-0.001550,-0.000000,0
04:42:38.330 PM 02/06/2016,Teleop Enabled,0,TRUE,-44087,NetComm_CAN_Receive.vi:5470007<APPEND>

<b>Complete call chain:</b>
     NetComm_CAN_Receive.vi:5470007
     WPI_CANTalonSRX_Receive.vi
     WPI_CANTalonSRX_GetStatus.vi
     ShooterVI.vi
     Periodic Tasks.vi
     Robot Main.vi,0.000000,0.000000,0.000000,0.000000,Speed,Speed,-0.540000,1.230000,2.700000,2.000000,101.000000,0,0,-0.001550,-0.000000,0
04:42:38.432 PM 02/06/2016,Teleop Enabled,0,TRUE,-44087,NetComm_CAN_Receive.vi:5470007<APPEND>

<b>Complete call chain:</b>
     NetComm_CAN_Receive.vi:5470007
     WPI_CANTalonSRX_Receive.vi
     WPI_MotorControlOpenCANTalonSRX.vi
     Begin.vi
     Robot Main.vi,0.000000,0.000000,0.000000,0.000000,Speed,Speed,-0.540000,1.240000,2.710000,2.000000,101.000000,0,0,-0.001550,-0.000000,0
04:42:38.532 PM 02/06/2016,Teleop Enabled,0,TRUE,-44087,NetComm_CAN_Receive.vi:5470007<APPEND>

<b>Complete call chain:</b>
     NetComm_CAN_Receive.vi:5470007
     WPI_CANTalonSRX_Receive.vi
     WPI_CANTalonSRX_GetStatus.vi
     ShooterVI.vi
     Periodic Tasks.vi
     Robot Main.vi,0.000000,0.000000,0.000000,0.000000,Speed,Speed,-0.540000,1.230000,2.710000,2.000000,101.000000,0,0,-0.001550,-0.000000,0
04:42:38.632 PM 02/06/2016,Teleop Enabled,0,TRUE,-44087,NetComm_CAN_Receive.vi:5470007<APPEND>

<b>Complete call chain:</b>
     NetComm_CAN_Receive.vi:5470007
     WPI_CANTalonSRX_Receive.vi
     WPI_CANTalonSRX_GetStatus.vi
     ShooterVI.vi
     Periodic Tasks.vi
     Robot Main.vi,0.000000,0.000000,0.000000,0.000000,Speed,Speed,-0.540000,1.240000,2.710000,2.000000,100.000000,0,0,-0.001550,-0.000000,0
04:42:38.732 PM 02/06/2016,Teleop Enabled,0,TRUE,-44087,NetComm_CAN_Receive.vi:5470007<APPEND>

<b>Complete call chain:</b>
     NetComm_CAN_Receive.vi:5470007
     WPI_CANTalonSRX_Receive.vi
     WPI_MotorControlOpenCANTalonSRX.vi
     Begin.vi
     Robot Main.vi,0.000000,0.000000,0.000000,0.000000,Speed,Speed,-0.540000,1.230000,2.710000,2.000000,100.000000,0,0,-0.001550,-0.000000,0
04:42:38.832 PM 02/06/2016,Teleop Enabled,0,TRUE,-44087,NetComm_CAN_Receive.vi:5470007<APPEND>

<b>Complete call chain:</b>
     NetComm_CAN_Receive.vi:5470007
     WPI_CANTalonSRX_Receive.vi
     WPI_CANTalonSRX_GetStatus.vi
     ShooterVI.vi
     Periodic Tasks.vi
     Robot Main.vi,0.000000,0.000000,0.000000,0.000000,Speed,Speed,-0.540000,1.240000,2.710000,2.000000,102.000000,0,0,-0.001550,-0.000000,0
04:42:38.933 PM 02/06/2016,Teleop Enabled,0,TRUE,-44087,NetComm_CAN_Receive.vi:5470007<APPEND>

<b>Complete call chain:</b>
     NetComm_CAN_Receive.vi:5470007
     WPI_CANTalonSRX_Receive.vi
     WPI_CANTalonSRX_GetStatus.vi
     ShooterVI.vi
     Periodic Tasks.vi
     Robot Main.vi,0.000000,0.000000,0.000000,0.000000,Speed,Speed,-0.540000,1.240000,2.710000,2.000000,100.000000,0,0,-0.001550,-0.000000,0
04:42:39.033 PM 02/06/2016,Teleop Enabled,0,TRUE,-44087,NetComm_CAN_Receive.vi:5470007<APPEND>

<b>Complete call chain:</b>
     NetComm_CAN_Receive.vi:5470007
     WPI_CANTalonSRX_Receive.vi
     WPI_CANTalonSRX_GetStatus.vi
     ShooterVI.vi
     Periodic Tasks.vi
     Robot Main.vi,0.000000,0.000000,0.000000,0.000000,Speed,Speed,-0.540000,1.240000,2.710000,2.000000,101.000000,0,0,-0.001550,-0.000000,0
04:42:39.134 PM 02/06/2016,Teleop Enabled,0,TRUE,-44087,NetComm_CAN_Receive.vi:5470007<APPEND>

<b>Complete call chain:</b>
     NetComm_CAN_Receive.vi:5470007
     WPI_CANTalonSRX_Receive.vi
     WPI_MotorControlOpenCANTalonSRX.vi
     Begin.vi
     Robot Main.vi,0.000000,0.000000,0.000000,0.000000,Speed,Speed,-0.540000,1.240000,2.710000,2.000000,101.000000,0,0,-0.001550,-0.000000,0
04:42:39.237 PM 02/06/2016,Teleop Enabled,0,TRUE,-44087,NetComm_CAN_Receive.vi:5470007<APPEND>

<b>Complete call chain:</b>
     NetComm_CAN_Receive.vi:5470007
     WPI_CANTalonSRX_Receive.vi
     WPI_CANTalonSRX_GetStatus.vi
     ShooterVI.vi
     Periodic Tasks.vi
     Robot Main.vi,0.000000,0.000000,4000.000000,4000.000000,Speed,Speed,-0.540000,1.240000,2.710000,3.000000,101.000000,0,0,-0.001550,-0.000000,0
04:42:39.336 PM 02/06/2016,Teleop Enabled,0,TRUE,-44087,NetComm_CAN_Receive.vi:5470007<APPEND>

<b>Complete call chain:</b>
     NetComm_CAN_Receive.vi:5470007
     WPI_CANTalonSRX_Receive.vi
     WPI_MotorControlOpenCANTalonSRX.vi
     Begin.vi
     Robot Main.vi,0.000000,0.000000,4000.000000,4000.000000,Speed,Speed,-0.540000,1.240000,2.710000,3.000000,101.000000,0,0,-0.001550,-0.000000,0
04:42:39.436 PM 02/06/2016,Teleop Enabled,0,TRUE,-44087,NetComm_CAN_Receive.vi:5470007<APPEND>

<b>Complete call chain:</b>
     NetComm_CAN_Receive.vi:5470007
     WPI_CANTalonSRX_Receive.vi
     WPI_CANTalonSRX_GetStatus.vi
     ShooterVI.vi
     Periodic Tasks.vi
     Robot Main.vi,0.000000,0.000000,4000.000000,4000.000000,Speed,Speed,-0.540000,1.240000,2.700000,3.000000,103.000000,0,0,-0.001550,-0.000000,0
04:42:39.538 PM 02/06/2016,Teleop Enabled,0,TRUE,-44087,NetComm_CAN_Receive.vi:5470007<APPEND>

<b>Complete call chain:</b>
     NetComm_CAN_Receive.vi:5470007
     WPI_CANTalonSRX_Receive.vi
     WPI_CANTalonSRX_GetStatus.vi
     ShooterVI.vi
     Periodic Tasks.vi
     Robot Main.vi,0.000000,0.000000,4000.000000,4000.000000,Speed,Speed,-0.540000,1.240000,2.710000,3.000000,101.000000,0,0,-0.001550,-0.000000,0
04:42:39.639 PM 02/06/2016,Teleop Enabled,0,TRUE,-44087,NetComm_CAN_Receive.vi:5470007<APPEND>

<b>Complete call chain:</b>
     NetComm_CAN_Receive.vi:5470007
     WPI_CANTalonSRX_Receive.vi
     WPI_MotorControlOpenCANTalonSRX.vi
     Begin.vi
     Robot Main.vi,0.000000,0.000000,4000.000000,4000.000000,Speed,Speed,-0.540000,1.240000,2.710000,3.000000,103.000000,0,0,-0.001550,-0.000000,0
04:42:39.740 PM 02/06/2016,Teleop Enabled,0,TRUE,-44087,NetComm_CAN_Receive.vi:5470007<APPEND>

<b>Complete call chain:</b>
     NetComm_CAN_Receive.vi:5470007
     WPI_CANTalonSRX_Receive.vi
     WPI_CANTalonSRX_GetStatus.vi
     ShooterVI.vi
     Periodic Tasks.vi
     Robot Main.vi,0.000000,0.000000,4000.000000,4000.000000,Speed,Speed,-0.540000,1.240000,2.700000,3.000000,100.000000,0,0,-0.000248,-0.000000,0
04:42:39.840 PM 02/06/2016,Teleop Enabled,0,TRUE,-44087,NetComm_CAN_Receive.vi:5470007<APPEND>

<b>Complete call chain:</b>
     NetComm_CAN_Receive.vi:5470007
     WPI_CANTalonSRX_Receive.vi
     WPI_CANTalonSRX_GetStatus.vi
     ShooterVI.vi
     Periodic Tasks.vi
     Robot Main.vi,0.000000,0.000000,4000.000000,4000.000000,Speed,Speed,-0.540000,1.240000,2.700000,3.000000,106.000000,0,0,0.002232,0.000248,0
04:42:39.941 PM 02/06/2016,Teleop Enabled,0,TRUE,-44087,NetComm_CAN_Receive.vi:5470007<APPEND>

<b>Complete call chain:</b>
     NetComm_CAN_Receive.vi:5470007
     WPI_CANTalonSRX_Receive.vi
     WPI_MotorControlOpenCANTalonSRX.vi
     Begin.vi
     Robot Main.vi,0.000000,0.000000,4000.000000,4000.000000,Speed,Speed,-0.540000,1.240000,2.710000,3.000000,100.000000,0,0,0.002232,0.000248,0
04:42:40.041 PM 02/06/2016,Teleop Enabled,0,TRUE,-44087,NetComm_CAN_Receive.vi:5470007<APPEND>

<b>Complete call chain:</b>
     NetComm_CAN_Receive.vi:5470007
     WPI_CANTalonSRX_Receive.vi
     WPI_CANTalonSRX_GetStatus.vi
     ShooterVI.vi
     Periodic Tasks.vi
     Robot Main.vi,0.000000,0.000000,4000.000000,4000.000000,Speed,Speed,-0.540000,1.230000,2.700000,3.000000,100.000000,0,0,0.010478,0.000248,0
04:42:40.141 PM 02/06/2016,Teleop Enabled,0,TRUE,-44087,NetComm_CAN_Receive.vi:5470007<APPEND>

<b>Complete call chain:</b>
     NetComm_CAN_Receive.vi:5470007
     WPI_CANTalonSRX_Receive.vi
     WPI_CANTalonSRX_GetStatus.vi
     ShooterVI.vi
     Periodic Tasks.vi
     Robot Main.vi,0.000000,0.000000,4000.000000,4000.000000,Speed,Speed,-0.530000,1.240000,2.700000,3.000000,100.000000,0,0,0.059582,0.000248,0
04:42:40.243 PM 02/06/2016,Teleop Enabled,0,TRUE,-44087,NetComm_CAN_Receive.vi:5470007<APPEND>

<b>Complete call chain:</b>
     NetComm_CAN_Receive.vi:5470007
     WPI_CANTalonSRX_Receive.vi
     WPI_MotorControlOpenCANTalonSRX.vi
     Begin.vi
     Robot Main.vi,0.000000,0.000000,4000.000000,4000.000000,Speed,Speed,-0.530000,1.230000,2.710000,3.000000,103.000000,0,0,0.067518,0.000248,0
04:42:40.345 PM 02/06/2016,Teleop Enabled,0,TRUE,-44087,NetComm_CAN_Receive.vi:5470007<APPEND>

<b>Complete call chain:</b>
     NetComm_CAN_Receive.vi:5470007
     WPI_CANTalonSRX_Receive.vi
     WPI_CANTalonSRX_GetStatus.vi
     ShooterVI.vi
     Periodic Tasks.vi
     Robot Main.vi,0.000000,0.000000,4000.000000,4000.000000,Speed,Speed,-0.620000,1.230000,2.610000,3.000000,101.000000,0,0,0.075950,0.000248,0
04:42:40.445 PM 02/06/2016,Teleop Enabled,0,TRUE,-44087,NetComm_CAN_Receive.vi:5470007<APPEND>

<b>Complete call chain:</b>
     NetComm_CAN_Receive.vi:5470007
     WPI_CANTalonSRX_Receive.vi
     WPI_CANTalonSRX_GetStatus.vi
     ShooterVI.vi
     Periodic Tasks.vi
     Robot Main.vi,0.000000,0.000000,4000.000000,4000.000000,Speed,Speed,-0.600000,1.230000,2.590000,3.000000,103.000000,0,0,0.187550,0.000248,0
04:42:40.546 PM 02/06/2016,Teleop Enabled,0,TRUE,-44087,NetComm_CAN_Receive.vi:5470007<APPEND>

<b>Complete call chain:</b>
     NetComm_CAN_Receive.vi:5470007
     WPI_CANTalonSRX_Receive.vi
     WPI_MotorControlOpenCANTalonSRX.vi
     Begin.vi
     Robot Main.vi,0.000000,0.000000,4000.000000,4000.000000,Speed,Speed,-1.640000,1.400000,1.640000,3.000000,102.000000,0,0,0.015872,0.000248,0
04:42:40.647 PM 02/06/2016,Teleop Enabled,0,TRUE,-44087,NetComm_CAN_Receive.vi:5470007<APPEND>

<b>Complete call chain:</b>
     NetComm_CAN_Receive.vi:5470007
     WPI_CANTalonSRX_Receive.vi
     WPI_CANTalonSRX_GetStatus.vi
     ShooterVI.vi
     Periodic Tasks.vi
     Robot Main.vi,0.000000,0.000000,4000.000000,4000.000000,Speed,Speed,-3.010000,1.190000,2.340000,3.000000,101.000000,0,0,-0.015872,0.000248,0
04:42:40.748 PM 02/06/2016,Teleop Enabled,0,TRUE,-44087,NetComm_CAN_Receive.vi:5470007<APPEND>

<b>Complete call chain:</b>
     NetComm_CAN_Receive.vi:5470007
     WPI_CANTalonSRX_Receive.vi
     WPI_CANTalonSRX_GetStatus.vi
     ShooterVI.vi
     Periodic Tasks.vi
     Robot Main.vi,0.000000,0.000000,4000.000000,4000.000000,Speed,Speed,-2.150000,1.160000,2.950000,3.000000,101.000000,0,0,-0.295183,0.000248,0
04:42:40.849 PM 02/06/2016,Teleop Enabled,0,TRUE,-44087,NetComm_CAN_Receive.vi:5470007<APPEND>

<b>Complete call chain:</b>
     NetComm_CAN_Receive.vi:5470007
     WPI_CANTalonSRX_Receive.vi
     WPI_MotorControlOpenCANTalonSRX.vi
     Begin.vi
     Robot Main.vi,0.000000,0.000000,4000.000000,4000.000000,Speed,Speed,-1.720000,1.210000,3.430000,3.000000,101.000000,0,0,-0.013950,0.008928,0
04:42:40.949 PM 02/06/2016,Teleop Enabled,0,TRUE,-44087,NetComm_CAN_Receive.vi:5470007<APPEND>

<b>Complete call chain:</b>
     NetComm_CAN_Receive.vi:5470007
     WPI_CANTalonSRX_Receive.vi
     WPI_CANTalonSRX_GetStatus.vi
     ShooterVI.vi
     Periodic Tasks.vi
     Robot Main.vi,0.000000,0.000000,4000.000000,4000.000000,Speed,Speed,0.280000,1.040000,3.670000,3.000000,101.000000,0,0,-0.013950,0.075950,0
04:42:41.049 PM 02/06/2016,Teleop Enabled,0,TRUE,-44087,NetComm_CAN_Receive.vi:5470007<APPEND>

<b>Complete call chain:</b>
     NetComm_CAN_Receive.vi:5470007
     WPI_CANTalonSRX_Receive.vi
     WPI_CANTalonSRX_GetStatus.vi
     ShooterVI.vi
     Periodic Tasks.vi
     Robot Main.vi,0.000000,0.000000,4000.000000,4000.000000,Speed,Speed,1.430000,1.230000,3.210000,3.000000,101.000000,0,0,-0.013950,0.142848,0
04:42:41.149 PM 02/06/2016,Teleop Enabled,0,TRUE,-44087,NetComm_CAN_Receive.vi:5470007<APPEND>

<b>Complete call chain:</b>
     NetComm_CAN_Receive.vi:5470007
     WPI_CANTalonSRX_Receive.vi
     WPI_MotorControlOpenCANTalonSRX.vi
     Begin.vi
     Robot Main.vi,0.000000,0.000000,4000.000000,4000.000000,Speed,Speed,0.910000,1.160000,2.750000,3.000000,101.000000,0,0,-0.013950,0.022382,0
04:42:41.250 PM 02/06/2016,Teleop Enabled,0,TRUE,-44087,NetComm_CAN_Receive.vi:5470007<APPEND>

<b>Complete call chain:</b>
     NetComm_CAN_Receive.vi:5470007
     WPI_CANTalonSRX_Receive.vi
     WPI_CANTalonSRX_GetStatus.vi
     ShooterVI.vi
     Periodic Tasks.vi
     Robot Main.vi,0.000000,0.000000,4000.000000,4000.000000,Speed,Speed,0.030000,1.190000,2.870000,3.000000,101.000000,0,0,-0.013950,0.012152,0
04:42:41.351 PM 02/06/2016,Teleop Enabled,0,TRUE,-44087,NetComm_CAN_Receive.vi:5470007<APPEND>

<b>Complete call chain:</b>
     NetComm_CAN_Receive.vi:5470007
     WPI_CANTalonSRX_Receive.vi
     WPI_CANTalonSRX_GetStatus.vi
     ShooterVI.vi
     Periodic Tasks.vi
     Robot Main.vi,0.000000,0.000000,4000.000000,4000.000000,Speed,Speed,0.120000,1.280000,2.430000,3.000000,101.000000,0,0,-0.013950,0.012152,0
04:42:41.451 PM 02/06/2016,Teleop Enabled,0,TRUE,-44087,NetComm_CAN_Receive.vi:5470007<APPEND>

<b>Complete call chain:</b>
     NetComm_CAN_Receive.vi:5470007
     WPI_CANTalonSRX_Receive.vi
     WPI_MotorControlOpenCANTalonSRX.vi
     Begin.vi
     Robot Main.vi,0.000000,0.000000,4000.000000,4000.000000,Speed,Speed,0.480000,1.250000,2.500000,3.000000,101.000000,0,0,-0.013950,0.012152,0
04:42:41.553 PM 02/06/2016,Teleop Enabled,0,TRUE,-44087,NetComm_CAN_Receive.vi:5470007<APPEND>

<b>Complete call chain:</b>
     NetComm_CAN_Receive.vi:5470007
     WPI_CANTalonSRX_Receive.vi
     WPI_CANTalonSRX_GetStatus.vi
     ShooterVI.vi
     Periodic Tasks.vi
     Robot Main.vi,0.000000,0.000000,4000.000000,4000.000000,Speed,Speed,0.420000,1.240000,2.640000,3.000000,102.000000,0,0,-0.013950,0.006200,0
04:42:41.653 PM 02/06/2016,Teleop Enabled,0,TRUE,-44087,NetComm_CAN_Receive.vi:5470007<APPEND>

<b>Complete call chain:</b>
     NetComm_CAN_Receive.vi:5470007
     WPI_CANTalonSRX_Receive.vi
     WPI_CANTalonSRX_GetStatus.vi
     ShooterVI.vi
     Periodic Tasks.vi
     Robot Main.vi,0.000000,0.000000,4000.000000,4000.000000,Speed,Speed,0.500000,1.220000,2.620000,3.000000,101.000000,0,0,-0.013950,0.006200,0
04:42:41.754 PM 02/06/2016,Teleop Enabled,0,TRUE,-44087,NetComm_CAN_Receive.vi:5470007<APPEND>

<b>Complete call chain:</b>
     NetComm_CAN_Receive.vi:5470007
     WPI_CANTalonSRX_Receive.vi
     WPI_MotorControlOpenCANTalonSRX.vi
     Begin.vi
     Robot Main.vi,0.000000,0.000000,4000.000000,4000.000000,Speed,Speed,0.460000,1.240000,2.600000,3.000000,104.000000,0,0,0.000000,0.000000,1
04:42:41.854 PM 02/06/2016,Teleop Enabled,0,TRUE,-44087,NetComm_CAN_Receive.vi:5470007<APPEND>

<b>Complete call chain:</b>
     NetComm_CAN_Receive.vi:5470007
     WPI_CANTalonSRX_Receive.vi
     WPI_CANTalonSRX_GetStatus.vi
     ShooterVI.vi
     Periodic Tasks.vi
     Robot Main.vi,0.000000,0.000000,4000.000000,4000.000000,Speed,Speed,0.460000,1.240000,2.650000,3.000000,100.000000,0,0,0.000000,0.000000,1
04:42:41.955 PM 02/06/2016,Teleop Enabled,0,TRUE,-44087,NetComm_CAN_Receive.vi:5470007<APPEND>

<b>Complete call chain:</b>
     NetComm_CAN_Receive.vi:5470007
     WPI_CANTalonSRX_Receive.vi
     WPI_CANTalonSRX_GetStatus.vi
     ShooterVI.vi
     Periodic Tasks.vi
     Robot Main.vi,0.000000,0.000000,4000.000000,4000.000000,Speed,Speed,0.480000,1.240000,2.630000,3.000000,101.000000,0,0,0.000000,0.000000,1
04:42:42.056 PM 02/06/2016,Teleop Enabled,0,TRUE,-44087,NetComm_CAN_Receive.vi:5470007<APPEND>

<b>Complete call chain:</b>
     NetComm_CAN_Receive.vi:5470007
     WPI_CANTalonSRX_Receive.vi
     WPI_MotorControlOpenCANTalonSRX.vi
     Begin.vi
     Robot Main.vi,0.000000,0.000000,4000.000000,4000.000000,Speed,Speed,0.460000,1.240000,2.630000,3.000000,100.000000,0,0,0.000000,0.000000,1
04:42:42.158 PM 02/06/2016,Teleop Enabled,0,TRUE,-44087,NetComm_CAN_Receive.vi:5470007<APPEND>

<b>Complete call chain:</b>
     NetComm_CAN_Receive.vi:5470007
     WPI_CANTalonSRX_Receive.vi
     WPI_CANTalonSRX_GetStatus.vi
     ShooterVI.vi
     Periodic Tasks.vi
     Robot Main.vi,0.000000,0.000000,4000.000000,4000.000000,Speed,Speed,0.470000,1.240000,2.650000,3.000000,101.000000,0,0,0.000000,0.000000,1
04:42:42.260 PM 02/06/2016,Teleop Enabled,0,TRUE,-44087,NetComm_CAN_Receive.vi:5470007<APPEND>

<b>Complete call chain:</b>
     NetComm_CAN_Receive.vi:5470007
     WPI_CANTalonSRX_Receive.vi
     WPI_CANTalonSRX_GetStatus.vi
     ShooterVI.vi
     Periodic Tasks.vi
     Robot Main.vi,0.000000,0.000000,4000.000000,4000.000000,Speed,Speed,0.480000,1.240000,2.640000,3.000000,105.000000,0,0,0.000000,0.000000,1
04:42:42.366 PM 02/06/2016,Teleop Enabled,0,TRUE,-44087,NetComm_CAN_Receive.vi:5470007<APPEND>

<b>Complete call chain:</b>
     NetComm_CAN_Receive.vi:5470007
     WPI_CANTalonSRX_Receive.vi
     WPI_MotorControlOpenCANTalonSRX.vi
     Begin.vi
     Robot Main.vi,0.000000,0.000000,4000.000000,4000.000000,Speed,Speed,0.470000,1.240000,2.650000,3.000000,101.000000,0,0,0.000000,0.000000,1
04:42:42.467 PM 02/06/2016,Teleop Enabled,0,TRUE,-44087,NetComm_CAN_Receive.vi:5470007<APPEND>

<b>Complete call chain:</b>
     NetComm_CAN_Receive.vi:5470007
     WPI_CANTalonSRX_Receive.vi
     WPI_CANTalonSRX_GetStatus.vi
     ShooterVI.vi
     Periodic Tasks.vi
     Robot Main.vi,0.000000,0.000000,4000.000000,4000.000000,Speed,Speed,0.480000,1.250000,2.650000,3.000000,101.000000,0,0,0.000000,0.000000,1
04:42:42.568 PM 02/06/2016,Teleop Enabled,0,TRUE,-44087,NetComm_CAN_Receive.vi:5470007<APPEND>

<b>Complete call chain:</b>
     NetComm_CAN_Receive.vi:5470007
     WPI_CANTalonSRX_Receive.vi
     WPI_CANTalonSRX_GetStatus.vi
     ShooterVI.vi
     Periodic Tasks.vi
     Robot Main.vi,0.000000,0.000000,4000.000000,4000.000000,Speed,Speed,0.470000,1.240000,2.660000,3.000000,102.000000,0,0,0.000000,0.000000,1
04:42:42.669 PM 02/06/2016,Teleop Enabled,0,TRUE,-44087,NetComm_CAN_Receive.vi:5470007<APPEND>

<b>Complete call chain:</b>
     NetComm_CAN_Receive.vi:5470007
     WPI_CANTalonSRX_Receive.vi
     WPI_MotorControlOpenCANTalonSRX.vi
     Begin.vi
     Robot Main.vi,0.000000,0.000000,4000.000000,4000.000000,Speed,Speed,0.480000,1.240000,2.670000,3.000000,103.000000,0,0,-0.013950,0.000062,0
04:42:42.771 PM 02/06/2016,Teleop Enabled,0,TRUE,-44087,NetComm_CAN_Receive.vi:5470007<APPEND>

<b>Complete call chain:</b>
     NetComm_CAN_Receive.vi:5470007
     WPI_CANTalonSRX_Receive.vi
     WPI_CANTalonSRX_GetStatus.vi
     ShooterVI.vi
     Periodic Tasks.vi
     Robot Main.vi,0.000000,0.000000,4000.000000,4000.000000,Speed,Speed,0.480000,1.240000,2.670000,3.000000,101.000000,0,0,-0.013950,0.000062,0
04:42:42.872 PM 02/06/2016,Teleop Enabled,0,TRUE,-44087,NetComm_CAN_Receive.vi:5470007<APPEND>

<b>Complete call chain:</b>
     NetComm_CAN_Receive.vi:5470007
     WPI_CANTalonSRX_Receive.vi
     WPI_CANTalonSRX_GetStatus.vi
     ShooterVI.vi
     Periodic Tasks.vi
     Robot Main.vi,0.000000,0.000000,4000.000000,4000.000000,Speed,Speed,0.480000,1.250000,2.680000,3.000000,104.000000,0,0,-0.013950,0.000062,0
04:42:42.972 PM 02/06/2016,Teleop Enabled,0,TRUE,-44087,NetComm_CAN_Receive.vi:5470007<APPEND>

<b>Complete call chain:</b>
     NetComm_CAN_Receive.vi:5470007
     WPI_CANTalonSRX_Receive.vi
     WPI_MotorControlOpenCANTalonSRX.vi
     Begin.vi
     Robot Main.vi,0.000000,0.000000,4000.000000,4000.000000,Speed,Speed,0.480000,1.250000,2.670000,3.000000,102.000000,0,0,-0.013950,0.000062,0
04:42:43.072 PM 02/06/2016,Teleop Enabled,0,TRUE,-44087,NetComm_CAN_Receive.vi:5470007<APPEND>

<b>Complete call chain:</b>
     NetComm_CAN_Receive.vi:5470007
     WPI_CANTalonSRX_Receive.vi
     WPI_CANTalonSRX_GetStatus.vi
     ShooterVI.vi
     Periodic Tasks.vi
     Robot Main.vi,0.000000,0.000000,4000.000000,4000.000000,Speed,Speed,0.480000,1.250000,2.680000,3.000000,101.000000,0,0,-0.013950,0.000062,0
04:42:43.172 PM 02/06/2016,Teleop Enabled,0,TRUE,-44087,NetComm_CAN_Receive.vi:5470007<APPEND>

<b>Complete call chain:</b>
     NetComm_CAN_Receive.vi:5470007
     WPI_CANTalonSRX_Receive.vi
     WPI_CANTalonSRX_GetStatus.vi
     ShooterVI.vi
     Periodic Tasks.vi
     Robot Main.vi,0.000000,0.000000,4000.000000,4000.000000,Speed,Speed,0.480000,1.250000,2.680000,3.000000,104.000000,0,0,-0.013950,0.000248,0
04:42:43.272 PM 02/06/2016,Teleop Enabled,0,TRUE,-44087,NetComm_CAN_Receive.vi:5470007<APPEND>

<b>Complete call chain:</b>
     NetComm_CAN_Receive.vi:5470007
     WPI_CANTalonSRX_Receive.vi
     WPI_MotorControlOpenCANTalonSRX.vi
     Begin.vi
     Robot Main.vi,0.000000,0.000000,4000.000000,4000.000000,Speed,Speed,0.480000,1.250000,2.680000,3.000000,102.000000,0,0,-0.013950,0.000248,0
04:42:43.372 PM 02/06/2016,Teleop Enabled,0,TRUE,-44087,NetComm_CAN_Receive.vi:5470007<APPEND>

<b>Complete call chain:</b>
     NetComm_CAN_Receive.vi:5470007
     WPI_CANTalonSRX_Receive.vi
     WPI_CANTalonSRX_GetStatus.vi
     ShooterVI.vi
     Periodic Tasks.vi
     Robot Main.vi,0.000000,0.000000,4000.000000,4000.000000,Speed,Speed,0.480000,1.250000,2.690000,3.000000,101.000000,0,0,-0.013950,0.000062,0
04:42:43.472 PM 02/06/2016,Teleop Enabled,0,TRUE,-44087,NetComm_CAN_Receive.vi:5470007<APPEND>

<b>Complete call chain:</b>
     NetComm_CAN_Receive.vi:5470007
     WPI_CANTalonSRX_Receive.vi
     WPI_CANTalonSRX_GetStatus.vi
     ShooterVI.vi
     Periodic Tasks.vi
     Robot Main.vi,0.000000,0.000000,4000.000000,4000.000000,Speed,Speed,0.480000,1.250000,2.690000,3.000000,102.000000,0,0,-0.013950,0.000062,0
04:42:43.572 PM 02/06/2016,Teleop Enabled,0,TRUE,-44087,NetComm_CAN_Receive.vi:5470007<APPEND>

<b>Complete call chain:</b>
     NetComm_CAN_Receive.vi:5470007
     WPI_CANTalonSRX_Receive.vi
     WPI_CANTalonSRX_GetStatus.vi
     ShooterVI.vi
     Periodic Tasks.vi
     Robot Main.vi,0.000000,0.000000,4000.000000,4000.000000,Speed,Speed,0.480000,1.250000,2.690000,3.000000,101.000000,0,0,-0.013950,0.000062,0
04:42:43.672 PM 02/06/2016,Teleop Enabled,0,TRUE,-44087,NetComm_CAN_Receive.vi:5470007<APPEND>

<b>Complete call chain:</b>
     NetComm_CAN_Receive.vi:5470007
     WPI_CANTalonSRX_Receive.vi
     WPI_MotorControlOpenCANTalonSRX.vi
     Begin.vi
     Robot Main.vi,0.000000,0.000000,4000.000000,4000.000000,Speed,Speed,0.480000,1.250000,2.700000,3.000000,102.000000,0,0,-0.013950,0.000062,0
04:42:43.772 PM 02/06/2016,Teleop Enabled,0,TRUE,-44087,NetComm_CAN_Receive.vi:5470007<APPEND>

<b>Complete call chain:</b>
     NetComm_CAN_Receive.vi:5470007
     WPI_CANTalonSRX_Receive.vi
     WPI_CANTalonSRX_GetStatus.vi
     ShooterVI.vi
     Periodic Tasks.vi
     Robot Main.vi,0.000000,0.000000,4000.000000,4000.000000,Speed,Speed,0.480000,1.250000,2.700000,3.000000,101.000000,0,0,-0.013950,0.000062,0
04:42:43.872 PM 02/06/2016,Teleop Enabled,0,TRUE,-44087,NetComm_CAN_Receive.vi:5470007<APPEND>

<b>Complete call chain:</b>
     NetComm_CAN_Receive.vi:5470007
     WPI_CANTalonSRX_Receive.vi
     WPI_MotorControlOpenCANTalonSRX.vi
     Begin.vi
     Robot Main.vi,0.000000,0.000000,4000.000000,4000.000000,Speed,Speed,0.480000,1.250000,2.700000,3.000000,101.000000,0,0,-0.013950,0.000062,0
04:42:43.972 PM 02/06/2016,Teleop Enabled,0,TRUE,-44087,NetComm_CAN_Receive.vi:5470007<APPEND>

<b>Complete call chain:</b>
     NetComm_CAN_Receive.vi:5470007
     WPI_CANTalonSRX_Receive.vi
     WPI_CANTalonSRX_GetStatus.vi
     ShooterVI.vi
     Periodic Tasks.vi
     Robot Main.vi,0.000000,0.000000,4000.000000,4000.000000,Speed,Speed,0.480000,1.250000,2.700000,3.000000,102.000000,0,0,-0.013950,0.000062,0
04:42:44.075 PM 02/06/2016,Teleop Enabled,0,TRUE,-44087,NetComm_CAN_Receive.vi:5470007<APPEND>

<b>Complete call chain:</b>
     NetComm_CAN_Receive.vi:5470007
     WPI_CANTalonSRX_Receive.vi
     WPI_CANTalonSRX_GetStatus.vi
     ShooterVI.vi
     Periodic Tasks.vi
     Robot Main.vi,0.000000,0.000000,4000.000000,4000.000000,Speed,Speed,0.480000,1.260000,2.710000,3.000000,100.000000,0,0,-0.013950,0.000062,0
04:42:44.177 PM 02/06/2016,Teleop Enabled,0,TRUE,-44087,NetComm_CAN_Receive.vi:5470007<APPEND>

<b>Complete call chain:</b>
     NetComm_CAN_Receive.vi:5470007
     WPI_CANTalonSRX_Receive.vi
     WPI_MotorControlOpenCANTalonSRX.vi
     Begin.vi
     Robot Main.vi,0.000000,0.000000,4000.000000,4000.000000,Speed,Speed,0.480000,1.260000,2.710000,3.000000,100.000000,0,0,-0.013950,0.000062,0
04:42:44.280 PM 02/06/2016,Teleop Enabled,0,TRUE,-44087,NetComm_CAN_Receive.vi:5470007<APPEND>

<b>Complete call chain:</b>
     NetComm_CAN_Receive.vi:5470007
     WPI_CANTalonSRX_Receive.vi
     WPI_CANTalonSRX_GetStatus.vi
     ShooterVI.vi
     Periodic Tasks.vi
     Robot Main.vi,0.000000,0.000000,4000.000000,4000.000000,Speed,Speed,0.480000,1.260000,2.710000,3.000000,101.000000,0,0,0.000000,0.000000,1
04:42:44.380 PM 02/06/2016,Teleop Enabled,0,TRUE,-44087,NetComm_CAN_Receive.vi:5470007<APPEND>

<b>Complete call chain:</b>
     NetComm_CAN_Receive.vi:5470007
     WPI_CANTalonSRX_Receive.vi
     WPI_CANTalonSRX_GetStatus.vi
     ShooterVI.vi
     Periodic Tasks.vi
     Robot Main.vi,0.000000,0.000000,4000.000000,4000.000000,Speed,Speed,0.480000,1.260000,2.710000,3.000000,101.000000,0,0,0.000000,0.000000,1
04:42:44.483 PM 02/06/2016,Teleop Enabled,0,TRUE,-44087,NetComm_CAN_Receive.vi:5470007<APPEND>

<b>Complete call chain:</b>
     NetComm_CAN_Receive.vi:5470007
     WPI_CANTalonSRX_Receive.vi
     WPI_MotorControlOpenCANTalonSRX.vi
     Begin.vi
     Robot Main.vi,0.000000,0.000000,4000.000000,4000.000000,Speed,Speed,0.480000,1.260000,2.720000,3.000000,102.000000,0,0,0.000000,0.000000,1
04:42:44.583 PM 02/06/2016,Teleop Enabled,0,TRUE,-44087,NetComm_CAN_Receive.vi:5470007<APPEND>

<b>Complete call chain:</b>
     NetComm_CAN_Receive.vi:5470007
     WPI_CANTalonSRX_Receive.vi
     WPI_CANTalonSRX_GetStatus.vi
     ShooterVI.vi
     Periodic Tasks.vi
     Robot Main.vi,0.000000,0.000000,4000.000000,4000.000000,Speed,Speed,0.480000,1.260000,2.720000,3.000000,100.000000,0,0,0.000000,0.000000,1
04:42:44.684 PM 02/06/2016,Teleop Enabled,0,TRUE,-44087,NetComm_CAN_Receive.vi:5470007<APPEND>

<b>Complete call chain:</b>
     NetComm_CAN_Receive.vi:5470007
     WPI_CANTalonSRX_Receive.vi
     WPI_CANTalonSRX_GetStatus.vi
     ShooterVI.vi
     Periodic Tasks.vi
     Robot Main.vi,0.000000,0.000000,4000.000000,4000.000000,Speed,Speed,0.480000,1.250000,2.720000,3.000000,101.000000,0,0,0.000000,0.000000,1
04:42:44.784 PM 02/06/2016,Teleop Enabled,0,TRUE,-44087,NetComm_CAN_Receive.vi:5470007<APPEND>

<b>Complete call chain:</b>
     NetComm_CAN_Receive.vi:5470007
     WPI_CANTalonSRX_Receive.vi
     WPI_MotorControlOpenCANTalonSRX.vi
     Begin.vi
     Robot Main.vi,0.000000,0.000000,4000.000000,4000.000000,Speed,Speed,0.480000,1.250000,2.720000,3.000000,103.000000,0,0,0.000000,0.000000,1
04:42:44.885 PM 02/06/2016,Teleop Enabled,0,TRUE,-44087,NetComm_CAN_Receive.vi:5470007<APPEND>

<b>Complete call chain:</b>
     NetComm_CAN_Receive.vi:5470007
     WPI_CANTalonSRX_Receive.vi
     WPI_CANTalonSRX_GetStatus.vi
     ShooterVI.vi
     Periodic Tasks.vi
     Robot Main.vi,0.000000,0.000000,4000.000000,4000.000000,Speed,Speed,0.480000,1.250000,2.730000,3.000000,103.000000,0,0,0.000000,0.000000,1
04:42:44.986 PM 02/06/2016,Teleop Enabled,0,TRUE,-44087,NetComm_CAN_Receive.vi:5470007<APPEND>

<b>Complete call chain:</b>
     NetComm_CAN_Receive.vi:5470007
     WPI_CANTalonSRX_Receive.vi
     WPI_CANTalonSRX_GetStatus.vi
     ShooterVI.vi
     Periodic Tasks.vi
     Robot Main.vi,0.000000,0.000000,4000.000000,4000.000000,Speed,Speed,0.480000,1.250000,2.730000,3.000000,102.000000,0,0,0.000000,0.000000,1
04:42:45.088 PM 02/06/2016,Teleop Enabled,0,TRUE,-44087,NetComm_CAN_Receive.vi:5470007<APPEND>

<b>Complete call chain:</b>
     NetComm_CAN_Receive.vi:5470007
     WPI_CANTalonSRX_Receive.vi
     WPI_CANTalonSRX_GetStatus.vi
     ShooterVI.vi
     Periodic Tasks.vi
     Robot Main.vi,0.000000,0.000000,4000.000000,4000.000000,Speed,Speed,0.480000,1.250000,2.720000,3.000000,101.000000,0,0,0.000000,0.000000,1
04:42:45.188 PM 02/06/2016,Teleop Enabled,0,TRUE,-44087,NetComm_CAN_Receive.vi:5470007<APPEND>

<b>Complete call chain:</b>
     NetComm_CAN_Receive.vi:5470007
     WPI_CANTalonSRX_Receive.vi
     WPI_CANTalonSRX_GetStatus.vi
     ShooterVI.vi
     Periodic Tasks.vi
     Robot Main.vi,0.000000,0.000000,4000.000000,4000.000000,Speed,Speed,0.480000,1.250000,2.720000,3.000000,101.000000,0,0,0.000000,0.000000,1
04:42:45.288 PM 02/06/2016,Teleop Enabled,0,TRUE,-44087,NetComm_CAN_Receive.vi:5470007<APPEND>

<b>Complete call chain:</b>
     NetComm_CAN_Receive.vi:5470007
     WPI_CANTalonSRX_Receive.vi
     WPI_MotorControlOpenCANTalonSRX.vi
     Begin.vi
     Robot Main.vi,0.000000,0.000000,4000.000000,4000.000000,Speed,Speed,0.480000,1.250000,2.720000,3.000000,119.000000,0,0,0.000000,0.000000,1
04:42:45.389 PM 02/06/2016,Teleop Enabled,0,TRUE,-44087,NetComm_CAN_Receive.vi:5470007<APPEND>

<b>Complete call chain:</b>
     NetComm_CAN_Receive.vi:5470007
     WPI_CANTalonSRX_Receive.vi
     WPI_MotorControlOpenCANTalonSRX.vi
     Begin.vi
     Robot Main.vi,0.000000,0.000000,4000.000000,4000.000000,Speed,Speed,0.480000,1.250000,2.720000,3.000000,102.000000,0,0,0.000000,0.000000,1
04:42:45.489 PM 02/06/2016,Teleop Enabled,0,TRUE,-44087,NetComm_CAN_Receive.vi:5470007<APPEND>

<b>Complete call chain:</b>
     NetComm_CAN_Receive.vi:5470007
     WPI_CANTalonSRX_Receive.vi
     WPI_CANTalonSRX_GetStatus.vi
     ShooterVI.vi
     Periodic Tasks.vi
     Robot Main.vi,0.000000,0.000000,4000.000000,4000.000000,Speed,Speed,0.480000,1.250000,2.720000,3.000000,100.000000,0,0,0.000000,0.000000,1
04:42:45.590 PM 02/06/2016,Teleop Enabled,0,TRUE,-44087,NetComm_CAN_Receive.vi:5470007<APPEND>

<b>Complete call chain:</b>
     NetComm_CAN_Receive.vi:5470007
     WPI_CANTalonSRX_Receive.vi
     WPI_CANTalonSRX_GetStatus.vi
     ShooterVI.vi
     Periodic Tasks.vi
     Robot Main.vi,0.000000,0.000000,4000.000000,4000.000000,Speed,Speed,0.480000,1.250000,2.720000,3.000000,102.000000,0,0,0.000000,0.000000,1
04:42:45.691 PM 02/06/2016,Teleop Enabled,0,TRUE,-44087,NetComm_CAN_Receive.vi:5470007<APPEND>

<b>Complete call chain:</b>
     NetComm_CAN_Receive.vi:5470007
     WPI_CANTalonSRX_Receive.vi
     WPI_MotorControlOpenCANTalonSRX.vi
     Begin.vi
     Robot Main.vi,0.000000,0.000000,4000.000000,4000.000000,Speed,Speed,0.480000,1.250000,2.720000,3.000000,102.000000,0,0,0.000000,0.000000,1
04:42:45.793 PM 02/06/2016,Teleop Enabled,0,TRUE,-44087,NetComm_CAN_Receive.vi:5470007<APPEND>

<b>Complete call chain:</b>
     NetComm_CAN_Receive.vi:5470007
     WPI_CANTalonSRX_Receive.vi
     WPI_CANTalonSRX_GetStatus.vi
     ShooterVI.vi
     Periodic Tasks.vi
     Robot Main.vi,0.000000,0.000000,4000.000000,4000.000000,Speed,Speed,0.480000,1.250000,2.720000,3.000000,101.000000,0,0,0.000000,0.000000,1
04:42:45.894 PM 02/06/2016,Teleop Enabled,0,TRUE,-44087,NetComm_CAN_Receive.vi:5470007<APPEND>

<b>Complete call chain:</b>
     NetComm_CAN_Receive.vi:5470007
     WPI_CANTalonSRX_Receive.vi
     WPI_CANTalonSRX_GetStatus.vi
     ShooterVI.vi
     Periodic Tasks.vi
     Robot Main.vi,0.000000,0.000000,4000.000000,4000.000000,Speed,Speed,0.480000,1.250000,2.720000,3.000000,102.000000,0,0,0.000000,0.000000,1
04:42:45.994 PM 02/06/2016,Teleop Enabled,0,TRUE,-44087,NetComm_CAN_Receive.vi:5470007<APPEND>

<b>Complete call chain:</b>
     NetComm_CAN_Receive.vi:5470007
     WPI_CANTalonSRX_Receive.vi
     WPI_CANTalonSRX_GetStatus.vi
     ShooterVI.vi
     Periodic Tasks.vi
     Robot Main.vi,0.000000,0.000000,4000.000000,4000.000000,Speed,Speed,0.480000,1.250000,2.720000,3.000000,102.000000,0,0,0.000000,0.000000,1
04:42:46.095 PM 02/06/2016,Teleop Enabled,0,TRUE,-44087,NetComm_CAN_Receive.vi:5470007<APPEND>

<b>Complete call chain:</b>
     NetComm_CAN_Receive.vi:5470007
     WPI_CANTalonSRX_Receive.vi
     WPI_MotorControlOpenCANTalonSRX.vi
     Begin.vi
     Robot Main.vi,0.000000,0.000000,4000.000000,4000.000000,Speed,Speed,0.480000,1.250000,2.720000,3.000000,101.000000,0,0,0.000000,0.000000,1
04:42:46.195 PM 02/06/2016,Teleop Enabled,0,TRUE,-44087,NetComm_CAN_Receive.vi:5470007<APPEND>

<b>Complete call chain:</b>
     NetComm_CAN_Receive.vi:5470007
     WPI_CANTalonSRX_Receive.vi
     WPI_CANTalonSRX_GetStatus.vi
     ShooterVI.vi
     Periodic Tasks.vi
     Robot Main.vi,0.000000,0.000000,4000.000000,4000.000000,Speed,Speed,0.480000,1.250000,2.720000,3.000000,103.000000,0,0,0.000000,0.000000,1
04:42:46.296 PM 02/06/2016,Teleop Enabled,0,TRUE,-44087,NetComm_CAN_Receive.vi:5470007<APPEND>

<b>Complete call chain:</b>
     NetComm_CAN_Receive.vi:5470007
     WPI_CANTalonSRX_Receive.vi
     WPI_MotorControlOpenCANTalonSRX.vi
     Begin.vi
     Robot Main.vi,0.000000,0.000000,4000.000000,4000.000000,Speed,Speed,0.480000,1.250000,2.720000,3.000000,100.000000,0,0,0.000000,0.000000,1
04:42:46.396 PM 02/06/2016,Teleop Enabled,0,TRUE,-44087,NetComm_CAN_Receive.vi:5470007<APPEND>

<b>Complete call chain:</b>
     NetComm_CAN_Receive.vi:5470007
     WPI_CANTalonSRX_Receive.vi
     WPI_CANTalonSRX_GetStatus.vi
     ShooterVI.vi
     Periodic Tasks.vi
     Robot Main.vi,0.000000,0.000000,4000.000000,4000.000000,Speed,Speed,0.480000,1.250000,2.720000,3.000000,103.000000,0,0,0.000000,0.000000,1
04:42:46.498 PM 02/06/2016,Teleop Enabled,0,TRUE,-44087,NetComm_CAN_Receive.vi:5470007<APPEND>

<b>Complete call chain:</b>
     NetComm_CAN_Receive.vi:5470007
     WPI_CANTalonSRX_Receive.vi
     WPI_CANTalonSRX_GetStatus.vi
     ShooterVI.vi
     Periodic Tasks.vi
     Robot Main.vi,0.000000,0.000000,4000.000000,4000.000000,Speed,Speed,0.490000,1.250000,2.720000,3.000000,100.000000,0,0,0.000000,0.000000,1
04:42:46.598 PM 02/06/2016,Teleop Enabled,0,TRUE,-44087,NetComm_CAN_Receive.vi:5470007<APPEND>

<b>Complete call chain:</b>
     NetComm_CAN_Receive.vi:5470007
     WPI_CANTalonSRX_Receive.vi
     WPI_MotorControlOpenCANTalonSRX.vi
     Begin.vi
     Robot Main.vi,0.000000,0.000000,4000.000000,4000.000000,Speed,Speed,0.490000,1.260000,2.710000,3.000000,111.000000,0,0,0.000000,0.000000,1
04:42:46.698 PM 02/06/2016,Teleop Enabled,0,TRUE,-44087,NetComm_CAN_Receive.vi:5470007<APPEND>

<b>Complete call chain:</b>
     NetComm_CAN_Receive.vi:5470007
     WPI_CANTalonSRX_Receive.vi
     WPI_CANTalonSRX_GetStatus.vi
     ShooterVI.vi
     Periodic Tasks.vi
     Robot Main.vi,0.000000,0.000000,4000.000000,4000.000000,Speed,Speed,0.490000,1.260000,2.710000,3.000000,101.000000,0,0,0.000000,0.000000,1
04:42:46.799 PM 02/06/2016,Teleop Enabled,0,TRUE,-44087,NetComm_CAN_Receive.vi:5470007<APPEND>

<b>Complete call chain:</b>
     NetComm_CAN_Receive.vi:5470007
     WPI_CANTalonSRX_Receive.vi
     WPI_CANTalonSRX_GetStatus.vi
     ShooterVI.vi
     Periodic Tasks.vi
     Robot Main.vi,0.000000,0.000000,4000.000000,4000.000000,Speed,Speed,0.490000,1.260000,2.710000,3.000000,100.000000,0,0,0.000000,0.000000,1
04:42:46.901 PM 02/06/2016,Teleop Enabled,0,TRUE,-44087,NetComm_CAN_Receive.vi:5470007<APPEND>

<b>Complete call chain:</b>
     NetComm_CAN_Receive.vi:5470007
     WPI_CANTalonSRX_Receive.vi
     WPI_CANTalonSRX_GetStatus.vi
     ShooterVI.vi
     Periodic Tasks.vi
     Robot Main.vi,0.000000,0.000000,4000.000000,4000.000000,Speed,Speed,0.490000,1.250000,2.710000,3.000000,102.000000,0,0,0.000000,0.000000,1
04:42:47.004 PM 02/06/2016,Teleop Enabled,0,TRUE,-44087,NetComm_CAN_Receive.vi:5470007<APPEND>

<b>Complete call chain:</b>
     NetComm_CAN_Receive.vi:5470007
     WPI_CANTalonSRX_Receive.vi
     WPI_MotorControlOpenCANTalonSRX.vi
     Begin.vi
     Robot Main.vi,0.000000,0.000000,4000.000000,4000.000000,Speed,Speed,0.490000,1.250000,2.710000,3.000000,101.000000,0,0,0.000000,0.000000,1
04:42:47.105 PM 02/06/2016,Teleop Enabled,0,TRUE,-44087,NetComm_CAN_Receive.vi:5470007<APPEND>

<b>Complete call chain:</b>
     NetComm_CAN_Receive.vi:5470007
     WPI_CANTalonSRX_Receive.vi
     WPI_CANTalonSRX_GetStatus.vi
     ShooterVI.vi
     Periodic Tasks.vi
     Robot Main.vi,0.000000,0.000000,4000.000000,4000.000000,Speed,Speed,0.490000,1.250000,2.710000,3.000000,101.000000,0,0,0.000000,0.000000,1
04:42:47.206 PM 02/06/2016,Teleop Enabled,0,TRUE,-44087,NetComm_CAN_Receive.vi:5470007<APPEND>

<b>Complete call chain:</b>
     NetComm_CAN_Receive.vi:5470007
     WPI_CANTalonSRX_Receive.vi
     WPI_MotorControlOpenCANTalonSRX.vi
     Begin.vi
     Robot Main.vi,0.000000,0.000000,4000.000000,4000.000000,Speed,Speed,0.490000,1.250000,2.720000,3.000000,103.000000,0,0,0.000000,0.000000,1
04:42:47.306 PM 02/06/2016,Teleop Enabled,0,TRUE,-44087,NetComm_CAN_Receive.vi:5470007<APPEND>

<b>Complete call chain:</b>
     NetComm_CAN_Receive.vi:5470007
     WPI_CANTalonSRX_Receive.vi
     WPI_CANTalonSRX_GetStatus.vi
     ShooterVI.vi
     Periodic Tasks.vi
     Robot Main.vi,0.000000,0.000000,4000.000000,4000.000000,Speed,Speed,0.490000,1.260000,2.720000,3.000000,101.000000,0,0,0.000000,0.000000,1
04:42:47.409 PM 02/06/2016,Teleop Enabled,0,TRUE,-44087,NetComm_CAN_Receive.vi:5470007<APPEND>

<b>Complete call chain:</b>
     NetComm_CAN_Receive.vi:5470007
     WPI_CANTalonSRX_Receive.vi
     WPI_CANTalonSRX_GetStatus.vi
     ShooterVI.vi
     Periodic Tasks.vi
     Robot Main.vi,0.000000,0.000000,4000.000000,4000.000000,Speed,Speed,0.500000,1.260000,2.730000,3.000000,101.000000,0,0,0.000000,0.000000,1
04:42:47.511 PM 02/06/2016,Teleop Enabled,0,TRUE,-44087,NetComm_CAN_Receive.vi:5470007<APPEND>

<b>Complete call chain:</b>
     NetComm_CAN_Receive.vi:5470007
     WPI_CANTalonSRX_Receive.vi
     WPI_CANTalonSRX_GetStatus.vi
     ShooterVI.vi
     Periodic Tasks.vi
     Robot Main.vi,0.000000,0.000000,4000.000000,4000.000000,Speed,Speed,0.500000,1.260000,2.730000,3.000000,101.000000,0,0,0.000000,0.000000,1
04:42:47.611 PM 02/06/2016,Teleop Enabled,0,TRUE,-44087,NetComm_CAN_Receive.vi:5470007<APPEND>

<b>Complete call chain:</b>
     NetComm_CAN_Receive.vi:5470007
     WPI_CANTalonSRX_Receive.vi
     WPI_CANTalonSRX_GetStatus.vi
     ShooterVI.vi
     Periodic Tasks.vi
     Robot Main.vi,0.000000,0.000000,4000.000000,4000.000000,Speed,Speed,0.500000,1.260000,2.730000,3.000000,100.000000,0,0,0.000000,0.000000,1
04:42:47.712 PM 02/06/2016,Teleop Enabled,0,TRUE,-44087,NetComm_CAN_Receive.vi:5470007<APPEND>

<b>Complete call chain:</b>
     NetComm_CAN_Receive.vi:5470007
     WPI_CANTalonSRX_Receive.vi
     WPI_MotorControlOpenCANTalonSRX.vi
     Begin.vi
     Robot Main.vi,0.000000,0.000000,4000.000000,4000.000000,Speed,Speed,0.500000,1.260000,2.730000,3.000000,103.000000,0,0,0.000000,0.000000,1
04:42:47.812 PM 02/06/2016,Teleop Enabled,0,TRUE,-44087,NetComm_CAN_Receive.vi:5470007<APPEND>

<b>Complete call chain:</b>
     NetComm_CAN_Receive.vi:5470007
     WPI_CANTalonSRX_Receive.vi
     WPI_CANTalonSRX_GetStatus.vi
     ShooterVI.vi
     Periodic Tasks.vi
     Robot Main.vi,0.000000,0.000000,4000.000000,4000.000000,Speed,Speed,0.500000,1.260000,2.730000,3.000000,101.000000,0,0,0.000000,0.000000,1
04:42:47.914 PM 02/06/2016,Teleop Enabled,0,TRUE,-44087,NetComm_CAN_Receive.vi:5470007<APPEND>

<b>Complete call chain:</b>
     NetComm_CAN_Receive.vi:5470007
     WPI_CANTalonSRX_Receive.vi
     WPI_CANTalonSRX_GetStatus.vi
     ShooterVI.vi
     Periodic Tasks.vi
     Robot Main.vi,0.000000,0.000000,4000.000000,4000.000000,Speed,Speed,0.500000,1.250000,2.720000,3.000000,101.000000,0,0,0.000000,0.000000,1
04:42:48.014 PM 02/06/2016,Teleop Enabled,0,TRUE,-44087,NetComm_CAN_Receive.vi:5470007<APPEND>

<b>Complete call chain:</b>
     NetComm_CAN_Receive.vi:5470007
     WPI_CANTalonSRX_Receive.vi
     WPI_MotorControlOpenCANTalonSRX.vi
     Begin.vi
     Robot Main.vi,0.000000,0.000000,4000.000000,4000.000000,Speed,Speed,0.500000,1.260000,2.720000,3.000000,101.000000,0,0,0.000000,0.000000,1
04:42:48.115 PM 02/06/2016,Teleop Enabled,0,TRUE,-44087,NetComm_CAN_Receive.vi:5470007<APPEND>

<b>Complete call chain:</b>
     NetComm_CAN_Receive.vi:5470007
     WPI_CANTalonSRX_Receive.vi
     WPI_CANTalonSRX_GetStatus.vi
     ShooterVI.vi
     Periodic Tasks.vi
     Robot Main.vi,0.000000,0.000000,4000.000000,4000.000000,Speed,Speed,0.500000,1.260000,2.720000,3.000000,100.000000,0,0,0.000000,0.000000,1
04:42:48.216 PM 02/06/2016,Teleop Enabled,0,TRUE,-44087,NetComm_CAN_Receive.vi:5470007<APPEND>

<b>Complete call chain:</b>
     NetComm_CAN_Receive.vi:5470007
     WPI_CANTalonSRX_Receive.vi
     WPI_CANTalonSRX_GetStatus.vi
     ShooterVI.vi
     Periodic Tasks.vi
     Robot Main.vi,0.000000,0.000000,4000.000000,4000.000000,Speed,Speed,0.500000,1.260000,2.710000,3.000000,101.000000,0,0,0.000000,0.000000,1
04:42:48.317 PM 02/06/2016,Teleop Enabled,0,TRUE,-44087,NetComm_CAN_Receive.vi:5470007<APPEND>

<b>Complete call chain:</b>
     NetComm_CAN_Receive.vi:5470007
     WPI_CANTalonSRX_Receive.vi
     WPI_MotorControlOpenCANTalonSRX.vi
     Begin.vi
     Robot Main.vi,0.000000,0.000000,4000.000000,4000.000000,Speed,Speed,0.500000,1.260000,2.720000,3.000000,103.000000,0,0,0.000000,0.000000,1
04:42:48.417 PM 02/06/2016,Teleop Enabled,0,TRUE,-44087,NetComm_CAN_Receive.vi:5470007<APPEND>

<b>Complete call chain:</b>
     NetComm_CAN_Receive.vi:5470007
     WPI_CANTalonSRX_Receive.vi
     WPI_CANTalonSRX_GetStatus.vi
     ShooterVI.vi
     Periodic Tasks.vi
     Robot Main.vi,0.000000,0.000000,4000.000000,4000.000000,Speed,Speed,0.500000,1.260000,2.720000,3.000000,101.000000,0,0,0.000000,0.000000,1
04:42:48.517 PM 02/06/2016,Teleop Enabled,0,TRUE,-44087,NetComm_CAN_Receive.vi:5470007<APPEND>

<b>Complete call chain:</b>
     NetComm_CAN_Receive.vi:5470007
     WPI_CANTalonSRX_Receive.vi
     WPI_MotorControlOpenCANTalonSRX.vi
     Begin.vi
     Robot Main.vi,0.000000,0.000000,4000.000000,4000.000000,Speed,Speed,0.500000,1.260000,2.720000,3.000000,100.000000,0,0,0.000000,0.000000,1
04:42:48.618 PM 02/06/2016,Teleop Enabled,0,TRUE,-44087,NetComm_CAN_Receive.vi:5470007<APPEND>

<b>Complete call chain:</b>
     NetComm_CAN_Receive.vi:5470007
     WPI_CANTalonSRX_Receive.vi
     WPI_CANTalonSRX_GetStatus.vi
     ShooterVI.vi
     Periodic Tasks.vi
     Robot Main.vi,0.000000,0.000000,4000.000000,4000.000000,Speed,Speed,0.500000,1.260000,2.710000,3.000000,102.000000,0,0,0.000000,0.000000,1
04:42:48.719 PM 02/06/2016,Teleop Enabled,0,TRUE,-44087,NetComm_CAN_Receive.vi:5470007<APPEND>

<b>Complete call chain:</b>
     NetComm_CAN_Receive.vi:5470007
     WPI_CANTalonSRX_Receive.vi
     WPI_MotorControlOpenCANTalonSRX.vi
     Begin.vi
     Robot Main.vi,0.000000,0.000000,4000.000000,4000.000000,Speed,Speed,0.500000,1.260000,2.710000,3.000000,101.000000,0,0,0.000000,0.000000,1
04:42:48.820 PM 02/06/2016,Teleop Enabled,0,TRUE,-44087,NetComm_CAN_Receive.vi:5470007<APPEND>

<b>Complete call chain:</b>
     NetComm_CAN_Receive.vi:5470007
     WPI_CANTalonSRX_Receive.vi
     WPI_CANTalonSRX_GetStatus.vi
     ShooterVI.vi
     Periodic Tasks.vi
     Robot Main.vi,0.000000,0.000000,4000.000000,4000.000000,Speed,Speed,0.500000,1.260000,2.710000,3.000000,102.000000,0,0,0.000000,0.000000,1
04:42:48.920 PM 02/06/2016,Teleop Enabled,0,TRUE,-44087,NetComm_CAN_Receive.vi:5470007<APPEND>

<b>Complete call chain:</b>
     NetComm_CAN_Receive.vi:5470007
     WPI_CANTalonSRX_Receive.vi
     WPI_CANTalonSRX_GetStatus.vi
     ShooterVI.vi
     Periodic Tasks.vi
     Robot Main.vi,0.000000,0.000000,4000.000000,4000.000000,Speed,Speed,0.500000,1.260000,2.710000,3.000000,104.000000,0,0,0.000000,0.000000,1
04:42:49.022 PM 02/06/2016,Teleop Enabled,0,TRUE,-44087,NetComm_CAN_Receive.vi:5470007<APPEND>

<b>Complete call chain:</b>
     NetComm_CAN_Receive.vi:5470007
     WPI_CANTalonSRX_Receive.vi
     WPI_MotorControlOpenCANTalonSRX.vi
     Begin.vi
     Robot Main.vi,0.000000,0.000000,4000.000000,4000.000000,Speed,Speed,0.500000,1.260000,2.710000,3.000000,103.000000,0,0,0.000000,0.000000,1
04:42:49.124 PM 02/06/2016,Teleop Enabled,0,TRUE,-44087,NetComm_CAN_Receive.vi:5470007<APPEND>

<b>Complete call chain:</b>
     NetComm_CAN_Receive.vi:5470007
     WPI_CANTalonSRX_Receive.vi
     WPI_CANTalonSRX_GetStatus.vi
     ShooterVI.vi
     Periodic Tasks.vi
     Robot Main.vi,0.000000,0.000000,4000.000000,4000.000000,Speed,Speed,0.500000,1.260000,2.710000,3.000000,102.000000,0,0,0.000000,0.000000,1
04:42:49.224 PM 02/06/2016,Teleop Enabled,0,TRUE,-44087,NetComm_CAN_Receive.vi:5470007<APPEND>

<b>Complete call chain:</b>
     NetComm_CAN_Receive.vi:5470007
     WPI_CANTalonSRX_Receive.vi
     WPI_CANTalonSRX_GetStatus.vi
     ShooterVI.vi
     Periodic Tasks.vi
     Robot Main.vi,0.000000,0.000000,4000.000000,4000.000000,Speed,Speed,0.500000,1.270000,2.710000,3.000000,102.000000,0,0,0.000000,0.000000,1
04:42:49.324 PM 02/06/2016,Teleop Enabled,0,TRUE,-44087,NetComm_CAN_Receive.vi:5470007<APPEND>

<b>Complete call chain:</b>
     NetComm_CAN_Receive.vi:5470007
     WPI_CANTalonSRX_Receive.vi
     WPI_MotorControlOpenCANTalonSRX.vi
     Begin.vi
     Robot Main.vi,0.000000,0.000000,4000.000000,4000.000000,Speed,Speed,0.500000,1.270000,2.710000,3.000000,102.000000,0,0,0.000000,0.000000,1
04:42:49.426 PM 02/06/2016,Teleop Enabled,0,TRUE,-44087,NetComm_CAN_Receive.vi:5470007<APPEND>

<b>Complete call chain:</b>
     NetComm_CAN_Receive.vi:5470007
     WPI_CANTalonSRX_Receive.vi
     WPI_CANTalonSRX_GetStatus.vi
     ShooterVI.vi
     Periodic Tasks.vi
     Robot Main.vi,0.000000,0.000000,4000.000000,4000.000000,Speed,Speed,0.500000,1.270000,2.710000,3.000000,102.000000,0,0,0.000000,0.000000,1
04:42:49.527 PM 02/06/2016,Teleop Enabled,0,TRUE,-44087,NetComm_CAN_Receive.vi:5470007<APPEND>

<b>Complete call chain:</b>
     NetComm_CAN_Receive.vi:5470007
     WPI_CANTalonSRX_Receive.vi
     WPI_CANTalonSRX_GetStatus.vi
     ShooterVI.vi
     Periodic Tasks.vi
     Robot Main.vi,0.000000,0.000000,4000.000000,4000.000000,Speed,Speed,0.500000,1.270000,2.700000,3.000000,101.000000,0,0,0.000000,0.000000,1
04:42:49.628 PM 02/06/2016,Teleop Enabled,0,TRUE,-44087,NetComm_CAN_Receive.vi:5470007<APPEND>

<b>Complete call chain:</b>
     NetComm_CAN_Receive.vi:5470007
     WPI_CANTalonSRX_Receive.vi
     WPI_MotorControlOpenCANTalonSRX.vi
     Begin.vi
     Robot Main.vi,0.000000,0.000000,4000.000000,4000.000000,Speed,Speed,0.500000,1.270000,2.700000,3.000000,101.000000,0,0,0.000000,0.000000,1
04:42:49.728 PM 02/06/2016,Teleop Enabled,0,TRUE,-44087,NetComm_CAN_Receive.vi:5470007<APPEND>

<b>Complete call chain:</b>
     NetComm_CAN_Receive.vi:5470007
     WPI_CANTalonSRX_Receive.vi
     WPI_CANTalonSRX_GetStatus.vi
     ShooterVI.vi
     Periodic Tasks.vi
     Robot Main.vi,0.000000,0.000000,4000.000000,4000.000000,Speed,Speed,0.500000,1.270000,2.700000,3.000000,102.000000,0,0,0.000000,0.000000,1
04:42:49.828 PM 02/06/2016,Teleop Enabled,0,TRUE,-44087,NetComm_CAN_Receive.vi:5470007<APPEND>

<b>Complete call chain:</b>
     NetComm_CAN_Receive.vi:5470007
     WPI_CANTalonSRX_Receive.vi
     WPI_CANTalonSRX_GetStatus.vi
     ShooterVI.vi
     Periodic Tasks.vi
     Robot Main.vi,0.000000,0.000000,4000.000000,4000.000000,Speed,Speed,0.490000,1.260000,2.690000,3.000000,101.000000,0,0,0.000000,0.000000,1
04:42:49.929 PM 02/06/2016,Teleop Enabled,0,TRUE,-44087,NetComm_CAN_Receive.vi:5470007<APPEND>

<b>Complete call chain:</b>
     NetComm_CAN_Receive.vi:5470007
     WPI_CANTalonSRX_Receive.vi
     WPI_MotorControlOpenCANTalonSRX.vi
     Begin.vi
     Robot Main.vi,0.000000,0.000000,4000.000000,4000.000000,Speed,Speed,0.490000,1.260000,2.690000,3.000000,102.000000,0,0,0.000000,0.000000,1
04:42:50.030 PM 02/06/2016,Teleop Enabled,0,TRUE,-44087,NetComm_CAN_Receive.vi:5470007<APPEND>

<b>Complete call chain:</b>
     NetComm_CAN_Receive.vi:5470007
     WPI_CANTalonSRX_Receive.vi
     WPI_CANTalonSRX_GetStatus.vi
     ShooterVI.vi
     Periodic Tasks.vi
     Robot Main.vi,0.000000,0.000000,4000.000000,4000.000000,Speed,Speed,0.490000,1.260000,2.690000,3.000000,102.000000,0,0,0.000000,0.000000,1
04:42:50.132 PM 02/06/2016,Teleop Enabled,0,TRUE,-44087,NetComm_CAN_Receive.vi:5470007<APPEND>

<b>Complete call chain:</b>
     NetComm_CAN_Receive.vi:5470007
     WPI_CANTalonSRX_Receive.vi
     WPI_CANTalonSRX_GetStatus.vi
     ShooterVI.vi
     Periodic Tasks.vi
     Robot Main.vi,0.000000,0.000000,4000.000000,4000.000000,Speed,Speed,0.490000,1.250000,2.690000,3.000000,100.000000,0,0,0.000000,0.000000,1
04:42:50.232 PM 02/06/2016,Teleop Enabled,0,TRUE,-44087,NetComm_CAN_Receive.vi:5470007<APPEND>

<b>Complete call chain:</b>
     NetComm_CAN_Receive.vi:5470007
     WPI_CANTalonSRX_Receive.vi
     WPI_CANTalonSRX_GetStatus.vi
     ShooterVI.vi
     Periodic Tasks.vi
     Robot Main.vi,0.000000,0.000000,4000.000000,4000.000000,Speed,Speed,0.490000,1.250000,2.690000,3.000000,102.000000,0,0,0.000000,0.000000,1
04:42:50.333 PM 02/06/2016,Teleop Enabled,0,TRUE,-44087,NetComm_CAN_Receive.vi:5470007<APPEND>

<b>Complete call chain:</b>
     NetComm_CAN_Receive.vi:5470007
     WPI_CANTalonSRX_Receive.vi
     WPI_MotorControlOpenCANTalonSRX.vi
     Begin.vi
     Robot Main.vi,0.000000,0.000000,4000.000000,4000.000000,Speed,Speed,0.480000,1.260000,2.690000,3.000000,102.000000,0,0,0.000000,0.000000,1
04:42:50.434 PM 02/06/2016,Teleop Enabled,0,TRUE,-44087,NetComm_CAN_Receive.vi:5470007<APPEND>

<b>Complete call chain:</b>
     NetComm_CAN_Receive.vi:5470007
     WPI_CANTalonSRX_Receive.vi
     WPI_CANTalonSRX_GetStatus.vi
     ShooterVI.vi
     Periodic Tasks.vi
     Robot Main.vi,0.000000,0.000000,4000.000000,4000.000000,Speed,Speed,0.480000,1.260000,2.690000,3.000000,101.000000,0,0,0.000000,0.000000,1
04:42:50.535 PM 02/06/2016,Teleop Enabled,0,TRUE,-44087,NetComm_CAN_Receive.vi:5470007<APPEND>

<b>Complete call chain:</b>
     NetComm_CAN_Receive.vi:5470007
     WPI_CANTalonSRX_Receive.vi
     WPI_CANTalonSRX_GetStatus.vi
     ShooterVI.vi
     Periodic Tasks.vi
     Robot Main.vi,0.000000,0.000000,4000.000000,4000.000000,Speed,Speed,0.480000,1.260000,2.690000,3.000000,102.000000,0,0,0.000000,0.000000,1
04:42:50.638 PM 02/06/2016,Teleop Enabled,0,TRUE,-44087,NetComm_CAN_Receive.vi:5470007<APPEND>

<b>Complete call chain:</b>
     NetComm_CAN_Receive.vi:5470007
     WPI_CANTalonSRX_Receive.vi
     WPI_CANTalonSRX_GetStatus.vi
     ShooterVI.vi
     Periodic Tasks.vi
     Robot Main.vi,0.000000,0.000000,4000.000000,4000.000000,Speed,Speed,0.480000,1.260000,2.690000,3.000000,101.000000,0,0,0.000000,0.000000,1
04:42:50.738 PM 02/06/2016,Teleop Enabled,0,TRUE,-44087,NetComm_CAN_Receive.vi:5470007<APPEND>

<b>Complete call chain:</b>
     NetComm_CAN_Receive.vi:5470007
     WPI_CANTalonSRX_Receive.vi
     WPI_MotorControlOpenCANTalonSRX.vi
     Begin.vi
     Robot Main.vi,0.000000,0.000000,4000.000000,4000.000000,Speed,Speed,0.480000,1.250000,2.690000,3.000000,101.000000,0,0,0.000000,0.000000,1
04:42:50.840 PM 02/06/2016,Teleop Enabled,0,TRUE,-44087,NetComm_CAN_Receive.vi:5470007<APPEND>

<b>Complete call chain:</b>
     NetComm_CAN_Receive.vi:5470007
     WPI_CANTalonSRX_Receive.vi
     WPI_CANTalonSRX_GetStatus.vi
     ShooterVI.vi
     Periodic Tasks.vi
     Robot Main.vi,0.000000,0.000000,4000.000000,4000.000000,Speed,Speed,0.480000,1.250000,2.690000,3.000000,105.000000,0,0,0.000000,0.000000,1
04:42:50.941 PM 02/06/2016,Teleop Enabled,0,TRUE,-44087,NetComm_CAN_Receive.vi:5470007<APPEND>

<b>Complete call chain:</b>
     NetComm_CAN_Receive.vi:5470007
     WPI_CANTalonSRX_Receive.vi
     WPI_MotorControlOpenCANTalonSRX.vi
     Begin.vi
     Robot Main.vi,0.000000,0.000000,4000.000000,4000.000000,Speed,Speed,0.480000,1.250000,2.690000,3.000000,102.000000,0,0,0.000000,0.000000,1
04:42:51.043 PM 02/06/2016,Teleop Enabled,0,TRUE,-44087,NetComm_CAN_Receive.vi:5470007<APPEND>

<b>Complete call chain:</b>
     NetComm_CAN_Receive.vi:5470007
     WPI_CANTalonSRX_Receive.vi
     WPI_CANTalonSRX_GetStatus.vi
     ShooterVI.vi
     Periodic Tasks.vi
     Robot Main.vi,0.000000,0.000000,4000.000000,4000.000000,Speed,Speed,0.480000,1.250000,2.690000,3.000000,101.000000,0,0,0.000000,0.000000,1
04:42:51.143 PM 02/06/2016,Teleop Enabled,0,TRUE,-44087,NetComm_CAN_Receive.vi:5470007<APPEND>

<b>Complete call chain:</b>
     NetComm_CAN_Receive.vi:5470007
     WPI_CANTalonSRX_Receive.vi
     WPI_CANTalonSRX_GetStatus.vi
     ShooterVI.vi
     Periodic Tasks.vi
     Robot Main.vi,0.000000,0.000000,4000.000000,4000.000000,Speed,Speed,0.470000,1.250000,2.680000,3.000000,101.000000,0,0,0.000000,0.000000,1
04:42:51.244 PM 02/06/2016,Teleop Enabled,0,TRUE,-44087,NetComm_CAN_Receive.vi:5470007<APPEND>

<b>Complete call chain:</b>
