Time,RobotMode,AutoToRun,ErrorStatus, ErrorCode,ErrorSource,ActualRPM1,ActualRPM2,DesiredRPM1,DesiredRPM2,ControlMode1,ControlMode2,NavXYaw,NavXRoll,NavXPitch,ShooterState,LoopTime,IsLevel,IsAutoTargeting,LeftMotorOutput,RightMotorOutput,IsHaloDrive,NavXVelocityX,NavXVelocityY,NavXVelocityZ,NavXDisplacementX,NavXDisplacementY,NavXDisplacementZ,NavXAccelerationX,NavXAccelerationY,NavXAccelerationZ
08:02:43.208 PM 02/09/2016,Autonomous Enabled,0,TRUE,-44087,NetComm_CAN_Receive.vi:5470007<APPEND>  <b>Complete call chain:</b>      NetComm_CAN_Receive.vi:5470007      WPI_CANTalonSRX_Receive.vi      WPI_MotorControlOpenCANTalonSRX.vi      Begin.vi      Robot Main.vi,0.000000,0.000000,4000.000000,4000.000000,Speed,Speed,-0.020000,1.150000,2.940000,3.000000,102.000000,1,0,0.000000,0.000000,0,0.000000,0.000000,0.000000,1.513687,11.132782,0.000000,0.001000,0.000000,0.002000
08:02:43.307 PM 02/09/2016,Autonomous Enabled,0,TRUE,-44087,NetComm_CAN_Receive.vi:5470007<APPEND>  <b>Complete call chain:</b>      NetComm_CAN_Receive.vi:5470007      WPI_CANTalonSRX_Receive.vi      WPI_MotorControlOpenCANTalonSRX.vi      Begin.vi      Robot Main.vi,0.000000,0.000000,4000.000000,4000.000000,Speed,Speed,-0.020000,1.150000,2.940000,3.000000,103.000000,1,0,0.000000,0.000000,0,0.000000,0.000000,0.000000,1.513687,11.132782,0.000000,0.001000,0.000000,0.003000
08:02:43.407 PM 02/09/2016,Autonomous Enabled,0,TRUE,-44087,NetComm_CAN_Receive.vi:5470007<APPEND>  <b>Complete call chain:</b>      NetComm_CAN_Receive.vi:5470007      WPI_CANTalonSRX_Receive.vi      WPI_MotorControlOpenCANTalonSRX.vi      Begin.vi      Robot Main.vi,0.000000,0.000000,4000.000000,4000.000000,Speed,Speed,-0.030000,1.150000,2.940000,3.000000,100.000000,1,0,0.000000,0.000000,0,0.000000,0.000000,0.000000,1.513687,11.132782,0.000000,-0.001000,0.000000,0.005000
08:02:43.509 PM 02/09/2016,Autonomous Enabled,0,TRUE,-44087,NetComm_CAN_Receive.vi:5470007<APPEND>  <b>Complete call chain:</b>      NetComm_CAN_Receive.vi:5470007      WPI_CANTalonSRX_Receive.vi      WPI_MotorControlOpenCANTalonSRX.vi      Begin.vi      Robot Main.vi,0.000000,0.000000,4000.000000,4000.000000,Speed,Speed,-0.020000,1.150000,2.940000,3.000000,105.000000,1,0,0.000000,0.000000,0,0.000000,0.000000,0.000000,1.513687,11.132782,0.000000,-0.001000,0.000000,0.008000
08:02:43.609 PM 02/09/2016,Autonomous Enabled,0,TRUE,-44087,NetComm_CAN_Receive.vi:5470007<APPEND>  <b>Complete call chain:</b>      NetComm_CAN_Receive.vi:5470007      WPI_CANTalonSRX_Receive.vi      WPI_MotorControlOpenCANTalonSRX.vi      Begin.vi      Robot Main.vi,0.000000,0.000000,4000.000000,4000.000000,Speed,Speed,-0.030000,1.150000,2.940000,3.000000,103.000000,1,0,0.000000,0.000000,0,0.000000,0.000000,0.000000,1.513687,11.132782,0.000000,0.000000,0.000000,0.001000
08:02:43.709 PM 02/09/2016,Autonomous Enabled,0,TRUE,-44087,NetComm_CAN_Receive.vi:5470007<APPEND>  <b>Complete call chain:</b>      NetComm_CAN_Receive.vi:5470007      WPI_CANTalonSRX_Receive.vi      WPI_MotorControlOpenCANTalonSRX.vi      Begin.vi      Robot Main.vi,0.000000,0.000000,4000.000000,4000.000000,Speed,Speed,-0.030000,1.150000,2.940000,3.000000,101.000000,1,0,0.000000,0.000000,0,0.000000,0.000000,0.000000,1.513687,11.132782,0.000000,0.001000,0.000000,0.002000
08:02:43.810 PM 02/09/2016,Autonomous Enabled,0,TRUE,-44087,NetComm_CAN_Receive.vi:5470007<APPEND>  <b>Complete call chain:</b>      NetComm_CAN_Receive.vi:5470007      WPI_CANTalonSRX_Receive.vi      WPI_MotorControlOpenCANTalonSRX.vi      Begin.vi      Robot Main.vi,0.000000,0.000000,4000.000000,4000.000000,Speed,Speed,-0.030000,1.150000,2.940000,3.000000,102.000000,1,0,0.000000,0.000000,0,0.000000,0.000000,0.000000,1.513687,11.132782,0.000000,0.002000,0.000000,0.005000
08:02:43.910 PM 02/09/2016,Autonomous Enabled,0,TRUE,-44087,NetComm_CAN_Receive.vi:5470007<APPEND>  <b>Complete call chain:</b>      NetComm_CAN_Receive.vi:5470007      WPI_CANTalonSRX_Receive.vi      WPI_MotorControlOpenCANTalonSRX.vi      Begin.vi      Robot Main.vi,0.000000,0.000000,4000.000000,4000.000000,Speed,Speed,-0.100000,1.210000,3.170000,3.000000,105.000000,1,0,0.000000,0.000000,0,0.005035,0.069595,0.000000,1.513748,11.133514,0.000000,-0.004000,0.763000,0.130000
08:02:44.012 PM 02/09/2016,Autonomous Enabled,0,TRUE,-44087,NetComm_CAN_Receive.vi:5470007<APPEND>  <b>Complete call chain:</b>      NetComm_CAN_Receive.vi:5470007      WPI_CANTalonSRX_Receive.vi      WPI_MotorControlOpenCANTalonSRX.vi      Begin.vi      Robot Main.vi,0.000000,0.000000,4000.000000,4000.000000,Speed,Speed,-0.410000,1.090000,5.140000,3.000000,102.000000,1,0,0.000000,0.000000,0,0.001770,0.452393,0.000000,1.514023,11.151215,0.000000,0.023000,0.177000,0.107000
08:02:44.113 PM 02/09/2016,Autonomous Enabled,0,TRUE,-44087,NetComm_CAN_Receive.vi:5470007<APPEND>  <b>Complete call chain:</b>      NetComm_CAN_Receive.vi:5470007      WPI_CANTalonSRX_Receive.vi      WPI_MotorControlOpenCANTalonSRX.vi      Begin.vi      Robot Main.vi,0.000000,0.000000,4000.000000,4000.000000,Speed,Speed,-0.850000,1.120000,4.830000,3.000000,102.000000,1,0,0.000000,0.000000,0,0.009201,0.498779,0.000000,1.514999,11.181885,0.000000,-0.034000,-0.078000,0.105000
08:02:44.212 PM 02/09/2016,Autonomous Enabled,0,TRUE,-44087,NetComm_CAN_Receive.vi:5470007<APPEND>  <b>Complete call chain:</b>      NetComm_CAN_Receive.vi:5470007      WPI_CANTalonSRX_Receive.vi      WPI_MotorControlOpenCANTalonSRX.vi      Begin.vi      Robot Main.vi,0.000000,0.000000,4000.000000,4000.000000,Speed,Speed,-1.100000,1.120000,5.020000,3.000000,102.000000,1,0,0.000000,0.000000,0,0.000000,0.000000,0.000000,1.515045,11.196442,0.000000,0.006000,-0.018000,0.027000
08:02:44.312 PM 02/09/2016,Autonomous Enabled,0,TRUE,-44087,NetComm_CAN_Receive.vi:5470007<APPEND>  <b>Complete call chain:</b>      NetComm_CAN_Receive.vi:5470007      WPI_CANTalonSRX_Receive.vi      WPI_MotorControlOpenCANTalonSRX.vi      Begin.vi      Robot Main.vi,0.000000,0.000000,4000.000000,4000.000000,Speed,Speed,-1.350000,1.110000,4.840000,3.000000,109.000000,1,0,0.000000,0.000000,0,0.000000,-0.036148,0.000000,1.515045,11.195496,0.000000,0.005000,-0.038000,0.039000
08:02:44.413 PM 02/09/2016,Autonomous Enabled,0,TRUE,-44087,NetComm_CAN_Receive.vi:5470007<APPEND>  <b>Complete call chain:</b>      NetComm_CAN_Receive.vi:5470007      WPI_CANTalonSRX_Receive.vi      WPI_MotorControlOpenCANTalonSRX.vi      Begin.vi      Robot Main.vi,0.000000,0.000000,4000.000000,4000.000000,Speed,Speed,-1.490000,1.050000,5.000000,3.000000,105.000000,1,0,0.000000,0.000000,0,-0.005493,-0.040405,0.000000,1.514984,11.193710,0.000000,-0.054000,0.290000,0.033000
08:02:44.512 PM 02/09/2016,Autonomous Enabled,0,TRUE,-44087,NetComm_CAN_Receive.vi:5470007<APPEND>  <b>Complete call chain:</b>      NetComm_CAN_Receive.vi:5470007      WPI_CANTalonSRX_Receive.vi      WPI_MotorControlOpenCANTalonSRX.vi      Begin.vi      Robot Main.vi,0.000000,0.000000,4000.000000,4000.000000,Speed,Speed,-0.200000,0.920000,5.120000,3.000000,102.000000,1,0,0.000000,0.000000,0,-0.040283,-0.006042,0.000000,1.513611,11.194504,0.000000,-0.022000,-0.106000,0.009000
08:02:44.612 PM 02/09/2016,Autonomous Enabled,0,TRUE,-44087,NetComm_CAN_Receive.vi:5470007<APPEND>  <b>Complete call chain:</b>      NetComm_CAN_Receive.vi:5470007      WPI_CANTalonSRX_Receive.vi      WPI_MotorControlOpenCANTalonSRX.vi      Begin.vi      Robot Main.vi,0.000000,0.000000,4000.000000,4000.000000,Speed,Speed,1.310000,1.190000,4.190000,3.000000,100.000000,1,0,0.000000,0.000000,0,0.028702,-0.151505,0.000000,1.512985,11.190125,0.000000,-0.022000,-0.106000,0.009000
08:02:44.713 PM 02/09/2016,Autonomous Enabled,0,TRUE,-44087,NetComm_CAN_Receive.vi:5470007<APPEND>  <b>Complete call chain:</b>      NetComm_CAN_Receive.vi:5470007      WPI_CANTalonSRX_Receive.vi      WPI_MotorControlOpenCANTalonSRX.vi      Begin.vi      Robot Main.vi,0.000000,0.000000,4000.000000,4000.000000,Speed,Speed,-0.450000,1.310000,4.140000,3.000000,107.000000,1,0,0.000000,0.000000,0,0.035736,-0.151016,0.000000,1.515289,11.181900,0.000000,-0.096000,0.017000,0.094000
08:02:44.814 PM 02/09/2016,Autonomous Enabled,0,TRUE,-44087,NetComm_CAN_Receive.vi:5470007<APPEND>  <b>Complete call chain:</b>      NetComm_CAN_Receive.vi:5470007      WPI_CANTalonSRX_Receive.vi      WPI_MotorControlOpenCANTalonSRX.vi      Begin.vi      Robot Main.vi,0.000000,0.000000,4000.000000,4000.000000,Speed,Speed,-2.130000,1.280000,3.410000,3.000000,102.000000,1,0,0.000000,0.000000,0,0.000153,-0.154602,0.000000,1.516022,11.173981,0.000000,-0.096000,0.017000,0.094000
08:02:44.915 PM 02/09/2016,Autonomous Enabled,0,TRUE,-44087,NetComm_CAN_Receive.vi:5470007<APPEND>  <b>Complete call chain:</b>      NetComm_CAN_Receive.vi:5470007      WPI_CANTalonSRX_Receive.vi      WPI_MotorControlOpenCANTalonSRX.vi      Begin.vi      Robot Main.vi,0.000000,0.000000,4000.000000,4000.000000,Speed,Speed,-0.750000,0.960000,4.300000,3.000000,100.000000,1,0,0.000000,0.000000,0,-0.069351,-0.033447,0.000000,1.513351,11.169388,0.000000,-0.092000,-0.010000,-0.080000
08:02:45.016 PM 02/09/2016,Autonomous Enabled,0,TRUE,-44087,NetComm_CAN_Receive.vi:5470007<APPEND>  <b>Complete call chain:</b>      NetComm_CAN_Receive.vi:5470007      WPI_CANTalonSRX_Receive.vi      WPI_MotorControlOpenCANTalonSRX.vi      Begin.vi      Robot Main.vi,0.000000,0.000000,4000.000000,4000.000000,Speed,Speed,-0.750000,0.960000,4.300000,3.000000,103.000000,1,0,0.000000,0.000000,0,-0.048416,-0.121918,0.000000,1.510437,11.166046,0.000000,0.002000,0.042000,0.091000
08:02:45.115 PM 02/09/2016,Autonomous Enabled,0,TRUE,-44087,NetComm_CAN_Receive.vi:5470007<APPEND>  <b>Complete call chain:</b>      NetComm_CAN_Receive.vi:5470007      WPI_CANTalonSRX_Receive.vi      WPI_MotorControlOpenCANTalonSRX.vi      Begin.vi      Robot Main.vi,0.000000,0.000000,4000.000000,4000.000000,Speed,Speed,2.360000,0.880000,3.450000,3.000000,102.000000,1,0,0.000000,0.000000,0,0.078552,-0.198410,0.000000,1.511963,11.156876,0.000000,0.123000,-0.159000,-0.077000
08:02:45.216 PM 02/09/2016,Autonomous Enabled,0,TRUE,-44087,NetComm_CAN_Receive.vi:5470007<APPEND>  <b>Complete call chain:</b>      NetComm_CAN_Receive.vi:5470007      WPI_CANTalonSRX_Receive.vi      WPI_MotorControlOpenCANTalonSRX.vi      Begin.vi      Robot Main.vi,0.000000,0.000000,4000.000000,4000.000000,Speed,Speed,-3.530000,1.870000,2.580000,3.000000,107.000000,1,0,0.000000,0.000000,0,0.092972,-0.212997,0.000000,1.515381,11.146042,0.000000,-0.097000,-0.059000,0.048000
08:02:45.318 PM 02/09/2016,Autonomous Enabled,0,TRUE,-44087,NetComm_CAN_Receive.vi:5470007<APPEND>  <b>Complete call chain:</b>      NetComm_CAN_Receive.vi:5470007      WPI_CANTalonSRX_Receive.vi      WPI_MotorControlOpenCANTalonSRX.vi      Begin.vi      Robot Main.vi,0.000000,0.000000,4000.000000,4000.000000,Speed,Speed,-3.530000,1.870000,2.580000,3.000000,101.000000,1,0,0.000000,0.000000,0,-0.187729,-0.015671,0.000000,1.514496,11.138458,0.000000,0.072000,-0.050000,-0.099000
08:02:45.417 PM 02/09/2016,Autonomous Enabled,0,TRUE,-44087,NetComm_CAN_Receive.vi:5470007<APPEND>  <b>Complete call chain:</b>      NetComm_CAN_Receive.vi:5470007      WPI_CANTalonSRX_Receive.vi      WPI_MotorControlOpenCANTalonSRX.vi      Begin.vi      Robot Main.vi,0.000000,0.000000,4000.000000,4000.000000,Speed,Speed,-2.740000,0.770000,5.630000,3.000000,102.000000,1,0,0.000000,0.000000,0,0.055008,0.069458,0.000000,1.512375,11.144501,0.000000,0.299000,0.395000,0.166000
08:02:45.518 PM 02/09/2016,Autonomous Enabled,0,TRUE,-44087,NetComm_CAN_Receive.vi:5470007<APPEND>  <b>Complete call chain:</b>      NetComm_CAN_Receive.vi:5470007      WPI_CANTalonSRX_Receive.vi      WPI_MotorControlOpenCANTalonSRX.vi      Begin.vi      Robot Main.vi,0.000000,0.000000,4000.000000,4000.000000,Speed,Speed,1.380000,0.810000,7.330000,3.000000,102.000000,0,0,0.000000,0.000000,0,0.002975,-0.344009,0.000000,1.514648,11.133972,0.000000,0.085000,-0.519000,-0.321000
08:02:45.618 PM 02/09/2016,Autonomous Enabled,0,TRUE,-44087,NetComm_CAN_Receive.vi:5470007<APPEND>  <b>Complete call chain:</b>      NetComm_CAN_Receive.vi:5470007      WPI_CANTalonSRX_Receive.vi      WPI_CANTalonSRX_GetStatus.vi      ShooterVI.vi      Periodic Tasks.vi      Robot Main.vi,0.000000,0.000000,4000.000000,4000.000000,Speed,Speed,1.380000,0.810000,7.330000,3.000000,101.000000,0,0,0.000000,0.000000,0,0.011826,-0.523041,0.000000,1.515793,11.112259,0.000000,0.036000,0.023000,0.230000
08:02:45.719 PM 02/09/2016,Autonomous Enabled,0,TRUE,-44087,NetComm_CAN_Receive.vi:5470007<APPEND>  <b>Complete call chain:</b>      NetComm_CAN_Receive.vi:5470007      WPI_CANTalonSRX_Receive.vi      WPI_CANTalonSRX_GetStatus.vi      ShooterVI.vi      Periodic Tasks.vi      Robot Main.vi,0.000000,0.000000,4000.000000,4000.000000,Speed,Speed,0.670000,0.700000,8.970000,3.000000,104.000000,0,0,0.000000,0.000000,0,0.113785,-0.428116,0.000000,1.517181,11.090286,0.000000,-0.036000,0.301000,-0.283000
08:02:45.819 PM 02/09/2016,Autonomous Enabled,0,TRUE,-44087,NetComm_CAN_Receive.vi:5470007<APPEND>  <b>Complete call chain:</b>      NetComm_CAN_Receive.vi:5470007      WPI_CANTalonSRX_Receive.vi      WPI_CANTalonSRX_GetStatus.vi      ShooterVI.vi      Periodic Tasks.vi      Robot Main.vi,0.000000,0.000000,4000.000000,4000.000000,Speed,Speed,-0.290000,1.000000,8.820000,3.000000,102.000000,0,0,0.000000,0.000000,0,0.222778,-0.594681,0.000000,1.526520,11.066376,0.000000,0.087000,0.119000,-0.526000
08:02:45.919 PM 02/09/2016,Autonomous Enabled,0,TRUE,-44087,NetComm_CAN_Receive.vi:5470007<APPEND>  <b>Complete call chain:</b>      NetComm_CAN_Receive.vi:5470007      WPI_CANTalonSRX_Receive.vi      WPI_CANTalonSRX_GetStatus.vi      ShooterVI.vi      Periodic Tasks.vi      Robot Main.vi,0.000000,0.000000,4000.000000,4000.000000,Speed,Speed,0.070000,0.670000,10.750000,3.000000,104.000000,0,0,0.000000,0.000000,0,0.131546,-0.570999,0.000000,1.535721,11.037979,0.000000,-0.102000,0.010000,-0.220000
08:02:46.021 PM 02/09/2016,Autonomous Enabled,0,TRUE,-44087,NetComm_CAN_Receive.vi:5470007<APPEND>  <b>Complete call chain:</b>      NetComm_CAN_Receive.vi:5470007      WPI_CANTalonSRX_Receive.vi      WPI_CANTalonSRX_GetStatus.vi      ShooterVI.vi      Periodic Tasks.vi      Robot Main.vi,0.000000,0.000000,4000.000000,4000.000000,Speed,Speed,0.780000,1.200000,14.060000,3.000000,100.000000,0,0,0.000000,0.000000,0,0.151566,-0.493164,0.000000,1.543472,11.012314,0.000000,-0.021000,0.027000,0.245000
08:02:46.122 PM 02/09/2016,Autonomous Enabled,0,TRUE,-44087,NetComm_CAN_Receive.vi:5470007<APPEND>  <b>Complete call chain:</b>      NetComm_CAN_Receive.vi:5470007      WPI_CANTalonSRX_Receive.vi      WPI_CANTalonSRX_GetStatus.vi      ShooterVI.vi      Periodic Tasks.vi      Robot Main.vi,0.000000,0.000000,4000.000000,4000.000000,Speed,Speed,0.060000,0.750000,15.350000,3.000000,101.000000,0,0,0.000000,0.000000,0,0.132263,-0.411713,0.000000,1.549820,10.982208,0.000000,-0.355000,-0.239000,-0.008000
08:02:46.221 PM 02/09/2016,Autonomous Enabled,0,TRUE,-44087,NetComm_CAN_Receive.vi:5470007<APPEND>  <b>Complete call chain:</b>      NetComm_CAN_Receive.vi:5470007      WPI_CANTalonSRX_Receive.vi      WPI_CANTalonSRX_GetStatus.vi      ShooterVI.vi      Periodic Tasks.vi      Robot Main.vi,0.000000,0.000000,4000.000000,4000.000000,Speed,Speed,0.020000,0.950000,17.430000,3.000000,101.000000,0,0,0.000000,0.000000,0,0.133286,-0.282913,0.000000,1.555573,10.968903,0.000000,-0.023000,0.098000,-0.008000
08:02:46.321 PM 02/09/2016,Autonomous Enabled,0,TRUE,-44087,NetComm_CAN_Receive.vi:5470007<APPEND>  <b>Complete call chain:</b>      NetComm_CAN_Receive.vi:5470007      WPI_CANTalonSRX_Receive.vi      WPI_CANTalonSRX_GetStatus.vi      ShooterVI.vi      Periodic Tasks.vi      Robot Main.vi,0.000000,0.000000,4000.000000,4000.000000,Speed,Speed,0.040000,1.280000,17.870000,3.000000,101.000000,0,0,0.000000,0.000000,0,0.141251,-0.236801,0.000000,1.562302,10.956360,0.000000,-0.023000,0.098000,-0.008000
08:02:46.422 PM 02/09/2016,Autonomous Enabled,0,TRUE,-44087,NetComm_CAN_Receive.vi:5470007<APPEND>  <b>Complete call chain:</b>      NetComm_CAN_Receive.vi:5470007      WPI_CANTalonSRX_Receive.vi      WPI_CANTalonSRX_GetStatus.vi      ShooterVI.vi      Periodic Tasks.vi      Robot Main.vi,0.000000,0.000000,4000.000000,4000.000000,Speed,Speed,-0.070000,1.170000,16.790000,3.000000,101.000000,0,0,0.000000,0.000000,0,0.157578,-0.237549,0.000000,1.570984,10.942902,0.000000,0.004000,0.029000,0.050000
08:02:46.521 PM 02/09/2016,Autonomous Enabled,0,TRUE,-44087,NetComm_CAN_Receive.vi:5470007<APPEND>  <b>Complete call chain:</b>      NetComm_CAN_Receive.vi:5470007      WPI_CANTalonSRX_Receive.vi      WPI_CANTalonSRX_GetStatus.vi      ShooterVI.vi      Periodic Tasks.vi      Robot Main.vi,0.000000,0.000000,4000.000000,4000.000000,Speed,Speed,-0.070000,1.170000,16.790000,3.000000,100.000000,0,0,0.000000,0.000000,0,0.135345,-0.341354,0.000000,1.578308,10.927338,0.000000,0.164000,-0.023000,0.000000
08:02:46.623 PM 02/09/2016,Autonomous Enabled,0,TRUE,-44087,NetComm_CAN_Receive.vi:5470007<APPEND>  <b>Complete call chain:</b>      NetComm_CAN_Receive.vi:5470007      WPI_CANTalonSRX_Receive.vi      WPI_CANTalonSRX_GetStatus.vi      ShooterVI.vi      Periodic Tasks.vi      Robot Main.vi,0.000000,0.000000,4000.000000,4000.000000,Speed,Speed,-0.220000,0.440000,16.210000,3.000000,106.000000,0,0,0.000000,0.000000,0,0.192627,-0.743774,0.000000,1.587250,10.896469,0.000000,0.033000,0.014000,-0.474000
08:02:46.723 PM 02/09/2016,Autonomous Enabled,0,TRUE,-44087,NetComm_CAN_Receive.vi:5470007<APPEND>  <b>Complete call chain:</b>      NetComm_CAN_Receive.vi:5470007      WPI_CANTalonSRX_Receive.vi      WPI_CANTalonSRX_GetStatus.vi      ShooterVI.vi      Periodic Tasks.vi      Robot Main.vi,0.000000,0.000000,4000.000000,4000.000000,Speed,Speed,-1.740000,0.130000,16.360000,3.000000,102.000000,0,0,0.000000,0.000000,0,0.091202,-0.738953,0.000000,1.593582,10.859268,0.000000,-0.102000,-0.056000,-0.386000
08:02:46.823 PM 02/09/2016,Autonomous Enabled,0,TRUE,-44087,NetComm_CAN_Receive.vi:5470007<APPEND>  <b>Complete call chain:</b>      NetComm_CAN_Receive.vi:5470007      WPI_CANTalonSRX_Receive.vi      WPI_CANTalonSRX_GetStatus.vi      ShooterVI.vi      Periodic Tasks.vi      Robot Main.vi,0.000000,0.000000,4000.000000,4000.000000,Speed,Speed,-1.420000,0.490000,19.450000,3.000000,104.000000,0,0,0.000000,0.000000,0,0.091202,-0.738953,0.000000,1.593582,10.859268,0.000000,0.071000,0.153000,0.774000
08:02:46.923 PM 02/09/2016,Autonomous Enabled,0,TRUE,-44087,NetComm_CAN_Receive.vi:5470007<APPEND>  <b>Complete call chain:</b>      NetComm_CAN_Receive.vi:5470007      WPI_CANTalonSRX_Receive.vi      WPI_CANTalonSRX_GetStatus.vi      ShooterVI.vi      Periodic Tasks.vi      Robot Main.vi,0.000000,0.000000,4000.000000,4000.000000,Speed,Speed,-0.930000,-0.380000,16.240000,3.000000,105.000000,0,0,0.000000,0.000000,0,0.255127,-0.718613,0.000000,1.605881,10.822586,0.000000,0.000000,-0.234000,0.420000
08:02:47.023 PM 02/09/2016,Autonomous Enabled,0,TRUE,-44087,NetComm_CAN_Receive.vi:5470007<APPEND>  <b>Complete call chain:</b>      NetComm_CAN_Receive.vi:5470007      WPI_CANTalonSRX_Receive.vi      WPI_CANTalonSRX_GetStatus.vi      ShooterVI.vi      Periodic Tasks.vi      Robot Main.vi,0.000000,0.000000,4000.000000,4000.000000,Speed,Speed,-0.930000,-0.380000,16.240000,3.000000,101.000000,0,0,0.000000,0.000000,0,0.063736,-1.126160,0.000000,1.614624,10.776001,0.000000,-0.419000,-0.814000,-0.165000
08:02:47.123 PM 02/09/2016,Autonomous Enabled,0,TRUE,-44087,NetComm_CAN_Receive.vi:5470007<APPEND>  <b>Complete call chain:</b>      NetComm_CAN_Receive.vi:5470007      WPI_CANTalonSRX_Receive.vi      WPI_CANTalonSRX_GetStatus.vi      ShooterVI.vi      Periodic Tasks.vi      Robot Main.vi,0.000000,0.000000,4000.000000,4000.000000,Speed,Speed,-3.250000,1.250000,16.430000,3.000000,101.000000,0,0,0.000000,0.000000,0,-0.254120,-1.023102,0.000000,1.608704,10.718796,0.000000,0.507000,-0.141000,0.400000
08:02:47.224 PM 02/09/2016,Autonomous Enabled,0,TRUE,-44087,NetComm_CAN_Receive.vi:5470007<APPEND>  <b>Complete call chain:</b>      NetComm_CAN_Receive.vi:5470007      WPI_CANTalonSRX_Receive.vi      WPI_CANTalonSRX_GetStatus.vi      ShooterVI.vi      Periodic Tasks.vi      Robot Main.vi,0.000000,0.000000,4000.000000,4000.000000,Speed,Speed,-1.410000,0.210000,17.570000,3.000000,105.000000,0,0,0.000000,0.000000,0,-0.082962,-1.071594,0.000000,1.600876,10.667648,0.000000,-0.346000,-0.633000,0.082000
08:02:47.325 PM 02/09/2016,Autonomous Enabled,0,TRUE,-44087,NetComm_CAN_Receive.vi:5470007<APPEND>  <b>Complete call chain:</b>      NetComm_CAN_Receive.vi:5470007      WPI_CANTalonSRX_Receive.vi      WPI_CANTalonSRX_GetStatus.vi      ShooterVI.vi      Periodic Tasks.vi      Robot Main.vi,0.000000,0.000000,4000.000000,4000.000000,Speed,Speed,-0.670000,0.060000,15.900000,3.000000,105.000000,0,0,0.000000,0.000000,0,-0.220184,-1.344833,0.000000,1.590790,10.605469,0.000000,-0.404000,0.517000,-0.412000
08:02:47.425 PM 02/09/2016,Autonomous Enabled,0,TRUE,-44087,NetComm_CAN_Receive.vi:5470007<APPEND>  <b>Complete call chain:</b>      NetComm_CAN_Receive.vi:5470007      WPI_CANTalonSRX_Receive.vi      WPI_CANTalonSRX_GetStatus.vi      ShooterVI.vi      Periodic Tasks.vi      Robot Main.vi,0.000000,0.000000,4000.000000,4000.000000,Speed,Speed,-1.390000,0.510000,16.500000,3.000000,103.000000,0,0,0.000000,0.000000,0,-0.427139,-0.935379,0.000000,1.572021,10.550247,0.000000,-0.236000,0.260000,-0.132000
08:02:47.525 PM 02/09/2016,Autonomous Enabled,0,TRUE,-44087,NetComm_CAN_Receive.vi:5470007<APPEND>  <b>Complete call chain:</b>      NetComm_CAN_Receive.vi:5470007      WPI_CANTalonSRX_Receive.vi      WPI_CANTalonSRX_GetStatus.vi      ShooterVI.vi      Periodic Tasks.vi      Robot Main.vi,0.000000,0.000000,4000.000000,4000.000000,Speed,Speed,-1.880000,0.220000,17.750000,3.000000,104.000000,0,0,0.000000,0.000000,0,-0.003708,-0.887054,0.000000,1.558228,10.506699,0.000000,-0.026000,-0.099000,-0.374000
08:02:47.626 PM 02/09/2016,Autonomous Enabled,0,TRUE,-44087,NetComm_CAN_Receive.vi:5470007<APPEND>  <b>Complete call chain:</b>      NetComm_CAN_Receive.vi:5470007      WPI_CANTalonSRX_Receive.vi      WPI_CANTalonSRX_GetStatus.vi      ShooterVI.vi      Periodic Tasks.vi      Robot Main.vi,0.000000,0.000000,4000.000000,4000.000000,Speed,Speed,-1.500000,0.210000,19.080000,3.000000,103.000000,0,0,0.000000,0.000000,0,0.026199,-0.941711,0.000000,1.559021,10.460068,0.000000,0.159000,0.067000,0.382000
08:02:47.728 PM 02/09/2016,Autonomous Enabled,0,TRUE,-44087,NetComm_CAN_Receive.vi:5470007<APPEND>  <b>Complete call chain:</b>      NetComm_CAN_Receive.vi:5470007      WPI_CANTalonSRX_Receive.vi      WPI_CANTalonSRX_GetStatus.vi      ShooterVI.vi      Periodic Tasks.vi      Robot Main.vi,0.000000,0.000000,4000.000000,4000.000000,Speed,Speed,-1.180000,0.250000,16.750000,3.000000,101.000000,0,0,0.000000,0.000000,0,0.052780,-0.985657,0.000000,1.561447,10.412689,0.000000,-0.203000,0.039000,0.026000
08:02:47.827 PM 02/09/2016,Autonomous Enabled,0,TRUE,-44087,NetComm_CAN_Receive.vi:5470007<APPEND>  <b>Complete call chain:</b>      NetComm_CAN_Receive.vi:5470007      WPI_CANTalonSRX_Receive.vi      WPI_CANTalonSRX_GetStatus.vi      ShooterVI.vi      Periodic Tasks.vi      Robot Main.vi,0.000000,0.000000,4000.000000,4000.000000,Speed,Speed,-2.050000,0.600000,17.470000,3.000000,101.000000,0,0,0.000000,0.000000,0,-0.002563,-0.769455,0.000000,1.559601,10.362534,0.000000,0.031000,-0.411000,0.018000
08:02:47.926 PM 02/09/2016,Autonomous Enabled,0,TRUE,-44087,NetComm_CAN_Receive.vi:5470007<APPEND>  <b>Complete call chain:</b>      NetComm_CAN_Receive.vi:5470007      WPI_CANTalonSRX_Receive.vi      WPI_CANTalonSRX_GetStatus.vi      ShooterVI.vi      Periodic Tasks.vi      Robot Main.vi,0.000000,0.000000,4000.000000,4000.000000,Speed,Speed,-1.780000,0.470000,19.120000,3.000000,101.000000,0,0,0.000000,0.000000,0,0.032410,-0.920303,0.000000,1.560226,10.327042,0.000000,-0.367000,0.365000,-0.161000
08:02:48.029 PM 02/09/2016,Autonomous Enabled,0,TRUE,-44087,NetComm_CAN_Receive.vi:5470007<APPEND>  <b>Complete call chain:</b>      NetComm_CAN_Receive.vi:5470007      WPI_CANTalonSRX_Receive.vi      WPI_CANTalonSRX_GetStatus.vi      ShooterVI.vi      Periodic Tasks.vi      Robot Main.vi,0.000000,0.000000,4000.000000,4000.000000,Speed,Speed,-0.790000,-0.060000,17.880000,3.000000,101.000000,0,0,0.000000,0.000000,0,0.188232,-0.914536,0.000000,1.563065,10.274170,0.000000,0.261000,-0.165000,-0.427000
08:02:48.130 PM 02/09/2016,Autonomous Enabled,0,TRUE,-44087,NetComm_CAN_Receive.vi:5470007<APPEND>  <b>Complete call chain:</b>      NetComm_CAN_Receive.vi:5470007      WPI_CANTalonSRX_Receive.vi      WPI_CANTalonSRX_GetStatus.vi      ShooterVI.vi      Periodic Tasks.vi      Robot Main.vi,0.000000,0.000000,4000.000000,4000.000000,Speed,Speed,-2.100000,0.410000,17.670000,3.000000,103.000000,0,0,0.000000,0.000000,0,0.100922,-0.636810,0.000000,1.570587,10.242096,0.000000,0.325000,0.042000,0.572000
08:02:48.232 PM 02/09/2016,Autonomous Enabled,0,TRUE,-44087,NetComm_CAN_Receive.vi:5470007<APPEND>  <b>Complete call chain:</b>      NetComm_CAN_Receive.vi:5470007      WPI_CANTalonSRX_Receive.vi      WPI_CANTalonSRX_GetStatus.vi      ShooterVI.vi      Periodic Tasks.vi      Robot Main.vi,0.000000,0.000000,4000.000000,4000.000000,Speed,Speed,-1.520000,-0.130000,18.740000,3.000000,104.000000,0,0,0.000000,0.000000,0,0.198212,-0.785126,0.000000,1.580246,10.201721,0.000000,0.116000,-0.128000,-0.347000
08:02:48.333 PM 02/09/2016,Autonomous Enabled,0,TRUE,-44087,NetComm_CAN_Receive.vi:5470007<APPEND>  <b>Complete call chain:</b>      NetComm_CAN_Receive.vi:5470007      WPI_CANTalonSRX_Receive.vi      WPI_CANTalonSRX_GetStatus.vi      ShooterVI.vi      Periodic Tasks.vi      Robot Main.vi,0.000000,0.000000,4000.000000,4000.000000,Speed,Speed,-0.660000,-0.250000,19.240000,3.000000,102.000000,0,0,0.000000,0.000000,0,0.143051,-0.727310,0.000000,1.588287,10.163177,0.000000,0.370000,-0.312000,-0.428000
08:02:48.433 PM 02/09/2016,Autonomous Enabled,0,TRUE,-44087,NetComm_CAN_Receive.vi:5470007<APPEND>  <b>Complete call chain:</b>      NetComm_CAN_Receive.vi:5470007      WPI_CANTalonSRX_Receive.vi      WPI_CANTalonSRX_GetStatus.vi      ShooterVI.vi      Periodic Tasks.vi      Robot Main.vi,0.000000,0.000000,4000.000000,4000.000000,Speed,Speed,-1.030000,0.710000,16.120000,3.000000,102.000000,0,0,0.000000,0.000000,0,0.406097,-0.780991,0.000000,1.604630,10.124588,0.000000,-0.220000,0.124000,-0.364000
08:02:48.533 PM 02/09/2016,Autonomous Enabled,0,TRUE,-44087,NetComm_CAN_Receive.vi:5470007<APPEND>  <b>Complete call chain:</b>      NetComm_CAN_Receive.vi:5470007      WPI_CANTalonSRX_Receive.vi      WPI_CANTalonSRX_GetStatus.vi      ShooterVI.vi      Periodic Tasks.vi      Robot Main.vi,0.000000,0.000000,4000.000000,4000.000000,Speed,Speed,-1.810000,0.660000,18.100000,3.000000,101.000000,0,0,0.000000,0.000000,0,0.326340,-0.448013,0.000000,1.619415,10.098251,0.000000,0.054000,-0.119000,-0.011000
08:02:48.635 PM 02/09/2016,Autonomous Enabled,0,TRUE,-44087,NetComm_CAN_Receive.vi:5470007<APPEND>  <b>Complete call chain:</b>      NetComm_CAN_Receive.vi:5470007      WPI_CANTalonSRX_Receive.vi      WPI_CANTalonSRX_GetStatus.vi      ShooterVI.vi      Periodic Tasks.vi      Robot Main.vi,0.000000,0.000000,4000.000000,4000.000000,Speed,Speed,-1.710000,0.390000,19.470000,3.000000,101.000000,0,0,0.000000,0.000000,0,0.373154,-0.638306,0.000000,1.638397,10.069275,0.000000,0.380000,-0.318000,0.297000
08:02:48.736 PM 02/09/2016,Autonomous Enabled,0,TRUE,-44087,NetComm_CAN_Receive.vi:5470007<APPEND>  <b>Complete call chain:</b>      NetComm_CAN_Receive.vi:5470007      WPI_CANTalonSRX_Receive.vi      WPI_CANTalonSRX_GetStatus.vi      ShooterVI.vi      Periodic Tasks.vi      Robot Main.vi,0.000000,0.000000,4000.000000,4000.000000,Speed,Speed,-0.740000,0.020000,18.690000,3.000000,102.000000,0,0,0.000000,0.000000,0,0.414169,-0.613998,0.000000,1.657654,10.039078,0.000000,0.175000,0.032000,-0.448000
08:02:48.838 PM 02/09/2016,Autonomous Enabled,0,TRUE,-44087,NetComm_CAN_Receive.vi:5470007<APPEND>  <b>Complete call chain:</b>      NetComm_CAN_Receive.vi:5470007      WPI_CANTalonSRX_Receive.vi      WPI_CANTalonSRX_GetStatus.vi      ShooterVI.vi      Periodic Tasks.vi      Robot Main.vi,0.000000,0.000000,4000.000000,4000.000000,Speed,Speed,-2.460000,0.990000,17.020000,3.000000,100.000000,0,0,0.000000,0.000000,0,0.362061,-0.650757,0.000000,1.680923,10.005219,0.000000,0.099000,0.114000,0.328000
08:02:48.940 PM 02/09/2016,Autonomous Enabled,0,TRUE,-44087,NetComm_CAN_Receive.vi:5470007<APPEND>  <b>Complete call chain:</b>      NetComm_CAN_Receive.vi:5470007      WPI_CANTalonSRX_Receive.vi      WPI_CANTalonSRX_GetStatus.vi      ShooterVI.vi      Periodic Tasks.vi      Robot Main.vi,0.000000,0.000000,4000.000000,4000.000000,Speed,Speed,-1.690000,0.360000,18.800000,3.000000,102.000000,0,0,0.000000,0.000000,0,0.517288,-0.580856,0.000000,1.702759,9.977386,0.000000,0.099000,0.114000,0.328000
08:02:49.040 PM 02/09/2016,Autonomous Disabled,0,TRUE,-44087,NetComm_CAN_Receive.vi:5470007<APPEND>  <b>Complete call chain:</b>      NetComm_CAN_Receive.vi:5470007      WPI_CANTalonSRX_Receive.vi      WPI_CANTalonSRX_GetStatus.vi      ShooterVI.vi      Periodic Tasks.vi      Robot Main.vi,0.000000,0.000000,4000.000000,4000.000000,Speed,Speed,-1.050000,0.210000,19.040000,3.000000,101.000000,0,0,0.000000,0.000000,0,0.515198,-0.728607,0.000000,1.740387,9.930145,0.000000,0.245000,-0.191000,0.190000
08:02:49.140 PM 02/09/2016,Autonomous Disabled,0,TRUE,-44087,NetComm_CAN_Receive.vi:5470007<APPEND>  <b>Complete call chain:</b>      NetComm_CAN_Receive.vi:5470007      WPI_CANTalonSRX_Receive.vi      WPI_CANTalonSRX_GetStatus.vi      ShooterVI.vi      Periodic Tasks.vi      Robot Main.vi,0.000000,0.000000,4000.000000,4000.000000,Speed,Speed,-1.710000,0.950000,14.110000,3.000000,102.000000,0,0,0.000000,0.000000,0,0.501541,-0.951523,0.000000,1.767685,9.886902,0.000000,0.397000,0.013000,-0.227000
08:02:49.241 PM 02/09/2016,Autonomous Disabled,0,TRUE,-44087,NetComm_CAN_Receive.vi:5470007<APPEND>  <b>Complete call chain:</b>      NetComm_CAN_Receive.vi:5470007      WPI_CANTalonSRX_Receive.vi      WPI_CANTalonSRX_GetStatus.vi      ShooterVI.vi      Periodic Tasks.vi      Robot Main.vi,0.000000,0.000000,4000.000000,4000.000000,Speed,Speed,-2.500000,1.150000,15.190000,3.000000,103.000000,0,0,0.000000,0.000000,0,0.574188,-0.977646,0.000000,1.796799,9.838776,0.000000,-0.175000,0.090000,0.886000
08:02:49.341 PM 02/09/2016,Autonomous Disabled,0,TRUE,-44087,NetComm_CAN_Receive.vi:5470007<APPEND>  <b>Complete call chain:</b>      NetComm_CAN_Receive.vi:5470007      WPI_CANTalonSRX_Receive.vi      WPI_CANTalonSRX_GetStatus.vi      ShooterVI.vi      Periodic Tasks.vi      Robot Main.vi,0.000000,0.000000,4000.000000,4000.000000,Speed,Speed,-2.470000,1.160000,14.750000,3.000000,102.000000,0,0,0.000000,0.000000,0,0.541595,-0.870789,0.000000,1.822464,9.792358,0.000000,0.221000,0.158000,0.329000
08:02:49.441 PM 02/09/2016,Autonomous Disabled,0,TRUE,-44087,NetComm_CAN_Receive.vi:5470007<APPEND>  <b>Complete call chain:</b>      NetComm_CAN_Receive.vi:5470007      WPI_CANTalonSRX_Receive.vi      WPI_CANTalonSRX_GetStatus.vi      ShooterVI.vi      Periodic Tasks.vi      Robot Main.vi,0.000000,0.000000,4000.000000,4000.000000,Speed,Speed,-2.910000,0.910000,15.790000,3.000000,101.000000,0,0,0.000000,0.000000,0,0.499298,-0.675644,0.000000,1.849670,9.757050,0.000000,0.046000,0.188000,0.249000
08:02:49.542 PM 02/09/2016,Autonomous Disabled,0,TRUE,-44087,NetComm_CAN_Receive.vi:5470007<APPEND>  <b>Complete call chain:</b>      NetComm_CAN_Receive.vi:5470007      WPI_CANTalonSRX_Receive.vi      WPI_CANTalonSRX_GetStatus.vi      ShooterVI.vi      Periodic Tasks.vi      Robot Main.vi,0.000000,0.000000,4000.000000,4000.000000,Speed,Speed,-2.920000,1.170000,16.240000,3.000000,101.000000,0,0,0.000000,0.000000,0,0.517380,-0.572632,0.000000,1.874939,9.727524,0.000000,-0.110000,0.229000,-0.064000
08:02:49.642 PM 02/09/2016,Autonomous Disabled,0,TRUE,-44087,NetComm_CAN_Receive.vi:5470007<APPEND>  <b>Complete call chain:</b>      NetComm_CAN_Receive.vi:5470007      WPI_CANTalonSRX_Receive.vi      WPI_CANTalonSRX_GetStatus.vi      ShooterVI.vi      Periodic Tasks.vi      Robot Main.vi,0.000000,0.000000,4000.000000,4000.000000,Speed,Speed,-2.870000,1.090000,15.930000,3.000000,101.000000,0,0,0.000000,0.000000,0,0.004379,-0.507767,0.000000,1.889893,9.696640,0.000000,-0.017000,0.140000,0.046000
08:02:49.743 PM 02/09/2016,Autonomous Disabled,0,TRUE,-44087,NetComm_CAN_Receive.vi:5470007<APPEND>  <b>Complete call chain:</b>      NetComm_CAN_Receive.vi:5470007      WPI_CANTalonSRX_Receive.vi      WPI_CANTalonSRX_GetStatus.vi      ShooterVI.vi      Periodic Tasks.vi      Robot Main.vi,0.000000,0.000000,4000.000000,4000.000000,Speed,Speed,-2.820000,1.110000,15.540000,3.000000,103.000000,0,0,0.000000,0.000000,0,0.004578,-0.549759,0.000000,1.889969,9.670395,0.000000,0.033000,-0.078000,0.026000
08:02:49.842 PM 02/09/2016,Autonomous Disabled,0,TRUE,-44087,NetComm_CAN_Receive.vi:5470007<APPEND>  <b>Complete call chain:</b>      NetComm_CAN_Receive.vi:5470007      WPI_CANTalonSRX_Receive.vi      WPI_CANTalonSRX_GetStatus.vi      ShooterVI.vi      Periodic Tasks.vi      Robot Main.vi,0.000000,0.000000,4000.000000,4000.000000,Speed,Speed,-2.860000,1.090000,15.430000,3.000000,102.000000,0,0,0.000000,0.000000,0,0.000000,-0.575943,0.000000,1.890106,9.641464,0.000000,0.018000,0.003000,0.008000
08:02:49.943 PM 02/09/2016,Autonomous Disabled,0,TRUE,-44087,NetComm_CAN_Receive.vi:5470007<APPEND>  <b>Complete call chain:</b>      NetComm_CAN_Receive.vi:5470007      WPI_CANTalonSRX_Receive.vi      WPI_CANTalonSRX_GetStatus.vi      ShooterVI.vi      Periodic Tasks.vi      Robot Main.vi,0.000000,0.000000,4000.000000,4000.000000,Speed,Speed,-2.850000,1.070000,15.560000,3.000000,101.000000,0,0,0.000000,0.000000,0,0.000000,-0.552643,0.000000,1.890106,9.618973,0.000000,-0.005000,-0.020000,-0.023000
08:02:50.043 PM 02/09/2016,Autonomous Disabled,0,TRUE,-44087,NetComm_CAN_Receive.vi:5470007<APPEND>  <b>Complete call chain:</b>      NetComm_CAN_Receive.vi:5470007      WPI_CANTalonSRX_Receive.vi      WPI_CANTalonSRX_GetStatus.vi      ShooterVI.vi      Periodic Tasks.vi      Robot Main.vi,0.000000,0.000000,4000.000000,4000.000000,Speed,Speed,-2.850000,1.070000,15.430000,3.000000,102.000000,0,0,0.000000,0.000000,0,0.000000,-0.572922,0.000000,1.890106,9.590775,0.000000,-0.003000,0.000000,0.013000
08:02:50.144 PM 02/09/2016,Autonomous Disabled,0,TRUE,-44087,NetComm_CAN_Receive.vi:5470007<APPEND>  <b>Complete call chain:</b>      NetComm_CAN_Receive.vi:5470007      WPI_CANTalonSRX_Receive.vi      WPI_CANTalonSRX_GetStatus.vi      ShooterVI.vi      Periodic Tasks.vi      Robot Main.vi,0.000000,0.000000,4000.000000,4000.000000,Speed,Speed,-2.850000,1.060000,15.490000,3.000000,102.000000,0,0,0.000000,0.000000,0,0.000000,0.000000,0.000000,1.890106,9.591003,0.000000,-0.006000,-0.005000,0.010000
08:02:50.246 PM 02/09/2016,Autonomous Disabled,0,TRUE,-44087,NetComm_CAN_Receive.vi:5470007<APPEND>  <b>Complete call chain:</b>      NetComm_CAN_Receive.vi:5470007      WPI_CANTalonSRX_Receive.vi      WPI_CANTalonSRX_GetStatus.vi      ShooterVI.vi      Periodic Tasks.vi      Robot Main.vi,0.000000,0.000000,4000.000000,4000.000000,Speed,Speed,-2.840000,1.050000,15.430000,3.000000,102.000000,0,0,0.000000,0.000000,0,0.000000,0.000000,0.000000,1.890106,9.590790,0.000000,-0.006000,0.000000,0.001000
08:02:50.346 PM 02/09/2016,Autonomous Disabled,0,TRUE,-44087,NetComm_CAN_Receive.vi:5470007<APPEND>  <b>Complete call chain:</b>      NetComm_CAN_Receive.vi:5470007      WPI_CANTalonSRX_Receive.vi      WPI_CANTalonSRX_GetStatus.vi      ShooterVI.vi      Periodic Tasks.vi      Robot Main.vi,0.000000,0.000000,4000.000000,4000.000000,Speed,Speed,-2.840000,1.040000,15.460000,3.000000,101.000000,0,0,0.000000,0.000000,0,0.000000,0.000000,0.000000,1.890106,9.590790,0.000000,-0.009000,-0.007000,0.005000
08:02:50.447 PM 02/09/2016,Autonomous Disabled,0,TRUE,-44087,NetComm_CAN_Receive.vi:5470007<APPEND>  <b>Complete call chain:</b>      NetComm_CAN_Receive.vi:5470007      WPI_CANTalonSRX_Receive.vi      WPI_CANTalonSRX_GetStatus.vi      ShooterVI.vi      Periodic Tasks.vi      Robot Main.vi,0.000000,0.000000,4000.000000,4000.000000,Speed,Speed,-2.840000,1.030000,15.430000,3.000000,103.000000,0,0,0.000000,0.000000,0,0.000000,0.000000,0.000000,1.890106,9.590790,0.000000,-0.006000,0.000000,0.011000
08:02:50.547 PM 02/09/2016,Autonomous Disabled,0,TRUE,-44087,NetComm_CAN_Receive.vi:5470007<APPEND>  <b>Complete call chain:</b>      NetComm_CAN_Receive.vi:5470007      WPI_CANTalonSRX_Receive.vi      WPI_CANTalonSRX_GetStatus.vi      ShooterVI.vi      Periodic Tasks.vi      Robot Main.vi,0.000000,0.000000,4000.000000,4000.000000,Speed,Speed,-2.840000,1.030000,15.430000,3.000000,102.000000,0,0,0.000000,0.000000,0,0.000000,0.000000,0.000000,1.890106,9.590790,0.000000,-0.007000,-0.009000,0.008000
08:02:50.647 PM 02/09/2016,Autonomous Disabled,0,TRUE,-44087,NetComm_CAN_Receive.vi:5470007<APPEND>  <b>Complete call chain:</b>      NetComm_CAN_Receive.vi:5470007      WPI_CANTalonSRX_Receive.vi      WPI_CANTalonSRX_GetStatus.vi      ShooterVI.vi      Periodic Tasks.vi      Robot Main.vi,0.000000,0.000000,4000.000000,4000.000000,Speed,Speed,-2.830000,1.010000,15.420000,3.000000,105.000000,0,0,0.000000,0.000000,0,0.000000,0.000000,0.000000,1.890106,9.590790,0.000000,-0.006000,0.000000,0.009000
08:02:50.748 PM 02/09/2016,Autonomous Disabled,0,TRUE,-44087,NetComm_CAN_Receive.vi:5470007<APPEND>  <b>Complete call chain:</b>      NetComm_CAN_Receive.vi:5470007      WPI_CANTalonSRX_Receive.vi      WPI_CANTalonSRX_GetStatus.vi      ShooterVI.vi      Periodic Tasks.vi      Robot Main.vi,0.000000,0.000000,4000.000000,4000.000000,Speed,Speed,-2.830000,1.000000,15.410000,3.000000,103.000000,0,0,0.000000,0.000000,0,0.000000,0.000000,0.000000,1.890106,9.590790,0.000000,-0.005000,-0.004000,0.007000
08:02:50.848 PM 02/09/2016,Autonomous Disabled,0,TRUE,-44087,NetComm_CAN_Receive.vi:5470007<APPEND>  <b>Complete call chain:</b>      NetComm_CAN_Receive.vi:5470007      WPI_CANTalonSRX_Receive.vi      WPI_CANTalonSRX_GetStatus.vi      ShooterVI.vi      Periodic Tasks.vi      Robot Main.vi,0.000000,0.000000,4000.000000,4000.000000,Speed,Speed,-2.830000,1.000000,15.410000,3.000000,101.000000,0,0,0.000000,0.000000,0,0.000000,0.000000,0.000000,1.890106,9.590790,0.000000,-0.004000,0.000000,0.006000
08:02:50.948 PM 02/09/2016,Autonomous Disabled,0,TRUE,-44087,NetComm_CAN_Receive.vi:5470007<APPEND>  <b>Complete call chain:</b>      NetComm_CAN_Receive.vi:5470007      WPI_CANTalonSRX_Receive.vi      WPI_CANTalonSRX_GetStatus.vi      ShooterVI.vi      Periodic Tasks.vi      Robot Main.vi,0.000000,0.000000,4000.000000,4000.000000,Speed,Speed,-2.830000,0.990000,15.400000,3.000000,103.000000,0,0,0.000000,0.000000,0,0.000000,0.000000,0.000000,1.890106,9.590790,0.000000,-0.003000,-0.002000,0.009000
08:02:51.048 PM 02/09/2016,Autonomous Disabled,0,TRUE,-44087,NetComm_CAN_Receive.vi:5470007<APPEND>  <b>Complete call chain:</b>      NetComm_CAN_Receive.vi:5470007      WPI_CANTalonSRX_Receive.vi      WPI_CANTalonSRX_GetStatus.vi      ShooterVI.vi      Periodic Tasks.vi      Robot Main.vi,0.000000,0.000000,4000.000000,4000.000000,Speed,Speed,-2.830000,0.980000,15.390000,3.000000,101.000000,0,0,0.000000,0.000000,0,0.000000,0.000000,0.000000,1.890106,9.590790,0.000000,-0.004000,-0.003000,0.003000
08:02:51.149 PM 02/09/2016,Autonomous Disabled,0,TRUE,-44087,NetComm_CAN_Receive.vi:5470007<APPEND>  <b>Complete call chain:</b>      NetComm_CAN_Receive.vi:5470007      WPI_CANTalonSRX_Receive.vi      WPI_CANTalonSRX_GetStatus.vi      ShooterVI.vi      Periodic Tasks.vi      Robot Main.vi,0.000000,0.000000,4000.000000,4000.000000,Speed,Speed,-2.830000,0.980000,15.390000,3.000000,101.000000,0,0,0.000000,0.000000,0,0.000000,0.000000,0.000000,1.890106,9.590790,0.000000,-0.004000,-0.003000,0.003000
08:02:51.250 PM 02/09/2016,Autonomous Disabled,0,TRUE,-44087,NetComm_CAN_Receive.vi:5470007<APPEND>  <b>Complete call chain:</b>      NetComm_CAN_Receive.vi:5470007      WPI_CANTalonSRX_Receive.vi      WPI_CANTalonSRX_GetStatus.vi      ShooterVI.vi      Periodic Tasks.vi      Robot Main.vi,0.000000,0.000000,4000.000000,4000.000000,Speed,Speed,-2.830000,0.970000,15.380000,3.000000,101.000000,0,0,0.000000,0.000000,0,0.000000,0.000000,0.000000,1.890106,9.590790,0.000000,-0.003000,-0.001000,0.006000
08:02:51.351 PM 02/09/2016,Autonomous Disabled,0,TRUE,-44087,NetComm_CAN_Receive.vi:5470007<APPEND>  <b>Complete call chain:</b>      NetComm_CAN_Receive.vi:5470007      WPI_CANTalonSRX_Receive.vi      WPI_CANTalonSRX_GetStatus.vi      ShooterVI.vi      Periodic Tasks.vi      Robot Main.vi,0.000000,0.000000,4000.000000,4000.000000,Speed,Speed,-2.830000,0.960000,15.370000,3.000000,101.000000,0,0,0.000000,0.000000,0,0.000000,0.000000,0.000000,1.890106,9.590790,0.000000,-0.004000,-0.002000,0.008000
08:02:51.452 PM 02/09/2016,Autonomous Disabled,0,TRUE,-44087,NetComm_CAN_Receive.vi:5470007<APPEND>  <b>Complete call chain:</b>      NetComm_CAN_Receive.vi:5470007      WPI_CANTalonSRX_Receive.vi      WPI_CANTalonSRX_GetStatus.vi      ShooterVI.vi      Periodic Tasks.vi      Robot Main.vi,0.000000,0.000000,4000.000000,4000.000000,Speed,Speed,-2.820000,0.960000,15.370000,3.000000,102.000000,0,0,0.000000,0.000000,0,0.000000,0.000000,0.000000,1.890106,9.590790,0.000000,-0.004000,0.002000,0.009000
08:02:51.552 PM 02/09/2016,Autonomous Disabled,0,TRUE,-44087,NetComm_CAN_Receive.vi:5470007<APPEND>  <b>Complete call chain:</b>      NetComm_CAN_Receive.vi:5470007      WPI_CANTalonSRX_Receive.vi      WPI_CANTalonSRX_GetStatus.vi      ShooterVI.vi      Periodic Tasks.vi      Robot Main.vi,0.000000,0.000000,4000.000000,4000.000000,Speed,Speed,-2.820000,0.960000,15.370000,3.000000,102.000000,0,0,0.000000,0.000000,0,0.000000,0.000000,0.000000,1.890106,9.590790,0.000000,-0.003000,0.000000,0.006000
08:02:51.652 PM 02/09/2016,Autonomous Disabled,0,TRUE,-44087,NetComm_CAN_Receive.vi:5470007<APPEND>  <b>Complete call chain:</b>      NetComm_CAN_Receive.vi:5470007      WPI_CANTalonSRX_Receive.vi      WPI_CANTalonSRX_GetStatus.vi      ShooterVI.vi      Periodic Tasks.vi      Robot Main.vi,0.000000,0.000000,4000.000000,4000.000000,Speed,Speed,-2.820000,0.960000,15.370000,3.000000,102.000000,0,0,0.000000,0.000000,0,0.000000,0.000000,0.000000,1.890106,9.590790,0.000000,-0.001000,0.000000,0.006000
08:02:51.752 PM 02/09/2016,Autonomous Disabled,0,TRUE,-44087,NetComm_CAN_Receive.vi:5470007<APPEND>  <b>Complete call chain:</b>      NetComm_CAN_Receive.vi:5470007      WPI_CANTalonSRX_Receive.vi      WPI_CANTalonSRX_GetStatus.vi      ShooterVI.vi      Periodic Tasks.vi      Robot Main.vi,0.000000,0.000000,4000.000000,4000.000000,Speed,Speed,-2.820000,0.950000,15.370000,3.000000,101.000000,0,0,0.000000,0.000000,0,0.000000,0.000000,0.000000,1.890106,9.590790,0.000000,-0.005000,-0.001000,0.003000
08:02:51.852 PM 02/09/2016,Autonomous Disabled,0,TRUE,-44087,NetComm_CAN_Receive.vi:5470007<APPEND>  <b>Complete call chain:</b>      NetComm_CAN_Receive.vi:5470007      WPI_CANTalonSRX_Receive.vi      WPI_CANTalonSRX_GetStatus.vi      ShooterVI.vi      Periodic Tasks.vi      Robot Main.vi,0.000000,0.000000,4000.000000,4000.000000,Speed,Speed,-2.820000,0.950000,15.370000,3.000000,105.000000,0,0,0.000000,0.000000,0,0.000000,0.000000,0.000000,1.890106,9.590790,0.000000,-0.007000,0.000000,0.007000
08:02:51.953 PM 02/09/2016,Autonomous Disabled,0,TRUE,-44087,NetComm_CAN_Receive.vi:5470007<APPEND>  <b>Complete call chain:</b>      NetComm_CAN_Receive.vi:5470007      WPI_CANTalonSRX_Receive.vi      WPI_CANTalonSRX_GetStatus.vi      ShooterVI.vi      Periodic Tasks.vi      Robot Main.vi,0.000000,0.000000,4000.000000,4000.000000,Speed,Speed,-2.820000,0.950000,15.370000,3.000000,103.000000,0,0,0.000000,0.000000,0,0.000000,0.000000,0.000000,1.890106,9.590790,0.000000,0.000000,0.001000,0.003000
08:02:52.052 PM 02/09/2016,Autonomous Disabled,0,TRUE,-44087,NetComm_CAN_Receive.vi:5470007<APPEND>  <b>Complete call chain:</b>      NetComm_CAN_Receive.vi:5470007      WPI_CANTalonSRX_Receive.vi      WPI_CANTalonSRX_GetStatus.vi      ShooterVI.vi      Periodic Tasks.vi      Robot Main.vi,0.000000,0.000000,4000.000000,4000.000000,Speed,Speed,-2.820000,0.940000,15.360000,3.000000,103.000000,0,0,0.000000,0.000000,0,0.000000,0.000000,0.000000,1.890106,9.590790,0.000000,-0.003000,0.000000,0.007000
08:02:52.154 PM 02/09/2016,Autonomous Disabled,0,TRUE,-44087,NetComm_CAN_Receive.vi:5470007<APPEND>  <b>Complete call chain:</b>      NetComm_CAN_Receive.vi:5470007      WPI_CANTalonSRX_Receive.vi      WPI_CANTalonSRX_GetStatus.vi      ShooterVI.vi      Periodic Tasks.vi      Robot Main.vi,0.000000,0.000000,4000.000000,4000.000000,Speed,Speed,-2.820000,0.940000,15.360000,3.000000,102.000000,0,0,0.000000,0.000000,0,0.000000,0.000000,0.000000,1.890106,9.590790,0.000000,-0.001000,0.000000,0.008000
08:02:52.255 PM 02/09/2016,Autonomous Disabled,0,TRUE,-44087,NetComm_CAN_Receive.vi:5470007<APPEND>  <b>Complete call chain:</b>      NetComm_CAN_Receive.vi:5470007      WPI_CANTalonSRX_Receive.vi      WPI_CANTalonSRX_GetStatus.vi      ShooterVI.vi      Periodic Tasks.vi      Robot Main.vi,0.000000,0.000000,4000.000000,4000.000000,Speed,Speed,-2.820000,0.950000,15.370000,3.000000,103.000000,0,0,0.000000,0.000000,0,0.000000,0.000000,0.000000,1.890106,9.590790,0.000000,-0.001000,-0.001000,0.008000
08:02:52.355 PM 02/09/2016,Autonomous Disabled,0,TRUE,-44087,NetComm_CAN_Receive.vi:5470007<APPEND>  <b>Complete call chain:</b>      NetComm_CAN_Receive.vi:5470007      WPI_CANTalonSRX_Receive.vi      WPI_CANTalonSRX_GetStatus.vi      ShooterVI.vi      Periodic Tasks.vi      Robot Main.vi,0.000000,0.000000,4000.000000,4000.000000,Speed,Speed,-2.820000,0.950000,15.370000,3.000000,104.000000,0,0,0.000000,0.000000,0,0.000000,0.000000,0.000000,1.890106,9.590790,0.000000,-0.005000,0.000000,0.010000
08:02:52.455 PM 02/09/2016,Autonomous Disabled,0,TRUE,-44087,NetComm_CAN_Receive.vi:5470007<APPEND>  <b>Complete call chain:</b>      NetComm_CAN_Receive.vi:5470007      WPI_CANTalonSRX_Receive.vi      WPI_CANTalonSRX_GetStatus.vi      ShooterVI.vi      Periodic Tasks.vi      Robot Main.vi,0.000000,0.000000,4000.000000,4000.000000,Speed,Speed,-2.820000,0.950000,15.370000,3.000000,105.000000,0,0,0.000000,0.000000,0,0.000000,0.000000,0.000000,1.890106,9.590790,0.000000,-0.002000,-0.003000,0.007000
08:02:52.556 PM 02/09/2016,Autonomous Disabled,0,TRUE,-44087,NetComm_CAN_Receive.vi:5470007<APPEND>  <b>Complete call chain:</b>      NetComm_CAN_Receive.vi:5470007      WPI_CANTalonSRX_Receive.vi      WPI_CANTalonSRX_GetStatus.vi      ShooterVI.vi      Periodic Tasks.vi      Robot Main.vi,0.000000,0.000000,4000.000000,4000.000000,Speed,Speed,-2.820000,0.950000,15.370000,3.000000,100.000000,0,0,0.000000,0.000000,0,0.000000,0.000000,0.000000,1.890106,9.590790,0.000000,-0.003000,-0.001000,0.009000
08:02:52.656 PM 02/09/2016,Autonomous Disabled,0,TRUE,-44087,NetComm_CAN_Receive.vi:5470007<APPEND>  <b>Complete call chain:</b>      NetComm_CAN_Receive.vi:5470007      WPI_CANTalonSRX_Receive.vi      WPI_CANTalonSRX_GetStatus.vi      ShooterVI.vi      Periodic Tasks.vi      Robot Main.vi,0.000000,0.000000,4000.000000,4000.000000,Speed,Speed,-2.820000,0.940000,15.370000,3.000000,101.000000,0,0,0.000000,0.000000,0,0.000000,0.000000,0.000000,1.890106,9.590790,0.000000,-0.004000,-0.001000,0.008000
08:02:52.757 PM 02/09/2016,Autonomous Disabled,0,TRUE,-44087,NetComm_CAN_Receive.vi:5470007<APPEND>  <b>Complete call chain:</b>      NetComm_CAN_Receive.vi:5470007      WPI_CANTalonSRX_Receive.vi      WPI_CANTalonSRX_GetStatus.vi      ShooterVI.vi      Periodic Tasks.vi      Robot Main.vi,0.000000,0.000000,4000.000000,4000.000000,Speed,Speed,-2.820000,0.950000,15.370000,3.000000,102.000000,0,0,0.000000,0.000000,0,0.000000,0.000000,0.000000,1.890106,9.590790,0.000000,-0.004000,-0.002000,0.008000
08:02:52.858 PM 02/09/2016,Autonomous Disabled,0,TRUE,-44087,NetComm_CAN_Receive.vi:5470007<APPEND>  <b>Complete call chain:</b>      NetComm_CAN_Receive.vi:5470007      WPI_CANTalonSRX_Receive.vi      WPI_CANTalonSRX_GetStatus.vi      ShooterVI.vi      Periodic Tasks.vi      Robot Main.vi,0.000000,0.000000,4000.000000,4000.000000,Speed,Speed,-2.820000,0.940000,15.360000,3.000000,103.000000,0,0,0.000000,0.000000,0,0.000000,0.000000,0.000000,1.890106,9.590790,0.000000,-0.002000,-0.001000,0.004000
08:02:52.958 PM 02/09/2016,Autonomous Disabled,0,TRUE,-44087,NetComm_CAN_Receive.vi:5470007<APPEND>  <b>Complete call chain:</b>      NetComm_CAN_Receive.vi:5470007      WPI_CANTalonSRX_Receive.vi      WPI_CANTalonSRX_GetStatus.vi      ShooterVI.vi      Periodic Tasks.vi      Robot Main.vi,0.000000,0.000000,4000.000000,4000.000000,Speed,Speed,-2.820000,0.940000,15.370000,3.000000,103.000000,0,0,0.000000,0.000000,0,0.000000,0.000000,0.000000,1.890106,9.590790,0.000000,-0.002000,-0.002000,0.005000
08:02:53.059 PM 02/09/2016,Autonomous Disabled,0,TRUE,-44087,NetComm_CAN_Receive.vi:5470007<APPEND>  <b>Complete call chain:</b>      NetComm_CAN_Receive.vi:5470007      WPI_CANTalonSRX_Receive.vi      WPI_CANTalonSRX_GetStatus.vi      ShooterVI.vi      Periodic Tasks.vi      Robot Main.vi,0.000000,0.000000,4000.000000,4000.000000,Speed,Speed,-2.810000,0.940000,15.360000,3.000000,103.000000,0,0,0.000000,0.000000,0,0.000000,0.000000,0.000000,1.890106,9.590790,0.000000,-0.003000,0.000000,0.001000
08:02:53.159 PM 02/09/2016,Autonomous Disabled,0,TRUE,-44087,NetComm_CAN_Receive.vi:5470007<APPEND>  <b>Complete call chain:</b>      NetComm_CAN_Receive.vi:5470007      WPI_CANTalonSRX_Receive.vi      WPI_CANTalonSRX_GetStatus.vi      ShooterVI.vi      Periodic Tasks.vi      Robot Main.vi,0.000000,0.000000,4000.000000,4000.000000,Speed,Speed,-2.810000,0.940000,15.360000,3.000000,101.000000,0,0,0.000000,0.000000,0,0.000000,0.000000,0.000000,1.890106,9.590790,0.000000,0.000000,0.000000,0.008000
08:02:53.260 PM 02/09/2016,Autonomous Disabled,0,TRUE,-44087,NetComm_CAN_Receive.vi:5470007<APPEND>  <b>Complete call chain:</b>      NetComm_CAN_Receive.vi:5470007      WPI_CANTalonSRX_Receive.vi      WPI_CANTalonSRX_GetStatus.vi      ShooterVI.vi      Periodic Tasks.vi      Robot Main.vi,0.000000,0.000000,4000.000000,4000.000000,Speed,Speed,-2.810000,0.930000,15.360000,3.000000,100.000000,0,0,0.000000,0.000000,0,0.000000,0.000000,0.000000,1.890106,9.590790,0.000000,-0.001000,0.000000,0.006000
08:02:53.359 PM 02/09/2016,Autonomous Disabled,0,TRUE,-44087,NetComm_CAN_Receive.vi:5470007<APPEND>  <b>Complete call chain:</b>      NetComm_CAN_Receive.vi:5470007      WPI_CANTalonSRX_Receive.vi      WPI_CANTalonSRX_GetStatus.vi      ShooterVI.vi      Periodic Tasks.vi      Robot Main.vi,0.000000,0.000000,4000.000000,4000.000000,Speed,Speed,-2.810000,0.930000,15.360000,3.000000,103.000000,0,0,0.000000,0.000000,0,0.000000,0.000000,0.000000,1.890106,9.590790,0.000000,0.000000,0.003000,0.008000
08:02:53.460 PM 02/09/2016,Autonomous Disabled,0,TRUE,-44087,NetComm_CAN_Receive.vi:5470007<APPEND>  <b>Complete call chain:</b>      NetComm_CAN_Receive.vi:5470007      WPI_CANTalonSRX_Receive.vi      WPI_CANTalonSRX_GetStatus.vi      ShooterVI.vi      Periodic Tasks.vi      Robot Main.vi,0.000000,0.000000,4000.000000,4000.000000,Speed,Speed,-2.810000,0.930000,15.360000,3.000000,102.000000,0,0,0.000000,0.000000,0,0.000000,0.000000,0.000000,1.890106,9.590790,0.000000,-0.004000,0.002000,0.006000
08:02:53.559 PM 02/09/2016,Autonomous Disabled,0,TRUE,-44087,NetComm_CAN_Receive.vi:5470007<APPEND>  <b>Complete call chain:</b>      NetComm_CAN_Receive.vi:5470007      WPI_CANTalonSRX_Receive.vi      WPI_CANTalonSRX_GetStatus.vi      ShooterVI.vi      Periodic Tasks.vi      Robot Main.vi,0.000000,0.000000,4000.000000,4000.000000,Speed,Speed,-2.810000,0.930000,15.360000,3.000000,101.000000,0,0,0.000000,0.000000,0,0.000000,0.000000,0.000000,1.890106,9.590790,0.000000,-0.001000,-0.001000,0.006000
08:02:53.660 PM 02/09/2016,Autonomous Disabled,0,TRUE,-44087,NetComm_CAN_Receive.vi:5470007<APPEND>  <b>Complete call chain:</b>      NetComm_CAN_Receive.vi:5470007      WPI_CANTalonSRX_Receive.vi      WPI_CANTalonSRX_GetStatus.vi      ShooterVI.vi      Periodic Tasks.vi      Robot Main.vi,0.000000,0.000000,4000.000000,4000.000000,Speed,Speed,-2.810000,0.920000,15.360000,3.000000,103.000000,0,0,0.000000,0.000000,0,0.000000,0.000000,0.000000,1.890106,9.590790,0.000000,0.000000,-0.001000,0.007000
08:02:53.760 PM 02/09/2016,Autonomous Disabled,0,TRUE,-44087,NetComm_CAN_Receive.vi:5470007<APPEND>  <b>Complete call chain:</b>      NetComm_CAN_Receive.vi:5470007      WPI_CANTalonSRX_Receive.vi      WPI_CANTalonSRX_GetStatus.vi      ShooterVI.vi      Periodic Tasks.vi      Robot Main.vi,0.000000,0.000000,4000.000000,4000.000000,Speed,Speed,-2.820000,0.920000,15.360000,3.000000,101.000000,0,0,0.000000,0.000000,0,0.000000,0.000000,0.000000,1.890106,9.590790,0.000000,-0.001000,0.002000,0.002000
08:02:53.861 PM 02/09/2016,Autonomous Disabled,0,TRUE,-44087,NetComm_CAN_Receive.vi:5470007<APPEND>  <b>Complete call chain:</b>      NetComm_CAN_Receive.vi:5470007      WPI_CANTalonSRX_Receive.vi      WPI_CANTalonSRX_GetStatus.vi      ShooterVI.vi      Periodic Tasks.vi      Robot Main.vi,0.000000,0.000000,4000.000000,4000.000000,Speed,Speed,-2.820000,0.920000,15.360000,3.000000,101.000000,0,0,0.000000,0.000000,0,0.000000,0.000000,0.000000,1.890106,9.590790,0.000000,-0.001000,0.005000,0.005000
08:02:53.962 PM 02/09/2016,Autonomous Disabled,0,TRUE,-44087,NetComm_CAN_Receive.vi:5470007<APPEND>  <b>Complete call chain:</b>      NetComm_CAN_Receive.vi:5470007      WPI_CANTalonSRX_Receive.vi      WPI_CANTalonSRX_GetStatus.vi      ShooterVI.vi      Periodic Tasks.vi      Robot Main.vi,0.000000,0.000000,4000.000000,4000.000000,Speed,Speed,-2.820000,0.920000,15.360000,3.000000,101.000000,0,0,0.000000,0.000000,0,0.000000,0.000000,0.000000,1.890106,9.590790,0.000000,-0.002000,0.000000,0.010000
08:02:54.062 PM 02/09/2016,Autonomous Disabled,0,TRUE,-44087,NetComm_CAN_Receive.vi:5470007<APPEND>  <b>Complete call chain:</b>      NetComm_CAN_Receive.vi:5470007      WPI_CANTalonSRX_Receive.vi      WPI_CANTalonSRX_GetStatus.vi      ShooterVI.vi      Periodic Tasks.vi      Robot Main.vi,0.000000,0.000000,4000.000000,4000.000000,Speed,Speed,-2.820000,0.910000,15.360000,3.000000,102.000000,0,0,0.000000,0.000000,0,0.000000,0.000000,0.000000,1.890106,9.590790,0.000000,-0.002000,0.002000,0.003000
08:02:54.163 PM 02/09/2016,Autonomous Disabled,0,TRUE,-44087,NetComm_CAN_Receive.vi:5470007<APPEND>  <b>Complete call chain:</b>      NetComm_CAN_Receive.vi:5470007      WPI_CANTalonSRX_Receive.vi      WPI_CANTalonSRX_GetStatus.vi      ShooterVI.vi      Periodic Tasks.vi      Robot Main.vi,0.000000,0.000000,4000.000000,4000.000000,Speed,Speed,-2.810000,0.910000,15.360000,3.000000,100.000000,0,0,0.000000,0.000000,0,0.000000,0.000000,0.000000,1.890106,9.590790,0.000000,-0.002000,-0.002000,0.013000
08:02:54.264 PM 02/09/2016,Autonomous Disabled,0,TRUE,-44087,NetComm_CAN_Receive.vi:5470007<APPEND>  <b>Complete call chain:</b>      NetComm_CAN_Receive.vi:5470007      WPI_CANTalonSRX_Receive.vi      WPI_CANTalonSRX_GetStatus.vi      ShooterVI.vi      Periodic Tasks.vi      Robot Main.vi,0.000000,0.000000,4000.000000,4000.000000,Speed,Speed,-2.810000,0.910000,15.360000,3.000000,102.000000,0,0,0.000000,0.000000,0,0.000000,0.000000,0.000000,1.890106,9.590790,0.000000,0.002000,0.000000,0.005000
08:02:54.364 PM 02/09/2016,Autonomous Disabled,0,TRUE,-44087,NetComm_CAN_Receive.vi:5470007<APPEND>  <b>Complete call chain:</b>      NetComm_CAN_Receive.vi:5470007      WPI_CANTalonSRX_Receive.vi      WPI_CANTalonSRX_GetStatus.vi      ShooterVI.vi      Periodic Tasks.vi      Robot Main.vi,0.000000,0.000000,4000.000000,4000.000000,Speed,Speed,-2.810000,0.910000,15.360000,3.000000,101.000000,0,0,0.000000,0.000000,0,0.000000,0.000000,0.000000,1.890106,9.590790,0.000000,0.002000,0.000000,0.005000
08:02:54.464 PM 02/09/2016,Autonomous Disabled,0,TRUE,-44087,NetComm_CAN_Receive.vi:5470007<APPEND>  <b>Complete call chain:</b>      NetComm_CAN_Receive.vi:5470007      WPI_CANTalonSRX_Receive.vi      WPI_CANTalonSRX_GetStatus.vi      ShooterVI.vi      Periodic Tasks.vi      Robot Main.vi,0.000000,0.000000,4000.000000,4000.000000,Speed,Speed,-2.810000,0.910000,15.350000,3.000000,102.000000,0,0,0.000000,0.000000,0,0.000000,0.000000,0.000000,1.890106,9.590790,0.000000,0.000000,-0.001000,0.012000
08:02:54.564 PM 02/09/2016,Autonomous Disabled,0,TRUE,-44087,NetComm_CAN_Receive.vi:5470007<APPEND>  <b>Complete call chain:</b>      NetComm_CAN_Receive.vi:5470007      WPI_CANTalonSRX_Receive.vi      WPI_CANTalonSRX_GetStatus.vi      ShooterVI.vi      Periodic Tasks.vi      Robot Main.vi,0.000000,0.000000,4000.000000,4000.000000,Speed,Speed,-2.810000,0.910000,15.350000,3.000000,102.000000,0,0,0.000000,0.000000,0,0.000000,0.000000,0.000000,1.890106,9.590790,0.000000,0.000000,0.000000,0.006000
08:02:54.665 PM 02/09/2016,Autonomous Disabled,0,TRUE,-44087,NetComm_CAN_Receive.vi:5470007<APPEND>  <b>Complete call chain:</b>      NetComm_CAN_Receive.vi:5470007      WPI_CANTalonSRX_Receive.vi      WPI_CANTalonSRX_GetStatus.vi      ShooterVI.vi      Periodic Tasks.vi      Robot Main.vi,0.000000,0.000000,4000.000000,4000.000000,Speed,Speed,-2.820000,0.910000,15.340000,3.000000,101.000000,0,0,0.000000,0.000000,0,0.000000,0.000000,0.000000,1.890106,9.590790,0.000000,0.000000,-0.001000,0.002000
08:02:54.766 PM 02/09/2016,Autonomous Disabled,0,TRUE,-44087,NetComm_CAN_Receive.vi:5470007<APPEND>  <b>Complete call chain:</b>      NetComm_CAN_Receive.vi:5470007      WPI_CANTalonSRX_Receive.vi      WPI_CANTalonSRX_GetStatus.vi      ShooterVI.vi      Periodic Tasks.vi      Robot Main.vi,0.000000,0.000000,4000.000000,4000.000000,Speed,Speed,-2.820000,0.910000,15.340000,3.000000,103.000000,0,0,0.000000,0.000000,0,0.000000,0.000000,0.000000,1.890106,9.590790,0.000000,0.002000,0.000000,0.008000
08:02:54.868 PM 02/09/2016,Autonomous Disabled,0,TRUE,-44087,NetComm_CAN_Receive.vi:5470007<APPEND>  <b>Complete call chain:</b>      NetComm_CAN_Receive.vi:5470007      WPI_CANTalonSRX_Receive.vi      WPI_CANTalonSRX_GetStatus.vi      ShooterVI.vi      Periodic Tasks.vi      Robot Main.vi,0.000000,0.000000,4000.000000,4000.000000,Speed,Speed,-2.820000,0.910000,15.340000,3.000000,101.000000,0,0,0.000000,0.000000,0,0.000000,0.000000,0.000000,1.890106,9.590790,0.000000,0.002000,0.000000,0.005000
08:02:54.969 PM 02/09/2016,Autonomous Disabled,0,TRUE,-44087,NetComm_CAN_Receive.vi:5470007<APPEND>  <b>Complete call chain:</b>      NetComm_CAN_Receive.vi:5470007      WPI_CANTalonSRX_Receive.vi      WPI_CANTalonSRX_GetStatus.vi      ShooterVI.vi      Periodic Tasks.vi      Robot Main.vi,0.000000,0.000000,4000.000000,4000.000000,Speed,Speed,-2.820000,0.910000,15.340000,3.000000,101.000000,0,0,0.000000,0.000000,0,0.000000,0.000000,0.000000,1.890106,9.590790,0.000000,0.000000,0.000000,0.011000
08:02:55.070 PM 02/09/2016,Autonomous Disabled,0,TRUE,-44087,NetComm_CAN_Receive.vi:5470007<APPEND>  <b>Complete call chain:</b>      NetComm_CAN_Receive.vi:5470007      WPI_CANTalonSRX_Receive.vi      WPI_CANTalonSRX_GetStatus.vi      ShooterVI.vi      Periodic Tasks.vi      Robot Main.vi,0.000000,0.000000,4000.000000,4000.000000,Speed,Speed,-2.820000,0.920000,15.340000,3.000000,102.000000,0,0,0.000000,0.000000,0,0.000000,0.000000,0.000000,1.890106,9.590790,0.000000,-0.002000,0.002000,0.005000
08:02:55.172 PM 02/09/2016,Autonomous Disabled,0,TRUE,-44087,NetComm_CAN_Receive.vi:5470007<APPEND>  <b>Complete call chain:</b>      NetComm_CAN_Receive.vi:5470007      WPI_CANTalonSRX_Receive.vi      WPI_CANTalonSRX_GetStatus.vi      ShooterVI.vi      Periodic Tasks.vi      Robot Main.vi,0.000000,0.000000,4000.000000,4000.000000,Speed,Speed,-2.820000,0.910000,15.340000,3.000000,104.000000,0,0,0.000000,0.000000,0,0.000000,0.000000,0.000000,1.890106,9.590790,0.000000,0.000000,0.001000,0.004000
