Time,RobotMode,AutoToRun,ErrorStatus, ErrorCode,ErrorSource,ActualRPM1,ActualRPM2,DesiredRPM1,DesiredRPM2,ControlMode1,ControlMode2,NavXYaw,NavXRoll,NavXPitch,ShooterState,LoopTime,IsLevel,IsAutoTargeting,LeftMotorOutput,RightMotorOutput,IsHaloDrive,NavXVelocityX,NavXVelocityY,NavXVelocityZ,NavXDisplacementX,NavXDisplacementY,NavXDisplacementZ,NavXAccelerationX,NavXAccelerationY,NavXAccelerationZ,AutoDefendState,AngeMotorState,Photoeye,VisionXOutput
07:05:47.015 PM 02/18/2016,Teleop Enabled,0,TRUE,91,Variant To Data in WPI_DigitalInputRefNum Registry Get.vi->Periodic Tasks.vi->Robot Main.vi,0.000000,0.000000,4000.000000,4000.000000,Speed,Speed,-0.020000,0.830000,1.830000,3.000000,102.000000,1,0,0.000000,0.000000,1,0.000000,0.000000,0.000000,0.518875,-0.451706,0.000000,0.002000,-0.001000,0.007000,FlatInitial,ResetBack,0,0.000000
07:05:47.117 PM 02/18/2016,Teleop Enabled,0,TRUE,-44007,<LOCATION>WPI_DigitalInputRefNum Registry Get.vi<CALLSTACK>WPI_DigitalInputRefNum Registry Get.vi< <Periodic Tasks.vi< <Robot Main.vi,41.601562,-20.068359,4000.000000,4000.000000,Speed,Speed,-0.030000,0.820000,1.800000,3.000000,101.000000,1,0,-0.000000,0.000000,1,0.002823,-0.014435,0.000000,0.518875,-0.452057,0.000000,0.000000,0.000000,0.011000,FlatInitial,ResetBack,0,0.000000
07:05:47.219 PM 02/18/2016,Teleop Enabled,0,FALSE,0,NO ERROR,1378.271484,-1151.513672,4000.000000,4000.000000,Speed,Speed,-0.050000,0.840000,1.760000,3.000000,101.000000,1,0,-0.000000,0.000000,1,0.002823,-0.014435,0.000000,0.518875,-0.452057,0.000000,-0.022000,0.003000,0.042000,FlatInitial,ResetBack,0,0.000000
07:05:47.322 PM 02/18/2016,Teleop Enabled,0,FALSE,0,NO ERROR,3195.849609,-2901.708984,4000.000000,4000.000000,Speed,Speed,-0.080000,0.850000,1.750000,3.000000,100.000000,1,0,-0.000000,0.000000,1,0.023392,-0.042526,0.000000,0.519958,-0.454971,0.000000,0.028000,-0.029000,0.072000,FlatInitial,ResetBack,1,0.000000
07:05:47.423 PM 02/18/2016,Teleop Enabled,0,FALSE,0,NO ERROR,3882.861328,-3764.941406,4000.000000,4000.000000,Speed,Speed,-0.040000,0.840000,1.780000,3.000000,100.000000,1,0,-0.000000,0.000000,1,0.008865,-0.046143,0.000000,0.520706,-0.457520,0.000000,0.005000,-0.022000,-0.003000,FlatInitial,ResetForward,1,0.000000
07:05:47.525 PM 02/18/2016,Teleop Enabled,0,FALSE,0,NO ERROR,3979.101562,-3841.552734,4000.000000,4000.000000,Speed,Speed,-0.080000,0.840000,1.800000,3.000000,102.000000,1,0,-0.000000,0.000000,1,0.021805,-0.068146,0.000000,0.521454,-0.460007,0.000000,-0.013000,0.036000,-0.021000,FlatInitial,ResetForward,1,0.000000
07:05:47.625 PM 02/18/2016,Teleop Enabled,0,FALSE,0,NO ERROR,3903.076172,-3751.611328,4000.000000,4000.000000,Speed,Speed,-0.130000,0.850000,1.820000,3.000000,102.000000,1,0,-0.000000,0.000000,1,0.012512,-0.049927,0.000000,0.522522,-0.463272,0.000000,-0.070000,-0.014000,0.077000,FlatInitial,ResetForward,1,0.000000
07:05:47.726 PM 02/18/2016,Teleop Enabled,0,FALSE,0,NO ERROR,3858.105469,-3753.369141,4000.000000,4000.000000,Speed,Speed,-0.120000,0.820000,1.830000,3.000000,102.000000,1,0,-0.000000,0.000000,1,0.008926,0.022888,0.000000,0.522842,-0.462875,0.000000,-0.070000,-0.014000,0.077000,FlatInitial,ResetForward,1,0.000000
07:05:47.826 PM 02/18/2016,Teleop Enabled,0,FALSE,0,NO ERROR,3883.886719,-3833.056641,4000.000000,4000.000000,Speed,Speed,-0.130000,0.830000,1.790000,3.000000,105.000000,1,0,-0.000000,0.000000,1,0.011078,0.010117,0.000000,0.523361,-0.462204,0.000000,-0.029000,-0.058000,0.157000,FlatInitial,ResetForward,1,0.000000
07:05:47.926 PM 02/18/2016,Teleop Enabled,0,FALSE,0,NO ERROR,3934.570312,-3911.718750,4000.000000,4000.000000,Speed,Speed,-0.130000,0.850000,1.900000,3.000000,101.000000,1,0,-0.000000,0.000000,1,0.020889,0.036484,0.000000,0.524445,-0.460587,0.000000,0.058000,0.040000,0.061000,FlatInitial,ResetForward,1,0.000000
07:05:48.027 PM 02/18/2016,Teleop Enabled,0,FALSE,0,NO ERROR,3974.707031,-3959.326172,4000.000000,4000.000000,Speed,Speed,-0.140000,0.860000,1.900000,3.000000,102.000000,1,0,-0.000000,0.000000,1,0.011734,-0.002762,0.000000,0.525223,-0.460220,0.000000,-0.009000,0.006000,-0.121000,FlatInitial,ResetForward,0,0.000000
07:05:48.127 PM 02/18/2016,Teleop Enabled,0,FALSE,0,NO ERROR,3991.699219,-3971.923828,4000.000000,4000.000000,Speed,Speed,-0.140000,0.850000,1.850000,3.000000,102.000000,1,0,-0.000000,0.000000,1,-0.005295,-0.007355,0.000000,0.525192,-0.460495,0.000000,0.001000,-0.008000,-0.101000,FlatInitial,Reset,0,0.000000
07:05:48.227 PM 02/18/2016,Teleop Enabled,0,FALSE,0,NO ERROR,3999.462891,-3963.281250,4000.000000,4000.000000,Speed,Speed,-0.140000,0.850000,1.850000,3.000000,103.000000,1,0,-0.000000,0.000000,1,-0.005295,-0.007355,0.000000,0.525192,-0.460495,0.000000,0.001000,-0.008000,-0.101000,FlatInitial,Hold,0,0.000000
07:05:48.329 PM 02/18/2016,Teleop Enabled,0,FALSE,0,NO ERROR,4002.978516,-3966.503906,4000.000000,4000.000000,Speed,Speed,-0.150000,0.840000,1.770000,3.000000,101.000000,1,0,-0.000000,0.000000,1,-0.022766,-0.006699,0.000000,0.524277,-0.460571,0.000000,-0.015000,-0.053000,-0.049000,FlatInitial,Hold,0,0.000000
07:05:48.429 PM 02/18/2016,Teleop Enabled,0,FALSE,0,NO ERROR,4007.812500,-3985.546875,4000.000000,4000.000000,Speed,Speed,-0.140000,0.830000,1.820000,3.000000,100.000000,1,0,-0.000000,0.000000,1,-0.040024,0.005081,0.000000,0.522583,-0.460724,0.000000,-0.015000,0.026000,-0.035000,FlatInitial,Hold,0,0.000000
07:05:48.529 PM 02/18/2016,Teleop Enabled,0,FALSE,0,NO ERROR,4010.449219,-4000.195312,4000.000000,4000.000000,Speed,Speed,-0.150000,0.840000,1.920000,3.000000,102.000000,1,0,-0.000000,0.000000,1,-0.009048,0.039993,0.000000,0.522446,-0.459427,0.000000,-0.009000,0.053000,0.098000,FlatInitial,Hold,0,0.000000
07:05:48.629 PM 02/18/2016,Teleop Enabled,0,FALSE,0,NO ERROR,4011.767578,-3999.902344,4000.000000,4000.000000,Speed,Speed,-0.150000,0.850000,1.970000,3.000000,102.000000,1,0,-0.000000,0.000000,1,0.006210,0.006668,0.000000,0.522461,-0.458298,0.000000,0.004000,0.000000,-0.058000,FlatInitial,Hold,0,0.000000
07:05:48.730 PM 02/18/2016,Teleop Enabled,0,FALSE,0,NO ERROR,4008.691406,-3995.361328,4000.000000,4000.000000,Speed,Speed,-0.160000,0.870000,2.030000,3.000000,100.000000,1,0,-0.000000,0.000000,1,0.001938,0.000000,0.000000,0.522537,-0.457794,0.000000,-0.006000,-0.003000,-0.061000,FlatInitial,Hold,0,0.000000
07:05:48.832 PM 02/18/2016,Teleop Enabled,0,FALSE,0,NO ERROR,4007.080078,-3996.386719,4000.000000,4000.000000,Speed,Speed,-0.150000,0.900000,2.080000,3.000000,103.000000,1,0,-0.000000,0.000000,1,0.003571,0.004669,0.000000,0.522705,-0.457657,0.000000,0.036000,0.000000,0.083000,FlatInitial,Hold,0,0.000000
07:05:48.932 PM 02/18/2016,Teleop Enabled,0,FALSE,0,NO ERROR,4009.277344,-3997.998047,4000.000000,4000.000000,Speed,Speed,-0.160000,0.910000,2.130000,3.000000,102.000000,1,0,-0.000000,0.000000,1,0.005478,0.028534,0.000000,0.522919,-0.456589,0.000000,0.002000,0.033000,-0.063000,FlatInitial,Hold,0,0.000000
07:05:49.033 PM 02/18/2016,Teleop Enabled,0,FALSE,0,NO ERROR,4007.812500,-4003.125000,4000.000000,4000.000000,Speed,Speed,-0.160000,0.930000,2.210000,3.000000,102.000000,1,0,-0.000000,0.000000,1,0.011765,0.045578,0.000000,0.523422,-0.454498,0.000000,-0.013000,0.067000,-0.092000,FlatInitial,Hold,0,0.000000
07:05:49.133 PM 02/18/2016,Teleop Enabled,0,FALSE,0,NO ERROR,4006.201172,-4004.443359,4000.000000,4000.000000,Speed,Speed,-0.160000,0.960000,2.270000,3.000000,101.000000,1,0,-0.000000,0.000000,1,0.014648,0.063354,0.000000,0.524155,-0.450958,0.000000,-0.038000,-0.028000,0.030000,FlatInitial,Hold,0,0.000000
07:05:49.236 PM 02/18/2016,Teleop Enabled,0,FALSE,0,NO ERROR,4000.488281,-4004.003906,4000.000000,4000.000000,Speed,Speed,-0.170000,0.980000,2.260000,3.000000,101.000000,1,0,-0.000000,0.000000,1,0.015518,0.067032,0.000000,0.524811,-0.447586,0.000000,-0.026000,-0.021000,0.052000,FlatInitial,Hold,0,0.000000
07:05:49.337 PM 02/18/2016,Teleop Enabled,0,FALSE,0,NO ERROR,3997.998047,-4006.933594,4000.000000,4000.000000,Speed,Speed,-0.170000,0.980000,2.270000,3.000000,101.000000,1,0,-0.000000,0.000000,1,0.024765,0.062622,0.000000,0.525589,-0.445038,0.000000,-0.022000,-0.026000,0.051000,FlatInitial,Hold,0,0.000000
07:05:49.437 PM 02/18/2016,Teleop Enabled,0,FALSE,0,NO ERROR,3996.240234,-4010.302734,4000.000000,4000.000000,Speed,Speed,-0.170000,1.000000,2.330000,3.000000,104.000000,1,0,-0.000000,0.000000,1,0.023483,0.078003,0.000000,0.526810,-0.441559,0.000000,-0.024000,-0.036000,0.051000,FlatInitial,Hold,0,0.000000
07:05:49.537 PM 02/18/2016,Teleop Enabled,0,FALSE,0,NO ERROR,3993.310547,-4007.958984,4000.000000,4000.000000,Speed,Speed,-0.170000,1.010000,2.340000,3.000000,106.000000,1,0,-0.000000,0.000000,1,0.031296,0.072708,0.000000,0.528458,-0.437195,0.000000,0.056000,-0.011000,0.103000,FlatInitial,Hold,0,0.000000
07:05:49.638 PM 02/18/2016,Teleop Enabled,0,FALSE,0,NO ERROR,3993.750000,-4005.322266,4000.000000,4000.000000,Speed,Speed,-0.170000,1.030000,2.340000,3.000000,101.000000,1,0,-0.000000,0.000000,1,0.035049,0.060944,0.000000,0.529800,-0.434616,0.000000,-0.026000,0.001000,-0.095000,FlatInitial,Hold,0,0.000000
07:05:49.739 PM 02/18/2016,Teleop Enabled,0,FALSE,0,NO ERROR,3996.679687,-4001.220703,4000.000000,4000.000000,Speed,Speed,-0.170000,1.030000,2.340000,3.000000,101.000000,1,0,-0.000000,0.000000,1,0.027496,0.000000,0.000000,0.531494,-0.432404,0.000000,0.002000,0.009000,-0.091000,FlatInitial,Hold,0,0.000000
07:05:49.840 PM 02/18/2016,Teleop Enabled,0,FALSE,0,NO ERROR,4001.806641,-3998.437500,4000.000000,4000.000000,Speed,Speed,-0.170000,1.030000,2.360000,3.000000,101.000000,1,0,-0.000000,0.000000,1,-0.008713,-0.001556,0.000000,0.531525,-0.432419,0.000000,-0.035000,0.005000,0.019000,FlatInitial,Hold,0,0.000000
07:05:49.941 PM 02/18/2016,Teleop Enabled,0,FALSE,0,NO ERROR,4006.054687,-3999.609375,4000.000000,4000.000000,Speed,Speed,-0.180000,1.040000,2.390000,3.000000,102.000000,1,0,-0.000000,0.000000,1,-0.011932,-0.001190,0.000000,0.530884,-0.432632,0.000000,0.030000,-0.011000,0.084000,FlatInitial,Hold,0,0.000000
07:05:50.042 PM 02/18/2016,Teleop Enabled,0,FALSE,0,NO ERROR,4011.035156,-4003.271484,4000.000000,4000.000000,Speed,Speed,-0.170000,1.040000,2.380000,3.000000,102.000000,1,0,-0.000000,0.000000,1,-0.018005,0.001221,0.000000,0.530167,-0.432663,0.000000,0.000000,0.029000,-0.044000,FlatInitial,Hold,0,0.000000
07:05:50.143 PM 02/18/2016,Teleop Enabled,0,FALSE,0,NO ERROR,4009.423828,-4002.832031,4000.000000,4000.000000,Speed,Speed,-0.180000,1.040000,2.400000,3.000000,105.000000,1,0,-0.000000,0.000000,1,-0.016418,-0.002441,0.000000,0.529282,-0.432541,0.000000,-0.007000,-0.058000,0.063000,FlatInitial,Hold,0,0.000000
07:05:50.244 PM 02/18/2016,Teleop Enabled,0,FALSE,0,NO ERROR,4005.322266,-4004.150391,4000.000000,4000.000000,Speed,Speed,-0.180000,1.030000,2.400000,3.000000,100.000000,1,0,-0.000000,0.000000,1,-0.017044,-0.011810,0.000000,0.528656,-0.432846,0.000000,0.031000,0.001000,0.089000,FlatInitial,Hold,0,0.000000
07:05:50.348 PM 02/18/2016,Teleop Enabled,0,FALSE,0,NO ERROR,4004.296875,-4004.882812,4000.000000,4000.000000,Speed,Speed,-0.180000,1.030000,2.390000,3.000000,103.000000,1,0,-0.000000,0.000000,1,-0.022110,-0.017227,0.000000,0.527725,-0.433487,0.000000,-0.002000,0.000000,-0.116000,FlatInitial,Hold,0,0.000000
07:05:50.449 PM 02/18/2016,Teleop Enabled,0,FALSE,0,NO ERROR,4001.074219,-4007.373047,4000.000000,4000.000000,Speed,Speed,-0.170000,1.000000,2.340000,3.000000,101.000000,1,0,-0.000000,0.000000,1,-0.021851,-0.038528,0.000000,0.526199,-0.435303,0.000000,-0.034000,-0.061000,0.052000,FlatInitial,Hold,0,0.000000
07:05:50.550 PM 02/18/2016,Teleop Enabled,0,FALSE,0,NO ERROR,3998.291016,-4008.984375,4000.000000,4000.000000,Speed,Speed,-0.170000,0.990000,2.270000,3.000000,103.000000,1,0,-0.000000,0.000000,1,-0.032181,-0.058197,0.000000,0.525146,-0.437271,0.000000,-0.001000,0.007000,-0.109000,FlatInitial,Hold,0,0.000000
07:05:50.650 PM 02/18/2016,Teleop Enabled,0,FALSE,0,NO ERROR,3997.851562,-4004.882812,4000.000000,4000.000000,Speed,Speed,-0.170000,0.960000,2.180000,3.000000,101.000000,1,0,-0.000000,0.000000,1,-0.007263,-0.024124,0.000000,0.523987,-0.438049,0.000000,0.027000,0.010000,-0.114000,FlatInitial,Hold,0,0.000000
07:05:50.752 PM 02/18/2016,Teleop Enabled,0,FALSE,0,NO ERROR,3997.851562,-4001.806641,4000.000000,4000.000000,Speed,Speed,-0.170000,0.960000,2.160000,3.000000,102.000000,1,0,-0.000000,0.000000,1,-0.011261,-0.023666,0.000000,0.523544,-0.439178,0.000000,0.000000,0.029000,-0.110000,FlatInitial,Hold,0,0.000000
07:05:50.852 PM 02/18/2016,Teleop Enabled,0,FALSE,0,NO ERROR,3999.609375,-3999.316406,4000.000000,4000.000000,Speed,Speed,-0.170000,0.940000,2.110000,3.000000,101.000000,1,0,-0.000000,0.000000,1,-0.012680,-0.023544,0.000000,0.522781,-0.440369,0.000000,-0.062000,-0.072000,0.086000,FlatInitial,Hold,0,0.000000
07:05:50.953 PM 02/18/2016,Teleop Enabled,0,FALSE,0,NO ERROR,4000.781250,-4001.513672,4000.000000,4000.000000,Speed,Speed,-0.180000,0.930000,2.100000,3.000000,101.000000,1,0,-0.000000,0.000000,1,-0.015701,-0.038773,0.000000,0.522018,-0.442047,0.000000,0.007000,-0.014000,0.078000,FlatInitial,Hold,0,0.000000
07:05:51.054 PM 02/18/2016,Teleop Enabled,0,FALSE,0,NO ERROR,4002.978516,-4007.812500,4000.000000,4000.000000,Speed,Speed,-0.170000,0.910000,2.080000,3.000000,102.000000,1,0,-0.000000,0.000000,1,-0.018646,-0.055527,0.000000,0.521072,-0.444885,0.000000,0.032000,0.040000,-0.101000,FlatInitial,Hold,0,0.000000
07:05:51.155 PM 02/18/2016,Teleop Enabled,0,FALSE,0,NO ERROR,4005.029297,-4006.787109,4000.000000,4000.000000,Speed,Speed,-0.170000,0.880000,2.040000,3.000000,100.000000,1,0,-0.000000,0.000000,1,-0.012527,-0.055923,0.000000,0.520508,-0.447174,0.000000,0.006000,0.026000,0.096000,FlatInitial,Hold,0,0.000000
07:05:51.255 PM 02/18/2016,Teleop Enabled,0,FALSE,0,NO ERROR,4006.347656,-4006.787109,4000.000000,4000.000000,Speed,Speed,-0.180000,0.850000,2.020000,3.000000,101.000000,1,0,0.181102,-0.181102,1,-0.026749,-0.011963,0.000000,0.519501,-0.448624,0.000000,-0.008000,0.003000,0.071000,FlatInitial,Hold,0,0.000000
07:05:51.356 PM 02/18/2016,Teleop Enabled,0,FALSE,0,NO ERROR,4000.488281,-4004.882812,4000.000000,4000.000000,Speed,Speed,-0.240000,0.880000,1.830000,3.000000,101.000000,1,0,0.181102,-0.181102,1,-0.020340,-0.055634,0.000000,0.518250,-0.450027,0.000000,-0.004000,-0.123000,0.111000,FlatInitial,Hold,0,0.000000
07:05:51.457 PM 02/18/2016,Teleop Enabled,0,FALSE,0,NO ERROR,3985.839844,-3995.800781,4000.000000,4000.000000,Speed,Speed,-1.200000,1.000000,1.870000,3.000000,106.000000,1,0,0.181102,-0.181102,1,0.005219,-0.087006,0.000000,0.517914,-0.455185,0.000000,0.028000,0.065000,-0.176000,FlatInitial,Hold,0,0.000000
07:05:51.558 PM 02/18/2016,Teleop Enabled,0,FALSE,0,NO ERROR,3981.591797,-3982.617187,4000.000000,4000.000000,Speed,Speed,-3.080000,1.150000,1.930000,3.000000,102.000000,1,1,0.000000,-0.000000,1,0.018204,0.000000,0.000000,0.518311,-0.457642,0.000000,0.070000,0.019000,-0.044000,FlatInitial,Hold,0,0.000000
07:05:51.660 PM 02/18/2016,Teleop Enabled,0,FALSE,0,NO ERROR,3987.158203,-3979.394531,4000.000000,4000.000000,Speed,Speed,-6.550000,1.230000,1.670000,3.000000,101.000000,1,1,0.000000,-0.000000,1,0.032669,-0.001434,0.000000,0.520004,-0.457947,0.000000,-0.051000,-0.017000,0.005000,FlatInitial,Hold,0,0.000000
07:05:51.760 PM 02/18/2016,Teleop Enabled,0,FALSE,0,NO ERROR,4005.908203,-3991.259766,4000.000000,4000.000000,Speed,Speed,-8.950000,1.030000,1.750000,3.000000,101.000000,1,1,0.000000,-0.000000,1,-0.018494,0.020950,0.000000,0.520172,-0.457474,0.000000,-0.033000,0.035000,0.001000,FlatInitial,Hold,0,0.000000
07:05:51.860 PM 02/18/2016,Teleop Enabled,0,FALSE,0,NO ERROR,4020.849609,-4000.927734,4000.000000,4000.000000,Speed,Speed,-9.430000,0.750000,2.110000,3.000000,101.000000,1,1,0.000000,-0.000000,1,-0.089050,0.050919,0.000000,0.516891,-0.455399,0.000000,-0.012000,0.036000,-0.156000,FlatInitial,Hold,0,0.000000
07:05:51.960 PM 02/18/2016,Teleop Enabled,0,FALSE,0,NO ERROR,4020.849609,-4013.232422,4000.000000,4000.000000,Speed,Speed,-8.930000,0.710000,2.140000,3.000000,100.000000,1,1,0.000000,-0.000000,1,-0.089279,0.043808,0.000000,0.512466,-0.452805,0.000000,-0.053000,-0.089000,0.067000,FlatInitial,Hold,0,-0.096875
07:05:52.061 PM 02/18/2016,Teleop Enabled,0,FALSE,0,NO ERROR,4014.404297,-4014.550781,4000.000000,4000.000000,Speed,Speed,-8.820000,0.750000,1.860000,3.000000,101.000000,1,1,0.160000,0.160000,1,-0.081650,0.000000,0.000000,0.507950,-0.451843,0.000000,0.067000,-0.066000,-0.056000,FlatInitial,Hold,0,-0.100000
07:05:52.161 PM 02/18/2016,Teleop Enabled,0,FALSE,0,NO ERROR,3999.462891,-3999.609375,4000.000000,4000.000000,Speed,Speed,-10.000000,0.890000,1.790000,3.000000,100.000000,1,1,0.160000,0.160000,1,-0.081650,0.000000,0.000000,0.507950,-0.451843,0.000000,0.067000,-0.066000,-0.056000,FlatInitial,Hold,0,-0.109375
07:05:52.262 PM 02/18/2016,Teleop Enabled,0,FALSE,0,NO ERROR,3988.916016,-3999.609375,4000.000000,4000.000000,Speed,Speed,-12.170000,1.070000,1.520000,3.000000,101.000000,1,1,0.160000,0.160000,1,0.043152,-0.038101,0.000000,0.505524,-0.455917,0.000000,0.020000,0.040000,0.003000,FlatInitial,Hold,0,-0.109375
07:05:52.362 PM 02/18/2016,Teleop Enabled,0,FALSE,0,NO ERROR,3985.253906,-3987.744141,4000.000000,4000.000000,Speed,Speed,-14.300000,1.040000,1.580000,3.000000,100.000000,1,1,0.160000,0.160000,1,0.013702,-0.029846,0.000000,0.506500,-0.457245,0.000000,-0.036000,-0.031000,0.048000,FlatInitial,Hold,0,-0.078125
07:05:52.467 PM 02/18/2016,Teleop Enabled,0,FALSE,0,NO ERROR,3985.253906,-3987.744141,4000.000000,4000.000000,Speed,Speed,-17.360000,1.160000,1.590000,3.000000,109.000000,1,1,0.160000,0.160000,1,0.004471,-0.033646,0.000000,0.507172,-0.458923,0.000000,0.000000,-0.036000,0.032000,FlatInitial,Hold,0,-0.031250
07:05:52.566 PM 02/18/2016,Teleop Enabled,0,FALSE,0,NO ERROR,3989.501953,-3991.699219,4000.000000,4000.000000,Speed,Speed,-22.150000,1.240000,1.600000,3.000000,109.000000,1,1,0.160000,0.160000,1,-0.005234,-0.008743,0.000000,0.507080,-0.460358,0.000000,-0.056000,-0.031000,0.025000,FlatInitial,Hold,0,0.112500
07:05:52.667 PM 02/18/2016,Teleop Enabled,0,FALSE,0,NO ERROR,3995.654297,-3992.578125,4000.000000,4000.000000,Speed,Speed,-24.380000,1.270000,1.610000,3.000000,102.000000,1,1,-0.160000,-0.160000,1,-0.013489,-0.014420,0.000000,0.506607,-0.460709,0.000000,-0.040000,-0.011000,-0.005000,FlatInitial,Hold,0,0.112500
07:05:52.769 PM 02/18/2016,Teleop Enabled,0,FALSE,0,NO ERROR,3999.902344,-3990.966797,4000.000000,4000.000000,Speed,Speed,-27.790000,1.070000,1.640000,3.000000,100.000000,1,1,-0.160000,-0.160000,1,-0.174866,0.017990,0.000000,0.501572,-0.460449,0.000000,-0.040000,-0.011000,-0.005000,FlatInitial,Hold,0,0.196875
07:05:52.868 PM 02/18/2016,Teleop Enabled,0,FALSE,0,NO ERROR,4005.615234,-3983.203125,4000.000000,4000.000000,Speed,Speed,-27.180000,0.540000,1.990000,3.000000,100.000000,1,1,-0.160000,-0.160000,1,-0.223373,0.033676,0.000000,0.488831,-0.458633,0.000000,-0.050000,0.035000,-0.003000,FlatInitial,Hold,0,0.290625
07:05:52.969 PM 02/18/2016,Teleop Enabled,0,FALSE,0,NO ERROR,4006.494141,-3985.107422,4000.000000,4000.000000,Speed,Speed,-23.990000,0.340000,2.020000,3.000000,102.000000,1,1,-0.160000,-0.160000,1,-0.231064,0.039352,0.000000,0.479614,-0.457245,0.000000,-0.041000,-0.075000,0.042000,FlatInitial,Hold,0,0.365625
07:05:53.069 PM 02/18/2016,Teleop Enabled,0,FALSE,0,NO ERROR,4008.984375,-3997.705078,4000.000000,4000.000000,Speed,Speed,-20.410000,0.280000,2.020000,3.000000,104.000000,1,1,-0.160000,-0.160000,1,-0.223679,0.052460,0.000000,0.465851,-0.454712,0.000000,0.024000,-0.049000,0.091000,FlatInitial,Hold,0,0.334375
07:05:53.169 PM 02/18/2016,Teleop Enabled,0,FALSE,0,NO ERROR,4009.863281,-4004.736328,4000.000000,4000.000000,Speed,Speed,-17.710000,0.170000,1.980000,3.000000,101.000000,1,1,-0.160000,-0.160000,1,0.000000,0.041656,0.000000,0.461456,-0.452957,0.000000,-0.003000,-0.021000,0.053000,FlatInitial,Hold,0,0.278125
07:05:53.269 PM 02/18/2016,Teleop Enabled,0,FALSE,0,NO ERROR,4006.201172,-4011.767578,4000.000000,4000.000000,Speed,Speed,-13.350000,0.110000,1.820000,3.000000,104.000000,1,1,-0.160000,-0.160000,1,0.010345,0.003723,0.000000,0.462021,-0.451965,0.000000,0.007000,0.001000,-0.002000,FlatInitial,Hold,0,0.125000
07:05:53.369 PM 02/18/2016,Teleop Enabled,0,FALSE,0,NO ERROR,4004.589844,-4011.328125,4000.000000,4000.000000,Speed,Speed,-9.480000,0.060000,1.810000,3.000000,101.000000,1,1,-0.160000,-0.160000,1,0.010345,0.003723,0.000000,0.462021,-0.451965,0.000000,0.007000,0.001000,-0.002000,FlatInitial,Hold,0,0.125000
07:05:53.469 PM 02/18/2016,Teleop Enabled,0,FALSE,0,NO ERROR,4001.806641,-4005.761719,4000.000000,4000.000000,Speed,Speed,-5.360000,-0.040000,1.820000,3.000000,103.000000,1,1,-0.160000,-0.160000,1,-0.003784,0.030075,0.000000,0.462265,-0.450317,0.000000,0.016000,0.001000,-0.070000,FlatInitial,Hold,0,0.040625
07:05:53.570 PM 02/18/2016,Teleop Enabled,0,FALSE,0,NO ERROR,3999.169922,-4005.468750,4000.000000,4000.000000,Speed,Speed,-0.960000,-0.050000,1.830000,3.000000,105.000000,1,1,0.160000,0.160000,1,0.009888,0.042877,0.000000,0.462357,-0.448380,0.000000,0.030000,0.011000,0.076000,FlatInitial,Hold,0,-0.050000
07:05:53.670 PM 02/18/2016,Teleop Enabled,0,FALSE,0,NO ERROR,3997.265625,-4006.787109,4000.000000,4000.000000,Speed,Speed,1.600000,0.290000,1.440000,3.000000,111.000000,1,1,0.160000,0.160000,1,0.131439,-0.065460,0.000000,0.465378,-0.448532,0.000000,0.283000,-0.160000,0.030000,FlatInitial,Hold,0,-0.150000
07:05:53.772 PM 02/18/2016,Teleop Enabled,0,FALSE,0,NO ERROR,3987.890625,-4010.742187,4000.000000,4000.000000,Speed,Speed,-0.050000,0.740000,1.110000,3.000000,102.000000,1,1,0.160000,0.160000,1,0.011993,-0.108429,0.000000,0.472641,-0.454620,0.000000,0.113000,-0.051000,-0.103000,FlatInitial,Hold,0,-0.353125
07:05:53.870 PM 02/18/2016,Teleop Enabled,0,FALSE,0,NO ERROR,3987.451172,-4005.322266,4000.000000,4000.000000,Speed,Speed,-1.970000,0.910000,1.080000,3.000000,100.000000,1,1,0.160000,0.160000,1,0.011993,-0.108429,0.000000,0.472641,-0.454620,0.000000,0.113000,-0.051000,-0.103000,FlatInitial,Hold,0,-0.353125
07:05:53.972 PM 02/18/2016,Teleop Enabled,0,FALSE,0,NO ERROR,3994.042969,-3995.361328,4000.000000,4000.000000,Speed,Speed,-1.970000,0.910000,1.080000,3.000000,101.000000,1,1,0.160000,0.160000,1,0.000000,-0.067093,0.000000,0.474869,-0.460739,0.000000,0.006000,0.039000,0.050000,FlatInitial,Hold,0,-0.343750
07:05:54.073 PM 02/18/2016,Teleop Enabled,0,FALSE,0,NO ERROR,4001.953125,-3989.941406,4000.000000,4000.000000,Speed,Speed,-5.940000,0.880000,1.240000,3.000000,102.000000,1,1,0.160000,0.160000,1,0.027115,0.018234,0.000000,0.475861,-0.462463,0.000000,-0.012000,0.000000,-0.057000,FlatInitial,Hold,0,-0.290625
07:05:54.173 PM 02/18/2016,Teleop Enabled,0,FALSE,0,NO ERROR,4005.761719,-3992.871094,4000.000000,4000.000000,Speed,Speed,-9.500000,0.810000,1.350000,3.000000,102.000000,1,1,0.160000,0.160000,1,-0.000214,0.024200,0.000000,0.476196,-0.461823,0.000000,-0.050000,-0.088000,0.090000,FlatInitial,Hold,0,-0.150000
07:05:54.273 PM 02/18/2016,Teleop Enabled,0,FALSE,0,NO ERROR,4010.302734,-3998.876953,4000.000000,4000.000000,Speed,Speed,-14.560000,0.930000,1.310000,3.000000,101.000000,1,1,0.160000,0.160000,1,0.012131,0.000000,0.000000,0.476456,-0.460739,0.000000,-0.012000,-0.006000,0.117000,FlatInitial,Hold,0,-0.081250
07:05:54.378 PM 02/18/2016,Teleop Enabled,0,FALSE,0,NO ERROR,4010.156250,-4006.201172,4000.000000,4000.000000,Speed,Speed,-14.560000,0.930000,1.310000,3.000000,100.000000,1,1,0.160000,0.160000,1,0.012131,0.000000,0.000000,0.476456,-0.460739,0.000000,-0.012000,-0.006000,0.117000,FlatInitial,Hold,0,-0.003125
07:05:54.480 PM 02/18/2016,Teleop Enabled,0,FALSE,0,NO ERROR,4005.029297,-4008.837891,4000.000000,4000.000000,Speed,Speed,-18.700000,0.880000,1.460000,3.000000,105.000000,1,1,0.160000,0.160000,1,-0.005692,0.004745,0.000000,0.476318,-0.460403,0.000000,-0.008000,0.058000,0.055000,FlatInitial,Hold,0,0.078125
07:05:54.582 PM 02/18/2016,Teleop Enabled,0,FALSE,0,NO ERROR,4003.710937,-4010.888672,4000.000000,4000.000000,Speed,Speed,-22.340000,0.990000,1.460000,3.000000,101.000000,1,1,-0.160000,-0.160000,1,-0.094055,0.063583,0.000000,0.474823,-0.457001,0.000000,-0.008000,0.058000,0.055000,FlatInitial,Hold,0,0.078125
07:05:54.682 PM 02/18/2016,Teleop Enabled,0,FALSE,0,NO ERROR,4003.271484,-4005.322266,4000.000000,4000.000000,Speed,Speed,-25.730000,0.560000,1.750000,3.000000,103.000000,1,1,-0.160000,-0.160000,1,-0.159317,0.093369,0.000000,0.471863,-0.455215,0.000000,-0.079000,0.043000,-0.041000,FlatInitial,Hold,0,0.259375
07:05:54.783 PM 02/18/2016,Teleop Enabled,0,FALSE,0,NO ERROR,4005.175781,-3995.361328,4000.000000,4000.000000,Speed,Speed,-25.730000,0.560000,1.750000,3.000000,100.000000,1,1,-0.160000,-0.160000,1,-0.159317,0.093369,0.000000,0.471863,-0.455215,0.000000,-0.079000,0.043000,-0.041000,FlatInitial,Hold,0,0.309375
07:05:54.884 PM 02/18/2016,Teleop Enabled,0,FALSE,0,NO ERROR,4003.125000,-3997.851562,4000.000000,4000.000000,Speed,Speed,-20.220000,0.260000,2.020000,3.000000,101.000000,1,1,-0.160000,-0.160000,1,-0.210526,0.009781,0.000000,0.448944,-0.446091,0.000000,0.076000,-0.048000,-0.018000,FlatInitial,Hold,0,0.265625
07:05:54.985 PM 02/18/2016,Teleop Enabled,0,FALSE,0,NO ERROR,4001.513672,-3999.023437,4000.000000,4000.000000,Speed,Speed,-17.890000,0.210000,2.130000,3.000000,101.000000,1,1,-0.160000,-0.160000,1,-0.198227,0.013214,0.000000,0.436478,-0.445877,0.000000,0.055000,0.017000,-0.050000,FlatInitial,Hold,0,0.209375
07:05:55.086 PM 02/18/2016,Teleop Enabled,0,FALSE,0,NO ERROR,4001.074219,-3998.876953,4000.000000,4000.000000,Speed,Speed,-17.890000,0.210000,2.130000,3.000000,102.000000,1,1,-0.160000,-0.160000,1,-0.198227,0.013214,0.000000,0.436478,-0.445877,0.000000,0.055000,0.017000,-0.050000,FlatInitial,Hold,0,0.143750
07:05:55.187 PM 02/18/2016,Teleop Enabled,0,FALSE,0,NO ERROR,4000.781250,-4004.296875,4000.000000,4000.000000,Speed,Speed,-13.470000,0.080000,2.170000,3.000000,101.000000,1,1,-0.160000,-0.160000,1,-0.014999,0.023285,0.000000,0.432236,-0.444870,0.000000,0.042000,0.051000,0.047000,FlatInitial,Hold,0,0.068750
07:05:55.288 PM 02/18/2016,Teleop Enabled,0,FALSE,0,NO ERROR,4000.488281,-4010.595703,4000.000000,4000.000000,Speed,Speed,-6.960000,0.080000,2.220000,3.000000,101.000000,1,1,-0.160000,-0.160000,1,0.016617,0.055374,0.000000,0.432541,-0.441498,0.000000,-0.074000,-0.005000,0.091000,FlatInitial,Hold,0,-0.006250
07:05:55.389 PM 02/18/2016,Teleop Enabled,0,FALSE,0,NO ERROR,4000.341797,-4010.449219,4000.000000,4000.000000,Speed,Speed,-6.960000,0.080000,2.220000,3.000000,101.000000,1,1,0.160000,0.160000,1,0.000000,0.065460,0.000000,0.432739,-0.439713,0.000000,0.008000,0.002000,-0.132000,FlatInitial,Hold,0,-0.090625
07:05:55.492 PM 02/18/2016,Teleop Enabled,0,FALSE,0,NO ERROR,3998.730469,-4001.806641,4000.000000,4000.000000,Speed,Speed,-2.560000,0.690000,1.670000,3.000000,101.000000,1,1,0.160000,0.160000,1,0.130753,-0.016678,0.000000,0.435242,-0.437943,0.000000,0.316000,-0.199000,0.243000,FlatInitial,Hold,0,-0.187500
07:05:55.592 PM 02/18/2016,Teleop Enabled,0,FALSE,0,NO ERROR,3989.355469,-4001.220703,4000.000000,4000.000000,Speed,Speed,-2.560000,0.690000,1.670000,3.000000,104.000000,1,1,0.160000,0.160000,1,0.209671,-0.088181,0.000000,0.443192,-0.440948,0.000000,0.102000,-0.058000,-0.035000,FlatInitial,Hold,0,-0.268750
07:05:55.693 PM 02/18/2016,Teleop Enabled,0,FALSE,0,NO ERROR,3988.623047,-3999.316406,4000.000000,4000.000000,Speed,Speed,-5.300000,1.060000,1.500000,3.000000,101.000000,1,1,0.160000,0.160000,1,0.280518,-0.122879,0.000000,0.461304,-0.448532,0.000000,0.044000,0.022000,-0.069000,FlatInitial,Hold,0,-0.246875
07:05:55.793 PM 02/18/2016,Teleop Enabled,0,FALSE,0,NO ERROR,3994.042969,-3998.730469,4000.000000,4000.000000,Speed,Speed,-7.820000,0.990000,1.520000,3.000000,101.000000,1,1,0.160000,0.160000,1,0.288910,-0.116959,0.000000,0.475540,-0.454742,0.000000,0.051000,0.018000,0.063000,FlatInitial,Hold,0,-0.193750
07:05:55.893 PM 02/18/2016,Teleop Enabled,0,FALSE,0,NO ERROR,3998.144531,-3999.169922,4000.000000,4000.000000,Speed,Speed,-10.460000,1.110000,1.520000,3.000000,100.000000,1,1,0.160000,0.160000,1,0.317612,-0.107162,0.000000,0.487885,-0.459015,0.000000,-0.012000,-0.048000,0.020000,FlatInitial,Hold,0,-0.134375
07:05:55.996 PM 02/18/2016,Teleop Enabled,0,FALSE,0,NO ERROR,4002.978516,-3995.800781,4000.000000,4000.000000,Speed,Speed,-15.340000,1.140000,1.530000,3.000000,108.000000,1,1,0.160000,0.160000,1,0.280685,0.000000,0.000000,0.502686,-0.462296,0.000000,-0.003000,-0.036000,0.080000,FlatInitial,Hold,0,-0.068750
07:05:56.097 PM 02/18/2016,Teleop Enabled,0,FALSE,0,NO ERROR,4005.908203,-3995.947266,4000.000000,4000.000000,Speed,Speed,-15.340000,1.140000,1.530000,3.000000,113.000000,1,1,0.160000,0.160000,1,0.297745,0.000000,0.000000,0.514191,-0.462219,0.000000,0.014000,-0.011000,0.028000,FlatInitial,Hold,0,-0.068750
07:05:56.198 PM 02/18/2016,Teleop Enabled,0,FALSE,0,NO ERROR,4010.302734,-3998.144531,4000.000000,4000.000000,Speed,Speed,-18.320000,1.110000,1.510000,3.000000,100.000000,1,1,0.160000,0.160000,1,0.290192,0.004013,0.000000,0.529114,-0.462067,0.000000,-0.004000,-0.070000,-0.095000,FlatInitial,Hold,0,0.062500
07:05:56.299 PM 02/18/2016,Teleop Enabled,0,FALSE,0,NO ERROR,4011.328125,-4002.392578,4000.000000,4000.000000,Speed,Speed,-22.090000,1.220000,1.520000,3.000000,105.000000,1,1,-0.160000,-0.160000,1,0.299103,0.004089,0.000000,0.549545,-0.462128,0.000000,-0.018000,-0.093000,0.148000,FlatInitial,Hold,0,0.134375
07:05:56.404 PM 02/18/2016,Teleop Enabled,0,FALSE,0,NO ERROR,4007.666016,-3994.335937,4000.000000,4000.000000,Speed,Speed,-24.590000,1.190000,1.550000,3.000000,101.000000,1,1,-0.160000,-0.160000,1,-0.072052,0.005264,0.000000,0.548538,-0.462112,0.000000,-0.136000,0.002000,-0.052000,FlatInitial,Hold,0,0.215625
07:05:56.503 PM 02/18/2016,Teleop Enabled,0,FALSE,0,NO ERROR,4005.175781,-3988.769531,4000.000000,4000.000000,Speed,Speed,-24.000000,0.600000,2.020000,3.000000,100.000000,1,1,-0.160000,-0.160000,1,-0.177353,0.028458,0.000000,0.541000,-0.460983,0.000000,-0.015000,-0.041000,0.008000,FlatInitial,Hold,0,0.284375
07:05:56.603 PM 02/18/2016,Teleop Enabled,0,FALSE,0,NO ERROR,3999.902344,-3997.412109,4000.000000,4000.000000,Speed,Speed,-21.870000,0.450000,2.110000,3.000000,103.000000,1,1,-0.160000,-0.160000,1,0.000000,0.037521,0.000000,0.532440,-0.458649,0.000000,0.003000,0.116000,0.060000,FlatInitial,Hold,0,0.265625
07:05:56.703 PM 02/18/2016,Teleop Enabled,0,FALSE,0,NO ERROR,3996.679687,-4005.615234,4000.000000,4000.000000,Speed,Speed,-19.270000,0.460000,2.140000,3.000000,111.000000,1,1,-0.160000,-0.160000,1,-0.004684,0.060104,0.000000,0.532394,-0.456665,0.000000,-0.036000,0.062000,-0.055000,FlatInitial,Hold,0,0.209375
07:05:56.807 PM 02/18/2016,Teleop Enabled,0,FALSE,0,NO ERROR,3990.673828,-4010.302734,4000.000000,4000.000000,Speed,Speed,-15.860000,0.390000,2.260000,3.000000,115.000000,1,0,-0.000000,0.000000,1,-0.008179,0.078659,0.000000,0.532074,-0.452988,0.000000,0.034000,0.051000,0.022000,FlatInitial,Hold,0,0.150000
07:05:56.906 PM 02/18/2016,Teleop Enabled,0,FALSE,0,NO ERROR,3990.966797,-4010.888672,4000.000000,4000.000000,Speed,Speed,-13.330000,0.330000,2.290000,3.000000,102.000000,1,0,0.173228,-0.173228,1,-0.010681,0.092819,0.000000,0.531525,-0.448456,0.000000,0.038000,-0.050000,-0.027000,FlatInitial,Hold,0,0.081250
07:05:57.006 PM 02/18/2016,Teleop Enabled,0,FALSE,0,NO ERROR,3995.214844,-4010.302734,4000.000000,4000.000000,Speed,Speed,-10.890000,0.630000,2.140000,3.000000,102.000000,1,0,-0.000000,0.000000,1,0.093475,0.059891,0.000000,0.533508,-0.444489,0.000000,0.177000,-0.125000,-0.117000,FlatInitial,Hold,0,0.081250
07:05:57.112 PM 02/18/2016,Teleop Enabled,0,FALSE,0,NO ERROR,3995.800781,-4004.882812,4000.000000,4000.000000,Speed,Speed,-12.050000,0.970000,1.800000,3.000000,100.000000,1,0,-0.000000,0.000000,1,0.134415,0.031006,0.000000,0.542358,-0.442322,0.000000,0.015000,-0.029000,0.100000,FlatInitial,Hold,0,0.081250
07:05:57.212 PM 02/18/2016,Teleop Enabled,0,FALSE,0,NO ERROR,4008.544922,-4009.716797,4000.000000,4000.000000,Speed,Speed,-12.430000,0.920000,1.990000,3.000000,102.000000,1,0,-0.000000,0.000000,1,-0.019211,0.043762,0.000000,0.542130,-0.441071,0.000000,-0.031000,-0.009000,-0.136000,FlatInitial,Hold,0,0.081250
07:05:57.313 PM 02/18/2016,Teleop Enabled,0,FALSE,0,NO ERROR,4016.162109,-4009.716797,4000.000000,4000.000000,Speed,Speed,-12.180000,0.870000,1.940000,3.000000,101.000000,1,0,-0.000000,0.000000,1,-0.018066,0.030807,0.000000,0.540237,-0.439224,0.000000,0.080000,-0.020000,-0.084000,FlatInitial,Hold,0,0.081250
07:05:57.415 PM 02/18/2016,Teleop Enabled,0,FALSE,0,NO ERROR,4017.187500,-4013.085937,4000.000000,4000.000000,Speed,Speed,-12.200000,0.880000,1.910000,3.000000,101.000000,1,0,-0.000000,0.000000,1,-0.015030,0.019806,0.000000,0.539902,-0.438156,0.000000,0.005000,0.031000,0.044000,FlatInitial,Hold,0,0.081250
07:05:57.515 PM 02/18/2016,Teleop Enabled,0,FALSE,0,NO ERROR,4013.964844,-4009.570312,4000.000000,4000.000000,Speed,Speed,-12.260000,0.980000,1.940000,3.000000,101.000000,1,0,-0.000000,0.000000,1,0.010620,0.018616,0.000000,0.540314,-0.437225,0.000000,-0.018000,-0.035000,0.062000,FlatInitial,Hold,0,0.081250
07:05:57.615 PM 02/18/2016,Teleop Enabled,0,FALSE,0,NO ERROR,4013.964844,-4009.570312,4000.000000,4000.000000,Speed,Speed,-12.180000,0.940000,1.970000,3.000000,114.000000,1,0,-0.000000,0.000000,1,0.016663,0.000000,0.000000,0.540863,-0.436783,0.000000,-0.011000,0.017000,-0.075000,FlatInitial,Hold,0,0.081250
07:05:57.715 PM 02/18/2016,Teleop Enabled,0,FALSE,0,NO ERROR,4007.519531,-4007.519531,4000.000000,4000.000000,Speed,Speed,-12.200000,0.970000,2.030000,3.000000,104.000000,1,0,-0.000000,0.000000,1,0.021286,0.006943,0.000000,0.542404,-0.436691,0.000000,0.009000,0.000000,0.060000,FlatInitial,Hold,0,0.081250
07:05:57.818 PM 02/18/2016,Teleop Enabled,0,FALSE,0,NO ERROR,4002.246094,-4011.035156,4000.000000,4000.000000,Speed,Speed,-12.200000,1.010000,2.060000,3.000000,100.000000,1,0,-0.000000,0.000000,1,0.024475,0.021530,0.000000,0.543198,-0.436188,0.000000,-0.007000,0.019000,0.054000,FlatInitial,Hold,0,0.081250
07:05:57.919 PM 02/18/2016,Teleop Enabled,0,FALSE,0,NO ERROR,3997.705078,-4006.054687,4000.000000,4000.000000,Speed,Speed,-12.200000,1.000000,2.110000,3.000000,101.000000,1,0,-0.000000,0.000000,1,-0.004135,0.030365,0.000000,0.542999,-0.434769,0.000000,-0.046000,-0.004000,-0.091000,FlatInitial,Hold,0,0.081250
07:05:58.020 PM 02/18/2016,Teleop Enabled,0,FALSE,0,NO ERROR,3998.437500,-4004.882812,4000.000000,4000.000000,Speed,Speed,-12.200000,0.990000,2.100000,3.000000,102.000000,1,0,-0.000000,0.000000,1,-0.012589,0.000351,0.000000,0.542587,-0.434464,0.000000,-0.062000,0.008000,-0.111000,FlatInitial,Hold,0,0.081250
07:05:58.121 PM 02/18/2016,Teleop Enabled,0,FALSE,0,NO ERROR,3998.437500,-4002.685547,4000.000000,4000.000000,Speed,Speed,-12.200000,1.010000,2.150000,3.000000,101.000000,1,0,-0.000000,0.000000,1,-0.022095,0.009109,0.000000,0.541290,-0.434265,0.000000,-0.057000,-0.014000,-0.088000,FlatInitial,Hold,0,0.081250
07:05:58.221 PM 02/18/2016,Teleop Enabled,0,FALSE,0,NO ERROR,4000.634766,-4000.341797,4000.000000,4000.000000,Speed,Speed,-12.200000,0.990000,2.200000,3.000000,102.000000,1,0,-0.000000,0.000000,1,-0.025314,0.000000,0.000000,0.540268,-0.434158,0.000000,-0.058000,0.014000,-0.086000,FlatInitial,Hold,0,0.081250
07:05:58.321 PM 02/18/2016,Teleop Enabled,0,FALSE,0,NO ERROR,4004.736328,-3995.507812,4000.000000,4000.000000,Speed,Speed,-12.190000,0.990000,2.240000,3.000000,101.000000,1,0,-0.000000,0.000000,1,-0.033783,0.000000,0.000000,0.538345,-0.434158,0.000000,-0.042000,0.004000,-0.072000,FlatInitial,Hold,0,0.081250
07:05:58.421 PM 02/18/2016,Teleop Enabled,0,FALSE,0,NO ERROR,4008.105469,-3996.093750,4000.000000,4000.000000,Speed,Speed,-12.200000,0.970000,2.240000,3.000000,101.000000,1,0,-0.000000,0.000000,1,-0.042053,0.002884,0.000000,0.536819,-0.434143,0.000000,-0.048000,0.009000,-0.066000,FlatInitial,Hold,0,0.081250
07:05:58.521 PM 02/18/2016,Teleop Enabled,0,FALSE,0,NO ERROR,4011.474609,-3998.583984,4000.000000,4000.000000,Speed,Speed,-12.190000,0.950000,2.250000,3.000000,105.000000,1,0,-0.000000,0.000000,1,-0.047699,0.010361,0.000000,0.534729,-0.433670,0.000000,-0.055000,0.006000,-0.023000,FlatInitial,Hold,0,0.081250
07:05:58.622 PM 02/18/2016,Teleop Enabled,0,FALSE,0,NO ERROR,4008.544922,-3999.462891,4000.000000,4000.000000,Speed,Speed,-12.190000,0.900000,2.190000,3.000000,101.000000,1,0,-0.000000,0.000000,1,-0.065903,-0.010391,0.000000,0.531784,-0.433914,0.000000,-0.009000,-0.034000,0.092000,FlatInitial,Hold,0,0.081250
07:05:58.723 PM 02/18/2016,Teleop Enabled,0,FALSE,0,NO ERROR,4005.615234,-4003.710937,4000.000000,4000.000000,Speed,Speed,-12.190000,0.860000,2.190000,3.000000,104.000000,1,0,-0.000000,0.000000,1,-0.025421,-0.021088,0.000000,0.530945,-0.434982,0.000000,-0.028000,-0.033000,-0.046000,FlatInitial,Hold,0,0.081250
07:05:58.824 PM 02/18/2016,Teleop Enabled,0,FALSE,0,NO ERROR,4004.150391,-4006.054687,4000.000000,4000.000000,Speed,Speed,-12.190000,0.850000,2.180000,3.000000,101.000000,1,0,-0.000000,0.000000,1,-0.031326,-0.035141,0.000000,0.529739,-0.436050,0.000000,-0.052000,0.009000,0.120000,FlatInitial,Hold,0,0.081250
07:05:58.925 PM 02/18/2016,Teleop Enabled,0,FALSE,0,NO ERROR,4001.806641,-4009.277344,4000.000000,4000.000000,Speed,Speed,-12.190000,0.790000,2.140000,3.000000,101.000000,1,0,-0.000000,0.000000,1,-0.008850,-0.014496,0.000000,0.528397,-0.436462,0.000000,-0.023000,-0.037000,0.118000,FlatInitial,Hold,0,0.081250
07:05:59.026 PM 02/18/2016,Teleop Enabled,0,FALSE,0,NO ERROR,3999.316406,-4009.570312,4000.000000,4000.000000,Speed,Speed,-12.180000,0.740000,2.060000,3.000000,103.000000,1,0,-0.000000,0.000000,1,-0.020554,-0.032974,0.000000,0.527664,-0.437714,0.000000,-0.054000,-0.019000,-0.015000,FlatInitial,Hold,0,0.081250
07:05:59.127 PM 02/18/2016,Teleop Enabled,0,FALSE,0,NO ERROR,3996.533203,-4004.296875,4000.000000,4000.000000,Speed,Speed,-12.180000,0.710000,2.050000,3.000000,102.000000,1,0,-0.000000,0.000000,1,-0.022903,0.000000,0.000000,0.526611,-0.438049,0.000000,-0.013000,-0.050000,-0.039000,FlatInitial,Hold,0,0.081250
07:05:59.229 PM 02/18/2016,Teleop Enabled,0,FALSE,0,NO ERROR,3997.412109,-4000.341797,4000.000000,4000.000000,Speed,Speed,-12.190000,0.690000,2.040000,3.000000,102.000000,1,0,-0.000000,0.000000,1,-0.034378,-0.011169,0.000000,0.525116,-0.438461,0.000000,0.004000,0.030000,0.003000,FlatInitial,Hold,0,0.081250
07:05:59.329 PM 02/18/2016,Teleop Enabled,0,FALSE,0,NO ERROR,3999.169922,-3999.462891,4000.000000,4000.000000,Speed,Speed,-12.190000,0.660000,2.040000,3.000000,101.000000,1,0,-0.000000,0.000000,1,-0.010742,-0.005722,0.000000,0.524826,-0.438568,0.000000,-0.041000,-0.019000,-0.048000,FlatInitial,Hold,0,0.081250
07:05:59.430 PM 02/18/2016,Teleop Enabled,0,FALSE,0,NO ERROR,4002.978516,-3999.462891,4000.000000,4000.000000,Speed,Speed,-12.180000,0.640000,2.030000,3.000000,102.000000,1,0,-0.000000,0.000000,1,-0.027008,-0.003433,0.000000,0.523834,-0.438690,0.000000,-0.024000,-0.021000,0.115000,FlatInitial,Hold,0,0.081250
07:05:59.530 PM 02/18/2016,Teleop Enabled,0,FALSE,0,NO ERROR,4005.468750,-3999.755859,4000.000000,4000.000000,Speed,Speed,-12.180000,0.590000,2.020000,3.000000,101.000000,1,0,-0.000000,0.000000,1,-0.004181,-0.010605,0.000000,0.523056,-0.439148,0.000000,-0.005000,-0.029000,0.101000,FlatInitial,Hold,0,0.081250
07:05:59.630 PM 02/18/2016,Teleop Enabled,0,FALSE,0,NO ERROR,4006.787109,-3997.998047,4000.000000,4000.000000,Speed,Speed,-12.180000,0.580000,1.990000,3.000000,108.000000,1,0,-0.000000,0.000000,1,-0.016785,-0.019180,0.000000,0.522598,-0.439896,0.000000,-0.041000,-0.021000,-0.021000,FlatInitial,Hold,0,0.081250
07:05:59.731 PM 02/18/2016,Teleop Enabled,0,FALSE,0,NO ERROR,4007.666016,-3997.558594,4000.000000,4000.000000,Speed,Speed,-12.180000,0.550000,1.990000,3.000000,101.000000,1,0,-0.000000,0.000000,1,-0.024078,0.000000,0.000000,0.521500,-0.440735,0.000000,0.018000,-0.016000,-0.035000,FlatInitial,Hold,0,0.081250
07:05:59.832 PM 02/18/2016,Teleop Enabled,0,FALSE,0,NO ERROR,4006.494141,-3996.972656,4000.000000,4000.000000,Speed,Speed,-12.180000,0.500000,1.970000,3.000000,102.000000,1,0,-0.000000,0.000000,1,-0.032181,0.000000,0.000000,0.520065,-0.440765,0.000000,0.026000,0.010000,-0.032000,FlatInitial,Hold,0,0.081250
07:05:59.932 PM 02/18/2016,Teleop Enabled,0,FALSE,0,NO ERROR,4005.322266,-3998.730469,4000.000000,4000.000000,Speed,Speed,-12.190000,0.490000,1.980000,3.000000,102.000000,1,0,-0.000000,0.000000,1,-0.042679,-0.011826,0.000000,0.518127,-0.441116,0.000000,0.023000,-0.019000,-0.041000,FlatInitial,Hold,0,0.081250
07:06:00.032 PM 02/18/2016,Teleop Enabled,0,FALSE,0,NO ERROR,4004.589844,-4001.220703,4000.000000,4000.000000,Speed,Speed,-12.190000,0.470000,1.920000,3.000000,101.000000,1,0,-0.000000,0.000000,1,-0.042984,-0.027130,0.000000,0.516006,-0.442078,0.000000,-0.015000,-0.004000,-0.047000,FlatInitial,Hold,0,0.081250
07:06:00.133 PM 02/18/2016,Teleop Enabled,0,FALSE,0,NO ERROR,3999.902344,-4002.978516,4000.000000,4000.000000,Speed,Speed,-12.190000,0.460000,1.930000,3.000000,102.000000,1,0,-0.000000,0.000000,1,-0.049759,-0.006271,0.000000,0.513596,-0.442551,0.000000,0.026000,0.015000,-0.038000,FlatInitial,Hold,0,0.081250
07:06:00.235 PM 02/18/2016,Teleop Enabled,0,FALSE,0,NO ERROR,3995.947266,-4003.417969,4000.000000,4000.000000,Speed,Speed,-12.190000,0.460000,1.880000,3.000000,101.000000,1,0,-0.000000,0.000000,1,-0.051285,-0.020035,0.000000,0.511154,-0.443253,0.000000,0.012000,-0.012000,-0.042000,FlatInitial,Hold,0,0.081250
07:06:00.335 PM 02/18/2016,Teleop Enabled,0,FALSE,0,NO ERROR,3992.871094,-4001.074219,4000.000000,4000.000000,Speed,Speed,-12.190000,0.450000,1.830000,3.000000,102.000000,1,0,-0.000000,0.000000,1,-0.005203,-0.015259,0.000000,0.510956,-0.443558,0.000000,0.000000,-0.030000,-0.030000,FlatInitial,Hold,0,0.081250
07:06:00.436 PM 02/18/2016,Teleop Enabled,0,FALSE,0,NO ERROR,3990.820312,-4003.271484,4000.000000,4000.000000,Speed,Speed,-12.190000,0.420000,1.790000,3.000000,104.000000,1,0,-0.000000,0.000000,1,-0.010086,0.000000,0.000000,0.510483,-0.444229,0.000000,-0.022000,-0.024000,0.128000,FlatInitial,Hold,0,0.081250
07:06:00.536 PM 02/18/2016,Teleop Enabled,0,FALSE,0,NO ERROR,3990.673828,-4006.640625,4000.000000,4000.000000,Speed,Speed,-12.190000,0.420000,1.740000,3.000000,102.000000,1,0,-0.000000,0.000000,1,-0.016693,-0.018250,0.000000,0.509857,-0.444763,0.000000,-0.035000,-0.033000,0.149000,FlatInitial,Hold,0,0.081250
07:06:00.636 PM 02/18/2016,Teleop Enabled,0,FALSE,0,NO ERROR,3993.896484,-4007.519531,4000.000000,4000.000000,Speed,Speed,-12.180000,0.400000,1.720000,3.000000,101.000000,1,0,-0.000000,0.000000,1,-0.026260,0.000000,0.000000,0.508652,-0.446182,0.000000,-0.032000,0.002000,0.112000,FlatInitial,Hold,0,0.081250
07:06:00.738 PM 02/18/2016,Teleop Enabled,0,FALSE,0,NO ERROR,3996.240234,-4003.271484,4000.000000,4000.000000,Speed,Speed,-12.180000,0.400000,1.700000,3.000000,104.000000,1,1,-0.160000,-0.160000,1,-0.025970,-0.000198,0.000000,0.507324,-0.446167,0.000000,-0.024000,-0.029000,0.110000,FlatInitial,Hold,0,0.081250
07:06:00.838 PM 02/18/2016,Teleop Enabled,0,FALSE,0,NO ERROR,3999.316406,-4002.099609,4000.000000,4000.000000,Speed,Speed,-12.180000,0.400000,1.700000,3.000000,103.000000,1,1,-0.160000,-0.160000,1,-0.025970,-0.000198,0.000000,0.507324,-0.446167,0.000000,-0.024000,-0.029000,0.110000,FlatInitial,Hold,0,-0.025000
07:06:00.938 PM 02/18/2016,Teleop Enabled,0,FALSE,0,NO ERROR,3999.169922,-3989.941406,4000.000000,4000.000000,Speed,Speed,-10.330000,0.160000,1.810000,3.000000,105.000000,1,1,0.160000,0.160000,1,-0.088974,-0.023712,0.000000,0.500076,-0.446564,0.000000,0.269000,-0.144000,0.128000,FlatInitial,Hold,0,-0.025000
07:06:01.039 PM 02/18/2016,Teleop Enabled,0,FALSE,0,NO ERROR,3995.361328,-3983.935547,4000.000000,4000.000000,Speed,Speed,-11.040000,0.510000,1.550000,3.000000,102.000000,1,1,0.160000,0.160000,1,-0.088974,-0.023712,0.000000,0.500076,-0.446564,0.000000,0.269000,-0.144000,0.128000,FlatInitial,Hold,0,-0.031250
07:06:01.139 PM 02/18/2016,Teleop Enabled,0,FALSE,0,NO ERROR,3990.380859,-3989.941406,4000.000000,4000.000000,Speed,Speed,-11.040000,0.510000,1.550000,3.000000,103.000000,1,1,0.160000,0.160000,1,0.041214,-0.004089,0.000000,0.500153,-0.450546,0.000000,0.075000,-0.029000,0.251000,FlatInitial,Hold,0,-0.068750
07:06:01.241 PM 02/18/2016,Teleop Enabled,0,FALSE,0,NO ERROR,3993.750000,-3989.941406,4000.000000,4000.000000,Speed,Speed,-15.380000,0.580000,1.620000,3.000000,101.000000,1,1,0.160000,0.160000,1,0.046371,0.006714,0.000000,0.502213,-0.450485,0.000000,-0.139000,0.042000,-0.018000,FlatInitial,Hold,0,-0.053125
07:06:01.341 PM 02/18/2016,Teleop Enabled,0,FALSE,0,NO ERROR,4000.781250,-3989.355469,4000.000000,4000.000000,Speed,Speed,-15.380000,0.580000,1.620000,3.000000,103.000000,1,1,0.160000,0.160000,1,-0.012024,0.000000,0.000000,0.502151,-0.449539,0.000000,0.046000,-0.013000,-0.053000,FlatInitial,Hold,0,-0.006250
07:06:01.441 PM 02/18/2016,Teleop Enabled,0,FALSE,0,NO ERROR,4005.322266,-3994.042969,4000.000000,4000.000000,Speed,Speed,-19.020000,0.680000,1.710000,3.000000,100.000000,1,1,-0.160000,-0.160000,1,-0.035767,0.000000,0.000000,0.501175,-0.448410,0.000000,0.046000,-0.013000,-0.053000,FlatInitial,Hold,0,0.050000
07:06:01.541 PM 02/18/2016,Teleop Enabled,0,FALSE,0,NO ERROR,4008.398437,-4001.074219,4000.000000,4000.000000,Speed,Speed,-21.930000,0.660000,1.860000,3.000000,102.000000,1,1,-0.160000,-0.160000,1,-0.089218,0.026855,0.000000,0.498535,-0.447906,0.000000,-0.006000,0.029000,-0.026000,FlatInitial,Hold,0,0.106250
07:06:01.642 PM 02/18/2016,Teleop Enabled,0,FALSE,0,NO ERROR,4011.914062,-3997.851562,4000.000000,4000.000000,Speed,Speed,-21.770000,0.180000,1.810000,3.000000,102.000000,1,1,-0.160000,-0.160000,1,-0.183426,0.020752,0.000000,0.490280,-0.446793,0.000000,0.017000,0.018000,0.055000,FlatInitial,Hold,0,0.162500
07:06:01.742 PM 02/18/2016,Teleop Enabled,0,FALSE,0,NO ERROR,4006.201172,-3989.648437,4000.000000,4000.000000,Speed,Speed,-19.810000,0.110000,2.090000,3.000000,106.000000,1,1,-0.160000,-0.160000,1,-0.184448,0.020401,0.000000,0.484985,-0.446014,0.000000,-0.065000,-0.051000,-0.094000,FlatInitial,Hold,0,0.162500
07:06:01.844 PM 02/18/2016,Teleop Enabled,0,FALSE,0,NO ERROR,4002.246094,-3990.527344,4000.000000,4000.000000,Speed,Speed,-19.810000,0.110000,2.090000,3.000000,103.000000,1,1,-0.160000,-0.160000,1,-0.184448,0.020401,0.000000,0.484985,-0.446014,0.000000,-0.065000,-0.051000,-0.094000,FlatInitial,Hold,0,0.193750
07:06:01.945 PM 02/18/2016,Teleop Enabled,0,FALSE,0,NO ERROR,4001.513672,-3997.265625,4000.000000,4000.000000,Speed,Speed,-13.260000,-0.010000,2.020000,3.000000,103.000000,1,1,-0.160000,-0.160000,1,0.016724,-0.002914,0.000000,0.482132,-0.444992,0.000000,0.075000,-0.031000,0.061000,FlatInitial,Hold,0,0.137500
07:06:02.046 PM 02/18/2016,Teleop Enabled,0,FALSE,0,NO ERROR,4000.488281,-4003.710937,4000.000000,4000.000000,Speed,Speed,-10.860000,-0.050000,1.850000,3.000000,100.000000,1,1,-0.160000,-0.160000,1,0.034225,-0.026459,0.000000,0.483353,-0.445679,0.000000,0.056000,0.008000,-0.074000,FlatInitial,Hold,0,0.075000
07:06:02.154 PM 02/18/2016,Teleop Enabled,0,FALSE,0,NO ERROR,4000.048828,-4006.494141,4000.000000,4000.000000,Speed,Speed,-7.230000,-0.100000,1.670000,3.000000,102.000000,1,0,0.181102,-0.181102,1,0.059891,0.000031,0.000000,0.486603,-0.446518,0.000000,0.056000,0.008000,-0.074000,FlatInitial,Hold,0,0.006250
07:06:02.254 PM 02/18/2016,Teleop Enabled,0,FALSE,0,NO ERROR,3998.583984,-4006.347656,4000.000000,4000.000000,Speed,Speed,-5.120000,0.140000,1.470000,3.000000,105.000000,1,0,-0.000000,0.000000,1,0.124237,-0.054245,0.000000,0.489212,-0.447342,0.000000,-0.033000,-0.064000,-0.042000,FlatInitial,Hold,0,0.006250
07:06:02.355 PM 02/18/2016,Teleop Enabled,0,FALSE,0,NO ERROR,3996.826172,-4009.277344,4000.000000,4000.000000,Speed,Speed,-5.590000,0.340000,1.140000,3.000000,100.000000,1,0,-0.000000,0.000000,1,0.157028,-0.077255,0.000000,0.498825,-0.452774,0.000000,-0.033000,-0.064000,-0.042000,FlatInitial,Hold,0,0.006250
07:06:02.455 PM 02/18/2016,Teleop Enabled,0,FALSE,0,NO ERROR,4008.105469,-4011.621094,4000.000000,4000.000000,Speed,Speed,-5.680000,0.270000,1.340000,3.000000,101.000000,1,0,-0.000000,0.000000,1,0.140045,-0.067001,0.000000,0.507965,-0.456696,0.000000,0.019000,-0.030000,-0.042000,FlatInitial,Hold,0,0.006250
07:06:02.557 PM 02/18/2016,Teleop Enabled,0,FALSE,0,NO ERROR,4014.990234,-4010.888672,4000.000000,4000.000000,Speed,Speed,-5.640000,0.380000,1.370000,3.000000,100.000000,1,0,-0.000000,0.000000,1,0.159729,-0.073303,0.000000,0.512451,-0.458817,0.000000,-0.029000,0.032000,-0.013000,FlatInitial,Hold,0,0.006250
07:06:02.656 PM 02/18/2016,Teleop Enabled,0,FALSE,0,NO ERROR,4016.162109,-4010.156250,4000.000000,4000.000000,Speed,Speed,-5.680000,0.360000,1.410000,3.000000,101.000000,1,0,-0.000000,0.000000,1,0.150558,-0.047485,0.000000,0.520157,-0.461914,0.000000,0.001000,0.002000,0.131000,FlatInitial,Hold,0,0.006250
07:06:02.756 PM 02/18/2016,Teleop Enabled,0,FALSE,0,NO ERROR,4011.767578,-4005.468750,4000.000000,4000.000000,Speed,Speed,-5.650000,0.420000,1.480000,3.000000,102.000000,1,0,-0.000000,0.000000,1,0.164551,0.003082,0.000000,0.528183,-0.461884,0.000000,0.037000,-0.016000,-0.041000,FlatInitial,Hold,0,0.006250
07:06:02.859 PM 02/18/2016,Teleop Enabled,0,FALSE,0,NO ERROR,4005.175781,-4006.494141,4000.000000,4000.000000,Speed,Speed,-5.680000,0.510000,1.540000,3.000000,102.000000,1,0,-0.000000,0.000000,1,0.184555,0.015305,0.000000,0.536911,-0.461349,0.000000,-0.008000,0.029000,-0.051000,FlatInitial,Hold,0,0.006250
07:06:02.961 PM 02/18/2016,Teleop Enabled,0,FALSE,0,NO ERROR,4002.539062,-4007.666016,4000.000000,4000.000000,Speed,Speed,-5.670000,0.560000,1.570000,3.000000,103.000000,1,0,-0.000000,0.000000,1,0.211044,0.020828,0.000000,0.548660,-0.460114,0.000000,0.015000,0.006000,0.098000,FlatInitial,Hold,0,0.006250
07:06:03.062 PM 02/18/2016,Teleop Enabled,0,FALSE,0,NO ERROR,4001.953125,-4007.958984,4000.000000,4000.000000,Speed,Speed,-5.680000,0.590000,1.530000,3.000000,107.000000,1,0,-0.000000,0.000000,1,0.219742,0.027344,0.000000,0.557297,-0.459030,0.000000,0.054000,-0.001000,-0.058000,FlatInitial,Hold,0,0.006250
07:06:03.163 PM 02/18/2016,Teleop Enabled,0,FALSE,0,NO ERROR,4001.367187,-4006.494141,4000.000000,4000.000000,Speed,Speed,-5.670000,0.650000,1.600000,3.000000,100.000000,1,0,-0.000000,0.000000,1,0.241302,0.005722,0.000000,0.568771,-0.458511,0.000000,0.036000,0.038000,-0.072000,FlatInitial,Hold,0,0.006250
07:06:03.264 PM 02/18/2016,Teleop Enabled,0,FALSE,0,NO ERROR,3999.609375,-4002.685547,4000.000000,4000.000000,Speed,Speed,-5.680000,0.690000,1.650000,3.000000,101.000000,1,0,-0.000000,0.000000,1,0.259506,0.029465,0.000000,0.583801,-0.457306,0.000000,-0.011000,0.046000,-0.057000,FlatInitial,Hold,0,0.006250
07:06:03.365 PM 02/18/2016,Teleop Enabled,0,FALSE,0,NO ERROR,3998.730469,-3997.851562,4000.000000,4000.000000,Speed,Speed,-5.680000,0.760000,1.730000,3.000000,102.000000,1,0,-0.000000,0.000000,1,0.002884,0.061249,0.000000,0.589035,-0.454376,0.000000,0.028000,-0.009000,0.080000,FlatInitial,Hold,0,0.006250
07:06:03.466 PM 02/18/2016,Teleop Enabled,0,FALSE,0,NO ERROR,4001.367187,-3991.845703,4000.000000,4000.000000,Speed,Speed,-5.680000,0.820000,1.770000,3.000000,102.000000,1,0,-0.000000,0.000000,1,0.011032,0.087616,0.000000,0.589447,-0.450653,0.000000,0.040000,0.014000,-0.092000,FlatInitial,Hold,0,0.006250
07:06:03.570 PM 02/18/2016,Teleop Enabled,0,FALSE,0,NO ERROR,4003.125000,-3993.457031,4000.000000,4000.000000,Speed,Speed,-5.690000,0.850000,1.860000,3.000000,101.000000,1,0,-0.000000,0.000000,1,0.004807,0.110245,0.000000,0.589783,-0.445557,0.000000,0.011000,0.026000,-0.063000,FlatInitial,Hold,0,0.006250
07:06:03.670 PM 02/18/2016,Teleop Enabled,0,FALSE,0,NO ERROR,4005.615234,-3995.507812,4000.000000,4000.000000,Speed,Speed,-5.690000,0.890000,1.940000,3.000000,101.000000,1,0,-0.000000,0.000000,1,0.004807,0.110245,0.000000,0.589783,-0.445557,0.000000,0.011000,0.026000,-0.063000,FlatInitial,Hold,0,0.006250
07:06:03.771 PM 02/18/2016,Teleop Enabled,0,FALSE,0,NO ERROR,4006.347656,-3997.265625,4000.000000,4000.000000,Speed,Speed,-5.690000,0.910000,1.990000,3.000000,101.000000,1,0,-0.000000,0.000000,1,0.025925,0.155106,0.000000,0.591064,-0.433151,0.000000,-0.015000,0.025000,-0.006000,FlatInitial,Hold,0,0.006250
07:06:03.873 PM 02/18/2016,Teleop Enabled,0,FALSE,0,NO ERROR,4008.105469,-4000.195312,4000.000000,4000.000000,Speed,Speed,-5.700000,0.920000,2.050000,3.000000,103.000000,1,0,-0.000000,0.000000,1,0.041443,0.175034,0.000000,0.593155,-0.422989,0.000000,-0.028000,0.075000,-0.051000,FlatInitial,Hold,0,0.006250
07:06:03.974 PM 02/18/2016,Teleop Enabled,0,FALSE,0,NO ERROR,4006.933594,-4006.054687,4000.000000,4000.000000,Speed,Speed,-5.690000,0.950000,2.100000,3.000000,106.000000,1,0,-0.000000,0.000000,1,0.000000,0.195312,0.000000,0.594833,-0.413483,0.000000,-0.028000,0.031000,-0.051000,FlatInitial,Hold,0,0.006250
07:06:04.074 PM 02/18/2016,Teleop Disabled,0,FALSE,0,NO ERROR,3998.291016,-4000.634766,4000.000000,4000.000000,Speed,Speed,-5.690000,0.950000,2.120000,3.000000,102.000000,1,0,-0.000000,0.000000,1,0.004303,0.204300,0.000000,0.595032,-0.403488,0.000000,-0.002000,0.072000,-0.100000,FlatInitial,Hold,0,0.006250
07:06:04.174 PM 02/18/2016,Teleop Disabled,0,FALSE,0,NO ERROR,3865.136719,-3703.564453,4000.000000,4000.000000,Speed,Speed,-5.690000,0.960000,2.130000,3.000000,104.000000,1,0,-0.000000,0.000000,1,0.003052,0.209915,0.000000,0.595352,-0.393066,0.000000,0.022000,-0.035000,-0.060000,FlatInitial,Hold,0,0.006250
07:06:04.274 PM 02/18/2016,Teleop Disabled,0,FALSE,0,NO ERROR,3506.835938,-3245.800781,4000.000000,4000.000000,Speed,Speed,-5.690000,0.940000,2.120000,3.000000,102.000000,1,0,-0.000000,0.000000,1,0.007935,0.192688,0.000000,0.595871,-0.383118,0.000000,0.021000,0.017000,-0.117000,FlatInitial,Hold,0,0.006250
07:06:04.375 PM 02/18/2016,Teleop Disabled,0,FALSE,0,NO ERROR,3139.746094,-2689.306641,4000.000000,4000.000000,Speed,Speed,-5.690000,0.930000,2.100000,3.000000,100.000000,1,0,-0.000000,0.000000,1,0.034134,-0.004868,0.000000,0.596802,-0.381195,0.000000,-0.003000,0.045000,0.102000,FlatInitial,Hold,0,0.006250
07:06:04.482 PM 02/18/2016,Teleop Disabled,0,FALSE,0,NO ERROR,2788.037109,-2162.255859,4000.000000,4000.000000,Speed,Speed,-5.680000,0.930000,2.100000,3.000000,103.000000,1,0,-0.000000,0.000000,1,0.032303,0.001877,0.000000,0.598572,-0.381241,0.000000,-0.034000,0.038000,-0.127000,FlatInitial,Hold,0,0.006250
07:06:04.580 PM 02/18/2016,Teleop Disabled,0,FALSE,0,NO ERROR,2452.148438,-1670.214844,4000.000000,4000.000000,Speed,Speed,-5.680000,0.910000,2.100000,3.000000,105.000000,1,0,-0.000000,0.000000,1,0.003372,0.009933,0.000000,0.599121,-0.380737,0.000000,-0.021000,0.025000,-0.024000,FlatInitial,Hold,0,0.006250
07:06:04.681 PM 02/18/2016,Teleop Disabled,0,FALSE,0,NO ERROR,2133.105469,-1217.871094,4000.000000,4000.000000,Speed,Speed,-5.680000,0.910000,2.120000,3.000000,105.000000,1,0,-0.000000,0.000000,1,0.000000,0.023834,0.000000,0.599167,-0.379852,0.000000,-0.036000,-0.041000,0.026000,FlatInitial,Hold,0,0.006250
07:06:04.781 PM 02/18/2016,Teleop Disabled,0,FALSE,0,NO ERROR,1829.736328,-793.066406,4000.000000,4000.000000,Speed,Speed,-5.680000,0.890000,2.110000,3.000000,105.000000,1,0,-0.000000,0.000000,1,0.000000,0.000000,0.000000,0.598999,-0.379303,0.000000,0.001000,0.016000,-0.016000,FlatInitial,Hold,0,0.006250
07:06:04.882 PM 02/18/2016,Teleop Disabled,0,FALSE,0,NO ERROR,1539.550781,-448.681641,4000.000000,4000.000000,Speed,Speed,-5.680000,0.880000,2.080000,3.000000,101.000000,1,0,-0.000000,0.000000,1,-0.002975,-0.006897,0.000000,0.598969,-0.379410,0.000000,-0.002000,-0.014000,-0.037000,FlatInitial,Hold,0,0.006250
07:06:04.982 PM 02/18/2016,Teleop Disabled,0,FALSE,0,NO ERROR,1267.822266,-448.681641,4000.000000,4000.000000,Speed,Speed,-5.690000,0.880000,2.070000,3.000000,101.000000,1,0,-0.000000,0.000000,1,0.000000,0.000000,0.000000,0.598862,-0.379486,0.000000,0.016000,-0.010000,0.028000,FlatInitial,Hold,0,0.006250
07:06:05.082 PM 02/18/2016,Teleop Disabled,0,FALSE,0,NO ERROR,1267.822266,-129.492188,4000.000000,4000.000000,Speed,Speed,-5.690000,0.890000,2.060000,3.000000,106.000000,1,0,-0.000000,0.000000,1,0.000000,0.000000,0.000000,0.598862,-0.379486,0.000000,0.001000,-0.001000,0.054000,FlatInitial,Hold,0,0.006250
07:06:05.183 PM 02/18/2016,Teleop Disabled,0,FALSE,0,NO ERROR,1018.798828,3.076172,4000.000000,4000.000000,Speed,Speed,-5.690000,0.890000,2.050000,3.000000,102.000000,1,0,-0.000000,0.000000,1,0.000000,0.000000,0.000000,0.598862,-0.379486,0.000000,-0.015000,0.000000,-0.041000,FlatInitial,Hold,0,0.006250
07:06:05.283 PM 02/18/2016,Teleop Disabled,0,FALSE,0,NO ERROR,829.541016,0.000000,4000.000000,4000.000000,Speed,Speed,-5.690000,0.880000,2.040000,3.000000,102.000000,1,0,-0.000000,0.000000,1,0.000000,0.000000,0.000000,0.598862,-0.379486,0.000000,-0.001000,0.001000,0.017000,FlatInitial,Hold,0,0.006250
07:06:05.385 PM 02/18/2016,Teleop Disabled,0,FALSE,0,NO ERROR,555.615234,0.000000,4000.000000,4000.000000,Speed,Speed,-5.690000,0.870000,2.040000,3.000000,103.000000,1,0,-0.000000,0.000000,1,0.000000,0.000000,0.000000,0.598862,-0.379486,0.000000,-0.009000,0.001000,-0.008000,FlatInitial,Hold,0,0.006250
07:06:05.486 PM 02/18/2016,Teleop Disabled,0,FALSE,0,NO ERROR,418.652344,0.000000,4000.000000,4000.000000,Speed,Speed,-5.690000,0.870000,2.030000,3.000000,104.000000,1,0,-0.000000,0.000000,1,0.000000,0.000000,0.000000,0.598862,-0.379486,0.000000,0.002000,-0.003000,0.003000,FlatInitial,Hold,0,0.006250
07:06:05.587 PM 02/18/2016,Teleop Disabled,0,FALSE,0,NO ERROR,267.333984,0.000000,4000.000000,4000.000000,Speed,Speed,-5.690000,0.870000,2.020000,3.000000,104.000000,1,0,-0.000000,0.000000,1,0.000000,0.000000,0.000000,0.598862,-0.379486,0.000000,0.002000,-0.006000,0.011000,FlatInitial,Hold,0,0.006250
07:06:05.687 PM 02/18/2016,Teleop Disabled,0,FALSE,0,NO ERROR,56.250000,0.000000,4000.000000,4000.000000,Speed,Speed,-5.690000,0.870000,2.010000,3.000000,106.000000,1,0,-0.000000,0.000000,1,0.000000,0.000000,0.000000,0.598862,-0.379486,0.000000,-0.003000,0.001000,0.000000,FlatInitial,Hold,0,0.006250
07:06:05.788 PM 02/18/2016,Teleop Disabled,0,FALSE,0,NO ERROR,-8.056641,0.000000,4000.000000,4000.000000,Speed,Speed,-5.690000,0.860000,2.000000,3.000000,103.000000,1,0,-0.000000,0.000000,1,0.000000,0.000000,0.000000,0.598862,-0.379486,0.000000,0.000000,-0.002000,0.004000,FlatInitial,Hold,0,0.006250
07:06:05.888 PM 02/18/2016,Teleop Disabled,0,FALSE,0,NO ERROR,-11.718750,0.000000,4000.000000,4000.000000,Speed,Speed,-5.700000,0.860000,1.990000,3.000000,103.000000,1,0,-0.000000,0.000000,1,0.000000,0.000000,0.000000,0.598862,-0.379486,0.000000,-0.002000,-0.002000,0.002000,FlatInitial,Hold,0,0.006250
07:06:05.988 PM 02/18/2016,Teleop Disabled,0,FALSE,0,NO ERROR,-0.585938,0.000000,4000.000000,4000.000000,Speed,Speed,-5.700000,0.860000,1.990000,3.000000,108.000000,1,0,-0.000000,0.000000,1,0.000000,0.000000,0.000000,0.598862,-0.379486,0.000000,-0.002000,0.000000,0.008000,FlatInitial,Hold,0,0.006250
07:06:06.089 PM 02/18/2016,Teleop Disabled,0,FALSE,0,NO ERROR,0.000000,0.000000,4000.000000,4000.000000,Speed,Speed,-5.700000,0.850000,1.990000,3.000000,101.000000,1,0,-0.000000,0.000000,1,0.000000,0.000000,0.000000,0.598862,-0.379486,0.000000,0.000000,-0.001000,0.009000,FlatInitial,Hold,0,0.006250
07:06:06.189 PM 02/18/2016,Teleop Disabled,0,FALSE,0,NO ERROR,0.000000,0.000000,4000.000000,4000.000000,Speed,Speed,-5.700000,0.850000,1.980000,3.000000,102.000000,1,0,-0.000000,0.000000,1,0.000000,0.000000,0.000000,0.598862,-0.379486,0.000000,0.001000,0.000000,0.005000,FlatInitial,Hold,0,0.006250
07:06:06.289 PM 02/18/2016,Teleop Disabled,0,FALSE,0,NO ERROR,0.000000,0.000000,4000.000000,4000.000000,Speed,Speed,-5.700000,0.850000,1.970000,3.000000,113.000000,1,0,-0.000000,0.000000,1,0.000000,0.000000,0.000000,0.598862,-0.379486,0.000000,0.001000,-0.002000,0.005000,FlatInitial,Hold,0,0.006250
