Time,RobotMode,AutoToRun,ErrorStatus, ErrorCode,ErrorSource,ActualRPM1,ActualRPM2,DesiredRPM1,DesiredRPM2,ControlMode1,ControlMode2,NavXYaw,NavXRoll,NavXPitch,ShooterState,LoopTime,IsLevel,IsAutoTargeting,LeftMotorOutput,RightMotorOutput,IsHaloDrive,NavXVelocityX,NavXVelocityY,NavXVelocityZ,NavXDisplacementX,NavXDisplacementY,NavXDisplacementZ,NavXAccelerationX,NavXAccelerationY,NavXAccelerationZ,AutoDefeneState
08:38:16.807 PM 02/11/2016,Teleop Enabled,0,TRUE,-44087,NetComm_CAN_Receive.vi:5470007<APPEND>  <b>Complete call chain:</b>      NetComm_CAN_Receive.vi:5470007      WPI_CANTalonSRX_Receive.vi      WPI_MotorControlOpenCANTalonSRX.vi      Begin.vi      Robot Main.vi,0.000000,0.000000,4000.000000,4000.000000,Speed,Speed,-0.690000,0.650000,1.400000,3.000000,103.000000,1,0,-0.012152,0.000248,0,0.000000,0.000000,0.000000,0.022278,0.160873,0.000000,0.000000,0.000000,0.000000,FlatInitial
08:38:16.907 PM 02/11/2016,Teleop Enabled,0,TRUE,-44087,NetComm_CAN_Receive.vi:5470007<APPEND>  <b>Complete call chain:</b>      NetComm_CAN_Receive.vi:5470007      WPI_CANTalonSRX_Receive.vi      WPI_MotorControlOpenCANTalonSRX.vi      Begin.vi      Robot Main.vi,0.000000,0.000000,4000.000000,4000.000000,Speed,Speed,-0.690000,0.650000,1.400000,3.000000,103.000000,1,0,-0.012152,0.000248,0,0.000000,0.000000,0.000000,0.022278,0.160873,0.000000,-0.002000,0.001000,-0.015000,FlatInitial
08:38:17.007 PM 02/11/2016,Teleop Enabled,0,TRUE,-44087,NetComm_CAN_Receive.vi:5470007<APPEND>  <b>Complete call chain:</b>      NetComm_CAN_Receive.vi:5470007      WPI_CANTalonSRX_Receive.vi      WPI_MotorControlOpenCANTalonSRX.vi      Begin.vi      Robot Main.vi,0.000000,0.000000,4000.000000,4000.000000,Speed,Speed,-0.680000,0.640000,1.400000,3.000000,102.000000,1,0,-0.012152,0.000248,0,0.000000,0.000000,0.000000,0.022278,0.160873,0.000000,0.002000,-0.001000,0.004000,FlatInitial
08:38:17.108 PM 02/11/2016,Teleop Enabled,0,TRUE,-44087,NetComm_CAN_Receive.vi:5470007<APPEND>  <b>Complete call chain:</b>      NetComm_CAN_Receive.vi:5470007      WPI_CANTalonSRX_Receive.vi      WPI_MotorControlOpenCANTalonSRX.vi      Begin.vi      Robot Main.vi,0.000000,0.000000,4000.000000,4000.000000,Speed,Speed,-0.680000,0.640000,1.390000,3.000000,103.000000,1,0,-0.012152,0.000248,0,0.000000,0.000000,0.000000,0.022278,0.160873,0.000000,0.000000,-0.002000,0.000000,FlatInitial
08:38:17.208 PM 02/11/2016,Teleop Enabled,0,TRUE,-44087,NetComm_CAN_Receive.vi:5470007<APPEND>  <b>Complete call chain:</b>      NetComm_CAN_Receive.vi:5470007      WPI_CANTalonSRX_Receive.vi      WPI_MotorControlOpenCANTalonSRX.vi      Begin.vi      Robot Main.vi,0.000000,0.000000,4000.000000,4000.000000,Speed,Speed,-0.670000,0.650000,1.390000,3.000000,101.000000,1,0,-0.012152,0.000248,0,0.000000,0.000000,0.000000,0.022278,0.160873,0.000000,0.002000,0.002000,0.006000,FlatInitial
08:38:17.308 PM 02/11/2016,Teleop Enabled,0,TRUE,-44087,NetComm_CAN_Receive.vi:5470007<APPEND>  <b>Complete call chain:</b>      NetComm_CAN_Receive.vi:5470007      WPI_CANTalonSRX_Receive.vi      WPI_MotorControlOpenCANTalonSRX.vi      Begin.vi      Robot Main.vi,0.000000,0.000000,4000.000000,4000.000000,Speed,Speed,-0.670000,0.630000,1.400000,3.000000,102.000000,1,0,-0.012152,0.000248,0,0.000000,0.000000,0.000000,0.022278,0.160873,0.000000,0.007000,0.000000,0.001000,FlatInitial
08:38:17.408 PM 02/11/2016,Teleop Enabled,0,TRUE,-44087,NetComm_CAN_Receive.vi:5470007<APPEND>  <b>Complete call chain:</b>      NetComm_CAN_Receive.vi:5470007      WPI_CANTalonSRX_Receive.vi      WPI_MotorControlOpenCANTalonSRX.vi      Begin.vi      Robot Main.vi,0.000000,0.000000,4000.000000,4000.000000,Speed,Speed,-0.670000,0.630000,1.400000,3.000000,102.000000,1,0,-0.012152,0.000248,0,0.000000,0.000000,0.000000,0.022278,0.160873,0.000000,-0.003000,-0.004000,-0.006000,FlatInitial
08:38:17.509 PM 02/11/2016,Teleop Enabled,0,TRUE,-44087,NetComm_CAN_Receive.vi:5470007<APPEND>  <b>Complete call chain:</b>      NetComm_CAN_Receive.vi:5470007      WPI_CANTalonSRX_Receive.vi      WPI_MotorControlOpenCANTalonSRX.vi      Begin.vi      Robot Main.vi,0.000000,0.000000,4000.000000,4000.000000,Speed,Speed,-0.660000,0.630000,1.400000,3.000000,101.000000,1,0,-0.012152,0.000248,0,0.000000,0.000000,0.000000,0.022278,0.160873,0.000000,0.002000,0.001000,0.002000,FlatInitial
08:38:17.610 PM 02/11/2016,Teleop Enabled,0,TRUE,-44087,NetComm_CAN_Receive.vi:5470007<APPEND>  <b>Complete call chain:</b>      NetComm_CAN_Receive.vi:5470007      WPI_CANTalonSRX_Receive.vi      WPI_MotorControlOpenCANTalonSRX.vi      Begin.vi      Robot Main.vi,0.000000,0.000000,4000.000000,4000.000000,Speed,Speed,-0.660000,0.610000,1.400000,3.000000,102.000000,1,0,-0.012152,0.000248,0,0.000000,0.000000,0.000000,0.022278,0.160873,0.000000,0.000000,0.001000,-0.001000,FlatInitial
08:38:17.710 PM 02/11/2016,Teleop Enabled,0,TRUE,-44087,NetComm_CAN_Receive.vi:5470007<APPEND>  <b>Complete call chain:</b>      NetComm_CAN_Receive.vi:5470007      WPI_CANTalonSRX_Receive.vi      WPI_MotorControlOpenCANTalonSRX.vi      Begin.vi      Robot Main.vi,0.000000,0.000000,4000.000000,4000.000000,Speed,Speed,-0.670000,0.610000,1.410000,3.000000,102.000000,1,0,-0.012152,0.000248,0,0.000000,0.000000,0.000000,0.022278,0.160873,0.000000,-0.002000,0.001000,-0.004000,FlatInitial
08:38:17.811 PM 02/11/2016,Teleop Enabled,0,TRUE,-44087,NetComm_CAN_Receive.vi:5470007<APPEND>  <b>Complete call chain:</b>      NetComm_CAN_Receive.vi:5470007      WPI_CANTalonSRX_Receive.vi      WPI_MotorControlOpenCANTalonSRX.vi      Begin.vi      Robot Main.vi,0.000000,0.000000,4000.000000,4000.000000,Speed,Speed,-0.670000,0.630000,1.410000,3.000000,103.000000,1,0,-0.012152,0.000248,0,0.000000,0.000000,0.000000,0.022278,0.160873,0.000000,0.000000,0.000000,-0.001000,FlatInitial
08:38:17.912 PM 02/11/2016,Teleop Enabled,0,TRUE,-44087,NetComm_CAN_Receive.vi:5470007<APPEND>  <b>Complete call chain:</b>      NetComm_CAN_Receive.vi:5470007      WPI_CANTalonSRX_Receive.vi      WPI_MotorControlOpenCANTalonSRX.vi      Begin.vi      Robot Main.vi,0.000000,0.000000,4000.000000,4000.000000,Speed,Speed,-0.670000,0.610000,1.410000,3.000000,101.000000,1,0,-0.012152,0.000248,0,0.000000,0.000000,0.000000,0.022278,0.160873,0.000000,0.006000,-0.003000,0.002000,FlatInitial
08:38:18.013 PM 02/11/2016,Teleop Enabled,0,TRUE,-44087,NetComm_CAN_Receive.vi:5470007<APPEND>  <b>Complete call chain:</b>      NetComm_CAN_Receive.vi:5470007      WPI_CANTalonSRX_Receive.vi      WPI_CANTalonSRX_GetStatus.vi      ShooterVI.vi      Periodic Tasks.vi      Robot Main.vi,0.000000,0.000000,4000.000000,4000.000000,Speed,Speed,-0.670000,0.590000,1.390000,3.000000,103.000000,1,0,-0.012152,0.000248,0,0.000000,0.000000,0.000000,0.022278,0.160873,0.000000,0.000000,0.001000,-0.006000,FlatInitial
08:38:18.114 PM 02/11/2016,Teleop Enabled,0,TRUE,-44087,NetComm_CAN_Receive.vi:5470007<APPEND>  <b>Complete call chain:</b>      NetComm_CAN_Receive.vi:5470007      WPI_CANTalonSRX_Receive.vi      WPI_CANTalonSRX_GetStatus.vi      ShooterVI.vi      Periodic Tasks.vi      Robot Main.vi,0.000000,0.000000,4000.000000,4000.000000,Speed,Speed,-0.670000,0.610000,1.390000,3.000000,102.000000,1,0,-0.012152,0.000248,0,0.000000,0.000000,0.000000,0.022278,0.160873,0.000000,0.004000,0.000000,0.001000,FlatInitial
08:38:18.215 PM 02/11/2016,Teleop Enabled,0,TRUE,-44003,<LOCATION>WPI_CameraIssue HTTP Request with Authentication.vi<CALLSTACK>WPI_CameraIssue HTTP Request with Authentication.vi< <WPI_CameraIssue Get.vi< <WPI_CameraSet Image Appearance Property.vi< <WPI_CameraSet Image Size.vi< <Vision Processing.vi< <Robot Main.vi,0.000000,0.000000,4000.000000,4000.000000,Speed,Speed,-0.670000,0.560000,1.370000,3.000000,102.000000,1,0,-0.012152,0.000248,0,0.000000,0.000000,0.000000,0.022278,0.160873,0.000000,0.019000,-0.008000,0.024000,FlatInitial
08:38:18.316 PM 02/11/2016,Teleop Enabled,0,FALSE,0,NO ERROR,0.000000,0.000000,4000.000000,4000.000000,Speed,Speed,-0.670000,0.560000,1.370000,3.000000,101.000000,1,0,-0.012152,0.000248,0,0.000000,0.000000,0.000000,0.022232,0.160873,0.000000,0.004000,-0.002000,0.011000,FlatInitial
08:38:18.415 PM 02/11/2016,Teleop Enabled,0,FALSE,0,NO ERROR,0.000000,0.000000,4000.000000,4000.000000,Speed,Speed,-0.670000,0.580000,1.400000,3.000000,103.000000,1,0,-0.012152,0.000248,0,0.000000,0.000000,0.000000,0.022232,0.160873,0.000000,-0.009000,0.006000,-0.010000,FlatInitial
08:38:18.517 PM 02/11/2016,Teleop Enabled,0,FALSE,0,NO ERROR,0.000000,0.000000,4000.000000,4000.000000,Speed,Speed,-0.680000,0.630000,1.400000,3.000000,102.000000,1,0,-0.012152,0.000248,0,-0.022568,-0.036774,0.000000,0.021744,0.159821,0.000000,0.073000,0.009000,0.077000,FlatInitial
08:38:18.620 PM 02/11/2016,Teleop Enabled,0,FALSE,0,NO ERROR,0.000000,0.000000,4000.000000,4000.000000,Speed,Speed,-0.670000,0.590000,1.390000,3.000000,107.000000,1,0,-0.012152,0.000248,0,-0.013382,-0.011124,0.000000,0.021103,0.159546,0.000000,0.059000,0.000000,0.073000,FlatInitial
08:38:18.720 PM 02/11/2016,Teleop Enabled,0,FALSE,0,NO ERROR,0.000000,0.000000,4000.000000,4000.000000,Speed,Speed,-0.660000,0.610000,1.400000,3.000000,104.000000,1,0,-0.012152,0.000248,0,0.000000,0.000000,0.000000,0.021042,0.159546,0.000000,-0.001000,-0.001000,-0.021000,FlatInitial
08:38:18.822 PM 02/11/2016,Teleop Enabled,0,FALSE,0,NO ERROR,0.000000,0.000000,4000.000000,4000.000000,Speed,Speed,-0.660000,0.630000,1.410000,3.000000,102.000000,1,0,-0.012152,0.000248,0,0.000000,0.000000,0.000000,0.021042,0.159546,0.000000,0.000000,-0.004000,-0.001000,FlatInitial
08:38:18.923 PM 02/11/2016,Teleop Enabled,0,FALSE,0,NO ERROR,0.000000,0.000000,4000.000000,4000.000000,Speed,Speed,-0.660000,0.610000,1.400000,3.000000,103.000000,1,0,-0.012152,0.000248,0,0.000000,0.000000,0.000000,0.021042,0.159546,0.000000,0.005000,0.000000,0.007000,FlatInitial
08:38:19.024 PM 02/11/2016,Teleop Enabled,0,FALSE,0,NO ERROR,0.000000,0.000000,4000.000000,4000.000000,Speed,Speed,-0.660000,0.620000,1.410000,3.000000,103.000000,1,0,-0.012152,0.000248,0,0.000000,0.000000,0.000000,0.021042,0.159546,0.000000,0.006000,-0.004000,0.003000,FlatInitial
08:38:19.124 PM 02/11/2016,Teleop Enabled,0,FALSE,0,NO ERROR,0.000000,0.000000,4000.000000,4000.000000,Speed,Speed,-0.660000,0.610000,1.410000,3.000000,104.000000,1,0,-0.012152,0.000248,0,0.000000,0.000000,0.000000,0.021042,0.159546,0.000000,0.004000,0.000000,0.005000,FlatInitial
08:38:19.224 PM 02/11/2016,Teleop Enabled,0,FALSE,0,NO ERROR,0.000000,0.000000,4000.000000,4000.000000,Speed,Speed,-0.660000,0.600000,1.410000,3.000000,102.000000,1,0,-0.012152,0.000248,0,0.000000,0.000000,0.000000,0.021042,0.159546,0.000000,0.001000,0.000000,0.000000,FlatInitial
08:38:19.325 PM 02/11/2016,Teleop Enabled,0,FALSE,0,NO ERROR,0.000000,0.000000,4000.000000,4000.000000,Speed,Speed,-0.660000,0.610000,1.410000,3.000000,101.000000,1,0,-0.012152,0.000248,0,0.000000,0.000000,0.000000,0.021042,0.159546,0.000000,0.002000,0.002000,-0.004000,FlatInitial
08:38:19.426 PM 02/11/2016,Teleop Enabled,0,FALSE,0,NO ERROR,0.000000,0.000000,4000.000000,4000.000000,Speed,Speed,-0.660000,0.610000,1.420000,3.000000,103.000000,1,0,-0.012152,0.000248,0,0.000000,0.000000,0.000000,0.021042,0.159546,0.000000,0.000000,0.004000,0.000000,FlatInitial
08:38:19.526 PM 02/11/2016,Teleop Enabled,0,FALSE,0,NO ERROR,0.000000,0.000000,4000.000000,4000.000000,Speed,Speed,-0.660000,0.600000,1.430000,3.000000,102.000000,1,0,-0.012152,0.000248,0,0.000000,0.000000,0.000000,0.021042,0.159546,0.000000,0.000000,0.003000,0.001000,FlatInitial
08:38:19.627 PM 02/11/2016,Teleop Enabled,0,FALSE,0,NO ERROR,0.000000,0.000000,4000.000000,4000.000000,Speed,Speed,-0.660000,0.610000,1.430000,3.000000,103.000000,1,0,-0.012152,0.000248,0,0.000000,0.000000,0.000000,0.021042,0.159546,0.000000,0.000000,0.003000,0.001000,FlatInitial
08:38:19.728 PM 02/11/2016,Teleop Enabled,0,FALSE,0,NO ERROR,0.000000,0.000000,4000.000000,4000.000000,Speed,Speed,-0.660000,0.620000,1.420000,3.000000,103.000000,1,0,-0.012152,0.000248,0,0.000000,0.000000,0.000000,0.021042,0.159546,0.000000,0.003000,0.001000,0.002000,FlatInitial
08:38:19.828 PM 02/11/2016,Teleop Enabled,0,FALSE,0,NO ERROR,0.000000,0.000000,4000.000000,4000.000000,Speed,Speed,-0.650000,0.610000,1.420000,3.000000,104.000000,1,0,-0.012152,0.000248,0,0.000000,0.000000,0.000000,0.021042,0.159546,0.000000,0.001000,0.001000,0.000000,FlatInitial
08:38:19.929 PM 02/11/2016,Teleop Enabled,0,FALSE,0,NO ERROR,0.000000,0.000000,4000.000000,4000.000000,Speed,Speed,-0.650000,0.620000,1.420000,3.000000,101.000000,1,0,-0.012152,0.000248,0,0.000000,0.000000,0.000000,0.021042,0.159546,0.000000,0.007000,0.003000,0.003000,FlatInitial
08:38:20.028 PM 02/11/2016,Teleop Enabled,0,FALSE,0,NO ERROR,0.000000,0.000000,4000.000000,4000.000000,Speed,Speed,-0.650000,0.610000,1.420000,3.000000,101.000000,1,0,-0.012152,0.000248,0,0.000000,0.000000,0.000000,0.021042,0.159546,0.000000,0.002000,0.000000,-0.002000,FlatInitial
08:38:20.129 PM 02/11/2016,Teleop Enabled,0,FALSE,0,NO ERROR,0.000000,0.000000,4000.000000,4000.000000,Speed,Speed,-0.650000,0.620000,1.420000,3.000000,101.000000,1,0,-0.012152,0.000248,0,0.000000,0.000000,0.000000,0.021042,0.159546,0.000000,0.002000,-0.001000,0.000000,FlatInitial
08:38:20.229 PM 02/11/2016,Teleop Enabled,0,FALSE,0,NO ERROR,0.000000,0.000000,4000.000000,4000.000000,Speed,Speed,-0.650000,0.620000,1.420000,3.000000,102.000000,1,0,-0.012152,0.000248,0,0.000000,0.000000,0.000000,0.021042,0.159546,0.000000,0.002000,-0.001000,0.000000,FlatInitial
08:38:20.329 PM 02/11/2016,Teleop Enabled,0,FALSE,0,NO ERROR,0.000000,0.000000,4000.000000,4000.000000,Speed,Speed,-0.640000,0.620000,1.420000,3.000000,101.000000,1,0,-0.012152,0.000248,0,0.000000,0.000000,0.000000,0.021042,0.159546,0.000000,-0.002000,0.001000,-0.003000,FlatInitial
08:38:20.429 PM 02/11/2016,Teleop Enabled,0,FALSE,0,NO ERROR,0.000000,0.000000,4000.000000,4000.000000,Speed,Speed,-0.640000,0.620000,1.420000,3.000000,103.000000,1,0,-0.012152,0.000248,0,0.000000,0.000000,0.000000,0.021042,0.159546,0.000000,0.003000,0.003000,-0.001000,FlatInitial
08:38:20.530 PM 02/11/2016,Teleop Enabled,0,FALSE,0,NO ERROR,0.000000,0.000000,4000.000000,4000.000000,Speed,Speed,-0.640000,0.620000,1.420000,3.000000,102.000000,1,0,-0.012152,0.000248,0,0.000000,0.000000,0.000000,0.021042,0.159546,0.000000,0.000000,0.000000,-0.002000,FlatInitial
08:38:20.629 PM 02/11/2016,Teleop Enabled,0,FALSE,0,NO ERROR,0.000000,0.000000,4000.000000,4000.000000,Speed,Speed,-0.640000,0.620000,1.420000,3.000000,102.000000,1,0,-0.012152,0.000248,0,0.000000,0.000000,0.000000,0.021042,0.159546,0.000000,0.001000,0.000000,0.000000,FlatInitial
08:38:20.730 PM 02/11/2016,Teleop Enabled,0,FALSE,0,NO ERROR,0.000000,0.000000,4000.000000,4000.000000,Speed,Speed,-0.640000,0.610000,1.420000,3.000000,104.000000,1,0,-0.012152,0.000248,0,0.000000,0.000000,0.000000,0.021042,0.159546,0.000000,0.000000,0.000000,0.000000,FlatInitial
08:38:20.830 PM 02/11/2016,Teleop Enabled,0,FALSE,0,NO ERROR,0.000000,0.000000,4000.000000,4000.000000,Speed,Speed,-0.640000,0.600000,1.420000,3.000000,103.000000,1,0,-0.012152,0.000248,0,0.000000,0.000000,0.000000,0.021042,0.159546,0.000000,0.004000,0.000000,-0.001000,FlatInitial
08:38:20.930 PM 02/11/2016,Teleop Enabled,0,FALSE,0,NO ERROR,0.000000,0.000000,4000.000000,4000.000000,Speed,Speed,-0.630000,0.610000,1.420000,3.000000,102.000000,1,0,-0.012152,0.000248,0,0.000000,0.000000,0.000000,0.021042,0.159546,0.000000,0.000000,0.000000,-0.005000,FlatInitial
08:38:21.031 PM 02/11/2016,Teleop Enabled,0,FALSE,0,NO ERROR,0.000000,0.000000,4000.000000,4000.000000,Speed,Speed,-0.630000,0.620000,1.430000,3.000000,102.000000,1,0,-0.012152,0.000248,0,0.000000,0.000000,0.000000,0.021042,0.159546,0.000000,0.003000,0.000000,-0.001000,FlatInitial
08:38:21.132 PM 02/11/2016,Teleop Enabled,0,FALSE,0,NO ERROR,0.000000,0.000000,4000.000000,4000.000000,Speed,Speed,-0.630000,0.600000,1.430000,3.000000,102.000000,1,0,-0.012152,0.000248,0,0.000000,0.000000,0.000000,0.021042,0.159546,0.000000,-0.003000,-0.002000,-0.002000,FlatInitial
08:38:21.232 PM 02/11/2016,Teleop Enabled,0,FALSE,0,NO ERROR,0.000000,0.000000,4000.000000,4000.000000,Speed,Speed,-0.630000,0.610000,1.420000,3.000000,101.000000,1,0,-0.012152,0.000248,0,0.000000,0.000000,0.000000,0.021042,0.159546,0.000000,0.002000,-0.001000,-0.001000,FlatInitial
08:38:21.332 PM 02/11/2016,Teleop Enabled,0,FALSE,0,NO ERROR,0.000000,0.000000,4000.000000,4000.000000,Speed,Speed,-0.630000,0.610000,1.420000,3.000000,102.000000,1,0,-0.012152,0.000248,0,0.000000,0.000000,0.000000,0.021042,0.159546,0.000000,0.000000,0.001000,0.000000,FlatInitial
08:38:21.432 PM 02/11/2016,Teleop Enabled,0,FALSE,0,NO ERROR,0.000000,0.000000,4000.000000,4000.000000,Speed,Speed,-0.620000,0.610000,1.420000,3.000000,101.000000,1,0,-0.012152,0.000248,0,0.000000,0.000000,0.000000,0.021042,0.159546,0.000000,0.009000,0.000000,-0.004000,FlatInitial
08:38:21.533 PM 02/11/2016,Teleop Enabled,0,FALSE,0,NO ERROR,0.000000,0.000000,4000.000000,4000.000000,Speed,Speed,-0.620000,0.610000,1.420000,3.000000,102.000000,1,0,-0.012152,0.000248,0,0.000000,0.000000,0.000000,0.021042,0.159546,0.000000,0.005000,-0.005000,0.003000,FlatInitial
08:38:21.633 PM 02/11/2016,Teleop Enabled,0,FALSE,0,NO ERROR,0.000000,0.000000,4000.000000,4000.000000,Speed,Speed,-0.620000,0.590000,1.420000,3.000000,104.000000,1,0,-0.012152,0.000248,0,0.000000,0.000000,0.000000,0.021042,0.159546,0.000000,-0.001000,0.000000,0.001000,FlatInitial
08:38:21.733 PM 02/11/2016,Teleop Enabled,0,FALSE,0,NO ERROR,0.000000,0.000000,4000.000000,4000.000000,Speed,Speed,-0.610000,0.620000,1.430000,3.000000,103.000000,1,0,-0.012152,0.000248,0,0.000000,0.000000,0.000000,0.021042,0.159546,0.000000,0.000000,-0.001000,0.002000,FlatInitial
08:38:21.834 PM 02/11/2016,Teleop Enabled,0,FALSE,0,NO ERROR,0.000000,0.000000,4000.000000,4000.000000,Speed,Speed,-0.610000,0.620000,1.430000,3.000000,101.000000,1,0,-0.012152,0.000248,0,0.000000,0.000000,0.000000,0.021042,0.159546,0.000000,0.000000,0.003000,0.000000,FlatInitial
08:38:21.934 PM 02/11/2016,Teleop Enabled,0,FALSE,0,NO ERROR,0.000000,0.000000,4000.000000,4000.000000,Speed,Speed,-0.610000,0.620000,1.430000,3.000000,101.000000,1,0,-0.012152,0.000248,0,0.000000,0.000000,0.000000,0.021042,0.159546,0.000000,0.004000,-0.001000,0.006000,FlatInitial
08:38:22.035 PM 02/11/2016,Teleop Enabled,0,FALSE,0,NO ERROR,0.000000,0.000000,4000.000000,4000.000000,Speed,Speed,-0.610000,0.620000,1.430000,3.000000,103.000000,1,0,-0.012152,0.000248,0,0.000000,0.000000,0.000000,0.021042,0.159546,0.000000,0.001000,0.000000,-0.001000,FlatInitial
08:38:22.136 PM 02/11/2016,Teleop Enabled,0,FALSE,0,NO ERROR,0.000000,0.000000,4000.000000,4000.000000,Speed,Speed,-0.610000,0.600000,1.430000,3.000000,101.000000,1,0,-0.012152,0.000248,0,0.000000,0.000000,0.000000,0.021042,0.159546,0.000000,0.001000,-0.003000,-0.001000,FlatInitial
08:38:22.242 PM 02/11/2016,Teleop Enabled,0,FALSE,0,NO ERROR,0.000000,0.000000,4000.000000,4000.000000,Speed,Speed,-0.610000,0.610000,1.440000,3.000000,102.000000,1,0,-0.012152,0.000248,0,0.000000,0.000000,0.000000,0.021042,0.159546,0.000000,0.005000,-0.001000,0.001000,FlatInitial
08:38:22.338 PM 02/11/2016,Teleop Enabled,0,FALSE,0,NO ERROR,0.000000,0.000000,4000.000000,4000.000000,Speed,Speed,-0.610000,0.590000,1.440000,3.000000,101.000000,1,0,-0.012152,0.000248,0,0.000000,0.000000,0.000000,0.021042,0.159546,0.000000,-0.003000,0.003000,-0.002000,FlatInitial
08:38:22.440 PM 02/11/2016,Teleop Enabled,0,FALSE,0,NO ERROR,0.000000,0.000000,4000.000000,4000.000000,Speed,Speed,-0.610000,0.630000,1.440000,3.000000,102.000000,1,0,-0.012152,0.000248,0,0.000000,0.000000,0.000000,0.021042,0.159546,0.000000,0.006000,-0.001000,0.000000,FlatInitial
08:38:22.539 PM 02/11/2016,Teleop Enabled,0,FALSE,0,NO ERROR,0.000000,0.000000,4000.000000,4000.000000,Speed,Speed,-0.610000,0.640000,1.440000,3.000000,100.000000,1,0,-0.012152,0.000248,0,0.000000,0.000000,0.000000,0.021042,0.159546,0.000000,-0.001000,0.000000,0.006000,FlatInitial
08:38:22.639 PM 02/11/2016,Teleop Enabled,0,FALSE,0,NO ERROR,0.000000,0.000000,4000.000000,4000.000000,Speed,Speed,-0.610000,0.620000,1.440000,3.000000,103.000000,1,0,-0.012152,0.000248,0,0.000000,0.000000,0.000000,0.021042,0.159546,0.000000,0.002000,0.003000,-0.003000,FlatInitial
08:38:22.741 PM 02/11/2016,Teleop Enabled,0,FALSE,0,NO ERROR,0.000000,0.000000,4000.000000,4000.000000,Speed,Speed,-0.610000,0.620000,1.440000,3.000000,102.000000,1,0,-0.012152,0.000248,0,0.000000,0.000000,0.000000,0.021042,0.159546,0.000000,0.001000,0.003000,-0.007000,FlatInitial
08:38:22.842 PM 02/11/2016,Teleop Enabled,0,FALSE,0,NO ERROR,0.000000,0.000000,4000.000000,4000.000000,Speed,Speed,-0.610000,0.630000,1.440000,3.000000,103.000000,1,0,-0.012152,0.000248,0,0.000000,0.000000,0.000000,0.021042,0.159546,0.000000,0.000000,-0.003000,0.004000,FlatInitial
08:38:22.943 PM 02/11/2016,Teleop Enabled,0,FALSE,0,NO ERROR,0.000000,0.000000,4000.000000,4000.000000,Speed,Speed,-0.610000,0.620000,1.440000,3.000000,102.000000,1,0,-0.012152,0.000248,0,0.000000,0.000000,0.000000,0.021042,0.159546,0.000000,0.002000,0.006000,-0.001000,FlatInitial
08:38:23.042 PM 02/11/2016,Teleop Enabled,0,FALSE,0,NO ERROR,0.000000,0.000000,4000.000000,4000.000000,Speed,Speed,-0.600000,0.620000,1.440000,3.000000,102.000000,1,0,-0.012152,0.000248,0,0.000000,0.000000,0.000000,0.021042,0.159546,0.000000,0.003000,0.003000,0.000000,FlatInitial
08:38:23.142 PM 02/11/2016,Teleop Enabled,0,FALSE,0,NO ERROR,0.000000,0.000000,4000.000000,4000.000000,Speed,Speed,-0.600000,0.630000,1.440000,3.000000,103.000000,1,0,-0.012152,0.000248,0,0.000000,0.000000,0.000000,0.021042,0.159546,0.000000,0.016000,0.008000,0.007000,FlatInitial
08:38:23.243 PM 02/11/2016,Teleop Enabled,0,FALSE,0,NO ERROR,0.000000,0.000000,4000.000000,4000.000000,Speed,Speed,-0.600000,0.590000,1.440000,3.000000,102.000000,1,0,-0.012152,0.000248,0,0.000000,0.000000,0.000000,0.021042,0.159546,0.000000,-0.002000,-0.001000,-0.005000,FlatInitial
08:38:23.344 PM 02/11/2016,Teleop Enabled,0,FALSE,0,NO ERROR,0.000000,0.000000,4000.000000,4000.000000,Speed,Speed,-0.590000,0.640000,1.450000,3.000000,103.000000,1,0,-0.012152,0.000248,0,0.000000,0.000000,0.000000,0.021042,0.159546,0.000000,0.009000,0.000000,0.010000,FlatInitial
08:38:23.443 PM 02/11/2016,Teleop Enabled,0,FALSE,0,NO ERROR,0.000000,0.000000,4000.000000,4000.000000,Speed,Speed,-0.590000,0.570000,1.440000,3.000000,102.000000,1,0,-0.012152,0.000248,0,0.000000,0.000000,0.000000,0.021042,0.159546,0.000000,-0.004000,0.002000,-0.007000,FlatInitial
08:38:23.544 PM 02/11/2016,Teleop Enabled,0,FALSE,0,NO ERROR,0.000000,0.000000,4000.000000,4000.000000,Speed,Speed,-0.590000,0.530000,1.440000,3.000000,107.000000,1,0,-0.012152,0.000248,0,0.000000,0.000000,0.000000,0.021042,0.159546,0.000000,0.003000,-0.004000,0.001000,FlatInitial
08:38:23.646 PM 02/11/2016,Teleop Enabled,0,FALSE,0,NO ERROR,0.000000,0.000000,4000.000000,4000.000000,Speed,Speed,-0.590000,0.490000,1.420000,3.000000,103.000000,1,0,-0.012152,0.000248,0,0.000000,0.000000,0.000000,0.021042,0.159546,0.000000,0.000000,0.003000,0.007000,FlatInitial
08:38:23.746 PM 02/11/2016,Teleop Enabled,0,FALSE,0,NO ERROR,0.000000,0.000000,4000.000000,4000.000000,Speed,Speed,-0.600000,0.470000,1.430000,3.000000,102.000000,1,0,-0.012152,0.000248,0,0.000000,0.000000,0.000000,0.021042,0.159546,0.000000,0.003000,0.003000,-0.004000,FlatInitial
08:38:23.850 PM 02/11/2016,Teleop Enabled,0,FALSE,0,NO ERROR,0.000000,0.000000,4000.000000,4000.000000,Speed,Speed,-0.590000,0.440000,1.420000,3.000000,103.000000,1,0,-0.012152,0.000248,0,0.000000,0.000000,0.000000,0.021042,0.159546,0.000000,-0.007000,-0.004000,-0.004000,FlatInitial
08:38:23.949 PM 02/11/2016,Teleop Enabled,0,FALSE,0,NO ERROR,0.000000,0.000000,4000.000000,4000.000000,Speed,Speed,-0.590000,0.420000,1.410000,3.000000,102.000000,1,0,-0.012152,0.000248,0,0.000000,0.000000,0.000000,0.021042,0.159546,0.000000,0.013000,0.005000,-0.001000,FlatInitial
08:38:24.050 PM 02/11/2016,Teleop Enabled,0,FALSE,0,NO ERROR,0.000000,0.000000,4000.000000,4000.000000,Speed,Speed,-0.590000,0.410000,1.420000,3.000000,102.000000,1,0,-0.012152,0.000248,0,0.000000,0.000000,0.000000,0.021042,0.159546,0.000000,0.002000,-0.001000,0.000000,FlatInitial
08:38:24.151 PM 02/11/2016,Teleop Enabled,0,FALSE,0,NO ERROR,0.000000,0.000000,4000.000000,4000.000000,Speed,Speed,-0.590000,0.450000,1.430000,3.000000,103.000000,1,0,-0.012152,0.000248,0,0.000000,0.000000,0.000000,0.021042,0.159546,0.000000,0.009000,0.001000,0.001000,FlatInitial
08:38:24.251 PM 02/11/2016,Teleop Enabled,0,FALSE,0,NO ERROR,0.000000,0.000000,4000.000000,4000.000000,Speed,Speed,-0.590000,0.450000,1.420000,3.000000,102.000000,1,0,-0.012152,0.000248,0,0.000000,0.000000,0.000000,0.021042,0.159546,0.000000,-0.002000,-0.002000,-0.016000,FlatInitial
08:38:24.352 PM 02/11/2016,Teleop Enabled,0,FALSE,0,NO ERROR,0.000000,0.000000,4000.000000,4000.000000,Speed,Speed,-0.590000,0.420000,1.400000,3.000000,101.000000,1,0,-0.012152,0.000248,0,0.000000,0.000000,0.000000,0.021042,0.159546,0.000000,0.004000,0.000000,0.013000,FlatInitial
08:38:24.453 PM 02/11/2016,Teleop Enabled,0,FALSE,0,NO ERROR,0.000000,0.000000,4000.000000,4000.000000,Speed,Speed,-0.630000,0.390000,1.380000,3.000000,102.000000,1,0,-0.012152,0.000248,0,0.006760,0.000000,0.000000,0.021133,0.159546,0.000000,0.007000,0.013000,-0.033000,FlatInitial
08:38:24.554 PM 02/11/2016,Teleop Enabled,0,FALSE,0,NO ERROR,0.000000,0.000000,4000.000000,4000.000000,Speed,Speed,-0.880000,0.560000,1.380000,3.000000,102.000000,1,0,-0.012152,0.000248,0,0.034012,0.000000,0.000000,0.022141,0.159546,0.000000,0.048000,-0.005000,-0.017000,FlatInitial
08:38:24.654 PM 02/11/2016,Teleop Enabled,0,FALSE,0,NO ERROR,0.000000,0.000000,4000.000000,4000.000000,Speed,Speed,-1.720000,0.850000,1.400000,3.000000,102.000000,1,0,-0.012152,0.000248,0,0.076706,0.000000,0.000000,0.025131,0.159546,0.000000,0.030000,-0.003000,0.037000,FlatInitial
08:38:24.755 PM 02/11/2016,Teleop Enabled,0,FALSE,0,NO ERROR,0.000000,0.000000,4000.000000,4000.000000,Speed,Speed,-2.970000,0.870000,1.410000,3.000000,105.000000,1,0,-0.012152,0.000248,0,-0.003860,0.000000,0.000000,0.026810,0.159546,0.000000,-0.053000,0.004000,0.000000,FlatInitial
08:38:24.856 PM 02/11/2016,Teleop Enabled,0,FALSE,0,NO ERROR,0.000000,0.000000,4000.000000,4000.000000,Speed,Speed,-3.910000,0.680000,1.440000,3.000000,102.000000,1,0,-0.012152,0.000248,0,-0.070984,0.000000,0.000000,0.024368,0.159546,0.000000,-0.053000,-0.003000,0.008000,FlatInitial
08:38:24.956 PM 02/11/2016,Teleop Enabled,0,FALSE,0,NO ERROR,0.000000,0.000000,4000.000000,4000.000000,Speed,Speed,-4.060000,0.570000,1.470000,3.000000,101.000000,1,0,-0.012152,0.000248,0,0.000000,0.000000,0.000000,0.020782,0.159546,0.000000,-0.001000,-0.001000,-0.013000,FlatInitial
08:38:25.057 PM 02/11/2016,Teleop Enabled,0,FALSE,0,NO ERROR,0.000000,0.000000,4000.000000,4000.000000,Speed,Speed,-4.080000,0.600000,1.470000,3.000000,104.000000,1,0,-0.012152,0.000248,0,0.000000,0.000000,0.000000,0.020782,0.159546,0.000000,-0.005000,0.001000,-0.015000,FlatInitial
08:38:25.158 PM 02/11/2016,Teleop Enabled,0,FALSE,0,NO ERROR,0.000000,0.000000,4000.000000,4000.000000,Speed,Speed,-4.100000,0.530000,1.400000,3.000000,105.000000,1,0,-0.012152,0.000248,0,0.008896,-0.003906,0.000000,0.020966,0.159485,0.000000,-0.007000,-0.006000,-0.014000,FlatInitial
08:38:25.258 PM 02/11/2016,Teleop Enabled,0,FALSE,0,NO ERROR,0.000000,0.000000,4000.000000,4000.000000,Speed,Speed,-4.110000,0.550000,1.420000,3.000000,102.000000,1,0,-0.012152,0.000248,0,0.000000,0.000000,0.000000,0.020966,0.159439,0.000000,0.003000,0.004000,0.014000,FlatInitial
08:38:25.364 PM 02/11/2016,Teleop Enabled,0,FALSE,0,NO ERROR,0.000000,0.000000,4000.000000,4000.000000,Speed,Speed,-4.110000,0.640000,1.490000,3.000000,101.000000,1,0,-0.012152,0.000248,0,0.000000,0.000000,0.000000,0.020966,0.159439,0.000000,0.010000,0.014000,0.006000,FlatInitial
08:38:25.463 PM 02/11/2016,Teleop Enabled,0,FALSE,0,NO ERROR,0.000000,0.000000,4000.000000,4000.000000,Speed,Speed,-4.110000,0.530000,1.470000,3.000000,102.000000,1,0,-0.012152,0.000248,0,0.000000,0.000000,0.000000,0.020966,0.159439,0.000000,-0.005000,-0.006000,-0.006000,FlatInitial
08:38:25.564 PM 02/11/2016,Teleop Enabled,0,FALSE,0,NO ERROR,0.000000,0.000000,4000.000000,4000.000000,Speed,Speed,-4.100000,0.520000,1.470000,3.000000,101.000000,1,0,-0.012152,0.000248,0,0.000000,0.000000,0.000000,0.020966,0.159439,0.000000,0.002000,-0.004000,-0.003000,FlatInitial
08:38:25.664 PM 02/11/2016,Teleop Enabled,0,FALSE,0,NO ERROR,0.000000,0.000000,4000.000000,4000.000000,Speed,Speed,-4.090000,0.570000,1.450000,3.000000,101.000000,1,0,-0.012152,0.000248,0,0.117737,0.032089,0.000000,0.024384,0.160049,0.000000,-0.001000,-0.009000,0.036000,FlatInitial
08:38:25.766 PM 02/11/2016,Teleop Enabled,0,FALSE,0,NO ERROR,0.000000,0.000000,4000.000000,4000.000000,Speed,Speed,-4.080000,0.570000,1.440000,3.000000,103.000000,1,0,-0.012152,0.000248,0,0.101822,-0.003845,0.000000,0.030045,0.160141,0.000000,-0.058000,-0.020000,-0.056000,FlatInitial
08:38:25.867 PM 02/11/2016,Teleop Enabled,0,FALSE,0,NO ERROR,0.000000,0.000000,4000.000000,4000.000000,Speed,Speed,-4.080000,0.520000,1.450000,3.000000,104.000000,1,0,-0.012152,0.000248,0,0.000000,0.000000,0.000000,0.032684,0.160095,0.000000,-0.019000,0.018000,-0.021000,FlatInitial
08:38:25.967 PM 02/11/2016,Teleop Enabled,0,FALSE,0,NO ERROR,0.000000,0.000000,4000.000000,4000.000000,Speed,Speed,-4.080000,0.480000,1.450000,3.000000,104.000000,1,0,-0.012152,0.000248,0,-0.006058,0.000000,0.000000,0.032532,0.160095,0.000000,-0.004000,0.006000,-0.014000,FlatInitial
08:38:26.068 PM 02/11/2016,Teleop Enabled,0,FALSE,0,NO ERROR,0.000000,0.000000,4000.000000,4000.000000,Speed,Speed,-4.070000,0.560000,1.480000,3.000000,101.000000,1,0,-0.012152,0.000248,0,0.000000,0.000000,0.000000,0.032532,0.160095,0.000000,0.008000,0.007000,0.002000,FlatInitial
08:38:26.170 PM 02/11/2016,Teleop Enabled,0,FALSE,0,NO ERROR,0.000000,0.000000,4000.000000,4000.000000,Speed,Speed,-4.070000,0.580000,1.490000,3.000000,102.000000,1,0,-0.012152,0.000248,0,0.000000,0.000000,0.000000,0.032532,0.160095,0.000000,0.003000,-0.004000,0.014000,FlatInitial
08:38:26.270 PM 02/11/2016,Teleop Enabled,0,FALSE,0,NO ERROR,0.000000,0.000000,4000.000000,4000.000000,Speed,Speed,-4.080000,0.540000,1.470000,3.000000,102.000000,1,0,-0.012152,0.000248,0,0.000000,0.000000,0.000000,0.032532,0.160095,0.000000,-0.007000,0.004000,-0.015000,FlatInitial
08:38:26.369 PM 02/11/2016,Teleop Enabled,0,FALSE,0,NO ERROR,0.000000,0.000000,4000.000000,4000.000000,Speed,Speed,-4.080000,0.520000,1.470000,3.000000,101.000000,1,0,-0.012152,0.000248,0,0.000000,0.000000,0.000000,0.032532,0.160095,0.000000,0.001000,0.001000,-0.006000,FlatInitial
08:38:26.470 PM 02/11/2016,Teleop Enabled,0,FALSE,0,NO ERROR,0.000000,0.000000,4000.000000,4000.000000,Speed,Speed,-4.080000,0.510000,1.460000,3.000000,101.000000,1,0,-0.012152,0.000248,0,0.000000,0.000000,0.000000,0.032532,0.160095,0.000000,0.006000,0.001000,0.005000,FlatInitial
08:38:26.573 PM 02/11/2016,Teleop Enabled,0,FALSE,0,NO ERROR,0.000000,0.000000,4000.000000,4000.000000,Speed,Speed,-4.080000,0.490000,1.470000,3.000000,101.000000,1,0,-0.012152,0.000248,0,0.000000,0.000000,0.000000,0.032532,0.160095,0.000000,-0.005000,-0.001000,0.001000,FlatInitial
08:38:26.672 PM 02/11/2016,Teleop Enabled,0,FALSE,0,NO ERROR,0.000000,0.000000,4000.000000,4000.000000,Speed,Speed,-4.080000,0.490000,1.470000,3.000000,101.000000,1,0,-0.012152,0.000248,0,0.000000,0.000000,0.000000,0.032532,0.160095,0.000000,0.006000,-0.001000,0.008000,FlatInitial
08:38:26.773 PM 02/11/2016,Teleop Enabled,0,FALSE,0,NO ERROR,0.000000,0.000000,4000.000000,4000.000000,Speed,Speed,-4.080000,0.480000,1.480000,3.000000,103.000000,1,0,-0.012152,0.000248,0,0.000000,0.000000,0.000000,0.032532,0.160095,0.000000,0.001000,0.000000,-0.001000,FlatInitial
08:38:26.873 PM 02/11/2016,Teleop Enabled,0,FALSE,0,NO ERROR,0.000000,0.000000,4000.000000,4000.000000,Speed,Speed,-4.070000,0.470000,1.470000,3.000000,101.000000,1,0,-0.012152,0.000248,0,0.000000,0.000000,0.000000,0.032532,0.160095,0.000000,0.000000,0.000000,0.007000,FlatInitial
08:38:26.973 PM 02/11/2016,Teleop Enabled,0,FALSE,0,NO ERROR,0.000000,0.000000,4000.000000,4000.000000,Speed,Speed,-4.070000,0.480000,1.470000,3.000000,103.000000,1,0,-0.012152,0.000248,0,0.000000,0.000000,0.000000,0.032532,0.160095,0.000000,0.002000,0.005000,0.001000,FlatInitial
08:38:27.072 PM 02/11/2016,Teleop Enabled,0,FALSE,0,NO ERROR,0.000000,0.000000,4000.000000,4000.000000,Speed,Speed,-4.070000,0.450000,1.470000,3.000000,101.000000,1,0,-0.012152,0.000248,0,0.000000,0.000000,0.000000,0.032532,0.160095,0.000000,-0.002000,-0.005000,-0.014000,FlatInitial
08:38:27.173 PM 02/11/2016,Teleop Enabled,0,FALSE,0,NO ERROR,0.000000,0.000000,4000.000000,4000.000000,Speed,Speed,-4.070000,0.480000,1.480000,3.000000,102.000000,1,0,-0.012152,0.000248,0,0.000000,0.000000,0.000000,0.032532,0.160095,0.000000,0.002000,0.002000,0.005000,FlatInitial
08:38:27.273 PM 02/11/2016,Teleop Enabled,0,FALSE,0,NO ERROR,0.000000,0.000000,4000.000000,4000.000000,Speed,Speed,-4.070000,0.470000,1.480000,3.000000,102.000000,1,0,-0.012152,0.000248,0,0.000000,0.000000,0.000000,0.032532,0.160095,0.000000,0.004000,0.001000,0.001000,FlatInitial
08:38:27.374 PM 02/11/2016,Teleop Enabled,0,FALSE,0,NO ERROR,0.000000,0.000000,4000.000000,4000.000000,Speed,Speed,-4.060000,0.480000,1.480000,3.000000,102.000000,1,0,-0.012152,0.000248,0,0.000000,0.000000,0.000000,0.032532,0.160095,0.000000,0.006000,0.004000,0.001000,FlatInitial
08:38:27.475 PM 02/11/2016,Teleop Enabled,0,FALSE,0,NO ERROR,0.000000,0.000000,4000.000000,4000.000000,Speed,Speed,-4.070000,0.480000,1.470000,3.000000,102.000000,1,0,-0.012152,0.000248,0,0.000000,0.000000,0.000000,0.032532,0.160095,0.000000,-0.001000,0.000000,-0.001000,FlatInitial
08:38:27.575 PM 02/11/2016,Teleop Enabled,0,FALSE,0,NO ERROR,0.000000,0.000000,4000.000000,4000.000000,Speed,Speed,-4.060000,0.450000,1.460000,3.000000,104.000000,1,0,-0.012152,0.000248,0,0.000000,0.000000,0.000000,0.032532,0.160095,0.000000,0.003000,0.003000,0.008000,FlatInitial
08:38:27.675 PM 02/11/2016,Teleop Enabled,0,FALSE,0,NO ERROR,0.000000,0.000000,4000.000000,4000.000000,Speed,Speed,-4.060000,0.480000,1.470000,3.000000,103.000000,1,0,-0.012152,0.000248,0,0.000000,0.000000,0.000000,0.032532,0.160095,0.000000,0.001000,-0.001000,-0.005000,FlatInitial
08:38:27.775 PM 02/11/2016,Teleop Enabled,0,FALSE,0,NO ERROR,0.000000,0.000000,4000.000000,4000.000000,Speed,Speed,-4.050000,0.500000,1.470000,3.000000,102.000000,1,0,-0.012152,0.000248,0,0.000000,0.000000,0.000000,0.032532,0.160095,0.000000,0.003000,0.005000,0.007000,FlatInitial
08:38:27.876 PM 02/11/2016,Teleop Enabled,0,FALSE,0,NO ERROR,0.000000,0.000000,4000.000000,4000.000000,Speed,Speed,-4.040000,0.470000,1.480000,3.000000,102.000000,1,0,-0.012152,0.000248,0,0.000000,0.000000,0.000000,0.032532,0.160095,0.000000,0.001000,0.000000,-0.001000,FlatInitial
08:38:27.977 PM 02/11/2016,Teleop Enabled,0,FALSE,0,NO ERROR,0.000000,0.000000,4000.000000,4000.000000,Speed,Speed,-4.040000,0.480000,1.470000,3.000000,103.000000,1,0,-0.012152,0.000248,0,0.000000,0.000000,0.000000,0.032532,0.160095,0.000000,0.003000,0.002000,0.007000,FlatInitial
08:38:28.077 PM 02/11/2016,Teleop Enabled,0,FALSE,0,NO ERROR,0.000000,0.000000,4000.000000,4000.000000,Speed,Speed,-4.040000,0.420000,1.470000,3.000000,101.000000,1,0,-0.012152,0.000248,0,0.000000,0.000000,0.000000,0.032532,0.160095,0.000000,0.003000,-0.007000,-0.007000,FlatInitial
08:38:28.178 PM 02/11/2016,Teleop Enabled,0,FALSE,0,NO ERROR,0.000000,0.000000,4000.000000,4000.000000,Speed,Speed,-4.040000,0.410000,1.460000,3.000000,101.000000,1,0,-0.012152,0.000248,0,0.000000,0.000000,0.000000,0.032532,0.160095,0.000000,0.005000,0.003000,-0.005000,FlatInitial
08:38:28.279 PM 02/11/2016,Teleop Enabled,0,FALSE,0,NO ERROR,0.000000,0.000000,4000.000000,4000.000000,Speed,Speed,-4.040000,0.270000,1.450000,3.000000,102.000000,1,0,-0.012152,0.000248,0,0.000000,0.000000,0.000000,0.032532,0.160095,0.000000,-0.005000,0.002000,-0.007000,FlatInitial
08:38:28.378 PM 02/11/2016,Teleop Enabled,0,FALSE,0,NO ERROR,0.000000,0.000000,4000.000000,4000.000000,Speed,Speed,-4.040000,0.240000,1.430000,3.000000,106.000000,1,0,-0.012152,0.000248,0,0.000000,0.000000,0.000000,0.032532,0.160095,0.000000,0.004000,-0.003000,0.006000,FlatInitial
08:38:28.478 PM 02/11/2016,Teleop Enabled,0,FALSE,0,NO ERROR,0.000000,0.000000,4000.000000,4000.000000,Speed,Speed,-4.040000,0.230000,1.430000,3.000000,100.000000,1,0,-0.012152,0.000248,0,0.000000,0.000000,0.000000,0.032532,0.160095,0.000000,0.002000,0.002000,-0.005000,FlatInitial
08:38:28.578 PM 02/11/2016,Teleop Enabled,0,FALSE,0,NO ERROR,0.000000,0.000000,4000.000000,4000.000000,Speed,Speed,-4.030000,0.170000,1.410000,3.000000,105.000000,1,0,-0.012152,0.000248,0,0.000000,0.000000,0.000000,0.032532,0.160095,0.000000,-0.001000,0.002000,-0.007000,FlatInitial
08:38:28.678 PM 02/11/2016,Teleop Enabled,0,FALSE,0,NO ERROR,0.000000,0.000000,4000.000000,4000.000000,Speed,Speed,-4.020000,0.120000,1.410000,3.000000,102.000000,1,0,-0.012152,0.000248,0,0.000000,0.000000,0.000000,0.032532,0.160095,0.000000,0.002000,0.000000,0.006000,FlatInitial
08:38:28.778 PM 02/11/2016,Teleop Enabled,0,FALSE,0,NO ERROR,0.000000,0.000000,4000.000000,4000.000000,Speed,Speed,-4.020000,0.140000,1.390000,3.000000,105.000000,1,0,-0.012152,0.000248,0,0.000000,0.000000,0.000000,0.032532,0.160095,0.000000,0.010000,0.008000,0.005000,FlatInitial
08:38:28.878 PM 02/11/2016,Teleop Enabled,0,FALSE,0,NO ERROR,0.000000,0.000000,4000.000000,4000.000000,Speed,Speed,-4.020000,-0.070000,1.350000,3.000000,100.000000,1,0,-0.012152,0.000248,0,0.000000,0.000000,0.000000,0.032532,0.160095,0.000000,-0.010000,0.003000,-0.011000,FlatInitial
08:38:28.978 PM 02/11/2016,Teleop Enabled,0,FALSE,0,NO ERROR,0.000000,0.000000,4000.000000,4000.000000,Speed,Speed,-4.020000,-0.040000,1.330000,3.000000,103.000000,1,0,-0.012152,0.000248,0,0.000000,0.000000,0.000000,0.032532,0.160095,0.000000,-0.001000,-0.006000,-0.015000,FlatInitial
08:38:29.078 PM 02/11/2016,Teleop Enabled,0,FALSE,0,NO ERROR,0.000000,0.000000,4000.000000,4000.000000,Speed,Speed,-4.020000,0.270000,1.410000,3.000000,102.000000,1,0,-0.012152,0.000248,0,0.008698,0.000000,0.000000,0.032654,0.160095,0.000000,0.020000,0.011000,-0.013000,FlatInitial
08:38:29.178 PM 02/11/2016,Teleop Enabled,0,FALSE,0,NO ERROR,0.000000,0.000000,4000.000000,4000.000000,Speed,Speed,-4.020000,0.270000,1.410000,3.000000,102.000000,1,0,-0.012152,0.000248,0,0.000000,0.000000,0.000000,0.032761,0.160095,0.000000,-0.015000,0.007000,-0.013000,FlatInitial
08:38:29.278 PM 02/11/2016,Teleop Enabled,0,FALSE,0,NO ERROR,0.000000,0.000000,4000.000000,4000.000000,Speed,Speed,-4.020000,0.460000,1.460000,3.000000,101.000000,1,0,-0.012152,0.000248,0,-0.002182,0.000000,0.000000,0.032623,0.160095,0.000000,0.004000,0.018000,0.013000,FlatInitial
08:38:29.378 PM 02/11/2016,Teleop Enabled,0,FALSE,0,NO ERROR,0.000000,0.000000,4000.000000,4000.000000,Speed,Speed,-4.020000,0.570000,1.500000,3.000000,103.000000,1,0,-0.012152,0.000248,0,0.000000,0.000000,0.000000,0.032913,0.160095,0.000000,-0.003000,0.002000,-0.004000,FlatInitial
08:38:29.480 PM 02/11/2016,Teleop Enabled,0,FALSE,0,NO ERROR,0.000000,0.000000,4000.000000,4000.000000,Speed,Speed,-4.010000,0.410000,1.450000,3.000000,101.000000,1,0,-0.012152,0.000248,0,0.000000,0.000000,0.000000,0.032913,0.160095,0.000000,-0.003000,0.001000,0.004000,FlatInitial
08:38:29.580 PM 02/11/2016,Teleop Enabled,0,FALSE,0,NO ERROR,0.000000,0.000000,4000.000000,4000.000000,Speed,Speed,-4.020000,0.460000,1.470000,3.000000,102.000000,1,0,-0.012152,0.000248,0,0.000000,0.000000,0.000000,0.032913,0.160095,0.000000,0.011000,0.004000,0.004000,FlatInitial
08:38:29.683 PM 02/11/2016,Teleop Enabled,0,FALSE,0,NO ERROR,0.000000,0.000000,4000.000000,4000.000000,Speed,Speed,-4.010000,0.330000,1.440000,3.000000,101.000000,1,0,-0.012152,0.000248,0,0.000000,0.000000,0.000000,0.032913,0.160095,0.000000,0.008000,-0.004000,0.001000,FlatInitial
08:38:29.783 PM 02/11/2016,Teleop Enabled,0,FALSE,0,NO ERROR,0.000000,0.000000,4000.000000,4000.000000,Speed,Speed,-4.010000,0.210000,1.400000,3.000000,103.000000,1,0,-0.012152,0.000248,0,0.000000,0.000000,0.000000,0.032913,0.160095,0.000000,0.000000,-0.006000,-0.007000,FlatInitial
08:38:29.884 PM 02/11/2016,Teleop Enabled,0,FALSE,0,NO ERROR,0.000000,0.000000,4000.000000,4000.000000,Speed,Speed,-4.010000,0.250000,1.410000,3.000000,102.000000,1,0,-0.012152,0.000248,0,0.000000,0.000000,0.000000,0.032913,0.160095,0.000000,0.013000,0.000000,0.029000,FlatInitial
08:38:29.986 PM 02/11/2016,Teleop Enabled,0,FALSE,0,NO ERROR,0.000000,0.000000,4000.000000,4000.000000,Speed,Speed,-4.010000,0.220000,1.410000,3.000000,102.000000,1,0,-0.012152,0.000248,0,0.000000,0.000000,0.000000,0.032913,0.160095,0.000000,0.002000,-0.001000,-0.001000,FlatInitial
08:38:30.086 PM 02/11/2016,Teleop Enabled,0,FALSE,0,NO ERROR,0.000000,0.000000,4000.000000,4000.000000,Speed,Speed,-4.010000,0.230000,1.390000,3.000000,102.000000,1,0,-0.012152,0.000248,0,-0.007187,-0.005020,0.000000,0.032837,0.160034,0.000000,-0.084000,-0.040000,-0.085000,FlatInitial
08:38:30.187 PM 02/11/2016,Teleop Enabled,0,FALSE,0,NO ERROR,0.000000,0.000000,4000.000000,4000.000000,Speed,Speed,-4.010000,0.360000,1.410000,3.000000,103.000000,1,0,-0.012152,0.000248,0,0.000000,0.000000,0.000000,0.032578,0.159882,0.000000,0.000000,0.002000,-0.013000,FlatInitial
08:38:30.288 PM 02/11/2016,Teleop Enabled,0,FALSE,0,NO ERROR,0.000000,0.000000,4000.000000,4000.000000,Speed,Speed,-4.010000,0.430000,1.430000,3.000000,102.000000,1,0,-0.012152,0.000248,0,0.000000,0.000000,0.000000,0.032578,0.159882,0.000000,0.009000,-0.005000,0.028000,FlatInitial
08:38:30.388 PM 02/11/2016,Teleop Enabled,0,FALSE,0,NO ERROR,0.000000,0.000000,4000.000000,4000.000000,Speed,Speed,-4.010000,0.480000,1.440000,3.000000,101.000000,1,0,-0.012152,0.000248,0,0.000000,0.000000,0.000000,0.032578,0.159882,0.000000,0.006000,-0.001000,0.000000,FlatInitial
08:38:30.489 PM 02/11/2016,Teleop Enabled,0,FALSE,0,NO ERROR,0.000000,0.000000,4000.000000,4000.000000,Speed,Speed,-4.010000,0.490000,1.450000,3.000000,103.000000,1,0,-0.012152,0.000248,0,0.000000,0.000000,0.000000,0.032578,0.159882,0.000000,-0.004000,0.007000,-0.008000,FlatInitial
08:38:30.591 PM 02/11/2016,Teleop Enabled,0,FALSE,0,NO ERROR,0.000000,0.000000,4000.000000,4000.000000,Speed,Speed,-4.010000,0.460000,1.440000,3.000000,102.000000,1,0,-0.012152,0.000248,0,0.000000,0.000000,0.000000,0.032578,0.159882,0.000000,-0.004000,-0.003000,-0.015000,FlatInitial
08:38:30.691 PM 02/11/2016,Teleop Enabled,0,FALSE,0,NO ERROR,0.000000,0.000000,4000.000000,4000.000000,Speed,Speed,-4.010000,0.510000,1.450000,3.000000,102.000000,1,0,-0.012152,0.000248,0,0.000000,0.000000,0.000000,0.032578,0.159882,0.000000,0.010000,0.012000,-0.014000,FlatInitial
08:38:30.790 PM 02/11/2016,Teleop Enabled,0,FALSE,0,NO ERROR,0.000000,0.000000,4000.000000,4000.000000,Speed,Speed,-4.020000,0.440000,1.430000,3.000000,103.000000,1,0,-0.012152,0.000248,0,0.000000,0.000000,0.000000,0.032578,0.159882,0.000000,0.001000,0.003000,0.000000,FlatInitial
08:38:30.891 PM 02/11/2016,Teleop Enabled,0,FALSE,0,NO ERROR,0.000000,0.000000,4000.000000,4000.000000,Speed,Speed,-4.020000,0.450000,1.430000,3.000000,101.000000,1,0,-0.012152,0.000248,0,0.000000,0.000000,0.000000,0.032578,0.159882,0.000000,0.010000,0.003000,0.004000,FlatInitial
08:38:30.990 PM 02/11/2016,Teleop Enabled,0,FALSE,0,NO ERROR,0.000000,0.000000,4000.000000,4000.000000,Speed,Speed,-4.010000,0.440000,1.440000,3.000000,102.000000,1,0,-0.012152,0.000248,0,0.000000,0.000000,0.000000,0.032578,0.159882,0.000000,-0.003000,-0.005000,-0.002000,FlatInitial
08:38:31.091 PM 02/11/2016,Teleop Enabled,0,FALSE,0,NO ERROR,0.000000,0.000000,4000.000000,4000.000000,Speed,Speed,-4.020000,0.430000,1.430000,3.000000,102.000000,1,0,-0.012152,0.000248,0,0.000000,0.000000,0.000000,0.032578,0.159882,0.000000,-0.002000,-0.005000,-0.003000,FlatInitial
08:38:31.190 PM 02/11/2016,Teleop Enabled,0,FALSE,0,NO ERROR,0.000000,0.000000,4000.000000,4000.000000,Speed,Speed,-4.010000,0.500000,1.450000,3.000000,102.000000,1,0,-0.012152,0.000248,0,0.003494,0.000000,0.000000,0.032608,0.159882,0.000000,0.020000,0.006000,0.014000,FlatInitial
08:38:31.290 PM 02/11/2016,Teleop Enabled,0,FALSE,0,NO ERROR,0.000000,0.000000,4000.000000,4000.000000,Speed,Speed,-4.020000,0.460000,1.290000,4.000000,101.000000,1,0,-0.012152,0.000248,0,-0.027191,0.003098,0.000000,0.032425,0.159897,0.000000,0.109000,0.262000,0.058000,FlatInitial
08:38:31.391 PM 02/11/2016,Teleop Enabled,0,FALSE,0,NO ERROR,0.000000,0.000000,9000.000000,9000.000000,Speed,Speed,-3.990000,0.830000,1.230000,4.000000,102.000000,1,0,-0.012152,0.000248,0,-0.112228,-0.034027,0.000000,0.028931,0.162704,0.000000,-0.418000,-0.200000,-0.121000,FlatInitial
08:38:31.491 PM 02/11/2016,Teleop Enabled,0,FALSE,0,NO ERROR,0.000000,0.000000,9000.000000,9000.000000,Speed,Speed,-3.990000,0.720000,1.260000,4.000000,102.000000,1,0,-0.012152,0.000248,0,-0.097153,0.081284,0.000000,0.023224,0.165421,0.000000,-0.418000,-0.200000,-0.121000,FlatInitial
08:38:31.592 PM 02/11/2016,Teleop Enabled,0,FALSE,0,NO ERROR,0.000000,0.000000,9000.000000,9000.000000,Speed,Speed,-4.000000,0.600000,1.220000,4.000000,102.000000,1,0,-0.012152,0.000248,0,-0.097153,0.081284,0.000000,0.023224,0.165421,0.000000,-0.080000,0.068000,-0.205000,FlatInitial
08:38:31.692 PM 02/11/2016,Teleop Enabled,0,FALSE,0,NO ERROR,0.000000,0.000000,9000.000000,9000.000000,Speed,Speed,-3.990000,0.570000,1.220000,4.000000,106.000000,1,0,-0.012152,0.000248,0,-0.003052,0.000000,0.000000,0.015991,0.171112,0.000000,0.040000,-0.016000,0.031000,FlatInitial
08:38:31.792 PM 02/11/2016,Teleop Enabled,0,FALSE,0,NO ERROR,0.000000,0.000000,9000.000000,9000.000000,Speed,Speed,-3.980000,0.520000,1.220000,4.000000,105.000000,1,0,-0.012152,0.000248,0,-0.003052,0.000000,0.000000,0.015991,0.171112,0.000000,-0.020000,0.004000,-0.032000,FlatInitial
08:38:31.893 PM 02/11/2016,Teleop Enabled,0,FALSE,0,NO ERROR,0.000000,0.000000,9000.000000,9000.000000,Speed,Speed,-3.990000,0.580000,1.230000,4.000000,101.000000,1,0,-0.012152,0.000248,0,0.000000,0.013168,0.000000,0.015717,0.171371,0.000000,0.019000,0.025000,-0.016000,FlatInitial
08:38:31.993 PM 02/11/2016,Teleop Enabled,0,FALSE,0,NO ERROR,0.000000,0.000000,9000.000000,9000.000000,Speed,Speed,-3.980000,0.470000,1.230000,4.000000,104.000000,1,0,-0.012152,0.000248,0,-0.002045,0.000000,0.000000,0.015686,0.171692,0.000000,-0.022000,-0.001000,-0.006000,FlatInitial
08:38:32.093 PM 02/11/2016,Teleop Enabled,0,FALSE,0,NO ERROR,0.000000,0.000000,9000.000000,9000.000000,Speed,Speed,-3.980000,0.470000,1.230000,4.000000,104.000000,1,0,-0.012152,0.000248,0,-0.001877,-0.001434,0.000000,0.015579,0.171661,0.000000,-0.005000,-0.002000,-0.009000,FlatInitial
08:38:32.193 PM 02/11/2016,Teleop Enabled,0,FALSE,0,NO ERROR,0.000000,0.000000,9000.000000,9000.000000,Speed,Speed,-3.980000,0.500000,1.240000,4.000000,104.000000,1,0,-0.012152,0.000248,0,-0.001877,-0.001434,0.000000,0.015579,0.171661,0.000000,0.050000,0.000000,0.068000,FlatInitial
08:38:32.294 PM 02/11/2016,Teleop Enabled,0,FALSE,0,NO ERROR,0.000000,0.000000,9000.000000,9000.000000,Speed,Speed,-3.980000,0.410000,1.240000,4.000000,101.000000,1,0,-0.012152,0.000248,0,0.006866,-0.017792,0.000000,0.016113,0.171082,0.000000,0.003000,-0.092000,0.055000,FlatInitial
08:38:32.395 PM 02/11/2016,Teleop Enabled,0,FALSE,0,NO ERROR,0.000000,0.000000,9000.000000,9000.000000,Speed,Speed,-3.970000,0.430000,1.250000,4.000000,103.000000,1,0,-0.012152,0.000248,0,0.006866,-0.017792,0.000000,0.016113,0.171082,0.000000,0.009000,0.049000,0.058000,FlatInitial
08:38:32.495 PM 02/11/2016,Teleop Enabled,0,FALSE,0,NO ERROR,0.000000,0.000000,9000.000000,9000.000000,Speed,Speed,-3.970000,0.360000,1.230000,4.000000,103.000000,1,0,-0.012152,0.000248,0,0.004547,-0.011719,0.000000,0.016327,0.170746,0.000000,0.056000,0.040000,0.058000,FlatInitial
08:38:32.598 PM 02/11/2016,Teleop Enabled,0,FALSE,0,NO ERROR,0.000000,0.000000,9000.000000,9000.000000,Speed,Speed,-3.970000,0.360000,1.230000,4.000000,102.000000,1,0,-0.012152,0.000248,0,0.014938,0.000809,0.000000,0.017075,0.170776,0.000000,-0.005000,-0.004000,0.068000,FlatInitial
08:38:32.699 PM 02/11/2016,Teleop Enabled,0,FALSE,0,NO ERROR,0.000000,0.000000,9000.000000,9000.000000,Speed,Speed,-3.980000,0.400000,1.280000,4.000000,101.000000,1,0,-0.012152,0.000248,0,0.004776,0.005127,0.000000,0.017441,0.171066,0.000000,-0.005000,0.011000,0.058000,FlatInitial
08:38:32.799 PM 02/11/2016,Teleop Enabled,0,FALSE,0,NO ERROR,0.000000,0.000000,9000.000000,9000.000000,Speed,Speed,-3.980000,0.410000,1.300000,4.000000,103.000000,1,0,-0.012152,0.000248,0,0.003342,-0.017944,0.000000,0.017380,0.170715,0.000000,0.020000,-0.018000,0.044000,FlatInitial
08:38:32.899 PM 02/11/2016,Teleop Enabled,0,FALSE,0,NO ERROR,0.000000,0.000000,9000.000000,9000.000000,Speed,Speed,-3.980000,0.410000,1.300000,4.000000,102.000000,1,0,-0.012152,0.000248,0,-0.001068,0.007523,0.000000,0.016922,0.170380,0.000000,0.047000,0.019000,-0.011000,FlatInitial
08:38:32.999 PM 02/11/2016,Teleop Enabled,0,FALSE,0,NO ERROR,0.000000,0.000000,9000.000000,9000.000000,Speed,Speed,-3.980000,0.470000,1.340000,4.000000,101.000000,1,0,-0.012152,0.000248,0,-0.001068,0.007523,0.000000,0.016922,0.170380,0.000000,0.017000,0.019000,0.045000,FlatInitial
08:38:33.099 PM 02/11/2016,Teleop Enabled,0,FALSE,0,NO ERROR,0.000000,0.000000,9000.000000,9000.000000,Speed,Speed,-3.980000,0.470000,1.340000,4.000000,103.000000,1,0,-0.012152,0.000248,0,0.011307,0.010559,0.000000,0.017227,0.171310,0.000000,-0.035000,-0.007000,-0.072000,FlatInitial
08:38:33.200 PM 02/11/2016,Teleop Enabled,0,FALSE,0,NO ERROR,0.000000,0.000000,9000.000000,9000.000000,Speed,Speed,-3.990000,0.440000,1.320000,4.000000,102.000000,1,0,-0.012152,0.000248,0,0.003265,0.005722,0.000000,0.017349,0.171539,0.000000,0.027000,0.009000,0.053000,FlatInitial
08:38:33.302 PM 02/11/2016,Teleop Enabled,0,FALSE,0,NO ERROR,0.000000,0.000000,9000.000000,9000.000000,Speed,Speed,-3.990000,0.440000,1.330000,4.000000,105.000000,1,0,-0.012152,0.000248,0,-0.005096,0.007339,0.000000,0.017441,0.172028,0.000000,0.024000,0.093000,-0.045000,FlatInitial
08:38:33.403 PM 02/11/2016,Teleop Enabled,0,FALSE,0,NO ERROR,0.000000,0.000000,9000.000000,9000.000000,Speed,Speed,-4.000000,0.400000,1.350000,4.000000,101.000000,1,0,-0.012152,0.000248,0,-0.001511,0.009598,0.000000,0.017624,0.172623,0.000000,-0.032000,0.013000,-0.098000,FlatInitial
08:38:33.504 PM 02/11/2016,Teleop Enabled,0,FALSE,0,NO ERROR,0.000000,0.000000,9000.000000,9000.000000,Speed,Speed,-4.000000,0.450000,1.370000,4.000000,102.000000,1,0,-0.012152,0.000248,0,0.000320,-0.000275,0.000000,0.017456,0.172729,0.000000,0.059000,-0.066000,0.053000,FlatInitial
08:38:33.603 PM 02/11/2016,Teleop Enabled,0,FALSE,0,NO ERROR,0.000000,0.000000,9000.000000,9000.000000,Speed,Speed,-4.000000,0.370000,1.330000,4.000000,101.000000,1,0,-0.012152,0.000248,0,0.000000,-0.013672,0.000000,0.017319,0.172470,0.000000,-0.011000,-0.039000,0.059000,FlatInitial
08:38:33.704 PM 02/11/2016,Teleop Enabled,0,FALSE,0,NO ERROR,0.000000,0.000000,9000.000000,9000.000000,Speed,Speed,-4.000000,0.360000,1.310000,4.000000,102.000000,1,0,-0.012152,0.000248,0,-0.021103,-0.034912,0.000000,0.016876,0.171219,0.000000,-0.007000,0.014000,0.034000,FlatInitial
08:38:33.805 PM 02/11/2016,Teleop Enabled,0,FALSE,0,NO ERROR,0.000000,0.000000,9000.000000,9000.000000,Speed,Speed,-4.000000,0.410000,1.350000,4.000000,103.000000,1,0,-0.012152,0.000248,0,0.013733,-0.033951,0.000000,0.016998,0.169724,0.000000,0.078000,-0.012000,0.019000,FlatInitial
08:38:33.905 PM 02/11/2016,Teleop Enabled,0,FALSE,0,NO ERROR,0.000000,0.000000,9000.000000,9000.000000,Speed,Speed,-4.000000,0.340000,1.350000,4.000000,101.000000,1,0,-0.012152,0.000248,0,0.009842,-0.023178,0.000000,0.017532,0.168472,0.000000,0.071000,-0.027000,-0.024000,FlatInitial
08:38:34.006 PM 02/11/2016,Teleop Enabled,0,FALSE,0,NO ERROR,0.000000,0.000000,9000.000000,9000.000000,Speed,Speed,-4.000000,0.320000,1.360000,4.000000,101.000000,1,0,-0.012152,0.000248,0,0.014175,-0.013565,0.000000,0.018005,0.167252,0.000000,-0.005000,0.018000,-0.022000,FlatInitial
08:38:34.107 PM 02/11/2016,Teleop Enabled,0,FALSE,0,NO ERROR,0.000000,0.000000,9000.000000,9000.000000,Speed,Speed,-4.000000,0.310000,1.350000,4.000000,102.000000,1,0,-0.012152,0.000248,0,0.018555,-0.021179,0.000000,0.018585,0.166489,0.000000,-0.011000,-0.024000,0.088000,FlatInitial
08:38:34.208 PM 02/11/2016,Teleop Enabled,0,FALSE,0,NO ERROR,0.000000,0.000000,9000.000000,9000.000000,Speed,Speed,-4.000000,0.240000,1.340000,4.000000,108.000000,1,0,-0.012152,0.000248,0,0.014053,-0.011124,0.000000,0.019073,0.165695,0.000000,0.023000,-0.024000,0.063000,FlatInitial
08:38:34.309 PM 02/11/2016,Teleop Enabled,0,FALSE,0,NO ERROR,0.000000,0.000000,9000.000000,9000.000000,Speed,Speed,-4.000000,0.230000,1.300000,4.000000,101.000000,1,0,-0.012152,0.000248,0,0.004593,-0.010818,0.000000,0.019379,0.165192,0.000000,0.022000,-0.027000,0.021000,FlatInitial
08:38:34.409 PM 02/11/2016,Teleop Enabled,0,FALSE,0,NO ERROR,0.000000,0.000000,9000.000000,9000.000000,Speed,Speed,-4.000000,0.280000,1.310000,4.000000,107.000000,1,0,-0.012152,0.000248,0,0.020538,0.001343,0.000000,0.019989,0.164978,0.000000,0.008000,0.037000,0.064000,FlatInitial
08:38:34.509 PM 02/11/2016,Teleop Enabled,0,FALSE,0,NO ERROR,0.000000,0.000000,9000.000000,9000.000000,Speed,Speed,-4.000000,0.290000,1.370000,4.000000,102.000000,1,0,-0.012152,0.000248,0,0.025818,0.023697,0.000000,0.021027,0.165771,0.000000,-0.035000,0.011000,0.020000,FlatInitial
08:38:34.610 PM 02/11/2016,Teleop Enabled,0,FALSE,0,NO ERROR,0.000000,0.000000,9000.000000,9000.000000,Speed,Speed,-4.000000,0.340000,1.410000,4.000000,103.000000,1,0,-0.012152,0.000248,0,0.020554,0.026825,0.000000,0.022156,0.166809,0.000000,-0.008000,-0.015000,0.031000,FlatInitial
08:38:34.711 PM 02/11/2016,Teleop Enabled,0,FALSE,0,NO ERROR,0.000000,0.000000,9000.000000,9000.000000,Speed,Speed,-3.990000,0.390000,1.390000,4.000000,102.000000,1,0,-0.012152,0.000248,0,-0.011566,-0.001114,0.000000,0.021774,0.167053,0.000000,-0.059000,0.024000,0.007000,FlatInitial
08:38:34.811 PM 02/11/2016,Teleop Enabled,0,FALSE,0,NO ERROR,0.000000,0.000000,9000.000000,9000.000000,Speed,Speed,-4.000000,0.350000,1.370000,4.000000,103.000000,1,0,-0.012152,0.000248,0,0.000000,-0.012497,0.000000,0.021408,0.166824,0.000000,0.005000,0.043000,0.062000,FlatInitial
08:38:34.912 PM 02/11/2016,Teleop Enabled,0,FALSE,0,NO ERROR,0.000000,0.000000,9000.000000,9000.000000,Speed,Speed,-3.990000,0.370000,1.350000,4.000000,102.000000,1,0,-0.012152,0.000248,0,0.000000,-0.008652,0.000000,0.021072,0.166061,0.000000,-0.018000,-0.011000,-0.065000,FlatInitial
08:38:35.013 PM 02/11/2016,Teleop Enabled,0,FALSE,0,NO ERROR,0.000000,0.000000,9000.000000,9000.000000,Speed,Speed,-4.000000,0.370000,1.350000,4.000000,100.000000,1,0,-0.012152,0.000248,0,0.014130,-0.031570,0.000000,0.021286,0.164948,0.000000,0.016000,0.059000,0.054000,FlatInitial
08:38:35.113 PM 02/11/2016,Teleop Enabled,0,FALSE,0,NO ERROR,0.000000,0.000000,9000.000000,9000.000000,Speed,Speed,-4.000000,0.340000,1.380000,4.000000,102.000000,1,0,-0.012152,0.000248,0,0.001007,-0.043335,0.000000,0.021271,0.162872,0.000000,0.024000,-0.087000,0.036000,FlatInitial
08:38:35.212 PM 02/11/2016,Teleop Enabled,0,FALSE,0,NO ERROR,0.000000,0.000000,9000.000000,9000.000000,Speed,Speed,-4.000000,0.400000,1.400000,4.000000,103.000000,1,0,-0.012152,0.000248,0,0.007675,-0.037628,0.000000,0.021912,0.160767,0.000000,-0.051000,0.067000,0.065000,FlatInitial
08:38:35.313 PM 02/11/2016,Teleop Enabled,0,FALSE,0,NO ERROR,0.000000,0.000000,9000.000000,9000.000000,Speed,Speed,-4.010000,0.280000,1.390000,4.000000,102.000000,1,0,-0.012152,0.000248,0,0.007629,-0.047821,0.000000,0.022583,0.158783,0.000000,-0.017000,0.064000,-0.040000,FlatInitial
08:38:35.413 PM 02/11/2016,Teleop Enabled,0,FALSE,0,NO ERROR,0.000000,0.000000,9000.000000,9000.000000,Speed,Speed,-4.010000,0.270000,1.380000,4.000000,104.000000,1,0,-0.012152,0.000248,0,0.012024,-0.044800,0.000000,0.023163,0.157089,0.000000,-0.038000,0.052000,-0.050000,FlatInitial
08:38:35.514 PM 02/11/2016,Teleop Enabled,0,FALSE,0,NO ERROR,0.000000,0.000000,9000.000000,9000.000000,Speed,Speed,-4.010000,0.280000,1.380000,4.000000,103.000000,1,0,-0.012152,0.000248,0,0.017105,-0.052414,0.000000,0.024399,0.153870,0.000000,0.035000,0.031000,0.031000,FlatInitial
08:38:35.615 PM 02/11/2016,Teleop Enabled,0,FALSE,0,NO ERROR,0.000000,0.000000,9000.000000,9000.000000,Speed,Speed,-4.010000,0.250000,1.330000,4.000000,101.000000,1,0,-0.012152,0.000248,0,0.004730,-0.053085,0.000000,0.025299,0.151367,0.000000,0.037000,-0.048000,0.016000,FlatInitial
08:38:35.717 PM 02/11/2016,Teleop Enabled,0,FALSE,0,NO ERROR,0.000000,0.000000,9000.000000,9000.000000,Speed,Speed,-4.010000,0.240000,1.300000,4.000000,103.000000,1,0,-0.012152,0.000248,0,0.004288,0.010178,0.000000,0.025360,0.150360,0.000000,0.028000,-0.004000,-0.033000,FlatInitial
08:38:35.819 PM 02/11/2016,Teleop Enabled,0,FALSE,0,NO ERROR,0.000000,0.000000,9000.000000,9000.000000,Speed,Speed,-4.010000,0.240000,1.300000,4.000000,102.000000,1,0,-0.012152,0.000248,0,0.000000,0.018799,0.000000,0.025665,0.150970,0.000000,0.004000,-0.019000,0.042000,FlatInitial
08:38:35.918 PM 02/11/2016,Teleop Enabled,0,FALSE,0,NO ERROR,0.000000,0.000000,9000.000000,9000.000000,Speed,Speed,-4.010000,0.260000,1.320000,4.000000,101.000000,1,0,-0.012152,0.000248,0,0.006531,0.009964,0.000000,0.025574,0.151337,0.000000,0.058000,0.006000,0.080000,FlatInitial
08:38:36.019 PM 02/11/2016,Teleop Enabled,0,FALSE,0,NO ERROR,0.000000,0.000000,9000.000000,9000.000000,Speed,Speed,-4.020000,0.280000,1.340000,4.000000,101.000000,1,0,-0.012152,0.000248,0,0.001389,0.018097,0.000000,0.026077,0.152176,0.000000,0.032000,0.042000,0.046000,FlatInitial
08:38:36.121 PM 02/11/2016,Teleop Enabled,0,FALSE,0,NO ERROR,0.000000,0.000000,9000.000000,9000.000000,Speed,Speed,-4.040000,0.490000,1.410000,4.000000,102.000000,1,0,-0.012152,0.000248,0,-0.005707,0.025223,0.000000,0.026047,0.153214,0.000000,0.028000,0.096000,0.011000,FlatInitial
08:38:36.222 PM 02/11/2016,Teleop Enabled,0,FALSE,0,NO ERROR,0.000000,0.000000,9000.000000,9000.000000,Speed,Speed,-4.030000,0.750000,1.560000,4.000000,103.000000,1,0,-0.012152,0.000248,0,-0.005615,0.054611,0.000000,0.025879,0.156082,0.000000,0.021000,0.023000,0.001000,FlatInitial
08:38:36.323 PM 02/11/2016,Teleop Enabled,0,FALSE,0,NO ERROR,0.000000,0.000000,9000.000000,9000.000000,Speed,Speed,-4.040000,0.900000,1.640000,4.000000,101.000000,1,0,-0.012152,0.000248,0,-0.005051,-0.005081,0.000000,0.025726,0.156662,0.000000,-0.010000,0.000000,0.000000,FlatInitial
08:38:36.423 PM 02/11/2016,Teleop Enabled,0,FALSE,0,NO ERROR,0.000000,0.000000,9000.000000,9000.000000,Speed,Speed,-4.040000,0.890000,1.610000,4.000000,104.000000,1,0,-0.012152,0.000248,0,0.003616,-0.006470,0.000000,0.025803,0.156296,0.000000,-0.005000,0.012000,0.048000,FlatInitial
08:38:36.523 PM 02/11/2016,Teleop Enabled,0,FALSE,0,NO ERROR,0.000000,0.000000,9000.000000,9000.000000,Speed,Speed,-4.030000,0.810000,1.560000,4.000000,104.000000,1,0,-0.012152,0.000248,0,0.012512,-0.031036,0.000000,0.025970,0.154831,0.000000,-0.009000,0.022000,-0.033000,FlatInitial
08:38:36.624 PM 02/11/2016,Teleop Enabled,0,FALSE,0,NO ERROR,0.000000,0.000000,9000.000000,9000.000000,Speed,Speed,-4.030000,0.420000,1.370000,4.000000,102.000000,1,0,-0.012152,0.000248,0,0.016769,-0.011307,0.000000,0.026749,0.153992,0.000000,-0.039000,-0.105000,0.000000,FlatInitial
08:38:36.723 PM 02/11/2016,Teleop Enabled,0,FALSE,0,NO ERROR,0.000000,0.000000,9000.000000,9000.000000,Speed,Speed,-4.030000,0.610000,1.470000,4.000000,103.000000,1,0,-0.012152,0.000248,0,0.000000,-0.039673,0.000000,0.026840,0.151871,0.000000,0.017000,-0.006000,-0.009000,FlatInitial
