Time,RobotMode,AutoToRun,ErrorStatus, ErrorCode,ErrorSource,ActualRPM1,ActualRPM2,DesiredRPM1,DesiredRPM2,ControlMode1,ControlMode2,NavXYaw,NavXRoll,NavXPitch,ShooterState,LoopTime,IsLevel,IsAutoTargeting,LeftMotorOutput,RightMotorOutput,IsHaloDrive,NavXVelocityX,NavXVelocityY,NavXVelocityZ,NavXDisplacementX,NavXDisplacementY,NavXDisplacementZ,NavXAccelerationX,NavXAccelerationY,NavXAccelerationZ
08:38:14.363 PM 02/09/2016,Autonomous Enabled,0,TRUE,-44087,NetComm_CAN_Receive.vi:5470007<APPEND>  <b>Complete call chain:</b>      NetComm_CAN_Receive.vi:5470007      WPI_CANTalonSRX_Receive.vi      WPI_MotorControlOpenCANTalonSRX.vi      Begin.vi      Robot Main.vi,0.000000,0.000000,4000.000000,4000.000000,Speed,Speed,-25.260000,-2.840000,-5.310000,0.000000,3430295.000000,1,0,0.000000,0.000000,0,0.000000,0.000000,0.000000,2.443542,0.628876,0.000000,0.000000,0.000000,-0.002000
08:38:14.463 PM 02/09/2016,Autonomous Enabled,0,TRUE,-44087,NetComm_CAN_Receive.vi:5470007<APPEND>  <b>Complete call chain:</b>      NetComm_CAN_Receive.vi:5470007      WPI_CANTalonSRX_Receive.vi      WPI_MotorControlOpenCANTalonSRX.vi      Begin.vi      Robot Main.vi,0.000000,0.000000,0.000000,0.000000,Speed,Speed,-25.260000,-2.840000,-5.310000,0.000000,101.000000,1,0,0.000000,0.000000,0,0.000000,0.000000,0.000000,2.443542,0.628876,0.000000,0.000000,0.000000,-0.002000
08:38:14.563 PM 02/09/2016,Autonomous Enabled,0,TRUE,-44087,NetComm_CAN_Receive.vi:5470007<APPEND>  <b>Complete call chain:</b>      NetComm_CAN_Receive.vi:5470007      WPI_CANTalonSRX_Receive.vi      WPI_MotorControlOpenCANTalonSRX.vi      Begin.vi      Robot Main.vi,0.000000,0.000000,0.000000,0.000000,Speed,Speed,0.000000,0.920000,2.480000,0.000000,101.000000,1,0,0.000000,0.000000,0,0.000000,0.000000,0.000000,2.443542,0.628876,0.000000,0.001000,0.000000,0.003000
08:38:14.663 PM 02/09/2016,Autonomous Enabled,0,TRUE,-44087,NetComm_CAN_Receive.vi:5470007<APPEND>  <b>Complete call chain:</b>      NetComm_CAN_Receive.vi:5470007      WPI_CANTalonSRX_Receive.vi      WPI_MotorControlOpenCANTalonSRX.vi      Begin.vi      Robot Main.vi,0.000000,0.000000,0.000000,0.000000,Speed,Speed,0.000000,0.920000,2.480000,0.000000,101.000000,1,0,0.000000,0.000000,0,0.000000,0.000000,0.000000,2.443542,0.628876,0.000000,0.000000,0.000000,0.000000
08:38:14.764 PM 02/09/2016,Autonomous Enabled,0,TRUE,-44087,NetComm_CAN_Receive.vi:5470007<APPEND>  <b>Complete call chain:</b>      NetComm_CAN_Receive.vi:5470007      WPI_CANTalonSRX_Receive.vi      WPI_MotorControlOpenCANTalonSRX.vi      Begin.vi      Robot Main.vi,0.000000,0.000000,0.000000,0.000000,Speed,Speed,0.000000,0.920000,2.480000,0.000000,102.000000,1,0,0.000000,0.000000,0,0.000000,0.000000,0.000000,2.443542,0.628876,0.000000,-0.002000,0.000000,0.001000
08:38:14.869 PM 02/09/2016,Autonomous Enabled,0,TRUE,-44087,NetComm_CAN_Receive.vi:5470007<APPEND>  <b>Complete call chain:</b>      NetComm_CAN_Receive.vi:5470007      WPI_CANTalonSRX_Receive.vi      WPI_MotorControlOpenCANTalonSRX.vi      Begin.vi      Robot Main.vi,0.000000,0.000000,0.000000,0.000000,Speed,Speed,0.000000,0.920000,2.480000,0.000000,102.000000,1,0,0.000000,0.000000,0,0.000000,0.000000,0.000000,2.443542,0.628876,0.000000,0.000000,0.000000,-0.001000
08:38:14.967 PM 02/09/2016,Autonomous Enabled,0,TRUE,-44087,NetComm_CAN_Receive.vi:5470007<APPEND>  <b>Complete call chain:</b>      NetComm_CAN_Receive.vi:5470007      WPI_CANTalonSRX_Receive.vi      WPI_MotorControlOpenCANTalonSRX.vi      Begin.vi      Robot Main.vi,0.000000,0.000000,0.000000,0.000000,Speed,Speed,0.000000,0.920000,2.480000,0.000000,100.000000,1,0,0.000000,0.000000,0,0.000000,0.000000,0.000000,2.443542,0.628876,0.000000,0.003000,-0.001000,-0.001000
08:38:15.070 PM 02/09/2016,Autonomous Enabled,0,TRUE,-44087,NetComm_CAN_Receive.vi:5470007<APPEND>  <b>Complete call chain:</b>      NetComm_CAN_Receive.vi:5470007      WPI_CANTalonSRX_Receive.vi      WPI_MotorControlOpenCANTalonSRX.vi      Begin.vi      Robot Main.vi,0.000000,0.000000,0.000000,0.000000,Speed,Speed,0.460000,0.700000,5.640000,0.000000,105.000000,1,0,0.000000,0.000000,0,0.255722,0.445236,0.000000,2.449448,0.654434,0.000000,0.003000,-0.001000,-0.001000
08:38:15.171 PM 02/09/2016,Autonomous Enabled,0,TRUE,-44087,NetComm_CAN_Receive.vi:5470007<APPEND>  <b>Complete call chain:</b>      NetComm_CAN_Receive.vi:5470007      WPI_CANTalonSRX_Receive.vi      WPI_MotorControlOpenCANTalonSRX.vi      Begin.vi      Robot Main.vi,0.000000,0.000000,0.000000,0.000000,Speed,Speed,0.400000,0.750000,2.020000,0.000000,101.000000,1,0,0.000000,0.000000,0,0.274780,0.200363,0.000000,2.456604,0.662308,0.000000,0.141000,-0.332000,0.312000
08:38:15.271 PM 02/09/2016,Autonomous Enabled,0,TRUE,-44087,NetComm_CAN_Receive.vi:5470007<APPEND>  <b>Complete call chain:</b>      NetComm_CAN_Receive.vi:5470007      WPI_CANTalonSRX_Receive.vi      WPI_MotorControlOpenCANTalonSRX.vi      Begin.vi      Robot Main.vi,0.000000,0.000000,0.000000,0.000000,Speed,Speed,0.830000,0.770000,2.610000,0.000000,103.000000,1,0,0.000000,0.000000,0,0.271820,0.098480,0.000000,2.470688,0.669296,0.000000,0.065000,-0.328000,0.988000
08:38:15.372 PM 02/09/2016,Autonomous Enabled,0,TRUE,-44087,NetComm_CAN_Receive.vi:5470007<APPEND>  <b>Complete call chain:</b>      NetComm_CAN_Receive.vi:5470007      WPI_CANTalonSRX_Receive.vi      WPI_MotorControlOpenCANTalonSRX.vi      Begin.vi      Robot Main.vi,0.000000,0.000000,0.000000,0.000000,Speed,Speed,0.830000,0.720000,2.940000,0.000000,101.000000,1,0,0.000000,0.000000,0,0.303085,-0.091370,0.000000,2.485748,0.666855,0.000000,0.003000,-0.042000,0.395000
08:38:15.472 PM 02/09/2016,Autonomous Enabled,0,TRUE,-44087,NetComm_CAN_Receive.vi:5470007<APPEND>  <b>Complete call chain:</b>      NetComm_CAN_Receive.vi:5470007      WPI_CANTalonSRX_Receive.vi      WPI_MotorControlOpenCANTalonSRX.vi      Begin.vi      Robot Main.vi,0.000000,0.000000,0.000000,0.000000,Speed,Speed,0.830000,0.830000,2.710000,0.000000,101.000000,1,0,0.000000,0.000000,0,0.306183,-0.080276,0.000000,2.500595,0.663193,0.000000,-0.013000,-0.169000,0.172000
08:38:15.572 PM 02/09/2016,Autonomous Enabled,0,TRUE,-44087,NetComm_CAN_Receive.vi:5470007<APPEND>  <b>Complete call chain:</b>      NetComm_CAN_Receive.vi:5470007      WPI_CANTalonSRX_Receive.vi      WPI_MotorControlOpenCANTalonSRX.vi      Begin.vi      Robot Main.vi,0.000000,0.000000,0.000000,0.000000,Speed,Speed,0.850000,0.780000,2.090000,0.000000,101.000000,1,0,0.000000,0.000000,0,-0.009766,-0.168793,0.000000,2.500214,0.655853,0.000000,0.034000,0.002000,0.092000
08:38:15.674 PM 02/09/2016,Autonomous Enabled,0,TRUE,-44087,NetComm_CAN_Receive.vi:5470007<APPEND>  <b>Complete call chain:</b>      NetComm_CAN_Receive.vi:5470007      WPI_CANTalonSRX_Receive.vi      WPI_MotorControlOpenCANTalonSRX.vi      Begin.vi      Robot Main.vi,0.000000,0.000000,0.000000,0.000000,Speed,Speed,0.800000,0.780000,2.270000,0.000000,102.000000,1,0,0.000000,0.000000,0,0.000000,-0.018356,0.000000,2.500092,0.655396,0.000000,0.019000,0.025000,-0.060000
08:38:15.773 PM 02/09/2016,Autonomous Enabled,0,TRUE,-44087,NetComm_CAN_Receive.vi:5470007<APPEND>  <b>Complete call chain:</b>      NetComm_CAN_Receive.vi:5470007      WPI_CANTalonSRX_Receive.vi      WPI_MotorControlOpenCANTalonSRX.vi      Begin.vi      Robot Main.vi,0.000000,0.000000,0.000000,0.000000,Speed,Speed,0.820000,0.800000,2.420000,0.000000,103.000000,1,0,0.000000,0.000000,0,0.000000,0.000000,0.000000,2.500092,0.655136,0.000000,0.007000,0.008000,-0.007000
08:38:15.876 PM 02/09/2016,Autonomous Enabled,0,TRUE,-44087,NetComm_CAN_Receive.vi:5470007<APPEND>  <b>Complete call chain:</b>      NetComm_CAN_Receive.vi:5470007      WPI_CANTalonSRX_Receive.vi      WPI_MotorControlOpenCANTalonSRX.vi      Begin.vi      Robot Main.vi,0.000000,0.000000,0.000000,0.000000,Speed,Speed,0.780000,0.810000,2.470000,0.000000,101.000000,1,0,0.000000,0.000000,0,0.000000,0.021301,0.000000,2.500092,0.655701,0.000000,0.006000,0.006000,0.023000
08:38:15.976 PM 02/09/2016,Autonomous Enabled,0,TRUE,-44087,NetComm_CAN_Receive.vi:5470007<APPEND>  <b>Complete call chain:</b>      NetComm_CAN_Receive.vi:5470007      WPI_CANTalonSRX_Receive.vi      WPI_MotorControlOpenCANTalonSRX.vi      Begin.vi      Robot Main.vi,0.000000,0.000000,0.000000,0.000000,Speed,Speed,0.790000,0.820000,2.460000,0.000000,101.000000,1,0,0.000000,0.000000,0,0.000000,0.000000,0.000000,2.500092,0.655914,0.000000,0.001000,0.003000,0.000000
08:38:16.077 PM 02/09/2016,Autonomous Enabled,0,TRUE,-44087,NetComm_CAN_Receive.vi:5470007<APPEND>  <b>Complete call chain:</b>      NetComm_CAN_Receive.vi:5470007      WPI_CANTalonSRX_Receive.vi      WPI_MotorControlOpenCANTalonSRX.vi      Begin.vi      Robot Main.vi,0.000000,0.000000,0.000000,0.000000,Speed,Speed,0.770000,0.820000,2.450000,0.000000,100.000000,1,0,0.000000,0.000000,0,0.000000,0.000000,0.000000,2.500092,0.655914,0.000000,-0.001000,0.002000,-0.003000
08:38:16.180 PM 02/09/2016,Autonomous Enabled,0,TRUE,-44087,NetComm_CAN_Receive.vi:5470007<APPEND>  <b>Complete call chain:</b>      NetComm_CAN_Receive.vi:5470007      WPI_CANTalonSRX_Receive.vi      WPI_MotorControlOpenCANTalonSRX.vi      Begin.vi      Robot Main.vi,0.000000,0.000000,0.000000,0.000000,Speed,Speed,0.770000,0.820000,2.460000,0.000000,104.000000,1,0,0.000000,0.000000,0,0.000000,0.000000,0.000000,2.500092,0.655914,0.000000,-0.012000,0.006000,0.001000
08:38:16.279 PM 02/09/2016,Autonomous Enabled,0,TRUE,-44087,NetComm_CAN_Receive.vi:5470007<APPEND>  <b>Complete call chain:</b>      NetComm_CAN_Receive.vi:5470007      WPI_CANTalonSRX_Receive.vi      WPI_MotorControlOpenCANTalonSRX.vi      Begin.vi      Robot Main.vi,0.000000,0.000000,0.000000,0.000000,Speed,Speed,0.770000,0.830000,2.490000,0.000000,103.000000,1,0,0.000000,0.000000,0,0.000000,0.000000,0.000000,2.500092,0.655914,0.000000,-0.009000,0.001000,0.000000
08:38:16.379 PM 02/09/2016,Autonomous Enabled,0,TRUE,-44087,NetComm_CAN_Receive.vi:5470007<APPEND>  <b>Complete call chain:</b>      NetComm_CAN_Receive.vi:5470007      WPI_CANTalonSRX_Receive.vi      WPI_MotorControlOpenCANTalonSRX.vi      Begin.vi      Robot Main.vi,0.000000,0.000000,0.000000,0.000000,Speed,Speed,0.770000,0.840000,2.500000,0.000000,102.000000,1,0,0.000000,0.000000,0,0.000000,0.000000,0.000000,2.500092,0.655914,0.000000,-0.006000,0.003000,-0.002000
08:38:16.480 PM 02/09/2016,Autonomous Enabled,0,TRUE,-44087,NetComm_CAN_Receive.vi:5470007<APPEND>  <b>Complete call chain:</b>      NetComm_CAN_Receive.vi:5470007      WPI_CANTalonSRX_Receive.vi      WPI_MotorControlOpenCANTalonSRX.vi      Begin.vi      Robot Main.vi,0.000000,0.000000,0.000000,0.000000,Speed,Speed,0.770000,0.840000,2.510000,0.000000,102.000000,1,0,0.000000,0.000000,0,0.000000,0.000000,0.000000,2.500092,0.655914,0.000000,-0.003000,0.003000,0.003000
08:38:16.579 PM 02/09/2016,Autonomous Enabled,0,TRUE,-44087,NetComm_CAN_Receive.vi:5470007<APPEND>  <b>Complete call chain:</b>      NetComm_CAN_Receive.vi:5470007      WPI_CANTalonSRX_Receive.vi      WPI_MotorControlOpenCANTalonSRX.vi      Begin.vi      Robot Main.vi,0.000000,0.000000,0.000000,0.000000,Speed,Speed,0.770000,0.840000,2.520000,0.000000,102.000000,1,0,0.000000,0.000000,0,0.000000,0.000000,0.000000,2.500092,0.655914,0.000000,0.003000,0.000000,0.004000
08:38:16.682 PM 02/09/2016,Autonomous Enabled,0,TRUE,-44087,NetComm_CAN_Receive.vi:5470007<APPEND>  <b>Complete call chain:</b>      NetComm_CAN_Receive.vi:5470007      WPI_CANTalonSRX_Receive.vi      WPI_MotorControlOpenCANTalonSRX.vi      Begin.vi      Robot Main.vi,0.000000,0.000000,0.000000,0.000000,Speed,Speed,0.770000,0.840000,2.520000,0.000000,101.000000,1,0,0.000000,0.000000,0,0.000000,0.000000,0.000000,2.500092,0.655914,0.000000,0.006000,0.000000,0.001000
08:38:16.783 PM 02/09/2016,Autonomous Enabled,0,TRUE,-44087,NetComm_CAN_Receive.vi:5470007<APPEND>  <b>Complete call chain:</b>      NetComm_CAN_Receive.vi:5470007      WPI_CANTalonSRX_Receive.vi      WPI_CANTalonSRX_GetStatus.vi      ShooterVI.vi      Periodic Tasks.vi      Robot Main.vi,0.000000,0.000000,0.000000,0.000000,Speed,Speed,0.770000,0.840000,2.530000,0.000000,105.000000,1,0,0.000000,0.000000,0,0.000000,0.000000,0.000000,2.500092,0.655914,0.000000,0.004000,0.003000,0.002000
08:38:16.885 PM 02/09/2016,Autonomous Enabled,0,TRUE,-44087,NetComm_CAN_Receive.vi:5470007<APPEND>  <b>Complete call chain:</b>      NetComm_CAN_Receive.vi:5470007      WPI_CANTalonSRX_Receive.vi      WPI_CANTalonSRX_GetStatus.vi      ShooterVI.vi      Periodic Tasks.vi      Robot Main.vi,0.000000,0.000000,0.000000,0.000000,Speed,Speed,0.760000,0.840000,2.540000,0.000000,102.000000,1,0,0.000000,0.000000,0,0.000000,0.000000,0.000000,2.500092,0.655914,0.000000,0.001000,0.003000,0.000000
08:38:16.984 PM 02/09/2016,Autonomous Enabled,0,TRUE,-44087,NetComm_CAN_Receive.vi:5470007<APPEND>  <b>Complete call chain:</b>      NetComm_CAN_Receive.vi:5470007      WPI_CANTalonSRX_Receive.vi      WPI_CANTalonSRX_GetStatus.vi      ShooterVI.vi      Periodic Tasks.vi      Robot Main.vi,0.000000,0.000000,0.000000,0.000000,Speed,Speed,0.760000,0.840000,2.540000,0.000000,102.000000,1,0,0.000000,0.000000,0,0.000000,0.000000,0.000000,2.500092,0.655914,0.000000,-0.002000,0.000000,0.000000
08:38:17.085 PM 02/09/2016,Autonomous Enabled,0,TRUE,-44087,NetComm_CAN_Receive.vi:5470007<APPEND>  <b>Complete call chain:</b>      NetComm_CAN_Receive.vi:5470007      WPI_CANTalonSRX_Receive.vi      WPI_CANTalonSRX_GetStatus.vi      ShooterVI.vi      Periodic Tasks.vi      Robot Main.vi,0.000000,0.000000,0.000000,0.000000,Speed,Speed,0.760000,0.850000,2.540000,0.000000,104.000000,1,0,0.000000,0.000000,0,0.000000,0.000000,0.000000,2.500092,0.655914,0.000000,0.003000,-0.001000,0.004000
08:38:17.185 PM 02/09/2016,Autonomous Enabled,0,TRUE,-44087,NetComm_CAN_Receive.vi:5470007<APPEND>  <b>Complete call chain:</b>      NetComm_CAN_Receive.vi:5470007      WPI_CANTalonSRX_Receive.vi      WPI_CANTalonSRX_GetStatus.vi      ShooterVI.vi      Periodic Tasks.vi      Robot Main.vi,0.000000,0.000000,0.000000,0.000000,Speed,Speed,0.760000,0.850000,2.560000,0.000000,102.000000,1,0,0.000000,0.000000,0,0.000000,0.000000,0.000000,2.500092,0.655914,0.000000,0.000000,0.000000,0.002000
08:38:17.285 PM 02/09/2016,Autonomous Enabled,0,TRUE,-44087,NetComm_CAN_Receive.vi:5470007<APPEND>  <b>Complete call chain:</b>      NetComm_CAN_Receive.vi:5470007      WPI_CANTalonSRX_Receive.vi      WPI_CANTalonSRX_GetStatus.vi      ShooterVI.vi      Periodic Tasks.vi      Robot Main.vi,0.000000,0.000000,0.000000,0.000000,Speed,Speed,0.760000,0.850000,2.560000,0.000000,105.000000,1,0,0.000000,0.000000,0,0.000000,0.000000,0.000000,2.500092,0.655914,0.000000,0.002000,-0.002000,0.004000
08:38:17.385 PM 02/09/2016,Autonomous Enabled,0,TRUE,-44087,NetComm_CAN_Receive.vi:5470007<APPEND>  <b>Complete call chain:</b>      NetComm_CAN_Receive.vi:5470007      WPI_CANTalonSRX_Receive.vi      WPI_CANTalonSRX_GetStatus.vi      ShooterVI.vi      Periodic Tasks.vi      Robot Main.vi,0.000000,0.000000,0.000000,0.000000,Speed,Speed,0.760000,0.850000,2.570000,0.000000,104.000000,1,0,0.000000,0.000000,0,0.000000,0.000000,0.000000,2.500092,0.655914,0.000000,0.000000,0.001000,0.000000
08:38:17.485 PM 02/09/2016,Autonomous Enabled,0,TRUE,-44087,NetComm_CAN_Receive.vi:5470007<APPEND>  <b>Complete call chain:</b>      NetComm_CAN_Receive.vi:5470007      WPI_CANTalonSRX_Receive.vi      WPI_CANTalonSRX_GetStatus.vi      ShooterVI.vi      Periodic Tasks.vi      Robot Main.vi,0.000000,0.000000,0.000000,0.000000,Speed,Speed,0.760000,0.850000,2.570000,0.000000,103.000000,1,0,0.000000,0.000000,0,0.000000,0.000000,0.000000,2.500092,0.655914,0.000000,-0.002000,0.000000,0.004000
08:38:17.585 PM 02/09/2016,Autonomous Enabled,0,TRUE,-44087,NetComm_CAN_Receive.vi:5470007<APPEND>  <b>Complete call chain:</b>      NetComm_CAN_Receive.vi:5470007      WPI_CANTalonSRX_Receive.vi      WPI_CANTalonSRX_GetStatus.vi      ShooterVI.vi      Periodic Tasks.vi      Robot Main.vi,0.000000,0.000000,0.000000,0.000000,Speed,Speed,0.760000,0.850000,2.570000,0.000000,101.000000,1,0,0.000000,0.000000,0,0.000000,0.000000,0.000000,2.500092,0.655914,0.000000,-0.002000,0.000000,0.002000
08:38:17.688 PM 02/09/2016,Autonomous Enabled,0,TRUE,-44087,NetComm_CAN_Receive.vi:5470007<APPEND>  <b>Complete call chain:</b>      NetComm_CAN_Receive.vi:5470007      WPI_CANTalonSRX_Receive.vi      WPI_CANTalonSRX_GetStatus.vi      ShooterVI.vi      Periodic Tasks.vi      Robot Main.vi,0.000000,0.000000,-6000.000000,-6000.000000,Speed,Speed,0.760000,0.850000,2.570000,1.000000,102.000000,1,0,0.000000,0.000000,0,0.000000,0.000000,0.000000,2.500092,0.655914,0.000000,0.000000,0.000000,0.000000
08:38:17.787 PM 02/09/2016,Autonomous Disabled,0,TRUE,-44087,NetComm_CAN_Receive.vi:5470007<APPEND>  <b>Complete call chain:</b>      NetComm_CAN_Receive.vi:5470007      WPI_CANTalonSRX_Receive.vi      WPI_CANTalonSRX_GetStatus.vi      ShooterVI.vi      Periodic Tasks.vi      Robot Main.vi,0.000000,0.000000,0.000000,0.000000,Speed,Speed,0.760000,0.850000,2.570000,2.000000,103.000000,1,0,0.000000,0.000000,0,0.000000,0.000000,0.000000,2.500092,0.655914,0.000000,0.002000,0.000000,0.004000
08:38:17.888 PM 02/09/2016,Autonomous Disabled,0,TRUE,-44087,NetComm_CAN_Receive.vi:5470007<APPEND>  <b>Complete call chain:</b>      NetComm_CAN_Receive.vi:5470007      WPI_CANTalonSRX_Receive.vi      WPI_CANTalonSRX_GetStatus.vi      ShooterVI.vi      Periodic Tasks.vi      Robot Main.vi,0.000000,0.000000,0.000000,0.000000,Speed,Speed,0.760000,0.840000,2.570000,2.000000,101.000000,1,0,0.000000,0.000000,0,0.000000,0.000000,0.000000,2.500092,0.655914,0.000000,-0.001000,0.000000,0.001000
08:38:17.988 PM 02/09/2016,Autonomous Disabled,0,TRUE,-44087,NetComm_CAN_Receive.vi:5470007<APPEND>  <b>Complete call chain:</b>      NetComm_CAN_Receive.vi:5470007      WPI_CANTalonSRX_Receive.vi      WPI_CANTalonSRX_GetStatus.vi      ShooterVI.vi      Periodic Tasks.vi      Robot Main.vi,0.000000,0.000000,0.000000,0.000000,Speed,Speed,0.760000,0.840000,2.570000,2.000000,102.000000,1,0,0.000000,0.000000,0,0.000000,0.000000,0.000000,2.500092,0.655914,0.000000,0.000000,0.000000,0.002000
08:38:18.089 PM 02/09/2016,Autonomous Disabled,0,TRUE,-44087,NetComm_CAN_Receive.vi:5470007<APPEND>  <b>Complete call chain:</b>      NetComm_CAN_Receive.vi:5470007      WPI_CANTalonSRX_Receive.vi      WPI_CANTalonSRX_GetStatus.vi      ShooterVI.vi      Periodic Tasks.vi      Robot Main.vi,0.000000,0.000000,0.000000,0.000000,Speed,Speed,0.760000,0.850000,2.580000,2.000000,105.000000,1,0,0.000000,0.000000,0,0.000000,0.000000,0.000000,2.500092,0.655914,0.000000,-0.001000,-0.002000,0.000000
08:38:18.189 PM 02/09/2016,Autonomous Disabled,0,TRUE,-44087,NetComm_CAN_Receive.vi:5470007<APPEND>  <b>Complete call chain:</b>      NetComm_CAN_Receive.vi:5470007      WPI_CANTalonSRX_Receive.vi      WPI_CANTalonSRX_GetStatus.vi      ShooterVI.vi      Periodic Tasks.vi      Robot Main.vi,0.000000,0.000000,0.000000,0.000000,Speed,Speed,0.760000,0.850000,2.580000,2.000000,101.000000,1,0,0.000000,0.000000,0,0.000000,0.000000,0.000000,2.500092,0.655914,0.000000,0.000000,0.000000,0.001000
08:38:18.289 PM 02/09/2016,Autonomous Disabled,0,TRUE,-44087,NetComm_CAN_Receive.vi:5470007<APPEND>  <b>Complete call chain:</b>      NetComm_CAN_Receive.vi:5470007      WPI_CANTalonSRX_Receive.vi      WPI_CANTalonSRX_GetStatus.vi      ShooterVI.vi      Periodic Tasks.vi      Robot Main.vi,0.000000,0.000000,0.000000,0.000000,Speed,Speed,0.750000,0.850000,2.580000,2.000000,101.000000,1,0,0.000000,0.000000,0,0.000000,0.000000,0.000000,2.500092,0.655914,0.000000,0.000000,0.000000,0.002000
08:38:18.389 PM 02/09/2016,Autonomous Disabled,0,TRUE,-44087,NetComm_CAN_Receive.vi:5470007<APPEND>  <b>Complete call chain:</b>      NetComm_CAN_Receive.vi:5470007      WPI_CANTalonSRX_Receive.vi      WPI_CANTalonSRX_GetStatus.vi      ShooterVI.vi      Periodic Tasks.vi      Robot Main.vi,0.000000,0.000000,0.000000,0.000000,Speed,Speed,0.750000,0.850000,2.580000,2.000000,103.000000,1,0,0.000000,0.000000,0,0.000000,0.000000,0.000000,2.500092,0.655914,0.000000,0.001000,0.000000,0.002000
08:38:18.489 PM 02/09/2016,Autonomous Disabled,0,TRUE,-44087,NetComm_CAN_Receive.vi:5470007<APPEND>  <b>Complete call chain:</b>      NetComm_CAN_Receive.vi:5470007      WPI_CANTalonSRX_Receive.vi      WPI_CANTalonSRX_GetStatus.vi      ShooterVI.vi      Periodic Tasks.vi      Robot Main.vi,0.000000,0.000000,0.000000,0.000000,Speed,Speed,0.750000,0.850000,2.590000,2.000000,104.000000,1,0,0.000000,0.000000,0,0.000000,0.000000,0.000000,2.500092,0.655914,0.000000,-0.001000,0.002000,0.005000
08:38:18.589 PM 02/09/2016,Autonomous Disabled,0,TRUE,-44087,NetComm_CAN_Receive.vi:5470007<APPEND>  <b>Complete call chain:</b>      NetComm_CAN_Receive.vi:5470007      WPI_CANTalonSRX_Receive.vi      WPI_CANTalonSRX_GetStatus.vi      ShooterVI.vi      Periodic Tasks.vi      Robot Main.vi,0.000000,0.000000,0.000000,0.000000,Speed,Speed,0.750000,0.850000,2.590000,2.000000,104.000000,1,0,0.000000,0.000000,0,0.000000,0.000000,0.000000,2.500092,0.655914,0.000000,0.000000,0.000000,0.002000
08:38:18.689 PM 02/09/2016,Autonomous Disabled,0,TRUE,-44087,NetComm_CAN_Receive.vi:5470007<APPEND>  <b>Complete call chain:</b>      NetComm_CAN_Receive.vi:5470007      WPI_CANTalonSRX_Receive.vi      WPI_CANTalonSRX_GetStatus.vi      ShooterVI.vi      Periodic Tasks.vi      Robot Main.vi,0.000000,0.000000,0.000000,0.000000,Speed,Speed,0.750000,0.850000,2.590000,2.000000,102.000000,1,0,0.000000,0.000000,0,0.000000,0.000000,0.000000,2.500092,0.655914,0.000000,0.001000,0.000000,0.005000
08:38:18.791 PM 02/09/2016,Autonomous Disabled,0,TRUE,-44087,NetComm_CAN_Receive.vi:5470007<APPEND>  <b>Complete call chain:</b>      NetComm_CAN_Receive.vi:5470007      WPI_CANTalonSRX_Receive.vi      WPI_CANTalonSRX_GetStatus.vi      ShooterVI.vi      Periodic Tasks.vi      Robot Main.vi,0.000000,0.000000,0.000000,0.000000,Speed,Speed,0.750000,0.850000,2.590000,2.000000,102.000000,1,0,0.000000,0.000000,0,0.000000,0.000000,0.000000,2.500092,0.655914,0.000000,0.001000,-0.001000,0.003000
08:38:18.891 PM 02/09/2016,Autonomous Enabled,0,TRUE,-44087,NetComm_CAN_Receive.vi:5470007<APPEND>  <b>Complete call chain:</b>      NetComm_CAN_Receive.vi:5470007      WPI_CANTalonSRX_Receive.vi      WPI_CANTalonSRX_GetStatus.vi      ShooterVI.vi      Periodic Tasks.vi      Robot Main.vi,0.000000,0.000000,0.000000,0.000000,Speed,Speed,0.750000,0.850000,2.600000,2.000000,101.000000,1,0,0.000000,0.000000,0,0.000000,0.000000,0.000000,2.500092,0.655914,0.000000,0.000000,0.003000,0.004000
08:38:18.992 PM 02/09/2016,Autonomous Enabled,0,TRUE,-44087,NetComm_CAN_Receive.vi:5470007<APPEND>  <b>Complete call chain:</b>      NetComm_CAN_Receive.vi:5470007      WPI_CANTalonSRX_Receive.vi      WPI_CANTalonSRX_GetStatus.vi      ShooterVI.vi      Periodic Tasks.vi      Robot Main.vi,0.000000,0.000000,4000.000000,4000.000000,Speed,Speed,0.750000,0.850000,2.600000,3.000000,102.000000,1,0,0.000000,0.000000,0,0.000000,0.000000,0.000000,2.500092,0.655914,0.000000,0.001000,0.000000,0.004000
08:38:19.093 PM 02/09/2016,Autonomous Enabled,0,TRUE,-44087,NetComm_CAN_Receive.vi:5470007<APPEND>  <b>Complete call chain:</b>      NetComm_CAN_Receive.vi:5470007      WPI_CANTalonSRX_Receive.vi      WPI_CANTalonSRX_GetStatus.vi      ShooterVI.vi      Periodic Tasks.vi      Robot Main.vi,0.000000,0.000000,4000.000000,4000.000000,Speed,Speed,0.750000,0.860000,2.600000,3.000000,101.000000,1,0,0.000000,0.000000,0,0.000000,0.000000,0.000000,2.500092,0.655914,0.000000,0.002000,0.000000,0.000000
08:38:19.193 PM 02/09/2016,Autonomous Enabled,0,TRUE,-44087,NetComm_CAN_Receive.vi:5470007<APPEND>  <b>Complete call chain:</b>      NetComm_CAN_Receive.vi:5470007      WPI_CANTalonSRX_Receive.vi      WPI_CANTalonSRX_GetStatus.vi      ShooterVI.vi      Periodic Tasks.vi      Robot Main.vi,0.000000,0.000000,4000.000000,4000.000000,Speed,Speed,0.750000,0.860000,2.600000,3.000000,102.000000,1,0,0.000000,0.000000,0,0.000000,0.000000,0.000000,2.500092,0.655914,0.000000,0.000000,-0.001000,0.001000
08:38:19.294 PM 02/09/2016,Autonomous Enabled,0,TRUE,-44087,NetComm_CAN_Receive.vi:5470007<APPEND>  <b>Complete call chain:</b>      NetComm_CAN_Receive.vi:5470007      WPI_CANTalonSRX_Receive.vi      WPI_CANTalonSRX_GetStatus.vi      ShooterVI.vi      Periodic Tasks.vi      Robot Main.vi,0.000000,0.000000,4000.000000,4000.000000,Speed,Speed,0.750000,0.860000,2.600000,3.000000,103.000000,1,0,0.000000,0.000000,0,0.000000,0.000000,0.000000,2.500092,0.655914,0.000000,0.001000,0.000000,0.000000
08:38:19.394 PM 02/09/2016,Autonomous Enabled,0,TRUE,-44087,NetComm_CAN_Receive.vi:5470007<APPEND>  <b>Complete call chain:</b>      NetComm_CAN_Receive.vi:5470007      WPI_CANTalonSRX_Receive.vi      WPI_CANTalonSRX_GetStatus.vi      ShooterVI.vi      Periodic Tasks.vi      Robot Main.vi,0.000000,0.000000,4000.000000,4000.000000,Speed,Speed,0.750000,0.860000,2.600000,3.000000,102.000000,1,0,0.000000,0.000000,0,0.000000,0.000000,0.000000,2.500092,0.655914,0.000000,0.001000,-0.001000,0.000000
08:38:19.495 PM 02/09/2016,Autonomous Enabled,0,TRUE,-44087,NetComm_CAN_Receive.vi:5470007<APPEND>  <b>Complete call chain:</b>      NetComm_CAN_Receive.vi:5470007      WPI_CANTalonSRX_Receive.vi      WPI_CANTalonSRX_GetStatus.vi      ShooterVI.vi      Periodic Tasks.vi      Robot Main.vi,0.000000,0.000000,4000.000000,4000.000000,Speed,Speed,0.750000,0.860000,2.600000,3.000000,101.000000,1,0,0.000000,0.000000,0,0.000000,0.000000,0.000000,2.500092,0.655914,0.000000,0.001000,-0.001000,0.000000
08:38:19.596 PM 02/09/2016,Autonomous Enabled,0,TRUE,-44087,NetComm_CAN_Receive.vi:5470007<APPEND>  <b>Complete call chain:</b>      NetComm_CAN_Receive.vi:5470007      WPI_CANTalonSRX_Receive.vi      WPI_CANTalonSRX_GetStatus.vi      ShooterVI.vi      Periodic Tasks.vi      Robot Main.vi,0.000000,0.000000,4000.000000,4000.000000,Speed,Speed,1.710000,0.910000,3.950000,3.000000,103.000000,1,0,0.000000,0.000000,0,0.006851,0.606613,0.000000,2.501709,0.692444,0.000000,-0.376000,-0.169000,-0.520000
08:38:19.695 PM 02/09/2016,Autonomous Enabled,0,TRUE,-44087,NetComm_CAN_Receive.vi:5470007<APPEND>  <b>Complete call chain:</b>      NetComm_CAN_Receive.vi:5470007      WPI_CANTalonSRX_Receive.vi      WPI_CANTalonSRX_GetStatus.vi      ShooterVI.vi      Periodic Tasks.vi      Robot Main.vi,0.000000,0.000000,4000.000000,4000.000000,Speed,Speed,0.280000,0.830000,1.890000,3.000000,103.000000,1,0,0.000000,0.000000,0,0.006851,0.606613,0.000000,2.501709,0.692444,0.000000,-0.035000,-0.541000,0.328000
08:38:19.796 PM 02/09/2016,Autonomous Enabled,0,TRUE,-44087,NetComm_CAN_Receive.vi:5470007<APPEND>  <b>Complete call chain:</b>      NetComm_CAN_Receive.vi:5470007      WPI_CANTalonSRX_Receive.vi      WPI_CANTalonSRX_GetStatus.vi      ShooterVI.vi      Periodic Tasks.vi      Robot Main.vi,0.000000,0.000000,4000.000000,4000.000000,Speed,Speed,-0.220000,0.810000,3.310000,3.000000,102.000000,1,0,0.000000,0.000000,0,-0.019684,0.271317,0.000000,2.501541,0.736328,0.000000,0.019000,-0.091000,0.127000
08:38:19.897 PM 02/09/2016,Autonomous Enabled,0,TRUE,-44087,NetComm_CAN_Receive.vi:5470007<APPEND>  <b>Complete call chain:</b>      NetComm_CAN_Receive.vi:5470007      WPI_CANTalonSRX_Receive.vi      WPI_CANTalonSRX_GetStatus.vi      ShooterVI.vi      Periodic Tasks.vi      Robot Main.vi,0.000000,0.000000,4000.000000,4000.000000,Speed,Speed,-0.300000,0.780000,2.030000,3.000000,102.000000,1,0,0.000000,0.000000,0,-0.019684,0.271317,0.000000,2.501541,0.736328,0.000000,0.019000,-0.091000,0.127000
08:38:19.997 PM 02/09/2016,Autonomous Enabled,0,TRUE,-44087,NetComm_CAN_Receive.vi:5470007<APPEND>  <b>Complete call chain:</b>      NetComm_CAN_Receive.vi:5470007      WPI_CANTalonSRX_Receive.vi      WPI_CANTalonSRX_GetStatus.vi      ShooterVI.vi      Periodic Tasks.vi      Robot Main.vi,0.000000,0.000000,4000.000000,4000.000000,Speed,Speed,-0.370000,0.780000,1.820000,3.000000,102.000000,1,0,0.000000,0.000000,0,-0.027954,0.275665,0.000000,2.500870,0.746872,0.000000,-0.022000,0.024000,-0.205000
08:38:20.099 PM 02/09/2016,Autonomous Enabled,0,TRUE,-44087,NetComm_CAN_Receive.vi:5470007<APPEND>  <b>Complete call chain:</b>      NetComm_CAN_Receive.vi:5470007      WPI_CANTalonSRX_Receive.vi      WPI_CANTalonSRX_GetStatus.vi      ShooterVI.vi      Periodic Tasks.vi      Robot Main.vi,0.000000,0.000000,4000.000000,4000.000000,Speed,Speed,-0.370000,0.780000,1.820000,3.000000,101.000000,1,0,0.000000,0.000000,0,-0.003815,0.147308,0.000000,2.499786,0.758499,0.000000,0.013000,0.002000,0.033000
08:38:20.199 PM 02/09/2016,Autonomous Enabled,0,TRUE,-44087,NetComm_CAN_Receive.vi:5470007<APPEND>  <b>Complete call chain:</b>      NetComm_CAN_Receive.vi:5470007      WPI_CANTalonSRX_Receive.vi      WPI_CANTalonSRX_GetStatus.vi      ShooterVI.vi      Periodic Tasks.vi      Robot Main.vi,0.000000,0.000000,4000.000000,4000.000000,Speed,Speed,-0.300000,0.770000,2.090000,3.000000,102.000000,1,0,0.000000,0.000000,0,-0.006226,0.135696,0.000000,2.499359,0.765778,0.000000,0.006000,0.002000,0.070000
08:38:20.300 PM 02/09/2016,Autonomous Enabled,0,TRUE,-44087,NetComm_CAN_Receive.vi:5470007<APPEND>  <b>Complete call chain:</b>      NetComm_CAN_Receive.vi:5470007      WPI_CANTalonSRX_Receive.vi      WPI_CANTalonSRX_GetStatus.vi      ShooterVI.vi      Periodic Tasks.vi      Robot Main.vi,0.000000,0.000000,4000.000000,4000.000000,Speed,Speed,-0.280000,0.770000,2.220000,3.000000,103.000000,1,0,0.000000,0.000000,0,0.000000,0.021225,0.000000,2.499359,0.766190,0.000000,0.007000,0.025000,0.025000
08:38:20.401 PM 02/09/2016,Autonomous Enabled,0,TRUE,-44087,NetComm_CAN_Receive.vi:5470007<APPEND>  <b>Complete call chain:</b>      NetComm_CAN_Receive.vi:5470007      WPI_CANTalonSRX_Receive.vi      WPI_CANTalonSRX_GetStatus.vi      ShooterVI.vi      Periodic Tasks.vi      Robot Main.vi,0.000000,0.000000,4000.000000,4000.000000,Speed,Speed,-0.280000,0.770000,2.220000,3.000000,102.000000,1,0,0.000000,0.000000,0,0.000000,0.052689,0.000000,2.499359,0.768097,0.000000,0.003000,-0.002000,-0.012000
08:38:20.502 PM 02/09/2016,Autonomous Enabled,0,TRUE,-44087,NetComm_CAN_Receive.vi:5470007<APPEND>  <b>Complete call chain:</b>      NetComm_CAN_Receive.vi:5470007      WPI_CANTalonSRX_Receive.vi      WPI_CANTalonSRX_GetStatus.vi      ShooterVI.vi      Periodic Tasks.vi      Robot Main.vi,0.000000,0.000000,4000.000000,4000.000000,Speed,Speed,-0.320000,0.780000,2.290000,3.000000,101.000000,1,0,0.000000,0.000000,0,0.000000,0.000000,0.000000,2.499359,0.769257,0.000000,-0.008000,0.010000,-0.001000
08:38:20.603 PM 02/09/2016,Autonomous Enabled,0,TRUE,-44087,NetComm_CAN_Receive.vi:5470007<APPEND>  <b>Complete call chain:</b>      NetComm_CAN_Receive.vi:5470007      WPI_CANTalonSRX_Receive.vi      WPI_CANTalonSRX_GetStatus.vi      ShooterVI.vi      Periodic Tasks.vi      Robot Main.vi,0.000000,0.000000,4000.000000,4000.000000,Speed,Speed,-0.300000,0.770000,2.310000,3.000000,102.000000,1,0,0.000000,0.000000,0,0.000000,0.000000,0.000000,2.499359,0.769257,0.000000,0.001000,0.001000,0.004000
08:38:20.703 PM 02/09/2016,Autonomous Enabled,0,TRUE,-44087,NetComm_CAN_Receive.vi:5470007<APPEND>  <b>Complete call chain:</b>      NetComm_CAN_Receive.vi:5470007      WPI_CANTalonSRX_Receive.vi      WPI_CANTalonSRX_GetStatus.vi      ShooterVI.vi      Periodic Tasks.vi      Robot Main.vi,0.000000,0.000000,4000.000000,4000.000000,Speed,Speed,-0.310000,0.790000,2.350000,3.000000,105.000000,1,0,0.000000,0.000000,0,0.000000,0.000000,0.000000,2.499359,0.769257,0.000000,0.008000,0.011000,0.009000
08:38:20.803 PM 02/09/2016,Autonomous Enabled,0,TRUE,-44087,NetComm_CAN_Receive.vi:5470007<APPEND>  <b>Complete call chain:</b>      NetComm_CAN_Receive.vi:5470007      WPI_CANTalonSRX_Receive.vi      WPI_CANTalonSRX_GetStatus.vi      ShooterVI.vi      Periodic Tasks.vi      Robot Main.vi,0.000000,0.000000,4000.000000,4000.000000,Speed,Speed,-0.300000,0.780000,2.370000,3.000000,101.000000,1,0,0.000000,0.000000,0,0.000000,0.000000,0.000000,2.499359,0.769257,0.000000,0.004000,0.000000,-0.003000
08:38:20.905 PM 02/09/2016,Autonomous Enabled,0,TRUE,-44087,NetComm_CAN_Receive.vi:5470007<APPEND>  <b>Complete call chain:</b>      NetComm_CAN_Receive.vi:5470007      WPI_CANTalonSRX_Receive.vi      WPI_CANTalonSRX_GetStatus.vi      ShooterVI.vi      Periodic Tasks.vi      Robot Main.vi,0.000000,0.000000,4000.000000,4000.000000,Speed,Speed,-0.300000,0.780000,2.400000,3.000000,102.000000,1,0,0.000000,0.000000,0,0.000000,0.000000,0.000000,2.499359,0.769257,0.000000,0.002000,0.002000,-0.001000
08:38:21.005 PM 02/09/2016,Autonomous Enabled,0,TRUE,-44087,NetComm_CAN_Receive.vi:5470007<APPEND>  <b>Complete call chain:</b>      NetComm_CAN_Receive.vi:5470007      WPI_CANTalonSRX_Receive.vi      WPI_CANTalonSRX_GetStatus.vi      ShooterVI.vi      Periodic Tasks.vi      Robot Main.vi,0.000000,0.000000,4000.000000,4000.000000,Speed,Speed,-0.310000,0.780000,2.420000,3.000000,103.000000,1,0,0.000000,0.000000,0,0.000000,0.000000,0.000000,2.499359,0.769257,0.000000,-0.002000,0.003000,0.001000
08:38:21.106 PM 02/09/2016,Autonomous Enabled,0,TRUE,-44087,NetComm_CAN_Receive.vi:5470007<APPEND>  <b>Complete call chain:</b>      NetComm_CAN_Receive.vi:5470007      WPI_CANTalonSRX_Receive.vi      WPI_CANTalonSRX_GetStatus.vi      ShooterVI.vi      Periodic Tasks.vi      Robot Main.vi,0.000000,0.000000,4000.000000,4000.000000,Speed,Speed,-0.310000,0.790000,2.430000,3.000000,101.000000,1,0,0.000000,0.000000,0,0.000000,0.000000,0.000000,2.499359,0.769257,0.000000,-0.001000,0.003000,0.000000
08:38:21.208 PM 02/09/2016,Autonomous Enabled,0,TRUE,-44087,NetComm_CAN_Receive.vi:5470007<APPEND>  <b>Complete call chain:</b>      NetComm_CAN_Receive.vi:5470007      WPI_CANTalonSRX_Receive.vi      WPI_CANTalonSRX_GetStatus.vi      ShooterVI.vi      Periodic Tasks.vi      Robot Main.vi,0.000000,0.000000,4000.000000,4000.000000,Speed,Speed,-0.310000,0.790000,2.450000,3.000000,101.000000,1,0,0.000000,0.000000,0,0.000000,0.000000,0.000000,2.499359,0.769257,0.000000,-0.001000,0.000000,0.004000
08:38:21.307 PM 02/09/2016,Autonomous Enabled,0,TRUE,-44087,NetComm_CAN_Receive.vi:5470007<APPEND>  <b>Complete call chain:</b>      NetComm_CAN_Receive.vi:5470007      WPI_CANTalonSRX_Receive.vi      WPI_CANTalonSRX_GetStatus.vi      ShooterVI.vi      Periodic Tasks.vi      Robot Main.vi,0.000000,0.000000,4000.000000,4000.000000,Speed,Speed,-0.310000,0.790000,2.470000,3.000000,103.000000,1,0,0.000000,0.000000,0,0.000000,0.000000,0.000000,2.499359,0.769257,0.000000,-0.001000,0.002000,-0.002000
08:38:21.409 PM 02/09/2016,Autonomous Enabled,0,TRUE,-44087,NetComm_CAN_Receive.vi:5470007<APPEND>  <b>Complete call chain:</b>      NetComm_CAN_Receive.vi:5470007      WPI_CANTalonSRX_Receive.vi      WPI_CANTalonSRX_GetStatus.vi      ShooterVI.vi      Periodic Tasks.vi      Robot Main.vi,0.000000,0.000000,4000.000000,4000.000000,Speed,Speed,-0.310000,0.790000,2.480000,3.000000,102.000000,1,0,0.000000,0.000000,0,0.000000,0.000000,0.000000,2.499359,0.769257,0.000000,0.002000,0.005000,-0.002000
08:38:21.510 PM 02/09/2016,Autonomous Enabled,0,TRUE,-44087,NetComm_CAN_Receive.vi:5470007<APPEND>  <b>Complete call chain:</b>      NetComm_CAN_Receive.vi:5470007      WPI_CANTalonSRX_Receive.vi      WPI_CANTalonSRX_GetStatus.vi      ShooterVI.vi      Periodic Tasks.vi      Robot Main.vi,0.000000,0.000000,4000.000000,4000.000000,Speed,Speed,-0.310000,0.790000,2.500000,3.000000,101.000000,1,0,0.000000,0.000000,0,0.000000,0.000000,0.000000,2.499359,0.769257,0.000000,0.004000,0.002000,0.003000
08:38:21.611 PM 02/09/2016,Autonomous Enabled,0,TRUE,-44087,NetComm_CAN_Receive.vi:5470007<APPEND>  <b>Complete call chain:</b>      NetComm_CAN_Receive.vi:5470007      WPI_CANTalonSRX_Receive.vi      WPI_CANTalonSRX_GetStatus.vi      ShooterVI.vi      Periodic Tasks.vi      Robot Main.vi,0.000000,0.000000,4000.000000,4000.000000,Speed,Speed,-0.310000,0.790000,2.520000,3.000000,105.000000,1,0,0.000000,0.000000,0,0.000000,0.000000,0.000000,2.499359,0.769257,0.000000,0.001000,0.003000,0.001000
08:38:21.713 PM 02/09/2016,Autonomous Enabled,0,TRUE,-44087,NetComm_CAN_Receive.vi:5470007<APPEND>  <b>Complete call chain:</b>      NetComm_CAN_Receive.vi:5470007      WPI_CANTalonSRX_Receive.vi      WPI_CANTalonSRX_GetStatus.vi      ShooterVI.vi      Periodic Tasks.vi      Robot Main.vi,0.000000,0.000000,4000.000000,4000.000000,Speed,Speed,-0.310000,0.790000,2.540000,3.000000,102.000000,1,0,0.000000,0.000000,0,0.000000,0.000000,0.000000,2.499359,0.769257,0.000000,0.000000,0.000000,0.000000
08:38:21.814 PM 02/09/2016,Autonomous Enabled,0,TRUE,-44087,NetComm_CAN_Receive.vi:5470007<APPEND>  <b>Complete call chain:</b>      NetComm_CAN_Receive.vi:5470007      WPI_CANTalonSRX_Receive.vi      WPI_CANTalonSRX_GetStatus.vi      ShooterVI.vi      Periodic Tasks.vi      Robot Main.vi,0.000000,0.000000,4000.000000,4000.000000,Speed,Speed,-0.310000,0.790000,2.540000,3.000000,101.000000,1,0,0.000000,0.000000,0,0.000000,0.000000,0.000000,2.499359,0.769257,0.000000,0.000000,0.001000,-0.003000
08:38:21.915 PM 02/09/2016,Autonomous Enabled,0,TRUE,-44087,NetComm_CAN_Receive.vi:5470007<APPEND>  <b>Complete call chain:</b>      NetComm_CAN_Receive.vi:5470007      WPI_CANTalonSRX_Receive.vi      WPI_CANTalonSRX_GetStatus.vi      ShooterVI.vi      Periodic Tasks.vi      Robot Main.vi,0.000000,0.000000,4000.000000,4000.000000,Speed,Speed,-0.310000,0.800000,2.560000,3.000000,104.000000,1,0,0.000000,0.000000,0,0.000000,0.000000,0.000000,2.499359,0.769257,0.000000,0.000000,0.002000,0.002000
08:38:22.016 PM 02/09/2016,Autonomous Enabled,0,TRUE,-44087,NetComm_CAN_Receive.vi:5470007<APPEND>  <b>Complete call chain:</b>      NetComm_CAN_Receive.vi:5470007      WPI_CANTalonSRX_Receive.vi      WPI_CANTalonSRX_GetStatus.vi      ShooterVI.vi      Periodic Tasks.vi      Robot Main.vi,0.000000,0.000000,4000.000000,4000.000000,Speed,Speed,-0.310000,0.800000,2.560000,3.000000,102.000000,1,0,0.000000,0.000000,0,0.000000,0.000000,0.000000,2.499359,0.769257,0.000000,-0.001000,0.003000,0.003000
08:38:22.116 PM 02/09/2016,Autonomous Enabled,0,TRUE,-44087,NetComm_CAN_Receive.vi:5470007<APPEND>  <b>Complete call chain:</b>      NetComm_CAN_Receive.vi:5470007      WPI_CANTalonSRX_Receive.vi      WPI_CANTalonSRX_GetStatus.vi      ShooterVI.vi      Periodic Tasks.vi      Robot Main.vi,0.000000,0.000000,4000.000000,4000.000000,Speed,Speed,-0.310000,0.800000,2.570000,3.000000,101.000000,1,0,0.000000,0.000000,0,0.000000,0.000000,0.000000,2.499359,0.769257,0.000000,0.000000,0.001000,0.004000
08:38:22.217 PM 02/09/2016,Autonomous Enabled,0,TRUE,-44087,NetComm_CAN_Receive.vi:5470007<APPEND>  <b>Complete call chain:</b>      NetComm_CAN_Receive.vi:5470007      WPI_CANTalonSRX_Receive.vi      WPI_CANTalonSRX_GetStatus.vi      ShooterVI.vi      Periodic Tasks.vi      Robot Main.vi,0.000000,0.000000,4000.000000,4000.000000,Speed,Speed,-0.310000,0.800000,2.570000,3.000000,102.000000,1,0,0.000000,0.000000,0,0.000000,0.000000,0.000000,2.499359,0.769257,0.000000,-0.001000,0.000000,0.000000
08:38:22.317 PM 02/09/2016,Autonomous Disabled,0,TRUE,-44087,NetComm_CAN_Receive.vi:5470007<APPEND>  <b>Complete call chain:</b>      NetComm_CAN_Receive.vi:5470007      WPI_CANTalonSRX_Receive.vi      WPI_CANTalonSRX_GetStatus.vi      ShooterVI.vi      Periodic Tasks.vi      Robot Main.vi,0.000000,0.000000,4000.000000,4000.000000,Speed,Speed,-0.320000,0.810000,2.590000,3.000000,101.000000,1,0,0.000000,0.000000,0,0.000000,0.000000,0.000000,2.499359,0.769257,0.000000,-0.002000,-0.001000,0.002000
08:38:22.417 PM 02/09/2016,Autonomous Disabled,0,TRUE,-44087,NetComm_CAN_Receive.vi:5470007<APPEND>  <b>Complete call chain:</b>      NetComm_CAN_Receive.vi:5470007      WPI_CANTalonSRX_Receive.vi      WPI_CANTalonSRX_GetStatus.vi      ShooterVI.vi      Periodic Tasks.vi      Robot Main.vi,0.000000,0.000000,4000.000000,4000.000000,Speed,Speed,-0.320000,0.810000,2.590000,3.000000,105.000000,1,0,0.000000,0.000000,0,0.000000,0.000000,0.000000,2.499359,0.769257,0.000000,-0.001000,0.005000,0.000000
08:38:22.518 PM 02/09/2016,Autonomous Disabled,0,TRUE,-44087,NetComm_CAN_Receive.vi:5470007<APPEND>  <b>Complete call chain:</b>      NetComm_CAN_Receive.vi:5470007      WPI_CANTalonSRX_Receive.vi      WPI_CANTalonSRX_GetStatus.vi      ShooterVI.vi      Periodic Tasks.vi      Robot Main.vi,0.000000,0.000000,4000.000000,4000.000000,Speed,Speed,-0.310000,0.800000,2.600000,3.000000,101.000000,1,0,0.000000,0.000000,0,0.000000,0.000000,0.000000,2.499359,0.769257,0.000000,0.003000,0.000000,0.003000
08:38:22.619 PM 02/09/2016,Autonomous Disabled,0,TRUE,-44087,NetComm_CAN_Receive.vi:5470007<APPEND>  <b>Complete call chain:</b>      NetComm_CAN_Receive.vi:5470007      WPI_CANTalonSRX_Receive.vi      WPI_CANTalonSRX_GetStatus.vi      ShooterVI.vi      Periodic Tasks.vi      Robot Main.vi,0.000000,0.000000,4000.000000,4000.000000,Speed,Speed,-0.320000,0.800000,2.610000,3.000000,101.000000,1,0,0.000000,0.000000,0,0.000000,0.000000,0.000000,2.499359,0.769257,0.000000,0.002000,0.000000,0.001000
08:38:22.720 PM 02/09/2016,Autonomous Disabled,0,TRUE,-44087,NetComm_CAN_Receive.vi:5470007<APPEND>  <b>Complete call chain:</b>      NetComm_CAN_Receive.vi:5470007      WPI_CANTalonSRX_Receive.vi      WPI_CANTalonSRX_GetStatus.vi      ShooterVI.vi      Periodic Tasks.vi      Robot Main.vi,0.000000,0.000000,4000.000000,4000.000000,Speed,Speed,-0.310000,0.800000,2.610000,3.000000,101.000000,1,0,0.000000,0.000000,0,0.000000,0.000000,0.000000,2.499359,0.769257,0.000000,0.002000,0.001000,0.003000
08:38:22.823 PM 02/09/2016,Autonomous Disabled,0,TRUE,-44087,NetComm_CAN_Receive.vi:5470007<APPEND>  <b>Complete call chain:</b>      NetComm_CAN_Receive.vi:5470007      WPI_CANTalonSRX_Receive.vi      WPI_CANTalonSRX_GetStatus.vi      ShooterVI.vi      Periodic Tasks.vi      Robot Main.vi,0.000000,0.000000,4000.000000,4000.000000,Speed,Speed,-0.310000,0.810000,2.620000,3.000000,102.000000,1,0,0.000000,0.000000,0,0.000000,0.000000,0.000000,2.499359,0.769257,0.000000,0.000000,0.000000,0.003000
08:38:22.924 PM 02/09/2016,Autonomous Disabled,0,TRUE,-44087,NetComm_CAN_Receive.vi:5470007<APPEND>  <b>Complete call chain:</b>      NetComm_CAN_Receive.vi:5470007      WPI_CANTalonSRX_Receive.vi      WPI_CANTalonSRX_GetStatus.vi      ShooterVI.vi      Periodic Tasks.vi      Robot Main.vi,0.000000,0.000000,4000.000000,4000.000000,Speed,Speed,-0.310000,0.810000,2.620000,3.000000,101.000000,1,0,0.000000,0.000000,0,0.000000,0.000000,0.000000,2.499359,0.769257,0.000000,0.000000,0.000000,0.000000
08:38:23.025 PM 02/09/2016,Autonomous Disabled,0,TRUE,-44087,NetComm_CAN_Receive.vi:5470007<APPEND>  <b>Complete call chain:</b>      NetComm_CAN_Receive.vi:5470007      WPI_CANTalonSRX_Receive.vi      WPI_CANTalonSRX_GetStatus.vi      ShooterVI.vi      Periodic Tasks.vi      Robot Main.vi,0.000000,0.000000,4000.000000,4000.000000,Speed,Speed,-0.320000,0.810000,2.630000,3.000000,102.000000,1,0,0.000000,0.000000,0,0.000000,0.000000,0.000000,2.499359,0.769257,0.000000,0.000000,0.001000,0.001000
08:38:23.126 PM 02/09/2016,Autonomous Disabled,0,TRUE,-44087,NetComm_CAN_Receive.vi:5470007<APPEND>  <b>Complete call chain:</b>      NetComm_CAN_Receive.vi:5470007      WPI_CANTalonSRX_Receive.vi      WPI_CANTalonSRX_GetStatus.vi      ShooterVI.vi      Periodic Tasks.vi      Robot Main.vi,0.000000,0.000000,4000.000000,4000.000000,Speed,Speed,-0.310000,0.810000,2.630000,3.000000,101.000000,1,0,0.000000,0.000000,0,0.000000,0.000000,0.000000,2.499359,0.769257,0.000000,-0.001000,0.001000,0.005000
08:38:23.225 PM 02/09/2016,Autonomous Disabled,0,TRUE,-44087,NetComm_CAN_Receive.vi:5470007<APPEND>  <b>Complete call chain:</b>      NetComm_CAN_Receive.vi:5470007      WPI_CANTalonSRX_Receive.vi      WPI_CANTalonSRX_GetStatus.vi      ShooterVI.vi      Periodic Tasks.vi      Robot Main.vi,0.000000,0.000000,4000.000000,4000.000000,Speed,Speed,-0.310000,0.810000,2.640000,3.000000,101.000000,1,0,0.000000,0.000000,0,0.000000,0.000000,0.000000,2.499359,0.769257,0.000000,0.000000,0.001000,0.001000
08:38:23.325 PM 02/09/2016,Autonomous Disabled,0,TRUE,-44087,NetComm_CAN_Receive.vi:5470007<APPEND>  <b>Complete call chain:</b>      NetComm_CAN_Receive.vi:5470007      WPI_CANTalonSRX_Receive.vi      WPI_CANTalonSRX_GetStatus.vi      ShooterVI.vi      Periodic Tasks.vi      Robot Main.vi,0.000000,0.000000,4000.000000,4000.000000,Speed,Speed,-0.310000,0.810000,2.650000,3.000000,104.000000,1,0,0.000000,0.000000,0,0.000000,0.000000,0.000000,2.499359,0.769257,0.000000,0.002000,0.004000,0.005000
08:38:23.426 PM 02/09/2016,Autonomous Enabled,0,TRUE,-44087,NetComm_CAN_Receive.vi:5470007<APPEND>  <b>Complete call chain:</b>      NetComm_CAN_Receive.vi:5470007      WPI_CANTalonSRX_Receive.vi      WPI_CANTalonSRX_GetStatus.vi      ShooterVI.vi      Periodic Tasks.vi      Robot Main.vi,0.000000,0.000000,4000.000000,4000.000000,Speed,Speed,-0.310000,0.810000,2.650000,3.000000,102.000000,1,0,0.000000,0.000000,0,0.000000,0.000000,0.000000,2.499359,0.769257,0.000000,0.000000,0.000000,0.003000
08:38:23.528 PM 02/09/2016,Autonomous Enabled,0,TRUE,-44087,NetComm_CAN_Receive.vi:5470007<APPEND>  <b>Complete call chain:</b>      NetComm_CAN_Receive.vi:5470007      WPI_CANTalonSRX_Receive.vi      WPI_CANTalonSRX_GetStatus.vi      ShooterVI.vi      Periodic Tasks.vi      Robot Main.vi,0.000000,0.000000,4000.000000,4000.000000,Speed,Speed,-0.310000,0.810000,2.650000,3.000000,103.000000,1,0,0.000000,0.000000,0,0.000000,0.000000,0.000000,2.499359,0.769257,0.000000,-0.002000,0.000000,0.000000
08:38:23.628 PM 02/09/2016,Autonomous Enabled,0,TRUE,-44087,NetComm_CAN_Receive.vi:5470007<APPEND>  <b>Complete call chain:</b>      NetComm_CAN_Receive.vi:5470007      WPI_CANTalonSRX_Receive.vi      WPI_CANTalonSRX_GetStatus.vi      ShooterVI.vi      Periodic Tasks.vi      Robot Main.vi,0.000000,0.000000,4000.000000,4000.000000,Speed,Speed,-0.310000,0.810000,2.650000,3.000000,103.000000,1,0,0.000000,0.000000,0,0.000000,0.000000,0.000000,2.499359,0.769257,0.000000,0.001000,0.000000,0.002000
08:38:23.728 PM 02/09/2016,Autonomous Enabled,0,TRUE,-44087,NetComm_CAN_Receive.vi:5470007<APPEND>  <b>Complete call chain:</b>      NetComm_CAN_Receive.vi:5470007      WPI_CANTalonSRX_Receive.vi      WPI_CANTalonSRX_GetStatus.vi      ShooterVI.vi      Periodic Tasks.vi      Robot Main.vi,0.000000,0.000000,4000.000000,4000.000000,Speed,Speed,-0.310000,0.810000,2.660000,3.000000,102.000000,1,0,0.000000,0.000000,0,0.000000,0.000000,0.000000,2.499359,0.769257,0.000000,0.001000,0.000000,0.001000
08:38:23.829 PM 02/09/2016,Autonomous Enabled,0,TRUE,-44087,NetComm_CAN_Receive.vi:5470007<APPEND>  <b>Complete call chain:</b>      NetComm_CAN_Receive.vi:5470007      WPI_CANTalonSRX_Receive.vi      WPI_CANTalonSRX_GetStatus.vi      ShooterVI.vi      Periodic Tasks.vi      Robot Main.vi,0.000000,0.000000,4000.000000,4000.000000,Speed,Speed,-0.310000,0.810000,2.660000,3.000000,101.000000,1,0,0.000000,0.000000,0,0.000000,0.000000,0.000000,2.499359,0.769257,0.000000,0.001000,0.000000,-0.001000
08:38:23.928 PM 02/09/2016,Autonomous Enabled,0,TRUE,-44087,NetComm_CAN_Receive.vi:5470007<APPEND>  <b>Complete call chain:</b>      NetComm_CAN_Receive.vi:5470007      WPI_CANTalonSRX_Receive.vi      WPI_CANTalonSRX_GetStatus.vi      ShooterVI.vi      Periodic Tasks.vi      Robot Main.vi,0.000000,0.000000,4000.000000,4000.000000,Speed,Speed,-0.310000,0.810000,2.660000,3.000000,102.000000,1,0,0.000000,0.000000,0,0.000000,0.000000,0.000000,2.499359,0.769257,0.000000,-0.001000,0.000000,0.008000
08:38:24.029 PM 02/09/2016,Autonomous Enabled,0,TRUE,-44087,NetComm_CAN_Receive.vi:5470007<APPEND>  <b>Complete call chain:</b>      NetComm_CAN_Receive.vi:5470007      WPI_CANTalonSRX_Receive.vi      WPI_CANTalonSRX_GetStatus.vi      ShooterVI.vi      Periodic Tasks.vi      Robot Main.vi,0.000000,0.000000,4000.000000,4000.000000,Speed,Speed,-0.310000,0.810000,2.660000,3.000000,101.000000,1,0,0.000000,0.000000,0,0.000000,0.000000,0.000000,2.499359,0.769257,0.000000,-0.001000,0.001000,0.004000
08:38:24.128 PM 02/09/2016,Autonomous Enabled,0,TRUE,-44087,NetComm_CAN_Receive.vi:5470007<APPEND>  <b>Complete call chain:</b>      NetComm_CAN_Receive.vi:5470007      WPI_CANTalonSRX_Receive.vi      WPI_CANTalonSRX_GetStatus.vi      ShooterVI.vi      Periodic Tasks.vi      Robot Main.vi,0.000000,0.000000,4000.000000,4000.000000,Speed,Speed,-0.310000,0.810000,2.660000,3.000000,103.000000,1,0,0.000000,0.000000,0,0.000000,0.000000,0.000000,2.499359,0.769257,0.000000,-0.002000,0.002000,0.003000
08:38:24.230 PM 02/09/2016,Autonomous Enabled,0,TRUE,-44087,NetComm_CAN_Receive.vi:5470007<APPEND>  <b>Complete call chain:</b>      NetComm_CAN_Receive.vi:5470007      WPI_CANTalonSRX_Receive.vi      WPI_CANTalonSRX_GetStatus.vi      ShooterVI.vi      Periodic Tasks.vi      Robot Main.vi,0.000000,0.000000,4000.000000,4000.000000,Speed,Speed,0.060000,0.870000,7.140000,3.000000,101.000000,0,0,0.000000,0.000000,0,0.180054,0.756866,0.000000,2.503998,0.807831,0.000000,-0.002000,0.002000,0.003000
08:38:24.331 PM 02/09/2016,Autonomous Enabled,0,TRUE,-44087,NetComm_CAN_Receive.vi:5470007<APPEND>  <b>Complete call chain:</b>      NetComm_CAN_Receive.vi:5470007      WPI_CANTalonSRX_Receive.vi      WPI_CANTalonSRX_GetStatus.vi      ShooterVI.vi      Periodic Tasks.vi      Robot Main.vi,0.000000,0.000000,4000.000000,4000.000000,Speed,Speed,-0.130000,0.840000,5.100000,3.000000,102.000000,1,0,0.000000,0.000000,0,0.160416,0.722672,0.000000,2.507462,0.822433,0.000000,0.091000,-0.027000,0.309000
08:38:24.431 PM 02/09/2016,Autonomous Enabled,0,TRUE,-44087,NetComm_CAN_Receive.vi:5470007<APPEND>  <b>Complete call chain:</b>      NetComm_CAN_Receive.vi:5470007      WPI_CANTalonSRX_Receive.vi      WPI_CANTalonSRX_GetStatus.vi      ShooterVI.vi      Periodic Tasks.vi      Robot Main.vi,0.000000,0.000000,4000.000000,4000.000000,Speed,Speed,-1.000000,1.160000,1.800000,3.000000,102.000000,1,0,0.000000,0.000000,0,0.206619,0.569122,0.000000,2.516617,0.854462,0.000000,-0.232000,-0.073000,-0.002000
08:38:24.530 PM 02/09/2016,Autonomous Enabled,0,TRUE,-44087,NetComm_CAN_Receive.vi:5470007<APPEND>  <b>Complete call chain:</b>      NetComm_CAN_Receive.vi:5470007      WPI_CANTalonSRX_Receive.vi      WPI_CANTalonSRX_GetStatus.vi      ShooterVI.vi      Periodic Tasks.vi      Robot Main.vi,0.000000,0.000000,4000.000000,4000.000000,Speed,Speed,-1.230000,0.950000,4.370000,3.000000,101.000000,1,0,0.000000,0.000000,0,0.141830,0.392548,0.000000,2.524551,0.878723,0.000000,-0.125000,-0.216000,0.987000
08:38:24.630 PM 02/09/2016,Autonomous Enabled,0,TRUE,-44087,NetComm_CAN_Receive.vi:5470007<APPEND>  <b>Complete call chain:</b>      NetComm_CAN_Receive.vi:5470007      WPI_CANTalonSRX_Receive.vi      WPI_CANTalonSRX_GetStatus.vi      ShooterVI.vi      Periodic Tasks.vi      Robot Main.vi,0.000000,0.000000,4000.000000,4000.000000,Speed,Speed,-1.280000,0.770000,3.140000,3.000000,101.000000,1,0,0.000000,0.000000,0,0.129456,0.361465,0.000000,2.532730,0.900238,0.000000,-0.018000,0.000000,-0.097000
08:38:24.731 PM 02/09/2016,Autonomous Enabled,0,TRUE,-44087,NetComm_CAN_Receive.vi:5470007<APPEND>  <b>Complete call chain:</b>      NetComm_CAN_Receive.vi:5470007      WPI_CANTalonSRX_Receive.vi      WPI_CANTalonSRX_GetStatus.vi      ShooterVI.vi      Periodic Tasks.vi      Robot Main.vi,0.000000,0.000000,4000.000000,4000.000000,Speed,Speed,-1.350000,0.890000,2.890000,3.000000,102.000000,1,0,0.000000,0.000000,0,0.140518,0.172852,0.000000,2.539658,0.913559,0.000000,0.042000,0.017000,-0.264000
08:38:24.833 PM 02/09/2016,Autonomous Enabled,0,TRUE,-44087,NetComm_CAN_Receive.vi:5470007<APPEND>  <b>Complete call chain:</b>      NetComm_CAN_Receive.vi:5470007      WPI_CANTalonSRX_Receive.vi      WPI_CANTalonSRX_GetStatus.vi      ShooterVI.vi      Periodic Tasks.vi      Robot Main.vi,0.000000,0.000000,4000.000000,4000.000000,Speed,Speed,-1.280000,0.940000,2.890000,3.000000,104.000000,1,0,0.000000,0.000000,0,0.161484,0.130310,0.000000,2.545517,0.919769,0.000000,0.008000,-0.112000,0.229000
08:38:24.935 PM 02/09/2016,Autonomous Enabled,0,TRUE,-44087,NetComm_CAN_Receive.vi:5470007<APPEND>  <b>Complete call chain:</b>      NetComm_CAN_Receive.vi:5470007      WPI_CANTalonSRX_Receive.vi      WPI_CANTalonSRX_GetStatus.vi      ShooterVI.vi      Periodic Tasks.vi      Robot Main.vi,0.000000,0.000000,4000.000000,4000.000000,Speed,Speed,-1.180000,0.890000,2.420000,3.000000,103.000000,1,0,0.000000,0.000000,0,0.159042,0.041016,0.000000,2.554047,0.924438,0.000000,0.016000,-0.071000,0.018000
08:38:25.035 PM 02/09/2016,Autonomous Enabled,0,TRUE,-44087,NetComm_CAN_Receive.vi:5470007<APPEND>  <b>Complete call chain:</b>      NetComm_CAN_Receive.vi:5470007      WPI_CANTalonSRX_Receive.vi      WPI_CANTalonSRX_GetStatus.vi      ShooterVI.vi      Periodic Tasks.vi      Robot Main.vi,0.000000,0.000000,4000.000000,4000.000000,Speed,Speed,-1.290000,0.910000,2.330000,3.000000,100.000000,1,0,0.000000,0.000000,0,0.149689,0.009750,0.000000,2.561249,0.925232,0.000000,0.039000,0.020000,0.025000
08:38:25.136 PM 02/09/2016,Autonomous Enabled,0,TRUE,-44087,NetComm_CAN_Receive.vi:5470007<APPEND>  <b>Complete call chain:</b>      NetComm_CAN_Receive.vi:5470007      WPI_CANTalonSRX_Receive.vi      WPI_CANTalonSRX_GetStatus.vi      ShooterVI.vi      Periodic Tasks.vi      Robot Main.vi,0.000000,0.000000,4000.000000,4000.000000,Speed,Speed,-1.250000,0.870000,2.420000,3.000000,100.000000,1,0,0.000000,0.000000,0,0.005005,0.004837,0.000000,2.565659,0.925919,0.000000,0.034000,0.037000,0.003000
08:38:25.237 PM 02/09/2016,Autonomous Enabled,0,TRUE,-44087,NetComm_CAN_Receive.vi:5470007<APPEND>  <b>Complete call chain:</b>      NetComm_CAN_Receive.vi:5470007      WPI_CANTalonSRX_Receive.vi      WPI_CANTalonSRX_GetStatus.vi      ShooterVI.vi      Periodic Tasks.vi      Robot Main.vi,0.000000,0.000000,4000.000000,4000.000000,Speed,Speed,-1.260000,0.860000,2.540000,3.000000,102.000000,1,0,0.000000,0.000000,0,0.002243,0.000000,0.000000,2.565872,0.927032,0.000000,0.018000,-0.002000,-0.008000
08:38:25.338 PM 02/09/2016,Autonomous Enabled,0,TRUE,-44087,NetComm_CAN_Receive.vi:5470007<APPEND>  <b>Complete call chain:</b>      NetComm_CAN_Receive.vi:5470007      WPI_CANTalonSRX_Receive.vi      WPI_CANTalonSRX_GetStatus.vi      ShooterVI.vi      Periodic Tasks.vi      Robot Main.vi,0.000000,0.000000,4000.000000,4000.000000,Speed,Speed,-1.280000,0.860000,2.540000,3.000000,102.000000,1,0,0.000000,0.000000,0,0.000000,0.000000,0.000000,2.565872,0.927032,0.000000,0.000000,-0.005000,-0.003000
08:38:25.438 PM 02/09/2016,Autonomous Enabled,0,TRUE,-44087,NetComm_CAN_Receive.vi:5470007<APPEND>  <b>Complete call chain:</b>      NetComm_CAN_Receive.vi:5470007      WPI_CANTalonSRX_Receive.vi      WPI_CANTalonSRX_GetStatus.vi      ShooterVI.vi      Periodic Tasks.vi      Robot Main.vi,0.000000,0.000000,4000.000000,4000.000000,Speed,Speed,-1.290000,0.860000,2.520000,3.000000,101.000000,1,0,0.000000,0.000000,0,0.000000,0.000000,0.000000,2.565872,0.927032,0.000000,-0.005000,0.006000,0.006000
08:38:25.539 PM 02/09/2016,Autonomous Enabled,0,TRUE,-44087,NetComm_CAN_Receive.vi:5470007<APPEND>  <b>Complete call chain:</b>      NetComm_CAN_Receive.vi:5470007      WPI_CANTalonSRX_Receive.vi      WPI_CANTalonSRX_GetStatus.vi      ShooterVI.vi      Periodic Tasks.vi      Robot Main.vi,0.000000,0.000000,4000.000000,4000.000000,Speed,Speed,-1.270000,0.860000,2.570000,3.000000,103.000000,1,0,0.000000,0.000000,0,0.000000,0.000000,0.000000,2.565872,0.927032,0.000000,-0.004000,0.001000,0.005000
08:38:25.640 PM 02/09/2016,Autonomous Enabled,0,TRUE,-44087,NetComm_CAN_Receive.vi:5470007<APPEND>  <b>Complete call chain:</b>      NetComm_CAN_Receive.vi:5470007      WPI_CANTalonSRX_Receive.vi      WPI_CANTalonSRX_GetStatus.vi      ShooterVI.vi      Periodic Tasks.vi      Robot Main.vi,0.000000,0.000000,4000.000000,4000.000000,Speed,Speed,-1.290000,0.850000,2.600000,3.000000,101.000000,1,0,0.000000,0.000000,0,0.000000,0.000000,0.000000,2.565872,0.927032,0.000000,-0.008000,-0.004000,0.002000
08:38:25.741 PM 02/09/2016,Autonomous Enabled,0,TRUE,-44087,NetComm_CAN_Receive.vi:5470007<APPEND>  <b>Complete call chain:</b>      NetComm_CAN_Receive.vi:5470007      WPI_CANTalonSRX_Receive.vi      WPI_CANTalonSRX_GetStatus.vi      ShooterVI.vi      Periodic Tasks.vi      Robot Main.vi,0.000000,0.000000,4000.000000,4000.000000,Speed,Speed,-1.290000,0.850000,2.600000,3.000000,103.000000,1,0,0.000000,0.000000,0,0.000000,0.000000,0.000000,2.565872,0.927032,0.000000,-0.003000,0.004000,0.004000
08:38:25.842 PM 02/09/2016,Autonomous Enabled,0,TRUE,-44087,NetComm_CAN_Receive.vi:5470007<APPEND>  <b>Complete call chain:</b>      NetComm_CAN_Receive.vi:5470007      WPI_CANTalonSRX_Receive.vi      WPI_CANTalonSRX_GetStatus.vi      ShooterVI.vi      Periodic Tasks.vi      Robot Main.vi,0.000000,0.000000,4000.000000,4000.000000,Speed,Speed,-1.290000,0.850000,2.620000,3.000000,101.000000,1,0,0.000000,0.000000,0,0.000000,0.000000,0.000000,2.565872,0.927032,0.000000,-0.005000,0.001000,0.003000
08:38:25.943 PM 02/09/2016,Autonomous Enabled,0,TRUE,-44087,NetComm_CAN_Receive.vi:5470007<APPEND>  <b>Complete call chain:</b>      NetComm_CAN_Receive.vi:5470007      WPI_CANTalonSRX_Receive.vi      WPI_CANTalonSRX_GetStatus.vi      ShooterVI.vi      Periodic Tasks.vi      Robot Main.vi,0.000000,0.000000,4000.000000,4000.000000,Speed,Speed,-1.290000,0.850000,2.630000,3.000000,102.000000,1,0,0.000000,0.000000,0,0.000000,0.000000,0.000000,2.565872,0.927032,0.000000,-0.002000,0.003000,0.000000
08:38:26.042 PM 02/09/2016,Autonomous Enabled,0,TRUE,-44087,NetComm_CAN_Receive.vi:5470007<APPEND>  <b>Complete call chain:</b>      NetComm_CAN_Receive.vi:5470007      WPI_CANTalonSRX_Receive.vi      WPI_CANTalonSRX_GetStatus.vi      ShooterVI.vi      Periodic Tasks.vi      Robot Main.vi,0.000000,0.000000,4000.000000,4000.000000,Speed,Speed,-1.290000,0.840000,2.640000,3.000000,103.000000,1,0,0.000000,0.000000,0,0.000000,0.000000,0.000000,2.565872,0.927032,0.000000,-0.003000,0.006000,0.001000
08:38:26.143 PM 02/09/2016,Autonomous Enabled,0,TRUE,-44087,NetComm_CAN_Receive.vi:5470007<APPEND>  <b>Complete call chain:</b>      NetComm_CAN_Receive.vi:5470007      WPI_CANTalonSRX_Receive.vi      WPI_CANTalonSRX_GetStatus.vi      ShooterVI.vi      Periodic Tasks.vi      Robot Main.vi,0.000000,0.000000,4000.000000,4000.000000,Speed,Speed,-1.290000,0.840000,2.660000,3.000000,105.000000,1,0,0.000000,0.000000,0,0.000000,0.000000,0.000000,2.565872,0.927032,0.000000,-0.001000,0.004000,-0.002000
08:38:26.243 PM 02/09/2016,Autonomous Enabled,0,TRUE,-44087,NetComm_CAN_Receive.vi:5470007<APPEND>  <b>Complete call chain:</b>      NetComm_CAN_Receive.vi:5470007      WPI_CANTalonSRX_Receive.vi      WPI_CANTalonSRX_GetStatus.vi      ShooterVI.vi      Periodic Tasks.vi      Robot Main.vi,0.000000,0.000000,4000.000000,4000.000000,Speed,Speed,-1.290000,0.840000,2.670000,3.000000,100.000000,1,0,0.000000,0.000000,0,0.000000,0.000000,0.000000,2.565872,0.927032,0.000000,0.000000,0.001000,0.000000
08:38:26.343 PM 02/09/2016,Autonomous Enabled,0,TRUE,-44087,NetComm_CAN_Receive.vi:5470007<APPEND>  <b>Complete call chain:</b>      NetComm_CAN_Receive.vi:5470007      WPI_CANTalonSRX_Receive.vi      WPI_CANTalonSRX_GetStatus.vi      ShooterVI.vi      Periodic Tasks.vi      Robot Main.vi,0.000000,0.000000,4000.000000,4000.000000,Speed,Speed,-1.290000,0.840000,2.680000,3.000000,101.000000,1,0,0.000000,0.000000,0,0.000000,0.000000,0.000000,2.565872,0.927032,0.000000,-0.003000,0.000000,-0.003000
08:38:26.443 PM 02/09/2016,Autonomous Enabled,0,TRUE,-44087,NetComm_CAN_Receive.vi:5470007<APPEND>  <b>Complete call chain:</b>      NetComm_CAN_Receive.vi:5470007      WPI_CANTalonSRX_Receive.vi      WPI_CANTalonSRX_GetStatus.vi      ShooterVI.vi      Periodic Tasks.vi      Robot Main.vi,0.000000,0.000000,4000.000000,4000.000000,Speed,Speed,-1.300000,0.840000,2.700000,3.000000,102.000000,1,0,0.000000,0.000000,0,0.000000,0.000000,0.000000,2.565872,0.927032,0.000000,-0.005000,0.001000,-0.002000
