Time,RobotMode,AutoToRun,ErrorStatus, ErrorCode,ErrorSource,ActualRPM1,ActualRPM2,DesiredRPM1,DesiredRPM2,ControlMode1,ControlMode2,NavXYaw,NavXRoll,NavXPitch,ShooterState,LoopTime,IsLevel,IsAutoTargeting,LeftMotorOutput,RightMotorOutput,IsHaloDrive,NavXVelocityX,NavXVelocityY,NavXVelocityZ,NavXDisplacementX,NavXDisplacementY,NavXDisplacementZ,NavXAccelerationX,NavXAccelerationY,NavXAccelerationZ,AutoDefendState
10:36:11.579 AM 02/13/2016,Teleop Enabled,0,TRUE,-44087,NetComm_CAN_Receive.vi:5470006<APPEND>  <b>Complete call chain:</b>      NetComm_CAN_Receive.vi:5470006      WPI_CANTalonSRX_Receive.vi      WPI_MotorControlOpenCANTalonSRX.vi      Begin.vi      Robot Main.vi,0.000000,0.000000,0.000000,0.000000,Speed,Speed,-0.310000,1.130000,2.850000,0.000000,101.000000,1,0,0.000000,-0.003968,0,0.000000,0.000000,0.000000,-0.187744,0.020966,0.000000,0.001000,0.000000,0.001000,FlatInitial
10:36:11.679 AM 02/13/2016,Teleop Enabled,0,TRUE,-44087,NetComm_CAN_Receive.vi:5470006<APPEND>  <b>Complete call chain:</b>      NetComm_CAN_Receive.vi:5470006      WPI_CANTalonSRX_Receive.vi      WPI_MotorControlOpenCANTalonSRX.vi      Begin.vi      Robot Main.vi,0.000000,0.000000,0.000000,0.000000,Speed,Speed,-0.310000,1.130000,2.850000,0.000000,101.000000,1,0,0.000000,-0.003968,0,0.000000,0.000000,0.000000,-0.187744,0.020966,0.000000,0.001000,0.000000,0.001000,FlatInitial
10:36:11.780 AM 02/13/2016,Teleop Enabled,0,TRUE,-44087,NetComm_CAN_Receive.vi:5470006<APPEND>  <b>Complete call chain:</b>      NetComm_CAN_Receive.vi:5470006      WPI_CANTalonSRX_Receive.vi      WPI_MotorControlOpenCANTalonSRX.vi      Begin.vi      Robot Main.vi,0.000000,0.000000,0.000000,0.000000,Speed,Speed,-0.310000,1.130000,2.850000,0.000000,101.000000,1,0,0.000000,-0.003968,0,0.000000,0.000000,0.000000,-0.187744,0.020966,0.000000,0.001000,0.000000,0.001000,FlatInitial
10:36:11.880 AM 02/13/2016,Teleop Enabled,0,TRUE,-44087,NetComm_CAN_Receive.vi:5470006<APPEND>  <b>Complete call chain:</b>      NetComm_CAN_Receive.vi:5470006      WPI_CANTalonSRX_Receive.vi      WPI_MotorControlOpenCANTalonSRX.vi      Begin.vi      Robot Main.vi,0.000000,0.000000,0.000000,0.000000,Speed,Speed,-0.310000,1.130000,2.850000,0.000000,101.000000,1,0,0.000000,-0.003968,0,0.000000,0.000000,0.000000,-0.187744,0.020966,0.000000,0.001000,0.000000,0.001000,FlatInitial
10:36:11.980 AM 02/13/2016,Teleop Enabled,0,TRUE,-44087,NetComm_CAN_Receive.vi:5470006<APPEND>  <b>Complete call chain:</b>      NetComm_CAN_Receive.vi:5470006      WPI_CANTalonSRX_Receive.vi      WPI_MotorControlOpenCANTalonSRX.vi      Begin.vi      Robot Main.vi,0.000000,0.000000,0.000000,0.000000,Speed,Speed,-0.310000,1.130000,2.850000,0.000000,101.000000,1,0,0.000000,-0.003968,0,0.000000,0.000000,0.000000,-0.187744,0.020966,0.000000,0.001000,0.000000,0.001000,FlatInitial
10:36:12.081 AM 02/13/2016,Teleop Enabled,0,TRUE,-44087,NetComm_CAN_Receive.vi:5470006<APPEND>  <b>Complete call chain:</b>      NetComm_CAN_Receive.vi:5470006      WPI_CANTalonSRX_Receive.vi      WPI_MotorControlOpenCANTalonSRX.vi      Begin.vi      Robot Main.vi,0.000000,0.000000,0.000000,0.000000,Speed,Speed,-0.310000,1.130000,2.850000,0.000000,102.000000,1,0,0.000000,-0.003968,0,0.000000,0.000000,0.000000,-0.187744,0.020966,0.000000,0.001000,0.000000,0.001000,FlatInitial
10:36:12.181 AM 02/13/2016,Teleop Enabled,0,TRUE,-44087,NetComm_CAN_Receive.vi:5470006<APPEND>  <b>Complete call chain:</b>      NetComm_CAN_Receive.vi:5470006      WPI_CANTalonSRX_Receive.vi      WPI_MotorControlOpenCANTalonSRX.vi      Begin.vi      Robot Main.vi,0.000000,0.000000,0.000000,0.000000,Speed,Speed,-0.310000,1.130000,2.850000,0.000000,101.000000,1,0,0.000000,-0.003968,0,0.000000,0.000000,0.000000,-0.187744,0.020966,0.000000,0.001000,0.000000,0.001000,FlatInitial
10:36:12.281 AM 02/13/2016,Teleop Enabled,0,TRUE,-44087,NetComm_CAN_Receive.vi:5470006<APPEND>  <b>Complete call chain:</b>      NetComm_CAN_Receive.vi:5470006      WPI_CANTalonSRX_Receive.vi      WPI_MotorControlOpenCANTalonSRX.vi      Begin.vi      Robot Main.vi,0.000000,0.000000,0.000000,0.000000,Speed,Speed,-0.310000,1.130000,2.850000,0.000000,103.000000,1,0,0.000000,-0.003968,0,0.000000,0.000000,0.000000,-0.187744,0.020966,0.000000,0.001000,0.000000,0.001000,FlatInitial
10:36:12.381 AM 02/13/2016,Teleop Enabled,0,TRUE,-44087,NetComm_CAN_Receive.vi:5470006<APPEND>  <b>Complete call chain:</b>      NetComm_CAN_Receive.vi:5470006      WPI_CANTalonSRX_Receive.vi      WPI_MotorControlOpenCANTalonSRX.vi      Begin.vi      Robot Main.vi,0.000000,0.000000,0.000000,0.000000,Speed,Speed,-0.310000,1.130000,2.850000,0.000000,100.000000,1,0,0.000000,-0.003968,0,0.000000,0.000000,0.000000,-0.187744,0.020966,0.000000,0.001000,0.000000,0.001000,FlatInitial
10:36:12.481 AM 02/13/2016,Teleop Enabled,0,TRUE,-44087,NetComm_CAN_Receive.vi:5470006<APPEND>  <b>Complete call chain:</b>      NetComm_CAN_Receive.vi:5470006      WPI_CANTalonSRX_Receive.vi      WPI_MotorControlOpenCANTalonSRX.vi      Begin.vi      Robot Main.vi,0.000000,0.000000,0.000000,0.000000,Speed,Speed,-0.310000,1.130000,2.850000,0.000000,102.000000,1,0,0.000000,-0.003968,0,0.000000,0.000000,0.000000,-0.187744,0.020966,0.000000,0.001000,0.000000,0.001000,FlatInitial
10:36:12.581 AM 02/13/2016,Teleop Enabled,0,TRUE,-44087,NetComm_CAN_Receive.vi:5470006<APPEND>  <b>Complete call chain:</b>      NetComm_CAN_Receive.vi:5470006      WPI_CANTalonSRX_Receive.vi      WPI_MotorControlOpenCANTalonSRX.vi      Begin.vi      Robot Main.vi,0.000000,0.000000,-6000.000000,-6000.000000,Speed,Speed,-0.310000,1.130000,2.850000,1.000000,101.000000,1,0,0.000000,-0.003968,0,0.000000,0.000000,0.000000,-0.187744,0.020966,0.000000,0.001000,0.000000,0.001000,FlatInitial
10:36:12.681 AM 02/13/2016,Teleop Enabled,0,TRUE,-44087,NetComm_CAN_Receive.vi:5470006<APPEND>  <b>Complete call chain:</b>      NetComm_CAN_Receive.vi:5470006      WPI_CANTalonSRX_Receive.vi      WPI_MotorControlOpenCANTalonSRX.vi      Begin.vi      Robot Main.vi,0.000000,0.000000,0.000000,0.000000,Speed,Speed,-0.310000,1.130000,2.850000,2.000000,101.000000,1,0,0.000000,-0.003968,0,0.000000,0.000000,0.000000,-0.187744,0.020966,0.000000,0.001000,0.000000,0.001000,FlatInitial
10:36:12.781 AM 02/13/2016,Teleop Enabled,0,TRUE,-44087,NetComm_CAN_Receive.vi:5470006<APPEND>  <b>Complete call chain:</b>      NetComm_CAN_Receive.vi:5470006      WPI_CANTalonSRX_Receive.vi      WPI_CANTalonSRX_GetStatus.vi      ShooterVI.vi      Periodic Tasks.vi      Robot Main.vi,0.000000,0.000000,0.000000,0.000000,Speed,Speed,-0.310000,1.130000,2.850000,2.000000,101.000000,1,0,0.000000,-0.003968,0,0.000000,0.000000,0.000000,-0.187744,0.020966,0.000000,0.001000,0.000000,0.001000,FlatInitial
10:36:12.881 AM 02/13/2016,Teleop Enabled,0,TRUE,-44087,NetComm_CAN_Receive.vi:5470006<APPEND>  <b>Complete call chain:</b>      NetComm_CAN_Receive.vi:5470006      WPI_CANTalonSRX_Receive.vi      WPI_CANTalonSRX_GetStatus.vi      ShooterVI.vi      Periodic Tasks.vi      Robot Main.vi,0.000000,0.000000,0.000000,0.000000,Speed,Speed,-0.310000,1.130000,2.850000,2.000000,101.000000,1,0,0.000000,-0.003968,0,0.000000,0.000000,0.000000,-0.187744,0.020966,0.000000,0.001000,0.000000,0.001000,FlatInitial
10:36:12.981 AM 02/13/2016,Teleop Enabled,0,FALSE,0,NO ERROR,0.000000,0.000000,0.000000,0.000000,Speed,Speed,-0.310000,1.130000,2.850000,2.000000,101.000000,1,0,0.000000,-0.003968,0,0.000000,0.000000,0.000000,-0.187744,0.020966,0.000000,0.001000,0.000000,0.001000,FlatInitial
10:36:13.081 AM 02/13/2016,Teleop Enabled,0,FALSE,0,NO ERROR,0.000000,0.000000,0.000000,0.000000,Speed,Speed,-0.310000,1.130000,2.850000,2.000000,101.000000,1,0,0.000000,-0.003968,0,0.000000,0.000000,0.000000,-0.187744,0.020966,0.000000,0.001000,0.000000,0.001000,FlatInitial
10:36:13.181 AM 02/13/2016,Teleop Enabled,0,FALSE,0,NO ERROR,0.000000,0.000000,0.000000,0.000000,Speed,Speed,-0.310000,1.130000,2.850000,2.000000,101.000000,1,0,0.000000,-0.003968,0,0.000000,0.000000,0.000000,-0.187744,0.020966,0.000000,0.001000,0.000000,0.001000,FlatInitial
10:36:13.282 AM 02/13/2016,Teleop Enabled,0,FALSE,0,NO ERROR,0.000000,0.000000,0.000000,0.000000,Speed,Speed,-0.310000,1.130000,2.850000,2.000000,101.000000,1,0,0.000000,-0.003968,0,0.000000,0.000000,0.000000,-0.187744,0.020966,0.000000,0.001000,0.000000,0.001000,FlatInitial
10:36:13.382 AM 02/13/2016,Teleop Enabled,0,FALSE,0,NO ERROR,0.000000,0.000000,0.000000,0.000000,Speed,Speed,-0.310000,1.130000,2.850000,2.000000,101.000000,1,0,0.000000,-0.003968,0,0.000000,0.000000,0.000000,-0.187744,0.020966,0.000000,0.001000,0.000000,0.001000,FlatInitial
10:36:13.481 AM 02/13/2016,Teleop Enabled,0,FALSE,0,NO ERROR,0.000000,0.000000,0.000000,0.000000,Speed,Speed,-0.310000,1.130000,2.850000,2.000000,100.000000,1,0,0.000000,-0.003968,0,0.000000,0.000000,0.000000,-0.187744,0.020966,0.000000,0.001000,0.000000,0.001000,FlatInitial
10:36:13.581 AM 02/13/2016,Teleop Enabled,0,FALSE,0,NO ERROR,0.000000,0.000000,0.000000,0.000000,Speed,Speed,-0.310000,1.130000,2.850000,2.000000,101.000000,1,0,0.000000,-0.003968,0,0.000000,0.000000,0.000000,-0.187744,0.020966,0.000000,0.001000,0.000000,0.001000,FlatInitial
10:36:13.681 AM 02/13/2016,Teleop Enabled,0,FALSE,0,NO ERROR,0.000000,0.000000,0.000000,0.000000,Speed,Speed,-0.310000,1.130000,2.850000,2.000000,101.000000,1,0,0.000000,-0.003968,0,0.000000,0.000000,0.000000,-0.187744,0.020966,0.000000,0.001000,0.000000,0.001000,FlatInitial
10:36:13.781 AM 02/13/2016,Teleop Enabled,0,FALSE,0,NO ERROR,0.000000,0.000000,0.000000,0.000000,Speed,Speed,-0.310000,1.130000,2.850000,2.000000,101.000000,1,0,0.000000,-0.003968,0,0.000000,0.000000,0.000000,-0.187744,0.020966,0.000000,0.001000,0.000000,0.001000,FlatInitial
10:36:13.881 AM 02/13/2016,Teleop Enabled,0,FALSE,0,NO ERROR,0.000000,0.000000,4000.000000,4000.000000,Speed,Speed,-0.310000,1.130000,2.850000,3.000000,100.000000,1,0,0.000000,-0.003968,0,0.000000,0.000000,0.000000,-0.187744,0.020966,0.000000,0.001000,0.000000,0.001000,FlatInitial
10:36:13.981 AM 02/13/2016,Teleop Enabled,0,FALSE,0,NO ERROR,0.000000,0.000000,4000.000000,4000.000000,Speed,Speed,-0.310000,1.130000,2.850000,3.000000,101.000000,1,0,0.000000,-0.003968,0,0.000000,0.000000,0.000000,-0.187744,0.020966,0.000000,0.001000,0.000000,0.001000,FlatInitial
10:36:14.081 AM 02/13/2016,Teleop Enabled,0,FALSE,0,NO ERROR,0.000000,0.000000,4000.000000,4000.000000,Speed,Speed,-0.310000,1.130000,2.850000,3.000000,101.000000,1,0,0.000000,-0.003968,0,0.000000,0.000000,0.000000,-0.187744,0.020966,0.000000,0.001000,0.000000,0.001000,FlatInitial
10:36:14.181 AM 02/13/2016,Teleop Enabled,0,FALSE,0,NO ERROR,0.000000,0.000000,4000.000000,4000.000000,Speed,Speed,-0.310000,1.130000,2.850000,3.000000,102.000000,1,0,0.000000,-0.003968,0,0.000000,0.000000,0.000000,-0.187744,0.020966,0.000000,0.001000,0.000000,0.001000,FlatInitial
10:36:14.285 AM 02/13/2016,Teleop Enabled,0,TRUE,-44003,<LOCATION>WPI_CameraIssue HTTP Request with Authentication.vi<CALLSTACK>WPI_CameraIssue HTTP Request with Authentication.vi< <WPI_CameraIssue Get.vi< <WPI_CameraSet Image Appearance Property.vi< <WPI_CameraSet Image Size.vi< <Vision Processing.vi< <Robot Main.vi,0.000000,0.000000,4000.000000,4000.000000,Speed,Speed,-0.310000,1.130000,2.850000,3.000000,102.000000,1,0,0.000000,-0.003968,0,0.000000,0.000000,0.000000,-0.187744,0.020966,0.000000,0.001000,0.000000,0.001000,FlatInitial
10:36:14.386 AM 02/13/2016,Teleop Enabled,0,FALSE,0,NO ERROR,0.000000,0.000000,4000.000000,4000.000000,Speed,Speed,-0.010000,1.150000,2.950000,3.000000,100.000000,1,0,0.000000,-0.003968,0,0.000000,0.000000,0.000000,-0.190948,0.023193,0.000000,0.002000,-0.001000,0.000000,FlatInitial
10:36:14.486 AM 02/13/2016,Teleop Enabled,0,FALSE,0,NO ERROR,0.000000,0.000000,4000.000000,4000.000000,Speed,Speed,-0.010000,1.150000,2.950000,3.000000,103.000000,1,0,0.000000,-0.003968,0,0.000000,0.000000,0.000000,-0.190948,0.023193,0.000000,0.000000,0.000000,0.004000,FlatInitial
10:36:14.586 AM 02/13/2016,Teleop Enabled,0,FALSE,0,NO ERROR,0.000000,0.000000,4000.000000,4000.000000,Speed,Speed,-0.010000,1.150000,2.950000,3.000000,101.000000,1,0,0.000000,-0.003968,0,0.000000,0.000000,0.000000,-0.190948,0.023193,0.000000,0.000000,0.000000,0.000000,FlatInitial
10:36:14.688 AM 02/13/2016,Teleop Enabled,0,FALSE,0,NO ERROR,0.000000,0.000000,4000.000000,4000.000000,Speed,Speed,-0.010000,1.150000,2.950000,3.000000,101.000000,1,0,0.000000,-0.003968,0,0.000000,0.000000,0.000000,-0.190948,0.023193,0.000000,-0.001000,0.000000,-0.001000,FlatInitial
10:36:14.788 AM 02/13/2016,Teleop Enabled,0,FALSE,0,NO ERROR,0.000000,0.000000,4000.000000,4000.000000,Speed,Speed,-0.010000,1.150000,2.950000,3.000000,101.000000,1,0,0.000000,-0.003968,0,0.000000,0.000000,0.000000,-0.190948,0.023193,0.000000,0.000000,0.001000,0.000000,FlatInitial
10:36:14.892 AM 02/13/2016,Teleop Enabled,0,FALSE,0,NO ERROR,0.000000,0.000000,4000.000000,4000.000000,Speed,Speed,-0.010000,1.140000,2.940000,3.000000,101.000000,1,0,0.000000,-0.003968,0,0.000000,0.000000,0.000000,-0.190948,0.023193,0.000000,0.002000,0.001000,0.000000,FlatInitial
10:36:14.992 AM 02/13/2016,Teleop Enabled,0,FALSE,0,NO ERROR,0.000000,0.000000,4000.000000,4000.000000,Speed,Speed,-0.010000,1.140000,2.940000,3.000000,101.000000,1,0,0.000000,-0.003968,0,0.000000,0.000000,0.000000,-0.190948,0.023193,0.000000,0.001000,-0.001000,-0.003000,FlatInitial
10:36:15.094 AM 02/13/2016,Teleop Enabled,0,FALSE,0,NO ERROR,0.000000,0.000000,4000.000000,4000.000000,Speed,Speed,-0.010000,1.140000,2.950000,3.000000,101.000000,1,0,0.000000,-0.003968,0,0.000000,0.000000,0.000000,-0.190948,0.023193,0.000000,0.000000,0.000000,-0.004000,FlatInitial
10:36:15.195 AM 02/13/2016,Teleop Enabled,0,FALSE,0,NO ERROR,0.000000,0.000000,4000.000000,4000.000000,Speed,Speed,-0.010000,1.140000,2.950000,3.000000,103.000000,1,0,0.000000,-0.003968,0,0.000000,0.000000,0.000000,-0.190948,0.023193,0.000000,0.000000,0.000000,0.001000,FlatInitial
10:36:15.294 AM 02/13/2016,Teleop Enabled,0,FALSE,0,NO ERROR,0.000000,0.000000,4000.000000,4000.000000,Speed,Speed,-0.010000,1.140000,2.940000,3.000000,103.000000,1,0,0.000000,-0.003968,0,0.000000,0.000000,0.000000,-0.190948,0.023193,0.000000,0.000000,-0.003000,0.000000,FlatInitial
10:36:15.394 AM 02/13/2016,Teleop Enabled,0,FALSE,0,NO ERROR,0.000000,0.000000,4000.000000,4000.000000,Speed,Speed,-0.020000,1.140000,2.940000,3.000000,103.000000,1,0,0.000000,-0.003968,0,0.000000,0.000000,0.000000,-0.190948,0.023193,0.000000,-0.001000,0.000000,0.001000,FlatInitial
10:36:15.494 AM 02/13/2016,Teleop Enabled,0,FALSE,0,NO ERROR,0.000000,0.000000,4000.000000,4000.000000,Speed,Speed,-0.020000,1.140000,2.940000,3.000000,102.000000,1,0,0.000000,-0.003968,0,0.000000,0.000000,0.000000,-0.190948,0.023193,0.000000,0.001000,0.000000,0.000000,FlatInitial
10:36:15.595 AM 02/13/2016,Teleop Enabled,0,FALSE,0,NO ERROR,0.000000,0.000000,4000.000000,4000.000000,Speed,Speed,-0.020000,1.140000,2.940000,3.000000,100.000000,1,0,0.000000,-0.003968,0,0.000000,0.000000,0.000000,-0.190948,0.023193,0.000000,-0.001000,-0.002000,-0.001000,FlatInitial
10:36:15.695 AM 02/13/2016,Teleop Enabled,0,FALSE,0,NO ERROR,0.000000,0.000000,4000.000000,4000.000000,Speed,Speed,-0.020000,1.140000,2.940000,3.000000,104.000000,1,0,0.000000,-0.003968,0,0.000000,0.000000,0.000000,-0.190948,0.023193,0.000000,-0.002000,-0.001000,-0.002000,FlatInitial
10:36:15.795 AM 02/13/2016,Teleop Enabled,0,FALSE,0,NO ERROR,0.000000,0.000000,4000.000000,4000.000000,Speed,Speed,-0.020000,1.130000,2.940000,3.000000,101.000000,1,0,0.000000,-0.003968,0,0.000000,0.000000,0.000000,-0.190948,0.023193,0.000000,0.000000,0.000000,0.000000,FlatInitial
10:36:15.896 AM 02/13/2016,Teleop Enabled,0,FALSE,0,NO ERROR,0.000000,0.000000,4000.000000,4000.000000,Speed,Speed,-0.020000,1.130000,2.940000,3.000000,101.000000,1,0,0.000000,-0.003968,0,0.000000,0.000000,0.000000,-0.190948,0.023193,0.000000,0.000000,-0.003000,0.002000,FlatInitial
10:36:15.995 AM 02/13/2016,Teleop Enabled,0,FALSE,0,NO ERROR,0.000000,0.000000,4000.000000,4000.000000,Speed,Speed,-0.020000,1.120000,2.940000,3.000000,101.000000,1,0,0.000000,-0.003968,0,0.000000,0.000000,0.000000,-0.190948,0.023193,0.000000,0.000000,0.000000,0.003000,FlatInitial
10:36:16.095 AM 02/13/2016,Teleop Enabled,0,FALSE,0,NO ERROR,0.000000,0.000000,4000.000000,4000.000000,Speed,Speed,-0.020000,1.130000,2.940000,3.000000,102.000000,1,0,0.000000,-0.003968,0,0.000000,0.000000,0.000000,-0.190948,0.023193,0.000000,-0.001000,-0.001000,-0.001000,FlatInitial
10:36:16.196 AM 02/13/2016,Teleop Enabled,0,FALSE,0,NO ERROR,0.000000,0.000000,4000.000000,4000.000000,Speed,Speed,-0.020000,1.120000,2.950000,3.000000,101.000000,1,0,0.000000,-0.003968,0,0.000000,0.000000,0.000000,-0.190948,0.023193,0.000000,0.000000,-0.001000,-0.002000,FlatInitial
10:36:16.296 AM 02/13/2016,Teleop Enabled,0,FALSE,0,NO ERROR,0.000000,0.000000,4000.000000,4000.000000,Speed,Speed,-0.020000,1.130000,2.940000,3.000000,102.000000,1,0,0.000000,-0.003968,0,0.000000,0.000000,0.000000,-0.190948,0.023193,0.000000,-0.001000,-0.001000,0.001000,FlatInitial
10:36:16.398 AM 02/13/2016,Teleop Enabled,0,FALSE,0,NO ERROR,0.000000,0.000000,4000.000000,4000.000000,Speed,Speed,-0.020000,1.130000,2.950000,3.000000,102.000000,1,0,0.000000,-0.003968,0,0.000000,0.000000,0.000000,-0.190948,0.023193,0.000000,0.000000,0.002000,-0.001000,FlatInitial
10:36:16.499 AM 02/13/2016,Teleop Enabled,0,FALSE,0,NO ERROR,0.000000,0.000000,4000.000000,4000.000000,Speed,Speed,-0.020000,1.130000,2.950000,3.000000,103.000000,1,0,0.000000,-0.003968,0,0.000000,0.000000,0.000000,-0.190948,0.023193,0.000000,0.001000,0.000000,-0.001000,FlatInitial
10:36:16.599 AM 02/13/2016,Teleop Enabled,0,FALSE,0,NO ERROR,0.000000,0.000000,4000.000000,4000.000000,Speed,Speed,-0.020000,1.130000,2.950000,3.000000,101.000000,1,0,0.000000,-0.003968,0,0.000000,0.000000,0.000000,-0.190948,0.023193,0.000000,0.001000,0.000000,0.001000,FlatInitial
10:36:16.701 AM 02/13/2016,Teleop Enabled,0,FALSE,0,NO ERROR,0.000000,0.000000,4000.000000,4000.000000,Speed,Speed,-0.020000,1.130000,2.950000,3.000000,102.000000,1,0,0.000000,-0.003968,0,0.000000,0.000000,0.000000,-0.190948,0.023193,0.000000,-0.001000,0.001000,0.000000,FlatInitial
10:36:16.801 AM 02/13/2016,Teleop Enabled,0,FALSE,0,NO ERROR,0.000000,0.000000,4000.000000,4000.000000,Speed,Speed,-0.020000,1.130000,2.950000,3.000000,102.000000,1,0,0.000000,-0.003968,0,0.000000,0.000000,0.000000,-0.190948,0.023193,0.000000,-0.001000,0.000000,-0.003000,FlatInitial
10:36:16.900 AM 02/13/2016,Teleop Enabled,0,FALSE,0,NO ERROR,0.000000,0.000000,4000.000000,4000.000000,Speed,Speed,-0.020000,1.130000,2.950000,3.000000,103.000000,1,0,0.000000,-0.003968,0,0.000000,0.000000,0.000000,-0.190948,0.023193,0.000000,-0.001000,0.000000,-0.001000,FlatInitial
10:36:17.001 AM 02/13/2016,Teleop Enabled,0,FALSE,0,NO ERROR,0.000000,0.000000,4000.000000,4000.000000,Speed,Speed,-0.020000,1.130000,2.950000,3.000000,102.000000,1,0,0.000000,-0.003968,0,0.000000,0.000000,0.000000,-0.190948,0.023193,0.000000,0.000000,0.000000,-0.003000,FlatInitial
10:36:17.101 AM 02/13/2016,Teleop Enabled,0,FALSE,0,NO ERROR,0.000000,0.000000,4000.000000,4000.000000,Speed,Speed,-0.030000,1.130000,2.950000,3.000000,101.000000,1,0,0.000000,-0.003968,0,0.000000,0.000000,0.000000,-0.190948,0.023193,0.000000,-0.001000,0.000000,-0.002000,FlatInitial
10:36:17.201 AM 02/13/2016,Teleop Enabled,0,FALSE,0,NO ERROR,0.000000,0.000000,4000.000000,4000.000000,Speed,Speed,-0.030000,1.130000,2.950000,3.000000,101.000000,1,0,0.000000,-0.003968,0,0.000000,0.000000,0.000000,-0.190948,0.023193,0.000000,0.000000,0.000000,0.001000,FlatInitial
10:36:17.300 AM 02/13/2016,Teleop Enabled,0,FALSE,0,NO ERROR,0.000000,0.000000,4000.000000,4000.000000,Speed,Speed,-0.020000,1.130000,2.950000,3.000000,101.000000,1,0,0.000000,-0.003968,0,0.000000,0.000000,0.000000,-0.190948,0.023193,0.000000,-0.001000,0.001000,0.000000,FlatInitial
10:36:17.401 AM 02/13/2016,Teleop Enabled,0,FALSE,0,NO ERROR,0.000000,0.000000,4000.000000,4000.000000,Speed,Speed,-0.020000,1.120000,2.950000,3.000000,102.000000,1,0,0.000000,-0.003968,0,0.000000,0.000000,0.000000,-0.190948,0.023193,0.000000,0.002000,0.000000,-0.001000,FlatInitial
10:36:17.500 AM 02/13/2016,Teleop Enabled,0,FALSE,0,NO ERROR,0.000000,0.000000,4000.000000,4000.000000,Speed,Speed,-0.020000,1.120000,2.960000,3.000000,102.000000,1,0,0.000000,-0.003968,0,0.000000,0.000000,0.000000,-0.190948,0.023193,0.000000,0.001000,0.001000,0.002000,FlatInitial
10:36:17.600 AM 02/13/2016,Teleop Enabled,0,FALSE,0,NO ERROR,0.000000,0.000000,4000.000000,4000.000000,Speed,Speed,-0.030000,1.120000,2.960000,3.000000,102.000000,1,0,0.000000,-0.003968,0,0.000000,0.000000,0.000000,-0.190948,0.023193,0.000000,0.000000,0.000000,0.000000,FlatInitial
10:36:17.701 AM 02/13/2016,Teleop Enabled,0,FALSE,0,NO ERROR,0.000000,0.000000,4000.000000,4000.000000,Speed,Speed,-0.030000,1.120000,2.960000,3.000000,102.000000,1,0,0.000000,-0.003968,0,0.000000,0.000000,0.000000,-0.190948,0.023193,0.000000,0.000000,0.000000,-0.002000,FlatInitial
10:36:17.800 AM 02/13/2016,Teleop Enabled,0,FALSE,0,NO ERROR,0.000000,0.000000,4000.000000,4000.000000,Speed,Speed,-0.030000,1.120000,2.960000,3.000000,101.000000,1,0,0.000000,-0.003968,0,0.000000,0.000000,0.000000,-0.190948,0.023193,0.000000,0.001000,0.001000,-0.003000,FlatInitial
10:36:17.900 AM 02/13/2016,Teleop Enabled,0,FALSE,0,NO ERROR,0.000000,0.000000,4000.000000,4000.000000,Speed,Speed,-0.030000,1.120000,2.960000,3.000000,102.000000,1,0,0.000000,-0.003968,0,0.000000,0.000000,0.000000,-0.190948,0.023193,0.000000,0.000000,0.002000,0.000000,FlatInitial
10:36:18.000 AM 02/13/2016,Teleop Enabled,0,FALSE,0,NO ERROR,0.000000,0.000000,4000.000000,4000.000000,Speed,Speed,-0.030000,1.120000,2.960000,3.000000,102.000000,1,0,0.000000,-0.003968,0,0.000000,0.000000,0.000000,-0.190948,0.023193,0.000000,0.003000,0.001000,0.002000,FlatInitial
10:36:18.100 AM 02/13/2016,Teleop Enabled,0,FALSE,0,NO ERROR,0.000000,0.000000,4000.000000,4000.000000,Speed,Speed,-0.030000,1.120000,2.960000,3.000000,101.000000,1,0,0.000000,-0.003968,0,0.000000,0.000000,0.000000,-0.190948,0.023193,0.000000,0.000000,-0.001000,0.000000,FlatInitial
10:36:18.200 AM 02/13/2016,Teleop Enabled,0,FALSE,0,NO ERROR,0.000000,0.000000,4000.000000,4000.000000,Speed,Speed,-0.030000,1.120000,2.960000,3.000000,102.000000,1,0,0.000000,-0.003968,0,0.000000,0.000000,0.000000,-0.190948,0.023193,0.000000,0.000000,0.000000,0.002000,FlatInitial
10:36:18.300 AM 02/13/2016,Teleop Enabled,0,FALSE,0,NO ERROR,0.000000,0.000000,4000.000000,4000.000000,Speed,Speed,-0.030000,1.120000,2.960000,3.000000,100.000000,1,0,0.000000,-0.003968,0,0.000000,0.000000,0.000000,-0.190948,0.023193,0.000000,0.001000,-0.002000,0.000000,FlatInitial
10:36:18.400 AM 02/13/2016,Teleop Enabled,0,FALSE,0,NO ERROR,0.000000,0.000000,4000.000000,4000.000000,Speed,Speed,-0.030000,1.130000,2.960000,3.000000,101.000000,1,0,0.000000,-0.003968,0,0.000000,0.000000,0.000000,-0.190948,0.023193,0.000000,0.000000,-0.001000,0.000000,FlatInitial
10:36:18.500 AM 02/13/2016,Teleop Enabled,0,FALSE,0,NO ERROR,0.000000,0.000000,4000.000000,4000.000000,Speed,Speed,-0.030000,1.130000,2.960000,3.000000,101.000000,1,0,0.000000,-0.003968,0,0.000000,0.000000,0.000000,-0.190948,0.023193,0.000000,0.002000,0.001000,-0.001000,FlatInitial
10:36:18.600 AM 02/13/2016,Teleop Enabled,0,FALSE,0,NO ERROR,0.000000,0.000000,4000.000000,4000.000000,Speed,Speed,-0.030000,1.130000,2.960000,3.000000,102.000000,1,0,0.000000,-0.003968,0,0.000000,0.000000,0.000000,-0.190948,0.023193,0.000000,0.000000,-0.002000,-0.004000,FlatInitial
10:36:18.701 AM 02/13/2016,Teleop Enabled,0,FALSE,0,NO ERROR,0.000000,0.000000,4000.000000,4000.000000,Speed,Speed,-0.030000,1.130000,2.960000,3.000000,101.000000,1,0,0.000000,-0.003968,0,0.000000,0.000000,0.000000,-0.190948,0.023193,0.000000,0.000000,0.000000,0.003000,FlatInitial
10:36:18.801 AM 02/13/2016,Teleop Enabled,0,FALSE,0,NO ERROR,0.000000,0.000000,4000.000000,4000.000000,Speed,Speed,-0.030000,1.130000,2.960000,3.000000,101.000000,1,0,0.000000,-0.003968,0,0.000000,0.000000,0.000000,-0.190948,0.023193,0.000000,0.000000,-0.002000,0.000000,FlatInitial
10:36:18.901 AM 02/13/2016,Teleop Enabled,0,FALSE,0,NO ERROR,0.000000,0.000000,4000.000000,4000.000000,Speed,Speed,-0.030000,1.130000,2.960000,3.000000,102.000000,1,0,0.000000,-0.003968,0,0.000000,0.000000,0.000000,-0.190948,0.023193,0.000000,0.002000,0.006000,0.009000,FlatInitial
10:36:19.002 AM 02/13/2016,Teleop Enabled,0,FALSE,0,NO ERROR,0.000000,0.000000,4000.000000,4000.000000,Speed,Speed,-0.030000,1.130000,2.960000,3.000000,101.000000,1,0,0.000000,-0.003968,0,0.000000,0.000000,0.000000,-0.190948,0.023193,0.000000,-0.005000,0.000000,0.012000,FlatInitial
10:36:19.101 AM 02/13/2016,Teleop Enabled,0,FALSE,0,NO ERROR,0.000000,0.000000,4000.000000,4000.000000,Speed,Speed,-0.050000,1.130000,2.960000,3.000000,101.000000,1,0,0.000000,-0.003968,0,0.000000,0.000000,0.000000,-0.190948,0.023193,0.000000,-0.001000,0.000000,0.000000,FlatInitial
10:36:19.201 AM 02/13/2016,Teleop Enabled,0,FALSE,0,NO ERROR,0.000000,0.000000,4000.000000,4000.000000,Speed,Speed,-0.070000,1.150000,2.930000,3.000000,102.000000,1,0,0.000000,-0.003968,0,0.000000,0.000000,0.000000,-0.190948,0.023193,0.000000,-0.003000,0.009000,-0.007000,FlatInitial
10:36:19.301 AM 02/13/2016,Teleop Enabled,0,FALSE,0,NO ERROR,0.000000,0.000000,4000.000000,4000.000000,Speed,Speed,-0.020000,1.130000,2.820000,3.000000,101.000000,1,0,0.000000,-0.003968,0,0.000000,-0.007523,0.000000,-0.190948,0.023071,0.000000,-0.001000,-0.018000,-0.009000,FlatInitial
10:36:19.401 AM 02/13/2016,Teleop Enabled,0,FALSE,0,NO ERROR,0.000000,0.000000,4000.000000,4000.000000,Speed,Speed,-0.040000,1.120000,2.730000,3.000000,101.000000,1,0,0.000000,-0.003968,0,0.000000,0.000000,0.000000,-0.190948,0.022980,0.000000,0.002000,-0.011000,0.007000,FlatInitial
10:36:19.502 AM 02/13/2016,Teleop Enabled,0,FALSE,0,NO ERROR,0.000000,0.000000,4000.000000,4000.000000,Speed,Speed,0.030000,1.130000,2.610000,3.000000,102.000000,1,0,0.000000,-0.003968,0,0.000000,0.000000,0.000000,-0.190948,0.022980,0.000000,0.007000,0.019000,-0.034000,FlatInitial
10:36:19.601 AM 02/13/2016,Teleop Enabled,0,FALSE,0,NO ERROR,0.000000,0.000000,4000.000000,4000.000000,Speed,Speed,-0.010000,1.110000,2.600000,3.000000,103.000000,1,0,0.000000,-0.003968,0,0.000000,0.011627,0.000000,-0.190948,0.023224,0.000000,-0.015000,0.005000,0.011000,FlatInitial
10:36:19.702 AM 02/13/2016,Teleop Enabled,0,FALSE,0,NO ERROR,0.000000,0.000000,4000.000000,4000.000000,Speed,Speed,-0.020000,1.090000,2.420000,3.000000,103.000000,1,0,0.000000,-0.003968,0,0.000000,0.000000,0.000000,-0.190948,0.023224,0.000000,-0.001000,-0.006000,0.011000,FlatInitial
10:36:19.803 AM 02/13/2016,Teleop Enabled,0,FALSE,0,NO ERROR,0.000000,0.000000,4000.000000,4000.000000,Speed,Speed,0.040000,1.020000,2.060000,3.000000,102.000000,1,0,0.000000,-0.003968,0,0.000000,0.000000,0.000000,-0.190948,0.023224,0.000000,-0.004000,0.009000,-0.007000,FlatInitial
10:36:19.903 AM 02/13/2016,Teleop Enabled,0,FALSE,0,NO ERROR,0.000000,0.000000,4000.000000,4000.000000,Speed,Speed,0.090000,1.060000,1.820000,3.000000,103.000000,1,0,0.000000,-0.003968,0,0.000000,0.000000,0.000000,-0.190948,0.023224,0.000000,0.012000,-0.008000,-0.006000,FlatInitial
10:36:20.003 AM 02/13/2016,Teleop Enabled,0,FALSE,0,NO ERROR,0.000000,0.000000,4000.000000,4000.000000,Speed,Speed,0.010000,1.060000,1.510000,3.000000,101.000000,1,0,0.000000,-0.003968,0,0.000000,0.000000,0.000000,-0.190948,0.023224,0.000000,-0.007000,-0.007000,0.003000,FlatInitial
10:36:20.103 AM 02/13/2016,Teleop Enabled,0,FALSE,0,NO ERROR,0.000000,0.000000,4000.000000,4000.000000,Speed,Speed,-0.070000,1.070000,1.430000,3.000000,101.000000,1,0,0.000000,-0.003968,0,0.000000,0.000000,0.000000,-0.190948,0.023224,0.000000,0.007000,0.004000,0.000000,FlatInitial
10:36:20.204 AM 02/13/2016,Teleop Enabled,0,FALSE,0,NO ERROR,0.000000,0.000000,4000.000000,4000.000000,Speed,Speed,-0.050000,1.080000,1.410000,3.000000,102.000000,1,0,0.000000,-0.003968,0,0.000000,0.000000,0.000000,-0.190948,0.023224,0.000000,-0.003000,-0.004000,0.003000,FlatInitial
10:36:20.307 AM 02/13/2016,Teleop Enabled,0,FALSE,0,NO ERROR,0.000000,0.000000,4000.000000,4000.000000,Speed,Speed,-0.040000,1.080000,1.460000,3.000000,101.000000,1,0,0.000000,-0.003968,0,0.000000,0.000000,0.000000,-0.190948,0.023224,0.000000,0.003000,0.002000,0.003000,FlatInitial
10:36:20.407 AM 02/13/2016,Teleop Enabled,0,FALSE,0,NO ERROR,0.000000,0.000000,4000.000000,4000.000000,Speed,Speed,-0.030000,1.090000,1.470000,3.000000,101.000000,1,0,0.000000,-0.003968,0,0.000000,0.000000,0.000000,-0.190948,0.023224,0.000000,-0.009000,-0.004000,0.003000,FlatInitial
10:36:20.508 AM 02/13/2016,Teleop Enabled,0,FALSE,0,NO ERROR,0.000000,0.000000,4000.000000,4000.000000,Speed,Speed,-0.070000,1.080000,1.530000,3.000000,101.000000,1,0,0.000000,-0.003968,0,0.000000,0.000000,0.000000,-0.190948,0.023224,0.000000,0.006000,0.001000,-0.011000,FlatInitial
10:36:20.608 AM 02/13/2016,Teleop Enabled,0,FALSE,0,NO ERROR,0.000000,0.000000,4000.000000,4000.000000,Speed,Speed,-0.150000,1.110000,2.080000,3.000000,101.000000,1,0,0.000000,-0.003968,0,0.000000,0.000000,0.000000,-0.190948,0.023224,0.000000,-0.008000,0.015000,-0.064000,FlatInitial
10:36:20.708 AM 02/13/2016,Teleop Enabled,0,FALSE,0,NO ERROR,0.000000,0.000000,4000.000000,4000.000000,Speed,Speed,-0.120000,1.130000,2.900000,3.000000,101.000000,1,0,0.000000,-0.003968,0,-0.000900,-0.039871,0.000000,-0.191025,0.022186,0.000000,0.025000,-0.006000,-0.210000,FlatInitial
10:36:20.808 AM 02/13/2016,Teleop Enabled,0,FALSE,0,NO ERROR,0.000000,0.000000,4000.000000,4000.000000,Speed,Speed,-0.250000,1.180000,2.550000,3.000000,103.000000,1,0,0.000000,-0.003968,0,0.003906,-0.036148,0.000000,-0.191025,0.019989,0.000000,-0.033000,0.039000,-0.118000,FlatInitial
10:36:20.909 AM 02/13/2016,Teleop Enabled,0,FALSE,0,NO ERROR,0.000000,0.000000,4000.000000,4000.000000,Speed,Speed,-0.290000,1.100000,2.670000,3.000000,101.000000,1,0,0.000000,-0.003968,0,-0.007477,-0.023163,0.000000,-0.191071,0.018463,0.000000,-0.008000,0.034000,-0.064000,FlatInitial
10:36:21.009 AM 02/13/2016,Teleop Enabled,0,FALSE,0,NO ERROR,0.000000,0.000000,4000.000000,4000.000000,Speed,Speed,-0.200000,1.130000,2.840000,3.000000,102.000000,1,0,0.000000,-0.003968,0,0.000000,-0.006668,0.000000,-0.191071,0.018021,0.000000,0.010000,-0.022000,-0.004000,FlatInitial
10:36:21.108 AM 02/13/2016,Teleop Enabled,0,FALSE,0,NO ERROR,0.000000,0.000000,4000.000000,4000.000000,Speed,Speed,-0.220000,1.120000,2.660000,3.000000,100.000000,1,0,0.000000,-0.003968,0,0.000000,0.000000,0.000000,-0.191071,0.017212,0.000000,0.000000,0.002000,-0.006000,FlatInitial
10:36:21.209 AM 02/13/2016,Teleop Enabled,0,FALSE,0,NO ERROR,0.000000,0.000000,4000.000000,4000.000000,Speed,Speed,-0.310000,1.140000,2.650000,3.000000,104.000000,1,0,0.000000,-0.003968,0,0.000000,0.000000,0.000000,-0.191071,0.017212,0.000000,0.000000,0.002000,-0.006000,FlatInitial
10:36:21.309 AM 02/13/2016,Teleop Enabled,0,FALSE,0,NO ERROR,0.000000,0.000000,4000.000000,4000.000000,Speed,Speed,-0.290000,1.110000,2.560000,3.000000,101.000000,1,0,0.000000,-0.003968,0,0.000000,0.000000,0.000000,-0.190918,0.017212,0.000000,0.008000,0.007000,0.008000,FlatInitial
10:36:21.410 AM 02/13/2016,Teleop Enabled,0,FALSE,0,NO ERROR,0.000000,0.000000,4000.000000,4000.000000,Speed,Speed,-0.250000,1.130000,2.500000,3.000000,102.000000,1,0,0.000000,-0.003968,0,0.000000,0.000000,0.000000,-0.190918,0.017212,0.000000,-0.005000,-0.002000,0.011000,FlatInitial
10:36:21.511 AM 02/13/2016,Teleop Enabled,0,FALSE,0,NO ERROR,0.000000,0.000000,4000.000000,4000.000000,Speed,Speed,-0.290000,1.120000,2.380000,3.000000,101.000000,1,0,0.000000,-0.003968,0,0.000000,0.000000,0.000000,-0.190918,0.017212,0.000000,0.006000,-0.014000,0.002000,FlatInitial
10:36:21.611 AM 02/13/2016,Teleop Enabled,0,FALSE,0,NO ERROR,0.000000,0.000000,4000.000000,4000.000000,Speed,Speed,-0.290000,1.100000,2.130000,3.000000,102.000000,1,0,0.000000,-0.003968,0,0.000000,0.000000,0.000000,-0.190918,0.017212,0.000000,-0.001000,-0.007000,0.018000,FlatInitial
10:36:21.711 AM 02/13/2016,Teleop Enabled,0,FALSE,0,NO ERROR,0.000000,0.000000,4000.000000,4000.000000,Speed,Speed,-0.400000,1.110000,1.340000,3.000000,101.000000,1,0,0.000000,-0.003968,0,0.000000,0.000000,0.000000,-0.190918,0.017212,0.000000,0.014000,-0.003000,0.008000,FlatInitial
10:36:21.812 AM 02/13/2016,Teleop Enabled,0,FALSE,0,NO ERROR,0.000000,0.000000,4000.000000,4000.000000,Speed,Speed,-0.400000,1.110000,1.340000,3.000000,101.000000,1,0,0.000000,-0.003968,0,0.000000,0.000000,0.000000,-0.190918,0.017212,0.000000,-0.008000,0.019000,-0.018000,FlatInitial
10:36:21.911 AM 02/13/2016,Teleop Enabled,0,FALSE,0,NO ERROR,0.000000,0.000000,4000.000000,4000.000000,Speed,Speed,-0.480000,1.150000,1.330000,3.000000,105.000000,1,0,0.000000,-0.003968,0,0.000000,0.000000,0.000000,-0.190918,0.017487,0.000000,0.001000,0.008000,-0.013000,FlatInitial
10:36:22.011 AM 02/13/2016,Teleop Enabled,0,FALSE,0,NO ERROR,0.000000,0.000000,4000.000000,4000.000000,Speed,Speed,-0.470000,1.080000,2.040000,3.000000,103.000000,1,0,0.000000,-0.003968,0,0.000000,-0.017776,0.000000,-0.190918,0.017075,0.000000,-0.008000,-0.024000,0.013000,FlatInitial
10:36:22.111 AM 02/13/2016,Teleop Enabled,0,FALSE,0,NO ERROR,0.000000,0.000000,4000.000000,4000.000000,Speed,Speed,-0.580000,1.110000,2.320000,3.000000,101.000000,1,0,0.000000,-0.003968,0,0.000000,0.000000,0.000000,-0.190918,0.016266,0.000000,0.004000,0.003000,-0.010000,FlatInitial
10:36:22.211 AM 02/13/2016,Teleop Enabled,0,FALSE,0,NO ERROR,0.000000,0.000000,4000.000000,4000.000000,Speed,Speed,-0.520000,1.130000,2.630000,3.000000,101.000000,1,0,0.000000,-0.003968,0,0.000000,0.000000,0.000000,-0.190918,0.016266,0.000000,0.009000,-0.004000,-0.002000,FlatInitial
10:36:22.311 AM 02/13/2016,Teleop Enabled,0,FALSE,0,NO ERROR,0.000000,0.000000,4000.000000,4000.000000,Speed,Speed,-0.480000,1.150000,2.630000,3.000000,101.000000,1,0,0.000000,-0.003968,0,0.000000,0.000000,0.000000,-0.190918,0.016266,0.000000,-0.002000,-0.008000,0.014000,FlatInitial
10:36:22.411 AM 02/13/2016,Teleop Enabled,0,FALSE,0,NO ERROR,0.000000,0.000000,4000.000000,4000.000000,Speed,Speed,-0.540000,1.160000,2.720000,3.000000,103.000000,1,0,0.000000,-0.003968,0,0.000000,0.000000,0.000000,-0.190918,0.016266,0.000000,0.002000,0.002000,-0.010000,FlatInitial
10:36:22.511 AM 02/13/2016,Teleop Enabled,0,FALSE,0,NO ERROR,0.000000,0.000000,4000.000000,4000.000000,Speed,Speed,-0.550000,1.120000,2.680000,3.000000,101.000000,1,0,0.000000,-0.003968,0,-0.005035,0.007904,0.000000,-0.191010,0.016388,0.000000,0.008000,0.026000,0.000000,FlatInitial
10:36:22.611 AM 02/13/2016,Teleop Enabled,0,FALSE,0,NO ERROR,0.000000,0.000000,4000.000000,4000.000000,Speed,Speed,-0.580000,1.140000,2.740000,3.000000,101.000000,1,0,0.000000,-0.003968,0,0.000000,0.000000,0.000000,-0.191025,0.016846,0.000000,-0.003000,0.002000,-0.002000,FlatInitial
10:36:22.711 AM 02/13/2016,Teleop Enabled,0,FALSE,0,NO ERROR,0.000000,0.000000,4000.000000,4000.000000,Speed,Speed,-0.540000,1.130000,2.720000,3.000000,102.000000,1,0,0.000000,-0.003968,0,0.000000,0.000000,0.000000,-0.191025,0.016846,0.000000,0.004000,-0.008000,-0.012000,FlatInitial
10:36:22.811 AM 02/13/2016,Teleop Enabled,0,FALSE,0,NO ERROR,0.000000,0.000000,4000.000000,4000.000000,Speed,Speed,-0.580000,1.120000,2.730000,3.000000,101.000000,1,0,0.000000,-0.003968,0,0.005249,0.003082,0.000000,-0.190857,0.017090,0.000000,0.004000,0.005000,-0.004000,FlatInitial
10:36:22.911 AM 02/13/2016,Teleop Enabled,0,FALSE,0,NO ERROR,0.000000,0.000000,4000.000000,4000.000000,Speed,Speed,-0.580000,1.130000,2.710000,3.000000,102.000000,1,0,0.000000,-0.003968,0,0.000000,0.000000,0.000000,-0.190857,0.017090,0.000000,0.003000,-0.005000,0.032000,FlatInitial
10:36:23.012 AM 02/13/2016,Teleop Enabled,0,FALSE,0,NO ERROR,0.000000,0.000000,4000.000000,4000.000000,Speed,Speed,-0.580000,1.120000,2.750000,3.000000,101.000000,1,0,0.000000,-0.003968,0,0.000000,0.000000,0.000000,-0.191010,0.017090,0.000000,0.017000,0.002000,-0.004000,FlatInitial
10:36:23.111 AM 02/13/2016,Teleop Enabled,0,FALSE,0,NO ERROR,0.000000,0.000000,4000.000000,4000.000000,Speed,Speed,-0.560000,1.130000,2.860000,3.000000,101.000000,1,0,0.000000,-0.003968,0,0.000000,0.000000,0.000000,-0.191010,0.017090,0.000000,-0.005000,-0.012000,-0.022000,FlatInitial
10:36:23.212 AM 02/13/2016,Teleop Enabled,0,FALSE,0,NO ERROR,0.000000,0.000000,4000.000000,4000.000000,Speed,Speed,-0.480000,1.130000,2.800000,3.000000,102.000000,1,0,0.000000,-0.003968,0,0.000000,0.000000,0.000000,-0.191010,0.017090,0.000000,-0.002000,-0.004000,-0.011000,FlatInitial
10:36:23.313 AM 02/13/2016,Teleop Enabled,0,FALSE,0,NO ERROR,0.000000,0.000000,4000.000000,4000.000000,Speed,Speed,-0.520000,1.130000,2.880000,3.000000,101.000000,1,0,0.000000,-0.003968,0,0.000000,0.000000,0.000000,-0.191010,0.017090,0.000000,-0.002000,0.016000,0.014000,FlatInitial
10:36:23.413 AM 02/13/2016,Teleop Enabled,0,FALSE,0,NO ERROR,0.000000,0.000000,4000.000000,4000.000000,Speed,Speed,-0.540000,1.120000,2.940000,3.000000,102.000000,1,0,0.000000,-0.003968,0,0.000000,0.010529,0.000000,-0.191010,0.017319,0.000000,0.001000,0.009000,0.001000,FlatInitial
10:36:23.514 AM 02/13/2016,Teleop Enabled,0,FALSE,0,NO ERROR,0.000000,0.000000,4000.000000,4000.000000,Speed,Speed,-0.510000,1.130000,2.920000,3.000000,101.000000,1,0,0.000000,-0.003968,0,0.000000,0.000000,0.000000,-0.191010,0.017319,0.000000,0.000000,-0.002000,0.000000,FlatInitial
10:36:23.615 AM 02/13/2016,Teleop Enabled,0,FALSE,0,NO ERROR,0.000000,0.000000,4000.000000,4000.000000,Speed,Speed,-0.510000,1.120000,2.910000,3.000000,101.000000,1,0,0.000000,-0.003968,0,0.000000,0.000000,0.000000,-0.191010,0.017319,0.000000,0.001000,-0.003000,-0.003000,FlatInitial
10:36:23.716 AM 02/13/2016,Teleop Enabled,0,FALSE,0,NO ERROR,0.000000,0.000000,4000.000000,4000.000000,Speed,Speed,-0.510000,1.120000,2.910000,3.000000,102.000000,1,0,0.000000,-0.003968,0,0.000000,0.000000,0.000000,-0.191010,0.017319,0.000000,0.000000,0.003000,0.000000,FlatInitial
10:36:23.815 AM 02/13/2016,Teleop Enabled,0,FALSE,0,NO ERROR,0.000000,0.000000,4000.000000,4000.000000,Speed,Speed,-0.510000,1.120000,2.920000,3.000000,101.000000,1,0,0.000000,-0.003968,0,0.000000,0.000000,0.000000,-0.191010,0.017319,0.000000,-0.001000,0.003000,0.001000,FlatInitial
10:36:23.915 AM 02/13/2016,Teleop Enabled,0,FALSE,0,NO ERROR,0.000000,0.000000,4000.000000,4000.000000,Speed,Speed,-0.510000,1.120000,2.920000,3.000000,101.000000,1,0,0.000000,-0.003968,0,0.000000,0.000000,0.000000,-0.191010,0.017319,0.000000,-0.002000,-0.002000,0.000000,FlatInitial
10:36:24.016 AM 02/13/2016,Teleop Enabled,0,FALSE,0,NO ERROR,0.000000,0.000000,4000.000000,4000.000000,Speed,Speed,-0.520000,1.120000,2.920000,3.000000,101.000000,1,0,0.000000,-0.003968,0,0.000000,0.000000,0.000000,-0.191010,0.017319,0.000000,0.002000,0.000000,-0.001000,FlatInitial
10:36:24.120 AM 02/13/2016,Teleop Enabled,0,FALSE,0,NO ERROR,0.000000,0.000000,4000.000000,4000.000000,Speed,Speed,-0.520000,1.130000,2.910000,3.000000,102.000000,1,0,0.000000,-0.003968,0,0.000000,0.000000,0.000000,-0.191010,0.017319,0.000000,-0.003000,0.002000,-0.005000,FlatInitial
10:36:24.220 AM 02/13/2016,Teleop Enabled,0,FALSE,0,NO ERROR,0.000000,0.000000,4000.000000,4000.000000,Speed,Speed,-0.520000,1.110000,2.920000,3.000000,101.000000,1,0,0.000000,-0.003968,0,0.000000,0.000000,0.000000,-0.191010,0.017319,0.000000,0.001000,-0.002000,-0.006000,FlatInitial
10:36:24.321 AM 02/13/2016,Teleop Enabled,0,FALSE,0,NO ERROR,0.000000,0.000000,4000.000000,4000.000000,Speed,Speed,-0.520000,1.110000,2.920000,3.000000,101.000000,1,0,0.000000,-0.003968,0,0.000000,0.000000,0.000000,-0.191010,0.017319,0.000000,-0.001000,0.001000,0.000000,FlatInitial
10:36:24.421 AM 02/13/2016,Teleop Enabled,0,FALSE,0,NO ERROR,0.000000,0.000000,4000.000000,4000.000000,Speed,Speed,-0.520000,1.110000,2.920000,3.000000,101.000000,1,0,0.000000,-0.003968,0,0.000000,0.000000,0.000000,-0.191010,0.017319,0.000000,0.000000,0.000000,0.000000,FlatInitial
10:36:24.522 AM 02/13/2016,Teleop Enabled,0,FALSE,0,NO ERROR,0.000000,0.000000,4000.000000,4000.000000,Speed,Speed,-0.520000,1.110000,2.930000,3.000000,102.000000,1,0,0.000000,-0.003968,0,0.000000,0.000000,0.000000,-0.191010,0.017319,0.000000,-0.001000,0.000000,0.001000,FlatInitial
10:36:24.622 AM 02/13/2016,Teleop Enabled,0,FALSE,0,NO ERROR,0.000000,0.000000,4000.000000,4000.000000,Speed,Speed,-0.520000,1.110000,2.930000,3.000000,102.000000,1,0,0.000000,-0.003968,0,0.000000,0.000000,0.000000,-0.191010,0.017319,0.000000,0.000000,0.001000,-0.002000,FlatInitial
10:36:24.722 AM 02/13/2016,Teleop Enabled,0,FALSE,0,NO ERROR,0.000000,0.000000,4000.000000,4000.000000,Speed,Speed,-0.520000,1.110000,2.930000,3.000000,102.000000,1,0,0.000000,-0.003968,0,0.000000,0.000000,0.000000,-0.191010,0.017319,0.000000,-0.002000,-0.003000,0.000000,FlatInitial
10:36:24.824 AM 02/13/2016,Teleop Enabled,0,FALSE,0,NO ERROR,0.000000,0.000000,4000.000000,4000.000000,Speed,Speed,-0.520000,1.110000,2.930000,3.000000,104.000000,1,0,0.000000,-0.003968,0,0.000000,0.000000,0.000000,-0.191010,0.017319,0.000000,0.000000,-0.001000,-0.002000,FlatInitial
10:36:24.924 AM 02/13/2016,Teleop Enabled,0,FALSE,0,NO ERROR,0.000000,0.000000,4000.000000,4000.000000,Speed,Speed,-0.520000,1.110000,2.920000,3.000000,101.000000,1,0,0.000000,-0.003968,0,0.000000,0.000000,0.000000,-0.191010,0.017319,0.000000,-0.003000,0.000000,0.004000,FlatInitial
10:36:25.024 AM 02/13/2016,Teleop Enabled,0,FALSE,0,NO ERROR,0.000000,0.000000,4000.000000,4000.000000,Speed,Speed,-0.520000,1.110000,2.920000,3.000000,103.000000,1,0,0.000000,-0.003968,0,0.000000,0.000000,0.000000,-0.191010,0.017319,0.000000,0.001000,0.000000,0.000000,FlatInitial
10:36:25.125 AM 02/13/2016,Teleop Enabled,0,FALSE,0,NO ERROR,0.000000,0.000000,4000.000000,4000.000000,Speed,Speed,-0.520000,1.110000,2.920000,3.000000,101.000000,1,0,0.000000,-0.003968,0,0.000000,0.000000,0.000000,-0.191010,0.017319,0.000000,0.000000,-0.002000,-0.001000,FlatInitial
10:36:25.225 AM 02/13/2016,Teleop Enabled,0,FALSE,0,NO ERROR,0.000000,0.000000,4000.000000,4000.000000,Speed,Speed,-0.530000,1.110000,2.920000,3.000000,103.000000,1,0,0.000000,-0.003968,0,0.000000,0.000000,0.000000,-0.191010,0.017319,0.000000,0.000000,0.000000,0.001000,FlatInitial
10:36:25.330 AM 02/13/2016,Teleop Enabled,0,FALSE,0,NO ERROR,0.000000,0.000000,4000.000000,4000.000000,Speed,Speed,-0.530000,1.110000,2.930000,3.000000,101.000000,1,0,0.000000,-0.003968,0,0.000000,0.000000,0.000000,-0.191010,0.017319,0.000000,-0.002000,0.000000,0.001000,FlatInitial
10:36:25.429 AM 02/13/2016,Teleop Enabled,0,FALSE,0,NO ERROR,0.000000,0.000000,4000.000000,4000.000000,Speed,Speed,-0.530000,1.110000,2.930000,3.000000,102.000000,1,0,0.000000,-0.003968,0,0.000000,0.000000,0.000000,-0.191010,0.017319,0.000000,0.001000,-0.001000,0.000000,FlatInitial
10:36:25.529 AM 02/13/2016,Teleop Enabled,0,FALSE,0,NO ERROR,0.000000,0.000000,4000.000000,4000.000000,Speed,Speed,-0.530000,1.110000,2.930000,3.000000,102.000000,1,0,0.000000,-0.003968,0,0.000000,0.000000,0.000000,-0.191010,0.017319,0.000000,0.002000,0.000000,0.000000,FlatInitial
10:36:25.629 AM 02/13/2016,Teleop Enabled,0,FALSE,0,NO ERROR,0.000000,0.000000,4000.000000,4000.000000,Speed,Speed,-0.530000,1.120000,2.940000,3.000000,102.000000,1,0,0.000000,-0.003968,0,0.000000,0.000000,0.000000,-0.191010,0.017319,0.000000,-0.002000,0.001000,-0.002000,FlatInitial
10:36:25.729 AM 02/13/2016,Teleop Enabled,0,FALSE,0,NO ERROR,0.000000,0.000000,4000.000000,4000.000000,Speed,Speed,-0.530000,1.110000,2.930000,3.000000,103.000000,1,0,0.000000,-0.003968,0,0.000000,0.000000,0.000000,-0.191010,0.017319,0.000000,0.000000,-0.001000,0.001000,FlatInitial
10:36:25.830 AM 02/13/2016,Teleop Enabled,0,FALSE,0,NO ERROR,0.000000,0.000000,4000.000000,4000.000000,Speed,Speed,-0.530000,1.110000,2.930000,3.000000,101.000000,1,0,0.000000,-0.003968,0,0.000000,0.000000,0.000000,-0.191010,0.017319,0.000000,-0.002000,-0.001000,0.002000,FlatInitial
10:36:25.930 AM 02/13/2016,Teleop Enabled,0,FALSE,0,NO ERROR,0.000000,0.000000,4000.000000,4000.000000,Speed,Speed,-0.530000,1.110000,2.930000,3.000000,101.000000,1,0,0.000000,-0.003968,0,0.000000,0.000000,0.000000,-0.191010,0.017319,0.000000,0.001000,0.000000,0.001000,FlatInitial
10:36:26.031 AM 02/13/2016,Teleop Enabled,0,FALSE,0,NO ERROR,0.000000,0.000000,4000.000000,4000.000000,Speed,Speed,-0.530000,1.110000,2.930000,3.000000,102.000000,1,0,0.000000,-0.003968,0,0.000000,0.000000,0.000000,-0.191010,0.017319,0.000000,-0.001000,0.000000,0.000000,FlatInitial
10:36:26.130 AM 02/13/2016,Teleop Enabled,0,FALSE,0,NO ERROR,0.000000,0.000000,4000.000000,4000.000000,Speed,Speed,-0.530000,1.110000,2.920000,3.000000,101.000000,1,0,0.000000,-0.003968,0,0.000000,0.000000,0.000000,-0.191010,0.017319,0.000000,0.000000,-0.001000,-0.002000,FlatInitial
10:36:26.230 AM 02/13/2016,Teleop Enabled,0,FALSE,0,NO ERROR,0.000000,0.000000,4000.000000,4000.000000,Speed,Speed,-0.530000,1.110000,2.920000,3.000000,102.000000,1,0,0.000000,-0.003968,0,0.000000,0.000000,0.000000,-0.191010,0.017319,0.000000,-0.002000,0.000000,-0.005000,FlatInitial
10:36:26.330 AM 02/13/2016,Teleop Enabled,0,FALSE,0,NO ERROR,0.000000,0.000000,4000.000000,4000.000000,Speed,Speed,-0.530000,1.110000,2.920000,3.000000,102.000000,1,0,0.000000,-0.003968,0,0.000000,0.000000,0.000000,-0.191010,0.017319,0.000000,0.000000,-0.003000,0.005000,FlatInitial
10:36:26.431 AM 02/13/2016,Teleop Enabled,0,FALSE,0,NO ERROR,0.000000,0.000000,4000.000000,4000.000000,Speed,Speed,-0.530000,1.110000,2.920000,3.000000,101.000000,1,0,0.000000,-0.003968,0,0.000000,0.000000,0.000000,-0.191010,0.017319,0.000000,-0.001000,0.002000,-0.001000,FlatInitial
10:36:26.532 AM 02/13/2016,Teleop Enabled,0,FALSE,0,NO ERROR,0.000000,0.000000,4000.000000,4000.000000,Speed,Speed,-0.530000,1.110000,2.920000,3.000000,102.000000,1,0,0.000000,-0.003968,0,0.000000,0.000000,0.000000,-0.191010,0.017319,0.000000,0.000000,0.000000,-0.005000,FlatInitial
10:36:26.631 AM 02/13/2016,Teleop Enabled,0,FALSE,0,NO ERROR,0.000000,0.000000,4000.000000,4000.000000,Speed,Speed,-0.530000,1.110000,2.920000,3.000000,101.000000,1,0,0.000000,-0.003968,0,0.000000,0.000000,0.000000,-0.191010,0.017319,0.000000,0.002000,-0.002000,0.000000,FlatInitial
10:36:26.732 AM 02/13/2016,Teleop Enabled,0,FALSE,0,NO ERROR,0.000000,0.000000,4000.000000,4000.000000,Speed,Speed,-0.530000,1.110000,2.920000,3.000000,100.000000,1,0,0.000000,-0.003968,0,0.000000,0.000000,0.000000,-0.191010,0.017319,0.000000,-0.001000,0.001000,0.004000,FlatInitial
10:36:26.831 AM 02/13/2016,Teleop Enabled,0,FALSE,0,NO ERROR,0.000000,0.000000,4000.000000,4000.000000,Speed,Speed,-0.530000,1.110000,2.920000,3.000000,103.000000,1,0,0.000000,-0.003968,0,0.000000,0.000000,0.000000,-0.191010,0.017319,0.000000,0.002000,-0.001000,0.000000,FlatInitial
10:36:26.931 AM 02/13/2016,Teleop Enabled,0,FALSE,0,NO ERROR,0.000000,0.000000,4000.000000,4000.000000,Speed,Speed,-0.530000,1.110000,2.920000,3.000000,100.000000,1,0,0.000000,-0.003968,0,0.000000,0.000000,0.000000,-0.191010,0.017319,0.000000,0.000000,-0.001000,0.002000,FlatInitial
10:36:27.032 AM 02/13/2016,Teleop Enabled,0,FALSE,0,NO ERROR,0.000000,0.000000,4000.000000,4000.000000,Speed,Speed,-0.530000,1.110000,2.920000,3.000000,103.000000,1,0,0.000000,-0.003968,0,0.000000,0.000000,0.000000,-0.191010,0.017319,0.000000,0.001000,0.000000,-0.001000,FlatInitial
10:36:27.131 AM 02/13/2016,Teleop Enabled,0,FALSE,0,NO ERROR,0.000000,0.000000,4000.000000,4000.000000,Speed,Speed,-0.530000,1.120000,2.920000,3.000000,100.000000,1,0,0.000000,-0.003968,0,0.000000,0.000000,0.000000,-0.191010,0.017319,0.000000,0.001000,0.000000,0.002000,FlatInitial
10:36:27.231 AM 02/13/2016,Teleop Enabled,0,FALSE,0,NO ERROR,0.000000,0.000000,4000.000000,4000.000000,Speed,Speed,-0.530000,1.120000,2.920000,3.000000,101.000000,1,0,0.000000,-0.003968,0,0.000000,0.000000,0.000000,-0.191010,0.017319,0.000000,0.002000,0.000000,-0.002000,FlatInitial
10:36:27.331 AM 02/13/2016,Teleop Enabled,0,FALSE,0,NO ERROR,0.000000,0.000000,4000.000000,4000.000000,Speed,Speed,-0.530000,1.120000,2.920000,3.000000,101.000000,1,0,0.000000,-0.003968,0,0.000000,0.000000,0.000000,-0.191010,0.017319,0.000000,0.000000,0.000000,0.001000,FlatInitial
10:36:27.431 AM 02/13/2016,Teleop Enabled,0,FALSE,0,NO ERROR,0.000000,0.000000,4000.000000,4000.000000,Speed,Speed,-0.530000,1.130000,2.910000,3.000000,102.000000,1,0,0.000000,-0.003968,0,0.000000,0.000000,0.000000,-0.191010,0.017319,0.000000,0.000000,0.001000,0.000000,FlatInitial
10:36:27.532 AM 02/13/2016,Teleop Enabled,0,FALSE,0,NO ERROR,0.000000,0.000000,4000.000000,4000.000000,Speed,Speed,-0.530000,1.120000,2.920000,3.000000,101.000000,1,0,0.000000,-0.003968,0,0.000000,0.000000,0.000000,-0.191010,0.017319,0.000000,-0.001000,-0.002000,-0.002000,FlatInitial
10:36:27.631 AM 02/13/2016,Teleop Enabled,0,FALSE,0,NO ERROR,0.000000,0.000000,4000.000000,4000.000000,Speed,Speed,-0.530000,1.120000,2.920000,3.000000,101.000000,1,0,0.000000,-0.003968,0,0.000000,0.000000,0.000000,-0.191010,0.017319,0.000000,0.000000,0.000000,-0.004000,FlatInitial
10:36:27.731 AM 02/13/2016,Teleop Enabled,0,FALSE,0,NO ERROR,0.000000,0.000000,4000.000000,4000.000000,Speed,Speed,-0.540000,1.130000,2.920000,3.000000,101.000000,1,0,0.000000,-0.003968,0,0.000000,0.000000,0.000000,-0.191010,0.017319,0.000000,-0.001000,0.001000,0.002000,FlatInitial
10:36:27.832 AM 02/13/2016,Teleop Enabled,0,FALSE,0,NO ERROR,0.000000,0.000000,4000.000000,4000.000000,Speed,Speed,-0.540000,1.130000,2.920000,3.000000,101.000000,1,0,0.000000,-0.003968,0,0.000000,0.000000,0.000000,-0.191010,0.017319,0.000000,0.000000,0.000000,0.001000,FlatInitial
10:36:27.932 AM 02/13/2016,Teleop Enabled,0,FALSE,0,NO ERROR,0.000000,0.000000,4000.000000,4000.000000,Speed,Speed,-0.540000,1.130000,2.920000,3.000000,101.000000,1,0,0.000000,-0.003968,0,0.000000,0.000000,0.000000,-0.191010,0.017319,0.000000,0.000000,0.000000,0.000000,FlatInitial
10:36:28.033 AM 02/13/2016,Teleop Enabled,0,FALSE,0,NO ERROR,0.000000,0.000000,4000.000000,4000.000000,Speed,Speed,-0.540000,1.130000,2.920000,3.000000,103.000000,1,0,0.000000,-0.003968,0,0.000000,0.000000,0.000000,-0.191010,0.017319,0.000000,0.000000,-0.002000,-0.001000,FlatInitial
10:36:28.132 AM 02/13/2016,Teleop Enabled,0,FALSE,0,NO ERROR,0.000000,0.000000,4000.000000,4000.000000,Speed,Speed,-0.540000,1.120000,2.920000,3.000000,103.000000,1,0,0.000000,-0.003968,0,0.000000,0.000000,0.000000,-0.191010,0.017319,0.000000,0.001000,0.000000,0.003000,FlatInitial
10:36:28.233 AM 02/13/2016,Teleop Enabled,0,FALSE,0,NO ERROR,0.000000,0.000000,4000.000000,4000.000000,Speed,Speed,-0.540000,1.120000,2.920000,3.000000,103.000000,1,0,0.000000,-0.003968,0,0.000000,0.000000,0.000000,-0.191010,0.017319,0.000000,0.000000,0.000000,-0.004000,FlatInitial
10:36:28.333 AM 02/13/2016,Teleop Enabled,0,FALSE,0,NO ERROR,0.000000,0.000000,4000.000000,4000.000000,Speed,Speed,-0.540000,1.120000,2.920000,3.000000,102.000000,1,0,0.000000,-0.003968,0,0.000000,0.000000,0.000000,-0.191010,0.017319,0.000000,-0.002000,0.002000,0.000000,FlatInitial
10:36:28.434 AM 02/13/2016,Teleop Enabled,0,FALSE,0,NO ERROR,0.000000,0.000000,4000.000000,4000.000000,Speed,Speed,-0.540000,1.120000,2.930000,3.000000,102.000000,1,0,0.000000,-0.003968,0,0.000000,0.000000,0.000000,-0.191010,0.017319,0.000000,0.000000,0.000000,0.002000,FlatInitial
10:36:28.533 AM 02/13/2016,Teleop Enabled,0,FALSE,0,NO ERROR,0.000000,0.000000,4000.000000,4000.000000,Speed,Speed,-0.550000,1.110000,2.930000,3.000000,101.000000,1,0,0.000000,-0.003968,0,0.000000,0.000000,0.000000,-0.191010,0.017319,0.000000,0.002000,-0.001000,-0.002000,FlatInitial
10:36:28.634 AM 02/13/2016,Teleop Enabled,0,FALSE,0,NO ERROR,0.000000,0.000000,4000.000000,4000.000000,Speed,Speed,-0.550000,1.120000,2.940000,3.000000,103.000000,1,0,0.000000,-0.003968,0,0.000000,0.000000,0.000000,-0.191010,0.017319,0.000000,0.002000,-0.001000,-0.002000,FlatInitial
10:36:28.733 AM 02/13/2016,Teleop Enabled,0,FALSE,0,NO ERROR,0.000000,0.000000,4000.000000,4000.000000,Speed,Speed,-0.550000,1.120000,2.930000,3.000000,101.000000,1,0,0.000000,-0.003968,0,0.000000,0.000000,0.000000,-0.191010,0.017319,0.000000,-0.001000,0.000000,0.000000,FlatInitial
10:36:28.834 AM 02/13/2016,Teleop Enabled,0,FALSE,0,NO ERROR,0.000000,0.000000,4000.000000,4000.000000,Speed,Speed,-0.550000,1.120000,2.930000,3.000000,102.000000,1,0,0.000000,-0.003968,0,0.000000,0.000000,0.000000,-0.191010,0.017319,0.000000,0.000000,0.000000,0.000000,FlatInitial
10:36:28.933 AM 02/13/2016,Teleop Enabled,0,FALSE,0,NO ERROR,0.000000,0.000000,4000.000000,4000.000000,Speed,Speed,-0.550000,1.120000,2.930000,3.000000,104.000000,1,0,0.000000,-0.003968,0,0.000000,0.000000,0.000000,-0.191010,0.017319,0.000000,0.000000,0.001000,-0.001000,FlatInitial
10:36:29.034 AM 02/13/2016,Teleop Enabled,0,FALSE,0,NO ERROR,0.000000,0.000000,4000.000000,4000.000000,Speed,Speed,-0.560000,1.120000,2.940000,3.000000,102.000000,1,0,0.000000,-0.003968,0,0.000000,0.000000,0.000000,-0.191010,0.017319,0.000000,0.001000,0.000000,-0.005000,FlatInitial
10:36:29.133 AM 02/13/2016,Teleop Enabled,0,FALSE,0,NO ERROR,0.000000,0.000000,4000.000000,4000.000000,Speed,Speed,-0.560000,1.120000,2.940000,3.000000,103.000000,1,0,0.000000,-0.003968,0,0.000000,0.000000,0.000000,-0.191010,0.017319,0.000000,0.001000,0.000000,-0.005000,FlatInitial
10:36:29.234 AM 02/13/2016,Teleop Enabled,0,FALSE,0,NO ERROR,0.000000,0.000000,4000.000000,4000.000000,Speed,Speed,-0.560000,1.120000,2.940000,3.000000,103.000000,1,0,0.000000,-0.003968,0,0.000000,0.000000,0.000000,-0.191010,0.017319,0.000000,0.000000,0.000000,0.002000,FlatInitial
10:36:29.334 AM 02/13/2016,Teleop Enabled,0,FALSE,0,NO ERROR,0.000000,0.000000,4000.000000,4000.000000,Speed,Speed,-0.560000,1.120000,2.940000,3.000000,102.000000,1,0,0.000000,-0.003968,0,0.000000,0.000000,0.000000,-0.191010,0.017319,0.000000,0.001000,0.000000,-0.004000,FlatInitial
10:36:29.435 AM 02/13/2016,Teleop Enabled,0,FALSE,0,NO ERROR,0.000000,0.000000,4000.000000,4000.000000,Speed,Speed,-0.560000,1.120000,2.940000,3.000000,101.000000,1,0,0.000000,-0.003968,0,0.000000,0.000000,0.000000,-0.191010,0.017319,0.000000,0.002000,0.000000,0.000000,FlatInitial
10:36:29.535 AM 02/13/2016,Teleop Enabled,0,FALSE,0,NO ERROR,0.000000,0.000000,4000.000000,4000.000000,Speed,Speed,-0.560000,1.120000,2.940000,3.000000,102.000000,1,0,0.000000,-0.003968,0,0.000000,0.000000,0.000000,-0.191010,0.017319,0.000000,0.001000,0.000000,0.000000,FlatInitial
10:36:29.636 AM 02/13/2016,Teleop Enabled,0,FALSE,0,NO ERROR,0.000000,0.000000,4000.000000,4000.000000,Speed,Speed,-0.560000,1.120000,2.940000,3.000000,102.000000,1,0,0.000000,-0.003968,0,0.000000,0.000000,0.000000,-0.191010,0.017319,0.000000,0.000000,0.000000,0.002000,FlatInitial
10:36:29.739 AM 02/13/2016,Teleop Enabled,0,FALSE,0,NO ERROR,0.000000,0.000000,4000.000000,4000.000000,Speed,Speed,-0.560000,1.120000,2.940000,3.000000,103.000000,1,0,0.000000,-0.003968,0,0.000000,0.000000,0.000000,-0.191010,0.017319,0.000000,0.001000,0.000000,0.003000,FlatInitial
10:36:29.839 AM 02/13/2016,Teleop Enabled,0,FALSE,0,NO ERROR,0.000000,0.000000,9000.000000,9000.000000,Speed,Speed,-0.560000,1.120000,2.940000,4.000000,102.000000,1,0,0.000000,-0.003968,0,0.000000,0.000000,0.000000,-0.191010,0.017319,0.000000,-0.001000,0.000000,0.000000,FlatInitial
10:36:29.938 AM 02/13/2016,Teleop Enabled,0,FALSE,0,NO ERROR,0.000000,0.000000,9000.000000,9000.000000,Speed,Speed,-0.540000,1.080000,2.990000,4.000000,101.000000,1,0,0.000000,-0.003968,0,-0.004974,0.008804,0.000000,-0.191132,0.017334,0.000000,0.094000,0.025000,0.064000,FlatInitial
10:36:30.039 AM 02/13/2016,Teleop Enabled,0,FALSE,0,NO ERROR,0.000000,0.000000,9000.000000,9000.000000,Speed,Speed,-0.540000,1.170000,3.000000,4.000000,101.000000,1,0,0.000062,-0.003968,0,0.012772,0.003250,0.000000,-0.190628,0.017792,0.000000,-0.081000,0.010000,0.041000,FlatInitial
10:36:30.140 AM 02/13/2016,Teleop Enabled,0,FALSE,0,NO ERROR,0.000000,0.000000,9000.000000,9000.000000,Speed,Speed,-0.570000,1.100000,3.060000,4.000000,102.000000,1,0,0.000062,-0.003968,0,0.002686,0.003235,0.000000,-0.190414,0.017868,0.000000,0.053000,0.021000,-0.053000,FlatInitial
10:36:30.244 AM 02/13/2016,Teleop Enabled,0,FALSE,0,NO ERROR,0.000000,0.000000,9000.000000,9000.000000,Speed,Speed,-0.570000,1.160000,3.080000,4.000000,101.000000,1,0,0.000062,-0.003968,0,0.013321,0.005875,0.000000,-0.189789,0.018143,0.000000,-0.005000,0.000000,-0.005000,FlatInitial
10:36:30.345 AM 02/13/2016,Teleop Enabled,0,FALSE,0,NO ERROR,0.000000,0.000000,9000.000000,9000.000000,Speed,Speed,-0.570000,1.150000,3.020000,4.000000,102.000000,1,0,0.000062,-0.003968,0,0.000000,0.007324,0.000000,-0.189468,0.018311,0.000000,0.000000,0.016000,-0.005000,FlatInitial
10:36:30.446 AM 02/13/2016,Teleop Enabled,0,FALSE,0,NO ERROR,0.000000,0.000000,9000.000000,9000.000000,Speed,Speed,-0.580000,1.160000,2.880000,4.000000,103.000000,1,0,0.000062,-0.003968,0,-0.004883,0.010788,0.000000,-0.189529,0.018631,0.000000,-0.014000,0.016000,0.024000,FlatInitial
10:36:30.551 AM 02/13/2016,Teleop Enabled,0,FALSE,0,NO ERROR,0.000000,0.000000,9000.000000,9000.000000,Speed,Speed,-0.560000,1.150000,2.850000,4.000000,101.000000,1,0,0.000062,-0.003968,0,0.000000,0.000000,0.000000,-0.189590,0.019211,0.000000,0.018000,-0.015000,0.020000,FlatInitial
10:36:30.654 AM 02/13/2016,Teleop Enabled,0,FALSE,0,NO ERROR,0.000000,0.000000,9000.000000,9000.000000,Speed,Speed,-0.570000,1.170000,3.120000,4.000000,102.000000,1,0,0.000062,-0.003968,0,0.000000,-0.010651,0.000000,-0.189590,0.019165,0.000000,0.018000,-0.098000,0.035000,FlatInitial
10:36:30.755 AM 02/13/2016,Teleop Enabled,0,FALSE,0,NO ERROR,0.000000,0.000000,9000.000000,9000.000000,Speed,Speed,-0.540000,1.200000,1.290000,4.000000,102.000000,1,0,0.000062,-0.003968,0,-0.018967,-0.050644,0.000000,-0.190018,0.016800,0.000000,-0.056000,0.046000,0.051000,FlatInitial
10:36:30.855 AM 02/13/2016,Teleop Enabled,0,FALSE,0,NO ERROR,0.000000,0.000000,9000.000000,9000.000000,Speed,Speed,-0.500000,1.270000,2.330000,4.000000,101.000000,1,0,0.000062,-0.003968,0,0.052567,0.005630,0.000000,-0.188919,0.016403,0.000000,0.018000,-0.037000,0.318000,FlatInitial
10:36:30.955 AM 02/13/2016,Teleop Enabled,0,FALSE,0,NO ERROR,0.000000,0.000000,9000.000000,9000.000000,Speed,Speed,-0.510000,1.200000,2.710000,4.000000,101.000000,1,0,0.000062,-0.003968,0,0.052536,-0.052750,0.000000,-0.185898,0.014923,0.000000,0.032000,0.046000,0.101000,FlatInitial
10:36:31.055 AM 02/13/2016,Teleop Enabled,0,FALSE,0,NO ERROR,0.000000,0.000000,9000.000000,9000.000000,Speed,Speed,-0.630000,1.280000,2.400000,4.000000,102.000000,1,0,0.000062,-0.003968,0,0.069992,0.011475,0.000000,-0.182907,0.014236,0.000000,0.010000,-0.048000,0.527000,FlatInitial
10:36:31.156 AM 02/13/2016,Teleop Enabled,0,FALSE,0,NO ERROR,0.000000,0.000000,9000.000000,9000.000000,Speed,Speed,-0.610000,1.250000,2.720000,4.000000,107.000000,1,0,0.000062,-0.003968,0,0.077698,-0.000351,0.000000,-0.178940,0.014160,0.000000,-0.002000,0.026000,-0.040000,FlatInitial
10:36:31.256 AM 02/13/2016,Teleop Enabled,0,FALSE,0,NO ERROR,0.000000,0.000000,9000.000000,9000.000000,Speed,Speed,-0.630000,1.280000,2.890000,4.000000,102.000000,1,0,0.000062,-0.003968,0,0.088364,0.018524,0.000000,-0.173935,0.015106,0.000000,-0.013000,-0.023000,0.197000,FlatInitial
10:36:31.356 AM 02/13/2016,Teleop Enabled,0,FALSE,0,NO ERROR,0.000000,0.000000,9000.000000,9000.000000,Speed,Speed,-0.590000,1.240000,2.710000,4.000000,101.000000,1,0,0.000062,-0.003968,0,0.080948,0.010696,0.000000,-0.170013,0.015518,0.000000,0.010000,0.013000,0.040000,FlatInitial
10:36:31.457 AM 02/13/2016,Teleop Enabled,0,FALSE,0,NO ERROR,0.000000,0.000000,9000.000000,9000.000000,Speed,Speed,-0.600000,1.250000,2.790000,4.000000,102.000000,1,0,0.000062,-0.003968,0,0.002563,-0.007645,0.000000,-0.170074,0.015335,0.000000,-0.011000,0.001000,0.030000,FlatInitial
