Time,RobotMode,AutoToRun,ErrorStatus, ErrorCode,ErrorSource,ActualRPM1,ActualRPM2,DesiredRPM1,DesiredRPM2,ControlMode1,ControlMode2,NavXYaw,NavXRoll,NavXPitch,ShooterState,LoopTime,IsLevel,IsAutoTargeting,LeftMotorOutput,RightMotorOutput,IsHaloDrive,NavXVelocityX,NavXVelocityY,NavXVelocityZ,NavXDisplacementX,NavXDisplacementY,NavXDisplacementZ,NavXAccelerationX,NavXAccelerationY,NavXAccelerationZ
09:02:52.948 PM 02/09/2016,Autonomous Enabled,0,TRUE,-44087,NetComm_CAN_Receive.vi:5470007<APPEND>  <b>Complete call chain:</b>      NetComm_CAN_Receive.vi:5470007      WPI_CANTalonSRX_Receive.vi      WPI_MotorControlOpenCANTalonSRX.vi      Begin.vi      Robot Main.vi,0.000000,0.000000,0.000000,0.000000,Speed,Speed,179.170000,0.900000,2.600000,0.000000,4908857.000000,1,0,0.000000,0.000000,0,0.000000,0.014328,0.000000,6.436356,1.833633,0.000000,0.000000,0.000000,0.000000
09:02:53.049 PM 02/09/2016,Autonomous Enabled,0,TRUE,-44087,NetComm_CAN_Receive.vi:5470007<APPEND>  <b>Complete call chain:</b>      NetComm_CAN_Receive.vi:5470007      WPI_CANTalonSRX_Receive.vi      WPI_MotorControlOpenCANTalonSRX.vi      Begin.vi      Robot Main.vi,0.000000,0.000000,0.000000,0.000000,Speed,Speed,179.170000,0.900000,2.600000,0.000000,101.000000,1,0,0.000000,0.000000,0,-0.347092,0.721863,0.000000,6.426361,1.870255,0.000000,-0.957000,0.445000,-0.272000
09:02:53.150 PM 02/09/2016,Autonomous Enabled,0,TRUE,-44087,NetComm_CAN_Receive.vi:5470007<APPEND>  <b>Complete call chain:</b>      NetComm_CAN_Receive.vi:5470007      WPI_CANTalonSRX_Receive.vi      WPI_MotorControlOpenCANTalonSRX.vi      Begin.vi      Robot Main.vi,0.000000,0.000000,0.000000,0.000000,Speed,Speed,2.340000,0.850000,9.270000,0.000000,108.000000,0,0,0.000000,0.000000,0,-0.363159,1.082642,0.000000,6.413101,1.909027,0.000000,-0.378000,0.406000,0.078000
09:02:53.251 PM 02/09/2016,Autonomous Enabled,0,TRUE,-44087,NetComm_CAN_Receive.vi:5470007<APPEND>  <b>Complete call chain:</b>      NetComm_CAN_Receive.vi:5470007      WPI_CANTalonSRX_Receive.vi      WPI_MotorControlOpenCANTalonSRX.vi      Begin.vi      Robot Main.vi,0.000000,0.000000,0.000000,0.000000,Speed,Speed,1.630000,0.870000,8.910000,0.000000,102.000000,0,0,0.000000,0.000000,0,-0.363159,1.082642,0.000000,6.413101,1.909027,0.000000,0.131000,0.103000,-0.573000
09:02:53.352 PM 02/09/2016,Autonomous Enabled,0,TRUE,-44087,NetComm_CAN_Receive.vi:5470007<APPEND>  <b>Complete call chain:</b>      NetComm_CAN_Receive.vi:5470007      WPI_CANTalonSRX_Receive.vi      WPI_MotorControlOpenCANTalonSRX.vi      Begin.vi      Robot Main.vi,0.000000,0.000000,0.000000,0.000000,Speed,Speed,1.250000,0.720000,11.740000,0.000000,102.000000,0,0,0.000000,0.000000,0,-0.018936,1.097015,0.000000,6.395325,2.040543,0.000000,-0.040000,-0.003000,-0.178000
09:02:53.452 PM 02/09/2016,Autonomous Enabled,0,TRUE,-44087,NetComm_CAN_Receive.vi:5470007<APPEND>  <b>Complete call chain:</b>      NetComm_CAN_Receive.vi:5470007      WPI_CANTalonSRX_Receive.vi      WPI_MotorControlOpenCANTalonSRX.vi      Begin.vi      Robot Main.vi,0.000000,0.000000,0.000000,0.000000,Speed,Speed,0.830000,0.730000,15.240000,0.000000,109.000000,0,0,0.000000,0.000000,0,-0.018936,1.097015,0.000000,6.395325,2.040543,0.000000,0.006000,-0.072000,-0.248000
09:02:53.555 PM 02/09/2016,Autonomous Enabled,0,TRUE,-44087,NetComm_CAN_Receive.vi:5470007<APPEND>  <b>Complete call chain:</b>      NetComm_CAN_Receive.vi:5470007      WPI_CANTalonSRX_Receive.vi      WPI_MotorControlOpenCANTalonSRX.vi      Begin.vi      Robot Main.vi,0.000000,0.000000,0.000000,0.000000,Speed,Speed,0.830000,0.730000,15.240000,0.000000,105.000000,0,0,0.000000,0.000000,0,-0.037048,0.734497,0.000000,6.394012,2.089630,0.000000,0.028000,0.365000,0.192000
09:02:53.655 PM 02/09/2016,Autonomous Enabled,0,TRUE,-44087,NetComm_CAN_Receive.vi:5470007<APPEND>  <b>Complete call chain:</b>      NetComm_CAN_Receive.vi:5470007      WPI_CANTalonSRX_Receive.vi      WPI_MotorControlOpenCANTalonSRX.vi      Begin.vi      Robot Main.vi,0.000000,0.000000,0.000000,0.000000,Speed,Speed,1.440000,0.580000,31.500000,0.000000,102.000000,0,0,0.000000,0.000000,0,-0.305847,0.376740,0.000000,6.381226,2.120102,0.000000,-0.050000,-0.335000,-0.076000
09:02:53.756 PM 02/09/2016,Autonomous Enabled,0,TRUE,-44087,NetComm_CAN_Receive.vi:5470007<APPEND>  <b>Complete call chain:</b>      NetComm_CAN_Receive.vi:5470007      WPI_CANTalonSRX_Receive.vi      WPI_MotorControlOpenCANTalonSRX.vi      Begin.vi      Robot Main.vi,0.000000,0.000000,0.000000,0.000000,Speed,Speed,2.810000,-0.080000,36.200000,0.000000,103.000000,0,0,0.000000,0.000000,0,-0.554581,0.221176,0.000000,6.364105,2.131653,0.000000,0.168000,-0.123000,-1.046000
09:02:53.857 PM 02/09/2016,Autonomous Enabled,0,TRUE,-44087,NetComm_CAN_Receive.vi:5470007<APPEND>  <b>Complete call chain:</b>      NetComm_CAN_Receive.vi:5470007      WPI_CANTalonSRX_Receive.vi      WPI_MotorControlOpenCANTalonSRX.vi      Begin.vi      Robot Main.vi,0.000000,0.000000,0.000000,0.000000,Speed,Speed,2.810000,-0.080000,36.200000,0.000000,106.000000,0,0,0.000000,0.000000,0,-0.585602,0.143417,0.000000,6.337830,2.140839,0.000000,-0.063000,-0.448000,1.116000
09:02:53.958 PM 02/09/2016,Autonomous Enabled,0,TRUE,-44087,NetComm_CAN_Receive.vi:5470007<APPEND>  <b>Complete call chain:</b>      NetComm_CAN_Receive.vi:5470007      WPI_CANTalonSRX_Receive.vi      WPI_MotorControlOpenCANTalonSRX.vi      Begin.vi      Robot Main.vi,0.000000,0.000000,0.000000,0.000000,Speed,Speed,5.130000,-0.410000,24.010000,0.000000,103.000000,0,0,0.000000,0.000000,0,-0.787537,0.167084,0.000000,6.292984,2.146500,0.000000,-0.370000,0.256000,0.407000
09:02:54.057 PM 02/09/2016,Autonomous Enabled,0,TRUE,-44087,NetComm_CAN_Receive.vi:5470007<APPEND>  <b>Complete call chain:</b>      NetComm_CAN_Receive.vi:5470007      WPI_CANTalonSRX_Receive.vi      WPI_MotorControlOpenCANTalonSRX.vi      Begin.vi      Robot Main.vi,0.000000,0.000000,0.000000,0.000000,Speed,Speed,5.440000,-2.740000,3.530000,0.000000,105.000000,1,0,0.000000,0.000000,0,-1.035034,0.220276,0.000000,6.253372,2.153046,0.000000,0.090000,-1.129000,-0.227000
09:02:54.157 PM 02/09/2016,Autonomous Enabled,0,TRUE,-44087,NetComm_CAN_Receive.vi:5470007<APPEND>  <b>Complete call chain:</b>      NetComm_CAN_Receive.vi:5470007      WPI_CANTalonSRX_Receive.vi      WPI_MotorControlOpenCANTalonSRX.vi      Begin.vi      Robot Main.vi,0.000000,0.000000,0.000000,0.000000,Speed,Speed,9.690000,-2.210000,15.690000,0.000000,104.000000,0,0,0.000000,0.000000,0,-0.591919,0.203964,0.000000,6.205444,2.164001,0.000000,0.374000,-0.373000,-0.626000
09:02:54.259 PM 02/09/2016,Autonomous Enabled,0,TRUE,-44087,NetComm_CAN_Receive.vi:5470007<APPEND>  <b>Complete call chain:</b>      NetComm_CAN_Receive.vi:5470007      WPI_CANTalonSRX_Receive.vi      WPI_MotorControlOpenCANTalonSRX.vi      Begin.vi      Robot Main.vi,0.000000,0.000000,0.000000,0.000000,Speed,Speed,11.400000,4.210000,25.630000,0.000000,103.000000,0,0,0.000000,0.000000,0,-0.504578,0.172333,0.000000,6.184372,2.169540,0.000000,0.594000,0.541000,-0.617000
09:02:54.357 PM 02/09/2016,Autonomous Enabled,0,TRUE,-44087,NetComm_CAN_Receive.vi:5470007<APPEND>  <b>Complete call chain:</b>      NetComm_CAN_Receive.vi:5470007      WPI_CANTalonSRX_Receive.vi      WPI_MotorControlOpenCANTalonSRX.vi      Begin.vi      Robot Main.vi,0.000000,0.000000,0.000000,0.000000,Speed,Speed,13.340000,-0.200000,25.490000,0.000000,102.000000,0,0,0.000000,0.000000,0,-0.460236,0.502426,0.000000,6.150055,2.190720,0.000000,0.667000,-0.225000,-0.762000
09:02:54.466 PM 02/09/2016,Autonomous Enabled,0,TRUE,-44087,NetComm_CAN_Receive.vi:5470007<APPEND>  <b>Complete call chain:</b>      NetComm_CAN_Receive.vi:5470007      WPI_CANTalonSRX_Receive.vi      WPI_MotorControlOpenCANTalonSRX.vi      Begin.vi      Robot Main.vi,0.000000,0.000000,0.000000,0.000000,Speed,Speed,11.140000,4.320000,15.280000,0.000000,102.000000,0,0,0.000000,0.000000,0,0.005798,0.663177,0.000000,6.144272,2.217636,0.000000,-1.899000,0.617000,0.882000
09:02:54.567 PM 02/09/2016,Autonomous Enabled,0,TRUE,-44087,NetComm_CAN_Receive.vi:5470007<APPEND>  <b>Complete call chain:</b>      NetComm_CAN_Receive.vi:5470007      WPI_CANTalonSRX_Receive.vi      WPI_MotorControlOpenCANTalonSRX.vi      Begin.vi      Robot Main.vi,0.000000,0.000000,0.000000,0.000000,Speed,Speed,6.620000,1.110000,-6.620000,0.000000,101.000000,0,0,0.000000,0.000000,0,-0.610077,0.626816,0.000000,6.118057,2.252106,0.000000,1.525000,1.331000,-2.430000
09:02:54.668 PM 02/09/2016,Autonomous Enabled,0,TRUE,-44087,NetComm_CAN_Receive.vi:5470007<APPEND>  <b>Complete call chain:</b>      NetComm_CAN_Receive.vi:5470007      WPI_CANTalonSRX_Receive.vi      WPI_MotorControlOpenCANTalonSRX.vi      Begin.vi      Robot Main.vi,0.000000,0.000000,0.000000,0.000000,Speed,Speed,-2.360000,2.700000,-5.500000,0.000000,102.000000,1,0,0.000000,0.000000,0,-0.644424,1.509399,0.000000,6.086761,2.325836,0.000000,0.424000,0.412000,0.402000
09:02:54.769 PM 02/09/2016,Autonomous Enabled,0,TRUE,-44087,NetComm_CAN_Receive.vi:5470007<APPEND>  <b>Complete call chain:</b>      NetComm_CAN_Receive.vi:5470007      WPI_CANTalonSRX_Receive.vi      WPI_MotorControlOpenCANTalonSRX.vi      Begin.vi      Robot Main.vi,0.000000,0.000000,0.000000,0.000000,Speed,Speed,-10.120000,-6.750000,-1.840000,0.000000,101.000000,0,0,0.000000,0.000000,0,-0.723099,1.568512,0.000000,6.062164,2.387283,0.000000,-0.137000,0.731000,-2.120000
09:02:54.870 PM 02/09/2016,Autonomous Enabled,0,TRUE,-44087,NetComm_CAN_Receive.vi:5470007<APPEND>  <b>Complete call chain:</b>      NetComm_CAN_Receive.vi:5470007      WPI_CANTalonSRX_Receive.vi      WPI_MotorControlOpenCANTalonSRX.vi      Begin.vi      Robot Main.vi,0.000000,0.000000,0.000000,0.000000,Speed,Speed,-11.550000,-3.180000,10.540000,0.000000,108.000000,0,0,0.000000,0.000000,0,-1.255630,1.826416,0.000000,6.015015,2.477844,0.000000,-0.785000,-0.285000,1.022000
09:02:54.971 PM 02/09/2016,Autonomous Enabled,0,TRUE,-44087,NetComm_CAN_Receive.vi:5470007<APPEND>  <b>Complete call chain:</b>      NetComm_CAN_Receive.vi:5470007      WPI_CANTalonSRX_Receive.vi      WPI_MotorControlOpenCANTalonSRX.vi      Begin.vi      Robot Main.vi,0.000000,0.000000,0.000000,0.000000,Speed,Speed,-5.500000,1.150000,6.830000,0.000000,101.000000,0,0,0.000000,0.000000,0,-1.393967,2.343384,0.000000,5.940659,2.578888,0.000000,0.081000,0.637000,-1.524000
09:02:55.071 PM 02/09/2016,Autonomous Enabled,0,TRUE,-44087,NetComm_CAN_Receive.vi:5470007<APPEND>  <b>Complete call chain:</b>      NetComm_CAN_Receive.vi:5470007      WPI_CANTalonSRX_Receive.vi      WPI_MotorControlOpenCANTalonSRX.vi      Begin.vi      Robot Main.vi,0.000000,0.000000,0.000000,0.000000,Speed,Speed,-3.980000,2.580000,8.110000,0.000000,101.000000,0,0,0.000000,0.000000,0,-0.911346,2.239929,0.000000,5.872482,2.720474,0.000000,-0.344000,0.652000,-0.303000
09:02:55.171 PM 02/09/2016,Autonomous Enabled,0,TRUE,-44087,NetComm_CAN_Receive.vi:5470007<APPEND>  <b>Complete call chain:</b>      NetComm_CAN_Receive.vi:5470007      WPI_CANTalonSRX_Receive.vi      WPI_MotorControlOpenCANTalonSRX.vi      Begin.vi      Robot Main.vi,0.000000,0.000000,0.000000,0.000000,Speed,Speed,-3.730000,1.940000,7.440000,0.000000,108.000000,0,0,0.000000,0.000000,0,-1.019241,2.321426,0.000000,5.821716,2.837311,0.000000,0.055000,-0.173000,-0.231000
09:02:55.272 PM 02/09/2016,Autonomous Enabled,0,TRUE,-44087,NetComm_CAN_Receive.vi:5470007<APPEND>  <b>Complete call chain:</b>      NetComm_CAN_Receive.vi:5470007      WPI_CANTalonSRX_Receive.vi      WPI_MotorControlOpenCANTalonSRX.vi      Begin.vi      Robot Main.vi,0.000000,0.000000,0.000000,0.000000,Speed,Speed,-3.300000,1.880000,8.490000,0.000000,102.000000,0,0,0.000000,0.000000,0,-0.944489,2.224579,0.000000,5.764465,2.971283,0.000000,-0.135000,-0.017000,-0.057000
09:02:55.372 PM 02/09/2016,Autonomous Enabled,0,TRUE,-44087,NetComm_CAN_Receive.vi:5470007<APPEND>  <b>Complete call chain:</b>      NetComm_CAN_Receive.vi:5470007      WPI_CANTalonSRX_Receive.vi      WPI_CANTalonSRX_GetStatus.vi      ShooterVI.vi      Periodic Tasks.vi      Robot Main.vi,0.000000,0.000000,0.000000,0.000000,Speed,Speed,-2.060000,1.750000,6.880000,0.000000,101.000000,0,0,0.000000,0.000000,0,-0.972305,2.142746,0.000000,5.726242,3.058273,0.000000,0.110000,0.011000,-0.415000
09:02:55.473 PM 02/09/2016,Autonomous Enabled,0,TRUE,-44087,NetComm_CAN_Receive.vi:5470007<APPEND>  <b>Complete call chain:</b>      NetComm_CAN_Receive.vi:5470007      WPI_CANTalonSRX_Receive.vi      WPI_CANTalonSRX_GetStatus.vi      ShooterVI.vi      Periodic Tasks.vi      Robot Main.vi,0.000000,0.000000,0.000000,0.000000,Speed,Speed,-1.360000,1.770000,7.100000,0.000000,106.000000,0,0,0.000000,0.000000,0,-0.947021,2.038513,0.000000,5.678879,3.161713,0.000000,-0.053000,-0.006000,-0.422000
09:02:55.573 PM 02/09/2016,Autonomous Enabled,0,TRUE,-44087,NetComm_CAN_Receive.vi:5470007<APPEND>  <b>Complete call chain:</b>      NetComm_CAN_Receive.vi:5470007      WPI_CANTalonSRX_Receive.vi      WPI_CANTalonSRX_GetStatus.vi      ShooterVI.vi      Periodic Tasks.vi      Robot Main.vi,0.000000,0.000000,0.000000,0.000000,Speed,Speed,-1.360000,1.620000,6.840000,0.000000,102.000000,0,0,0.000000,0.000000,0,-0.971039,1.955765,0.000000,5.630463,3.261917,0.000000,-0.017000,-0.019000,-0.344000
09:02:55.674 PM 02/09/2016,Autonomous Enabled,0,TRUE,-44087,NetComm_CAN_Receive.vi:5470007<APPEND>  <b>Complete call chain:</b>      NetComm_CAN_Receive.vi:5470007      WPI_CANTalonSRX_Receive.vi      WPI_CANTalonSRX_GetStatus.vi      ShooterVI.vi      Periodic Tasks.vi      Robot Main.vi,0.000000,0.000000,0.000000,0.000000,Speed,Speed,-1.510000,1.520000,6.860000,0.000000,102.000000,0,0,0.000000,0.000000,0,-1.005676,1.915634,0.000000,5.580856,3.358566,0.000000,0.051000,0.026000,-0.205000
09:02:55.774 PM 02/09/2016,Autonomous Enabled,0,TRUE,-44087,NetComm_CAN_Receive.vi:5470007<APPEND>  <b>Complete call chain:</b>      NetComm_CAN_Receive.vi:5470007      WPI_CANTalonSRX_Receive.vi      WPI_CANTalonSRX_GetStatus.vi      ShooterVI.vi      Periodic Tasks.vi      Robot Main.vi,0.000000,0.000000,0.000000,0.000000,Speed,Speed,-1.670000,1.510000,6.240000,0.000000,101.000000,0,0,0.000000,0.000000,0,-1.002731,1.864151,0.000000,5.530838,3.452942,0.000000,-0.030000,0.022000,-0.007000
09:02:55.874 PM 02/09/2016,Autonomous Enabled,0,TRUE,-44087,NetComm_CAN_Receive.vi:5470007<APPEND>  <b>Complete call chain:</b>      NetComm_CAN_Receive.vi:5470007      WPI_CANTalonSRX_Receive.vi      WPI_CANTalonSRX_GetStatus.vi      ShooterVI.vi      Periodic Tasks.vi      Robot Main.vi,0.000000,0.000000,0.000000,0.000000,Speed,Speed,-1.780000,1.520000,5.810000,0.000000,105.000000,1,0,0.000000,0.000000,0,-1.025909,1.807434,0.000000,5.479965,3.544418,0.000000,-0.043000,-0.044000,-0.091000
09:02:55.976 PM 02/09/2016,Autonomous Enabled,0,TRUE,-44087,NetComm_CAN_Receive.vi:5470007<APPEND>  <b>Complete call chain:</b>      NetComm_CAN_Receive.vi:5470007      WPI_CANTalonSRX_Receive.vi      WPI_CANTalonSRX_GetStatus.vi      ShooterVI.vi      Periodic Tasks.vi      Robot Main.vi,0.000000,0.000000,0.000000,0.000000,Speed,Speed,-1.860000,1.310000,6.190000,0.000000,102.000000,0,0,0.000000,0.000000,0,-1.062958,1.735535,0.000000,5.427658,3.633041,0.000000,0.011000,-0.019000,-0.111000
09:02:56.076 PM 02/09/2016,Autonomous Enabled,0,TRUE,-44087,NetComm_CAN_Receive.vi:5470007<APPEND>  <b>Complete call chain:</b>      NetComm_CAN_Receive.vi:5470007      WPI_CANTalonSRX_Receive.vi      WPI_CANTalonSRX_GetStatus.vi      ShooterVI.vi      Periodic Tasks.vi      Robot Main.vi,0.000000,0.000000,0.000000,0.000000,Speed,Speed,-1.710000,1.260000,6.110000,0.000000,125.000000,0,0,0.000000,0.000000,0,-0.008667,1.690948,0.000000,5.426926,3.718704,0.000000,-0.023000,-0.045000,-0.041000
09:02:56.176 PM 02/09/2016,Autonomous Enabled,0,TRUE,-44087,NetComm_CAN_Receive.vi:5470007<APPEND>  <b>Complete call chain:</b>      NetComm_CAN_Receive.vi:5470007      WPI_CANTalonSRX_Receive.vi      WPI_CANTalonSRX_GetStatus.vi      ShooterVI.vi      Periodic Tasks.vi      Robot Main.vi,0.000000,0.000000,-6000.000000,-6000.000000,Speed,Speed,-1.890000,0.930000,4.900000,1.000000,106.000000,1,0,0.000000,0.000000,0,0.190186,1.444504,0.000000,5.428299,3.799789,0.000000,-0.492000,-0.553000,0.573000
09:02:56.280 PM 02/09/2016,Autonomous Enabled,0,TRUE,-44087,NetComm_CAN_Receive.vi:5470007<APPEND>  <b>Complete call chain:</b>      NetComm_CAN_Receive.vi:5470007      WPI_CANTalonSRX_Receive.vi      WPI_CANTalonSRX_GetStatus.vi      ShooterVI.vi      Periodic Tasks.vi      Robot Main.vi,0.000000,0.000000,0.000000,0.000000,Speed,Speed,-0.890000,1.160000,4.790000,2.000000,101.000000,1,0,0.000000,0.000000,0,0.053375,1.342026,0.000000,5.434433,3.863693,0.000000,-0.045000,0.714000,0.795000
09:02:56.380 PM 02/09/2016,Autonomous Enabled,0,TRUE,-44087,NetComm_CAN_Receive.vi:5470007<APPEND>  <b>Complete call chain:</b>      NetComm_CAN_Receive.vi:5470007      WPI_CANTalonSRX_Receive.vi      WPI_CANTalonSRX_GetStatus.vi      ShooterVI.vi      Periodic Tasks.vi      Robot Main.vi,0.000000,0.000000,0.000000,0.000000,Speed,Speed,-0.890000,1.160000,4.790000,2.000000,101.000000,1,0,0.000000,0.000000,0,0.053375,1.342026,0.000000,5.434433,3.863693,0.000000,-0.045000,0.714000,0.795000
09:02:56.481 PM 02/09/2016,Autonomous Enabled,0,TRUE,-44087,NetComm_CAN_Receive.vi:5470007<APPEND>  <b>Complete call chain:</b>      NetComm_CAN_Receive.vi:5470007      WPI_CANTalonSRX_Receive.vi      WPI_CANTalonSRX_GetStatus.vi      ShooterVI.vi      Periodic Tasks.vi      Robot Main.vi,0.000000,0.000000,0.000000,0.000000,Speed,Speed,4.980000,1.960000,5.300000,2.000000,102.000000,1,0,0.000000,0.000000,0,-0.047867,1.271912,0.000000,5.436493,4.025223,0.000000,0.100000,-0.274000,0.067000
09:02:56.581 PM 02/09/2016,Autonomous Enabled,0,TRUE,-44087,NetComm_CAN_Receive.vi:5470007<APPEND>  <b>Complete call chain:</b>      NetComm_CAN_Receive.vi:5470007      WPI_CANTalonSRX_Receive.vi      WPI_CANTalonSRX_GetStatus.vi      ShooterVI.vi      Periodic Tasks.vi      Robot Main.vi,0.000000,0.000000,0.000000,0.000000,Speed,Speed,13.360000,1.880000,4.090000,2.000000,103.000000,1,0,0.000000,0.000000,0,-0.071060,1.143417,0.000000,5.435837,4.096161,0.000000,-0.028000,-0.048000,-0.385000
09:02:56.681 PM 02/09/2016,Autonomous Enabled,0,TRUE,-44087,NetComm_CAN_Receive.vi:5470007<APPEND>  <b>Complete call chain:</b>      NetComm_CAN_Receive.vi:5470007      WPI_CANTalonSRX_Receive.vi      WPI_CANTalonSRX_GetStatus.vi      ShooterVI.vi      Periodic Tasks.vi      Robot Main.vi,0.000000,0.000000,0.000000,0.000000,Speed,Speed,11.670000,2.170000,3.390000,2.000000,105.000000,1,0,0.000000,0.000000,0,0.466125,0.798401,0.000000,5.441895,4.129532,0.000000,1.110000,0.108000,-2.185000
09:02:56.781 PM 02/09/2016,Autonomous Enabled,0,TRUE,-44087,NetComm_CAN_Receive.vi:5470007<APPEND>  <b>Complete call chain:</b>      NetComm_CAN_Receive.vi:5470007      WPI_CANTalonSRX_Receive.vi      WPI_CANTalonSRX_GetStatus.vi      ShooterVI.vi      Periodic Tasks.vi      Robot Main.vi,0.000000,0.000000,0.000000,0.000000,Speed,Speed,7.200000,1.410000,2.390000,2.000000,102.000000,1,0,0.000000,0.000000,0,0.329468,1.012787,0.000000,5.462402,4.174789,0.000000,0.961000,-0.678000,-0.883000
09:02:56.882 PM 02/09/2016,Autonomous Enabled,0,TRUE,-44087,NetComm_CAN_Receive.vi:5470007<APPEND>  <b>Complete call chain:</b>      NetComm_CAN_Receive.vi:5470007      WPI_CANTalonSRX_Receive.vi      WPI_CANTalonSRX_GetStatus.vi      ShooterVI.vi      Periodic Tasks.vi      Robot Main.vi,0.000000,0.000000,0.000000,0.000000,Speed,Speed,5.980000,1.700000,1.720000,2.000000,101.000000,1,0,0.000000,0.000000,0,0.359100,0.774200,0.000000,5.482193,4.215805,0.000000,0.542000,-0.063000,0.291000
09:02:56.983 PM 02/09/2016,Autonomous Disabled,0,TRUE,-44087,NetComm_CAN_Receive.vi:5470007<APPEND>  <b>Complete call chain:</b>      NetComm_CAN_Receive.vi:5470007      WPI_CANTalonSRX_Receive.vi      WPI_CANTalonSRX_GetStatus.vi      ShooterVI.vi      Periodic Tasks.vi      Robot Main.vi,0.000000,0.000000,0.000000,0.000000,Speed,Speed,5.910000,1.790000,1.680000,2.000000,102.000000,1,0,0.000000,0.000000,0,0.569061,0.948380,0.000000,5.509079,4.260742,0.000000,-0.155000,0.079000,0.147000
09:02:57.084 PM 02/09/2016,Autonomous Disabled,0,TRUE,-44087,NetComm_CAN_Receive.vi:5470007<APPEND>  <b>Complete call chain:</b>      NetComm_CAN_Receive.vi:5470007      WPI_CANTalonSRX_Receive.vi      WPI_CANTalonSRX_GetStatus.vi      ShooterVI.vi      Periodic Tasks.vi      Robot Main.vi,0.000000,0.000000,0.000000,0.000000,Speed,Speed,6.120000,1.890000,1.470000,2.000000,103.000000,1,0,0.000000,0.000000,0,0.563568,0.988068,0.000000,5.536896,4.309525,0.000000,0.021000,0.020000,-0.039000
09:02:57.184 PM 02/09/2016,Autonomous Disabled,0,TRUE,-44087,NetComm_CAN_Receive.vi:5470007<APPEND>  <b>Complete call chain:</b>      NetComm_CAN_Receive.vi:5470007      WPI_CANTalonSRX_Receive.vi      WPI_CANTalonSRX_GetStatus.vi      ShooterVI.vi      Periodic Tasks.vi      Robot Main.vi,0.000000,0.000000,0.000000,0.000000,Speed,Speed,6.060000,1.750000,1.670000,2.000000,101.000000,1,0,0.000000,0.000000,0,0.000000,1.026215,0.000000,5.553406,4.360291,0.000000,0.013000,0.051000,-0.113000
09:02:57.284 PM 02/09/2016,Autonomous Disabled,0,TRUE,-44087,NetComm_CAN_Receive.vi:5470007<APPEND>  <b>Complete call chain:</b>      NetComm_CAN_Receive.vi:5470007      WPI_CANTalonSRX_Receive.vi      WPI_CANTalonSRX_GetStatus.vi      ShooterVI.vi      Periodic Tasks.vi      Robot Main.vi,0.000000,0.000000,0.000000,0.000000,Speed,Speed,6.080000,1.670000,1.760000,2.000000,102.000000,1,0,0.000000,0.000000,0,-0.010147,0.000000,0.000000,5.553207,4.391510,0.000000,-0.004000,0.011000,-0.059000
09:02:57.384 PM 02/09/2016,Autonomous Disabled,0,TRUE,-44087,NetComm_CAN_Receive.vi:5470007<APPEND>  <b>Complete call chain:</b>      NetComm_CAN_Receive.vi:5470007      WPI_CANTalonSRX_Receive.vi      WPI_CANTalonSRX_GetStatus.vi      ShooterVI.vi      Periodic Tasks.vi      Robot Main.vi,0.000000,0.000000,0.000000,0.000000,Speed,Speed,6.090000,1.600000,1.820000,2.000000,103.000000,1,0,0.000000,0.000000,0,-0.009430,0.018311,0.000000,5.553040,4.392059,0.000000,-0.009000,0.006000,-0.022000
09:02:57.484 PM 02/09/2016,Autonomous Disabled,0,TRUE,-44087,NetComm_CAN_Receive.vi:5470007<APPEND>  <b>Complete call chain:</b>      NetComm_CAN_Receive.vi:5470007      WPI_CANTalonSRX_Receive.vi      WPI_CANTalonSRX_GetStatus.vi      ShooterVI.vi      Periodic Tasks.vi      Robot Main.vi,0.000000,0.000000,4000.000000,4000.000000,Speed,Speed,6.070000,1.560000,1.890000,3.000000,101.000000,1,0,0.000000,0.000000,0,0.000000,0.009811,0.000000,5.553040,4.392212,0.000000,-0.012000,0.016000,0.017000
09:02:57.585 PM 02/09/2016,Autonomous Disabled,0,TRUE,-44087,NetComm_CAN_Receive.vi:5470007<APPEND>  <b>Complete call chain:</b>      NetComm_CAN_Receive.vi:5470007      WPI_CANTalonSRX_Receive.vi      WPI_CANTalonSRX_GetStatus.vi      ShooterVI.vi      Periodic Tasks.vi      Robot Main.vi,0.000000,0.000000,4000.000000,4000.000000,Speed,Speed,6.080000,1.500000,1.950000,3.000000,102.000000,1,0,0.000000,0.000000,0,0.000000,0.000000,0.000000,5.553040,4.392960,0.000000,-0.005000,0.009000,0.022000
09:02:57.685 PM 02/09/2016,Autonomous Disabled,0,TRUE,-44087,NetComm_CAN_Receive.vi:5470007<APPEND>  <b>Complete call chain:</b>      NetComm_CAN_Receive.vi:5470007      WPI_CANTalonSRX_Receive.vi      WPI_CANTalonSRX_GetStatus.vi      ShooterVI.vi      Periodic Tasks.vi      Robot Main.vi,0.000000,0.000000,4000.000000,4000.000000,Speed,Speed,6.080000,1.450000,1.990000,3.000000,103.000000,1,0,0.000000,0.000000,0,0.000000,0.000000,0.000000,5.552841,4.392960,0.000000,-0.003000,0.013000,-0.005000
09:02:57.785 PM 02/09/2016,Autonomous Disabled,0,TRUE,-44087,NetComm_CAN_Receive.vi:5470007<APPEND>  <b>Complete call chain:</b>      NetComm_CAN_Receive.vi:5470007      WPI_CANTalonSRX_Receive.vi      WPI_CANTalonSRX_GetStatus.vi      ShooterVI.vi      Periodic Tasks.vi      Robot Main.vi,0.000000,0.000000,4000.000000,4000.000000,Speed,Speed,6.080000,1.400000,2.040000,3.000000,102.000000,1,0,0.000000,0.000000,0,0.000000,0.000000,0.000000,5.552841,4.392960,0.000000,0.003000,0.013000,0.003000
09:02:57.886 PM 02/09/2016,Autonomous Disabled,0,TRUE,-44087,NetComm_CAN_Receive.vi:5470007<APPEND>  <b>Complete call chain:</b>      NetComm_CAN_Receive.vi:5470007      WPI_CANTalonSRX_Receive.vi      WPI_CANTalonSRX_GetStatus.vi      ShooterVI.vi      Periodic Tasks.vi      Robot Main.vi,0.000000,0.000000,4000.000000,4000.000000,Speed,Speed,6.070000,1.360000,2.100000,3.000000,102.000000,1,0,0.000000,0.000000,0,0.000000,0.000000,0.000000,5.552841,4.392960,0.000000,-0.002000,0.013000,0.008000
09:02:57.986 PM 02/09/2016,Autonomous Disabled,0,TRUE,-44087,NetComm_CAN_Receive.vi:5470007<APPEND>  <b>Complete call chain:</b>      NetComm_CAN_Receive.vi:5470007      WPI_CANTalonSRX_Receive.vi      WPI_CANTalonSRX_GetStatus.vi      ShooterVI.vi      Periodic Tasks.vi      Robot Main.vi,0.000000,0.000000,4000.000000,4000.000000,Speed,Speed,6.070000,1.320000,2.150000,3.000000,103.000000,1,0,0.000000,0.000000,0,0.000000,0.000000,0.000000,5.552841,4.392960,0.000000,-0.011000,0.011000,0.002000
09:02:58.087 PM 02/09/2016,Autonomous Disabled,0,TRUE,-44087,NetComm_CAN_Receive.vi:5470007<APPEND>  <b>Complete call chain:</b>      NetComm_CAN_Receive.vi:5470007      WPI_CANTalonSRX_Receive.vi      WPI_CANTalonSRX_GetStatus.vi      ShooterVI.vi      Periodic Tasks.vi      Robot Main.vi,0.000000,0.000000,4000.000000,4000.000000,Speed,Speed,6.070000,1.300000,2.210000,3.000000,102.000000,1,0,0.000000,0.000000,0,0.000000,0.000000,0.000000,5.552841,4.392960,0.000000,-0.015000,0.012000,-0.002000
09:02:58.189 PM 02/09/2016,Autonomous Disabled,0,TRUE,-44087,NetComm_CAN_Receive.vi:5470007<APPEND>  <b>Complete call chain:</b>      NetComm_CAN_Receive.vi:5470007      WPI_CANTalonSRX_Receive.vi      WPI_CANTalonSRX_GetStatus.vi      ShooterVI.vi      Periodic Tasks.vi      Robot Main.vi,0.000000,0.000000,4000.000000,4000.000000,Speed,Speed,6.070000,1.260000,2.260000,3.000000,106.000000,1,0,0.000000,0.000000,0,0.000000,0.000000,0.000000,5.552841,4.392960,0.000000,-0.018000,0.011000,-0.002000
09:02:58.290 PM 02/09/2016,Autonomous Disabled,0,TRUE,-44087,NetComm_CAN_Receive.vi:5470007<APPEND>  <b>Complete call chain:</b>      NetComm_CAN_Receive.vi:5470007      WPI_CANTalonSRX_Receive.vi      WPI_CANTalonSRX_GetStatus.vi      ShooterVI.vi      Periodic Tasks.vi      Robot Main.vi,0.000000,0.000000,4000.000000,4000.000000,Speed,Speed,6.090000,1.230000,2.280000,3.000000,103.000000,1,0,0.000000,0.000000,0,0.000000,0.000000,0.000000,5.552841,4.392960,0.000000,-0.003000,0.001000,0.002000
09:02:58.391 PM 02/09/2016,Autonomous Disabled,0,TRUE,-44087,NetComm_CAN_Receive.vi:5470007<APPEND>  <b>Complete call chain:</b>      NetComm_CAN_Receive.vi:5470007      WPI_CANTalonSRX_Receive.vi      WPI_CANTalonSRX_GetStatus.vi      ShooterVI.vi      Periodic Tasks.vi      Robot Main.vi,0.000000,0.000000,4000.000000,4000.000000,Speed,Speed,6.080000,1.190000,2.310000,3.000000,104.000000,1,0,0.000000,0.000000,0,0.000000,0.000000,0.000000,5.552841,4.392960,0.000000,0.001000,0.006000,0.000000
09:02:58.491 PM 02/09/2016,Autonomous Disabled,0,TRUE,-44087,NetComm_CAN_Receive.vi:5470007<APPEND>  <b>Complete call chain:</b>      NetComm_CAN_Receive.vi:5470007      WPI_CANTalonSRX_Receive.vi      WPI_CANTalonSRX_GetStatus.vi      ShooterVI.vi      Periodic Tasks.vi      Robot Main.vi,0.000000,0.000000,4000.000000,4000.000000,Speed,Speed,6.070000,1.160000,2.350000,3.000000,103.000000,1,0,0.000000,0.000000,0,0.000000,0.000000,0.000000,5.552841,4.392960,0.000000,0.003000,0.005000,0.000000
09:02:58.592 PM 02/09/2016,Autonomous Disabled,0,TRUE,-44087,NetComm_CAN_Receive.vi:5470007<APPEND>  <b>Complete call chain:</b>      NetComm_CAN_Receive.vi:5470007      WPI_CANTalonSRX_Receive.vi      WPI_CANTalonSRX_GetStatus.vi      ShooterVI.vi      Periodic Tasks.vi      Robot Main.vi,0.000000,0.000000,4000.000000,4000.000000,Speed,Speed,6.070000,1.130000,2.380000,3.000000,102.000000,1,0,0.000000,0.000000,0,0.000000,0.000000,0.000000,5.552841,4.392960,0.000000,-0.001000,0.008000,0.001000
09:02:58.692 PM 02/09/2016,Autonomous Disabled,0,TRUE,-44087,NetComm_CAN_Receive.vi:5470007<APPEND>  <b>Complete call chain:</b>      NetComm_CAN_Receive.vi:5470007      WPI_CANTalonSRX_Receive.vi      WPI_CANTalonSRX_GetStatus.vi      ShooterVI.vi      Periodic Tasks.vi      Robot Main.vi,0.000000,0.000000,4000.000000,4000.000000,Speed,Speed,6.060000,1.110000,2.400000,3.000000,103.000000,1,0,0.000000,0.000000,0,0.000000,0.000000,0.000000,5.552841,4.392960,0.000000,-0.008000,0.009000,0.001000
09:02:58.793 PM 02/09/2016,Autonomous Disabled,0,TRUE,-44087,NetComm_CAN_Receive.vi:5470007<APPEND>  <b>Complete call chain:</b>      NetComm_CAN_Receive.vi:5470007      WPI_CANTalonSRX_Receive.vi      WPI_CANTalonSRX_GetStatus.vi      ShooterVI.vi      Periodic Tasks.vi      Robot Main.vi,0.000000,0.000000,4000.000000,4000.000000,Speed,Speed,6.060000,1.100000,2.430000,3.000000,101.000000,1,0,0.000000,0.000000,0,0.000000,0.000000,0.000000,5.552841,4.392960,0.000000,-0.012000,0.008000,-0.003000
09:02:58.894 PM 02/09/2016,Autonomous Disabled,0,TRUE,-44087,NetComm_CAN_Receive.vi:5470007<APPEND>  <b>Complete call chain:</b>      NetComm_CAN_Receive.vi:5470007      WPI_CANTalonSRX_Receive.vi      WPI_CANTalonSRX_GetStatus.vi      ShooterVI.vi      Periodic Tasks.vi      Robot Main.vi,0.000000,0.000000,4000.000000,4000.000000,Speed,Speed,6.070000,1.080000,2.450000,3.000000,102.000000,1,0,0.000000,0.000000,0,0.000000,0.000000,0.000000,5.552841,4.392960,0.000000,-0.004000,0.005000,0.001000
09:02:58.995 PM 02/09/2016,Autonomous Disabled,0,TRUE,-44087,NetComm_CAN_Receive.vi:5470007<APPEND>  <b>Complete call chain:</b>      NetComm_CAN_Receive.vi:5470007      WPI_CANTalonSRX_Receive.vi      WPI_CANTalonSRX_GetStatus.vi      ShooterVI.vi      Periodic Tasks.vi      Robot Main.vi,0.000000,0.000000,4000.000000,4000.000000,Speed,Speed,6.060000,1.060000,2.480000,3.000000,102.000000,1,0,0.000000,0.000000,0,0.000000,0.000000,0.000000,5.552841,4.392960,0.000000,0.000000,0.004000,0.002000
09:02:59.095 PM 02/09/2016,Autonomous Disabled,0,TRUE,-44087,NetComm_CAN_Receive.vi:5470007<APPEND>  <b>Complete call chain:</b>      NetComm_CAN_Receive.vi:5470007      WPI_CANTalonSRX_Receive.vi      WPI_CANTalonSRX_GetStatus.vi      ShooterVI.vi      Periodic Tasks.vi      Robot Main.vi,0.000000,0.000000,4000.000000,4000.000000,Speed,Speed,6.060000,1.040000,2.500000,3.000000,103.000000,1,0,0.000000,0.000000,0,0.000000,0.000000,0.000000,5.552841,4.392960,0.000000,0.001000,0.001000,0.001000
09:02:59.196 PM 02/09/2016,Autonomous Disabled,0,TRUE,-44087,NetComm_CAN_Receive.vi:5470007<APPEND>  <b>Complete call chain:</b>      NetComm_CAN_Receive.vi:5470007      WPI_CANTalonSRX_Receive.vi      WPI_CANTalonSRX_GetStatus.vi      ShooterVI.vi      Periodic Tasks.vi      Robot Main.vi,0.000000,0.000000,4000.000000,4000.000000,Speed,Speed,6.060000,1.030000,2.520000,3.000000,103.000000,1,0,0.000000,0.000000,0,0.000000,0.000000,0.000000,5.552841,4.392960,0.000000,-0.003000,0.003000,0.006000
09:02:59.296 PM 02/09/2016,Autonomous Disabled,0,TRUE,-44087,NetComm_CAN_Receive.vi:5470007<APPEND>  <b>Complete call chain:</b>      NetComm_CAN_Receive.vi:5470007      WPI_CANTalonSRX_Receive.vi      WPI_CANTalonSRX_GetStatus.vi      ShooterVI.vi      Periodic Tasks.vi      Robot Main.vi,0.000000,0.000000,4000.000000,4000.000000,Speed,Speed,6.050000,1.010000,2.530000,3.000000,101.000000,1,0,0.000000,0.000000,0,0.000000,0.000000,0.000000,5.552841,4.392960,0.000000,-0.005000,0.003000,-0.001000
09:02:59.396 PM 02/09/2016,Autonomous Disabled,0,TRUE,-44087,NetComm_CAN_Receive.vi:5470007<APPEND>  <b>Complete call chain:</b>      NetComm_CAN_Receive.vi:5470007      WPI_CANTalonSRX_Receive.vi      WPI_CANTalonSRX_GetStatus.vi      ShooterVI.vi      Periodic Tasks.vi      Robot Main.vi,0.000000,0.000000,4000.000000,4000.000000,Speed,Speed,6.060000,1.010000,2.550000,3.000000,102.000000,1,0,0.000000,0.000000,0,0.000000,0.000000,0.000000,5.552841,4.392960,0.000000,-0.003000,0.006000,0.000000
09:02:59.496 PM 02/09/2016,Autonomous Disabled,0,TRUE,-44087,NetComm_CAN_Receive.vi:5470007<APPEND>  <b>Complete call chain:</b>      NetComm_CAN_Receive.vi:5470007      WPI_CANTalonSRX_Receive.vi      WPI_CANTalonSRX_GetStatus.vi      ShooterVI.vi      Periodic Tasks.vi      Robot Main.vi,0.000000,0.000000,4000.000000,4000.000000,Speed,Speed,6.070000,0.990000,2.550000,3.000000,101.000000,1,0,0.000000,0.000000,0,0.000000,0.000000,0.000000,5.552841,4.392960,0.000000,-0.002000,0.001000,0.002000
09:02:59.596 PM 02/09/2016,Autonomous Disabled,0,TRUE,-44087,NetComm_CAN_Receive.vi:5470007<APPEND>  <b>Complete call chain:</b>      NetComm_CAN_Receive.vi:5470007      WPI_CANTalonSRX_Receive.vi      WPI_CANTalonSRX_GetStatus.vi      ShooterVI.vi      Periodic Tasks.vi      Robot Main.vi,0.000000,0.000000,4000.000000,4000.000000,Speed,Speed,6.060000,0.990000,2.560000,3.000000,103.000000,1,0,0.000000,0.000000,0,0.000000,0.000000,0.000000,5.552841,4.392960,0.000000,-0.005000,0.002000,0.001000
09:02:59.696 PM 02/09/2016,Autonomous Disabled,0,TRUE,-44087,NetComm_CAN_Receive.vi:5470007<APPEND>  <b>Complete call chain:</b>      NetComm_CAN_Receive.vi:5470007      WPI_CANTalonSRX_Receive.vi      WPI_CANTalonSRX_GetStatus.vi      ShooterVI.vi      Periodic Tasks.vi      Robot Main.vi,0.000000,0.000000,4000.000000,4000.000000,Speed,Speed,6.020000,0.840000,2.320000,3.000000,101.000000,1,0,0.000000,0.000000,0,-0.018906,-0.036285,0.000000,5.552551,4.392487,0.000000,0.044000,-0.094000,0.021000
09:02:59.796 PM 02/09/2016,Autonomous Disabled,0,TRUE,-44087,NetComm_CAN_Receive.vi:5470007<APPEND>  <b>Complete call chain:</b>      NetComm_CAN_Receive.vi:5470007      WPI_CANTalonSRX_Receive.vi      WPI_CANTalonSRX_GetStatus.vi      ShooterVI.vi      Periodic Tasks.vi      Robot Main.vi,0.000000,0.000000,4000.000000,4000.000000,Speed,Speed,5.390000,1.030000,2.680000,3.000000,103.000000,1,0,0.000000,0.000000,0,0.013748,-0.013214,0.000000,5.552841,4.390152,0.000000,-0.164000,0.048000,0.099000
09:02:59.896 PM 02/09/2016,Autonomous Disabled,0,TRUE,-44087,NetComm_CAN_Receive.vi:5470007<APPEND>  <b>Complete call chain:</b>      NetComm_CAN_Receive.vi:5470007      WPI_CANTalonSRX_Receive.vi      WPI_CANTalonSRX_GetStatus.vi      ShooterVI.vi      Periodic Tasks.vi      Robot Main.vi,0.000000,0.000000,4000.000000,4000.000000,Speed,Speed,5.630000,0.960000,2.630000,3.000000,102.000000,1,0,0.000000,0.000000,0,-0.009598,0.000000,0.000000,5.551697,4.390625,0.000000,-0.009000,-0.035000,0.038000
09:02:59.996 PM 02/09/2016,Autonomous Disabled,0,TRUE,-44087,NetComm_CAN_Receive.vi:5470007<APPEND>  <b>Complete call chain:</b>      NetComm_CAN_Receive.vi:5470007      WPI_CANTalonSRX_Receive.vi      WPI_CANTalonSRX_GetStatus.vi      ShooterVI.vi      Periodic Tasks.vi      Robot Main.vi,0.000000,0.000000,4000.000000,4000.000000,Speed,Speed,5.480000,0.960000,2.610000,3.000000,102.000000,1,0,0.000000,0.000000,0,-0.015076,0.000000,0.000000,5.550995,4.390244,0.000000,-0.041000,0.013000,-0.029000
09:03:00.096 PM 02/09/2016,Autonomous Disabled,0,TRUE,-44087,NetComm_CAN_Receive.vi:5470007<APPEND>  <b>Complete call chain:</b>      NetComm_CAN_Receive.vi:5470007      WPI_CANTalonSRX_Receive.vi      WPI_CANTalonSRX_GetStatus.vi      ShooterVI.vi      Periodic Tasks.vi      Robot Main.vi,0.000000,0.000000,4000.000000,4000.000000,Speed,Speed,5.790000,0.940000,2.730000,3.000000,103.000000,1,0,0.000000,0.000000,0,-0.013489,0.006287,0.000000,5.550369,4.390335,0.000000,-0.046000,0.015000,-0.005000
09:03:00.197 PM 02/09/2016,Autonomous Disabled,0,TRUE,-44087,NetComm_CAN_Receive.vi:5470007<APPEND>  <b>Complete call chain:</b>      NetComm_CAN_Receive.vi:5470007      WPI_CANTalonSRX_Receive.vi      WPI_CANTalonSRX_GetStatus.vi      ShooterVI.vi      Periodic Tasks.vi      Robot Main.vi,0.000000,0.000000,4000.000000,4000.000000,Speed,Speed,5.860000,0.910000,2.690000,3.000000,100.000000,1,0,0.000000,0.000000,0,-0.013306,0.000000,0.000000,5.549667,4.390427,0.000000,-0.006000,-0.013000,0.003000
09:03:00.298 PM 02/09/2016,Autonomous Disabled,0,TRUE,-44087,NetComm_CAN_Receive.vi:5470007<APPEND>  <b>Complete call chain:</b>      NetComm_CAN_Receive.vi:5470007      WPI_CANTalonSRX_Receive.vi      WPI_CANTalonSRX_GetStatus.vi      ShooterVI.vi      Periodic Tasks.vi      Robot Main.vi,0.000000,0.000000,4000.000000,4000.000000,Speed,Speed,5.860000,0.900000,2.630000,3.000000,103.000000,1,0,0.000000,0.000000,0,0.000000,0.000000,0.000000,5.549530,4.390427,0.000000,0.009000,0.002000,0.005000
09:03:00.397 PM 02/09/2016,Autonomous Disabled,0,TRUE,-44087,NetComm_CAN_Receive.vi:5470007<APPEND>  <b>Complete call chain:</b>      NetComm_CAN_Receive.vi:5470007      WPI_CANTalonSRX_Receive.vi      WPI_CANTalonSRX_GetStatus.vi      ShooterVI.vi      Periodic Tasks.vi      Robot Main.vi,0.000000,0.000000,4000.000000,4000.000000,Speed,Speed,5.860000,0.890000,2.670000,3.000000,103.000000,1,0,0.000000,0.000000,0,0.000000,0.000000,0.000000,5.549530,4.390427,0.000000,0.007000,0.000000,0.002000
09:03:00.497 PM 02/09/2016,Autonomous Disabled,0,TRUE,-44087,NetComm_CAN_Receive.vi:5470007<APPEND>  <b>Complete call chain:</b>      NetComm_CAN_Receive.vi:5470007      WPI_CANTalonSRX_Receive.vi      WPI_CANTalonSRX_GetStatus.vi      ShooterVI.vi      Periodic Tasks.vi      Robot Main.vi,0.000000,0.000000,4000.000000,4000.000000,Speed,Speed,5.860000,0.890000,2.680000,3.000000,102.000000,1,0,0.000000,0.000000,0,0.000000,0.000000,0.000000,5.549530,4.390427,0.000000,0.003000,-0.007000,-0.003000
09:03:00.598 PM 02/09/2016,Autonomous Disabled,0,TRUE,-44087,NetComm_CAN_Receive.vi:5470007<APPEND>  <b>Complete call chain:</b>      NetComm_CAN_Receive.vi:5470007      WPI_CANTalonSRX_Receive.vi      WPI_CANTalonSRX_GetStatus.vi      ShooterVI.vi      Periodic Tasks.vi      Robot Main.vi,0.000000,0.000000,4000.000000,4000.000000,Speed,Speed,5.850000,0.880000,2.690000,3.000000,102.000000,1,0,0.000000,0.000000,0,0.000000,0.000000,0.000000,5.549530,4.390427,0.000000,0.001000,0.005000,0.006000
09:03:00.699 PM 02/09/2016,Autonomous Disabled,0,TRUE,-44087,NetComm_CAN_Receive.vi:5470007<APPEND>  <b>Complete call chain:</b>      NetComm_CAN_Receive.vi:5470007      WPI_CANTalonSRX_Receive.vi      WPI_CANTalonSRX_GetStatus.vi      ShooterVI.vi      Periodic Tasks.vi      Robot Main.vi,0.000000,0.000000,4000.000000,4000.000000,Speed,Speed,5.860000,0.870000,2.690000,3.000000,102.000000,1,0,0.000000,0.000000,0,0.000000,0.000000,0.000000,5.549530,4.390427,0.000000,0.000000,0.002000,0.001000
09:03:00.798 PM 02/09/2016,Autonomous Disabled,0,TRUE,-44087,NetComm_CAN_Receive.vi:5470007<APPEND>  <b>Complete call chain:</b>      NetComm_CAN_Receive.vi:5470007      WPI_CANTalonSRX_Receive.vi      WPI_CANTalonSRX_GetStatus.vi      ShooterVI.vi      Periodic Tasks.vi      Robot Main.vi,0.000000,0.000000,4000.000000,4000.000000,Speed,Speed,5.860000,0.870000,2.700000,3.000000,104.000000,1,0,0.000000,0.000000,0,0.000000,0.000000,0.000000,5.549530,4.390427,0.000000,0.003000,-0.004000,0.015000
09:03:00.899 PM 02/09/2016,Autonomous Disabled,0,TRUE,-44087,NetComm_CAN_Receive.vi:5470007<APPEND>  <b>Complete call chain:</b>      NetComm_CAN_Receive.vi:5470007      WPI_CANTalonSRX_Receive.vi      WPI_CANTalonSRX_GetStatus.vi      ShooterVI.vi      Periodic Tasks.vi      Robot Main.vi,0.000000,0.000000,4000.000000,4000.000000,Speed,Speed,5.850000,0.870000,2.730000,3.000000,102.000000,1,0,0.000000,0.000000,0,0.000000,0.000000,0.000000,5.549530,4.390427,0.000000,-0.007000,0.001000,0.002000
09:03:00.998 PM 02/09/2016,Autonomous Disabled,0,TRUE,-44087,NetComm_CAN_Receive.vi:5470007<APPEND>  <b>Complete call chain:</b>      NetComm_CAN_Receive.vi:5470007      WPI_CANTalonSRX_Receive.vi      WPI_CANTalonSRX_GetStatus.vi      ShooterVI.vi      Periodic Tasks.vi      Robot Main.vi,0.000000,0.000000,4000.000000,4000.000000,Speed,Speed,5.860000,0.870000,2.690000,3.000000,101.000000,1,0,0.000000,0.000000,0,0.000000,0.000000,0.000000,5.549530,4.390427,0.000000,-0.007000,0.002000,0.002000
09:03:01.099 PM 02/09/2016,Autonomous Disabled,0,TRUE,-44087,NetComm_CAN_Receive.vi:5470007<APPEND>  <b>Complete call chain:</b>      NetComm_CAN_Receive.vi:5470007      WPI_CANTalonSRX_Receive.vi      WPI_CANTalonSRX_GetStatus.vi      ShooterVI.vi      Periodic Tasks.vi      Robot Main.vi,0.000000,0.000000,4000.000000,4000.000000,Speed,Speed,5.850000,0.870000,2.720000,3.000000,101.000000,1,0,0.000000,0.000000,0,0.000000,0.000000,0.000000,5.549530,4.390427,0.000000,-0.001000,0.001000,-0.002000
09:03:01.199 PM 02/09/2016,Autonomous Disabled,0,TRUE,-44087,NetComm_CAN_Receive.vi:5470007<APPEND>  <b>Complete call chain:</b>      NetComm_CAN_Receive.vi:5470007      WPI_CANTalonSRX_Receive.vi      WPI_CANTalonSRX_GetStatus.vi      ShooterVI.vi      Periodic Tasks.vi      Robot Main.vi,0.000000,0.000000,4000.000000,4000.000000,Speed,Speed,5.840000,0.860000,2.710000,3.000000,103.000000,1,0,0.000000,0.000000,0,0.000000,0.000000,0.000000,5.549530,4.390427,0.000000,-0.005000,-0.016000,0.017000
09:03:01.299 PM 02/09/2016,Autonomous Disabled,0,TRUE,-44087,NetComm_CAN_Receive.vi:5470007<APPEND>  <b>Complete call chain:</b>      NetComm_CAN_Receive.vi:5470007      WPI_CANTalonSRX_Receive.vi      WPI_CANTalonSRX_GetStatus.vi      ShooterVI.vi      Periodic Tasks.vi      Robot Main.vi,0.000000,0.000000,4000.000000,4000.000000,Speed,Speed,5.760000,0.950000,2.290000,3.000000,109.000000,1,0,0.000000,0.000000,0,0.003525,0.000000,0.000000,5.549576,4.390427,0.000000,0.024000,0.000000,0.030000
09:03:01.398 PM 02/09/2016,Autonomous Disabled,0,TRUE,-44087,NetComm_CAN_Receive.vi:5470007<APPEND>  <b>Complete call chain:</b>      NetComm_CAN_Receive.vi:5470007      WPI_CANTalonSRX_Receive.vi      WPI_CANTalonSRX_GetStatus.vi      ShooterVI.vi      Periodic Tasks.vi      Robot Main.vi,0.000000,0.000000,4000.000000,4000.000000,Speed,Speed,5.500000,1.040000,1.090000,3.000000,101.000000,1,0,0.000000,0.000000,0,0.009598,0.016769,0.000000,5.550339,4.390640,0.000000,-0.028000,-0.043000,0.004000
09:03:01.499 PM 02/09/2016,Autonomous Disabled,0,TRUE,-44087,NetComm_CAN_Receive.vi:5470007<APPEND>  <b>Complete call chain:</b>      NetComm_CAN_Receive.vi:5470007      WPI_CANTalonSRX_Receive.vi      WPI_CANTalonSRX_GetStatus.vi      ShooterVI.vi      Periodic Tasks.vi      Robot Main.vi,0.000000,0.000000,4000.000000,4000.000000,Speed,Speed,5.380000,1.150000,-0.460000,3.000000,102.000000,1,0,0.000000,0.000000,0,-0.001801,-0.028198,0.000000,5.550339,4.390381,0.000000,0.007000,-0.074000,-0.202000
09:03:01.599 PM 02/09/2016,Autonomous Disabled,0,TRUE,-44087,NetComm_CAN_Receive.vi:5470007<APPEND>  <b>Complete call chain:</b>      NetComm_CAN_Receive.vi:5470007      WPI_CANTalonSRX_Receive.vi      WPI_CANTalonSRX_GetStatus.vi      ShooterVI.vi      Periodic Tasks.vi      Robot Main.vi,0.000000,0.000000,4000.000000,4000.000000,Speed,Speed,5.360000,1.170000,-0.290000,3.000000,103.000000,1,0,0.000000,0.000000,0,0.011292,-0.009430,0.000000,5.550476,4.388687,0.000000,-0.012000,-0.071000,0.105000
09:03:01.698 PM 02/09/2016,Autonomous Disabled,0,TRUE,-44087,NetComm_CAN_Receive.vi:5470007<APPEND>  <b>Complete call chain:</b>      NetComm_CAN_Receive.vi:5470007      WPI_CANTalonSRX_Receive.vi      WPI_CANTalonSRX_GetStatus.vi      ShooterVI.vi      Periodic Tasks.vi      Robot Main.vi,0.000000,0.000000,4000.000000,4000.000000,Speed,Speed,4.940000,1.140000,-0.330000,3.000000,101.000000,1,0,0.000000,0.000000,0,0.035736,-0.027008,0.000000,5.551208,4.387238,0.000000,0.049000,0.021000,0.075000
09:03:01.799 PM 02/09/2016,Autonomous Disabled,0,TRUE,-44087,NetComm_CAN_Receive.vi:5470007<APPEND>  <b>Complete call chain:</b>      NetComm_CAN_Receive.vi:5470007      WPI_CANTalonSRX_Receive.vi      WPI_CANTalonSRX_GetStatus.vi      ShooterVI.vi      Periodic Tasks.vi      Robot Main.vi,0.000000,0.000000,4000.000000,4000.000000,Speed,Speed,4.450000,1.320000,-0.870000,3.000000,102.000000,1,0,0.000000,0.000000,0,0.062378,-0.050797,0.000000,5.554459,4.384842,0.000000,-0.005000,-0.029000,-0.061000
09:03:01.899 PM 02/09/2016,Autonomous Disabled,0,TRUE,-44087,NetComm_CAN_Receive.vi:5470007<APPEND>  <b>Complete call chain:</b>      NetComm_CAN_Receive.vi:5470007      WPI_CANTalonSRX_Receive.vi      WPI_CANTalonSRX_GetStatus.vi      ShooterVI.vi      Periodic Tasks.vi      Robot Main.vi,0.000000,0.000000,4000.000000,4000.000000,Speed,Speed,3.860000,1.210000,-0.640000,3.000000,102.000000,1,0,0.000000,0.000000,0,-0.029907,0.000000,0.000000,5.553757,4.384277,0.000000,-0.014000,-0.004000,0.011000
09:03:01.999 PM 02/09/2016,Autonomous Disabled,0,TRUE,-44087,NetComm_CAN_Receive.vi:5470007<APPEND>  <b>Complete call chain:</b>      NetComm_CAN_Receive.vi:5470007      WPI_CANTalonSRX_Receive.vi      WPI_CANTalonSRX_GetStatus.vi      ShooterVI.vi      Periodic Tasks.vi      Robot Main.vi,0.000000,0.000000,4000.000000,4000.000000,Speed,Speed,3.460000,1.180000,-0.560000,3.000000,101.000000,1,0,0.000000,0.000000,0,0.000000,0.005859,0.000000,5.552628,4.384445,0.000000,-0.006000,0.003000,-0.009000
09:03:02.100 PM 02/09/2016,Autonomous Disabled,0,TRUE,-44087,NetComm_CAN_Receive.vi:5470007<APPEND>  <b>Complete call chain:</b>      NetComm_CAN_Receive.vi:5470007      WPI_CANTalonSRX_Receive.vi      WPI_CANTalonSRX_GetStatus.vi      ShooterVI.vi      Periodic Tasks.vi      Robot Main.vi,0.000000,0.000000,4000.000000,4000.000000,Speed,Speed,3.260000,1.140000,-0.900000,3.000000,104.000000,1,0,0.000000,0.000000,0,0.000000,-0.002777,0.000000,5.552414,4.384415,0.000000,0.005000,-0.020000,-0.043000
09:03:02.202 PM 02/09/2016,Autonomous Disabled,0,TRUE,-44087,NetComm_CAN_Receive.vi:5470007<APPEND>  <b>Complete call chain:</b>      NetComm_CAN_Receive.vi:5470007      WPI_CANTalonSRX_Receive.vi      WPI_CANTalonSRX_GetStatus.vi      ShooterVI.vi      Periodic Tasks.vi      Robot Main.vi,0.000000,0.000000,4000.000000,4000.000000,Speed,Speed,3.080000,1.190000,-0.790000,3.000000,101.000000,1,0,0.000000,0.000000,0,0.003708,0.000000,0.000000,5.552628,4.384171,0.000000,-0.020000,-0.001000,0.010000
09:03:02.301 PM 02/09/2016,Autonomous Disabled,0,TRUE,-44087,NetComm_CAN_Receive.vi:5470007<APPEND>  <b>Complete call chain:</b>      NetComm_CAN_Receive.vi:5470007      WPI_CANTalonSRX_Receive.vi      WPI_CANTalonSRX_GetStatus.vi      ShooterVI.vi      Periodic Tasks.vi      Robot Main.vi,0.000000,0.000000,4000.000000,4000.000000,Speed,Speed,2.870000,1.070000,-0.240000,3.000000,101.000000,1,0,0.000000,0.000000,0,0.000000,0.013382,0.000000,5.552551,4.384445,0.000000,0.010000,0.002000,-0.028000
09:03:02.401 PM 02/09/2016,Autonomous Disabled,0,TRUE,-44087,NetComm_CAN_Receive.vi:5470007<APPEND>  <b>Complete call chain:</b>      NetComm_CAN_Receive.vi:5470007      WPI_CANTalonSRX_Receive.vi      WPI_CANTalonSRX_GetStatus.vi      ShooterVI.vi      Periodic Tasks.vi      Robot Main.vi,0.000000,0.000000,4000.000000,4000.000000,Speed,Speed,2.760000,0.950000,0.580000,3.000000,101.000000,1,0,0.000000,0.000000,0,0.000000,0.060699,0.000000,5.552689,4.386368,0.000000,0.017000,0.066000,-0.049000
09:03:02.501 PM 02/09/2016,Autonomous Disabled,0,TRUE,-44087,NetComm_CAN_Receive.vi:5470007<APPEND>  <b>Complete call chain:</b>      NetComm_CAN_Receive.vi:5470007      WPI_CANTalonSRX_Receive.vi      WPI_CANTalonSRX_GetStatus.vi      ShooterVI.vi      Periodic Tasks.vi      Robot Main.vi,0.000000,0.000000,4000.000000,4000.000000,Speed,Speed,2.690000,0.930000,2.620000,3.000000,102.000000,1,0,0.000000,0.000000,0,0.014511,0.146240,0.000000,5.552795,4.391510,0.000000,0.072000,0.182000,0.062000
09:03:02.601 PM 02/09/2016,Autonomous Disabled,0,TRUE,-44087,NetComm_CAN_Receive.vi:5470007<APPEND>  <b>Complete call chain:</b>      NetComm_CAN_Receive.vi:5470007      WPI_CANTalonSRX_Receive.vi      WPI_CANTalonSRX_GetStatus.vi      ShooterVI.vi      Periodic Tasks.vi      Robot Main.vi,0.000000,0.000000,4000.000000,4000.000000,Speed,Speed,2.830000,0.870000,3.170000,3.000000,101.000000,1,0,0.000000,0.000000,0,0.027222,0.263748,0.000000,5.553940,4.402832,0.000000,0.072000,0.182000,0.062000
09:03:02.701 PM 02/09/2016,Autonomous Disabled,0,TRUE,-44087,NetComm_CAN_Receive.vi:5470007<APPEND>  <b>Complete call chain:</b>      NetComm_CAN_Receive.vi:5470007      WPI_CANTalonSRX_Receive.vi      WPI_CANTalonSRX_GetStatus.vi      ShooterVI.vi      Periodic Tasks.vi      Robot Main.vi,0.000000,0.000000,4000.000000,4000.000000,Speed,Speed,2.640000,0.870000,3.200000,3.000000,102.000000,1,0,0.000000,0.000000,0,0.025696,0.301361,0.000000,5.555435,4.417343,0.000000,0.084000,0.002000,-0.203000
09:03:02.801 PM 02/09/2016,Autonomous Disabled,0,TRUE,-44087,NetComm_CAN_Receive.vi:5470007<APPEND>  <b>Complete call chain:</b>      NetComm_CAN_Receive.vi:5470007      WPI_CANTalonSRX_Receive.vi      WPI_CANTalonSRX_GetStatus.vi      ShooterVI.vi      Periodic Tasks.vi      Robot Main.vi,0.000000,0.000000,4000.000000,4000.000000,Speed,Speed,2.770000,0.840000,3.130000,3.000000,102.000000,1,0,0.000000,0.000000,0,0.020569,0.293304,0.000000,5.556900,4.432297,0.000000,-0.016000,-0.027000,-0.049000
09:03:02.902 PM 02/09/2016,Autonomous Disabled,0,TRUE,-44087,NetComm_CAN_Receive.vi:5470007<APPEND>  <b>Complete call chain:</b>      NetComm_CAN_Receive.vi:5470007      WPI_CANTalonSRX_Receive.vi      WPI_CANTalonSRX_GetStatus.vi      ShooterVI.vi      Periodic Tasks.vi      Robot Main.vi,0.000000,0.000000,4000.000000,4000.000000,Speed,Speed,2.770000,0.840000,3.130000,3.000000,102.000000,1,0,0.000000,0.000000,0,0.020798,0.250534,0.000000,5.558044,4.445663,0.000000,-0.016000,-0.027000,-0.049000
09:03:03.001 PM 02/09/2016,Autonomous Disabled,0,TRUE,-44087,NetComm_CAN_Receive.vi:5470007<APPEND>  <b>Complete call chain:</b>      NetComm_CAN_Receive.vi:5470007      WPI_CANTalonSRX_Receive.vi      WPI_CANTalonSRX_GetStatus.vi      ShooterVI.vi      Periodic Tasks.vi      Robot Main.vi,0.000000,0.000000,4000.000000,4000.000000,Speed,Speed,2.760000,0.830000,2.940000,3.000000,101.000000,1,0,0.000000,0.000000,0,0.020798,0.250534,0.000000,5.558044,4.445663,0.000000,-0.010000,-0.018000,0.006000
09:03:03.101 PM 02/09/2016,Autonomous Disabled,0,TRUE,-44087,NetComm_CAN_Receive.vi:5470007<APPEND>  <b>Complete call chain:</b>      NetComm_CAN_Receive.vi:5470007      WPI_CANTalonSRX_Receive.vi      WPI_CANTalonSRX_GetStatus.vi      ShooterVI.vi      Periodic Tasks.vi      Robot Main.vi,0.000000,0.000000,4000.000000,4000.000000,Speed,Speed,2.740000,0.840000,2.970000,3.000000,103.000000,1,0,0.000000,0.000000,0,0.000000,0.000000,0.000000,5.558044,4.450562,0.000000,0.005000,0.004000,-0.003000
09:03:03.201 PM 02/09/2016,Autonomous Disabled,0,TRUE,-44087,NetComm_CAN_Receive.vi:5470007<APPEND>  <b>Complete call chain:</b>      NetComm_CAN_Receive.vi:5470007      WPI_CANTalonSRX_Receive.vi      WPI_CANTalonSRX_GetStatus.vi      ShooterVI.vi      Periodic Tasks.vi      Robot Main.vi,0.000000,0.000000,4000.000000,4000.000000,Speed,Speed,2.740000,0.840000,2.970000,3.000000,101.000000,1,0,0.000000,0.000000,0,0.000000,0.000000,0.000000,5.558044,4.450562,0.000000,-0.003000,-0.001000,-0.001000
09:03:03.301 PM 02/09/2016,Autonomous Disabled,0,TRUE,-44087,NetComm_CAN_Receive.vi:5470007<APPEND>  <b>Complete call chain:</b>      NetComm_CAN_Receive.vi:5470007      WPI_CANTalonSRX_Receive.vi      WPI_CANTalonSRX_GetStatus.vi      ShooterVI.vi      Periodic Tasks.vi      Robot Main.vi,0.000000,0.000000,4000.000000,4000.000000,Speed,Speed,2.760000,0.840000,2.940000,3.000000,103.000000,1,0,0.000000,0.000000,0,0.000000,0.000000,0.000000,5.558044,4.450562,0.000000,0.000000,-0.004000,-0.002000
09:03:03.401 PM 02/09/2016,Autonomous Disabled,0,TRUE,-44087,NetComm_CAN_Receive.vi:5470007<APPEND>  <b>Complete call chain:</b>      NetComm_CAN_Receive.vi:5470007      WPI_CANTalonSRX_Receive.vi      WPI_CANTalonSRX_GetStatus.vi      ShooterVI.vi      Periodic Tasks.vi      Robot Main.vi,0.000000,0.000000,4000.000000,4000.000000,Speed,Speed,2.770000,0.830000,2.920000,3.000000,101.000000,1,0,0.000000,0.000000,0,0.000000,0.000000,0.000000,5.558044,4.450562,0.000000,0.003000,0.001000,0.001000
09:03:03.503 PM 02/09/2016,Autonomous Disabled,0,TRUE,-44087,NetComm_CAN_Receive.vi:5470007<APPEND>  <b>Complete call chain:</b>      NetComm_CAN_Receive.vi:5470007      WPI_CANTalonSRX_Receive.vi      WPI_CANTalonSRX_GetStatus.vi      ShooterVI.vi      Periodic Tasks.vi      Robot Main.vi,0.000000,0.000000,4000.000000,4000.000000,Speed,Speed,2.770000,0.830000,2.910000,3.000000,102.000000,1,0,0.000000,0.000000,0,0.000000,0.000000,0.000000,5.558044,4.450562,0.000000,-0.002000,-0.001000,0.001000
09:03:03.603 PM 02/09/2016,Autonomous Disabled,0,TRUE,-44087,NetComm_CAN_Receive.vi:5470007<APPEND>  <b>Complete call chain:</b>      NetComm_CAN_Receive.vi:5470007      WPI_CANTalonSRX_Receive.vi      WPI_CANTalonSRX_GetStatus.vi      ShooterVI.vi      Periodic Tasks.vi      Robot Main.vi,0.000000,0.000000,4000.000000,4000.000000,Speed,Speed,2.770000,0.830000,2.890000,3.000000,101.000000,1,0,0.000000,0.000000,0,0.000000,0.000000,0.000000,5.558044,4.450562,0.000000,0.000000,-0.005000,0.002000
09:03:03.704 PM 02/09/2016,Autonomous Disabled,0,TRUE,-44087,NetComm_CAN_Receive.vi:5470007<APPEND>  <b>Complete call chain:</b>      NetComm_CAN_Receive.vi:5470007      WPI_CANTalonSRX_Receive.vi      WPI_CANTalonSRX_GetStatus.vi      ShooterVI.vi      Periodic Tasks.vi      Robot Main.vi,0.000000,0.000000,4000.000000,4000.000000,Speed,Speed,2.760000,0.830000,2.880000,3.000000,102.000000,1,0,0.000000,0.000000,0,0.000000,0.000000,0.000000,5.558044,4.450562,0.000000,0.000000,-0.001000,-0.001000
09:03:03.805 PM 02/09/2016,Autonomous Disabled,0,TRUE,-44087,NetComm_CAN_Receive.vi:5470007<APPEND>  <b>Complete call chain:</b>      NetComm_CAN_Receive.vi:5470007      WPI_CANTalonSRX_Receive.vi      WPI_CANTalonSRX_GetStatus.vi      ShooterVI.vi      Periodic Tasks.vi      Robot Main.vi,0.000000,0.000000,4000.000000,4000.000000,Speed,Speed,2.720000,0.830000,2.860000,3.000000,101.000000,1,0,0.000000,0.000000,0,0.000000,0.000000,0.000000,5.558044,4.450562,0.000000,0.002000,0.005000,0.003000
09:03:03.907 PM 02/09/2016,Autonomous Disabled,0,TRUE,-44087,NetComm_CAN_Receive.vi:5470007<APPEND>  <b>Complete call chain:</b>      NetComm_CAN_Receive.vi:5470007      WPI_CANTalonSRX_Receive.vi      WPI_CANTalonSRX_GetStatus.vi      ShooterVI.vi      Periodic Tasks.vi      Robot Main.vi,0.000000,0.000000,4000.000000,4000.000000,Speed,Speed,2.700000,0.830000,2.880000,3.000000,102.000000,1,0,0.000000,0.000000,0,0.000000,0.000000,0.000000,5.558044,4.450562,0.000000,-0.002000,-0.003000,0.004000
09:03:04.007 PM 02/09/2016,Autonomous Disabled,0,TRUE,-44087,NetComm_CAN_Receive.vi:5470007<APPEND>  <b>Complete call chain:</b>      NetComm_CAN_Receive.vi:5470007      WPI_CANTalonSRX_Receive.vi      WPI_CANTalonSRX_GetStatus.vi      ShooterVI.vi      Periodic Tasks.vi      Robot Main.vi,0.000000,0.000000,4000.000000,4000.000000,Speed,Speed,2.720000,0.830000,2.810000,3.000000,102.000000,1,0,0.000000,0.000000,0,0.000000,-0.009384,0.000000,5.558044,4.450363,0.000000,-0.003000,-0.006000,0.000000
09:03:04.107 PM 02/09/2016,Autonomous Disabled,0,TRUE,-44087,NetComm_CAN_Receive.vi:5470007<APPEND>  <b>Complete call chain:</b>      NetComm_CAN_Receive.vi:5470007      WPI_CANTalonSRX_Receive.vi      WPI_CANTalonSRX_GetStatus.vi      ShooterVI.vi      Periodic Tasks.vi      Robot Main.vi,0.000000,0.000000,4000.000000,4000.000000,Speed,Speed,2.700000,0.830000,2.830000,3.000000,102.000000,1,0,0.000000,0.000000,0,0.000000,0.000000,0.000000,5.558044,4.450363,0.000000,0.000000,0.005000,0.000000
09:03:04.208 PM 02/09/2016,Autonomous Disabled,0,TRUE,-44087,NetComm_CAN_Receive.vi:5470007<APPEND>  <b>Complete call chain:</b>      NetComm_CAN_Receive.vi:5470007      WPI_CANTalonSRX_Receive.vi      WPI_CANTalonSRX_GetStatus.vi      ShooterVI.vi      Periodic Tasks.vi      Robot Main.vi,0.000000,0.000000,4000.000000,4000.000000,Speed,Speed,2.700000,0.830000,2.840000,3.000000,101.000000,1,0,0.000000,0.000000,0,0.000000,0.000000,0.000000,5.558044,4.450363,0.000000,0.000000,-0.004000,-0.007000
09:03:04.308 PM 02/09/2016,Autonomous Disabled,0,TRUE,-44087,NetComm_CAN_Receive.vi:5470007<APPEND>  <b>Complete call chain:</b>      NetComm_CAN_Receive.vi:5470007      WPI_CANTalonSRX_Receive.vi      WPI_CANTalonSRX_GetStatus.vi      ShooterVI.vi      Periodic Tasks.vi      Robot Main.vi,0.000000,0.000000,4000.000000,4000.000000,Speed,Speed,2.690000,0.830000,2.810000,3.000000,103.000000,1,0,0.000000,0.000000,0,0.000000,0.000000,0.000000,5.558044,4.450363,0.000000,-0.011000,0.006000,0.006000
09:03:04.409 PM 02/09/2016,Autonomous Disabled,0,TRUE,-44087,NetComm_CAN_Receive.vi:5470007<APPEND>  <b>Complete call chain:</b>      NetComm_CAN_Receive.vi:5470007      WPI_CANTalonSRX_Receive.vi      WPI_CANTalonSRX_GetStatus.vi      ShooterVI.vi      Periodic Tasks.vi      Robot Main.vi,0.000000,0.000000,4000.000000,4000.000000,Speed,Speed,2.710000,0.810000,2.810000,3.000000,103.000000,1,0,0.000000,0.000000,0,0.000000,0.000000,0.000000,5.558044,4.450363,0.000000,0.000000,-0.010000,0.004000
09:03:04.509 PM 02/09/2016,Autonomous Disabled,0,TRUE,-44087,NetComm_CAN_Receive.vi:5470007<APPEND>  <b>Complete call chain:</b>      NetComm_CAN_Receive.vi:5470007      WPI_CANTalonSRX_Receive.vi      WPI_CANTalonSRX_GetStatus.vi      ShooterVI.vi      Periodic Tasks.vi      Robot Main.vi,0.000000,0.000000,4000.000000,4000.000000,Speed,Speed,2.700000,0.810000,2.780000,3.000000,101.000000,1,0,0.000000,0.000000,0,0.000000,0.000000,0.000000,5.558044,4.450363,0.000000,-0.001000,-0.005000,0.000000
09:03:04.608 PM 02/09/2016,Autonomous Disabled,0,TRUE,-44087,NetComm_CAN_Receive.vi:5470007<APPEND>  <b>Complete call chain:</b>      NetComm_CAN_Receive.vi:5470007      WPI_CANTalonSRX_Receive.vi      WPI_CANTalonSRX_GetStatus.vi      ShooterVI.vi      Periodic Tasks.vi      Robot Main.vi,0.000000,0.000000,4000.000000,4000.000000,Speed,Speed,2.680000,0.810000,2.780000,3.000000,101.000000,1,0,0.000000,0.000000,0,0.000000,0.000000,0.000000,5.558044,4.450363,0.000000,0.001000,0.005000,-0.003000
09:03:04.710 PM 02/09/2016,Autonomous Disabled,0,TRUE,-44087,NetComm_CAN_Receive.vi:5470007<APPEND>  <b>Complete call chain:</b>      NetComm_CAN_Receive.vi:5470007      WPI_CANTalonSRX_Receive.vi      WPI_CANTalonSRX_GetStatus.vi      ShooterVI.vi      Periodic Tasks.vi      Robot Main.vi,0.000000,0.000000,4000.000000,4000.000000,Speed,Speed,2.700000,0.810000,2.770000,3.000000,101.000000,1,0,0.000000,0.000000,0,-0.004272,-0.005096,0.000000,5.557968,4.450317,0.000000,0.003000,-0.084000,0.003000
09:03:04.809 PM 02/09/2016,Autonomous Disabled,0,TRUE,-44087,NetComm_CAN_Receive.vi:5470007<APPEND>  <b>Complete call chain:</b>      NetComm_CAN_Receive.vi:5470007      WPI_CANTalonSRX_Receive.vi      WPI_CANTalonSRX_GetStatus.vi      ShooterVI.vi      Periodic Tasks.vi      Robot Main.vi,0.000000,0.000000,4000.000000,4000.000000,Speed,Speed,2.670000,0.820000,2.740000,3.000000,101.000000,1,0,0.000000,0.000000,0,-0.002060,-0.034424,0.000000,5.557556,4.448914,0.000000,0.014000,0.010000,-0.006000
09:03:04.909 PM 02/09/2016,Autonomous Disabled,0,TRUE,-44087,NetComm_CAN_Receive.vi:5470007<APPEND>  <b>Complete call chain:</b>      NetComm_CAN_Receive.vi:5470007      WPI_CANTalonSRX_Receive.vi      WPI_CANTalonSRX_GetStatus.vi      ShooterVI.vi      Periodic Tasks.vi      Robot Main.vi,0.000000,0.000000,4000.000000,4000.000000,Speed,Speed,2.660000,0.810000,2.890000,3.000000,105.000000,1,0,0.000000,0.000000,0,0.003418,0.000000,0.000000,5.557449,4.448914,0.000000,0.021000,-0.018000,-0.017000
