Time,RobotMode,AutoToRun,ErrorStatus, ErrorCode,ErrorSource,ActualRPM1,ActualRPM2,DesiredRPM1,DesiredRPM2,ControlMode1,ControlMode2,NavXYaw,NavXRoll,NavXPitch,ShooterState,LoopTime,IsLevel,IsAutoTargeting,LeftMotorOutput,RightMotorOutput,IsHaloDrive,NavXVelocityX,NavXVelocityY,NavXVelocityZ,NavXDisplacementX,NavXDisplacementY,NavXDisplacementZ,NavXAccelerationX,NavXAccelerationY,NavXAccelerationZ
08:18:55.842 PM 02/09/2016,Teleop Enabled,0,TRUE,-44087,NetComm_CAN_Receive.vi:5470007<APPEND>  <b>Complete call chain:</b>      NetComm_CAN_Receive.vi:5470007      WPI_CANTalonSRX_Receive.vi      WPI_MotorControlOpenCANTalonSRX.vi      Begin.vi      Robot Main.vi,0.000000,0.000000,0.000000,0.000000,Speed,Speed,0.000000,1.310000,2.990000,0.000000,101.000000,1,0,0.000000,-0.000062,0,0.000000,0.000000,0.000000,-1.690536,4.574875,0.000000,0.001000,0.000000,0.001000
08:18:55.943 PM 02/09/2016,Teleop Enabled,0,TRUE,-44087,NetComm_CAN_Receive.vi:5470007<APPEND>  <b>Complete call chain:</b>      NetComm_CAN_Receive.vi:5470007      WPI_CANTalonSRX_Receive.vi      WPI_MotorControlOpenCANTalonSRX.vi      Begin.vi      Robot Main.vi,0.000000,0.000000,0.000000,0.000000,Speed,Speed,0.000000,1.330000,2.970000,0.000000,101.000000,1,0,0.000000,-0.000062,0,0.002014,0.004974,0.000000,-1.690506,4.574921,0.000000,0.036000,0.045000,0.051000
08:18:56.043 PM 02/09/2016,Teleop Enabled,0,TRUE,-44087,NetComm_CAN_Receive.vi:5470007<APPEND>  <b>Complete call chain:</b>      NetComm_CAN_Receive.vi:5470007      WPI_CANTalonSRX_Receive.vi      WPI_MotorControlOpenCANTalonSRX.vi      Begin.vi      Robot Main.vi,0.000000,0.000000,0.000000,0.000000,Speed,Speed,0.000000,1.340000,2.970000,0.000000,101.000000,1,0,0.000000,-0.000062,0,0.000000,0.000000,0.000000,-1.690414,4.575012,0.000000,0.002000,0.003000,0.002000
08:18:56.143 PM 02/09/2016,Teleop Enabled,0,TRUE,-44087,NetComm_CAN_Receive.vi:5470007<APPEND>  <b>Complete call chain:</b>      NetComm_CAN_Receive.vi:5470007      WPI_CANTalonSRX_Receive.vi      WPI_MotorControlOpenCANTalonSRX.vi      Begin.vi      Robot Main.vi,0.000000,0.000000,0.000000,0.000000,Speed,Speed,0.000000,1.340000,2.970000,0.000000,102.000000,1,0,0.000000,-0.000062,0,0.000000,0.000000,0.000000,-1.690414,4.575012,0.000000,0.001000,-0.001000,0.006000
08:18:56.243 PM 02/09/2016,Teleop Enabled,0,TRUE,-44087,NetComm_CAN_Receive.vi:5470007<APPEND>  <b>Complete call chain:</b>      NetComm_CAN_Receive.vi:5470007      WPI_CANTalonSRX_Receive.vi      WPI_MotorControlOpenCANTalonSRX.vi      Begin.vi      Robot Main.vi,0.000000,0.000000,0.000000,0.000000,Speed,Speed,0.000000,1.330000,2.970000,0.000000,101.000000,1,0,0.000000,-0.000062,0,0.000000,0.000000,0.000000,-1.690414,4.575012,0.000000,0.000000,-0.001000,0.000000
08:18:56.343 PM 02/09/2016,Teleop Enabled,0,TRUE,-44087,NetComm_CAN_Receive.vi:5470007<APPEND>  <b>Complete call chain:</b>      NetComm_CAN_Receive.vi:5470007      WPI_CANTalonSRX_Receive.vi      WPI_MotorControlOpenCANTalonSRX.vi      Begin.vi      Robot Main.vi,0.000000,0.000000,0.000000,0.000000,Speed,Speed,0.000000,1.340000,2.970000,0.000000,101.000000,1,0,0.000000,-0.000062,0,0.000000,0.000000,0.000000,-1.690414,4.575012,0.000000,-0.001000,0.001000,0.008000
08:18:56.443 PM 02/09/2016,Teleop Enabled,0,TRUE,-44087,NetComm_CAN_Receive.vi:5470007<APPEND>  <b>Complete call chain:</b>      NetComm_CAN_Receive.vi:5470007      WPI_CANTalonSRX_Receive.vi      WPI_MotorControlOpenCANTalonSRX.vi      Begin.vi      Robot Main.vi,0.000000,0.000000,0.000000,0.000000,Speed,Speed,0.000000,1.330000,2.970000,0.000000,103.000000,1,0,0.000000,-0.000062,0,0.000000,0.000000,0.000000,-1.690414,4.575012,0.000000,-0.001000,0.000000,0.000000
08:18:56.544 PM 02/09/2016,Teleop Enabled,0,TRUE,-44087,NetComm_CAN_Receive.vi:5470007<APPEND>  <b>Complete call chain:</b>      NetComm_CAN_Receive.vi:5470007      WPI_CANTalonSRX_Receive.vi      WPI_MotorControlOpenCANTalonSRX.vi      Begin.vi      Robot Main.vi,0.000000,0.000000,0.000000,0.000000,Speed,Speed,0.000000,1.340000,2.980000,0.000000,101.000000,1,0,0.000000,-0.000062,0,0.000000,0.000000,0.000000,-1.690414,4.575012,0.000000,0.000000,0.003000,0.000000
08:18:56.645 PM 02/09/2016,Teleop Enabled,0,TRUE,-44087,NetComm_CAN_Receive.vi:5470007<APPEND>  <b>Complete call chain:</b>      NetComm_CAN_Receive.vi:5470007      WPI_CANTalonSRX_Receive.vi      WPI_MotorControlOpenCANTalonSRX.vi      Begin.vi      Robot Main.vi,0.000000,0.000000,0.000000,0.000000,Speed,Speed,0.000000,1.330000,2.970000,0.000000,102.000000,1,0,0.000000,-0.000062,0,0.000000,0.000000,0.000000,-1.690414,4.575012,0.000000,0.000000,0.003000,0.000000
08:18:56.746 PM 02/09/2016,Teleop Enabled,0,TRUE,-44087,NetComm_CAN_Receive.vi:5470007<APPEND>  <b>Complete call chain:</b>      NetComm_CAN_Receive.vi:5470007      WPI_CANTalonSRX_Receive.vi      WPI_MotorControlOpenCANTalonSRX.vi      Begin.vi      Robot Main.vi,0.000000,0.000000,0.000000,0.000000,Speed,Speed,0.000000,1.330000,2.980000,0.000000,102.000000,1,0,0.000000,-0.000062,0,0.000000,0.000000,0.000000,-1.690414,4.575012,0.000000,0.000000,-0.002000,0.006000
08:18:56.845 PM 02/09/2016,Teleop Enabled,0,TRUE,-44087,NetComm_CAN_Receive.vi:5470007<APPEND>  <b>Complete call chain:</b>      NetComm_CAN_Receive.vi:5470007      WPI_CANTalonSRX_Receive.vi      WPI_MotorControlOpenCANTalonSRX.vi      Begin.vi      Robot Main.vi,0.000000,0.000000,0.000000,0.000000,Speed,Speed,0.000000,1.320000,2.980000,0.000000,102.000000,1,0,0.000000,-0.000062,0,0.000000,0.000000,0.000000,-1.690414,4.575012,0.000000,0.000000,0.002000,0.004000
08:18:56.945 PM 02/09/2016,Teleop Enabled,0,TRUE,-44087,NetComm_CAN_Receive.vi:5470007<APPEND>  <b>Complete call chain:</b>      NetComm_CAN_Receive.vi:5470007      WPI_CANTalonSRX_Receive.vi      WPI_MotorControlOpenCANTalonSRX.vi      Begin.vi      Robot Main.vi,0.000000,0.000000,0.000000,0.000000,Speed,Speed,0.000000,1.330000,2.980000,0.000000,102.000000,1,0,0.000000,-0.000062,0,0.000000,0.000000,0.000000,-1.690414,4.575012,0.000000,-0.001000,0.000000,0.004000
08:18:57.046 PM 02/09/2016,Teleop Enabled,0,TRUE,-44087,NetComm_CAN_Receive.vi:5470007<APPEND>  <b>Complete call chain:</b>      NetComm_CAN_Receive.vi:5470007      WPI_CANTalonSRX_Receive.vi      WPI_MotorControlOpenCANTalonSRX.vi      Begin.vi      Robot Main.vi,0.000000,0.000000,0.000000,0.000000,Speed,Speed,0.000000,1.320000,2.990000,0.000000,102.000000,1,0,0.000000,-0.000062,0,0.000000,0.000000,0.000000,-1.690414,4.575012,0.000000,0.000000,0.000000,0.004000
08:18:57.146 PM 02/09/2016,Teleop Enabled,0,TRUE,-44087,NetComm_CAN_Receive.vi:5470007<APPEND>  <b>Complete call chain:</b>      NetComm_CAN_Receive.vi:5470007      WPI_CANTalonSRX_Receive.vi      WPI_MotorControlOpenCANTalonSRX.vi      Begin.vi      Robot Main.vi,0.000000,0.000000,0.000000,0.000000,Speed,Speed,0.000000,1.320000,2.990000,0.000000,102.000000,1,0,0.000000,-0.000062,0,0.000000,0.000000,0.000000,-1.690414,4.575012,0.000000,0.000000,0.000000,0.005000
08:18:57.246 PM 02/09/2016,Teleop Enabled,0,TRUE,-44087,NetComm_CAN_Receive.vi:5470007<APPEND>  <b>Complete call chain:</b>      NetComm_CAN_Receive.vi:5470007      WPI_CANTalonSRX_Receive.vi      WPI_MotorControlOpenCANTalonSRX.vi      Begin.vi      Robot Main.vi,0.000000,0.000000,0.000000,0.000000,Speed,Speed,0.000000,1.320000,2.990000,0.000000,103.000000,1,0,0.000000,-0.000062,0,0.000000,0.000000,0.000000,-1.690414,4.575012,0.000000,0.000000,0.000000,0.004000
08:18:57.346 PM 02/09/2016,Teleop Enabled,0,TRUE,-44087,NetComm_CAN_Receive.vi:5470007<APPEND>  <b>Complete call chain:</b>      NetComm_CAN_Receive.vi:5470007      WPI_CANTalonSRX_Receive.vi      WPI_MotorControlOpenCANTalonSRX.vi      Begin.vi      Robot Main.vi,0.000000,0.000000,0.000000,0.000000,Speed,Speed,0.000000,1.320000,2.990000,0.000000,101.000000,1,0,0.000000,-0.000062,0,0.000000,0.000000,0.000000,-1.690414,4.575012,0.000000,-0.002000,0.001000,0.002000
08:18:57.445 PM 02/09/2016,Teleop Enabled,0,TRUE,-44087,NetComm_CAN_Receive.vi:5470007<APPEND>  <b>Complete call chain:</b>      NetComm_CAN_Receive.vi:5470007      WPI_CANTalonSRX_Receive.vi      WPI_MotorControlOpenCANTalonSRX.vi      Begin.vi      Robot Main.vi,0.000000,0.000000,0.000000,0.000000,Speed,Speed,0.000000,1.320000,2.990000,0.000000,100.000000,1,0,0.000000,-0.000062,0,0.000000,0.000000,0.000000,-1.690414,4.575012,0.000000,-0.002000,0.000000,0.006000
08:18:57.546 PM 02/09/2016,Teleop Enabled,0,TRUE,-44087,NetComm_CAN_Receive.vi:5470007<APPEND>  <b>Complete call chain:</b>      NetComm_CAN_Receive.vi:5470007      WPI_CANTalonSRX_Receive.vi      WPI_MotorControlOpenCANTalonSRX.vi      Begin.vi      Robot Main.vi,0.000000,0.000000,0.000000,0.000000,Speed,Speed,0.000000,1.320000,2.990000,0.000000,102.000000,1,0,0.000000,-0.000062,0,0.000000,0.000000,0.000000,-1.690414,4.575012,0.000000,0.001000,0.001000,0.002000
08:18:57.646 PM 02/09/2016,Teleop Enabled,0,TRUE,-44087,NetComm_CAN_Receive.vi:5470007<APPEND>  <b>Complete call chain:</b>      NetComm_CAN_Receive.vi:5470007      WPI_CANTalonSRX_Receive.vi      WPI_MotorControlOpenCANTalonSRX.vi      Begin.vi      Robot Main.vi,0.000000,0.000000,0.000000,0.000000,Speed,Speed,0.000000,1.320000,2.990000,0.000000,102.000000,1,0,0.000000,-0.000062,0,0.000000,0.000000,0.000000,-1.690414,4.575012,0.000000,0.002000,0.000000,-0.001000
08:18:57.746 PM 02/09/2016,Teleop Enabled,0,TRUE,-44087,NetComm_CAN_Receive.vi:5470007<APPEND>  <b>Complete call chain:</b>      NetComm_CAN_Receive.vi:5470007      WPI_CANTalonSRX_Receive.vi      WPI_MotorControlOpenCANTalonSRX.vi      Begin.vi      Robot Main.vi,0.000000,0.000000,0.000000,0.000000,Speed,Speed,0.000000,1.320000,2.990000,0.000000,102.000000,1,0,0.000000,-0.000062,0,0.000000,0.000000,0.000000,-1.690414,4.575012,0.000000,0.000000,-0.001000,0.001000
08:18:57.846 PM 02/09/2016,Teleop Enabled,0,TRUE,-44087,NetComm_CAN_Receive.vi:5470007<APPEND>  <b>Complete call chain:</b>      NetComm_CAN_Receive.vi:5470007      WPI_CANTalonSRX_Receive.vi      WPI_MotorControlOpenCANTalonSRX.vi      Begin.vi      Robot Main.vi,0.000000,0.000000,0.000000,0.000000,Speed,Speed,0.000000,1.310000,2.990000,0.000000,102.000000,1,0,0.000000,-0.000062,0,0.000000,0.000000,0.000000,-1.690414,4.575012,0.000000,0.000000,-0.001000,0.001000
08:18:57.947 PM 02/09/2016,Teleop Enabled,0,TRUE,-44087,NetComm_CAN_Receive.vi:5470007<APPEND>  <b>Complete call chain:</b>      NetComm_CAN_Receive.vi:5470007      WPI_CANTalonSRX_Receive.vi      WPI_MotorControlOpenCANTalonSRX.vi      Begin.vi      Robot Main.vi,0.000000,0.000000,0.000000,0.000000,Speed,Speed,0.000000,1.320000,3.000000,0.000000,101.000000,1,0,0.000000,-0.000062,0,0.000000,0.000000,0.000000,-1.690414,4.575012,0.000000,-0.001000,-0.001000,0.003000
08:18:58.048 PM 02/09/2016,Teleop Enabled,0,TRUE,-44087,NetComm_CAN_Receive.vi:5470007<APPEND>  <b>Complete call chain:</b>      NetComm_CAN_Receive.vi:5470007      WPI_CANTalonSRX_Receive.vi      WPI_MotorControlOpenCANTalonSRX.vi      Begin.vi      Robot Main.vi,0.000000,0.000000,0.000000,0.000000,Speed,Speed,0.000000,1.320000,2.990000,0.000000,101.000000,1,0,0.000000,-0.000062,0,0.000000,0.000000,0.000000,-1.690414,4.575012,0.000000,0.000000,0.001000,0.000000
08:18:58.148 PM 02/09/2016,Teleop Enabled,0,TRUE,-44087,NetComm_CAN_Receive.vi:5470007<APPEND>  <b>Complete call chain:</b>      NetComm_CAN_Receive.vi:5470007      WPI_CANTalonSRX_Receive.vi      WPI_MotorControlOpenCANTalonSRX.vi      Begin.vi      Robot Main.vi,0.000000,0.000000,0.000000,0.000000,Speed,Speed,0.000000,1.320000,2.990000,0.000000,105.000000,1,0,0.000000,-0.000062,0,0.000000,0.000000,0.000000,-1.690414,4.575012,0.000000,0.000000,-0.002000,0.002000
08:18:58.248 PM 02/09/2016,Teleop Enabled,0,TRUE,-44087,NetComm_CAN_Receive.vi:5470007<APPEND>  <b>Complete call chain:</b>      NetComm_CAN_Receive.vi:5470007      WPI_CANTalonSRX_Receive.vi      WPI_CANTalonSRX_GetStatus.vi      ShooterVI.vi      Periodic Tasks.vi      Robot Main.vi,0.000000,0.000000,0.000000,0.000000,Speed,Speed,0.000000,1.330000,2.990000,0.000000,103.000000,1,0,0.000000,-0.000062,0,0.000000,0.000000,0.000000,-1.690414,4.575012,0.000000,-0.003000,-0.003000,0.007000
08:18:58.349 PM 02/09/2016,Teleop Enabled,0,TRUE,-44087,NetComm_CAN_Receive.vi:5470007<APPEND>  <b>Complete call chain:</b>      NetComm_CAN_Receive.vi:5470007      WPI_CANTalonSRX_Receive.vi      WPI_CANTalonSRX_GetStatus.vi      ShooterVI.vi      Periodic Tasks.vi      Robot Main.vi,0.000000,0.000000,0.000000,0.000000,Speed,Speed,0.000000,1.320000,2.990000,0.000000,104.000000,1,0,0.000000,-0.000062,0,0.000000,0.000000,0.000000,-1.690414,4.575012,0.000000,0.001000,-0.001000,0.003000
08:18:58.452 PM 02/09/2016,Teleop Enabled,0,TRUE,-44087,NetComm_CAN_Receive.vi:5470007<APPEND>  <b>Complete call chain:</b>      NetComm_CAN_Receive.vi:5470007      WPI_CANTalonSRX_Receive.vi      WPI_CANTalonSRX_GetStatus.vi      ShooterVI.vi      Periodic Tasks.vi      Robot Main.vi,0.000000,0.000000,0.000000,0.000000,Speed,Speed,0.000000,1.320000,2.990000,0.000000,101.000000,1,0,0.000000,-0.000062,0,0.000000,0.000000,0.000000,-1.690414,4.575012,0.000000,-0.005000,0.000000,0.000000
08:18:58.552 PM 02/09/2016,Teleop Enabled,0,TRUE,-44087,NetComm_CAN_Receive.vi:5470007<APPEND>  <b>Complete call chain:</b>      NetComm_CAN_Receive.vi:5470007      WPI_CANTalonSRX_Receive.vi      WPI_CANTalonSRX_GetStatus.vi      ShooterVI.vi      Periodic Tasks.vi      Robot Main.vi,0.000000,0.000000,0.000000,0.000000,Speed,Speed,0.000000,1.320000,2.990000,0.000000,101.000000,1,0,0.000000,-0.000062,0,0.000000,0.000000,0.000000,-1.690414,4.575012,0.000000,0.001000,-0.001000,0.007000
08:18:58.653 PM 02/09/2016,Teleop Enabled,0,TRUE,-44087,NetComm_CAN_Receive.vi:5470007<APPEND>  <b>Complete call chain:</b>      NetComm_CAN_Receive.vi:5470007      WPI_CANTalonSRX_Receive.vi      WPI_CANTalonSRX_GetStatus.vi      ShooterVI.vi      Periodic Tasks.vi      Robot Main.vi,0.000000,0.000000,0.000000,0.000000,Speed,Speed,0.000000,1.320000,2.990000,0.000000,102.000000,1,0,0.000000,-0.000062,0,0.000000,0.000000,0.000000,-1.690414,4.575012,0.000000,0.000000,0.001000,0.004000
08:18:58.754 PM 02/09/2016,Teleop Enabled,0,TRUE,-44087,NetComm_CAN_Receive.vi:5470007<APPEND>  <b>Complete call chain:</b>      NetComm_CAN_Receive.vi:5470007      WPI_CANTalonSRX_Receive.vi      WPI_CANTalonSRX_GetStatus.vi      ShooterVI.vi      Periodic Tasks.vi      Robot Main.vi,0.000000,0.000000,-6000.000000,-6000.000000,Speed,Speed,0.000000,1.320000,2.990000,1.000000,102.000000,1,0,0.000000,-0.000062,0,0.000000,0.000000,0.000000,-1.690414,4.575012,0.000000,-0.001000,0.000000,0.003000
08:18:58.854 PM 02/09/2016,Teleop Enabled,0,TRUE,-44087,NetComm_CAN_Receive.vi:5470007<APPEND>  <b>Complete call chain:</b>      NetComm_CAN_Receive.vi:5470007      WPI_CANTalonSRX_Receive.vi      WPI_CANTalonSRX_GetStatus.vi      ShooterVI.vi      Periodic Tasks.vi      Robot Main.vi,0.000000,0.000000,0.000000,0.000000,Speed,Speed,0.000000,1.320000,2.990000,2.000000,101.000000,1,0,0.000000,-0.000062,0,0.000000,0.000000,0.000000,-1.690414,4.575012,0.000000,0.001000,0.000000,0.003000
08:18:58.954 PM 02/09/2016,Teleop Enabled,0,TRUE,-44087,NetComm_CAN_Receive.vi:5470007<APPEND>  <b>Complete call chain:</b>      NetComm_CAN_Receive.vi:5470007      WPI_CANTalonSRX_Receive.vi      WPI_CANTalonSRX_GetStatus.vi      ShooterVI.vi      Periodic Tasks.vi      Robot Main.vi,0.000000,0.000000,0.000000,0.000000,Speed,Speed,0.000000,1.320000,2.990000,2.000000,101.000000,1,0,0.000000,-0.000062,0,0.000000,0.000000,0.000000,-1.690414,4.575012,0.000000,0.000000,0.000000,0.000000
08:18:59.054 PM 02/09/2016,Teleop Enabled,0,TRUE,-44087,NetComm_CAN_Receive.vi:5470007<APPEND>  <b>Complete call chain:</b>      NetComm_CAN_Receive.vi:5470007      WPI_CANTalonSRX_Receive.vi      WPI_CANTalonSRX_GetStatus.vi      ShooterVI.vi      Periodic Tasks.vi      Robot Main.vi,0.000000,0.000000,0.000000,0.000000,Speed,Speed,0.000000,1.310000,3.000000,2.000000,102.000000,1,0,0.000000,-0.000062,0,0.000000,0.000000,0.000000,-1.690414,4.575012,0.000000,0.001000,0.000000,0.003000
08:18:59.155 PM 02/09/2016,Teleop Enabled,0,TRUE,-44087,NetComm_CAN_Receive.vi:5470007<APPEND>  <b>Complete call chain:</b>      NetComm_CAN_Receive.vi:5470007      WPI_CANTalonSRX_Receive.vi      WPI_CANTalonSRX_GetStatus.vi      ShooterVI.vi      Periodic Tasks.vi      Robot Main.vi,0.000000,0.000000,0.000000,0.000000,Speed,Speed,-0.010000,1.320000,2.990000,2.000000,100.000000,1,0,0.000000,-0.000062,0,0.000000,0.000000,0.000000,-1.690414,4.575012,0.000000,0.001000,-0.002000,0.003000
08:18:59.256 PM 02/09/2016,Teleop Enabled,0,TRUE,-44087,NetComm_CAN_Receive.vi:5470007<APPEND>  <b>Complete call chain:</b>      NetComm_CAN_Receive.vi:5470007      WPI_CANTalonSRX_Receive.vi      WPI_CANTalonSRX_GetStatus.vi      ShooterVI.vi      Periodic Tasks.vi      Robot Main.vi,0.000000,0.000000,0.000000,0.000000,Speed,Speed,0.000000,1.320000,3.000000,2.000000,102.000000,1,0,0.000000,-0.000062,0,0.000000,0.000000,0.000000,-1.690414,4.575012,0.000000,0.000000,0.000000,0.000000
08:18:59.357 PM 02/09/2016,Teleop Enabled,0,TRUE,-44087,NetComm_CAN_Receive.vi:5470007<APPEND>  <b>Complete call chain:</b>      NetComm_CAN_Receive.vi:5470007      WPI_CANTalonSRX_Receive.vi      WPI_CANTalonSRX_GetStatus.vi      ShooterVI.vi      Periodic Tasks.vi      Robot Main.vi,0.000000,0.000000,0.000000,0.000000,Speed,Speed,-0.010000,1.320000,3.000000,2.000000,101.000000,1,0,0.000000,-0.000062,0,0.000000,0.000000,0.000000,-1.690414,4.575012,0.000000,-0.002000,-0.001000,-0.002000
08:18:59.457 PM 02/09/2016,Teleop Enabled,0,TRUE,-44087,NetComm_CAN_Receive.vi:5470007<APPEND>  <b>Complete call chain:</b>      NetComm_CAN_Receive.vi:5470007      WPI_CANTalonSRX_Receive.vi      WPI_CANTalonSRX_GetStatus.vi      ShooterVI.vi      Periodic Tasks.vi      Robot Main.vi,0.000000,0.000000,0.000000,0.000000,Speed,Speed,0.000000,1.320000,3.000000,2.000000,101.000000,1,0,0.000000,-0.000062,0,0.000000,0.000000,0.000000,-1.690414,4.575012,0.000000,0.000000,0.001000,0.001000
08:18:59.557 PM 02/09/2016,Teleop Enabled,0,TRUE,-44087,NetComm_CAN_Receive.vi:5470007<APPEND>  <b>Complete call chain:</b>      NetComm_CAN_Receive.vi:5470007      WPI_CANTalonSRX_Receive.vi      WPI_CANTalonSRX_GetStatus.vi      ShooterVI.vi      Periodic Tasks.vi      Robot Main.vi,0.000000,0.000000,0.000000,0.000000,Speed,Speed,0.000000,1.320000,3.000000,2.000000,101.000000,1,0,0.000000,-0.000062,0,0.000000,0.000000,0.000000,-1.690414,4.575012,0.000000,0.001000,0.002000,0.005000
08:18:59.658 PM 02/09/2016,Teleop Enabled,0,TRUE,-44087,NetComm_CAN_Receive.vi:5470007<APPEND>  <b>Complete call chain:</b>      NetComm_CAN_Receive.vi:5470007      WPI_CANTalonSRX_Receive.vi      WPI_CANTalonSRX_GetStatus.vi      ShooterVI.vi      Periodic Tasks.vi      Robot Main.vi,0.000000,0.000000,0.000000,0.000000,Speed,Speed,-0.010000,1.320000,3.000000,2.000000,103.000000,1,0,0.000000,-0.000062,0,0.000000,0.000000,0.000000,-1.690414,4.575012,0.000000,-0.002000,0.001000,0.001000
08:18:59.759 PM 02/09/2016,Teleop Enabled,0,TRUE,-44087,NetComm_CAN_Receive.vi:5470007<APPEND>  <b>Complete call chain:</b>      NetComm_CAN_Receive.vi:5470007      WPI_CANTalonSRX_Receive.vi      WPI_CANTalonSRX_GetStatus.vi      ShooterVI.vi      Periodic Tasks.vi      Robot Main.vi,0.000000,0.000000,0.000000,0.000000,Speed,Speed,-0.010000,1.320000,3.000000,2.000000,103.000000,1,0,0.000000,-0.000062,0,0.000000,0.000000,0.000000,-1.690414,4.575012,0.000000,0.002000,0.001000,-0.002000
08:18:59.862 PM 02/09/2016,Teleop Enabled,0,TRUE,-44087,NetComm_CAN_Receive.vi:5470007<APPEND>  <b>Complete call chain:</b>      NetComm_CAN_Receive.vi:5470007      WPI_CANTalonSRX_Receive.vi      WPI_CANTalonSRX_GetStatus.vi      ShooterVI.vi      Periodic Tasks.vi      Robot Main.vi,0.000000,0.000000,0.000000,0.000000,Speed,Speed,-0.010000,1.320000,3.000000,2.000000,101.000000,1,0,0.000000,-0.000062,0,0.000000,0.000000,0.000000,-1.690414,4.575012,0.000000,0.000000,0.002000,0.000000
08:18:59.962 PM 02/09/2016,Teleop Enabled,0,TRUE,-44087,NetComm_CAN_Receive.vi:5470007<APPEND>  <b>Complete call chain:</b>      NetComm_CAN_Receive.vi:5470007      WPI_CANTalonSRX_Receive.vi      WPI_CANTalonSRX_GetStatus.vi      ShooterVI.vi      Periodic Tasks.vi      Robot Main.vi,0.000000,0.000000,0.000000,0.000000,Speed,Speed,-0.010000,1.330000,3.000000,2.000000,102.000000,1,0,0.000000,-0.000062,0,0.000000,0.000000,0.000000,-1.690414,4.575012,0.000000,-0.002000,0.002000,0.001000
08:19:00.062 PM 02/09/2016,Teleop Enabled,0,TRUE,-44087,NetComm_CAN_Receive.vi:5470007<APPEND>  <b>Complete call chain:</b>      NetComm_CAN_Receive.vi:5470007      WPI_CANTalonSRX_Receive.vi      WPI_CANTalonSRX_GetStatus.vi      ShooterVI.vi      Periodic Tasks.vi      Robot Main.vi,0.000000,0.000000,4000.000000,4000.000000,Speed,Speed,-0.010000,1.330000,3.000000,3.000000,101.000000,1,0,0.000000,-0.000062,0,0.000000,0.000000,0.000000,-1.690414,4.575012,0.000000,0.000000,0.000000,0.001000
08:19:00.162 PM 02/09/2016,Teleop Enabled,0,TRUE,-44087,NetComm_CAN_Receive.vi:5470007<APPEND>  <b>Complete call chain:</b>      NetComm_CAN_Receive.vi:5470007      WPI_CANTalonSRX_Receive.vi      WPI_CANTalonSRX_GetStatus.vi      ShooterVI.vi      Periodic Tasks.vi      Robot Main.vi,0.000000,0.000000,4000.000000,4000.000000,Speed,Speed,-0.010000,1.330000,3.000000,3.000000,104.000000,1,0,0.000000,-0.000062,0,0.000000,0.000000,0.000000,-1.690414,4.575012,0.000000,-0.001000,0.002000,0.004000
08:19:00.262 PM 02/09/2016,Teleop Enabled,0,TRUE,-44087,NetComm_CAN_Receive.vi:5470007<APPEND>  <b>Complete call chain:</b>      NetComm_CAN_Receive.vi:5470007      WPI_CANTalonSRX_Receive.vi      WPI_CANTalonSRX_GetStatus.vi      ShooterVI.vi      Periodic Tasks.vi      Robot Main.vi,0.000000,0.000000,4000.000000,4000.000000,Speed,Speed,-0.010000,1.320000,3.000000,3.000000,101.000000,1,0,0.000000,-0.000062,0,0.000000,0.000000,0.000000,-1.690414,4.575012,0.000000,-0.001000,-0.001000,0.004000
08:19:00.362 PM 02/09/2016,Teleop Enabled,0,TRUE,-44087,NetComm_CAN_Receive.vi:5470007<APPEND>  <b>Complete call chain:</b>      NetComm_CAN_Receive.vi:5470007      WPI_CANTalonSRX_Receive.vi      WPI_CANTalonSRX_GetStatus.vi      ShooterVI.vi      Periodic Tasks.vi      Robot Main.vi,0.000000,0.000000,4000.000000,4000.000000,Speed,Speed,-0.010000,1.320000,2.990000,3.000000,101.000000,1,0,0.000000,-0.000062,0,0.000000,0.000000,0.000000,-1.690414,4.575012,0.000000,0.000000,0.000000,0.003000
08:19:00.463 PM 02/09/2016,Teleop Enabled,0,TRUE,-44087,NetComm_CAN_Receive.vi:5470007<APPEND>  <b>Complete call chain:</b>      NetComm_CAN_Receive.vi:5470007      WPI_CANTalonSRX_Receive.vi      WPI_CANTalonSRX_GetStatus.vi      ShooterVI.vi      Periodic Tasks.vi      Robot Main.vi,0.000000,0.000000,4000.000000,4000.000000,Speed,Speed,-0.010000,1.320000,2.990000,3.000000,103.000000,1,0,0.000000,-0.000062,0,0.000000,0.000000,0.000000,-1.690414,4.575012,0.000000,0.001000,0.000000,0.004000
08:19:00.563 PM 02/09/2016,Teleop Enabled,0,TRUE,-44087,NetComm_CAN_Receive.vi:5470007<APPEND>  <b>Complete call chain:</b>      NetComm_CAN_Receive.vi:5470007      WPI_CANTalonSRX_Receive.vi      WPI_CANTalonSRX_GetStatus.vi      ShooterVI.vi      Periodic Tasks.vi      Robot Main.vi,0.000000,0.000000,4000.000000,4000.000000,Speed,Speed,-0.010000,1.320000,2.990000,3.000000,103.000000,1,0,0.000000,-0.000062,0,0.000000,0.000000,0.000000,-1.690414,4.575012,0.000000,0.000000,0.000000,0.001000
08:19:00.663 PM 02/09/2016,Teleop Enabled,0,TRUE,-44087,NetComm_CAN_Receive.vi:5470007<APPEND>  <b>Complete call chain:</b>      NetComm_CAN_Receive.vi:5470007      WPI_CANTalonSRX_Receive.vi      WPI_CANTalonSRX_GetStatus.vi      ShooterVI.vi      Periodic Tasks.vi      Robot Main.vi,0.000000,0.000000,4000.000000,4000.000000,Speed,Speed,-0.010000,1.320000,2.990000,3.000000,105.000000,1,0,0.000000,-0.000062,0,0.000000,0.000000,0.000000,-1.690414,4.575012,0.000000,0.001000,-0.001000,0.003000
08:19:00.763 PM 02/09/2016,Teleop Enabled,0,TRUE,-44087,NetComm_CAN_Receive.vi:5470007<APPEND>  <b>Complete call chain:</b>      NetComm_CAN_Receive.vi:5470007      WPI_CANTalonSRX_Receive.vi      WPI_CANTalonSRX_GetStatus.vi      ShooterVI.vi      Periodic Tasks.vi      Robot Main.vi,0.000000,0.000000,4000.000000,4000.000000,Speed,Speed,-0.010000,1.320000,2.990000,3.000000,104.000000,1,0,0.000000,-0.000062,0,0.000000,0.000000,0.000000,-1.690414,4.575012,0.000000,-0.002000,-0.001000,0.006000
08:19:00.864 PM 02/09/2016,Teleop Enabled,0,TRUE,-44087,NetComm_CAN_Receive.vi:5470007<APPEND>  <b>Complete call chain:</b>      NetComm_CAN_Receive.vi:5470007      WPI_CANTalonSRX_Receive.vi      WPI_CANTalonSRX_GetStatus.vi      ShooterVI.vi      Periodic Tasks.vi      Robot Main.vi,0.000000,0.000000,4000.000000,4000.000000,Speed,Speed,-0.020000,1.320000,2.990000,3.000000,101.000000,1,0,0.000000,-0.000062,0,0.000000,0.000000,0.000000,-1.690414,4.575012,0.000000,-0.001000,-0.001000,0.003000
08:19:00.963 PM 02/09/2016,Teleop Enabled,0,TRUE,-44087,NetComm_CAN_Receive.vi:5470007<APPEND>  <b>Complete call chain:</b>      NetComm_CAN_Receive.vi:5470007      WPI_CANTalonSRX_Receive.vi      WPI_CANTalonSRX_GetStatus.vi      ShooterVI.vi      Periodic Tasks.vi      Robot Main.vi,0.000000,0.000000,4000.000000,4000.000000,Speed,Speed,-0.020000,1.320000,2.990000,3.000000,103.000000,1,0,0.000000,-0.000062,0,0.000000,0.000000,0.000000,-1.690414,4.575012,0.000000,0.000000,0.000000,0.003000
08:19:01.064 PM 02/09/2016,Teleop Enabled,0,TRUE,-44087,NetComm_CAN_Receive.vi:5470007<APPEND>  <b>Complete call chain:</b>      NetComm_CAN_Receive.vi:5470007      WPI_CANTalonSRX_Receive.vi      WPI_CANTalonSRX_GetStatus.vi      ShooterVI.vi      Periodic Tasks.vi      Robot Main.vi,0.000000,0.000000,4000.000000,4000.000000,Speed,Speed,-0.020000,1.320000,2.990000,3.000000,104.000000,1,0,0.000000,-0.000062,0,0.000000,0.000000,0.000000,-1.690414,4.575012,0.000000,0.000000,0.000000,0.008000
08:19:01.166 PM 02/09/2016,Teleop Enabled,0,TRUE,-44087,NetComm_CAN_Receive.vi:5470007<APPEND>  <b>Complete call chain:</b>      NetComm_CAN_Receive.vi:5470007      WPI_CANTalonSRX_Receive.vi      WPI_CANTalonSRX_GetStatus.vi      ShooterVI.vi      Periodic Tasks.vi      Robot Main.vi,0.000000,0.000000,4000.000000,4000.000000,Speed,Speed,-0.020000,1.320000,2.990000,3.000000,101.000000,1,0,0.000000,-0.000062,0,0.000000,0.000000,0.000000,-1.690414,4.575012,0.000000,0.000000,-0.001000,0.002000
08:19:01.266 PM 02/09/2016,Teleop Enabled,0,TRUE,-44087,NetComm_CAN_Receive.vi:5470007<APPEND>  <b>Complete call chain:</b>      NetComm_CAN_Receive.vi:5470007      WPI_CANTalonSRX_Receive.vi      WPI_CANTalonSRX_GetStatus.vi      ShooterVI.vi      Periodic Tasks.vi      Robot Main.vi,0.000000,0.000000,4000.000000,4000.000000,Speed,Speed,-0.020000,1.320000,2.990000,3.000000,100.000000,1,0,0.000000,-0.000062,0,0.000000,0.000000,0.000000,-1.690414,4.575012,0.000000,-0.001000,0.000000,0.004000
08:19:01.367 PM 02/09/2016,Teleop Enabled,0,TRUE,-44087,NetComm_CAN_Receive.vi:5470007<APPEND>  <b>Complete call chain:</b>      NetComm_CAN_Receive.vi:5470007      WPI_CANTalonSRX_Receive.vi      WPI_CANTalonSRX_GetStatus.vi      ShooterVI.vi      Periodic Tasks.vi      Robot Main.vi,0.000000,0.000000,4000.000000,4000.000000,Speed,Speed,-0.020000,1.320000,2.990000,3.000000,103.000000,1,0,0.000000,-0.000062,0,0.000000,0.000000,0.000000,-1.690414,4.575012,0.000000,0.000000,-0.001000,0.004000
08:19:01.466 PM 02/09/2016,Teleop Enabled,0,TRUE,-44087,NetComm_CAN_Receive.vi:5470007<APPEND>  <b>Complete call chain:</b>      NetComm_CAN_Receive.vi:5470007      WPI_CANTalonSRX_Receive.vi      WPI_CANTalonSRX_GetStatus.vi      ShooterVI.vi      Periodic Tasks.vi      Robot Main.vi,0.000000,0.000000,4000.000000,4000.000000,Speed,Speed,-0.020000,1.320000,2.990000,3.000000,101.000000,1,0,0.000000,-0.000062,0,0.000000,0.000000,0.000000,-1.690414,4.575012,0.000000,0.000000,0.000000,-0.002000
08:19:01.567 PM 02/09/2016,Teleop Enabled,0,TRUE,-44087,NetComm_CAN_Receive.vi:5470007<APPEND>  <b>Complete call chain:</b>      NetComm_CAN_Receive.vi:5470007      WPI_CANTalonSRX_Receive.vi      WPI_CANTalonSRX_GetStatus.vi      ShooterVI.vi      Periodic Tasks.vi      Robot Main.vi,0.000000,0.000000,4000.000000,4000.000000,Speed,Speed,-0.020000,1.320000,2.990000,3.000000,104.000000,1,0,0.000000,-0.000062,0,0.000000,0.000000,0.000000,-1.690414,4.575012,0.000000,0.000000,0.000000,0.000000
08:19:01.666 PM 02/09/2016,Teleop Enabled,0,TRUE,-44087,NetComm_CAN_Receive.vi:5470007<APPEND>  <b>Complete call chain:</b>      NetComm_CAN_Receive.vi:5470007      WPI_CANTalonSRX_Receive.vi      WPI_CANTalonSRX_GetStatus.vi      ShooterVI.vi      Periodic Tasks.vi      Robot Main.vi,0.000000,0.000000,4000.000000,4000.000000,Speed,Speed,-0.020000,1.320000,2.990000,3.000000,101.000000,1,0,0.000000,-0.000062,0,0.000000,0.000000,0.000000,-1.690414,4.575012,0.000000,0.000000,-0.001000,0.003000
08:19:01.767 PM 02/09/2016,Teleop Enabled,0,TRUE,-44087,NetComm_CAN_Receive.vi:5470007<APPEND>  <b>Complete call chain:</b>      NetComm_CAN_Receive.vi:5470007      WPI_CANTalonSRX_Receive.vi      WPI_CANTalonSRX_GetStatus.vi      ShooterVI.vi      Periodic Tasks.vi      Robot Main.vi,0.000000,0.000000,4000.000000,4000.000000,Speed,Speed,-0.020000,1.320000,2.990000,3.000000,103.000000,1,0,0.000000,-0.000062,0,0.000000,0.000000,0.000000,-1.690414,4.575012,0.000000,-0.001000,0.001000,0.001000
08:19:01.867 PM 02/09/2016,Teleop Enabled,0,TRUE,-44087,NetComm_CAN_Receive.vi:5470007<APPEND>  <b>Complete call chain:</b>      NetComm_CAN_Receive.vi:5470007      WPI_CANTalonSRX_Receive.vi      WPI_CANTalonSRX_GetStatus.vi      ShooterVI.vi      Periodic Tasks.vi      Robot Main.vi,0.000000,0.000000,4000.000000,4000.000000,Speed,Speed,-0.020000,1.320000,2.990000,3.000000,103.000000,1,0,0.000000,-0.000062,0,0.000000,0.000000,0.000000,-1.690414,4.575012,0.000000,0.000000,0.001000,0.004000
08:19:01.968 PM 02/09/2016,Teleop Enabled,0,TRUE,-44087,NetComm_CAN_Receive.vi:5470007<APPEND>  <b>Complete call chain:</b>      NetComm_CAN_Receive.vi:5470007      WPI_CANTalonSRX_Receive.vi      WPI_CANTalonSRX_GetStatus.vi      ShooterVI.vi      Periodic Tasks.vi      Robot Main.vi,0.000000,0.000000,4000.000000,4000.000000,Speed,Speed,-0.020000,1.320000,2.990000,3.000000,101.000000,1,0,0.000000,-0.000062,0,0.000000,0.000000,0.000000,-1.690414,4.575012,0.000000,-0.001000,-0.004000,0.002000
08:19:02.068 PM 02/09/2016,Teleop Enabled,0,TRUE,-44087,NetComm_CAN_Receive.vi:5470007<APPEND>  <b>Complete call chain:</b>      NetComm_CAN_Receive.vi:5470007      WPI_CANTalonSRX_Receive.vi      WPI_CANTalonSRX_GetStatus.vi      ShooterVI.vi      Periodic Tasks.vi      Robot Main.vi,0.000000,0.000000,4000.000000,4000.000000,Speed,Speed,-0.020000,1.320000,2.990000,3.000000,102.000000,1,0,0.000000,-0.000062,0,0.000000,0.000000,0.000000,-1.690414,4.575012,0.000000,0.000000,-0.001000,0.002000
08:19:02.168 PM 02/09/2016,Teleop Enabled,0,TRUE,-44087,NetComm_CAN_Receive.vi:5470007<APPEND>  <b>Complete call chain:</b>      NetComm_CAN_Receive.vi:5470007      WPI_CANTalonSRX_Receive.vi      WPI_CANTalonSRX_GetStatus.vi      ShooterVI.vi      Periodic Tasks.vi      Robot Main.vi,0.000000,0.000000,4000.000000,4000.000000,Speed,Speed,-0.030000,1.320000,2.990000,3.000000,100.000000,1,0,0.000000,-0.000062,0,0.000000,0.000000,0.000000,-1.690414,4.575012,0.000000,0.000000,0.001000,0.007000
08:19:02.269 PM 02/09/2016,Teleop Enabled,0,TRUE,-44087,NetComm_CAN_Receive.vi:5470007<APPEND>  <b>Complete call chain:</b>      NetComm_CAN_Receive.vi:5470007      WPI_CANTalonSRX_Receive.vi      WPI_CANTalonSRX_GetStatus.vi      ShooterVI.vi      Periodic Tasks.vi      Robot Main.vi,0.000000,0.000000,4000.000000,4000.000000,Speed,Speed,-0.030000,1.320000,2.990000,3.000000,100.000000,1,0,0.000000,-0.000062,0,0.000000,0.000000,0.000000,-1.690414,4.575012,0.000000,0.001000,0.000000,0.005000
08:19:02.368 PM 02/09/2016,Teleop Enabled,0,TRUE,-44087,NetComm_CAN_Receive.vi:5470007<APPEND>  <b>Complete call chain:</b>      NetComm_CAN_Receive.vi:5470007      WPI_CANTalonSRX_Receive.vi      WPI_CANTalonSRX_GetStatus.vi      ShooterVI.vi      Periodic Tasks.vi      Robot Main.vi,0.000000,0.000000,4000.000000,4000.000000,Speed,Speed,-0.030000,1.320000,2.990000,3.000000,105.000000,1,0,0.000000,-0.000062,0,0.000000,0.000000,0.000000,-1.690414,4.575012,0.000000,0.001000,0.000000,-0.001000
08:19:02.469 PM 02/09/2016,Teleop Enabled,0,TRUE,-44087,NetComm_CAN_Receive.vi:5470007<APPEND>  <b>Complete call chain:</b>      NetComm_CAN_Receive.vi:5470007      WPI_CANTalonSRX_Receive.vi      WPI_CANTalonSRX_GetStatus.vi      ShooterVI.vi      Periodic Tasks.vi      Robot Main.vi,0.000000,0.000000,4000.000000,4000.000000,Speed,Speed,-0.030000,1.320000,2.990000,3.000000,102.000000,1,0,0.000000,-0.000062,0,0.000000,0.000000,0.000000,-1.690414,4.575012,0.000000,-0.001000,-0.002000,0.005000
08:19:02.569 PM 02/09/2016,Teleop Enabled,0,TRUE,-44087,NetComm_CAN_Receive.vi:5470007<APPEND>  <b>Complete call chain:</b>      NetComm_CAN_Receive.vi:5470007      WPI_CANTalonSRX_Receive.vi      WPI_CANTalonSRX_GetStatus.vi      ShooterVI.vi      Periodic Tasks.vi      Robot Main.vi,0.000000,0.000000,4000.000000,4000.000000,Speed,Speed,-0.030000,1.320000,2.990000,3.000000,102.000000,1,0,0.000000,-0.000062,0,0.000000,0.000000,0.000000,-1.690414,4.575012,0.000000,0.000000,-0.003000,0.002000
08:19:02.669 PM 02/09/2016,Teleop Enabled,0,TRUE,-44087,NetComm_CAN_Receive.vi:5470007<APPEND>  <b>Complete call chain:</b>      NetComm_CAN_Receive.vi:5470007      WPI_CANTalonSRX_Receive.vi      WPI_CANTalonSRX_GetStatus.vi      ShooterVI.vi      Periodic Tasks.vi      Robot Main.vi,0.000000,0.000000,4000.000000,4000.000000,Speed,Speed,-0.020000,1.320000,2.990000,3.000000,102.000000,1,0,0.000000,-0.000062,0,0.000000,0.000000,0.000000,-1.690414,4.575012,0.000000,0.000000,0.000000,0.005000
08:19:02.770 PM 02/09/2016,Teleop Enabled,0,TRUE,-44087,NetComm_CAN_Receive.vi:5470007<APPEND>  <b>Complete call chain:</b>      NetComm_CAN_Receive.vi:5470007      WPI_CANTalonSRX_Receive.vi      WPI_CANTalonSRX_GetStatus.vi      ShooterVI.vi      Periodic Tasks.vi      Robot Main.vi,0.000000,0.000000,4000.000000,4000.000000,Speed,Speed,-0.020000,1.320000,2.990000,3.000000,102.000000,1,0,0.000000,-0.000062,0,0.000000,0.000000,0.000000,-1.690414,4.575012,0.000000,0.001000,0.000000,0.000000
08:19:02.871 PM 02/09/2016,Teleop Enabled,0,TRUE,-44087,NetComm_CAN_Receive.vi:5470007<APPEND>  <b>Complete call chain:</b>      NetComm_CAN_Receive.vi:5470007      WPI_CANTalonSRX_Receive.vi      WPI_CANTalonSRX_GetStatus.vi      ShooterVI.vi      Periodic Tasks.vi      Robot Main.vi,0.000000,0.000000,4000.000000,4000.000000,Speed,Speed,-0.020000,1.320000,2.990000,3.000000,103.000000,1,0,0.000000,-0.000062,0,0.000000,0.000000,0.000000,-1.690414,4.575012,0.000000,0.000000,0.000000,0.002000
08:19:02.972 PM 02/09/2016,Teleop Enabled,0,TRUE,-44087,NetComm_CAN_Receive.vi:5470007<APPEND>  <b>Complete call chain:</b>      NetComm_CAN_Receive.vi:5470007      WPI_CANTalonSRX_Receive.vi      WPI_CANTalonSRX_GetStatus.vi      ShooterVI.vi      Periodic Tasks.vi      Robot Main.vi,0.000000,0.000000,4000.000000,4000.000000,Speed,Speed,-0.020000,1.320000,2.990000,3.000000,101.000000,1,0,0.000000,-0.000062,0,0.000000,0.000000,0.000000,-1.690414,4.575012,0.000000,0.000000,0.001000,0.005000
08:19:03.072 PM 02/09/2016,Teleop Enabled,0,TRUE,-44087,NetComm_CAN_Receive.vi:5470007<APPEND>  <b>Complete call chain:</b>      NetComm_CAN_Receive.vi:5470007      WPI_CANTalonSRX_Receive.vi      WPI_CANTalonSRX_GetStatus.vi      ShooterVI.vi      Periodic Tasks.vi      Robot Main.vi,0.000000,0.000000,4000.000000,4000.000000,Speed,Speed,-0.030000,1.320000,2.990000,3.000000,103.000000,1,0,0.000000,-0.000062,0,0.000000,0.000000,0.000000,-1.690414,4.575012,0.000000,0.001000,-0.001000,0.004000
08:19:03.172 PM 02/09/2016,Teleop Enabled,0,TRUE,-44087,NetComm_CAN_Receive.vi:5470007<APPEND>  <b>Complete call chain:</b>      NetComm_CAN_Receive.vi:5470007      WPI_CANTalonSRX_Receive.vi      WPI_CANTalonSRX_GetStatus.vi      ShooterVI.vi      Periodic Tasks.vi      Robot Main.vi,0.000000,0.000000,4000.000000,4000.000000,Speed,Speed,-0.030000,1.320000,2.990000,3.000000,100.000000,1,0,0.000000,-0.000062,0,0.000000,0.000000,0.000000,-1.690414,4.575012,0.000000,0.001000,-0.001000,0.003000
08:19:03.273 PM 02/09/2016,Teleop Enabled,0,TRUE,-44087,NetComm_CAN_Receive.vi:5470007<APPEND>  <b>Complete call chain:</b>      NetComm_CAN_Receive.vi:5470007      WPI_CANTalonSRX_Receive.vi      WPI_CANTalonSRX_GetStatus.vi      ShooterVI.vi      Periodic Tasks.vi      Robot Main.vi,0.000000,0.000000,4000.000000,4000.000000,Speed,Speed,-0.030000,1.320000,2.990000,3.000000,100.000000,1,0,0.000000,-0.000062,0,0.000000,0.000000,0.000000,-1.690414,4.575012,0.000000,0.002000,0.000000,0.001000
08:19:03.374 PM 02/09/2016,Teleop Enabled,0,TRUE,-44087,NetComm_CAN_Receive.vi:5470007<APPEND>  <b>Complete call chain:</b>      NetComm_CAN_Receive.vi:5470007      WPI_CANTalonSRX_Receive.vi      WPI_CANTalonSRX_GetStatus.vi      ShooterVI.vi      Periodic Tasks.vi      Robot Main.vi,0.000000,0.000000,4000.000000,4000.000000,Speed,Speed,-0.030000,1.320000,2.990000,3.000000,101.000000,1,0,0.000000,-0.000062,0,0.000000,0.000000,0.000000,-1.690414,4.575012,0.000000,-0.001000,0.001000,0.006000
08:19:03.475 PM 02/09/2016,Teleop Enabled,0,TRUE,-44087,NetComm_CAN_Receive.vi:5470007<APPEND>  <b>Complete call chain:</b>      NetComm_CAN_Receive.vi:5470007      WPI_CANTalonSRX_Receive.vi      WPI_CANTalonSRX_GetStatus.vi      ShooterVI.vi      Periodic Tasks.vi      Robot Main.vi,0.000000,0.000000,4000.000000,4000.000000,Speed,Speed,-0.030000,1.320000,2.990000,3.000000,101.000000,1,0,0.000000,-0.000062,0,0.000000,0.000000,0.000000,-1.690414,4.575012,0.000000,-0.001000,0.000000,0.000000
08:19:03.576 PM 02/09/2016,Teleop Enabled,0,TRUE,-44087,NetComm_CAN_Receive.vi:5470007<APPEND>  <b>Complete call chain:</b>      NetComm_CAN_Receive.vi:5470007      WPI_CANTalonSRX_Receive.vi      WPI_CANTalonSRX_GetStatus.vi      ShooterVI.vi      Periodic Tasks.vi      Robot Main.vi,0.000000,0.000000,4000.000000,4000.000000,Speed,Speed,-0.030000,1.320000,2.990000,3.000000,101.000000,1,0,0.000000,-0.000062,0,0.000000,0.000000,0.000000,-1.690414,4.575012,0.000000,0.000000,-0.001000,0.000000
08:19:03.676 PM 02/09/2016,Teleop Enabled,0,TRUE,-44087,NetComm_CAN_Receive.vi:5470007<APPEND>  <b>Complete call chain:</b>      NetComm_CAN_Receive.vi:5470007      WPI_CANTalonSRX_Receive.vi      WPI_CANTalonSRX_GetStatus.vi      ShooterVI.vi      Periodic Tasks.vi      Robot Main.vi,0.000000,0.000000,4000.000000,4000.000000,Speed,Speed,-0.030000,1.310000,2.990000,3.000000,101.000000,1,0,0.000000,-0.000062,0,0.000000,0.000000,0.000000,-1.690414,4.575012,0.000000,0.001000,-0.002000,0.000000
08:19:03.777 PM 02/09/2016,Teleop Enabled,0,TRUE,-44087,NetComm_CAN_Receive.vi:5470007<APPEND>  <b>Complete call chain:</b>      NetComm_CAN_Receive.vi:5470007      WPI_CANTalonSRX_Receive.vi      WPI_CANTalonSRX_GetStatus.vi      ShooterVI.vi      Periodic Tasks.vi      Robot Main.vi,0.000000,0.000000,4000.000000,4000.000000,Speed,Speed,-0.030000,1.310000,2.990000,3.000000,102.000000,1,0,0.000000,-0.000062,0,0.000000,0.000000,0.000000,-1.690414,4.575012,0.000000,0.001000,0.000000,0.004000
08:19:03.878 PM 02/09/2016,Teleop Enabled,0,TRUE,-44087,NetComm_CAN_Receive.vi:5470007<APPEND>  <b>Complete call chain:</b>      NetComm_CAN_Receive.vi:5470007      WPI_CANTalonSRX_Receive.vi      WPI_CANTalonSRX_GetStatus.vi      ShooterVI.vi      Periodic Tasks.vi      Robot Main.vi,0.000000,0.000000,4000.000000,4000.000000,Speed,Speed,-0.030000,1.310000,2.990000,3.000000,101.000000,1,0,0.000000,-0.000062,0,0.000000,0.000000,0.000000,-1.690414,4.575012,0.000000,0.000000,-0.002000,0.001000
08:19:03.980 PM 02/09/2016,Teleop Enabled,0,TRUE,-44087,NetComm_CAN_Receive.vi:5470007<APPEND>  <b>Complete call chain:</b>      NetComm_CAN_Receive.vi:5470007      WPI_CANTalonSRX_Receive.vi      WPI_CANTalonSRX_GetStatus.vi      ShooterVI.vi      Periodic Tasks.vi      Robot Main.vi,0.000000,0.000000,4000.000000,4000.000000,Speed,Speed,-0.030000,1.310000,2.990000,3.000000,101.000000,1,0,0.000000,-0.000062,0,0.000000,0.000000,0.000000,-1.690414,4.575012,0.000000,0.000000,0.000000,0.001000
08:19:04.079 PM 02/09/2016,Teleop Enabled,0,TRUE,-44087,NetComm_CAN_Receive.vi:5470007<APPEND>  <b>Complete call chain:</b>      NetComm_CAN_Receive.vi:5470007      WPI_CANTalonSRX_Receive.vi      WPI_CANTalonSRX_GetStatus.vi      ShooterVI.vi      Periodic Tasks.vi      Robot Main.vi,0.000000,0.000000,4000.000000,4000.000000,Speed,Speed,-0.030000,1.310000,2.990000,3.000000,103.000000,1,0,0.000000,-0.000062,0,0.000000,0.000000,0.000000,-1.690414,4.575012,0.000000,0.000000,0.000000,0.001000
08:19:04.179 PM 02/09/2016,Teleop Enabled,0,TRUE,-44087,NetComm_CAN_Receive.vi:5470007<APPEND>  <b>Complete call chain:</b>      NetComm_CAN_Receive.vi:5470007      WPI_CANTalonSRX_Receive.vi      WPI_CANTalonSRX_GetStatus.vi      ShooterVI.vi      Periodic Tasks.vi      Robot Main.vi,0.000000,0.000000,4000.000000,4000.000000,Speed,Speed,-0.030000,1.320000,2.990000,3.000000,102.000000,1,0,0.000000,-0.000062,0,0.000000,0.000000,0.000000,-1.690414,4.575012,0.000000,-0.001000,0.000000,0.000000
08:19:04.280 PM 02/09/2016,Teleop Enabled,0,TRUE,-44087,NetComm_CAN_Receive.vi:5470007<APPEND>  <b>Complete call chain:</b>      NetComm_CAN_Receive.vi:5470007      WPI_CANTalonSRX_Receive.vi      WPI_CANTalonSRX_GetStatus.vi      ShooterVI.vi      Periodic Tasks.vi      Robot Main.vi,0.000000,0.000000,4000.000000,4000.000000,Speed,Speed,-0.030000,1.320000,2.990000,3.000000,102.000000,1,0,0.000000,-0.000062,0,0.000000,0.000000,0.000000,-1.690414,4.575012,0.000000,0.000000,0.000000,0.000000
08:19:04.380 PM 02/09/2016,Teleop Enabled,0,TRUE,-44087,NetComm_CAN_Receive.vi:5470007<APPEND>  <b>Complete call chain:</b>      NetComm_CAN_Receive.vi:5470007      WPI_CANTalonSRX_Receive.vi      WPI_CANTalonSRX_GetStatus.vi      ShooterVI.vi      Periodic Tasks.vi      Robot Main.vi,0.000000,0.000000,4000.000000,4000.000000,Speed,Speed,-0.030000,1.310000,2.990000,3.000000,104.000000,1,0,0.000000,-0.000062,0,0.000000,0.000000,0.000000,-1.690414,4.575012,0.000000,0.000000,0.000000,0.000000
08:19:04.480 PM 02/09/2016,Teleop Enabled,0,TRUE,-44087,NetComm_CAN_Receive.vi:5470007<APPEND>  <b>Complete call chain:</b>      NetComm_CAN_Receive.vi:5470007      WPI_CANTalonSRX_Receive.vi      WPI_CANTalonSRX_GetStatus.vi      ShooterVI.vi      Periodic Tasks.vi      Robot Main.vi,0.000000,0.000000,4000.000000,4000.000000,Speed,Speed,-0.030000,1.310000,2.990000,3.000000,102.000000,1,0,0.000000,-0.000062,0,0.000000,0.000000,0.000000,-1.690414,4.575012,0.000000,0.002000,0.000000,0.001000
08:19:04.580 PM 02/09/2016,Teleop Enabled,0,TRUE,-44087,NetComm_CAN_Receive.vi:5470007<APPEND>  <b>Complete call chain:</b>      NetComm_CAN_Receive.vi:5470007      WPI_CANTalonSRX_Receive.vi      WPI_CANTalonSRX_GetStatus.vi      ShooterVI.vi      Periodic Tasks.vi      Robot Main.vi,0.000000,0.000000,4000.000000,4000.000000,Speed,Speed,-0.030000,1.310000,2.990000,3.000000,100.000000,1,0,0.000000,-0.000062,0,0.000000,0.000000,0.000000,-1.690414,4.575012,0.000000,0.001000,0.000000,0.005000
08:19:04.681 PM 02/09/2016,Teleop Enabled,0,TRUE,-44087,NetComm_CAN_Receive.vi:5470007<APPEND>  <b>Complete call chain:</b>      NetComm_CAN_Receive.vi:5470007      WPI_CANTalonSRX_Receive.vi      WPI_CANTalonSRX_GetStatus.vi      ShooterVI.vi      Periodic Tasks.vi      Robot Main.vi,0.000000,0.000000,4000.000000,4000.000000,Speed,Speed,-0.030000,1.310000,2.990000,3.000000,101.000000,1,0,0.000000,-0.000062,0,0.000000,0.000000,0.000000,-1.690414,4.575012,0.000000,0.000000,0.000000,-0.002000
08:19:04.782 PM 02/09/2016,Teleop Enabled,0,TRUE,-44087,NetComm_CAN_Receive.vi:5470007<APPEND>  <b>Complete call chain:</b>      NetComm_CAN_Receive.vi:5470007      WPI_CANTalonSRX_Receive.vi      WPI_CANTalonSRX_GetStatus.vi      ShooterVI.vi      Periodic Tasks.vi      Robot Main.vi,0.000000,0.000000,4000.000000,4000.000000,Speed,Speed,-0.040000,1.310000,2.990000,3.000000,102.000000,1,0,0.000000,-0.000062,0,0.000000,0.000000,0.000000,-1.690414,4.575012,0.000000,0.000000,0.002000,0.004000
08:19:04.881 PM 02/09/2016,Teleop Enabled,0,TRUE,-44087,NetComm_CAN_Receive.vi:5470007<APPEND>  <b>Complete call chain:</b>      NetComm_CAN_Receive.vi:5470007      WPI_CANTalonSRX_Receive.vi      WPI_CANTalonSRX_GetStatus.vi      ShooterVI.vi      Periodic Tasks.vi      Robot Main.vi,0.000000,0.000000,4000.000000,4000.000000,Speed,Speed,-0.040000,1.310000,2.990000,3.000000,101.000000,1,0,0.000000,-0.000062,0,0.000000,0.000000,0.000000,-1.690414,4.575012,0.000000,0.000000,-0.001000,0.003000
08:19:04.982 PM 02/09/2016,Teleop Enabled,0,TRUE,-44087,NetComm_CAN_Receive.vi:5470007<APPEND>  <b>Complete call chain:</b>      NetComm_CAN_Receive.vi:5470007      WPI_CANTalonSRX_Receive.vi      WPI_CANTalonSRX_GetStatus.vi      ShooterVI.vi      Periodic Tasks.vi      Robot Main.vi,0.000000,0.000000,4000.000000,4000.000000,Speed,Speed,-0.030000,1.310000,2.990000,3.000000,102.000000,1,0,0.000000,-0.000062,0,0.000000,0.000000,0.000000,-1.690414,4.575012,0.000000,-0.001000,-0.001000,0.002000
08:19:05.082 PM 02/09/2016,Teleop Enabled,0,TRUE,-44087,NetComm_CAN_Receive.vi:5470007<APPEND>  <b>Complete call chain:</b>      NetComm_CAN_Receive.vi:5470007      WPI_CANTalonSRX_Receive.vi      WPI_CANTalonSRX_GetStatus.vi      ShooterVI.vi      Periodic Tasks.vi      Robot Main.vi,0.000000,0.000000,4000.000000,4000.000000,Speed,Speed,-0.030000,1.310000,2.990000,3.000000,102.000000,1,0,0.000000,-0.000062,0,0.000000,0.000000,0.000000,-1.690414,4.575012,0.000000,0.000000,0.000000,0.004000
08:19:05.183 PM 02/09/2016,Teleop Enabled,0,TRUE,-44087,NetComm_CAN_Receive.vi:5470007<APPEND>  <b>Complete call chain:</b>      NetComm_CAN_Receive.vi:5470007      WPI_CANTalonSRX_Receive.vi      WPI_CANTalonSRX_GetStatus.vi      ShooterVI.vi      Periodic Tasks.vi      Robot Main.vi,0.000000,0.000000,4000.000000,4000.000000,Speed,Speed,-0.040000,1.310000,2.990000,3.000000,102.000000,1,0,0.000000,-0.000062,0,0.000000,0.000000,0.000000,-1.690414,4.575012,0.000000,0.000000,-0.001000,0.004000
08:19:05.282 PM 02/09/2016,Teleop Enabled,0,TRUE,-44087,NetComm_CAN_Receive.vi:5470007<APPEND>  <b>Complete call chain:</b>      NetComm_CAN_Receive.vi:5470007      WPI_CANTalonSRX_Receive.vi      WPI_CANTalonSRX_GetStatus.vi      ShooterVI.vi      Periodic Tasks.vi      Robot Main.vi,0.000000,0.000000,4000.000000,4000.000000,Speed,Speed,-0.040000,1.310000,2.990000,3.000000,101.000000,1,0,0.000000,-0.000062,0,0.000000,0.000000,0.000000,-1.690414,4.575012,0.000000,0.002000,0.000000,0.003000
08:19:05.383 PM 02/09/2016,Teleop Enabled,0,TRUE,-44087,NetComm_CAN_Receive.vi:5470007<APPEND>  <b>Complete call chain:</b>      NetComm_CAN_Receive.vi:5470007      WPI_CANTalonSRX_Receive.vi      WPI_CANTalonSRX_GetStatus.vi      ShooterVI.vi      Periodic Tasks.vi      Robot Main.vi,0.000000,0.000000,4000.000000,4000.000000,Speed,Speed,-0.050000,1.310000,2.990000,3.000000,101.000000,1,0,0.000000,-0.000062,0,0.000000,0.000000,0.000000,-1.690414,4.575012,0.000000,0.001000,-0.001000,0.005000
08:19:05.482 PM 02/09/2016,Teleop Enabled,0,TRUE,-44087,NetComm_CAN_Receive.vi:5470007<APPEND>  <b>Complete call chain:</b>      NetComm_CAN_Receive.vi:5470007      WPI_CANTalonSRX_Receive.vi      WPI_CANTalonSRX_GetStatus.vi      ShooterVI.vi      Periodic Tasks.vi      Robot Main.vi,0.000000,0.000000,4000.000000,4000.000000,Speed,Speed,-0.040000,1.310000,2.990000,3.000000,103.000000,1,0,0.000000,-0.000062,0,0.000000,0.000000,0.000000,-1.690414,4.575012,0.000000,0.000000,-0.001000,0.003000
08:19:05.582 PM 02/09/2016,Teleop Enabled,0,TRUE,-44087,NetComm_CAN_Receive.vi:5470007<APPEND>  <b>Complete call chain:</b>      NetComm_CAN_Receive.vi:5470007      WPI_CANTalonSRX_Receive.vi      WPI_CANTalonSRX_GetStatus.vi      ShooterVI.vi      Periodic Tasks.vi      Robot Main.vi,0.000000,0.000000,4000.000000,4000.000000,Speed,Speed,-0.040000,1.310000,2.990000,3.000000,102.000000,1,0,0.000000,-0.000062,0,0.000000,0.000000,0.000000,-1.690414,4.575012,0.000000,-0.002000,-0.002000,0.003000
08:19:05.682 PM 02/09/2016,Teleop Enabled,0,TRUE,-44087,NetComm_CAN_Receive.vi:5470007<APPEND>  <b>Complete call chain:</b>      NetComm_CAN_Receive.vi:5470007      WPI_CANTalonSRX_Receive.vi      WPI_CANTalonSRX_GetStatus.vi      ShooterVI.vi      Periodic Tasks.vi      Robot Main.vi,0.000000,0.000000,4000.000000,4000.000000,Speed,Speed,-0.040000,1.310000,2.990000,3.000000,103.000000,1,0,0.000000,-0.000062,0,0.000000,0.000000,0.000000,-1.690414,4.575012,0.000000,0.000000,0.000000,0.000000
08:19:05.783 PM 02/09/2016,Teleop Enabled,0,TRUE,-44087,NetComm_CAN_Receive.vi:5470007<APPEND>  <b>Complete call chain:</b>      NetComm_CAN_Receive.vi:5470007      WPI_CANTalonSRX_Receive.vi      WPI_CANTalonSRX_GetStatus.vi      ShooterVI.vi      Periodic Tasks.vi      Robot Main.vi,0.000000,0.000000,4000.000000,4000.000000,Speed,Speed,-0.040000,1.310000,2.990000,3.000000,100.000000,1,0,0.000000,-0.000062,0,0.000000,0.000000,0.000000,-1.690414,4.575012,0.000000,0.000000,0.000000,0.002000
08:19:05.882 PM 02/09/2016,Teleop Enabled,0,TRUE,-44087,NetComm_CAN_Receive.vi:5470007<APPEND>  <b>Complete call chain:</b>      NetComm_CAN_Receive.vi:5470007      WPI_CANTalonSRX_Receive.vi      WPI_CANTalonSRX_GetStatus.vi      ShooterVI.vi      Periodic Tasks.vi      Robot Main.vi,0.000000,0.000000,4000.000000,4000.000000,Speed,Speed,-0.040000,1.310000,2.990000,3.000000,103.000000,1,0,0.000000,-0.000062,0,0.000000,0.000000,0.000000,-1.690414,4.575012,0.000000,0.000000,-0.001000,0.000000
08:19:05.983 PM 02/09/2016,Teleop Enabled,0,TRUE,-44087,NetComm_CAN_Receive.vi:5470007<APPEND>  <b>Complete call chain:</b>      NetComm_CAN_Receive.vi:5470007      WPI_CANTalonSRX_Receive.vi      WPI_CANTalonSRX_GetStatus.vi      ShooterVI.vi      Periodic Tasks.vi      Robot Main.vi,0.000000,0.000000,4000.000000,4000.000000,Speed,Speed,-0.040000,1.310000,2.990000,3.000000,102.000000,1,0,0.000000,-0.000062,0,0.000000,0.000000,0.000000,-1.690414,4.575012,0.000000,0.000000,-0.001000,0.001000
08:19:06.083 PM 02/09/2016,Teleop Enabled,0,TRUE,-44087,NetComm_CAN_Receive.vi:5470007<APPEND>  <b>Complete call chain:</b>      NetComm_CAN_Receive.vi:5470007      WPI_CANTalonSRX_Receive.vi      WPI_CANTalonSRX_GetStatus.vi      ShooterVI.vi      Periodic Tasks.vi      Robot Main.vi,0.000000,0.000000,4000.000000,4000.000000,Speed,Speed,-0.040000,1.310000,2.990000,3.000000,103.000000,1,0,0.000000,-0.000062,0,0.000000,0.000000,0.000000,-1.690414,4.575012,0.000000,0.000000,0.001000,0.001000
08:19:06.185 PM 02/09/2016,Teleop Enabled,0,TRUE,-44087,NetComm_CAN_Receive.vi:5470007<APPEND>  <b>Complete call chain:</b>      NetComm_CAN_Receive.vi:5470007      WPI_CANTalonSRX_Receive.vi      WPI_CANTalonSRX_GetStatus.vi      ShooterVI.vi      Periodic Tasks.vi      Robot Main.vi,0.000000,0.000000,4000.000000,4000.000000,Speed,Speed,-0.040000,1.300000,2.990000,3.000000,102.000000,1,0,0.000000,-0.000062,0,0.000000,0.000000,0.000000,-1.690414,4.575012,0.000000,0.002000,0.000000,0.006000
08:19:06.287 PM 02/09/2016,Teleop Enabled,0,TRUE,-44087,NetComm_CAN_Receive.vi:5470007<APPEND>  <b>Complete call chain:</b>      NetComm_CAN_Receive.vi:5470007      WPI_CANTalonSRX_Receive.vi      WPI_CANTalonSRX_GetStatus.vi      ShooterVI.vi      Periodic Tasks.vi      Robot Main.vi,0.000000,0.000000,4000.000000,4000.000000,Speed,Speed,-0.040000,1.300000,2.990000,3.000000,103.000000,1,0,0.000000,-0.000062,0,0.000000,0.000000,0.000000,-1.690414,4.575012,0.000000,-0.001000,0.000000,0.002000
08:19:06.387 PM 02/09/2016,Teleop Enabled,0,TRUE,-44087,NetComm_CAN_Receive.vi:5470007<APPEND>  <b>Complete call chain:</b>      NetComm_CAN_Receive.vi:5470007      WPI_CANTalonSRX_Receive.vi      WPI_CANTalonSRX_GetStatus.vi      ShooterVI.vi      Periodic Tasks.vi      Robot Main.vi,0.000000,0.000000,4000.000000,4000.000000,Speed,Speed,-0.040000,1.300000,2.990000,3.000000,101.000000,1,0,0.000000,-0.000062,0,0.000000,0.000000,0.000000,-1.690414,4.575012,0.000000,0.001000,0.000000,0.002000
08:19:06.488 PM 02/09/2016,Teleop Enabled,0,TRUE,-44087,NetComm_CAN_Receive.vi:5470007<APPEND>  <b>Complete call chain:</b>      NetComm_CAN_Receive.vi:5470007      WPI_CANTalonSRX_Receive.vi      WPI_CANTalonSRX_GetStatus.vi      ShooterVI.vi      Periodic Tasks.vi      Robot Main.vi,0.000000,0.000000,4000.000000,4000.000000,Speed,Speed,-0.040000,1.300000,2.990000,3.000000,103.000000,1,0,0.000000,-0.000062,0,0.000000,0.000000,0.000000,-1.690414,4.575012,0.000000,0.002000,-0.003000,0.001000
08:19:06.589 PM 02/09/2016,Teleop Enabled,0,TRUE,-44087,NetComm_CAN_Receive.vi:5470007<APPEND>  <b>Complete call chain:</b>      NetComm_CAN_Receive.vi:5470007      WPI_CANTalonSRX_Receive.vi      WPI_CANTalonSRX_GetStatus.vi      ShooterVI.vi      Periodic Tasks.vi      Robot Main.vi,0.000000,0.000000,4000.000000,4000.000000,Speed,Speed,-0.040000,1.310000,2.980000,3.000000,100.000000,1,0,0.000000,-0.000062,0,0.000000,0.000000,0.000000,-1.690414,4.575012,0.000000,-0.002000,0.000000,0.002000
08:19:06.690 PM 02/09/2016,Teleop Enabled,0,TRUE,-44087,NetComm_CAN_Receive.vi:5470007<APPEND>  <b>Complete call chain:</b>      NetComm_CAN_Receive.vi:5470007      WPI_CANTalonSRX_Receive.vi      WPI_CANTalonSRX_GetStatus.vi      ShooterVI.vi      Periodic Tasks.vi      Robot Main.vi,0.000000,0.000000,4000.000000,4000.000000,Speed,Speed,-0.040000,1.310000,2.980000,3.000000,101.000000,1,0,0.000000,-0.000062,0,0.000000,0.000000,0.000000,-1.690414,4.575012,0.000000,-0.001000,0.000000,0.007000
08:19:06.790 PM 02/09/2016,Teleop Enabled,0,TRUE,-44087,NetComm_CAN_Receive.vi:5470007<APPEND>  <b>Complete call chain:</b>      NetComm_CAN_Receive.vi:5470007      WPI_CANTalonSRX_Receive.vi      WPI_CANTalonSRX_GetStatus.vi      ShooterVI.vi      Periodic Tasks.vi      Robot Main.vi,0.000000,0.000000,4000.000000,4000.000000,Speed,Speed,-0.040000,1.310000,2.980000,3.000000,102.000000,1,0,0.000000,-0.000062,0,0.000000,0.000000,0.000000,-1.690414,4.575012,0.000000,0.000000,-0.002000,0.001000
08:19:06.892 PM 02/09/2016,Teleop Enabled,0,TRUE,-44087,NetComm_CAN_Receive.vi:5470007<APPEND>  <b>Complete call chain:</b>      NetComm_CAN_Receive.vi:5470007      WPI_CANTalonSRX_Receive.vi      WPI_CANTalonSRX_GetStatus.vi      ShooterVI.vi      Periodic Tasks.vi      Robot Main.vi,0.000000,0.000000,4000.000000,4000.000000,Speed,Speed,-0.040000,1.300000,2.980000,3.000000,100.000000,1,0,0.000000,-0.000062,0,0.000000,0.000000,0.000000,-1.690414,4.575012,0.000000,0.000000,-0.004000,0.001000
08:19:06.992 PM 02/09/2016,Teleop Enabled,0,TRUE,-44087,NetComm_CAN_Receive.vi:5470007<APPEND>  <b>Complete call chain:</b>      NetComm_CAN_Receive.vi:5470007      WPI_CANTalonSRX_Receive.vi      WPI_CANTalonSRX_GetStatus.vi      ShooterVI.vi      Periodic Tasks.vi      Robot Main.vi,0.000000,0.000000,4000.000000,4000.000000,Speed,Speed,-0.040000,1.310000,2.980000,3.000000,101.000000,1,0,0.000000,-0.000062,0,0.000000,0.000000,0.000000,-1.690414,4.575012,0.000000,-0.003000,0.002000,0.002000
08:19:07.094 PM 02/09/2016,Teleop Enabled,0,TRUE,-44087,NetComm_CAN_Receive.vi:5470007<APPEND>  <b>Complete call chain:</b>      NetComm_CAN_Receive.vi:5470007      WPI_CANTalonSRX_Receive.vi      WPI_CANTalonSRX_GetStatus.vi      ShooterVI.vi      Periodic Tasks.vi      Robot Main.vi,0.000000,0.000000,4000.000000,4000.000000,Speed,Speed,-0.040000,1.310000,2.980000,3.000000,102.000000,1,0,0.000000,-0.000062,0,0.000000,0.000000,0.000000,-1.690414,4.575012,0.000000,0.002000,0.000000,0.003000
08:19:07.193 PM 02/09/2016,Teleop Enabled,0,TRUE,-44087,NetComm_CAN_Receive.vi:5470007<APPEND>  <b>Complete call chain:</b>      NetComm_CAN_Receive.vi:5470007      WPI_CANTalonSRX_Receive.vi      WPI_CANTalonSRX_GetStatus.vi      ShooterVI.vi      Periodic Tasks.vi      Robot Main.vi,0.000000,0.000000,4000.000000,4000.000000,Speed,Speed,-0.050000,1.310000,2.980000,3.000000,100.000000,1,0,0.000000,-0.000062,0,0.000000,0.000000,0.000000,-1.690414,4.575012,0.000000,0.000000,-0.002000,0.005000
08:19:07.293 PM 02/09/2016,Teleop Enabled,0,TRUE,-44087,NetComm_CAN_Receive.vi:5470007<APPEND>  <b>Complete call chain:</b>      NetComm_CAN_Receive.vi:5470007      WPI_CANTalonSRX_Receive.vi      WPI_CANTalonSRX_GetStatus.vi      ShooterVI.vi      Periodic Tasks.vi      Robot Main.vi,0.000000,0.000000,4000.000000,4000.000000,Speed,Speed,-0.040000,1.310000,2.980000,3.000000,103.000000,1,0,0.000000,-0.000062,0,0.000000,0.000000,0.000000,-1.690414,4.575012,0.000000,0.000000,0.002000,-0.001000
08:19:07.394 PM 02/09/2016,Autonomous Disabled,0,TRUE,-44087,NetComm_CAN_Receive.vi:5470007<APPEND>  <b>Complete call chain:</b>      NetComm_CAN_Receive.vi:5470007      WPI_CANTalonSRX_Receive.vi      WPI_CANTalonSRX_GetStatus.vi      ShooterVI.vi      Periodic Tasks.vi      Robot Main.vi,0.000000,0.000000,4000.000000,4000.000000,Speed,Speed,-0.050000,1.310000,2.980000,3.000000,103.000000,1,0,0.000000,-0.000062,0,0.000000,0.000000,0.000000,-1.690414,4.575012,0.000000,0.000000,-0.001000,0.005000
08:19:07.494 PM 02/09/2016,Autonomous Disabled,0,TRUE,-44087,NetComm_CAN_Receive.vi:5470007<APPEND>  <b>Complete call chain:</b>      NetComm_CAN_Receive.vi:5470007      WPI_CANTalonSRX_Receive.vi      WPI_CANTalonSRX_GetStatus.vi      ShooterVI.vi      Periodic Tasks.vi      Robot Main.vi,0.000000,0.000000,4000.000000,4000.000000,Speed,Speed,-0.040000,1.310000,2.990000,3.000000,100.000000,1,0,0.000000,-0.000062,0,0.000000,0.000000,0.000000,-1.690414,4.575012,0.000000,0.000000,0.002000,0.000000
08:19:07.594 PM 02/09/2016,Autonomous Disabled,0,TRUE,-44087,NetComm_CAN_Receive.vi:5470007<APPEND>  <b>Complete call chain:</b>      NetComm_CAN_Receive.vi:5470007      WPI_CANTalonSRX_Receive.vi      WPI_CANTalonSRX_GetStatus.vi      ShooterVI.vi      Periodic Tasks.vi      Robot Main.vi,0.000000,0.000000,4000.000000,4000.000000,Speed,Speed,-0.040000,1.310000,2.990000,3.000000,102.000000,1,0,0.000000,-0.000062,0,0.000000,0.000000,0.000000,-1.690414,4.575012,0.000000,0.000000,-0.002000,0.003000
08:19:07.695 PM 02/09/2016,Autonomous Disabled,0,TRUE,-44087,NetComm_CAN_Receive.vi:5470007<APPEND>  <b>Complete call chain:</b>      NetComm_CAN_Receive.vi:5470007      WPI_CANTalonSRX_Receive.vi      WPI_CANTalonSRX_GetStatus.vi      ShooterVI.vi      Periodic Tasks.vi      Robot Main.vi,0.000000,0.000000,4000.000000,4000.000000,Speed,Speed,-0.040000,1.310000,2.990000,3.000000,103.000000,1,0,0.000000,-0.000062,0,0.000000,0.000000,0.000000,-1.690414,4.575012,0.000000,0.000000,-0.001000,0.002000
08:19:07.797 PM 02/09/2016,Autonomous Disabled,0,TRUE,-44087,NetComm_CAN_Receive.vi:5470007<APPEND>  <b>Complete call chain:</b>      NetComm_CAN_Receive.vi:5470007      WPI_CANTalonSRX_Receive.vi      WPI_CANTalonSRX_GetStatus.vi      ShooterVI.vi      Periodic Tasks.vi      Robot Main.vi,0.000000,0.000000,4000.000000,4000.000000,Speed,Speed,-0.050000,1.300000,2.990000,3.000000,105.000000,1,0,0.000000,-0.000062,0,0.000000,0.000000,0.000000,-1.690414,4.575012,0.000000,0.000000,0.000000,0.001000
08:19:07.898 PM 02/09/2016,Autonomous Disabled,0,TRUE,-44087,NetComm_CAN_Receive.vi:5470007<APPEND>  <b>Complete call chain:</b>      NetComm_CAN_Receive.vi:5470007      WPI_CANTalonSRX_Receive.vi      WPI_CANTalonSRX_GetStatus.vi      ShooterVI.vi      Periodic Tasks.vi      Robot Main.vi,0.000000,0.000000,4000.000000,4000.000000,Speed,Speed,-0.050000,1.300000,2.990000,3.000000,101.000000,1,0,0.000000,-0.000062,0,0.000000,0.000000,0.000000,-1.690414,4.575012,0.000000,-0.001000,0.002000,0.000000
