Time,RobotMode,AutoToRun,ErrorStatus, ErrorCode,ErrorSource,ActualRPM1,ActualRPM2,DesiredRPM1,DesiredRPM2,ControlMode1,ControlMode2,NavXYaw,NavXRoll,NavXPitch,ShooterState,LoopTime,IsLevel,IsAutoTargeting,LeftMotorOutput,RightMotorOutput,IsHaloDrive,NavXVelocityX,NavXVelocityY,NavXVelocityZ,NavXDisplacementX,NavXDisplacementY,NavXDisplacementZ,NavXAccelerationX,NavXAccelerationY,NavXAccelerationZ
08:31:09.274 PM 02/09/2016,Autonomous Enabled,0,TRUE,-44087,NetComm_CAN_Receive.vi:5470007<APPEND>  <b>Complete call chain:</b>      NetComm_CAN_Receive.vi:5470007      WPI_CANTalonSRX_Receive.vi      WPI_MotorControlOpenCANTalonSRX.vi      Begin.vi      Robot Main.vi,0.000000,0.000000,0.000000,0.000000,Speed,Speed,-5.900000,1.190000,3.090000,0.000000,3005186.000000,1,0,0.000000,0.000000,0,0.000000,0.000000,0.000000,0.000000,0.000000,0.000000,0.000000,0.000000,0.000000
08:31:09.374 PM 02/09/2016,Autonomous Enabled,0,TRUE,-44087,NetComm_CAN_Receive.vi:5470007<APPEND>  <b>Complete call chain:</b>      NetComm_CAN_Receive.vi:5470007      WPI_CANTalonSRX_Receive.vi      WPI_MotorControlOpenCANTalonSRX.vi      Begin.vi      Robot Main.vi,0.000000,0.000000,0.000000,0.000000,Speed,Speed,-0.130000,1.140000,7.590000,0.000000,103.000000,0,0,0.000000,0.000000,0,-0.060593,0.566833,0.000000,1.696625,4.258911,0.000000,-0.998000,-0.231000,-0.538000
08:31:09.475 PM 02/09/2016,Autonomous Enabled,0,TRUE,-44087,NetComm_CAN_Receive.vi:5470007<APPEND>  <b>Complete call chain:</b>      NetComm_CAN_Receive.vi:5470007      WPI_CANTalonSRX_Receive.vi      WPI_MotorControlOpenCANTalonSRX.vi      Begin.vi      Robot Main.vi,0.000000,0.000000,0.000000,0.000000,Speed,Speed,0.840000,0.540000,8.330000,0.000000,101.000000,0,0,0.000000,0.000000,0,-0.397598,1.274704,0.000000,1.680984,4.305405,0.000000,-0.371000,0.736000,0.946000
08:31:09.575 PM 02/09/2016,Autonomous Enabled,0,TRUE,-44087,NetComm_CAN_Receive.vi:5470007<APPEND>  <b>Complete call chain:</b>      NetComm_CAN_Receive.vi:5470007      WPI_CANTalonSRX_Receive.vi      WPI_MotorControlOpenCANTalonSRX.vi      Begin.vi      Robot Main.vi,0.000000,0.000000,0.000000,0.000000,Speed,Speed,0.410000,0.940000,9.880000,0.000000,101.000000,0,0,0.000000,0.000000,0,-0.470230,1.491577,0.000000,1.658905,4.378510,0.000000,0.033000,-0.071000,0.708000
08:31:09.676 PM 02/09/2016,Autonomous Enabled,0,TRUE,-44087,NetComm_CAN_Receive.vi:5470007<APPEND>  <b>Complete call chain:</b>      NetComm_CAN_Receive.vi:5470007      WPI_CANTalonSRX_Receive.vi      WPI_MotorControlOpenCANTalonSRX.vi      Begin.vi      Robot Main.vi,0.000000,0.000000,0.000000,0.000000,Speed,Speed,-0.620000,0.920000,9.450000,0.000000,103.000000,0,0,0.000000,0.000000,0,0.000000,1.509079,0.000000,1.644302,4.454117,0.000000,-0.043000,-0.135000,0.267000
08:31:09.776 PM 02/09/2016,Autonomous Enabled,0,TRUE,-44087,NetComm_CAN_Receive.vi:5470007<APPEND>  <b>Complete call chain:</b>      NetComm_CAN_Receive.vi:5470007      WPI_CANTalonSRX_Receive.vi      WPI_MotorControlOpenCANTalonSRX.vi      Begin.vi      Robot Main.vi,0.000000,0.000000,0.000000,0.000000,Speed,Speed,-1.480000,0.870000,9.250000,0.000000,101.000000,0,0,0.000000,0.000000,0,-0.017853,1.447433,0.000000,1.643616,4.527420,0.000000,-0.037000,-0.066000,0.222000
08:31:09.877 PM 02/09/2016,Autonomous Enabled,0,TRUE,-44087,NetComm_CAN_Receive.vi:5470007<APPEND>  <b>Complete call chain:</b>      NetComm_CAN_Receive.vi:5470007      WPI_CANTalonSRX_Receive.vi      WPI_MotorControlOpenCANTalonSRX.vi      Begin.vi      Robot Main.vi,0.000000,0.000000,0.000000,0.000000,Speed,Speed,-2.310000,0.780000,9.020000,0.000000,104.000000,0,0,0.000000,0.000000,0,-0.057816,-0.029587,0.000000,1.641724,4.555466,0.000000,-0.011000,-0.134000,0.073000
08:31:09.980 PM 02/09/2016,Autonomous Enabled,0,TRUE,-44087,NetComm_CAN_Receive.vi:5470007<APPEND>  <b>Complete call chain:</b>      NetComm_CAN_Receive.vi:5470007      WPI_CANTalonSRX_Receive.vi      WPI_MotorControlOpenCANTalonSRX.vi      Begin.vi      Robot Main.vi,0.000000,0.000000,0.000000,0.000000,Speed,Speed,-3.060000,0.730000,8.980000,0.000000,103.000000,0,0,0.000000,0.000000,0,-0.006592,-0.129837,0.000000,1.641037,4.550903,0.000000,-0.052000,-0.076000,-0.078000
08:31:10.081 PM 02/09/2016,Autonomous Enabled,0,TRUE,-44087,NetComm_CAN_Receive.vi:5470007<APPEND>  <b>Complete call chain:</b>      NetComm_CAN_Receive.vi:5470007      WPI_CANTalonSRX_Receive.vi      WPI_MotorControlOpenCANTalonSRX.vi      Begin.vi      Robot Main.vi,0.000000,0.000000,0.000000,0.000000,Speed,Speed,-3.820000,0.770000,7.720000,0.000000,101.000000,0,0,0.000000,0.000000,0,0.001846,-0.186539,0.000000,1.640244,4.542496,0.000000,0.053000,-0.080000,-0.023000
08:31:10.182 PM 02/09/2016,Autonomous Enabled,0,TRUE,-44087,NetComm_CAN_Receive.vi:5470007<APPEND>  <b>Complete call chain:</b>      NetComm_CAN_Receive.vi:5470007      WPI_CANTalonSRX_Receive.vi      WPI_MotorControlOpenCANTalonSRX.vi      Begin.vi      Robot Main.vi,0.000000,0.000000,0.000000,0.000000,Speed,Speed,-4.930000,0.620000,7.270000,0.000000,101.000000,0,0,0.000000,0.000000,0,-0.023514,-0.279327,0.000000,1.639954,4.530212,0.000000,-0.009000,-0.096000,-0.084000
08:31:10.282 PM 02/09/2016,Autonomous Enabled,0,TRUE,-44087,NetComm_CAN_Receive.vi:5470007<APPEND>  <b>Complete call chain:</b>      NetComm_CAN_Receive.vi:5470007      WPI_CANTalonSRX_Receive.vi      WPI_MotorControlOpenCANTalonSRX.vi      Begin.vi      Robot Main.vi,0.000000,0.000000,0.000000,0.000000,Speed,Speed,-5.110000,0.950000,9.540000,0.000000,102.000000,0,0,0.000000,0.000000,0,-0.057236,-0.396606,0.000000,1.637894,4.513275,0.000000,0.234000,-0.150000,-0.137000
08:31:10.382 PM 02/09/2016,Autonomous Enabled,0,TRUE,-44087,NetComm_CAN_Receive.vi:5470007<APPEND>  <b>Complete call chain:</b>      NetComm_CAN_Receive.vi:5470007      WPI_CANTalonSRX_Receive.vi      WPI_MotorControlOpenCANTalonSRX.vi      Begin.vi      Robot Main.vi,0.000000,0.000000,0.000000,0.000000,Speed,Speed,-4.370000,0.870000,14.490000,0.000000,102.000000,0,0,0.000000,0.000000,0,-0.037155,-0.633026,0.000000,1.637405,4.482544,0.000000,-0.076000,-0.654000,0.269000
08:31:10.483 PM 02/09/2016,Autonomous Enabled,0,TRUE,-44087,NetComm_CAN_Receive.vi:5470007<APPEND>  <b>Complete call chain:</b>      NetComm_CAN_Receive.vi:5470007      WPI_CANTalonSRX_Receive.vi      WPI_MotorControlOpenCANTalonSRX.vi      Begin.vi      Robot Main.vi,0.000000,0.000000,0.000000,0.000000,Speed,Speed,-1.490000,0.350000,23.740000,0.000000,101.000000,0,0,0.000000,0.000000,0,0.114609,-0.990143,0.000000,1.638382,4.446274,0.000000,-0.119000,0.231000,-1.204000
08:31:10.583 PM 02/09/2016,Autonomous Enabled,0,TRUE,-44087,NetComm_CAN_Receive.vi:5470007<APPEND>  <b>Complete call chain:</b>      NetComm_CAN_Receive.vi:5470007      WPI_CANTalonSRX_Receive.vi      WPI_MotorControlOpenCANTalonSRX.vi      Begin.vi      Robot Main.vi,0.000000,0.000000,0.000000,0.000000,Speed,Speed,-0.120000,1.270000,25.170000,0.000000,101.000000,0,0,0.000000,0.000000,0,0.295242,-0.968277,0.000000,1.651657,4.387085,0.000000,0.214000,0.426000,-0.210000
08:31:10.684 PM 02/09/2016,Autonomous Enabled,0,TRUE,-44087,NetComm_CAN_Receive.vi:5470007<APPEND>  <b>Complete call chain:</b>      NetComm_CAN_Receive.vi:5470007      WPI_CANTalonSRX_Receive.vi      WPI_MotorControlOpenCANTalonSRX.vi      Begin.vi      Robot Main.vi,0.000000,0.000000,0.000000,0.000000,Speed,Speed,1.190000,0.540000,20.580000,0.000000,101.000000,0,0,0.000000,0.000000,0,0.368484,-0.977951,0.000000,1.668976,4.338943,0.000000,0.200000,0.118000,-1.387000
08:31:10.784 PM 02/09/2016,Autonomous Enabled,0,TRUE,-44087,NetComm_CAN_Receive.vi:5470007<APPEND>  <b>Complete call chain:</b>      NetComm_CAN_Receive.vi:5470007      WPI_CANTalonSRX_Receive.vi      WPI_MotorControlOpenCANTalonSRX.vi      Begin.vi      Robot Main.vi,0.000000,0.000000,0.000000,0.000000,Speed,Speed,1.030000,2.950000,32.270000,0.000000,102.000000,0,0,0.000000,0.000000,0,0.373154,-0.953491,0.000000,1.687500,4.291000,0.000000,-0.037000,0.152000,-1.039000
08:31:10.885 PM 02/09/2016,Autonomous Enabled,0,TRUE,-44087,NetComm_CAN_Receive.vi:5470007<APPEND>  <b>Complete call chain:</b>      NetComm_CAN_Receive.vi:5470007      WPI_CANTalonSRX_Receive.vi      WPI_MotorControlOpenCANTalonSRX.vi      Begin.vi      Robot Main.vi,0.000000,0.000000,0.000000,0.000000,Speed,Speed,0.580000,-0.490000,27.960000,0.000000,102.000000,0,0,0.000000,0.000000,0,0.967957,-1.813385,0.000000,1.714661,4.222443,0.000000,0.274000,-0.748000,-0.585000
08:31:10.986 PM 02/09/2016,Autonomous Enabled,0,TRUE,-44087,NetComm_CAN_Receive.vi:5470007<APPEND>  <b>Complete call chain:</b>      NetComm_CAN_Receive.vi:5470007      WPI_CANTalonSRX_Receive.vi      WPI_MotorControlOpenCANTalonSRX.vi      Begin.vi      Robot Main.vi,0.000000,0.000000,0.000000,0.000000,Speed,Speed,1.070000,1.800000,9.200000,0.000000,104.000000,0,0,0.000000,0.000000,0,1.294159,-1.647675,0.000000,1.776047,4.138214,0.000000,-0.108000,-0.070000,-0.532000
08:31:11.086 PM 02/09/2016,Autonomous Enabled,0,TRUE,-44087,NetComm_CAN_Receive.vi:5470007<APPEND>  <b>Complete call chain:</b>      NetComm_CAN_Receive.vi:5470007      WPI_CANTalonSRX_Receive.vi      WPI_MotorControlOpenCANTalonSRX.vi      Begin.vi      Robot Main.vi,0.000000,0.000000,0.000000,0.000000,Speed,Speed,0.360000,0.620000,10.390000,0.000000,105.000000,0,0,0.000000,0.000000,0,1.512329,-1.996338,0.000000,1.842743,4.054169,0.000000,1.995000,-1.506000,-2.021000
08:31:11.189 PM 02/09/2016,Autonomous Enabled,0,TRUE,-44087,NetComm_CAN_Receive.vi:5470007<APPEND>  <b>Complete call chain:</b>      NetComm_CAN_Receive.vi:5470007      WPI_CANTalonSRX_Receive.vi      WPI_MotorControlOpenCANTalonSRX.vi      Begin.vi      Robot Main.vi,0.000000,0.000000,0.000000,0.000000,Speed,Speed,1.510000,2.240000,12.580000,0.000000,101.000000,0,0,0.000000,0.000000,0,1.841461,-2.370697,0.000000,1.938339,3.935974,0.000000,-0.320000,-0.140000,-0.325000
08:31:11.288 PM 02/09/2016,Autonomous Enabled,0,TRUE,-44087,NetComm_CAN_Receive.vi:5470007<APPEND>  <b>Complete call chain:</b>      NetComm_CAN_Receive.vi:5470007      WPI_CANTalonSRX_Receive.vi      WPI_MotorControlOpenCANTalonSRX.vi      Begin.vi      Robot Main.vi,0.000000,0.000000,0.000000,0.000000,Speed,Speed,2.500000,2.250000,15.300000,0.000000,113.000000,0,0,0.000000,0.000000,0,1.680740,-2.082199,0.000000,2.027054,3.820023,0.000000,1.745000,1.338000,1.148000
08:31:11.388 PM 02/09/2016,Autonomous Enabled,0,TRUE,-44087,NetComm_CAN_Receive.vi:5470007<APPEND>  <b>Complete call chain:</b>      NetComm_CAN_Receive.vi:5470007      WPI_CANTalonSRX_Receive.vi      WPI_MotorControlOpenCANTalonSRX.vi      Begin.vi      Robot Main.vi,0.000000,0.000000,0.000000,0.000000,Speed,Speed,-3.320000,3.250000,14.110000,0.000000,101.000000,0,0,0.000000,0.000000,0,1.821152,-1.508652,0.000000,2.116364,3.743652,0.000000,-0.394000,-0.653000,-0.729000
08:31:11.489 PM 02/09/2016,Autonomous Enabled,0,TRUE,-44087,NetComm_CAN_Receive.vi:5470007<APPEND>  <b>Complete call chain:</b>      NetComm_CAN_Receive.vi:5470007      WPI_CANTalonSRX_Receive.vi      WPI_MotorControlOpenCANTalonSRX.vi      Begin.vi      Robot Main.vi,0.000000,0.000000,0.000000,0.000000,Speed,Speed,-6.750000,5.840000,6.520000,0.000000,102.000000,0,0,0.000000,0.000000,0,1.218597,-1.330582,0.000000,2.191772,3.668076,0.000000,-0.006000,0.373000,-0.011000
08:31:11.590 PM 02/09/2016,Autonomous Enabled,0,TRUE,-44087,NetComm_CAN_Receive.vi:5470007<APPEND>  <b>Complete call chain:</b>      NetComm_CAN_Receive.vi:5470007      WPI_CANTalonSRX_Receive.vi      WPI_MotorControlOpenCANTalonSRX.vi      Begin.vi      Robot Main.vi,0.000000,0.000000,0.000000,0.000000,Speed,Speed,-8.570000,8.550000,12.120000,0.000000,101.000000,0,0,0.000000,0.000000,0,0.731445,-1.334930,0.000000,2.233414,3.608109,0.000000,0.696000,-0.530000,0.324000
08:31:11.690 PM 02/09/2016,Autonomous Enabled,0,TRUE,-44087,NetComm_CAN_Receive.vi:5470007<APPEND>  <b>Complete call chain:</b>      NetComm_CAN_Receive.vi:5470007      WPI_CANTalonSRX_Receive.vi      WPI_CANTalonSRX_GetStatus.vi      ShooterVI.vi      Periodic Tasks.vi      Robot Main.vi,0.000000,0.000000,0.000000,0.000000,Speed,Speed,-12.960000,5.580000,8.190000,0.000000,101.000000,0,0,0.000000,0.000000,0,0.949402,-1.258881,0.000000,2.274155,3.543381,0.000000,-0.464000,0.043000,-1.279000
08:31:11.791 PM 02/09/2016,Autonomous Enabled,0,TRUE,-44087,NetComm_CAN_Receive.vi:5470007<APPEND>  <b>Complete call chain:</b>      NetComm_CAN_Receive.vi:5470007      WPI_CANTalonSRX_Receive.vi      WPI_CANTalonSRX_GetStatus.vi      ShooterVI.vi      Periodic Tasks.vi      Robot Main.vi,0.000000,0.000000,0.000000,0.000000,Speed,Speed,-19.770000,1.370000,3.840000,0.000000,102.000000,1,0,0.000000,0.000000,0,0.379745,-1.697449,0.000000,2.307907,3.471786,0.000000,-0.497000,-0.185000,-0.531000
08:31:11.892 PM 02/09/2016,Autonomous Enabled,0,TRUE,-44087,NetComm_CAN_Receive.vi:5470007<APPEND>  <b>Complete call chain:</b>      NetComm_CAN_Receive.vi:5470007      WPI_CANTalonSRX_Receive.vi      WPI_CANTalonSRX_GetStatus.vi      ShooterVI.vi      Periodic Tasks.vi      Robot Main.vi,0.000000,0.000000,0.000000,0.000000,Speed,Speed,-23.690000,4.860000,3.340000,0.000000,103.000000,1,0,0.000000,0.000000,0,0.451706,-1.239822,0.000000,2.329025,3.403412,0.000000,-1.566000,-1.855000,0.708000
08:31:11.993 PM 02/09/2016,Autonomous Enabled,0,TRUE,-44087,NetComm_CAN_Receive.vi:5470007<APPEND>  <b>Complete call chain:</b>      NetComm_CAN_Receive.vi:5470007      WPI_CANTalonSRX_Receive.vi      WPI_CANTalonSRX_GetStatus.vi      ShooterVI.vi      Periodic Tasks.vi      Robot Main.vi,0.000000,0.000000,0.000000,0.000000,Speed,Speed,-26.270000,4.870000,7.180000,0.000000,103.000000,0,0,0.000000,0.000000,0,0.048035,-1.804260,0.000000,2.332184,3.324387,0.000000,-0.175000,0.368000,-1.028000
08:31:12.094 PM 02/09/2016,Autonomous Enabled,0,TRUE,-44087,NetComm_CAN_Receive.vi:5470007<APPEND>  <b>Complete call chain:</b>      NetComm_CAN_Receive.vi:5470007      WPI_CANTalonSRX_Receive.vi      WPI_CANTalonSRX_GetStatus.vi      ShooterVI.vi      Periodic Tasks.vi      Robot Main.vi,0.000000,0.000000,0.000000,0.000000,Speed,Speed,-28.160000,4.880000,3.250000,0.000000,101.000000,1,0,0.000000,0.000000,0,-0.087570,-1.205368,0.000000,2.333679,3.228378,0.000000,-0.603000,0.439000,-0.142000
08:31:12.192 PM 02/09/2016,Autonomous Enabled,0,TRUE,-44087,NetComm_CAN_Receive.vi:5470007<APPEND>  <b>Complete call chain:</b>      NetComm_CAN_Receive.vi:5470007      WPI_CANTalonSRX_Receive.vi      WPI_CANTalonSRX_GetStatus.vi      ShooterVI.vi      Periodic Tasks.vi      Robot Main.vi,0.000000,0.000000,0.000000,0.000000,Speed,Speed,-22.840000,3.440000,7.990000,0.000000,101.000000,0,0,0.000000,0.000000,0,-0.247665,-1.365234,0.000000,2.323013,3.178268,0.000000,0.117000,-0.553000,0.252000
08:31:12.293 PM 02/09/2016,Autonomous Enabled,0,TRUE,-44087,NetComm_CAN_Receive.vi:5470007<APPEND>  <b>Complete call chain:</b>      NetComm_CAN_Receive.vi:5470007      WPI_CANTalonSRX_Receive.vi      WPI_CANTalonSRX_GetStatus.vi      ShooterVI.vi      Periodic Tasks.vi      Robot Main.vi,0.000000,0.000000,0.000000,0.000000,Speed,Speed,-19.330000,-0.750000,4.030000,0.000000,101.000000,1,0,0.000000,0.000000,0,0.060684,-1.409225,0.000000,2.319717,3.090042,0.000000,0.359000,0.338000,-0.105000
08:31:12.393 PM 02/09/2016,Autonomous Enabled,0,TRUE,-44087,NetComm_CAN_Receive.vi:5470007<APPEND>  <b>Complete call chain:</b>      NetComm_CAN_Receive.vi:5470007      WPI_CANTalonSRX_Receive.vi      WPI_CANTalonSRX_GetStatus.vi      ShooterVI.vi      Periodic Tasks.vi      Robot Main.vi,0.000000,0.000000,0.000000,0.000000,Speed,Speed,-19.270000,0.710000,5.490000,0.000000,104.000000,1,0,0.000000,0.000000,0,0.067780,-1.345093,0.000000,2.322693,3.036987,0.000000,-0.004000,-0.331000,-0.237000
08:31:12.493 PM 02/09/2016,Autonomous Enabled,0,TRUE,-44087,NetComm_CAN_Receive.vi:5470007<APPEND>  <b>Complete call chain:</b>      NetComm_CAN_Receive.vi:5470007      WPI_CANTalonSRX_Receive.vi      WPI_CANTalonSRX_GetStatus.vi      ShooterVI.vi      Periodic Tasks.vi      Robot Main.vi,0.000000,0.000000,0.000000,0.000000,Speed,Speed,-20.590000,1.230000,3.110000,0.000000,108.000000,1,0,0.000000,0.000000,0,0.175568,-1.484314,0.000000,2.329300,2.964767,0.000000,0.250000,-0.023000,-0.055000
08:31:12.594 PM 02/09/2016,Autonomous Enabled,0,TRUE,-44087,NetComm_CAN_Receive.vi:5470007<APPEND>  <b>Complete call chain:</b>      NetComm_CAN_Receive.vi:5470007      WPI_CANTalonSRX_Receive.vi      WPI_CANTalonSRX_GetStatus.vi      ShooterVI.vi      Periodic Tasks.vi      Robot Main.vi,0.000000,0.000000,-6000.000000,-6000.000000,Speed,Speed,-22.900000,2.970000,2.450000,1.000000,102.000000,1,0,0.000000,0.000000,0,0.267303,-1.479538,0.000000,2.342529,2.888214,0.000000,-0.692000,0.868000,-0.239000
08:31:12.695 PM 02/09/2016,Autonomous Enabled,0,TRUE,-44087,NetComm_CAN_Receive.vi:5470007<APPEND>  <b>Complete call chain:</b>      NetComm_CAN_Receive.vi:5470007      WPI_CANTalonSRX_Receive.vi      WPI_CANTalonSRX_GetStatus.vi      ShooterVI.vi      Periodic Tasks.vi      Robot Main.vi,0.000000,0.000000,0.000000,0.000000,Speed,Speed,-22.520000,2.520000,3.600000,2.000000,102.000000,1,0,0.000000,0.000000,0,0.143585,-1.091461,0.000000,2.349686,2.819550,0.000000,0.033000,-0.241000,-0.209000
08:31:12.794 PM 02/09/2016,Autonomous Enabled,0,TRUE,-44087,NetComm_CAN_Receive.vi:5470007<APPEND>  <b>Complete call chain:</b>      NetComm_CAN_Receive.vi:5470007      WPI_CANTalonSRX_Receive.vi      WPI_CANTalonSRX_GetStatus.vi      ShooterVI.vi      Periodic Tasks.vi      Robot Main.vi,0.000000,0.000000,0.000000,0.000000,Speed,Speed,-22.520000,2.520000,3.600000,2.000000,101.000000,1,0,0.000000,0.000000,0,0.143585,-1.091461,0.000000,2.349686,2.819550,0.000000,0.033000,-0.241000,-0.209000
08:31:12.895 PM 02/09/2016,Autonomous Disabled,0,TRUE,-44087,NetComm_CAN_Receive.vi:5470007<APPEND>  <b>Complete call chain:</b>      NetComm_CAN_Receive.vi:5470007      WPI_CANTalonSRX_Receive.vi      WPI_CANTalonSRX_GetStatus.vi      ShooterVI.vi      Periodic Tasks.vi      Robot Main.vi,0.000000,0.000000,0.000000,0.000000,Speed,Speed,-23.300000,1.880000,2.410000,2.000000,101.000000,1,0,0.000000,0.000000,0,-0.031998,-1.156891,0.000000,2.360245,2.702087,0.000000,-0.056000,0.011000,0.188000
08:31:12.996 PM 02/09/2016,Autonomous Disabled,0,TRUE,-44087,NetComm_CAN_Receive.vi:5470007<APPEND>  <b>Complete call chain:</b>      NetComm_CAN_Receive.vi:5470007      WPI_CANTalonSRX_Receive.vi      WPI_CANTalonSRX_GetStatus.vi      ShooterVI.vi      Periodic Tasks.vi      Robot Main.vi,0.000000,0.000000,0.000000,0.000000,Speed,Speed,-21.610000,1.700000,3.060000,2.000000,100.000000,1,0,0.000000,0.000000,0,0.107025,-1.317917,0.000000,2.361130,2.627533,0.000000,0.167000,-0.098000,-0.447000
08:31:13.096 PM 02/09/2016,Autonomous Disabled,0,TRUE,-44087,NetComm_CAN_Receive.vi:5470007<APPEND>  <b>Complete call chain:</b>      NetComm_CAN_Receive.vi:5470007      WPI_CANTalonSRX_Receive.vi      WPI_CANTalonSRX_GetStatus.vi      ShooterVI.vi      Periodic Tasks.vi      Robot Main.vi,0.000000,0.000000,0.000000,0.000000,Speed,Speed,-22.610000,2.640000,1.190000,2.000000,102.000000,1,0,0.000000,0.000000,0,0.172226,-1.314606,0.000000,2.367599,2.560913,0.000000,-0.165000,-0.158000,0.151000
08:31:13.197 PM 02/09/2016,Autonomous Disabled,0,TRUE,-44087,NetComm_CAN_Receive.vi:5470007<APPEND>  <b>Complete call chain:</b>      NetComm_CAN_Receive.vi:5470007      WPI_CANTalonSRX_Receive.vi      WPI_CANTalonSRX_GetStatus.vi      ShooterVI.vi      Periodic Tasks.vi      Robot Main.vi,0.000000,0.000000,0.000000,0.000000,Speed,Speed,-23.260000,2.330000,1.450000,2.000000,101.000000,1,0,0.000000,0.000000,0,0.059143,-1.341003,0.000000,2.372131,2.493073,0.000000,-0.026000,0.112000,0.118000
08:31:13.296 PM 02/09/2016,Autonomous Disabled,0,TRUE,-44087,NetComm_CAN_Receive.vi:5470007<APPEND>  <b>Complete call chain:</b>      NetComm_CAN_Receive.vi:5470007      WPI_CANTalonSRX_Receive.vi      WPI_CANTalonSRX_GetStatus.vi      ShooterVI.vi      Periodic Tasks.vi      Robot Main.vi,0.000000,0.000000,0.000000,0.000000,Speed,Speed,-23.240000,2.110000,1.770000,2.000000,101.000000,1,0,0.000000,0.000000,0,0.001862,-1.302048,0.000000,2.373245,2.428146,0.000000,-0.089000,-0.062000,-0.038000
08:31:13.397 PM 02/09/2016,Autonomous Disabled,0,TRUE,-44087,NetComm_CAN_Receive.vi:5470007<APPEND>  <b>Complete call chain:</b>      NetComm_CAN_Receive.vi:5470007      WPI_CANTalonSRX_Receive.vi      WPI_CANTalonSRX_GetStatus.vi      ShooterVI.vi      Periodic Tasks.vi      Robot Main.vi,0.000000,0.000000,0.000000,0.000000,Speed,Speed,-23.320000,2.070000,1.700000,2.000000,101.000000,1,0,0.000000,0.000000,0,-0.003677,0.003510,0.000000,2.372955,2.402023,0.000000,-0.020000,0.033000,-0.004000
08:31:13.497 PM 02/09/2016,Autonomous Disabled,0,TRUE,-44087,NetComm_CAN_Receive.vi:5470007<APPEND>  <b>Complete call chain:</b>      NetComm_CAN_Receive.vi:5470007      WPI_CANTalonSRX_Receive.vi      WPI_CANTalonSRX_GetStatus.vi      ShooterVI.vi      Periodic Tasks.vi      Robot Main.vi,0.000000,0.000000,0.000000,0.000000,Speed,Speed,-23.310000,1.980000,1.600000,2.000000,103.000000,1,0,0.000000,0.000000,0,0.000000,-0.003265,0.000000,2.372742,2.402023,0.000000,-0.013000,-0.004000,0.027000
08:31:13.597 PM 02/09/2016,Autonomous Disabled,0,TRUE,-44087,NetComm_CAN_Receive.vi:5470007<APPEND>  <b>Complete call chain:</b>      NetComm_CAN_Receive.vi:5470007      WPI_CANTalonSRX_Receive.vi      WPI_CANTalonSRX_GetStatus.vi      ShooterVI.vi      Periodic Tasks.vi      Robot Main.vi,0.000000,0.000000,0.000000,0.000000,Speed,Speed,-23.300000,1.930000,1.650000,2.000000,104.000000,1,0,0.000000,0.000000,0,0.000000,0.000000,0.000000,2.372742,2.401917,0.000000,-0.006000,-0.006000,0.038000
08:31:13.696 PM 02/09/2016,Autonomous Disabled,0,TRUE,-44087,NetComm_CAN_Receive.vi:5470007<APPEND>  <b>Complete call chain:</b>      NetComm_CAN_Receive.vi:5470007      WPI_CANTalonSRX_Receive.vi      WPI_CANTalonSRX_GetStatus.vi      ShooterVI.vi      Periodic Tasks.vi      Robot Main.vi,0.000000,0.000000,0.000000,0.000000,Speed,Speed,-23.290000,1.860000,1.690000,2.000000,101.000000,1,0,0.000000,0.000000,0,0.000000,0.000000,0.000000,2.372742,2.401917,0.000000,-0.008000,0.010000,-0.004000
08:31:13.798 PM 02/09/2016,Autonomous Disabled,0,TRUE,-44087,NetComm_CAN_Receive.vi:5470007<APPEND>  <b>Complete call chain:</b>      NetComm_CAN_Receive.vi:5470007      WPI_CANTalonSRX_Receive.vi      WPI_CANTalonSRX_GetStatus.vi      ShooterVI.vi      Periodic Tasks.vi      Robot Main.vi,0.000000,0.000000,0.000000,0.000000,Speed,Speed,-23.290000,1.800000,1.680000,2.000000,103.000000,1,0,0.000000,0.000000,0,0.000000,0.000000,0.000000,2.372742,2.401917,0.000000,-0.015000,-0.004000,-0.012000
08:31:13.899 PM 02/09/2016,Autonomous Disabled,0,TRUE,-44087,NetComm_CAN_Receive.vi:5470007<APPEND>  <b>Complete call chain:</b>      NetComm_CAN_Receive.vi:5470007      WPI_CANTalonSRX_Receive.vi      WPI_CANTalonSRX_GetStatus.vi      ShooterVI.vi      Periodic Tasks.vi      Robot Main.vi,0.000000,0.000000,4000.000000,4000.000000,Speed,Speed,-23.290000,1.750000,1.650000,3.000000,100.000000,1,0,0.000000,0.000000,0,0.000000,0.000000,0.000000,2.372742,2.401917,0.000000,-0.010000,-0.007000,0.002000
08:31:14.000 PM 02/09/2016,Autonomous Disabled,0,TRUE,-44087,NetComm_CAN_Receive.vi:5470007<APPEND>  <b>Complete call chain:</b>      NetComm_CAN_Receive.vi:5470007      WPI_CANTalonSRX_Receive.vi      WPI_CANTalonSRX_GetStatus.vi      ShooterVI.vi      Periodic Tasks.vi      Robot Main.vi,0.000000,0.000000,4000.000000,4000.000000,Speed,Speed,-23.290000,1.700000,1.650000,3.000000,102.000000,1,0,0.000000,0.000000,0,0.000000,0.000000,0.000000,2.372742,2.401917,0.000000,-0.006000,-0.009000,0.008000
08:31:14.102 PM 02/09/2016,Autonomous Disabled,0,TRUE,-44087,NetComm_CAN_Receive.vi:5470007<APPEND>  <b>Complete call chain:</b>      NetComm_CAN_Receive.vi:5470007      WPI_CANTalonSRX_Receive.vi      WPI_CANTalonSRX_GetStatus.vi      ShooterVI.vi      Periodic Tasks.vi      Robot Main.vi,0.000000,0.000000,4000.000000,4000.000000,Speed,Speed,-23.290000,1.660000,1.660000,3.000000,102.000000,1,0,0.000000,0.000000,0,0.000000,0.000000,0.000000,2.372742,2.401917,0.000000,-0.010000,-0.004000,0.000000
08:31:14.202 PM 02/09/2016,Autonomous Disabled,0,TRUE,-44087,NetComm_CAN_Receive.vi:5470007<APPEND>  <b>Complete call chain:</b>      NetComm_CAN_Receive.vi:5470007      WPI_CANTalonSRX_Receive.vi      WPI_CANTalonSRX_GetStatus.vi      ShooterVI.vi      Periodic Tasks.vi      Robot Main.vi,0.000000,0.000000,4000.000000,4000.000000,Speed,Speed,-23.290000,1.610000,1.670000,3.000000,101.000000,1,0,0.000000,0.000000,0,0.000000,0.000000,0.000000,2.372742,2.401917,0.000000,-0.008000,-0.004000,0.000000
08:31:14.303 PM 02/09/2016,Autonomous Disabled,0,TRUE,-44087,NetComm_CAN_Receive.vi:5470007<APPEND>  <b>Complete call chain:</b>      NetComm_CAN_Receive.vi:5470007      WPI_CANTalonSRX_Receive.vi      WPI_CANTalonSRX_GetStatus.vi      ShooterVI.vi      Periodic Tasks.vi      Robot Main.vi,0.000000,0.000000,4000.000000,4000.000000,Speed,Speed,-23.290000,1.570000,1.660000,3.000000,102.000000,1,0,0.000000,0.000000,0,0.000000,0.000000,0.000000,2.372742,2.401917,0.000000,-0.011000,-0.003000,-0.002000
08:31:14.404 PM 02/09/2016,Autonomous Disabled,0,TRUE,-44087,NetComm_CAN_Receive.vi:5470007<APPEND>  <b>Complete call chain:</b>      NetComm_CAN_Receive.vi:5470007      WPI_CANTalonSRX_Receive.vi      WPI_CANTalonSRX_GetStatus.vi      ShooterVI.vi      Periodic Tasks.vi      Robot Main.vi,0.000000,0.000000,4000.000000,4000.000000,Speed,Speed,-23.290000,1.530000,1.660000,3.000000,102.000000,1,0,0.000000,0.000000,0,0.000000,0.000000,0.000000,2.372742,2.401917,0.000000,-0.008000,-0.004000,0.000000
08:31:14.505 PM 02/09/2016,Autonomous Disabled,0,TRUE,-44087,NetComm_CAN_Receive.vi:5470007<APPEND>  <b>Complete call chain:</b>      NetComm_CAN_Receive.vi:5470007      WPI_CANTalonSRX_Receive.vi      WPI_CANTalonSRX_GetStatus.vi      ShooterVI.vi      Periodic Tasks.vi      Robot Main.vi,0.000000,0.000000,4000.000000,4000.000000,Speed,Speed,-23.290000,1.490000,1.650000,3.000000,101.000000,1,0,0.000000,0.000000,0,0.000000,0.000000,0.000000,2.372742,2.401917,0.000000,-0.007000,-0.001000,0.000000
08:31:14.604 PM 02/09/2016,Autonomous Disabled,0,TRUE,-44087,NetComm_CAN_Receive.vi:5470007<APPEND>  <b>Complete call chain:</b>      NetComm_CAN_Receive.vi:5470007      WPI_CANTalonSRX_Receive.vi      WPI_CANTalonSRX_GetStatus.vi      ShooterVI.vi      Periodic Tasks.vi      Robot Main.vi,0.000000,0.000000,4000.000000,4000.000000,Speed,Speed,-23.290000,1.470000,1.650000,3.000000,103.000000,1,0,0.000000,0.000000,0,0.000000,0.000000,0.000000,2.372742,2.401917,0.000000,-0.008000,-0.003000,0.000000
08:31:14.704 PM 02/09/2016,Autonomous Disabled,0,TRUE,-44087,NetComm_CAN_Receive.vi:5470007<APPEND>  <b>Complete call chain:</b>      NetComm_CAN_Receive.vi:5470007      WPI_CANTalonSRX_Receive.vi      WPI_CANTalonSRX_GetStatus.vi      ShooterVI.vi      Periodic Tasks.vi      Robot Main.vi,0.000000,0.000000,4000.000000,4000.000000,Speed,Speed,-23.290000,1.440000,1.650000,3.000000,102.000000,1,0,0.000000,0.000000,0,0.000000,0.000000,0.000000,2.372742,2.401917,0.000000,-0.004000,-0.005000,-0.002000
08:31:14.805 PM 02/09/2016,Autonomous Disabled,0,TRUE,-44087,NetComm_CAN_Receive.vi:5470007<APPEND>  <b>Complete call chain:</b>      NetComm_CAN_Receive.vi:5470007      WPI_CANTalonSRX_Receive.vi      WPI_CANTalonSRX_GetStatus.vi      ShooterVI.vi      Periodic Tasks.vi      Robot Main.vi,0.000000,0.000000,4000.000000,4000.000000,Speed,Speed,-23.300000,1.410000,1.640000,3.000000,101.000000,1,0,0.000000,0.000000,0,0.000000,0.000000,0.000000,2.372742,2.401917,0.000000,-0.006000,-0.002000,0.004000
08:31:14.905 PM 02/09/2016,Autonomous Disabled,0,TRUE,-44087,NetComm_CAN_Receive.vi:5470007<APPEND>  <b>Complete call chain:</b>      NetComm_CAN_Receive.vi:5470007      WPI_CANTalonSRX_Receive.vi      WPI_CANTalonSRX_GetStatus.vi      ShooterVI.vi      Periodic Tasks.vi      Robot Main.vi,0.000000,0.000000,4000.000000,4000.000000,Speed,Speed,-23.300000,1.380000,1.640000,3.000000,101.000000,1,0,0.000000,0.000000,0,0.000000,0.000000,0.000000,2.372742,2.401917,0.000000,-0.002000,-0.003000,0.000000
08:31:15.006 PM 02/09/2016,Autonomous Disabled,0,TRUE,-44087,NetComm_CAN_Receive.vi:5470007<APPEND>  <b>Complete call chain:</b>      NetComm_CAN_Receive.vi:5470007      WPI_CANTalonSRX_Receive.vi      WPI_CANTalonSRX_GetStatus.vi      ShooterVI.vi      Periodic Tasks.vi      Robot Main.vi,0.000000,0.000000,4000.000000,4000.000000,Speed,Speed,-23.300000,1.360000,1.650000,3.000000,102.000000,1,0,0.000000,0.000000,0,0.000000,0.000000,0.000000,2.372742,2.401917,0.000000,-0.004000,-0.003000,0.001000
08:31:15.107 PM 02/09/2016,Autonomous Disabled,0,TRUE,-44087,NetComm_CAN_Receive.vi:5470007<APPEND>  <b>Complete call chain:</b>      NetComm_CAN_Receive.vi:5470007      WPI_CANTalonSRX_Receive.vi      WPI_CANTalonSRX_GetStatus.vi      ShooterVI.vi      Periodic Tasks.vi      Robot Main.vi,0.000000,0.000000,4000.000000,4000.000000,Speed,Speed,-23.300000,1.340000,1.650000,3.000000,102.000000,1,0,0.000000,0.000000,0,0.000000,0.000000,0.000000,2.372742,2.401917,0.000000,-0.001000,0.000000,0.006000
08:31:15.206 PM 02/09/2016,Autonomous Disabled,0,TRUE,-44087,NetComm_CAN_Receive.vi:5470007<APPEND>  <b>Complete call chain:</b>      NetComm_CAN_Receive.vi:5470007      WPI_CANTalonSRX_Receive.vi      WPI_CANTalonSRX_GetStatus.vi      ShooterVI.vi      Periodic Tasks.vi      Robot Main.vi,0.000000,0.000000,4000.000000,4000.000000,Speed,Speed,-23.300000,1.320000,1.650000,3.000000,101.000000,1,0,0.000000,0.000000,0,0.000000,0.000000,0.000000,2.372742,2.401917,0.000000,-0.005000,-0.003000,0.005000
08:31:15.308 PM 02/09/2016,Autonomous Disabled,0,TRUE,-44087,NetComm_CAN_Receive.vi:5470007<APPEND>  <b>Complete call chain:</b>      NetComm_CAN_Receive.vi:5470007      WPI_CANTalonSRX_Receive.vi      WPI_CANTalonSRX_GetStatus.vi      ShooterVI.vi      Periodic Tasks.vi      Robot Main.vi,0.000000,0.000000,4000.000000,4000.000000,Speed,Speed,-23.300000,1.300000,1.650000,3.000000,102.000000,1,0,0.000000,0.000000,0,0.000000,0.000000,0.000000,2.372742,2.401917,0.000000,-0.005000,-0.001000,-0.001000
08:31:15.407 PM 02/09/2016,Autonomous Disabled,0,TRUE,-44087,NetComm_CAN_Receive.vi:5470007<APPEND>  <b>Complete call chain:</b>      NetComm_CAN_Receive.vi:5470007      WPI_CANTalonSRX_Receive.vi      WPI_CANTalonSRX_GetStatus.vi      ShooterVI.vi      Periodic Tasks.vi      Robot Main.vi,0.000000,0.000000,4000.000000,4000.000000,Speed,Speed,-23.300000,1.290000,1.650000,3.000000,102.000000,1,0,0.000000,0.000000,0,0.000000,0.000000,0.000000,2.372742,2.401917,0.000000,-0.004000,0.001000,0.001000
08:31:15.508 PM 02/09/2016,Autonomous Disabled,0,TRUE,-44087,NetComm_CAN_Receive.vi:5470007<APPEND>  <b>Complete call chain:</b>      NetComm_CAN_Receive.vi:5470007      WPI_CANTalonSRX_Receive.vi      WPI_CANTalonSRX_GetStatus.vi      ShooterVI.vi      Periodic Tasks.vi      Robot Main.vi,0.000000,0.000000,4000.000000,4000.000000,Speed,Speed,-23.300000,1.280000,1.650000,3.000000,101.000000,1,0,0.000000,0.000000,0,0.000000,0.000000,0.000000,2.372742,2.401917,0.000000,-0.004000,-0.001000,0.000000
08:31:15.607 PM 02/09/2016,Autonomous Disabled,0,TRUE,-44087,NetComm_CAN_Receive.vi:5470007<APPEND>  <b>Complete call chain:</b>      NetComm_CAN_Receive.vi:5470007      WPI_CANTalonSRX_Receive.vi      WPI_CANTalonSRX_GetStatus.vi      ShooterVI.vi      Periodic Tasks.vi      Robot Main.vi,0.000000,0.000000,4000.000000,4000.000000,Speed,Speed,-23.300000,1.260000,1.640000,3.000000,104.000000,1,0,0.000000,0.000000,0,0.000000,0.000000,0.000000,2.372742,2.401917,0.000000,-0.002000,0.000000,0.002000
08:31:15.708 PM 02/09/2016,Autonomous Disabled,0,TRUE,-44087,NetComm_CAN_Receive.vi:5470007<APPEND>  <b>Complete call chain:</b>      NetComm_CAN_Receive.vi:5470007      WPI_CANTalonSRX_Receive.vi      WPI_CANTalonSRX_GetStatus.vi      ShooterVI.vi      Periodic Tasks.vi      Robot Main.vi,0.000000,0.000000,4000.000000,4000.000000,Speed,Speed,-23.300000,1.240000,1.630000,3.000000,105.000000,1,0,0.000000,0.000000,0,0.000000,0.000000,0.000000,2.372742,2.401917,0.000000,0.000000,0.000000,0.000000
08:31:15.809 PM 02/09/2016,Autonomous Disabled,0,TRUE,-44087,NetComm_CAN_Receive.vi:5470007<APPEND>  <b>Complete call chain:</b>      NetComm_CAN_Receive.vi:5470007      WPI_CANTalonSRX_Receive.vi      WPI_CANTalonSRX_GetStatus.vi      ShooterVI.vi      Periodic Tasks.vi      Robot Main.vi,0.000000,0.000000,4000.000000,4000.000000,Speed,Speed,-23.300000,1.230000,1.640000,3.000000,101.000000,1,0,0.000000,0.000000,0,0.000000,0.000000,0.000000,2.372742,2.401917,0.000000,-0.001000,-0.001000,0.002000
08:31:15.908 PM 02/09/2016,Autonomous Disabled,0,TRUE,-44087,NetComm_CAN_Receive.vi:5470007<APPEND>  <b>Complete call chain:</b>      NetComm_CAN_Receive.vi:5470007      WPI_CANTalonSRX_Receive.vi      WPI_CANTalonSRX_GetStatus.vi      ShooterVI.vi      Periodic Tasks.vi      Robot Main.vi,0.000000,0.000000,4000.000000,4000.000000,Speed,Speed,-23.300000,1.230000,1.640000,3.000000,101.000000,1,0,0.000000,0.000000,0,0.000000,0.000000,0.000000,2.372742,2.401917,0.000000,0.000000,0.000000,0.000000
08:31:16.009 PM 02/09/2016,Autonomous Disabled,0,TRUE,-44087,NetComm_CAN_Receive.vi:5470007<APPEND>  <b>Complete call chain:</b>      NetComm_CAN_Receive.vi:5470007      WPI_CANTalonSRX_Receive.vi      WPI_CANTalonSRX_GetStatus.vi      ShooterVI.vi      Periodic Tasks.vi      Robot Main.vi,0.000000,0.000000,4000.000000,4000.000000,Speed,Speed,-23.300000,1.210000,1.630000,3.000000,101.000000,1,0,0.000000,0.000000,0,0.000000,0.000000,0.000000,2.372742,2.401917,0.000000,-0.002000,0.001000,0.002000
08:31:16.108 PM 02/09/2016,Autonomous Disabled,0,TRUE,-44087,NetComm_CAN_Receive.vi:5470007<APPEND>  <b>Complete call chain:</b>      NetComm_CAN_Receive.vi:5470007      WPI_CANTalonSRX_Receive.vi      WPI_CANTalonSRX_GetStatus.vi      ShooterVI.vi      Periodic Tasks.vi      Robot Main.vi,0.000000,0.000000,4000.000000,4000.000000,Speed,Speed,-23.300000,1.200000,1.640000,3.000000,103.000000,1,0,0.000000,0.000000,0,0.000000,0.000000,0.000000,2.372742,2.401917,0.000000,-0.003000,0.000000,0.001000
08:31:16.208 PM 02/09/2016,Autonomous Disabled,0,TRUE,-44087,NetComm_CAN_Receive.vi:5470007<APPEND>  <b>Complete call chain:</b>      NetComm_CAN_Receive.vi:5470007      WPI_CANTalonSRX_Receive.vi      WPI_CANTalonSRX_GetStatus.vi      ShooterVI.vi      Periodic Tasks.vi      Robot Main.vi,0.000000,0.000000,4000.000000,4000.000000,Speed,Speed,-23.310000,1.200000,1.640000,3.000000,101.000000,1,0,0.000000,0.000000,0,0.000000,0.000000,0.000000,2.372742,2.401917,0.000000,0.000000,0.001000,0.000000
08:31:16.309 PM 02/09/2016,Autonomous Disabled,0,TRUE,-44087,NetComm_CAN_Receive.vi:5470007<APPEND>  <b>Complete call chain:</b>      NetComm_CAN_Receive.vi:5470007      WPI_CANTalonSRX_Receive.vi      WPI_CANTalonSRX_GetStatus.vi      ShooterVI.vi      Periodic Tasks.vi      Robot Main.vi,0.000000,0.000000,4000.000000,4000.000000,Speed,Speed,-23.310000,1.180000,1.640000,3.000000,101.000000,1,0,0.000000,0.000000,0,0.000000,0.000000,0.000000,2.372742,2.401917,0.000000,-0.002000,0.000000,0.000000
08:31:16.409 PM 02/09/2016,Autonomous Disabled,0,TRUE,-44087,NetComm_CAN_Receive.vi:5470007<APPEND>  <b>Complete call chain:</b>      NetComm_CAN_Receive.vi:5470007      WPI_CANTalonSRX_Receive.vi      WPI_CANTalonSRX_GetStatus.vi      ShooterVI.vi      Periodic Tasks.vi      Robot Main.vi,0.000000,0.000000,4000.000000,4000.000000,Speed,Speed,-23.310000,1.180000,1.640000,3.000000,102.000000,1,0,0.000000,0.000000,0,0.000000,0.000000,0.000000,2.372742,2.401917,0.000000,-0.002000,0.001000,0.004000
08:31:16.508 PM 02/09/2016,Autonomous Disabled,0,TRUE,-44087,NetComm_CAN_Receive.vi:5470007<APPEND>  <b>Complete call chain:</b>      NetComm_CAN_Receive.vi:5470007      WPI_CANTalonSRX_Receive.vi      WPI_CANTalonSRX_GetStatus.vi      ShooterVI.vi      Periodic Tasks.vi      Robot Main.vi,0.000000,0.000000,4000.000000,4000.000000,Speed,Speed,-23.310000,1.180000,1.640000,3.000000,102.000000,1,0,0.000000,0.000000,0,0.000000,0.000000,0.000000,2.372742,2.401917,0.000000,-0.003000,0.000000,0.001000
08:31:16.609 PM 02/09/2016,Autonomous Disabled,0,TRUE,-44087,NetComm_CAN_Receive.vi:5470007<APPEND>  <b>Complete call chain:</b>      NetComm_CAN_Receive.vi:5470007      WPI_CANTalonSRX_Receive.vi      WPI_CANTalonSRX_GetStatus.vi      ShooterVI.vi      Periodic Tasks.vi      Robot Main.vi,0.000000,0.000000,4000.000000,4000.000000,Speed,Speed,-23.310000,1.160000,1.640000,3.000000,101.000000,1,0,0.000000,0.000000,0,0.000000,0.000000,0.000000,2.372742,2.401917,0.000000,0.001000,0.001000,0.000000
08:31:16.708 PM 02/09/2016,Autonomous Disabled,0,TRUE,-44087,NetComm_CAN_Receive.vi:5470007<APPEND>  <b>Complete call chain:</b>      NetComm_CAN_Receive.vi:5470007      WPI_CANTalonSRX_Receive.vi      WPI_CANTalonSRX_GetStatus.vi      ShooterVI.vi      Periodic Tasks.vi      Robot Main.vi,0.000000,0.000000,4000.000000,4000.000000,Speed,Speed,-23.310000,1.150000,1.640000,3.000000,105.000000,1,0,0.000000,0.000000,0,0.000000,0.000000,0.000000,2.372742,2.401917,0.000000,0.000000,-0.002000,-0.002000
08:31:16.808 PM 02/09/2016,Autonomous Disabled,0,TRUE,-44087,NetComm_CAN_Receive.vi:5470007<APPEND>  <b>Complete call chain:</b>      NetComm_CAN_Receive.vi:5470007      WPI_CANTalonSRX_Receive.vi      WPI_CANTalonSRX_GetStatus.vi      ShooterVI.vi      Periodic Tasks.vi      Robot Main.vi,0.000000,0.000000,4000.000000,4000.000000,Speed,Speed,-23.310000,1.150000,1.640000,3.000000,102.000000,1,0,0.000000,0.000000,0,0.000000,0.000000,0.000000,2.372742,2.401917,0.000000,0.000000,0.000000,0.001000
08:31:16.908 PM 02/09/2016,Autonomous Disabled,0,TRUE,-44087,NetComm_CAN_Receive.vi:5470007<APPEND>  <b>Complete call chain:</b>      NetComm_CAN_Receive.vi:5470007      WPI_CANTalonSRX_Receive.vi      WPI_CANTalonSRX_GetStatus.vi      ShooterVI.vi      Periodic Tasks.vi      Robot Main.vi,0.000000,0.000000,4000.000000,4000.000000,Speed,Speed,-23.310000,1.150000,1.640000,3.000000,102.000000,1,0,0.000000,0.000000,0,0.000000,0.000000,0.000000,2.372742,2.401917,0.000000,-0.001000,-0.001000,0.001000
08:31:17.009 PM 02/09/2016,Autonomous Disabled,0,TRUE,-44087,NetComm_CAN_Receive.vi:5470007<APPEND>  <b>Complete call chain:</b>      NetComm_CAN_Receive.vi:5470007      WPI_CANTalonSRX_Receive.vi      WPI_CANTalonSRX_GetStatus.vi      ShooterVI.vi      Periodic Tasks.vi      Robot Main.vi,0.000000,0.000000,4000.000000,4000.000000,Speed,Speed,-23.310000,1.140000,1.640000,3.000000,101.000000,1,0,0.000000,0.000000,0,0.000000,0.000000,0.000000,2.372742,2.401917,0.000000,-0.001000,-0.001000,0.001000
08:31:17.109 PM 02/09/2016,Autonomous Disabled,0,TRUE,-44087,NetComm_CAN_Receive.vi:5470007<APPEND>  <b>Complete call chain:</b>      NetComm_CAN_Receive.vi:5470007      WPI_CANTalonSRX_Receive.vi      WPI_CANTalonSRX_GetStatus.vi      ShooterVI.vi      Periodic Tasks.vi      Robot Main.vi,0.000000,0.000000,4000.000000,4000.000000,Speed,Speed,-23.310000,1.140000,1.640000,3.000000,102.000000,1,0,0.000000,0.000000,0,0.000000,0.000000,0.000000,2.372742,2.401917,0.000000,0.000000,0.002000,0.001000
08:31:17.211 PM 02/09/2016,Autonomous Disabled,0,TRUE,-44087,NetComm_CAN_Receive.vi:5470007<APPEND>  <b>Complete call chain:</b>      NetComm_CAN_Receive.vi:5470007      WPI_CANTalonSRX_Receive.vi      WPI_CANTalonSRX_GetStatus.vi      ShooterVI.vi      Periodic Tasks.vi      Robot Main.vi,0.000000,0.000000,4000.000000,4000.000000,Speed,Speed,-23.310000,1.130000,1.650000,3.000000,101.000000,1,0,0.000000,0.000000,0,0.000000,0.000000,0.000000,2.372742,2.401917,0.000000,-0.002000,0.000000,0.001000
08:31:17.310 PM 02/09/2016,Autonomous Disabled,0,TRUE,-44087,NetComm_CAN_Receive.vi:5470007<APPEND>  <b>Complete call chain:</b>      NetComm_CAN_Receive.vi:5470007      WPI_CANTalonSRX_Receive.vi      WPI_CANTalonSRX_GetStatus.vi      ShooterVI.vi      Periodic Tasks.vi      Robot Main.vi,0.000000,0.000000,4000.000000,4000.000000,Speed,Speed,-23.310000,1.130000,1.640000,3.000000,101.000000,1,0,0.000000,0.000000,0,0.000000,0.000000,0.000000,2.372742,2.401917,0.000000,-0.002000,0.000000,0.001000
08:31:17.410 PM 02/09/2016,Autonomous Disabled,0,TRUE,-44087,NetComm_CAN_Receive.vi:5470007<APPEND>  <b>Complete call chain:</b>      NetComm_CAN_Receive.vi:5470007      WPI_CANTalonSRX_Receive.vi      WPI_CANTalonSRX_GetStatus.vi      ShooterVI.vi      Periodic Tasks.vi      Robot Main.vi,0.000000,0.000000,4000.000000,4000.000000,Speed,Speed,-23.310000,1.130000,1.640000,3.000000,101.000000,1,0,0.000000,0.000000,0,0.000000,0.000000,0.000000,2.372742,2.401917,0.000000,0.001000,0.000000,0.002000
08:31:17.510 PM 02/09/2016,Autonomous Disabled,0,TRUE,-44087,NetComm_CAN_Receive.vi:5470007<APPEND>  <b>Complete call chain:</b>      NetComm_CAN_Receive.vi:5470007      WPI_CANTalonSRX_Receive.vi      WPI_CANTalonSRX_GetStatus.vi      ShooterVI.vi      Periodic Tasks.vi      Robot Main.vi,0.000000,0.000000,4000.000000,4000.000000,Speed,Speed,-23.310000,1.130000,1.640000,3.000000,101.000000,1,0,0.000000,0.000000,0,0.000000,0.000000,0.000000,2.372742,2.401917,0.000000,0.001000,0.000000,0.002000
08:31:17.611 PM 02/09/2016,Autonomous Disabled,0,TRUE,-44087,NetComm_CAN_Receive.vi:5470007<APPEND>  <b>Complete call chain:</b>      NetComm_CAN_Receive.vi:5470007      WPI_CANTalonSRX_Receive.vi      WPI_CANTalonSRX_GetStatus.vi      ShooterVI.vi      Periodic Tasks.vi      Robot Main.vi,0.000000,0.000000,4000.000000,4000.000000,Speed,Speed,-23.310000,1.130000,1.640000,3.000000,102.000000,1,0,0.000000,0.000000,0,0.000000,0.000000,0.000000,2.372742,2.401917,0.000000,-0.001000,0.001000,0.002000
08:31:17.711 PM 02/09/2016,Autonomous Disabled,0,TRUE,-44087,NetComm_CAN_Receive.vi:5470007<APPEND>  <b>Complete call chain:</b>      NetComm_CAN_Receive.vi:5470007      WPI_CANTalonSRX_Receive.vi      WPI_CANTalonSRX_GetStatus.vi      ShooterVI.vi      Periodic Tasks.vi      Robot Main.vi,0.000000,0.000000,4000.000000,4000.000000,Speed,Speed,-23.310000,1.110000,1.640000,3.000000,101.000000,1,0,0.000000,0.000000,0,0.000000,0.000000,0.000000,2.372742,2.401917,0.000000,0.000000,0.000000,0.002000
08:31:17.811 PM 02/09/2016,Autonomous Disabled,0,TRUE,-44087,NetComm_CAN_Receive.vi:5470007<APPEND>  <b>Complete call chain:</b>      NetComm_CAN_Receive.vi:5470007      WPI_CANTalonSRX_Receive.vi      WPI_CANTalonSRX_GetStatus.vi      ShooterVI.vi      Periodic Tasks.vi      Robot Main.vi,0.000000,0.000000,4000.000000,4000.000000,Speed,Speed,-23.310000,1.110000,1.640000,3.000000,103.000000,1,0,0.000000,0.000000,0,0.000000,0.000000,0.000000,2.372742,2.401917,0.000000,0.000000,0.000000,0.002000
08:31:17.912 PM 02/09/2016,Autonomous Disabled,0,TRUE,-44087,NetComm_CAN_Receive.vi:5470007<APPEND>  <b>Complete call chain:</b>      NetComm_CAN_Receive.vi:5470007      WPI_CANTalonSRX_Receive.vi      WPI_CANTalonSRX_GetStatus.vi      ShooterVI.vi      Periodic Tasks.vi      Robot Main.vi,0.000000,0.000000,4000.000000,4000.000000,Speed,Speed,-23.310000,1.100000,1.650000,3.000000,103.000000,1,0,0.000000,0.000000,0,0.000000,0.000000,0.000000,2.372742,2.401917,0.000000,0.001000,-0.002000,0.002000
08:31:18.013 PM 02/09/2016,Autonomous Disabled,0,TRUE,-44087,NetComm_CAN_Receive.vi:5470007<APPEND>  <b>Complete call chain:</b>      NetComm_CAN_Receive.vi:5470007      WPI_CANTalonSRX_Receive.vi      WPI_CANTalonSRX_GetStatus.vi      ShooterVI.vi      Periodic Tasks.vi      Robot Main.vi,0.000000,0.000000,4000.000000,4000.000000,Speed,Speed,-23.320000,1.100000,1.650000,3.000000,101.000000,1,0,0.000000,0.000000,0,0.000000,0.000000,0.000000,2.372742,2.401917,0.000000,0.000000,0.000000,0.004000
08:31:18.116 PM 02/09/2016,Autonomous Disabled,0,TRUE,-44087,NetComm_CAN_Receive.vi:5470007<APPEND>  <b>Complete call chain:</b>      NetComm_CAN_Receive.vi:5470007      WPI_CANTalonSRX_Receive.vi      WPI_CANTalonSRX_GetStatus.vi      ShooterVI.vi      Periodic Tasks.vi      Robot Main.vi,0.000000,0.000000,4000.000000,4000.000000,Speed,Speed,-23.320000,1.100000,1.650000,3.000000,101.000000,1,0,0.000000,0.000000,0,0.000000,0.000000,0.000000,2.372742,2.401917,0.000000,0.000000,0.000000,0.005000
08:31:18.216 PM 02/09/2016,Autonomous Disabled,0,TRUE,-44087,NetComm_CAN_Receive.vi:5470007<APPEND>  <b>Complete call chain:</b>      NetComm_CAN_Receive.vi:5470007      WPI_CANTalonSRX_Receive.vi      WPI_CANTalonSRX_GetStatus.vi      ShooterVI.vi      Periodic Tasks.vi      Robot Main.vi,0.000000,0.000000,4000.000000,4000.000000,Speed,Speed,-23.320000,1.100000,1.650000,3.000000,101.000000,1,0,0.000000,0.000000,0,0.000000,0.000000,0.000000,2.372742,2.401917,0.000000,-0.001000,-0.001000,0.002000
08:31:18.318 PM 02/09/2016,Autonomous Disabled,0,TRUE,-44087,NetComm_CAN_Receive.vi:5470007<APPEND>  <b>Complete call chain:</b>      NetComm_CAN_Receive.vi:5470007      WPI_CANTalonSRX_Receive.vi      WPI_CANTalonSRX_GetStatus.vi      ShooterVI.vi      Periodic Tasks.vi      Robot Main.vi,0.000000,0.000000,4000.000000,4000.000000,Speed,Speed,-23.320000,1.090000,1.660000,3.000000,101.000000,1,0,0.000000,0.000000,0,0.000000,0.000000,0.000000,2.372742,2.401917,0.000000,0.004000,0.000000,0.004000
08:31:18.419 PM 02/09/2016,Autonomous Disabled,0,TRUE,-44087,NetComm_CAN_Receive.vi:5470007<APPEND>  <b>Complete call chain:</b>      NetComm_CAN_Receive.vi:5470007      WPI_CANTalonSRX_Receive.vi      WPI_CANTalonSRX_GetStatus.vi      ShooterVI.vi      Periodic Tasks.vi      Robot Main.vi,0.000000,0.000000,4000.000000,4000.000000,Speed,Speed,-23.320000,1.090000,1.660000,3.000000,101.000000,1,0,0.000000,0.000000,0,0.000000,0.000000,0.000000,2.372742,2.401917,0.000000,0.002000,-0.001000,0.007000
08:31:18.525 PM 02/09/2016,Autonomous Disabled,0,TRUE,-44087,NetComm_CAN_Receive.vi:5470007<APPEND>  <b>Complete call chain:</b>      NetComm_CAN_Receive.vi:5470007      WPI_CANTalonSRX_Receive.vi      WPI_CANTalonSRX_GetStatus.vi      ShooterVI.vi      Periodic Tasks.vi      Robot Main.vi,0.000000,0.000000,4000.000000,4000.000000,Speed,Speed,-23.320000,1.100000,1.650000,3.000000,102.000000,1,0,0.000000,0.000000,0,0.000000,0.000000,0.000000,2.372742,2.401917,0.000000,0.000000,0.001000,0.003000
08:31:18.623 PM 02/09/2016,Autonomous Disabled,0,TRUE,-44087,NetComm_CAN_Receive.vi:5470007<APPEND>  <b>Complete call chain:</b>      NetComm_CAN_Receive.vi:5470007      WPI_CANTalonSRX_Receive.vi      WPI_CANTalonSRX_GetStatus.vi      ShooterVI.vi      Periodic Tasks.vi      Robot Main.vi,0.000000,0.000000,4000.000000,4000.000000,Speed,Speed,-23.330000,1.090000,1.660000,3.000000,102.000000,1,0,0.000000,0.000000,0,0.000000,0.000000,0.000000,2.372742,2.401917,0.000000,0.000000,-0.001000,0.002000
08:31:18.725 PM 02/09/2016,Autonomous Disabled,0,TRUE,-44087,NetComm_CAN_Receive.vi:5470007<APPEND>  <b>Complete call chain:</b>      NetComm_CAN_Receive.vi:5470007      WPI_CANTalonSRX_Receive.vi      WPI_CANTalonSRX_GetStatus.vi      ShooterVI.vi      Periodic Tasks.vi      Robot Main.vi,0.000000,0.000000,4000.000000,4000.000000,Speed,Speed,-23.330000,1.100000,1.650000,3.000000,100.000000,1,0,0.000000,0.000000,0,0.000000,0.000000,0.000000,2.372742,2.401917,0.000000,0.000000,-0.002000,-0.002000
08:31:18.824 PM 02/09/2016,Autonomous Disabled,0,TRUE,-44087,NetComm_CAN_Receive.vi:5470007<APPEND>  <b>Complete call chain:</b>      NetComm_CAN_Receive.vi:5470007      WPI_CANTalonSRX_Receive.vi      WPI_CANTalonSRX_GetStatus.vi      ShooterVI.vi      Periodic Tasks.vi      Robot Main.vi,0.000000,0.000000,4000.000000,4000.000000,Speed,Speed,-23.330000,1.090000,1.650000,3.000000,100.000000,1,0,0.000000,0.000000,0,0.000000,0.000000,0.000000,2.372742,2.401917,0.000000,-0.004000,0.000000,0.001000
08:31:18.925 PM 02/09/2016,Autonomous Disabled,0,TRUE,-44087,NetComm_CAN_Receive.vi:5470007<APPEND>  <b>Complete call chain:</b>      NetComm_CAN_Receive.vi:5470007      WPI_CANTalonSRX_Receive.vi      WPI_CANTalonSRX_GetStatus.vi      ShooterVI.vi      Periodic Tasks.vi      Robot Main.vi,0.000000,0.000000,4000.000000,4000.000000,Speed,Speed,-23.330000,1.090000,1.650000,3.000000,101.000000,1,0,0.000000,0.000000,0,0.000000,0.000000,0.000000,2.372742,2.401917,0.000000,0.001000,-0.001000,0.001000
08:31:19.026 PM 02/09/2016,Autonomous Disabled,0,TRUE,-44087,NetComm_CAN_Receive.vi:5470007<APPEND>  <b>Complete call chain:</b>      NetComm_CAN_Receive.vi:5470007      WPI_CANTalonSRX_Receive.vi      WPI_CANTalonSRX_GetStatus.vi      ShooterVI.vi      Periodic Tasks.vi      Robot Main.vi,0.000000,0.000000,4000.000000,4000.000000,Speed,Speed,-23.330000,1.090000,1.650000,3.000000,101.000000,1,0,0.000000,0.000000,0,0.000000,0.000000,0.000000,2.372742,2.401917,0.000000,0.000000,-0.001000,0.004000
08:31:19.127 PM 02/09/2016,Autonomous Disabled,0,TRUE,-44087,NetComm_CAN_Receive.vi:5470007<APPEND>  <b>Complete call chain:</b>      NetComm_CAN_Receive.vi:5470007      WPI_CANTalonSRX_Receive.vi      WPI_CANTalonSRX_GetStatus.vi      ShooterVI.vi      Periodic Tasks.vi      Robot Main.vi,0.000000,0.000000,4000.000000,4000.000000,Speed,Speed,-23.330000,1.090000,1.640000,3.000000,103.000000,1,0,0.000000,0.000000,0,0.000000,0.000000,0.000000,2.372742,2.401917,0.000000,0.000000,0.000000,0.001000
08:31:19.227 PM 02/09/2016,Autonomous Disabled,0,TRUE,-44087,NetComm_CAN_Receive.vi:5470007<APPEND>  <b>Complete call chain:</b>      NetComm_CAN_Receive.vi:5470007      WPI_CANTalonSRX_Receive.vi      WPI_CANTalonSRX_GetStatus.vi      ShooterVI.vi      Periodic Tasks.vi      Robot Main.vi,0.000000,0.000000,4000.000000,4000.000000,Speed,Speed,-23.330000,1.090000,1.640000,3.000000,103.000000,1,0,0.000000,0.000000,0,0.000000,0.000000,0.000000,2.372742,2.401917,0.000000,0.001000,0.000000,0.003000
08:31:19.328 PM 02/09/2016,Autonomous Disabled,0,TRUE,-44087,NetComm_CAN_Receive.vi:5470007<APPEND>  <b>Complete call chain:</b>      NetComm_CAN_Receive.vi:5470007      WPI_CANTalonSRX_Receive.vi      WPI_CANTalonSRX_GetStatus.vi      ShooterVI.vi      Periodic Tasks.vi      Robot Main.vi,0.000000,0.000000,4000.000000,4000.000000,Speed,Speed,-23.330000,1.090000,1.640000,3.000000,102.000000,1,0,0.000000,0.000000,0,0.000000,0.000000,0.000000,2.372742,2.401917,0.000000,0.001000,0.001000,0.003000
08:31:19.428 PM 02/09/2016,Autonomous Disabled,0,TRUE,-44087,NetComm_CAN_Receive.vi:5470007<APPEND>  <b>Complete call chain:</b>      NetComm_CAN_Receive.vi:5470007      WPI_CANTalonSRX_Receive.vi      WPI_CANTalonSRX_GetStatus.vi      ShooterVI.vi      Periodic Tasks.vi      Robot Main.vi,0.000000,0.000000,4000.000000,4000.000000,Speed,Speed,-23.330000,1.090000,1.640000,3.000000,104.000000,1,0,0.000000,0.000000,0,0.000000,0.000000,0.000000,2.372742,2.401917,0.000000,-0.001000,0.001000,0.004000
08:31:19.529 PM 02/09/2016,Autonomous Disabled,0,TRUE,-44087,NetComm_CAN_Receive.vi:5470007<APPEND>  <b>Complete call chain:</b>      NetComm_CAN_Receive.vi:5470007      WPI_CANTalonSRX_Receive.vi      WPI_CANTalonSRX_GetStatus.vi      ShooterVI.vi      Periodic Tasks.vi      Robot Main.vi,0.000000,0.000000,4000.000000,4000.000000,Speed,Speed,-23.340000,1.080000,1.640000,3.000000,105.000000,1,0,0.000000,0.000000,0,0.000000,0.000000,0.000000,2.372742,2.401917,0.000000,-0.002000,0.000000,0.003000
08:31:19.629 PM 02/09/2016,Autonomous Disabled,0,TRUE,-44087,NetComm_CAN_Receive.vi:5470007<APPEND>  <b>Complete call chain:</b>      NetComm_CAN_Receive.vi:5470007      WPI_CANTalonSRX_Receive.vi      WPI_CANTalonSRX_GetStatus.vi      ShooterVI.vi      Periodic Tasks.vi      Robot Main.vi,0.000000,0.000000,4000.000000,4000.000000,Speed,Speed,-23.340000,1.080000,1.640000,3.000000,105.000000,1,0,0.000000,0.000000,0,0.000000,0.000000,0.000000,2.372742,2.401917,0.000000,0.000000,0.000000,0.002000
08:31:19.730 PM 02/09/2016,Autonomous Disabled,0,TRUE,-44087,NetComm_CAN_Receive.vi:5470007<APPEND>  <b>Complete call chain:</b>      NetComm_CAN_Receive.vi:5470007      WPI_CANTalonSRX_Receive.vi      WPI_CANTalonSRX_GetStatus.vi      ShooterVI.vi      Periodic Tasks.vi      Robot Main.vi,0.000000,0.000000,4000.000000,4000.000000,Speed,Speed,-23.330000,1.080000,1.640000,3.000000,103.000000,1,0,0.000000,0.000000,0,0.000000,0.000000,0.000000,2.372742,2.401917,0.000000,0.000000,0.003000,0.000000
08:31:19.829 PM 02/09/2016,Autonomous Disabled,0,TRUE,-44087,NetComm_CAN_Receive.vi:5470007<APPEND>  <b>Complete call chain:</b>      NetComm_CAN_Receive.vi:5470007      WPI_CANTalonSRX_Receive.vi      WPI_CANTalonSRX_GetStatus.vi      ShooterVI.vi      Periodic Tasks.vi      Robot Main.vi,0.000000,0.000000,4000.000000,4000.000000,Speed,Speed,-23.330000,1.080000,1.640000,3.000000,103.000000,1,0,0.000000,0.000000,0,0.000000,0.000000,0.000000,2.372742,2.401917,0.000000,0.000000,0.000000,0.003000
08:31:19.929 PM 02/09/2016,Autonomous Disabled,0,TRUE,-44087,NetComm_CAN_Receive.vi:5470007<APPEND>  <b>Complete call chain:</b>      NetComm_CAN_Receive.vi:5470007      WPI_CANTalonSRX_Receive.vi      WPI_CANTalonSRX_GetStatus.vi      ShooterVI.vi      Periodic Tasks.vi      Robot Main.vi,0.000000,0.000000,4000.000000,4000.000000,Speed,Speed,-23.340000,1.080000,1.640000,3.000000,103.000000,1,0,0.000000,0.000000,0,0.000000,0.000000,0.000000,2.372742,2.401917,0.000000,0.001000,0.001000,0.000000
08:31:20.029 PM 02/09/2016,Autonomous Disabled,0,TRUE,-44087,NetComm_CAN_Receive.vi:5470007<APPEND>  <b>Complete call chain:</b>      NetComm_CAN_Receive.vi:5470007      WPI_CANTalonSRX_Receive.vi      WPI_CANTalonSRX_GetStatus.vi      ShooterVI.vi      Periodic Tasks.vi      Robot Main.vi,0.000000,0.000000,4000.000000,4000.000000,Speed,Speed,-23.340000,1.080000,1.640000,3.000000,103.000000,1,0,0.000000,0.000000,0,0.000000,0.000000,0.000000,2.372742,2.401917,0.000000,0.001000,0.000000,0.001000
08:31:20.129 PM 02/09/2016,Autonomous Disabled,0,TRUE,-44087,NetComm_CAN_Receive.vi:5470007<APPEND>  <b>Complete call chain:</b>      NetComm_CAN_Receive.vi:5470007      WPI_CANTalonSRX_Receive.vi      WPI_CANTalonSRX_GetStatus.vi      ShooterVI.vi      Periodic Tasks.vi      Robot Main.vi,0.000000,0.000000,4000.000000,4000.000000,Speed,Speed,-23.340000,1.080000,1.640000,3.000000,104.000000,1,0,0.000000,0.000000,0,0.000000,0.000000,0.000000,2.372742,2.401917,0.000000,-0.002000,0.001000,0.003000
08:31:20.229 PM 02/09/2016,Autonomous Disabled,0,TRUE,-44087,NetComm_CAN_Receive.vi:5470007<APPEND>  <b>Complete call chain:</b>      NetComm_CAN_Receive.vi:5470007      WPI_CANTalonSRX_Receive.vi      WPI_CANTalonSRX_GetStatus.vi      ShooterVI.vi      Periodic Tasks.vi      Robot Main.vi,0.000000,0.000000,4000.000000,4000.000000,Speed,Speed,-23.340000,1.080000,1.640000,3.000000,103.000000,1,0,0.000000,0.000000,0,0.000000,0.000000,0.000000,2.372742,2.401917,0.000000,-0.002000,0.000000,0.006000
08:31:20.330 PM 02/09/2016,Autonomous Disabled,0,TRUE,-44087,NetComm_CAN_Receive.vi:5470007<APPEND>  <b>Complete call chain:</b>      NetComm_CAN_Receive.vi:5470007      WPI_CANTalonSRX_Receive.vi      WPI_CANTalonSRX_GetStatus.vi      ShooterVI.vi      Periodic Tasks.vi      Robot Main.vi,0.000000,0.000000,4000.000000,4000.000000,Speed,Speed,-23.340000,1.080000,1.640000,3.000000,102.000000,1,0,0.000000,0.000000,0,0.000000,0.000000,0.000000,2.372742,2.401917,0.000000,0.003000,-0.002000,0.006000
08:31:20.430 PM 02/09/2016,Autonomous Disabled,0,TRUE,-44087,NetComm_CAN_Receive.vi:5470007<APPEND>  <b>Complete call chain:</b>      NetComm_CAN_Receive.vi:5470007      WPI_CANTalonSRX_Receive.vi      WPI_CANTalonSRX_GetStatus.vi      ShooterVI.vi      Periodic Tasks.vi      Robot Main.vi,0.000000,0.000000,4000.000000,4000.000000,Speed,Speed,-23.340000,1.080000,1.640000,3.000000,100.000000,1,0,0.000000,0.000000,0,0.000000,0.000000,0.000000,2.372742,2.401917,0.000000,0.002000,0.000000,0.003000
08:31:20.530 PM 02/09/2016,Autonomous Disabled,0,TRUE,-44087,NetComm_CAN_Receive.vi:5470007<APPEND>  <b>Complete call chain:</b>      NetComm_CAN_Receive.vi:5470007      WPI_CANTalonSRX_Receive.vi      WPI_CANTalonSRX_GetStatus.vi      ShooterVI.vi      Periodic Tasks.vi      Robot Main.vi,0.000000,0.000000,4000.000000,4000.000000,Speed,Speed,-23.340000,1.080000,1.640000,3.000000,104.000000,1,0,0.000000,0.000000,0,0.000000,0.000000,0.000000,2.372742,2.401917,0.000000,0.002000,0.000000,0.000000
08:31:20.630 PM 02/09/2016,Autonomous Disabled,0,TRUE,-44087,NetComm_CAN_Receive.vi:5470007<APPEND>  <b>Complete call chain:</b>      NetComm_CAN_Receive.vi:5470007      WPI_CANTalonSRX_Receive.vi      WPI_CANTalonSRX_GetStatus.vi      ShooterVI.vi      Periodic Tasks.vi      Robot Main.vi,0.000000,0.000000,4000.000000,4000.000000,Speed,Speed,-23.340000,1.080000,1.640000,3.000000,102.000000,1,0,0.000000,0.000000,0,0.000000,0.000000,0.000000,2.372742,2.401917,0.000000,-0.001000,0.001000,0.001000
08:31:20.730 PM 02/09/2016,Autonomous Disabled,0,TRUE,-44087,NetComm_CAN_Receive.vi:5470007<APPEND>  <b>Complete call chain:</b>      NetComm_CAN_Receive.vi:5470007      WPI_CANTalonSRX_Receive.vi      WPI_CANTalonSRX_GetStatus.vi      ShooterVI.vi      Periodic Tasks.vi      Robot Main.vi,0.000000,0.000000,4000.000000,4000.000000,Speed,Speed,-23.340000,1.080000,1.640000,3.000000,107.000000,1,0,0.000000,0.000000,0,0.000000,0.000000,0.000000,2.372742,2.401917,0.000000,0.000000,0.000000,0.006000
08:31:20.830 PM 02/09/2016,Autonomous Disabled,0,TRUE,-44087,NetComm_CAN_Receive.vi:5470007<APPEND>  <b>Complete call chain:</b>      NetComm_CAN_Receive.vi:5470007      WPI_CANTalonSRX_Receive.vi      WPI_CANTalonSRX_GetStatus.vi      ShooterVI.vi      Periodic Tasks.vi      Robot Main.vi,0.000000,0.000000,4000.000000,4000.000000,Speed,Speed,-23.340000,1.080000,1.640000,3.000000,101.000000,1,0,0.000000,0.000000,0,0.000000,0.000000,0.000000,2.372742,2.401917,0.000000,0.000000,0.001000,0.001000
08:31:20.931 PM 02/09/2016,Autonomous Disabled,0,TRUE,-44087,NetComm_CAN_Receive.vi:5470007<APPEND>  <b>Complete call chain:</b>      NetComm_CAN_Receive.vi:5470007      WPI_CANTalonSRX_Receive.vi      WPI_CANTalonSRX_GetStatus.vi      ShooterVI.vi      Periodic Tasks.vi      Robot Main.vi,0.000000,0.000000,4000.000000,4000.000000,Speed,Speed,-23.350000,1.080000,1.650000,3.000000,101.000000,1,0,0.000000,0.000000,0,0.000000,0.000000,0.000000,2.372742,2.401917,0.000000,0.001000,0.001000,0.003000
08:31:21.031 PM 02/09/2016,Autonomous Disabled,0,TRUE,-44087,NetComm_CAN_Receive.vi:5470007<APPEND>  <b>Complete call chain:</b>      NetComm_CAN_Receive.vi:5470007      WPI_CANTalonSRX_Receive.vi      WPI_CANTalonSRX_GetStatus.vi      ShooterVI.vi      Periodic Tasks.vi      Robot Main.vi,0.000000,0.000000,4000.000000,4000.000000,Speed,Speed,-23.350000,1.080000,1.640000,3.000000,102.000000,1,0,0.000000,0.000000,0,0.000000,0.000000,0.000000,2.372742,2.401917,0.000000,-0.002000,0.002000,0.007000
08:31:21.131 PM 02/09/2016,Autonomous Disabled,0,TRUE,-44087,NetComm_CAN_Receive.vi:5470007<APPEND>  <b>Complete call chain:</b>      NetComm_CAN_Receive.vi:5470007      WPI_CANTalonSRX_Receive.vi      WPI_CANTalonSRX_GetStatus.vi      ShooterVI.vi      Periodic Tasks.vi      Robot Main.vi,0.000000,0.000000,4000.000000,4000.000000,Speed,Speed,-23.350000,1.080000,1.650000,3.000000,101.000000,1,0,0.000000,0.000000,0,0.000000,0.000000,0.000000,2.372742,2.401917,0.000000,0.000000,0.001000,-0.001000
08:31:21.231 PM 02/09/2016,Autonomous Disabled,0,TRUE,-44087,NetComm_CAN_Receive.vi:5470007<APPEND>  <b>Complete call chain:</b>      NetComm_CAN_Receive.vi:5470007      WPI_CANTalonSRX_Receive.vi      WPI_CANTalonSRX_GetStatus.vi      ShooterVI.vi      Periodic Tasks.vi      Robot Main.vi,0.000000,0.000000,4000.000000,4000.000000,Speed,Speed,-23.350000,1.090000,1.650000,3.000000,103.000000,1,0,0.000000,0.000000,0,0.000000,0.000000,0.000000,2.372742,2.401917,0.000000,0.000000,0.001000,0.006000
