Time,RobotMode,AutoToRun,ErrorStatus, ErrorCode,ErrorSource,ActualRPM1,ActualRPM2,DesiredRPM1,DesiredRPM2,ControlMode1,ControlMode2,NavXYaw,NavXRoll,NavXPitch,ShooterState,LoopTime,IsLevel,IsAutoTargeting,LeftMotorOutput,RightMotorOutput,IsHaloDrive,NavXVelocityX,NavXVelocityY,NavXVelocityZ,NavXDisplacementX,NavXDisplacementY,NavXDisplacementZ,NavXAccelerationX,NavXAccelerationY,NavXAccelerationZ,AutoDefendState
10:41:01.866 AM 02/13/2016,Autonomous Disabled,0,TRUE,-44087,NetComm_CAN_Receive.vi:5470006<APPEND>  <b>Complete call chain:</b>      NetComm_CAN_Receive.vi:5470006      WPI_CANTalonSRX_Receive.vi      WPI_MotorControlOpenCANTalonSRX.vi      Begin.vi      Robot Main.vi,0.000000,0.000000,9000.000000,9000.000000,Speed,Speed,-0.530000,1.110000,2.650000,4.000000,104.000000,1,0,0.000000,-0.003968,0,0.000000,0.000000,0.000000,-0.152359,-0.028870,0.000000,-0.004000,-0.005000,0.003000,FlatInitial
10:41:01.965 AM 02/13/2016,Teleop Disabled,0,TRUE,-44087,NetComm_CAN_Receive.vi:5470006<APPEND>  <b>Complete call chain:</b>      NetComm_CAN_Receive.vi:5470006      WPI_CANTalonSRX_Receive.vi      WPI_MotorControlOpenCANTalonSRX.vi      Begin.vi      Robot Main.vi,0.000000,0.000000,0.000000,0.000000,Speed,Speed,-0.780000,1.130000,2.940000,0.000000,3406367.000000,1,0,0.000000,-0.003968,0,0.000000,0.000000,0.000000,-0.152359,-0.028870,0.000000,-0.004000,-0.005000,0.003000,FlatInitial
10:41:02.065 AM 02/13/2016,Teleop Disabled,0,TRUE,-44087,NetComm_CAN_Receive.vi:5470006<APPEND>  <b>Complete call chain:</b>      NetComm_CAN_Receive.vi:5470006      WPI_CANTalonSRX_Receive.vi      WPI_MotorControlOpenCANTalonSRX.vi      Begin.vi      Robot Main.vi,0.000000,0.000000,0.000000,0.000000,Speed,Speed,-0.780000,1.130000,2.940000,0.000000,102.000000,1,0,0.000000,-0.003968,0,0.000000,0.000000,0.000000,-0.152359,-0.028870,0.000000,-0.004000,-0.005000,0.003000,FlatInitial
10:41:02.165 AM 02/13/2016,Teleop Disabled,0,TRUE,-44087,NetComm_CAN_Receive.vi:5470006<APPEND>  <b>Complete call chain:</b>      NetComm_CAN_Receive.vi:5470006      WPI_CANTalonSRX_Receive.vi      WPI_MotorControlOpenCANTalonSRX.vi      Begin.vi      Robot Main.vi,0.000000,0.000000,0.000000,0.000000,Speed,Speed,-0.780000,1.130000,2.940000,0.000000,101.000000,1,0,0.000000,-0.003968,0,0.000000,0.000000,0.000000,-0.152359,-0.028870,0.000000,-0.004000,-0.005000,0.003000,FlatInitial
10:41:02.265 AM 02/13/2016,Teleop Disabled,0,TRUE,-44087,NetComm_CAN_Receive.vi:5470006<APPEND>  <b>Complete call chain:</b>      NetComm_CAN_Receive.vi:5470006      WPI_CANTalonSRX_Receive.vi      WPI_MotorControlOpenCANTalonSRX.vi      Begin.vi      Robot Main.vi,0.000000,0.000000,0.000000,0.000000,Speed,Speed,-0.780000,1.130000,2.940000,0.000000,101.000000,1,0,0.000000,-0.003968,0,0.000000,0.000000,0.000000,-0.152359,-0.028870,0.000000,-0.004000,-0.005000,0.003000,FlatInitial
10:41:02.365 AM 02/13/2016,Teleop Disabled,0,TRUE,-44087,NetComm_CAN_Receive.vi:5470006<APPEND>  <b>Complete call chain:</b>      NetComm_CAN_Receive.vi:5470006      WPI_CANTalonSRX_Receive.vi      WPI_MotorControlOpenCANTalonSRX.vi      Begin.vi      Robot Main.vi,0.000000,0.000000,0.000000,0.000000,Speed,Speed,-0.780000,1.130000,2.940000,0.000000,101.000000,1,0,0.000000,-0.003968,0,0.000000,0.000000,0.000000,-0.152359,-0.028870,0.000000,-0.004000,-0.005000,0.003000,FlatInitial
10:41:02.465 AM 02/13/2016,Teleop Disabled,0,TRUE,-44087,NetComm_CAN_Receive.vi:5470006<APPEND>  <b>Complete call chain:</b>      NetComm_CAN_Receive.vi:5470006      WPI_CANTalonSRX_Receive.vi      WPI_MotorControlOpenCANTalonSRX.vi      Begin.vi      Robot Main.vi,0.000000,0.000000,0.000000,0.000000,Speed,Speed,-0.780000,1.130000,2.940000,0.000000,102.000000,1,0,0.000000,-0.003968,0,0.000000,0.000000,0.000000,-0.152359,-0.028870,0.000000,-0.004000,-0.005000,0.003000,FlatInitial
10:41:02.565 AM 02/13/2016,Teleop Disabled,0,TRUE,-44087,NetComm_CAN_Receive.vi:5470006<APPEND>  <b>Complete call chain:</b>      NetComm_CAN_Receive.vi:5470006      WPI_CANTalonSRX_Receive.vi      WPI_MotorControlOpenCANTalonSRX.vi      Begin.vi      Robot Main.vi,0.000000,0.000000,0.000000,0.000000,Speed,Speed,-0.780000,1.130000,2.940000,0.000000,102.000000,1,0,0.000000,-0.003968,0,0.000000,0.000000,0.000000,-0.152359,-0.028870,0.000000,-0.004000,-0.005000,0.003000,FlatInitial
10:41:02.665 AM 02/13/2016,Teleop Disabled,0,TRUE,-44087,NetComm_CAN_Receive.vi:5470006<APPEND>  <b>Complete call chain:</b>      NetComm_CAN_Receive.vi:5470006      WPI_CANTalonSRX_Receive.vi      WPI_MotorControlOpenCANTalonSRX.vi      Begin.vi      Robot Main.vi,0.000000,0.000000,0.000000,0.000000,Speed,Speed,-0.780000,1.130000,2.940000,0.000000,101.000000,1,0,0.000000,-0.003968,0,0.000000,0.000000,0.000000,-0.152359,-0.028870,0.000000,-0.004000,-0.005000,0.003000,FlatInitial
10:41:02.765 AM 02/13/2016,Teleop Disabled,0,TRUE,-44087,NetComm_CAN_Receive.vi:5470006<APPEND>  <b>Complete call chain:</b>      NetComm_CAN_Receive.vi:5470006      WPI_CANTalonSRX_Receive.vi      WPI_MotorControlOpenCANTalonSRX.vi      Begin.vi      Robot Main.vi,0.000000,0.000000,0.000000,0.000000,Speed,Speed,-0.780000,1.130000,2.940000,0.000000,101.000000,1,0,0.000000,-0.003968,0,0.000000,0.000000,0.000000,-0.152359,-0.028870,0.000000,-0.004000,-0.005000,0.003000,FlatInitial
10:41:02.865 AM 02/13/2016,Teleop Disabled,0,TRUE,-44087,NetComm_CAN_Receive.vi:5470006<APPEND>  <b>Complete call chain:</b>      NetComm_CAN_Receive.vi:5470006      WPI_CANTalonSRX_Receive.vi      WPI_MotorControlOpenCANTalonSRX.vi      Begin.vi      Robot Main.vi,0.000000,0.000000,0.000000,0.000000,Speed,Speed,-0.780000,1.130000,2.940000,0.000000,101.000000,1,0,0.000000,-0.003968,0,0.000000,0.000000,0.000000,-0.152359,-0.028870,0.000000,-0.004000,-0.005000,0.003000,FlatInitial
10:41:02.966 AM 02/13/2016,Teleop Disabled,0,TRUE,-44087,NetComm_CAN_Receive.vi:5470006<APPEND>  <b>Complete call chain:</b>      NetComm_CAN_Receive.vi:5470006      WPI_CANTalonSRX_Receive.vi      WPI_MotorControlOpenCANTalonSRX.vi      Begin.vi      Robot Main.vi,0.000000,0.000000,0.000000,0.000000,Speed,Speed,-0.780000,1.130000,2.940000,0.000000,101.000000,1,0,0.000000,-0.003968,0,0.000000,0.000000,0.000000,-0.152359,-0.028870,0.000000,-0.004000,-0.005000,0.003000,FlatInitial
10:41:03.065 AM 02/13/2016,Teleop Disabled,0,TRUE,-44087,NetComm_CAN_Receive.vi:5470006<APPEND>  <b>Complete call chain:</b>      NetComm_CAN_Receive.vi:5470006      WPI_CANTalonSRX_Receive.vi      WPI_CANTalonSRX_GetStatus.vi      ShooterVI.vi      Periodic Tasks.vi      Robot Main.vi,0.000000,0.000000,0.000000,0.000000,Speed,Speed,-0.780000,1.130000,2.940000,0.000000,101.000000,1,0,0.000000,-0.003968,0,0.000000,0.000000,0.000000,-0.152359,-0.028870,0.000000,-0.004000,-0.005000,0.003000,FlatInitial
10:41:03.165 AM 02/13/2016,Teleop Disabled,0,TRUE,-44087,NetComm_CAN_Receive.vi:5470006<APPEND>  <b>Complete call chain:</b>      NetComm_CAN_Receive.vi:5470006      WPI_CANTalonSRX_Receive.vi      WPI_CANTalonSRX_GetStatus.vi      ShooterVI.vi      Periodic Tasks.vi      Robot Main.vi,0.000000,0.000000,0.000000,0.000000,Speed,Speed,-0.780000,1.130000,2.940000,0.000000,101.000000,1,0,0.000000,-0.003968,0,0.000000,0.000000,0.000000,-0.152359,-0.028870,0.000000,-0.004000,-0.005000,0.003000,FlatInitial
10:41:03.265 AM 02/13/2016,Teleop Disabled,0,FALSE,0,NO ERROR,0.000000,0.000000,0.000000,0.000000,Speed,Speed,-0.780000,1.130000,2.940000,0.000000,101.000000,1,0,0.000000,-0.003968,0,0.000000,0.000000,0.000000,-0.152359,-0.028870,0.000000,-0.004000,-0.005000,0.003000,FlatInitial
10:41:03.365 AM 02/13/2016,Teleop Disabled,0,FALSE,0,NO ERROR,0.000000,0.000000,0.000000,0.000000,Speed,Speed,-0.780000,1.130000,2.940000,0.000000,102.000000,1,0,0.000000,-0.003968,0,0.000000,0.000000,0.000000,-0.152359,-0.028870,0.000000,-0.004000,-0.005000,0.003000,FlatInitial
10:41:03.465 AM 02/13/2016,Teleop Enabled,0,FALSE,0,NO ERROR,0.000000,0.000000,0.000000,0.000000,Speed,Speed,-0.780000,1.130000,2.940000,0.000000,101.000000,1,0,0.000000,-0.003968,0,0.000000,0.000000,0.000000,-0.152359,-0.028870,0.000000,-0.004000,-0.005000,0.003000,FlatInitial
10:41:03.565 AM 02/13/2016,Teleop Enabled,0,FALSE,0,NO ERROR,0.000000,0.000000,0.000000,0.000000,Speed,Speed,-0.780000,1.130000,2.940000,0.000000,101.000000,1,0,0.000000,-0.003968,0,0.000000,0.000000,0.000000,-0.152359,-0.028870,0.000000,-0.004000,-0.005000,0.003000,FlatInitial
10:41:03.666 AM 02/13/2016,Teleop Enabled,0,FALSE,0,NO ERROR,0.000000,0.000000,0.000000,0.000000,Speed,Speed,-0.780000,1.130000,2.940000,0.000000,101.000000,1,0,0.000000,-0.003968,0,0.000000,0.000000,0.000000,-0.152359,-0.028870,0.000000,-0.004000,-0.005000,0.003000,FlatInitial
10:41:03.765 AM 02/13/2016,Teleop Enabled,0,FALSE,0,NO ERROR,0.000000,0.000000,0.000000,0.000000,Speed,Speed,-0.780000,1.130000,2.940000,0.000000,102.000000,1,0,0.000000,-0.003968,0,0.000000,0.000000,0.000000,-0.152359,-0.028870,0.000000,-0.004000,-0.005000,0.003000,FlatInitial
10:41:03.865 AM 02/13/2016,Teleop Enabled,0,FALSE,0,NO ERROR,0.000000,0.000000,0.000000,0.000000,Speed,Speed,-0.780000,1.130000,2.940000,0.000000,101.000000,1,0,0.000000,-0.003968,0,0.000000,0.000000,0.000000,-0.152359,-0.028870,0.000000,-0.004000,-0.005000,0.003000,FlatInitial
10:41:03.966 AM 02/13/2016,Teleop Enabled,0,FALSE,0,NO ERROR,0.000000,0.000000,0.000000,0.000000,Speed,Speed,-0.780000,1.130000,2.940000,0.000000,101.000000,1,0,0.000000,-0.003968,0,0.000000,0.000000,0.000000,-0.152359,-0.028870,0.000000,-0.004000,-0.005000,0.003000,FlatInitial
10:41:04.065 AM 02/13/2016,Teleop Enabled,0,FALSE,0,NO ERROR,0.000000,0.000000,0.000000,0.000000,Speed,Speed,-0.780000,1.130000,2.940000,0.000000,100.000000,1,0,0.000000,-0.003968,0,0.000000,0.000000,0.000000,-0.152359,-0.028870,0.000000,-0.004000,-0.005000,0.003000,FlatInitial
10:41:04.166 AM 02/13/2016,Teleop Enabled,0,FALSE,0,NO ERROR,0.000000,0.000000,0.000000,0.000000,Speed,Speed,-0.780000,1.130000,2.940000,0.000000,101.000000,1,0,0.000000,-0.003968,0,0.000000,0.000000,0.000000,-0.152359,-0.028870,0.000000,-0.004000,-0.005000,0.003000,FlatInitial
10:41:04.265 AM 02/13/2016,Teleop Enabled,0,FALSE,0,NO ERROR,0.000000,0.000000,0.000000,0.000000,Speed,Speed,-0.780000,1.130000,2.940000,0.000000,101.000000,1,0,0.000000,-0.003968,0,0.000000,0.000000,0.000000,-0.152359,-0.028870,0.000000,-0.004000,-0.005000,0.003000,FlatInitial
10:41:04.366 AM 02/13/2016,Teleop Enabled,0,FALSE,0,NO ERROR,0.000000,0.000000,0.000000,0.000000,Speed,Speed,-0.780000,1.130000,2.940000,0.000000,101.000000,1,0,0.000000,-0.003968,0,0.000000,0.000000,0.000000,-0.152359,-0.028870,0.000000,-0.004000,-0.005000,0.003000,FlatInitial
10:41:04.465 AM 02/13/2016,Teleop Enabled,0,FALSE,0,NO ERROR,0.000000,0.000000,0.000000,0.000000,Speed,Speed,-0.780000,1.130000,2.940000,0.000000,101.000000,1,0,0.000000,-0.003968,0,0.000000,0.000000,0.000000,-0.152359,-0.028870,0.000000,-0.004000,-0.005000,0.003000,FlatInitial
10:41:04.566 AM 02/13/2016,Teleop Enabled,0,FALSE,0,NO ERROR,0.000000,0.000000,0.000000,0.000000,Speed,Speed,-0.780000,1.130000,2.940000,0.000000,101.000000,1,0,0.000000,-0.003968,0,0.000000,0.000000,0.000000,-0.152359,-0.028870,0.000000,-0.004000,-0.005000,0.003000,FlatInitial
10:41:04.666 AM 02/13/2016,Teleop Enabled,0,FALSE,0,NO ERROR,0.000000,0.000000,0.000000,0.000000,Speed,Speed,-0.780000,1.130000,2.940000,0.000000,101.000000,1,0,0.000000,-0.003968,0,0.000000,0.000000,0.000000,-0.152359,-0.028870,0.000000,-0.004000,-0.005000,0.003000,FlatInitial
10:41:04.765 AM 02/13/2016,Teleop Enabled,0,FALSE,0,NO ERROR,0.000000,0.000000,0.000000,0.000000,Speed,Speed,-0.780000,1.130000,2.940000,0.000000,102.000000,1,0,0.000000,-0.003968,0,0.000000,0.000000,0.000000,-0.152359,-0.028870,0.000000,-0.004000,-0.005000,0.003000,FlatInitial
10:41:04.866 AM 02/13/2016,Teleop Enabled,0,FALSE,0,NO ERROR,0.000000,0.000000,0.000000,0.000000,Speed,Speed,-0.780000,1.130000,2.940000,0.000000,101.000000,1,0,0.000000,-0.003968,0,0.000000,0.000000,0.000000,-0.152359,-0.028870,0.000000,-0.004000,-0.005000,0.003000,FlatInitial
10:41:04.966 AM 02/13/2016,Teleop Enabled,0,FALSE,0,NO ERROR,0.000000,0.000000,0.000000,0.000000,Speed,Speed,-0.780000,1.130000,2.940000,0.000000,101.000000,1,0,0.000000,-0.003968,0,0.000000,0.000000,0.000000,-0.152359,-0.028870,0.000000,-0.004000,-0.005000,0.003000,FlatInitial
10:41:05.066 AM 02/13/2016,Teleop Enabled,0,FALSE,0,NO ERROR,0.000000,0.000000,0.000000,0.000000,Speed,Speed,-0.780000,1.130000,2.940000,0.000000,101.000000,1,0,0.000000,-0.003968,0,0.000000,0.000000,0.000000,-0.152359,-0.028870,0.000000,-0.004000,-0.005000,0.003000,FlatInitial
10:41:05.165 AM 02/13/2016,Teleop Enabled,0,FALSE,0,NO ERROR,0.000000,0.000000,-6000.000000,-6000.000000,Speed,Speed,-0.780000,1.130000,2.940000,1.000000,101.000000,1,0,0.000000,-0.003968,0,0.000000,0.000000,0.000000,-0.152359,-0.028870,0.000000,-0.004000,-0.005000,0.003000,FlatInitial
10:41:05.266 AM 02/13/2016,Teleop Enabled,0,FALSE,0,NO ERROR,0.000000,0.000000,0.000000,0.000000,Speed,Speed,-0.780000,1.130000,2.940000,2.000000,102.000000,1,0,0.000000,-0.003968,0,0.000000,0.000000,0.000000,-0.152359,-0.028870,0.000000,-0.004000,-0.005000,0.003000,FlatInitial
10:41:05.365 AM 02/13/2016,Teleop Enabled,0,FALSE,0,NO ERROR,0.000000,0.000000,0.000000,0.000000,Speed,Speed,-0.780000,1.130000,2.940000,2.000000,101.000000,1,0,0.000000,-0.003968,0,0.000000,0.000000,0.000000,-0.152359,-0.028870,0.000000,-0.004000,-0.005000,0.003000,FlatInitial
10:41:05.466 AM 02/13/2016,Teleop Enabled,0,FALSE,0,NO ERROR,0.000000,0.000000,0.000000,0.000000,Speed,Speed,-0.780000,1.130000,2.940000,2.000000,101.000000,1,0,0.000000,-0.003968,0,0.000000,0.000000,0.000000,-0.152359,-0.028870,0.000000,-0.004000,-0.005000,0.003000,FlatInitial
10:41:05.566 AM 02/13/2016,Teleop Enabled,0,FALSE,0,NO ERROR,0.000000,0.000000,0.000000,0.000000,Speed,Speed,-0.780000,1.130000,2.940000,2.000000,103.000000,1,0,0.000000,-0.003968,0,0.000000,0.000000,0.000000,-0.152359,-0.028870,0.000000,-0.004000,-0.005000,0.003000,FlatInitial
10:41:05.665 AM 02/13/2016,Teleop Enabled,0,FALSE,0,NO ERROR,0.000000,0.000000,0.000000,0.000000,Speed,Speed,-0.780000,1.130000,2.940000,2.000000,101.000000,1,0,0.000000,-0.003968,0,0.000000,0.000000,0.000000,-0.152359,-0.028870,0.000000,-0.004000,-0.005000,0.003000,FlatInitial
10:41:05.765 AM 02/13/2016,Teleop Enabled,0,FALSE,0,NO ERROR,0.000000,0.000000,0.000000,0.000000,Speed,Speed,-0.780000,1.130000,2.940000,2.000000,100.000000,1,0,0.000000,-0.003968,0,0.000000,0.000000,0.000000,-0.152359,-0.028870,0.000000,-0.004000,-0.005000,0.003000,FlatInitial
10:41:05.865 AM 02/13/2016,Teleop Enabled,0,FALSE,0,NO ERROR,0.000000,0.000000,0.000000,0.000000,Speed,Speed,-0.780000,1.130000,2.940000,2.000000,101.000000,1,0,0.000000,-0.003968,0,0.000000,0.000000,0.000000,-0.152359,-0.028870,0.000000,-0.004000,-0.005000,0.003000,FlatInitial
10:41:05.966 AM 02/13/2016,Teleop Enabled,0,FALSE,0,NO ERROR,0.000000,0.000000,0.000000,0.000000,Speed,Speed,-0.780000,1.130000,2.940000,2.000000,101.000000,1,0,0.000000,-0.003968,0,0.000000,0.000000,0.000000,-0.152359,-0.028870,0.000000,-0.004000,-0.005000,0.003000,FlatInitial
10:41:06.065 AM 02/13/2016,Teleop Enabled,0,FALSE,0,NO ERROR,0.000000,0.000000,0.000000,0.000000,Speed,Speed,-0.780000,1.130000,2.940000,2.000000,102.000000,1,0,0.000000,-0.003968,0,0.000000,0.000000,0.000000,-0.152359,-0.028870,0.000000,-0.004000,-0.005000,0.003000,FlatInitial
10:41:06.166 AM 02/13/2016,Teleop Enabled,0,FALSE,0,NO ERROR,0.000000,0.000000,0.000000,0.000000,Speed,Speed,-0.780000,1.130000,2.940000,2.000000,101.000000,1,0,0.000000,-0.003968,0,0.000000,0.000000,0.000000,-0.152359,-0.028870,0.000000,-0.004000,-0.005000,0.003000,FlatInitial
10:41:06.266 AM 02/13/2016,Teleop Enabled,0,FALSE,0,NO ERROR,0.000000,0.000000,0.000000,0.000000,Speed,Speed,-0.780000,1.130000,2.940000,2.000000,102.000000,1,0,0.000000,-0.003968,0,0.000000,0.000000,0.000000,-0.152359,-0.028870,0.000000,-0.004000,-0.005000,0.003000,FlatInitial
10:41:06.366 AM 02/13/2016,Teleop Enabled,0,FALSE,0,NO ERROR,0.000000,0.000000,0.000000,0.000000,Speed,Speed,-0.780000,1.130000,2.940000,2.000000,101.000000,1,0,0.000000,-0.003968,0,0.000000,0.000000,0.000000,-0.152359,-0.028870,0.000000,-0.004000,-0.005000,0.003000,FlatInitial
10:41:06.465 AM 02/13/2016,Teleop Enabled,0,FALSE,0,NO ERROR,0.000000,0.000000,4000.000000,4000.000000,Speed,Speed,-0.780000,1.130000,2.940000,3.000000,101.000000,1,0,0.000000,-0.003968,0,0.000000,0.000000,0.000000,-0.152359,-0.028870,0.000000,-0.004000,-0.005000,0.003000,FlatInitial
10:41:06.565 AM 02/13/2016,Teleop Enabled,0,FALSE,0,NO ERROR,0.000000,0.000000,4000.000000,4000.000000,Speed,Speed,-0.780000,1.130000,2.940000,3.000000,102.000000,1,0,0.000000,-0.003968,0,0.000000,0.000000,0.000000,-0.152359,-0.028870,0.000000,-0.004000,-0.005000,0.003000,FlatInitial
10:41:06.666 AM 02/13/2016,Teleop Enabled,0,FALSE,0,NO ERROR,0.000000,0.000000,4000.000000,4000.000000,Speed,Speed,-0.780000,1.130000,2.940000,3.000000,101.000000,1,0,0.000000,-0.003968,0,0.000000,0.000000,0.000000,-0.152359,-0.028870,0.000000,-0.004000,-0.005000,0.003000,FlatInitial
10:41:06.765 AM 02/13/2016,Teleop Enabled,0,FALSE,0,NO ERROR,0.000000,0.000000,4000.000000,4000.000000,Speed,Speed,-0.780000,1.130000,2.940000,3.000000,101.000000,1,0,0.000000,-0.003968,0,0.000000,0.000000,0.000000,-0.152359,-0.028870,0.000000,-0.004000,-0.005000,0.003000,FlatInitial
10:41:06.865 AM 02/13/2016,Teleop Enabled,0,TRUE,-44003,<LOCATION>WPI_CameraIssue HTTP Request with Authentication.vi<CALLSTACK>WPI_CameraIssue HTTP Request with Authentication.vi< <WPI_CameraIssue Get.vi< <WPI_CameraSet Image Appearance Property.vi< <WPI_CameraSet Image Size.vi< <Vision Processing.vi< <Robot Main.vi,0.000000,0.000000,4000.000000,4000.000000,Speed,Speed,-0.780000,1.130000,2.940000,3.000000,101.000000,1,0,0.000000,-0.003968,0,0.000000,0.000000,0.000000,-0.152359,-0.028870,0.000000,-0.004000,-0.005000,0.003000,FlatInitial
10:41:06.966 AM 02/13/2016,Teleop Enabled,0,FALSE,0,NO ERROR,0.000000,0.000000,4000.000000,4000.000000,Speed,Speed,-0.020000,1.130000,2.950000,3.000000,101.000000,1,0,0.000000,-0.003968,0,0.000000,0.000000,0.000000,-0.141617,0.024887,0.000000,0.003000,0.001000,-0.005000,FlatInitial
10:41:07.066 AM 02/13/2016,Teleop Enabled,0,FALSE,0,NO ERROR,0.000000,0.000000,4000.000000,4000.000000,Speed,Speed,0.000000,1.100000,2.950000,3.000000,103.000000,1,0,0.000000,-0.003968,0,0.000000,0.000000,0.000000,-0.141617,0.024887,0.000000,-0.001000,-0.005000,-0.008000,FlatInitial
10:41:07.167 AM 02/13/2016,Teleop Enabled,0,FALSE,0,NO ERROR,0.000000,0.000000,4000.000000,4000.000000,Speed,Speed,-0.010000,1.120000,2.940000,3.000000,101.000000,1,0,0.000000,-0.003968,0,0.000000,0.000000,0.000000,-0.141617,0.024887,0.000000,-0.004000,0.006000,-0.004000,FlatInitial
10:41:07.268 AM 02/13/2016,Teleop Enabled,0,FALSE,0,NO ERROR,0.000000,0.000000,4000.000000,4000.000000,Speed,Speed,0.000000,1.090000,2.940000,3.000000,101.000000,1,0,0.000000,-0.003968,0,0.000000,0.000000,0.000000,-0.141617,0.024887,0.000000,0.004000,-0.001000,-0.004000,FlatInitial
10:41:07.369 AM 02/13/2016,Teleop Enabled,0,FALSE,0,NO ERROR,0.000000,0.000000,4000.000000,4000.000000,Speed,Speed,-0.010000,1.100000,2.950000,3.000000,100.000000,1,0,0.000000,-0.003968,0,0.000000,0.000000,0.000000,-0.141617,0.024887,0.000000,-0.001000,0.003000,0.002000,FlatInitial
10:41:07.470 AM 02/13/2016,Teleop Enabled,0,FALSE,0,NO ERROR,0.000000,0.000000,4000.000000,4000.000000,Speed,Speed,0.000000,1.090000,2.940000,3.000000,102.000000,1,0,0.000000,-0.003968,0,0.000000,0.000000,0.000000,-0.141617,0.024887,0.000000,0.001000,-0.003000,0.000000,FlatInitial
10:41:07.571 AM 02/13/2016,Teleop Enabled,0,FALSE,0,NO ERROR,0.000000,0.000000,4000.000000,4000.000000,Speed,Speed,0.000000,1.110000,2.940000,3.000000,101.000000,1,0,0.000000,-0.003968,0,0.000000,0.000000,0.000000,-0.141617,0.024887,0.000000,-0.001000,0.004000,0.002000,FlatInitial
10:41:07.671 AM 02/13/2016,Teleop Enabled,0,FALSE,0,NO ERROR,0.000000,0.000000,4000.000000,4000.000000,Speed,Speed,0.000000,1.090000,2.930000,3.000000,102.000000,1,0,0.000000,-0.003968,0,0.000000,0.000000,0.000000,-0.141617,0.024887,0.000000,0.001000,0.001000,-0.003000,FlatInitial
10:41:07.771 AM 02/13/2016,Teleop Enabled,0,FALSE,0,NO ERROR,0.000000,0.000000,4000.000000,4000.000000,Speed,Speed,0.000000,1.110000,2.940000,3.000000,103.000000,1,0,0.000000,-0.003968,0,0.000000,0.000000,0.000000,-0.141617,0.024887,0.000000,0.000000,0.002000,0.000000,FlatInitial
10:41:07.872 AM 02/13/2016,Teleop Enabled,0,FALSE,0,NO ERROR,0.000000,0.000000,4000.000000,4000.000000,Speed,Speed,0.000000,1.100000,2.940000,3.000000,102.000000,1,0,0.000000,-0.003968,0,0.000000,0.000000,0.000000,-0.141617,0.024887,0.000000,0.002000,-0.002000,-0.002000,FlatInitial
10:41:07.973 AM 02/13/2016,Teleop Enabled,0,FALSE,0,NO ERROR,0.000000,0.000000,4000.000000,4000.000000,Speed,Speed,0.000000,1.110000,2.940000,3.000000,102.000000,1,0,0.000000,-0.003968,0,0.000000,0.000000,0.000000,-0.141617,0.024887,0.000000,-0.001000,0.001000,0.000000,FlatInitial
10:41:08.073 AM 02/13/2016,Teleop Enabled,0,FALSE,0,NO ERROR,0.000000,0.000000,4000.000000,4000.000000,Speed,Speed,0.000000,1.100000,2.940000,3.000000,103.000000,1,0,0.000000,-0.003968,0,0.000000,0.000000,0.000000,-0.141617,0.024887,0.000000,0.000000,0.000000,0.002000,FlatInitial
10:41:08.175 AM 02/13/2016,Teleop Enabled,0,FALSE,0,NO ERROR,0.000000,0.000000,4000.000000,4000.000000,Speed,Speed,0.000000,1.110000,2.950000,3.000000,103.000000,1,0,0.000000,-0.003968,0,0.000000,0.000000,0.000000,-0.141617,0.024887,0.000000,-0.002000,-0.001000,-0.003000,FlatInitial
10:41:08.276 AM 02/13/2016,Teleop Enabled,0,FALSE,0,NO ERROR,0.000000,0.000000,4000.000000,4000.000000,Speed,Speed,0.000000,1.100000,2.950000,3.000000,102.000000,1,0,0.000000,-0.003968,0,0.000000,0.000000,0.000000,-0.141617,0.024887,0.000000,0.001000,0.000000,-0.003000,FlatInitial
10:41:08.377 AM 02/13/2016,Teleop Enabled,0,FALSE,0,NO ERROR,0.000000,0.000000,9000.000000,9000.000000,Speed,Speed,0.000000,1.100000,2.950000,4.000000,101.000000,1,0,0.000000,-0.003968,0,0.000000,0.000000,0.000000,-0.141617,0.024887,0.000000,-0.004000,-0.002000,0.001000,FlatInitial
10:41:08.476 AM 02/13/2016,Teleop Enabled,0,FALSE,0,NO ERROR,0.000000,0.000000,9000.000000,9000.000000,Speed,Speed,0.030000,1.000000,3.060000,4.000000,101.000000,1,0,0.000000,-0.003968,0,-0.003708,-0.050354,0.000000,-0.142349,0.024353,0.000000,0.274000,-0.146000,0.227000,FlatInitial
10:41:08.576 AM 02/13/2016,Teleop Enabled,0,FALSE,0,NO ERROR,0.000000,0.000000,9000.000000,9000.000000,Speed,Speed,0.000000,1.050000,2.960000,4.000000,103.000000,1,0,0.000000,-0.003968,0,-0.021103,0.000000,0.000000,-0.142670,0.021667,0.000000,-0.130000,0.012000,-0.031000,FlatInitial
10:41:08.676 AM 02/13/2016,Teleop Enabled,0,FALSE,0,NO ERROR,0.000000,0.000000,9000.000000,9000.000000,Speed,Speed,-0.050000,0.970000,3.010000,4.000000,101.000000,1,0,0.000000,-0.003968,0,-0.034790,0.007904,0.000000,-0.144150,0.021744,0.000000,0.027000,0.046000,-0.076000,FlatInitial
10:41:08.776 AM 02/13/2016,Teleop Enabled,0,FALSE,0,NO ERROR,0.000000,0.000000,9000.000000,9000.000000,Speed,Speed,-0.040000,1.030000,3.070000,4.000000,101.000000,1,0,0.000000,-0.003968,0,-0.024933,0.042557,0.000000,-0.145477,0.023224,0.000000,-0.006000,0.030000,-0.070000,FlatInitial
10:41:08.877 AM 02/13/2016,Teleop Enabled,0,FALSE,0,NO ERROR,0.000000,0.000000,9000.000000,9000.000000,Speed,Speed,-0.010000,1.030000,2.800000,4.000000,101.000000,1,0,0.000000,-0.003968,0,-0.017761,0.061203,0.000000,-0.146744,0.025665,0.000000,-0.020000,0.037000,0.098000,FlatInitial
10:41:08.977 AM 02/13/2016,Teleop Enabled,0,FALSE,0,NO ERROR,0.000000,0.000000,9000.000000,9000.000000,Speed,Speed,-0.020000,1.060000,2.960000,4.000000,105.000000,1,0,0.000000,-0.003968,0,-0.003586,0.053589,0.000000,-0.147049,0.029037,0.000000,-0.081000,-0.104000,0.189000,FlatInitial
10:41:09.077 AM 02/13/2016,Teleop Enabled,0,FALSE,0,NO ERROR,0.000000,0.000000,9000.000000,9000.000000,Speed,Speed,0.040000,1.020000,1.400000,4.000000,102.000000,1,0,0.000000,-0.003968,0,-0.013992,-0.009293,0.000000,-0.147369,0.029343,0.000000,0.054000,0.040000,-0.119000,FlatInitial
10:41:09.178 AM 02/13/2016,Teleop Enabled,0,FALSE,0,NO ERROR,0.000000,0.000000,9000.000000,9000.000000,Speed,Speed,-0.050000,1.020000,2.070000,4.000000,101.000000,1,0,0.000000,-0.003968,0,0.000000,-0.015610,0.000000,-0.147598,0.028778,0.000000,0.004000,-0.005000,-0.043000,FlatInitial
10:41:09.278 AM 02/13/2016,Teleop Enabled,0,FALSE,0,NO ERROR,0.000000,0.000000,9000.000000,9000.000000,Speed,Speed,-0.070000,1.060000,2.830000,4.000000,104.000000,1,0,0.000000,-0.003968,0,-0.022324,-0.066772,0.000000,-0.148254,0.025848,0.000000,-0.009000,-0.027000,0.031000,FlatInitial
10:41:09.378 AM 02/13/2016,Teleop Enabled,0,FALSE,0,NO ERROR,0.000000,0.000000,9000.000000,9000.000000,Speed,Speed,-0.090000,1.040000,2.730000,4.000000,100.000000,1,0,0.000000,-0.003968,0,0.000000,0.000000,0.000000,-0.148773,0.024521,0.000000,0.033000,-0.014000,0.106000,FlatInitial
10:41:09.478 AM 02/13/2016,Teleop Enabled,0,FALSE,0,NO ERROR,0.000000,0.000000,9000.000000,9000.000000,Speed,Speed,-0.130000,1.030000,2.600000,4.000000,103.000000,1,0,0.000000,-0.003968,0,0.000000,0.014557,0.000000,-0.148468,0.024826,0.000000,0.000000,0.014000,0.026000,FlatInitial
10:41:09.579 AM 02/13/2016,Teleop Enabled,0,FALSE,0,NO ERROR,0.000000,0.000000,9000.000000,9000.000000,Speed,Speed,-0.130000,1.050000,2.750000,4.000000,100.000000,1,0,0.000000,-0.003968,0,0.000000,0.000000,0.000000,-0.148468,0.024826,0.000000,0.013000,0.005000,0.026000,FlatInitial
10:41:09.679 AM 02/13/2016,Teleop Enabled,0,FALSE,0,NO ERROR,0.000000,0.000000,9000.000000,9000.000000,Speed,Speed,-0.130000,1.070000,2.750000,4.000000,101.000000,1,0,0.000000,-0.003968,0,0.000000,0.000000,0.000000,-0.148468,0.024826,0.000000,0.002000,0.007000,0.007000,FlatInitial
10:41:09.779 AM 02/13/2016,Teleop Enabled,0,FALSE,0,NO ERROR,0.000000,0.000000,9000.000000,9000.000000,Speed,Speed,-0.130000,1.070000,2.710000,4.000000,102.000000,1,0,0.000000,-0.003968,0,0.000000,0.000000,0.000000,-0.148468,0.024826,0.000000,0.007000,-0.011000,0.011000,FlatInitial
10:41:09.879 AM 02/13/2016,Teleop Enabled,0,FALSE,0,NO ERROR,0.000000,0.000000,9000.000000,9000.000000,Speed,Speed,-0.120000,1.070000,2.720000,4.000000,103.000000,1,0,0.000000,-0.003968,0,0.000000,0.000000,0.000000,-0.148468,0.024826,0.000000,-0.009000,0.004000,0.000000,FlatInitial
10:41:09.980 AM 02/13/2016,Teleop Enabled,0,FALSE,0,NO ERROR,0.000000,0.000000,9000.000000,9000.000000,Speed,Speed,-0.130000,1.070000,2.730000,4.000000,102.000000,1,0,0.000000,-0.003968,0,0.000000,0.000000,0.000000,-0.148468,0.024826,0.000000,-0.006000,0.001000,-0.001000,FlatInitial
10:41:10.081 AM 02/13/2016,Teleop Enabled,0,FALSE,0,NO ERROR,0.000000,0.000000,9000.000000,9000.000000,Speed,Speed,-0.120000,1.090000,2.720000,4.000000,102.000000,1,0,0.000000,-0.003968,0,0.000000,0.000000,0.000000,-0.148468,0.024826,0.000000,-0.001000,-0.002000,0.002000,FlatInitial
10:41:10.181 AM 02/13/2016,Teleop Enabled,0,FALSE,0,NO ERROR,0.000000,0.000000,9000.000000,9000.000000,Speed,Speed,-0.130000,1.080000,2.720000,4.000000,106.000000,1,0,0.000000,-0.003968,0,0.000000,0.000000,0.000000,-0.148468,0.024826,0.000000,0.005000,0.003000,0.002000,FlatInitial
10:41:10.281 AM 02/13/2016,Teleop Enabled,0,FALSE,0,NO ERROR,0.000000,0.000000,9000.000000,9000.000000,Speed,Speed,-0.120000,1.090000,2.720000,4.000000,100.000000,1,0,0.000000,-0.003968,0,0.000000,0.000000,0.000000,-0.148468,0.024826,0.000000,-0.001000,-0.002000,-0.004000,FlatInitial
10:41:10.381 AM 02/13/2016,Teleop Enabled,0,FALSE,0,NO ERROR,0.000000,0.000000,9000.000000,9000.000000,Speed,Speed,-0.120000,1.090000,2.720000,4.000000,100.000000,1,0,0.000000,-0.003968,0,0.000000,0.000000,0.000000,-0.148468,0.024826,0.000000,0.002000,0.004000,-0.003000,FlatInitial
10:41:10.481 AM 02/13/2016,Teleop Enabled,0,FALSE,0,NO ERROR,0.000000,0.000000,9000.000000,9000.000000,Speed,Speed,-0.120000,1.090000,2.730000,4.000000,100.000000,1,0,0.000000,-0.003968,0,0.000000,0.000000,0.000000,-0.148468,0.024826,0.000000,-0.002000,0.000000,-0.005000,FlatInitial
10:41:10.581 AM 02/13/2016,Teleop Enabled,0,FALSE,0,NO ERROR,0.000000,0.000000,9000.000000,9000.000000,Speed,Speed,-0.120000,1.100000,2.720000,4.000000,101.000000,1,0,0.000000,-0.003968,0,0.000000,0.000000,0.000000,-0.148468,0.024826,0.000000,0.004000,0.000000,0.001000,FlatInitial
10:41:10.681 AM 02/13/2016,Teleop Enabled,0,FALSE,0,NO ERROR,0.000000,0.000000,9000.000000,9000.000000,Speed,Speed,-0.110000,1.100000,2.730000,4.000000,105.000000,1,0,0.000000,-0.003968,0,0.000000,0.000000,0.000000,-0.148468,0.024826,0.000000,-0.003000,0.002000,0.001000,FlatInitial
10:41:10.781 AM 02/13/2016,Teleop Enabled,0,FALSE,0,NO ERROR,0.000000,0.000000,9000.000000,9000.000000,Speed,Speed,-0.110000,1.100000,2.730000,4.000000,102.000000,1,0,0.000000,-0.003968,0,0.000000,0.000000,0.000000,-0.148468,0.024826,0.000000,0.001000,-0.003000,0.000000,FlatInitial
10:41:10.880 AM 02/13/2016,Teleop Enabled,0,FALSE,0,NO ERROR,0.000000,0.000000,9000.000000,9000.000000,Speed,Speed,-0.110000,1.110000,2.720000,4.000000,102.000000,1,0,0.000000,-0.003968,0,0.000000,0.000000,0.000000,-0.148468,0.024826,0.000000,0.000000,0.000000,-0.001000,FlatInitial
10:41:10.981 AM 02/13/2016,Teleop Enabled,0,FALSE,0,NO ERROR,0.000000,0.000000,9000.000000,9000.000000,Speed,Speed,-0.110000,1.100000,2.730000,4.000000,102.000000,1,0,0.000000,-0.003968,0,0.000000,0.000000,0.000000,-0.148468,0.024826,0.000000,0.003000,-0.001000,0.002000,FlatInitial
10:41:11.080 AM 02/13/2016,Teleop Enabled,0,FALSE,0,NO ERROR,0.000000,0.000000,9000.000000,9000.000000,Speed,Speed,-0.110000,1.100000,2.720000,4.000000,101.000000,1,0,0.000000,-0.003968,0,0.000000,0.000000,0.000000,-0.148468,0.024826,0.000000,-0.001000,0.000000,0.001000,FlatInitial
10:41:11.181 AM 02/13/2016,Teleop Enabled,0,FALSE,0,NO ERROR,0.000000,0.000000,9000.000000,9000.000000,Speed,Speed,-0.110000,1.090000,2.720000,4.000000,104.000000,1,0,0.000000,-0.003968,0,0.000000,0.000000,0.000000,-0.148468,0.024826,0.000000,-0.001000,0.000000,0.001000,FlatInitial
10:41:11.281 AM 02/13/2016,Teleop Enabled,0,FALSE,0,NO ERROR,0.000000,0.000000,9000.000000,9000.000000,Speed,Speed,-0.110000,1.100000,2.710000,4.000000,102.000000,1,0,0.000000,-0.003968,0,0.000000,0.000000,0.000000,-0.148468,0.024826,0.000000,0.002000,-0.005000,0.000000,FlatInitial
10:41:11.380 AM 02/13/2016,Teleop Enabled,0,FALSE,0,NO ERROR,0.000000,0.000000,9000.000000,9000.000000,Speed,Speed,-0.110000,1.100000,2.710000,4.000000,105.000000,1,0,0.000000,-0.003968,0,0.000000,0.000000,0.000000,-0.148468,0.024826,0.000000,0.002000,-0.005000,0.000000,FlatInitial
10:41:11.481 AM 02/13/2016,Teleop Enabled,0,FALSE,0,NO ERROR,0.000000,0.000000,9000.000000,9000.000000,Speed,Speed,-0.110000,1.090000,2.720000,4.000000,103.000000,1,0,0.000000,-0.003968,0,0.000000,0.000000,0.000000,-0.148468,0.024826,0.000000,0.001000,0.000000,0.002000,FlatInitial
10:41:11.581 AM 02/13/2016,Teleop Enabled,0,FALSE,0,NO ERROR,0.000000,0.000000,9000.000000,9000.000000,Speed,Speed,-0.110000,1.090000,2.720000,4.000000,102.000000,1,0,0.000000,-0.003968,0,0.000000,0.000000,0.000000,-0.148468,0.024826,0.000000,0.001000,-0.001000,-0.001000,FlatInitial
10:41:11.681 AM 02/13/2016,Teleop Enabled,0,FALSE,0,NO ERROR,0.000000,0.000000,9000.000000,9000.000000,Speed,Speed,-0.110000,1.100000,2.710000,4.000000,102.000000,1,0,0.000000,-0.003968,0,0.000000,0.000000,0.000000,-0.148468,0.024826,0.000000,0.000000,-0.001000,-0.002000,FlatInitial
10:41:11.781 AM 02/13/2016,Teleop Enabled,0,FALSE,0,NO ERROR,0.000000,0.000000,9000.000000,9000.000000,Speed,Speed,-0.110000,1.100000,2.720000,4.000000,101.000000,1,0,0.000000,-0.003968,0,0.000000,0.000000,0.000000,-0.148468,0.024826,0.000000,0.002000,-0.003000,0.002000,FlatInitial
10:41:11.882 AM 02/13/2016,Teleop Enabled,0,FALSE,0,NO ERROR,0.000000,0.000000,9000.000000,9000.000000,Speed,Speed,-0.110000,1.100000,2.710000,4.000000,104.000000,1,0,0.000000,-0.003968,0,0.000000,0.000000,0.000000,-0.148468,0.024826,0.000000,0.002000,-0.003000,0.002000,FlatInitial
10:41:11.982 AM 02/13/2016,Teleop Enabled,0,FALSE,0,NO ERROR,0.000000,0.000000,9000.000000,9000.000000,Speed,Speed,-0.110000,1.100000,2.710000,4.000000,103.000000,1,0,0.000000,-0.003968,0,0.000000,0.000000,0.000000,-0.148468,0.024826,0.000000,0.000000,0.000000,-0.001000,FlatInitial
10:41:12.085 AM 02/13/2016,Teleop Enabled,0,FALSE,0,NO ERROR,0.000000,0.000000,9000.000000,9000.000000,Speed,Speed,-0.110000,1.100000,2.710000,4.000000,102.000000,1,0,0.000000,-0.003968,0,0.000000,0.000000,0.000000,-0.148468,0.024826,0.000000,0.000000,0.002000,0.000000,FlatInitial
10:41:12.186 AM 02/13/2016,Teleop Enabled,0,FALSE,0,NO ERROR,0.000000,0.000000,9000.000000,9000.000000,Speed,Speed,-0.100000,1.090000,2.710000,4.000000,101.000000,1,0,0.000000,-0.003968,0,0.000000,0.000000,0.000000,-0.148468,0.024826,0.000000,0.001000,-0.003000,0.000000,FlatInitial
10:41:12.288 AM 02/13/2016,Teleop Enabled,0,FALSE,0,NO ERROR,0.000000,0.000000,9000.000000,9000.000000,Speed,Speed,-0.100000,1.100000,2.700000,4.000000,102.000000,1,0,0.000000,-0.003968,0,0.000000,0.000000,0.000000,-0.148468,0.024826,0.000000,0.001000,-0.003000,0.000000,FlatInitial
10:41:12.389 AM 02/13/2016,Teleop Enabled,0,FALSE,0,NO ERROR,0.000000,0.000000,9000.000000,9000.000000,Speed,Speed,-0.100000,1.100000,2.700000,4.000000,101.000000,1,0,0.000000,-0.003968,0,0.000000,0.000000,0.000000,-0.148468,0.024826,0.000000,0.000000,0.001000,-0.002000,FlatInitial
10:41:12.489 AM 02/13/2016,Teleop Enabled,0,FALSE,0,NO ERROR,0.000000,0.000000,9000.000000,9000.000000,Speed,Speed,-0.090000,1.090000,2.710000,4.000000,102.000000,1,0,0.000000,-0.003968,0,0.000000,0.000000,0.000000,-0.148468,0.024826,0.000000,0.000000,-0.001000,-0.004000,FlatInitial
10:41:12.590 AM 02/13/2016,Teleop Enabled,0,FALSE,0,NO ERROR,0.000000,0.000000,9000.000000,9000.000000,Speed,Speed,-0.090000,1.090000,2.710000,4.000000,101.000000,1,0,0.000000,-0.003968,0,0.000000,0.000000,0.000000,-0.148468,0.024826,0.000000,0.001000,0.000000,0.000000,FlatInitial
10:41:12.690 AM 02/13/2016,Teleop Enabled,0,FALSE,0,NO ERROR,0.000000,0.000000,9000.000000,9000.000000,Speed,Speed,-0.090000,1.100000,2.700000,4.000000,102.000000,1,0,0.000000,-0.003968,0,0.000000,0.000000,0.000000,-0.148468,0.024826,0.000000,0.002000,0.000000,0.002000,FlatInitial
10:41:12.791 AM 02/13/2016,Teleop Enabled,0,FALSE,0,NO ERROR,0.000000,0.000000,9000.000000,9000.000000,Speed,Speed,-0.090000,1.090000,2.700000,4.000000,101.000000,1,0,0.000000,-0.003968,0,0.000000,0.000000,0.000000,-0.148468,0.024826,0.000000,0.000000,-0.001000,0.001000,FlatInitial
10:41:12.892 AM 02/13/2016,Teleop Enabled,0,FALSE,0,NO ERROR,0.000000,0.000000,9000.000000,9000.000000,Speed,Speed,-0.090000,1.100000,2.700000,4.000000,101.000000,1,0,0.000000,-0.003968,0,0.000000,0.000000,0.000000,-0.148468,0.024826,0.000000,-0.002000,0.001000,0.001000,FlatInitial
10:41:12.993 AM 02/13/2016,Teleop Enabled,0,FALSE,0,NO ERROR,0.000000,0.000000,9000.000000,9000.000000,Speed,Speed,-0.090000,1.100000,2.700000,4.000000,102.000000,1,0,0.000000,-0.003968,0,0.000000,0.000000,0.000000,-0.148468,0.024826,0.000000,0.002000,0.001000,-0.004000,FlatInitial
10:41:13.094 AM 02/13/2016,Teleop Enabled,0,FALSE,0,NO ERROR,0.000000,0.000000,9000.000000,9000.000000,Speed,Speed,-0.090000,1.090000,2.710000,4.000000,102.000000,1,0,0.000000,-0.003968,0,0.000000,0.000000,0.000000,-0.148468,0.024826,0.000000,0.000000,-0.003000,-0.002000,FlatInitial
10:41:13.195 AM 02/13/2016,Teleop Enabled,0,FALSE,0,NO ERROR,0.000000,0.000000,9000.000000,9000.000000,Speed,Speed,-0.090000,1.080000,2.700000,4.000000,102.000000,1,0,0.000000,-0.003968,0,0.000000,0.000000,0.000000,-0.148468,0.024826,0.000000,0.000000,-0.002000,-0.005000,FlatInitial
10:41:13.295 AM 02/13/2016,Teleop Enabled,0,FALSE,0,NO ERROR,0.000000,0.000000,9000.000000,9000.000000,Speed,Speed,-0.090000,1.080000,2.700000,4.000000,102.000000,1,0,0.000000,-0.003968,0,0.000000,0.000000,0.000000,-0.148468,0.024826,0.000000,0.000000,0.000000,0.003000,FlatInitial
10:41:13.395 AM 02/13/2016,Teleop Enabled,0,FALSE,0,NO ERROR,0.000000,0.000000,9000.000000,9000.000000,Speed,Speed,-0.080000,1.080000,2.710000,4.000000,102.000000,1,0,0.000000,-0.003968,0,0.000000,0.000000,0.000000,-0.148468,0.024826,0.000000,0.000000,0.000000,-0.002000,FlatInitial
10:41:13.495 AM 02/13/2016,Teleop Enabled,0,FALSE,0,NO ERROR,0.000000,0.000000,9000.000000,9000.000000,Speed,Speed,-0.080000,1.080000,2.710000,4.000000,102.000000,1,0,0.000000,-0.003968,0,0.000000,0.000000,0.000000,-0.148468,0.024826,0.000000,0.000000,0.000000,0.001000,FlatInitial
10:41:13.596 AM 02/13/2016,Teleop Enabled,0,FALSE,0,NO ERROR,0.000000,0.000000,9000.000000,9000.000000,Speed,Speed,-0.080000,1.090000,2.710000,4.000000,101.000000,1,0,0.000000,-0.003968,0,0.000000,0.000000,0.000000,-0.148468,0.024826,0.000000,0.000000,0.000000,0.000000,FlatInitial
10:41:13.697 AM 02/13/2016,Teleop Enabled,0,FALSE,0,NO ERROR,0.000000,0.000000,9000.000000,9000.000000,Speed,Speed,-0.080000,1.090000,2.710000,4.000000,101.000000,1,0,0.000000,-0.003968,0,0.000000,0.000000,0.000000,-0.148468,0.024826,0.000000,0.000000,0.000000,-0.001000,FlatInitial
10:41:13.796 AM 02/13/2016,Teleop Enabled,0,FALSE,0,NO ERROR,0.000000,0.000000,9000.000000,9000.000000,Speed,Speed,-0.090000,1.090000,2.700000,4.000000,102.000000,1,0,0.000000,-0.003968,0,0.000000,0.000000,0.000000,-0.148468,0.024826,0.000000,0.000000,0.003000,-0.002000,FlatInitial
10:41:13.897 AM 02/13/2016,Teleop Enabled,0,FALSE,0,NO ERROR,0.000000,0.000000,9000.000000,9000.000000,Speed,Speed,-0.080000,1.090000,2.710000,4.000000,102.000000,1,0,0.000000,-0.003968,0,0.000000,0.000000,0.000000,-0.148468,0.024826,0.000000,0.003000,-0.001000,-0.002000,FlatInitial
10:41:13.997 AM 02/13/2016,Teleop Enabled,0,FALSE,0,NO ERROR,0.000000,0.000000,9000.000000,9000.000000,Speed,Speed,-0.080000,1.100000,2.700000,4.000000,102.000000,1,0,0.000000,-0.003968,0,0.000000,0.000000,0.000000,-0.148468,0.024826,0.000000,0.004000,-0.001000,-0.005000,FlatInitial
10:41:14.099 AM 02/13/2016,Teleop Enabled,0,FALSE,0,NO ERROR,0.000000,0.000000,9000.000000,9000.000000,Speed,Speed,-0.080000,1.100000,2.700000,4.000000,102.000000,1,0,0.000000,-0.003968,0,0.000000,0.000000,0.000000,-0.148468,0.024826,0.000000,0.000000,0.000000,0.000000,FlatInitial
10:41:14.200 AM 02/13/2016,Teleop Enabled,0,FALSE,0,NO ERROR,0.000000,0.000000,9000.000000,9000.000000,Speed,Speed,-0.080000,1.100000,2.700000,4.000000,104.000000,1,0,0.000000,-0.003968,0,0.000000,0.000000,0.000000,-0.148468,0.024826,0.000000,0.004000,-0.001000,-0.004000,FlatInitial
10:41:14.305 AM 02/13/2016,Teleop Enabled,0,FALSE,0,NO ERROR,0.000000,0.000000,9000.000000,9000.000000,Speed,Speed,-0.080000,1.100000,2.700000,4.000000,104.000000,1,0,0.000000,-0.003968,0,0.000000,0.000000,0.000000,-0.148468,0.024826,0.000000,0.000000,-0.002000,0.000000,FlatInitial
10:41:14.407 AM 02/13/2016,Teleop Enabled,0,FALSE,0,NO ERROR,0.000000,0.000000,9000.000000,9000.000000,Speed,Speed,-0.080000,1.100000,2.710000,4.000000,103.000000,1,0,0.000000,-0.003968,0,0.000000,0.000000,0.000000,-0.148468,0.024826,0.000000,0.002000,-0.001000,0.000000,FlatInitial
10:41:14.510 AM 02/13/2016,Teleop Enabled,0,FALSE,0,NO ERROR,0.000000,0.000000,9000.000000,9000.000000,Speed,Speed,-0.080000,1.100000,2.700000,4.000000,102.000000,1,0,0.000000,-0.003968,0,0.000000,0.000000,0.000000,-0.148468,0.024826,0.000000,0.001000,0.000000,-0.002000,FlatInitial
10:41:14.611 AM 02/13/2016,Teleop Enabled,0,FALSE,0,NO ERROR,0.000000,0.000000,9000.000000,9000.000000,Speed,Speed,-0.080000,1.100000,2.700000,4.000000,101.000000,1,0,0.000000,-0.003968,0,0.000000,0.000000,0.000000,-0.148468,0.024826,0.000000,0.000000,-0.001000,-0.001000,FlatInitial
10:41:14.711 AM 02/13/2016,Teleop Enabled,0,FALSE,0,NO ERROR,0.000000,0.000000,9000.000000,9000.000000,Speed,Speed,-0.080000,1.100000,2.700000,4.000000,101.000000,1,0,0.000000,-0.003968,0,0.000000,0.000000,0.000000,-0.148468,0.024826,0.000000,-0.002000,0.002000,-0.001000,FlatInitial
10:41:14.811 AM 02/13/2016,Teleop Enabled,0,FALSE,0,NO ERROR,0.000000,0.000000,9000.000000,9000.000000,Speed,Speed,-0.080000,1.100000,2.710000,4.000000,103.000000,1,0,0.000000,-0.003968,0,0.000000,0.000000,0.000000,-0.148468,0.024826,0.000000,0.000000,0.001000,-0.004000,FlatInitial
10:41:14.911 AM 02/13/2016,Teleop Enabled,0,FALSE,0,NO ERROR,0.000000,0.000000,9000.000000,9000.000000,Speed,Speed,-0.080000,1.100000,2.700000,4.000000,102.000000,1,0,0.000000,-0.003968,0,0.000000,0.000000,0.000000,-0.148468,0.024826,0.000000,-0.005000,-0.001000,-0.004000,FlatInitial
10:41:15.012 AM 02/13/2016,Teleop Enabled,0,FALSE,0,NO ERROR,0.000000,0.000000,9000.000000,9000.000000,Speed,Speed,-0.090000,1.100000,2.720000,4.000000,102.000000,1,0,0.000000,-0.003968,0,0.000000,0.000000,0.000000,-0.148468,0.024826,0.000000,0.000000,0.004000,0.000000,FlatInitial
10:41:15.113 AM 02/13/2016,Teleop Enabled,0,FALSE,0,NO ERROR,0.000000,0.000000,9000.000000,9000.000000,Speed,Speed,-0.080000,1.100000,2.720000,4.000000,104.000000,1,0,0.000000,-0.003968,0,0.000000,0.000000,0.000000,-0.148468,0.024826,0.000000,0.001000,0.002000,-0.002000,FlatInitial
10:41:15.213 AM 02/13/2016,Teleop Enabled,0,FALSE,0,NO ERROR,0.000000,0.000000,9000.000000,9000.000000,Speed,Speed,-0.080000,1.100000,2.720000,4.000000,102.000000,1,0,0.000000,-0.003968,0,0.000000,0.000000,0.000000,-0.148468,0.024826,0.000000,0.006000,-0.002000,0.000000,FlatInitial
10:41:15.313 AM 02/13/2016,Teleop Enabled,0,FALSE,0,NO ERROR,0.000000,0.000000,9000.000000,9000.000000,Speed,Speed,-0.080000,1.100000,2.720000,4.000000,100.000000,1,0,0.000000,-0.003968,0,0.000000,0.000000,0.000000,-0.148468,0.024826,0.000000,0.000000,-0.002000,0.000000,FlatInitial
10:41:15.414 AM 02/13/2016,Teleop Enabled,0,FALSE,0,NO ERROR,0.000000,0.000000,9000.000000,9000.000000,Speed,Speed,-0.080000,1.100000,2.720000,4.000000,102.000000,1,0,0.000000,-0.003968,0,0.000000,0.000000,0.000000,-0.148468,0.024826,0.000000,-0.006000,0.004000,-0.005000,FlatInitial
10:41:15.515 AM 02/13/2016,Teleop Enabled,0,FALSE,0,NO ERROR,0.000000,0.000000,9000.000000,9000.000000,Speed,Speed,-0.070000,1.110000,2.720000,4.000000,101.000000,1,0,0.000000,-0.003968,0,0.000000,0.000000,0.000000,-0.148468,0.024826,0.000000,0.000000,-0.001000,-0.003000,FlatInitial
10:41:15.616 AM 02/13/2016,Teleop Enabled,0,FALSE,0,NO ERROR,0.000000,0.000000,9000.000000,9000.000000,Speed,Speed,-0.070000,1.100000,2.720000,4.000000,101.000000,1,0,0.000000,-0.003968,0,0.000000,0.000000,0.000000,-0.148468,0.024826,0.000000,0.001000,-0.001000,0.000000,FlatInitial
10:41:15.717 AM 02/13/2016,Teleop Enabled,0,FALSE,0,NO ERROR,0.000000,0.000000,9000.000000,9000.000000,Speed,Speed,-0.070000,1.100000,2.720000,5.000000,102.000000,1,0,0.000000,-0.003968,0,0.000000,0.000000,0.000000,-0.148468,0.024826,0.000000,0.005000,-0.001000,-0.004000,FlatInitial
10:41:15.817 AM 02/13/2016,Teleop Enabled,0,FALSE,0,NO ERROR,0.000000,0.000000,2000.000000,2000.000000,Speed,Speed,-0.080000,1.120000,3.040000,5.000000,101.000000,1,0,0.000000,-0.003968,0,-0.004761,0.011612,0.000000,-0.148605,0.025116,0.000000,-0.052000,0.034000,0.124000,FlatInitial
10:41:15.917 AM 02/13/2016,Teleop Enabled,0,FALSE,0,NO ERROR,0.000000,0.000000,2000.000000,2000.000000,Speed,Speed,-0.040000,1.130000,2.800000,5.000000,101.000000,1,0,0.000000,-0.003968,0,-0.023254,0.016129,0.000000,-0.149658,0.025604,0.000000,-0.011000,0.005000,0.069000,FlatInitial
10:41:16.017 AM 02/13/2016,Teleop Enabled,0,FALSE,0,NO ERROR,0.000000,0.000000,2000.000000,2000.000000,Speed,Speed,-0.110000,1.090000,2.540000,5.000000,103.000000,1,0,0.000000,-0.003968,0,-0.010468,0.041718,0.000000,-0.150131,0.027420,0.000000,0.014000,0.058000,0.024000,FlatInitial
10:41:16.117 AM 02/13/2016,Teleop Enabled,0,FALSE,0,NO ERROR,0.000000,0.000000,2000.000000,2000.000000,Speed,Speed,0.000000,0.960000,1.350000,5.000000,102.000000,1,0,0.000000,-0.003968,0,-0.030106,-0.154800,0.000000,-0.148819,0.020248,0.000000,0.116000,-0.062000,-0.954000,FlatInitial
10:41:16.218 AM 02/13/2016,Teleop Enabled,0,FALSE,0,NO ERROR,0.000000,0.000000,2000.000000,2000.000000,Speed,Speed,-0.010000,0.770000,3.260000,5.000000,103.000000,1,0,0.000000,-0.003968,0,-0.021454,-0.130524,0.000000,-0.149689,0.013367,0.000000,0.010000,-0.051000,-0.422000,FlatInitial
10:41:16.319 AM 02/13/2016,Teleop Enabled,0,FALSE,0,NO ERROR,0.000000,0.000000,2000.000000,2000.000000,Speed,Speed,0.030000,0.980000,2.350000,5.000000,103.000000,1,0,0.000000,-0.003968,0,-0.036118,-0.147247,0.000000,-0.151230,0.007278,0.000000,0.006000,0.034000,-0.157000,FlatInitial
10:41:16.419 AM 02/13/2016,Teleop Enabled,0,FALSE,0,NO ERROR,0.000000,0.000000,2000.000000,2000.000000,Speed,Speed,-0.100000,0.970000,2.740000,5.000000,102.000000,1,0,0.000000,-0.003968,0,0.009201,-0.099808,0.000000,-0.151260,0.001175,0.000000,0.022000,-0.034000,-0.317000,FlatInitial
10:41:16.520 AM 02/13/2016,Teleop Enabled,0,FALSE,0,NO ERROR,0.000000,0.000000,2000.000000,2000.000000,Speed,Speed,0.030000,0.980000,2.820000,5.000000,100.000000,1,0,0.000000,-0.003968,0,0.015732,-0.105164,0.000000,-0.150604,-0.004852,0.000000,-0.076000,0.055000,-0.054000,FlatInitial
10:41:16.621 AM 02/13/2016,Teleop Enabled,0,FALSE,0,NO ERROR,0.000000,0.000000,2000.000000,2000.000000,Speed,Speed,0.050000,0.990000,2.880000,5.000000,101.000000,1,0,0.000000,-0.003968,0,0.002594,-0.105270,0.000000,-0.150299,-0.009735,0.000000,-0.042000,0.041000,-0.097000,FlatInitial
10:41:16.721 AM 02/13/2016,Teleop Enabled,0,FALSE,0,NO ERROR,0.000000,0.000000,2000.000000,2000.000000,Speed,Speed,0.060000,1.000000,2.860000,5.000000,104.000000,1,0,0.000000,-0.003968,0,0.005707,0.000000,0.000000,-0.150146,-0.013885,0.000000,-0.026000,0.002000,-0.122000,FlatInitial
10:41:16.821 AM 02/13/2016,Teleop Enabled,0,FALSE,0,NO ERROR,0.000000,0.000000,2000.000000,2000.000000,Speed,Speed,0.060000,1.030000,2.780000,5.000000,102.000000,1,0,0.000000,-0.003968,0,-0.007706,0.014603,0.000000,-0.150421,-0.013626,0.000000,0.009000,0.039000,-0.041000,FlatInitial
10:41:16.922 AM 02/13/2016,Teleop Enabled,0,FALSE,0,NO ERROR,0.000000,0.000000,2000.000000,2000.000000,Speed,Speed,0.050000,1.050000,2.840000,5.000000,104.000000,1,0,0.000000,-0.003968,0,0.016205,0.012344,0.000000,-0.149780,-0.012863,0.000000,0.020000,0.000000,-0.028000,FlatInitial
10:41:17.023 AM 02/13/2016,Teleop Enabled,0,FALSE,0,NO ERROR,0.000000,0.000000,2000.000000,2000.000000,Speed,Speed,0.080000,1.030000,2.830000,5.000000,102.000000,1,0,0.000000,-0.003968,0,0.010941,0.000000,0.000000,-0.149124,-0.012863,0.000000,0.024000,-0.019000,-0.020000,FlatInitial
10:41:17.123 AM 02/13/2016,Teleop Enabled,0,FALSE,0,NO ERROR,0.000000,0.000000,2000.000000,2000.000000,Speed,Speed,0.040000,1.050000,2.830000,5.000000,107.000000,1,0,0.000000,-0.003968,0,0.000000,0.000000,0.000000,-0.148849,-0.012863,0.000000,0.018000,0.004000,-0.008000,FlatInitial
10:41:17.223 AM 02/13/2016,Teleop Enabled,0,FALSE,0,NO ERROR,0.000000,0.000000,2000.000000,2000.000000,Speed,Speed,0.060000,1.040000,2.830000,5.000000,102.000000,1,0,0.000000,-0.003968,0,0.000000,0.000000,0.000000,-0.149033,-0.012863,0.000000,-0.007000,-0.012000,0.005000,FlatInitial
10:41:17.324 AM 02/13/2016,Teleop Enabled,0,FALSE,0,NO ERROR,0.000000,0.000000,2000.000000,2000.000000,Speed,Speed,0.040000,1.060000,2.830000,5.000000,105.000000,1,0,0.000000,-0.003968,0,0.000000,0.000000,0.000000,-0.149033,-0.012863,0.000000,-0.012000,0.006000,-0.009000,FlatInitial
10:41:17.423 AM 02/13/2016,Teleop Enabled,0,FALSE,0,NO ERROR,0.000000,0.000000,2000.000000,2000.000000,Speed,Speed,0.060000,1.040000,2.820000,5.000000,100.000000,1,0,0.000000,-0.003968,0,0.000000,0.000000,0.000000,-0.149033,-0.012863,0.000000,0.013000,-0.004000,0.018000,FlatInitial
10:41:17.523 AM 02/13/2016,Teleop Enabled,0,FALSE,0,NO ERROR,0.000000,0.000000,2000.000000,2000.000000,Speed,Speed,0.050000,1.070000,2.800000,5.000000,102.000000,1,0,0.000000,-0.003968,0,0.000000,0.000000,0.000000,-0.149033,-0.012863,0.000000,0.006000,0.002000,-0.005000,FlatInitial
10:41:17.624 AM 02/13/2016,Teleop Enabled,0,FALSE,0,NO ERROR,0.000000,0.000000,2000.000000,2000.000000,Speed,Speed,0.060000,1.060000,2.820000,5.000000,103.000000,1,0,0.000000,-0.003968,0,0.000000,0.000000,0.000000,-0.149033,-0.012863,0.000000,0.002000,0.001000,0.000000,FlatInitial
10:41:17.723 AM 02/13/2016,Teleop Enabled,0,FALSE,0,NO ERROR,0.000000,0.000000,2000.000000,2000.000000,Speed,Speed,0.050000,1.080000,2.800000,5.000000,101.000000,1,0,0.000000,-0.003968,0,0.000000,0.000000,0.000000,-0.149033,-0.012863,0.000000,-0.001000,-0.004000,-0.005000,FlatInitial
10:41:17.823 AM 02/13/2016,Teleop Enabled,0,FALSE,0,NO ERROR,0.000000,0.000000,2000.000000,2000.000000,Speed,Speed,0.060000,1.070000,2.800000,5.000000,102.000000,1,0,0.000000,-0.003968,0,0.000000,0.000000,0.000000,-0.149033,-0.012863,0.000000,0.009000,-0.005000,0.000000,FlatInitial
10:41:17.924 AM 02/13/2016,Teleop Enabled,0,FALSE,0,NO ERROR,0.000000,0.000000,2000.000000,2000.000000,Speed,Speed,0.050000,1.090000,2.790000,5.000000,101.000000,1,0,0.000000,-0.003968,0,0.000000,0.000000,0.000000,-0.149033,-0.012863,0.000000,-0.002000,0.002000,0.003000,FlatInitial
10:41:18.023 AM 02/13/2016,Teleop Enabled,0,FALSE,0,NO ERROR,0.000000,0.000000,2000.000000,2000.000000,Speed,Speed,0.070000,1.080000,2.790000,5.000000,101.000000,1,0,0.000000,-0.003968,0,0.000000,0.000000,0.000000,-0.149033,-0.012863,0.000000,0.007000,-0.004000,0.000000,FlatInitial
10:41:18.123 AM 02/13/2016,Teleop Enabled,0,FALSE,0,NO ERROR,0.000000,0.000000,2000.000000,2000.000000,Speed,Speed,0.050000,1.090000,2.800000,5.000000,101.000000,1,0,0.000000,-0.003968,0,0.000000,0.000000,0.000000,-0.149033,-0.012863,0.000000,-0.005000,0.002000,-0.001000,FlatInitial
10:41:18.223 AM 02/13/2016,Teleop Enabled,0,FALSE,0,NO ERROR,0.000000,0.000000,2000.000000,2000.000000,Speed,Speed,0.070000,1.080000,2.790000,5.000000,101.000000,1,0,0.000000,-0.003968,0,0.000000,0.000000,0.000000,-0.149033,-0.012863,0.000000,-0.001000,-0.007000,0.004000,FlatInitial
10:41:18.323 AM 02/13/2016,Teleop Enabled,0,FALSE,0,NO ERROR,0.000000,0.000000,2000.000000,2000.000000,Speed,Speed,0.060000,1.080000,2.790000,5.000000,100.000000,1,0,0.000000,-0.003968,0,0.000000,0.000000,0.000000,-0.149033,-0.012863,0.000000,-0.007000,0.005000,0.000000,FlatInitial
10:41:18.423 AM 02/13/2016,Teleop Enabled,0,FALSE,0,NO ERROR,0.000000,0.000000,2000.000000,2000.000000,Speed,Speed,0.070000,1.090000,2.790000,5.000000,102.000000,1,0,0.000000,-0.003968,0,0.000000,0.000000,0.000000,-0.149033,-0.012863,0.000000,0.004000,-0.003000,0.001000,FlatInitial
10:41:18.523 AM 02/13/2016,Teleop Enabled,0,FALSE,0,NO ERROR,0.000000,0.000000,2000.000000,2000.000000,Speed,Speed,0.060000,1.080000,2.780000,5.000000,102.000000,1,0,0.000000,-0.003968,0,0.000000,0.000000,0.000000,-0.149033,-0.012863,0.000000,0.003000,0.000000,0.000000,FlatInitial
10:41:18.623 AM 02/13/2016,Teleop Enabled,0,FALSE,0,NO ERROR,0.000000,0.000000,2000.000000,2000.000000,Speed,Speed,0.060000,1.090000,2.780000,5.000000,102.000000,1,0,0.000062,-0.003968,0,0.000000,0.000000,0.000000,-0.149033,-0.012863,0.000000,0.000000,0.001000,-0.004000,FlatInitial
10:41:18.724 AM 02/13/2016,Teleop Enabled,0,FALSE,0,NO ERROR,0.000000,0.000000,2000.000000,2000.000000,Speed,Speed,0.060000,1.090000,2.780000,5.000000,101.000000,1,0,-0.006200,-0.003968,0,0.000000,0.000000,0.000000,-0.149033,-0.012863,0.000000,0.000000,-0.002000,0.000000,FlatInitial
10:41:18.823 AM 02/13/2016,Teleop Enabled,0,FALSE,0,NO ERROR,0.000000,0.000000,2000.000000,2000.000000,Speed,Speed,0.060000,1.090000,2.780000,5.000000,104.000000,1,0,-0.006200,-0.003968,0,0.000000,0.000000,0.000000,-0.149033,-0.012863,0.000000,-0.001000,0.000000,0.001000,FlatInitial
10:41:18.923 AM 02/13/2016,Teleop Enabled,0,FALSE,0,NO ERROR,0.000000,0.000000,2000.000000,2000.000000,Speed,Speed,0.060000,1.090000,2.770000,5.000000,102.000000,1,0,-0.003038,-0.003968,0,0.000000,0.000000,0.000000,-0.149033,-0.012863,0.000000,0.000000,-0.001000,-0.004000,FlatInitial
10:41:19.023 AM 02/13/2016,Teleop Enabled,0,FALSE,0,NO ERROR,0.000000,0.000000,2000.000000,2000.000000,Speed,Speed,0.060000,1.090000,2.770000,5.000000,103.000000,1,0,0.000248,-0.003968,0,0.000000,0.000000,0.000000,-0.149033,-0.012863,0.000000,-0.002000,0.001000,-0.003000,FlatInitial
10:41:19.123 AM 02/13/2016,Teleop Enabled,0,FALSE,0,NO ERROR,0.000000,0.000000,2000.000000,2000.000000,Speed,Speed,0.060000,1.080000,2.770000,5.000000,101.000000,1,0,0.000248,-0.003968,0,0.000000,0.000000,0.000000,-0.149033,-0.012863,0.000000,0.000000,-0.001000,-0.002000,FlatInitial
10:41:19.223 AM 02/13/2016,Teleop Enabled,0,FALSE,0,NO ERROR,0.000000,0.000000,2000.000000,2000.000000,Speed,Speed,0.060000,1.080000,2.770000,5.000000,103.000000,1,0,0.000248,-0.003968,0,0.000000,0.000000,0.000000,-0.149033,-0.012863,0.000000,-0.002000,0.000000,0.000000,FlatInitial
10:41:19.325 AM 02/13/2016,Teleop Enabled,0,FALSE,0,NO ERROR,0.000000,0.000000,2000.000000,2000.000000,Speed,Speed,0.060000,1.090000,2.760000,5.000000,101.000000,1,0,0.000248,-0.003968,0,0.000000,0.000000,0.000000,-0.149033,-0.012863,0.000000,0.001000,-0.002000,-0.002000,FlatInitial
10:41:19.425 AM 02/13/2016,Teleop Enabled,0,FALSE,0,NO ERROR,0.000000,0.000000,2000.000000,2000.000000,Speed,Speed,0.060000,1.090000,2.760000,5.000000,103.000000,1,0,0.000248,-0.003968,0,0.000000,0.000000,0.000000,-0.149033,-0.012863,0.000000,0.000000,-0.002000,0.000000,FlatInitial
10:41:19.525 AM 02/13/2016,Teleop Enabled,0,FALSE,0,NO ERROR,0.000000,0.000000,2000.000000,2000.000000,Speed,Speed,0.060000,1.090000,2.760000,5.000000,102.000000,1,0,0.000248,-0.003968,0,0.000000,0.000000,0.000000,-0.149033,-0.012863,0.000000,-0.002000,0.000000,-0.002000,FlatInitial
10:41:19.625 AM 02/13/2016,Teleop Enabled,0,FALSE,0,NO ERROR,0.000000,0.000000,2000.000000,2000.000000,Speed,Speed,0.070000,1.090000,2.760000,5.000000,102.000000,1,0,0.000248,-0.003968,0,0.000000,0.000000,0.000000,-0.149033,-0.012863,0.000000,0.000000,0.000000,0.002000,FlatInitial
10:41:19.726 AM 02/13/2016,Teleop Enabled,0,FALSE,0,NO ERROR,0.000000,0.000000,2000.000000,2000.000000,Speed,Speed,0.070000,1.090000,2.760000,5.000000,101.000000,1,0,0.000248,-0.003968,0,0.000000,0.000000,0.000000,-0.149033,-0.012863,0.000000,0.001000,0.001000,0.000000,FlatInitial
10:41:19.827 AM 02/13/2016,Teleop Enabled,0,FALSE,0,NO ERROR,0.000000,0.000000,2000.000000,2000.000000,Speed,Speed,0.070000,1.090000,2.760000,5.000000,104.000000,1,0,0.000248,-0.003968,0,0.000000,0.000000,0.000000,-0.149033,-0.012863,0.000000,0.000000,0.000000,0.000000,FlatInitial
10:41:19.928 AM 02/13/2016,Teleop Enabled,0,FALSE,0,NO ERROR,0.000000,0.000000,2000.000000,2000.000000,Speed,Speed,0.070000,1.090000,2.760000,5.000000,103.000000,1,0,0.000248,-0.003968,0,0.000000,0.000000,0.000000,-0.149033,-0.012863,0.000000,-0.003000,-0.001000,-0.006000,FlatInitial
10:41:20.028 AM 02/13/2016,Teleop Enabled,0,FALSE,0,NO ERROR,0.000000,0.000000,2000.000000,2000.000000,Speed,Speed,0.060000,1.100000,2.760000,5.000000,101.000000,1,0,0.000248,-0.003968,0,0.000000,0.000000,0.000000,-0.149033,-0.012863,0.000000,0.004000,0.001000,-0.003000,FlatInitial
10:41:20.129 AM 02/13/2016,Teleop Enabled,0,FALSE,0,NO ERROR,0.000000,0.000000,2000.000000,2000.000000,Speed,Speed,0.070000,1.090000,2.760000,5.000000,103.000000,1,0,0.000248,-0.003968,0,0.000000,0.000000,0.000000,-0.149033,-0.012863,0.000000,-0.002000,-0.005000,-0.001000,FlatInitial
10:41:20.229 AM 02/13/2016,Teleop Enabled,0,FALSE,0,NO ERROR,0.000000,0.000000,2000.000000,2000.000000,Speed,Speed,0.070000,1.110000,2.750000,5.000000,101.000000,1,0,0.000248,-0.003968,0,0.000000,0.000000,0.000000,-0.149033,-0.012863,0.000000,0.000000,0.002000,-0.001000,FlatInitial
10:41:20.330 AM 02/13/2016,Teleop Enabled,0,FALSE,0,NO ERROR,0.000000,0.000000,2000.000000,2000.000000,Speed,Speed,0.070000,1.100000,2.770000,5.000000,102.000000,1,0,0.000248,-0.003968,0,0.000000,0.000000,0.000000,-0.149033,-0.012863,0.000000,0.000000,-0.003000,0.005000,FlatInitial