Time,RobotMode,AutoToRun,ErrorStatus, ErrorCode,ErrorSource,ActualRPM1,ActualRPM2,DesiredRPM1,DesiredRPM2,ControlMode1,ControlMode2,NavXYaw,NavXRoll,NavXPitch,ShooterState,LoopTime,IsLevel,IsAutoTargeting,LeftMotorOutput,RightMotorOutput,IsHaloDrive,NavXVelocityX,NavXVelocityY,NavXVelocityZ,NavXDisplacementX,NavXDisplacementY,NavXDisplacementZ,NavXAccelerationX,NavXAccelerationY,NavXAccelerationZ,AutoDefeneState
07:43:15.847 PM 02/11/2016,Autonomous Enabled,0,TRUE,-44087,NetComm_CAN_Receive.vi:5470007<APPEND>  <b>Complete call chain:</b>      NetComm_CAN_Receive.vi:5470007      WPI_CANTalonSRX_Receive.vi      WPI_MotorControlOpenCANTalonSRX.vi      Begin.vi      Robot Main.vi,0.000000,0.000000,4000.000000,4000.000000,Speed,Speed,-3.200000,-0.790000,1.740000,3.000000,102.000000,1,0,0.000000,0.000000,0,0.000000,0.000000,0.000000,0.039886,0.128326,0.000000,0.000000,0.000000,0.005000,FlatInitial
07:43:15.947 PM 02/11/2016,Autonomous Enabled,0,TRUE,-44087,NetComm_CAN_Receive.vi:5470007<APPEND>  <b>Complete call chain:</b>      NetComm_CAN_Receive.vi:5470007      WPI_CANTalonSRX_Receive.vi      WPI_MotorControlOpenCANTalonSRX.vi      Begin.vi      Robot Main.vi,0.000000,0.000000,4000.000000,4000.000000,Speed,Speed,-3.190000,-0.790000,1.730000,3.000000,104.000000,1,0,0.000000,0.000000,0,0.000000,0.000000,0.000000,0.039886,0.128326,0.000000,0.001000,-0.015000,-0.040000,FlatInitial
07:43:16.048 PM 02/11/2016,Autonomous Enabled,0,TRUE,-44087,NetComm_CAN_Receive.vi:5470007<APPEND>  <b>Complete call chain:</b>      NetComm_CAN_Receive.vi:5470007      WPI_CANTalonSRX_Receive.vi      WPI_MotorControlOpenCANTalonSRX.vi      Begin.vi      Robot Main.vi,0.000000,0.000000,4000.000000,4000.000000,Speed,Speed,-3.200000,-0.820000,1.640000,3.000000,103.000000,1,0,0.000000,0.000000,0,0.000000,0.000000,0.000000,0.039886,0.128326,0.000000,0.009000,-0.010000,-0.012000,FlatInitial
07:43:16.150 PM 02/11/2016,Autonomous Enabled,0,TRUE,-44087,NetComm_CAN_Receive.vi:5470007<APPEND>  <b>Complete call chain:</b>      NetComm_CAN_Receive.vi:5470007      WPI_CANTalonSRX_Receive.vi      WPI_MotorControlOpenCANTalonSRX.vi      Begin.vi      Robot Main.vi,0.000000,0.000000,4000.000000,4000.000000,Speed,Speed,-3.180000,-0.820000,1.660000,3.000000,101.000000,1,0,0.000000,0.000000,0,0.000000,0.000000,0.000000,0.039886,0.128326,0.000000,0.010000,0.000000,0.019000,FlatInitial
07:43:16.252 PM 02/11/2016,Autonomous Enabled,0,TRUE,-44087,NetComm_CAN_Receive.vi:5470007<APPEND>  <b>Complete call chain:</b>      NetComm_CAN_Receive.vi:5470007      WPI_CANTalonSRX_Receive.vi      WPI_MotorControlOpenCANTalonSRX.vi      Begin.vi      Robot Main.vi,0.000000,0.000000,4000.000000,4000.000000,Speed,Speed,-3.180000,-0.930000,1.510000,3.000000,101.000000,1,0,0.000000,0.000000,0,0.000000,0.020599,0.000000,0.039886,0.128845,0.000000,0.003000,0.010000,0.030000,FlatInitial
07:43:16.352 PM 02/11/2016,Autonomous Enabled,0,TRUE,-44087,NetComm_CAN_Receive.vi:5470007<APPEND>  <b>Complete call chain:</b>      NetComm_CAN_Receive.vi:5470007      WPI_CANTalonSRX_Receive.vi      WPI_MotorControlOpenCANTalonSRX.vi      Begin.vi      Robot Main.vi,0.000000,0.000000,4000.000000,4000.000000,Speed,Speed,-2.980000,-1.020000,1.170000,3.000000,103.000000,1,0,0.000000,0.000000,0,0.000000,0.000000,0.000000,0.039886,0.129074,0.000000,-0.001000,-0.002000,-0.008000,FlatInitial
07:43:16.452 PM 02/11/2016,Autonomous Enabled,0,TRUE,-44087,NetComm_CAN_Receive.vi:5470007<APPEND>  <b>Complete call chain:</b>      NetComm_CAN_Receive.vi:5470007      WPI_CANTalonSRX_Receive.vi      WPI_MotorControlOpenCANTalonSRX.vi      Begin.vi      Robot Main.vi,0.000000,0.000000,4000.000000,4000.000000,Speed,Speed,-2.850000,-0.880000,1.470000,3.000000,102.000000,1,0,0.000000,0.000000,0,0.000000,0.000000,0.000000,0.039886,0.128937,0.000000,0.005000,0.002000,0.013000,FlatInitial
07:43:16.556 PM 02/11/2016,Autonomous Enabled,0,TRUE,-44087,NetComm_CAN_Receive.vi:5470007<APPEND>  <b>Complete call chain:</b>      NetComm_CAN_Receive.vi:5470007      WPI_CANTalonSRX_Receive.vi      WPI_MotorControlOpenCANTalonSRX.vi      Begin.vi      Robot Main.vi,0.000000,0.000000,4000.000000,4000.000000,Speed,Speed,-2.840000,-0.810000,1.630000,3.000000,104.000000,1,0,0.000000,0.000000,0,0.033005,-0.038040,0.000000,0.040512,0.127960,0.000000,0.138000,-0.099000,0.066000,FlatInitial
07:43:16.658 PM 02/11/2016,Autonomous Enabled,0,TRUE,-44087,NetComm_CAN_Receive.vi:5470007<APPEND>  <b>Complete call chain:</b>      NetComm_CAN_Receive.vi:5470007      WPI_CANTalonSRX_Receive.vi      WPI_MotorControlOpenCANTalonSRX.vi      Begin.vi      Robot Main.vi,0.000000,0.000000,4000.000000,4000.000000,Speed,Speed,-2.940000,-0.900000,1.490000,3.000000,102.000000,1,0,0.000000,0.000000,0,-0.004044,-0.030533,0.000000,0.041321,0.125885,0.000000,0.010000,-0.012000,0.057000,FlatInitial
07:43:16.761 PM 02/11/2016,Autonomous Enabled,0,TRUE,-44087,NetComm_CAN_Receive.vi:5470007<APPEND>  <b>Complete call chain:</b>      NetComm_CAN_Receive.vi:5470007      WPI_CANTalonSRX_Receive.vi      WPI_MotorControlOpenCANTalonSRX.vi      Begin.vi      Robot Main.vi,0.000000,0.000000,4000.000000,4000.000000,Speed,Speed,-2.950000,-0.930000,1.390000,3.000000,102.000000,1,0,0.000000,0.000000,0,-0.009567,0.007080,0.000000,0.040909,0.126038,0.000000,-0.011000,0.003000,0.071000,FlatInitial
07:43:16.861 PM 02/11/2016,Autonomous Enabled,0,TRUE,-44087,NetComm_CAN_Receive.vi:5470007<APPEND>  <b>Complete call chain:</b>      NetComm_CAN_Receive.vi:5470007      WPI_CANTalonSRX_Receive.vi      WPI_MotorControlOpenCANTalonSRX.vi      Begin.vi      Robot Main.vi,0.000000,0.000000,4000.000000,4000.000000,Speed,Speed,-2.940000,-0.940000,1.580000,3.000000,103.000000,1,0,0.000000,0.000000,0,-0.012497,0.007248,0.000000,0.040344,0.126343,0.000000,0.018000,0.039000,0.018000,FlatInitial
07:43:16.962 PM 02/11/2016,Autonomous Enabled,0,TRUE,-44087,NetComm_CAN_Receive.vi:5470007<APPEND>  <b>Complete call chain:</b>      NetComm_CAN_Receive.vi:5470007      WPI_CANTalonSRX_Receive.vi      WPI_MotorControlOpenCANTalonSRX.vi      Begin.vi      Robot Main.vi,0.000000,0.000000,4000.000000,4000.000000,Speed,Speed,-2.910000,-0.890000,1.670000,3.000000,104.000000,1,0,0.000000,0.000000,0,0.006439,0.020248,0.000000,0.040512,0.127045,0.000000,0.050000,0.020000,0.049000,FlatInitial
07:43:17.065 PM 02/11/2016,Autonomous Enabled,0,TRUE,-44087,NetComm_CAN_Receive.vi:5470007<APPEND>  <b>Complete call chain:</b>      NetComm_CAN_Receive.vi:5470007      WPI_CANTalonSRX_Receive.vi      WPI_CANTalonSRX_GetStatus.vi      ShooterVI.vi      Periodic Tasks.vi      Robot Main.vi,0.000000,0.000000,4000.000000,4000.000000,Speed,Speed,-2.910000,-0.880000,1.610000,3.000000,101.000000,1,0,0.000000,0.000000,0,0.013321,0.029892,0.000000,0.041183,0.128418,0.000000,-0.011000,0.021000,-0.005000,FlatInitial
07:43:17.166 PM 02/11/2016,Autonomous Enabled,0,TRUE,-44087,NetComm_CAN_Receive.vi:5470007<APPEND>  <b>Complete call chain:</b>      NetComm_CAN_Receive.vi:5470007      WPI_CANTalonSRX_Receive.vi      WPI_CANTalonSRX_GetStatus.vi      ShooterVI.vi      Periodic Tasks.vi      Robot Main.vi,0.000000,0.000000,4000.000000,4000.000000,Speed,Speed,-2.920000,-0.900000,1.610000,3.000000,105.000000,1,0,0.000000,0.000000,0,0.000000,0.026138,0.000000,0.041382,0.130142,0.000000,-0.009000,-0.015000,0.012000,FlatInitial
07:43:17.266 PM 02/11/2016,Autonomous Enabled,0,FALSE,0,NO ERROR,0.000000,0.000000,4000.000000,4000.000000,Speed,Speed,-2.920000,-0.950000,1.580000,3.000000,100.000000,1,0,0.000000,0.000000,0,0.000519,0.038895,0.000000,0.041626,0.131943,0.000000,-0.009000,0.014000,0.005000,FlatInitial
07:43:17.367 PM 02/11/2016,Autonomous Enabled,0,FALSE,0,NO ERROR,0.000000,0.000000,4000.000000,4000.000000,Speed,Speed,-2.920000,-0.870000,1.700000,3.000000,101.000000,1,0,0.000000,0.000000,0,0.021454,0.000000,0.000000,0.042114,0.133240,0.000000,-0.021000,-0.004000,-0.061000,FlatInitial
07:43:17.468 PM 02/11/2016,Autonomous Enabled,0,FALSE,0,NO ERROR,0.000000,0.000000,4000.000000,4000.000000,Speed,Speed,-2.920000,-0.910000,1.680000,3.000000,102.000000,1,0,0.000000,0.000000,0,0.006241,0.002869,0.000000,0.042755,0.133301,0.000000,0.007000,-0.049000,-0.011000,FlatInitial
07:43:17.569 PM 02/11/2016,Autonomous Enabled,0,FALSE,0,NO ERROR,0.000000,0.000000,4000.000000,4000.000000,Speed,Speed,-2.920000,-0.920000,1.690000,3.000000,103.000000,1,0,0.000000,0.000000,0,-0.012146,0.015671,0.000000,0.042419,0.133514,0.000000,0.015000,-0.011000,-0.004000,FlatInitial
07:43:17.670 PM 02/11/2016,Autonomous Enabled,0,FALSE,0,NO ERROR,0.000000,0.000000,4000.000000,4000.000000,Speed,Speed,-2.920000,-0.840000,1.680000,3.000000,103.000000,1,0,0.000000,0.000000,0,0.000000,0.017136,0.000000,0.041809,0.134094,0.000000,0.028000,0.018000,0.049000,FlatInitial
07:43:17.771 PM 02/11/2016,Autonomous Enabled,0,FALSE,0,NO ERROR,0.000000,0.000000,4000.000000,4000.000000,Speed,Speed,-2.920000,-0.840000,1.670000,3.000000,105.000000,1,0,0.000000,0.000000,0,0.003235,0.000000,0.000000,0.042023,0.134842,0.000000,-0.043000,0.021000,-0.079000,FlatInitial
07:43:17.872 PM 02/11/2016,Autonomous Enabled,0,FALSE,0,NO ERROR,0.000000,0.000000,4000.000000,4000.000000,Speed,Speed,-2.910000,-0.870000,1.680000,3.000000,104.000000,1,0,0.000000,0.000000,0,0.001541,0.032684,0.000000,0.041824,0.135849,0.000000,0.003000,-0.016000,-0.026000,FlatInitial
07:43:17.973 PM 02/11/2016,Autonomous Enabled,0,FALSE,0,NO ERROR,0.000000,0.000000,4000.000000,4000.000000,Speed,Speed,-2.890000,-0.890000,1.680000,3.000000,101.000000,1,0,0.000000,0.000000,0,0.000000,0.002930,0.000000,0.041885,0.136215,0.000000,0.011000,-0.007000,-0.038000,FlatInitial
07:43:18.073 PM 02/11/2016,Autonomous Enabled,0,FALSE,0,NO ERROR,0.000000,0.000000,4000.000000,4000.000000,Speed,Speed,-2.900000,-0.830000,1.660000,3.000000,104.000000,1,0,0.000000,0.000000,0,0.012589,-0.002792,0.000000,0.042206,0.136292,0.000000,0.027000,0.013000,0.035000,FlatInitial
07:43:18.173 PM 02/11/2016,Autonomous Enabled,0,FALSE,0,NO ERROR,0.000000,0.000000,4000.000000,4000.000000,Speed,Speed,-2.900000,-0.870000,1.650000,3.000000,101.000000,1,0,0.000000,0.000000,0,-0.011993,-0.009445,0.000000,0.042297,0.136093,0.000000,-0.039000,0.038000,-0.042000,FlatInitial
07:43:18.273 PM 02/11/2016,Autonomous Enabled,0,FALSE,0,NO ERROR,0.000000,0.000000,4000.000000,4000.000000,Speed,Speed,-2.900000,-0.930000,1.680000,3.000000,101.000000,1,0,0.000000,0.000000,0,0.000000,-0.003235,0.000000,0.041519,0.135925,0.000000,-0.005000,0.003000,-0.029000,FlatInitial
07:43:18.374 PM 02/11/2016,Autonomous Enabled,0,FALSE,0,NO ERROR,0.000000,0.000000,4000.000000,4000.000000,Speed,Speed,-2.910000,-0.910000,1.640000,3.000000,102.000000,1,0,0.000000,0.000000,0,0.007950,-0.012726,0.000000,0.041733,0.135437,0.000000,0.007000,-0.023000,0.062000,FlatInitial
07:43:18.474 PM 02/11/2016,Autonomous Enabled,0,FALSE,0,NO ERROR,0.000000,0.000000,4000.000000,4000.000000,Speed,Speed,-2.920000,-0.870000,1.620000,3.000000,100.000000,1,0,0.000000,0.000000,0,-0.002121,-0.012466,0.000000,0.041931,0.134674,0.000000,0.031000,-0.054000,-0.029000,FlatInitial
07:43:18.575 PM 02/11/2016,Autonomous Enabled,0,FALSE,0,NO ERROR,0.000000,0.000000,4000.000000,4000.000000,Speed,Speed,-2.920000,-0.970000,1.560000,3.000000,102.000000,1,0,0.000000,0.000000,0,0.002411,0.002762,0.000000,0.041962,0.134186,0.000000,0.024000,0.031000,-0.016000,FlatInitial
07:43:18.676 PM 02/11/2016,Autonomous Enabled,0,FALSE,0,NO ERROR,0.000000,0.000000,4000.000000,4000.000000,Speed,Speed,-2.930000,-0.990000,1.520000,3.000000,103.000000,1,0,0.000000,0.000000,0,-0.015228,0.000000,0.000000,0.041748,0.134384,0.000000,-0.033000,0.018000,0.055000,FlatInitial
07:43:18.777 PM 02/11/2016,Autonomous Enabled,0,FALSE,0,NO ERROR,0.000000,0.000000,4000.000000,4000.000000,Speed,Speed,-2.930000,-0.990000,1.520000,3.000000,101.000000,1,0,0.000000,0.000000,0,-0.015228,0.000000,0.000000,0.041748,0.134384,0.000000,-0.033000,0.018000,0.055000,FlatInitial
07:43:18.876 PM 02/11/2016,Autonomous Disabled,0,FALSE,0,NO ERROR,0.000000,0.000000,4000.000000,4000.000000,Speed,Speed,-2.940000,-0.970000,1.620000,3.000000,101.000000,1,0,0.000000,0.000000,0,-0.003387,-0.000763,0.000000,0.041565,0.133804,0.000000,0.003000,0.018000,0.013000,FlatInitial
07:43:18.976 PM 02/11/2016,Autonomous Disabled,0,FALSE,0,NO ERROR,0.000000,0.000000,4000.000000,4000.000000,Speed,Speed,-2.990000,-0.980000,1.550000,3.000000,102.000000,1,0,0.000000,0.000000,0,0.000000,0.000000,0.000000,0.041672,0.133743,0.000000,0.010000,0.007000,0.025000,FlatInitial
07:43:19.076 PM 02/11/2016,Autonomous Disabled,0,FALSE,0,NO ERROR,0.000000,0.000000,4000.000000,4000.000000,Speed,Speed,-2.990000,-0.950000,1.620000,3.000000,103.000000,1,0,0.000000,0.000000,0,0.000000,0.004211,0.000000,0.041672,0.133789,0.000000,0.002000,0.033000,-0.042000,FlatInitial
07:43:19.176 PM 02/11/2016,Autonomous Disabled,0,FALSE,0,NO ERROR,0.000000,0.000000,4000.000000,4000.000000,Speed,Speed,-2.990000,-0.930000,1.630000,3.000000,103.000000,1,0,0.000000,0.000000,0,0.000000,0.000000,0.000000,0.041840,0.134109,0.000000,0.006000,-0.008000,0.029000,FlatInitial
07:43:19.276 PM 02/11/2016,Autonomous Disabled,0,FALSE,0,NO ERROR,0.000000,0.000000,4000.000000,4000.000000,Speed,Speed,-2.980000,-0.950000,1.620000,3.000000,102.000000,1,0,0.000000,0.000000,0,0.000000,0.000000,0.000000,0.041809,0.134109,0.000000,-0.009000,0.018000,0.020000,FlatInitial
07:43:19.376 PM 02/11/2016,Autonomous Disabled,0,FALSE,0,NO ERROR,0.000000,0.000000,4000.000000,4000.000000,Speed,Speed,-2.970000,-0.940000,1.620000,3.000000,101.000000,1,0,0.000000,0.000000,0,0.000000,0.000000,0.000000,0.041809,0.134109,0.000000,0.004000,0.002000,-0.002000,FlatInitial
07:43:19.476 PM 02/11/2016,Autonomous Disabled,0,FALSE,0,NO ERROR,0.000000,0.000000,4000.000000,4000.000000,Speed,Speed,-2.980000,-0.910000,1.630000,3.000000,102.000000,1,0,0.000000,0.000000,0,0.000000,0.000000,0.000000,0.041809,0.134109,0.000000,0.004000,0.010000,0.009000,FlatInitial
07:43:19.576 PM 02/11/2016,Autonomous Disabled,0,FALSE,0,NO ERROR,0.000000,0.000000,4000.000000,4000.000000,Speed,Speed,-2.970000,-0.930000,1.580000,3.000000,101.000000,1,0,0.000000,0.000000,0,0.000000,0.000000,0.000000,0.041809,0.134109,0.000000,-0.006000,0.000000,0.007000,FlatInitial
07:43:19.676 PM 02/11/2016,Autonomous Disabled,0,FALSE,0,NO ERROR,0.000000,0.000000,4000.000000,4000.000000,Speed,Speed,-2.980000,-0.920000,1.450000,3.000000,102.000000,1,0,0.000000,0.000000,0,0.000000,0.000000,0.000000,0.041809,0.134109,0.000000,0.003000,0.007000,0.003000,FlatInitial
07:43:19.776 PM 02/11/2016,Autonomous Disabled,0,FALSE,0,NO ERROR,0.000000,0.000000,4000.000000,4000.000000,Speed,Speed,-2.990000,-0.950000,1.360000,3.000000,102.000000,1,0,0.000000,0.000000,0,0.000000,0.000000,0.000000,0.041809,0.134109,0.000000,0.002000,0.004000,0.017000,FlatInitial
07:43:19.876 PM 02/11/2016,Autonomous Disabled,0,FALSE,0,NO ERROR,0.000000,0.000000,4000.000000,4000.000000,Speed,Speed,-3.000000,-1.030000,1.080000,3.000000,103.000000,1,0,0.000000,0.000000,0,0.000000,0.000000,0.000000,0.041809,0.134109,0.000000,0.001000,-0.003000,-0.014000,FlatInitial
07:43:19.976 PM 02/11/2016,Autonomous Disabled,0,FALSE,0,NO ERROR,0.000000,0.000000,4000.000000,4000.000000,Speed,Speed,-2.990000,-1.050000,1.050000,3.000000,101.000000,1,0,0.000000,0.000000,0,0.000000,0.000000,0.000000,0.041809,0.134109,0.000000,0.000000,-0.002000,0.007000,FlatInitial
07:43:20.076 PM 02/11/2016,Autonomous Disabled,0,FALSE,0,NO ERROR,0.000000,0.000000,4000.000000,4000.000000,Speed,Speed,-2.990000,-0.990000,1.200000,3.000000,101.000000,1,0,0.000000,0.000000,0,0.000000,0.000000,0.000000,0.041809,0.134109,0.000000,0.003000,0.009000,0.012000,FlatInitial
07:43:20.176 PM 02/11/2016,Autonomous Disabled,0,FALSE,0,NO ERROR,0.000000,0.000000,4000.000000,4000.000000,Speed,Speed,-2.990000,-0.960000,1.290000,3.000000,102.000000,1,0,0.000000,0.000000,0,0.000000,0.000000,0.000000,0.041809,0.134109,0.000000,0.000000,0.006000,0.013000,FlatInitial
07:43:20.276 PM 02/11/2016,Autonomous Disabled,0,FALSE,0,NO ERROR,0.000000,0.000000,4000.000000,4000.000000,Speed,Speed,-2.980000,-0.990000,1.250000,3.000000,101.000000,1,0,0.000000,0.000000,0,0.000000,0.000000,0.000000,0.041809,0.134109,0.000000,-0.001000,0.004000,-0.003000,FlatInitial
07:43:20.376 PM 02/11/2016,Autonomous Disabled,0,FALSE,0,NO ERROR,0.000000,0.000000,4000.000000,4000.000000,Speed,Speed,-2.980000,-1.000000,1.250000,3.000000,102.000000,1,0,0.000000,0.000000,0,0.000000,0.000000,0.000000,0.041809,0.134109,0.000000,0.001000,0.002000,-0.001000,FlatInitial
07:43:20.476 PM 02/11/2016,Autonomous Disabled,0,FALSE,0,NO ERROR,0.000000,0.000000,4000.000000,4000.000000,Speed,Speed,-2.980000,-0.990000,1.250000,3.000000,101.000000,1,0,0.000000,0.000000,0,0.000000,0.000000,0.000000,0.041809,0.134109,0.000000,-0.001000,0.000000,0.001000,FlatInitial
07:43:20.576 PM 02/11/2016,Autonomous Disabled,0,FALSE,0,NO ERROR,0.000000,0.000000,4000.000000,4000.000000,Speed,Speed,-2.970000,-0.950000,1.460000,3.000000,102.000000,1,0,0.000000,0.000000,0,0.000000,0.000000,0.000000,0.041809,0.134109,0.000000,0.004000,-0.002000,0.012000,FlatInitial
07:43:20.676 PM 02/11/2016,Autonomous Disabled,0,FALSE,0,NO ERROR,0.000000,0.000000,4000.000000,4000.000000,Speed,Speed,-2.950000,-0.920000,1.480000,3.000000,101.000000,1,0,0.000000,0.000000,0,0.000000,0.000000,0.000000,0.041809,0.134109,0.000000,-0.001000,0.000000,-0.006000,FlatInitial
07:43:20.776 PM 02/11/2016,Autonomous Disabled,0,FALSE,0,NO ERROR,0.000000,0.000000,4000.000000,4000.000000,Speed,Speed,-2.950000,-0.950000,1.410000,3.000000,102.000000,1,0,0.000000,0.000000,0,0.000000,0.000000,0.000000,0.041809,0.134109,0.000000,0.004000,0.000000,0.006000,FlatInitial
07:43:20.876 PM 02/11/2016,Autonomous Disabled,0,FALSE,0,NO ERROR,0.000000,0.000000,4000.000000,4000.000000,Speed,Speed,-2.950000,-0.920000,1.490000,3.000000,103.000000,1,0,0.000000,0.000000,0,0.000000,0.000000,0.000000,0.041809,0.134109,0.000000,0.001000,0.005000,0.008000,FlatInitial
07:43:20.976 PM 02/11/2016,Autonomous Disabled,0,FALSE,0,NO ERROR,0.000000,0.000000,4000.000000,4000.000000,Speed,Speed,-2.930000,-0.910000,1.500000,3.000000,102.000000,1,0,0.000000,0.000000,0,0.000000,0.000000,0.000000,0.041809,0.134109,0.000000,0.003000,0.000000,0.005000,FlatInitial
07:43:21.076 PM 02/11/2016,Autonomous Disabled,0,FALSE,0,NO ERROR,0.000000,0.000000,4000.000000,4000.000000,Speed,Speed,-2.930000,-0.910000,1.520000,3.000000,106.000000,1,0,0.000000,0.000000,0,0.000000,0.000000,0.000000,0.041809,0.134109,0.000000,0.000000,0.000000,0.004000,FlatInitial
07:43:21.176 PM 02/11/2016,Autonomous Disabled,0,FALSE,0,NO ERROR,0.000000,0.000000,4000.000000,4000.000000,Speed,Speed,-2.930000,-0.890000,1.530000,3.000000,101.000000,1,0,0.000000,0.000000,0,0.000000,0.000000,0.000000,0.041809,0.134109,0.000000,0.003000,0.000000,0.007000,FlatInitial
07:43:21.276 PM 02/11/2016,Autonomous Disabled,0,FALSE,0,NO ERROR,0.000000,0.000000,4000.000000,4000.000000,Speed,Speed,-2.940000,-0.860000,1.540000,3.000000,102.000000,1,0,0.000000,0.000000,0,0.000000,0.000000,0.000000,0.041809,0.134109,0.000000,0.003000,0.000000,0.007000,FlatInitial
07:43:21.376 PM 02/11/2016,Autonomous Disabled,0,FALSE,0,NO ERROR,0.000000,0.000000,4000.000000,4000.000000,Speed,Speed,-2.930000,-0.880000,1.540000,3.000000,101.000000,1,0,0.000000,0.000000,0,0.000000,0.000000,0.000000,0.041809,0.134109,0.000000,-0.001000,0.001000,-0.002000,FlatInitial
07:43:21.477 PM 02/11/2016,Autonomous Disabled,0,FALSE,0,NO ERROR,0.000000,0.000000,4000.000000,4000.000000,Speed,Speed,-2.930000,-0.860000,1.590000,3.000000,105.000000,1,0,0.000000,0.000000,0,0.000000,0.000000,0.000000,0.041809,0.134109,0.000000,-0.001000,0.001000,0.008000,FlatInitial
07:43:21.577 PM 02/11/2016,Autonomous Disabled,0,FALSE,0,NO ERROR,0.000000,0.000000,4000.000000,4000.000000,Speed,Speed,-2.930000,-0.860000,1.580000,3.000000,105.000000,1,0,0.000000,0.000000,0,0.000000,0.000000,0.000000,0.041809,0.134109,0.000000,-0.001000,0.001000,0.008000,FlatInitial
07:43:21.677 PM 02/11/2016,Autonomous Disabled,0,FALSE,0,NO ERROR,0.000000,0.000000,4000.000000,4000.000000,Speed,Speed,-2.940000,-0.880000,1.470000,3.000000,102.000000,1,0,0.000000,0.000000,0,0.000000,0.000000,0.000000,0.041809,0.134109,0.000000,0.002000,0.000000,0.002000,FlatInitial
07:43:21.777 PM 02/11/2016,Autonomous Disabled,0,FALSE,0,NO ERROR,0.000000,0.000000,4000.000000,4000.000000,Speed,Speed,-2.930000,-0.890000,1.530000,3.000000,101.000000,1,0,0.000000,0.000000,0,0.000000,0.000000,0.000000,0.041809,0.134109,0.000000,0.001000,0.004000,0.008000,FlatInitial
07:43:21.877 PM 02/11/2016,Autonomous Disabled,0,FALSE,0,NO ERROR,0.000000,0.000000,4000.000000,4000.000000,Speed,Speed,-2.930000,-0.880000,1.580000,3.000000,102.000000,1,0,0.000000,0.000000,0,0.000000,0.000000,0.000000,0.041809,0.134109,0.000000,0.001000,0.004000,0.008000,FlatInitial
07:43:21.977 PM 02/11/2016,Autonomous Disabled,0,FALSE,0,NO ERROR,0.000000,0.000000,4000.000000,4000.000000,Speed,Speed,-2.930000,-0.880000,1.580000,3.000000,105.000000,1,0,0.000000,0.000000,0,0.000000,0.000000,0.000000,0.041809,0.134109,0.000000,0.003000,0.004000,0.014000,FlatInitial
07:43:22.078 PM 02/11/2016,Autonomous Disabled,0,FALSE,0,NO ERROR,0.000000,0.000000,4000.000000,4000.000000,Speed,Speed,-2.900000,-0.880000,1.610000,3.000000,103.000000,1,0,0.000000,0.000000,0,0.000000,0.000000,0.000000,0.041809,0.134109,0.000000,0.000000,-0.005000,-0.001000,FlatInitial
07:43:22.179 PM 02/11/2016,Autonomous Disabled,0,FALSE,0,NO ERROR,0.000000,0.000000,4000.000000,4000.000000,Speed,Speed,-2.870000,-0.870000,1.620000,3.000000,101.000000,1,0,0.000000,0.000000,0,0.000000,0.000000,0.000000,0.041809,0.134109,0.000000,0.009000,-0.007000,-0.009000,FlatInitial
07:43:22.279 PM 02/11/2016,Autonomous Disabled,0,FALSE,0,NO ERROR,0.000000,0.000000,4000.000000,4000.000000,Speed,Speed,-2.790000,-0.880000,1.650000,3.000000,102.000000,1,0,0.000000,0.000000,0,0.000000,0.000000,0.000000,0.041809,0.134109,0.000000,-0.002000,-0.003000,0.001000,FlatInitial
07:43:22.379 PM 02/11/2016,Autonomous Disabled,0,FALSE,0,NO ERROR,0.000000,0.000000,4000.000000,4000.000000,Speed,Speed,-2.790000,-0.880000,1.650000,3.000000,102.000000,1,0,0.000000,0.000000,0,0.000000,0.000000,0.000000,0.041809,0.134109,0.000000,0.002000,0.008000,0.014000,FlatInitial
07:43:22.479 PM 02/11/2016,Autonomous Disabled,0,FALSE,0,NO ERROR,0.000000,0.000000,4000.000000,4000.000000,Speed,Speed,-2.530000,-0.920000,1.480000,3.000000,103.000000,1,0,0.000000,0.000000,0,0.000000,0.000000,0.000000,0.041809,0.134109,0.000000,0.004000,0.000000,-0.004000,FlatInitial
07:43:22.579 PM 02/11/2016,Autonomous Disabled,0,FALSE,0,NO ERROR,0.000000,0.000000,4000.000000,4000.000000,Speed,Speed,-2.520000,-0.860000,1.520000,3.000000,102.000000,1,0,0.000000,0.000000,0,0.000000,0.000000,0.000000,0.041809,0.134109,0.000000,-0.002000,-0.005000,-0.005000,FlatInitial
07:43:22.680 PM 02/11/2016,Autonomous Disabled,0,FALSE,0,NO ERROR,0.000000,0.000000,4000.000000,4000.000000,Speed,Speed,-2.530000,-0.850000,1.630000,3.000000,101.000000,1,0,0.000000,0.000000,0,0.000000,0.000000,0.000000,0.041809,0.134109,0.000000,-0.001000,0.008000,0.005000,FlatInitial
07:43:22.780 PM 02/11/2016,Autonomous Disabled,0,FALSE,0,NO ERROR,0.000000,0.000000,4000.000000,4000.000000,Speed,Speed,-2.530000,-0.850000,1.630000,3.000000,102.000000,1,0,0.000000,0.000000,0,0.000000,0.000000,0.000000,0.041809,0.134109,0.000000,-0.002000,0.005000,0.001000,FlatInitial
07:43:22.880 PM 02/11/2016,Autonomous Disabled,0,FALSE,0,NO ERROR,0.000000,0.000000,4000.000000,4000.000000,Speed,Speed,-2.540000,-0.860000,1.560000,3.000000,102.000000,1,0,0.000000,0.000000,0,0.000000,0.000000,0.000000,0.041809,0.134109,0.000000,0.000000,0.001000,0.005000,FlatInitial
07:43:22.981 PM 02/11/2016,Autonomous Disabled,0,FALSE,0,NO ERROR,0.000000,0.000000,4000.000000,4000.000000,Speed,Speed,-2.530000,-0.860000,1.590000,3.000000,101.000000,1,0,0.000000,0.000000,0,0.000000,0.000000,0.000000,0.041809,0.134109,0.000000,0.007000,0.002000,0.018000,FlatInitial
07:43:23.081 PM 02/11/2016,Autonomous Disabled,0,FALSE,0,NO ERROR,0.000000,0.000000,4000.000000,4000.000000,Speed,Speed,-2.510000,-0.860000,1.630000,3.000000,101.000000,1,0,0.000000,0.000000,0,0.000000,0.000000,0.000000,0.041809,0.134216,0.000000,-0.001000,0.004000,0.003000,FlatInitial
07:43:23.181 PM 02/11/2016,Autonomous Disabled,0,FALSE,0,NO ERROR,0.000000,0.000000,4000.000000,4000.000000,Speed,Speed,-2.510000,-0.820000,1.650000,3.000000,101.000000,1,0,0.000000,0.000000,0,0.000000,0.000000,0.000000,0.041809,0.134216,0.000000,0.000000,0.009000,0.011000,FlatInitial
07:43:23.281 PM 02/11/2016,Autonomous Disabled,0,FALSE,0,NO ERROR,0.000000,0.000000,4000.000000,4000.000000,Speed,Speed,-2.510000,-0.840000,1.630000,3.000000,101.000000,1,0,0.000000,0.000000,0,0.000000,0.000000,0.000000,0.041809,0.134216,0.000000,0.001000,0.000000,0.012000,FlatInitial
07:43:23.382 PM 02/11/2016,Autonomous Disabled,0,FALSE,0,NO ERROR,0.000000,0.000000,4000.000000,4000.000000,Speed,Speed,-2.520000,-0.840000,1.630000,3.000000,101.000000,1,0,0.000000,0.000000,0,0.000000,0.000000,0.000000,0.041809,0.134216,0.000000,0.001000,0.004000,0.011000,FlatInitial
07:43:23.482 PM 02/11/2016,Autonomous Disabled,0,FALSE,0,NO ERROR,0.000000,0.000000,4000.000000,4000.000000,Speed,Speed,-2.510000,-0.850000,1.630000,3.000000,103.000000,1,0,0.000000,0.000000,0,0.000000,0.000000,0.000000,0.041809,0.134216,0.000000,-0.003000,0.008000,0.000000,FlatInitial
07:43:23.582 PM 02/11/2016,Autonomous Disabled,0,FALSE,0,NO ERROR,0.000000,0.000000,4000.000000,4000.000000,Speed,Speed,-2.510000,-0.840000,1.640000,3.000000,101.000000,1,0,0.000000,0.000000,0,0.000000,0.000000,0.000000,0.041809,0.134216,0.000000,0.000000,0.006000,0.002000,FlatInitial
07:43:23.682 PM 02/11/2016,Autonomous Disabled,0,FALSE,0,NO ERROR,0.000000,0.000000,4000.000000,4000.000000,Speed,Speed,-2.500000,-0.840000,1.640000,3.000000,103.000000,1,0,0.000000,0.000000,0,0.000000,0.000000,0.000000,0.041809,0.134216,0.000000,0.001000,0.005000,0.012000,FlatInitial
07:43:23.783 PM 02/11/2016,Autonomous Disabled,0,FALSE,0,NO ERROR,0.000000,0.000000,4000.000000,4000.000000,Speed,Speed,-2.480000,-0.840000,1.640000,3.000000,102.000000,1,0,0.000000,0.000000,0,0.000000,0.000000,0.000000,0.041809,0.134216,0.000000,0.001000,0.007000,0.007000,FlatInitial
07:43:23.884 PM 02/11/2016,Autonomous Disabled,0,FALSE,0,NO ERROR,0.000000,0.000000,4000.000000,4000.000000,Speed,Speed,-2.400000,-0.840000,1.640000,3.000000,101.000000,1,0,0.000000,0.000000,0,0.000000,0.000000,0.000000,0.041809,0.134216,0.000000,0.000000,0.001000,0.007000,FlatInitial
07:43:23.985 PM 02/11/2016,Autonomous Disabled,0,FALSE,0,NO ERROR,0.000000,0.000000,4000.000000,4000.000000,Speed,Speed,-2.320000,-0.850000,1.640000,3.000000,103.000000,1,0,0.000000,0.000000,0,0.000000,0.000000,0.000000,0.041809,0.134216,0.000000,0.000000,0.001000,0.011000,FlatInitial
07:43:24.085 PM 02/11/2016,Autonomous Disabled,0,FALSE,0,NO ERROR,0.000000,0.000000,4000.000000,4000.000000,Speed,Speed,-2.280000,-0.810000,1.630000,3.000000,101.000000,1,0,0.000000,0.000000,0,0.007217,0.000000,0.000000,0.042007,0.134216,0.000000,-0.010000,-0.006000,0.025000,FlatInitial
07:43:24.186 PM 02/11/2016,Autonomous Disabled,0,FALSE,0,NO ERROR,0.000000,0.000000,4000.000000,4000.000000,Speed,Speed,-2.300000,-0.810000,1.620000,3.000000,102.000000,1,0,0.000000,0.000000,0,0.000000,0.000000,0.000000,0.042007,0.134338,0.000000,0.005000,-0.003000,0.000000,FlatInitial
07:43:24.286 PM 02/11/2016,Autonomous Disabled,0,FALSE,0,NO ERROR,0.000000,0.000000,4000.000000,4000.000000,Speed,Speed,-2.370000,-0.830000,1.630000,3.000000,101.000000,1,0,0.000000,0.000000,0,0.000000,0.000000,0.000000,0.042007,0.134338,0.000000,0.000000,0.007000,0.002000,FlatInitial
07:43:24.387 PM 02/11/2016,Autonomous Disabled,0,FALSE,0,NO ERROR,0.000000,0.000000,4000.000000,4000.000000,Speed,Speed,-2.370000,-0.820000,1.650000,3.000000,102.000000,1,0,0.000000,0.000000,0,0.000000,0.000000,0.000000,0.042007,0.134338,0.000000,0.000000,0.001000,0.005000,FlatInitial
07:43:24.488 PM 02/11/2016,Autonomous Disabled,0,FALSE,0,NO ERROR,0.000000,0.000000,4000.000000,4000.000000,Speed,Speed,-2.390000,-0.830000,1.610000,3.000000,103.000000,1,0,0.000000,0.000000,0,0.000000,0.000000,0.000000,0.042007,0.134338,0.000000,0.000000,-0.003000,0.012000,FlatInitial
07:43:24.589 PM 02/11/2016,Autonomous Disabled,0,FALSE,0,NO ERROR,0.000000,0.000000,4000.000000,4000.000000,Speed,Speed,-2.450000,-0.830000,1.620000,3.000000,103.000000,1,0,0.000000,0.000000,0,0.000000,0.000000,0.000000,0.042007,0.134338,0.000000,-0.003000,0.003000,0.000000,FlatInitial
07:43:24.689 PM 02/11/2016,Autonomous Disabled,0,FALSE,0,NO ERROR,0.000000,0.000000,4000.000000,4000.000000,Speed,Speed,-2.510000,-0.840000,1.630000,3.000000,101.000000,1,0,0.000000,0.000000,0,0.000000,0.000000,0.000000,0.042007,0.134338,0.000000,0.000000,0.000000,0.004000,FlatInitial
07:43:24.789 PM 02/11/2016,Autonomous Disabled,0,FALSE,0,NO ERROR,0.000000,0.000000,4000.000000,4000.000000,Speed,Speed,-2.510000,-0.820000,1.640000,3.000000,101.000000,1,0,0.000000,0.000000,0,0.000000,0.000000,0.000000,0.042007,0.134338,0.000000,-0.001000,0.000000,0.000000,FlatInitial
07:43:24.889 PM 02/11/2016,Autonomous Disabled,0,FALSE,0,NO ERROR,0.000000,0.000000,4000.000000,4000.000000,Speed,Speed,-2.510000,-0.830000,1.630000,3.000000,102.000000,1,0,0.000000,0.000000,0,0.000000,0.004120,0.000000,0.042007,0.134445,0.000000,-0.007000,0.000000,0.009000,FlatInitial
07:43:24.989 PM 02/11/2016,Autonomous Disabled,0,FALSE,0,NO ERROR,0.000000,0.000000,4000.000000,4000.000000,Speed,Speed,-2.530000,-0.840000,1.620000,3.000000,103.000000,1,0,0.000000,0.000000,0,0.000000,0.000000,0.000000,0.042007,0.134445,0.000000,-0.005000,0.010000,0.012000,FlatInitial
07:43:25.089 PM 02/11/2016,Autonomous Disabled,0,FALSE,0,NO ERROR,0.000000,0.000000,4000.000000,4000.000000,Speed,Speed,-2.540000,-0.830000,1.620000,3.000000,101.000000,1,0,0.000000,0.000000,0,0.000000,0.000000,0.000000,0.042007,0.134445,0.000000,-0.001000,0.004000,0.009000,FlatInitial
07:43:25.189 PM 02/11/2016,Autonomous Disabled,0,FALSE,0,NO ERROR,0.000000,0.000000,4000.000000,4000.000000,Speed,Speed,-2.530000,-0.840000,1.570000,3.000000,102.000000,1,0,0.000000,0.000000,0,0.000000,0.000000,0.000000,0.042007,0.134445,0.000000,0.000000,-0.004000,0.003000,FlatInitial
07:43:25.291 PM 02/11/2016,Autonomous Disabled,0,FALSE,0,NO ERROR,0.000000,0.000000,4000.000000,4000.000000,Speed,Speed,-2.530000,-0.860000,1.550000,3.000000,102.000000,1,0,0.000000,0.000000,0,0.000000,0.000000,0.000000,0.042007,0.134445,0.000000,0.001000,0.002000,0.002000,FlatInitial
07:43:25.391 PM 02/11/2016,Autonomous Disabled,0,FALSE,0,NO ERROR,0.000000,0.000000,4000.000000,4000.000000,Speed,Speed,-2.520000,-0.860000,1.540000,3.000000,101.000000,1,0,0.000000,0.000000,0,0.000000,0.000000,0.000000,0.042007,0.134445,0.000000,-0.002000,0.001000,0.000000,FlatInitial
07:43:25.492 PM 02/11/2016,Autonomous Disabled,0,FALSE,0,NO ERROR,0.000000,0.000000,4000.000000,4000.000000,Speed,Speed,-2.530000,-0.850000,1.620000,3.000000,101.000000,1,0,0.000000,0.000000,0,0.000000,0.000000,0.000000,0.042007,0.134445,0.000000,-0.002000,0.008000,0.011000,FlatInitial
07:43:25.592 PM 02/11/2016,Autonomous Disabled,0,FALSE,0,NO ERROR,0.000000,0.000000,4000.000000,4000.000000,Speed,Speed,-2.530000,-0.860000,1.620000,3.000000,101.000000,1,0,0.000000,0.000000,0,0.000000,0.000000,0.000000,0.042007,0.134445,0.000000,0.001000,-0.003000,0.001000,FlatInitial
07:43:25.693 PM 02/11/2016,Autonomous Disabled,0,FALSE,0,NO ERROR,0.000000,0.000000,4000.000000,4000.000000,Speed,Speed,-2.570000,-0.870000,1.580000,3.000000,102.000000,1,0,0.000000,0.000000,0,0.000000,0.000000,0.000000,0.042007,0.134445,0.000000,-0.003000,0.004000,-0.003000,FlatInitial
07:43:25.793 PM 02/11/2016,Autonomous Disabled,0,FALSE,0,NO ERROR,0.000000,0.000000,4000.000000,4000.000000,Speed,Speed,-2.630000,-0.880000,1.570000,3.000000,104.000000,1,0,0.000000,0.000000,0,0.000000,0.000000,0.000000,0.042007,0.134445,0.000000,0.003000,0.002000,0.006000,FlatInitial
07:43:25.894 PM 02/11/2016,Autonomous Disabled,0,FALSE,0,NO ERROR,0.000000,0.000000,4000.000000,4000.000000,Speed,Speed,-2.680000,-0.880000,1.590000,3.000000,101.000000,1,0,0.000000,0.000000,0,0.000000,0.000000,0.000000,0.042007,0.134445,0.000000,-0.005000,0.003000,-0.007000,FlatInitial
07:43:25.995 PM 02/11/2016,Autonomous Disabled,0,FALSE,0,NO ERROR,0.000000,0.000000,4000.000000,4000.000000,Speed,Speed,-2.730000,-0.870000,1.610000,3.000000,102.000000,1,0,0.000000,0.000000,0,0.000000,0.000000,0.000000,0.042007,0.134445,0.000000,0.000000,0.005000,0.000000,FlatInitial
07:43:26.095 PM 02/11/2016,Autonomous Disabled,0,FALSE,0,NO ERROR,0.000000,0.000000,4000.000000,4000.000000,Speed,Speed,-2.790000,-0.870000,1.610000,3.000000,103.000000,1,0,0.000000,0.000000,0,0.000000,0.000000,0.000000,0.042007,0.134445,0.000000,0.000000,0.004000,0.005000,FlatInitial
07:43:26.195 PM 02/11/2016,Autonomous Disabled,0,FALSE,0,NO ERROR,0.000000,0.000000,4000.000000,4000.000000,Speed,Speed,-2.840000,-0.870000,1.620000,3.000000,101.000000,1,0,0.000000,0.000000,0,0.000000,0.000000,0.000000,0.042007,0.134445,0.000000,-0.001000,0.005000,0.004000,FlatInitial
07:43:26.296 PM 02/11/2016,Autonomous Disabled,0,FALSE,0,NO ERROR,0.000000,0.000000,4000.000000,4000.000000,Speed,Speed,-2.830000,-0.860000,1.640000,3.000000,103.000000,1,0,0.000000,0.000000,0,0.000000,0.000000,0.000000,0.042007,0.134445,0.000000,-0.001000,0.001000,0.002000,FlatInitial
07:43:26.397 PM 02/11/2016,Autonomous Disabled,0,FALSE,0,NO ERROR,0.000000,0.000000,4000.000000,4000.000000,Speed,Speed,-2.830000,-0.870000,1.620000,3.000000,102.000000,1,0,0.000000,0.000000,0,0.000000,0.000000,0.000000,0.042007,0.134445,0.000000,0.001000,0.001000,0.004000,FlatInitial
07:43:26.497 PM 02/11/2016,Autonomous Disabled,0,FALSE,0,NO ERROR,0.000000,0.000000,4000.000000,4000.000000,Speed,Speed,-2.820000,-0.860000,1.620000,3.000000,101.000000,1,0,0.000000,0.000000,0,0.000000,0.000000,0.000000,0.042007,0.134445,0.000000,0.002000,0.000000,0.001000,FlatInitial
07:43:26.597 PM 02/11/2016,Autonomous Disabled,0,FALSE,0,NO ERROR,0.000000,0.000000,4000.000000,4000.000000,Speed,Speed,-2.820000,-0.860000,1.640000,3.000000,101.000000,1,0,0.000000,0.000000,0,0.000000,0.000000,0.000000,0.042007,0.134445,0.000000,0.000000,0.004000,0.003000,FlatInitial
07:43:26.697 PM 02/11/2016,Autonomous Disabled,0,FALSE,0,NO ERROR,0.000000,0.000000,4000.000000,4000.000000,Speed,Speed,-2.810000,-0.870000,1.640000,3.000000,102.000000,1,0,0.000000,0.000000,0,0.000000,0.000000,0.000000,0.042007,0.134445,0.000000,0.000000,0.002000,0.001000,FlatInitial
07:43:26.797 PM 02/11/2016,Autonomous Disabled,0,FALSE,0,NO ERROR,0.000000,0.000000,4000.000000,4000.000000,Speed,Speed,-2.810000,-0.870000,1.640000,3.000000,102.000000,1,0,0.000000,0.000000,0,0.000000,0.000000,0.000000,0.042007,0.134445,0.000000,0.001000,0.002000,0.008000,FlatInitial
07:43:26.897 PM 02/11/2016,Autonomous Disabled,0,FALSE,0,NO ERROR,0.000000,0.000000,4000.000000,4000.000000,Speed,Speed,-2.820000,-0.870000,1.630000,3.000000,104.000000,1,0,0.000000,0.000000,0,0.000000,0.000000,0.000000,0.042007,0.134445,0.000000,0.000000,0.003000,0.001000,FlatInitial
07:43:26.997 PM 02/11/2016,Autonomous Disabled,0,FALSE,0,NO ERROR,0.000000,0.000000,4000.000000,4000.000000,Speed,Speed,-2.810000,-0.870000,1.630000,3.000000,100.000000,1,0,0.000000,0.000000,0,0.000000,0.000000,0.000000,0.042007,0.134445,0.000000,0.000000,0.005000,0.009000,FlatInitial
07:43:27.097 PM 02/11/2016,Autonomous Disabled,0,FALSE,0,NO ERROR,0.000000,0.000000,4000.000000,4000.000000,Speed,Speed,-2.860000,-0.890000,1.620000,3.000000,101.000000,1,0,0.000000,0.000000,0,0.000000,0.000000,0.000000,0.042007,0.134445,0.000000,0.002000,-0.005000,0.007000,FlatInitial
07:43:27.197 PM 02/11/2016,Autonomous Disabled,0,FALSE,0,NO ERROR,0.000000,0.000000,4000.000000,4000.000000,Speed,Speed,-3.050000,-0.890000,1.590000,3.000000,102.000000,1,0,0.000000,0.000000,0,0.000000,0.000000,0.000000,0.042007,0.134445,0.000000,0.005000,-0.004000,0.000000,FlatInitial
07:43:27.297 PM 02/11/2016,Autonomous Disabled,0,FALSE,0,NO ERROR,0.000000,0.000000,4000.000000,4000.000000,Speed,Speed,-3.400000,-0.870000,1.590000,3.000000,102.000000,1,0,0.000000,0.000000,0,0.000000,0.000000,0.000000,0.042007,0.134445,0.000000,0.005000,-0.005000,0.000000,FlatInitial
07:43:27.397 PM 02/11/2016,Autonomous Disabled,0,FALSE,0,NO ERROR,0.000000,0.000000,4000.000000,4000.000000,Speed,Speed,-3.840000,-0.830000,1.600000,3.000000,101.000000,1,0,0.000000,0.000000,0,0.000000,0.000000,0.000000,0.042007,0.134445,0.000000,0.002000,-0.001000,0.004000,FlatInitial
07:43:27.498 PM 02/11/2016,Autonomous Disabled,0,FALSE,0,NO ERROR,0.000000,0.000000,4000.000000,4000.000000,Speed,Speed,-4.450000,-0.820000,1.600000,3.000000,104.000000,1,0,0.000000,0.000000,0,0.000000,0.000000,0.000000,0.042007,0.134445,0.000000,-0.005000,0.004000,0.000000,FlatInitial
07:43:27.599 PM 02/11/2016,Autonomous Disabled,0,FALSE,0,NO ERROR,0.000000,0.000000,4000.000000,4000.000000,Speed,Speed,-4.900000,-0.810000,1.640000,3.000000,101.000000,1,0,0.000000,0.000000,0,0.000000,0.000000,0.000000,0.042007,0.134445,0.000000,0.000000,0.019000,0.015000,FlatInitial
07:43:27.699 PM 02/11/2016,Autonomous Disabled,0,FALSE,0,NO ERROR,0.000000,0.000000,4000.000000,4000.000000,Speed,Speed,-5.140000,-0.800000,1.620000,3.000000,101.000000,1,0,0.000000,0.000000,0,0.000000,0.000000,0.000000,0.042007,0.134445,0.000000,0.002000,0.000000,-0.001000,FlatInitial
07:43:27.799 PM 02/11/2016,Autonomous Disabled,0,FALSE,0,NO ERROR,0.000000,0.000000,4000.000000,4000.000000,Speed,Speed,-5.380000,-0.820000,1.690000,3.000000,101.000000,1,0,0.000000,0.000000,0,0.000000,0.000000,0.000000,0.042007,0.134445,0.000000,-0.012000,0.002000,0.004000,FlatInitial
07:43:27.899 PM 02/11/2016,Autonomous Disabled,0,FALSE,0,NO ERROR,0.000000,0.000000,4000.000000,4000.000000,Speed,Speed,-5.360000,-0.840000,1.700000,3.000000,102.000000,1,0,0.000000,0.000000,0,0.000000,0.000000,0.000000,0.042007,0.134445,0.000000,0.003000,0.000000,0.004000,FlatInitial
07:43:27.999 PM 02/11/2016,Autonomous Disabled,0,FALSE,0,NO ERROR,0.000000,0.000000,4000.000000,4000.000000,Speed,Speed,-5.330000,-0.840000,1.690000,3.000000,102.000000,1,0,0.000000,0.000000,0,0.000000,0.000000,0.000000,0.042007,0.134445,0.000000,0.002000,0.011000,-0.009000,FlatInitial
07:43:28.099 PM 02/11/2016,Autonomous Disabled,0,FALSE,0,NO ERROR,0.000000,0.000000,4000.000000,4000.000000,Speed,Speed,-5.290000,-0.830000,1.700000,3.000000,103.000000,1,0,0.000000,0.000000,0,0.000000,0.000000,0.000000,0.042007,0.134445,0.000000,0.002000,-0.003000,-0.009000,FlatInitial
07:43:28.199 PM 02/11/2016,Autonomous Disabled,0,FALSE,0,NO ERROR,0.000000,0.000000,4000.000000,4000.000000,Speed,Speed,-5.240000,-0.810000,1.690000,3.000000,104.000000,1,0,0.000000,0.000000,0,0.000000,0.000000,0.000000,0.042007,0.134445,0.000000,0.003000,-0.006000,0.000000,FlatInitial
07:43:28.299 PM 02/11/2016,Autonomous Disabled,0,FALSE,0,NO ERROR,0.000000,0.000000,4000.000000,4000.000000,Speed,Speed,-5.230000,-0.820000,1.670000,3.000000,101.000000,1,0,0.000000,0.000000,0,0.000000,0.000000,0.000000,0.042007,0.134445,0.000000,0.000000,-0.007000,0.004000,FlatInitial
07:43:28.399 PM 02/11/2016,Autonomous Disabled,0,FALSE,0,NO ERROR,0.000000,0.000000,4000.000000,4000.000000,Speed,Speed,-5.230000,-0.810000,1.680000,3.000000,101.000000,1,0,0.000000,0.000000,0,0.000000,0.000000,0.000000,0.042007,0.134445,0.000000,0.001000,0.013000,0.015000,FlatInitial
07:43:28.499 PM 02/11/2016,Autonomous Disabled,0,FALSE,0,NO ERROR,0.000000,0.000000,4000.000000,4000.000000,Speed,Speed,-5.230000,-0.820000,1.700000,3.000000,102.000000,1,0,0.000000,0.000000,0,0.000000,0.000000,0.000000,0.042007,0.134445,0.000000,0.003000,-0.002000,0.009000,FlatInitial
07:43:28.599 PM 02/11/2016,Autonomous Disabled,0,FALSE,0,NO ERROR,0.000000,0.000000,4000.000000,4000.000000,Speed,Speed,-5.220000,-0.810000,1.700000,3.000000,101.000000,1,0,0.000000,0.000000,0,0.000000,0.000000,0.000000,0.042007,0.134445,0.000000,-0.001000,0.004000,-0.001000,FlatInitial
07:43:28.699 PM 02/11/2016,Autonomous Disabled,0,FALSE,0,NO ERROR,0.000000,0.000000,4000.000000,4000.000000,Speed,Speed,-5.220000,-0.820000,1.690000,3.000000,102.000000,1,0,0.000000,0.000000,0,0.000000,0.000000,0.000000,0.042007,0.134445,0.000000,0.002000,0.003000,0.006000,FlatInitial
07:43:28.800 PM 02/11/2016,Autonomous Disabled,0,FALSE,0,NO ERROR,0.000000,0.000000,4000.000000,4000.000000,Speed,Speed,-5.190000,-0.840000,1.690000,3.000000,101.000000,1,0,0.000000,0.000000,0,0.000000,0.000000,0.000000,0.042007,0.134445,0.000000,-0.004000,-0.006000,-0.004000,FlatInitial
07:43:28.900 PM 02/11/2016,Autonomous Disabled,0,FALSE,0,NO ERROR,0.000000,0.000000,4000.000000,4000.000000,Speed,Speed,-5.080000,-0.870000,1.680000,3.000000,102.000000,1,0,0.000000,0.000000,0,0.000000,0.000000,0.000000,0.042007,0.134445,0.000000,0.002000,0.004000,0.010000,FlatInitial
07:43:29.000 PM 02/11/2016,Autonomous Disabled,0,FALSE,0,NO ERROR,0.000000,0.000000,4000.000000,4000.000000,Speed,Speed,-4.900000,-0.870000,1.690000,3.000000,102.000000,1,0,0.000000,0.000000,0,0.000000,0.000000,0.000000,0.042007,0.134445,0.000000,-0.003000,0.000000,0.000000,FlatInitial
07:43:29.101 PM 02/11/2016,Autonomous Disabled,0,FALSE,0,NO ERROR,0.000000,0.000000,4000.000000,4000.000000,Speed,Speed,-4.680000,-0.870000,1.690000,3.000000,102.000000,1,0,0.000000,0.000000,0,0.000000,0.000000,0.000000,0.042007,0.134445,0.000000,0.005000,0.003000,0.001000,FlatInitial
07:43:29.201 PM 02/11/2016,Autonomous Disabled,0,FALSE,0,NO ERROR,0.000000,0.000000,4000.000000,4000.000000,Speed,Speed,-4.460000,-0.860000,1.670000,3.000000,101.000000,1,0,0.000000,0.000000,0,0.000000,0.000000,0.000000,0.042007,0.134445,0.000000,0.004000,-0.002000,0.005000,FlatInitial
07:43:29.301 PM 02/11/2016,Autonomous Disabled,0,FALSE,0,NO ERROR,0.000000,0.000000,4000.000000,4000.000000,Speed,Speed,-4.290000,-0.860000,1.650000,3.000000,101.000000,1,0,0.000000,0.000000,0,0.000000,0.000000,0.000000,0.042007,0.134445,0.000000,0.003000,-0.003000,0.003000,FlatInitial
07:43:29.401 PM 02/11/2016,Autonomous Disabled,0,FALSE,0,NO ERROR,0.000000,0.000000,4000.000000,4000.000000,Speed,Speed,-4.240000,-0.840000,1.640000,3.000000,103.000000,1,0,0.000000,0.000000,0,0.000000,0.000000,0.000000,0.042007,0.134445,0.000000,0.003000,-0.003000,0.003000,FlatInitial
07:43:29.503 PM 02/11/2016,Autonomous Disabled,0,FALSE,0,NO ERROR,0.000000,0.000000,4000.000000,4000.000000,Speed,Speed,-4.260000,-0.830000,1.600000,3.000000,102.000000,1,0,0.000000,0.000000,0,0.000000,0.000000,0.000000,0.042007,0.134445,0.000000,0.001000,0.001000,-0.002000,FlatInitial
07:43:29.603 PM 02/11/2016,Autonomous Disabled,0,FALSE,0,NO ERROR,0.000000,0.000000,4000.000000,4000.000000,Speed,Speed,-4.240000,-0.840000,1.650000,3.000000,101.000000,1,0,0.000000,0.000000,0,0.000000,0.000000,0.000000,0.042007,0.134445,0.000000,0.001000,0.001000,-0.002000,FlatInitial
07:43:29.703 PM 02/11/2016,Autonomous Disabled,0,FALSE,0,NO ERROR,0.000000,0.000000,4000.000000,4000.000000,Speed,Speed,-4.250000,-0.830000,1.660000,3.000000,103.000000,1,0,0.000000,0.000000,0,0.000000,0.000000,0.000000,0.042007,0.134445,0.000000,0.005000,0.003000,0.010000,FlatInitial
07:43:29.804 PM 02/11/2016,Autonomous Disabled,0,FALSE,0,NO ERROR,0.000000,0.000000,4000.000000,4000.000000,Speed,Speed,-4.250000,-0.820000,1.680000,3.000000,101.000000,1,0,0.000000,0.000000,0,0.000000,0.000000,0.000000,0.042007,0.134445,0.000000,-0.004000,0.001000,-0.001000,FlatInitial
07:43:29.904 PM 02/11/2016,Autonomous Disabled,0,FALSE,0,NO ERROR,0.000000,0.000000,4000.000000,4000.000000,Speed,Speed,-4.250000,-0.830000,1.690000,3.000000,101.000000,1,0,0.000000,0.000000,0,0.000000,0.000000,0.000000,0.042007,0.134445,0.000000,0.004000,0.004000,0.010000,FlatInitial
07:43:30.004 PM 02/11/2016,Autonomous Disabled,0,FALSE,0,NO ERROR,0.000000,0.000000,4000.000000,4000.000000,Speed,Speed,-4.240000,-0.830000,1.690000,3.000000,101.000000,1,0,0.000000,0.000000,0,0.000000,0.000000,0.000000,0.042007,0.134445,0.000000,0.001000,0.000000,0.001000,FlatInitial
07:43:30.104 PM 02/11/2016,Autonomous Disabled,0,FALSE,0,NO ERROR,0.000000,0.000000,4000.000000,4000.000000,Speed,Speed,-4.240000,-0.830000,1.700000,3.000000,101.000000,1,0,0.000000,0.000000,0,0.000000,0.000000,0.000000,0.042007,0.134445,0.000000,0.000000,0.001000,-0.002000,FlatInitial
07:43:30.205 PM 02/11/2016,Autonomous Disabled,0,FALSE,0,NO ERROR,0.000000,0.000000,4000.000000,4000.000000,Speed,Speed,-4.240000,-0.820000,1.700000,3.000000,102.000000,1,0,0.000000,0.000000,0,0.000000,0.000000,0.000000,0.042007,0.134445,0.000000,0.002000,0.001000,0.006000,FlatInitial
07:43:30.306 PM 02/11/2016,Autonomous Disabled,0,FALSE,0,NO ERROR,0.000000,0.000000,4000.000000,4000.000000,Speed,Speed,-4.240000,-0.820000,1.700000,3.000000,103.000000,1,0,0.000000,0.000000,0,0.000000,0.000000,0.000000,0.042007,0.134445,0.000000,0.000000,0.004000,0.005000,FlatInitial
07:43:30.406 PM 02/11/2016,Autonomous Disabled,0,FALSE,0,NO ERROR,0.000000,0.000000,4000.000000,4000.000000,Speed,Speed,-4.240000,-0.820000,1.710000,3.000000,102.000000,1,0,0.000000,0.000000,0,0.000000,0.000000,0.000000,0.042007,0.134445,0.000000,0.000000,0.002000,0.003000,FlatInitial
07:43:30.507 PM 02/11/2016,Autonomous Disabled,0,FALSE,0,NO ERROR,0.000000,0.000000,4000.000000,4000.000000,Speed,Speed,-4.240000,-0.810000,1.710000,3.000000,103.000000,1,0,0.000000,0.000000,0,0.000000,0.000000,0.000000,0.042007,0.134445,0.000000,-0.001000,0.008000,-0.005000,FlatInitial
07:43:30.608 PM 02/11/2016,Autonomous Disabled,0,FALSE,0,NO ERROR,0.000000,0.000000,4000.000000,4000.000000,Speed,Speed,-4.240000,-0.810000,1.700000,3.000000,102.000000,1,0,0.000000,0.000000,0,0.000000,0.000000,0.000000,0.042007,0.134445,0.000000,0.007000,-0.001000,0.018000,FlatInitial
07:43:30.709 PM 02/11/2016,Autonomous Disabled,0,FALSE,0,NO ERROR,0.000000,0.000000,4000.000000,4000.000000,Speed,Speed,-4.240000,-0.820000,1.670000,3.000000,101.000000,1,0,0.000000,0.000000,0,0.000000,0.000000,0.000000,0.042007,0.134445,0.000000,0.000000,0.001000,0.003000,FlatInitial
07:43:30.810 PM 02/11/2016,Autonomous Disabled,0,FALSE,0,NO ERROR,0.000000,0.000000,4000.000000,4000.000000,Speed,Speed,-4.230000,-0.860000,1.640000,3.000000,104.000000,1,0,0.000000,0.000000,0,0.000000,0.000000,0.000000,0.042007,0.134445,0.000000,0.000000,0.001000,-0.003000,FlatInitial
07:43:30.911 PM 02/11/2016,Autonomous Disabled,0,FALSE,0,NO ERROR,0.000000,0.000000,4000.000000,4000.000000,Speed,Speed,-4.230000,-0.840000,1.620000,3.000000,101.000000,1,0,0.000000,0.000000,0,0.000000,0.000000,0.000000,0.042007,0.134445,0.000000,-0.002000,0.002000,0.007000,FlatInitial
07:43:31.011 PM 02/11/2016,Autonomous Disabled,0,FALSE,0,NO ERROR,0.000000,0.000000,4000.000000,4000.000000,Speed,Speed,-4.220000,-0.850000,1.580000,3.000000,102.000000,1,0,0.000000,0.000000,0,0.000000,0.000000,0.000000,0.042007,0.134445,0.000000,0.001000,0.000000,0.002000,FlatInitial
07:43:31.111 PM 02/11/2016,Autonomous Disabled,0,FALSE,0,NO ERROR,0.000000,0.000000,4000.000000,4000.000000,Speed,Speed,-4.220000,-0.850000,1.610000,3.000000,102.000000,1,0,0.000000,0.000000,0,0.000000,0.000000,0.000000,0.042007,0.134445,0.000000,0.000000,0.002000,0.002000,FlatInitial
07:43:31.211 PM 02/11/2016,Autonomous Disabled,0,FALSE,0,NO ERROR,0.000000,0.000000,4000.000000,4000.000000,Speed,Speed,-4.210000,-0.850000,1.620000,3.000000,101.000000,1,0,0.000000,0.000000,0,0.000000,0.000000,0.000000,0.042007,0.134445,0.000000,0.001000,0.004000,0.001000,FlatInitial
07:43:31.312 PM 02/11/2016,Autonomous Disabled,0,FALSE,0,NO ERROR,0.000000,0.000000,4000.000000,4000.000000,Speed,Speed,-4.210000,-0.850000,1.590000,3.000000,105.000000,1,0,0.000000,0.000000,0,0.000000,0.000000,0.000000,0.042007,0.134445,0.000000,0.002000,0.001000,0.003000,FlatInitial
07:43:31.412 PM 02/11/2016,Autonomous Enabled,0,FALSE,0,NO ERROR,0.000000,0.000000,4000.000000,4000.000000,Speed,Speed,-4.210000,-0.850000,1.620000,3.000000,105.000000,1,0,0.000000,0.000000,0,0.000000,0.000000,0.000000,0.042007,0.134445,0.000000,0.001000,0.004000,0.006000,FlatInitial
07:43:31.512 PM 02/11/2016,Autonomous Enabled,0,FALSE,0,NO ERROR,0.000000,0.000000,4000.000000,4000.000000,Speed,Speed,-4.200000,-0.840000,1.620000,3.000000,101.000000,1,0,0.000000,0.000000,0,0.036118,-0.012375,0.000000,0.042603,0.134399,0.000000,0.176000,0.001000,0.140000,FlatInitial
07:43:31.612 PM 02/11/2016,Autonomous Enabled,0,FALSE,0,NO ERROR,0.000000,0.000000,4000.000000,4000.000000,Speed,Speed,-4.200000,-0.860000,1.450000,3.000000,107.000000,1,0,0.000000,0.000000,0,0.000000,-0.003159,0.000000,0.045319,0.134567,0.000000,-0.014000,-0.042000,-0.019000,FlatInitial
07:43:31.712 PM 02/11/2016,Autonomous Enabled,0,FALSE,0,NO ERROR,0.000000,0.000000,4000.000000,4000.000000,Speed,Speed,-4.190000,-0.840000,1.560000,3.000000,104.000000,1,0,0.000000,0.000000,0,-0.000534,-0.004272,0.000000,0.045471,0.134323,0.000000,0.000000,-0.030000,-0.001000,FlatInitial
07:43:31.812 PM 02/11/2016,Autonomous Enabled,0,FALSE,0,NO ERROR,0.000000,0.000000,4000.000000,4000.000000,Speed,Speed,-4.190000,-0.910000,1.400000,3.000000,104.000000,1,0,0.000000,0.000000,0,0.000000,0.004120,0.000000,0.045212,0.134308,0.000000,0.003000,0.017000,-0.017000,FlatInitial
07:43:31.912 PM 02/11/2016,Autonomous Enabled,0,FALSE,0,NO ERROR,0.000000,0.000000,4000.000000,4000.000000,Speed,Speed,-4.190000,-0.970000,1.250000,3.000000,104.000000,1,0,0.000000,0.000000,0,-0.003693,0.000000,0.000000,0.044922,0.134506,0.000000,-0.034000,0.007000,-0.079000,FlatInitial
07:43:32.012 PM 02/11/2016,Autonomous Enabled,0,FALSE,0,NO ERROR,0.000000,0.000000,4000.000000,4000.000000,Speed,Speed,-4.190000,-0.910000,1.370000,3.000000,103.000000,1,0,0.000000,0.000000,0,0.015381,-0.001266,0.000000,0.045227,0.134369,0.000000,-0.005000,0.023000,0.005000,FlatInitial
07:43:32.112 PM 02/11/2016,Autonomous Enabled,0,FALSE,0,NO ERROR,0.000000,0.000000,4000.000000,4000.000000,Speed,Speed,-4.180000,-0.920000,1.370000,3.000000,100.000000,1,0,0.000000,0.000000,0,0.008240,-0.000992,0.000000,0.045944,0.134415,0.000000,0.034000,-0.026000,0.051000,FlatInitial
07:43:32.212 PM 02/11/2016,Autonomous Enabled,0,FALSE,0,NO ERROR,0.000000,0.000000,4000.000000,4000.000000,Speed,Speed,-4.180000,-0.940000,1.280000,3.000000,103.000000,1,0,0.000000,0.000000,0,0.007538,0.000000,0.000000,0.046387,0.134171,0.000000,-0.012000,0.000000,0.031000,FlatInitial
07:43:32.313 PM 02/11/2016,Autonomous Enabled,0,FALSE,0,NO ERROR,0.000000,0.000000,4000.000000,4000.000000,Speed,Speed,-4.180000,-0.910000,1.420000,3.000000,108.000000,1,0,0.000000,0.000000,0,0.013107,-0.001831,0.000000,0.046814,0.134109,0.000000,0.027000,0.020000,0.033000,FlatInitial
07:43:32.414 PM 02/11/2016,Autonomous Enabled,0,FALSE,0,NO ERROR,0.000000,0.000000,4000.000000,4000.000000,Speed,Speed,-4.160000,-0.920000,1.410000,3.000000,101.000000,1,0,0.000000,0.000000,0,0.024765,-0.019409,0.000000,0.047699,0.133667,0.000000,-0.017000,-0.014000,0.093000,FlatInitial
07:43:32.515 PM 02/11/2016,Autonomous Disabled,0,FALSE,0,NO ERROR,0.000000,0.000000,4000.000000,4000.000000,Speed,Speed,-4.150000,-0.860000,1.790000,3.000000,103.000000,1,0,0.000000,0.000000,0,0.000000,-0.033249,0.000000,0.049240,0.132050,0.000000,0.009000,0.023000,0.017000,FlatInitial
07:43:32.616 PM 02/11/2016,Autonomous Disabled,0,FALSE,0,NO ERROR,0.000000,0.000000,4000.000000,4000.000000,Speed,Speed,-4.160000,-0.810000,1.710000,3.000000,102.000000,1,0,0.000000,0.000000,0,0.003555,-0.010788,0.000000,0.049271,0.131775,0.000000,0.026000,0.034000,0.112000,FlatInitial
07:43:32.716 PM 02/11/2016,Autonomous Disabled,0,FALSE,0,NO ERROR,0.000000,0.000000,4000.000000,4000.000000,Speed,Speed,-4.150000,-0.980000,1.310000,3.000000,103.000000,1,0,0.000000,0.000000,0,0.000000,-0.026657,0.000000,0.049744,0.130905,0.000000,-0.012000,-0.047000,-0.005000,FlatInitial
07:43:32.816 PM 02/11/2016,Autonomous Disabled,0,FALSE,0,NO ERROR,0.000000,0.000000,4000.000000,4000.000000,Speed,Speed,-4.150000,-0.840000,1.660000,3.000000,103.000000,1,0,0.000000,0.000000,0,0.000000,-0.046341,0.000000,0.049744,0.128937,0.000000,-0.013000,0.058000,-0.109000,FlatInitial
07:43:32.916 PM 02/11/2016,Autonomous Disabled,0,FALSE,0,NO ERROR,0.000000,0.000000,4000.000000,4000.000000,Speed,Speed,-4.140000,-0.860000,1.520000,3.000000,102.000000,1,0,0.000000,0.000000,0,0.009689,-0.043381,0.000000,0.049866,0.126907,0.000000,-0.006000,-0.016000,-0.052000,FlatInitial
07:43:33.016 PM 02/11/2016,Autonomous Disabled,0,FALSE,0,NO ERROR,0.000000,0.000000,4000.000000,4000.000000,Speed,Speed,-4.160000,-0.930000,1.590000,3.000000,102.000000,1,0,0.000000,0.000000,0,-0.000916,0.000000,0.000000,0.049927,0.124832,0.000000,0.000000,-0.002000,-0.026000,FlatInitial
07:43:33.116 PM 02/11/2016,Autonomous Disabled,0,FALSE,0,NO ERROR,0.000000,0.000000,4000.000000,4000.000000,Speed,Speed,-3.880000,-0.800000,1.700000,3.000000,101.000000,1,0,0.000000,0.000000,0,-0.013031,0.010773,0.000000,0.049469,0.125076,0.000000,0.032000,-0.011000,-0.020000,FlatInitial
07:43:33.216 PM 02/11/2016,Autonomous Disabled,0,FALSE,0,NO ERROR,0.000000,0.000000,4000.000000,4000.000000,Speed,Speed,-3.700000,-1.020000,1.700000,3.000000,101.000000,1,0,0.000000,0.000000,0,-0.010208,-0.005249,0.000000,0.049194,0.125046,0.000000,0.002000,0.014000,0.003000,FlatInitial
07:43:33.316 PM 02/11/2016,Autonomous Disabled,0,FALSE,0,NO ERROR,0.000000,0.000000,4000.000000,4000.000000,Speed,Speed,-3.400000,-0.830000,1.730000,3.000000,105.000000,1,0,0.000000,0.000000,0,0.000000,0.008118,0.000000,0.049088,0.125153,0.000000,0.007000,0.023000,0.017000,FlatInitial
07:43:33.416 PM 02/11/2016,Autonomous Disabled,0,FALSE,0,NO ERROR,0.000000,0.000000,4000.000000,4000.000000,Speed,Speed,-3.120000,-0.960000,1.730000,3.000000,102.000000,1,0,0.000000,0.000000,0,0.000000,0.000000,0.000000,0.049088,0.125580,0.000000,-0.001000,-0.018000,0.006000,FlatInitial
07:43:33.516 PM 02/11/2016,Autonomous Disabled,0,FALSE,0,NO ERROR,0.000000,0.000000,4000.000000,4000.000000,Speed,Speed,-2.930000,-0.880000,1.680000,3.000000,106.000000,1,0,0.000000,0.000000,0,0.000000,0.000000,0.000000,0.049088,0.125580,0.000000,0.002000,0.000000,-0.002000,FlatInitial
07:43:33.616 PM 02/11/2016,Autonomous Disabled,0,FALSE,0,NO ERROR,0.000000,0.000000,4000.000000,4000.000000,Speed,Speed,-2.950000,-0.840000,1.680000,3.000000,103.000000,1,0,0.000000,0.000000,0,0.000000,0.000000,0.000000,0.049088,0.125580,0.000000,0.003000,0.003000,0.026000,FlatInitial
07:43:33.716 PM 02/11/2016,Autonomous Disabled,0,FALSE,0,NO ERROR,0.000000,0.000000,4000.000000,4000.000000,Speed,Speed,-2.990000,-0.860000,1.660000,3.000000,102.000000,1,0,0.000000,0.000000,0,0.000000,0.000000,0.000000,0.049088,0.125580,0.000000,-0.004000,-0.003000,-0.010000,FlatInitial
07:43:33.816 PM 02/11/2016,Autonomous Disabled,0,FALSE,0,NO ERROR,0.000000,0.000000,4000.000000,4000.000000,Speed,Speed,-3.030000,-0.850000,1.660000,3.000000,102.000000,1,0,0.000000,0.000000,0,0.000000,0.000000,0.000000,0.049088,0.125580,0.000000,0.001000,0.000000,0.005000,FlatInitial
07:43:33.916 PM 02/11/2016,Autonomous Disabled,0,FALSE,0,NO ERROR,0.000000,0.000000,4000.000000,4000.000000,Speed,Speed,-3.050000,-0.850000,1.650000,3.000000,102.000000,1,0,0.000000,0.000000,0,0.000000,0.000000,0.000000,0.049088,0.125580,0.000000,0.001000,0.003000,0.006000,FlatInitial
07:43:34.016 PM 02/11/2016,Autonomous Disabled,0,FALSE,0,NO ERROR,0.000000,0.000000,4000.000000,4000.000000,Speed,Speed,-3.030000,-0.850000,1.660000,3.000000,101.000000,1,0,0.000000,0.000000,0,0.000000,0.000000,0.000000,0.049088,0.125580,0.000000,0.000000,0.002000,-0.001000,FlatInitial
07:43:34.117 PM 02/11/2016,Autonomous Disabled,0,FALSE,0,NO ERROR,0.000000,0.000000,4000.000000,4000.000000,Speed,Speed,-3.040000,-0.860000,1.640000,3.000000,102.000000,1,0,0.000000,0.000000,0,0.000000,0.000000,0.000000,0.049088,0.125580,0.000000,-0.004000,-0.001000,-0.001000,FlatInitial
07:43:34.219 PM 02/11/2016,Autonomous Disabled,0,FALSE,0,NO ERROR,0.000000,0.000000,4000.000000,4000.000000,Speed,Speed,-3.030000,-0.840000,1.660000,3.000000,103.000000,1,0,0.000000,0.000000,0,0.000000,0.000000,0.000000,0.049088,0.125580,0.000000,0.000000,0.004000,-0.003000,FlatInitial
07:43:34.319 PM 02/11/2016,Autonomous Disabled,0,FALSE,0,NO ERROR,0.000000,0.000000,4000.000000,4000.000000,Speed,Speed,-3.030000,-0.860000,1.660000,3.000000,101.000000,1,0,0.000000,0.000000,0,0.000000,0.000000,0.000000,0.049088,0.125580,0.000000,0.004000,-0.002000,0.003000,FlatInitial
07:43:34.419 PM 02/11/2016,Autonomous Disabled,0,FALSE,0,NO ERROR,0.000000,0.000000,4000.000000,4000.000000,Speed,Speed,-3.040000,-0.850000,1.660000,3.000000,103.000000,1,0,0.000000,0.000000,0,0.000000,0.000000,0.000000,0.049088,0.125580,0.000000,-0.001000,0.010000,0.011000,FlatInitial
07:43:34.520 PM 02/11/2016,Autonomous Disabled,0,FALSE,0,NO ERROR,0.000000,0.000000,4000.000000,4000.000000,Speed,Speed,-3.040000,-0.840000,1.600000,3.000000,101.000000,1,0,0.000000,0.000000,0,0.000000,0.000000,0.000000,0.049088,0.125580,0.000000,0.003000,-0.003000,0.004000,FlatInitial
07:43:34.620 PM 02/11/2016,Autonomous Disabled,0,FALSE,0,NO ERROR,0.000000,0.000000,4000.000000,4000.000000,Speed,Speed,-3.030000,-0.850000,1.560000,3.000000,102.000000,1,0,0.000000,0.000000,0,0.000000,0.000000,0.000000,0.049088,0.125580,0.000000,0.000000,0.004000,-0.002000,FlatInitial
07:43:34.720 PM 02/11/2016,Autonomous Disabled,0,FALSE,0,NO ERROR,0.000000,0.000000,4000.000000,4000.000000,Speed,Speed,-3.030000,-0.850000,1.600000,3.000000,102.000000,1,0,0.000000,0.000000,0,0.000000,0.000000,0.000000,0.049088,0.125580,0.000000,0.001000,0.007000,0.004000,FlatInitial
07:43:34.820 PM 02/11/2016,Autonomous Disabled,0,FALSE,0,NO ERROR,0.000000,0.000000,4000.000000,4000.000000,Speed,Speed,-3.030000,-0.840000,1.570000,3.000000,101.000000,1,0,0.000000,0.000000,0,0.000000,0.000000,0.000000,0.049088,0.125580,0.000000,0.002000,0.000000,0.006000,FlatInitial
07:43:34.921 PM 02/11/2016,Autonomous Disabled,0,FALSE,0,NO ERROR,0.000000,0.000000,4000.000000,4000.000000,Speed,Speed,-3.030000,-0.850000,1.600000,3.000000,102.000000,1,0,0.000000,0.000000,0,0.000000,0.000000,0.000000,0.049088,0.125580,0.000000,-0.001000,0.005000,0.010000,FlatInitial
07:43:35.021 PM 02/11/2016,Autonomous Disabled,0,FALSE,0,NO ERROR,0.000000,0.000000,4000.000000,4000.000000,Speed,Speed,-3.020000,-0.850000,1.580000,3.000000,102.000000,1,0,0.000000,0.000000,0,0.000000,0.000000,0.000000,0.049088,0.125580,0.000000,0.004000,-0.002000,0.002000,FlatInitial
07:43:35.121 PM 02/11/2016,Autonomous Disabled,0,FALSE,0,NO ERROR,0.000000,0.000000,4000.000000,4000.000000,Speed,Speed,-3.020000,-0.850000,1.580000,3.000000,101.000000,1,0,0.000000,0.000000,0,0.002625,0.000000,0.000000,0.049118,0.125580,0.000000,0.027000,0.001000,-0.002000,FlatInitial
07:43:35.221 PM 02/11/2016,Autonomous Disabled,0,FALSE,0,NO ERROR,0.000000,0.000000,4000.000000,4000.000000,Speed,Speed,-3.030000,-0.830000,1.480000,3.000000,104.000000,1,0,0.000000,0.000000,0,0.015289,0.009247,0.000000,0.049713,0.125824,0.000000,0.017000,0.037000,0.022000,FlatInitial
07:43:35.322 PM 02/11/2016,Autonomous Disabled,0,FALSE,0,NO ERROR,0.000000,0.000000,4000.000000,4000.000000,Speed,Speed,-3.030000,-0.850000,1.420000,3.000000,100.000000,1,0,0.000000,0.000000,0,0.000000,0.000000,0.000000,0.049713,0.126221,0.000000,0.000000,0.001000,-0.006000,FlatInitial
07:43:35.422 PM 02/11/2016,Autonomous Disabled,0,FALSE,0,NO ERROR,0.000000,0.000000,4000.000000,4000.000000,Speed,Speed,-3.020000,-0.830000,1.510000,3.000000,103.000000,1,0,0.000000,0.000000,0,0.000000,0.000000,0.000000,0.049713,0.126221,0.000000,0.003000,0.009000,-0.001000,FlatInitial
07:43:35.522 PM 02/11/2016,Autonomous Disabled,0,FALSE,0,NO ERROR,0.000000,0.000000,4000.000000,4000.000000,Speed,Speed,-3.020000,-0.840000,1.460000,3.000000,102.000000,1,0,0.000000,0.000000,0,0.000000,0.000000,0.000000,0.049713,0.126221,0.000000,0.004000,0.000000,0.003000,FlatInitial
