Time,RobotMode,AutoToRun,ErrorStatus, ErrorCode,ErrorSource,ActualRPM1,ActualRPM2,DesiredRPM1,DesiredRPM2,ControlMode1,ControlMode2,NavXYaw,NavXRoll,NavXPitch,ShooterState,LoopTime,IsLevel,IsAutoTargeting,LeftMotorOutput,RightMotorOutput,IsHaloDrive,NavXVelocityX,NavXVelocityY,NavXVelocityZ,NavXDisplacementX,NavXDisplacementY,NavXDisplacementZ,NavXAccelerationX,NavXAccelerationY,NavXAccelerationZ,AutoDefeneState
08:02:57.503 PM 02/11/2016,Teleop Enabled,0,TRUE,-44087,NetComm_CAN_Receive.vi:5470007<APPEND>  <b>Complete call chain:</b>      NetComm_CAN_Receive.vi:5470007      WPI_CANTalonSRX_Receive.vi      WPI_MotorControlOpenCANTalonSRX.vi      Begin.vi      Robot Main.vi,0.000000,0.000000,4000.000000,4000.000000,Speed,Speed,-5.960000,0.390000,2.380000,3.000000,102.000000,1,0,-0.003038,-0.010478,0,0.000000,0.000000,0.000000,0.068542,0.346420,0.000000,-0.001000,0.002000,0.003000,FlatInitial
08:02:57.604 PM 02/11/2016,Teleop Enabled,0,TRUE,-44087,NetComm_CAN_Receive.vi:5470007<APPEND>  <b>Complete call chain:</b>      NetComm_CAN_Receive.vi:5470007      WPI_CANTalonSRX_Receive.vi      WPI_MotorControlOpenCANTalonSRX.vi      Begin.vi      Robot Main.vi,0.000000,0.000000,4000.000000,4000.000000,Speed,Speed,-5.980000,0.390000,2.360000,3.000000,102.000000,1,0,-0.003038,-0.010478,0,0.000000,0.000000,0.000000,0.068542,0.346420,0.000000,-0.005000,0.017000,-0.007000,FlatInitial
08:02:57.706 PM 02/11/2016,Teleop Enabled,0,TRUE,-44087,NetComm_CAN_Receive.vi:5470007<APPEND>  <b>Complete call chain:</b>      NetComm_CAN_Receive.vi:5470007      WPI_CANTalonSRX_Receive.vi      WPI_MotorControlOpenCANTalonSRX.vi      Begin.vi      Robot Main.vi,0.000000,0.000000,4000.000000,4000.000000,Speed,Speed,-6.010000,0.430000,2.330000,3.000000,102.000000,1,0,-0.003038,-0.010478,0,-0.085526,-0.256195,0.000000,0.066864,0.341095,0.000000,0.095000,-0.096000,-0.421000,FlatInitial
08:02:57.806 PM 02/11/2016,Teleop Enabled,0,TRUE,-44087,NetComm_CAN_Receive.vi:5470007<APPEND>  <b>Complete call chain:</b>      NetComm_CAN_Receive.vi:5470007      WPI_CANTalonSRX_Receive.vi      WPI_MotorControlOpenCANTalonSRX.vi      Begin.vi      Robot Main.vi,0.000000,0.000000,4000.000000,4000.000000,Speed,Speed,-5.880000,0.420000,2.220000,3.000000,100.000000,1,0,-0.003038,-0.010478,0,-0.087082,-0.216782,0.000000,0.062378,0.329498,0.000000,0.074000,0.067000,0.243000,FlatInitial
08:02:57.907 PM 02/11/2016,Teleop Enabled,0,TRUE,-44087,NetComm_CAN_Receive.vi:5470007<APPEND>  <b>Complete call chain:</b>      NetComm_CAN_Receive.vi:5470007      WPI_CANTalonSRX_Receive.vi      WPI_MotorControlOpenCANTalonSRX.vi      Begin.vi      Robot Main.vi,0.000000,0.000000,4000.000000,4000.000000,Speed,Speed,-5.930000,0.390000,2.280000,3.000000,101.000000,1,0,-0.003038,-0.010478,0,-0.112122,-0.205887,0.000000,0.057404,0.319534,0.000000,0.014000,0.007000,0.111000,FlatInitial
08:02:58.009 PM 02/11/2016,Teleop Enabled,0,TRUE,-44087,NetComm_CAN_Receive.vi:5470007<APPEND>  <b>Complete call chain:</b>      NetComm_CAN_Receive.vi:5470007      WPI_CANTalonSRX_Receive.vi      WPI_MotorControlOpenCANTalonSRX.vi      Begin.vi      Robot Main.vi,0.000000,0.000000,4000.000000,4000.000000,Speed,Speed,-5.940000,0.380000,2.420000,3.000000,102.000000,1,0,-0.003038,-0.010478,0,-0.109329,0.000000,0.000000,0.052170,0.311600,0.000000,0.030000,0.009000,-0.090000,FlatInitial
08:02:58.110 PM 02/11/2016,Teleop Enabled,0,TRUE,-44087,NetComm_CAN_Receive.vi:5470007<APPEND>  <b>Complete call chain:</b>      NetComm_CAN_Receive.vi:5470007      WPI_CANTalonSRX_Receive.vi      WPI_MotorControlOpenCANTalonSRX.vi      Begin.vi      Robot Main.vi,0.000000,0.000000,4000.000000,4000.000000,Speed,Speed,-5.910000,0.370000,2.350000,3.000000,103.000000,1,0,-0.003038,-0.010478,0,-0.008636,0.000000,0.000000,0.049988,0.311600,0.000000,-0.016000,-0.005000,-0.010000,FlatInitial
08:02:58.212 PM 02/11/2016,Teleop Enabled,0,TRUE,-44087,NetComm_CAN_Receive.vi:5470007<APPEND>  <b>Complete call chain:</b>      NetComm_CAN_Receive.vi:5470007      WPI_CANTalonSRX_Receive.vi      WPI_MotorControlOpenCANTalonSRX.vi      Begin.vi      Robot Main.vi,0.000000,0.000000,4000.000000,4000.000000,Speed,Speed,-5.960000,0.390000,2.380000,3.000000,101.000000,1,0,-0.003038,-0.010478,0,0.000000,-0.008682,0.000000,0.049881,0.311478,0.000000,-0.009000,-0.016000,0.049000,FlatInitial
08:02:58.313 PM 02/11/2016,Teleop Enabled,0,TRUE,-44087,NetComm_CAN_Receive.vi:5470007<APPEND>  <b>Complete call chain:</b>      NetComm_CAN_Receive.vi:5470007      WPI_CANTalonSRX_Receive.vi      WPI_MotorControlOpenCANTalonSRX.vi      Begin.vi      Robot Main.vi,0.000000,0.000000,4000.000000,4000.000000,Speed,Speed,-5.950000,0.380000,2.330000,3.000000,104.000000,1,0,-0.003038,-0.010478,0,0.000000,-0.011017,0.000000,0.049881,0.311157,0.000000,0.013000,-0.003000,-0.071000,FlatInitial
08:02:58.413 PM 02/11/2016,Teleop Enabled,0,TRUE,-44087,NetComm_CAN_Receive.vi:5470007<APPEND>  <b>Complete call chain:</b>      NetComm_CAN_Receive.vi:5470007      WPI_CANTalonSRX_Receive.vi      WPI_MotorControlOpenCANTalonSRX.vi      Begin.vi      Robot Main.vi,0.000000,0.000000,4000.000000,4000.000000,Speed,Speed,-5.920000,0.380000,2.330000,3.000000,100.000000,1,0,-0.003038,-0.010478,0,0.000000,0.000000,0.000000,0.049881,0.311157,0.000000,0.002000,0.009000,-0.008000,FlatInitial
08:02:58.515 PM 02/11/2016,Teleop Enabled,0,TRUE,-44087,NetComm_CAN_Receive.vi:5470007<APPEND>  <b>Complete call chain:</b>      NetComm_CAN_Receive.vi:5470007      WPI_CANTalonSRX_Receive.vi      WPI_MotorControlOpenCANTalonSRX.vi      Begin.vi      Robot Main.vi,0.000000,0.000000,4000.000000,4000.000000,Speed,Speed,-5.930000,0.380000,2.370000,3.000000,101.000000,1,0,-0.003038,-0.010478,0,0.000000,0.000000,0.000000,0.049881,0.311157,0.000000,0.000000,0.011000,-0.011000,FlatInitial
08:02:58.615 PM 02/11/2016,Teleop Enabled,0,TRUE,-44087,NetComm_CAN_Receive.vi:5470007<APPEND>  <b>Complete call chain:</b>      NetComm_CAN_Receive.vi:5470007      WPI_CANTalonSRX_Receive.vi      WPI_MotorControlOpenCANTalonSRX.vi      Begin.vi      Robot Main.vi,0.000000,0.000000,4000.000000,4000.000000,Speed,Speed,-5.930000,0.390000,2.380000,3.000000,102.000000,1,0,-0.003038,-0.010478,0,0.000000,0.000000,0.000000,0.049881,0.311157,0.000000,-0.003000,0.003000,-0.010000,FlatInitial
08:02:58.716 PM 02/11/2016,Teleop Enabled,0,TRUE,-44087,NetComm_CAN_Receive.vi:5470007<APPEND>  <b>Complete call chain:</b>      NetComm_CAN_Receive.vi:5470007      WPI_CANTalonSRX_Receive.vi      WPI_CANTalonSRX_GetStatus.vi      ShooterVI.vi      Periodic Tasks.vi      Robot Main.vi,0.000000,0.000000,4000.000000,4000.000000,Speed,Speed,-5.930000,0.380000,2.380000,3.000000,102.000000,1,0,-0.003038,-0.010478,0,0.000000,0.000000,0.000000,0.049881,0.311157,0.000000,-0.002000,-0.004000,-0.002000,FlatInitial
08:02:58.817 PM 02/11/2016,Teleop Enabled,0,TRUE,-44087,NetComm_CAN_Receive.vi:5470007<APPEND>  <b>Complete call chain:</b>      NetComm_CAN_Receive.vi:5470007      WPI_CANTalonSRX_Receive.vi      WPI_CANTalonSRX_GetStatus.vi      ShooterVI.vi      Periodic Tasks.vi      Robot Main.vi,0.000000,0.000000,4000.000000,4000.000000,Speed,Speed,-5.940000,0.360000,2.370000,3.000000,101.000000,1,0,-0.003038,-0.010478,0,0.000000,0.000000,0.000000,0.049881,0.311157,0.000000,0.003000,0.000000,0.018000,FlatInitial
08:02:58.918 PM 02/11/2016,Teleop Enabled,0,FALSE,0,NO ERROR,0.000000,0.000000,4000.000000,4000.000000,Speed,Speed,-5.930000,0.350000,2.360000,3.000000,101.000000,1,0,-0.003038,-0.010478,0,-0.002304,0.000000,0.000000,0.049789,0.311157,0.000000,0.020000,0.009000,-0.018000,FlatInitial
08:02:59.019 PM 02/11/2016,Teleop Enabled,0,FALSE,0,NO ERROR,0.000000,0.000000,4000.000000,4000.000000,Speed,Speed,-5.930000,0.360000,2.380000,3.000000,102.000000,1,0,-0.003038,-0.010478,0,0.000000,0.000000,0.000000,0.049698,0.311157,0.000000,0.002000,0.007000,0.006000,FlatInitial
08:02:59.120 PM 02/11/2016,Teleop Enabled,0,FALSE,0,NO ERROR,0.000000,0.000000,4000.000000,4000.000000,Speed,Speed,-5.930000,0.360000,2.390000,3.000000,101.000000,1,0,-0.003038,-0.010478,0,0.000000,0.000000,0.000000,0.049698,0.311157,0.000000,-0.004000,-0.003000,-0.020000,FlatInitial
08:02:59.221 PM 02/11/2016,Teleop Enabled,0,FALSE,0,NO ERROR,0.000000,0.000000,4000.000000,4000.000000,Speed,Speed,-5.930000,0.350000,2.390000,3.000000,104.000000,1,0,-0.003038,-0.010478,0,0.000000,0.000000,0.000000,0.049698,0.311157,0.000000,0.001000,-0.002000,0.002000,FlatInitial
08:02:59.322 PM 02/11/2016,Teleop Enabled,0,FALSE,0,NO ERROR,0.000000,0.000000,4000.000000,4000.000000,Speed,Speed,-5.940000,0.350000,2.380000,3.000000,104.000000,1,0,-0.003038,-0.010478,0,0.000000,0.000000,0.000000,0.049698,0.311157,0.000000,0.001000,-0.004000,0.013000,FlatInitial
08:02:59.423 PM 02/11/2016,Teleop Enabled,0,FALSE,0,NO ERROR,0.000000,0.000000,4000.000000,4000.000000,Speed,Speed,-5.940000,0.340000,2.390000,3.000000,108.000000,1,0,-0.003038,-0.010478,0,0.000000,0.000000,0.000000,0.049698,0.311157,0.000000,-0.003000,-0.003000,0.003000,FlatInitial
08:02:59.523 PM 02/11/2016,Teleop Enabled,0,FALSE,0,NO ERROR,0.000000,0.000000,4000.000000,4000.000000,Speed,Speed,-5.940000,0.340000,2.390000,3.000000,100.000000,1,0,-0.003038,-0.010478,0,0.000000,0.000000,0.000000,0.049698,0.311157,0.000000,-0.003000,-0.001000,0.007000,FlatInitial
08:02:59.623 PM 02/11/2016,Teleop Enabled,0,FALSE,0,NO ERROR,0.000000,0.000000,4000.000000,4000.000000,Speed,Speed,-5.950000,0.340000,2.390000,3.000000,103.000000,1,0,-0.003038,-0.010478,0,0.000000,0.000000,0.000000,0.049698,0.311157,0.000000,0.000000,0.002000,0.002000,FlatInitial
08:02:59.724 PM 02/11/2016,Teleop Enabled,0,FALSE,0,NO ERROR,0.000000,0.000000,4000.000000,4000.000000,Speed,Speed,-5.950000,0.340000,2.400000,3.000000,101.000000,1,0,-0.003038,-0.010478,0,0.000000,0.000000,0.000000,0.049698,0.311157,0.000000,0.001000,0.000000,0.002000,FlatInitial
08:02:59.825 PM 02/11/2016,Teleop Enabled,0,FALSE,0,NO ERROR,0.000000,0.000000,4000.000000,4000.000000,Speed,Speed,-5.950000,0.340000,2.390000,3.000000,102.000000,1,0,-0.003038,-0.010478,0,0.000000,0.000000,0.000000,0.049698,0.311157,0.000000,0.000000,0.000000,0.002000,FlatInitial
08:02:59.926 PM 02/11/2016,Teleop Enabled,0,FALSE,0,NO ERROR,0.000000,0.000000,4000.000000,4000.000000,Speed,Speed,-5.960000,0.340000,2.390000,3.000000,101.000000,1,0,-0.003038,-0.010478,0,0.000000,0.000000,0.000000,0.049698,0.311157,0.000000,0.000000,0.002000,0.002000,FlatInitial
08:03:00.026 PM 02/11/2016,Teleop Enabled,0,FALSE,0,NO ERROR,0.000000,0.000000,4000.000000,4000.000000,Speed,Speed,-5.950000,0.340000,2.390000,3.000000,102.000000,1,0,-0.003038,-0.010478,0,0.000000,0.000000,0.000000,0.049698,0.311157,0.000000,-0.002000,0.000000,0.004000,FlatInitial
08:03:00.126 PM 02/11/2016,Teleop Enabled,0,FALSE,0,NO ERROR,0.000000,0.000000,4000.000000,4000.000000,Speed,Speed,-5.960000,0.330000,2.390000,3.000000,102.000000,1,0,-0.003038,-0.010478,0,0.000000,0.000000,0.000000,0.049698,0.311157,0.000000,0.000000,-0.001000,0.000000,FlatInitial
08:03:00.226 PM 02/11/2016,Teleop Enabled,0,FALSE,0,NO ERROR,0.000000,0.000000,4000.000000,4000.000000,Speed,Speed,-5.960000,0.340000,2.390000,3.000000,103.000000,1,0,-0.003038,-0.010478,0,0.000000,0.000000,0.000000,0.049698,0.311157,0.000000,0.000000,-0.001000,0.004000,FlatInitial
08:03:00.327 PM 02/11/2016,Teleop Enabled,0,FALSE,0,NO ERROR,0.000000,0.000000,4000.000000,4000.000000,Speed,Speed,-5.960000,0.330000,2.390000,3.000000,103.000000,1,0,-0.003038,-0.010478,0,0.000000,0.000000,0.000000,0.049698,0.311157,0.000000,0.001000,-0.001000,0.003000,FlatInitial
08:03:00.428 PM 02/11/2016,Teleop Enabled,0,FALSE,0,NO ERROR,0.000000,0.000000,4000.000000,4000.000000,Speed,Speed,-5.960000,0.330000,2.390000,3.000000,100.000000,1,0,-0.003038,-0.010478,0,0.000000,0.000000,0.000000,0.049698,0.311157,0.000000,0.002000,0.001000,0.000000,FlatInitial
08:03:00.528 PM 02/11/2016,Teleop Enabled,0,FALSE,0,NO ERROR,0.000000,0.000000,4000.000000,4000.000000,Speed,Speed,-5.960000,0.310000,2.390000,3.000000,102.000000,1,0,-0.003038,-0.010478,0,0.000000,0.000000,0.000000,0.049698,0.311157,0.000000,-0.009000,0.000000,0.000000,FlatInitial
08:03:00.628 PM 02/11/2016,Teleop Enabled,0,FALSE,0,NO ERROR,0.000000,0.000000,4000.000000,4000.000000,Speed,Speed,-5.970000,0.330000,2.400000,3.000000,101.000000,1,0,-0.003038,-0.010478,0,0.000000,0.000000,0.000000,0.049698,0.311157,0.000000,-0.005000,0.002000,0.002000,FlatInitial
08:03:00.728 PM 02/11/2016,Teleop Enabled,0,FALSE,0,NO ERROR,0.000000,0.000000,4000.000000,4000.000000,Speed,Speed,-5.960000,0.330000,2.390000,3.000000,100.000000,1,0,-0.003038,-0.010478,0,0.000000,0.000000,0.000000,0.049698,0.311157,0.000000,0.000000,0.000000,-0.007000,FlatInitial
08:03:00.829 PM 02/11/2016,Teleop Enabled,0,FALSE,0,NO ERROR,0.000000,0.000000,4000.000000,4000.000000,Speed,Speed,-5.970000,0.330000,2.400000,3.000000,101.000000,1,0,-0.003038,-0.010478,0,0.000000,0.000000,0.000000,0.049698,0.311157,0.000000,0.001000,0.001000,0.002000,FlatInitial
08:03:00.930 PM 02/11/2016,Teleop Enabled,0,FALSE,0,NO ERROR,0.000000,0.000000,4000.000000,4000.000000,Speed,Speed,-5.970000,0.320000,2.390000,3.000000,102.000000,1,0,-0.003038,-0.010478,0,0.000000,0.000000,0.000000,0.049698,0.311157,0.000000,0.000000,0.000000,-0.001000,FlatInitial
08:03:01.030 PM 02/11/2016,Teleop Enabled,0,FALSE,0,NO ERROR,0.000000,0.000000,4000.000000,4000.000000,Speed,Speed,-5.970000,0.330000,2.400000,3.000000,104.000000,1,0,-0.003038,-0.010478,0,0.000000,0.000000,0.000000,0.049698,0.311157,0.000000,0.000000,-0.003000,0.003000,FlatInitial
08:03:01.130 PM 02/11/2016,Teleop Enabled,0,FALSE,0,NO ERROR,0.000000,0.000000,4000.000000,4000.000000,Speed,Speed,-5.970000,0.320000,2.390000,3.000000,102.000000,1,0,-0.003038,-0.010478,0,0.000000,0.000000,0.000000,0.049698,0.311157,0.000000,0.000000,0.000000,0.004000,FlatInitial
08:03:01.230 PM 02/11/2016,Teleop Enabled,0,FALSE,0,NO ERROR,0.000000,0.000000,4000.000000,4000.000000,Speed,Speed,-5.970000,0.330000,2.390000,3.000000,104.000000,1,0,-0.003038,-0.010478,0,0.000000,0.000000,0.000000,0.049698,0.311157,0.000000,0.000000,0.000000,0.004000,FlatInitial
08:03:01.330 PM 02/11/2016,Teleop Enabled,0,FALSE,0,NO ERROR,0.000000,0.000000,4000.000000,4000.000000,Speed,Speed,-5.970000,0.330000,2.390000,3.000000,103.000000,1,0,-0.003038,-0.010478,0,0.000000,0.000000,0.000000,0.049698,0.311157,0.000000,0.000000,0.002000,0.005000,FlatInitial
08:03:01.430 PM 02/11/2016,Teleop Enabled,0,FALSE,0,NO ERROR,0.000000,0.000000,4000.000000,4000.000000,Speed,Speed,-5.970000,0.330000,2.390000,3.000000,102.000000,1,0,-0.003038,-0.010478,0,0.000000,0.000000,0.000000,0.049698,0.311157,0.000000,0.000000,0.001000,0.001000,FlatInitial
08:03:01.530 PM 02/11/2016,Teleop Enabled,0,FALSE,0,NO ERROR,0.000000,0.000000,4000.000000,4000.000000,Speed,Speed,-5.970000,0.330000,2.390000,3.000000,102.000000,1,0,-0.003038,-0.010478,0,0.000000,0.000000,0.000000,0.049698,0.311157,0.000000,0.000000,0.001000,0.001000,FlatInitial
08:03:01.630 PM 02/11/2016,Teleop Enabled,0,FALSE,0,NO ERROR,0.000000,0.000000,4000.000000,4000.000000,Speed,Speed,-5.980000,0.330000,2.390000,3.000000,102.000000,1,0,-0.003038,-0.010478,0,0.000000,0.000000,0.000000,0.049698,0.311157,0.000000,-0.001000,-0.001000,-0.001000,FlatInitial
08:03:01.730 PM 02/11/2016,Teleop Enabled,0,FALSE,0,NO ERROR,0.000000,0.000000,4000.000000,4000.000000,Speed,Speed,-5.980000,0.330000,2.390000,3.000000,103.000000,1,0,-0.003038,-0.010478,0,0.000000,0.000000,0.000000,0.049698,0.311157,0.000000,-0.001000,-0.001000,-0.001000,FlatInitial
08:03:01.831 PM 02/11/2016,Teleop Enabled,0,FALSE,0,NO ERROR,0.000000,0.000000,4000.000000,4000.000000,Speed,Speed,-5.980000,0.330000,2.390000,3.000000,102.000000,1,0,-0.003038,-0.010478,0,0.000000,0.000000,0.000000,0.049698,0.311157,0.000000,0.001000,-0.001000,0.001000,FlatInitial
08:03:01.931 PM 02/11/2016,Teleop Enabled,0,FALSE,0,NO ERROR,0.000000,0.000000,4000.000000,4000.000000,Speed,Speed,-5.980000,0.320000,2.390000,3.000000,103.000000,1,0,-0.003038,-0.010478,0,0.000000,0.000000,0.000000,0.049698,0.311157,0.000000,0.000000,-0.001000,-0.001000,FlatInitial
08:03:02.031 PM 02/11/2016,Teleop Enabled,0,FALSE,0,NO ERROR,0.000000,0.000000,4000.000000,4000.000000,Speed,Speed,-5.980000,0.320000,2.380000,3.000000,103.000000,1,0,-0.003038,-0.010478,0,0.000000,0.000000,0.000000,0.049698,0.311157,0.000000,0.000000,0.000000,0.000000,FlatInitial
08:03:02.131 PM 02/11/2016,Teleop Enabled,0,FALSE,0,NO ERROR,0.000000,0.000000,4000.000000,4000.000000,Speed,Speed,-5.980000,0.320000,2.390000,3.000000,103.000000,1,0,-0.003038,-0.010478,0,0.000000,0.000000,0.000000,0.049698,0.311157,0.000000,-0.001000,-0.001000,0.001000,FlatInitial
08:03:02.231 PM 02/11/2016,Teleop Enabled,0,FALSE,0,NO ERROR,0.000000,0.000000,4000.000000,4000.000000,Speed,Speed,-5.980000,0.330000,2.390000,3.000000,102.000000,1,0,-0.003038,-0.010478,0,0.000000,0.000000,0.000000,0.049698,0.311157,0.000000,0.001000,0.001000,0.002000,FlatInitial
08:03:02.331 PM 02/11/2016,Teleop Enabled,0,FALSE,0,NO ERROR,0.000000,0.000000,4000.000000,4000.000000,Speed,Speed,-5.980000,0.330000,2.390000,3.000000,102.000000,1,0,-0.003038,-0.010478,0,0.000000,0.000000,0.000000,0.049698,0.311157,0.000000,-0.001000,-0.001000,0.001000,FlatInitial
08:03:02.431 PM 02/11/2016,Teleop Enabled,0,FALSE,0,NO ERROR,0.000000,0.000000,4000.000000,4000.000000,Speed,Speed,-5.990000,0.320000,2.390000,3.000000,102.000000,1,0,-0.003038,-0.010478,0,0.000000,0.000000,0.000000,0.049698,0.311157,0.000000,0.000000,0.000000,0.005000,FlatInitial
08:03:02.532 PM 02/11/2016,Teleop Enabled,0,FALSE,0,NO ERROR,0.000000,0.000000,4000.000000,4000.000000,Speed,Speed,-5.990000,0.330000,2.390000,3.000000,102.000000,1,0,-0.003038,-0.010478,0,0.000000,0.000000,0.000000,0.049698,0.311157,0.000000,-0.003000,0.000000,0.000000,FlatInitial
08:03:02.634 PM 02/11/2016,Teleop Enabled,0,FALSE,0,NO ERROR,0.000000,0.000000,4000.000000,4000.000000,Speed,Speed,-5.990000,0.320000,2.390000,3.000000,101.000000,1,0,-0.003038,-0.010478,0,0.000000,0.000000,0.000000,0.049698,0.311157,0.000000,0.001000,0.001000,-0.002000,FlatInitial
08:03:02.735 PM 02/11/2016,Teleop Enabled,0,FALSE,0,NO ERROR,0.000000,0.000000,4000.000000,4000.000000,Speed,Speed,-5.990000,0.320000,2.390000,3.000000,105.000000,1,0,-0.003038,-0.010478,0,0.000000,0.000000,0.000000,0.049698,0.311157,0.000000,-0.002000,0.000000,0.001000,FlatInitial
08:03:02.836 PM 02/11/2016,Teleop Enabled,0,FALSE,0,NO ERROR,0.000000,0.000000,4000.000000,4000.000000,Speed,Speed,-5.990000,0.320000,2.380000,3.000000,102.000000,1,0,-0.003038,-0.010478,0,0.000000,0.000000,0.000000,0.049698,0.311157,0.000000,0.000000,-0.003000,0.001000,FlatInitial
08:03:02.936 PM 02/11/2016,Teleop Enabled,0,FALSE,0,NO ERROR,0.000000,0.000000,4000.000000,4000.000000,Speed,Speed,-5.990000,0.320000,2.380000,3.000000,105.000000,1,0,-0.003038,-0.010478,0,0.000000,0.000000,0.000000,0.049698,0.311157,0.000000,0.000000,0.000000,0.003000,FlatInitial
08:03:03.036 PM 02/11/2016,Teleop Enabled,0,FALSE,0,NO ERROR,0.000000,0.000000,4000.000000,4000.000000,Speed,Speed,-5.990000,0.320000,2.390000,3.000000,101.000000,1,0,-0.003038,-0.010478,0,0.000000,0.000000,0.000000,0.049698,0.311157,0.000000,-0.002000,0.001000,-0.001000,FlatInitial
08:03:03.136 PM 02/11/2016,Teleop Enabled,0,FALSE,0,NO ERROR,0.000000,0.000000,4000.000000,4000.000000,Speed,Speed,-5.990000,0.320000,2.390000,3.000000,101.000000,1,0,-0.003038,-0.010478,0,0.000000,0.000000,0.000000,0.049698,0.311157,0.000000,-0.001000,0.000000,0.000000,FlatInitial
08:03:03.237 PM 02/11/2016,Teleop Enabled,0,FALSE,0,NO ERROR,0.000000,0.000000,4000.000000,4000.000000,Speed,Speed,-5.990000,0.330000,2.390000,3.000000,101.000000,1,0,-0.003038,-0.010478,0,0.000000,0.000000,0.000000,0.049698,0.311157,0.000000,0.001000,-0.001000,0.002000,FlatInitial
08:03:03.338 PM 02/11/2016,Teleop Enabled,0,FALSE,0,NO ERROR,0.000000,0.000000,4000.000000,4000.000000,Speed,Speed,-6.000000,0.330000,2.390000,3.000000,103.000000,1,0,-0.003038,-0.010478,0,0.000000,0.000000,0.000000,0.049698,0.311157,0.000000,0.000000,-0.003000,0.000000,FlatInitial
08:03:03.438 PM 02/11/2016,Teleop Enabled,0,FALSE,0,NO ERROR,0.000000,0.000000,4000.000000,4000.000000,Speed,Speed,-6.000000,0.330000,2.390000,3.000000,101.000000,1,0,-0.003038,-0.010478,0,0.000000,0.000000,0.000000,0.049698,0.311157,0.000000,0.002000,-0.003000,-0.004000,FlatInitial
08:03:03.539 PM 02/11/2016,Teleop Enabled,0,FALSE,0,NO ERROR,0.000000,0.000000,4000.000000,4000.000000,Speed,Speed,-6.000000,0.330000,2.390000,3.000000,102.000000,1,0,-0.003038,-0.010478,0,0.000000,0.000000,0.000000,0.049698,0.311157,0.000000,-0.002000,-0.001000,-0.002000,FlatInitial
08:03:03.639 PM 02/11/2016,Teleop Enabled,0,FALSE,0,NO ERROR,0.000000,0.000000,4000.000000,4000.000000,Speed,Speed,-6.000000,0.330000,2.390000,3.000000,101.000000,1,0,-0.003038,-0.010478,0,0.000000,0.000000,0.000000,0.049698,0.311157,0.000000,0.001000,0.001000,0.004000,FlatInitial
08:03:03.739 PM 02/11/2016,Teleop Enabled,0,FALSE,0,NO ERROR,0.000000,0.000000,4000.000000,4000.000000,Speed,Speed,-6.010000,0.320000,2.390000,3.000000,103.000000,1,0,-0.003038,-0.010478,0,0.000000,0.000000,0.000000,0.049698,0.311157,0.000000,0.004000,-0.001000,0.004000,FlatInitial
08:03:03.840 PM 02/11/2016,Teleop Enabled,0,FALSE,0,NO ERROR,0.000000,0.000000,4000.000000,4000.000000,Speed,Speed,-6.010000,0.330000,2.390000,3.000000,103.000000,1,0,-0.003038,-0.010478,0,0.000000,0.000000,0.000000,0.049698,0.311157,0.000000,0.002000,-0.003000,0.007000,FlatInitial
08:03:03.941 PM 02/11/2016,Teleop Enabled,0,FALSE,0,NO ERROR,0.000000,0.000000,4000.000000,4000.000000,Speed,Speed,-6.010000,0.320000,2.370000,3.000000,102.000000,1,0,-0.003038,-0.010478,0,0.000000,0.000000,0.000000,0.049698,0.311157,0.000000,-0.001000,0.000000,0.007000,FlatInitial
08:03:04.042 PM 02/11/2016,Teleop Enabled,0,FALSE,0,NO ERROR,0.000000,0.000000,4000.000000,4000.000000,Speed,Speed,-6.010000,0.320000,2.380000,3.000000,101.000000,1,0,-0.003038,-0.010478,0,0.000000,0.000000,0.000000,0.049698,0.311157,0.000000,0.003000,-0.002000,0.000000,FlatInitial
08:03:04.143 PM 02/11/2016,Teleop Enabled,0,FALSE,0,NO ERROR,0.000000,0.000000,4000.000000,4000.000000,Speed,Speed,-6.020000,0.320000,2.380000,3.000000,101.000000,1,0,-0.003038,-0.010478,0,0.000000,0.000000,0.000000,0.049698,0.311157,0.000000,0.000000,-0.005000,0.001000,FlatInitial
08:03:04.244 PM 02/11/2016,Teleop Enabled,0,FALSE,0,NO ERROR,0.000000,0.000000,4000.000000,4000.000000,Speed,Speed,-6.020000,0.320000,2.390000,3.000000,105.000000,1,0,-0.003038,-0.010478,0,0.000000,0.000000,0.000000,0.049698,0.311157,0.000000,0.000000,-0.001000,0.004000,FlatInitial
08:03:04.345 PM 02/11/2016,Teleop Enabled,0,FALSE,0,NO ERROR,0.000000,0.000000,4000.000000,4000.000000,Speed,Speed,-6.020000,0.320000,2.380000,3.000000,101.000000,1,0,-0.003038,-0.010478,0,0.000000,0.000000,0.000000,0.049698,0.311157,0.000000,0.000000,0.003000,0.004000,FlatInitial
08:03:04.447 PM 02/11/2016,Teleop Enabled,0,FALSE,0,NO ERROR,0.000000,0.000000,4000.000000,4000.000000,Speed,Speed,-6.030000,0.310000,2.390000,3.000000,101.000000,1,0,-0.003038,-0.010478,0,0.000000,0.000000,0.000000,0.049698,0.311157,0.000000,0.000000,0.000000,0.001000,FlatInitial
08:03:04.546 PM 02/11/2016,Teleop Enabled,0,FALSE,0,NO ERROR,0.000000,0.000000,4000.000000,4000.000000,Speed,Speed,-6.030000,0.310000,2.380000,3.000000,102.000000,1,0,-0.003038,-0.010478,0,0.000000,0.000000,0.000000,0.049698,0.311157,0.000000,0.000000,0.001000,0.001000,FlatInitial
08:03:04.646 PM 02/11/2016,Teleop Enabled,0,FALSE,0,NO ERROR,0.000000,0.000000,4000.000000,4000.000000,Speed,Speed,-6.030000,0.320000,2.390000,3.000000,104.000000,1,0,-0.003038,-0.010478,0,0.000000,0.000000,0.000000,0.049698,0.311157,0.000000,0.001000,0.001000,0.001000,FlatInitial
08:03:04.746 PM 02/11/2016,Teleop Enabled,0,FALSE,0,NO ERROR,0.000000,0.000000,4000.000000,4000.000000,Speed,Speed,-6.030000,0.320000,2.390000,3.000000,101.000000,1,0,-0.003038,-0.010478,0,0.000000,0.000000,0.000000,0.049698,0.311157,0.000000,-0.002000,0.000000,0.000000,FlatInitial
08:03:04.847 PM 02/11/2016,Teleop Enabled,0,FALSE,0,NO ERROR,0.000000,0.000000,4000.000000,4000.000000,Speed,Speed,-6.030000,0.320000,2.390000,3.000000,101.000000,1,0,-0.003038,-0.010478,0,0.000000,0.000000,0.000000,0.049698,0.311157,0.000000,0.000000,-0.001000,0.004000,FlatInitial
08:03:04.947 PM 02/11/2016,Teleop Enabled,0,FALSE,0,NO ERROR,0.000000,0.000000,4000.000000,4000.000000,Speed,Speed,-6.030000,0.310000,2.390000,3.000000,102.000000,1,0,-0.003038,-0.010478,0,0.000000,0.000000,0.000000,0.049698,0.311157,0.000000,-0.002000,0.000000,0.002000,FlatInitial
08:03:05.049 PM 02/11/2016,Teleop Enabled,0,FALSE,0,NO ERROR,0.000000,0.000000,4000.000000,4000.000000,Speed,Speed,-6.030000,0.310000,2.400000,3.000000,102.000000,1,0,-0.003038,-0.010478,0,0.000000,0.000000,0.000000,0.049698,0.311157,0.000000,0.001000,0.000000,-0.001000,FlatInitial
08:03:05.153 PM 02/11/2016,Teleop Enabled,0,FALSE,0,NO ERROR,0.000000,0.000000,4000.000000,4000.000000,Speed,Speed,-6.030000,0.310000,2.390000,3.000000,101.000000,1,0,-0.003038,-0.010478,0,0.000000,0.000000,0.000000,0.049698,0.311157,0.000000,0.001000,0.000000,0.003000,FlatInitial
08:03:05.250 PM 02/11/2016,Teleop Enabled,0,FALSE,0,NO ERROR,0.000000,0.000000,4000.000000,4000.000000,Speed,Speed,-6.030000,0.320000,2.400000,3.000000,102.000000,1,0,-0.003038,-0.010478,0,0.000000,0.000000,0.000000,0.049698,0.311157,0.000000,0.001000,0.000000,0.001000,FlatInitial
08:03:05.350 PM 02/11/2016,Teleop Enabled,0,FALSE,0,NO ERROR,0.000000,0.000000,4000.000000,4000.000000,Speed,Speed,-6.030000,0.320000,2.400000,3.000000,101.000000,1,0,-0.003038,-0.010478,0,0.000000,0.000000,0.000000,0.049698,0.311157,0.000000,0.001000,0.000000,0.002000,FlatInitial
08:03:05.450 PM 02/11/2016,Teleop Enabled,0,FALSE,0,NO ERROR,0.000000,0.000000,4000.000000,4000.000000,Speed,Speed,-6.040000,0.310000,2.400000,3.000000,104.000000,1,0,-0.003038,-0.010478,0,0.000000,0.000000,0.000000,0.049698,0.311157,0.000000,-0.001000,-0.001000,0.002000,FlatInitial
08:03:05.550 PM 02/11/2016,Teleop Enabled,0,FALSE,0,NO ERROR,0.000000,0.000000,4000.000000,4000.000000,Speed,Speed,-6.040000,0.310000,2.400000,3.000000,101.000000,1,0,-0.003038,-0.010478,0,0.000000,0.000000,0.000000,0.049698,0.311157,0.000000,0.003000,-0.002000,-0.003000,FlatInitial
08:03:05.651 PM 02/11/2016,Teleop Enabled,0,FALSE,0,NO ERROR,0.000000,0.000000,4000.000000,4000.000000,Speed,Speed,-6.050000,0.310000,2.390000,3.000000,101.000000,1,0,-0.003038,-0.010478,0,0.000000,0.000000,0.000000,0.049698,0.311157,0.000000,0.000000,0.001000,0.002000,FlatInitial
08:03:05.753 PM 02/11/2016,Teleop Enabled,0,FALSE,0,NO ERROR,0.000000,0.000000,4000.000000,4000.000000,Speed,Speed,-6.050000,0.320000,2.390000,3.000000,101.000000,1,0,-0.003038,-0.010478,0,0.000000,0.000000,0.000000,0.049698,0.311157,0.000000,0.002000,0.000000,0.004000,FlatInitial
08:03:05.853 PM 02/11/2016,Teleop Enabled,0,FALSE,0,NO ERROR,0.000000,0.000000,4000.000000,4000.000000,Speed,Speed,-6.050000,0.320000,2.390000,3.000000,101.000000,1,0,-0.003038,-0.010478,0,0.000000,0.000000,0.000000,0.049698,0.311157,0.000000,0.000000,0.001000,0.004000,FlatInitial
08:03:05.953 PM 02/11/2016,Teleop Enabled,0,FALSE,0,NO ERROR,0.000000,0.000000,4000.000000,4000.000000,Speed,Speed,-6.050000,0.320000,2.400000,3.000000,102.000000,1,0,-0.003038,-0.010478,0,0.000000,0.000000,0.000000,0.049698,0.311157,0.000000,0.003000,0.000000,0.001000,FlatInitial
08:03:06.053 PM 02/11/2016,Teleop Enabled,0,FALSE,0,NO ERROR,0.000000,0.000000,4000.000000,4000.000000,Speed,Speed,-6.050000,0.330000,2.390000,3.000000,102.000000,1,0,-0.003038,-0.010478,0,0.000000,0.000000,0.000000,0.049698,0.311157,0.000000,0.000000,0.001000,-0.002000,FlatInitial
08:03:06.154 PM 02/11/2016,Teleop Enabled,0,FALSE,0,NO ERROR,0.000000,0.000000,4000.000000,4000.000000,Speed,Speed,-6.050000,0.320000,2.390000,3.000000,101.000000,1,0,-0.003038,-0.010478,0,0.000000,0.000000,0.000000,0.049698,0.311157,0.000000,-0.003000,0.000000,0.000000,FlatInitial
08:03:06.254 PM 02/11/2016,Teleop Enabled,0,FALSE,0,NO ERROR,0.000000,0.000000,4000.000000,4000.000000,Speed,Speed,-6.040000,0.320000,2.390000,3.000000,101.000000,1,0,-0.003038,-0.010478,0,0.000000,0.000000,0.000000,0.049698,0.311157,0.000000,0.001000,-0.004000,-0.002000,FlatInitial
08:03:06.354 PM 02/11/2016,Teleop Enabled,0,FALSE,0,NO ERROR,0.000000,0.000000,4000.000000,4000.000000,Speed,Speed,-6.040000,0.320000,2.390000,3.000000,102.000000,1,0,-0.003038,-0.010478,0,0.000000,0.000000,0.000000,0.049698,0.311157,0.000000,0.000000,0.000000,0.007000,FlatInitial
08:03:06.454 PM 02/11/2016,Teleop Enabled,0,FALSE,0,NO ERROR,0.000000,0.000000,4000.000000,4000.000000,Speed,Speed,-6.050000,0.320000,2.390000,3.000000,102.000000,1,0,-0.003038,-0.010478,0,0.000000,0.000000,0.000000,0.049698,0.311157,0.000000,-0.001000,0.000000,-0.001000,FlatInitial
08:03:06.554 PM 02/11/2016,Teleop Enabled,0,FALSE,0,NO ERROR,0.000000,0.000000,4000.000000,4000.000000,Speed,Speed,-6.050000,0.320000,2.390000,3.000000,102.000000,1,0,-0.003038,-0.010478,0,0.000000,0.000000,0.000000,0.049698,0.311157,0.000000,0.000000,0.002000,0.005000,FlatInitial
08:03:06.654 PM 02/11/2016,Teleop Enabled,0,FALSE,0,NO ERROR,0.000000,0.000000,4000.000000,4000.000000,Speed,Speed,-6.060000,0.320000,2.390000,3.000000,101.000000,1,0,-0.003038,-0.010478,0,0.000000,0.000000,0.000000,0.049698,0.311157,0.000000,0.005000,-0.002000,0.003000,FlatInitial
08:03:06.754 PM 02/11/2016,Teleop Enabled,0,FALSE,0,NO ERROR,0.000000,0.000000,4000.000000,4000.000000,Speed,Speed,-6.030000,0.320000,2.370000,3.000000,101.000000,1,0,-0.003038,-0.010478,0,0.000000,0.000000,0.000000,0.049698,0.311157,0.000000,0.001000,0.003000,0.002000,FlatInitial
08:03:06.854 PM 02/11/2016,Teleop Enabled,0,FALSE,0,NO ERROR,0.000000,0.000000,4000.000000,4000.000000,Speed,Speed,-6.070000,0.320000,2.370000,3.000000,101.000000,1,0,-0.003038,-0.010478,0,0.000000,0.000000,0.000000,0.049698,0.311157,0.000000,0.000000,0.003000,0.000000,FlatInitial
08:03:06.954 PM 02/11/2016,Teleop Enabled,0,FALSE,0,NO ERROR,0.000000,0.000000,4000.000000,4000.000000,Speed,Speed,-6.070000,0.330000,2.300000,3.000000,103.000000,1,0,-0.003038,-0.010478,0,0.000000,0.000000,0.000000,0.049698,0.311157,0.000000,-0.005000,0.008000,0.006000,FlatInitial
08:03:07.056 PM 02/11/2016,Teleop Enabled,0,FALSE,0,NO ERROR,0.000000,0.000000,4000.000000,4000.000000,Speed,Speed,-6.120000,0.330000,2.320000,3.000000,101.000000,1,0,-0.003038,-0.010478,0,0.000000,0.000000,0.000000,0.049698,0.311157,0.000000,-0.001000,-0.006000,0.003000,FlatInitial
08:03:07.155 PM 02/11/2016,Teleop Enabled,0,FALSE,0,NO ERROR,0.000000,0.000000,4000.000000,4000.000000,Speed,Speed,-6.100000,0.330000,2.200000,3.000000,102.000000,1,0,-0.003038,-0.010478,0,0.000000,0.000000,0.000000,0.049698,0.310867,0.000000,-0.007000,0.008000,0.007000,FlatInitial
08:03:07.255 PM 02/11/2016,Teleop Enabled,0,FALSE,0,NO ERROR,0.000000,0.000000,4000.000000,4000.000000,Speed,Speed,-6.110000,0.340000,2.230000,3.000000,101.000000,1,0,-0.003038,-0.010478,0,0.000000,0.000000,0.000000,0.049698,0.310867,0.000000,0.003000,0.006000,0.006000,FlatInitial
08:03:07.355 PM 02/11/2016,Teleop Enabled,0,FALSE,0,NO ERROR,0.000000,0.000000,4000.000000,4000.000000,Speed,Speed,-6.120000,0.350000,2.160000,3.000000,102.000000,1,0,-0.003038,-0.010478,0,0.000000,0.000000,0.000000,0.049698,0.310867,0.000000,0.003000,-0.010000,-0.003000,FlatInitial
08:03:07.455 PM 02/11/2016,Teleop Enabled,0,FALSE,0,NO ERROR,0.000000,0.000000,4000.000000,4000.000000,Speed,Speed,-6.130000,0.340000,2.140000,3.000000,102.000000,1,0,-0.003038,-0.010478,0,0.000000,0.000000,0.000000,0.049698,0.310867,0.000000,0.006000,-0.010000,0.007000,FlatInitial
08:03:07.555 PM 02/11/2016,Teleop Enabled,0,FALSE,0,NO ERROR,0.000000,0.000000,4000.000000,4000.000000,Speed,Speed,-6.100000,0.340000,2.150000,3.000000,102.000000,1,0,-0.003038,-0.010478,0,0.000000,0.000000,0.000000,0.049698,0.310867,0.000000,0.010000,0.006000,0.002000,FlatInitial
08:03:07.655 PM 02/11/2016,Teleop Enabled,0,FALSE,0,NO ERROR,0.000000,0.000000,4000.000000,4000.000000,Speed,Speed,-6.140000,0.340000,2.150000,3.000000,102.000000,1,0,-0.003038,-0.010478,0,0.000000,0.000000,0.000000,0.049698,0.310867,0.000000,0.003000,0.001000,0.002000,FlatInitial
08:03:07.755 PM 02/11/2016,Teleop Enabled,0,FALSE,0,NO ERROR,0.000000,0.000000,4000.000000,4000.000000,Speed,Speed,-6.140000,0.350000,2.110000,3.000000,102.000000,1,0,-0.003038,-0.010478,0,0.000000,0.000000,0.000000,0.049698,0.310867,0.000000,0.000000,0.003000,0.002000,FlatInitial
08:03:07.855 PM 02/11/2016,Teleop Enabled,0,FALSE,0,NO ERROR,0.000000,0.000000,4000.000000,4000.000000,Speed,Speed,-6.140000,0.330000,2.090000,3.000000,102.000000,1,0,-0.003038,-0.010478,0,0.000000,0.000000,0.000000,0.049698,0.310867,0.000000,-0.005000,-0.003000,-0.004000,FlatInitial
08:03:07.955 PM 02/11/2016,Teleop Enabled,0,FALSE,0,NO ERROR,0.000000,0.000000,4000.000000,4000.000000,Speed,Speed,-6.140000,0.330000,2.090000,3.000000,100.000000,1,0,-0.003038,-0.010478,0,0.000000,0.000000,0.000000,0.049698,0.310867,0.000000,0.004000,0.008000,-0.003000,FlatInitial
08:03:08.055 PM 02/11/2016,Teleop Enabled,0,FALSE,0,NO ERROR,0.000000,0.000000,4000.000000,4000.000000,Speed,Speed,-6.180000,0.350000,2.080000,3.000000,102.000000,1,0,-0.003038,-0.010478,0,0.000000,0.000000,0.000000,0.049698,0.311020,0.000000,0.002000,-0.008000,-0.003000,FlatInitial
08:03:08.155 PM 02/11/2016,Teleop Enabled,0,FALSE,0,NO ERROR,0.000000,0.000000,4000.000000,4000.000000,Speed,Speed,-6.220000,0.330000,2.030000,3.000000,101.000000,1,0,-0.003038,-0.010478,0,0.000000,0.000000,0.000000,0.049698,0.311020,0.000000,-0.004000,0.003000,0.001000,FlatInitial
08:03:08.255 PM 02/11/2016,Teleop Enabled,0,FALSE,0,NO ERROR,0.000000,0.000000,4000.000000,4000.000000,Speed,Speed,-6.210000,0.330000,2.020000,3.000000,102.000000,1,0,-0.003038,-0.010478,0,0.000000,0.000000,0.000000,0.049698,0.311020,0.000000,-0.003000,0.011000,0.010000,FlatInitial
08:03:08.355 PM 02/11/2016,Teleop Enabled,0,FALSE,0,NO ERROR,0.000000,0.000000,4000.000000,4000.000000,Speed,Speed,-6.210000,0.320000,1.990000,3.000000,102.000000,1,0,-0.003038,-0.010478,0,0.000000,0.000000,0.000000,0.049698,0.311020,0.000000,0.000000,-0.016000,0.003000,FlatInitial
08:03:08.455 PM 02/11/2016,Teleop Enabled,0,FALSE,0,NO ERROR,0.000000,0.000000,4000.000000,4000.000000,Speed,Speed,-6.210000,0.320000,1.990000,3.000000,101.000000,1,0,-0.003038,-0.010478,0,0.000000,0.000000,0.000000,0.049698,0.311020,0.000000,-0.002000,-0.005000,0.002000,FlatInitial
08:03:08.555 PM 02/11/2016,Teleop Enabled,0,FALSE,0,NO ERROR,0.000000,0.000000,4000.000000,4000.000000,Speed,Speed,-6.200000,0.320000,2.020000,3.000000,102.000000,1,0,-0.003038,-0.010478,0,0.000000,0.000000,0.000000,0.049698,0.311020,0.000000,0.003000,0.000000,0.000000,FlatInitial
08:03:08.656 PM 02/11/2016,Teleop Enabled,0,FALSE,0,NO ERROR,0.000000,0.000000,4000.000000,4000.000000,Speed,Speed,-6.190000,0.320000,1.990000,3.000000,101.000000,1,0,-0.003038,-0.010478,0,0.000000,0.000000,0.000000,0.049698,0.311020,0.000000,0.000000,-0.012000,0.008000,FlatInitial
08:03:08.756 PM 02/11/2016,Teleop Enabled,0,FALSE,0,NO ERROR,0.000000,0.000000,4000.000000,4000.000000,Speed,Speed,-6.190000,0.320000,2.030000,3.000000,102.000000,1,0,-0.003038,-0.010478,0,0.000000,0.000000,0.000000,0.049698,0.311020,0.000000,0.008000,0.000000,0.002000,FlatInitial
08:03:08.856 PM 02/11/2016,Teleop Enabled,0,FALSE,0,NO ERROR,0.000000,0.000000,4000.000000,4000.000000,Speed,Speed,-6.230000,0.320000,2.020000,3.000000,101.000000,1,0,-0.003038,-0.010478,0,0.000000,0.000000,0.000000,0.049698,0.311020,0.000000,-0.010000,0.004000,-0.001000,FlatInitial
08:03:08.957 PM 02/11/2016,Teleop Enabled,0,FALSE,0,NO ERROR,0.000000,0.000000,4000.000000,4000.000000,Speed,Speed,-6.220000,0.320000,2.030000,3.000000,103.000000,1,0,-0.003038,-0.010478,0,0.000000,0.000000,0.000000,0.049698,0.311020,0.000000,0.010000,-0.008000,0.008000,FlatInitial
08:03:09.057 PM 02/11/2016,Teleop Enabled,0,FALSE,0,NO ERROR,0.000000,0.000000,4000.000000,4000.000000,Speed,Speed,-6.230000,0.320000,2.020000,3.000000,102.000000,1,0,-0.003038,-0.010478,0,0.000000,0.000000,0.000000,0.049698,0.311020,0.000000,0.010000,-0.008000,0.008000,FlatInitial
08:03:09.157 PM 02/11/2016,Teleop Enabled,0,FALSE,0,NO ERROR,0.000000,0.000000,4000.000000,4000.000000,Speed,Speed,-6.200000,0.310000,2.010000,3.000000,101.000000,1,0,-0.003038,-0.010478,0,0.000000,0.000000,0.000000,0.049698,0.311020,0.000000,0.002000,0.000000,0.000000,FlatInitial
08:03:09.258 PM 02/11/2016,Teleop Enabled,0,FALSE,0,NO ERROR,0.000000,0.000000,4000.000000,4000.000000,Speed,Speed,-6.230000,0.330000,2.030000,3.000000,101.000000,1,0,-0.003038,-0.010478,0,0.000000,0.000000,0.000000,0.049698,0.311020,0.000000,-0.004000,-0.001000,-0.001000,FlatInitial
08:03:09.359 PM 02/11/2016,Teleop Enabled,0,FALSE,0,NO ERROR,0.000000,0.000000,4000.000000,4000.000000,Speed,Speed,-6.190000,0.310000,2.040000,3.000000,102.000000,1,0,-0.003038,-0.010478,0,0.000000,0.000000,0.000000,0.049698,0.311020,0.000000,-0.004000,-0.001000,-0.001000,FlatInitial
08:03:09.460 PM 02/11/2016,Teleop Enabled,0,FALSE,0,NO ERROR,0.000000,0.000000,4000.000000,4000.000000,Speed,Speed,-6.200000,0.310000,2.090000,3.000000,101.000000,1,0,-0.003038,-0.010478,0,0.000000,0.000000,0.000000,0.049698,0.311020,0.000000,0.002000,0.001000,0.002000,FlatInitial
08:03:09.560 PM 02/11/2016,Teleop Enabled,0,FALSE,0,NO ERROR,0.000000,0.000000,4000.000000,4000.000000,Speed,Speed,-6.190000,0.310000,2.110000,3.000000,101.000000,1,0,-0.003038,-0.010478,0,0.000000,0.000000,0.000000,0.049698,0.311020,0.000000,-0.005000,0.002000,-0.002000,FlatInitial
08:03:09.660 PM 02/11/2016,Teleop Enabled,0,FALSE,0,NO ERROR,0.000000,0.000000,4000.000000,4000.000000,Speed,Speed,-6.190000,0.310000,2.110000,3.000000,102.000000,1,0,-0.003038,-0.010478,0,0.000000,0.000000,0.000000,0.049698,0.311020,0.000000,-0.005000,0.002000,-0.002000,FlatInitial
08:03:09.760 PM 02/11/2016,Teleop Enabled,0,FALSE,0,NO ERROR,0.000000,0.000000,4000.000000,4000.000000,Speed,Speed,-6.200000,0.310000,2.140000,3.000000,101.000000,1,0,-0.003038,-0.010478,0,0.000000,0.000000,0.000000,0.049698,0.311020,0.000000,-0.003000,0.000000,0.005000,FlatInitial
08:03:09.860 PM 02/11/2016,Teleop Enabled,0,FALSE,0,NO ERROR,0.000000,0.000000,4000.000000,4000.000000,Speed,Speed,-6.190000,0.300000,2.150000,3.000000,103.000000,1,0,-0.003038,-0.010478,0,0.000000,0.000000,0.000000,0.049698,0.311020,0.000000,0.003000,0.000000,0.002000,FlatInitial
08:03:09.962 PM 02/11/2016,Teleop Enabled,0,FALSE,0,NO ERROR,0.000000,0.000000,4000.000000,4000.000000,Speed,Speed,-6.190000,0.310000,2.150000,3.000000,102.000000,1,0,-0.003038,-0.010478,0,0.000000,0.000000,0.000000,0.049698,0.311020,0.000000,0.000000,-0.002000,0.001000,FlatInitial
08:03:10.062 PM 02/11/2016,Teleop Enabled,0,FALSE,0,NO ERROR,0.000000,0.000000,4000.000000,4000.000000,Speed,Speed,-6.200000,0.320000,2.150000,3.000000,102.000000,1,0,-0.003038,-0.010478,0,0.000000,0.000000,0.000000,0.049698,0.311020,0.000000,0.000000,-0.004000,0.000000,FlatInitial
08:03:10.164 PM 02/11/2016,Teleop Enabled,0,FALSE,0,NO ERROR,0.000000,0.000000,4000.000000,4000.000000,Speed,Speed,-6.200000,0.320000,2.180000,3.000000,102.000000,1,0,-0.003038,-0.010478,0,0.000000,0.000000,0.000000,0.049698,0.311020,0.000000,-0.001000,0.000000,-0.002000,FlatInitial
08:03:10.264 PM 02/11/2016,Teleop Enabled,0,FALSE,0,NO ERROR,0.000000,0.000000,4000.000000,4000.000000,Speed,Speed,-6.200000,0.320000,2.180000,3.000000,101.000000,1,0,-0.003038,-0.010478,0,0.000000,0.000000,0.000000,0.049698,0.311020,0.000000,0.002000,0.002000,0.003000,FlatInitial
08:03:10.364 PM 02/11/2016,Teleop Enabled,0,FALSE,0,NO ERROR,0.000000,0.000000,4000.000000,4000.000000,Speed,Speed,-6.210000,0.320000,2.190000,3.000000,102.000000,1,0,-0.003038,-0.010478,0,0.000000,0.000000,0.000000,0.049698,0.311020,0.000000,0.003000,0.001000,0.005000,FlatInitial
08:03:10.465 PM 02/11/2016,Teleop Enabled,0,FALSE,0,NO ERROR,0.000000,0.000000,4000.000000,4000.000000,Speed,Speed,-6.210000,0.320000,2.190000,3.000000,101.000000,1,0,-0.003038,-0.010478,0,0.000000,0.000000,0.000000,0.049698,0.311020,0.000000,0.000000,0.000000,-0.001000,FlatInitial
08:03:10.566 PM 02/11/2016,Teleop Enabled,0,FALSE,0,NO ERROR,0.000000,0.000000,4000.000000,4000.000000,Speed,Speed,-6.180000,0.310000,2.210000,3.000000,102.000000,1,0,-0.003038,-0.010478,0,0.000000,0.000000,0.000000,0.049698,0.311020,0.000000,0.000000,-0.007000,0.003000,FlatInitial
08:03:10.666 PM 02/11/2016,Teleop Enabled,0,FALSE,0,NO ERROR,0.000000,0.000000,4000.000000,4000.000000,Speed,Speed,-6.210000,0.320000,2.180000,3.000000,100.000000,1,0,-0.003038,-0.010478,0,0.000000,0.000000,0.000000,0.049698,0.311020,0.000000,0.005000,-0.004000,-0.002000,FlatInitial
08:03:10.766 PM 02/11/2016,Teleop Enabled,0,FALSE,0,NO ERROR,0.000000,0.000000,4000.000000,4000.000000,Speed,Speed,-6.160000,0.320000,2.200000,3.000000,102.000000,1,0,-0.003038,-0.010478,0,0.000000,0.000000,0.000000,0.049698,0.311020,0.000000,0.000000,0.004000,0.013000,FlatInitial
08:03:10.867 PM 02/11/2016,Teleop Enabled,0,FALSE,0,NO ERROR,0.000000,0.000000,4000.000000,4000.000000,Speed,Speed,-6.190000,0.340000,2.230000,3.000000,104.000000,1,0,-0.003038,-0.010478,0,0.000000,0.000000,0.000000,0.049698,0.311020,0.000000,0.000000,0.014000,0.007000,FlatInitial
08:03:10.970 PM 02/11/2016,Teleop Enabled,0,FALSE,0,NO ERROR,0.000000,0.000000,4000.000000,4000.000000,Speed,Speed,-6.200000,0.340000,2.290000,3.000000,103.000000,1,0,-0.003038,-0.010478,0,0.000000,0.000000,0.000000,0.049698,0.311020,0.000000,0.000000,0.002000,0.000000,FlatInitial
08:03:11.070 PM 02/11/2016,Teleop Enabled,0,FALSE,0,NO ERROR,0.000000,0.000000,4000.000000,4000.000000,Speed,Speed,-6.160000,0.330000,2.260000,3.000000,101.000000,1,0,-0.003038,-0.010478,0,0.000000,-0.012802,0.000000,0.049698,0.310791,0.000000,-0.002000,-0.018000,-0.006000,FlatInitial
08:03:11.171 PM 02/11/2016,Teleop Enabled,0,FALSE,0,NO ERROR,0.000000,0.000000,4000.000000,4000.000000,Speed,Speed,-6.160000,0.340000,2.270000,3.000000,101.000000,1,0,-0.003038,-0.010478,0,0.000000,0.000000,0.000000,0.049698,0.310791,0.000000,0.000000,0.005000,-0.001000,FlatInitial
08:03:11.275 PM 02/11/2016,Teleop Enabled,0,FALSE,0,NO ERROR,0.000000,0.000000,4000.000000,4000.000000,Speed,Speed,-6.120000,0.330000,2.270000,3.000000,103.000000,1,0,-0.003038,-0.010478,0,0.000000,0.000000,0.000000,0.049698,0.310791,0.000000,-0.001000,0.003000,0.000000,FlatInitial
08:03:11.374 PM 02/11/2016,Teleop Enabled,0,FALSE,0,NO ERROR,0.000000,0.000000,4000.000000,4000.000000,Speed,Speed,-6.140000,0.340000,2.300000,3.000000,103.000000,1,0,-0.003038,-0.010478,0,0.000000,0.000000,0.000000,0.049698,0.310791,0.000000,-0.001000,0.006000,0.003000,FlatInitial
08:03:11.476 PM 02/11/2016,Teleop Enabled,0,FALSE,0,NO ERROR,0.000000,0.000000,4000.000000,4000.000000,Speed,Speed,-6.180000,0.350000,2.320000,3.000000,102.000000,1,0,-0.003038,-0.010478,0,0.000000,0.000000,0.000000,0.049698,0.310791,0.000000,0.000000,0.006000,0.002000,FlatInitial
08:03:11.577 PM 02/11/2016,Teleop Enabled,0,FALSE,0,NO ERROR,0.000000,0.000000,4000.000000,4000.000000,Speed,Speed,-6.200000,0.360000,2.260000,3.000000,105.000000,1,0,-0.003038,-0.010478,0,0.000000,-0.003708,0.000000,0.049698,0.310745,0.000000,0.008000,-0.024000,0.000000,FlatInitial
08:03:11.678 PM 02/11/2016,Teleop Enabled,0,FALSE,0,NO ERROR,0.000000,0.000000,4000.000000,4000.000000,Speed,Speed,-6.190000,0.350000,2.270000,3.000000,101.000000,1,0,-0.003038,-0.010478,0,0.000000,0.000000,0.000000,0.049698,0.310577,0.000000,-0.006000,-0.003000,0.000000,FlatInitial
08:03:11.782 PM 02/11/2016,Teleop Enabled,0,FALSE,0,NO ERROR,0.000000,0.000000,4000.000000,4000.000000,Speed,Speed,-6.140000,0.340000,2.290000,3.000000,103.000000,1,0,-0.003038,-0.010478,0,0.000000,0.000000,0.000000,0.049698,0.310577,0.000000,0.002000,0.006000,0.003000,FlatInitial
08:03:11.880 PM 02/11/2016,Teleop Enabled,0,FALSE,0,NO ERROR,0.000000,0.000000,4000.000000,4000.000000,Speed,Speed,-6.140000,0.340000,2.290000,3.000000,102.000000,1,0,-0.003038,-0.010478,0,0.000000,0.000000,0.000000,0.049698,0.310577,0.000000,-0.002000,0.008000,-0.001000,FlatInitial
08:03:11.980 PM 02/11/2016,Teleop Enabled,0,FALSE,0,NO ERROR,0.000000,0.000000,4000.000000,4000.000000,Speed,Speed,-6.150000,0.330000,2.280000,3.000000,105.000000,1,0,-0.003038,-0.010478,0,0.000000,0.000000,0.000000,0.049698,0.310577,0.000000,0.001000,0.000000,-0.003000,FlatInitial
08:03:12.082 PM 02/11/2016,Teleop Enabled,0,FALSE,0,NO ERROR,0.000000,0.000000,4000.000000,4000.000000,Speed,Speed,-6.140000,0.340000,2.280000,3.000000,104.000000,1,0,-0.003038,-0.010478,0,0.000000,0.000000,0.000000,0.049698,0.310577,0.000000,0.000000,0.011000,0.000000,FlatInitial
08:03:12.186 PM 02/11/2016,Teleop Enabled,0,FALSE,0,NO ERROR,0.000000,0.000000,4000.000000,4000.000000,Speed,Speed,-6.180000,0.340000,2.290000,3.000000,104.000000,1,0,-0.003038,-0.010478,0,0.000000,0.000000,0.000000,0.049698,0.310577,0.000000,0.000000,-0.013000,0.002000,FlatInitial
08:03:12.283 PM 02/11/2016,Teleop Enabled,0,FALSE,0,NO ERROR,0.000000,0.000000,4000.000000,4000.000000,Speed,Speed,-6.190000,0.340000,2.260000,3.000000,101.000000,1,0,-0.003038,-0.010478,0,0.000000,0.000000,0.000000,0.049698,0.310577,0.000000,0.004000,0.003000,-0.004000,FlatInitial
08:03:12.385 PM 02/11/2016,Teleop Enabled,0,FALSE,0,NO ERROR,0.000000,0.000000,4000.000000,4000.000000,Speed,Speed,-6.150000,0.350000,2.290000,3.000000,101.000000,1,0,-0.003038,-0.010478,0,0.000000,0.000000,0.000000,0.049698,0.310577,0.000000,-0.004000,0.005000,0.003000,FlatInitial
08:03:12.486 PM 02/11/2016,Teleop Enabled,0,FALSE,0,NO ERROR,0.000000,0.000000,4000.000000,4000.000000,Speed,Speed,-6.140000,0.350000,2.310000,3.000000,103.000000,1,0,-0.003038,-0.010478,0,0.000000,0.000000,0.000000,0.049698,0.310577,0.000000,-0.008000,-0.006000,0.007000,FlatInitial
08:03:12.587 PM 02/11/2016,Teleop Enabled,0,FALSE,0,NO ERROR,0.000000,0.000000,4000.000000,4000.000000,Speed,Speed,-6.180000,0.340000,2.340000,3.000000,102.000000,1,0,-0.003038,-0.010478,0,0.000000,0.000000,0.000000,0.049698,0.310577,0.000000,0.000000,-0.006000,0.005000,FlatInitial
08:03:12.688 PM 02/11/2016,Teleop Enabled,0,FALSE,0,NO ERROR,0.000000,0.000000,4000.000000,4000.000000,Speed,Speed,-6.170000,0.340000,2.340000,3.000000,103.000000,1,0,-0.003038,-0.010478,0,0.000000,0.000000,0.000000,0.049698,0.310577,0.000000,-0.002000,-0.001000,0.002000,FlatInitial
08:03:12.793 PM 02/11/2016,Teleop Enabled,0,FALSE,0,NO ERROR,0.000000,0.000000,4000.000000,4000.000000,Speed,Speed,-6.170000,0.330000,2.370000,3.000000,101.000000,1,0,-0.003038,-0.010478,0,0.000000,0.000000,0.000000,0.049698,0.310577,0.000000,0.004000,-0.003000,0.000000,FlatInitial
08:03:12.890 PM 02/11/2016,Teleop Enabled,0,FALSE,0,NO ERROR,0.000000,0.000000,4000.000000,4000.000000,Speed,Speed,-6.180000,0.330000,2.390000,3.000000,100.000000,1,0,-0.003038,-0.010478,0,0.000000,0.000000,0.000000,0.049698,0.310577,0.000000,-0.002000,0.000000,0.002000,FlatInitial
08:03:12.990 PM 02/11/2016,Teleop Enabled,0,FALSE,0,NO ERROR,0.000000,0.000000,4000.000000,4000.000000,Speed,Speed,-6.170000,0.340000,2.380000,3.000000,102.000000,1,0,-0.003038,-0.010478,0,0.000000,0.000000,0.000000,0.049698,0.310577,0.000000,-0.003000,-0.008000,0.000000,FlatInitial
08:03:13.090 PM 02/11/2016,Teleop Enabled,0,FALSE,0,NO ERROR,0.000000,0.000000,4000.000000,4000.000000,Speed,Speed,-6.180000,0.330000,2.380000,3.000000,101.000000,1,0,-0.003038,-0.010478,0,0.000000,0.000000,0.000000,0.049698,0.310577,0.000000,0.000000,0.000000,0.005000,FlatInitial
08:03:13.190 PM 02/11/2016,Teleop Enabled,0,FALSE,0,NO ERROR,0.000000,0.000000,4000.000000,4000.000000,Speed,Speed,-6.180000,0.340000,2.380000,3.000000,102.000000,1,0,-0.003038,-0.010478,0,0.000000,0.000000,0.000000,0.049698,0.310577,0.000000,0.000000,0.006000,0.004000,FlatInitial
08:03:13.290 PM 02/11/2016,Teleop Enabled,0,FALSE,0,NO ERROR,0.000000,0.000000,4000.000000,4000.000000,Speed,Speed,-6.190000,0.340000,2.360000,3.000000,102.000000,1,0,-0.003038,-0.010478,0,0.000000,0.000000,0.000000,0.049698,0.310577,0.000000,0.002000,0.000000,0.001000,FlatInitial
08:03:13.391 PM 02/11/2016,Teleop Enabled,0,FALSE,0,NO ERROR,0.000000,0.000000,4000.000000,4000.000000,Speed,Speed,-6.200000,0.340000,2.370000,3.000000,103.000000,1,0,-0.003038,-0.010478,0,0.000000,0.000000,0.000000,0.049698,0.310577,0.000000,0.000000,0.002000,0.000000,FlatInitial
08:03:13.492 PM 02/11/2016,Teleop Enabled,0,FALSE,0,NO ERROR,0.000000,0.000000,4000.000000,4000.000000,Speed,Speed,-6.180000,0.340000,2.370000,3.000000,103.000000,1,0,-0.003038,-0.010478,0,0.000000,0.000000,0.000000,0.049698,0.310577,0.000000,0.000000,0.005000,0.000000,FlatInitial
08:03:13.594 PM 02/11/2016,Teleop Enabled,0,FALSE,0,NO ERROR,0.000000,0.000000,4000.000000,4000.000000,Speed,Speed,-6.180000,0.340000,2.350000,3.000000,102.000000,1,0,-0.003038,-0.010478,0,0.000000,0.000000,0.000000,0.049698,0.310577,0.000000,0.000000,0.000000,0.000000,FlatInitial
08:03:13.694 PM 02/11/2016,Teleop Enabled,0,FALSE,0,NO ERROR,0.000000,0.000000,4000.000000,4000.000000,Speed,Speed,-6.180000,0.340000,2.360000,3.000000,102.000000,1,0,-0.003038,-0.010478,0,0.000000,0.000000,0.000000,0.049698,0.310577,0.000000,-0.002000,0.003000,0.001000,FlatInitial
08:03:13.794 PM 02/11/2016,Teleop Enabled,0,FALSE,0,NO ERROR,0.000000,0.000000,4000.000000,4000.000000,Speed,Speed,-6.170000,0.340000,2.340000,3.000000,102.000000,1,0,-0.003038,-0.010478,0,0.000000,0.000000,0.000000,0.049698,0.310577,0.000000,-0.004000,-0.002000,0.000000,FlatInitial
08:03:13.894 PM 02/11/2016,Teleop Enabled,0,FALSE,0,NO ERROR,0.000000,0.000000,4000.000000,4000.000000,Speed,Speed,-6.180000,0.340000,2.340000,3.000000,102.000000,1,0,-0.003038,-0.010478,0,0.000000,0.000000,0.000000,0.049698,0.310577,0.000000,0.000000,0.001000,0.002000,FlatInitial
08:03:13.994 PM 02/11/2016,Teleop Enabled,0,FALSE,0,NO ERROR,0.000000,0.000000,4000.000000,4000.000000,Speed,Speed,-6.170000,0.340000,2.330000,3.000000,102.000000,1,0,-0.003038,-0.010478,0,0.000000,0.000000,0.000000,0.049698,0.310577,0.000000,0.000000,0.000000,0.006000,FlatInitial
08:03:14.094 PM 02/11/2016,Teleop Enabled,0,FALSE,0,NO ERROR,0.000000,0.000000,4000.000000,4000.000000,Speed,Speed,-6.170000,0.340000,2.300000,3.000000,102.000000,1,0,-0.003038,-0.010478,0,0.000000,0.000000,0.000000,0.049698,0.310577,0.000000,0.000000,0.000000,0.001000,FlatInitial
08:03:14.194 PM 02/11/2016,Teleop Enabled,0,FALSE,0,NO ERROR,0.000000,0.000000,4000.000000,4000.000000,Speed,Speed,-6.170000,0.340000,2.290000,3.000000,100.000000,1,0,-0.003038,-0.010478,0,0.000000,0.000000,0.000000,0.049698,0.310577,0.000000,0.000000,0.003000,0.000000,FlatInitial
08:03:14.294 PM 02/11/2016,Teleop Enabled,0,FALSE,0,NO ERROR,0.000000,0.000000,4000.000000,4000.000000,Speed,Speed,-6.170000,0.340000,2.280000,3.000000,102.000000,1,0,-0.003038,-0.010478,0,0.000000,0.000000,0.000000,0.049698,0.310577,0.000000,0.003000,-0.001000,0.005000,FlatInitial
08:03:14.394 PM 02/11/2016,Teleop Enabled,0,FALSE,0,NO ERROR,0.000000,0.000000,4000.000000,4000.000000,Speed,Speed,-6.170000,0.340000,2.290000,3.000000,103.000000,1,0,-0.003038,-0.010478,0,0.000000,0.000000,0.000000,0.049698,0.310577,0.000000,0.000000,0.000000,0.004000,FlatInitial
08:03:14.494 PM 02/11/2016,Teleop Enabled,0,FALSE,0,NO ERROR,0.000000,0.000000,4000.000000,4000.000000,Speed,Speed,-6.170000,0.340000,2.260000,3.000000,103.000000,1,0,-0.003038,-0.010478,0,0.000000,0.000000,0.000000,0.049698,0.310577,0.000000,0.001000,0.004000,0.003000,FlatInitial
08:03:14.594 PM 02/11/2016,Teleop Enabled,0,FALSE,0,NO ERROR,0.000000,0.000000,4000.000000,4000.000000,Speed,Speed,-6.160000,0.340000,2.290000,3.000000,101.000000,1,0,-0.003038,-0.010478,0,0.000000,0.000000,0.000000,0.049698,0.310577,0.000000,0.005000,0.002000,-0.005000,FlatInitial
08:03:14.694 PM 02/11/2016,Teleop Enabled,0,FALSE,0,NO ERROR,0.000000,0.000000,4000.000000,4000.000000,Speed,Speed,-6.170000,0.330000,2.280000,3.000000,102.000000,1,0,-0.003038,-0.010478,0,0.000000,0.000000,0.000000,0.049698,0.310577,0.000000,0.002000,0.000000,0.007000,FlatInitial
08:03:14.794 PM 02/11/2016,Teleop Enabled,0,FALSE,0,NO ERROR,0.000000,0.000000,4000.000000,4000.000000,Speed,Speed,-6.200000,0.340000,2.280000,3.000000,102.000000,1,0,-0.003038,-0.010478,0,0.000000,0.000000,0.000000,0.049698,0.310577,0.000000,-0.001000,0.002000,0.005000,FlatInitial
08:03:14.894 PM 02/11/2016,Teleop Enabled,0,FALSE,0,NO ERROR,0.000000,0.000000,4000.000000,4000.000000,Speed,Speed,-6.150000,0.330000,2.310000,3.000000,101.000000,1,0,-0.003038,-0.010478,0,0.000000,0.000000,0.000000,0.049698,0.310577,0.000000,0.000000,0.001000,0.000000,FlatInitial
08:03:14.994 PM 02/11/2016,Teleop Enabled,0,FALSE,0,NO ERROR,0.000000,0.000000,4000.000000,4000.000000,Speed,Speed,-6.180000,0.340000,2.300000,3.000000,102.000000,1,0,-0.003038,-0.010478,0,0.000000,0.000000,0.000000,0.049698,0.310577,0.000000,0.001000,-0.003000,-0.001000,FlatInitial
08:03:15.094 PM 02/11/2016,Teleop Enabled,0,FALSE,0,NO ERROR,0.000000,0.000000,4000.000000,4000.000000,Speed,Speed,-6.180000,0.340000,2.290000,3.000000,103.000000,1,0,-0.003038,-0.010478,0,0.000000,0.000000,0.000000,0.049698,0.310577,0.000000,0.001000,-0.002000,0.000000,FlatInitial
08:03:15.195 PM 02/11/2016,Teleop Enabled,0,FALSE,0,NO ERROR,0.000000,0.000000,4000.000000,4000.000000,Speed,Speed,-6.160000,0.330000,2.290000,3.000000,101.000000,1,0,-0.003038,-0.010478,0,0.000000,0.000000,0.000000,0.049698,0.310577,0.000000,0.002000,-0.002000,0.007000,FlatInitial
08:03:15.296 PM 02/11/2016,Teleop Enabled,0,FALSE,0,NO ERROR,0.000000,0.000000,4000.000000,4000.000000,Speed,Speed,-6.160000,0.340000,2.250000,3.000000,101.000000,1,0,-0.003038,-0.010478,0,0.000000,0.000000,0.000000,0.049698,0.310577,0.000000,0.002000,0.004000,0.002000,FlatInitial
08:03:15.396 PM 02/11/2016,Teleop Enabled,0,FALSE,0,NO ERROR,0.000000,0.000000,4000.000000,4000.000000,Speed,Speed,-6.170000,0.340000,2.240000,3.000000,101.000000,1,0,-0.003038,-0.010478,0,0.000000,0.000000,0.000000,0.049698,0.310577,0.000000,-0.002000,-0.005000,0.001000,FlatInitial
08:03:15.496 PM 02/11/2016,Teleop Enabled,0,FALSE,0,NO ERROR,0.000000,0.000000,4000.000000,4000.000000,Speed,Speed,-6.170000,0.340000,2.260000,3.000000,102.000000,1,0,-0.003038,-0.010478,0,0.000000,0.000000,0.000000,0.049698,0.310577,0.000000,0.002000,0.001000,0.000000,FlatInitial
08:03:15.596 PM 02/11/2016,Teleop Enabled,0,FALSE,0,NO ERROR,0.000000,0.000000,4000.000000,4000.000000,Speed,Speed,-6.160000,0.350000,2.280000,3.000000,103.000000,1,0,-0.003038,-0.010478,0,0.000000,0.000000,0.000000,0.049698,0.310577,0.000000,-0.002000,-0.001000,-0.005000,FlatInitial
08:03:15.696 PM 02/11/2016,Teleop Enabled,0,FALSE,0,NO ERROR,0.000000,0.000000,4000.000000,4000.000000,Speed,Speed,-6.170000,0.340000,2.230000,3.000000,102.000000,1,0,-0.003038,-0.010478,0,0.000000,0.000000,0.000000,0.049698,0.310577,0.000000,0.000000,0.007000,0.000000,FlatInitial
08:03:15.796 PM 02/11/2016,Teleop Enabled,0,FALSE,0,NO ERROR,0.000000,0.000000,4000.000000,4000.000000,Speed,Speed,-6.160000,0.350000,2.250000,3.000000,103.000000,1,0,-0.003038,-0.010478,0,0.000000,0.000000,0.000000,0.049698,0.310577,0.000000,0.000000,-0.004000,0.003000,FlatInitial
08:03:15.896 PM 02/11/2016,Teleop Enabled,0,FALSE,0,NO ERROR,0.000000,0.000000,4000.000000,4000.000000,Speed,Speed,-6.150000,0.350000,2.260000,3.000000,105.000000,1,0,-0.003038,-0.010478,0,0.000000,0.000000,0.000000,0.049698,0.310577,0.000000,0.003000,0.001000,0.005000,FlatInitial
08:03:15.996 PM 02/11/2016,Teleop Enabled,0,FALSE,0,NO ERROR,0.000000,0.000000,4000.000000,4000.000000,Speed,Speed,-6.160000,0.350000,2.240000,3.000000,102.000000,1,0,-0.003038,-0.010478,0,0.000000,0.000000,0.000000,0.049698,0.310577,0.000000,-0.001000,-0.002000,-0.001000,FlatInitial
08:03:16.096 PM 02/11/2016,Teleop Enabled,0,FALSE,0,NO ERROR,0.000000,0.000000,4000.000000,4000.000000,Speed,Speed,-6.160000,0.340000,2.260000,3.000000,102.000000,1,0,-0.003038,-0.010478,0,0.000000,0.000000,0.000000,0.049698,0.310577,0.000000,0.002000,0.001000,0.001000,FlatInitial
08:03:16.196 PM 02/11/2016,Teleop Enabled,0,FALSE,0,NO ERROR,0.000000,0.000000,4000.000000,4000.000000,Speed,Speed,-6.150000,0.340000,2.260000,3.000000,101.000000,1,0,-0.003038,-0.010478,0,0.000000,0.000000,0.000000,0.049698,0.310577,0.000000,-0.001000,-0.004000,-0.001000,FlatInitial
08:03:16.297 PM 02/11/2016,Teleop Enabled,0,FALSE,0,NO ERROR,0.000000,0.000000,4000.000000,4000.000000,Speed,Speed,-6.170000,0.340000,2.260000,3.000000,103.000000,1,0,-0.003038,-0.010478,0,0.000000,0.000000,0.000000,0.049698,0.310577,0.000000,0.001000,0.003000,0.004000,FlatInitial
08:03:16.397 PM 02/11/2016,Teleop Enabled,0,FALSE,0,NO ERROR,0.000000,0.000000,4000.000000,4000.000000,Speed,Speed,-6.150000,0.340000,2.270000,3.000000,108.000000,1,0,-0.003038,-0.010478,0,0.000000,0.000000,0.000000,0.049698,0.310577,0.000000,-0.002000,0.005000,0.009000,FlatInitial
08:03:16.497 PM 02/11/2016,Teleop Enabled,0,FALSE,0,NO ERROR,0.000000,0.000000,4000.000000,4000.000000,Speed,Speed,-6.140000,0.340000,2.240000,3.000000,102.000000,1,0,-0.003038,-0.010478,0,0.000000,0.000000,0.000000,0.049698,0.310577,0.000000,0.000000,-0.003000,0.004000,FlatInitial
08:03:16.598 PM 02/11/2016,Teleop Enabled,0,FALSE,0,NO ERROR,0.000000,0.000000,4000.000000,4000.000000,Speed,Speed,-6.130000,0.340000,2.240000,3.000000,101.000000,1,0,-0.003038,-0.010478,0,0.000000,0.000000,0.000000,0.049698,0.310577,0.000000,0.000000,0.004000,0.003000,FlatInitial
08:03:16.699 PM 02/11/2016,Teleop Enabled,0,FALSE,0,NO ERROR,0.000000,0.000000,4000.000000,4000.000000,Speed,Speed,-6.140000,0.340000,2.230000,3.000000,102.000000,1,0,-0.003038,-0.010478,0,0.000000,0.000000,0.000000,0.049698,0.310577,0.000000,-0.003000,-0.005000,0.000000,FlatInitial
08:03:16.799 PM 02/11/2016,Teleop Enabled,0,FALSE,0,NO ERROR,0.000000,0.000000,4000.000000,4000.000000,Speed,Speed,-6.140000,0.340000,2.220000,3.000000,101.000000,1,0,-0.003038,-0.010478,0,0.000000,0.000000,0.000000,0.049698,0.310577,0.000000,0.000000,-0.004000,0.004000,FlatInitial
08:03:16.899 PM 02/11/2016,Teleop Enabled,0,FALSE,0,NO ERROR,0.000000,0.000000,4000.000000,4000.000000,Speed,Speed,-6.150000,0.340000,2.230000,3.000000,101.000000,1,0,-0.003038,-0.010478,0,0.000000,0.000000,0.000000,0.049698,0.310577,0.000000,0.000000,0.001000,0.004000,FlatInitial
08:03:16.999 PM 02/11/2016,Teleop Enabled,0,FALSE,0,NO ERROR,0.000000,0.000000,4000.000000,4000.000000,Speed,Speed,-6.140000,0.340000,2.250000,3.000000,102.000000,1,0,-0.003038,-0.010478,0,0.000000,0.000000,0.000000,0.049698,0.310577,0.000000,0.000000,0.004000,0.005000,FlatInitial
08:03:17.101 PM 02/11/2016,Teleop Enabled,0,FALSE,0,NO ERROR,0.000000,0.000000,4000.000000,4000.000000,Speed,Speed,-6.140000,0.340000,2.230000,3.000000,102.000000,1,0,-0.003038,-0.010478,0,0.000000,0.000000,0.000000,0.049698,0.310577,0.000000,-0.001000,-0.002000,0.004000,FlatInitial
08:03:17.201 PM 02/11/2016,Teleop Enabled,0,FALSE,0,NO ERROR,0.000000,0.000000,4000.000000,4000.000000,Speed,Speed,-6.140000,0.340000,2.230000,3.000000,102.000000,1,0,-0.003038,-0.010478,0,0.000000,0.000000,0.000000,0.049698,0.310577,0.000000,0.000000,-0.001000,0.000000,FlatInitial
08:03:17.302 PM 02/11/2016,Teleop Enabled,0,FALSE,0,NO ERROR,0.000000,0.000000,4000.000000,4000.000000,Speed,Speed,-6.140000,0.340000,2.250000,3.000000,102.000000,1,0,-0.003038,-0.010478,0,0.000000,0.000000,0.000000,0.049698,0.310577,0.000000,-0.002000,0.009000,0.005000,FlatInitial
08:03:17.402 PM 02/11/2016,Teleop Enabled,0,FALSE,0,NO ERROR,0.000000,0.000000,4000.000000,4000.000000,Speed,Speed,-6.140000,0.350000,2.300000,3.000000,101.000000,1,0,-0.003038,-0.010478,0,0.000000,0.000000,0.000000,0.049698,0.310577,0.000000,0.002000,-0.003000,0.006000,FlatInitial
08:03:17.502 PM 02/11/2016,Teleop Enabled,0,FALSE,0,NO ERROR,0.000000,0.000000,4000.000000,4000.000000,Speed,Speed,-6.150000,0.340000,2.200000,3.000000,104.000000,1,0,-0.003038,-0.010478,0,0.000000,0.000000,0.000000,0.049698,0.310349,0.000000,0.001000,0.006000,-0.003000,FlatInitial
