Time,RobotMode,AutoToRun,ErrorStatus, ErrorCode,ErrorSource,ActualRPM1,ActualRPM2,DesiredRPM1,DesiredRPM2,ControlMode1,ControlMode2,NavXYaw,NavXRoll,NavXPitch,ShooterState,LoopTime,IsLevel,IsAutoTargeting,LeftMotorOutput,RightMotorOutput,IsHaloDrive,NavXVelocityX,NavXVelocityY,NavXVelocityZ,NavXDisplacementX,NavXDisplacementY,NavXDisplacementZ,NavXAccelerationX,NavXAccelerationY,NavXAccelerationZ,AutoDefendState
10:41:52.809 AM 02/13/2016,Teleop Disabled,0,TRUE,-44087,NetComm_CAN_Receive.vi:5470006<APPEND>  <b>Complete call chain:</b>      NetComm_CAN_Receive.vi:5470006      WPI_CANTalonSRX_Receive.vi      WPI_MotorControlOpenCANTalonSRX.vi      Begin.vi      Robot Main.vi,0.000000,0.000000,2000.000000,2000.000000,Speed,Speed,0.080000,1.110000,2.750000,5.000000,102.000000,1,0,0.000248,-0.003968,0,0.000000,0.000000,0.000000,-0.149033,-0.012863,0.000000,0.000000,0.001000,0.003000,FlatInitial
10:41:52.911 AM 02/13/2016,Teleop Disabled,0,TRUE,-44087,NetComm_CAN_Receive.vi:5470006<APPEND>  <b>Complete call chain:</b>      NetComm_CAN_Receive.vi:5470006      WPI_CANTalonSRX_Receive.vi      WPI_MotorControlOpenCANTalonSRX.vi      Begin.vi      Robot Main.vi,0.000000,0.000000,0.000000,0.000000,Speed,Speed,0.080000,1.110000,2.750000,0.000000,3457312.000000,1,0,0.000248,-0.003968,0,0.000000,0.000000,0.000000,-0.149033,-0.012863,0.000000,0.000000,0.001000,0.003000,FlatInitial
10:41:53.010 AM 02/13/2016,Teleop Disabled,0,TRUE,-44087,NetComm_CAN_Receive.vi:5470006<APPEND>  <b>Complete call chain:</b>      NetComm_CAN_Receive.vi:5470006      WPI_CANTalonSRX_Receive.vi      WPI_MotorControlOpenCANTalonSRX.vi      Begin.vi      Robot Main.vi,0.000000,0.000000,0.000000,0.000000,Speed,Speed,0.080000,1.110000,2.750000,0.000000,101.000000,1,0,0.000248,-0.003968,0,0.000000,0.000000,0.000000,-0.149033,-0.012863,0.000000,0.000000,0.001000,0.003000,FlatInitial
10:41:53.110 AM 02/13/2016,Teleop Disabled,0,TRUE,-44087,NetComm_CAN_Receive.vi:5470006<APPEND>  <b>Complete call chain:</b>      NetComm_CAN_Receive.vi:5470006      WPI_CANTalonSRX_Receive.vi      WPI_MotorControlOpenCANTalonSRX.vi      Begin.vi      Robot Main.vi,0.000000,0.000000,0.000000,0.000000,Speed,Speed,0.080000,1.110000,2.750000,0.000000,100.000000,1,0,0.000248,-0.003968,0,0.000000,0.000000,0.000000,-0.149033,-0.012863,0.000000,0.000000,0.001000,0.003000,FlatInitial
10:41:53.210 AM 02/13/2016,Teleop Disabled,0,TRUE,-44087,NetComm_CAN_Receive.vi:5470006<APPEND>  <b>Complete call chain:</b>      NetComm_CAN_Receive.vi:5470006      WPI_CANTalonSRX_Receive.vi      WPI_MotorControlOpenCANTalonSRX.vi      Begin.vi      Robot Main.vi,0.000000,0.000000,0.000000,0.000000,Speed,Speed,0.080000,1.110000,2.750000,0.000000,101.000000,1,0,0.000248,-0.003968,0,0.000000,0.000000,0.000000,-0.149033,-0.012863,0.000000,0.000000,0.001000,0.003000,FlatInitial
10:41:53.310 AM 02/13/2016,Teleop Disabled,0,TRUE,-44087,NetComm_CAN_Receive.vi:5470006<APPEND>  <b>Complete call chain:</b>      NetComm_CAN_Receive.vi:5470006      WPI_CANTalonSRX_Receive.vi      WPI_MotorControlOpenCANTalonSRX.vi      Begin.vi      Robot Main.vi,0.000000,0.000000,0.000000,0.000000,Speed,Speed,0.080000,1.110000,2.750000,0.000000,101.000000,1,0,0.000248,-0.003968,0,0.000000,0.000000,0.000000,-0.149033,-0.012863,0.000000,0.000000,0.001000,0.003000,FlatInitial
10:41:53.411 AM 02/13/2016,Teleop Disabled,0,TRUE,-44087,NetComm_CAN_Receive.vi:5470006<APPEND>  <b>Complete call chain:</b>      NetComm_CAN_Receive.vi:5470006      WPI_CANTalonSRX_Receive.vi      WPI_MotorControlOpenCANTalonSRX.vi      Begin.vi      Robot Main.vi,0.000000,0.000000,0.000000,0.000000,Speed,Speed,0.080000,1.110000,2.750000,0.000000,100.000000,1,0,0.000248,-0.003968,0,0.000000,0.000000,0.000000,-0.149033,-0.012863,0.000000,0.000000,0.001000,0.003000,FlatInitial
10:41:53.511 AM 02/13/2016,Teleop Disabled,0,TRUE,-44087,NetComm_CAN_Receive.vi:5470006<APPEND>  <b>Complete call chain:</b>      NetComm_CAN_Receive.vi:5470006      WPI_CANTalonSRX_Receive.vi      WPI_MotorControlOpenCANTalonSRX.vi      Begin.vi      Robot Main.vi,0.000000,0.000000,0.000000,0.000000,Speed,Speed,0.080000,1.110000,2.750000,0.000000,101.000000,1,0,0.000248,-0.003968,0,0.000000,0.000000,0.000000,-0.149033,-0.012863,0.000000,0.000000,0.001000,0.003000,FlatInitial
10:41:53.612 AM 02/13/2016,Teleop Disabled,0,TRUE,-44087,NetComm_CAN_Receive.vi:5470006<APPEND>  <b>Complete call chain:</b>      NetComm_CAN_Receive.vi:5470006      WPI_CANTalonSRX_Receive.vi      WPI_MotorControlOpenCANTalonSRX.vi      Begin.vi      Robot Main.vi,0.000000,0.000000,0.000000,0.000000,Speed,Speed,0.080000,1.110000,2.750000,0.000000,101.000000,1,0,0.000248,-0.003968,0,0.000000,0.000000,0.000000,-0.149033,-0.012863,0.000000,0.000000,0.001000,0.003000,FlatInitial
10:41:53.713 AM 02/13/2016,Teleop Disabled,0,TRUE,-44087,NetComm_CAN_Receive.vi:5470006<APPEND>  <b>Complete call chain:</b>      NetComm_CAN_Receive.vi:5470006      WPI_CANTalonSRX_Receive.vi      WPI_MotorControlOpenCANTalonSRX.vi      Begin.vi      Robot Main.vi,0.000000,0.000000,0.000000,0.000000,Speed,Speed,0.080000,1.110000,2.750000,0.000000,101.000000,1,0,0.000248,-0.003968,0,0.000000,0.000000,0.000000,-0.149033,-0.012863,0.000000,0.000000,0.001000,0.003000,FlatInitial
10:41:53.813 AM 02/13/2016,Teleop Disabled,0,TRUE,-44087,NetComm_CAN_Receive.vi:5470006<APPEND>  <b>Complete call chain:</b>      NetComm_CAN_Receive.vi:5470006      WPI_CANTalonSRX_Receive.vi      WPI_MotorControlOpenCANTalonSRX.vi      Begin.vi      Robot Main.vi,0.000000,0.000000,0.000000,0.000000,Speed,Speed,0.080000,1.110000,2.750000,0.000000,102.000000,1,0,0.000248,-0.003968,0,0.000000,0.000000,0.000000,-0.149033,-0.012863,0.000000,0.000000,0.001000,0.003000,FlatInitial
10:41:53.913 AM 02/13/2016,Teleop Disabled,0,TRUE,-44087,NetComm_CAN_Receive.vi:5470006<APPEND>  <b>Complete call chain:</b>      NetComm_CAN_Receive.vi:5470006      WPI_CANTalonSRX_Receive.vi      WPI_MotorControlOpenCANTalonSRX.vi      Begin.vi      Robot Main.vi,0.000000,0.000000,0.000000,0.000000,Speed,Speed,0.080000,1.110000,2.750000,0.000000,102.000000,1,0,0.000248,-0.003968,0,0.000000,0.000000,0.000000,-0.149033,-0.012863,0.000000,0.000000,0.001000,0.003000,FlatInitial
10:41:54.012 AM 02/13/2016,Teleop Disabled,0,TRUE,-44087,NetComm_CAN_Receive.vi:5470006<APPEND>  <b>Complete call chain:</b>      NetComm_CAN_Receive.vi:5470006      WPI_CANTalonSRX_Receive.vi      WPI_CANTalonSRX_GetStatus.vi      ShooterVI.vi      Periodic Tasks.vi      Robot Main.vi,0.000000,0.000000,0.000000,0.000000,Speed,Speed,0.080000,1.110000,2.750000,0.000000,101.000000,1,0,0.000248,-0.003968,0,0.000000,0.000000,0.000000,-0.149033,-0.012863,0.000000,0.000000,0.001000,0.003000,FlatInitial
10:41:54.114 AM 02/13/2016,Teleop Disabled,0,TRUE,-44087,NetComm_CAN_Receive.vi:5470006<APPEND>  <b>Complete call chain:</b>      NetComm_CAN_Receive.vi:5470006      WPI_CANTalonSRX_Receive.vi      WPI_CANTalonSRX_GetStatus.vi      ShooterVI.vi      Periodic Tasks.vi      Robot Main.vi,0.000000,0.000000,0.000000,0.000000,Speed,Speed,0.080000,1.110000,2.750000,0.000000,101.000000,1,0,0.000248,-0.003968,0,0.000000,0.000000,0.000000,-0.149033,-0.012863,0.000000,0.000000,0.001000,0.003000,FlatInitial
10:41:54.214 AM 02/13/2016,Teleop Disabled,0,FALSE,0,NO ERROR,0.000000,0.000000,0.000000,0.000000,Speed,Speed,0.080000,1.110000,2.750000,0.000000,103.000000,1,0,0.000248,-0.003968,0,0.000000,0.000000,0.000000,-0.149033,-0.012863,0.000000,0.000000,0.001000,0.003000,FlatInitial
10:41:54.313 AM 02/13/2016,Teleop Disabled,0,FALSE,0,NO ERROR,0.000000,0.000000,0.000000,0.000000,Speed,Speed,0.080000,1.110000,2.750000,0.000000,103.000000,1,0,0.000248,-0.003968,0,0.000000,0.000000,0.000000,-0.149033,-0.012863,0.000000,0.000000,0.001000,0.003000,FlatInitial
10:41:54.414 AM 02/13/2016,Teleop Disabled,0,FALSE,0,NO ERROR,0.000000,0.000000,0.000000,0.000000,Speed,Speed,0.080000,1.110000,2.750000,0.000000,100.000000,1,0,0.000248,-0.003968,0,0.000000,0.000000,0.000000,-0.149033,-0.012863,0.000000,0.000000,0.001000,0.003000,FlatInitial
10:41:54.514 AM 02/13/2016,Teleop Disabled,0,FALSE,0,NO ERROR,0.000000,0.000000,0.000000,0.000000,Speed,Speed,0.080000,1.110000,2.750000,0.000000,102.000000,1,0,0.000248,-0.003968,0,0.000000,0.000000,0.000000,-0.149033,-0.012863,0.000000,0.000000,0.001000,0.003000,FlatInitial
10:41:54.614 AM 02/13/2016,Teleop Disabled,0,FALSE,0,NO ERROR,0.000000,0.000000,0.000000,0.000000,Speed,Speed,0.080000,1.110000,2.750000,0.000000,101.000000,1,0,0.000248,-0.003968,0,0.000000,0.000000,0.000000,-0.149033,-0.012863,0.000000,0.000000,0.001000,0.003000,FlatInitial
10:41:54.714 AM 02/13/2016,Teleop Disabled,0,FALSE,0,NO ERROR,0.000000,0.000000,0.000000,0.000000,Speed,Speed,0.080000,1.110000,2.750000,0.000000,101.000000,1,0,0.000248,-0.003968,0,0.000000,0.000000,0.000000,-0.149033,-0.012863,0.000000,0.000000,0.001000,0.003000,FlatInitial
10:41:54.814 AM 02/13/2016,Teleop Disabled,0,FALSE,0,NO ERROR,0.000000,0.000000,0.000000,0.000000,Speed,Speed,0.080000,1.110000,2.750000,0.000000,101.000000,1,0,0.000248,-0.003968,0,0.000000,0.000000,0.000000,-0.149033,-0.012863,0.000000,0.000000,0.001000,0.003000,FlatInitial
10:41:54.914 AM 02/13/2016,Teleop Disabled,0,FALSE,0,NO ERROR,0.000000,0.000000,0.000000,0.000000,Speed,Speed,0.080000,1.110000,2.750000,0.000000,101.000000,1,0,0.000248,-0.003968,0,0.000000,0.000000,0.000000,-0.149033,-0.012863,0.000000,0.000000,0.001000,0.003000,FlatInitial
10:41:55.014 AM 02/13/2016,Teleop Disabled,0,FALSE,0,NO ERROR,0.000000,0.000000,0.000000,0.000000,Speed,Speed,0.080000,1.110000,2.750000,0.000000,102.000000,1,0,0.000248,-0.003968,0,0.000000,0.000000,0.000000,-0.149033,-0.012863,0.000000,0.000000,0.001000,0.003000,FlatInitial
10:41:55.115 AM 02/13/2016,Teleop Disabled,0,FALSE,0,NO ERROR,0.000000,0.000000,0.000000,0.000000,Speed,Speed,0.080000,1.110000,2.750000,0.000000,101.000000,1,0,0.000248,-0.003968,0,0.000000,0.000000,0.000000,-0.149033,-0.012863,0.000000,0.000000,0.001000,0.003000,FlatInitial
10:41:55.215 AM 02/13/2016,Teleop Disabled,0,FALSE,0,NO ERROR,0.000000,0.000000,0.000000,0.000000,Speed,Speed,0.080000,1.110000,2.750000,0.000000,101.000000,1,0,0.000248,-0.003968,0,0.000000,0.000000,0.000000,-0.149033,-0.012863,0.000000,0.000000,0.001000,0.003000,FlatInitial
10:41:55.315 AM 02/13/2016,Teleop Disabled,0,FALSE,0,NO ERROR,0.000000,0.000000,0.000000,0.000000,Speed,Speed,0.080000,1.110000,2.750000,0.000000,101.000000,1,0,0.000248,-0.003968,0,0.000000,0.000000,0.000000,-0.149033,-0.012863,0.000000,0.000000,0.001000,0.003000,FlatInitial
10:41:55.414 AM 02/13/2016,Teleop Disabled,0,FALSE,0,NO ERROR,0.000000,0.000000,0.000000,0.000000,Speed,Speed,0.080000,1.110000,2.750000,0.000000,101.000000,1,0,0.000248,-0.003968,0,0.000000,0.000000,0.000000,-0.149033,-0.012863,0.000000,0.000000,0.001000,0.003000,FlatInitial
10:41:55.515 AM 02/13/2016,Teleop Disabled,0,FALSE,0,NO ERROR,0.000000,0.000000,0.000000,0.000000,Speed,Speed,0.080000,1.110000,2.750000,0.000000,102.000000,1,0,0.000248,-0.003968,0,0.000000,0.000000,0.000000,-0.149033,-0.012863,0.000000,0.000000,0.001000,0.003000,FlatInitial
10:41:55.616 AM 02/13/2016,Teleop Disabled,0,FALSE,0,NO ERROR,0.000000,0.000000,0.000000,0.000000,Speed,Speed,0.080000,1.110000,2.750000,0.000000,102.000000,1,0,0.000248,-0.003968,0,0.000000,0.000000,0.000000,-0.149033,-0.012863,0.000000,0.000000,0.001000,0.003000,FlatInitial
10:41:55.716 AM 02/13/2016,Teleop Disabled,0,FALSE,0,NO ERROR,0.000000,0.000000,0.000000,0.000000,Speed,Speed,0.080000,1.110000,2.750000,0.000000,103.000000,1,0,0.000248,-0.003968,0,0.000000,0.000000,0.000000,-0.149033,-0.012863,0.000000,0.000000,0.001000,0.003000,FlatInitial
10:41:55.816 AM 02/13/2016,Teleop Disabled,0,FALSE,0,NO ERROR,0.000000,0.000000,0.000000,0.000000,Speed,Speed,0.080000,1.110000,2.750000,0.000000,100.000000,1,0,0.000248,-0.003968,0,0.000000,0.000000,0.000000,-0.149033,-0.012863,0.000000,0.000000,0.001000,0.003000,FlatInitial
10:41:55.917 AM 02/13/2016,Teleop Disabled,0,FALSE,0,NO ERROR,0.000000,0.000000,0.000000,0.000000,Speed,Speed,0.080000,1.110000,2.750000,0.000000,101.000000,1,0,0.000248,-0.003968,0,0.000000,0.000000,0.000000,-0.149033,-0.012863,0.000000,0.000000,0.001000,0.003000,FlatInitial
10:41:56.017 AM 02/13/2016,Teleop Disabled,0,FALSE,0,NO ERROR,0.000000,0.000000,0.000000,0.000000,Speed,Speed,0.080000,1.110000,2.750000,0.000000,102.000000,1,0,0.000248,-0.003968,0,0.000000,0.000000,0.000000,-0.149033,-0.012863,0.000000,0.000000,0.001000,0.003000,FlatInitial
10:41:56.117 AM 02/13/2016,Teleop Disabled,0,FALSE,0,NO ERROR,0.000000,0.000000,-6000.000000,-6000.000000,Speed,Speed,0.080000,1.110000,2.750000,1.000000,102.000000,1,0,0.000248,-0.003968,0,0.000000,0.000000,0.000000,-0.149033,-0.012863,0.000000,0.000000,0.001000,0.003000,FlatInitial
10:41:56.218 AM 02/13/2016,Teleop Disabled,0,FALSE,0,NO ERROR,0.000000,0.000000,0.000000,0.000000,Speed,Speed,0.080000,1.110000,2.750000,2.000000,101.000000,1,0,0.000248,-0.003968,0,0.000000,0.000000,0.000000,-0.149033,-0.012863,0.000000,0.000000,0.001000,0.003000,FlatInitial
10:41:56.318 AM 02/13/2016,Teleop Disabled,0,FALSE,0,NO ERROR,0.000000,0.000000,0.000000,0.000000,Speed,Speed,0.080000,1.110000,2.750000,2.000000,101.000000,1,0,0.000248,-0.003968,0,0.000000,0.000000,0.000000,-0.149033,-0.012863,0.000000,0.000000,0.001000,0.003000,FlatInitial
10:41:56.418 AM 02/13/2016,Teleop Disabled,0,FALSE,0,NO ERROR,0.000000,0.000000,0.000000,0.000000,Speed,Speed,0.080000,1.110000,2.750000,2.000000,101.000000,1,0,0.000248,-0.003968,0,0.000000,0.000000,0.000000,-0.149033,-0.012863,0.000000,0.000000,0.001000,0.003000,FlatInitial
10:41:56.519 AM 02/13/2016,Teleop Disabled,0,FALSE,0,NO ERROR,0.000000,0.000000,0.000000,0.000000,Speed,Speed,0.080000,1.110000,2.750000,2.000000,101.000000,1,0,0.000248,-0.003968,0,0.000000,0.000000,0.000000,-0.149033,-0.012863,0.000000,0.000000,0.001000,0.003000,FlatInitial
10:41:56.619 AM 02/13/2016,Teleop Disabled,0,FALSE,0,NO ERROR,0.000000,0.000000,0.000000,0.000000,Speed,Speed,0.080000,1.110000,2.750000,2.000000,103.000000,1,0,0.000248,-0.003968,0,0.000000,0.000000,0.000000,-0.149033,-0.012863,0.000000,0.000000,0.001000,0.003000,FlatInitial
10:41:56.719 AM 02/13/2016,Teleop Disabled,0,FALSE,0,NO ERROR,0.000000,0.000000,0.000000,0.000000,Speed,Speed,0.080000,1.110000,2.750000,2.000000,101.000000,1,0,0.000248,-0.003968,0,0.000000,0.000000,0.000000,-0.149033,-0.012863,0.000000,0.000000,0.001000,0.003000,FlatInitial
10:41:56.819 AM 02/13/2016,Teleop Disabled,0,FALSE,0,NO ERROR,0.000000,0.000000,0.000000,0.000000,Speed,Speed,0.080000,1.110000,2.750000,2.000000,102.000000,1,0,0.000248,-0.003968,0,0.000000,0.000000,0.000000,-0.149033,-0.012863,0.000000,0.000000,0.001000,0.003000,FlatInitial
10:41:56.919 AM 02/13/2016,Teleop Disabled,0,FALSE,0,NO ERROR,0.000000,0.000000,0.000000,0.000000,Speed,Speed,0.080000,1.110000,2.750000,2.000000,102.000000,1,0,0.000248,-0.003968,0,0.000000,0.000000,0.000000,-0.149033,-0.012863,0.000000,0.000000,0.001000,0.003000,FlatInitial
10:41:57.019 AM 02/13/2016,Teleop Disabled,0,FALSE,0,NO ERROR,0.000000,0.000000,0.000000,0.000000,Speed,Speed,0.080000,1.110000,2.750000,2.000000,101.000000,1,0,0.000248,-0.003968,0,0.000000,0.000000,0.000000,-0.149033,-0.012863,0.000000,0.000000,0.001000,0.003000,FlatInitial
10:41:57.119 AM 02/13/2016,Teleop Disabled,0,FALSE,0,NO ERROR,0.000000,0.000000,0.000000,0.000000,Speed,Speed,0.080000,1.110000,2.750000,2.000000,102.000000,1,0,0.000248,-0.003968,0,0.000000,0.000000,0.000000,-0.149033,-0.012863,0.000000,0.000000,0.001000,0.003000,FlatInitial
10:41:57.219 AM 02/13/2016,Teleop Disabled,0,FALSE,0,NO ERROR,0.000000,0.000000,0.000000,0.000000,Speed,Speed,0.080000,1.110000,2.750000,2.000000,104.000000,1,0,0.000248,-0.003968,0,0.000000,0.000000,0.000000,-0.149033,-0.012863,0.000000,0.000000,0.001000,0.003000,FlatInitial
10:41:57.318 AM 02/13/2016,Teleop Disabled,0,FALSE,0,NO ERROR,0.000000,0.000000,0.000000,0.000000,Speed,Speed,0.080000,1.110000,2.750000,2.000000,101.000000,1,0,0.000248,-0.003968,0,0.000000,0.000000,0.000000,-0.149033,-0.012863,0.000000,0.000000,0.001000,0.003000,FlatInitial
10:41:57.419 AM 02/13/2016,Teleop Disabled,0,FALSE,0,NO ERROR,0.000000,0.000000,4000.000000,4000.000000,Speed,Speed,0.080000,1.110000,2.750000,3.000000,101.000000,1,0,0.000248,-0.003968,0,0.000000,0.000000,0.000000,-0.149033,-0.012863,0.000000,0.000000,0.001000,0.003000,FlatInitial
10:41:57.519 AM 02/13/2016,Teleop Disabled,0,FALSE,0,NO ERROR,0.000000,0.000000,4000.000000,4000.000000,Speed,Speed,0.080000,1.110000,2.750000,3.000000,101.000000,1,0,0.000248,-0.003968,0,0.000000,0.000000,0.000000,-0.149033,-0.012863,0.000000,0.000000,0.001000,0.003000,FlatInitial
10:41:57.619 AM 02/13/2016,Teleop Disabled,0,FALSE,0,NO ERROR,0.000000,0.000000,4000.000000,4000.000000,Speed,Speed,0.080000,1.110000,2.750000,3.000000,100.000000,1,0,0.000248,-0.003968,0,0.000000,0.000000,0.000000,-0.149033,-0.012863,0.000000,0.000000,0.001000,0.003000,FlatInitial
10:41:57.719 AM 02/13/2016,Teleop Disabled,0,FALSE,0,NO ERROR,0.000000,0.000000,4000.000000,4000.000000,Speed,Speed,0.080000,1.110000,2.750000,3.000000,101.000000,1,0,0.000248,-0.003968,0,0.000000,0.000000,0.000000,-0.149033,-0.012863,0.000000,0.000000,0.001000,0.003000,FlatInitial
10:41:57.828 AM 02/13/2016,Teleop Disabled,0,TRUE,-44003,<LOCATION>WPI_CameraIssue HTTP Request with Authentication.vi<CALLSTACK>WPI_CameraIssue HTTP Request with Authentication.vi< <WPI_CameraIssue Get.vi< <WPI_CameraSet Image Appearance Property.vi< <WPI_CameraSet Image Size.vi< <Vision Processing.vi< <Robot Main.vi,0.000000,0.000000,4000.000000,4000.000000,Speed,Speed,0.080000,1.110000,2.750000,3.000000,101.000000,1,0,0.000248,-0.003968,0,0.000000,0.000000,0.000000,-0.149033,-0.012863,0.000000,0.000000,0.001000,0.003000,FlatInitial
10:41:57.929 AM 02/13/2016,Teleop Disabled,0,FALSE,0,NO ERROR,0.000000,0.000000,4000.000000,4000.000000,Speed,Speed,-0.020000,1.130000,2.740000,3.000000,101.000000,1,0,0.000248,-0.003968,0,0.000000,0.000000,0.000000,-0.146942,-0.011810,0.000000,0.000000,0.003000,-0.002000,FlatInitial
10:41:58.029 AM 02/13/2016,Teleop Disabled,0,FALSE,0,NO ERROR,0.000000,0.000000,4000.000000,4000.000000,Speed,Speed,-0.020000,1.130000,2.740000,3.000000,101.000000,1,0,0.000248,-0.003968,0,0.000000,0.000000,0.000000,-0.146942,-0.011810,0.000000,-0.001000,0.001000,-0.004000,FlatInitial
10:41:58.131 AM 02/13/2016,Teleop Disabled,0,FALSE,0,NO ERROR,0.000000,0.000000,4000.000000,4000.000000,Speed,Speed,-0.020000,1.120000,2.740000,3.000000,101.000000,1,0,0.000248,-0.003968,0,0.000000,0.000000,0.000000,-0.146942,-0.011810,0.000000,0.000000,0.002000,0.004000,FlatInitial
10:41:58.232 AM 02/13/2016,Teleop Disabled,0,FALSE,0,NO ERROR,0.000000,0.000000,4000.000000,4000.000000,Speed,Speed,-0.020000,1.120000,2.750000,3.000000,103.000000,1,0,0.000248,-0.003968,0,0.000000,0.000000,0.000000,-0.146942,-0.011810,0.000000,0.000000,-0.001000,-0.002000,FlatInitial
10:41:58.332 AM 02/13/2016,Teleop Disabled,0,FALSE,0,NO ERROR,0.000000,0.000000,4000.000000,4000.000000,Speed,Speed,-0.020000,1.120000,2.750000,3.000000,102.000000,1,0,0.000248,-0.003968,0,0.000000,0.000000,0.000000,-0.146942,-0.011810,0.000000,0.000000,-0.002000,0.001000,FlatInitial
10:41:58.432 AM 02/13/2016,Teleop Disabled,0,FALSE,0,NO ERROR,0.000000,0.000000,4000.000000,4000.000000,Speed,Speed,-0.020000,1.120000,2.750000,3.000000,102.000000,1,0,0.000248,-0.003968,0,0.000000,0.000000,0.000000,-0.146942,-0.011810,0.000000,-0.002000,0.000000,0.001000,FlatInitial
10:41:58.533 AM 02/13/2016,Teleop Disabled,0,FALSE,0,NO ERROR,0.000000,0.000000,4000.000000,4000.000000,Speed,Speed,-0.020000,1.120000,2.750000,3.000000,103.000000,1,0,0.000248,-0.003968,0,0.000000,0.000000,0.000000,-0.146942,-0.011810,0.000000,0.002000,0.000000,-0.002000,FlatInitial
10:41:58.632 AM 02/13/2016,Teleop Disabled,0,FALSE,0,NO ERROR,0.000000,0.000000,4000.000000,4000.000000,Speed,Speed,-0.020000,1.120000,2.750000,3.000000,102.000000,1,0,0.000248,-0.003968,0,0.000000,0.000000,0.000000,-0.146942,-0.011810,0.000000,0.000000,0.001000,-0.006000,FlatInitial
10:41:58.733 AM 02/13/2016,Teleop Disabled,0,FALSE,0,NO ERROR,0.000000,0.000000,4000.000000,4000.000000,Speed,Speed,-0.020000,1.120000,2.750000,3.000000,102.000000,1,0,0.000248,-0.003968,0,0.000000,0.000000,0.000000,-0.146942,-0.011810,0.000000,0.000000,0.002000,-0.002000,FlatInitial
10:41:58.834 AM 02/13/2016,Teleop Disabled,0,FALSE,0,NO ERROR,0.000000,0.000000,4000.000000,4000.000000,Speed,Speed,-0.030000,1.130000,2.750000,3.000000,102.000000,1,0,0.000248,-0.003968,0,0.000000,0.000000,0.000000,-0.146942,-0.011810,0.000000,-0.001000,0.000000,-0.006000,FlatInitial
10:41:58.934 AM 02/13/2016,Teleop Disabled,0,FALSE,0,NO ERROR,0.000000,0.000000,4000.000000,4000.000000,Speed,Speed,-0.030000,1.130000,2.750000,3.000000,103.000000,1,0,0.000248,-0.003968,0,0.000000,0.000000,0.000000,-0.146942,-0.011810,0.000000,0.000000,-0.002000,-0.002000,FlatInitial
10:41:59.034 AM 02/13/2016,Teleop Disabled,0,FALSE,0,NO ERROR,0.000000,0.000000,4000.000000,4000.000000,Speed,Speed,-0.030000,1.130000,2.750000,3.000000,102.000000,1,0,0.000248,-0.003968,0,0.000000,0.000000,0.000000,-0.146942,-0.011810,0.000000,0.000000,0.000000,-0.001000,FlatInitial
10:41:59.134 AM 02/13/2016,Teleop Disabled,0,FALSE,0,NO ERROR,0.000000,0.000000,4000.000000,4000.000000,Speed,Speed,-0.030000,1.130000,2.750000,3.000000,103.000000,1,0,0.000248,-0.003968,0,0.000000,0.000000,0.000000,-0.146942,-0.011810,0.000000,-0.003000,0.000000,0.000000,FlatInitial
10:41:59.235 AM 02/13/2016,Teleop Disabled,0,FALSE,0,NO ERROR,0.000000,0.000000,4000.000000,4000.000000,Speed,Speed,-0.030000,1.130000,2.750000,3.000000,102.000000,1,0,0.000248,-0.003968,0,0.000000,0.000000,0.000000,-0.146942,-0.011810,0.000000,0.000000,-0.001000,-0.003000,FlatInitial
10:41:59.336 AM 02/13/2016,Teleop Disabled,0,FALSE,0,NO ERROR,0.000000,0.000000,4000.000000,4000.000000,Speed,Speed,-0.030000,1.130000,2.750000,3.000000,102.000000,1,0,0.000248,-0.003968,0,0.000000,0.000000,0.000000,-0.146942,-0.011810,0.000000,-0.002000,0.000000,-0.002000,FlatInitial
10:41:59.436 AM 02/13/2016,Teleop Disabled,0,FALSE,0,NO ERROR,0.000000,0.000000,4000.000000,4000.000000,Speed,Speed,-0.030000,1.120000,2.740000,3.000000,101.000000,1,0,0.000248,-0.003968,0,0.000000,0.000000,0.000000,-0.146942,-0.011810,0.000000,-0.001000,0.001000,0.004000,FlatInitial
10:41:59.536 AM 02/13/2016,Teleop Disabled,0,FALSE,0,NO ERROR,0.000000,0.000000,4000.000000,4000.000000,Speed,Speed,-0.040000,1.130000,2.750000,3.000000,102.000000,1,0,0.000248,-0.003968,0,0.000000,0.000000,0.000000,-0.146942,-0.011810,0.000000,0.005000,0.000000,0.004000,FlatInitial
10:41:59.637 AM 02/13/2016,Teleop Disabled,0,FALSE,0,NO ERROR,0.000000,0.000000,4000.000000,4000.000000,Speed,Speed,-0.040000,1.120000,2.740000,3.000000,104.000000,1,0,0.000248,-0.003968,0,0.000000,0.000000,0.000000,-0.146942,-0.011810,0.000000,0.009000,-0.004000,0.003000,FlatInitial
10:41:59.738 AM 02/13/2016,Teleop Disabled,0,FALSE,0,NO ERROR,0.000000,0.000000,4000.000000,4000.000000,Speed,Speed,-0.040000,1.120000,2.730000,3.000000,102.000000,1,0,0.000248,-0.003968,0,0.000000,0.000000,0.000000,-0.146942,-0.011810,0.000000,-0.001000,0.002000,-0.004000,FlatInitial
10:41:59.838 AM 02/13/2016,Teleop Disabled,0,FALSE,0,NO ERROR,0.000000,0.000000,4000.000000,4000.000000,Speed,Speed,-0.040000,1.120000,2.730000,3.000000,102.000000,1,0,0.000248,-0.003968,0,0.000000,0.000000,0.000000,-0.146942,-0.011810,0.000000,-0.002000,0.001000,0.002000,FlatInitial
10:41:59.939 AM 02/13/2016,Teleop Disabled,0,FALSE,0,NO ERROR,0.000000,0.000000,4000.000000,4000.000000,Speed,Speed,-0.040000,1.120000,2.750000,3.000000,101.000000,1,0,0.000248,-0.003968,0,0.000000,0.000000,0.000000,-0.146942,-0.011810,0.000000,-0.001000,-0.001000,0.001000,FlatInitial
10:42:00.040 AM 02/13/2016,Teleop Disabled,0,FALSE,0,NO ERROR,0.000000,0.000000,4000.000000,4000.000000,Speed,Speed,-0.040000,1.120000,2.740000,3.000000,101.000000,1,0,0.000248,-0.003968,0,0.000000,0.000000,0.000000,-0.146942,-0.011810,0.000000,-0.001000,-0.001000,-0.002000,FlatInitial
10:42:00.141 AM 02/13/2016,Teleop Disabled,0,FALSE,0,NO ERROR,0.000000,0.000000,4000.000000,4000.000000,Speed,Speed,-0.040000,1.120000,2.740000,3.000000,101.000000,1,0,0.000248,-0.003968,0,0.000000,0.000000,0.000000,-0.146942,-0.011810,0.000000,0.002000,0.000000,0.000000,FlatInitial
10:42:00.241 AM 02/13/2016,Teleop Disabled,0,FALSE,0,NO ERROR,0.000000,0.000000,4000.000000,4000.000000,Speed,Speed,-0.040000,1.120000,2.740000,3.000000,102.000000,1,0,0.000248,-0.003968,0,0.000000,0.000000,0.000000,-0.146942,-0.011810,0.000000,0.003000,-0.001000,-0.003000,FlatInitial
10:42:00.341 AM 02/13/2016,Teleop Disabled,0,FALSE,0,NO ERROR,0.000000,0.000000,4000.000000,4000.000000,Speed,Speed,-0.030000,1.120000,2.740000,3.000000,105.000000,1,0,0.000248,-0.003968,0,0.000000,0.000000,0.000000,-0.146942,-0.011810,0.000000,-0.001000,-0.001000,-0.003000,FlatInitial
10:42:00.442 AM 02/13/2016,Teleop Disabled,0,FALSE,0,NO ERROR,0.000000,0.000000,4000.000000,4000.000000,Speed,Speed,-0.040000,1.120000,2.740000,3.000000,102.000000,1,0,0.000248,-0.003968,0,0.000000,0.000000,0.000000,-0.146942,-0.011810,0.000000,0.002000,0.000000,-0.002000,FlatInitial
10:42:00.542 AM 02/13/2016,Teleop Disabled,0,FALSE,0,NO ERROR,0.000000,0.000000,4000.000000,4000.000000,Speed,Speed,-0.040000,1.120000,2.750000,3.000000,101.000000,1,0,0.000248,-0.003968,0,0.000000,0.000000,0.000000,-0.146942,-0.011810,0.000000,0.000000,0.000000,-0.002000,FlatInitial
10:42:00.642 AM 02/13/2016,Teleop Disabled,0,FALSE,0,NO ERROR,0.000000,0.000000,4000.000000,4000.000000,Speed,Speed,-0.040000,1.120000,2.740000,3.000000,101.000000,1,0,0.000248,-0.003968,0,0.000000,0.000000,0.000000,-0.146942,-0.011810,0.000000,0.000000,0.002000,-0.001000,FlatInitial
10:42:00.742 AM 02/13/2016,Teleop Disabled,0,FALSE,0,NO ERROR,0.000000,0.000000,4000.000000,4000.000000,Speed,Speed,-0.040000,1.120000,2.740000,3.000000,101.000000,1,0,0.000248,-0.003968,0,0.000000,0.000000,0.000000,-0.146942,-0.011810,0.000000,0.004000,-0.002000,0.000000,FlatInitial
10:42:00.842 AM 02/13/2016,Teleop Disabled,0,FALSE,0,NO ERROR,0.000000,0.000000,4000.000000,4000.000000,Speed,Speed,-0.040000,1.120000,2.740000,3.000000,101.000000,1,0,0.000248,-0.003968,0,0.000000,0.000000,0.000000,-0.146942,-0.011810,0.000000,0.000000,0.000000,-0.001000,FlatInitial
10:42:00.942 AM 02/13/2016,Teleop Disabled,0,FALSE,0,NO ERROR,0.000000,0.000000,4000.000000,4000.000000,Speed,Speed,-0.040000,1.120000,2.740000,3.000000,101.000000,1,0,0.000248,-0.003968,0,0.000000,0.000000,0.000000,-0.146942,-0.011810,0.000000,0.000000,0.000000,-0.002000,FlatInitial
10:42:01.042 AM 02/13/2016,Teleop Disabled,0,FALSE,0,NO ERROR,0.000000,0.000000,4000.000000,4000.000000,Speed,Speed,-0.040000,1.120000,2.750000,3.000000,104.000000,1,0,0.000248,-0.003968,0,0.000000,0.000000,0.000000,-0.146942,-0.011810,0.000000,0.002000,-0.004000,0.001000,FlatInitial
10:42:01.142 AM 02/13/2016,Teleop Disabled,0,FALSE,0,NO ERROR,0.000000,0.000000,4000.000000,4000.000000,Speed,Speed,-0.040000,1.120000,2.740000,3.000000,104.000000,1,0,0.000248,-0.003968,0,0.000000,0.000000,0.000000,-0.146942,-0.011810,0.000000,0.000000,0.000000,0.003000,FlatInitial
10:42:01.242 AM 02/13/2016,Teleop Disabled,0,FALSE,0,NO ERROR,0.000000,0.000000,4000.000000,4000.000000,Speed,Speed,-0.040000,1.120000,2.740000,3.000000,102.000000,1,0,0.000248,-0.003968,0,0.000000,0.000000,0.000000,-0.146942,-0.011810,0.000000,0.001000,0.004000,-0.001000,FlatInitial
10:42:01.342 AM 02/13/2016,Teleop Disabled,0,FALSE,0,NO ERROR,0.000000,0.000000,4000.000000,4000.000000,Speed,Speed,-0.050000,1.130000,2.750000,3.000000,102.000000,1,0,0.000248,-0.003968,0,0.000000,0.000000,0.000000,-0.146942,-0.011810,0.000000,-0.006000,0.000000,0.001000,FlatInitial
10:42:01.442 AM 02/13/2016,Teleop Disabled,0,FALSE,0,NO ERROR,0.000000,0.000000,4000.000000,4000.000000,Speed,Speed,-0.050000,1.120000,2.750000,3.000000,101.000000,1,0,0.000248,-0.003968,0,0.000000,0.000000,0.000000,-0.146942,-0.011810,0.000000,0.002000,-0.002000,0.004000,FlatInitial
10:42:01.542 AM 02/13/2016,Teleop Disabled,0,FALSE,0,NO ERROR,0.000000,0.000000,4000.000000,4000.000000,Speed,Speed,-0.040000,1.110000,2.740000,3.000000,104.000000,1,0,0.000248,-0.003968,0,0.000000,0.000000,0.000000,-0.146942,-0.011810,0.000000,-0.003000,-0.002000,0.000000,FlatInitial
10:42:01.642 AM 02/13/2016,Teleop Disabled,0,FALSE,0,NO ERROR,0.000000,0.000000,4000.000000,4000.000000,Speed,Speed,-0.040000,1.110000,2.750000,3.000000,101.000000,1,0,0.000248,-0.003968,0,0.000000,0.000000,0.000000,-0.146942,-0.011810,0.000000,0.003000,0.000000,-0.002000,FlatInitial
10:42:01.742 AM 02/13/2016,Teleop Disabled,0,FALSE,0,NO ERROR,0.000000,0.000000,4000.000000,4000.000000,Speed,Speed,-0.040000,1.120000,2.750000,3.000000,102.000000,1,0,0.000248,-0.003968,0,0.000000,0.000000,0.000000,-0.146942,-0.011810,0.000000,0.002000,-0.004000,0.000000,FlatInitial
10:42:01.842 AM 02/13/2016,Teleop Disabled,0,FALSE,0,NO ERROR,0.000000,0.000000,4000.000000,4000.000000,Speed,Speed,-0.030000,1.100000,2.750000,3.000000,102.000000,1,0,0.000248,-0.003968,0,0.000000,0.000000,0.000000,-0.146942,-0.011810,0.000000,-0.004000,0.001000,-0.002000,FlatInitial
10:42:01.943 AM 02/13/2016,Teleop Disabled,0,FALSE,0,NO ERROR,0.000000,0.000000,4000.000000,4000.000000,Speed,Speed,-0.040000,1.130000,2.760000,3.000000,102.000000,1,0,0.000248,-0.003968,0,0.000000,0.000000,0.000000,-0.146942,-0.011810,0.000000,-0.004000,0.002000,0.000000,FlatInitial
10:42:02.042 AM 02/13/2016,Teleop Disabled,0,FALSE,0,NO ERROR,0.000000,0.000000,4000.000000,4000.000000,Speed,Speed,-0.040000,1.110000,2.750000,3.000000,102.000000,1,0,0.000248,-0.003968,0,0.000000,0.000000,0.000000,-0.146942,-0.011810,0.000000,0.005000,-0.005000,-0.004000,FlatInitial
10:42:02.142 AM 02/13/2016,Teleop Disabled,0,FALSE,0,NO ERROR,0.000000,0.000000,4000.000000,4000.000000,Speed,Speed,-0.040000,1.130000,2.750000,3.000000,101.000000,1,0,0.000248,-0.003968,0,0.000000,0.000000,0.000000,-0.146942,-0.011810,0.000000,-0.004000,0.005000,-0.003000,FlatInitial
10:42:02.242 AM 02/13/2016,Teleop Disabled,0,FALSE,0,NO ERROR,0.000000,0.000000,4000.000000,4000.000000,Speed,Speed,-0.030000,1.110000,2.750000,3.000000,105.000000,1,0,0.000248,-0.003968,0,0.000000,0.000000,0.000000,-0.146942,-0.011810,0.000000,0.004000,-0.002000,0.004000,FlatInitial
10:42:02.342 AM 02/13/2016,Teleop Disabled,0,FALSE,0,NO ERROR,0.000000,0.000000,4000.000000,4000.000000,Speed,Speed,-0.040000,1.120000,2.760000,3.000000,102.000000,1,0,0.000248,-0.003968,0,0.000000,0.000000,0.000000,-0.146942,-0.011810,0.000000,-0.004000,0.000000,-0.001000,FlatInitial
10:42:02.442 AM 02/13/2016,Teleop Disabled,0,FALSE,0,NO ERROR,0.000000,0.000000,4000.000000,4000.000000,Speed,Speed,-0.040000,1.110000,2.750000,3.000000,102.000000,1,0,0.000248,-0.003968,0,0.000000,0.000000,0.000000,-0.146942,-0.011810,0.000000,0.005000,-0.002000,0.001000,FlatInitial
10:42:02.542 AM 02/13/2016,Teleop Disabled,0,FALSE,0,NO ERROR,0.000000,0.000000,4000.000000,4000.000000,Speed,Speed,-0.040000,1.120000,2.750000,3.000000,106.000000,1,0,0.000248,-0.003968,0,0.000000,0.000000,0.000000,-0.146942,-0.011810,0.000000,-0.004000,-0.001000,-0.001000,FlatInitial
10:42:02.642 AM 02/13/2016,Teleop Disabled,0,FALSE,0,NO ERROR,0.000000,0.000000,4000.000000,4000.000000,Speed,Speed,-0.040000,1.120000,2.750000,3.000000,101.000000,1,0,0.000248,-0.003968,0,0.000000,0.000000,0.000000,-0.146942,-0.011810,0.000000,-0.002000,0.001000,-0.002000,FlatInitial
10:42:02.742 AM 02/13/2016,Teleop Disabled,0,FALSE,0,NO ERROR,0.000000,0.000000,4000.000000,4000.000000,Speed,Speed,-0.040000,1.120000,2.750000,3.000000,102.000000,1,0,0.000248,-0.003968,0,0.000000,0.000000,0.000000,-0.146942,-0.011810,0.000000,0.000000,-0.003000,0.000000,FlatInitial
10:42:02.842 AM 02/13/2016,Teleop Disabled,0,FALSE,0,NO ERROR,0.000000,0.000000,4000.000000,4000.000000,Speed,Speed,-0.040000,1.120000,2.750000,3.000000,101.000000,1,0,0.000248,-0.003968,0,0.000000,0.000000,0.000000,-0.146942,-0.011810,0.000000,0.000000,0.001000,-0.003000,FlatInitial
10:42:02.942 AM 02/13/2016,Teleop Disabled,0,FALSE,0,NO ERROR,0.000000,0.000000,4000.000000,4000.000000,Speed,Speed,-0.040000,1.120000,2.750000,3.000000,101.000000,1,0,0.000248,-0.003968,0,0.000000,0.000000,0.000000,-0.146942,-0.011810,0.000000,-0.003000,0.000000,-0.002000,FlatInitial
10:42:03.042 AM 02/13/2016,Teleop Disabled,0,FALSE,0,NO ERROR,0.000000,0.000000,4000.000000,4000.000000,Speed,Speed,-0.040000,1.120000,2.740000,3.000000,102.000000,1,0,0.000248,-0.003968,0,0.000000,0.000000,0.000000,-0.146942,-0.011810,0.000000,0.000000,0.003000,0.000000,FlatInitial
10:42:03.142 AM 02/13/2016,Teleop Disabled,0,FALSE,0,NO ERROR,0.000000,0.000000,4000.000000,4000.000000,Speed,Speed,-0.040000,1.120000,2.750000,3.000000,103.000000,1,0,0.000248,-0.003968,0,0.000000,0.000000,0.000000,-0.146942,-0.011810,0.000000,0.000000,-0.002000,0.001000,FlatInitial
10:42:03.242 AM 02/13/2016,Teleop Disabled,0,FALSE,0,NO ERROR,0.000000,0.000000,4000.000000,4000.000000,Speed,Speed,-0.040000,1.110000,2.740000,3.000000,100.000000,1,0,0.000248,-0.003968,0,0.000000,0.000000,0.000000,-0.146942,-0.011810,0.000000,-0.001000,0.000000,0.001000,FlatInitial
10:42:03.342 AM 02/13/2016,Teleop Disabled,0,FALSE,0,NO ERROR,0.000000,0.000000,4000.000000,4000.000000,Speed,Speed,-0.040000,1.120000,2.740000,3.000000,102.000000,1,0,0.000248,-0.003968,0,0.000000,0.000000,0.000000,-0.146942,-0.011810,0.000000,0.001000,0.000000,-0.001000,FlatInitial
10:42:03.442 AM 02/13/2016,Teleop Disabled,0,FALSE,0,NO ERROR,0.000000,0.000000,4000.000000,4000.000000,Speed,Speed,-0.040000,1.110000,2.750000,3.000000,101.000000,1,0,0.000248,-0.003968,0,0.000000,0.000000,0.000000,-0.146942,-0.011810,0.000000,0.004000,-0.002000,-0.002000,FlatInitial
10:42:03.542 AM 02/13/2016,Teleop Disabled,0,FALSE,0,NO ERROR,0.000000,0.000000,4000.000000,4000.000000,Speed,Speed,-0.040000,1.110000,2.740000,3.000000,101.000000,1,0,0.000248,-0.003968,0,0.000000,0.000000,0.000000,-0.146942,-0.011810,0.000000,-0.002000,0.000000,0.001000,FlatInitial
10:42:03.642 AM 02/13/2016,Teleop Disabled,0,FALSE,0,NO ERROR,0.000000,0.000000,4000.000000,4000.000000,Speed,Speed,-0.040000,1.110000,2.750000,3.000000,102.000000,1,0,0.000248,-0.003968,0,0.000000,0.000000,0.000000,-0.146942,-0.011810,0.000000,-0.001000,-0.003000,-0.002000,FlatInitial
10:42:03.742 AM 02/13/2016,Teleop Disabled,0,FALSE,0,NO ERROR,0.000000,0.000000,4000.000000,4000.000000,Speed,Speed,-0.050000,1.110000,2.750000,3.000000,101.000000,1,0,0.000248,-0.003968,0,0.000000,0.000000,0.000000,-0.146942,-0.011810,0.000000,-0.002000,0.002000,0.000000,FlatInitial
10:42:03.842 AM 02/13/2016,Teleop Disabled,0,FALSE,0,NO ERROR,0.000000,0.000000,4000.000000,4000.000000,Speed,Speed,-0.050000,1.110000,2.740000,3.000000,102.000000,1,0,0.000248,-0.003968,0,0.000000,0.000000,0.000000,-0.146942,-0.011810,0.000000,-0.002000,0.002000,0.000000,FlatInitial
10:42:03.942 AM 02/13/2016,Teleop Disabled,0,FALSE,0,NO ERROR,0.000000,0.000000,4000.000000,4000.000000,Speed,Speed,-0.060000,1.110000,2.740000,3.000000,101.000000,1,0,0.000248,-0.003968,0,0.000000,0.000000,0.000000,-0.146942,-0.011810,0.000000,0.000000,0.000000,-0.005000,FlatInitial
10:42:04.042 AM 02/13/2016,Teleop Disabled,0,FALSE,0,NO ERROR,0.000000,0.000000,4000.000000,4000.000000,Speed,Speed,-0.040000,1.100000,2.750000,3.000000,101.000000,1,0,0.000248,-0.003968,0,0.000000,0.000000,0.000000,-0.146942,-0.011810,0.000000,0.000000,0.000000,-0.005000,FlatInitial
10:42:04.142 AM 02/13/2016,Teleop Disabled,0,FALSE,0,NO ERROR,0.000000,0.000000,4000.000000,4000.000000,Speed,Speed,-0.050000,1.110000,2.740000,3.000000,104.000000,1,0,0.000248,-0.003968,0,0.000000,0.000000,0.000000,-0.146942,-0.011810,0.000000,0.002000,0.000000,-0.001000,FlatInitial
10:42:04.242 AM 02/13/2016,Teleop Disabled,0,FALSE,0,NO ERROR,0.000000,0.000000,4000.000000,4000.000000,Speed,Speed,-0.050000,1.110000,2.740000,3.000000,101.000000,1,0,0.000248,-0.003968,0,0.000000,0.000000,0.000000,-0.146942,-0.011810,0.000000,0.001000,0.001000,-0.001000,FlatInitial
10:42:04.343 AM 02/13/2016,Teleop Disabled,0,FALSE,0,NO ERROR,0.000000,0.000000,4000.000000,4000.000000,Speed,Speed,-0.050000,1.110000,2.740000,3.000000,103.000000,1,0,0.000248,-0.003968,0,0.000000,0.000000,0.000000,-0.146942,-0.011810,0.000000,0.001000,0.001000,-0.001000,FlatInitial
10:42:04.445 AM 02/13/2016,Teleop Disabled,0,FALSE,0,NO ERROR,0.000000,0.000000,4000.000000,4000.000000,Speed,Speed,-0.050000,1.110000,2.740000,3.000000,102.000000,1,0,0.000248,-0.003968,0,0.000000,0.000000,0.000000,-0.146942,-0.011810,0.000000,-0.001000,0.000000,0.000000,FlatInitial
10:42:04.546 AM 02/13/2016,Teleop Disabled,0,FALSE,0,NO ERROR,0.000000,0.000000,4000.000000,4000.000000,Speed,Speed,-0.060000,1.120000,2.740000,3.000000,103.000000,1,0,0.000248,-0.003968,0,0.000000,0.000000,0.000000,-0.146942,-0.011810,0.000000,-0.001000,0.000000,0.000000,FlatInitial
10:42:04.646 AM 02/13/2016,Teleop Disabled,0,FALSE,0,NO ERROR,0.000000,0.000000,4000.000000,4000.000000,Speed,Speed,-0.050000,1.120000,2.740000,3.000000,103.000000,1,0,0.000248,-0.003968,0,0.000000,0.000000,0.000000,-0.146942,-0.011810,0.000000,0.000000,-0.002000,0.004000,FlatInitial
10:42:04.746 AM 02/13/2016,Teleop Disabled,0,FALSE,0,NO ERROR,0.000000,0.000000,4000.000000,4000.000000,Speed,Speed,-0.040000,1.110000,2.720000,3.000000,104.000000,1,0,0.000248,-0.003968,0,0.000000,0.000000,0.000000,-0.146942,-0.011810,0.000000,-0.014000,0.000000,0.000000,FlatInitial
10:42:04.847 AM 02/13/2016,Teleop Disabled,0,FALSE,0,NO ERROR,0.000000,0.000000,4000.000000,4000.000000,Speed,Speed,-0.050000,1.120000,2.740000,3.000000,102.000000,1,0,0.000248,-0.003968,0,0.000000,0.000000,0.000000,-0.146759,-0.011810,0.000000,0.015000,0.002000,-0.002000,FlatInitial
10:42:04.946 AM 02/13/2016,Teleop Disabled,0,FALSE,0,NO ERROR,0.000000,0.000000,4000.000000,4000.000000,Speed,Speed,-0.050000,1.120000,2.740000,3.000000,101.000000,1,0,0.000248,-0.003968,0,0.000000,0.000000,0.000000,-0.146759,-0.011810,0.000000,-0.012000,-0.002000,0.000000,FlatInitial
10:42:05.046 AM 02/13/2016,Teleop Disabled,0,FALSE,0,NO ERROR,0.000000,0.000000,4000.000000,4000.000000,Speed,Speed,-0.050000,1.120000,2.750000,3.000000,102.000000,1,0,0.000248,-0.003968,0,0.000000,0.000000,0.000000,-0.146759,-0.011810,0.000000,0.008000,0.002000,0.004000,FlatInitial
10:42:05.147 AM 02/13/2016,Teleop Disabled,0,FALSE,0,NO ERROR,0.000000,0.000000,4000.000000,4000.000000,Speed,Speed,-0.040000,1.110000,2.730000,3.000000,103.000000,1,0,0.000248,-0.003968,0,0.000000,0.000000,0.000000,-0.146759,-0.011810,0.000000,-0.012000,0.000000,-0.004000,FlatInitial
10:42:05.247 AM 02/13/2016,Teleop Disabled,0,FALSE,0,NO ERROR,0.000000,0.000000,4000.000000,4000.000000,Speed,Speed,-0.040000,1.110000,2.740000,3.000000,101.000000,1,0,0.000248,-0.003968,0,0.000000,0.000000,0.000000,-0.146759,-0.011810,0.000000,0.005000,-0.002000,0.000000,FlatInitial
10:42:05.349 AM 02/13/2016,Teleop Disabled,0,FALSE,0,NO ERROR,0.000000,0.000000,4000.000000,4000.000000,Speed,Speed,-0.040000,1.110000,2.740000,3.000000,102.000000,1,0,0.000248,-0.003968,0,0.000000,0.000000,0.000000,-0.146759,-0.011810,0.000000,-0.003000,0.002000,-0.005000,FlatInitial
10:42:05.449 AM 02/13/2016,Teleop Disabled,0,FALSE,0,NO ERROR,0.000000,0.000000,4000.000000,4000.000000,Speed,Speed,-0.040000,1.100000,2.740000,3.000000,100.000000,1,0,0.000248,-0.003968,0,0.000000,0.000000,0.000000,-0.146759,-0.011810,0.000000,0.002000,0.001000,0.001000,FlatInitial
10:42:05.549 AM 02/13/2016,Teleop Disabled,0,FALSE,0,NO ERROR,0.000000,0.000000,4000.000000,4000.000000,Speed,Speed,-0.040000,1.120000,2.740000,3.000000,100.000000,1,0,0.000248,-0.003968,0,0.000000,0.000000,0.000000,-0.146759,-0.011810,0.000000,0.000000,0.000000,0.000000,FlatInitial
10:42:05.649 AM 02/13/2016,Teleop Disabled,0,FALSE,0,NO ERROR,0.000000,0.000000,4000.000000,4000.000000,Speed,Speed,-0.040000,1.120000,2.740000,3.000000,102.000000,1,0,0.000248,-0.003968,0,0.000000,0.000000,0.000000,-0.146759,-0.011810,0.000000,-0.001000,-0.001000,0.001000,FlatInitial
10:42:05.750 AM 02/13/2016,Teleop Disabled,0,FALSE,0,NO ERROR,0.000000,0.000000,4000.000000,4000.000000,Speed,Speed,-0.040000,1.100000,2.730000,3.000000,102.000000,1,0,0.000248,-0.003968,0,0.000000,0.000000,0.000000,-0.146759,-0.011810,0.000000,0.003000,0.004000,-0.003000,FlatInitial
10:42:05.851 AM 02/13/2016,Teleop Disabled,0,FALSE,0,NO ERROR,0.000000,0.000000,4000.000000,4000.000000,Speed,Speed,-0.040000,1.100000,2.730000,3.000000,102.000000,1,0,0.000248,-0.003968,0,0.000000,0.000000,0.000000,-0.146759,-0.011810,0.000000,-0.001000,-0.004000,-0.001000,FlatInitial
10:42:05.951 AM 02/13/2016,Teleop Disabled,0,FALSE,0,NO ERROR,0.000000,0.000000,4000.000000,4000.000000,Speed,Speed,-0.040000,1.100000,2.730000,3.000000,101.000000,1,0,0.000248,-0.003968,0,0.000000,0.000000,0.000000,-0.146759,-0.011810,0.000000,0.004000,0.001000,-0.003000,FlatInitial
10:42:06.052 AM 02/13/2016,Teleop Disabled,0,FALSE,0,NO ERROR,0.000000,0.000000,4000.000000,4000.000000,Speed,Speed,-0.040000,1.110000,2.720000,3.000000,102.000000,1,0,0.000248,-0.003968,0,0.000000,0.000000,0.000000,-0.146759,-0.011810,0.000000,-0.001000,0.002000,-0.001000,FlatInitial
10:42:06.153 AM 02/13/2016,Teleop Disabled,0,FALSE,0,NO ERROR,0.000000,0.000000,4000.000000,4000.000000,Speed,Speed,-0.040000,1.110000,2.730000,3.000000,102.000000,1,0,0.000248,-0.003968,0,0.000000,0.000000,0.000000,-0.146759,-0.011810,0.000000,0.001000,0.003000,-0.003000,FlatInitial
10:42:06.254 AM 02/13/2016,Teleop Disabled,0,FALSE,0,NO ERROR,0.000000,0.000000,4000.000000,4000.000000,Speed,Speed,-0.040000,1.110000,2.720000,3.000000,101.000000,1,0,0.000248,-0.003968,0,0.000000,0.000000,0.000000,-0.146759,-0.011810,0.000000,-0.003000,-0.001000,-0.003000,FlatInitial
10:42:06.353 AM 02/13/2016,Teleop Disabled,0,FALSE,0,NO ERROR,0.000000,0.000000,4000.000000,4000.000000,Speed,Speed,-0.040000,1.110000,2.720000,3.000000,102.000000,1,0,0.000248,-0.003968,0,0.000000,0.000000,0.000000,-0.146759,-0.011810,0.000000,0.002000,0.000000,0.002000,FlatInitial
10:42:06.453 AM 02/13/2016,Teleop Disabled,0,FALSE,0,NO ERROR,0.000000,0.000000,4000.000000,4000.000000,Speed,Speed,-0.040000,1.110000,2.730000,3.000000,103.000000,1,0,0.000248,-0.003968,0,0.000000,0.000000,0.000000,-0.146759,-0.011810,0.000000,0.000000,0.000000,-0.002000,FlatInitial
10:42:06.554 AM 02/13/2016,Teleop Disabled,0,FALSE,0,NO ERROR,0.000000,0.000000,4000.000000,4000.000000,Speed,Speed,-0.030000,1.110000,2.720000,3.000000,101.000000,1,0,0.000248,-0.003968,0,0.000000,0.000000,0.000000,-0.146759,-0.011810,0.000000,0.000000,0.000000,0.000000,FlatInitial
10:42:06.654 AM 02/13/2016,Teleop Disabled,0,FALSE,0,NO ERROR,0.000000,0.000000,4000.000000,4000.000000,Speed,Speed,-0.040000,1.110000,2.720000,3.000000,102.000000,1,0,0.000248,-0.003968,0,0.000000,0.000000,0.000000,-0.146759,-0.011810,0.000000,0.001000,0.001000,-0.003000,FlatInitial
10:42:06.754 AM 02/13/2016,Teleop Disabled,0,FALSE,0,NO ERROR,0.000000,0.000000,4000.000000,4000.000000,Speed,Speed,-0.030000,1.110000,2.720000,3.000000,103.000000,1,0,0.000248,-0.003968,0,0.000000,0.000000,0.000000,-0.146759,-0.011810,0.000000,0.000000,0.000000,0.002000,FlatInitial
10:42:06.854 AM 02/13/2016,Teleop Disabled,0,FALSE,0,NO ERROR,0.000000,0.000000,4000.000000,4000.000000,Speed,Speed,-0.030000,1.110000,2.730000,3.000000,103.000000,1,0,0.000248,-0.003968,0,0.000000,0.000000,0.000000,-0.146759,-0.011810,0.000000,0.001000,0.001000,0.000000,FlatInitial
10:42:06.955 AM 02/13/2016,Teleop Disabled,0,FALSE,0,NO ERROR,0.000000,0.000000,4000.000000,4000.000000,Speed,Speed,-0.040000,1.110000,2.730000,3.000000,102.000000,1,0,0.000248,-0.003968,0,0.000000,0.000000,0.000000,-0.146759,-0.011810,0.000000,-0.003000,0.000000,0.000000,FlatInitial
10:42:07.055 AM 02/13/2016,Teleop Disabled,0,FALSE,0,NO ERROR,0.000000,0.000000,4000.000000,4000.000000,Speed,Speed,-0.040000,1.110000,2.720000,3.000000,101.000000,1,0,0.000248,-0.003968,0,0.000000,0.000000,0.000000,-0.146759,-0.011810,0.000000,0.000000,0.000000,0.001000,FlatInitial
10:42:07.154 AM 02/13/2016,Teleop Disabled,0,FALSE,0,NO ERROR,0.000000,0.000000,4000.000000,4000.000000,Speed,Speed,-0.040000,1.100000,2.720000,3.000000,101.000000,1,0,0.000248,-0.003968,0,0.000000,0.000000,0.000000,-0.146759,-0.011810,0.000000,0.000000,0.003000,-0.002000,FlatInitial
10:42:07.255 AM 02/13/2016,Teleop Disabled,0,FALSE,0,NO ERROR,0.000000,0.000000,4000.000000,4000.000000,Speed,Speed,-0.040000,1.110000,2.720000,3.000000,102.000000,1,0,0.000248,-0.003968,0,0.000000,0.000000,0.000000,-0.146759,-0.011810,0.000000,0.000000,-0.002000,-0.003000,FlatInitial
10:42:07.355 AM 02/13/2016,Teleop Disabled,0,FALSE,0,NO ERROR,0.000000,0.000000,4000.000000,4000.000000,Speed,Speed,-0.040000,1.110000,2.710000,3.000000,102.000000,1,0,0.000248,-0.003968,0,0.000000,0.000000,0.000000,-0.146759,-0.011810,0.000000,0.002000,0.000000,-0.005000,FlatInitial
10:42:07.456 AM 02/13/2016,Teleop Disabled,0,FALSE,0,NO ERROR,0.000000,0.000000,4000.000000,4000.000000,Speed,Speed,-0.060000,1.110000,2.710000,3.000000,100.000000,1,0,0.000248,-0.003968,0,0.000000,0.000000,0.000000,-0.146759,-0.011810,0.000000,0.000000,0.003000,0.000000,FlatInitial
10:42:07.556 AM 02/13/2016,Teleop Disabled,0,FALSE,0,NO ERROR,0.000000,0.000000,4000.000000,4000.000000,Speed,Speed,-0.050000,1.110000,2.720000,3.000000,105.000000,1,0,0.000248,-0.003968,0,0.000000,0.000000,0.000000,-0.146759,-0.011810,0.000000,0.001000,-0.001000,-0.006000,FlatInitial
10:42:07.657 AM 02/13/2016,Teleop Disabled,0,FALSE,0,NO ERROR,0.000000,0.000000,4000.000000,4000.000000,Speed,Speed,-0.050000,1.110000,2.720000,3.000000,102.000000,1,0,0.000248,-0.003968,0,0.000000,0.000000,0.000000,-0.146759,-0.011810,0.000000,0.000000,0.000000,-0.003000,FlatInitial
10:42:07.757 AM 02/13/2016,Teleop Disabled,0,FALSE,0,NO ERROR,0.000000,0.000000,4000.000000,4000.000000,Speed,Speed,-0.040000,1.100000,2.710000,3.000000,101.000000,1,0,0.000248,-0.003968,0,0.000000,0.000000,0.000000,-0.146759,-0.011810,0.000000,-0.001000,-0.001000,0.000000,FlatInitial
10:42:07.858 AM 02/13/2016,Teleop Disabled,0,FALSE,0,NO ERROR,0.000000,0.000000,4000.000000,4000.000000,Speed,Speed,-0.050000,1.100000,2.720000,3.000000,101.000000,1,0,0.000248,-0.003968,0,0.000000,0.000000,0.000000,-0.146759,-0.011810,0.000000,-0.003000,0.002000,0.002000,FlatInitial
10:42:07.959 AM 02/13/2016,Teleop Disabled,0,FALSE,0,NO ERROR,0.000000,0.000000,4000.000000,4000.000000,Speed,Speed,-0.060000,1.100000,2.710000,3.000000,101.000000,1,0,0.000248,-0.003968,0,0.000000,0.000000,0.000000,-0.146759,-0.011810,0.000000,0.004000,-0.005000,0.004000,FlatInitial
10:42:08.059 AM 02/13/2016,Teleop Disabled,0,FALSE,0,NO ERROR,0.000000,0.000000,4000.000000,4000.000000,Speed,Speed,-0.040000,1.090000,2.690000,3.000000,102.000000,1,0,0.000248,-0.003968,0,0.000000,0.000000,0.000000,-0.146759,-0.011810,0.000000,0.000000,-0.001000,-0.005000,FlatInitial
10:42:08.159 AM 02/13/2016,Teleop Disabled,0,FALSE,0,NO ERROR,0.000000,0.000000,4000.000000,4000.000000,Speed,Speed,-0.060000,1.100000,2.700000,3.000000,101.000000,1,0,0.000248,-0.003968,0,0.000000,0.000000,0.000000,-0.146759,-0.011810,0.000000,0.000000,0.005000,-0.001000,FlatInitial
10:42:08.260 AM 02/13/2016,Teleop Disabled,0,FALSE,0,NO ERROR,0.000000,0.000000,4000.000000,4000.000000,Speed,Speed,-0.040000,1.100000,2.700000,3.000000,103.000000,1,0,0.000248,-0.003968,0,0.000000,0.000000,0.000000,-0.146759,-0.011810,0.000000,-0.001000,0.001000,-0.002000,FlatInitial
10:42:08.359 AM 02/13/2016,Teleop Disabled,0,FALSE,0,NO ERROR,0.000000,0.000000,4000.000000,4000.000000,Speed,Speed,-0.070000,1.100000,2.700000,3.000000,102.000000,1,0,0.000248,-0.003968,0,0.000000,0.000000,0.000000,-0.146759,-0.011810,0.000000,0.000000,0.000000,0.000000,FlatInitial
10:42:08.459 AM 02/13/2016,Teleop Disabled,0,FALSE,0,NO ERROR,0.000000,0.000000,4000.000000,4000.000000,Speed,Speed,-0.060000,1.100000,2.700000,3.000000,102.000000,1,0,0.000248,-0.003968,0,0.000000,0.000000,0.000000,-0.146759,-0.011810,0.000000,0.011000,-0.003000,-0.002000,FlatInitial
10:42:08.559 AM 02/13/2016,Teleop Disabled,0,FALSE,0,NO ERROR,0.000000,0.000000,4000.000000,4000.000000,Speed,Speed,-0.060000,1.090000,2.700000,3.000000,103.000000,1,0,0.000248,-0.003968,0,0.000000,0.000000,0.000000,-0.146759,-0.011810,0.000000,-0.007000,0.000000,-0.001000,FlatInitial
10:42:08.659 AM 02/13/2016,Teleop Disabled,0,FALSE,0,NO ERROR,0.000000,0.000000,4000.000000,4000.000000,Speed,Speed,-0.040000,1.100000,2.700000,3.000000,103.000000,1,0,0.000248,-0.003968,0,0.000000,0.000000,0.000000,-0.146759,-0.011810,0.000000,0.001000,0.006000,0.002000,FlatInitial
10:42:08.760 AM 02/13/2016,Teleop Disabled,0,FALSE,0,NO ERROR,0.000000,0.000000,4000.000000,4000.000000,Speed,Speed,-0.050000,1.100000,2.710000,3.000000,103.000000,1,0,0.000248,-0.003968,0,0.000000,0.000000,0.000000,-0.146759,-0.011810,0.000000,0.000000,0.000000,0.000000,FlatInitial
10:42:08.860 AM 02/13/2016,Teleop Disabled,0,FALSE,0,NO ERROR,0.000000,0.000000,4000.000000,4000.000000,Speed,Speed,-0.040000,1.100000,2.710000,3.000000,102.000000,1,0,0.000248,-0.003968,0,0.000000,0.000000,0.000000,-0.146759,-0.011810,0.000000,0.002000,-0.001000,-0.001000,FlatInitial
10:42:08.961 AM 02/13/2016,Teleop Disabled,0,FALSE,0,NO ERROR,0.000000,0.000000,4000.000000,4000.000000,Speed,Speed,-0.040000,1.100000,2.720000,3.000000,102.000000,1,0,0.000248,-0.003968,0,0.000000,0.000000,0.000000,-0.146759,-0.011810,0.000000,0.000000,0.000000,-0.003000,FlatInitial
10:42:09.062 AM 02/13/2016,Teleop Disabled,0,FALSE,0,NO ERROR,0.000000,0.000000,4000.000000,4000.000000,Speed,Speed,-0.040000,1.100000,2.720000,3.000000,102.000000,1,0,0.000248,-0.003968,0,0.000000,0.000000,0.000000,-0.146759,-0.011810,0.000000,0.000000,0.001000,-0.001000,FlatInitial
10:42:09.162 AM 02/13/2016,Teleop Disabled,0,FALSE,0,NO ERROR,0.000000,0.000000,4000.000000,4000.000000,Speed,Speed,-0.040000,1.110000,2.720000,3.000000,101.000000,1,0,0.000248,-0.003968,0,0.000000,0.000000,0.000000,-0.146759,-0.011810,0.000000,0.000000,-0.001000,-0.002000,FlatInitial
10:42:09.262 AM 02/13/2016,Teleop Disabled,0,FALSE,0,NO ERROR,0.000000,0.000000,4000.000000,4000.000000,Speed,Speed,-0.040000,1.110000,2.720000,3.000000,101.000000,1,0,0.000248,-0.003968,0,0.000000,0.000000,0.000000,-0.146759,-0.011810,0.000000,0.000000,0.000000,-0.003000,FlatInitial
10:42:09.362 AM 02/13/2016,Teleop Disabled,0,FALSE,0,NO ERROR,0.000000,0.000000,4000.000000,4000.000000,Speed,Speed,-0.040000,1.110000,2.720000,3.000000,102.000000,1,0,0.000248,-0.003968,0,0.000000,0.000000,0.000000,-0.146759,-0.011810,0.000000,-0.003000,-0.001000,0.001000,FlatInitial
10:42:09.462 AM 02/13/2016,Teleop Disabled,0,FALSE,0,NO ERROR,0.000000,0.000000,4000.000000,4000.000000,Speed,Speed,-0.050000,1.110000,2.720000,3.000000,104.000000,1,0,0.000248,-0.003968,0,0.000000,0.000000,0.000000,-0.146759,-0.011810,0.000000,-0.001000,0.000000,0.001000,FlatInitial
10:42:09.562 AM 02/13/2016,Teleop Disabled,0,FALSE,0,NO ERROR,0.000000,0.000000,4000.000000,4000.000000,Speed,Speed,-0.040000,1.110000,2.700000,3.000000,102.000000,1,0,0.000248,-0.003968,0,0.000000,0.000000,0.000000,-0.146759,-0.011810,0.000000,0.002000,0.000000,-0.002000,FlatInitial
10:42:09.662 AM 02/13/2016,Teleop Disabled,0,FALSE,0,NO ERROR,0.000000,0.000000,4000.000000,4000.000000,Speed,Speed,-0.050000,1.100000,2.710000,3.000000,101.000000,1,0,0.000248,-0.003968,0,0.000000,0.000000,0.000000,-0.146759,-0.011810,0.000000,-0.002000,-0.002000,0.004000,FlatInitial
10:42:09.762 AM 02/13/2016,Teleop Disabled,0,FALSE,0,NO ERROR,0.000000,0.000000,4000.000000,4000.000000,Speed,Speed,-0.050000,1.120000,2.700000,3.000000,101.000000,1,0,0.000248,-0.003968,0,0.000000,0.000000,0.000000,-0.146759,-0.011810,0.000000,0.000000,0.000000,-0.001000,FlatInitial
10:42:09.862 AM 02/13/2016,Teleop Disabled,0,FALSE,0,NO ERROR,0.000000,0.000000,4000.000000,4000.000000,Speed,Speed,-0.060000,1.110000,2.700000,3.000000,102.000000,1,0,0.000248,-0.003968,0,0.000000,0.000000,0.000000,-0.146759,-0.011810,0.000000,-0.002000,0.000000,-0.002000,FlatInitial
10:42:09.962 AM 02/13/2016,Teleop Disabled,0,FALSE,0,NO ERROR,0.000000,0.000000,4000.000000,4000.000000,Speed,Speed,-0.060000,1.110000,2.700000,3.000000,102.000000,1,0,0.000248,-0.003968,0,0.000000,0.000000,0.000000,-0.146759,-0.011810,0.000000,0.000000,-0.001000,-0.001000,FlatInitial
10:42:10.062 AM 02/13/2016,Teleop Disabled,0,FALSE,0,NO ERROR,0.000000,0.000000,4000.000000,4000.000000,Speed,Speed,-0.060000,1.110000,2.700000,3.000000,102.000000,1,0,0.000248,-0.003968,0,0.000000,0.000000,0.000000,-0.146759,-0.011810,0.000000,0.002000,-0.001000,-0.001000,FlatInitial
10:42:10.162 AM 02/13/2016,Teleop Disabled,0,FALSE,0,NO ERROR,0.000000,0.000000,4000.000000,4000.000000,Speed,Speed,-0.060000,1.110000,2.710000,3.000000,102.000000,1,0,0.000248,-0.003968,0,0.000000,0.000000,0.000000,-0.146759,-0.011810,0.000000,-0.005000,0.002000,-0.001000,FlatInitial
10:42:10.263 AM 02/13/2016,Teleop Disabled,0,FALSE,0,NO ERROR,0.000000,0.000000,4000.000000,4000.000000,Speed,Speed,-0.050000,1.110000,2.710000,3.000000,103.000000,1,0,0.000248,-0.003968,0,0.000000,0.000000,0.000000,-0.146759,-0.011810,0.000000,-0.001000,0.000000,0.001000,FlatInitial
10:42:10.364 AM 02/13/2016,Teleop Disabled,0,FALSE,0,NO ERROR,0.000000,0.000000,4000.000000,4000.000000,Speed,Speed,-0.060000,1.110000,2.710000,3.000000,102.000000,1,0,0.000248,-0.003968,0,0.000000,0.000000,0.000000,-0.146759,-0.011810,0.000000,0.001000,0.000000,0.004000,FlatInitial
10:42:10.465 AM 02/13/2016,Teleop Disabled,0,FALSE,0,NO ERROR,0.000000,0.000000,4000.000000,4000.000000,Speed,Speed,-0.060000,1.110000,2.710000,3.000000,104.000000,1,0,0.000248,-0.003968,0,0.000000,0.000000,0.000000,-0.146759,-0.011810,0.000000,-0.001000,-0.001000,-0.002000,FlatInitial
10:42:10.566 AM 02/13/2016,Teleop Disabled,0,FALSE,0,NO ERROR,0.000000,0.000000,4000.000000,4000.000000,Speed,Speed,-0.060000,1.120000,2.710000,3.000000,102.000000,1,0,0.000248,-0.003968,0,0.000000,0.000000,0.000000,-0.146759,-0.011810,0.000000,0.000000,0.002000,0.000000,FlatInitial
10:42:10.666 AM 02/13/2016,Teleop Disabled,0,FALSE,0,NO ERROR,0.000000,0.000000,4000.000000,4000.000000,Speed,Speed,-0.060000,1.120000,2.700000,3.000000,101.000000,1,0,0.000248,-0.003968,0,0.000000,0.000000,0.000000,-0.146759,-0.011810,0.000000,0.000000,0.002000,-0.001000,FlatInitial
10:42:10.767 AM 02/13/2016,Teleop Disabled,0,FALSE,0,NO ERROR,0.000000,0.000000,4000.000000,4000.000000,Speed,Speed,-0.070000,1.130000,2.710000,3.000000,101.000000,1,0,0.000248,-0.003968,0,0.000000,0.000000,0.000000,-0.146759,-0.011810,0.000000,-0.001000,0.000000,0.000000,FlatInitial
10:42:10.868 AM 02/13/2016,Teleop Disabled,0,FALSE,0,NO ERROR,0.000000,0.000000,4000.000000,4000.000000,Speed,Speed,-0.060000,1.120000,2.710000,3.000000,102.000000,1,0,0.000248,-0.003968,0,0.000000,0.000000,0.000000,-0.146759,-0.011810,0.000000,-0.001000,-0.002000,0.000000,FlatInitial
10:42:10.969 AM 02/13/2016,Teleop Disabled,0,FALSE,0,NO ERROR,0.000000,0.000000,4000.000000,4000.000000,Speed,Speed,-0.070000,1.120000,2.720000,3.000000,102.000000,1,0,0.000248,-0.003968,0,0.000000,0.000000,0.000000,-0.146759,-0.011810,0.000000,0.001000,0.000000,0.001000,FlatInitial
10:42:11.070 AM 02/13/2016,Teleop Disabled,0,FALSE,0,NO ERROR,0.000000,0.000000,4000.000000,4000.000000,Speed,Speed,-0.070000,1.120000,2.710000,3.000000,102.000000,1,0,0.000248,-0.003968,0,0.000000,0.000000,0.000000,-0.146759,-0.011810,0.000000,0.000000,0.000000,-0.002000,FlatInitial
10:42:11.170 AM 02/13/2016,Teleop Disabled,0,FALSE,0,NO ERROR,0.000000,0.000000,4000.000000,4000.000000,Speed,Speed,-0.070000,1.120000,2.720000,3.000000,101.000000,1,0,0.000248,-0.003968,0,0.000000,0.000000,0.000000,-0.146759,-0.011810,0.000000,0.002000,0.000000,0.002000,FlatInitial
10:42:11.271 AM 02/13/2016,Teleop Disabled,0,FALSE,0,NO ERROR,0.000000,0.000000,4000.000000,4000.000000,Speed,Speed,-0.070000,1.120000,2.710000,3.000000,101.000000,1,0,0.000248,-0.003968,0,0.000000,0.000000,0.000000,-0.146759,-0.011810,0.000000,0.000000,-0.002000,-0.003000,FlatInitial
10:42:11.372 AM 02/13/2016,Teleop Disabled,0,FALSE,0,NO ERROR,0.000000,0.000000,4000.000000,4000.000000,Speed,Speed,-0.070000,1.120000,2.710000,3.000000,103.000000,1,0,0.000248,-0.003968,0,0.000000,0.000000,0.000000,-0.146759,-0.011810,0.000000,-0.001000,0.001000,0.001000,FlatInitial
10:42:11.473 AM 02/13/2016,Teleop Disabled,0,FALSE,0,NO ERROR,0.000000,0.000000,4000.000000,4000.000000,Speed,Speed,-0.070000,1.120000,2.710000,3.000000,101.000000,1,0,0.000248,-0.003968,0,0.000000,0.000000,0.000000,-0.146759,-0.011810,0.000000,0.004000,0.000000,0.000000,FlatInitial
10:42:11.574 AM 02/13/2016,Teleop Disabled,0,FALSE,0,NO ERROR,0.000000,0.000000,4000.000000,4000.000000,Speed,Speed,-0.070000,1.120000,2.690000,3.000000,102.000000,1,0,0.000248,-0.003968,0,0.000000,0.000000,0.000000,-0.146759,-0.011810,0.000000,-0.003000,-0.001000,-0.001000,FlatInitial
10:42:11.674 AM 02/13/2016,Teleop Disabled,0,FALSE,0,NO ERROR,0.000000,0.000000,4000.000000,4000.000000,Speed,Speed,-0.080000,1.120000,2.690000,3.000000,102.000000,1,0,0.000248,-0.003968,0,0.000000,0.000000,0.000000,-0.146759,-0.011810,0.000000,0.001000,-0.001000,-0.001000,FlatInitial
10:42:11.775 AM 02/13/2016,Teleop Disabled,0,FALSE,0,NO ERROR,0.000000,0.000000,4000.000000,4000.000000,Speed,Speed,-0.080000,1.120000,2.690000,3.000000,102.000000,1,0,0.000248,-0.003968,0,0.000000,0.000000,0.000000,-0.146759,-0.011810,0.000000,-0.001000,-0.001000,0.001000,FlatInitial
10:42:11.875 AM 02/13/2016,Teleop Disabled,0,FALSE,0,NO ERROR,0.000000,0.000000,4000.000000,4000.000000,Speed,Speed,-0.080000,1.110000,2.690000,3.000000,102.000000,1,0,0.000248,-0.003968,0,0.000000,0.000000,0.000000,-0.146759,-0.011810,0.000000,0.000000,0.000000,-0.002000,FlatInitial
10:42:11.976 AM 02/13/2016,Teleop Disabled,0,FALSE,0,NO ERROR,0.000000,0.000000,4000.000000,4000.000000,Speed,Speed,-0.090000,1.110000,2.670000,3.000000,103.000000,1,0,0.000248,-0.003968,0,0.000000,0.000000,0.000000,-0.146759,-0.011810,0.000000,0.000000,0.000000,0.001000,FlatInitial
10:42:12.077 AM 02/13/2016,Teleop Disabled,0,FALSE,0,NO ERROR,0.000000,0.000000,4000.000000,4000.000000,Speed,Speed,-0.090000,1.110000,2.670000,3.000000,102.000000,1,0,0.000248,-0.003968,0,0.000000,0.000000,0.000000,-0.146759,-0.011810,0.000000,0.003000,-0.001000,0.001000,FlatInitial
10:42:12.177 AM 02/13/2016,Teleop Disabled,0,FALSE,0,NO ERROR,0.000000,0.000000,4000.000000,4000.000000,Speed,Speed,-0.090000,1.110000,2.670000,3.000000,102.000000,1,0,0.000248,-0.003968,0,0.000000,0.000000,0.000000,-0.146759,-0.011810,0.000000,-0.003000,0.001000,0.005000,FlatInitial
10:42:12.277 AM 02/13/2016,Teleop Disabled,0,FALSE,0,NO ERROR,0.000000,0.000000,4000.000000,4000.000000,Speed,Speed,-0.090000,1.100000,2.670000,3.000000,102.000000,1,0,0.000248,-0.003968,0,0.000000,0.000000,0.000000,-0.146759,-0.011810,0.000000,0.000000,0.001000,0.005000,FlatInitial
10:42:12.378 AM 02/13/2016,Teleop Disabled,0,FALSE,0,NO ERROR,0.000000,0.000000,4000.000000,4000.000000,Speed,Speed,-0.090000,1.100000,2.670000,3.000000,102.000000,1,0,0.000248,-0.003968,0,0.000000,0.000000,0.000000,-0.146759,-0.011810,0.000000,0.001000,0.002000,0.003000,FlatInitial
10:42:12.477 AM 02/13/2016,Teleop Disabled,0,FALSE,0,NO ERROR,0.000000,0.000000,4000.000000,4000.000000,Speed,Speed,-0.100000,1.110000,2.670000,3.000000,102.000000,1,0,0.000248,-0.003968,0,0.000000,0.000000,0.000000,-0.146759,-0.011810,0.000000,-0.002000,0.000000,-0.002000,FlatInitial
10:42:12.578 AM 02/13/2016,Teleop Disabled,0,FALSE,0,NO ERROR,0.000000,0.000000,4000.000000,4000.000000,Speed,Speed,-0.090000,1.100000,2.670000,3.000000,103.000000,1,0,0.000248,-0.003968,0,0.000000,0.000000,0.000000,-0.146759,-0.011810,0.000000,0.000000,-0.002000,0.000000,FlatInitial
10:42:12.677 AM 02/13/2016,Teleop Disabled,0,FALSE,0,NO ERROR,0.000000,0.000000,4000.000000,4000.000000,Speed,Speed,-0.100000,1.100000,2.670000,3.000000,101.000000,1,0,0.000248,-0.003968,0,0.000000,0.000000,0.000000,-0.146759,-0.011810,0.000000,0.001000,0.000000,-0.005000,FlatInitial
