Time,RobotMode,AutoToRun,ErrorStatus, ErrorCode,ErrorSource,ActualRPM1,ActualRPM2,DesiredRPM1,DesiredRPM2,ControlMode1,ControlMode2,NavXYaw,NavXRoll,NavXPitch,ShooterState,LoopTime,IsLevel,IsAutoTargeting,LeftMotorOutput,RightMotorOutput,IsHaloDrive,NavXVelocityX,NavXVelocityY,NavXVelocityZ,NavXDisplacementX,NavXDisplacementY,NavXDisplacementZ,NavXAccelerationX,NavXAccelerationY,NavXAccelerationZ,AutoDefendState
01:33:38.936 PM 02/14/2016,Autonomous Disabled,0,TRUE,-44087,NetComm_CAN_Receive.vi:5470006<APPEND>  <b>Complete call chain:</b>      NetComm_CAN_Receive.vi:5470006      WPI_CANTalonSRX_Receive.vi      WPI_MotorControlOpenCANTalonSRX.vi      Begin.vi      Robot Main.vi,0.000000,-727.587891,4000.000000,4000.000000,Speed,Speed,-1.610000,1.450000,1.500000,3.000000,101.000000,1,0,-0.006200,-0.006200,0,0.000000,0.000000,0.000000,-0.121597,0.045959,0.000000,0.000000,-0.002000,-0.006000,FlatInitial
01:33:39.037 PM 02/14/2016,Teleop Disabled,0,TRUE,-44087,NetComm_CAN_Receive.vi:5470006<APPEND>  <b>Complete call chain:</b>      NetComm_CAN_Receive.vi:5470006      WPI_CANTalonSRX_Receive.vi      WPI_MotorControlOpenCANTalonSRX.vi      Begin.vi      Robot Main.vi,0.000000,-727.587891,0.000000,0.000000,Speed,Speed,-1.610000,1.450000,1.500000,0.000000,3204525.000000,1,0,-0.006200,-0.006200,0,0.000000,0.000000,0.000000,-0.121597,0.045959,0.000000,0.000000,-0.002000,-0.006000,FlatInitial
01:33:39.137 PM 02/14/2016,Teleop Disabled,0,TRUE,-44087,NetComm_CAN_Receive.vi:5470006<APPEND>  <b>Complete call chain:</b>      NetComm_CAN_Receive.vi:5470006      WPI_CANTalonSRX_Receive.vi      WPI_MotorControlOpenCANTalonSRX.vi      Begin.vi      Robot Main.vi,0.000000,-727.587891,0.000000,0.000000,Speed,Speed,0.000000,1.460000,1.460000,0.000000,101.000000,1,0,-0.006200,-0.006200,0,0.000000,0.000000,0.000000,-0.122253,0.046921,0.000000,0.000000,-0.002000,0.004000,FlatInitial
01:33:39.238 PM 02/14/2016,Teleop Disabled,0,TRUE,-44087,NetComm_CAN_Receive.vi:5470006<APPEND>  <b>Complete call chain:</b>      NetComm_CAN_Receive.vi:5470006      WPI_CANTalonSRX_Receive.vi      WPI_MotorControlOpenCANTalonSRX.vi      Begin.vi      Robot Main.vi,0.000000,-727.587891,0.000000,0.000000,Speed,Speed,0.000000,1.450000,1.450000,0.000000,101.000000,1,0,-0.006200,-0.006200,0,0.000000,0.000000,0.000000,-0.122253,0.046921,0.000000,0.001000,0.000000,0.003000,FlatInitial
01:33:39.338 PM 02/14/2016,Teleop Disabled,0,TRUE,-44087,NetComm_CAN_Receive.vi:5470006<APPEND>  <b>Complete call chain:</b>      NetComm_CAN_Receive.vi:5470006      WPI_CANTalonSRX_Receive.vi      WPI_MotorControlOpenCANTalonSRX.vi      Begin.vi      Robot Main.vi,0.000000,-727.587891,0.000000,0.000000,Speed,Speed,0.000000,1.460000,1.450000,0.000000,101.000000,1,0,-0.006200,-0.006200,0,0.000000,0.000000,0.000000,-0.122253,0.046921,0.000000,0.001000,0.000000,0.003000,FlatInitial
01:33:39.440 PM 02/14/2016,Teleop Disabled,0,TRUE,-44087,NetComm_CAN_Receive.vi:5470006<APPEND>  <b>Complete call chain:</b>      NetComm_CAN_Receive.vi:5470006      WPI_CANTalonSRX_Receive.vi      WPI_MotorControlOpenCANTalonSRX.vi      Begin.vi      Robot Main.vi,0.000000,-727.587891,0.000000,0.000000,Speed,Speed,0.000000,1.460000,1.440000,0.000000,101.000000,1,0,-0.006200,-0.006200,0,0.000000,0.000000,0.000000,-0.122253,0.046921,0.000000,0.000000,-0.001000,0.003000,FlatInitial
01:33:39.542 PM 02/14/2016,Teleop Disabled,0,TRUE,-44087,NetComm_CAN_Receive.vi:5470006<APPEND>  <b>Complete call chain:</b>      NetComm_CAN_Receive.vi:5470006      WPI_CANTalonSRX_Receive.vi      WPI_MotorControlOpenCANTalonSRX.vi      Begin.vi      Robot Main.vi,0.000000,-727.587891,0.000000,0.000000,Speed,Speed,0.000000,1.460000,1.440000,0.000000,103.000000,1,0,-0.006200,-0.006200,0,0.000000,0.000000,0.000000,-0.122253,0.046921,0.000000,-0.002000,0.002000,0.000000,FlatInitial
01:33:39.643 PM 02/14/2016,Teleop Enabled,0,TRUE,-44087,NetComm_CAN_Receive.vi:5470006<APPEND>  <b>Complete call chain:</b>      NetComm_CAN_Receive.vi:5470006      WPI_CANTalonSRX_Receive.vi      WPI_MotorControlOpenCANTalonSRX.vi      Begin.vi      Robot Main.vi,0.000000,-727.587891,0.000000,0.000000,Speed,Speed,0.010000,1.470000,1.420000,0.000000,102.000000,1,0,-0.006200,-0.006200,0,0.000000,0.000000,0.000000,-0.122253,0.046921,0.000000,0.004000,-0.003000,0.000000,FlatInitial
01:33:39.742 PM 02/14/2016,Teleop Enabled,0,TRUE,-44087,NetComm_CAN_Receive.vi:5470006<APPEND>  <b>Complete call chain:</b>      NetComm_CAN_Receive.vi:5470006      WPI_CANTalonSRX_Receive.vi      WPI_MotorControlOpenCANTalonSRX.vi      Begin.vi      Robot Main.vi,0.000000,-727.587891,0.000000,0.000000,Speed,Speed,0.000000,1.470000,1.440000,0.000000,102.000000,1,0,-0.006200,-0.006200,0,-0.001221,0.000000,0.000000,-0.122269,0.046921,0.000000,0.010000,-0.039000,0.029000,FlatInitial
01:33:39.843 PM 02/14/2016,Teleop Enabled,0,TRUE,-44087,NetComm_CAN_Receive.vi:5470006<APPEND>  <b>Complete call chain:</b>      NetComm_CAN_Receive.vi:5470006      WPI_CANTalonSRX_Receive.vi      WPI_MotorControlOpenCANTalonSRX.vi      Begin.vi      Robot Main.vi,0.000000,-727.587891,0.000000,0.000000,Speed,Speed,-0.050000,1.500000,1.360000,0.000000,104.000000,1,0,-0.006200,-0.006200,0,0.000000,-0.014359,0.000000,-0.122314,0.046356,0.000000,-0.003000,0.015000,-0.023000,FlatInitial
01:33:39.944 PM 02/14/2016,Teleop Enabled,0,TRUE,-44087,NetComm_CAN_Receive.vi:5470006<APPEND>  <b>Complete call chain:</b>      NetComm_CAN_Receive.vi:5470006      WPI_CANTalonSRX_Receive.vi      WPI_MotorControlOpenCANTalonSRX.vi      Begin.vi      Robot Main.vi,0.000000,-727.587891,0.000000,0.000000,Speed,Speed,-0.060000,1.470000,1.490000,0.000000,101.000000,1,0,-0.006200,-0.006200,0,0.000000,0.000000,0.000000,-0.122314,0.046356,0.000000,-0.001000,-0.001000,0.001000,FlatInitial
01:33:40.044 PM 02/14/2016,Teleop Enabled,0,TRUE,-44087,NetComm_CAN_Receive.vi:5470006<APPEND>  <b>Complete call chain:</b>      NetComm_CAN_Receive.vi:5470006      WPI_CANTalonSRX_Receive.vi      WPI_MotorControlOpenCANTalonSRX.vi      Begin.vi      Robot Main.vi,0.000000,-727.587891,0.000000,0.000000,Speed,Speed,-0.110000,1.480000,1.440000,0.000000,102.000000,1,0,-0.006200,-0.006200,0,0.000000,0.006607,0.000000,-0.122314,0.046463,0.000000,0.002000,0.004000,0.002000,FlatInitial
01:33:40.145 PM 02/14/2016,Teleop Enabled,0,TRUE,-44087,NetComm_CAN_Receive.vi:5470006<APPEND>  <b>Complete call chain:</b>      NetComm_CAN_Receive.vi:5470006      WPI_CANTalonSRX_Receive.vi      WPI_CANTalonSRX_GetStatus.vi      ShooterVI.vi      Periodic Tasks.vi      Robot Main.vi,0.000000,-727.587891,0.000000,0.000000,Speed,Speed,-0.070000,1.460000,1.520000,0.000000,100.000000,1,0,-0.006200,-0.006200,0,0.000000,0.000000,0.000000,-0.122314,0.046539,0.000000,0.004000,0.004000,-0.002000,FlatInitial
01:33:40.244 PM 02/14/2016,Teleop Enabled,0,TRUE,-44087,NetComm_CAN_Receive.vi:5470006<APPEND>  <b>Complete call chain:</b>      NetComm_CAN_Receive.vi:5470006      WPI_CANTalonSRX_Receive.vi      WPI_CANTalonSRX_GetStatus.vi      ShooterVI.vi      Periodic Tasks.vi      Robot Main.vi,0.000000,-727.587891,0.000000,0.000000,Speed,Speed,-0.070000,1.490000,1.490000,0.000000,101.000000,1,0,-0.006200,-0.006200,0,0.000000,0.000000,0.000000,-0.122314,0.046539,0.000000,-0.003000,0.003000,-0.004000,FlatInitial
01:33:40.345 PM 02/14/2016,Teleop Enabled,0,FALSE,0,NO ERROR,0.000000,-727.587891,0.000000,0.000000,Speed,Speed,-0.060000,1.480000,1.510000,0.000000,101.000000,1,0,-0.006200,-0.006200,0,0.000000,0.000000,0.000000,-0.122314,0.046539,0.000000,-0.004000,-0.009000,-0.003000,FlatInitial
01:33:40.446 PM 02/14/2016,Teleop Enabled,0,FALSE,0,NO ERROR,0.000000,-727.587891,0.000000,0.000000,Speed,Speed,-0.070000,1.470000,1.470000,0.000000,101.000000,1,0,-0.006200,-0.006200,0,0.000000,0.000000,0.000000,-0.122314,0.046539,0.000000,0.005000,-0.001000,-0.001000,FlatInitial
01:33:40.547 PM 02/14/2016,Teleop Enabled,0,FALSE,0,NO ERROR,0.000000,-727.587891,0.000000,0.000000,Speed,Speed,-0.070000,1.480000,1.500000,0.000000,103.000000,1,0,-0.006200,-0.006200,0,0.000000,0.000000,0.000000,-0.122314,0.046539,0.000000,0.000000,-0.012000,0.001000,FlatInitial
01:33:40.646 PM 02/14/2016,Teleop Enabled,0,FALSE,0,NO ERROR,0.000000,-727.587891,0.000000,0.000000,Speed,Speed,-0.060000,1.480000,1.490000,0.000000,102.000000,1,0,-0.006200,-0.006200,0,0.000000,0.000000,0.000000,-0.122314,0.046539,0.000000,0.000000,0.016000,-0.003000,FlatInitial
01:33:40.747 PM 02/14/2016,Teleop Enabled,0,FALSE,0,NO ERROR,0.000000,-727.587891,0.000000,0.000000,Speed,Speed,-0.030000,1.490000,1.510000,0.000000,101.000000,1,0,-0.006200,-0.006200,0,0.000000,0.000000,0.000000,-0.122314,0.046539,0.000000,0.001000,0.000000,-0.004000,FlatInitial
01:33:40.848 PM 02/14/2016,Teleop Enabled,0,FALSE,0,NO ERROR,0.000000,-727.587891,0.000000,0.000000,Speed,Speed,-0.030000,1.490000,1.520000,0.000000,102.000000,1,0,-0.006200,-0.006200,0,0.000000,0.000000,0.000000,-0.122314,0.046539,0.000000,-0.002000,-0.005000,0.000000,FlatInitial
01:33:40.949 PM 02/14/2016,Teleop Enabled,0,FALSE,0,NO ERROR,0.000000,-727.587891,0.000000,0.000000,Speed,Speed,-0.030000,1.500000,1.520000,0.000000,102.000000,1,0,-0.006200,-0.006200,0,0.000000,0.000000,0.000000,-0.122314,0.046539,0.000000,-0.010000,-0.001000,0.003000,FlatInitial
01:33:41.050 PM 02/14/2016,Teleop Enabled,0,FALSE,0,NO ERROR,0.000000,-727.587891,0.000000,0.000000,Speed,Speed,-0.060000,1.500000,1.520000,0.000000,105.000000,1,0,-0.006200,-0.006200,0,0.000000,0.000000,0.000000,-0.122314,0.046539,0.000000,0.012000,0.000000,0.003000,FlatInitial
01:33:41.149 PM 02/14/2016,Teleop Enabled,0,FALSE,0,NO ERROR,0.000000,-727.587891,0.000000,0.000000,Speed,Speed,-0.070000,1.500000,1.530000,0.000000,101.000000,1,0,-0.006200,-0.006200,0,0.000778,0.000000,0.000000,-0.122375,0.046661,0.000000,0.022000,-0.005000,-0.004000,FlatInitial
01:33:41.250 PM 02/14/2016,Teleop Enabled,0,FALSE,0,NO ERROR,0.000000,-727.587891,0.000000,0.000000,Speed,Speed,0.000000,1.490000,1.530000,0.000000,101.000000,1,0,-0.006200,-0.006200,0,-0.002930,0.000000,0.000000,-0.122543,0.046661,0.000000,0.009000,-0.005000,0.003000,FlatInitial
01:33:41.350 PM 02/14/2016,Teleop Enabled,0,FALSE,0,NO ERROR,0.000000,-727.587891,0.000000,0.000000,Speed,Speed,0.000000,1.500000,1.530000,0.000000,103.000000,1,0,-0.006200,-0.006200,0,0.000000,0.000000,0.000000,-0.122528,0.046661,0.000000,0.001000,0.007000,-0.013000,FlatInitial
01:33:41.450 PM 02/14/2016,Teleop Enabled,0,FALSE,0,NO ERROR,0.000000,-727.587891,0.000000,0.000000,Speed,Speed,0.000000,1.490000,1.500000,0.000000,105.000000,1,0,-0.006200,-0.006200,0,0.000000,-0.007156,0.000000,-0.122528,0.046524,0.000000,-0.003000,-0.015000,-0.005000,FlatInitial
01:33:41.551 PM 02/14/2016,Teleop Enabled,0,FALSE,0,NO ERROR,0.000000,-727.587891,0.000000,0.000000,Speed,Speed,-0.010000,1.490000,1.500000,0.000000,100.000000,1,0,-0.006200,-0.006200,0,0.000000,0.000000,0.000000,-0.122528,0.046524,0.000000,-0.003000,-0.004000,0.001000,FlatInitial
01:33:41.650 PM 02/14/2016,Teleop Enabled,0,FALSE,0,NO ERROR,0.000000,-727.587891,0.000000,0.000000,Speed,Speed,0.000000,1.480000,1.490000,0.000000,102.000000,1,0,-0.006200,-0.006200,0,0.000000,0.000000,0.000000,-0.122528,0.046524,0.000000,0.004000,0.002000,0.000000,FlatInitial
01:33:41.750 PM 02/14/2016,Teleop Enabled,0,FALSE,0,NO ERROR,0.000000,-727.587891,0.000000,0.000000,Speed,Speed,0.000000,1.480000,1.490000,0.000000,102.000000,1,0,-0.006200,-0.006200,0,0.000000,0.000000,0.000000,-0.122528,0.046524,0.000000,0.000000,-0.001000,0.008000,FlatInitial
01:33:41.851 PM 02/14/2016,Teleop Enabled,0,FALSE,0,NO ERROR,0.000000,-727.587891,0.000000,0.000000,Speed,Speed,-0.030000,1.480000,1.510000,0.000000,103.000000,1,0,-0.006200,-0.006200,0,0.000000,0.000000,0.000000,-0.122528,0.046524,0.000000,0.000000,0.008000,-0.001000,FlatInitial
01:33:41.952 PM 02/14/2016,Teleop Enabled,0,FALSE,0,NO ERROR,0.000000,-727.587891,0.000000,0.000000,Speed,Speed,-0.030000,1.470000,1.520000,0.000000,104.000000,1,0,-0.006200,-0.006200,0,0.000000,0.000000,0.000000,-0.122528,0.046524,0.000000,0.004000,0.004000,0.001000,FlatInitial
01:33:42.052 PM 02/14/2016,Teleop Enabled,0,FALSE,0,NO ERROR,0.000000,-727.587891,0.000000,0.000000,Speed,Speed,-0.050000,1.470000,1.540000,0.000000,102.000000,1,0,-0.006200,-0.006200,0,0.000000,0.000000,0.000000,-0.122528,0.046524,0.000000,-0.001000,0.008000,0.003000,FlatInitial
01:33:42.151 PM 02/14/2016,Teleop Enabled,0,FALSE,0,NO ERROR,0.000000,-727.587891,0.000000,0.000000,Speed,Speed,-0.050000,1.470000,1.570000,0.000000,100.000000,1,0,-0.006200,-0.006200,0,0.000000,0.000000,0.000000,-0.122528,0.046524,0.000000,0.003000,0.009000,0.000000,FlatInitial
01:33:42.251 PM 02/14/2016,Teleop Enabled,0,FALSE,0,NO ERROR,0.000000,-727.587891,-6000.000000,-6000.000000,Speed,Speed,-0.060000,1.460000,1.600000,1.000000,101.000000,1,0,-0.006200,-0.006200,0,0.000000,0.000000,0.000000,-0.122528,0.046524,0.000000,-0.004000,-0.011000,0.006000,FlatInitial
01:33:42.352 PM 02/14/2016,Teleop Enabled,0,FALSE,0,NO ERROR,0.000000,-727.587891,0.000000,0.000000,Speed,Speed,-0.070000,1.470000,1.600000,2.000000,101.000000,1,0,-0.006200,-0.006200,0,0.002151,-0.011047,0.000000,-0.122437,0.046387,0.000000,-0.121000,-0.063000,0.026000,FlatInitial
01:33:42.453 PM 02/14/2016,Teleop Enabled,0,FALSE,0,NO ERROR,0.000000,-727.587891,0.000000,0.000000,Speed,Speed,-0.060000,1.420000,1.610000,2.000000,101.000000,1,0,-0.006200,-0.006200,0,0.000000,0.003677,0.000000,-0.122833,0.046280,0.000000,-0.008000,-0.013000,0.049000,FlatInitial
01:33:42.553 PM 02/14/2016,Teleop Enabled,0,FALSE,0,NO ERROR,0.000000,-727.587891,0.000000,0.000000,Speed,Speed,-0.060000,1.450000,1.670000,2.000000,102.000000,1,0,-0.006200,-0.006200,0,0.001495,0.007446,0.000000,-0.122818,0.046631,0.000000,-0.013000,0.000000,0.035000,FlatInitial
01:33:42.655 PM 02/14/2016,Teleop Enabled,0,FALSE,0,NO ERROR,0.000000,-727.587891,0.000000,0.000000,Speed,Speed,-0.070000,1.440000,1.690000,2.000000,112.000000,1,0,-0.006200,-0.006200,0,-0.004761,0.000000,0.000000,-0.122711,0.046722,0.000000,-0.007000,0.003000,0.001000,FlatInitial
01:33:42.756 PM 02/14/2016,Teleop Enabled,0,FALSE,0,NO ERROR,0.000000,-727.587891,0.000000,0.000000,Speed,Speed,-0.080000,1.450000,1.700000,2.000000,102.000000,1,0,-0.006200,-0.006200,0,-0.002121,-0.000977,0.000000,-0.122879,0.046707,0.000000,0.000000,-0.021000,-0.039000,FlatInitial
01:33:42.857 PM 02/14/2016,Teleop Enabled,0,FALSE,0,NO ERROR,0.000000,-727.587891,0.000000,0.000000,Speed,Speed,-0.060000,1.470000,1.700000,2.000000,100.000000,1,0,-0.006200,-0.006200,0,0.011215,0.000000,0.000000,-0.122650,0.046631,0.000000,-0.001000,0.000000,-0.015000,FlatInitial
01:33:42.957 PM 02/14/2016,Teleop Enabled,0,FALSE,0,NO ERROR,0.000000,-727.587891,0.000000,0.000000,Speed,Speed,-0.060000,1.460000,1.690000,2.000000,103.000000,1,0,-0.006200,-0.006200,0,0.000000,0.000000,0.000000,-0.122650,0.046631,0.000000,-0.011000,-0.006000,-0.034000,FlatInitial
01:33:43.058 PM 02/14/2016,Teleop Enabled,0,FALSE,0,NO ERROR,0.000000,-727.587891,0.000000,0.000000,Speed,Speed,-0.020000,1.460000,1.680000,2.000000,101.000000,1,0,-0.006200,-0.006200,0,0.000000,0.000000,0.000000,-0.122650,0.046631,0.000000,-0.005000,0.020000,-0.006000,FlatInitial
01:33:43.158 PM 02/14/2016,Teleop Enabled,0,FALSE,0,NO ERROR,0.000000,-727.587891,0.000000,0.000000,Speed,Speed,0.000000,1.460000,1.710000,2.000000,102.000000,1,0,-0.006200,-0.006200,0,0.000000,0.024109,0.000000,-0.122650,0.047287,0.000000,0.010000,0.020000,-0.008000,FlatInitial
01:33:43.260 PM 02/14/2016,Teleop Enabled,0,FALSE,0,NO ERROR,0.000000,-727.587891,0.000000,0.000000,Speed,Speed,-0.010000,1.460000,1.740000,2.000000,102.000000,1,0,-0.006200,-0.006200,0,0.000000,0.000000,0.000000,-0.122650,0.047836,0.000000,-0.007000,0.000000,-0.006000,FlatInitial
01:33:43.360 PM 02/14/2016,Teleop Enabled,0,FALSE,0,NO ERROR,0.000000,-727.587891,0.000000,0.000000,Speed,Speed,-0.030000,1.460000,1.700000,2.000000,103.000000,1,0,-0.006200,-0.006200,0,0.000000,0.000000,0.000000,-0.122650,0.047836,0.000000,-0.004000,-0.016000,-0.009000,FlatInitial
01:33:43.459 PM 02/14/2016,Teleop Enabled,0,FALSE,0,NO ERROR,0.000000,-727.587891,0.000000,0.000000,Speed,Speed,-0.050000,1.470000,1.650000,2.000000,103.000000,1,0,-0.006200,-0.006200,0,0.000000,0.012848,0.000000,-0.122650,0.048065,0.000000,0.004000,0.037000,0.023000,FlatInitial
01:33:43.560 PM 02/14/2016,Teleop Enabled,0,FALSE,0,NO ERROR,0.000000,-727.587891,0.000000,0.000000,Speed,Speed,-0.080000,1.470000,1.700000,2.000000,106.000000,1,0,-0.006200,-0.006200,0,0.000000,0.010742,0.000000,-0.122650,0.049210,0.000000,0.007000,-0.077000,-0.006000,FlatInitial
01:33:43.660 PM 02/14/2016,Teleop Enabled,0,FALSE,0,NO ERROR,0.000000,-727.587891,4000.000000,4000.000000,Speed,Speed,-0.100000,1.430000,1.550000,3.000000,101.000000,1,0,-0.006200,-0.006200,0,0.000000,-0.035690,0.000000,-0.122650,0.048035,0.000000,0.008000,0.013000,0.013000,FlatInitial
01:33:43.762 PM 02/14/2016,Teleop Enabled,0,FALSE,0,NO ERROR,0.000000,-727.587891,4000.000000,4000.000000,Speed,Speed,-0.070000,1.470000,1.580000,3.000000,101.000000,1,0,-0.006200,-0.006200,0,0.000000,0.028473,0.000000,-0.122650,0.048645,0.000000,0.001000,0.018000,-0.004000,FlatInitial
01:33:43.863 PM 02/14/2016,Teleop Enabled,0,FALSE,0,NO ERROR,0.000000,-727.587891,4000.000000,4000.000000,Speed,Speed,-0.080000,1.450000,1.680000,3.000000,106.000000,1,0,-0.006200,-0.006200,0,0.000000,-0.007324,0.000000,-0.122650,0.048874,0.000000,-0.005000,0.011000,-0.003000,FlatInitial
01:33:43.963 PM 02/14/2016,Teleop Enabled,0,FALSE,0,NO ERROR,0.000000,-727.587891,4000.000000,4000.000000,Speed,Speed,-0.090000,1.470000,1.670000,3.000000,104.000000,1,0,-0.006200,-0.006200,0,0.000000,0.000000,0.000000,-0.122650,0.049072,0.000000,0.000000,0.013000,-0.004000,FlatInitial
01:33:44.064 PM 02/14/2016,Teleop Enabled,0,FALSE,0,NO ERROR,0.000000,-727.587891,4000.000000,4000.000000,Speed,Speed,-0.120000,1.440000,1.730000,3.000000,109.000000,1,0,-0.006200,-0.006200,0,0.000000,-0.009186,0.000000,-0.122650,0.048935,0.000000,0.001000,-0.030000,0.006000,FlatInitial
01:33:44.165 PM 02/14/2016,Teleop Enabled,0,FALSE,0,NO ERROR,0.000000,-727.587891,4000.000000,4000.000000,Speed,Speed,-0.130000,1.450000,1.610000,3.000000,100.000000,1,0,-0.006200,-0.006200,0,0.000000,0.000000,0.000000,-0.122650,0.048370,0.000000,0.002000,0.009000,0.000000,FlatInitial
01:33:44.266 PM 02/14/2016,Teleop Enabled,0,FALSE,0,NO ERROR,0.000000,-727.587891,4000.000000,4000.000000,Speed,Speed,-0.130000,1.450000,1.670000,3.000000,101.000000,1,0,-0.006200,-0.006200,0,0.000000,0.000000,0.000000,-0.122650,0.048370,0.000000,-0.005000,-0.008000,0.006000,FlatInitial
01:33:44.367 PM 02/14/2016,Teleop Enabled,0,FALSE,0,NO ERROR,0.000000,-727.587891,4000.000000,4000.000000,Speed,Speed,-0.130000,1.440000,1.640000,3.000000,102.000000,1,0,-0.006200,-0.006200,0,0.000000,0.003571,0.000000,-0.122650,0.048401,0.000000,0.003000,0.020000,-0.002000,FlatInitial
01:33:44.468 PM 02/14/2016,Teleop Enabled,0,FALSE,0,NO ERROR,0.000000,-727.587891,4000.000000,4000.000000,Speed,Speed,-0.130000,1.450000,1.690000,3.000000,104.000000,1,0,-0.006200,-0.006200,0,0.000000,0.000000,0.000000,-0.122650,0.048553,0.000000,-0.005000,-0.008000,-0.001000,FlatInitial
01:33:44.569 PM 02/14/2016,Teleop Enabled,0,FALSE,0,NO ERROR,0.000000,-727.587891,4000.000000,4000.000000,Speed,Speed,-0.130000,1.440000,1.660000,3.000000,102.000000,1,0,-0.006200,-0.006200,0,0.000000,0.000000,0.000000,-0.122650,0.048553,0.000000,0.000000,0.005000,0.000000,FlatInitial
01:33:44.670 PM 02/14/2016,Teleop Enabled,0,FALSE,0,NO ERROR,0.000000,-727.587891,4000.000000,4000.000000,Speed,Speed,-0.140000,1.450000,1.680000,3.000000,102.000000,1,0,-0.006200,-0.006200,0,0.000000,0.000000,0.000000,-0.122650,0.048553,0.000000,0.001000,-0.009000,0.003000,FlatInitial
01:33:44.770 PM 02/14/2016,Teleop Enabled,0,FALSE,0,NO ERROR,0.000000,-727.587891,4000.000000,4000.000000,Speed,Speed,-0.140000,1.440000,1.670000,3.000000,103.000000,1,0,-0.006200,-0.006200,0,0.000000,0.000000,0.000000,-0.122650,0.048553,0.000000,0.002000,0.007000,-0.002000,FlatInitial
01:33:44.871 PM 02/14/2016,Teleop Enabled,0,FALSE,0,NO ERROR,0.000000,-727.587891,4000.000000,4000.000000,Speed,Speed,-0.140000,1.450000,1.680000,3.000000,101.000000,1,0,-0.006200,-0.006200,0,0.000000,0.000000,0.000000,-0.122650,0.048553,0.000000,-0.002000,-0.005000,-0.001000,FlatInitial
01:33:44.972 PM 02/14/2016,Teleop Enabled,0,FALSE,0,NO ERROR,0.000000,-727.587891,4000.000000,4000.000000,Speed,Speed,-0.140000,1.450000,1.670000,3.000000,105.000000,1,0,-0.006200,-0.006200,0,0.000000,0.000000,0.000000,-0.122650,0.048553,0.000000,0.000000,0.007000,0.001000,FlatInitial
01:33:45.072 PM 02/14/2016,Teleop Enabled,0,FALSE,0,NO ERROR,0.000000,-727.587891,4000.000000,4000.000000,Speed,Speed,-0.140000,1.440000,1.670000,3.000000,100.000000,1,0,-0.006200,-0.006200,0,0.000000,0.000000,0.000000,-0.122650,0.048553,0.000000,0.000000,-0.006000,0.000000,FlatInitial
01:33:45.171 PM 02/14/2016,Teleop Enabled,0,FALSE,0,NO ERROR,0.000000,-727.587891,4000.000000,4000.000000,Speed,Speed,-0.140000,1.440000,1.660000,3.000000,102.000000,1,0,-0.006200,-0.006200,0,0.000000,0.000000,0.000000,-0.122650,0.048553,0.000000,-0.002000,0.000000,0.000000,FlatInitial
01:33:45.272 PM 02/14/2016,Teleop Enabled,0,FALSE,0,NO ERROR,0.000000,-727.587891,4000.000000,4000.000000,Speed,Speed,-0.130000,1.440000,1.660000,3.000000,101.000000,1,0,-0.006200,-0.006200,0,0.000000,0.000000,0.000000,-0.122650,0.048553,0.000000,0.000000,0.000000,0.003000,FlatInitial
01:33:45.372 PM 02/14/2016,Teleop Enabled,0,FALSE,0,NO ERROR,0.000000,-727.587891,4000.000000,4000.000000,Speed,Speed,-0.130000,1.430000,1.650000,3.000000,102.000000,1,0,-0.006200,-0.006200,0,0.000000,0.000000,0.000000,-0.122650,0.048553,0.000000,0.004000,0.001000,0.002000,FlatInitial
01:33:45.472 PM 02/14/2016,Teleop Enabled,0,FALSE,0,NO ERROR,0.000000,-727.587891,4000.000000,4000.000000,Speed,Speed,-0.130000,1.440000,1.660000,3.000000,101.000000,1,0,-0.006200,-0.006200,0,0.000000,0.000000,0.000000,-0.122650,0.048553,0.000000,0.000000,-0.004000,0.002000,FlatInitial
01:33:45.573 PM 02/14/2016,Teleop Enabled,0,FALSE,0,NO ERROR,0.000000,-727.587891,4000.000000,4000.000000,Speed,Speed,-0.130000,1.430000,1.650000,3.000000,103.000000,1,0,-0.006200,-0.006200,0,0.000000,0.000000,0.000000,-0.122650,0.048553,0.000000,0.000000,0.000000,-0.002000,FlatInitial
01:33:45.673 PM 02/14/2016,Teleop Enabled,0,FALSE,0,NO ERROR,0.000000,-727.587891,4000.000000,4000.000000,Speed,Speed,-0.130000,1.430000,1.650000,3.000000,102.000000,1,0,-0.006200,-0.006200,0,0.000000,0.000000,0.000000,-0.122650,0.048553,0.000000,-0.001000,-0.003000,0.007000,FlatInitial
01:33:45.775 PM 02/14/2016,Teleop Enabled,0,FALSE,0,NO ERROR,0.000000,-727.587891,4000.000000,4000.000000,Speed,Speed,-0.130000,1.430000,1.650000,3.000000,101.000000,1,0,-0.006200,-0.006200,0,0.000000,0.000000,0.000000,-0.122650,0.048553,0.000000,0.002000,0.002000,0.001000,FlatInitial
01:33:45.875 PM 02/14/2016,Teleop Enabled,0,FALSE,0,NO ERROR,0.000000,-727.587891,4000.000000,4000.000000,Speed,Speed,-0.130000,1.430000,1.650000,3.000000,105.000000,1,0,-0.006200,-0.006200,0,0.000000,0.000000,0.000000,-0.122650,0.048553,0.000000,-0.001000,-0.001000,0.000000,FlatInitial
01:33:45.975 PM 02/14/2016,Teleop Enabled,0,FALSE,0,NO ERROR,0.000000,-727.587891,4000.000000,4000.000000,Speed,Speed,-0.140000,1.430000,1.650000,3.000000,103.000000,1,0,-0.006200,-0.006200,0,0.000000,0.000000,0.000000,-0.122650,0.048553,0.000000,-0.001000,0.000000,0.001000,FlatInitial
01:33:46.076 PM 02/14/2016,Teleop Enabled,0,FALSE,0,NO ERROR,0.000000,-727.587891,4000.000000,4000.000000,Speed,Speed,-0.140000,1.440000,1.640000,3.000000,101.000000,1,0,-0.006200,-0.006200,0,0.000000,0.000000,0.000000,-0.122650,0.048553,0.000000,0.000000,-0.001000,0.002000,FlatInitial
01:33:46.178 PM 02/14/2016,Teleop Enabled,0,FALSE,0,NO ERROR,0.000000,-727.587891,4000.000000,4000.000000,Speed,Speed,-0.150000,1.440000,1.650000,3.000000,101.000000,1,0,-0.006200,-0.006200,0,0.000000,0.000000,0.000000,-0.122650,0.048553,0.000000,-0.002000,-0.001000,0.005000,FlatInitial
01:33:46.278 PM 02/14/2016,Teleop Enabled,0,FALSE,0,NO ERROR,0.000000,-727.587891,4000.000000,4000.000000,Speed,Speed,-0.140000,1.430000,1.650000,3.000000,101.000000,1,0,-0.006200,-0.006200,0,0.000000,0.000000,0.000000,-0.122650,0.048553,0.000000,0.003000,0.000000,-0.002000,FlatInitial
01:33:46.378 PM 02/14/2016,Teleop Enabled,0,FALSE,0,NO ERROR,0.000000,-727.587891,4000.000000,4000.000000,Speed,Speed,-0.150000,1.430000,1.650000,3.000000,101.000000,1,0,-0.006200,-0.006200,0,0.000000,0.000000,0.000000,-0.122650,0.048553,0.000000,0.001000,-0.001000,0.004000,FlatInitial
01:33:46.478 PM 02/14/2016,Teleop Enabled,0,FALSE,0,NO ERROR,0.000000,-727.587891,4000.000000,4000.000000,Speed,Speed,-0.160000,1.430000,1.650000,3.000000,102.000000,1,0,-0.006200,-0.006200,0,0.000000,0.000000,0.000000,-0.122650,0.048553,0.000000,-0.003000,0.001000,0.000000,FlatInitial
01:33:46.579 PM 02/14/2016,Teleop Enabled,0,FALSE,0,NO ERROR,0.000000,-727.587891,4000.000000,4000.000000,Speed,Speed,-0.170000,1.430000,1.650000,3.000000,101.000000,1,0,-0.006200,-0.006200,0,0.000000,0.000000,0.000000,-0.122650,0.048553,0.000000,0.000000,-0.004000,0.000000,FlatInitial
01:33:46.680 PM 02/14/2016,Teleop Enabled,0,FALSE,0,NO ERROR,0.000000,-727.587891,4000.000000,4000.000000,Speed,Speed,-0.180000,1.430000,1.670000,3.000000,101.000000,1,0,-0.006200,-0.006200,0,0.000000,0.000000,0.000000,-0.122650,0.048553,0.000000,0.000000,0.000000,0.003000,FlatInitial
01:33:46.780 PM 02/14/2016,Teleop Enabled,0,FALSE,0,NO ERROR,0.000000,-727.587891,4000.000000,4000.000000,Speed,Speed,-0.180000,1.430000,1.670000,3.000000,102.000000,1,0,-0.006200,-0.006200,0,0.000000,0.000000,0.000000,-0.122650,0.048553,0.000000,0.001000,0.000000,0.000000,FlatInitial
01:33:46.880 PM 02/14/2016,Teleop Enabled,0,FALSE,0,NO ERROR,0.000000,-727.587891,4000.000000,4000.000000,Speed,Speed,-0.180000,1.430000,1.670000,3.000000,105.000000,1,0,-0.006200,-0.006200,0,0.000000,0.000000,0.000000,-0.122650,0.048553,0.000000,-0.002000,-0.001000,0.008000,FlatInitial
01:33:46.981 PM 02/14/2016,Teleop Enabled,0,FALSE,0,NO ERROR,0.000000,-727.587891,4000.000000,4000.000000,Speed,Speed,-0.200000,1.430000,1.670000,3.000000,103.000000,1,0,-0.006200,-0.006200,0,0.000000,0.000000,0.000000,-0.122650,0.048553,0.000000,0.000000,-0.001000,0.000000,FlatInitial
01:33:47.080 PM 02/14/2016,Teleop Enabled,0,FALSE,0,NO ERROR,0.000000,-727.587891,4000.000000,4000.000000,Speed,Speed,-0.210000,1.430000,1.670000,3.000000,101.000000,1,0,-0.006200,-0.006200,0,0.000000,0.000000,0.000000,-0.122650,0.048553,0.000000,0.000000,0.000000,0.001000,FlatInitial
01:33:47.181 PM 02/14/2016,Teleop Enabled,0,FALSE,0,NO ERROR,0.000000,-727.587891,4000.000000,4000.000000,Speed,Speed,-0.210000,1.440000,1.670000,3.000000,102.000000,1,0,-0.006200,-0.006200,0,0.000000,0.000000,0.000000,-0.122650,0.048553,0.000000,0.000000,0.000000,0.001000,FlatInitial
01:33:47.283 PM 02/14/2016,Teleop Enabled,0,FALSE,0,NO ERROR,0.000000,-727.587891,4000.000000,4000.000000,Speed,Speed,-0.210000,1.440000,1.670000,3.000000,101.000000,1,0,-0.006200,-0.006200,0,0.000000,0.000000,0.000000,-0.122650,0.048553,0.000000,0.000000,0.000000,0.001000,FlatInitial
01:33:47.383 PM 02/14/2016,Teleop Enabled,0,FALSE,0,NO ERROR,0.000000,-727.587891,4000.000000,4000.000000,Speed,Speed,-0.200000,1.430000,1.670000,3.000000,102.000000,1,0,-0.006200,-0.006200,0,0.000000,0.000000,0.000000,-0.122650,0.048553,0.000000,0.003000,0.000000,-0.001000,FlatInitial
01:33:47.484 PM 02/14/2016,Teleop Enabled,0,FALSE,0,NO ERROR,0.000000,-727.587891,4000.000000,4000.000000,Speed,Speed,-0.210000,1.430000,1.680000,3.000000,101.000000,1,0,-0.006200,-0.006200,0,0.000000,0.000000,0.000000,-0.122650,0.048553,0.000000,-0.002000,0.001000,0.000000,FlatInitial
01:33:47.584 PM 02/14/2016,Teleop Enabled,0,FALSE,0,NO ERROR,0.000000,-727.587891,4000.000000,4000.000000,Speed,Speed,-0.220000,1.420000,1.700000,3.000000,101.000000,1,0,-0.006200,-0.006200,0,0.000000,0.000000,0.000000,-0.122650,0.048553,0.000000,-0.001000,0.000000,0.004000,FlatInitial
01:33:47.683 PM 02/14/2016,Teleop Enabled,0,FALSE,0,NO ERROR,0.000000,-727.587891,4000.000000,4000.000000,Speed,Speed,-0.310000,1.390000,1.820000,3.000000,101.000000,1,0,-0.006200,-0.006200,0,0.000000,0.000000,0.000000,-0.122650,0.048553,0.000000,-0.001000,0.000000,0.004000,FlatInitial
01:33:47.783 PM 02/14/2016,Teleop Enabled,0,FALSE,0,NO ERROR,0.000000,-727.587891,4000.000000,4000.000000,Speed,Speed,-0.480000,1.360000,2.160000,3.000000,103.000000,1,0,-0.006200,-0.006200,0,0.000000,0.000000,0.000000,-0.122650,0.048553,0.000000,0.003000,0.000000,0.004000,FlatInitial
01:33:47.883 PM 02/14/2016,Teleop Enabled,0,FALSE,0,NO ERROR,0.000000,-727.587891,4000.000000,4000.000000,Speed,Speed,-0.350000,1.340000,2.100000,3.000000,100.000000,1,0,-0.006200,-0.006200,0,0.000000,0.000000,0.000000,-0.122650,0.048553,0.000000,-0.008000,0.000000,0.000000,FlatInitial
01:33:47.983 PM 02/14/2016,Teleop Enabled,0,FALSE,0,NO ERROR,0.000000,-727.587891,4000.000000,4000.000000,Speed,Speed,-0.410000,1.350000,2.130000,3.000000,101.000000,1,0,-0.006200,-0.006200,0,0.000000,0.000000,0.000000,-0.122650,0.048553,0.000000,-0.001000,0.003000,0.003000,FlatInitial
01:33:48.084 PM 02/14/2016,Teleop Enabled,0,FALSE,0,NO ERROR,0.000000,-727.587891,4000.000000,4000.000000,Speed,Speed,-0.450000,1.340000,2.170000,3.000000,101.000000,1,0,-0.006200,-0.006200,0,0.000000,0.000000,0.000000,-0.122650,0.048553,0.000000,-0.001000,0.003000,0.003000,FlatInitial
01:33:48.184 PM 02/14/2016,Teleop Enabled,0,FALSE,0,NO ERROR,0.000000,-727.587891,4000.000000,4000.000000,Speed,Speed,-0.400000,1.340000,2.130000,3.000000,105.000000,1,0,-0.006200,-0.006200,0,0.000000,0.000000,0.000000,-0.122650,0.048553,0.000000,0.000000,0.000000,0.001000,FlatInitial
01:33:48.284 PM 02/14/2016,Teleop Enabled,0,FALSE,0,NO ERROR,0.000000,-727.587891,4000.000000,4000.000000,Speed,Speed,-0.400000,1.340000,2.130000,3.000000,101.000000,1,0,-0.006200,-0.006200,0,0.000000,0.000000,0.000000,-0.122650,0.048553,0.000000,0.001000,-0.009000,-0.006000,FlatInitial
01:33:48.384 PM 02/14/2016,Teleop Enabled,0,FALSE,0,NO ERROR,0.000000,-727.587891,4000.000000,4000.000000,Speed,Speed,-0.470000,1.350000,2.170000,3.000000,103.000000,1,0,-0.006200,-0.006200,0,0.000000,0.000000,0.000000,-0.122650,0.048553,0.000000,0.002000,0.001000,0.000000,FlatInitial
01:33:48.484 PM 02/14/2016,Teleop Enabled,0,FALSE,0,NO ERROR,0.000000,-727.587891,4000.000000,4000.000000,Speed,Speed,-0.430000,1.340000,2.160000,3.000000,100.000000,1,0,-0.006200,-0.006200,0,0.000000,0.000000,0.000000,-0.122650,0.048553,0.000000,0.006000,0.005000,0.018000,FlatInitial
01:33:48.585 PM 02/14/2016,Teleop Enabled,0,FALSE,0,NO ERROR,0.000000,-727.587891,4000.000000,4000.000000,Speed,Speed,-0.440000,1.340000,2.200000,3.000000,101.000000,1,0,-0.006200,-0.006200,0,0.000000,-0.001801,0.000000,-0.122650,0.048538,0.000000,-0.018000,-0.023000,-0.001000,FlatInitial
01:33:48.685 PM 02/14/2016,Teleop Enabled,0,FALSE,0,NO ERROR,0.000000,-727.587891,4000.000000,4000.000000,Speed,Speed,-0.480000,1.370000,2.180000,3.000000,101.000000,1,0,-0.006200,-0.006200,0,0.000000,0.000000,0.000000,-0.122650,0.048431,0.000000,-0.006000,0.011000,0.000000,FlatInitial
01:33:48.785 PM 02/14/2016,Teleop Enabled,0,FALSE,0,NO ERROR,0.000000,-727.587891,4000.000000,4000.000000,Speed,Speed,-0.440000,1.350000,2.200000,3.000000,101.000000,1,0,-0.006200,-0.006200,0,0.000000,0.000000,0.000000,-0.122650,0.048431,0.000000,0.010000,0.002000,-0.014000,FlatInitial
01:33:48.885 PM 02/14/2016,Teleop Enabled,0,FALSE,0,NO ERROR,0.000000,-727.587891,4000.000000,4000.000000,Speed,Speed,-0.470000,1.360000,2.210000,3.000000,101.000000,1,0,-0.006200,-0.006200,0,0.000000,0.000000,0.000000,-0.122650,0.048431,0.000000,0.001000,0.005000,0.008000,FlatInitial
01:33:48.985 PM 02/14/2016,Teleop Enabled,0,FALSE,0,NO ERROR,0.000000,-727.587891,4000.000000,4000.000000,Speed,Speed,-0.480000,1.350000,2.180000,3.000000,101.000000,1,0,-0.006200,-0.006200,0,0.000000,0.000000,0.000000,-0.122650,0.048431,0.000000,-0.004000,-0.009000,-0.010000,FlatInitial
01:33:49.086 PM 02/14/2016,Teleop Enabled,0,FALSE,0,NO ERROR,0.000000,-727.587891,4000.000000,4000.000000,Speed,Speed,-0.530000,1.370000,2.210000,3.000000,102.000000,1,0,-0.006200,-0.006200,0,0.000000,0.000000,0.000000,-0.122650,0.048431,0.000000,-0.001000,0.015000,0.001000,FlatInitial
01:33:49.186 PM 02/14/2016,Teleop Enabled,0,FALSE,0,NO ERROR,0.000000,-727.587891,4000.000000,4000.000000,Speed,Speed,-0.470000,1.340000,2.240000,3.000000,101.000000,1,0,-0.006200,-0.006200,0,0.000000,0.000000,0.000000,-0.122650,0.048431,0.000000,-0.002000,0.004000,0.002000,FlatInitial
01:33:49.287 PM 02/14/2016,Teleop Enabled,0,FALSE,0,NO ERROR,0.000000,-727.587891,4000.000000,4000.000000,Speed,Speed,-0.480000,1.350000,2.250000,3.000000,102.000000,1,0,-0.006200,-0.006200,0,0.000000,0.000000,0.000000,-0.122650,0.048431,0.000000,0.001000,0.004000,0.005000,FlatInitial
01:33:49.386 PM 02/14/2016,Teleop Enabled,0,FALSE,0,NO ERROR,0.000000,-727.587891,4000.000000,4000.000000,Speed,Speed,-0.500000,1.350000,2.250000,3.000000,103.000000,1,0,-0.006200,-0.006200,0,0.000000,0.000000,0.000000,-0.122650,0.048431,0.000000,0.000000,0.003000,0.004000,FlatInitial
01:33:49.488 PM 02/14/2016,Teleop Enabled,0,FALSE,0,NO ERROR,0.000000,-727.587891,4000.000000,4000.000000,Speed,Speed,-0.480000,1.350000,2.220000,3.000000,101.000000,1,0,-0.006200,-0.006200,0,0.000000,0.000000,0.000000,-0.122650,0.048431,0.000000,-0.002000,-0.006000,0.004000,FlatInitial
01:33:49.588 PM 02/14/2016,Teleop Enabled,0,FALSE,0,NO ERROR,0.000000,-727.587891,4000.000000,4000.000000,Speed,Speed,-0.480000,1.350000,2.200000,3.000000,104.000000,1,0,-0.006200,-0.006200,0,0.000000,0.000000,0.000000,-0.122650,0.048431,0.000000,0.005000,0.003000,0.004000,FlatInitial
01:33:49.689 PM 02/14/2016,Teleop Enabled,0,FALSE,0,NO ERROR,0.000000,-727.587891,4000.000000,4000.000000,Speed,Speed,-0.480000,1.340000,2.230000,3.000000,102.000000,1,0,-0.006200,-0.006200,0,0.000000,0.000000,0.000000,-0.122650,0.048431,0.000000,-0.003000,-0.003000,0.005000,FlatInitial
01:33:49.789 PM 02/14/2016,Teleop Enabled,0,FALSE,0,NO ERROR,0.000000,-727.587891,4000.000000,4000.000000,Speed,Speed,-0.500000,1.350000,2.240000,3.000000,101.000000,1,0,-0.006200,-0.006200,0,0.000000,0.000000,0.000000,-0.122650,0.048431,0.000000,0.001000,0.007000,0.002000,FlatInitial
01:33:49.889 PM 02/14/2016,Teleop Enabled,0,FALSE,0,NO ERROR,0.000000,-727.587891,4000.000000,4000.000000,Speed,Speed,-0.510000,1.350000,2.230000,3.000000,102.000000,1,0,-0.006200,-0.006200,0,0.000000,0.000000,0.000000,-0.122650,0.048431,0.000000,0.000000,-0.005000,-0.001000,FlatInitial
01:33:49.989 PM 02/14/2016,Teleop Enabled,0,FALSE,0,NO ERROR,0.000000,-727.587891,4000.000000,4000.000000,Speed,Speed,-0.510000,1.340000,2.250000,3.000000,102.000000,1,0,-0.006200,-0.006200,0,0.000000,0.000000,0.000000,-0.122650,0.048431,0.000000,-0.003000,0.004000,0.006000,FlatInitial
01:33:50.088 PM 02/14/2016,Teleop Enabled,0,FALSE,0,NO ERROR,0.000000,-727.587891,4000.000000,4000.000000,Speed,Speed,-0.500000,1.340000,2.240000,3.000000,102.000000,1,0,-0.006200,-0.006200,0,0.000000,0.000000,0.000000,-0.122650,0.048431,0.000000,-0.002000,0.005000,0.003000,FlatInitial
01:33:50.188 PM 02/14/2016,Teleop Enabled,0,FALSE,0,NO ERROR,0.000000,-727.587891,4000.000000,4000.000000,Speed,Speed,-0.500000,1.340000,2.240000,3.000000,106.000000,1,0,-0.006200,-0.006200,0,0.000000,0.000000,0.000000,-0.122650,0.048431,0.000000,0.000000,0.000000,0.001000,FlatInitial
01:33:50.289 PM 02/14/2016,Teleop Enabled,0,FALSE,0,NO ERROR,0.000000,-727.587891,4000.000000,4000.000000,Speed,Speed,-0.500000,1.350000,2.200000,3.000000,101.000000,1,0,-0.006200,-0.006200,0,0.000000,0.000000,0.000000,-0.122650,0.048431,0.000000,0.005000,-0.014000,-0.009000,FlatInitial
01:33:50.390 PM 02/14/2016,Teleop Enabled,0,FALSE,0,NO ERROR,0.000000,-727.587891,4000.000000,4000.000000,Speed,Speed,-0.490000,1.380000,2.000000,3.000000,102.000000,1,0,-0.006200,-0.006200,0,0.000000,0.006760,0.000000,-0.122650,0.048538,0.000000,-0.003000,0.011000,0.003000,FlatInitial
01:33:50.491 PM 02/14/2016,Teleop Enabled,0,FALSE,0,NO ERROR,0.000000,-727.587891,4000.000000,4000.000000,Speed,Speed,-0.470000,1.370000,1.950000,3.000000,102.000000,1,0,-0.006200,-0.006200,0,0.000000,0.000000,0.000000,-0.122650,0.048615,0.000000,-0.001000,0.000000,-0.005000,FlatInitial
01:33:50.590 PM 02/14/2016,Teleop Enabled,0,FALSE,0,NO ERROR,0.000000,-727.587891,4000.000000,4000.000000,Speed,Speed,-0.450000,1.400000,1.890000,3.000000,103.000000,1,0,-0.006200,-0.006200,0,0.000000,0.000000,0.000000,-0.122650,0.048615,0.000000,-0.011000,-0.002000,0.005000,FlatInitial
01:33:50.690 PM 02/14/2016,Teleop Enabled,0,FALSE,0,NO ERROR,0.000000,-727.587891,4000.000000,4000.000000,Speed,Speed,-0.330000,1.420000,1.660000,3.000000,101.000000,1,0,-0.006200,-0.006200,0,0.000000,0.006546,0.000000,-0.122650,0.048721,0.000000,0.016000,0.003000,-0.030000,FlatInitial
01:33:50.791 PM 02/14/2016,Teleop Enabled,0,FALSE,0,NO ERROR,0.000000,-727.587891,4000.000000,4000.000000,Speed,Speed,-0.410000,1.420000,1.720000,3.000000,101.000000,1,0,-0.006200,-0.006200,0,0.000000,0.000000,0.000000,-0.122650,0.048798,0.000000,-0.014000,-0.002000,-0.014000,FlatInitial
01:33:50.890 PM 02/14/2016,Teleop Enabled,0,FALSE,0,NO ERROR,0.000000,-727.587891,4000.000000,4000.000000,Speed,Speed,-0.390000,1.400000,1.640000,3.000000,101.000000,1,0,-0.006200,-0.006200,0,0.000000,0.000000,0.000000,-0.122650,0.048798,0.000000,0.011000,0.004000,-0.003000,FlatInitial
01:33:50.991 PM 02/14/2016,Teleop Enabled,0,FALSE,0,NO ERROR,0.000000,-727.587891,4000.000000,4000.000000,Speed,Speed,-0.350000,1.420000,1.620000,3.000000,103.000000,1,0,-0.006200,-0.006200,0,0.000000,0.000000,0.000000,-0.122650,0.048798,0.000000,0.003000,-0.007000,0.005000,FlatInitial
01:33:51.091 PM 02/14/2016,Teleop Enabled,0,FALSE,0,NO ERROR,0.000000,-727.587891,4000.000000,4000.000000,Speed,Speed,-0.360000,1.430000,1.590000,3.000000,101.000000,1,0,-0.006200,-0.006200,0,0.000000,0.000000,0.000000,-0.122650,0.048798,0.000000,-0.003000,0.010000,0.001000,FlatInitial
01:33:51.191 PM 02/14/2016,Teleop Enabled,0,FALSE,0,NO ERROR,0.000000,-727.587891,4000.000000,4000.000000,Speed,Speed,-0.330000,1.430000,1.590000,3.000000,101.000000,1,0,-0.006200,-0.006200,0,0.000000,0.000000,0.000000,-0.122650,0.048798,0.000000,0.003000,-0.006000,0.007000,FlatInitial
01:33:51.291 PM 02/14/2016,Teleop Enabled,0,FALSE,0,NO ERROR,0.000000,-727.587891,4000.000000,4000.000000,Speed,Speed,-0.350000,1.420000,1.600000,3.000000,101.000000,1,0,-0.006200,-0.006200,0,0.000000,0.000000,0.000000,-0.122650,0.048798,0.000000,0.003000,-0.003000,0.005000,FlatInitial
01:33:51.391 PM 02/14/2016,Teleop Enabled,0,FALSE,0,NO ERROR,0.000000,-727.587891,4000.000000,4000.000000,Speed,Speed,-0.370000,1.430000,1.600000,3.000000,102.000000,1,0,-0.006200,-0.006200,0,0.000000,0.000000,0.000000,-0.122650,0.048798,0.000000,0.002000,-0.010000,0.000000,FlatInitial
01:33:51.492 PM 02/14/2016,Teleop Enabled,0,FALSE,0,NO ERROR,0.000000,-727.587891,4000.000000,4000.000000,Speed,Speed,-0.420000,1.440000,1.600000,3.000000,101.000000,1,0,-0.006200,-0.006200,0,0.000000,0.000000,0.000000,-0.122650,0.048798,0.000000,0.000000,0.005000,-0.003000,FlatInitial
01:33:51.592 PM 02/14/2016,Teleop Enabled,0,FALSE,0,NO ERROR,0.000000,-727.587891,4000.000000,4000.000000,Speed,Speed,-0.400000,1.430000,1.660000,3.000000,103.000000,1,0,-0.006200,-0.006200,0,0.000000,0.000000,0.000000,-0.122650,0.048798,0.000000,0.001000,0.006000,0.001000,FlatInitial
01:33:51.692 PM 02/14/2016,Teleop Enabled,0,FALSE,0,NO ERROR,0.000000,-727.587891,4000.000000,4000.000000,Speed,Speed,-0.400000,1.430000,1.660000,3.000000,103.000000,1,0,-0.006200,-0.006200,0,0.000000,0.000000,0.000000,-0.122650,0.048798,0.000000,-0.002000,0.001000,0.001000,FlatInitial
01:33:51.792 PM 02/14/2016,Teleop Enabled,0,FALSE,0,NO ERROR,0.000000,-727.587891,4000.000000,4000.000000,Speed,Speed,-0.400000,1.430000,1.660000,3.000000,105.000000,1,0,-0.006200,-0.006200,0,0.000000,0.000000,0.000000,-0.122650,0.048798,0.000000,-0.001000,-0.004000,0.002000,FlatInitial
01:33:51.892 PM 02/14/2016,Teleop Enabled,0,FALSE,0,NO ERROR,0.000000,-727.587891,4000.000000,4000.000000,Speed,Speed,-0.410000,1.430000,1.630000,3.000000,100.000000,1,0,-0.006200,-0.006200,0,0.000000,0.000000,0.000000,-0.122650,0.048798,0.000000,0.000000,0.000000,-0.002000,FlatInitial
01:33:51.993 PM 02/14/2016,Teleop Enabled,0,FALSE,0,NO ERROR,0.000000,-727.587891,4000.000000,4000.000000,Speed,Speed,-0.410000,1.420000,1.640000,3.000000,102.000000,1,0,-0.006200,-0.006200,0,0.000000,0.000000,0.000000,-0.122650,0.048798,0.000000,0.000000,0.003000,0.004000,FlatInitial
01:33:52.092 PM 02/14/2016,Teleop Enabled,0,FALSE,0,NO ERROR,0.000000,-727.587891,4000.000000,4000.000000,Speed,Speed,-0.380000,1.420000,1.650000,3.000000,101.000000,1,0,-0.006200,-0.006200,0,0.000000,0.000000,0.000000,-0.122650,0.048798,0.000000,0.000000,0.002000,0.000000,FlatInitial
01:33:52.193 PM 02/14/2016,Teleop Enabled,0,FALSE,0,NO ERROR,0.000000,-727.587891,4000.000000,4000.000000,Speed,Speed,-0.400000,1.410000,1.660000,3.000000,103.000000,1,0,-0.006200,-0.006200,0,0.000000,0.000000,0.000000,-0.122650,0.048798,0.000000,0.000000,-0.003000,0.000000,FlatInitial
01:33:52.294 PM 02/14/2016,Teleop Enabled,0,FALSE,0,NO ERROR,0.000000,-727.587891,4000.000000,4000.000000,Speed,Speed,-0.410000,1.400000,1.650000,3.000000,103.000000,1,0,-0.006200,-0.006200,0,0.000000,0.000000,0.000000,-0.122650,0.048798,0.000000,-0.001000,-0.002000,0.000000,FlatInitial
01:33:52.394 PM 02/14/2016,Teleop Enabled,0,FALSE,0,NO ERROR,0.000000,-727.587891,4000.000000,4000.000000,Speed,Speed,-0.430000,1.410000,1.680000,3.000000,100.000000,1,0,-0.006200,-0.006200,0,0.000000,0.000000,0.000000,-0.122650,0.048798,0.000000,0.003000,0.000000,0.007000,FlatInitial
01:33:52.494 PM 02/14/2016,Teleop Enabled,0,FALSE,0,NO ERROR,0.000000,-727.587891,4000.000000,4000.000000,Speed,Speed,-0.430000,1.400000,1.680000,3.000000,102.000000,1,0,-0.006200,-0.006200,0,0.000000,0.000000,0.000000,-0.122650,0.048798,0.000000,-0.003000,-0.003000,0.008000,FlatInitial
01:33:52.595 PM 02/14/2016,Teleop Enabled,0,FALSE,0,NO ERROR,0.000000,-727.587891,4000.000000,4000.000000,Speed,Speed,-0.400000,1.400000,1.680000,3.000000,104.000000,1,0,-0.006200,-0.006200,0,0.000000,0.000000,0.000000,-0.122650,0.048798,0.000000,-0.001000,-0.006000,0.000000,FlatInitial
01:33:52.696 PM 02/14/2016,Teleop Enabled,0,FALSE,0,NO ERROR,0.000000,-727.587891,4000.000000,4000.000000,Speed,Speed,-0.400000,1.400000,1.690000,3.000000,103.000000,1,0,-0.006200,-0.006200,0,0.000000,0.000000,0.000000,-0.122650,0.048798,0.000000,0.010000,-0.001000,0.000000,FlatInitial
01:33:52.796 PM 02/14/2016,Teleop Enabled,0,FALSE,0,NO ERROR,0.000000,-727.587891,4000.000000,4000.000000,Speed,Speed,-0.400000,1.400000,1.680000,3.000000,100.000000,1,0,-0.006200,-0.006200,0,0.000000,0.000000,0.000000,-0.122650,0.048798,0.000000,-0.006000,0.000000,-0.003000,FlatInitial
01:33:52.896 PM 02/14/2016,Teleop Enabled,0,FALSE,0,NO ERROR,0.000000,-727.587891,4000.000000,4000.000000,Speed,Speed,-0.430000,1.420000,1.680000,3.000000,102.000000,1,0,-0.006200,-0.006200,0,0.000000,0.000000,0.000000,-0.122650,0.048798,0.000000,-0.001000,0.002000,-0.001000,FlatInitial
01:33:52.996 PM 02/14/2016,Teleop Enabled,0,FALSE,0,NO ERROR,0.000000,-727.587891,4000.000000,4000.000000,Speed,Speed,-0.430000,1.410000,1.670000,3.000000,100.000000,1,0,-0.006200,-0.006200,0,0.000000,0.000000,0.000000,-0.122650,0.048798,0.000000,0.001000,0.000000,0.004000,FlatInitial
01:33:53.096 PM 02/14/2016,Teleop Enabled,0,FALSE,0,NO ERROR,0.000000,-727.587891,4000.000000,4000.000000,Speed,Speed,-0.430000,1.400000,1.690000,3.000000,103.000000,1,0,-0.006200,-0.006200,0,0.000000,0.000000,0.000000,-0.122650,0.048798,0.000000,0.000000,0.002000,0.001000,FlatInitial
01:33:53.196 PM 02/14/2016,Teleop Enabled,0,FALSE,0,NO ERROR,0.000000,-727.587891,4000.000000,4000.000000,Speed,Speed,-0.380000,1.410000,1.680000,3.000000,100.000000,1,0,-0.006200,-0.006200,0,0.000000,0.000000,0.000000,-0.122650,0.048798,0.000000,0.003000,0.000000,0.000000,FlatInitial
01:33:53.296 PM 02/14/2016,Teleop Enabled,0,FALSE,0,NO ERROR,0.000000,-727.587891,4000.000000,4000.000000,Speed,Speed,-0.370000,1.410000,1.680000,3.000000,104.000000,1,0,-0.006200,-0.006200,0,0.000000,0.000000,0.000000,-0.122650,0.048798,0.000000,0.000000,-0.001000,0.000000,FlatInitial
01:33:53.396 PM 02/14/2016,Teleop Enabled,0,FALSE,0,NO ERROR,0.000000,-727.587891,4000.000000,4000.000000,Speed,Speed,-0.380000,1.400000,1.660000,3.000000,101.000000,1,0,-0.006200,-0.006200,0,0.000000,0.000000,0.000000,-0.122650,0.048798,0.000000,-0.004000,0.000000,-0.002000,FlatInitial
01:33:53.496 PM 02/14/2016,Teleop Enabled,0,FALSE,0,NO ERROR,0.000000,-727.587891,4000.000000,4000.000000,Speed,Speed,-0.350000,1.420000,1.620000,3.000000,101.000000,1,0,-0.006200,-0.006200,0,0.000000,0.000000,0.000000,-0.122650,0.048798,0.000000,0.000000,0.000000,0.000000,FlatInitial
01:33:53.596 PM 02/14/2016,Teleop Enabled,0,FALSE,0,NO ERROR,0.000000,-727.587891,4000.000000,4000.000000,Speed,Speed,-0.330000,1.410000,1.630000,3.000000,101.000000,1,0,-0.006200,-0.006200,0,0.000000,0.000000,0.000000,-0.122650,0.048798,0.000000,0.001000,0.002000,0.002000,FlatInitial
01:33:53.696 PM 02/14/2016,Teleop Enabled,0,FALSE,0,NO ERROR,0.000000,-727.587891,4000.000000,4000.000000,Speed,Speed,-0.330000,1.420000,1.640000,3.000000,102.000000,1,0,-0.006200,-0.006200,0,0.000000,0.000000,0.000000,-0.122650,0.048798,0.000000,0.001000,-0.003000,0.000000,FlatInitial
01:33:53.798 PM 02/14/2016,Teleop Enabled,0,FALSE,0,NO ERROR,0.000000,-727.587891,4000.000000,4000.000000,Speed,Speed,-0.380000,1.420000,1.650000,3.000000,103.000000,1,0,-0.006200,-0.006200,0,0.000000,0.000000,0.000000,-0.122650,0.048798,0.000000,-0.003000,-0.004000,-0.002000,FlatInitial
01:33:53.898 PM 02/14/2016,Teleop Enabled,0,FALSE,0,NO ERROR,0.000000,-727.587891,4000.000000,4000.000000,Speed,Speed,-0.380000,1.420000,1.650000,3.000000,103.000000,1,0,-0.006200,-0.006200,0,0.000000,0.000000,0.000000,-0.122650,0.048798,0.000000,0.000000,0.004000,0.002000,FlatInitial
01:33:53.999 PM 02/14/2016,Teleop Enabled,0,FALSE,0,NO ERROR,0.000000,-727.587891,4000.000000,4000.000000,Speed,Speed,-0.380000,1.410000,1.670000,3.000000,101.000000,1,0,-0.006200,-0.006200,0,0.000000,0.000000,0.000000,-0.122650,0.048798,0.000000,0.002000,0.003000,0.006000,FlatInitial
01:33:54.100 PM 02/14/2016,Teleop Enabled,0,FALSE,0,NO ERROR,0.000000,-727.587891,4000.000000,4000.000000,Speed,Speed,-0.380000,1.410000,1.670000,3.000000,101.000000,1,0,-0.006200,-0.006200,0,0.000000,0.000000,0.000000,-0.122650,0.048798,0.000000,0.000000,0.000000,-0.001000,FlatInitial
01:33:54.200 PM 02/14/2016,Teleop Enabled,0,FALSE,0,NO ERROR,0.000000,-727.587891,4000.000000,4000.000000,Speed,Speed,-0.380000,1.410000,1.670000,3.000000,102.000000,1,0,-0.006200,-0.006200,0,0.000000,0.000000,0.000000,-0.122650,0.048798,0.000000,0.000000,-0.007000,0.000000,FlatInitial
01:33:54.301 PM 02/14/2016,Teleop Enabled,0,FALSE,0,NO ERROR,0.000000,-727.587891,4000.000000,4000.000000,Speed,Speed,-0.390000,1.410000,1.670000,3.000000,103.000000,1,0,-0.006200,-0.006200,0,0.000000,0.000000,0.000000,-0.122650,0.048798,0.000000,0.000000,-0.001000,0.003000,FlatInitial
01:33:54.401 PM 02/14/2016,Teleop Enabled,0,FALSE,0,NO ERROR,0.000000,-727.587891,4000.000000,4000.000000,Speed,Speed,-0.400000,1.410000,1.710000,3.000000,102.000000,1,0,-0.006200,-0.006200,0,0.000000,0.000000,0.000000,-0.122650,0.048798,0.000000,0.006000,0.001000,0.000000,FlatInitial
01:33:54.500 PM 02/14/2016,Teleop Enabled,0,FALSE,0,NO ERROR,0.000000,-727.587891,4000.000000,4000.000000,Speed,Speed,-0.420000,1.410000,1.710000,3.000000,101.000000,1,0,-0.006200,-0.006200,0,0.000000,0.000000,0.000000,-0.122650,0.048798,0.000000,0.006000,0.001000,0.000000,FlatInitial
01:33:54.601 PM 02/14/2016,Teleop Enabled,0,FALSE,0,NO ERROR,0.000000,-727.587891,4000.000000,4000.000000,Speed,Speed,-0.410000,1.410000,1.680000,3.000000,101.000000,1,0,-0.006200,-0.006200,0,0.000000,0.000000,0.000000,-0.122650,0.048798,0.000000,0.001000,-0.002000,0.005000,FlatInitial
01:33:54.702 PM 02/14/2016,Teleop Enabled,0,FALSE,0,NO ERROR,0.000000,-727.587891,4000.000000,4000.000000,Speed,Speed,-0.400000,1.410000,1.680000,3.000000,103.000000,1,0,-0.006200,-0.006200,0,0.000000,0.000000,0.000000,-0.122650,0.048798,0.000000,-0.006000,0.000000,0.001000,FlatInitial
01:33:54.802 PM 02/14/2016,Teleop Enabled,0,FALSE,0,NO ERROR,0.000000,-727.587891,4000.000000,4000.000000,Speed,Speed,-0.400000,1.410000,1.690000,3.000000,100.000000,1,0,-0.006200,-0.006200,0,0.000000,0.000000,0.000000,-0.122650,0.048798,0.000000,-0.002000,0.001000,-0.001000,FlatInitial
01:33:54.902 PM 02/14/2016,Teleop Enabled,0,FALSE,0,NO ERROR,0.000000,-727.587891,4000.000000,4000.000000,Speed,Speed,-0.400000,1.420000,1.680000,3.000000,104.000000,1,0,-0.006200,-0.006200,0,0.000000,0.000000,0.000000,-0.122650,0.048798,0.000000,0.002000,-0.001000,0.001000,FlatInitial
01:33:55.003 PM 02/14/2016,Teleop Enabled,0,FALSE,0,NO ERROR,0.000000,-727.587891,4000.000000,4000.000000,Speed,Speed,-0.400000,1.410000,1.680000,3.000000,101.000000,1,0,-0.006200,-0.006200,0,0.000000,0.000000,0.000000,-0.122650,0.048798,0.000000,0.003000,0.000000,-0.003000,FlatInitial
01:33:55.104 PM 02/14/2016,Teleop Enabled,0,FALSE,0,NO ERROR,0.000000,-727.587891,4000.000000,4000.000000,Speed,Speed,-0.400000,1.410000,1.680000,3.000000,101.000000,1,0,-0.006200,-0.006200,0,0.000000,0.000000,0.000000,-0.122650,0.048798,0.000000,0.003000,0.000000,-0.003000,FlatInitial
01:33:55.205 PM 02/14/2016,Teleop Enabled,0,FALSE,0,NO ERROR,0.000000,-727.587891,4000.000000,4000.000000,Speed,Speed,-0.400000,1.410000,1.680000,3.000000,102.000000,1,0,-0.006200,-0.006200,0,0.000000,0.000000,0.000000,-0.122650,0.048798,0.000000,-0.002000,0.005000,0.000000,FlatInitial
01:33:55.306 PM 02/14/2016,Teleop Enabled,0,FALSE,0,NO ERROR,0.000000,-727.587891,4000.000000,4000.000000,Speed,Speed,-0.400000,1.410000,1.680000,3.000000,102.000000,1,0,-0.006200,-0.006200,0,0.000000,0.000000,0.000000,-0.122650,0.048798,0.000000,0.003000,0.001000,-0.003000,FlatInitial
01:33:55.406 PM 02/14/2016,Teleop Enabled,0,FALSE,0,NO ERROR,0.000000,-727.587891,4000.000000,4000.000000,Speed,Speed,-0.390000,1.410000,1.670000,3.000000,101.000000,1,0,-0.006200,-0.006200,0,0.000000,0.000000,0.000000,-0.122650,0.048798,0.000000,0.002000,0.000000,0.000000,FlatInitial
01:33:55.507 PM 02/14/2016,Teleop Enabled,0,FALSE,0,NO ERROR,0.000000,-727.587891,4000.000000,4000.000000,Speed,Speed,-0.400000,1.420000,1.680000,3.000000,101.000000,1,0,-0.006200,-0.006200,0,0.000000,0.000000,0.000000,-0.122650,0.048798,0.000000,0.000000,0.000000,0.002000,FlatInitial
01:33:55.607 PM 02/14/2016,Teleop Enabled,0,FALSE,0,NO ERROR,0.000000,-727.587891,4000.000000,4000.000000,Speed,Speed,-0.400000,1.420000,1.690000,3.000000,102.000000,1,0,-0.006200,-0.006200,0,0.000000,0.000000,0.000000,-0.122650,0.048798,0.000000,0.000000,0.000000,0.003000,FlatInitial
01:33:55.708 PM 02/14/2016,Teleop Enabled,0,FALSE,0,NO ERROR,0.000000,-727.587891,4000.000000,4000.000000,Speed,Speed,-0.410000,1.420000,1.700000,3.000000,103.000000,1,0,-0.006200,-0.006200,0,0.000000,0.000000,0.000000,-0.122650,0.048798,0.000000,0.000000,0.003000,0.004000,FlatInitial
01:33:55.812 PM 02/14/2016,Teleop Enabled,0,FALSE,0,NO ERROR,0.000000,-727.587891,4000.000000,4000.000000,Speed,Speed,-0.410000,1.420000,1.700000,3.000000,102.000000,1,0,-0.006200,-0.006200,0,0.000000,0.000000,0.000000,-0.122650,0.048798,0.000000,0.001000,-0.002000,0.003000,FlatInitial
01:33:55.911 PM 02/14/2016,Teleop Enabled,0,FALSE,0,NO ERROR,0.000000,-727.587891,4000.000000,4000.000000,Speed,Speed,-0.430000,1.410000,1.700000,3.000000,103.000000,1,0,-0.006200,-0.006200,0,0.000000,0.000000,0.000000,-0.122650,0.048798,0.000000,0.000000,0.000000,0.002000,FlatInitial
01:33:56.011 PM 02/14/2016,Teleop Enabled,0,FALSE,0,NO ERROR,0.000000,-727.587891,4000.000000,4000.000000,Speed,Speed,-0.430000,1.420000,1.700000,3.000000,103.000000,1,0,-0.006200,-0.006200,0,0.000000,0.000000,0.000000,-0.122650,0.048798,0.000000,0.001000,-0.001000,0.000000,FlatInitial
01:33:56.112 PM 02/14/2016,Teleop Enabled,0,FALSE,0,NO ERROR,0.000000,-727.587891,4000.000000,4000.000000,Speed,Speed,-0.430000,1.420000,1.700000,3.000000,102.000000,1,0,-0.006200,-0.006200,0,0.000000,0.000000,0.000000,-0.122650,0.048798,0.000000,0.001000,-0.002000,0.000000,FlatInitial
01:33:56.213 PM 02/14/2016,Teleop Enabled,0,FALSE,0,NO ERROR,0.000000,-727.587891,4000.000000,4000.000000,Speed,Speed,-0.430000,1.420000,1.710000,3.000000,101.000000,1,0,-0.006200,-0.006200,0,0.000000,0.000000,0.000000,-0.122650,0.048798,0.000000,0.000000,0.000000,0.002000,FlatInitial
01:33:56.312 PM 02/14/2016,Teleop Enabled,0,FALSE,0,NO ERROR,0.000000,-727.587891,4000.000000,4000.000000,Speed,Speed,-0.430000,1.420000,1.700000,3.000000,101.000000,1,0,-0.006200,-0.006200,0,0.000000,0.000000,0.000000,-0.122650,0.048798,0.000000,0.000000,-0.001000,-0.002000,FlatInitial
01:33:56.413 PM 02/14/2016,Teleop Enabled,0,FALSE,0,NO ERROR,0.000000,-727.587891,4000.000000,4000.000000,Speed,Speed,-0.430000,1.420000,1.700000,3.000000,102.000000,1,0,-0.006200,-0.006200,0,0.000000,0.000000,0.000000,-0.122650,0.048798,0.000000,0.002000,0.000000,0.000000,FlatInitial
01:33:56.513 PM 02/14/2016,Teleop Enabled,0,FALSE,0,NO ERROR,0.000000,-727.587891,4000.000000,4000.000000,Speed,Speed,-0.430000,1.430000,1.690000,3.000000,102.000000,1,0,-0.006200,-0.006200,0,0.000000,0.000000,0.000000,-0.122650,0.048798,0.000000,0.000000,0.001000,0.005000,FlatInitial
01:33:56.612 PM 02/14/2016,Teleop Enabled,0,FALSE,0,NO ERROR,0.000000,-727.587891,4000.000000,4000.000000,Speed,Speed,-0.430000,1.430000,1.690000,3.000000,102.000000,1,0,-0.006200,-0.006200,0,0.000000,0.000000,0.000000,-0.122650,0.048798,0.000000,0.000000,0.001000,0.002000,FlatInitial
01:33:56.712 PM 02/14/2016,Teleop Enabled,0,FALSE,0,NO ERROR,0.000000,-727.587891,4000.000000,4000.000000,Speed,Speed,-0.430000,1.410000,1.690000,3.000000,105.000000,1,0,-0.006200,-0.006200,0,0.000000,0.000000,0.000000,-0.122650,0.048798,0.000000,-0.002000,-0.008000,0.032000,FlatInitial
01:33:56.813 PM 02/14/2016,Teleop Enabled,0,FALSE,0,NO ERROR,0.000000,-727.587891,4000.000000,4000.000000,Speed,Speed,-0.440000,1.430000,1.690000,3.000000,104.000000,1,0,-0.006200,-0.006200,0,0.000000,0.000000,0.000000,-0.122650,0.048798,0.000000,0.007000,0.000000,0.005000,FlatInitial
01:33:56.914 PM 02/14/2016,Teleop Enabled,0,FALSE,0,NO ERROR,0.000000,-727.587891,4000.000000,4000.000000,Speed,Speed,-0.440000,1.420000,1.720000,3.000000,105.000000,1,0,-0.006200,-0.006200,0,0.000000,0.000000,0.000000,-0.122650,0.048798,0.000000,0.000000,0.002000,0.004000,FlatInitial
01:33:57.015 PM 02/14/2016,Teleop Enabled,0,FALSE,0,NO ERROR,0.000000,-727.587891,4000.000000,4000.000000,Speed,Speed,-0.440000,1.430000,1.720000,3.000000,100.000000,1,0,-0.006200,-0.006200,0,0.000000,0.000000,0.000000,-0.122650,0.048798,0.000000,-0.001000,0.000000,-0.001000,FlatInitial
01:33:57.115 PM 02/14/2016,Teleop Enabled,0,FALSE,0,NO ERROR,0.000000,-727.587891,4000.000000,4000.000000,Speed,Speed,-0.450000,1.420000,1.710000,3.000000,102.000000,1,0,-0.006200,-0.006200,0,0.000000,0.000000,0.000000,-0.122650,0.048798,0.000000,0.001000,-0.001000,-0.003000,FlatInitial
01:33:57.215 PM 02/14/2016,Teleop Enabled,0,FALSE,0,NO ERROR,0.000000,-727.587891,4000.000000,4000.000000,Speed,Speed,-0.450000,1.420000,1.720000,3.000000,100.000000,1,0,-0.006200,-0.006200,0,0.000000,0.000000,0.000000,-0.122650,0.048798,0.000000,-0.001000,0.000000,0.000000,FlatInitial
01:33:57.315 PM 02/14/2016,Teleop Enabled,0,FALSE,0,NO ERROR,0.000000,-727.587891,4000.000000,4000.000000,Speed,Speed,-0.460000,1.410000,1.730000,3.000000,101.000000,1,0,-0.006200,-0.006200,0,0.000000,0.000000,0.000000,-0.122650,0.048798,0.000000,0.000000,0.000000,0.003000,FlatInitial
01:33:57.416 PM 02/14/2016,Teleop Enabled,0,FALSE,0,NO ERROR,0.000000,-727.587891,4000.000000,4000.000000,Speed,Speed,-0.470000,1.410000,1.740000,3.000000,102.000000,1,0,-0.006200,-0.006200,0,0.000000,0.000000,0.000000,-0.122650,0.048798,0.000000,0.000000,-0.001000,0.003000,FlatInitial
01:33:57.516 PM 02/14/2016,Teleop Enabled,0,FALSE,0,NO ERROR,0.000000,-727.587891,4000.000000,4000.000000,Speed,Speed,-0.490000,1.420000,1.760000,3.000000,102.000000,1,0,-0.006200,-0.006200,0,0.000000,0.000000,0.000000,-0.122650,0.048798,0.000000,-0.007000,0.001000,0.005000,FlatInitial
01:33:57.618 PM 02/14/2016,Teleop Enabled,0,FALSE,0,NO ERROR,0.000000,-727.587891,4000.000000,4000.000000,Speed,Speed,-0.460000,1.420000,1.740000,3.000000,102.000000,1,0,-0.006200,-0.006200,0,0.000000,0.000000,0.000000,-0.122650,0.048798,0.000000,0.009000,0.000000,0.002000,FlatInitial
01:33:57.718 PM 02/14/2016,Teleop Enabled,0,FALSE,0,NO ERROR,0.000000,-727.587891,4000.000000,4000.000000,Speed,Speed,-0.490000,1.420000,1.720000,3.000000,102.000000,1,0,-0.006200,-0.006200,0,0.000000,0.000000,0.000000,-0.122650,0.048798,0.000000,0.003000,-0.010000,0.000000,FlatInitial
01:33:57.818 PM 02/14/2016,Teleop Enabled,0,FALSE,0,NO ERROR,0.000000,-727.587891,4000.000000,4000.000000,Speed,Speed,-0.470000,1.410000,1.700000,3.000000,105.000000,1,0,-0.006200,-0.006200,0,0.000000,0.000000,0.000000,-0.122650,0.048798,0.000000,-0.005000,0.003000,0.005000,FlatInitial
01:33:57.919 PM 02/14/2016,Teleop Enabled,0,FALSE,0,NO ERROR,0.000000,-727.587891,4000.000000,4000.000000,Speed,Speed,-0.470000,1.420000,1.710000,3.000000,107.000000,1,0,-0.006200,-0.006200,0,0.000000,0.000000,0.000000,-0.122650,0.048798,0.000000,-0.002000,-0.001000,0.002000,FlatInitial
01:33:58.019 PM 02/14/2016,Teleop Enabled,0,FALSE,0,NO ERROR,0.000000,-727.587891,4000.000000,4000.000000,Speed,Speed,-0.490000,1.410000,1.730000,3.000000,102.000000,1,0,-0.006200,-0.006200,0,0.000000,0.000000,0.000000,-0.122650,0.048798,0.000000,0.009000,0.000000,-0.003000,FlatInitial
01:33:58.120 PM 02/14/2016,Teleop Enabled,0,FALSE,0,NO ERROR,0.000000,-727.587891,4000.000000,4000.000000,Speed,Speed,-0.440000,1.430000,1.670000,3.000000,101.000000,1,0,-0.006200,-0.006200,0,0.000000,0.000000,0.000000,-0.122650,0.048798,0.000000,-0.001000,0.000000,-0.002000,FlatInitial
01:33:58.220 PM 02/14/2016,Teleop Enabled,0,FALSE,0,NO ERROR,0.000000,-727.587891,4000.000000,4000.000000,Speed,Speed,-0.440000,1.440000,1.680000,3.000000,101.000000,1,0,-0.006200,-0.006200,0,0.000000,0.000000,0.000000,-0.122650,0.048798,0.000000,-0.001000,-0.004000,-0.003000,FlatInitial
01:33:58.321 PM 02/14/2016,Teleop Enabled,0,FALSE,0,NO ERROR,0.000000,-727.587891,4000.000000,4000.000000,Speed,Speed,-0.440000,1.440000,1.660000,3.000000,104.000000,1,0,-0.006200,-0.006200,0,0.000000,0.000000,0.000000,-0.122650,0.048798,0.000000,0.002000,0.008000,-0.013000,FlatInitial
01:33:58.422 PM 02/14/2016,Teleop Enabled,0,FALSE,0,NO ERROR,0.000000,-727.587891,4000.000000,4000.000000,Speed,Speed,-0.430000,1.440000,1.670000,3.000000,102.000000,1,0,-0.006200,-0.006200,0,0.000000,0.000000,0.000000,-0.122650,0.048798,0.000000,0.000000,-0.002000,-0.003000,FlatInitial
01:33:58.523 PM 02/14/2016,Teleop Enabled,0,FALSE,0,NO ERROR,0.000000,-727.587891,4000.000000,4000.000000,Speed,Speed,-0.430000,1.440000,1.670000,3.000000,103.000000,1,0,-0.006200,-0.006200,0,0.000000,0.000000,0.000000,-0.122650,0.048798,0.000000,0.002000,0.006000,0.000000,FlatInitial
01:33:58.624 PM 02/14/2016,Teleop Enabled,0,FALSE,0,NO ERROR,0.000000,-727.587891,4000.000000,4000.000000,Speed,Speed,-0.420000,1.440000,1.670000,3.000000,103.000000,1,0,-0.006200,-0.006200,0,0.000000,0.000000,0.000000,-0.122650,0.048798,0.000000,0.004000,-0.003000,0.000000,FlatInitial
01:33:58.724 PM 02/14/2016,Teleop Enabled,0,FALSE,0,NO ERROR,0.000000,-727.587891,4000.000000,4000.000000,Speed,Speed,-0.420000,1.440000,1.650000,3.000000,100.000000,1,0,-0.006200,-0.006200,0,0.000000,0.000000,0.000000,-0.122650,0.048798,0.000000,-0.001000,-0.007000,0.000000,FlatInitial
