Time,RobotMode,AutoToRun,ErrorStatus, ErrorCode,ErrorSource,ActualRPM1,ActualRPM2,DesiredRPM1,DesiredRPM2,ControlMode1,ControlMode2,NavXYaw,NavXRoll,NavXPitch,ShooterState,LoopTime,IsLevel,IsAutoTargeting,LeftMotorOutput,RightMotorOutput,IsHaloDrive,NavXVelocityX,NavXVelocityY,NavXVelocityZ,NavXDisplacementX,NavXDisplacementY,NavXDisplacementZ,NavXAccelerationX,NavXAccelerationY,NavXAccelerationZ,AutoDefendState
04:57:50.140 PM 02/13/2016,Autonomous Disabled,0,TRUE,-44087,NetComm_CAN_Receive.vi:5470006<APPEND>  <b>Complete call chain:</b>      NetComm_CAN_Receive.vi:5470006      WPI_CANTalonSRX_Receive.vi      WPI_MotorControlOpenCANTalonSRX.vi      Begin.vi      Robot Main.vi,0.000000,0.000000,4000.000000,4000.000000,Speed,Speed,-0.320000,1.160000,2.850000,3.000000,104.000000,1,0,-0.000000,0.000000,1,0.000000,0.000000,0.000000,0.421844,4.512054,0.000000,0.000000,0.000000,0.006000,FlatFinal
04:57:50.240 PM 02/13/2016,Autonomous Disabled,0,TRUE,-44087,NetComm_CAN_Receive.vi:5470006<APPEND>  <b>Complete call chain:</b>      NetComm_CAN_Receive.vi:5470006      WPI_CANTalonSRX_Receive.vi      WPI_MotorControlOpenCANTalonSRX.vi      Begin.vi      Robot Main.vi,0.000000,0.000000,0.000000,0.000000,Speed,Speed,-0.950000,1.190000,2.870000,0.000000,4868472.000000,1,0,-0.000000,0.000000,1,0.000000,0.000000,0.000000,0.421844,4.512054,0.000000,0.000000,0.000000,0.006000,FlatFinal
04:57:50.340 PM 02/13/2016,Autonomous Disabled,0,TRUE,-44087,NetComm_CAN_Receive.vi:5470006<APPEND>  <b>Complete call chain:</b>      NetComm_CAN_Receive.vi:5470006      WPI_CANTalonSRX_Receive.vi      WPI_MotorControlOpenCANTalonSRX.vi      Begin.vi      Robot Main.vi,0.000000,0.000000,0.000000,0.000000,Speed,Speed,-0.950000,1.190000,2.870000,0.000000,104.000000,1,0,-0.000000,0.000000,1,0.000000,0.000000,0.000000,0.421844,4.512054,0.000000,0.000000,0.000000,0.006000,FlatFinal
04:57:50.440 PM 02/13/2016,Autonomous Disabled,0,TRUE,-44087,NetComm_CAN_Receive.vi:5470006<APPEND>  <b>Complete call chain:</b>      NetComm_CAN_Receive.vi:5470006      WPI_CANTalonSRX_Receive.vi      WPI_MotorControlOpenCANTalonSRX.vi      Begin.vi      Robot Main.vi,0.000000,0.000000,0.000000,0.000000,Speed,Speed,-0.950000,1.190000,2.870000,0.000000,102.000000,1,0,-0.000000,0.000000,1,0.000000,0.000000,0.000000,0.421844,4.512054,0.000000,0.000000,0.000000,0.006000,FlatFinal
04:57:50.540 PM 02/13/2016,Autonomous Disabled,0,TRUE,-44087,NetComm_CAN_Receive.vi:5470006<APPEND>  <b>Complete call chain:</b>      NetComm_CAN_Receive.vi:5470006      WPI_CANTalonSRX_Receive.vi      WPI_MotorControlOpenCANTalonSRX.vi      Begin.vi      Robot Main.vi,0.000000,0.000000,0.000000,0.000000,Speed,Speed,-0.950000,1.190000,2.870000,0.000000,102.000000,1,0,-0.000000,0.000000,1,0.000000,0.000000,0.000000,0.421844,4.512054,0.000000,0.000000,0.000000,0.006000,FlatFinal
04:57:50.640 PM 02/13/2016,Autonomous Disabled,0,TRUE,-44087,NetComm_CAN_Receive.vi:5470006<APPEND>  <b>Complete call chain:</b>      NetComm_CAN_Receive.vi:5470006      WPI_CANTalonSRX_Receive.vi      WPI_MotorControlOpenCANTalonSRX.vi      Begin.vi      Robot Main.vi,0.000000,0.000000,0.000000,0.000000,Speed,Speed,-0.950000,1.190000,2.870000,0.000000,103.000000,1,0,-0.000000,0.000000,1,0.000000,0.000000,0.000000,0.421844,4.512054,0.000000,0.000000,0.000000,0.006000,FlatFinal
04:57:50.740 PM 02/13/2016,Autonomous Disabled,0,TRUE,-44087,NetComm_CAN_Receive.vi:5470006<APPEND>  <b>Complete call chain:</b>      NetComm_CAN_Receive.vi:5470006      WPI_CANTalonSRX_Receive.vi      WPI_MotorControlOpenCANTalonSRX.vi      Begin.vi      Robot Main.vi,0.000000,0.000000,0.000000,0.000000,Speed,Speed,-0.950000,1.190000,2.870000,0.000000,101.000000,1,0,-0.000000,0.000000,1,0.000000,0.000000,0.000000,0.421844,4.512054,0.000000,0.000000,0.000000,0.006000,FlatFinal
04:57:50.839 PM 02/13/2016,Autonomous Disabled,0,TRUE,-44087,NetComm_CAN_Receive.vi:5470006<APPEND>  <b>Complete call chain:</b>      NetComm_CAN_Receive.vi:5470006      WPI_CANTalonSRX_Receive.vi      WPI_MotorControlOpenCANTalonSRX.vi      Begin.vi      Robot Main.vi,0.000000,0.000000,0.000000,0.000000,Speed,Speed,-0.950000,1.190000,2.870000,0.000000,101.000000,1,0,-0.000000,0.000000,1,0.000000,0.000000,0.000000,0.421844,4.512054,0.000000,0.000000,0.000000,0.006000,FlatFinal
04:57:50.940 PM 02/13/2016,Autonomous Disabled,0,TRUE,-44087,NetComm_CAN_Receive.vi:5470006<APPEND>  <b>Complete call chain:</b>      NetComm_CAN_Receive.vi:5470006      WPI_CANTalonSRX_Receive.vi      WPI_MotorControlOpenCANTalonSRX.vi      Begin.vi      Robot Main.vi,0.000000,0.000000,0.000000,0.000000,Speed,Speed,-0.950000,1.190000,2.870000,0.000000,102.000000,1,0,-0.000000,0.000000,1,0.000000,0.000000,0.000000,0.421844,4.512054,0.000000,0.000000,0.000000,0.006000,FlatFinal
04:57:51.040 PM 02/13/2016,Autonomous Disabled,0,TRUE,-44087,NetComm_CAN_Receive.vi:5470006<APPEND>  <b>Complete call chain:</b>      NetComm_CAN_Receive.vi:5470006      WPI_CANTalonSRX_Receive.vi      WPI_MotorControlOpenCANTalonSRX.vi      Begin.vi      Robot Main.vi,0.000000,0.000000,0.000000,0.000000,Speed,Speed,-0.950000,1.190000,2.870000,0.000000,103.000000,1,0,-0.000000,0.000000,1,0.000000,0.000000,0.000000,0.421844,4.512054,0.000000,0.000000,0.000000,0.006000,FlatFinal
04:57:51.140 PM 02/13/2016,Autonomous Disabled,0,TRUE,-44087,NetComm_CAN_Receive.vi:5470006<APPEND>  <b>Complete call chain:</b>      NetComm_CAN_Receive.vi:5470006      WPI_CANTalonSRX_Receive.vi      WPI_MotorControlOpenCANTalonSRX.vi      Begin.vi      Robot Main.vi,0.000000,0.000000,0.000000,0.000000,Speed,Speed,-0.950000,1.190000,2.870000,0.000000,102.000000,1,0,-0.000000,0.000000,1,0.000000,0.000000,0.000000,0.421844,4.512054,0.000000,0.000000,0.000000,0.006000,FlatFinal
04:57:51.239 PM 02/13/2016,Autonomous Disabled,0,TRUE,-44087,NetComm_CAN_Receive.vi:5470006<APPEND>  <b>Complete call chain:</b>      NetComm_CAN_Receive.vi:5470006      WPI_CANTalonSRX_Receive.vi      WPI_MotorControlOpenCANTalonSRX.vi      Begin.vi      Robot Main.vi,0.000000,0.000000,0.000000,0.000000,Speed,Speed,-0.950000,1.190000,2.870000,0.000000,103.000000,1,0,-0.000000,0.000000,1,0.000000,0.000000,0.000000,0.421844,4.512054,0.000000,0.000000,0.000000,0.006000,FlatFinal
04:57:51.340 PM 02/13/2016,Autonomous Disabled,0,TRUE,-44087,NetComm_CAN_Receive.vi:5470006<APPEND>  <b>Complete call chain:</b>      NetComm_CAN_Receive.vi:5470006      WPI_CANTalonSRX_Receive.vi      WPI_CANTalonSRX_GetStatus.vi      ShooterVI.vi      Periodic Tasks.vi      Robot Main.vi,0.000000,0.000000,0.000000,0.000000,Speed,Speed,-0.950000,1.190000,2.870000,0.000000,101.000000,1,0,-0.000000,0.000000,1,0.000000,0.000000,0.000000,0.421844,4.512054,0.000000,0.000000,0.000000,0.006000,FlatFinal
04:57:51.440 PM 02/13/2016,Autonomous Disabled,0,TRUE,-44087,NetComm_CAN_Receive.vi:5470006<APPEND>  <b>Complete call chain:</b>      NetComm_CAN_Receive.vi:5470006      WPI_CANTalonSRX_Receive.vi      WPI_CANTalonSRX_GetStatus.vi      ShooterVI.vi      Periodic Tasks.vi      Robot Main.vi,0.000000,0.000000,0.000000,0.000000,Speed,Speed,-0.950000,1.190000,2.870000,0.000000,104.000000,1,0,-0.000000,0.000000,1,0.000000,0.000000,0.000000,0.421844,4.512054,0.000000,0.000000,0.000000,0.006000,FlatFinal
04:57:51.540 PM 02/13/2016,Autonomous Disabled,0,FALSE,0,NO ERROR,0.000000,0.000000,0.000000,0.000000,Speed,Speed,-0.950000,1.190000,2.870000,0.000000,101.000000,1,0,-0.000000,0.000000,1,0.000000,0.000000,0.000000,0.421844,4.512054,0.000000,0.000000,0.000000,0.006000,FlatFinal
04:57:51.640 PM 02/13/2016,Autonomous Disabled,0,FALSE,0,NO ERROR,0.000000,0.000000,0.000000,0.000000,Speed,Speed,-0.950000,1.190000,2.870000,0.000000,103.000000,1,0,-0.000000,0.000000,1,0.000000,0.000000,0.000000,0.421844,4.512054,0.000000,0.000000,0.000000,0.006000,FlatFinal
04:57:51.739 PM 02/13/2016,Autonomous Disabled,0,FALSE,0,NO ERROR,0.000000,0.000000,0.000000,0.000000,Speed,Speed,-0.950000,1.190000,2.870000,0.000000,102.000000,1,0,-0.000000,0.000000,1,0.000000,0.000000,0.000000,0.421844,4.512054,0.000000,0.000000,0.000000,0.006000,FlatFinal
04:57:51.840 PM 02/13/2016,Autonomous Disabled,0,FALSE,0,NO ERROR,0.000000,0.000000,0.000000,0.000000,Speed,Speed,-0.950000,1.190000,2.870000,0.000000,102.000000,1,0,-0.000000,0.000000,1,0.000000,0.000000,0.000000,0.421844,4.512054,0.000000,0.000000,0.000000,0.006000,FlatFinal
04:57:51.940 PM 02/13/2016,Autonomous Disabled,0,FALSE,0,NO ERROR,0.000000,0.000000,0.000000,0.000000,Speed,Speed,-0.950000,1.190000,2.870000,0.000000,102.000000,1,0,-0.000000,0.000000,1,0.000000,0.000000,0.000000,0.421844,4.512054,0.000000,0.000000,0.000000,0.006000,FlatFinal
04:57:52.040 PM 02/13/2016,Autonomous Disabled,0,FALSE,0,NO ERROR,0.000000,0.000000,0.000000,0.000000,Speed,Speed,-0.950000,1.190000,2.870000,0.000000,101.000000,1,0,-0.000000,0.000000,1,0.000000,0.000000,0.000000,0.421844,4.512054,0.000000,0.000000,0.000000,0.006000,FlatFinal
04:57:52.140 PM 02/13/2016,Autonomous Disabled,0,FALSE,0,NO ERROR,0.000000,0.000000,0.000000,0.000000,Speed,Speed,-0.950000,1.190000,2.870000,0.000000,102.000000,1,0,-0.000000,0.000000,1,0.000000,0.000000,0.000000,0.421844,4.512054,0.000000,0.000000,0.000000,0.006000,FlatFinal
04:57:52.240 PM 02/13/2016,Autonomous Disabled,0,FALSE,0,NO ERROR,0.000000,0.000000,0.000000,0.000000,Speed,Speed,-0.950000,1.190000,2.870000,0.000000,101.000000,1,0,-0.000000,0.000000,1,0.000000,0.000000,0.000000,0.421844,4.512054,0.000000,0.000000,0.000000,0.006000,FlatFinal
04:57:52.339 PM 02/13/2016,Autonomous Disabled,0,FALSE,0,NO ERROR,0.000000,0.000000,0.000000,0.000000,Speed,Speed,-0.950000,1.190000,2.870000,0.000000,102.000000,1,0,-0.000000,0.000000,1,0.000000,0.000000,0.000000,0.421844,4.512054,0.000000,0.000000,0.000000,0.006000,FlatFinal
04:57:52.440 PM 02/13/2016,Autonomous Disabled,0,FALSE,0,NO ERROR,0.000000,0.000000,0.000000,0.000000,Speed,Speed,-0.950000,1.190000,2.870000,0.000000,101.000000,1,0,-0.000000,0.000000,1,0.000000,0.000000,0.000000,0.421844,4.512054,0.000000,0.000000,0.000000,0.006000,FlatFinal
04:57:52.540 PM 02/13/2016,Autonomous Disabled,0,FALSE,0,NO ERROR,0.000000,0.000000,0.000000,0.000000,Speed,Speed,-0.950000,1.190000,2.870000,0.000000,102.000000,1,0,-0.000000,0.000000,1,0.000000,0.000000,0.000000,0.421844,4.512054,0.000000,0.000000,0.000000,0.006000,FlatFinal
04:57:52.640 PM 02/13/2016,Autonomous Disabled,0,FALSE,0,NO ERROR,0.000000,0.000000,0.000000,0.000000,Speed,Speed,-0.950000,1.190000,2.870000,0.000000,101.000000,1,0,-0.000000,0.000000,1,0.000000,0.000000,0.000000,0.421844,4.512054,0.000000,0.000000,0.000000,0.006000,FlatFinal
04:57:52.740 PM 02/13/2016,Autonomous Disabled,0,FALSE,0,NO ERROR,0.000000,0.000000,0.000000,0.000000,Speed,Speed,-0.950000,1.190000,2.870000,0.000000,101.000000,1,0,-0.000000,0.000000,1,0.000000,0.000000,0.000000,0.421844,4.512054,0.000000,0.000000,0.000000,0.006000,FlatFinal
04:57:52.841 PM 02/13/2016,Autonomous Disabled,0,FALSE,0,NO ERROR,0.000000,0.000000,0.000000,0.000000,Speed,Speed,-0.950000,1.190000,2.870000,0.000000,101.000000,1,0,-0.000000,0.000000,1,0.000000,0.000000,0.000000,0.421844,4.512054,0.000000,0.000000,0.000000,0.006000,FlatFinal
04:57:52.941 PM 02/13/2016,Autonomous Disabled,0,FALSE,0,NO ERROR,0.000000,0.000000,0.000000,0.000000,Speed,Speed,-0.950000,1.190000,2.870000,0.000000,101.000000,1,0,-0.000000,0.000000,1,0.000000,0.000000,0.000000,0.421844,4.512054,0.000000,0.000000,0.000000,0.006000,FlatFinal
04:57:53.042 PM 02/13/2016,Autonomous Disabled,0,FALSE,0,NO ERROR,0.000000,0.000000,0.000000,0.000000,Speed,Speed,-0.950000,1.190000,2.870000,0.000000,101.000000,1,0,-0.000000,0.000000,1,0.000000,0.000000,0.000000,0.421844,4.512054,0.000000,0.000000,0.000000,0.006000,FlatFinal
04:57:53.142 PM 02/13/2016,Autonomous Disabled,0,FALSE,0,NO ERROR,0.000000,0.000000,0.000000,0.000000,Speed,Speed,-0.950000,1.190000,2.870000,0.000000,101.000000,1,0,-0.000000,0.000000,1,0.000000,0.000000,0.000000,0.421844,4.512054,0.000000,0.000000,0.000000,0.006000,FlatFinal
04:57:53.242 PM 02/13/2016,Autonomous Disabled,0,FALSE,0,NO ERROR,0.000000,0.000000,0.000000,0.000000,Speed,Speed,-0.950000,1.190000,2.870000,0.000000,101.000000,1,0,-0.000000,0.000000,1,0.000000,0.000000,0.000000,0.421844,4.512054,0.000000,0.000000,0.000000,0.006000,FlatFinal
04:57:53.343 PM 02/13/2016,Autonomous Disabled,0,FALSE,0,NO ERROR,0.000000,0.000000,0.000000,0.000000,Speed,Speed,-0.950000,1.190000,2.870000,0.000000,101.000000,1,0,-0.000000,0.000000,1,0.000000,0.000000,0.000000,0.421844,4.512054,0.000000,0.000000,0.000000,0.006000,FlatFinal
04:57:53.444 PM 02/13/2016,Autonomous Disabled,0,FALSE,0,NO ERROR,0.000000,0.000000,-6000.000000,-6000.000000,Speed,Speed,-0.950000,1.190000,2.870000,1.000000,101.000000,1,0,-0.000000,0.000000,1,0.000000,0.000000,0.000000,0.421844,4.512054,0.000000,0.000000,0.000000,0.006000,FlatFinal
04:57:53.544 PM 02/13/2016,Autonomous Disabled,0,FALSE,0,NO ERROR,0.000000,0.000000,0.000000,0.000000,Speed,Speed,-0.950000,1.190000,2.870000,2.000000,101.000000,1,0,-0.000000,0.000000,1,0.000000,0.000000,0.000000,0.421844,4.512054,0.000000,0.000000,0.000000,0.006000,FlatFinal
04:57:53.644 PM 02/13/2016,Autonomous Disabled,0,FALSE,0,NO ERROR,0.000000,0.000000,0.000000,0.000000,Speed,Speed,-0.950000,1.190000,2.870000,2.000000,101.000000,1,0,-0.000000,0.000000,1,0.000000,0.000000,0.000000,0.421844,4.512054,0.000000,0.000000,0.000000,0.006000,FlatFinal
04:57:53.745 PM 02/13/2016,Autonomous Disabled,0,FALSE,0,NO ERROR,0.000000,0.000000,0.000000,0.000000,Speed,Speed,-0.950000,1.190000,2.870000,2.000000,101.000000,1,0,-0.000000,0.000000,1,0.000000,0.000000,0.000000,0.421844,4.512054,0.000000,0.000000,0.000000,0.006000,FlatFinal
04:57:53.846 PM 02/13/2016,Autonomous Disabled,0,FALSE,0,NO ERROR,0.000000,0.000000,0.000000,0.000000,Speed,Speed,-0.950000,1.190000,2.870000,2.000000,101.000000,1,0,-0.000000,0.000000,1,0.000000,0.000000,0.000000,0.421844,4.512054,0.000000,0.000000,0.000000,0.006000,FlatFinal
04:57:53.946 PM 02/13/2016,Autonomous Disabled,0,FALSE,0,NO ERROR,0.000000,0.000000,0.000000,0.000000,Speed,Speed,-0.950000,1.190000,2.870000,2.000000,102.000000,1,0,-0.000000,0.000000,1,0.000000,0.000000,0.000000,0.421844,4.512054,0.000000,0.000000,0.000000,0.006000,FlatFinal
04:57:54.046 PM 02/13/2016,Autonomous Disabled,0,FALSE,0,NO ERROR,0.000000,0.000000,0.000000,0.000000,Speed,Speed,-0.950000,1.190000,2.870000,2.000000,102.000000,1,0,-0.000000,0.000000,1,0.000000,0.000000,0.000000,0.421844,4.512054,0.000000,0.000000,0.000000,0.006000,FlatFinal
04:57:54.147 PM 02/13/2016,Autonomous Disabled,0,FALSE,0,NO ERROR,0.000000,0.000000,0.000000,0.000000,Speed,Speed,-0.950000,1.190000,2.870000,2.000000,103.000000,1,0,-0.000000,0.000000,1,0.000000,0.000000,0.000000,0.421844,4.512054,0.000000,0.000000,0.000000,0.006000,FlatFinal
04:57:54.247 PM 02/13/2016,Autonomous Disabled,0,FALSE,0,NO ERROR,0.000000,0.000000,0.000000,0.000000,Speed,Speed,-0.950000,1.190000,2.870000,2.000000,101.000000,1,0,-0.000000,0.000000,1,0.000000,0.000000,0.000000,0.421844,4.512054,0.000000,0.000000,0.000000,0.006000,FlatFinal
04:57:54.347 PM 02/13/2016,Autonomous Disabled,0,FALSE,0,NO ERROR,0.000000,0.000000,0.000000,0.000000,Speed,Speed,-0.950000,1.190000,2.870000,2.000000,101.000000,1,0,-0.000000,0.000000,1,0.000000,0.000000,0.000000,0.421844,4.512054,0.000000,0.000000,0.000000,0.006000,FlatFinal
04:57:54.448 PM 02/13/2016,Autonomous Disabled,0,FALSE,0,NO ERROR,0.000000,0.000000,0.000000,0.000000,Speed,Speed,-0.950000,1.190000,2.870000,2.000000,101.000000,1,0,-0.000000,0.000000,1,0.000000,0.000000,0.000000,0.421844,4.512054,0.000000,0.000000,0.000000,0.006000,FlatFinal
04:57:54.548 PM 02/13/2016,Autonomous Disabled,0,FALSE,0,NO ERROR,0.000000,0.000000,0.000000,0.000000,Speed,Speed,-0.950000,1.190000,2.870000,2.000000,103.000000,1,0,-0.000000,0.000000,1,0.000000,0.000000,0.000000,0.421844,4.512054,0.000000,0.000000,0.000000,0.006000,FlatFinal
04:57:54.648 PM 02/13/2016,Autonomous Disabled,0,FALSE,0,NO ERROR,0.000000,0.000000,0.000000,0.000000,Speed,Speed,-0.950000,1.190000,2.870000,2.000000,102.000000,1,0,-0.000000,0.000000,1,0.000000,0.000000,0.000000,0.421844,4.512054,0.000000,0.000000,0.000000,0.006000,FlatFinal
04:57:54.749 PM 02/13/2016,Autonomous Disabled,0,FALSE,0,NO ERROR,0.000000,0.000000,0.000000,0.000000,Speed,Speed,-0.950000,1.190000,2.870000,3.000000,101.000000,1,0,-0.000000,0.000000,1,0.000000,0.000000,0.000000,0.421844,4.512054,0.000000,0.000000,0.000000,0.006000,FlatFinal
04:57:54.851 PM 02/13/2016,Autonomous Disabled,0,FALSE,0,NO ERROR,0.000000,0.000000,4000.000000,4000.000000,Speed,Speed,-0.950000,1.190000,2.870000,3.000000,102.000000,1,0,-0.000000,0.000000,1,0.000000,0.000000,0.000000,0.421844,4.512054,0.000000,0.000000,0.000000,0.006000,FlatFinal
04:57:54.952 PM 02/13/2016,Autonomous Disabled,0,FALSE,0,NO ERROR,0.000000,0.000000,4000.000000,4000.000000,Speed,Speed,-0.950000,1.190000,2.870000,3.000000,101.000000,1,0,-0.000000,0.000000,1,0.000000,0.000000,0.000000,0.421844,4.512054,0.000000,0.000000,0.000000,0.006000,FlatFinal
04:57:55.053 PM 02/13/2016,Autonomous Disabled,0,FALSE,0,NO ERROR,0.000000,0.000000,4000.000000,4000.000000,Speed,Speed,-0.950000,1.190000,2.870000,3.000000,101.000000,1,0,-0.000000,0.000000,1,0.000000,0.000000,0.000000,0.421844,4.512054,0.000000,0.000000,0.000000,0.006000,FlatFinal
04:57:55.153 PM 02/13/2016,Autonomous Disabled,0,FALSE,0,NO ERROR,0.000000,0.000000,4000.000000,4000.000000,Speed,Speed,-0.950000,1.190000,2.870000,3.000000,101.000000,1,0,-0.000000,0.000000,1,0.000000,0.000000,0.000000,0.421844,4.512054,0.000000,0.000000,0.000000,0.006000,FlatFinal
04:57:55.253 PM 02/13/2016,Autonomous Disabled,0,TRUE,-44003,<LOCATION>WPI_CameraIssue HTTP Request with Authentication.vi<CALLSTACK>WPI_CameraIssue HTTP Request with Authentication.vi< <WPI_CameraIssue Get.vi< <WPI_CameraSet Image Appearance Property.vi< <WPI_CameraSet Image Size.vi< <Vision Processing.vi< <Robot Main.vi,0.000000,0.000000,4000.000000,4000.000000,Speed,Speed,0.000000,1.190000,2.850000,3.000000,101.000000,1,0,-0.000000,0.000000,1,0.000000,0.000000,0.000000,0.421844,4.512054,0.000000,0.000000,0.000000,0.003000,FlatFinal
04:57:55.354 PM 02/13/2016,Autonomous Disabled,0,FALSE,0,NO ERROR,0.000000,0.000000,4000.000000,4000.000000,Speed,Speed,0.000000,1.180000,2.850000,3.000000,103.000000,1,0,-0.000000,0.000000,1,0.000000,0.000000,0.000000,0.421844,4.512054,0.000000,0.000000,0.000000,0.004000,FlatFinal
04:57:55.454 PM 02/13/2016,Autonomous Disabled,0,FALSE,0,NO ERROR,0.000000,0.000000,4000.000000,4000.000000,Speed,Speed,0.000000,1.180000,2.850000,3.000000,102.000000,1,0,-0.000000,0.000000,1,0.000000,0.000000,0.000000,0.421844,4.512054,0.000000,0.000000,0.000000,0.006000,FlatFinal
04:57:55.555 PM 02/13/2016,Autonomous Disabled,0,FALSE,0,NO ERROR,0.000000,0.000000,4000.000000,4000.000000,Speed,Speed,0.000000,1.180000,2.840000,3.000000,100.000000,1,0,-0.000000,0.000000,1,0.000000,0.000000,0.000000,0.421844,4.512054,0.000000,0.000000,0.000000,0.003000,FlatFinal
04:57:55.656 PM 02/13/2016,Autonomous Disabled,0,FALSE,0,NO ERROR,0.000000,0.000000,4000.000000,4000.000000,Speed,Speed,0.000000,1.180000,2.840000,3.000000,102.000000,1,0,-0.000000,0.000000,1,0.000000,0.000000,0.000000,0.421844,4.512054,0.000000,0.000000,0.000000,0.004000,FlatFinal
04:57:55.757 PM 02/13/2016,Autonomous Disabled,0,FALSE,0,NO ERROR,0.000000,0.000000,4000.000000,4000.000000,Speed,Speed,0.000000,1.180000,2.840000,3.000000,101.000000,1,0,-0.000000,0.000000,1,0.000000,0.000000,0.000000,0.421844,4.512054,0.000000,-0.001000,0.000000,0.001000,FlatFinal
04:57:55.858 PM 02/13/2016,Autonomous Disabled,0,FALSE,0,NO ERROR,0.000000,0.000000,4000.000000,4000.000000,Speed,Speed,0.000000,1.180000,2.840000,3.000000,102.000000,1,0,-0.000000,0.000000,1,0.000000,0.000000,0.000000,0.421844,4.512054,0.000000,0.000000,0.002000,0.005000,FlatFinal
04:57:55.958 PM 02/13/2016,Autonomous Disabled,0,FALSE,0,NO ERROR,0.000000,0.000000,4000.000000,4000.000000,Speed,Speed,0.000000,1.180000,2.840000,3.000000,102.000000,1,0,-0.000000,0.000000,1,0.000000,0.000000,0.000000,0.421844,4.512054,0.000000,0.000000,0.002000,0.000000,FlatFinal
04:57:56.059 PM 02/13/2016,Autonomous Disabled,0,FALSE,0,NO ERROR,0.000000,0.000000,4000.000000,4000.000000,Speed,Speed,0.000000,1.180000,2.840000,3.000000,101.000000,1,0,-0.000000,0.000000,1,0.000000,0.000000,0.000000,0.421844,4.512054,0.000000,0.001000,0.000000,0.003000,FlatFinal
04:57:56.158 PM 02/13/2016,Autonomous Disabled,0,FALSE,0,NO ERROR,0.000000,0.000000,4000.000000,4000.000000,Speed,Speed,0.000000,1.180000,2.840000,3.000000,103.000000,1,0,-0.000000,0.000000,1,0.000000,0.000000,0.000000,0.421844,4.512054,0.000000,0.002000,0.000000,0.006000,FlatFinal
04:57:56.258 PM 02/13/2016,Autonomous Disabled,0,FALSE,0,NO ERROR,0.000000,0.000000,4000.000000,4000.000000,Speed,Speed,0.000000,1.180000,2.850000,3.000000,103.000000,1,0,-0.000000,0.000000,1,0.000000,0.000000,0.000000,0.421844,4.512054,0.000000,0.000000,-0.001000,0.000000,FlatFinal
04:57:56.359 PM 02/13/2016,Autonomous Disabled,0,FALSE,0,NO ERROR,0.000000,0.000000,4000.000000,4000.000000,Speed,Speed,0.000000,1.180000,2.850000,3.000000,101.000000,1,0,-0.000000,0.000000,1,0.000000,0.000000,0.000000,0.421844,4.512054,0.000000,0.000000,0.002000,0.006000,FlatFinal
04:57:56.458 PM 02/13/2016,Autonomous Disabled,0,FALSE,0,NO ERROR,0.000000,0.000000,4000.000000,4000.000000,Speed,Speed,0.000000,1.180000,2.850000,3.000000,105.000000,1,0,-0.000000,0.000000,1,0.000000,0.000000,0.000000,0.421844,4.512054,0.000000,0.001000,-0.002000,0.007000,FlatFinal
04:57:56.559 PM 02/13/2016,Autonomous Disabled,0,FALSE,0,NO ERROR,0.000000,0.000000,4000.000000,4000.000000,Speed,Speed,0.000000,1.180000,2.850000,3.000000,103.000000,1,0,-0.000000,0.000000,1,0.000000,0.000000,0.000000,0.421844,4.512054,0.000000,0.002000,0.000000,0.006000,FlatFinal
04:57:56.659 PM 02/13/2016,Autonomous Disabled,0,FALSE,0,NO ERROR,0.000000,0.000000,4000.000000,4000.000000,Speed,Speed,0.000000,1.180000,2.860000,3.000000,104.000000,1,0,-0.000000,0.000000,1,0.000000,0.000000,0.000000,0.421844,4.512054,0.000000,0.000000,0.003000,0.005000,FlatFinal
04:57:56.759 PM 02/13/2016,Autonomous Disabled,0,FALSE,0,NO ERROR,0.000000,0.000000,4000.000000,4000.000000,Speed,Speed,0.000000,1.180000,2.860000,3.000000,101.000000,1,0,-0.000000,0.000000,1,0.000000,0.000000,0.000000,0.421844,4.512054,0.000000,0.002000,-0.001000,0.007000,FlatFinal
04:57:56.859 PM 02/13/2016,Autonomous Disabled,0,FALSE,0,NO ERROR,0.000000,0.000000,4000.000000,4000.000000,Speed,Speed,0.000000,1.180000,2.860000,3.000000,102.000000,1,0,-0.000000,0.000000,1,0.000000,0.000000,0.000000,0.421844,4.512054,0.000000,-0.001000,0.000000,0.003000,FlatFinal
04:57:56.960 PM 02/13/2016,Autonomous Disabled,0,FALSE,0,NO ERROR,0.000000,0.000000,4000.000000,4000.000000,Speed,Speed,0.000000,1.180000,2.860000,3.000000,103.000000,1,0,-0.000000,0.000000,1,0.000000,0.000000,0.000000,0.421844,4.512054,0.000000,0.000000,0.000000,0.001000,FlatFinal
04:57:57.060 PM 02/13/2016,Autonomous Disabled,0,FALSE,0,NO ERROR,0.000000,0.000000,4000.000000,4000.000000,Speed,Speed,0.000000,1.180000,2.860000,3.000000,101.000000,1,0,-0.000000,0.000000,1,0.000000,0.000000,0.000000,0.421844,4.512054,0.000000,0.001000,-0.001000,0.004000,FlatFinal
04:57:57.159 PM 02/13/2016,Autonomous Disabled,0,FALSE,0,NO ERROR,0.000000,0.000000,4000.000000,4000.000000,Speed,Speed,0.000000,1.180000,2.860000,3.000000,101.000000,1,0,-0.000000,0.000000,1,0.000000,0.000000,0.000000,0.421844,4.512054,0.000000,-0.001000,-0.004000,0.005000,FlatFinal
04:57:57.260 PM 02/13/2016,Autonomous Disabled,0,FALSE,0,NO ERROR,0.000000,0.000000,4000.000000,4000.000000,Speed,Speed,0.000000,1.180000,2.860000,3.000000,102.000000,1,0,-0.000000,0.000000,1,0.000000,0.000000,0.000000,0.421844,4.512054,0.000000,-0.002000,0.001000,0.010000,FlatFinal
04:57:57.359 PM 02/13/2016,Autonomous Disabled,0,FALSE,0,NO ERROR,0.000000,0.000000,4000.000000,4000.000000,Speed,Speed,0.000000,1.180000,2.860000,3.000000,103.000000,1,0,-0.000000,0.000000,1,0.000000,0.000000,0.000000,0.421844,4.512054,0.000000,0.000000,-0.001000,0.004000,FlatFinal
04:57:57.459 PM 02/13/2016,Autonomous Disabled,0,FALSE,0,NO ERROR,0.000000,0.000000,4000.000000,4000.000000,Speed,Speed,0.000000,1.180000,2.860000,3.000000,103.000000,1,0,-0.000000,0.000000,1,0.000000,0.000000,0.000000,0.421844,4.512054,0.000000,0.000000,-0.001000,0.005000,FlatFinal
04:57:57.560 PM 02/13/2016,Autonomous Disabled,0,FALSE,0,NO ERROR,0.000000,0.000000,4000.000000,4000.000000,Speed,Speed,0.000000,1.180000,2.860000,3.000000,101.000000,1,0,-0.000000,0.000000,1,0.000000,0.000000,0.000000,0.421844,4.512054,0.000000,-0.002000,0.001000,0.005000,FlatFinal
04:57:57.660 PM 02/13/2016,Autonomous Disabled,0,FALSE,0,NO ERROR,0.000000,0.000000,4000.000000,4000.000000,Speed,Speed,0.000000,1.180000,2.860000,3.000000,101.000000,1,0,-0.000000,0.000000,1,0.000000,0.000000,0.000000,0.421844,4.512054,0.000000,0.001000,0.000000,0.004000,FlatFinal
04:57:57.760 PM 02/13/2016,Autonomous Disabled,0,FALSE,0,NO ERROR,0.000000,0.000000,4000.000000,4000.000000,Speed,Speed,0.010000,1.180000,2.850000,3.000000,102.000000,1,0,-0.000000,0.000000,1,0.000000,0.000000,0.000000,0.421844,4.512054,0.000000,0.000000,-0.003000,0.004000,FlatFinal
04:57:57.861 PM 02/13/2016,Autonomous Disabled,0,FALSE,0,NO ERROR,0.000000,0.000000,4000.000000,4000.000000,Speed,Speed,0.000000,1.180000,2.850000,3.000000,101.000000,1,0,-0.000000,0.000000,1,0.000000,0.000000,0.000000,0.421844,4.512054,0.000000,0.001000,0.000000,0.004000,FlatFinal
04:57:57.960 PM 02/13/2016,Autonomous Disabled,0,FALSE,0,NO ERROR,0.000000,0.000000,4000.000000,4000.000000,Speed,Speed,0.000000,1.180000,2.850000,3.000000,102.000000,1,0,-0.000000,0.000000,1,0.000000,0.000000,0.000000,0.421844,4.512054,0.000000,0.000000,0.001000,0.003000,FlatFinal
04:57:58.061 PM 02/13/2016,Autonomous Disabled,0,FALSE,0,NO ERROR,0.000000,0.000000,4000.000000,4000.000000,Speed,Speed,0.000000,1.180000,2.860000,3.000000,101.000000,1,0,-0.000000,0.000000,1,0.000000,0.000000,0.000000,0.421844,4.512054,0.000000,0.000000,-0.001000,0.006000,FlatFinal
04:57:58.161 PM 02/13/2016,Autonomous Disabled,0,FALSE,0,NO ERROR,0.000000,0.000000,4000.000000,4000.000000,Speed,Speed,0.000000,1.180000,2.850000,3.000000,101.000000,1,0,-0.000000,0.000000,1,0.000000,0.000000,0.000000,0.421844,4.512054,0.000000,0.000000,-0.001000,0.006000,FlatFinal
04:57:58.261 PM 02/13/2016,Autonomous Disabled,0,FALSE,0,NO ERROR,0.000000,0.000000,4000.000000,4000.000000,Speed,Speed,0.000000,1.170000,2.860000,3.000000,101.000000,1,0,-0.000000,0.000000,1,0.000000,0.000000,0.000000,0.421844,4.512054,0.000000,0.000000,-0.001000,0.002000,FlatFinal
04:57:58.360 PM 02/13/2016,Autonomous Disabled,0,FALSE,0,NO ERROR,0.000000,0.000000,4000.000000,4000.000000,Speed,Speed,0.010000,1.180000,2.850000,3.000000,103.000000,1,0,-0.000000,0.000000,1,0.000000,0.000000,0.000000,0.421844,4.512054,0.000000,0.000000,0.000000,0.004000,FlatFinal
04:57:58.461 PM 02/13/2016,Autonomous Disabled,0,FALSE,0,NO ERROR,0.000000,0.000000,4000.000000,4000.000000,Speed,Speed,0.000000,1.180000,2.860000,3.000000,102.000000,1,0,-0.000000,0.000000,1,0.000000,0.000000,0.000000,0.421844,4.512054,0.000000,0.002000,0.000000,0.008000,FlatFinal
04:57:58.561 PM 02/13/2016,Autonomous Disabled,0,FALSE,0,NO ERROR,0.000000,0.000000,4000.000000,4000.000000,Speed,Speed,0.000000,1.180000,2.860000,3.000000,102.000000,1,0,-0.000000,0.000000,1,0.000000,0.000000,0.000000,0.421844,4.512054,0.000000,0.002000,0.000000,0.008000,FlatFinal
04:57:58.662 PM 02/13/2016,Autonomous Disabled,0,FALSE,0,NO ERROR,0.000000,0.000000,4000.000000,4000.000000,Speed,Speed,0.000000,1.180000,2.860000,3.000000,103.000000,1,0,-0.000000,0.000000,1,0.000000,0.000000,0.000000,0.421844,4.512054,0.000000,0.000000,0.000000,0.004000,FlatFinal
04:57:58.762 PM 02/13/2016,Autonomous Disabled,0,FALSE,0,NO ERROR,0.000000,0.000000,4000.000000,4000.000000,Speed,Speed,0.010000,1.180000,2.860000,3.000000,101.000000,1,0,-0.000000,0.000000,1,0.000000,0.000000,0.000000,0.421844,4.512054,0.000000,-0.001000,0.000000,0.004000,FlatFinal
04:57:58.861 PM 02/13/2016,Autonomous Disabled,0,FALSE,0,NO ERROR,0.000000,0.000000,4000.000000,4000.000000,Speed,Speed,0.010000,1.180000,2.860000,3.000000,102.000000,1,0,-0.000000,0.000000,1,0.000000,0.000000,0.000000,0.421844,4.512054,0.000000,0.001000,-0.001000,0.007000,FlatFinal
04:57:58.962 PM 02/13/2016,Autonomous Disabled,0,FALSE,0,NO ERROR,0.000000,0.000000,4000.000000,4000.000000,Speed,Speed,0.000000,1.180000,2.860000,3.000000,102.000000,1,0,-0.000000,0.000000,1,0.000000,0.000000,0.000000,0.421844,4.512054,0.000000,-0.001000,-0.001000,0.003000,FlatFinal
04:57:59.062 PM 02/13/2016,Autonomous Disabled,0,FALSE,0,NO ERROR,0.000000,0.000000,4000.000000,4000.000000,Speed,Speed,0.000000,1.180000,2.860000,3.000000,103.000000,1,0,-0.000000,0.000000,1,0.000000,0.000000,0.000000,0.421844,4.512054,0.000000,0.001000,-0.002000,0.008000,FlatFinal
04:57:59.161 PM 02/13/2016,Autonomous Disabled,0,FALSE,0,NO ERROR,0.000000,0.000000,4000.000000,4000.000000,Speed,Speed,0.000000,1.180000,2.860000,3.000000,101.000000,1,0,-0.000000,0.000000,1,0.000000,0.000000,0.000000,0.421844,4.512054,0.000000,0.000000,0.001000,0.008000,FlatFinal
04:57:59.261 PM 02/13/2016,Autonomous Disabled,0,FALSE,0,NO ERROR,0.000000,0.000000,4000.000000,4000.000000,Speed,Speed,0.000000,1.180000,2.860000,3.000000,102.000000,1,0,-0.000000,0.000000,1,0.000000,0.000000,0.000000,0.421844,4.512054,0.000000,0.000000,0.000000,0.005000,FlatFinal
04:57:59.362 PM 02/13/2016,Autonomous Disabled,0,FALSE,0,NO ERROR,0.000000,0.000000,4000.000000,4000.000000,Speed,Speed,0.000000,1.170000,2.860000,3.000000,101.000000,1,0,-0.000000,0.000000,1,0.000000,0.000000,0.000000,0.421844,4.512054,0.000000,-0.002000,0.000000,0.005000,FlatFinal
04:57:59.462 PM 02/13/2016,Autonomous Disabled,0,FALSE,0,NO ERROR,0.000000,0.000000,4000.000000,4000.000000,Speed,Speed,0.000000,1.170000,2.860000,3.000000,104.000000,1,0,-0.000000,0.000000,1,0.000000,0.000000,0.000000,0.421844,4.512054,0.000000,0.000000,0.000000,0.002000,FlatFinal
04:57:59.562 PM 02/13/2016,Autonomous Disabled,0,FALSE,0,NO ERROR,0.000000,0.000000,4000.000000,4000.000000,Speed,Speed,0.000000,1.170000,2.860000,3.000000,102.000000,1,0,-0.000000,0.000000,1,0.000000,0.000000,0.000000,0.421844,4.512054,0.000000,-0.001000,-0.001000,0.006000,FlatFinal
04:57:59.662 PM 02/13/2016,Autonomous Disabled,0,FALSE,0,NO ERROR,0.000000,0.000000,4000.000000,4000.000000,Speed,Speed,0.000000,1.170000,2.860000,3.000000,102.000000,1,0,-0.000000,0.000000,1,0.000000,0.000000,0.000000,0.421844,4.512054,0.000000,-0.003000,0.000000,0.007000,FlatFinal
04:57:59.762 PM 02/13/2016,Autonomous Disabled,0,FALSE,0,NO ERROR,0.000000,0.000000,4000.000000,4000.000000,Speed,Speed,0.000000,1.170000,2.860000,3.000000,102.000000,1,0,-0.000000,0.000000,1,0.000000,0.000000,0.000000,0.421844,4.512054,0.000000,0.000000,-0.001000,0.007000,FlatFinal
04:57:59.862 PM 02/13/2016,Autonomous Disabled,0,FALSE,0,NO ERROR,0.000000,0.000000,4000.000000,4000.000000,Speed,Speed,0.000000,1.170000,2.860000,3.000000,101.000000,1,0,-0.000000,0.000000,1,0.000000,0.000000,0.000000,0.421844,4.512054,0.000000,0.000000,0.002000,0.006000,FlatFinal
04:57:59.962 PM 02/13/2016,Autonomous Disabled,0,FALSE,0,NO ERROR,0.000000,0.000000,4000.000000,4000.000000,Speed,Speed,0.000000,1.170000,2.860000,3.000000,102.000000,1,0,-0.000000,0.000000,1,0.000000,0.000000,0.000000,0.421844,4.512054,0.000000,0.000000,-0.001000,0.004000,FlatFinal
04:58:00.062 PM 02/13/2016,Autonomous Disabled,0,FALSE,0,NO ERROR,0.000000,0.000000,4000.000000,4000.000000,Speed,Speed,0.000000,1.170000,2.860000,3.000000,102.000000,1,0,-0.000000,0.000000,1,0.000000,0.000000,0.000000,0.421844,4.512054,0.000000,0.001000,-0.002000,0.007000,FlatFinal
04:58:00.163 PM 02/13/2016,Autonomous Disabled,0,FALSE,0,NO ERROR,0.000000,0.000000,4000.000000,4000.000000,Speed,Speed,0.000000,1.170000,2.860000,3.000000,101.000000,1,0,-0.000000,0.000000,1,0.000000,0.000000,0.000000,0.421844,4.512054,0.000000,0.003000,0.000000,0.004000,FlatFinal
04:58:00.264 PM 02/13/2016,Autonomous Disabled,0,FALSE,0,NO ERROR,0.000000,0.000000,4000.000000,4000.000000,Speed,Speed,0.000000,1.170000,2.860000,3.000000,102.000000,1,0,-0.000000,0.000000,1,0.000000,0.000000,0.000000,0.421844,4.512054,0.000000,0.000000,0.000000,0.004000,FlatFinal
04:58:00.364 PM 02/13/2016,Autonomous Disabled,0,FALSE,0,NO ERROR,0.000000,0.000000,4000.000000,4000.000000,Speed,Speed,0.000000,1.170000,2.860000,3.000000,101.000000,1,0,-0.000000,0.000000,1,0.000000,0.000000,0.000000,0.421844,4.512054,0.000000,-0.001000,-0.001000,0.002000,FlatFinal
04:58:00.465 PM 02/13/2016,Autonomous Disabled,0,FALSE,0,NO ERROR,0.000000,0.000000,4000.000000,4000.000000,Speed,Speed,-0.010000,1.170000,2.860000,3.000000,104.000000,1,0,-0.000000,0.000000,1,0.000000,0.000000,0.000000,0.421844,4.512054,0.000000,0.000000,-0.001000,0.006000,FlatFinal
04:58:00.566 PM 02/13/2016,Autonomous Disabled,0,FALSE,0,NO ERROR,0.000000,0.000000,4000.000000,4000.000000,Speed,Speed,-0.010000,1.170000,2.860000,3.000000,103.000000,1,0,-0.000000,0.000000,1,0.000000,0.000000,0.000000,0.421844,4.512054,0.000000,0.000000,0.001000,0.007000,FlatFinal
04:58:00.667 PM 02/13/2016,Autonomous Disabled,0,FALSE,0,NO ERROR,0.000000,0.000000,4000.000000,4000.000000,Speed,Speed,-0.010000,1.170000,2.860000,3.000000,101.000000,1,0,-0.000000,0.000000,1,0.000000,0.000000,0.000000,0.421844,4.512054,0.000000,0.002000,-0.004000,0.004000,FlatFinal
04:58:00.766 PM 02/13/2016,Autonomous Disabled,0,FALSE,0,NO ERROR,0.000000,0.000000,4000.000000,4000.000000,Speed,Speed,-0.010000,1.170000,2.860000,3.000000,102.000000,1,0,-0.000000,0.000000,1,0.000000,0.000000,0.000000,0.421844,4.512054,0.000000,0.001000,0.000000,0.004000,FlatFinal
04:58:00.867 PM 02/13/2016,Autonomous Disabled,0,FALSE,0,NO ERROR,0.000000,0.000000,4000.000000,4000.000000,Speed,Speed,-0.010000,1.170000,2.860000,3.000000,101.000000,1,0,-0.000000,0.000000,1,0.000000,0.000000,0.000000,0.421844,4.512054,0.000000,0.001000,0.001000,0.002000,FlatFinal
04:58:00.968 PM 02/13/2016,Autonomous Disabled,0,FALSE,0,NO ERROR,0.000000,0.000000,4000.000000,4000.000000,Speed,Speed,-0.010000,1.180000,2.860000,3.000000,102.000000,1,0,-0.000000,0.000000,1,0.000000,0.000000,0.000000,0.421844,4.512054,0.000000,0.002000,0.000000,0.002000,FlatFinal
04:58:01.068 PM 02/13/2016,Autonomous Disabled,0,FALSE,0,NO ERROR,0.000000,0.000000,4000.000000,4000.000000,Speed,Speed,-0.010000,1.170000,2.850000,3.000000,101.000000,1,0,-0.000000,0.000000,1,0.000000,0.000000,0.000000,0.421844,4.512054,0.000000,0.000000,0.001000,0.006000,FlatFinal
04:58:01.168 PM 02/13/2016,Autonomous Disabled,0,FALSE,0,NO ERROR,0.000000,0.000000,4000.000000,4000.000000,Speed,Speed,-0.010000,1.170000,2.850000,3.000000,101.000000,1,0,-0.000000,0.000000,1,0.000000,0.000000,0.000000,0.421844,4.512054,0.000000,-0.001000,-0.001000,0.006000,FlatFinal
04:58:01.268 PM 02/13/2016,Autonomous Disabled,0,FALSE,0,NO ERROR,0.000000,0.000000,4000.000000,4000.000000,Speed,Speed,-0.010000,1.170000,2.860000,3.000000,101.000000,1,0,-0.000000,0.000000,1,0.000000,0.000000,0.000000,0.421844,4.512054,0.000000,0.000000,-0.002000,0.005000,FlatFinal
04:58:01.371 PM 02/13/2016,Autonomous Disabled,0,FALSE,0,NO ERROR,0.000000,0.000000,4000.000000,4000.000000,Speed,Speed,-0.020000,1.170000,2.860000,3.000000,101.000000,1,0,-0.000000,0.000000,1,0.000000,0.000000,0.000000,0.421844,4.512054,0.000000,-0.001000,0.000000,0.005000,FlatFinal
04:58:01.471 PM 02/13/2016,Autonomous Disabled,0,FALSE,0,NO ERROR,0.000000,0.000000,4000.000000,4000.000000,Speed,Speed,-0.010000,1.170000,2.860000,3.000000,101.000000,1,0,-0.000000,0.000000,1,0.000000,0.000000,0.000000,0.421844,4.512054,0.000000,0.000000,0.000000,0.004000,FlatFinal
04:58:01.572 PM 02/13/2016,Autonomous Disabled,0,FALSE,0,NO ERROR,0.000000,0.000000,4000.000000,4000.000000,Speed,Speed,-0.020000,1.160000,2.870000,3.000000,102.000000,1,0,-0.000000,0.000000,1,0.000000,0.000000,0.000000,0.421844,4.512054,0.000000,0.000000,0.001000,0.001000,FlatFinal
04:58:01.672 PM 02/13/2016,Autonomous Disabled,0,FALSE,0,NO ERROR,0.000000,0.000000,4000.000000,4000.000000,Speed,Speed,-0.020000,1.170000,2.870000,3.000000,101.000000,1,0,-0.000000,0.000000,1,0.000000,0.000000,0.000000,0.421844,4.512054,0.000000,0.001000,0.000000,0.002000,FlatFinal
04:58:01.772 PM 02/13/2016,Autonomous Disabled,0,FALSE,0,NO ERROR,0.000000,0.000000,4000.000000,4000.000000,Speed,Speed,-0.020000,1.170000,2.870000,3.000000,105.000000,1,0,-0.000000,0.000000,1,0.000000,0.000000,0.000000,0.421844,4.512054,0.000000,0.000000,-0.001000,0.004000,FlatFinal
04:58:01.873 PM 02/13/2016,Autonomous Disabled,0,FALSE,0,NO ERROR,0.000000,0.000000,4000.000000,4000.000000,Speed,Speed,-0.020000,1.170000,2.870000,3.000000,102.000000,1,0,-0.000000,0.000000,1,0.000000,0.000000,0.000000,0.421844,4.512054,0.000000,0.000000,0.001000,0.003000,FlatFinal
04:58:01.974 PM 02/13/2016,Autonomous Disabled,0,FALSE,0,NO ERROR,0.000000,0.000000,4000.000000,4000.000000,Speed,Speed,-0.020000,1.170000,2.870000,3.000000,100.000000,1,0,-0.000000,0.000000,1,0.000000,0.000000,0.000000,0.421844,4.512054,0.000000,0.000000,0.000000,0.005000,FlatFinal
04:58:02.075 PM 02/13/2016,Autonomous Disabled,0,FALSE,0,NO ERROR,0.000000,0.000000,4000.000000,4000.000000,Speed,Speed,-0.020000,1.170000,2.870000,3.000000,101.000000,1,0,-0.000000,0.000000,1,0.000000,0.000000,0.000000,0.421844,4.512054,0.000000,-0.001000,0.000000,0.004000,FlatFinal
04:58:02.175 PM 02/13/2016,Autonomous Disabled,0,FALSE,0,NO ERROR,0.000000,0.000000,4000.000000,4000.000000,Speed,Speed,-0.020000,1.170000,2.870000,3.000000,101.000000,1,0,-0.000000,0.000000,1,0.000000,0.000000,0.000000,0.421844,4.512054,0.000000,-0.001000,-0.001000,0.007000,FlatFinal
04:58:02.276 PM 02/13/2016,Autonomous Enabled,0,FALSE,0,NO ERROR,0.000000,0.000000,4000.000000,4000.000000,Speed,Speed,-0.030000,1.160000,2.880000,3.000000,102.000000,1,0,-0.000000,0.000000,1,0.000000,0.000000,0.000000,0.421844,4.512054,0.000000,0.000000,0.000000,0.005000,FlatFinal
04:58:02.377 PM 02/13/2016,Autonomous Enabled,0,FALSE,0,NO ERROR,0.000000,0.000000,4000.000000,4000.000000,Speed,Speed,-0.030000,1.170000,2.870000,3.000000,102.000000,1,0,-0.000000,0.000000,1,0.000000,0.000000,0.000000,0.421844,4.512054,0.000000,0.004000,0.000000,0.000000,FlatFinal
04:58:02.477 PM 02/13/2016,Autonomous Enabled,0,FALSE,0,NO ERROR,0.000000,0.000000,4000.000000,4000.000000,Speed,Speed,-0.030000,1.190000,2.870000,3.000000,103.000000,1,0,-0.000000,0.000000,1,0.000000,-0.008347,0.000000,0.421844,4.511932,0.000000,-0.005000,0.013000,0.051000,FlatFinal
04:58:02.578 PM 02/13/2016,Autonomous Enabled,0,FALSE,0,NO ERROR,0.000000,0.000000,4000.000000,4000.000000,Speed,Speed,-0.020000,1.190000,2.850000,3.000000,102.000000,1,0,-0.000000,0.000000,1,0.000000,0.000000,0.000000,0.421844,4.511856,0.000000,-0.012000,-0.010000,0.004000,FlatFinal
04:58:02.678 PM 02/13/2016,Autonomous Enabled,0,FALSE,0,NO ERROR,0.000000,0.000000,4000.000000,4000.000000,Speed,Speed,-0.020000,1.190000,2.870000,3.000000,104.000000,1,0,-0.000000,0.000000,1,0.000000,0.000000,0.000000,0.421844,4.511856,0.000000,-0.005000,-0.011000,-0.006000,FlatFinal
04:58:02.778 PM 02/13/2016,Autonomous Enabled,0,FALSE,0,NO ERROR,0.000000,0.000000,4000.000000,4000.000000,Speed,Speed,-0.040000,1.190000,2.870000,3.000000,101.000000,1,0,-0.000000,0.000000,1,0.000000,0.000000,0.000000,0.421844,4.511856,0.000000,0.002000,-0.008000,0.008000,FlatFinal
04:58:02.878 PM 02/13/2016,Autonomous Enabled,0,FALSE,0,NO ERROR,0.000000,0.000000,4000.000000,4000.000000,Speed,Speed,-0.030000,1.190000,2.870000,3.000000,104.000000,1,0,-0.000000,0.000000,1,0.000000,0.000000,0.000000,0.421844,4.511856,0.000000,-0.002000,-0.003000,-0.005000,FlatFinal
04:58:02.978 PM 02/13/2016,Autonomous Enabled,0,FALSE,0,NO ERROR,0.000000,0.000000,4000.000000,4000.000000,Speed,Speed,-0.030000,1.190000,2.870000,3.000000,101.000000,1,0,-0.000000,0.000000,1,0.000000,0.000000,0.000000,0.421844,4.511856,0.000000,0.000000,-0.001000,-0.001000,FlatFinal
04:58:03.078 PM 02/13/2016,Autonomous Enabled,0,FALSE,0,NO ERROR,0.000000,0.000000,4000.000000,4000.000000,Speed,Speed,-0.040000,1.190000,2.870000,3.000000,101.000000,1,0,-0.000000,0.000000,1,0.000000,0.000000,0.000000,0.421844,4.511856,0.000000,0.000000,0.000000,0.009000,FlatFinal
04:58:03.177 PM 02/13/2016,Autonomous Enabled,0,FALSE,0,NO ERROR,0.000000,0.000000,4000.000000,4000.000000,Speed,Speed,-0.040000,1.190000,2.850000,3.000000,103.000000,1,0,-0.000000,0.000000,1,0.000000,0.000000,0.000000,0.421844,4.511856,0.000000,0.000000,0.001000,0.006000,FlatFinal
04:58:03.278 PM 02/13/2016,Autonomous Enabled,0,FALSE,0,NO ERROR,0.000000,0.000000,4000.000000,4000.000000,Speed,Speed,-0.030000,1.190000,2.860000,3.000000,105.000000,1,0,-0.000000,0.000000,1,0.000000,0.000000,0.000000,0.421844,4.511856,0.000000,0.000000,0.001000,0.006000,FlatFinal
04:58:03.378 PM 02/13/2016,Autonomous Enabled,0,FALSE,0,NO ERROR,0.000000,0.000000,4000.000000,4000.000000,Speed,Speed,-0.040000,1.180000,2.860000,3.000000,107.000000,1,0,-0.000000,0.000000,1,0.000000,0.000000,0.000000,0.421844,4.511856,0.000000,0.001000,0.003000,0.003000,FlatFinal
04:58:03.479 PM 02/13/2016,Autonomous Enabled,0,FALSE,0,NO ERROR,0.000000,0.000000,4000.000000,4000.000000,Speed,Speed,-0.040000,1.190000,2.860000,3.000000,102.000000,1,0,-0.000000,0.000000,1,0.000000,0.000000,0.000000,0.421844,4.511856,0.000000,0.002000,0.001000,0.004000,FlatFinal
04:58:03.578 PM 02/13/2016,Autonomous Enabled,0,FALSE,0,NO ERROR,0.000000,0.000000,4000.000000,4000.000000,Speed,Speed,-0.030000,1.180000,2.860000,3.000000,101.000000,1,0,-0.000000,0.000000,1,0.000000,0.000000,0.000000,0.421844,4.511856,0.000000,0.001000,0.000000,0.006000,FlatFinal
04:58:03.679 PM 02/13/2016,Autonomous Enabled,0,FALSE,0,NO ERROR,0.000000,0.000000,4000.000000,4000.000000,Speed,Speed,-0.030000,1.180000,2.860000,3.000000,102.000000,1,0,-0.000000,0.000000,1,0.001968,0.000000,0.000000,0.421875,4.511856,0.000000,0.023000,-0.009000,-0.025000,FlatFinal
04:58:03.780 PM 02/13/2016,Autonomous Enabled,0,FALSE,0,NO ERROR,0.000000,0.000000,4000.000000,4000.000000,Speed,Speed,-0.030000,1.180000,2.850000,3.000000,103.000000,1,0,-0.000000,0.000000,1,0.000000,0.000000,0.000000,0.421906,4.511856,0.000000,-0.007000,-0.009000,0.008000,FlatFinal
04:58:03.880 PM 02/13/2016,Autonomous Enabled,0,FALSE,0,NO ERROR,0.000000,0.000000,4000.000000,4000.000000,Speed,Speed,-0.040000,1.200000,2.850000,3.000000,103.000000,1,0,-0.000000,0.000000,1,0.000000,0.000000,0.000000,0.421906,4.511856,0.000000,-0.008000,0.002000,-0.001000,FlatFinal
04:58:03.981 PM 02/13/2016,Autonomous Enabled,0,FALSE,0,NO ERROR,0.000000,0.000000,4000.000000,4000.000000,Speed,Speed,-0.030000,1.190000,2.840000,3.000000,104.000000,1,0,-0.000000,0.000000,1,0.000000,0.000000,0.000000,0.421906,4.511856,0.000000,-0.002000,0.000000,0.002000,FlatFinal
04:58:04.081 PM 02/13/2016,Autonomous Enabled,0,FALSE,0,NO ERROR,0.000000,0.000000,4000.000000,4000.000000,Speed,Speed,-0.040000,1.180000,2.850000,3.000000,104.000000,1,0,-0.000000,0.000000,1,0.000000,0.000000,0.000000,0.421906,4.511856,0.000000,-0.004000,0.002000,0.011000,FlatFinal
04:58:04.181 PM 02/13/2016,Autonomous Enabled,0,FALSE,0,NO ERROR,0.000000,0.000000,4000.000000,4000.000000,Speed,Speed,-0.040000,1.180000,2.840000,3.000000,104.000000,1,0,-0.000000,0.000000,1,0.000000,0.000000,0.000000,0.421906,4.511856,0.000000,-0.003000,0.000000,0.010000,FlatFinal
04:58:04.280 PM 02/13/2016,Autonomous Enabled,0,FALSE,0,NO ERROR,0.000000,0.000000,4000.000000,4000.000000,Speed,Speed,-0.040000,1.180000,2.840000,3.000000,104.000000,1,0,-0.000000,0.000000,1,0.000000,0.000000,0.000000,0.421906,4.511856,0.000000,-0.006000,-0.002000,0.008000,FlatFinal
04:58:04.381 PM 02/13/2016,Autonomous Enabled,0,FALSE,0,NO ERROR,0.000000,0.000000,4000.000000,4000.000000,Speed,Speed,-0.040000,1.180000,2.850000,3.000000,101.000000,1,0,-0.000000,0.000000,1,0.000000,0.000000,0.000000,0.421906,4.511856,0.000000,0.001000,-0.002000,0.001000,FlatFinal
04:58:04.482 PM 02/13/2016,Autonomous Enabled,0,FALSE,0,NO ERROR,0.000000,0.000000,4000.000000,4000.000000,Speed,Speed,-0.040000,1.170000,2.850000,3.000000,104.000000,1,0,-0.000000,0.000000,1,0.000000,0.000000,0.000000,0.421906,4.511856,0.000000,0.000000,0.000000,0.001000,FlatFinal
04:58:04.581 PM 02/13/2016,Autonomous Enabled,0,FALSE,0,NO ERROR,0.000000,0.000000,4000.000000,4000.000000,Speed,Speed,-0.040000,1.180000,2.840000,3.000000,102.000000,1,0,-0.000000,0.000000,1,0.000000,0.000000,0.000000,0.421906,4.511856,0.000000,0.000000,-0.001000,0.004000,FlatFinal
04:58:04.682 PM 02/13/2016,Autonomous Enabled,0,FALSE,0,NO ERROR,0.000000,0.000000,4000.000000,4000.000000,Speed,Speed,-0.040000,1.180000,2.850000,3.000000,104.000000,1,0,-0.000000,0.000000,1,0.000000,0.000000,0.000000,0.421906,4.511856,0.000000,0.000000,0.001000,0.009000,FlatFinal
04:58:04.782 PM 02/13/2016,Autonomous Enabled,0,FALSE,0,NO ERROR,0.000000,0.000000,4000.000000,4000.000000,Speed,Speed,-0.040000,1.180000,2.850000,3.000000,102.000000,1,0,-0.000000,0.000000,1,0.000000,0.000000,0.000000,0.421906,4.511856,0.000000,-0.004000,0.000000,0.006000,FlatFinal
04:58:04.882 PM 02/13/2016,Autonomous Enabled,0,FALSE,0,NO ERROR,0.000000,0.000000,4000.000000,4000.000000,Speed,Speed,-0.040000,1.180000,2.840000,3.000000,101.000000,1,0,-0.000000,0.000000,1,0.000000,0.000000,0.000000,0.421906,4.511856,0.000000,-0.002000,-0.003000,0.004000,FlatFinal
04:58:04.983 PM 02/13/2016,Autonomous Enabled,0,FALSE,0,NO ERROR,0.000000,0.000000,4000.000000,4000.000000,Speed,Speed,-0.040000,1.180000,2.840000,3.000000,100.000000,1,0,-0.000000,0.000000,1,0.000000,0.000000,0.000000,0.421906,4.511856,0.000000,-0.001000,0.000000,0.005000,FlatFinal
04:58:05.084 PM 02/13/2016,Autonomous Enabled,0,FALSE,0,NO ERROR,0.000000,0.000000,4000.000000,4000.000000,Speed,Speed,-0.040000,1.180000,2.840000,3.000000,106.000000,1,0,-0.000000,0.000000,1,0.000000,0.000000,0.000000,0.421906,4.511856,0.000000,-0.001000,0.000000,0.005000,FlatFinal
04:58:05.185 PM 02/13/2016,Autonomous Enabled,0,FALSE,0,NO ERROR,0.000000,0.000000,4000.000000,4000.000000,Speed,Speed,-0.040000,1.180000,2.830000,3.000000,108.000000,1,0,-0.000000,0.000000,1,0.000000,0.000000,0.000000,0.421906,4.511856,0.000000,0.000000,0.002000,0.003000,FlatFinal
04:58:05.286 PM 02/13/2016,Autonomous Enabled,0,FALSE,0,NO ERROR,0.000000,0.000000,4000.000000,4000.000000,Speed,Speed,-0.040000,1.180000,2.840000,3.000000,104.000000,1,0,-0.000000,0.000000,1,0.000000,0.000000,0.000000,0.421906,4.511856,0.000000,0.000000,-0.004000,0.007000,FlatFinal
04:58:05.386 PM 02/13/2016,Autonomous Enabled,0,FALSE,0,NO ERROR,0.000000,0.000000,4000.000000,4000.000000,Speed,Speed,-0.040000,1.170000,2.840000,3.000000,102.000000,1,0,-0.000000,0.000000,1,0.000000,0.000000,0.000000,0.421906,4.511856,0.000000,0.002000,0.000000,0.004000,FlatFinal
04:58:05.488 PM 02/13/2016,Autonomous Enabled,0,FALSE,0,NO ERROR,0.000000,0.000000,4000.000000,4000.000000,Speed,Speed,-0.050000,1.170000,2.840000,3.000000,105.000000,1,0,-0.000000,0.000000,1,0.000000,0.000000,0.000000,0.421906,4.511856,0.000000,0.000000,0.000000,0.004000,FlatFinal
04:58:05.588 PM 02/13/2016,Autonomous Enabled,0,FALSE,0,NO ERROR,0.000000,0.000000,4000.000000,4000.000000,Speed,Speed,-0.050000,1.180000,2.840000,3.000000,101.000000,1,0,-0.000000,0.000000,1,0.000000,0.000000,0.000000,0.421906,4.511856,0.000000,0.000000,0.000000,0.000000,FlatFinal
04:58:05.689 PM 02/13/2016,Autonomous Enabled,0,FALSE,0,NO ERROR,0.000000,0.000000,4000.000000,4000.000000,Speed,Speed,-0.050000,1.180000,2.840000,3.000000,101.000000,1,0,-0.000000,0.000000,1,0.000000,0.000000,0.000000,0.421906,4.511856,0.000000,-0.001000,0.000000,0.006000,FlatFinal
04:58:05.790 PM 02/13/2016,Autonomous Enabled,0,FALSE,0,NO ERROR,0.000000,0.000000,4000.000000,4000.000000,Speed,Speed,-0.050000,1.180000,2.840000,3.000000,103.000000,1,0,-0.000000,0.000000,1,0.000000,0.000000,0.000000,0.421906,4.511856,0.000000,0.000000,-0.003000,0.007000,FlatFinal
04:58:05.891 PM 02/13/2016,Autonomous Enabled,0,FALSE,0,NO ERROR,0.000000,0.000000,4000.000000,4000.000000,Speed,Speed,-0.050000,1.180000,2.840000,3.000000,101.000000,1,0,-0.000000,0.000000,1,0.000000,0.000000,0.000000,0.421906,4.511856,0.000000,0.000000,-0.001000,0.010000,FlatFinal
04:58:05.992 PM 02/13/2016,Autonomous Enabled,0,FALSE,0,NO ERROR,0.000000,0.000000,4000.000000,4000.000000,Speed,Speed,-0.050000,1.180000,2.840000,3.000000,101.000000,1,0,-0.000000,0.000000,1,0.000000,0.000000,0.000000,0.421906,4.511856,0.000000,0.000000,-0.003000,0.003000,FlatFinal
04:58:06.096 PM 02/13/2016,Autonomous Enabled,0,FALSE,0,NO ERROR,0.000000,0.000000,4000.000000,4000.000000,Speed,Speed,-0.050000,1.180000,2.840000,3.000000,101.000000,1,0,-0.000000,0.000000,1,0.000000,0.000000,0.000000,0.421906,4.511856,0.000000,0.000000,0.000000,0.004000,FlatFinal
04:58:06.198 PM 02/13/2016,Autonomous Enabled,0,FALSE,0,NO ERROR,0.000000,0.000000,4000.000000,4000.000000,Speed,Speed,-0.050000,1.180000,2.840000,3.000000,104.000000,1,0,-0.000000,0.000000,1,0.000000,0.000000,0.000000,0.421906,4.511856,0.000000,0.001000,0.002000,0.002000,FlatFinal
04:58:06.297 PM 02/13/2016,Autonomous Enabled,0,FALSE,0,NO ERROR,0.000000,0.000000,4000.000000,4000.000000,Speed,Speed,-0.040000,1.180000,2.840000,3.000000,104.000000,1,0,-0.000000,0.000000,1,0.000000,0.000000,0.000000,0.421906,4.511856,0.000000,0.000000,0.001000,0.004000,FlatFinal
04:58:06.398 PM 02/13/2016,Autonomous Enabled,0,FALSE,0,NO ERROR,0.000000,0.000000,4000.000000,4000.000000,Speed,Speed,-0.050000,1.180000,2.840000,3.000000,105.000000,1,0,-0.000000,0.000000,1,0.000000,0.000000,0.000000,0.421906,4.511856,0.000000,0.001000,0.001000,0.006000,FlatFinal
04:58:06.499 PM 02/13/2016,Autonomous Enabled,0,FALSE,0,NO ERROR,0.000000,0.000000,4000.000000,4000.000000,Speed,Speed,-0.050000,1.180000,2.840000,3.000000,102.000000,1,0,-0.000000,0.000000,1,0.000000,0.000000,0.000000,0.421906,4.511856,0.000000,0.001000,-0.005000,0.005000,FlatFinal
04:58:06.600 PM 02/13/2016,Autonomous Enabled,0,FALSE,0,NO ERROR,0.000000,0.000000,4000.000000,4000.000000,Speed,Speed,-0.050000,1.180000,2.840000,3.000000,105.000000,1,0,-0.000000,0.000000,1,0.000000,0.000000,0.000000,0.421906,4.511856,0.000000,0.000000,0.000000,0.003000,FlatFinal
04:58:06.700 PM 02/13/2016,Autonomous Enabled,0,FALSE,0,NO ERROR,0.000000,0.000000,4000.000000,4000.000000,Speed,Speed,-0.050000,1.180000,2.830000,3.000000,100.000000,1,0,-0.000000,0.000000,1,0.000000,0.000000,0.000000,0.421906,4.511856,0.000000,-0.003000,-0.002000,0.003000,FlatFinal
04:58:06.799 PM 02/13/2016,Autonomous Enabled,0,FALSE,0,NO ERROR,0.000000,0.000000,4000.000000,4000.000000,Speed,Speed,-0.050000,1.180000,2.830000,3.000000,107.000000,1,0,-0.000000,0.000000,1,0.000000,0.000000,0.000000,0.421906,4.511856,0.000000,0.000000,0.000000,0.001000,FlatFinal
04:58:06.900 PM 02/13/2016,Autonomous Enabled,0,FALSE,0,NO ERROR,0.000000,0.000000,4000.000000,4000.000000,Speed,Speed,-0.050000,1.180000,2.830000,3.000000,102.000000,1,0,-0.000000,0.000000,1,0.000000,0.000000,0.000000,0.421906,4.511856,0.000000,0.002000,0.001000,0.007000,FlatFinal
04:58:06.999 PM 02/13/2016,Autonomous Enabled,0,FALSE,0,NO ERROR,0.000000,0.000000,4000.000000,4000.000000,Speed,Speed,-0.050000,1.170000,2.840000,3.000000,102.000000,1,0,-0.000000,0.000000,1,0.000000,0.000000,0.000000,0.421906,4.511856,0.000000,0.000000,-0.001000,0.004000,FlatFinal
04:58:07.100 PM 02/13/2016,Autonomous Enabled,0,FALSE,0,NO ERROR,0.000000,0.000000,4000.000000,4000.000000,Speed,Speed,-0.050000,1.170000,2.840000,3.000000,101.000000,1,0,-0.000000,0.000000,1,0.000000,0.000000,0.000000,0.421906,4.511856,0.000000,0.001000,0.000000,0.004000,FlatFinal
04:58:07.200 PM 02/13/2016,Autonomous Enabled,0,FALSE,0,NO ERROR,0.000000,0.000000,4000.000000,4000.000000,Speed,Speed,-0.050000,1.170000,2.840000,3.000000,101.000000,1,0,-0.000000,0.000000,1,0.000000,0.000000,0.000000,0.421906,4.511856,0.000000,0.003000,0.000000,0.004000,FlatFinal
04:58:07.300 PM 02/13/2016,Autonomous Enabled,0,FALSE,0,NO ERROR,0.000000,0.000000,4000.000000,4000.000000,Speed,Speed,-0.050000,1.180000,2.840000,3.000000,103.000000,1,0,-0.000000,0.000000,1,0.000000,0.000000,0.000000,0.421906,4.511856,0.000000,0.001000,0.002000,0.006000,FlatFinal
04:58:07.401 PM 02/13/2016,Autonomous Enabled,0,FALSE,0,NO ERROR,0.000000,0.000000,4000.000000,4000.000000,Speed,Speed,-0.060000,1.180000,2.840000,3.000000,103.000000,1,0,-0.000000,0.000000,1,0.000000,0.000000,0.000000,0.421906,4.511856,0.000000,0.001000,-0.001000,0.006000,FlatFinal
04:58:07.500 PM 02/13/2016,Autonomous Enabled,0,FALSE,0,NO ERROR,0.000000,0.000000,4000.000000,4000.000000,Speed,Speed,-0.060000,1.180000,2.840000,3.000000,102.000000,1,0,-0.000000,0.000000,1,0.000000,0.000000,0.000000,0.421906,4.511856,0.000000,0.000000,0.001000,0.002000,FlatFinal
04:58:07.601 PM 02/13/2016,Autonomous Enabled,0,FALSE,0,NO ERROR,0.000000,0.000000,4000.000000,4000.000000,Speed,Speed,-0.060000,1.180000,2.850000,3.000000,108.000000,1,0,-0.000000,0.000000,1,0.000000,0.000000,0.000000,0.421906,4.511856,0.000000,-0.004000,0.001000,0.007000,FlatFinal
04:58:07.702 PM 02/13/2016,Autonomous Enabled,0,FALSE,0,NO ERROR,0.000000,0.000000,4000.000000,4000.000000,Speed,Speed,-0.060000,1.180000,2.850000,3.000000,102.000000,1,0,-0.000000,0.000000,1,0.000000,0.000000,0.000000,0.421906,4.511856,0.000000,-0.001000,0.000000,0.007000,FlatFinal
04:58:07.802 PM 02/13/2016,Autonomous Enabled,0,FALSE,0,NO ERROR,0.000000,0.000000,4000.000000,4000.000000,Speed,Speed,-0.060000,1.180000,2.850000,3.000000,101.000000,1,0,-0.000000,0.000000,1,0.000000,0.000000,0.000000,0.421906,4.511856,0.000000,0.000000,-0.001000,0.006000,FlatFinal
04:58:07.903 PM 02/13/2016,Autonomous Enabled,0,FALSE,0,NO ERROR,0.000000,0.000000,4000.000000,4000.000000,Speed,Speed,-0.060000,1.180000,2.850000,3.000000,107.000000,1,0,-0.000000,0.000000,1,0.000000,0.000000,0.000000,0.421906,4.511856,0.000000,0.000000,0.001000,0.003000,FlatFinal
04:58:08.003 PM 02/13/2016,Autonomous Enabled,0,FALSE,0,NO ERROR,0.000000,0.000000,4000.000000,4000.000000,Speed,Speed,-0.060000,1.180000,2.850000,3.000000,101.000000,1,0,-0.000000,0.000000,1,0.000000,0.000000,0.000000,0.421906,4.511856,0.000000,0.000000,-0.001000,0.008000,FlatFinal
04:58:08.103 PM 02/13/2016,Autonomous Enabled,0,FALSE,0,NO ERROR,0.000000,0.000000,4000.000000,4000.000000,Speed,Speed,-0.070000,1.180000,2.850000,3.000000,105.000000,1,0,-0.000000,0.000000,1,0.000000,0.000000,0.000000,0.421906,4.511856,0.000000,0.000000,0.002000,0.002000,FlatFinal
04:58:08.204 PM 02/13/2016,Autonomous Enabled,0,FALSE,0,NO ERROR,0.000000,0.000000,4000.000000,4000.000000,Speed,Speed,-0.070000,1.180000,2.840000,3.000000,103.000000,1,0,-0.000000,0.000000,1,0.000000,0.000000,0.000000,0.421906,4.511856,0.000000,0.001000,-0.002000,0.001000,FlatFinal
04:58:08.304 PM 02/13/2016,Autonomous Enabled,0,FALSE,0,NO ERROR,0.000000,0.000000,4000.000000,4000.000000,Speed,Speed,-0.070000,1.180000,2.850000,3.000000,101.000000,1,0,-0.000000,0.000000,1,0.000000,0.000000,0.000000,0.421906,4.511856,0.000000,0.000000,0.000000,0.000000,FlatFinal
04:58:08.404 PM 02/13/2016,Autonomous Enabled,0,FALSE,0,NO ERROR,0.000000,0.000000,4000.000000,4000.000000,Speed,Speed,-0.070000,1.180000,2.850000,3.000000,100.000000,1,0,-0.000000,0.000000,1,0.000000,0.000000,0.000000,0.421906,4.511856,0.000000,0.000000,-0.001000,0.006000,FlatFinal
04:58:08.504 PM 02/13/2016,Autonomous Enabled,0,FALSE,0,NO ERROR,0.000000,0.000000,4000.000000,4000.000000,Speed,Speed,-0.070000,1.180000,2.840000,3.000000,102.000000,1,0,-0.000000,0.000000,1,0.000000,0.000000,0.000000,0.421906,4.511856,0.000000,0.000000,-0.002000,0.003000,FlatFinal
04:58:08.605 PM 02/13/2016,Autonomous Enabled,0,FALSE,0,NO ERROR,0.000000,0.000000,4000.000000,4000.000000,Speed,Speed,-0.070000,1.180000,2.840000,3.000000,102.000000,1,0,-0.000000,0.000000,1,0.000000,0.000000,0.000000,0.421906,4.511856,0.000000,0.000000,0.000000,0.008000,FlatFinal
04:58:08.705 PM 02/13/2016,Autonomous Enabled,0,FALSE,0,NO ERROR,0.000000,0.000000,4000.000000,4000.000000,Speed,Speed,-0.070000,1.180000,2.840000,3.000000,104.000000,1,0,-0.000000,0.000000,1,0.000000,0.000000,0.000000,0.421906,4.511856,0.000000,0.000000,0.001000,0.007000,FlatFinal
04:58:08.806 PM 02/13/2016,Autonomous Enabled,0,FALSE,0,NO ERROR,0.000000,0.000000,4000.000000,4000.000000,Speed,Speed,-0.070000,1.180000,2.850000,3.000000,101.000000,1,0,-0.000000,0.000000,1,0.000000,0.000000,0.000000,0.421906,4.511856,0.000000,0.000000,0.001000,0.007000,FlatFinal
04:58:08.907 PM 02/13/2016,Autonomous Enabled,0,FALSE,0,NO ERROR,0.000000,0.000000,4000.000000,4000.000000,Speed,Speed,-0.070000,1.180000,2.850000,3.000000,101.000000,1,0,-0.000000,0.000000,1,0.000000,0.000000,0.000000,0.421906,4.511856,0.000000,0.000000,0.000000,0.008000,FlatFinal
04:58:09.009 PM 02/13/2016,Autonomous Enabled,0,FALSE,0,NO ERROR,0.000000,0.000000,4000.000000,4000.000000,Speed,Speed,-0.070000,1.170000,2.850000,3.000000,105.000000,1,0,-0.000000,0.000000,1,0.000000,0.000000,0.000000,0.421906,4.511856,0.000000,0.000000,0.000000,0.008000,FlatFinal
04:58:09.109 PM 02/13/2016,Autonomous Enabled,0,FALSE,0,NO ERROR,0.000000,0.000000,4000.000000,4000.000000,Speed,Speed,-0.070000,1.180000,2.840000,3.000000,103.000000,1,0,-0.000000,0.000000,1,0.000000,0.000000,0.000000,0.421906,4.511856,0.000000,0.000000,-0.001000,0.004000,FlatFinal
04:58:09.211 PM 02/13/2016,Autonomous Enabled,0,FALSE,0,NO ERROR,0.000000,0.000000,4000.000000,4000.000000,Speed,Speed,-0.070000,1.180000,2.850000,3.000000,107.000000,1,0,-0.000000,0.000000,1,0.000000,0.000000,0.000000,0.421906,4.511856,0.000000,0.000000,-0.001000,0.004000,FlatFinal
04:58:09.309 PM 02/13/2016,Autonomous Enabled,0,FALSE,0,NO ERROR,0.000000,0.000000,4000.000000,4000.000000,Speed,Speed,-0.070000,1.180000,2.850000,3.000000,104.000000,1,0,-0.000000,0.000000,1,0.000000,0.000000,0.000000,0.421906,4.511856,0.000000,0.001000,-0.002000,0.005000,FlatFinal
04:58:09.411 PM 02/13/2016,Autonomous Enabled,0,FALSE,0,NO ERROR,0.000000,0.000000,4000.000000,4000.000000,Speed,Speed,-0.070000,1.180000,2.850000,3.000000,101.000000,1,0,-0.000000,0.000000,1,0.000000,0.000000,0.000000,0.421906,4.511856,0.000000,-0.001000,0.000000,0.005000,FlatFinal
04:58:09.510 PM 02/13/2016,Autonomous Enabled,0,FALSE,0,NO ERROR,0.000000,0.000000,4000.000000,4000.000000,Speed,Speed,-0.070000,1.180000,2.850000,3.000000,101.000000,1,0,-0.000000,0.000000,1,0.000000,0.000000,0.000000,0.421906,4.511856,0.000000,0.000000,0.000000,0.002000,FlatFinal
04:58:09.610 PM 02/13/2016,Autonomous Enabled,0,FALSE,0,NO ERROR,0.000000,0.000000,4000.000000,4000.000000,Speed,Speed,-0.070000,1.180000,2.850000,3.000000,104.000000,1,0,-0.000000,0.000000,1,0.000000,0.000000,0.000000,0.421906,4.511856,0.000000,-0.002000,0.000000,0.002000,FlatFinal
04:58:09.711 PM 02/13/2016,Autonomous Enabled,0,FALSE,0,NO ERROR,0.000000,0.000000,4000.000000,4000.000000,Speed,Speed,-0.070000,1.170000,2.860000,3.000000,103.000000,1,0,-0.000000,0.000000,1,0.000000,0.000000,0.000000,0.421906,4.511856,0.000000,-0.002000,0.000000,0.006000,FlatFinal
04:58:09.812 PM 02/13/2016,Autonomous Enabled,0,FALSE,0,NO ERROR,0.000000,0.000000,4000.000000,4000.000000,Speed,Speed,-0.070000,1.170000,2.860000,3.000000,102.000000,1,0,-0.000000,0.000000,1,0.000000,0.000000,0.000000,0.421906,4.511856,0.000000,0.000000,-0.002000,0.005000,FlatFinal
04:58:09.912 PM 02/13/2016,Autonomous Enabled,0,FALSE,0,NO ERROR,0.000000,0.000000,4000.000000,4000.000000,Speed,Speed,-0.080000,1.180000,2.850000,3.000000,102.000000,1,0,-0.000000,0.000000,1,0.000000,0.000000,0.000000,0.421906,4.511856,0.000000,0.000000,0.002000,0.004000,FlatFinal
04:58:10.012 PM 02/13/2016,Autonomous Enabled,0,FALSE,0,NO ERROR,0.000000,0.000000,4000.000000,4000.000000,Speed,Speed,-0.080000,1.180000,2.850000,3.000000,104.000000,1,0,-0.000000,0.000000,1,0.000000,0.000000,0.000000,0.421906,4.511856,0.000000,0.000000,0.000000,0.006000,FlatFinal
