Time,RobotMode,AutoToRun,ErrorStatus, ErrorCode,ErrorSource,ActualRPM1,ActualRPM2,DesiredRPM1,DesiredRPM2,ControlMode1,ControlMode2,NavXYaw,NavXRoll,NavXPitch,ShooterState,LoopTime,IsLevel,IsAutoTargeting,LeftMotorOutput,RightMotorOutput,IsHaloDrive,NavXVelocityX,NavXVelocityY,NavXVelocityZ,NavXDisplacementX,NavXDisplacementY,NavXDisplacementZ,NavXAccelerationX,NavXAccelerationY,NavXAccelerationZ,AutoDefendState
05:11:52.852 PM 02/13/2016,Teleop Enabled,0,TRUE,-44087,NetComm_CAN_Receive.vi:5470006<APPEND>  <b>Complete call chain:</b>      NetComm_CAN_Receive.vi:5470006      WPI_CANTalonSRX_Receive.vi      WPI_MotorControlOpenCANTalonSRX.vi      Begin.vi      Robot Main.vi,0.000000,0.000000,0.000000,0.000000,Speed,Speed,-95.620000,0.420000,7.360000,0.000000,103.000000,0,0,-0.000000,0.000000,1,0.000000,0.000000,0.000000,0.071793,4.007431,0.000000,-0.001000,0.000000,0.009000,FlatFinal
05:11:52.951 PM 02/13/2016,Teleop Enabled,0,TRUE,-44087,NetComm_CAN_Receive.vi:5470006<APPEND>  <b>Complete call chain:</b>      NetComm_CAN_Receive.vi:5470006      WPI_CANTalonSRX_Receive.vi      WPI_MotorControlOpenCANTalonSRX.vi      Begin.vi      Robot Main.vi,0.000000,0.000000,0.000000,0.000000,Speed,Speed,-95.620000,0.420000,7.360000,0.000000,102.000000,0,0,-0.000000,0.000000,1,0.000000,0.000000,0.000000,0.071793,4.007431,0.000000,-0.001000,0.000000,0.009000,FlatFinal
05:11:53.052 PM 02/13/2016,Teleop Enabled,0,TRUE,-44087,NetComm_CAN_Receive.vi:5470006<APPEND>  <b>Complete call chain:</b>      NetComm_CAN_Receive.vi:5470006      WPI_CANTalonSRX_Receive.vi      WPI_MotorControlOpenCANTalonSRX.vi      Begin.vi      Robot Main.vi,0.000000,0.000000,0.000000,0.000000,Speed,Speed,-95.620000,0.420000,7.360000,0.000000,103.000000,0,0,-0.000000,0.000000,1,0.000000,0.000000,0.000000,0.071793,4.007431,0.000000,-0.001000,0.000000,0.009000,FlatFinal
05:11:53.151 PM 02/13/2016,Teleop Enabled,0,TRUE,-44087,NetComm_CAN_Receive.vi:5470006<APPEND>  <b>Complete call chain:</b>      NetComm_CAN_Receive.vi:5470006      WPI_CANTalonSRX_Receive.vi      WPI_MotorControlOpenCANTalonSRX.vi      Begin.vi      Robot Main.vi,0.000000,0.000000,0.000000,0.000000,Speed,Speed,-95.620000,0.420000,7.360000,0.000000,102.000000,0,0,-0.000000,0.000000,1,0.000000,0.000000,0.000000,0.071793,4.007431,0.000000,-0.001000,0.000000,0.009000,FlatFinal
05:11:53.252 PM 02/13/2016,Teleop Enabled,0,TRUE,-44087,NetComm_CAN_Receive.vi:5470006<APPEND>  <b>Complete call chain:</b>      NetComm_CAN_Receive.vi:5470006      WPI_CANTalonSRX_Receive.vi      WPI_MotorControlOpenCANTalonSRX.vi      Begin.vi      Robot Main.vi,0.000000,0.000000,0.000000,0.000000,Speed,Speed,-95.620000,0.420000,7.360000,0.000000,101.000000,0,0,-0.000000,0.000000,1,0.000000,0.000000,0.000000,0.071793,4.007431,0.000000,-0.001000,0.000000,0.009000,FlatFinal
05:11:53.351 PM 02/13/2016,Teleop Enabled,0,TRUE,-44087,NetComm_CAN_Receive.vi:5470006<APPEND>  <b>Complete call chain:</b>      NetComm_CAN_Receive.vi:5470006      WPI_CANTalonSRX_Receive.vi      WPI_MotorControlOpenCANTalonSRX.vi      Begin.vi      Robot Main.vi,0.000000,0.000000,0.000000,0.000000,Speed,Speed,-95.620000,0.420000,7.360000,0.000000,102.000000,0,0,-0.000000,0.000000,1,0.000000,0.000000,0.000000,0.071793,4.007431,0.000000,-0.001000,0.000000,0.009000,FlatFinal
05:11:53.451 PM 02/13/2016,Teleop Enabled,0,TRUE,-44087,NetComm_CAN_Receive.vi:5470006<APPEND>  <b>Complete call chain:</b>      NetComm_CAN_Receive.vi:5470006      WPI_CANTalonSRX_Receive.vi      WPI_MotorControlOpenCANTalonSRX.vi      Begin.vi      Robot Main.vi,0.000000,0.000000,0.000000,0.000000,Speed,Speed,-95.620000,0.420000,7.360000,0.000000,101.000000,0,0,-0.000000,0.000000,1,0.000000,0.000000,0.000000,0.071793,4.007431,0.000000,-0.001000,0.000000,0.009000,FlatFinal
05:11:53.551 PM 02/13/2016,Teleop Enabled,0,TRUE,-44087,NetComm_CAN_Receive.vi:5470006<APPEND>  <b>Complete call chain:</b>      NetComm_CAN_Receive.vi:5470006      WPI_CANTalonSRX_Receive.vi      WPI_MotorControlOpenCANTalonSRX.vi      Begin.vi      Robot Main.vi,0.000000,0.000000,0.000000,0.000000,Speed,Speed,-95.620000,0.420000,7.360000,0.000000,101.000000,0,0,-0.000000,0.000000,1,0.000000,0.000000,0.000000,0.071793,4.007431,0.000000,-0.001000,0.000000,0.009000,FlatFinal
05:11:53.652 PM 02/13/2016,Teleop Enabled,0,TRUE,-44087,NetComm_CAN_Receive.vi:5470006<APPEND>  <b>Complete call chain:</b>      NetComm_CAN_Receive.vi:5470006      WPI_CANTalonSRX_Receive.vi      WPI_MotorControlOpenCANTalonSRX.vi      Begin.vi      Robot Main.vi,0.000000,0.000000,0.000000,0.000000,Speed,Speed,-95.620000,0.420000,7.360000,0.000000,102.000000,0,0,0.212598,0.212598,1,0.000000,0.000000,0.000000,0.071793,4.007431,0.000000,-0.001000,0.000000,0.009000,FlatFinal
05:11:53.753 PM 02/13/2016,Teleop Enabled,0,TRUE,-44087,NetComm_CAN_Receive.vi:5470006<APPEND>  <b>Complete call chain:</b>      NetComm_CAN_Receive.vi:5470006      WPI_CANTalonSRX_Receive.vi      WPI_MotorControlOpenCANTalonSRX.vi      Begin.vi      Robot Main.vi,0.000000,0.000000,0.000000,0.000000,Speed,Speed,-95.620000,0.420000,7.360000,0.000000,102.000000,0,0,0.291339,0.291339,1,0.000000,0.000000,0.000000,0.071793,4.007431,0.000000,-0.001000,0.000000,0.009000,FlatFinal
05:11:53.852 PM 02/13/2016,Teleop Enabled,0,TRUE,-44087,NetComm_CAN_Receive.vi:5470006<APPEND>  <b>Complete call chain:</b>      NetComm_CAN_Receive.vi:5470006      WPI_CANTalonSRX_Receive.vi      WPI_MotorControlOpenCANTalonSRX.vi      Begin.vi      Robot Main.vi,0.000000,0.000000,0.000000,0.000000,Speed,Speed,-95.620000,0.420000,7.360000,0.000000,101.000000,0,0,0.307087,0.307087,1,0.000000,0.000000,0.000000,0.071793,4.007431,0.000000,-0.001000,0.000000,0.009000,FlatFinal
05:11:53.952 PM 02/13/2016,Teleop Enabled,0,TRUE,-44087,NetComm_CAN_Receive.vi:5470006<APPEND>  <b>Complete call chain:</b>      NetComm_CAN_Receive.vi:5470006      WPI_CANTalonSRX_Receive.vi      WPI_MotorControlOpenCANTalonSRX.vi      Begin.vi      Robot Main.vi,0.000000,0.000000,0.000000,0.000000,Speed,Speed,-95.620000,0.420000,7.360000,0.000000,101.000000,0,0,-0.000000,0.000000,1,0.000000,0.000000,0.000000,0.071793,4.007431,0.000000,-0.001000,0.000000,0.009000,FlatFinal
05:11:54.053 PM 02/13/2016,Teleop Enabled,0,TRUE,-44087,NetComm_CAN_Receive.vi:5470006<APPEND>  <b>Complete call chain:</b>      NetComm_CAN_Receive.vi:5470006      WPI_CANTalonSRX_Receive.vi      WPI_CANTalonSRX_GetStatus.vi      ShooterVI.vi      Periodic Tasks.vi      Robot Main.vi,0.000000,0.000000,0.000000,0.000000,Speed,Speed,-95.620000,0.420000,7.360000,0.000000,102.000000,0,0,-0.000000,0.000000,1,0.000000,0.000000,0.000000,0.071793,4.007431,0.000000,-0.001000,0.000000,0.009000,FlatFinal
05:11:54.153 PM 02/13/2016,Teleop Enabled,0,TRUE,-44087,NetComm_CAN_Receive.vi:5470006<APPEND>  <b>Complete call chain:</b>      NetComm_CAN_Receive.vi:5470006      WPI_CANTalonSRX_Receive.vi      WPI_CANTalonSRX_GetStatus.vi      ShooterVI.vi      Periodic Tasks.vi      Robot Main.vi,0.000000,0.000000,0.000000,0.000000,Speed,Speed,-95.620000,0.420000,7.360000,0.000000,101.000000,0,0,-0.000000,0.000000,1,0.000000,0.000000,0.000000,0.071793,4.007431,0.000000,-0.001000,0.000000,0.009000,FlatFinal
05:11:54.253 PM 02/13/2016,Teleop Enabled,0,FALSE,0,NO ERROR,0.000000,0.000000,0.000000,0.000000,Speed,Speed,-95.620000,0.420000,7.360000,0.000000,103.000000,0,0,-0.228346,0.228346,1,0.000000,0.000000,0.000000,0.071793,4.007431,0.000000,-0.001000,0.000000,0.009000,FlatFinal
05:11:54.353 PM 02/13/2016,Teleop Enabled,0,FALSE,0,NO ERROR,0.000000,0.000000,0.000000,0.000000,Speed,Speed,-95.620000,0.420000,7.360000,0.000000,102.000000,0,0,-0.511811,0.511811,1,0.000000,0.000000,0.000000,0.071793,4.007431,0.000000,-0.001000,0.000000,0.009000,FlatFinal
05:11:54.453 PM 02/13/2016,Teleop Enabled,0,FALSE,0,NO ERROR,0.000000,0.000000,0.000000,0.000000,Speed,Speed,-95.620000,0.420000,7.360000,0.000000,101.000000,0,0,-0.519685,0.519685,1,0.000000,0.000000,0.000000,0.071793,4.007431,0.000000,-0.001000,0.000000,0.009000,FlatFinal
05:11:54.553 PM 02/13/2016,Teleop Enabled,0,FALSE,0,NO ERROR,0.000000,0.000000,0.000000,0.000000,Speed,Speed,-95.620000,0.420000,7.360000,0.000000,101.000000,0,0,-0.519685,0.519685,1,0.000000,0.000000,0.000000,0.071793,4.007431,0.000000,-0.001000,0.000000,0.009000,FlatFinal
05:11:54.653 PM 02/13/2016,Teleop Enabled,0,FALSE,0,NO ERROR,0.000000,0.000000,0.000000,0.000000,Speed,Speed,-95.620000,0.420000,7.360000,0.000000,103.000000,0,0,-0.519685,0.519685,1,0.000000,0.000000,0.000000,0.071793,4.007431,0.000000,-0.001000,0.000000,0.009000,FlatFinal
05:11:54.753 PM 02/13/2016,Teleop Enabled,0,FALSE,0,NO ERROR,0.000000,0.000000,0.000000,0.000000,Speed,Speed,-95.620000,0.420000,7.360000,0.000000,101.000000,0,0,-0.519685,0.519685,1,0.000000,0.000000,0.000000,0.071793,4.007431,0.000000,-0.001000,0.000000,0.009000,FlatFinal
05:11:54.854 PM 02/13/2016,Teleop Enabled,0,FALSE,0,NO ERROR,0.000000,0.000000,-6000.000000,-6000.000000,Speed,Speed,-95.620000,0.420000,7.360000,1.000000,101.000000,0,0,-0.519685,0.519685,1,0.000000,0.000000,0.000000,0.071793,4.007431,0.000000,-0.001000,0.000000,0.009000,FlatFinal
05:11:54.955 PM 02/13/2016,Teleop Enabled,0,FALSE,0,NO ERROR,0.000000,0.000000,0.000000,0.000000,Speed,Speed,-95.620000,0.420000,7.360000,2.000000,101.000000,0,0,-0.519685,0.519685,1,0.000000,0.000000,0.000000,0.071793,4.007431,0.000000,-0.001000,0.000000,0.009000,FlatFinal
05:11:55.055 PM 02/13/2016,Teleop Enabled,0,FALSE,0,NO ERROR,0.000000,0.000000,0.000000,0.000000,Speed,Speed,-95.620000,0.420000,7.360000,2.000000,101.000000,0,0,-0.519685,0.519685,1,0.000000,0.000000,0.000000,0.071793,4.007431,0.000000,-0.001000,0.000000,0.009000,FlatFinal
05:11:55.155 PM 02/13/2016,Teleop Enabled,0,FALSE,0,NO ERROR,0.000000,0.000000,0.000000,0.000000,Speed,Speed,-95.620000,0.420000,7.360000,2.000000,101.000000,0,0,-0.519685,0.519685,1,0.000000,0.000000,0.000000,0.071793,4.007431,0.000000,-0.001000,0.000000,0.009000,FlatFinal
05:11:55.256 PM 02/13/2016,Teleop Enabled,0,FALSE,0,NO ERROR,0.000000,0.000000,0.000000,0.000000,Speed,Speed,-95.620000,0.420000,7.360000,2.000000,101.000000,0,0,-0.000000,0.000000,1,0.000000,0.000000,0.000000,0.071793,4.007431,0.000000,-0.001000,0.000000,0.009000,FlatFinal
05:11:55.355 PM 02/13/2016,Teleop Enabled,0,FALSE,0,NO ERROR,0.000000,0.000000,0.000000,0.000000,Speed,Speed,-95.620000,0.420000,7.360000,2.000000,101.000000,0,0,-0.000000,0.000000,1,0.000000,0.000000,0.000000,0.071793,4.007431,0.000000,-0.001000,0.000000,0.009000,FlatFinal
05:11:55.456 PM 02/13/2016,Teleop Enabled,0,FALSE,0,NO ERROR,0.000000,0.000000,0.000000,0.000000,Speed,Speed,-95.620000,0.420000,7.360000,2.000000,102.000000,0,0,-0.000000,0.000000,1,0.000000,0.000000,0.000000,0.071793,4.007431,0.000000,-0.001000,0.000000,0.009000,FlatFinal
05:11:55.556 PM 02/13/2016,Teleop Enabled,0,FALSE,0,NO ERROR,0.000000,0.000000,0.000000,0.000000,Speed,Speed,-95.620000,0.420000,7.360000,2.000000,101.000000,0,0,-0.000000,0.000000,1,0.000000,0.000000,0.000000,0.071793,4.007431,0.000000,-0.001000,0.000000,0.009000,FlatFinal
05:11:55.657 PM 02/13/2016,Teleop Enabled,0,FALSE,0,NO ERROR,0.000000,0.000000,0.000000,0.000000,Speed,Speed,-95.620000,0.420000,7.360000,2.000000,103.000000,0,0,-0.000000,0.000000,1,0.000000,0.000000,0.000000,0.071793,4.007431,0.000000,-0.001000,0.000000,0.009000,FlatFinal
05:11:55.757 PM 02/13/2016,Teleop Enabled,0,FALSE,0,NO ERROR,0.000000,0.000000,0.000000,0.000000,Speed,Speed,-95.620000,0.420000,7.360000,2.000000,101.000000,0,0,-0.000000,0.000000,1,0.000000,0.000000,0.000000,0.071793,4.007431,0.000000,-0.001000,0.000000,0.009000,FlatFinal
05:11:55.857 PM 02/13/2016,Teleop Enabled,0,FALSE,0,NO ERROR,0.000000,0.000000,0.000000,0.000000,Speed,Speed,-95.620000,0.420000,7.360000,2.000000,101.000000,0,0,-0.000000,0.000000,1,0.000000,0.000000,0.000000,0.071793,4.007431,0.000000,-0.001000,0.000000,0.009000,FlatFinal
05:11:55.957 PM 02/13/2016,Teleop Enabled,0,FALSE,0,NO ERROR,0.000000,0.000000,0.000000,0.000000,Speed,Speed,-95.620000,0.420000,7.360000,2.000000,102.000000,0,0,-0.291339,-0.291339,1,0.000000,0.000000,0.000000,0.071793,4.007431,0.000000,-0.001000,0.000000,0.009000,FlatFinal
05:11:56.057 PM 02/13/2016,Teleop Enabled,0,FALSE,0,NO ERROR,0.000000,0.000000,0.000000,0.000000,Speed,Speed,-95.620000,0.420000,7.360000,2.000000,101.000000,0,0,-0.314961,-0.314961,1,0.000000,0.000000,0.000000,0.071793,4.007431,0.000000,-0.001000,0.000000,0.009000,FlatFinal
05:11:56.157 PM 02/13/2016,Teleop Enabled,0,FALSE,0,NO ERROR,0.000000,0.000000,4000.000000,4000.000000,Speed,Speed,-95.620000,0.420000,7.360000,3.000000,102.000000,0,0,-0.372249,-0.257673,1,0.000000,0.000000,0.000000,0.071793,4.007431,0.000000,-0.001000,0.000000,0.009000,FlatFinal
05:11:56.257 PM 02/13/2016,Teleop Enabled,0,FALSE,0,NO ERROR,0.000000,0.000000,4000.000000,4000.000000,Speed,Speed,-95.620000,0.420000,7.360000,3.000000,101.000000,0,0,-0.388673,-0.256997,1,0.000000,0.000000,0.000000,0.071793,4.007431,0.000000,-0.001000,0.000000,0.009000,FlatFinal
05:11:56.358 PM 02/13/2016,Teleop Enabled,0,FALSE,0,NO ERROR,0.000000,0.000000,4000.000000,4000.000000,Speed,Speed,-95.620000,0.420000,7.360000,3.000000,102.000000,0,0,-0.000000,0.000000,1,0.000000,0.000000,0.000000,0.071793,4.007431,0.000000,-0.001000,0.000000,0.009000,FlatFinal
05:11:56.458 PM 02/13/2016,Teleop Enabled,0,FALSE,0,NO ERROR,0.000000,0.000000,4000.000000,4000.000000,Speed,Speed,-95.620000,0.420000,7.360000,3.000000,100.000000,0,0,-0.000000,0.000000,1,0.000000,0.000000,0.000000,0.071793,4.007431,0.000000,-0.001000,0.000000,0.009000,FlatFinal
05:11:56.558 PM 02/13/2016,Teleop Enabled,0,TRUE,-44003,<LOCATION>WPI_CameraIssue HTTP Request with Authentication.vi<CALLSTACK>WPI_CameraIssue HTTP Request with Authentication.vi< <WPI_CameraIssue Get.vi< <WPI_CameraSet Image Appearance Property.vi< <WPI_CameraSet Image Size.vi< <Vision Processing.vi< <Robot Main.vi,0.000000,0.000000,4000.000000,4000.000000,Speed,Speed,-95.620000,0.420000,7.360000,3.000000,102.000000,0,0,-0.000000,0.000000,1,0.000000,0.000000,0.000000,0.071793,4.007431,0.000000,-0.001000,0.000000,0.009000,FlatFinal
05:11:56.658 PM 02/13/2016,Teleop Enabled,0,FALSE,0,NO ERROR,0.000000,0.000000,4000.000000,4000.000000,Speed,Speed,90.850000,0.520000,2.010000,3.000000,101.000000,1,0,-0.000000,0.000000,1,-0.123840,-0.033600,0.000000,0.183182,4.003952,0.000000,-0.037000,-0.016000,0.130000,FlatFinal
05:11:56.760 PM 02/13/2016,Teleop Enabled,0,FALSE,0,NO ERROR,0.000000,0.000000,4000.000000,4000.000000,Speed,Speed,90.750000,0.590000,1.190000,3.000000,101.000000,1,0,-0.000000,0.000000,1,-0.055725,-0.039124,0.000000,0.178024,4.001953,0.000000,0.146000,0.019000,-0.177000,FlatFinal
05:11:56.860 PM 02/13/2016,Teleop Enabled,0,FALSE,0,NO ERROR,0.000000,0.000000,4000.000000,4000.000000,Speed,Speed,90.740000,0.590000,1.900000,3.000000,101.000000,1,0,-0.000000,0.000000,1,-0.055252,-0.044998,0.000000,0.175659,3.999649,0.000000,0.164000,-0.009000,-0.016000,FlatFinal
05:11:56.960 PM 02/13/2016,Teleop Enabled,0,FALSE,0,NO ERROR,0.000000,0.000000,4000.000000,4000.000000,Speed,Speed,90.760000,0.610000,2.010000,3.000000,108.000000,1,0,-0.000000,0.000000,1,0.010818,-0.048447,0.000000,0.175583,3.997269,0.000000,-0.016000,-0.038000,0.007000,FlatFinal
05:11:57.061 PM 02/13/2016,Teleop Enabled,0,FALSE,0,NO ERROR,0.000000,0.000000,4000.000000,4000.000000,Speed,Speed,90.710000,0.580000,1.880000,3.000000,102.000000,1,0,-0.559055,0.559055,1,-0.004028,-0.048843,0.000000,0.175522,3.994537,0.000000,0.007000,-0.020000,0.011000,FlatFinal
05:11:57.161 PM 02/13/2016,Teleop Enabled,0,FALSE,0,NO ERROR,0.000000,0.000000,4000.000000,4000.000000,Speed,Speed,92.650000,0.160000,2.630000,3.000000,101.000000,1,0,-0.724409,0.724409,1,0.179062,0.039551,0.000000,0.179016,3.993759,0.000000,0.385000,0.109000,0.014000,FlatFinal
05:11:57.261 PM 02/13/2016,Teleop Enabled,0,FALSE,0,NO ERROR,0.000000,0.000000,4000.000000,4000.000000,Speed,Speed,103.210000,-0.760000,3.540000,3.000000,101.000000,1,0,-0.614173,0.614173,1,0.458801,0.129013,0.000000,0.197189,3.998795,0.000000,0.151000,0.025000,-0.004000,FlatFinal
05:11:57.361 PM 02/13/2016,Teleop Enabled,0,FALSE,0,NO ERROR,0.000000,0.000000,4000.000000,4000.000000,Speed,Speed,123.250000,-0.320000,3.720000,3.000000,102.000000,1,0,-0.000000,0.000000,1,0.633347,-0.135727,0.000000,0.225906,4.000031,0.000000,-0.074000,-0.623000,0.357000,FlatFinal
05:11:57.463 PM 02/13/2016,Teleop Enabled,0,FALSE,0,NO ERROR,0.000000,0.000000,4000.000000,4000.000000,Speed,Speed,132.030000,0.610000,3.080000,3.000000,101.000000,1,0,-0.000000,0.000000,1,0.262680,-0.388672,0.000000,0.252014,3.977661,0.000000,-0.200000,0.290000,-0.036000,FlatFinal
05:11:57.564 PM 02/13/2016,Teleop Enabled,0,FALSE,0,NO ERROR,0.000000,0.000000,4000.000000,4000.000000,Speed,Speed,134.470000,0.160000,1.750000,3.000000,101.000000,1,0,-0.322835,-0.322835,1,0.191162,-0.204971,0.000000,0.262390,3.965607,0.000000,-0.129000,-0.108000,0.135000,FlatFinal
05:11:57.664 PM 02/13/2016,Teleop Enabled,0,FALSE,0,NO ERROR,0.000000,0.000000,4000.000000,4000.000000,Speed,Speed,133.430000,0.440000,4.640000,3.000000,101.000000,1,0,-0.425197,-0.425197,1,0.404282,-0.451126,0.000000,0.275558,3.947449,0.000000,0.294000,-0.120000,0.040000,FlatFinal
05:11:57.764 PM 02/13/2016,Teleop Enabled,0,FALSE,0,NO ERROR,0.000000,0.000000,4000.000000,4000.000000,Speed,Speed,133.750000,0.610000,4.850000,3.000000,101.000000,1,0,-0.425197,-0.425197,1,0.565018,-0.655075,0.000000,0.301071,3.918594,0.000000,0.171000,-0.068000,0.067000,FlatFinal
05:11:57.865 PM 02/13/2016,Teleop Enabled,0,FALSE,0,NO ERROR,0.000000,0.000000,4000.000000,4000.000000,Speed,Speed,133.730000,0.570000,5.150000,3.000000,103.000000,1,0,-0.000000,0.000000,1,0.594803,-0.694778,0.000000,0.331665,3.884247,0.000000,-0.161000,0.086000,0.140000,FlatFinal
05:11:57.966 PM 02/13/2016,Teleop Enabled,0,FALSE,0,NO ERROR,0.000000,0.000000,4000.000000,4000.000000,Speed,Speed,133.640000,0.430000,2.600000,3.000000,101.000000,1,0,0.503937,-0.503937,1,0.360626,-0.474670,0.000000,0.356842,3.853638,0.000000,-0.514000,0.579000,0.178000,FlatFinal
05:11:58.066 PM 02/13/2016,Teleop Enabled,0,FALSE,0,NO ERROR,0.000000,0.000000,4000.000000,4000.000000,Speed,Speed,132.250000,0.900000,0.260000,3.000000,102.000000,1,0,-0.000000,0.000000,1,0.042526,-0.291672,0.000000,0.363358,3.837738,0.000000,-0.200000,-0.031000,-0.345000,FlatFinal
05:11:58.166 PM 02/13/2016,Teleop Enabled,0,FALSE,0,NO ERROR,0.000000,0.000000,4000.000000,4000.000000,Speed,Speed,123.300000,1.380000,2.190000,3.000000,101.000000,1,0,-0.000000,0.000000,1,-0.191391,-0.178421,0.000000,0.356293,3.825912,0.000000,0.084000,-0.050000,-0.629000,FlatFinal
05:11:58.266 PM 02/13/2016,Teleop Enabled,0,FALSE,0,NO ERROR,0.000000,0.000000,4000.000000,4000.000000,Speed,Speed,116.880000,1.140000,0.750000,3.000000,103.000000,1,0,-0.000000,0.000000,1,0.117493,-0.214203,0.000000,0.356277,3.816681,0.000000,-0.132000,0.062000,0.316000,FlatFinal
05:11:58.367 PM 02/13/2016,Teleop Enabled,0,FALSE,0,NO ERROR,0.000000,0.000000,4000.000000,4000.000000,Speed,Speed,116.370000,0.340000,1.070000,3.000000,102.000000,1,0,-0.000000,0.000000,1,0.159286,-0.096786,0.000000,0.363129,3.808304,0.000000,-0.001000,-0.002000,0.123000,FlatFinal
05:11:58.468 PM 02/13/2016,Teleop Enabled,0,FALSE,0,NO ERROR,0.000000,0.000000,4000.000000,4000.000000,Speed,Speed,116.400000,0.720000,2.380000,3.000000,102.000000,1,0,0.283465,-0.283465,1,0.052063,-0.131363,0.000000,0.368134,3.802795,0.000000,0.106000,0.145000,0.123000,FlatFinal
05:11:58.569 PM 02/13/2016,Teleop Enabled,0,FALSE,0,NO ERROR,0.000000,0.000000,4000.000000,4000.000000,Speed,Speed,116.140000,0.680000,1.860000,3.000000,101.000000,1,0,0.543307,-0.543307,1,0.114090,-0.175049,0.000000,0.373093,3.796783,0.000000,-0.223000,-0.270000,-0.265000,FlatFinal
05:11:58.670 PM 02/13/2016,Teleop Enabled,0,FALSE,0,NO ERROR,0.000000,0.000000,4000.000000,4000.000000,Speed,Speed,110.630000,1.200000,1.350000,3.000000,102.000000,1,0,-0.000000,0.000000,1,-0.142456,-0.227356,0.000000,0.370682,3.786819,0.000000,-0.257000,-0.196000,0.059000,FlatFinal
05:11:58.771 PM 02/13/2016,Teleop Enabled,0,FALSE,0,NO ERROR,0.000000,0.000000,4000.000000,4000.000000,Speed,Speed,100.920000,1.900000,1.340000,3.000000,101.000000,1,0,-0.000000,0.000000,1,-0.077393,-0.458099,0.000000,0.362518,3.767151,0.000000,0.428000,0.226000,-0.310000,FlatFinal
05:11:58.871 PM 02/13/2016,Teleop Enabled,0,FALSE,0,NO ERROR,0.000000,0.000000,4000.000000,4000.000000,Speed,Speed,98.130000,0.440000,2.430000,3.000000,101.000000,1,0,-0.000000,0.000000,1,0.145798,-0.185959,0.000000,0.366455,3.753067,0.000000,0.085000,-0.062000,-0.072000,FlatFinal
05:11:58.971 PM 02/13/2016,Teleop Enabled,0,FALSE,0,NO ERROR,0.000000,0.000000,4000.000000,4000.000000,Speed,Speed,98.370000,0.640000,2.620000,3.000000,102.000000,1,0,-0.362205,0.362205,1,0.179535,-0.212830,0.000000,0.376694,3.738510,0.000000,-0.024000,0.082000,0.061000,FlatFinal
05:11:59.071 PM 02/13/2016,Teleop Enabled,0,FALSE,0,NO ERROR,0.000000,0.000000,4000.000000,4000.000000,Speed,Speed,100.730000,0.150000,3.060000,3.000000,101.000000,1,0,-0.000000,0.000000,1,0.346207,-0.139038,0.000000,0.388336,3.729401,0.000000,0.282000,0.159000,0.054000,FlatFinal
05:11:59.172 PM 02/13/2016,Teleop Enabled,0,FALSE,0,NO ERROR,0.000000,0.000000,4000.000000,4000.000000,Speed,Speed,106.710000,-0.350000,3.260000,3.000000,102.000000,1,0,-0.000000,0.000000,1,0.259369,-0.128708,0.000000,0.406250,3.724182,0.000000,-0.539000,-0.225000,0.045000,FlatFinal
05:11:59.272 PM 02/13/2016,Teleop Enabled,0,FALSE,0,NO ERROR,0.000000,0.000000,4000.000000,4000.000000,Speed,Speed,108.650000,0.760000,2.290000,3.000000,102.000000,1,0,-0.000000,0.000000,1,0.057205,-0.262772,0.000000,0.410507,3.711868,0.000000,0.060000,0.126000,-0.028000,FlatFinal
05:11:59.373 PM 02/13/2016,Teleop Enabled,0,FALSE,0,NO ERROR,0.000000,0.000000,4000.000000,4000.000000,Speed,Speed,108.140000,0.840000,2.510000,3.000000,102.000000,1,0,-0.236220,-0.236220,1,0.000000,-0.281204,0.000000,0.413895,3.699432,0.000000,-0.013000,-0.081000,0.045000,FlatFinal
05:11:59.473 PM 02/13/2016,Teleop Enabled,0,FALSE,0,NO ERROR,0.000000,0.000000,4000.000000,4000.000000,Speed,Speed,108.260000,0.710000,3.250000,3.000000,101.000000,1,0,-0.307087,-0.307087,1,0.144913,-0.308640,0.000000,0.416473,3.685226,0.000000,0.339000,-0.165000,0.159000,FlatFinal
05:11:59.573 PM 02/13/2016,Teleop Enabled,0,FALSE,0,NO ERROR,0.000000,0.000000,4000.000000,4000.000000,Speed,Speed,108.220000,0.690000,4.980000,3.000000,103.000000,1,0,-0.330709,-0.330709,1,0.415298,-0.400375,0.000000,0.432663,3.666336,0.000000,0.112000,-0.042000,0.151000,FlatFinal
05:11:59.673 PM 02/13/2016,Teleop Enabled,0,FALSE,0,NO ERROR,0.000000,0.000000,4000.000000,4000.000000,Speed,Speed,108.180000,0.760000,4.560000,3.000000,101.000000,1,0,-0.251969,-0.251969,1,0.510559,-0.425278,0.000000,0.456802,3.645538,0.000000,0.013000,-0.041000,-0.140000,FlatFinal
05:11:59.773 PM 02/13/2016,Teleop Enabled,0,FALSE,0,NO ERROR,0.000000,0.000000,4000.000000,4000.000000,Speed,Speed,108.100000,0.740000,4.950000,3.000000,101.000000,1,0,-0.000000,0.000000,1,0.463318,0.008514,0.000000,0.481155,3.633057,0.000000,-0.061000,0.069000,-0.056000,FlatFinal
05:11:59.872 PM 02/13/2016,Teleop Enabled,0,FALSE,0,NO ERROR,0.000000,0.000000,4000.000000,4000.000000,Speed,Speed,108.070000,0.810000,0.720000,3.000000,106.000000,1,0,0.464567,-0.464567,1,0.104477,0.128159,0.000000,0.493317,3.637573,0.000000,-0.344000,-0.011000,-0.169000,FlatFinal
05:11:59.973 PM 02/13/2016,Teleop Enabled,0,FALSE,0,NO ERROR,0.000000,0.000000,4000.000000,4000.000000,Speed,Speed,105.340000,1.560000,0.990000,3.000000,102.000000,1,0,-0.000000,0.000000,1,-0.207062,0.008789,0.000000,0.490036,3.641479,0.000000,-0.472000,-0.192000,-0.025000,FlatFinal
05:12:00.073 PM 02/13/2016,Teleop Enabled,0,FALSE,0,NO ERROR,0.000000,0.000000,4000.000000,4000.000000,Speed,Speed,97.230000,1.050000,1.790000,3.000000,103.000000,1,0,-0.000000,0.000000,1,-0.264114,0.113052,0.000000,0.475037,3.643860,0.000000,0.298000,0.032000,-0.162000,FlatFinal
05:12:00.174 PM 02/13/2016,Teleop Enabled,0,FALSE,0,NO ERROR,0.000000,0.000000,4000.000000,4000.000000,Speed,Speed,95.180000,1.130000,1.580000,3.000000,102.000000,1,0,-0.000000,0.000000,1,0.009918,0.035202,0.000000,0.472595,3.646698,0.000000,0.073000,0.132000,-0.269000,FlatFinal
05:12:00.274 PM 02/13/2016,Teleop Enabled,0,FALSE,0,NO ERROR,0.000000,0.000000,4000.000000,4000.000000,Speed,Speed,95.240000,0.830000,2.520000,3.000000,103.000000,1,0,-0.000000,0.000000,1,-0.072708,0.142120,0.000000,0.471481,3.653259,0.000000,0.073000,0.132000,-0.269000,FlatFinal
05:12:00.375 PM 02/13/2016,Teleop Enabled,0,FALSE,0,NO ERROR,0.000000,0.000000,4000.000000,4000.000000,Speed,Speed,95.030000,0.720000,2.060000,3.000000,102.000000,1,0,0.622047,-0.622047,1,0.016785,0.116974,0.000000,0.468918,3.658539,0.000000,-0.055000,-0.202000,-0.195000,FlatFinal
05:12:00.476 PM 02/13/2016,Teleop Enabled,0,FALSE,0,NO ERROR,0.000000,0.000000,4000.000000,4000.000000,Speed,Speed,92.240000,1.200000,2.100000,3.000000,102.000000,1,0,0.220472,-0.220472,1,-0.198166,0.006516,0.000000,0.464050,3.660858,0.000000,-0.348000,-0.204000,0.319000,FlatFinal
05:12:00.575 PM 02/13/2016,Teleop Enabled,0,FALSE,0,NO ERROR,0.000000,0.000000,4000.000000,4000.000000,Speed,Speed,83.250000,2.230000,0.930000,3.000000,101.000000,1,0,-0.000000,0.000000,1,-0.130020,-0.184830,0.000000,0.450027,3.653534,0.000000,-0.348000,-0.204000,0.319000,FlatFinal
05:12:00.676 PM 02/13/2016,Teleop Enabled,0,FALSE,0,NO ERROR,0.000000,0.000000,4000.000000,4000.000000,Speed,Speed,78.500000,0.540000,2.470000,3.000000,103.000000,1,0,-0.000000,0.000000,1,-0.035080,0.199722,0.000000,0.447998,3.656128,0.000000,0.061000,0.116000,-0.173000,FlatFinal
05:12:00.776 PM 02/13/2016,Teleop Enabled,0,FALSE,0,NO ERROR,0.000000,0.000000,4000.000000,4000.000000,Speed,Speed,78.480000,1.090000,2.640000,3.000000,101.000000,1,0,-0.000000,0.000000,1,0.000000,0.136978,0.000000,0.448532,3.663300,0.000000,0.061000,0.116000,-0.173000,FlatFinal
05:12:00.876 PM 02/13/2016,Teleop Enabled,0,FALSE,0,NO ERROR,0.000000,0.000000,4000.000000,4000.000000,Speed,Speed,78.960000,0.930000,2.530000,3.000000,102.000000,1,0,0.417323,0.417323,1,0.000000,0.136978,0.000000,0.448532,3.663300,0.000000,-0.011000,0.213000,-0.017000,FlatFinal
05:12:00.976 PM 02/13/2016,Teleop Enabled,0,FALSE,0,NO ERROR,0.000000,0.000000,4000.000000,4000.000000,Speed,Speed,78.710000,0.850000,-1.630000,3.000000,101.000000,1,0,0.236220,0.236220,1,-0.025986,0.136261,0.000000,0.447739,3.671951,0.000000,-0.024000,-0.171000,0.053000,FlatFinal
05:12:01.076 PM 02/13/2016,Teleop Enabled,0,FALSE,0,NO ERROR,0.000000,0.000000,4000.000000,4000.000000,Speed,Speed,78.290000,0.950000,-0.330000,3.000000,101.000000,1,0,-0.000000,0.000000,1,-0.511856,0.067490,0.000000,0.432266,3.676483,0.000000,-0.272000,-0.083000,0.342000,FlatFinal
05:12:01.177 PM 02/13/2016,Teleop Enabled,0,FALSE,0,NO ERROR,0.000000,0.000000,4000.000000,4000.000000,Speed,Speed,78.290000,0.950000,-0.330000,3.000000,103.000000,1,0,-0.000000,0.000000,1,-0.467529,0.066132,0.000000,0.404877,3.679321,0.000000,0.555000,0.125000,-0.139000,FlatFinal
05:12:01.277 PM 02/13/2016,Teleop Enabled,0,FALSE,0,NO ERROR,0.000000,0.000000,4000.000000,4000.000000,Speed,Speed,78.730000,0.840000,2.110000,3.000000,113.000000,1,0,-0.000000,0.000000,1,-0.225449,0.108612,0.000000,0.390869,3.684052,0.000000,0.203000,0.029000,-0.328000,FlatFinal
05:12:01.378 PM 02/13/2016,Teleop Enabled,0,FALSE,0,NO ERROR,0.000000,0.000000,4000.000000,4000.000000,Speed,Speed,78.730000,0.840000,2.110000,3.000000,106.000000,1,0,-0.330709,0.330709,1,0.002701,0.168732,0.000000,0.386642,3.691360,0.000000,0.062000,-0.010000,0.154000,FlatFinal
05:12:01.479 PM 02/13/2016,Teleop Enabled,0,FALSE,0,NO ERROR,0.000000,0.000000,4000.000000,4000.000000,Speed,Speed,78.860000,0.820000,2.380000,3.000000,102.000000,1,0,-0.330709,0.330709,1,0.097031,0.204224,0.000000,0.389832,3.701202,0.000000,0.101000,0.238000,0.303000,FlatFinal
05:12:01.580 PM 02/13/2016,Teleop Enabled,0,FALSE,0,NO ERROR,0.000000,0.000000,4000.000000,4000.000000,Speed,Speed,83.970000,0.340000,3.900000,3.000000,102.000000,1,0,-0.000000,0.000000,1,0.097763,0.245422,0.000000,0.393677,3.710999,0.000000,0.071000,0.144000,0.375000,FlatFinal
05:12:01.680 PM 02/13/2016,Teleop Enabled,0,FALSE,0,NO ERROR,0.000000,0.000000,4000.000000,4000.000000,Speed,Speed,91.730000,-0.470000,3.500000,3.000000,102.000000,1,0,-0.000000,0.000000,1,0.144791,0.355423,0.000000,0.401962,3.731049,0.000000,-0.091000,-0.222000,0.099000,FlatFinal
05:12:01.781 PM 02/13/2016,Teleop Enabled,0,FALSE,0,NO ERROR,0.000000,0.000000,4000.000000,4000.000000,Speed,Speed,97.830000,0.580000,3.230000,3.000000,103.000000,1,0,-0.000000,0.000000,1,-0.094086,0.100525,0.000000,0.402191,3.738815,0.000000,-0.140000,-0.053000,-0.012000,FlatFinal
05:12:01.880 PM 02/13/2016,Teleop Enabled,0,FALSE,0,NO ERROR,0.000000,0.000000,4000.000000,4000.000000,Speed,Speed,97.640000,0.710000,2.480000,3.000000,105.000000,1,0,0.401575,-0.401575,1,-0.186462,0.089127,0.000000,0.393845,3.743027,0.000000,0.032000,-0.074000,0.055000,FlatFinal
05:12:01.981 PM 02/13/2016,Teleop Enabled,0,FALSE,0,NO ERROR,0.000000,0.000000,4000.000000,4000.000000,Speed,Speed,97.050000,0.690000,3.010000,3.000000,104.000000,1,0,-0.000000,0.000000,1,-0.120819,0.061935,0.000000,0.384995,3.746445,0.000000,0.026000,0.014000,-0.057000,FlatFinal
05:12:02.080 PM 02/13/2016,Teleop Enabled,0,FALSE,0,NO ERROR,0.000000,0.000000,4000.000000,4000.000000,Speed,Speed,95.090000,1.240000,2.330000,3.000000,102.000000,1,0,-0.000000,0.000000,1,-0.310501,-0.032196,0.000000,0.375916,3.746750,0.000000,-0.166000,-0.141000,0.056000,FlatFinal
05:12:02.181 PM 02/13/2016,Teleop Enabled,0,FALSE,0,NO ERROR,0.000000,0.000000,4000.000000,4000.000000,Speed,Speed,88.320000,1.760000,1.940000,3.000000,106.000000,1,0,-0.000000,0.000000,1,-0.211197,-0.055511,0.000000,0.357788,3.740967,0.000000,0.237000,0.299000,-0.004000,FlatFinal
05:12:02.281 PM 02/13/2016,Teleop Enabled,0,FALSE,0,NO ERROR,0.000000,0.000000,4000.000000,4000.000000,Speed,Speed,86.950000,0.860000,2.940000,3.000000,102.000000,1,0,-0.401575,0.401575,1,-0.168304,0.064148,0.000000,0.347992,3.745911,0.000000,0.027000,-0.151000,0.000000,FlatFinal
05:12:02.381 PM 02/13/2016,Teleop Enabled,0,FALSE,0,NO ERROR,0.000000,0.000000,4000.000000,4000.000000,Speed,Speed,87.160000,0.800000,2.890000,3.000000,102.000000,1,0,-0.000000,0.000000,1,-0.075897,0.136871,0.000000,0.343140,3.749435,0.000000,0.186000,0.180000,-0.079000,FlatFinal
05:12:02.481 PM 02/13/2016,Teleop Enabled,0,FALSE,0,NO ERROR,0.000000,0.000000,4000.000000,4000.000000,Speed,Speed,91.560000,-0.060000,3.630000,3.000000,106.000000,1,0,-0.000000,0.000000,1,0.029892,0.263489,0.000000,0.344131,3.761047,0.000000,-0.089000,-0.104000,-0.053000,FlatFinal
05:12:02.581 PM 02/13/2016,Teleop Enabled,0,FALSE,0,NO ERROR,0.000000,0.000000,4000.000000,4000.000000,Speed,Speed,96.230000,0.960000,2.960000,3.000000,102.000000,1,0,-0.000000,0.000000,1,-0.217194,0.022949,0.000000,0.338974,3.767944,0.000000,-0.036000,0.012000,0.053000,FlatFinal
05:12:02.682 PM 02/13/2016,Teleop Enabled,0,FALSE,0,NO ERROR,0.000000,0.000000,4000.000000,4000.000000,Speed,Speed,95.770000,0.710000,2.630000,3.000000,100.000000,1,0,0.417323,-0.417323,1,-0.206497,0.070938,0.000000,0.327866,3.770264,0.000000,0.010000,-0.112000,-0.001000,FlatFinal
05:12:02.783 PM 02/13/2016,Teleop Enabled,0,FALSE,0,NO ERROR,0.000000,0.000000,4000.000000,4000.000000,Speed,Speed,95.630000,0.770000,2.920000,3.000000,102.000000,1,0,-0.000000,0.000000,1,0.009369,0.043549,0.000000,0.328003,3.772018,0.000000,0.021000,0.118000,-0.011000,FlatFinal
05:12:02.884 PM 02/13/2016,Teleop Enabled,0,FALSE,0,NO ERROR,0.000000,0.000000,4000.000000,4000.000000,Speed,Speed,92.620000,1.370000,2.500000,3.000000,101.000000,1,0,-0.000000,0.000000,1,-0.107666,-0.032654,0.000000,0.325089,3.772034,0.000000,0.211000,-0.037000,-0.183000,FlatFinal
05:12:02.985 PM 02/13/2016,Teleop Enabled,0,FALSE,0,NO ERROR,0.000000,0.000000,4000.000000,4000.000000,Speed,Speed,89.870000,1.020000,2.470000,3.000000,101.000000,1,0,-0.000000,0.000000,1,0.061981,0.074173,0.000000,0.324570,3.771973,0.000000,0.063000,0.321000,-0.058000,FlatFinal
05:12:03.087 PM 02/13/2016,Teleop Enabled,0,FALSE,0,NO ERROR,0.000000,0.000000,4000.000000,4000.000000,Speed,Speed,89.970000,0.990000,2.860000,3.000000,104.000000,1,0,-0.000000,0.000000,1,0.002945,0.072021,0.000000,0.326523,3.779037,0.000000,0.010000,-0.018000,0.000000,FlatFinal
05:12:03.187 PM 02/13/2016,Teleop Enabled,0,FALSE,0,NO ERROR,0.000000,0.000000,4000.000000,4000.000000,Speed,Speed,89.940000,0.780000,2.930000,3.000000,102.000000,1,0,-0.000000,0.000000,1,0.055450,0.131210,0.000000,0.328079,3.783417,0.000000,-0.054000,-0.126000,0.069000,FlatFinal
05:12:03.287 PM 02/13/2016,Teleop Enabled,0,FALSE,0,NO ERROR,0.000000,0.000000,4000.000000,4000.000000,Speed,Speed,89.840000,0.840000,2.870000,3.000000,101.000000,1,0,-0.000000,0.000000,1,0.058487,0.120712,0.000000,0.330597,3.789703,0.000000,0.033000,0.000000,0.008000,FlatFinal
05:12:03.387 PM 02/13/2016,Teleop Enabled,0,FALSE,0,NO ERROR,0.000000,0.000000,4000.000000,4000.000000,Speed,Speed,89.850000,0.900000,2.930000,3.000000,101.000000,1,0,-0.000000,0.000000,1,0.035126,0.104889,0.000000,0.332932,3.794983,0.000000,-0.019000,0.037000,0.022000,FlatFinal
05:12:03.487 PM 02/13/2016,Teleop Enabled,0,FALSE,0,NO ERROR,0.000000,0.000000,4000.000000,4000.000000,Speed,Speed,89.810000,0.900000,2.830000,3.000000,101.000000,1,0,-0.000000,0.000000,1,0.000000,0.102493,0.000000,0.332932,3.800446,0.000000,0.002000,0.034000,-0.004000,FlatFinal
05:12:03.589 PM 02/13/2016,Teleop Enabled,0,FALSE,0,NO ERROR,0.000000,0.000000,4000.000000,4000.000000,Speed,Speed,89.870000,0.870000,2.880000,3.000000,101.000000,1,0,-0.000000,0.000000,1,0.000000,0.113632,0.000000,0.332932,3.804932,0.000000,0.083000,0.008000,-0.007000,FlatFinal
05:12:03.689 PM 02/13/2016,Teleop Enabled,0,FALSE,0,NO ERROR,0.000000,0.000000,4000.000000,4000.000000,Speed,Speed,90.930000,0.570000,3.300000,3.000000,103.000000,1,0,-0.000000,0.000000,1,0.181961,0.229965,0.000000,0.337067,3.813980,0.000000,0.149000,0.228000,-0.156000,FlatFinal
05:12:03.790 PM 02/13/2016,Teleop Enabled,0,FALSE,0,NO ERROR,0.000000,0.000000,4000.000000,4000.000000,Speed,Speed,97.630000,-0.180000,3.550000,3.000000,102.000000,1,0,-0.000000,0.000000,1,0.127365,0.214951,0.000000,0.347214,3.827805,0.000000,-0.302000,-0.297000,-0.075000,FlatFinal
05:12:03.891 PM 02/13/2016,Teleop Enabled,0,FALSE,0,NO ERROR,0.000000,0.000000,4000.000000,4000.000000,Speed,Speed,98.800000,0.770000,2.600000,3.000000,101.000000,1,0,-0.000000,0.000000,1,-0.015869,0.103394,0.000000,0.347473,3.833038,0.000000,0.046000,0.136000,-0.005000,FlatFinal
05:12:03.991 PM 02/13/2016,Teleop Enabled,0,FALSE,0,NO ERROR,0.000000,0.000000,4000.000000,4000.000000,Speed,Speed,98.330000,0.850000,2.930000,3.000000,101.000000,1,0,-0.000000,0.000000,1,0.017899,0.088226,0.000000,0.347931,3.838928,0.000000,0.035000,-0.032000,0.017000,FlatFinal
05:12:04.092 PM 02/13/2016,Teleop Enabled,0,FALSE,0,NO ERROR,0.000000,0.000000,4000.000000,4000.000000,Speed,Speed,98.560000,0.720000,2.810000,3.000000,101.000000,1,0,-0.000000,0.000000,1,0.047821,0.129639,0.000000,0.350113,3.844971,0.000000,-0.035000,-0.071000,-0.026000,FlatFinal
05:12:04.192 PM 02/13/2016,Teleop Enabled,0,FALSE,0,NO ERROR,0.000000,0.000000,4000.000000,4000.000000,Speed,Speed,98.510000,0.750000,2.920000,3.000000,105.000000,1,0,-0.535433,-0.535433,1,0.000000,0.127304,0.000000,0.351410,3.851929,0.000000,0.001000,-0.005000,0.031000,FlatFinal
05:12:04.293 PM 02/13/2016,Teleop Enabled,0,FALSE,0,NO ERROR,0.000000,0.000000,4000.000000,4000.000000,Speed,Speed,98.440000,0.830000,2.990000,3.000000,101.000000,1,0,-0.440945,-0.440945,1,0.042450,0.000000,0.000000,0.351929,3.855377,0.000000,0.350000,-0.001000,-0.064000,FlatFinal
05:12:04.394 PM 02/13/2016,Teleop Enabled,0,FALSE,0,NO ERROR,0.000000,0.000000,4000.000000,4000.000000,Speed,Speed,98.260000,0.720000,6.830000,3.000000,104.000000,0,0,-0.000000,0.000000,1,0.652374,-0.081314,0.000000,0.381104,3.851654,0.000000,0.293000,-0.092000,0.233000,FlatFinal
05:12:04.497 PM 02/13/2016,Teleop Enabled,0,FALSE,0,NO ERROR,0.000000,0.000000,4000.000000,4000.000000,Speed,Speed,98.190000,0.780000,4.840000,3.000000,103.000000,1,0,-0.000000,0.000000,1,0.632141,-0.075668,0.000000,0.400711,3.849319,0.000000,-0.512000,0.021000,-0.084000,FlatFinal
05:12:04.597 PM 02/13/2016,Teleop Enabled,0,FALSE,0,NO ERROR,0.000000,0.000000,4000.000000,4000.000000,Speed,Speed,98.120000,0.870000,1.340000,3.000000,111.000000,1,0,-0.000000,0.000000,1,0.143326,0.003998,0.000000,0.419281,3.847076,0.000000,-0.316000,-0.009000,-0.284000,FlatFinal
05:12:04.696 PM 02/13/2016,Teleop Enabled,0,FALSE,0,NO ERROR,0.000000,0.000000,4000.000000,4000.000000,Speed,Speed,98.050000,0.770000,1.300000,3.000000,106.000000,1,0,0.496063,-0.496063,1,-0.114334,0.025558,0.000000,0.417084,3.847885,0.000000,-0.129000,0.008000,-0.278000,FlatFinal
05:12:04.797 PM 02/13/2016,Teleop Enabled,0,FALSE,0,NO ERROR,0.000000,0.000000,4000.000000,4000.000000,Speed,Speed,97.250000,0.950000,1.990000,3.000000,101.000000,1,0,-0.000000,0.000000,1,-0.336456,0.035202,0.000000,0.406921,3.849487,0.000000,-0.253000,-0.156000,0.189000,FlatFinal
05:12:04.897 PM 02/13/2016,Teleop Enabled,0,FALSE,0,NO ERROR,0.000000,0.000000,4000.000000,4000.000000,Speed,Speed,88.720000,2.080000,1.130000,3.000000,102.000000,1,0,-0.000000,0.000000,1,-0.444489,-0.197067,0.000000,0.385147,3.845078,0.000000,0.161000,-0.112000,-0.069000,FlatFinal
05:12:04.996 PM 02/13/2016,Teleop Enabled,0,FALSE,0,NO ERROR,0.000000,0.000000,4000.000000,4000.000000,Speed,Speed,84.690000,1.080000,2.060000,3.000000,101.000000,1,0,-0.370079,0.370079,1,-0.115234,0.059479,0.000000,0.369644,3.839310,0.000000,0.142000,0.124000,-0.099000,FlatFinal
05:12:05.097 PM 02/13/2016,Teleop Enabled,0,FALSE,0,NO ERROR,0.000000,0.000000,4000.000000,4000.000000,Speed,Speed,84.560000,0.910000,2.610000,3.000000,103.000000,1,0,-0.000000,0.000000,1,0.000000,0.060699,0.000000,0.367050,3.842224,0.000000,-0.032000,0.022000,-0.004000,FlatFinal
05:12:05.197 PM 02/13/2016,Teleop Enabled,0,FALSE,0,NO ERROR,0.000000,0.000000,4000.000000,4000.000000,Speed,Speed,87.900000,0.100000,3.070000,3.000000,101.000000,1,0,-0.000000,0.000000,1,0.187302,0.244431,0.000000,0.373322,3.851349,0.000000,-0.032000,-0.017000,-0.150000,FlatFinal
05:12:05.298 PM 02/13/2016,Teleop Enabled,0,FALSE,0,NO ERROR,0.000000,0.000000,4000.000000,4000.000000,Speed,Speed,93.810000,0.860000,2.860000,3.000000,102.000000,1,0,-0.000000,0.000000,1,-0.060730,-0.000092,0.000000,0.376419,3.857864,0.000000,-0.118000,-0.283000,-0.043000,FlatFinal
05:12:05.399 PM 02/13/2016,Teleop Enabled,0,FALSE,0,NO ERROR,0.000000,0.000000,4000.000000,4000.000000,Speed,Speed,93.360000,0.710000,2.290000,3.000000,104.000000,1,0,-0.000000,0.000000,1,-0.068085,0.025620,0.000000,0.372177,3.857544,0.000000,0.055000,-0.001000,-0.007000,FlatFinal
05:12:05.500 PM 02/13/2016,Teleop Enabled,0,FALSE,0,NO ERROR,0.000000,0.000000,4000.000000,4000.000000,Speed,Speed,93.150000,0.820000,2.820000,3.000000,102.000000,1,0,-0.000000,0.000000,1,-0.029984,0.000168,0.000000,0.370148,3.857346,0.000000,0.023000,0.079000,-0.006000,FlatFinal
05:12:05.600 PM 02/13/2016,Teleop Enabled,0,FALSE,0,NO ERROR,0.000000,0.000000,4000.000000,4000.000000,Speed,Speed,93.400000,0.860000,2.630000,3.000000,102.000000,1,0,-0.000000,0.000000,1,-0.008118,-0.005478,0.000000,0.369537,3.857803,0.000000,-0.024000,-0.013000,0.013000,FlatFinal
05:12:05.701 PM 02/13/2016,Teleop Enabled,0,FALSE,0,NO ERROR,0.000000,0.000000,4000.000000,4000.000000,Speed,Speed,93.230000,0.830000,2.630000,3.000000,102.000000,1,0,-0.228346,-0.228346,1,0.002579,0.003555,0.000000,0.369446,3.858002,0.000000,0.021000,-0.038000,0.008000,FlatFinal
05:12:05.800 PM 02/13/2016,Teleop Enabled,0,FALSE,0,NO ERROR,0.000000,0.000000,4000.000000,4000.000000,Speed,Speed,93.320000,0.790000,2.780000,3.000000,102.000000,1,0,-0.385827,-0.385827,1,0.020905,0.009232,0.000000,0.370255,3.858124,0.000000,0.462000,-0.096000,-0.184000,FlatFinal
05:12:05.901 PM 02/13/2016,Teleop Enabled,0,FALSE,0,NO ERROR,0.000000,0.000000,4000.000000,4000.000000,Speed,Speed,93.110000,0.750000,5.590000,3.000000,104.000000,1,0,-0.393701,-0.393701,1,0.399200,-0.009750,0.000000,0.382523,3.857513,0.000000,0.311000,-0.024000,-0.096000,FlatFinal
05:12:06.002 PM 02/13/2016,Teleop Enabled,0,FALSE,0,NO ERROR,0.000000,0.000000,4000.000000,4000.000000,Speed,Speed,93.160000,0.700000,4.960000,3.000000,101.000000,1,0,-0.000000,0.000000,1,0.604660,-0.014252,0.000000,0.409683,3.856598,0.000000,0.065000,-0.029000,-0.095000,FlatFinal
05:12:06.102 PM 02/13/2016,Teleop Enabled,0,FALSE,0,NO ERROR,0.000000,0.000000,4000.000000,4000.000000,Speed,Speed,93.050000,0.730000,5.260000,3.000000,108.000000,1,0,-0.000000,0.000000,1,0.534409,-0.051895,0.000000,0.439407,3.854874,0.000000,-0.442000,-0.155000,0.019000,FlatFinal
05:12:06.203 PM 02/13/2016,Teleop Enabled,0,FALSE,0,NO ERROR,0.000000,0.000000,4000.000000,4000.000000,Speed,Speed,93.140000,0.760000,3.590000,3.000000,103.000000,1,0,-0.000000,0.000000,1,0.076462,0.000000,0.000000,0.451035,3.852982,0.000000,-0.405000,-0.532000,0.126000,FlatFinal
05:12:06.304 PM 02/13/2016,Teleop Enabled,0,FALSE,0,NO ERROR,0.000000,0.000000,4000.000000,4000.000000,Speed,Speed,93.080000,0.700000,2.940000,3.000000,103.000000,1,0,-0.000000,0.000000,1,-0.007446,-0.099762,0.000000,0.450134,3.848190,0.000000,-0.053000,0.136000,0.066000,FlatFinal
05:12:06.406 PM 02/13/2016,Teleop Enabled,0,FALSE,0,NO ERROR,0.000000,0.000000,4000.000000,4000.000000,Speed,Speed,93.060000,0.740000,2.690000,3.000000,103.000000,1,0,-0.228346,-0.228346,1,-0.001099,-0.089462,0.000000,0.449982,3.843307,0.000000,0.001000,0.076000,0.019000,FlatFinal
05:12:06.508 PM 02/13/2016,Teleop Enabled,0,FALSE,0,NO ERROR,0.000000,0.000000,4000.000000,4000.000000,Speed,Speed,93.090000,0.780000,2.830000,3.000000,101.000000,1,0,-0.251969,-0.251969,1,0.045074,-0.084579,0.000000,0.450256,3.840118,0.000000,0.407000,-0.027000,-0.124000,FlatFinal
05:12:06.608 PM 02/13/2016,Teleop Enabled,0,FALSE,0,NO ERROR,0.000000,0.000000,4000.000000,4000.000000,Speed,Speed,93.120000,0.750000,4.780000,3.000000,102.000000,1,0,-0.291339,-0.291339,1,0.379700,-0.081360,0.000000,0.466934,3.835312,0.000000,0.131000,0.010000,-0.169000,FlatFinal
05:12:06.710 PM 02/13/2016,Teleop Enabled,0,FALSE,0,NO ERROR,0.000000,0.000000,4000.000000,4000.000000,Speed,Speed,93.110000,0.700000,5.760000,3.000000,102.000000,1,0,-0.000000,0.000000,1,0.427704,0.000000,0.000000,0.483093,3.832764,0.000000,0.088000,0.035000,-0.046000,FlatFinal
05:12:06.810 PM 02/13/2016,Teleop Enabled,0,FALSE,0,NO ERROR,0.000000,0.000000,4000.000000,4000.000000,Speed,Speed,93.180000,0.750000,6.920000,3.000000,102.000000,0,0,-0.000000,0.000000,1,-0.017441,-0.001541,0.000000,0.496674,3.833084,0.000000,-0.096000,0.003000,0.060000,FlatFinal
05:12:06.911 PM 02/13/2016,Teleop Enabled,0,FALSE,0,NO ERROR,0.000000,0.000000,4000.000000,4000.000000,Speed,Speed,93.050000,0.660000,5.720000,3.000000,101.000000,1,0,-0.000000,0.000000,1,-0.360260,0.008133,0.000000,0.485916,3.833298,0.000000,-0.099000,0.048000,-0.009000,FlatFinal
05:12:07.011 PM 02/13/2016,Teleop Enabled,0,FALSE,0,NO ERROR,0.000000,0.000000,4000.000000,4000.000000,Speed,Speed,93.070000,0.690000,5.160000,3.000000,104.000000,1,0,-0.204724,-0.204724,1,-0.462280,0.029999,0.000000,0.463989,3.834488,0.000000,-0.018000,0.017000,-0.064000,FlatFinal
05:12:07.112 PM 02/13/2016,Teleop Enabled,0,FALSE,0,NO ERROR,0.000000,0.000000,4000.000000,4000.000000,Speed,Speed,93.260000,0.670000,6.710000,3.000000,101.000000,0,0,-0.204724,-0.204724,1,-0.197388,0.000748,0.000000,0.447708,3.835327,0.000000,0.153000,0.073000,0.132000,FlatFinal
05:12:07.213 PM 02/13/2016,Teleop Enabled,0,FALSE,0,NO ERROR,0.000000,0.000000,4000.000000,4000.000000,Speed,Speed,93.240000,0.600000,7.410000,3.000000,101.000000,0,0,-0.000000,0.000000,1,-0.126389,0.016861,0.000000,0.440628,3.835983,0.000000,0.053000,-0.020000,0.004000,FlatFinal
05:12:07.313 PM 02/13/2016,Teleop Enabled,0,FALSE,0,NO ERROR,0.000000,0.000000,4000.000000,4000.000000,Speed,Speed,93.260000,0.640000,7.590000,3.000000,102.000000,0,0,-0.000000,0.000000,1,-0.179626,0.000000,0.000000,0.433533,3.836441,0.000000,-0.163000,0.010000,0.027000,FlatFinal
05:12:07.414 PM 02/13/2016,Teleop Enabled,0,FALSE,0,NO ERROR,0.000000,0.000000,4000.000000,4000.000000,Speed,Speed,93.270000,0.630000,6.750000,3.000000,104.000000,0,0,-0.000000,0.000000,1,-0.457855,0.012589,0.000000,0.411026,3.836823,0.000000,-0.099000,0.030000,0.102000,FlatFinal
05:12:07.515 PM 02/13/2016,Teleop Enabled,0,FALSE,0,NO ERROR,0.000000,0.000000,4000.000000,4000.000000,Speed,Speed,93.270000,0.640000,6.250000,3.000000,102.000000,0,0,-0.000000,0.000000,1,-0.474976,0.009567,0.000000,0.391937,3.837189,0.000000,0.048000,0.033000,-0.020000,FlatFinal
05:12:07.615 PM 02/13/2016,Teleop Enabled,0,FALSE,0,NO ERROR,0.000000,0.000000,4000.000000,4000.000000,Speed,Speed,93.260000,0.690000,6.570000,3.000000,102.000000,0,0,-0.000000,0.000000,1,-0.358551,-0.016174,0.000000,0.371994,3.837189,0.000000,0.061000,0.037000,-0.069000,FlatFinal
05:12:07.715 PM 02/13/2016,Teleop Enabled,0,FALSE,0,NO ERROR,0.000000,0.000000,2000.000000,2000.000000,Speed,Speed,93.280000,0.660000,6.670000,5.000000,100.000000,0,1,0.000000,-0.000000,1,-0.331970,0.000000,0.000000,0.355011,3.836945,0.000000,0.077000,-0.008000,-0.022000,FlatFinal
05:12:07.816 PM 02/13/2016,Teleop Enabled,0,FALSE,0,NO ERROR,0.000000,0.000000,2000.000000,2000.000000,Speed,Speed,93.280000,0.660000,6.670000,5.000000,101.000000,0,0,-0.000000,0.000000,1,-0.331970,0.000000,0.000000,0.355011,3.836945,0.000000,0.077000,-0.008000,-0.022000,FlatFinal
05:12:07.917 PM 02/13/2016,Teleop Enabled,0,FALSE,0,NO ERROR,0.000000,0.000000,2000.000000,2000.000000,Speed,Speed,93.280000,0.660000,6.670000,5.000000,101.000000,0,0,-0.000000,0.000000,1,-0.331970,0.000000,0.000000,0.355011,3.836945,0.000000,0.077000,-0.008000,-0.022000,FlatFinal
05:12:08.017 PM 02/13/2016,Teleop Enabled,0,FALSE,0,NO ERROR,0.000000,0.000000,2000.000000,2000.000000,Speed,Speed,93.280000,0.660000,6.670000,5.000000,101.000000,0,0,-0.000000,0.000000,1,-0.331970,0.000000,0.000000,0.355011,3.836945,0.000000,0.077000,-0.008000,-0.022000,FlatFinal
05:12:08.116 PM 02/13/2016,Teleop Enabled,0,FALSE,0,NO ERROR,0.000000,0.000000,2000.000000,2000.000000,Speed,Speed,93.280000,0.660000,6.670000,5.000000,101.000000,0,0,-0.000000,0.000000,1,-0.331970,0.000000,0.000000,0.355011,3.836945,0.000000,0.077000,-0.008000,-0.022000,FlatFinal
05:12:08.217 PM 02/13/2016,Teleop Enabled,0,FALSE,0,NO ERROR,0.000000,0.000000,2000.000000,2000.000000,Speed,Speed,93.280000,0.660000,6.670000,5.000000,104.000000,0,0,-0.000000,0.000000,1,-0.331970,0.000000,0.000000,0.355011,3.836945,0.000000,0.077000,-0.008000,-0.022000,FlatFinal
05:12:08.318 PM 02/13/2016,Teleop Enabled,0,FALSE,0,NO ERROR,0.000000,0.000000,2000.000000,2000.000000,Speed,Speed,93.280000,0.660000,6.670000,5.000000,102.000000,0,0,-0.000000,0.000000,1,-0.331970,0.000000,0.000000,0.355011,3.836945,0.000000,0.077000,-0.008000,-0.022000,FlatFinal
05:12:08.420 PM 02/13/2016,Teleop Enabled,0,FALSE,0,NO ERROR,0.000000,0.000000,2000.000000,2000.000000,Speed,Speed,93.280000,0.660000,6.670000,5.000000,101.000000,0,0,-0.000000,0.000000,1,-0.331970,0.000000,0.000000,0.355011,3.836945,0.000000,0.077000,-0.008000,-0.022000,FlatFinal
05:12:08.521 PM 02/13/2016,Teleop Enabled,0,FALSE,0,NO ERROR,0.000000,0.000000,2000.000000,2000.000000,Speed,Speed,93.280000,0.660000,6.670000,5.000000,101.000000,0,0,-0.000000,0.000000,1,-0.331970,0.000000,0.000000,0.355011,3.836945,0.000000,0.077000,-0.008000,-0.022000,FlatFinal
05:12:08.623 PM 02/13/2016,Teleop Enabled,0,FALSE,0,NO ERROR,0.000000,0.000000,2000.000000,2000.000000,Speed,Speed,93.280000,0.660000,6.670000,5.000000,102.000000,0,1,0.000000,-0.000000,1,-0.331970,0.000000,0.000000,0.355011,3.836945,0.000000,0.077000,-0.008000,-0.022000,FlatFinal
05:12:08.723 PM 02/13/2016,Teleop Enabled,0,FALSE,0,NO ERROR,0.000000,0.000000,2000.000000,2000.000000,Speed,Speed,93.280000,0.660000,6.670000,5.000000,101.000000,0,1,0.000000,-0.000000,1,-0.331970,0.000000,0.000000,0.355011,3.836945,0.000000,0.077000,-0.008000,-0.022000,FlatFinal
05:12:08.824 PM 02/13/2016,Teleop Enabled,0,FALSE,0,NO ERROR,0.000000,0.000000,2000.000000,2000.000000,Speed,Speed,93.280000,0.660000,6.670000,5.000000,102.000000,0,0,-0.000000,0.000000,1,-0.331970,0.000000,0.000000,0.355011,3.836945,0.000000,0.077000,-0.008000,-0.022000,FlatFinal
05:12:08.926 PM 02/13/2016,Teleop Enabled,0,FALSE,0,NO ERROR,0.000000,0.000000,2000.000000,2000.000000,Speed,Speed,93.280000,0.660000,6.670000,5.000000,101.000000,0,0,-0.000000,0.000000,1,-0.331970,0.000000,0.000000,0.355011,3.836945,0.000000,0.077000,-0.008000,-0.022000,FlatFinal
05:12:09.026 PM 02/13/2016,Teleop Enabled,0,FALSE,0,NO ERROR,0.000000,0.000000,2000.000000,2000.000000,Speed,Speed,93.280000,0.660000,6.670000,5.000000,101.000000,0,0,-0.000000,0.000000,1,-0.331970,0.000000,0.000000,0.355011,3.836945,0.000000,0.077000,-0.008000,-0.022000,FlatFinal
05:12:09.127 PM 02/13/2016,Teleop Enabled,0,FALSE,0,NO ERROR,0.000000,0.000000,2000.000000,2000.000000,Speed,Speed,93.280000,0.660000,6.670000,5.000000,102.000000,0,0,-0.000000,0.000000,1,-0.331970,0.000000,0.000000,0.355011,3.836945,0.000000,0.077000,-0.008000,-0.022000,FlatFinal
05:12:09.229 PM 02/13/2016,Teleop Enabled,0,FALSE,0,NO ERROR,0.000000,0.000000,2000.000000,2000.000000,Speed,Speed,93.280000,0.660000,6.670000,5.000000,100.000000,0,0,-0.000000,0.000000,1,-0.331970,0.000000,0.000000,0.355011,3.836945,0.000000,0.077000,-0.008000,-0.022000,FlatFinal
05:12:09.330 PM 02/13/2016,Teleop Enabled,0,FALSE,0,NO ERROR,0.000000,0.000000,2000.000000,2000.000000,Speed,Speed,93.280000,0.660000,6.670000,5.000000,102.000000,0,0,-0.000000,0.000000,1,-0.331970,0.000000,0.000000,0.355011,3.836945,0.000000,0.077000,-0.008000,-0.022000,FlatFinal
05:12:09.431 PM 02/13/2016,Teleop Enabled,0,FALSE,0,NO ERROR,0.000000,0.000000,2000.000000,2000.000000,Speed,Speed,93.280000,0.660000,6.670000,5.000000,101.000000,0,0,-0.000000,0.000000,1,-0.331970,0.000000,0.000000,0.355011,3.836945,0.000000,0.077000,-0.008000,-0.022000,FlatFinal
05:12:09.530 PM 02/13/2016,Teleop Enabled,0,FALSE,0,NO ERROR,0.000000,0.000000,2000.000000,2000.000000,Speed,Speed,93.280000,0.660000,6.670000,5.000000,101.000000,0,0,-0.000000,0.000000,1,-0.331970,0.000000,0.000000,0.355011,3.836945,0.000000,0.077000,-0.008000,-0.022000,FlatFinal
05:12:09.631 PM 02/13/2016,Teleop Enabled,0,FALSE,0,NO ERROR,0.000000,0.000000,2000.000000,2000.000000,Speed,Speed,93.280000,0.660000,6.670000,5.000000,104.000000,0,0,-0.000000,0.000000,1,-0.331970,0.000000,0.000000,0.355011,3.836945,0.000000,0.077000,-0.008000,-0.022000,FlatFinal
05:12:09.732 PM 02/13/2016,Teleop Enabled,0,FALSE,0,NO ERROR,0.000000,0.000000,2000.000000,2000.000000,Speed,Speed,93.280000,0.660000,6.670000,5.000000,101.000000,0,0,-0.000000,0.000000,1,-0.331970,0.000000,0.000000,0.355011,3.836945,0.000000,0.077000,-0.008000,-0.022000,FlatFinal
05:12:09.831 PM 02/13/2016,Teleop Enabled,0,FALSE,0,NO ERROR,0.000000,0.000000,2000.000000,2000.000000,Speed,Speed,93.280000,0.660000,6.670000,5.000000,101.000000,0,0,-0.000000,0.000000,1,-0.331970,0.000000,0.000000,0.355011,3.836945,0.000000,0.077000,-0.008000,-0.022000,FlatFinal
05:12:09.932 PM 02/13/2016,Teleop Enabled,0,FALSE,0,NO ERROR,0.000000,0.000000,2000.000000,2000.000000,Speed,Speed,93.280000,0.660000,6.670000,5.000000,101.000000,0,0,-0.000000,0.000000,1,-0.331970,0.000000,0.000000,0.355011,3.836945,0.000000,0.077000,-0.008000,-0.022000,FlatFinal
05:12:10.032 PM 02/13/2016,Teleop Enabled,0,FALSE,0,NO ERROR,0.000000,0.000000,2000.000000,2000.000000,Speed,Speed,93.280000,0.660000,6.670000,5.000000,101.000000,0,0,-0.000000,0.000000,1,-0.331970,0.000000,0.000000,0.355011,3.836945,0.000000,0.077000,-0.008000,-0.022000,FlatFinal
05:12:10.131 PM 02/13/2016,Teleop Enabled,0,FALSE,0,NO ERROR,0.000000,0.000000,2000.000000,2000.000000,Speed,Speed,93.280000,0.660000,6.670000,5.000000,102.000000,0,0,-0.000000,0.000000,1,-0.331970,0.000000,0.000000,0.355011,3.836945,0.000000,0.077000,-0.008000,-0.022000,FlatFinal
05:12:10.232 PM 02/13/2016,Teleop Enabled,0,FALSE,0,NO ERROR,0.000000,0.000000,2000.000000,2000.000000,Speed,Speed,93.280000,0.660000,6.670000,5.000000,101.000000,0,0,-0.000000,0.000000,1,-0.331970,0.000000,0.000000,0.355011,3.836945,0.000000,0.077000,-0.008000,-0.022000,FlatFinal
05:12:10.332 PM 02/13/2016,Teleop Enabled,0,FALSE,0,NO ERROR,0.000000,0.000000,2000.000000,2000.000000,Speed,Speed,93.280000,0.660000,6.670000,5.000000,102.000000,0,0,-0.000000,0.000000,1,-0.331970,0.000000,0.000000,0.355011,3.836945,0.000000,0.077000,-0.008000,-0.022000,FlatFinal
05:12:10.432 PM 02/13/2016,Teleop Enabled,0,FALSE,0,NO ERROR,0.000000,0.000000,2000.000000,2000.000000,Speed,Speed,93.280000,0.660000,6.670000,5.000000,100.000000,0,0,-0.000000,0.000000,1,-0.331970,0.000000,0.000000,0.355011,3.836945,0.000000,0.077000,-0.008000,-0.022000,FlatFinal
05:12:10.532 PM 02/13/2016,Teleop Enabled,0,FALSE,0,NO ERROR,0.000000,0.000000,2000.000000,2000.000000,Speed,Speed,93.280000,0.660000,6.670000,5.000000,101.000000,0,0,-0.000000,0.000000,1,-0.331970,0.000000,0.000000,0.355011,3.836945,0.000000,0.077000,-0.008000,-0.022000,FlatFinal
05:12:10.632 PM 02/13/2016,Teleop Enabled,0,FALSE,0,NO ERROR,0.000000,0.000000,2000.000000,2000.000000,Speed,Speed,93.280000,0.660000,6.670000,5.000000,101.000000,0,0,-0.000000,0.000000,1,-0.331970,0.000000,0.000000,0.355011,3.836945,0.000000,0.077000,-0.008000,-0.022000,FlatFinal
05:12:10.732 PM 02/13/2016,Teleop Enabled,0,FALSE,0,NO ERROR,0.000000,0.000000,2000.000000,2000.000000,Speed,Speed,93.280000,0.660000,6.670000,5.000000,101.000000,0,0,-0.000000,0.000000,1,-0.331970,0.000000,0.000000,0.355011,3.836945,0.000000,0.077000,-0.008000,-0.022000,FlatFinal
05:12:10.831 PM 02/13/2016,Teleop Enabled,0,FALSE,0,NO ERROR,0.000000,0.000000,2000.000000,2000.000000,Speed,Speed,93.280000,0.660000,6.670000,5.000000,102.000000,0,0,-0.000000,0.000000,1,-0.331970,0.000000,0.000000,0.355011,3.836945,0.000000,0.077000,-0.008000,-0.022000,FlatFinal
05:12:10.932 PM 02/13/2016,Teleop Enabled,0,FALSE,0,NO ERROR,0.000000,0.000000,2000.000000,2000.000000,Speed,Speed,93.280000,0.660000,6.670000,5.000000,106.000000,0,0,-0.000000,0.000000,1,-0.331970,0.000000,0.000000,0.355011,3.836945,0.000000,0.077000,-0.008000,-0.022000,FlatFinal
05:12:11.032 PM 02/13/2016,Teleop Enabled,0,FALSE,0,NO ERROR,0.000000,0.000000,2000.000000,2000.000000,Speed,Speed,93.280000,0.660000,6.670000,5.000000,101.000000,0,0,-0.000000,0.000000,1,-0.331970,0.000000,0.000000,0.355011,3.836945,0.000000,0.077000,-0.008000,-0.022000,FlatFinal
05:12:11.133 PM 02/13/2016,Teleop Enabled,0,FALSE,0,NO ERROR,0.000000,0.000000,2000.000000,2000.000000,Speed,Speed,93.280000,0.660000,6.670000,5.000000,100.000000,0,0,-0.000000,0.000000,1,-0.331970,0.000000,0.000000,0.355011,3.836945,0.000000,0.077000,-0.008000,-0.022000,FlatFinal
05:12:11.232 PM 02/13/2016,Teleop Enabled,0,FALSE,0,NO ERROR,0.000000,0.000000,2000.000000,2000.000000,Speed,Speed,93.280000,0.660000,6.670000,5.000000,101.000000,0,0,-0.000000,0.000000,1,-0.331970,0.000000,0.000000,0.355011,3.836945,0.000000,0.077000,-0.008000,-0.022000,FlatFinal
05:12:11.333 PM 02/13/2016,Teleop Enabled,0,FALSE,0,NO ERROR,0.000000,0.000000,2000.000000,2000.000000,Speed,Speed,93.280000,0.660000,6.670000,5.000000,102.000000,0,0,-0.000000,0.000000,1,-0.331970,0.000000,0.000000,0.355011,3.836945,0.000000,0.077000,-0.008000,-0.022000,FlatFinal
05:12:11.434 PM 02/13/2016,Teleop Enabled,0,FALSE,0,NO ERROR,0.000000,0.000000,2000.000000,2000.000000,Speed,Speed,93.280000,0.660000,6.670000,5.000000,102.000000,0,0,-0.000000,0.000000,1,-0.331970,0.000000,0.000000,0.355011,3.836945,0.000000,0.077000,-0.008000,-0.022000,FlatFinal
05:12:11.534 PM 02/13/2016,Teleop Enabled,0,FALSE,0,NO ERROR,0.000000,0.000000,2000.000000,2000.000000,Speed,Speed,93.280000,0.660000,6.670000,5.000000,102.000000,0,0,-0.000000,0.000000,1,-0.331970,0.000000,0.000000,0.355011,3.836945,0.000000,0.077000,-0.008000,-0.022000,FlatFinal
05:12:11.634 PM 02/13/2016,Teleop Enabled,0,FALSE,0,NO ERROR,0.000000,0.000000,2000.000000,2000.000000,Speed,Speed,93.280000,0.660000,6.670000,5.000000,101.000000,0,0,-0.000000,0.000000,1,-0.331970,0.000000,0.000000,0.355011,3.836945,0.000000,0.077000,-0.008000,-0.022000,FlatFinal
05:12:11.734 PM 02/13/2016,Teleop Enabled,0,FALSE,0,NO ERROR,0.000000,0.000000,2000.000000,2000.000000,Speed,Speed,93.280000,0.660000,6.670000,5.000000,101.000000,0,0,-0.000000,0.000000,1,-0.331970,0.000000,0.000000,0.355011,3.836945,0.000000,0.077000,-0.008000,-0.022000,FlatFinal
05:12:11.834 PM 02/13/2016,Teleop Enabled,0,FALSE,0,NO ERROR,0.000000,0.000000,2000.000000,2000.000000,Speed,Speed,93.280000,0.660000,6.670000,5.000000,100.000000,0,0,-0.000000,0.000000,1,-0.331970,0.000000,0.000000,0.355011,3.836945,0.000000,0.077000,-0.008000,-0.022000,FlatFinal
05:12:11.934 PM 02/13/2016,Teleop Enabled,0,FALSE,0,NO ERROR,0.000000,0.000000,2000.000000,2000.000000,Speed,Speed,93.280000,0.660000,6.670000,5.000000,101.000000,0,0,-0.000000,0.000000,1,-0.331970,0.000000,0.000000,0.355011,3.836945,0.000000,0.077000,-0.008000,-0.022000,FlatFinal
05:12:12.033 PM 02/13/2016,Teleop Enabled,0,FALSE,0,NO ERROR,0.000000,0.000000,2000.000000,2000.000000,Speed,Speed,93.280000,0.660000,6.670000,5.000000,100.000000,0,0,-0.417323,-0.417323,1,-0.331970,0.000000,0.000000,0.355011,3.836945,0.000000,0.077000,-0.008000,-0.022000,FlatFinal
05:12:12.134 PM 02/13/2016,Teleop Enabled,0,FALSE,0,NO ERROR,0.000000,0.000000,2000.000000,2000.000000,Speed,Speed,93.280000,0.660000,6.670000,5.000000,102.000000,0,0,-0.677165,-0.677165,1,-0.331970,0.000000,0.000000,0.355011,3.836945,0.000000,0.077000,-0.008000,-0.022000,FlatFinal
05:12:12.234 PM 02/13/2016,Teleop Enabled,0,FALSE,0,NO ERROR,0.000000,0.000000,2000.000000,2000.000000,Speed,Speed,93.280000,0.660000,6.670000,5.000000,101.000000,0,0,-0.708661,-0.708661,1,-0.331970,0.000000,0.000000,0.355011,3.836945,0.000000,0.077000,-0.008000,-0.022000,FlatFinal
05:12:12.334 PM 02/13/2016,Teleop Enabled,0,FALSE,0,NO ERROR,0.000000,0.000000,2000.000000,2000.000000,Speed,Speed,93.280000,0.660000,6.670000,5.000000,101.000000,0,0,-0.708661,-0.708661,1,-0.331970,0.000000,0.000000,0.355011,3.836945,0.000000,0.077000,-0.008000,-0.022000,FlatFinal
05:12:12.435 PM 02/13/2016,Teleop Enabled,0,FALSE,0,NO ERROR,0.000000,0.000000,2000.000000,2000.000000,Speed,Speed,93.280000,0.660000,6.670000,5.000000,105.000000,0,0,-0.708661,-0.708661,1,-0.331970,0.000000,0.000000,0.355011,3.836945,0.000000,0.077000,-0.008000,-0.022000,FlatFinal
05:12:12.535 PM 02/13/2016,Teleop Enabled,0,FALSE,0,NO ERROR,0.000000,0.000000,2000.000000,2000.000000,Speed,Speed,93.280000,0.660000,6.670000,5.000000,100.000000,0,0,-0.582677,-0.582677,1,-0.331970,0.000000,0.000000,0.355011,3.836945,0.000000,0.077000,-0.008000,-0.022000,FlatFinal
05:12:12.634 PM 02/13/2016,Teleop Enabled,0,FALSE,0,NO ERROR,0.000000,0.000000,2000.000000,2000.000000,Speed,Speed,93.280000,0.660000,6.670000,5.000000,102.000000,0,0,-0.574803,-0.574803,1,-0.331970,0.000000,0.000000,0.355011,3.836945,0.000000,0.077000,-0.008000,-0.022000,FlatFinal
05:12:12.734 PM 02/13/2016,Teleop Enabled,0,FALSE,0,NO ERROR,0.000000,0.000000,2000.000000,2000.000000,Speed,Speed,93.280000,0.660000,6.670000,5.000000,101.000000,0,0,-0.488189,-0.488189,1,-0.331970,0.000000,0.000000,0.355011,3.836945,0.000000,0.077000,-0.008000,-0.022000,FlatFinal
05:12:12.835 PM 02/13/2016,Teleop Enabled,0,FALSE,0,NO ERROR,0.000000,0.000000,2000.000000,2000.000000,Speed,Speed,88.870000,1.070000,20.430000,5.000000,102.000000,0,0,-0.000000,0.000000,1,0.825073,0.078217,0.000000,0.728912,3.778778,0.000000,-0.378000,-0.096000,0.843000,FlatFinal
