Time,RobotMode,AutoToRun,ErrorStatus, ErrorCode,ErrorSource,ActualRPM1,ActualRPM2,DesiredRPM1,DesiredRPM2,ControlMode1,ControlMode2,NavXYaw,NavXRoll,NavXPitch,ShooterState,LoopTime,IsLevel,IsAutoTargeting,LeftMotorOutput,RightMotorOutput,IsHaloDrive,NavXVelocityX,NavXVelocityY,NavXVelocityZ,NavXDisplacementX,NavXDisplacementY,NavXDisplacementZ,NavXAccelerationX,NavXAccelerationY,NavXAccelerationZ,AutoDefendState
11:39:13.438 AM 02/13/2016,Teleop Enabled,0,TRUE,-44087,NetComm_CAN_Receive.vi:5470006<APPEND>  <b>Complete call chain:</b>      NetComm_CAN_Receive.vi:5470006      WPI_CANTalonSRX_Receive.vi      WPI_MotorControlOpenCANTalonSRX.vi      Begin.vi      Robot Main.vi,0.000000,0.000000,0.000000,0.000000,Speed,Speed,0.270000,1.220000,1.890000,2.000000,102.000000,1,0,-0.005022,-0.005022,0,0.038010,0.130219,0.000000,-0.345932,0.745926,0.000000,-0.480000,-0.110000,-1.145000,FlatInitial
11:39:13.538 AM 02/13/2016,Teleop Enabled,0,TRUE,-44087,NetComm_CAN_Receive.vi:5470006<APPEND>  <b>Complete call chain:</b>      NetComm_CAN_Receive.vi:5470006      WPI_CANTalonSRX_Receive.vi      WPI_MotorControlOpenCANTalonSRX.vi      Begin.vi      Robot Main.vi,0.000000,0.000000,0.000000,0.000000,Speed,Speed,0.270000,1.220000,1.890000,2.000000,102.000000,1,0,-0.005022,-0.005022,0,0.038010,0.130219,0.000000,-0.345932,0.745926,0.000000,-0.480000,-0.110000,-1.145000,FlatInitial
11:39:13.638 AM 02/13/2016,Teleop Enabled,0,TRUE,-44087,NetComm_CAN_Receive.vi:5470006<APPEND>  <b>Complete call chain:</b>      NetComm_CAN_Receive.vi:5470006      WPI_CANTalonSRX_Receive.vi      WPI_MotorControlOpenCANTalonSRX.vi      Begin.vi      Robot Main.vi,0.000000,0.000000,0.000000,0.000000,Speed,Speed,0.270000,1.220000,1.890000,2.000000,101.000000,1,0,-0.005022,-0.005022,0,0.038010,0.130219,0.000000,-0.345932,0.745926,0.000000,-0.480000,-0.110000,-1.145000,FlatInitial
11:39:13.739 AM 02/13/2016,Teleop Enabled,0,TRUE,-44087,NetComm_CAN_Receive.vi:5470006<APPEND>  <b>Complete call chain:</b>      NetComm_CAN_Receive.vi:5470006      WPI_CANTalonSRX_Receive.vi      WPI_MotorControlOpenCANTalonSRX.vi      Begin.vi      Robot Main.vi,0.000000,0.000000,0.000000,0.000000,Speed,Speed,0.270000,1.220000,1.890000,2.000000,102.000000,1,0,-0.005022,-0.005022,0,0.038010,0.130219,0.000000,-0.345932,0.745926,0.000000,-0.480000,-0.110000,-1.145000,FlatInitial
11:39:13.839 AM 02/13/2016,Teleop Enabled,0,TRUE,-44087,NetComm_CAN_Receive.vi:5470006<APPEND>  <b>Complete call chain:</b>      NetComm_CAN_Receive.vi:5470006      WPI_CANTalonSRX_Receive.vi      WPI_MotorControlOpenCANTalonSRX.vi      Begin.vi      Robot Main.vi,0.000000,0.000000,0.000000,0.000000,Speed,Speed,0.270000,1.220000,1.890000,2.000000,101.000000,1,0,-0.005022,-0.005022,0,0.038010,0.130219,0.000000,-0.345932,0.745926,0.000000,-0.480000,-0.110000,-1.145000,FlatInitial
11:39:13.940 AM 02/13/2016,Teleop Enabled,0,TRUE,-44087,NetComm_CAN_Receive.vi:5470006<APPEND>  <b>Complete call chain:</b>      NetComm_CAN_Receive.vi:5470006      WPI_CANTalonSRX_Receive.vi      WPI_MotorControlOpenCANTalonSRX.vi      Begin.vi      Robot Main.vi,0.000000,0.000000,0.000000,0.000000,Speed,Speed,0.270000,1.220000,1.890000,2.000000,102.000000,1,0,-0.005022,-0.005022,0,0.038010,0.130219,0.000000,-0.345932,0.745926,0.000000,-0.480000,-0.110000,-1.145000,FlatInitial
11:39:14.041 AM 02/13/2016,Teleop Enabled,0,TRUE,-44087,NetComm_CAN_Receive.vi:5470006<APPEND>  <b>Complete call chain:</b>      NetComm_CAN_Receive.vi:5470006      WPI_CANTalonSRX_Receive.vi      WPI_CANTalonSRX_GetStatus.vi      ShooterVI.vi      Periodic Tasks.vi      Robot Main.vi,0.000000,0.000000,4000.000000,4000.000000,Speed,Speed,0.270000,1.220000,1.890000,3.000000,100.000000,1,0,-0.005022,-0.005022,0,0.038010,0.130219,0.000000,-0.345932,0.745926,0.000000,-0.480000,-0.110000,-1.145000,FlatInitial
11:39:14.141 AM 02/13/2016,Teleop Enabled,0,TRUE,-44087,NetComm_CAN_Receive.vi:5470006<APPEND>  <b>Complete call chain:</b>      NetComm_CAN_Receive.vi:5470006      WPI_CANTalonSRX_Receive.vi      WPI_CANTalonSRX_GetStatus.vi      ShooterVI.vi      Periodic Tasks.vi      Robot Main.vi,0.000000,0.000000,4000.000000,4000.000000,Speed,Speed,0.270000,1.220000,1.890000,3.000000,102.000000,1,0,-0.005022,-0.005022,0,0.038010,0.130219,0.000000,-0.345932,0.745926,0.000000,-0.480000,-0.110000,-1.145000,FlatInitial
11:39:14.243 AM 02/13/2016,Teleop Enabled,0,FALSE,0,NO ERROR,0.000000,0.000000,4000.000000,4000.000000,Speed,Speed,0.270000,1.220000,1.890000,3.000000,101.000000,1,0,-0.005022,-0.005022,0,0.038010,0.130219,0.000000,-0.345932,0.745926,0.000000,-0.480000,-0.110000,-1.145000,FlatInitial
11:39:14.344 AM 02/13/2016,Teleop Enabled,0,FALSE,0,NO ERROR,0.000000,0.000000,4000.000000,4000.000000,Speed,Speed,0.270000,1.220000,1.890000,3.000000,103.000000,1,0,-0.005022,-0.005022,0,0.038010,0.130219,0.000000,-0.345932,0.745926,0.000000,-0.480000,-0.110000,-1.145000,FlatInitial
11:39:14.443 AM 02/13/2016,Teleop Enabled,0,FALSE,0,NO ERROR,0.000000,0.000000,4000.000000,4000.000000,Speed,Speed,0.270000,1.220000,1.890000,3.000000,102.000000,1,0,-0.005022,-0.005022,0,0.038010,0.130219,0.000000,-0.345932,0.745926,0.000000,-0.480000,-0.110000,-1.145000,FlatInitial
11:39:14.551 AM 02/13/2016,Teleop Enabled,0,TRUE,-44003,<LOCATION>WPI_CameraIssue HTTP Request with Authentication.vi<CALLSTACK>WPI_CameraIssue HTTP Request with Authentication.vi< <WPI_CameraIssue Get.vi< <WPI_CameraSet Image Appearance Property.vi< <WPI_CameraSet Image Size.vi< <Vision Processing.vi< <Robot Main.vi,0.000000,0.000000,4000.000000,4000.000000,Speed,Speed,0.270000,1.220000,1.890000,3.000000,105.000000,1,0,-0.005022,-0.005022,0,0.038010,0.130219,0.000000,-0.345932,0.745926,0.000000,-0.480000,-0.110000,-1.145000,FlatInitial
11:39:14.649 AM 02/13/2016,Teleop Enabled,0,FALSE,0,NO ERROR,0.000000,0.000000,4000.000000,4000.000000,Speed,Speed,-0.010000,1.130000,2.890000,3.000000,113.000000,1,0,-0.005022,-0.005022,0,0.000000,0.000000,0.000000,-0.394623,0.769409,0.000000,0.002000,0.003000,-0.005000,FlatInitial
11:39:14.752 AM 02/13/2016,Teleop Enabled,0,FALSE,0,NO ERROR,0.000000,0.000000,4000.000000,4000.000000,Speed,Speed,-0.010000,1.130000,2.890000,3.000000,101.000000,1,0,-0.005022,-0.005022,0,0.000000,0.000000,0.000000,-0.394623,0.769409,0.000000,0.000000,0.001000,0.000000,FlatInitial
11:39:14.852 AM 02/13/2016,Teleop Enabled,0,FALSE,0,NO ERROR,0.000000,0.000000,4000.000000,4000.000000,Speed,Speed,-0.010000,1.120000,2.890000,3.000000,101.000000,1,0,-0.005022,-0.005022,0,0.000000,0.000000,0.000000,-0.394623,0.769409,0.000000,-0.001000,0.009000,0.010000,FlatInitial
11:39:14.954 AM 02/13/2016,Teleop Enabled,0,FALSE,0,NO ERROR,0.000000,0.000000,4000.000000,4000.000000,Speed,Speed,-0.010000,1.120000,2.890000,3.000000,101.000000,1,0,-0.005022,-0.005022,0,0.005661,0.000000,0.000000,-0.394516,0.769409,0.000000,-0.012000,0.017000,-0.050000,FlatInitial
11:39:15.054 AM 02/13/2016,Teleop Enabled,0,FALSE,0,NO ERROR,0.000000,0.000000,4000.000000,4000.000000,Speed,Speed,-0.020000,1.110000,2.880000,3.000000,101.000000,1,0,-0.005022,-0.005022,0,0.000000,0.000000,0.000000,-0.394485,0.769409,0.000000,0.010000,0.007000,-0.020000,FlatInitial
11:39:15.154 AM 02/13/2016,Teleop Enabled,0,FALSE,0,NO ERROR,0.000000,0.000000,4000.000000,4000.000000,Speed,Speed,-0.010000,1.110000,2.880000,3.000000,102.000000,1,0,-0.005022,-0.005022,0,0.000000,0.000000,0.000000,-0.394485,0.769409,0.000000,0.005000,0.004000,-0.005000,FlatInitial
11:39:15.255 AM 02/13/2016,Teleop Enabled,0,FALSE,0,NO ERROR,0.000000,0.000000,4000.000000,4000.000000,Speed,Speed,-0.010000,1.120000,2.880000,3.000000,101.000000,1,0,-0.005022,-0.005022,0,0.000000,0.000000,0.000000,-0.394485,0.769409,0.000000,0.003000,0.003000,-0.002000,FlatInitial
11:39:15.355 AM 02/13/2016,Teleop Enabled,0,FALSE,0,NO ERROR,0.000000,0.000000,4000.000000,4000.000000,Speed,Speed,-0.010000,1.110000,2.880000,3.000000,101.000000,1,0,-0.005022,-0.005022,0,0.000000,0.000000,0.000000,-0.394485,0.769409,0.000000,0.004000,0.000000,-0.005000,FlatInitial
11:39:15.455 AM 02/13/2016,Teleop Enabled,0,FALSE,0,NO ERROR,0.000000,0.000000,4000.000000,4000.000000,Speed,Speed,-0.010000,1.110000,2.890000,3.000000,101.000000,1,0,-0.005022,-0.005022,0,0.000000,0.000000,0.000000,-0.394485,0.769409,0.000000,0.002000,0.004000,0.000000,FlatInitial
11:39:15.556 AM 02/13/2016,Teleop Enabled,0,FALSE,0,NO ERROR,0.000000,0.000000,4000.000000,4000.000000,Speed,Speed,-0.010000,1.120000,2.890000,3.000000,101.000000,1,0,-0.005022,-0.005022,0,0.000000,0.000000,0.000000,-0.394485,0.769409,0.000000,0.000000,0.001000,0.001000,FlatInitial
11:39:15.655 AM 02/13/2016,Teleop Enabled,0,FALSE,0,NO ERROR,0.000000,0.000000,4000.000000,4000.000000,Speed,Speed,0.000000,1.120000,2.880000,3.000000,102.000000,1,0,-0.005022,-0.005022,0,0.000000,0.000000,0.000000,-0.394485,0.769409,0.000000,0.000000,-0.001000,0.001000,FlatInitial
11:39:15.756 AM 02/13/2016,Teleop Enabled,0,FALSE,0,NO ERROR,0.000000,0.000000,4000.000000,4000.000000,Speed,Speed,0.000000,1.120000,2.880000,3.000000,102.000000,1,0,-0.005022,-0.005022,0,0.000000,0.000000,0.000000,-0.394485,0.769409,0.000000,0.001000,-0.002000,-0.004000,FlatInitial
11:39:15.856 AM 02/13/2016,Teleop Enabled,0,FALSE,0,NO ERROR,0.000000,0.000000,4000.000000,4000.000000,Speed,Speed,0.000000,1.120000,2.880000,3.000000,102.000000,1,0,-0.005022,-0.005022,0,0.000000,0.000000,0.000000,-0.394485,0.769409,0.000000,0.000000,0.000000,0.000000,FlatInitial
11:39:15.956 AM 02/13/2016,Teleop Enabled,0,FALSE,0,NO ERROR,0.000000,0.000000,4000.000000,4000.000000,Speed,Speed,0.000000,1.120000,2.890000,3.000000,102.000000,1,0,-0.005022,-0.005022,0,0.000000,0.000000,0.000000,-0.394485,0.769409,0.000000,0.000000,0.001000,0.005000,FlatInitial
11:39:16.056 AM 02/13/2016,Teleop Enabled,0,FALSE,0,NO ERROR,0.000000,0.000000,4000.000000,4000.000000,Speed,Speed,0.000000,1.120000,2.890000,3.000000,102.000000,1,0,-0.005022,-0.005022,0,0.000000,0.000000,0.000000,-0.394485,0.769409,0.000000,-0.002000,0.002000,0.000000,FlatInitial
11:39:16.157 AM 02/13/2016,Teleop Enabled,0,FALSE,0,NO ERROR,0.000000,0.000000,4000.000000,4000.000000,Speed,Speed,0.000000,1.110000,2.890000,3.000000,103.000000,1,0,-0.005022,-0.005022,0,0.000000,0.000000,0.000000,-0.394485,0.769409,0.000000,0.000000,0.001000,0.001000,FlatInitial
11:39:16.260 AM 02/13/2016,Teleop Enabled,0,FALSE,0,NO ERROR,0.000000,0.000000,4000.000000,4000.000000,Speed,Speed,0.000000,1.110000,2.890000,3.000000,102.000000,1,0,-0.005022,-0.005022,0,0.000000,0.000000,0.000000,-0.394485,0.769409,0.000000,-0.003000,0.001000,-0.001000,FlatInitial
11:39:16.360 AM 02/13/2016,Teleop Enabled,0,FALSE,0,NO ERROR,0.000000,0.000000,4000.000000,4000.000000,Speed,Speed,0.000000,1.120000,2.890000,3.000000,102.000000,1,0,-0.005022,-0.005022,0,0.000000,0.000000,0.000000,-0.394485,0.769409,0.000000,0.000000,0.000000,0.002000,FlatInitial
11:39:16.461 AM 02/13/2016,Teleop Enabled,0,FALSE,0,NO ERROR,0.000000,0.000000,4000.000000,4000.000000,Speed,Speed,0.000000,1.120000,2.890000,3.000000,101.000000,1,0,-0.005022,-0.005022,0,0.000000,0.000000,0.000000,-0.394485,0.769409,0.000000,0.001000,0.000000,-0.002000,FlatInitial
11:39:16.561 AM 02/13/2016,Teleop Enabled,0,FALSE,0,NO ERROR,0.000000,0.000000,4000.000000,4000.000000,Speed,Speed,0.000000,1.120000,2.900000,3.000000,102.000000,1,0,-0.005022,-0.005022,0,0.000000,0.000000,0.000000,-0.394485,0.769409,0.000000,0.000000,-0.001000,0.000000,FlatInitial
11:39:16.661 AM 02/13/2016,Teleop Enabled,0,FALSE,0,NO ERROR,0.000000,0.000000,4000.000000,4000.000000,Speed,Speed,0.000000,1.120000,2.900000,3.000000,103.000000,1,0,-0.005022,-0.005022,0,0.000000,0.000000,0.000000,-0.394485,0.769409,0.000000,0.000000,0.002000,-0.001000,FlatInitial
11:39:16.761 AM 02/13/2016,Teleop Enabled,0,FALSE,0,NO ERROR,0.000000,0.000000,4000.000000,4000.000000,Speed,Speed,0.000000,1.130000,2.890000,3.000000,103.000000,1,0,-0.005022,-0.005022,0,0.000000,0.000000,0.000000,-0.394485,0.769409,0.000000,-0.001000,-0.001000,0.002000,FlatInitial
11:39:16.861 AM 02/13/2016,Teleop Enabled,0,FALSE,0,NO ERROR,0.000000,0.000000,4000.000000,4000.000000,Speed,Speed,0.000000,1.120000,2.900000,3.000000,103.000000,1,0,-0.005022,-0.005022,0,0.000000,0.000000,0.000000,-0.394485,0.769409,0.000000,0.000000,-0.002000,0.000000,FlatInitial
11:39:16.961 AM 02/13/2016,Teleop Enabled,0,FALSE,0,NO ERROR,0.000000,0.000000,4000.000000,4000.000000,Speed,Speed,0.000000,1.120000,2.890000,3.000000,101.000000,1,0,-0.005022,-0.005022,0,0.000000,0.000000,0.000000,-0.394485,0.769409,0.000000,0.001000,0.000000,0.001000,FlatInitial
11:39:17.062 AM 02/13/2016,Teleop Enabled,0,FALSE,0,NO ERROR,0.000000,0.000000,4000.000000,4000.000000,Speed,Speed,0.000000,1.120000,2.900000,3.000000,102.000000,1,0,-0.005022,-0.005022,0,0.000000,0.000000,0.000000,-0.394485,0.769409,0.000000,0.001000,-0.002000,0.001000,FlatInitial
11:39:17.163 AM 02/13/2016,Teleop Enabled,0,FALSE,0,NO ERROR,0.000000,0.000000,4000.000000,4000.000000,Speed,Speed,0.000000,1.120000,2.900000,3.000000,101.000000,1,0,-0.005022,-0.005022,0,0.000000,0.000000,0.000000,-0.394485,0.769409,0.000000,-0.001000,0.000000,0.002000,FlatInitial
11:39:17.262 AM 02/13/2016,Teleop Enabled,0,FALSE,0,NO ERROR,0.000000,0.000000,4000.000000,4000.000000,Speed,Speed,0.000000,1.120000,2.900000,3.000000,101.000000,1,0,-0.005022,-0.005022,0,0.000000,0.000000,0.000000,-0.394485,0.769409,0.000000,0.000000,-0.002000,-0.001000,FlatInitial
11:39:17.362 AM 02/13/2016,Teleop Disabled,0,FALSE,0,NO ERROR,0.000000,0.000000,4000.000000,4000.000000,Speed,Speed,0.000000,1.110000,2.890000,3.000000,101.000000,1,0,-0.005022,-0.005022,0,0.000000,0.000000,0.000000,-0.394485,0.769409,0.000000,0.000000,0.001000,0.003000,FlatInitial
11:39:17.463 AM 02/13/2016,Teleop Disabled,0,FALSE,0,NO ERROR,0.000000,0.000000,4000.000000,4000.000000,Speed,Speed,0.000000,1.110000,2.900000,3.000000,103.000000,1,0,-0.005022,-0.005022,0,0.000000,0.000000,0.000000,-0.394485,0.769409,0.000000,-0.003000,0.003000,0.002000,FlatInitial
11:39:17.563 AM 02/13/2016,Teleop Disabled,0,FALSE,0,NO ERROR,0.000000,0.000000,4000.000000,4000.000000,Speed,Speed,0.000000,1.110000,2.900000,3.000000,101.000000,1,0,-0.005022,-0.005022,0,0.000000,0.000000,0.000000,-0.394485,0.769409,0.000000,0.000000,0.000000,0.000000,FlatInitial
11:39:17.664 AM 02/13/2016,Teleop Disabled,0,FALSE,0,NO ERROR,0.000000,0.000000,4000.000000,4000.000000,Speed,Speed,0.000000,1.110000,2.900000,3.000000,101.000000,1,0,-0.005022,-0.005022,0,0.000000,0.000000,0.000000,-0.394485,0.769409,0.000000,0.000000,0.001000,0.002000,FlatInitial
11:39:17.765 AM 02/13/2016,Teleop Disabled,0,FALSE,0,NO ERROR,0.000000,0.000000,4000.000000,4000.000000,Speed,Speed,0.000000,1.110000,2.900000,3.000000,102.000000,1,0,-0.005022,-0.005022,0,0.000000,0.000000,0.000000,-0.394485,0.769409,0.000000,0.001000,-0.001000,0.001000,FlatInitial
11:39:17.864 AM 02/13/2016,Teleop Disabled,0,FALSE,0,NO ERROR,0.000000,0.000000,4000.000000,4000.000000,Speed,Speed,0.000000,1.110000,2.900000,3.000000,106.000000,1,0,-0.005022,-0.005022,0,0.000000,0.000000,0.000000,-0.394485,0.769409,0.000000,0.007000,0.003000,-0.004000,FlatInitial
11:39:17.964 AM 02/13/2016,Teleop Disabled,0,FALSE,0,NO ERROR,0.000000,0.000000,4000.000000,4000.000000,Speed,Speed,0.000000,1.110000,2.900000,3.000000,105.000000,1,0,-0.005022,-0.005022,0,0.000000,0.000000,0.000000,-0.394485,0.769409,0.000000,0.000000,0.001000,0.000000,FlatInitial
11:39:18.065 AM 02/13/2016,Teleop Disabled,0,FALSE,0,NO ERROR,0.000000,0.000000,4000.000000,4000.000000,Speed,Speed,0.000000,1.110000,2.900000,3.000000,102.000000,1,0,-0.005022,-0.005022,0,0.000000,0.000000,0.000000,-0.394485,0.769409,0.000000,0.000000,0.003000,0.000000,FlatInitial
11:39:18.166 AM 02/13/2016,Teleop Disabled,0,FALSE,0,NO ERROR,0.000000,0.000000,4000.000000,4000.000000,Speed,Speed,0.000000,1.110000,2.900000,3.000000,102.000000,1,0,-0.005022,-0.005022,0,0.000000,0.000000,0.000000,-0.394485,0.769409,0.000000,0.000000,0.000000,0.003000,FlatInitial
11:39:18.265 AM 02/13/2016,Teleop Disabled,0,FALSE,0,NO ERROR,0.000000,0.000000,4000.000000,4000.000000,Speed,Speed,0.000000,1.120000,2.900000,3.000000,101.000000,1,0,-0.005022,-0.005022,0,0.000000,0.000000,0.000000,-0.394485,0.769409,0.000000,0.001000,0.001000,0.001000,FlatInitial
11:39:18.366 AM 02/13/2016,Teleop Disabled,0,FALSE,0,NO ERROR,0.000000,0.000000,4000.000000,4000.000000,Speed,Speed,0.010000,1.110000,2.900000,3.000000,101.000000,1,0,-0.005022,-0.005022,0,0.000000,0.000000,0.000000,-0.394485,0.769409,0.000000,0.000000,0.000000,-0.002000,FlatInitial
11:39:18.465 AM 02/13/2016,Teleop Disabled,0,FALSE,0,NO ERROR,0.000000,0.000000,4000.000000,4000.000000,Speed,Speed,0.010000,1.110000,2.890000,3.000000,102.000000,1,0,-0.005022,-0.005022,0,0.000000,0.000000,0.000000,-0.394485,0.769409,0.000000,0.002000,0.000000,0.000000,FlatInitial
11:39:18.565 AM 02/13/2016,Teleop Disabled,0,FALSE,0,NO ERROR,0.000000,0.000000,4000.000000,4000.000000,Speed,Speed,0.010000,1.110000,2.890000,3.000000,101.000000,1,0,-0.005022,-0.005022,0,0.000000,0.000000,0.000000,-0.394485,0.769409,0.000000,0.002000,0.000000,0.000000,FlatInitial
11:39:18.665 AM 02/13/2016,Teleop Disabled,0,FALSE,0,NO ERROR,0.000000,0.000000,4000.000000,4000.000000,Speed,Speed,0.010000,1.120000,2.890000,3.000000,100.000000,1,0,-0.005022,-0.005022,0,0.000000,0.000000,0.000000,-0.394485,0.769409,0.000000,-0.002000,-0.002000,0.000000,FlatInitial
11:39:18.766 AM 02/13/2016,Teleop Disabled,0,FALSE,0,NO ERROR,0.000000,0.000000,4000.000000,4000.000000,Speed,Speed,0.010000,1.120000,2.900000,3.000000,101.000000,1,0,-0.005022,-0.005022,0,0.000000,0.000000,0.000000,-0.394485,0.769409,0.000000,-0.002000,-0.002000,0.000000,FlatInitial
11:39:18.867 AM 02/13/2016,Teleop Disabled,0,FALSE,0,NO ERROR,0.000000,0.000000,4000.000000,4000.000000,Speed,Speed,0.010000,1.120000,2.890000,3.000000,102.000000,1,0,-0.005022,-0.005022,0,0.000000,0.000000,0.000000,-0.394485,0.769409,0.000000,0.000000,0.000000,0.002000,FlatInitial
11:39:18.967 AM 02/13/2016,Teleop Disabled,0,FALSE,0,NO ERROR,0.000000,0.000000,4000.000000,4000.000000,Speed,Speed,0.020000,1.120000,2.900000,3.000000,103.000000,1,0,-0.005022,-0.005022,0,0.000000,0.000000,0.000000,-0.394485,0.769409,0.000000,-0.002000,-0.001000,0.003000,FlatInitial
11:39:19.067 AM 02/13/2016,Teleop Disabled,0,FALSE,0,NO ERROR,0.000000,0.000000,4000.000000,4000.000000,Speed,Speed,0.010000,1.120000,2.890000,3.000000,103.000000,1,0,-0.005022,-0.005022,0,0.000000,0.000000,0.000000,-0.394485,0.769409,0.000000,-0.002000,-0.001000,0.003000,FlatInitial
11:39:19.167 AM 02/13/2016,Teleop Disabled,0,FALSE,0,NO ERROR,0.000000,0.000000,4000.000000,4000.000000,Speed,Speed,0.010000,1.120000,2.890000,3.000000,102.000000,1,0,-0.005022,-0.005022,0,0.000000,0.000000,0.000000,-0.394485,0.769409,0.000000,-0.002000,0.000000,0.002000,FlatInitial
11:39:19.267 AM 02/13/2016,Teleop Disabled,0,FALSE,0,NO ERROR,0.000000,0.000000,4000.000000,4000.000000,Speed,Speed,0.010000,1.120000,2.890000,3.000000,101.000000,1,0,-0.005022,-0.005022,0,0.000000,0.000000,0.000000,-0.394485,0.769409,0.000000,-0.002000,0.000000,0.001000,FlatInitial
11:39:19.368 AM 02/13/2016,Teleop Disabled,0,FALSE,0,NO ERROR,0.000000,0.000000,4000.000000,4000.000000,Speed,Speed,0.020000,1.120000,2.890000,3.000000,101.000000,1,0,-0.005022,-0.005022,0,0.000000,0.000000,0.000000,-0.394485,0.769409,0.000000,0.000000,-0.002000,-0.002000,FlatInitial
11:39:19.467 AM 02/13/2016,Teleop Disabled,0,FALSE,0,NO ERROR,0.000000,0.000000,4000.000000,4000.000000,Speed,Speed,0.020000,1.120000,2.900000,3.000000,102.000000,1,0,-0.005022,-0.005022,0,0.000000,0.000000,0.000000,-0.394485,0.769409,0.000000,0.000000,0.000000,0.002000,FlatInitial
11:39:19.567 AM 02/13/2016,Teleop Disabled,0,FALSE,0,NO ERROR,0.000000,0.000000,4000.000000,4000.000000,Speed,Speed,0.020000,1.120000,2.890000,3.000000,101.000000,1,0,-0.005022,-0.005022,0,0.000000,0.000000,0.000000,-0.394485,0.769409,0.000000,-0.001000,0.001000,0.002000,FlatInitial
11:39:19.668 AM 02/13/2016,Teleop Disabled,0,FALSE,0,NO ERROR,0.000000,0.000000,4000.000000,4000.000000,Speed,Speed,0.020000,1.120000,2.890000,3.000000,104.000000,1,0,-0.005022,-0.005022,0,0.000000,0.000000,0.000000,-0.394485,0.769409,0.000000,0.001000,0.000000,0.000000,FlatInitial
11:39:19.767 AM 02/13/2016,Teleop Disabled,0,FALSE,0,NO ERROR,0.000000,0.000000,4000.000000,4000.000000,Speed,Speed,0.020000,1.120000,2.890000,3.000000,103.000000,1,0,-0.005022,-0.005022,0,0.000000,0.000000,0.000000,-0.394485,0.769409,0.000000,-0.003000,0.000000,0.002000,FlatInitial
11:39:19.867 AM 02/13/2016,Teleop Disabled,0,FALSE,0,NO ERROR,0.000000,0.000000,4000.000000,4000.000000,Speed,Speed,0.010000,1.110000,2.900000,3.000000,101.000000,1,0,-0.005022,-0.005022,0,0.000000,0.000000,0.000000,-0.394485,0.769409,0.000000,-0.001000,0.004000,0.000000,FlatInitial
11:39:19.968 AM 02/13/2016,Teleop Disabled,0,FALSE,0,NO ERROR,0.000000,0.000000,4000.000000,4000.000000,Speed,Speed,0.010000,1.110000,2.900000,3.000000,102.000000,1,0,-0.005022,-0.005022,0,0.000000,0.000000,0.000000,-0.394485,0.769409,0.000000,0.000000,0.000000,0.000000,FlatInitial
11:39:20.067 AM 02/13/2016,Teleop Disabled,0,FALSE,0,NO ERROR,0.000000,0.000000,4000.000000,4000.000000,Speed,Speed,0.020000,1.110000,2.890000,3.000000,103.000000,1,0,-0.005022,-0.005022,0,0.000000,0.000000,0.000000,-0.394485,0.769409,0.000000,0.003000,-0.002000,0.001000,FlatInitial
11:39:20.167 AM 02/13/2016,Teleop Disabled,0,FALSE,0,NO ERROR,0.000000,0.000000,4000.000000,4000.000000,Speed,Speed,0.010000,1.120000,2.890000,3.000000,103.000000,1,0,-0.005022,-0.005022,0,0.000000,0.000000,0.000000,-0.394485,0.769409,0.000000,0.000000,0.001000,0.000000,FlatInitial
11:39:20.267 AM 02/13/2016,Teleop Disabled,0,FALSE,0,NO ERROR,0.000000,0.000000,4000.000000,4000.000000,Speed,Speed,0.010000,1.120000,2.890000,3.000000,102.000000,1,0,-0.005022,-0.005022,0,0.000000,0.000000,0.000000,-0.394485,0.769409,0.000000,0.001000,-0.002000,0.000000,FlatInitial
11:39:20.367 AM 02/13/2016,Teleop Disabled,0,FALSE,0,NO ERROR,0.000000,0.000000,4000.000000,4000.000000,Speed,Speed,0.010000,1.110000,2.890000,3.000000,101.000000,1,0,-0.005022,-0.005022,0,0.000000,0.000000,0.000000,-0.394485,0.769409,0.000000,0.001000,-0.001000,0.002000,FlatInitial
11:39:20.468 AM 02/13/2016,Teleop Disabled,0,FALSE,0,NO ERROR,0.000000,0.000000,4000.000000,4000.000000,Speed,Speed,0.010000,1.120000,2.880000,3.000000,101.000000,1,0,-0.005022,-0.005022,0,0.000000,0.000000,0.000000,-0.394485,0.769409,0.000000,-0.001000,0.001000,0.000000,FlatInitial
11:39:20.568 AM 02/13/2016,Teleop Disabled,0,FALSE,0,NO ERROR,0.000000,0.000000,4000.000000,4000.000000,Speed,Speed,0.010000,1.120000,2.890000,3.000000,101.000000,1,0,-0.005022,-0.005022,0,0.000000,0.000000,0.000000,-0.394485,0.769409,0.000000,0.001000,-0.001000,-0.002000,FlatInitial
11:39:20.668 AM 02/13/2016,Teleop Disabled,0,FALSE,0,NO ERROR,0.000000,0.000000,4000.000000,4000.000000,Speed,Speed,0.010000,1.120000,2.880000,3.000000,101.000000,1,0,-0.005022,-0.005022,0,0.000000,0.000000,0.000000,-0.394485,0.769409,0.000000,0.000000,0.004000,-0.002000,FlatInitial
11:39:20.768 AM 02/13/2016,Teleop Disabled,0,FALSE,0,NO ERROR,0.000000,0.000000,4000.000000,4000.000000,Speed,Speed,0.010000,1.120000,2.880000,3.000000,102.000000,1,0,-0.005022,-0.005022,0,0.000000,0.000000,0.000000,-0.394485,0.769409,0.000000,0.000000,0.000000,0.004000,FlatInitial
11:39:20.869 AM 02/13/2016,Teleop Disabled,0,FALSE,0,NO ERROR,0.000000,0.000000,4000.000000,4000.000000,Speed,Speed,0.010000,1.120000,2.880000,3.000000,103.000000,1,0,-0.005022,-0.005022,0,0.000000,0.000000,0.000000,-0.394485,0.769409,0.000000,0.000000,0.000000,-0.002000,FlatInitial
11:39:20.970 AM 02/13/2016,Teleop Disabled,0,FALSE,0,NO ERROR,0.000000,0.000000,4000.000000,4000.000000,Speed,Speed,0.000000,1.120000,2.890000,3.000000,101.000000,1,0,-0.005022,-0.005022,0,0.000000,0.000000,0.000000,-0.394485,0.769409,0.000000,0.000000,-0.001000,0.002000,FlatInitial
11:39:21.070 AM 02/13/2016,Teleop Disabled,0,FALSE,0,NO ERROR,0.000000,0.000000,4000.000000,4000.000000,Speed,Speed,0.000000,1.120000,2.890000,3.000000,102.000000,1,0,-0.005022,-0.005022,0,0.000000,0.000000,0.000000,-0.394485,0.769409,0.000000,0.000000,0.000000,0.003000,FlatInitial
11:39:21.170 AM 02/13/2016,Teleop Disabled,0,FALSE,0,NO ERROR,0.000000,0.000000,4000.000000,4000.000000,Speed,Speed,0.010000,1.120000,2.890000,3.000000,104.000000,1,0,-0.005022,-0.005022,0,0.000000,0.000000,0.000000,-0.394485,0.769409,0.000000,0.001000,0.000000,0.004000,FlatInitial
11:39:21.270 AM 02/13/2016,Teleop Disabled,0,FALSE,0,NO ERROR,0.000000,0.000000,4000.000000,4000.000000,Speed,Speed,0.000000,1.120000,2.890000,3.000000,102.000000,1,0,-0.005022,-0.005022,0,0.000000,0.000000,0.000000,-0.394485,0.769409,0.000000,-0.001000,0.000000,0.003000,FlatInitial
11:39:21.370 AM 02/13/2016,Teleop Disabled,0,FALSE,0,NO ERROR,0.000000,0.000000,4000.000000,4000.000000,Speed,Speed,0.000000,1.120000,2.890000,3.000000,101.000000,1,0,-0.005022,-0.005022,0,0.000000,0.000000,0.000000,-0.394485,0.769409,0.000000,-0.001000,0.000000,0.002000,FlatInitial
11:39:21.471 AM 02/13/2016,Teleop Disabled,0,FALSE,0,NO ERROR,0.000000,0.000000,4000.000000,4000.000000,Speed,Speed,0.000000,1.120000,2.890000,3.000000,101.000000,1,0,-0.005022,-0.005022,0,0.000000,0.000000,0.000000,-0.394485,0.769409,0.000000,-0.001000,0.001000,0.004000,FlatInitial
11:39:21.571 AM 02/13/2016,Teleop Disabled,0,FALSE,0,NO ERROR,0.000000,0.000000,4000.000000,4000.000000,Speed,Speed,0.000000,1.120000,2.880000,3.000000,101.000000,1,0,-0.005022,-0.005022,0,0.000000,0.000000,0.000000,-0.394485,0.769409,0.000000,-0.003000,0.000000,0.000000,FlatInitial
11:39:21.670 AM 02/13/2016,Teleop Disabled,0,FALSE,0,NO ERROR,0.000000,0.000000,4000.000000,4000.000000,Speed,Speed,0.000000,1.120000,2.890000,3.000000,101.000000,1,0,-0.005022,-0.005022,0,0.000000,0.000000,0.000000,-0.394485,0.769409,0.000000,-0.001000,-0.003000,0.005000,FlatInitial
11:39:21.770 AM 02/13/2016,Teleop Disabled,0,FALSE,0,NO ERROR,0.000000,0.000000,4000.000000,4000.000000,Speed,Speed,0.000000,1.120000,2.880000,3.000000,102.000000,1,0,-0.005022,-0.005022,0,0.000000,0.000000,0.000000,-0.394485,0.769409,0.000000,0.000000,-0.001000,0.000000,FlatInitial
11:39:21.871 AM 02/13/2016,Teleop Disabled,0,FALSE,0,NO ERROR,0.000000,0.000000,4000.000000,4000.000000,Speed,Speed,0.000000,1.120000,2.880000,3.000000,102.000000,1,0,-0.005022,-0.005022,0,0.000000,0.000000,0.000000,-0.394485,0.769409,0.000000,0.003000,-0.002000,0.001000,FlatInitial
11:39:21.975 AM 02/13/2016,Teleop Disabled,0,FALSE,0,NO ERROR,0.000000,0.000000,4000.000000,4000.000000,Speed,Speed,0.000000,1.120000,2.880000,3.000000,100.000000,1,0,-0.005022,-0.005022,0,0.000000,0.000000,0.000000,-0.394485,0.769409,0.000000,-0.002000,0.000000,0.003000,FlatInitial
11:39:22.077 AM 02/13/2016,Teleop Disabled,0,FALSE,0,NO ERROR,0.000000,0.000000,4000.000000,4000.000000,Speed,Speed,0.000000,1.120000,2.880000,3.000000,101.000000,1,0,-0.005022,-0.005022,0,0.000000,0.000000,0.000000,-0.394485,0.769409,0.000000,0.001000,0.002000,0.005000,FlatInitial
11:39:22.178 AM 02/13/2016,Teleop Disabled,0,FALSE,0,NO ERROR,0.000000,0.000000,4000.000000,4000.000000,Speed,Speed,0.000000,1.120000,2.880000,3.000000,102.000000,1,0,-0.005022,-0.005022,0,0.000000,0.000000,0.000000,-0.394485,0.769409,0.000000,-0.001000,-0.002000,-0.002000,FlatInitial
11:39:22.279 AM 02/13/2016,Teleop Disabled,0,FALSE,0,NO ERROR,0.000000,0.000000,4000.000000,4000.000000,Speed,Speed,0.000000,1.120000,2.880000,3.000000,101.000000,1,0,-0.005022,-0.005022,0,0.000000,0.000000,0.000000,-0.394485,0.769409,0.000000,0.000000,0.001000,0.004000,FlatInitial
11:39:22.380 AM 02/13/2016,Teleop Disabled,0,FALSE,0,NO ERROR,0.000000,0.000000,4000.000000,4000.000000,Speed,Speed,0.000000,1.120000,2.880000,3.000000,101.000000,1,0,-0.005022,-0.005022,0,0.000000,0.000000,0.000000,-0.394485,0.769409,0.000000,0.001000,0.002000,-0.004000,FlatInitial
11:39:22.481 AM 02/13/2016,Teleop Disabled,0,FALSE,0,NO ERROR,0.000000,0.000000,4000.000000,4000.000000,Speed,Speed,0.000000,1.120000,2.880000,3.000000,101.000000,1,0,-0.005022,-0.005022,0,0.000000,0.000000,0.000000,-0.394485,0.769409,0.000000,-0.001000,-0.001000,-0.001000,FlatInitial
11:39:22.581 AM 02/13/2016,Teleop Disabled,0,FALSE,0,NO ERROR,0.000000,0.000000,4000.000000,4000.000000,Speed,Speed,0.000000,1.120000,2.880000,3.000000,101.000000,1,0,-0.005022,-0.005022,0,0.000000,0.000000,0.000000,-0.394485,0.769409,0.000000,0.000000,0.000000,0.002000,FlatInitial
11:39:22.682 AM 02/13/2016,Teleop Disabled,0,FALSE,0,NO ERROR,0.000000,0.000000,4000.000000,4000.000000,Speed,Speed,0.000000,1.120000,2.890000,3.000000,104.000000,1,0,-0.005022,-0.005022,0,0.000000,0.000000,0.000000,-0.394485,0.769409,0.000000,0.000000,0.000000,-0.001000,FlatInitial
11:39:22.783 AM 02/13/2016,Teleop Disabled,0,FALSE,0,NO ERROR,0.000000,0.000000,4000.000000,4000.000000,Speed,Speed,0.000000,1.120000,2.880000,3.000000,102.000000,1,0,-0.005022,-0.005022,0,0.000000,0.000000,0.000000,-0.394485,0.769409,0.000000,0.002000,0.000000,0.005000,FlatInitial
11:39:22.884 AM 02/13/2016,Teleop Disabled,0,FALSE,0,NO ERROR,0.000000,0.000000,4000.000000,4000.000000,Speed,Speed,0.000000,1.120000,2.880000,3.000000,102.000000,1,0,-0.005022,-0.005022,0,0.000000,0.000000,0.000000,-0.394485,0.769409,0.000000,-0.001000,0.001000,0.002000,FlatInitial
11:39:22.985 AM 02/13/2016,Teleop Disabled,0,FALSE,0,NO ERROR,0.000000,0.000000,4000.000000,4000.000000,Speed,Speed,0.000000,1.120000,2.880000,3.000000,101.000000,1,0,-0.005022,-0.005022,0,0.000000,0.000000,0.000000,-0.394485,0.769409,0.000000,0.000000,0.000000,0.001000,FlatInitial
11:39:23.085 AM 02/13/2016,Teleop Disabled,0,FALSE,0,NO ERROR,0.000000,0.000000,4000.000000,4000.000000,Speed,Speed,0.000000,1.120000,2.890000,3.000000,101.000000,1,0,-0.005022,-0.005022,0,0.000000,0.000000,0.000000,-0.394485,0.769409,0.000000,0.000000,0.001000,0.002000,FlatInitial
11:39:23.186 AM 02/13/2016,Teleop Disabled,0,FALSE,0,NO ERROR,0.000000,0.000000,4000.000000,4000.000000,Speed,Speed,0.000000,1.120000,2.890000,3.000000,102.000000,1,0,-0.005022,-0.005022,0,0.000000,0.000000,0.000000,-0.394485,0.769409,0.000000,0.000000,0.000000,0.003000,FlatInitial
11:39:23.286 AM 02/13/2016,Teleop Disabled,0,FALSE,0,NO ERROR,0.000000,0.000000,4000.000000,4000.000000,Speed,Speed,0.000000,1.120000,2.890000,3.000000,101.000000,1,0,-0.005022,-0.005022,0,0.000000,0.000000,0.000000,-0.394485,0.769409,0.000000,0.000000,-0.001000,0.003000,FlatInitial
11:39:23.386 AM 02/13/2016,Teleop Disabled,0,FALSE,0,NO ERROR,0.000000,0.000000,4000.000000,4000.000000,Speed,Speed,-0.010000,1.130000,2.890000,3.000000,101.000000,1,0,-0.005022,-0.005022,0,0.000000,0.000000,0.000000,-0.394485,0.769409,0.000000,0.000000,0.000000,0.000000,FlatInitial
11:39:23.487 AM 02/13/2016,Teleop Disabled,0,FALSE,0,NO ERROR,0.000000,0.000000,4000.000000,4000.000000,Speed,Speed,-0.010000,1.130000,2.890000,3.000000,101.000000,1,0,-0.005022,-0.005022,0,0.000000,0.000000,0.000000,-0.394485,0.769409,0.000000,-0.003000,0.000000,0.003000,FlatInitial
11:39:23.588 AM 02/13/2016,Teleop Disabled,0,FALSE,0,NO ERROR,0.000000,0.000000,4000.000000,4000.000000,Speed,Speed,-0.010000,1.130000,2.890000,3.000000,102.000000,1,0,-0.005022,-0.005022,0,0.000000,0.000000,0.000000,-0.394485,0.769409,0.000000,0.000000,0.000000,0.000000,FlatInitial
11:39:23.688 AM 02/13/2016,Teleop Disabled,0,FALSE,0,NO ERROR,0.000000,0.000000,4000.000000,4000.000000,Speed,Speed,-0.010000,1.130000,2.890000,3.000000,102.000000,1,0,-0.005022,-0.005022,0,0.000000,0.000000,0.000000,-0.394485,0.769409,0.000000,0.001000,-0.002000,0.000000,FlatInitial
11:39:23.789 AM 02/13/2016,Teleop Disabled,0,FALSE,0,NO ERROR,0.000000,0.000000,4000.000000,4000.000000,Speed,Speed,-0.010000,1.120000,2.880000,3.000000,102.000000,1,0,-0.005022,-0.005022,0,0.000000,0.000000,0.000000,-0.394485,0.769409,0.000000,0.000000,0.000000,0.000000,FlatInitial
11:39:23.889 AM 02/13/2016,Teleop Disabled,0,FALSE,0,NO ERROR,0.000000,0.000000,4000.000000,4000.000000,Speed,Speed,-0.010000,1.120000,2.880000,3.000000,102.000000,1,0,-0.005022,-0.005022,0,0.000000,0.000000,0.000000,-0.394485,0.769409,0.000000,0.000000,0.003000,-0.003000,FlatInitial
11:39:23.990 AM 02/13/2016,Teleop Disabled,0,FALSE,0,NO ERROR,0.000000,0.000000,4000.000000,4000.000000,Speed,Speed,-0.010000,1.130000,2.890000,3.000000,103.000000,1,0,-0.005022,-0.005022,0,0.000000,0.000000,0.000000,-0.394485,0.769409,0.000000,0.000000,0.000000,0.003000,FlatInitial
11:39:24.090 AM 02/13/2016,Teleop Disabled,0,FALSE,0,NO ERROR,0.000000,0.000000,4000.000000,4000.000000,Speed,Speed,-0.010000,1.120000,2.890000,3.000000,101.000000,1,0,-0.005022,-0.005022,0,0.000000,0.000000,0.000000,-0.394485,0.769409,0.000000,0.000000,0.000000,0.005000,FlatInitial
11:39:24.190 AM 02/13/2016,Teleop Disabled,0,FALSE,0,NO ERROR,0.000000,0.000000,4000.000000,4000.000000,Speed,Speed,-0.010000,1.120000,2.890000,3.000000,103.000000,1,0,-0.005022,-0.005022,0,0.000000,0.000000,0.000000,-0.394485,0.769409,0.000000,0.001000,0.000000,0.003000,FlatInitial
11:39:24.290 AM 02/13/2016,Teleop Disabled,0,FALSE,0,NO ERROR,0.000000,0.000000,4000.000000,4000.000000,Speed,Speed,-0.020000,1.120000,2.880000,3.000000,101.000000,1,0,-0.005022,-0.005022,0,0.000000,0.000000,0.000000,-0.394485,0.769409,0.000000,0.001000,0.001000,-0.002000,FlatInitial
11:39:24.391 AM 02/13/2016,Teleop Disabled,0,FALSE,0,NO ERROR,0.000000,0.000000,4000.000000,4000.000000,Speed,Speed,-0.020000,1.130000,2.890000,3.000000,102.000000,1,0,-0.005022,-0.005022,0,0.000000,0.000000,0.000000,-0.394485,0.769409,0.000000,0.000000,-0.004000,0.002000,FlatInitial
11:39:24.491 AM 02/13/2016,Teleop Disabled,0,FALSE,0,NO ERROR,0.000000,0.000000,4000.000000,4000.000000,Speed,Speed,-0.020000,1.120000,2.880000,3.000000,102.000000,1,0,-0.005022,-0.005022,0,0.000000,0.000000,0.000000,-0.394485,0.769409,0.000000,0.001000,0.001000,-0.001000,FlatInitial
11:39:24.591 AM 02/13/2016,Teleop Disabled,0,FALSE,0,NO ERROR,0.000000,0.000000,4000.000000,4000.000000,Speed,Speed,-0.020000,1.120000,2.880000,3.000000,101.000000,1,0,-0.005022,-0.005022,0,0.000000,0.000000,0.000000,-0.394485,0.769409,0.000000,0.000000,-0.001000,0.000000,FlatInitial
11:39:24.691 AM 02/13/2016,Teleop Disabled,0,FALSE,0,NO ERROR,0.000000,0.000000,4000.000000,4000.000000,Speed,Speed,-0.020000,1.120000,2.880000,3.000000,104.000000,1,0,-0.005022,-0.005022,0,0.000000,0.000000,0.000000,-0.394485,0.769409,0.000000,0.000000,0.000000,0.003000,FlatInitial
11:39:24.792 AM 02/13/2016,Teleop Disabled,0,FALSE,0,NO ERROR,0.000000,0.000000,4000.000000,4000.000000,Speed,Speed,-0.020000,1.120000,2.880000,3.000000,103.000000,1,0,-0.005022,-0.005022,0,0.000000,0.000000,0.000000,-0.394485,0.769409,0.000000,0.000000,0.001000,0.000000,FlatInitial
11:39:24.893 AM 02/13/2016,Teleop Disabled,0,FALSE,0,NO ERROR,0.000000,0.000000,4000.000000,4000.000000,Speed,Speed,-0.020000,1.120000,2.890000,3.000000,101.000000,1,0,-0.005022,-0.005022,0,0.000000,0.000000,0.000000,-0.394485,0.769409,0.000000,0.002000,0.000000,0.000000,FlatInitial
11:39:24.993 AM 02/13/2016,Teleop Disabled,0,FALSE,0,NO ERROR,0.000000,0.000000,4000.000000,4000.000000,Speed,Speed,-0.020000,1.130000,2.890000,3.000000,102.000000,1,0,-0.005022,-0.005022,0,0.000000,0.000000,0.000000,-0.394485,0.769409,0.000000,0.000000,0.000000,0.003000,FlatInitial
11:39:25.094 AM 02/13/2016,Teleop Disabled,0,FALSE,0,NO ERROR,0.000000,0.000000,4000.000000,4000.000000,Speed,Speed,-0.020000,1.120000,2.890000,3.000000,102.000000,1,0,-0.005022,-0.005022,0,0.000000,0.000000,0.000000,-0.394485,0.769409,0.000000,0.000000,0.001000,0.002000,FlatInitial
11:39:25.194 AM 02/13/2016,Teleop Disabled,0,FALSE,0,NO ERROR,0.000000,0.000000,4000.000000,4000.000000,Speed,Speed,-0.020000,1.120000,2.890000,3.000000,103.000000,1,0,-0.005022,-0.005022,0,0.000000,0.000000,0.000000,-0.394485,0.769409,0.000000,0.000000,0.002000,0.001000,FlatInitial
11:39:25.295 AM 02/13/2016,Teleop Disabled,0,FALSE,0,NO ERROR,0.000000,0.000000,4000.000000,4000.000000,Speed,Speed,-0.020000,1.120000,2.890000,3.000000,101.000000,1,0,-0.005022,-0.005022,0,0.000000,0.000000,0.000000,-0.394485,0.769409,0.000000,0.000000,0.000000,0.001000,FlatInitial
11:39:25.396 AM 02/13/2016,Teleop Disabled,0,FALSE,0,NO ERROR,0.000000,0.000000,4000.000000,4000.000000,Speed,Speed,-0.030000,1.120000,2.890000,3.000000,101.000000,1,0,-0.005022,-0.005022,0,0.000000,0.000000,0.000000,-0.394485,0.769409,0.000000,0.000000,0.000000,0.001000,FlatInitial
11:39:25.495 AM 02/13/2016,Teleop Disabled,0,FALSE,0,NO ERROR,0.000000,0.000000,4000.000000,4000.000000,Speed,Speed,-0.020000,1.120000,2.890000,3.000000,102.000000,1,0,-0.005022,-0.005022,0,0.000000,0.000000,0.000000,-0.394485,0.769409,0.000000,-0.002000,0.000000,0.000000,FlatInitial
11:39:25.595 AM 02/13/2016,Teleop Disabled,0,FALSE,0,NO ERROR,0.000000,0.000000,4000.000000,4000.000000,Speed,Speed,-0.020000,1.120000,2.890000,3.000000,101.000000,1,0,-0.005022,-0.005022,0,0.000000,0.000000,0.000000,-0.394485,0.769409,0.000000,0.001000,0.002000,0.001000,FlatInitial
11:39:25.695 AM 02/13/2016,Teleop Disabled,0,FALSE,0,NO ERROR,0.000000,0.000000,4000.000000,4000.000000,Speed,Speed,-0.030000,1.120000,2.890000,3.000000,101.000000,1,0,-0.005022,-0.005022,0,0.000000,0.000000,0.000000,-0.394485,0.769409,0.000000,0.001000,0.000000,0.000000,FlatInitial
11:39:25.795 AM 02/13/2016,Teleop Disabled,0,FALSE,0,NO ERROR,0.000000,0.000000,4000.000000,4000.000000,Speed,Speed,-0.030000,1.120000,2.880000,3.000000,101.000000,1,0,-0.005022,-0.005022,0,0.000000,0.000000,0.000000,-0.394485,0.769409,0.000000,0.002000,0.001000,0.003000,FlatInitial
11:39:25.896 AM 02/13/2016,Teleop Disabled,0,FALSE,0,NO ERROR,0.000000,0.000000,4000.000000,4000.000000,Speed,Speed,-0.030000,1.130000,2.890000,3.000000,102.000000,1,0,-0.005022,-0.005022,0,0.000000,0.000000,0.000000,-0.394485,0.769409,0.000000,-0.002000,-0.004000,0.000000,FlatInitial
11:39:25.997 AM 02/13/2016,Teleop Disabled,0,FALSE,0,NO ERROR,0.000000,0.000000,4000.000000,4000.000000,Speed,Speed,-0.030000,1.120000,2.880000,3.000000,103.000000,1,0,-0.005022,-0.005022,0,0.000000,0.000000,0.000000,-0.394485,0.769409,0.000000,0.000000,-0.001000,0.003000,FlatInitial
11:39:26.097 AM 02/13/2016,Teleop Disabled,0,FALSE,0,NO ERROR,0.000000,0.000000,4000.000000,4000.000000,Speed,Speed,-0.040000,1.120000,2.880000,3.000000,102.000000,1,0,-0.005022,-0.005022,0,0.000000,0.000000,0.000000,-0.394485,0.769409,0.000000,0.000000,-0.003000,0.000000,FlatInitial
11:39:26.198 AM 02/13/2016,Teleop Disabled,0,FALSE,0,NO ERROR,0.000000,0.000000,4000.000000,4000.000000,Speed,Speed,-0.040000,1.120000,2.880000,3.000000,103.000000,1,0,-0.005022,-0.005022,0,0.000000,0.000000,0.000000,-0.394485,0.769409,0.000000,0.000000,0.001000,0.001000,FlatInitial
11:39:26.299 AM 02/13/2016,Teleop Disabled,0,FALSE,0,NO ERROR,0.000000,0.000000,4000.000000,4000.000000,Speed,Speed,-0.040000,1.120000,2.880000,3.000000,101.000000,1,0,-0.005022,-0.005022,0,0.000000,0.000000,0.000000,-0.394485,0.769409,0.000000,-0.002000,-0.003000,0.004000,FlatInitial
11:39:26.400 AM 02/13/2016,Teleop Disabled,0,FALSE,0,NO ERROR,0.000000,0.000000,4000.000000,4000.000000,Speed,Speed,-0.040000,1.130000,2.880000,3.000000,103.000000,1,0,-0.005022,-0.005022,0,0.000000,0.000000,0.000000,-0.394485,0.769409,0.000000,0.003000,0.002000,0.000000,FlatInitial
11:39:26.501 AM 02/13/2016,Teleop Disabled,0,FALSE,0,NO ERROR,0.000000,0.000000,4000.000000,4000.000000,Speed,Speed,-0.040000,1.130000,2.880000,3.000000,102.000000,1,0,-0.005022,-0.005022,0,0.000000,0.000000,0.000000,-0.394485,0.769409,0.000000,0.000000,0.001000,0.003000,FlatInitial
11:39:26.601 AM 02/13/2016,Teleop Disabled,0,FALSE,0,NO ERROR,0.000000,0.000000,4000.000000,4000.000000,Speed,Speed,-0.040000,1.130000,2.880000,3.000000,103.000000,1,0,-0.005022,-0.005022,0,0.000000,0.000000,0.000000,-0.394485,0.769409,0.000000,0.000000,0.002000,0.000000,FlatInitial
11:39:26.702 AM 02/13/2016,Teleop Disabled,0,FALSE,0,NO ERROR,0.000000,0.000000,4000.000000,4000.000000,Speed,Speed,-0.040000,1.120000,2.870000,3.000000,101.000000,1,0,-0.005022,-0.005022,0,0.000000,0.000000,0.000000,-0.394485,0.769409,0.000000,0.000000,0.000000,0.000000,FlatInitial
11:39:26.803 AM 02/13/2016,Teleop Disabled,0,FALSE,0,NO ERROR,0.000000,0.000000,4000.000000,4000.000000,Speed,Speed,-0.040000,1.120000,2.870000,3.000000,104.000000,1,0,-0.005022,-0.005022,0,0.000000,0.000000,0.000000,-0.394485,0.769409,0.000000,0.000000,0.000000,0.000000,FlatInitial
11:39:26.904 AM 02/13/2016,Teleop Disabled,0,FALSE,0,NO ERROR,0.000000,0.000000,4000.000000,4000.000000,Speed,Speed,-0.040000,1.120000,2.870000,3.000000,102.000000,1,0,-0.005022,-0.005022,0,0.000000,0.000000,0.000000,-0.394485,0.769409,0.000000,0.000000,0.000000,0.000000,FlatInitial
11:39:27.004 AM 02/13/2016,Teleop Disabled,0,FALSE,0,NO ERROR,0.000000,0.000000,4000.000000,4000.000000,Speed,Speed,-0.040000,1.110000,2.870000,3.000000,102.000000,1,0,-0.005022,-0.005022,0,0.000000,0.000000,0.000000,-0.394485,0.769409,0.000000,0.000000,0.000000,0.002000,FlatInitial
11:39:27.105 AM 02/13/2016,Teleop Disabled,0,FALSE,0,NO ERROR,0.000000,0.000000,4000.000000,4000.000000,Speed,Speed,-0.040000,1.110000,2.870000,3.000000,103.000000,1,0,-0.005022,-0.005022,0,0.000000,0.000000,0.000000,-0.394485,0.769409,0.000000,0.002000,0.000000,0.001000,FlatInitial
11:39:27.204 AM 02/13/2016,Teleop Disabled,0,FALSE,0,NO ERROR,0.000000,0.000000,4000.000000,4000.000000,Speed,Speed,-0.040000,1.110000,2.870000,3.000000,103.000000,1,0,-0.005022,-0.005022,0,0.000000,0.000000,0.000000,-0.394485,0.769409,0.000000,0.000000,0.001000,-0.001000,FlatInitial
11:39:27.305 AM 02/13/2016,Teleop Disabled,0,FALSE,0,NO ERROR,0.000000,0.000000,4000.000000,4000.000000,Speed,Speed,-0.050000,1.110000,2.870000,3.000000,101.000000,1,0,-0.005022,-0.005022,0,0.000000,0.000000,0.000000,-0.394485,0.769409,0.000000,0.000000,0.000000,-0.002000,FlatInitial
11:39:27.404 AM 02/13/2016,Teleop Disabled,0,FALSE,0,NO ERROR,0.000000,0.000000,4000.000000,4000.000000,Speed,Speed,-0.050000,1.120000,2.880000,3.000000,101.000000,1,0,-0.005022,-0.005022,0,0.000000,0.000000,0.000000,-0.394485,0.769409,0.000000,0.001000,0.000000,0.000000,FlatInitial
11:39:27.505 AM 02/13/2016,Teleop Disabled,0,FALSE,0,NO ERROR,0.000000,0.000000,4000.000000,4000.000000,Speed,Speed,-0.050000,1.120000,2.880000,3.000000,101.000000,1,0,-0.005022,-0.005022,0,0.000000,0.000000,0.000000,-0.394485,0.769409,0.000000,0.000000,0.000000,0.002000,FlatInitial
11:39:27.604 AM 02/13/2016,Teleop Disabled,0,FALSE,0,NO ERROR,0.000000,0.000000,4000.000000,4000.000000,Speed,Speed,-0.050000,1.120000,2.880000,3.000000,103.000000,1,0,-0.005022,-0.005022,0,0.000000,0.000000,0.000000,-0.394485,0.769409,0.000000,-0.002000,0.002000,0.001000,FlatInitial
11:39:27.704 AM 02/13/2016,Teleop Disabled,0,FALSE,0,NO ERROR,0.000000,0.000000,4000.000000,4000.000000,Speed,Speed,-0.050000,1.120000,2.880000,3.000000,102.000000,1,0,-0.005022,-0.005022,0,0.000000,0.000000,0.000000,-0.394485,0.769409,0.000000,0.000000,-0.001000,0.002000,FlatInitial
11:39:27.805 AM 02/13/2016,Teleop Disabled,0,FALSE,0,NO ERROR,0.000000,0.000000,4000.000000,4000.000000,Speed,Speed,-0.050000,1.120000,2.880000,3.000000,102.000000,1,0,-0.005022,-0.005022,0,0.000000,0.000000,0.000000,-0.394485,0.769409,0.000000,0.000000,0.000000,-0.001000,FlatInitial
11:39:27.904 AM 02/13/2016,Teleop Disabled,0,FALSE,0,NO ERROR,0.000000,0.000000,4000.000000,4000.000000,Speed,Speed,-0.050000,1.130000,2.890000,3.000000,102.000000,1,0,-0.005022,-0.005022,0,0.000000,0.000000,0.000000,-0.394485,0.769409,0.000000,0.000000,0.000000,0.003000,FlatInitial
11:39:28.004 AM 02/13/2016,Teleop Disabled,0,FALSE,0,NO ERROR,0.000000,0.000000,4000.000000,4000.000000,Speed,Speed,-0.050000,1.120000,2.880000,3.000000,102.000000,1,0,-0.005022,-0.005022,0,0.000000,0.000000,0.000000,-0.394485,0.769409,0.000000,0.000000,0.000000,0.005000,FlatInitial
11:39:28.104 AM 02/13/2016,Teleop Disabled,0,FALSE,0,NO ERROR,0.000000,0.000000,4000.000000,4000.000000,Speed,Speed,-0.050000,1.120000,2.880000,3.000000,101.000000,1,0,-0.005022,-0.005022,0,0.000000,0.000000,0.000000,-0.394485,0.769409,0.000000,0.003000,0.001000,-0.001000,FlatInitial
11:39:28.205 AM 02/13/2016,Teleop Disabled,0,FALSE,0,NO ERROR,0.000000,0.000000,4000.000000,4000.000000,Speed,Speed,-0.050000,1.120000,2.890000,3.000000,103.000000,1,0,-0.005022,-0.005022,0,0.000000,0.000000,0.000000,-0.394485,0.769409,0.000000,0.001000,0.000000,0.003000,FlatInitial
11:39:28.305 AM 02/13/2016,Teleop Disabled,0,FALSE,0,NO ERROR,0.000000,0.000000,4000.000000,4000.000000,Speed,Speed,-0.050000,1.120000,2.880000,3.000000,102.000000,1,0,-0.005022,-0.005022,0,0.000000,0.000000,0.000000,-0.394485,0.769409,0.000000,0.000000,0.001000,0.000000,FlatInitial
11:39:28.405 AM 02/13/2016,Teleop Disabled,0,FALSE,0,NO ERROR,0.000000,0.000000,4000.000000,4000.000000,Speed,Speed,-0.050000,1.120000,2.880000,3.000000,100.000000,1,0,-0.005022,-0.005022,0,0.000000,0.000000,0.000000,-0.394485,0.769409,0.000000,0.002000,-0.001000,0.003000,FlatInitial
11:39:28.506 AM 02/13/2016,Teleop Disabled,0,FALSE,0,NO ERROR,0.000000,0.000000,4000.000000,4000.000000,Speed,Speed,-0.050000,1.120000,2.880000,3.000000,101.000000,1,0,-0.005022,-0.005022,0,0.000000,0.000000,0.000000,-0.394485,0.769409,0.000000,0.000000,0.001000,0.001000,FlatInitial
11:39:28.606 AM 02/13/2016,Teleop Disabled,0,FALSE,0,NO ERROR,0.000000,0.000000,4000.000000,4000.000000,Speed,Speed,-0.050000,1.130000,2.890000,3.000000,102.000000,1,0,-0.005022,-0.005022,0,0.000000,0.000000,0.000000,-0.394485,0.769409,0.000000,0.000000,-0.001000,0.000000,FlatInitial
11:39:28.706 AM 02/13/2016,Teleop Disabled,0,FALSE,0,NO ERROR,0.000000,0.000000,4000.000000,4000.000000,Speed,Speed,-0.050000,1.130000,2.890000,3.000000,100.000000,1,0,-0.005022,-0.005022,0,0.000000,0.000000,0.000000,-0.394485,0.769409,0.000000,0.000000,0.001000,0.003000,FlatInitial
11:39:28.807 AM 02/13/2016,Teleop Disabled,0,FALSE,0,NO ERROR,0.000000,0.000000,4000.000000,4000.000000,Speed,Speed,-0.050000,1.130000,2.890000,3.000000,105.000000,1,0,-0.005022,-0.005022,0,0.000000,0.000000,0.000000,-0.394485,0.769409,0.000000,-0.001000,0.000000,0.001000,FlatInitial
11:39:28.907 AM 02/13/2016,Teleop Disabled,0,FALSE,0,NO ERROR,0.000000,0.000000,4000.000000,4000.000000,Speed,Speed,-0.050000,1.130000,2.890000,3.000000,105.000000,1,0,-0.005022,-0.005022,0,0.000000,0.000000,0.000000,-0.394485,0.769409,0.000000,-0.001000,0.000000,0.000000,FlatInitial
11:39:29.007 AM 02/13/2016,Teleop Disabled,0,FALSE,0,NO ERROR,0.000000,0.000000,4000.000000,4000.000000,Speed,Speed,-0.060000,1.130000,2.890000,3.000000,102.000000,1,0,-0.005022,-0.005022,0,0.000000,0.000000,0.000000,-0.394485,0.769409,0.000000,-0.001000,-0.001000,0.000000,FlatInitial
11:39:29.107 AM 02/13/2016,Teleop Disabled,0,FALSE,0,NO ERROR,0.000000,0.000000,4000.000000,4000.000000,Speed,Speed,-0.060000,1.130000,2.890000,3.000000,102.000000,1,0,-0.005022,-0.005022,0,0.000000,0.000000,0.000000,-0.394485,0.769409,0.000000,0.000000,0.001000,0.002000,FlatInitial
11:39:29.207 AM 02/13/2016,Teleop Disabled,0,FALSE,0,NO ERROR,0.000000,0.000000,4000.000000,4000.000000,Speed,Speed,-0.050000,1.120000,2.900000,3.000000,102.000000,1,0,-0.005022,-0.005022,0,0.000000,0.000000,0.000000,-0.394485,0.769409,0.000000,-0.002000,0.001000,0.003000,FlatInitial
11:39:29.307 AM 02/13/2016,Teleop Disabled,0,FALSE,0,NO ERROR,0.000000,0.000000,4000.000000,4000.000000,Speed,Speed,-0.050000,1.120000,2.900000,3.000000,102.000000,1,0,-0.005022,-0.005022,0,0.000000,0.000000,0.000000,-0.394485,0.769409,0.000000,0.000000,0.000000,0.003000,FlatInitial
11:39:29.408 AM 02/13/2016,Teleop Disabled,0,FALSE,0,NO ERROR,0.000000,0.000000,4000.000000,4000.000000,Speed,Speed,-0.050000,1.120000,2.900000,3.000000,102.000000,1,0,-0.005022,-0.005022,0,0.000000,0.000000,0.000000,-0.394485,0.769409,0.000000,0.001000,0.002000,0.002000,FlatInitial
11:39:29.507 AM 02/13/2016,Teleop Disabled,0,FALSE,0,NO ERROR,0.000000,0.000000,4000.000000,4000.000000,Speed,Speed,-0.050000,1.120000,2.900000,3.000000,101.000000,1,0,-0.005022,-0.005022,0,0.000000,0.000000,0.000000,-0.394485,0.769409,0.000000,-0.001000,0.000000,0.001000,FlatInitial
11:39:29.608 AM 02/13/2016,Teleop Disabled,0,FALSE,0,NO ERROR,0.000000,0.000000,4000.000000,4000.000000,Speed,Speed,-0.050000,1.130000,2.900000,3.000000,101.000000,1,0,-0.005022,-0.005022,0,0.000000,0.000000,0.000000,-0.394485,0.769409,0.000000,-0.001000,-0.001000,0.000000,FlatInitial
11:39:29.709 AM 02/13/2016,Teleop Disabled,0,FALSE,0,NO ERROR,0.000000,0.000000,4000.000000,4000.000000,Speed,Speed,-0.050000,1.120000,2.900000,3.000000,102.000000,1,0,-0.005022,-0.005022,0,0.000000,0.000000,0.000000,-0.394485,0.769409,0.000000,0.001000,0.001000,-0.001000,FlatInitial
11:39:29.808 AM 02/13/2016,Teleop Disabled,0,FALSE,0,NO ERROR,0.000000,0.000000,4000.000000,4000.000000,Speed,Speed,-0.050000,1.130000,2.900000,3.000000,102.000000,1,0,-0.005022,-0.005022,0,0.000000,0.000000,0.000000,-0.394485,0.769409,0.000000,-0.004000,-0.003000,0.004000,FlatInitial
11:39:29.908 AM 02/13/2016,Teleop Disabled,0,FALSE,0,NO ERROR,0.000000,0.000000,4000.000000,4000.000000,Speed,Speed,-0.050000,1.120000,2.900000,3.000000,102.000000,1,0,-0.005022,-0.005022,0,0.000000,0.000000,0.000000,-0.394485,0.769409,0.000000,-0.003000,-0.001000,0.000000,FlatInitial
11:39:30.008 AM 02/13/2016,Teleop Disabled,0,FALSE,0,NO ERROR,0.000000,0.000000,4000.000000,4000.000000,Speed,Speed,-0.050000,1.120000,2.900000,3.000000,103.000000,1,0,-0.005022,-0.005022,0,0.000000,0.000000,0.000000,-0.394485,0.769409,0.000000,0.000000,-0.002000,-0.001000,FlatInitial
11:39:30.109 AM 02/13/2016,Teleop Disabled,0,FALSE,0,NO ERROR,0.000000,0.000000,4000.000000,4000.000000,Speed,Speed,-0.050000,1.120000,2.900000,3.000000,103.000000,1,0,-0.005022,-0.005022,0,0.000000,0.000000,0.000000,-0.394485,0.769409,0.000000,-0.003000,0.003000,0.005000,FlatInitial
11:39:30.210 AM 02/13/2016,Teleop Enabled,0,FALSE,0,NO ERROR,0.000000,0.000000,4000.000000,4000.000000,Speed,Speed,-0.050000,1.130000,2.900000,3.000000,102.000000,1,0,-0.005022,-0.005022,0,0.000000,0.000000,0.000000,-0.394485,0.769409,0.000000,0.002000,0.000000,0.003000,FlatInitial
11:39:30.309 AM 02/13/2016,Teleop Enabled,0,FALSE,0,NO ERROR,0.000000,0.000000,4000.000000,4000.000000,Speed,Speed,-0.050000,1.130000,2.900000,3.000000,104.000000,1,0,-0.005022,-0.005022,0,0.000000,0.000000,0.000000,-0.394485,0.769409,0.000000,-0.001000,0.000000,0.001000,FlatInitial
11:39:30.409 AM 02/13/2016,Teleop Enabled,0,FALSE,0,NO ERROR,0.000000,0.000000,4000.000000,4000.000000,Speed,Speed,-0.050000,1.120000,2.900000,3.000000,101.000000,1,0,-0.005022,-0.005022,0,0.000000,0.000000,0.000000,-0.394485,0.769409,0.000000,0.000000,0.000000,-0.002000,FlatInitial
11:39:30.510 AM 02/13/2016,Teleop Enabled,0,FALSE,0,NO ERROR,0.000000,0.000000,4000.000000,4000.000000,Speed,Speed,-0.050000,1.120000,2.900000,3.000000,101.000000,1,0,-0.005022,-0.005022,0,0.000000,0.000000,0.000000,-0.394485,0.769409,0.000000,0.002000,0.000000,0.000000,FlatInitial
11:39:30.609 AM 02/13/2016,Teleop Enabled,0,FALSE,0,NO ERROR,0.000000,0.000000,4000.000000,4000.000000,Speed,Speed,-0.050000,1.130000,2.890000,3.000000,102.000000,1,0,-0.005022,-0.005022,0,0.000000,0.000000,0.000000,-0.394485,0.769409,0.000000,0.001000,-0.003000,0.005000,FlatInitial
11:39:30.709 AM 02/13/2016,Teleop Enabled,0,FALSE,0,NO ERROR,0.000000,0.000000,4000.000000,4000.000000,Speed,Speed,-0.050000,1.120000,2.900000,3.000000,106.000000,1,0,-0.005022,-0.005022,0,0.000000,0.000000,0.000000,-0.394485,0.769409,0.000000,0.000000,0.000000,0.002000,FlatInitial
11:39:30.809 AM 02/13/2016,Teleop Enabled,0,FALSE,0,NO ERROR,0.000000,0.000000,4000.000000,4000.000000,Speed,Speed,-0.050000,1.130000,2.890000,3.000000,100.000000,1,0,-0.005022,-0.005022,0,0.000000,0.000000,0.000000,-0.394485,0.769409,0.000000,-0.001000,0.001000,0.006000,FlatInitial
11:39:30.909 AM 02/13/2016,Teleop Enabled,0,FALSE,0,NO ERROR,0.000000,0.000000,4000.000000,4000.000000,Speed,Speed,-0.050000,1.130000,2.890000,3.000000,100.000000,1,0,-0.005022,-0.005022,0,0.000000,0.000000,0.000000,-0.394485,0.769409,0.000000,-0.002000,0.000000,0.005000,FlatInitial
11:39:31.009 AM 02/13/2016,Teleop Enabled,0,FALSE,0,NO ERROR,0.000000,0.000000,4000.000000,4000.000000,Speed,Speed,-0.050000,1.130000,2.890000,3.000000,101.000000,1,0,-0.005022,-0.005022,0,0.000000,0.000000,0.000000,-0.394485,0.769409,0.000000,0.001000,0.001000,0.002000,FlatInitial
11:39:31.110 AM 02/13/2016,Teleop Enabled,0,FALSE,0,NO ERROR,0.000000,0.000000,4000.000000,4000.000000,Speed,Speed,-0.050000,1.130000,2.890000,3.000000,101.000000,1,0,-0.005022,-0.005022,0,0.000000,0.000000,0.000000,-0.394485,0.769409,0.000000,0.001000,0.001000,0.004000,FlatInitial
11:39:31.211 AM 02/13/2016,Teleop Enabled,0,FALSE,0,NO ERROR,0.000000,0.000000,4000.000000,4000.000000,Speed,Speed,-0.050000,1.130000,2.890000,3.000000,102.000000,1,0,-0.005022,-0.005022,0,0.000000,0.000000,0.000000,-0.394485,0.769409,0.000000,-0.001000,0.002000,0.001000,FlatInitial
11:39:31.311 AM 02/13/2016,Teleop Enabled,0,FALSE,0,NO ERROR,0.000000,0.000000,4000.000000,4000.000000,Speed,Speed,-0.050000,1.130000,2.890000,3.000000,101.000000,1,0,-0.005022,-0.005022,0,0.000000,0.000000,0.000000,-0.394485,0.769409,0.000000,-0.001000,-0.001000,-0.003000,FlatInitial
11:39:31.411 AM 02/13/2016,Teleop Enabled,0,FALSE,0,NO ERROR,0.000000,0.000000,4000.000000,4000.000000,Speed,Speed,-0.050000,1.130000,2.890000,3.000000,102.000000,1,0,-0.005022,-0.005022,0,0.000000,0.000000,0.000000,-0.394485,0.769409,0.000000,0.000000,0.000000,-0.002000,FlatInitial
11:39:31.511 AM 02/13/2016,Teleop Enabled,0,FALSE,0,NO ERROR,0.000000,0.000000,4000.000000,4000.000000,Speed,Speed,-0.050000,1.130000,2.890000,3.000000,101.000000,1,0,-0.005022,-0.005022,0,0.000000,0.000000,0.000000,-0.394485,0.769409,0.000000,0.000000,0.004000,0.000000,FlatInitial
11:39:31.611 AM 02/13/2016,Teleop Enabled,0,FALSE,0,NO ERROR,0.000000,0.000000,4000.000000,4000.000000,Speed,Speed,-0.050000,1.130000,2.890000,3.000000,103.000000,1,0,-0.005022,-0.005022,0,0.000000,0.000000,0.000000,-0.394485,0.769409,0.000000,0.000000,0.000000,0.001000,FlatInitial
11:39:31.712 AM 02/13/2016,Teleop Enabled,0,FALSE,0,NO ERROR,0.000000,0.000000,4000.000000,4000.000000,Speed,Speed,-0.050000,1.130000,2.890000,3.000000,101.000000,1,0,-0.005022,-0.005022,0,0.000000,0.000000,0.000000,-0.394485,0.769409,0.000000,0.000000,0.000000,-0.001000,FlatInitial
11:39:31.811 AM 02/13/2016,Teleop Enabled,0,FALSE,0,NO ERROR,0.000000,0.000000,4000.000000,4000.000000,Speed,Speed,-0.040000,1.120000,2.890000,3.000000,103.000000,1,0,-0.005022,-0.005022,0,0.000000,0.000000,0.000000,-0.394485,0.769409,0.000000,0.001000,-0.002000,0.002000,FlatInitial
11:39:31.912 AM 02/13/2016,Teleop Enabled,0,FALSE,0,NO ERROR,0.000000,0.000000,4000.000000,4000.000000,Speed,Speed,-0.040000,1.120000,2.890000,3.000000,102.000000,1,0,-0.005022,-0.005022,0,0.000000,0.000000,0.000000,-0.394485,0.769409,0.000000,-0.001000,0.000000,0.004000,FlatInitial
11:39:32.012 AM 02/13/2016,Teleop Enabled,0,FALSE,0,NO ERROR,0.000000,0.000000,4000.000000,4000.000000,Speed,Speed,-0.050000,1.120000,2.880000,3.000000,104.000000,1,0,-0.005022,-0.005022,0,0.000000,0.000000,0.000000,-0.394485,0.769409,0.000000,0.000000,0.000000,0.004000,FlatInitial
11:39:32.113 AM 02/13/2016,Teleop Enabled,0,FALSE,0,NO ERROR,0.000000,0.000000,4000.000000,4000.000000,Speed,Speed,-0.050000,1.120000,2.890000,3.000000,103.000000,1,0,-0.005022,-0.005022,0,0.000000,0.000000,0.000000,-0.394485,0.769409,0.000000,-0.001000,0.000000,0.000000,FlatInitial
11:39:32.213 AM 02/13/2016,Teleop Enabled,0,FALSE,0,NO ERROR,0.000000,0.000000,4000.000000,4000.000000,Speed,Speed,-0.050000,1.110000,2.880000,3.000000,102.000000,1,0,-0.005022,-0.005022,0,0.000000,0.000000,0.000000,-0.394485,0.769409,0.000000,0.000000,0.002000,-0.003000,FlatInitial
11:39:32.314 AM 02/13/2016,Teleop Enabled,0,FALSE,0,NO ERROR,0.000000,0.000000,4000.000000,4000.000000,Speed,Speed,-0.050000,1.110000,2.880000,3.000000,102.000000,1,0,-0.005022,-0.005022,0,0.000000,0.000000,0.000000,-0.394485,0.769409,0.000000,-0.002000,0.000000,0.008000,FlatInitial
11:39:32.415 AM 02/13/2016,Teleop Enabled,0,FALSE,0,NO ERROR,0.000000,0.000000,4000.000000,4000.000000,Speed,Speed,-0.050000,1.100000,2.880000,3.000000,102.000000,1,0,-0.005022,-0.005022,0,0.000000,0.000000,0.000000,-0.394485,0.769409,0.000000,0.000000,0.003000,-0.002000,FlatInitial
11:39:32.514 AM 02/13/2016,Teleop Enabled,0,FALSE,0,NO ERROR,0.000000,0.000000,4000.000000,4000.000000,Speed,Speed,-0.050000,1.100000,2.890000,3.000000,101.000000,1,0,-0.005022,-0.005022,0,0.000000,0.000000,0.000000,-0.394485,0.769409,0.000000,0.004000,-0.002000,0.003000,FlatInitial
11:39:32.615 AM 02/13/2016,Teleop Enabled,0,FALSE,0,NO ERROR,0.000000,0.000000,4000.000000,4000.000000,Speed,Speed,-0.050000,1.100000,2.890000,3.000000,101.000000,1,0,-0.005022,-0.005022,0,0.000000,0.000000,0.000000,-0.394485,0.769409,0.000000,0.001000,0.000000,-0.007000,FlatInitial
11:39:32.715 AM 02/13/2016,Teleop Enabled,0,FALSE,0,NO ERROR,0.000000,0.000000,4000.000000,4000.000000,Speed,Speed,-0.050000,1.110000,2.890000,3.000000,103.000000,1,0,-0.005022,-0.005022,0,0.000000,0.000000,0.000000,-0.394485,0.769409,0.000000,0.001000,0.000000,-0.007000,FlatInitial
11:39:32.816 AM 02/13/2016,Teleop Enabled,0,FALSE,0,NO ERROR,0.000000,0.000000,4000.000000,4000.000000,Speed,Speed,-0.050000,1.110000,2.880000,3.000000,103.000000,1,0,-0.005022,-0.005022,0,0.000000,0.000000,0.000000,-0.394485,0.769409,0.000000,0.000000,-0.002000,0.007000,FlatInitial
11:39:32.916 AM 02/13/2016,Teleop Enabled,0,FALSE,0,NO ERROR,0.000000,0.000000,4000.000000,4000.000000,Speed,Speed,-0.050000,1.110000,2.880000,3.000000,103.000000,1,0,-0.005022,-0.005022,0,0.000000,0.000000,0.000000,-0.394485,0.769409,0.000000,0.002000,-0.001000,0.000000,FlatInitial
11:39:33.017 AM 02/13/2016,Teleop Enabled,0,FALSE,0,NO ERROR,0.000000,0.000000,4000.000000,4000.000000,Speed,Speed,-0.050000,1.110000,2.880000,3.000000,101.000000,1,0,-0.005022,-0.005022,0,0.000000,0.000000,0.000000,-0.394485,0.769409,0.000000,0.000000,0.000000,0.001000,FlatInitial
11:39:33.118 AM 02/13/2016,Teleop Enabled,0,FALSE,0,NO ERROR,0.000000,0.000000,4000.000000,4000.000000,Speed,Speed,-0.050000,1.120000,2.880000,3.000000,101.000000,1,0,-0.005022,-0.005022,0,0.000000,0.000000,0.000000,-0.394485,0.769409,0.000000,0.002000,0.001000,0.002000,FlatInitial
11:39:33.218 AM 02/13/2016,Teleop Enabled,0,FALSE,0,NO ERROR,0.000000,0.000000,4000.000000,4000.000000,Speed,Speed,-0.050000,1.120000,2.880000,3.000000,101.000000,1,0,-0.005022,-0.005022,0,0.000000,0.000000,0.000000,-0.394485,0.769409,0.000000,0.002000,0.001000,0.002000,FlatInitial
11:39:33.319 AM 02/13/2016,Teleop Enabled,0,FALSE,0,NO ERROR,0.000000,0.000000,4000.000000,4000.000000,Speed,Speed,-0.050000,1.110000,2.890000,3.000000,109.000000,1,0,-0.005022,-0.005022,0,0.000000,0.000000,0.000000,-0.394485,0.769409,0.000000,-0.003000,0.000000,0.000000,FlatInitial
11:39:33.418 AM 02/13/2016,Teleop Enabled,0,FALSE,0,NO ERROR,0.000000,0.000000,4000.000000,4000.000000,Speed,Speed,-0.050000,1.110000,2.890000,3.000000,101.000000,1,0,-0.005022,-0.005022,0,0.000000,0.000000,0.000000,-0.394485,0.769409,0.000000,0.000000,0.002000,0.003000,FlatInitial
11:39:33.518 AM 02/13/2016,Teleop Enabled,0,FALSE,0,NO ERROR,0.000000,0.000000,4000.000000,4000.000000,Speed,Speed,-0.050000,1.100000,2.890000,3.000000,102.000000,1,0,-0.005022,-0.005022,0,0.000000,0.000000,0.000000,-0.394485,0.769409,0.000000,-0.001000,0.000000,0.000000,FlatInitial
11:39:33.619 AM 02/13/2016,Teleop Enabled,0,FALSE,0,NO ERROR,0.000000,0.000000,4000.000000,4000.000000,Speed,Speed,-0.050000,1.110000,2.880000,3.000000,103.000000,1,0,-0.005022,-0.005022,0,0.000000,0.000000,0.000000,-0.394485,0.769409,0.000000,-0.001000,-0.001000,0.003000,FlatInitial
11:39:33.720 AM 02/13/2016,Teleop Enabled,0,FALSE,0,NO ERROR,0.000000,0.000000,4000.000000,4000.000000,Speed,Speed,-0.050000,1.110000,2.880000,3.000000,102.000000,1,0,-0.005022,-0.005022,0,0.000000,0.000000,0.000000,-0.394485,0.769409,0.000000,-0.001000,-0.001000,0.003000,FlatInitial
