Time,RobotMode,AutoToRun,ErrorStatus, ErrorCode,ErrorSource,ActualRPM1,ActualRPM2,DesiredRPM1,DesiredRPM2,ControlMode1,ControlMode2,NavXYaw,NavXRoll,NavXPitch,ShooterState,LoopTime,IsLevel,IsAutoTargeting,LeftMotorOutput,RightMotorOutput,IsHaloDrive,NavXVelocityX,NavXVelocityY,NavXVelocityZ,NavXDisplacementX,NavXDisplacementY,NavXDisplacementZ,NavXAccelerationX,NavXAccelerationY,NavXAccelerationZ,AutoDefendState
12:18:03.228 PM 02/13/2016,Autonomous Disabled,0,TRUE,-44087,NetComm_CAN_Receive.vi:5470006<APPEND>  <b>Complete call chain:</b>      NetComm_CAN_Receive.vi:5470006      WPI_CANTalonSRX_Receive.vi      WPI_MotorControlOpenCANTalonSRX.vi      Begin.vi      Robot Main.vi,0.000000,0.000000,4000.000000,4000.000000,Speed,Speed,-0.740000,1.130000,2.860000,3.000000,101.000000,1,0,-0.005022,-0.003968,0,0.000000,0.000000,0.000000,-0.583054,0.553345,0.000000,0.002000,-0.002000,0.000000,FlatInitial
12:18:03.327 PM 02/13/2016,Teleop Disabled,0,TRUE,-44087,NetComm_CAN_Receive.vi:5470006<APPEND>  <b>Complete call chain:</b>      NetComm_CAN_Receive.vi:5470006      WPI_CANTalonSRX_Receive.vi      WPI_MotorControlOpenCANTalonSRX.vi      Begin.vi      Robot Main.vi,0.000000,0.000000,0.000000,0.000000,Speed,Speed,-1.480000,1.130000,2.780000,0.000000,26172.000000,1,0,-0.005022,-0.003968,0,0.000000,0.000000,0.000000,-0.583405,0.551361,0.000000,0.003000,0.006000,0.000000,FlatInitial
12:18:03.428 PM 02/13/2016,Teleop Disabled,0,TRUE,-44087,NetComm_CAN_Receive.vi:5470006<APPEND>  <b>Complete call chain:</b>      NetComm_CAN_Receive.vi:5470006      WPI_CANTalonSRX_Receive.vi      WPI_MotorControlOpenCANTalonSRX.vi      Begin.vi      Robot Main.vi,0.000000,0.000000,0.000000,0.000000,Speed,Speed,-1.480000,1.130000,2.780000,0.000000,104.000000,1,0,-0.005022,-0.003968,0,0.000000,0.000000,0.000000,-0.583405,0.551361,0.000000,0.003000,0.006000,0.000000,FlatInitial
12:18:03.529 PM 02/13/2016,Teleop Disabled,0,TRUE,-44087,NetComm_CAN_Receive.vi:5470006<APPEND>  <b>Complete call chain:</b>      NetComm_CAN_Receive.vi:5470006      WPI_CANTalonSRX_Receive.vi      WPI_MotorControlOpenCANTalonSRX.vi      Begin.vi      Robot Main.vi,0.000000,0.000000,0.000000,0.000000,Speed,Speed,-1.480000,1.130000,2.780000,0.000000,101.000000,1,0,-0.005022,-0.003968,0,0.000000,0.000000,0.000000,-0.583405,0.551361,0.000000,0.003000,0.006000,0.000000,FlatInitial
12:18:03.630 PM 02/13/2016,Teleop Disabled,0,TRUE,-44087,NetComm_CAN_Receive.vi:5470006<APPEND>  <b>Complete call chain:</b>      NetComm_CAN_Receive.vi:5470006      WPI_CANTalonSRX_Receive.vi      WPI_MotorControlOpenCANTalonSRX.vi      Begin.vi      Robot Main.vi,0.000000,0.000000,0.000000,0.000000,Speed,Speed,-1.480000,1.130000,2.780000,0.000000,101.000000,1,0,-0.005022,-0.003968,0,0.000000,0.000000,0.000000,-0.583405,0.551361,0.000000,0.003000,0.006000,0.000000,FlatInitial
12:18:03.729 PM 02/13/2016,Teleop Disabled,0,TRUE,-44087,NetComm_CAN_Receive.vi:5470006<APPEND>  <b>Complete call chain:</b>      NetComm_CAN_Receive.vi:5470006      WPI_CANTalonSRX_Receive.vi      WPI_MotorControlOpenCANTalonSRX.vi      Begin.vi      Robot Main.vi,0.000000,0.000000,0.000000,0.000000,Speed,Speed,-1.480000,1.130000,2.780000,0.000000,100.000000,1,0,-0.005022,-0.003968,0,0.000000,0.000000,0.000000,-0.583405,0.551361,0.000000,0.003000,0.006000,0.000000,FlatInitial
12:18:03.829 PM 02/13/2016,Teleop Disabled,0,TRUE,-44087,NetComm_CAN_Receive.vi:5470006<APPEND>  <b>Complete call chain:</b>      NetComm_CAN_Receive.vi:5470006      WPI_CANTalonSRX_Receive.vi      WPI_MotorControlOpenCANTalonSRX.vi      Begin.vi      Robot Main.vi,0.000000,0.000000,0.000000,0.000000,Speed,Speed,-1.480000,1.130000,2.780000,0.000000,102.000000,1,0,-0.005022,-0.003968,0,0.000000,0.000000,0.000000,-0.583405,0.551361,0.000000,0.003000,0.006000,0.000000,FlatInitial
12:18:03.930 PM 02/13/2016,Teleop Disabled,0,TRUE,-44087,NetComm_CAN_Receive.vi:5470006<APPEND>  <b>Complete call chain:</b>      NetComm_CAN_Receive.vi:5470006      WPI_CANTalonSRX_Receive.vi      WPI_MotorControlOpenCANTalonSRX.vi      Begin.vi      Robot Main.vi,0.000000,0.000000,0.000000,0.000000,Speed,Speed,-1.480000,1.130000,2.780000,0.000000,101.000000,1,0,-0.005022,-0.003968,0,0.000000,0.000000,0.000000,-0.583405,0.551361,0.000000,0.003000,0.006000,0.000000,FlatInitial
12:18:04.029 PM 02/13/2016,Teleop Disabled,0,TRUE,-44087,NetComm_CAN_Receive.vi:5470006<APPEND>  <b>Complete call chain:</b>      NetComm_CAN_Receive.vi:5470006      WPI_CANTalonSRX_Receive.vi      WPI_MotorControlOpenCANTalonSRX.vi      Begin.vi      Robot Main.vi,0.000000,0.000000,0.000000,0.000000,Speed,Speed,-1.480000,1.130000,2.780000,0.000000,101.000000,1,0,-0.005022,-0.003968,0,0.000000,0.000000,0.000000,-0.583405,0.551361,0.000000,0.003000,0.006000,0.000000,FlatInitial
12:18:04.129 PM 02/13/2016,Teleop Disabled,0,TRUE,-44087,NetComm_CAN_Receive.vi:5470006<APPEND>  <b>Complete call chain:</b>      NetComm_CAN_Receive.vi:5470006      WPI_CANTalonSRX_Receive.vi      WPI_MotorControlOpenCANTalonSRX.vi      Begin.vi      Robot Main.vi,0.000000,0.000000,0.000000,0.000000,Speed,Speed,-1.480000,1.130000,2.780000,0.000000,102.000000,1,0,-0.005022,-0.003968,0,0.000000,0.000000,0.000000,-0.583405,0.551361,0.000000,0.003000,0.006000,0.000000,FlatInitial
12:18:04.229 PM 02/13/2016,Teleop Disabled,0,TRUE,-44087,NetComm_CAN_Receive.vi:5470006<APPEND>  <b>Complete call chain:</b>      NetComm_CAN_Receive.vi:5470006      WPI_CANTalonSRX_Receive.vi      WPI_MotorControlOpenCANTalonSRX.vi      Begin.vi      Robot Main.vi,0.000000,0.000000,0.000000,0.000000,Speed,Speed,-1.480000,1.130000,2.780000,0.000000,100.000000,1,0,-0.005022,-0.003968,0,0.000000,0.000000,0.000000,-0.583405,0.551361,0.000000,0.003000,0.006000,0.000000,FlatInitial
12:18:04.329 PM 02/13/2016,Teleop Disabled,0,TRUE,-44087,NetComm_CAN_Receive.vi:5470006<APPEND>  <b>Complete call chain:</b>      NetComm_CAN_Receive.vi:5470006      WPI_CANTalonSRX_Receive.vi      WPI_MotorControlOpenCANTalonSRX.vi      Begin.vi      Robot Main.vi,0.000000,0.000000,0.000000,0.000000,Speed,Speed,-1.480000,1.130000,2.780000,0.000000,100.000000,1,0,-0.005022,-0.003968,0,0.000000,0.000000,0.000000,-0.583405,0.551361,0.000000,0.003000,0.006000,0.000000,FlatInitial
12:18:04.429 PM 02/13/2016,Teleop Disabled,0,TRUE,-44087,NetComm_CAN_Receive.vi:5470006<APPEND>  <b>Complete call chain:</b>      NetComm_CAN_Receive.vi:5470006      WPI_CANTalonSRX_Receive.vi      WPI_CANTalonSRX_GetStatus.vi      ShooterVI.vi      Periodic Tasks.vi      Robot Main.vi,0.000000,0.000000,0.000000,0.000000,Speed,Speed,-1.480000,1.130000,2.780000,0.000000,101.000000,1,0,-0.005022,-0.003968,0,0.000000,0.000000,0.000000,-0.583405,0.551361,0.000000,0.003000,0.006000,0.000000,FlatInitial
12:18:04.529 PM 02/13/2016,Teleop Disabled,0,TRUE,-44087,NetComm_CAN_Receive.vi:5470006<APPEND>  <b>Complete call chain:</b>      NetComm_CAN_Receive.vi:5470006      WPI_CANTalonSRX_Receive.vi      WPI_CANTalonSRX_GetStatus.vi      ShooterVI.vi      Periodic Tasks.vi      Robot Main.vi,0.000000,0.000000,0.000000,0.000000,Speed,Speed,-1.480000,1.130000,2.780000,0.000000,101.000000,1,0,-0.005022,-0.003968,0,0.000000,0.000000,0.000000,-0.583405,0.551361,0.000000,0.003000,0.006000,0.000000,FlatInitial
12:18:04.631 PM 02/13/2016,Teleop Disabled,0,FALSE,0,NO ERROR,0.000000,0.000000,0.000000,0.000000,Speed,Speed,-1.480000,1.130000,2.780000,0.000000,101.000000,1,0,-0.005022,-0.003968,0,0.000000,0.000000,0.000000,-0.583405,0.551361,0.000000,0.003000,0.006000,0.000000,FlatInitial
12:18:04.731 PM 02/13/2016,Teleop Disabled,0,FALSE,0,NO ERROR,0.000000,0.000000,0.000000,0.000000,Speed,Speed,-1.480000,1.130000,2.780000,0.000000,102.000000,1,0,-0.005022,-0.003968,0,0.000000,0.000000,0.000000,-0.583405,0.551361,0.000000,0.003000,0.006000,0.000000,FlatInitial
12:18:04.831 PM 02/13/2016,Teleop Disabled,0,FALSE,0,NO ERROR,0.000000,0.000000,0.000000,0.000000,Speed,Speed,-1.480000,1.130000,2.780000,0.000000,101.000000,1,0,-0.005022,-0.003968,0,0.000000,0.000000,0.000000,-0.583405,0.551361,0.000000,0.003000,0.006000,0.000000,FlatInitial
12:18:04.931 PM 02/13/2016,Teleop Disabled,0,FALSE,0,NO ERROR,0.000000,0.000000,0.000000,0.000000,Speed,Speed,-1.480000,1.130000,2.780000,0.000000,103.000000,1,0,-0.005022,-0.003968,0,0.000000,0.000000,0.000000,-0.583405,0.551361,0.000000,0.003000,0.006000,0.000000,FlatInitial
12:18:05.031 PM 02/13/2016,Teleop Disabled,0,FALSE,0,NO ERROR,0.000000,0.000000,0.000000,0.000000,Speed,Speed,-1.480000,1.130000,2.780000,0.000000,104.000000,1,0,-0.005022,-0.003968,0,0.000000,0.000000,0.000000,-0.583405,0.551361,0.000000,0.003000,0.006000,0.000000,FlatInitial
12:18:05.131 PM 02/13/2016,Teleop Disabled,0,FALSE,0,NO ERROR,0.000000,0.000000,0.000000,0.000000,Speed,Speed,-1.480000,1.130000,2.780000,0.000000,102.000000,1,0,-0.005022,-0.003968,0,0.000000,0.000000,0.000000,-0.583405,0.551361,0.000000,0.003000,0.006000,0.000000,FlatInitial
12:18:05.231 PM 02/13/2016,Teleop Disabled,0,FALSE,0,NO ERROR,0.000000,0.000000,0.000000,0.000000,Speed,Speed,-1.480000,1.130000,2.780000,0.000000,101.000000,1,0,-0.005022,-0.003968,0,0.000000,0.000000,0.000000,-0.583405,0.551361,0.000000,0.003000,0.006000,0.000000,FlatInitial
12:18:05.331 PM 02/13/2016,Teleop Disabled,0,FALSE,0,NO ERROR,0.000000,0.000000,0.000000,0.000000,Speed,Speed,-1.480000,1.130000,2.780000,0.000000,101.000000,1,0,-0.005022,-0.003968,0,0.000000,0.000000,0.000000,-0.583405,0.551361,0.000000,0.003000,0.006000,0.000000,FlatInitial
12:18:05.431 PM 02/13/2016,Teleop Disabled,0,FALSE,0,NO ERROR,0.000000,0.000000,0.000000,0.000000,Speed,Speed,-1.480000,1.130000,2.780000,0.000000,101.000000,1,0,-0.005022,-0.003968,0,0.000000,0.000000,0.000000,-0.583405,0.551361,0.000000,0.003000,0.006000,0.000000,FlatInitial
12:18:05.532 PM 02/13/2016,Teleop Disabled,0,FALSE,0,NO ERROR,0.000000,0.000000,0.000000,0.000000,Speed,Speed,-1.480000,1.130000,2.780000,0.000000,102.000000,1,0,-0.005022,-0.003968,0,0.000000,0.000000,0.000000,-0.583405,0.551361,0.000000,0.003000,0.006000,0.000000,FlatInitial
12:18:05.632 PM 02/13/2016,Teleop Disabled,0,FALSE,0,NO ERROR,0.000000,0.000000,0.000000,0.000000,Speed,Speed,-1.480000,1.130000,2.780000,0.000000,101.000000,1,0,-0.005022,-0.003968,0,0.000000,0.000000,0.000000,-0.583405,0.551361,0.000000,0.003000,0.006000,0.000000,FlatInitial
12:18:05.733 PM 02/13/2016,Teleop Disabled,0,FALSE,0,NO ERROR,0.000000,0.000000,0.000000,0.000000,Speed,Speed,-1.480000,1.130000,2.780000,0.000000,101.000000,1,0,-0.005022,-0.003968,0,0.000000,0.000000,0.000000,-0.583405,0.551361,0.000000,0.003000,0.006000,0.000000,FlatInitial
12:18:05.833 PM 02/13/2016,Teleop Disabled,0,FALSE,0,NO ERROR,0.000000,0.000000,0.000000,0.000000,Speed,Speed,-1.480000,1.130000,2.780000,0.000000,101.000000,1,0,-0.005022,-0.003968,0,0.000000,0.000000,0.000000,-0.583405,0.551361,0.000000,0.003000,0.006000,0.000000,FlatInitial
12:18:05.933 PM 02/13/2016,Teleop Disabled,0,FALSE,0,NO ERROR,0.000000,0.000000,0.000000,0.000000,Speed,Speed,-1.480000,1.130000,2.780000,0.000000,102.000000,1,0,-0.005022,-0.003968,0,0.000000,0.000000,0.000000,-0.583405,0.551361,0.000000,0.003000,0.006000,0.000000,FlatInitial
12:18:06.033 PM 02/13/2016,Teleop Disabled,0,FALSE,0,NO ERROR,0.000000,0.000000,0.000000,0.000000,Speed,Speed,-1.480000,1.130000,2.780000,0.000000,102.000000,1,0,-0.005022,-0.003968,0,0.000000,0.000000,0.000000,-0.583405,0.551361,0.000000,0.003000,0.006000,0.000000,FlatInitial
12:18:06.133 PM 02/13/2016,Teleop Disabled,0,FALSE,0,NO ERROR,0.000000,0.000000,0.000000,0.000000,Speed,Speed,-1.480000,1.130000,2.780000,0.000000,102.000000,1,0,-0.005022,-0.003968,0,0.000000,0.000000,0.000000,-0.583405,0.551361,0.000000,0.003000,0.006000,0.000000,FlatInitial
12:18:06.233 PM 02/13/2016,Teleop Disabled,0,FALSE,0,NO ERROR,0.000000,0.000000,0.000000,0.000000,Speed,Speed,-1.480000,1.130000,2.780000,0.000000,101.000000,1,0,-0.005022,-0.003968,0,0.000000,0.000000,0.000000,-0.583405,0.551361,0.000000,0.003000,0.006000,0.000000,FlatInitial
12:18:06.333 PM 02/13/2016,Teleop Disabled,0,FALSE,0,NO ERROR,0.000000,0.000000,0.000000,0.000000,Speed,Speed,-1.480000,1.130000,2.780000,0.000000,102.000000,1,0,-0.005022,-0.003968,0,0.000000,0.000000,0.000000,-0.583405,0.551361,0.000000,0.003000,0.006000,0.000000,FlatInitial
12:18:06.433 PM 02/13/2016,Teleop Disabled,0,FALSE,0,NO ERROR,0.000000,0.000000,0.000000,0.000000,Speed,Speed,-1.480000,1.130000,2.780000,0.000000,102.000000,1,0,-0.005022,-0.003968,0,0.000000,0.000000,0.000000,-0.583405,0.551361,0.000000,0.003000,0.006000,0.000000,FlatInitial
12:18:06.534 PM 02/13/2016,Teleop Disabled,0,FALSE,0,NO ERROR,0.000000,0.000000,-6000.000000,-6000.000000,Speed,Speed,-1.480000,1.130000,2.780000,1.000000,104.000000,1,0,-0.005022,-0.003968,0,0.000000,0.000000,0.000000,-0.583405,0.551361,0.000000,0.003000,0.006000,0.000000,FlatInitial
12:18:06.634 PM 02/13/2016,Teleop Disabled,0,FALSE,0,NO ERROR,0.000000,0.000000,0.000000,0.000000,Speed,Speed,-1.480000,1.130000,2.780000,2.000000,101.000000,1,0,-0.005022,-0.003968,0,0.000000,0.000000,0.000000,-0.583405,0.551361,0.000000,0.003000,0.006000,0.000000,FlatInitial
12:18:06.734 PM 02/13/2016,Teleop Disabled,0,FALSE,0,NO ERROR,0.000000,0.000000,0.000000,0.000000,Speed,Speed,-1.480000,1.130000,2.780000,2.000000,101.000000,1,0,-0.005022,-0.003968,0,0.000000,0.000000,0.000000,-0.583405,0.551361,0.000000,0.003000,0.006000,0.000000,FlatInitial
12:18:06.833 PM 02/13/2016,Teleop Disabled,0,FALSE,0,NO ERROR,0.000000,0.000000,0.000000,0.000000,Speed,Speed,-1.480000,1.130000,2.780000,2.000000,101.000000,1,0,-0.005022,-0.003968,0,0.000000,0.000000,0.000000,-0.583405,0.551361,0.000000,0.003000,0.006000,0.000000,FlatInitial
12:18:06.933 PM 02/13/2016,Teleop Disabled,0,FALSE,0,NO ERROR,0.000000,0.000000,0.000000,0.000000,Speed,Speed,-1.480000,1.130000,2.780000,2.000000,101.000000,1,0,-0.005022,-0.003968,0,0.000000,0.000000,0.000000,-0.583405,0.551361,0.000000,0.003000,0.006000,0.000000,FlatInitial
12:18:07.033 PM 02/13/2016,Teleop Disabled,0,FALSE,0,NO ERROR,0.000000,0.000000,0.000000,0.000000,Speed,Speed,-1.480000,1.130000,2.780000,2.000000,102.000000,1,0,-0.005022,-0.003968,0,0.000000,0.000000,0.000000,-0.583405,0.551361,0.000000,0.003000,0.006000,0.000000,FlatInitial
12:18:07.134 PM 02/13/2016,Teleop Disabled,0,FALSE,0,NO ERROR,0.000000,0.000000,0.000000,0.000000,Speed,Speed,-1.480000,1.130000,2.780000,2.000000,100.000000,1,0,-0.005022,-0.003968,0,0.000000,0.000000,0.000000,-0.583405,0.551361,0.000000,0.003000,0.006000,0.000000,FlatInitial
12:18:07.233 PM 02/13/2016,Teleop Disabled,0,FALSE,0,NO ERROR,0.000000,0.000000,0.000000,0.000000,Speed,Speed,-1.480000,1.130000,2.780000,2.000000,101.000000,1,0,-0.005022,-0.003968,0,0.000000,0.000000,0.000000,-0.583405,0.551361,0.000000,0.003000,0.006000,0.000000,FlatInitial
12:18:07.334 PM 02/13/2016,Teleop Disabled,0,FALSE,0,NO ERROR,0.000000,0.000000,0.000000,0.000000,Speed,Speed,-1.480000,1.130000,2.780000,2.000000,104.000000,1,0,-0.005022,-0.003968,0,0.000000,0.000000,0.000000,-0.583405,0.551361,0.000000,0.003000,0.006000,0.000000,FlatInitial
12:18:07.434 PM 02/13/2016,Teleop Disabled,0,FALSE,0,NO ERROR,0.000000,0.000000,0.000000,0.000000,Speed,Speed,-1.480000,1.130000,2.780000,2.000000,102.000000,1,0,-0.005022,-0.003968,0,0.000000,0.000000,0.000000,-0.583405,0.551361,0.000000,0.003000,0.006000,0.000000,FlatInitial
12:18:07.535 PM 02/13/2016,Teleop Disabled,0,FALSE,0,NO ERROR,0.000000,0.000000,0.000000,0.000000,Speed,Speed,-1.480000,1.130000,2.780000,2.000000,101.000000,1,0,-0.005022,-0.003968,0,0.000000,0.000000,0.000000,-0.583405,0.551361,0.000000,0.003000,0.006000,0.000000,FlatInitial
12:18:07.635 PM 02/13/2016,Teleop Disabled,0,FALSE,0,NO ERROR,0.000000,0.000000,0.000000,0.000000,Speed,Speed,-1.480000,1.130000,2.780000,2.000000,101.000000,1,0,-0.005022,-0.003968,0,0.000000,0.000000,0.000000,-0.583405,0.551361,0.000000,0.003000,0.006000,0.000000,FlatInitial
12:18:07.736 PM 02/13/2016,Teleop Disabled,0,FALSE,0,NO ERROR,0.000000,0.000000,0.000000,0.000000,Speed,Speed,-1.480000,1.130000,2.780000,2.000000,101.000000,1,0,-0.005022,-0.003968,0,0.000000,0.000000,0.000000,-0.583405,0.551361,0.000000,0.003000,0.006000,0.000000,FlatInitial
12:18:07.835 PM 02/13/2016,Teleop Disabled,0,FALSE,0,NO ERROR,0.000000,0.000000,4000.000000,4000.000000,Speed,Speed,-1.480000,1.130000,2.780000,3.000000,101.000000,1,0,-0.005022,-0.003968,0,0.000000,0.000000,0.000000,-0.583405,0.551361,0.000000,0.003000,0.006000,0.000000,FlatInitial
12:18:07.936 PM 02/13/2016,Teleop Disabled,0,FALSE,0,NO ERROR,0.000000,0.000000,4000.000000,4000.000000,Speed,Speed,-1.480000,1.130000,2.780000,3.000000,101.000000,1,0,-0.005022,-0.003968,0,0.000000,0.000000,0.000000,-0.583405,0.551361,0.000000,0.003000,0.006000,0.000000,FlatInitial
12:18:08.036 PM 02/13/2016,Teleop Disabled,0,FALSE,0,NO ERROR,0.000000,0.000000,4000.000000,4000.000000,Speed,Speed,-1.480000,1.130000,2.780000,3.000000,101.000000,1,0,-0.005022,-0.003968,0,0.000000,0.000000,0.000000,-0.583405,0.551361,0.000000,0.003000,0.006000,0.000000,FlatInitial
12:18:08.136 PM 02/13/2016,Teleop Disabled,0,FALSE,0,NO ERROR,0.000000,0.000000,4000.000000,4000.000000,Speed,Speed,-1.480000,1.130000,2.780000,3.000000,103.000000,1,0,-0.005022,-0.003968,0,0.000000,0.000000,0.000000,-0.583405,0.551361,0.000000,0.003000,0.006000,0.000000,FlatInitial
12:18:08.236 PM 02/13/2016,Teleop Disabled,0,FALSE,0,NO ERROR,0.000000,0.000000,4000.000000,4000.000000,Speed,Speed,-1.480000,1.130000,2.780000,3.000000,101.000000,1,0,-0.005022,-0.003968,0,0.000000,0.000000,0.000000,-0.583405,0.551361,0.000000,0.003000,0.006000,0.000000,FlatInitial
12:18:08.337 PM 02/13/2016,Teleop Disabled,0,TRUE,-44003,<LOCATION>WPI_CameraIssue HTTP Request with Authentication.vi<CALLSTACK>WPI_CameraIssue HTTP Request with Authentication.vi< <WPI_CameraIssue Get.vi< <WPI_CameraSet Image Appearance Property.vi< <WPI_CameraSet Image Size.vi< <Vision Processing.vi< <Robot Main.vi,0.000000,0.000000,4000.000000,4000.000000,Speed,Speed,0.000000,1.150000,2.790000,3.000000,101.000000,1,0,-0.005022,-0.003968,0,0.000000,0.000000,0.000000,-0.583786,0.555923,0.000000,-0.007000,-0.003000,0.004000,FlatInitial
12:18:08.436 PM 02/13/2016,Teleop Disabled,0,FALSE,0,NO ERROR,0.000000,0.000000,4000.000000,4000.000000,Speed,Speed,-0.020000,1.160000,2.770000,3.000000,101.000000,1,0,-0.005022,-0.003968,0,0.000000,0.004257,0.000000,-0.583786,0.555969,0.000000,-0.007000,-0.003000,0.004000,FlatInitial
12:18:08.537 PM 02/13/2016,Teleop Disabled,0,FALSE,0,NO ERROR,0.000000,0.000000,4000.000000,4000.000000,Speed,Speed,-0.020000,1.160000,2.810000,3.000000,108.000000,1,0,-0.005022,-0.003968,0,0.000000,0.000000,0.000000,-0.583786,0.556152,0.000000,0.003000,0.029000,0.001000,FlatInitial
12:18:08.637 PM 02/13/2016,Teleop Disabled,0,FALSE,0,NO ERROR,0.000000,0.000000,4000.000000,4000.000000,Speed,Speed,-0.110000,1.150000,2.820000,3.000000,103.000000,1,0,-0.005022,-0.003968,0,0.000000,0.000000,0.000000,-0.583786,0.556152,0.000000,0.001000,-0.003000,-0.006000,FlatInitial
12:18:08.738 PM 02/13/2016,Teleop Disabled,0,FALSE,0,NO ERROR,0.000000,0.000000,4000.000000,4000.000000,Speed,Speed,-0.030000,1.150000,2.790000,3.000000,103.000000,1,0,-0.005022,-0.003968,0,0.000000,0.000000,0.000000,-0.583786,0.556152,0.000000,0.005000,0.005000,0.000000,FlatInitial
12:18:08.838 PM 02/13/2016,Teleop Disabled,0,FALSE,0,NO ERROR,0.000000,0.000000,4000.000000,4000.000000,Speed,Speed,0.000000,1.120000,2.790000,3.000000,103.000000,1,0,-0.005022,-0.003968,0,-0.002396,-0.019516,0.000000,-0.583817,0.555557,0.000000,0.003000,-0.023000,0.007000,FlatInitial
12:18:08.938 PM 02/13/2016,Teleop Disabled,0,FALSE,0,NO ERROR,0.000000,0.000000,4000.000000,4000.000000,Speed,Speed,0.000000,1.160000,2.710000,3.000000,102.000000,1,0,-0.005022,-0.003968,0,-0.002396,-0.019516,0.000000,-0.583817,0.555557,0.000000,0.031000,-0.007000,-0.013000,FlatInitial
12:18:09.039 PM 02/13/2016,Teleop Disabled,0,FALSE,0,NO ERROR,0.000000,0.000000,4000.000000,4000.000000,Speed,Speed,0.040000,1.130000,2.890000,3.000000,102.000000,1,0,-0.005022,-0.003968,0,0.000000,0.000000,0.000000,-0.583649,0.555786,0.000000,-0.021000,0.051000,-0.013000,FlatInitial
12:18:09.140 PM 02/13/2016,Teleop Disabled,0,FALSE,0,NO ERROR,0.000000,0.000000,4000.000000,4000.000000,Speed,Speed,0.010000,1.150000,2.880000,3.000000,102.000000,1,0,-0.005022,-0.003968,0,0.000000,0.000000,0.000000,-0.583649,0.555939,0.000000,0.006000,0.022000,0.005000,FlatInitial
12:18:09.240 PM 02/13/2016,Teleop Disabled,0,FALSE,0,NO ERROR,0.000000,0.000000,4000.000000,4000.000000,Speed,Speed,0.010000,1.150000,2.880000,3.000000,101.000000,1,0,-0.005022,-0.003968,0,0.000000,0.000000,0.000000,-0.583649,0.555939,0.000000,-0.013000,-0.011000,0.011000,FlatInitial
12:18:09.341 PM 02/13/2016,Teleop Disabled,0,FALSE,0,NO ERROR,0.000000,0.000000,4000.000000,4000.000000,Speed,Speed,0.010000,1.150000,2.840000,3.000000,103.000000,1,0,-0.005022,-0.003968,0,0.000000,0.000000,0.000000,-0.583649,0.555939,0.000000,-0.002000,-0.004000,0.010000,FlatInitial
12:18:09.443 PM 02/13/2016,Teleop Disabled,0,FALSE,0,NO ERROR,0.000000,0.000000,4000.000000,4000.000000,Speed,Speed,0.000000,1.140000,2.840000,3.000000,102.000000,1,0,-0.005022,-0.003968,0,0.000000,0.000000,0.000000,-0.583649,0.555939,0.000000,0.000000,-0.006000,0.000000,FlatInitial
12:18:09.543 PM 02/13/2016,Teleop Disabled,0,FALSE,0,NO ERROR,0.000000,0.000000,4000.000000,4000.000000,Speed,Speed,0.000000,1.140000,2.840000,3.000000,101.000000,1,0,-0.005022,-0.003968,0,0.000000,0.000000,0.000000,-0.583649,0.555939,0.000000,0.000000,0.008000,0.010000,FlatInitial
12:18:09.643 PM 02/13/2016,Teleop Disabled,0,FALSE,0,NO ERROR,0.000000,0.000000,4000.000000,4000.000000,Speed,Speed,0.010000,1.150000,2.860000,3.000000,102.000000,1,0,-0.005022,-0.003968,0,0.000000,0.000000,0.000000,-0.583649,0.555939,0.000000,-0.001000,0.004000,0.003000,FlatInitial
12:18:09.743 PM 02/13/2016,Teleop Disabled,0,FALSE,0,NO ERROR,0.000000,0.000000,4000.000000,4000.000000,Speed,Speed,0.000000,1.150000,2.860000,3.000000,102.000000,1,0,-0.005022,-0.003968,0,0.000000,0.000000,0.000000,-0.583649,0.555939,0.000000,0.005000,0.003000,0.009000,FlatInitial
12:18:09.843 PM 02/13/2016,Teleop Disabled,0,FALSE,0,NO ERROR,0.000000,0.000000,4000.000000,4000.000000,Speed,Speed,0.010000,1.140000,2.860000,3.000000,101.000000,1,0,-0.005022,-0.003968,0,0.000000,0.000000,0.000000,-0.583649,0.555939,0.000000,-0.001000,-0.002000,0.000000,FlatInitial
12:18:09.943 PM 02/13/2016,Teleop Disabled,0,FALSE,0,NO ERROR,0.000000,0.000000,4000.000000,4000.000000,Speed,Speed,0.010000,1.140000,2.860000,3.000000,104.000000,1,0,-0.005022,-0.003968,0,0.000000,0.000000,0.000000,-0.583649,0.555939,0.000000,0.001000,-0.002000,0.007000,FlatInitial
12:18:10.043 PM 02/13/2016,Teleop Disabled,0,FALSE,0,NO ERROR,0.000000,0.000000,4000.000000,4000.000000,Speed,Speed,0.000000,1.150000,2.870000,3.000000,101.000000,1,0,-0.005022,-0.003968,0,0.000000,0.000000,0.000000,-0.583649,0.555939,0.000000,0.000000,0.001000,0.000000,FlatInitial
12:18:10.144 PM 02/13/2016,Teleop Disabled,0,FALSE,0,NO ERROR,0.000000,0.000000,4000.000000,4000.000000,Speed,Speed,0.000000,1.140000,2.870000,3.000000,101.000000,1,0,-0.005022,-0.003968,0,0.000000,0.000000,0.000000,-0.583649,0.555939,0.000000,0.000000,-0.003000,0.003000,FlatInitial
12:18:10.244 PM 02/13/2016,Teleop Disabled,0,FALSE,0,NO ERROR,0.000000,0.000000,4000.000000,4000.000000,Speed,Speed,0.000000,1.150000,2.860000,3.000000,102.000000,1,0,-0.005022,-0.003968,0,0.000000,0.000000,0.000000,-0.583649,0.555939,0.000000,0.000000,0.000000,0.000000,FlatInitial
12:18:10.345 PM 02/13/2016,Teleop Disabled,0,FALSE,0,NO ERROR,0.000000,0.000000,4000.000000,4000.000000,Speed,Speed,0.000000,1.130000,2.860000,3.000000,103.000000,1,0,-0.005022,-0.003968,0,0.000000,0.000000,0.000000,-0.583649,0.555939,0.000000,-0.003000,0.001000,0.001000,FlatInitial
12:18:10.445 PM 02/13/2016,Teleop Disabled,0,FALSE,0,NO ERROR,0.000000,0.000000,4000.000000,4000.000000,Speed,Speed,0.000000,1.140000,2.870000,3.000000,110.000000,1,0,-0.005022,-0.003968,0,0.000000,0.000000,0.000000,-0.583649,0.555939,0.000000,0.002000,0.002000,0.000000,FlatInitial
12:18:10.545 PM 02/13/2016,Teleop Disabled,0,FALSE,0,NO ERROR,0.000000,0.000000,4000.000000,4000.000000,Speed,Speed,0.000000,1.150000,2.870000,3.000000,101.000000,1,0,-0.005022,-0.003968,0,0.000000,0.000000,0.000000,-0.583649,0.555939,0.000000,-0.001000,-0.002000,0.000000,FlatInitial
12:18:10.645 PM 02/13/2016,Teleop Disabled,0,FALSE,0,NO ERROR,0.000000,0.000000,4000.000000,4000.000000,Speed,Speed,0.000000,1.150000,2.870000,3.000000,101.000000,1,0,-0.005022,-0.003968,0,0.000000,0.000000,0.000000,-0.583649,0.555939,0.000000,0.002000,0.000000,-0.001000,FlatInitial
12:18:10.745 PM 02/13/2016,Teleop Disabled,0,FALSE,0,NO ERROR,0.000000,0.000000,4000.000000,4000.000000,Speed,Speed,0.000000,1.140000,2.870000,3.000000,101.000000,1,0,-0.005022,-0.003968,0,0.000000,0.000000,0.000000,-0.583649,0.555939,0.000000,-0.001000,-0.001000,0.001000,FlatInitial
12:18:10.847 PM 02/13/2016,Teleop Disabled,0,FALSE,0,NO ERROR,0.000000,0.000000,4000.000000,4000.000000,Speed,Speed,0.000000,1.140000,2.870000,3.000000,102.000000,1,0,-0.005022,-0.003968,0,0.000000,0.000000,0.000000,-0.583649,0.555939,0.000000,0.000000,0.000000,-0.001000,FlatInitial
12:18:10.947 PM 02/13/2016,Teleop Disabled,0,FALSE,0,NO ERROR,0.000000,0.000000,4000.000000,4000.000000,Speed,Speed,0.000000,1.140000,2.870000,3.000000,102.000000,1,0,-0.005022,-0.003968,0,0.000000,0.000000,0.000000,-0.583649,0.555939,0.000000,0.000000,-0.001000,0.001000,FlatInitial
12:18:11.046 PM 02/13/2016,Teleop Disabled,0,FALSE,0,NO ERROR,0.000000,0.000000,4000.000000,4000.000000,Speed,Speed,0.000000,1.150000,2.870000,3.000000,102.000000,1,0,-0.005022,-0.003968,0,0.000000,0.000000,0.000000,-0.583649,0.555939,0.000000,0.000000,0.000000,0.001000,FlatInitial
12:18:11.146 PM 02/13/2016,Teleop Disabled,0,FALSE,0,NO ERROR,0.000000,0.000000,4000.000000,4000.000000,Speed,Speed,0.000000,1.150000,2.870000,3.000000,103.000000,1,0,-0.005022,-0.003968,0,0.000000,0.000000,0.000000,-0.583649,0.555939,0.000000,0.001000,0.000000,0.003000,FlatInitial
12:18:11.246 PM 02/13/2016,Teleop Disabled,0,FALSE,0,NO ERROR,0.000000,0.000000,4000.000000,4000.000000,Speed,Speed,0.000000,1.150000,2.870000,3.000000,102.000000,1,0,-0.005022,-0.003968,0,0.000000,0.000000,0.000000,-0.583649,0.555939,0.000000,0.002000,0.000000,0.002000,FlatInitial
12:18:11.346 PM 02/13/2016,Teleop Disabled,0,FALSE,0,NO ERROR,0.000000,0.000000,4000.000000,4000.000000,Speed,Speed,0.000000,1.150000,2.880000,3.000000,101.000000,1,0,-0.005022,-0.003968,0,0.000000,0.000000,0.000000,-0.583649,0.555939,0.000000,0.000000,-0.002000,0.000000,FlatInitial
12:18:11.446 PM 02/13/2016,Teleop Disabled,0,FALSE,0,NO ERROR,0.000000,0.000000,4000.000000,4000.000000,Speed,Speed,0.000000,1.150000,2.880000,3.000000,101.000000,1,0,-0.005022,-0.003968,0,0.000000,0.000000,0.000000,-0.583649,0.555939,0.000000,-0.002000,0.000000,0.004000,FlatInitial
12:18:11.546 PM 02/13/2016,Teleop Disabled,0,FALSE,0,NO ERROR,0.000000,0.000000,4000.000000,4000.000000,Speed,Speed,0.000000,1.150000,2.880000,3.000000,102.000000,1,0,-0.005022,-0.003968,0,0.000000,0.000000,0.000000,-0.583649,0.555939,0.000000,-0.003000,0.000000,-0.002000,FlatInitial
12:18:11.647 PM 02/13/2016,Teleop Disabled,0,FALSE,0,NO ERROR,0.000000,0.000000,4000.000000,4000.000000,Speed,Speed,0.000000,1.140000,2.870000,3.000000,102.000000,1,0,-0.005022,-0.003968,0,0.000000,0.000000,0.000000,-0.583649,0.555939,0.000000,0.001000,0.001000,-0.002000,FlatInitial
12:18:11.746 PM 02/13/2016,Teleop Disabled,0,FALSE,0,NO ERROR,0.000000,0.000000,4000.000000,4000.000000,Speed,Speed,0.000000,1.140000,2.870000,3.000000,102.000000,1,0,-0.005022,-0.003968,0,0.000000,0.000000,0.000000,-0.583649,0.555939,0.000000,0.000000,0.000000,0.002000,FlatInitial
12:18:11.847 PM 02/13/2016,Teleop Disabled,0,FALSE,0,NO ERROR,0.000000,0.000000,4000.000000,4000.000000,Speed,Speed,0.000000,1.140000,2.870000,3.000000,102.000000,1,0,-0.005022,-0.003968,0,0.000000,0.000000,0.000000,-0.583649,0.555939,0.000000,0.002000,0.002000,0.010000,FlatInitial
12:18:11.947 PM 02/13/2016,Teleop Disabled,0,FALSE,0,NO ERROR,0.000000,0.000000,4000.000000,4000.000000,Speed,Speed,0.000000,1.160000,2.870000,3.000000,103.000000,1,0,-0.005022,-0.003968,0,0.000000,0.000000,0.000000,-0.583649,0.555939,0.000000,0.000000,0.005000,0.005000,FlatInitial
12:18:12.046 PM 02/13/2016,Teleop Disabled,0,FALSE,0,NO ERROR,0.000000,0.000000,4000.000000,4000.000000,Speed,Speed,0.000000,1.140000,2.870000,3.000000,102.000000,1,0,-0.005022,-0.003968,0,0.000000,0.000000,0.000000,-0.583649,0.555939,0.000000,-0.002000,-0.003000,0.005000,FlatInitial
12:18:12.147 PM 02/13/2016,Teleop Disabled,0,FALSE,0,NO ERROR,0.000000,0.000000,4000.000000,4000.000000,Speed,Speed,0.000000,1.150000,2.860000,3.000000,102.000000,1,0,-0.005022,-0.003968,0,0.000000,0.000000,0.000000,-0.583649,0.555939,0.000000,0.002000,0.002000,0.009000,FlatInitial
12:18:12.246 PM 02/13/2016,Teleop Enabled,0,FALSE,0,NO ERROR,0.000000,0.000000,4000.000000,4000.000000,Speed,Speed,0.000000,1.130000,2.870000,3.000000,102.000000,1,0,-0.005022,-0.003968,0,0.000000,0.000000,0.000000,-0.583649,0.555939,0.000000,-0.005000,0.001000,0.001000,FlatInitial
12:18:12.347 PM 02/13/2016,Teleop Enabled,0,FALSE,0,NO ERROR,0.000000,0.000000,4000.000000,4000.000000,Speed,Speed,-0.010000,1.140000,2.870000,3.000000,101.000000,1,0,-0.005022,-0.003968,0,0.000000,0.000000,0.000000,-0.583649,0.555939,0.000000,0.003000,0.001000,-0.005000,FlatInitial
12:18:12.446 PM 02/13/2016,Teleop Enabled,0,FALSE,0,NO ERROR,0.000000,0.000000,4000.000000,4000.000000,Speed,Speed,-0.010000,1.130000,2.870000,3.000000,103.000000,1,0,-0.005022,-0.003968,0,0.000000,-0.006195,0.000000,-0.583649,0.555847,0.000000,0.000000,0.003000,0.046000,FlatInitial
12:18:12.546 PM 02/13/2016,Teleop Enabled,0,FALSE,0,NO ERROR,0.000000,0.000000,4000.000000,4000.000000,Speed,Speed,-0.010000,1.160000,2.850000,3.000000,101.000000,1,0,-0.005022,-0.003968,0,0.004211,-0.009583,0.000000,-0.583588,0.555603,0.000000,0.011000,0.001000,0.028000,FlatInitial
12:18:12.648 PM 02/13/2016,Teleop Enabled,0,FALSE,0,NO ERROR,0.000000,0.000000,4000.000000,4000.000000,Speed,Speed,-0.010000,1.140000,2.850000,3.000000,102.000000,1,0,-0.005022,-0.003968,0,0.000000,0.000000,0.000000,-0.583542,0.555603,0.000000,-0.011000,0.007000,0.006000,FlatInitial
12:18:12.748 PM 02/13/2016,Teleop Enabled,0,FALSE,0,NO ERROR,0.000000,0.000000,4000.000000,4000.000000,Speed,Speed,-0.010000,1.150000,2.860000,3.000000,103.000000,1,0,-0.005022,-0.003968,0,0.000000,0.000000,0.000000,-0.583542,0.555603,0.000000,-0.003000,0.010000,-0.012000,FlatInitial
12:18:12.848 PM 02/13/2016,Teleop Enabled,0,FALSE,0,NO ERROR,0.000000,0.000000,4000.000000,4000.000000,Speed,Speed,-0.010000,1.150000,2.860000,3.000000,101.000000,1,0,-0.005022,-0.003968,0,0.000000,0.000000,0.000000,-0.583542,0.555603,0.000000,0.001000,0.004000,-0.006000,FlatInitial
12:18:12.949 PM 02/13/2016,Teleop Enabled,0,FALSE,0,NO ERROR,0.000000,0.000000,4000.000000,4000.000000,Speed,Speed,-0.010000,1.140000,2.870000,3.000000,102.000000,1,0,-0.005022,-0.003968,0,0.000000,0.000000,0.000000,-0.583542,0.555603,0.000000,0.005000,0.006000,-0.017000,FlatInitial
12:18:13.050 PM 02/13/2016,Teleop Enabled,0,FALSE,0,NO ERROR,0.000000,0.000000,4000.000000,4000.000000,Speed,Speed,-0.010000,1.150000,2.870000,3.000000,102.000000,1,0,-0.005022,-0.003968,0,0.000000,0.000000,0.000000,-0.583542,0.555603,0.000000,0.002000,0.000000,-0.006000,FlatInitial
12:18:13.150 PM 02/13/2016,Teleop Enabled,0,FALSE,0,NO ERROR,0.000000,0.000000,4000.000000,4000.000000,Speed,Speed,-0.010000,1.140000,2.870000,3.000000,104.000000,1,0,-0.005022,-0.003968,0,0.000000,0.000000,0.000000,-0.583542,0.555603,0.000000,0.003000,0.001000,-0.006000,FlatInitial
12:18:13.250 PM 02/13/2016,Teleop Enabled,0,FALSE,0,NO ERROR,0.000000,0.000000,4000.000000,4000.000000,Speed,Speed,-0.010000,1.140000,2.870000,3.000000,102.000000,1,0,-0.005022,-0.003968,0,0.000000,0.000000,0.000000,-0.583542,0.555603,0.000000,0.001000,-0.003000,0.007000,FlatInitial
12:18:13.352 PM 02/13/2016,Teleop Enabled,0,FALSE,0,NO ERROR,0.000000,0.000000,4000.000000,4000.000000,Speed,Speed,-0.010000,1.150000,2.880000,3.000000,101.000000,1,0,-0.005022,-0.003968,0,0.000000,0.000000,0.000000,-0.583542,0.555603,0.000000,0.000000,-0.002000,0.008000,FlatInitial
12:18:13.454 PM 02/13/2016,Teleop Enabled,0,FALSE,0,NO ERROR,0.000000,0.000000,4000.000000,4000.000000,Speed,Speed,-0.010000,1.150000,2.880000,3.000000,103.000000,1,0,-0.005022,-0.003968,0,0.000000,0.000000,0.000000,-0.583542,0.555603,0.000000,0.000000,0.000000,0.005000,FlatInitial
12:18:13.554 PM 02/13/2016,Teleop Enabled,0,FALSE,0,NO ERROR,0.000000,0.000000,4000.000000,4000.000000,Speed,Speed,-0.010000,1.140000,2.880000,3.000000,101.000000,1,0,-0.005022,-0.003968,0,0.000000,0.000000,0.000000,-0.583542,0.555603,0.000000,-0.002000,0.003000,0.001000,FlatInitial
12:18:13.654 PM 02/13/2016,Teleop Enabled,0,FALSE,0,NO ERROR,0.000000,0.000000,4000.000000,4000.000000,Speed,Speed,-0.010000,1.130000,2.880000,3.000000,101.000000,1,0,-0.005022,-0.003968,0,0.000000,0.000000,0.000000,-0.583542,0.555603,0.000000,-0.012000,-0.017000,0.009000,FlatInitial
12:18:13.754 PM 02/13/2016,Teleop Enabled,0,FALSE,0,NO ERROR,0.000000,0.000000,4000.000000,4000.000000,Speed,Speed,0.000000,1.130000,2.880000,3.000000,101.000000,1,0,-0.005022,-0.003968,0,0.000000,0.000000,0.000000,-0.583542,0.555603,0.000000,0.012000,-0.007000,0.017000,FlatInitial
12:18:13.855 PM 02/13/2016,Teleop Enabled,0,FALSE,0,NO ERROR,0.000000,0.000000,4000.000000,4000.000000,Speed,Speed,-0.010000,1.130000,2.880000,3.000000,102.000000,1,0,-0.005022,-0.003968,0,0.000000,0.000000,0.000000,-0.583542,0.555603,0.000000,0.000000,-0.012000,0.023000,FlatInitial
12:18:13.956 PM 02/13/2016,Teleop Enabled,0,FALSE,0,NO ERROR,0.000000,0.000000,4000.000000,4000.000000,Speed,Speed,-0.010000,1.130000,2.870000,3.000000,102.000000,1,0,-0.005022,-0.003968,0,0.000000,0.000000,0.000000,-0.583542,0.555603,0.000000,0.002000,-0.007000,0.000000,FlatInitial
12:18:14.057 PM 02/13/2016,Teleop Enabled,0,FALSE,0,NO ERROR,0.000000,0.000000,4000.000000,4000.000000,Speed,Speed,-0.010000,1.130000,2.880000,3.000000,102.000000,1,0,-0.005022,-0.003968,0,0.000000,0.000000,0.000000,-0.583542,0.555603,0.000000,-0.001000,-0.005000,0.003000,FlatInitial
12:18:14.156 PM 02/13/2016,Teleop Enabled,0,FALSE,0,NO ERROR,0.000000,0.000000,4000.000000,4000.000000,Speed,Speed,-0.010000,1.140000,2.880000,3.000000,102.000000,1,0,-0.005022,-0.003968,0,0.000000,0.000000,0.000000,-0.583542,0.555603,0.000000,-0.003000,-0.003000,0.001000,FlatInitial
12:18:14.256 PM 02/13/2016,Teleop Enabled,0,FALSE,0,NO ERROR,0.000000,0.000000,4000.000000,4000.000000,Speed,Speed,-0.010000,1.130000,2.870000,3.000000,101.000000,1,0,-0.005022,-0.003968,0,0.000000,0.000000,0.000000,-0.583542,0.555603,0.000000,0.001000,-0.005000,0.006000,FlatInitial
12:18:14.357 PM 02/13/2016,Teleop Enabled,0,FALSE,0,NO ERROR,0.000000,0.000000,4000.000000,4000.000000,Speed,Speed,-0.010000,1.130000,2.870000,3.000000,104.000000,1,0,-0.005022,-0.003968,0,0.000000,0.000000,0.000000,-0.583542,0.555603,0.000000,-0.002000,-0.002000,0.002000,FlatInitial
12:18:14.458 PM 02/13/2016,Teleop Enabled,0,FALSE,0,NO ERROR,0.000000,0.000000,4000.000000,4000.000000,Speed,Speed,-0.010000,1.130000,2.870000,3.000000,102.000000,1,0,-0.005022,-0.003968,0,0.000000,0.000000,0.000000,-0.583542,0.555603,0.000000,-0.002000,-0.003000,0.000000,FlatInitial
12:18:14.557 PM 02/13/2016,Teleop Enabled,0,FALSE,0,NO ERROR,0.000000,0.000000,4000.000000,4000.000000,Speed,Speed,-0.010000,1.130000,2.860000,3.000000,100.000000,1,0,-0.005022,-0.003968,0,0.000000,0.000000,0.000000,-0.583542,0.555603,0.000000,0.000000,-0.002000,0.004000,FlatInitial
12:18:14.658 PM 02/13/2016,Teleop Enabled,0,FALSE,0,NO ERROR,0.000000,0.000000,4000.000000,4000.000000,Speed,Speed,-0.010000,1.130000,2.870000,3.000000,101.000000,1,0,-0.005022,-0.003968,0,0.000000,0.000000,0.000000,-0.583542,0.555603,0.000000,0.001000,-0.001000,0.004000,FlatInitial
12:18:14.759 PM 02/13/2016,Teleop Enabled,0,FALSE,0,NO ERROR,0.000000,0.000000,4000.000000,4000.000000,Speed,Speed,-0.010000,1.130000,2.870000,3.000000,102.000000,1,0,-0.005022,-0.003968,0,0.000000,0.000000,0.000000,-0.583542,0.555603,0.000000,0.000000,-0.005000,0.000000,FlatInitial
12:18:14.859 PM 02/13/2016,Teleop Enabled,0,FALSE,0,NO ERROR,0.000000,0.000000,4000.000000,4000.000000,Speed,Speed,-0.010000,1.130000,2.860000,3.000000,104.000000,1,0,-0.005022,-0.003968,0,0.000000,0.000000,0.000000,-0.583542,0.555603,0.000000,-0.001000,0.000000,0.001000,FlatInitial
12:18:14.959 PM 02/13/2016,Teleop Enabled,0,FALSE,0,NO ERROR,0.000000,0.000000,4000.000000,4000.000000,Speed,Speed,-0.010000,1.130000,2.860000,3.000000,102.000000,1,0,-0.005022,-0.003968,0,0.000000,0.000000,0.000000,-0.583542,0.555603,0.000000,-0.001000,-0.001000,0.001000,FlatInitial
12:18:15.059 PM 02/13/2016,Teleop Enabled,0,FALSE,0,NO ERROR,0.000000,0.000000,4000.000000,4000.000000,Speed,Speed,-0.010000,1.130000,2.860000,3.000000,101.000000,1,0,-0.005022,-0.003968,0,0.000000,0.000000,0.000000,-0.583542,0.555603,0.000000,0.000000,0.001000,-0.001000,FlatInitial
12:18:15.159 PM 02/13/2016,Teleop Enabled,0,FALSE,0,NO ERROR,0.000000,0.000000,4000.000000,4000.000000,Speed,Speed,-0.010000,1.120000,2.860000,3.000000,102.000000,1,0,-0.005022,-0.003968,0,0.000000,0.000000,0.000000,-0.583542,0.555603,0.000000,0.001000,0.001000,0.000000,FlatInitial
12:18:15.260 PM 02/13/2016,Teleop Enabled,0,FALSE,0,NO ERROR,0.000000,0.000000,4000.000000,4000.000000,Speed,Speed,-0.010000,1.120000,2.860000,3.000000,103.000000,1,0,-0.005022,-0.003968,0,0.000000,0.000000,0.000000,-0.583542,0.555603,0.000000,0.002000,0.000000,0.000000,FlatInitial
12:18:15.360 PM 02/13/2016,Teleop Enabled,0,FALSE,0,NO ERROR,0.000000,0.000000,4000.000000,4000.000000,Speed,Speed,-0.010000,1.130000,2.860000,3.000000,101.000000,1,0,-0.005022,-0.003968,0,0.000000,0.000000,0.000000,-0.583542,0.555603,0.000000,-0.001000,0.000000,0.001000,FlatInitial
12:18:15.460 PM 02/13/2016,Teleop Enabled,0,FALSE,0,NO ERROR,0.000000,0.000000,4000.000000,4000.000000,Speed,Speed,-0.010000,1.130000,2.860000,3.000000,103.000000,1,0,-0.005022,-0.003968,0,0.000000,0.000000,0.000000,-0.583542,0.555603,0.000000,-0.001000,0.000000,0.005000,FlatInitial
12:18:15.561 PM 02/13/2016,Teleop Enabled,0,FALSE,0,NO ERROR,0.000000,0.000000,4000.000000,4000.000000,Speed,Speed,-0.010000,1.130000,2.860000,3.000000,102.000000,1,0,-0.005022,-0.003968,0,0.000000,0.000000,0.000000,-0.583542,0.555603,0.000000,0.000000,0.001000,0.000000,FlatInitial
12:18:15.662 PM 02/13/2016,Teleop Enabled,0,FALSE,0,NO ERROR,0.000000,0.000000,4000.000000,4000.000000,Speed,Speed,-0.010000,1.130000,2.850000,3.000000,101.000000,1,0,-0.005022,-0.003968,0,0.000000,0.000000,0.000000,-0.583542,0.555603,0.000000,-0.005000,-0.003000,-0.005000,FlatInitial
12:18:15.763 PM 02/13/2016,Teleop Enabled,0,FALSE,0,NO ERROR,0.000000,0.000000,4000.000000,4000.000000,Speed,Speed,-0.010000,1.130000,2.850000,3.000000,102.000000,1,0,-0.005022,-0.003968,0,0.000000,0.000000,0.000000,-0.583542,0.555603,0.000000,0.000000,0.001000,0.002000,FlatInitial
12:18:15.864 PM 02/13/2016,Teleop Enabled,0,FALSE,0,NO ERROR,0.000000,0.000000,4000.000000,4000.000000,Speed,Speed,-0.020000,1.130000,2.850000,3.000000,101.000000,1,0,-0.005022,-0.003968,0,0.000000,0.000000,0.000000,-0.583542,0.555603,0.000000,-0.001000,-0.001000,-0.004000,FlatInitial
12:18:15.963 PM 02/13/2016,Teleop Enabled,0,FALSE,0,NO ERROR,0.000000,0.000000,4000.000000,4000.000000,Speed,Speed,-0.020000,1.130000,2.850000,3.000000,101.000000,1,0,-0.005022,-0.003968,0,0.000000,0.000000,0.000000,-0.583542,0.555603,0.000000,0.001000,0.001000,0.004000,FlatInitial
12:18:16.063 PM 02/13/2016,Teleop Enabled,0,FALSE,0,NO ERROR,0.000000,0.000000,4000.000000,4000.000000,Speed,Speed,-0.020000,1.140000,2.850000,3.000000,102.000000,1,0,-0.005022,-0.003968,0,0.000000,0.000000,0.000000,-0.583542,0.555603,0.000000,0.000000,0.001000,0.002000,FlatInitial
12:18:16.163 PM 02/13/2016,Teleop Enabled,0,FALSE,0,NO ERROR,0.000000,0.000000,4000.000000,4000.000000,Speed,Speed,-0.020000,1.140000,2.850000,3.000000,101.000000,1,0,-0.005022,-0.003968,0,0.000000,0.000000,0.000000,-0.583542,0.555603,0.000000,0.000000,-0.002000,0.002000,FlatInitial
12:18:16.264 PM 02/13/2016,Teleop Enabled,0,FALSE,0,NO ERROR,0.000000,0.000000,4000.000000,4000.000000,Speed,Speed,-0.020000,1.140000,2.850000,3.000000,101.000000,1,0,-0.005022,-0.003968,0,0.000000,0.000000,0.000000,-0.583542,0.555603,0.000000,0.000000,0.000000,0.000000,FlatInitial
12:18:16.365 PM 02/13/2016,Teleop Enabled,0,FALSE,0,NO ERROR,0.000000,0.000000,4000.000000,4000.000000,Speed,Speed,-0.020000,1.140000,2.850000,3.000000,100.000000,1,0,-0.005022,-0.003968,0,0.000000,0.000000,0.000000,-0.583542,0.555603,0.000000,0.001000,0.000000,0.000000,FlatInitial
12:18:16.466 PM 02/13/2016,Teleop Enabled,0,FALSE,0,NO ERROR,0.000000,0.000000,4000.000000,4000.000000,Speed,Speed,-0.020000,1.140000,2.850000,3.000000,103.000000,1,0,-0.005022,-0.003968,0,0.000000,0.000000,0.000000,-0.583542,0.555603,0.000000,0.000000,-0.001000,0.003000,FlatInitial
12:18:16.565 PM 02/13/2016,Teleop Enabled,0,FALSE,0,NO ERROR,0.000000,0.000000,4000.000000,4000.000000,Speed,Speed,-0.030000,1.140000,2.850000,3.000000,103.000000,1,0,-0.005022,-0.003968,0,0.000000,0.000000,0.000000,-0.583542,0.555603,0.000000,0.004000,0.003000,-0.001000,FlatInitial
12:18:16.665 PM 02/13/2016,Teleop Enabled,0,FALSE,0,NO ERROR,0.000000,0.000000,4000.000000,4000.000000,Speed,Speed,-0.030000,1.140000,2.850000,3.000000,102.000000,1,0,-0.005022,-0.003968,0,0.000000,0.000000,0.000000,-0.583542,0.555603,0.000000,0.000000,0.000000,0.002000,FlatInitial
12:18:16.766 PM 02/13/2016,Teleop Enabled,0,FALSE,0,NO ERROR,0.000000,0.000000,4000.000000,4000.000000,Speed,Speed,-0.020000,1.140000,2.850000,3.000000,102.000000,1,0,-0.005022,-0.003968,0,0.000000,0.000000,0.000000,-0.583542,0.555603,0.000000,-0.002000,0.000000,0.001000,FlatInitial
12:18:16.866 PM 02/13/2016,Teleop Enabled,0,FALSE,0,NO ERROR,0.000000,0.000000,4000.000000,4000.000000,Speed,Speed,-0.020000,1.140000,2.850000,3.000000,101.000000,1,0,-0.005022,-0.003968,0,0.000000,0.000000,0.000000,-0.583542,0.555603,0.000000,-0.002000,0.000000,0.000000,FlatInitial
12:18:16.967 PM 02/13/2016,Teleop Enabled,0,FALSE,0,NO ERROR,0.000000,0.000000,4000.000000,4000.000000,Speed,Speed,-0.020000,1.140000,2.860000,3.000000,102.000000,1,0,-0.005022,-0.003968,0,0.000000,0.000000,0.000000,-0.583542,0.555603,0.000000,0.002000,0.000000,-0.001000,FlatInitial
12:18:17.067 PM 02/13/2016,Teleop Enabled,0,FALSE,0,NO ERROR,0.000000,0.000000,4000.000000,4000.000000,Speed,Speed,-0.030000,1.140000,2.850000,3.000000,102.000000,1,0,-0.005022,-0.003968,0,0.000000,0.000000,0.000000,-0.583542,0.555603,0.000000,0.048000,0.035000,0.003000,FlatInitial
12:18:17.168 PM 02/13/2016,Teleop Enabled,0,FALSE,0,NO ERROR,0.000000,0.000000,4000.000000,4000.000000,Speed,Speed,0.080000,1.210000,2.990000,3.000000,101.000000,1,0,-0.005022,-0.003968,0,0.026718,-0.027664,0.000000,-0.582504,0.554382,0.000000,-0.130000,0.040000,0.124000,FlatInitial
12:18:17.269 PM 02/13/2016,Teleop Enabled,0,FALSE,0,NO ERROR,0.000000,0.000000,4000.000000,4000.000000,Speed,Speed,0.140000,1.090000,3.160000,3.000000,103.000000,1,0,-0.005022,-0.003968,0,0.007980,0.008743,0.000000,-0.582245,0.554016,0.000000,0.081000,-0.005000,0.045000,FlatInitial
12:18:17.370 PM 02/13/2016,Teleop Enabled,0,FALSE,0,NO ERROR,0.000000,0.000000,4000.000000,4000.000000,Speed,Speed,0.100000,1.130000,3.030000,3.000000,102.000000,1,0,-0.005022,-0.003968,0,0.003632,0.023651,0.000000,-0.581985,0.554642,0.000000,-0.027000,0.000000,-0.002000,FlatInitial
12:18:17.470 PM 02/13/2016,Teleop Enabled,0,FALSE,0,NO ERROR,0.000000,0.000000,4000.000000,4000.000000,Speed,Speed,-0.110000,1.120000,3.110000,3.000000,101.000000,1,0,-0.005022,-0.003968,0,-0.003403,0.000000,0.000000,-0.581985,0.555283,0.000000,-0.098000,0.029000,-0.029000,FlatInitial
12:18:17.570 PM 02/13/2016,Teleop Enabled,0,FALSE,0,NO ERROR,0.000000,0.000000,4000.000000,4000.000000,Speed,Speed,-0.030000,1.030000,2.060000,3.000000,101.000000,1,0,-0.005022,-0.003968,0,-0.057755,0.033264,0.000000,-0.583954,0.556290,0.000000,-0.069000,-0.026000,-0.120000,FlatInitial
12:18:17.670 PM 02/13/2016,Teleop Enabled,0,FALSE,0,NO ERROR,0.000000,0.000000,4000.000000,4000.000000,Speed,Speed,0.090000,1.130000,1.190000,3.000000,102.000000,1,0,-0.005022,-0.003968,0,-0.067047,-0.016846,0.000000,-0.587036,0.557190,0.000000,-0.066000,-0.235000,-0.102000,FlatInitial
12:18:17.771 PM 02/13/2016,Teleop Enabled,0,FALSE,0,NO ERROR,0.000000,0.000000,4000.000000,4000.000000,Speed,Speed,0.040000,1.110000,1.710000,3.000000,102.000000,1,0,-0.005022,-0.003968,0,-0.028763,-0.078537,0.000000,-0.589447,0.554153,0.000000,0.086000,-0.018000,-0.100000,FlatInitial
12:18:17.870 PM 02/13/2016,Teleop Enabled,0,FALSE,0,NO ERROR,0.000000,0.000000,4000.000000,4000.000000,Speed,Speed,0.100000,1.150000,2.670000,3.000000,104.000000,1,0,-0.005022,-0.003968,0,-0.052673,-0.135620,0.000000,-0.591522,0.548355,0.000000,-0.083000,0.034000,-0.367000,FlatInitial
12:18:17.970 PM 02/13/2016,Teleop Enabled,0,FALSE,0,NO ERROR,0.000000,0.000000,4000.000000,4000.000000,Speed,Speed,0.110000,1.140000,2.890000,3.000000,102.000000,1,0,-0.005022,-0.003968,0,-0.064117,-0.053879,0.000000,-0.594666,0.543900,0.000000,0.002000,-0.027000,0.142000,FlatInitial
12:18:18.070 PM 02/13/2016,Teleop Enabled,0,FALSE,0,NO ERROR,0.000000,0.000000,4000.000000,4000.000000,Speed,Speed,0.140000,1.110000,2.830000,3.000000,101.000000,1,0,-0.005022,-0.003968,0,-0.059128,-0.037170,0.000000,-0.597504,0.541245,0.000000,0.043000,0.071000,-0.073000,FlatInitial
12:18:18.171 PM 02/13/2016,Teleop Enabled,0,FALSE,0,NO ERROR,0.000000,0.000000,4000.000000,4000.000000,Speed,Speed,0.040000,1.120000,2.700000,3.000000,101.000000,1,0,-0.005022,-0.003968,0,-0.056427,-0.052963,0.000000,-0.600922,0.538712,0.000000,-0.005000,-0.031000,0.058000,FlatInitial
12:18:18.272 PM 02/13/2016,Teleop Enabled,0,FALSE,0,NO ERROR,0.000000,0.000000,4000.000000,4000.000000,Speed,Speed,0.040000,1.130000,2.750000,3.000000,102.000000,1,0,-0.005022,-0.003968,0,0.000000,-0.002136,0.000000,-0.601501,0.538147,0.000000,0.016000,-0.004000,0.011000,FlatInitial
12:18:18.371 PM 02/13/2016,Teleop Enabled,0,FALSE,0,NO ERROR,0.000000,0.000000,4000.000000,4000.000000,Speed,Speed,0.090000,1.130000,2.680000,3.000000,103.000000,1,0,-0.005022,-0.003968,0,0.000000,-0.020340,0.000000,-0.601501,0.537323,0.000000,0.005000,0.002000,0.020000,FlatInitial
12:18:18.472 PM 02/13/2016,Teleop Enabled,0,FALSE,0,NO ERROR,0.000000,0.000000,4000.000000,4000.000000,Speed,Speed,0.030000,1.130000,2.590000,3.000000,102.000000,1,0,-0.005022,-0.003968,0,0.000000,0.000000,0.000000,-0.601501,0.537109,0.000000,-0.010000,0.012000,-0.011000,FlatInitial
12:18:18.572 PM 02/13/2016,Teleop Enabled,0,FALSE,0,NO ERROR,0.000000,0.000000,4000.000000,4000.000000,Speed,Speed,0.080000,1.130000,2.740000,3.000000,103.000000,1,0,-0.005022,-0.003968,0,0.000000,0.000000,0.000000,-0.601501,0.537247,0.000000,0.002000,0.005000,0.000000,FlatInitial
12:18:18.673 PM 02/13/2016,Teleop Enabled,0,FALSE,0,NO ERROR,0.000000,0.000000,4000.000000,4000.000000,Speed,Speed,0.080000,1.140000,2.690000,3.000000,101.000000,1,0,-0.005022,-0.003968,0,0.000000,0.000000,0.000000,-0.601501,0.537247,0.000000,-0.006000,-0.009000,0.000000,FlatInitial
12:18:18.774 PM 02/13/2016,Teleop Enabled,0,FALSE,0,NO ERROR,0.000000,0.000000,4000.000000,4000.000000,Speed,Speed,0.050000,1.140000,2.650000,3.000000,110.000000,1,0,-0.005022,-0.003968,0,0.000000,0.000000,0.000000,-0.601501,0.537247,0.000000,-0.006000,-0.009000,0.008000,FlatInitial
12:18:18.874 PM 02/13/2016,Teleop Enabled,0,FALSE,0,NO ERROR,0.000000,0.000000,4000.000000,4000.000000,Speed,Speed,0.050000,1.140000,2.690000,3.000000,102.000000,1,0,-0.005022,-0.003968,0,0.000000,0.000000,0.000000,-0.601501,0.537247,0.000000,0.003000,0.000000,0.001000,FlatInitial
12:18:18.973 PM 02/13/2016,Teleop Enabled,0,FALSE,0,NO ERROR,0.000000,0.000000,4000.000000,4000.000000,Speed,Speed,0.080000,1.120000,2.660000,3.000000,101.000000,1,0,-0.005022,-0.003968,0,0.000000,0.000000,0.000000,-0.601501,0.537247,0.000000,0.003000,0.000000,0.001000,FlatInitial
12:18:19.073 PM 02/13/2016,Teleop Enabled,0,FALSE,0,NO ERROR,0.000000,0.000000,4000.000000,4000.000000,Speed,Speed,0.080000,1.140000,2.670000,3.000000,101.000000,1,0,-0.005022,-0.003968,0,0.000000,0.000000,0.000000,-0.601501,0.537247,0.000000,0.003000,0.002000,-0.005000,FlatInitial
12:18:19.174 PM 02/13/2016,Teleop Enabled,0,FALSE,0,NO ERROR,0.000000,0.000000,4000.000000,4000.000000,Speed,Speed,0.050000,1.130000,2.690000,3.000000,101.000000,1,0,-0.005022,-0.003968,0,0.000000,0.000000,0.000000,-0.601501,0.537247,0.000000,0.002000,-0.005000,0.002000,FlatInitial
12:18:19.274 PM 02/13/2016,Teleop Enabled,0,FALSE,0,NO ERROR,0.000000,0.000000,4000.000000,4000.000000,Speed,Speed,0.070000,1.140000,2.630000,3.000000,102.000000,1,0,-0.005022,-0.003968,0,0.000000,0.000000,0.000000,-0.601501,0.537247,0.000000,-0.001000,-0.002000,0.000000,FlatInitial
12:18:19.377 PM 02/13/2016,Teleop Enabled,0,FALSE,0,NO ERROR,0.000000,0.000000,4000.000000,4000.000000,Speed,Speed,0.080000,1.140000,2.670000,3.000000,103.000000,1,0,-0.005022,-0.003968,0,0.000000,0.000000,0.000000,-0.601501,0.537247,0.000000,-0.001000,0.001000,0.006000,FlatInitial
12:18:19.478 PM 02/13/2016,Teleop Enabled,0,FALSE,0,NO ERROR,0.000000,0.000000,4000.000000,4000.000000,Speed,Speed,0.070000,1.150000,2.680000,3.000000,102.000000,1,0,-0.005022,-0.003968,0,0.000000,0.000000,0.000000,-0.601501,0.537247,0.000000,0.001000,0.000000,-0.002000,FlatInitial
12:18:19.579 PM 02/13/2016,Teleop Enabled,0,FALSE,0,NO ERROR,0.000000,0.000000,4000.000000,4000.000000,Speed,Speed,0.060000,1.140000,2.630000,3.000000,102.000000,1,0,-0.005022,-0.003968,0,0.000000,0.000000,0.000000,-0.601501,0.537247,0.000000,-0.003000,0.000000,0.002000,FlatInitial
12:18:19.679 PM 02/13/2016,Teleop Enabled,0,FALSE,0,NO ERROR,0.000000,0.000000,4000.000000,4000.000000,Speed,Speed,0.060000,1.140000,2.670000,3.000000,101.000000,1,0,-0.005022,-0.003968,0,0.000000,0.000000,0.000000,-0.601501,0.537247,0.000000,0.000000,0.002000,0.000000,FlatInitial
12:18:19.780 PM 02/13/2016,Teleop Enabled,0,FALSE,0,NO ERROR,0.000000,0.000000,4000.000000,4000.000000,Speed,Speed,0.070000,1.140000,2.650000,3.000000,101.000000,1,0,-0.005022,-0.003968,0,0.000000,0.000000,0.000000,-0.601501,0.537247,0.000000,-0.001000,0.000000,0.000000,FlatInitial
12:18:19.881 PM 02/13/2016,Teleop Enabled,0,FALSE,0,NO ERROR,0.000000,0.000000,4000.000000,4000.000000,Speed,Speed,0.070000,1.140000,2.640000,3.000000,102.000000,1,0,-0.005022,-0.003968,0,0.000000,0.000000,0.000000,-0.601501,0.537247,0.000000,-0.002000,0.000000,-0.001000,FlatInitial
12:18:19.982 PM 02/13/2016,Teleop Enabled,0,FALSE,0,NO ERROR,0.000000,0.000000,4000.000000,4000.000000,Speed,Speed,0.060000,1.140000,2.670000,3.000000,101.000000,1,0,-0.005022,-0.003968,0,0.000000,0.000000,0.000000,-0.601501,0.537247,0.000000,0.001000,0.003000,0.006000,FlatInitial
12:18:20.085 PM 02/13/2016,Teleop Enabled,0,FALSE,0,NO ERROR,0.000000,0.000000,4000.000000,4000.000000,Speed,Speed,0.070000,1.140000,2.630000,3.000000,101.000000,1,0,-0.005022,-0.003968,0,0.000000,0.000000,0.000000,-0.601501,0.537247,0.000000,0.003000,-0.003000,0.000000,FlatInitial
12:18:20.185 PM 02/13/2016,Teleop Enabled,0,FALSE,0,NO ERROR,0.000000,0.000000,4000.000000,4000.000000,Speed,Speed,0.070000,1.140000,2.640000,3.000000,102.000000,1,0,-0.005022,-0.003968,0,0.000000,0.000000,0.000000,-0.601501,0.537247,0.000000,0.000000,0.000000,0.002000,FlatInitial
12:18:20.285 PM 02/13/2016,Teleop Enabled,0,FALSE,0,NO ERROR,0.000000,0.000000,4000.000000,4000.000000,Speed,Speed,0.070000,1.140000,2.660000,3.000000,101.000000,1,0,-0.005022,-0.003968,0,0.000000,0.000000,0.000000,-0.601501,0.537247,0.000000,0.000000,0.001000,0.001000,FlatInitial
12:18:20.385 PM 02/13/2016,Teleop Enabled,0,FALSE,0,NO ERROR,0.000000,0.000000,4000.000000,4000.000000,Speed,Speed,0.080000,1.130000,2.640000,3.000000,101.000000,1,0,-0.005022,-0.003968,0,0.000000,0.000000,0.000000,-0.601501,0.537247,0.000000,0.000000,-0.001000,-0.001000,FlatInitial
12:18:20.485 PM 02/13/2016,Teleop Enabled,0,FALSE,0,NO ERROR,0.000000,0.000000,4000.000000,4000.000000,Speed,Speed,0.070000,1.130000,2.650000,3.000000,102.000000,1,0,-0.005022,-0.003968,0,0.000000,0.000000,0.000000,-0.601501,0.537247,0.000000,0.001000,-0.001000,0.000000,FlatInitial
12:18:20.586 PM 02/13/2016,Teleop Enabled,0,FALSE,0,NO ERROR,0.000000,0.000000,4000.000000,4000.000000,Speed,Speed,0.080000,1.130000,2.640000,3.000000,101.000000,1,0,-0.005022,-0.003968,0,0.000000,0.000000,0.000000,-0.601501,0.537247,0.000000,0.000000,0.001000,-0.001000,FlatInitial
12:18:20.687 PM 02/13/2016,Teleop Enabled,0,FALSE,0,NO ERROR,0.000000,0.000000,4000.000000,4000.000000,Speed,Speed,0.080000,1.130000,2.640000,3.000000,102.000000,1,0,-0.005022,-0.003968,0,0.000000,0.000000,0.000000,-0.601501,0.537247,0.000000,0.000000,0.001000,0.002000,FlatInitial
12:18:20.787 PM 02/13/2016,Teleop Enabled,0,FALSE,0,NO ERROR,0.000000,0.000000,4000.000000,4000.000000,Speed,Speed,0.070000,1.130000,2.650000,3.000000,103.000000,1,0,-0.005022,-0.003968,0,0.000000,0.000000,0.000000,-0.601501,0.537247,0.000000,0.003000,0.000000,0.001000,FlatInitial
12:18:20.888 PM 02/13/2016,Teleop Enabled,0,FALSE,0,NO ERROR,0.000000,0.000000,4000.000000,4000.000000,Speed,Speed,0.080000,1.130000,2.640000,3.000000,101.000000,1,0,-0.005022,-0.003968,0,0.000000,0.000000,0.000000,-0.601501,0.537247,0.000000,0.000000,0.000000,-0.002000,FlatInitial
12:18:20.989 PM 02/13/2016,Teleop Enabled,0,FALSE,0,NO ERROR,0.000000,0.000000,4000.000000,4000.000000,Speed,Speed,0.080000,1.120000,2.650000,3.000000,101.000000,1,0,-0.005022,-0.003968,0,0.000000,0.000000,0.000000,-0.601501,0.537247,0.000000,0.001000,0.000000,0.000000,FlatInitial
12:18:21.090 PM 02/13/2016,Teleop Enabled,0,FALSE,0,NO ERROR,0.000000,0.000000,4000.000000,4000.000000,Speed,Speed,0.070000,1.130000,2.650000,3.000000,102.000000,1,0,-0.005022,-0.003968,0,0.000000,0.000000,0.000000,-0.601501,0.537247,0.000000,-0.002000,0.000000,0.000000,FlatInitial
12:18:21.189 PM 02/13/2016,Teleop Enabled,0,FALSE,0,NO ERROR,0.000000,0.000000,4000.000000,4000.000000,Speed,Speed,0.080000,1.130000,2.640000,3.000000,102.000000,1,0,-0.005022,-0.003968,0,0.000000,0.000000,0.000000,-0.601501,0.537247,0.000000,-0.001000,0.000000,0.000000,FlatInitial
12:18:21.289 PM 02/13/2016,Teleop Enabled,0,FALSE,0,NO ERROR,0.000000,0.000000,4000.000000,4000.000000,Speed,Speed,0.070000,1.130000,2.650000,3.000000,102.000000,1,0,-0.005022,-0.003968,0,0.000000,0.000000,0.000000,-0.601501,0.537247,0.000000,0.000000,0.000000,0.004000,FlatInitial
12:18:21.389 PM 02/13/2016,Teleop Enabled,0,FALSE,0,NO ERROR,0.000000,0.000000,4000.000000,4000.000000,Speed,Speed,0.070000,1.130000,2.640000,3.000000,102.000000,1,0,-0.005022,-0.003968,0,0.000000,0.000000,0.000000,-0.601501,0.537247,0.000000,0.000000,0.000000,0.000000,FlatInitial
12:18:21.490 PM 02/13/2016,Teleop Enabled,0,FALSE,0,NO ERROR,0.000000,0.000000,4000.000000,4000.000000,Speed,Speed,0.070000,1.130000,2.640000,3.000000,106.000000,1,0,-0.005022,-0.003968,0,0.000000,0.000000,0.000000,-0.601501,0.537247,0.000000,0.000000,0.000000,0.001000,FlatInitial
12:18:21.589 PM 02/13/2016,Teleop Enabled,0,FALSE,0,NO ERROR,0.000000,0.000000,4000.000000,4000.000000,Speed,Speed,0.070000,1.130000,2.640000,3.000000,104.000000,1,0,-0.005022,-0.003968,0,0.000000,0.000000,0.000000,-0.601501,0.537247,0.000000,0.000000,0.002000,0.001000,FlatInitial
12:18:21.689 PM 02/13/2016,Teleop Enabled,0,FALSE,0,NO ERROR,0.000000,0.000000,4000.000000,4000.000000,Speed,Speed,0.070000,1.130000,2.630000,3.000000,100.000000,1,0,-0.005022,-0.003968,0,0.000000,0.000000,0.000000,-0.601501,0.537247,0.000000,0.000000,0.001000,0.000000,FlatInitial
12:18:21.790 PM 02/13/2016,Teleop Enabled,0,FALSE,0,NO ERROR,0.000000,0.000000,4000.000000,4000.000000,Speed,Speed,0.070000,1.130000,2.640000,3.000000,104.000000,1,0,-0.005022,-0.003968,0,0.000000,0.000000,0.000000,-0.601501,0.537247,0.000000,0.000000,0.000000,0.000000,FlatInitial
12:18:21.890 PM 02/13/2016,Teleop Enabled,0,FALSE,0,NO ERROR,0.000000,0.000000,4000.000000,4000.000000,Speed,Speed,0.070000,1.130000,2.640000,3.000000,101.000000,1,0,-0.005022,-0.003968,0,0.000000,0.000000,0.000000,-0.601501,0.537247,0.000000,0.004000,0.000000,0.004000,FlatInitial
12:18:21.991 PM 02/13/2016,Teleop Enabled,0,FALSE,0,NO ERROR,0.000000,0.000000,4000.000000,4000.000000,Speed,Speed,0.070000,1.130000,2.630000,3.000000,102.000000,1,0,-0.005022,-0.003968,0,0.000000,0.000000,0.000000,-0.601501,0.537247,0.000000,0.000000,-0.001000,0.002000,FlatInitial
12:18:22.090 PM 02/13/2016,Teleop Enabled,0,FALSE,0,NO ERROR,0.000000,0.000000,4000.000000,4000.000000,Speed,Speed,0.070000,1.140000,2.630000,3.000000,103.000000,1,0,-0.005022,-0.003968,0,0.000000,0.000000,0.000000,-0.601501,0.537247,0.000000,0.002000,0.000000,0.000000,FlatInitial
12:18:22.191 PM 02/13/2016,Teleop Enabled,0,FALSE,0,NO ERROR,0.000000,0.000000,4000.000000,4000.000000,Speed,Speed,0.070000,1.140000,2.630000,3.000000,103.000000,1,0,-0.005022,-0.003968,0,0.000000,0.000000,0.000000,-0.601501,0.537247,0.000000,-0.001000,0.001000,-0.006000,FlatInitial
12:18:22.292 PM 02/13/2016,Teleop Enabled,0,FALSE,0,NO ERROR,0.000000,0.000000,4000.000000,4000.000000,Speed,Speed,0.070000,1.130000,2.640000,3.000000,101.000000,1,0,-0.005022,-0.003968,0,0.000000,0.000000,0.000000,-0.601501,0.537247,0.000000,0.000000,-0.001000,-0.004000,FlatInitial
12:18:22.393 PM 02/13/2016,Teleop Enabled,0,FALSE,0,NO ERROR,0.000000,0.000000,4000.000000,4000.000000,Speed,Speed,0.060000,1.130000,2.640000,3.000000,102.000000,1,0,-0.005022,-0.003968,0,0.000000,0.000000,0.000000,-0.601501,0.537247,0.000000,0.000000,-0.003000,0.001000,FlatInitial
12:18:22.493 PM 02/13/2016,Teleop Enabled,0,FALSE,0,NO ERROR,0.000000,0.000000,4000.000000,4000.000000,Speed,Speed,0.060000,1.130000,2.620000,3.000000,101.000000,1,0,-0.005022,-0.003968,0,0.000000,0.000000,0.000000,-0.601501,0.537247,0.000000,0.001000,0.000000,-0.001000,FlatInitial
12:18:22.593 PM 02/13/2016,Teleop Enabled,0,FALSE,0,NO ERROR,0.000000,0.000000,4000.000000,4000.000000,Speed,Speed,0.060000,1.140000,2.630000,3.000000,102.000000,1,0,-0.005022,-0.003968,0,0.000000,0.000000,0.000000,-0.601501,0.537247,0.000000,0.001000,0.000000,0.000000,FlatInitial
12:18:22.694 PM 02/13/2016,Teleop Enabled,0,FALSE,0,NO ERROR,0.000000,0.000000,4000.000000,4000.000000,Speed,Speed,0.060000,1.130000,2.620000,3.000000,102.000000,1,0,-0.005022,-0.003968,0,0.000000,0.000000,0.000000,-0.601501,0.537247,0.000000,0.001000,0.000000,0.000000,FlatInitial
12:18:22.794 PM 02/13/2016,Teleop Enabled,0,FALSE,0,NO ERROR,0.000000,0.000000,4000.000000,4000.000000,Speed,Speed,0.060000,1.130000,2.620000,3.000000,102.000000,1,0,-0.005022,-0.003968,0,0.000000,0.000000,0.000000,-0.601501,0.537247,0.000000,0.000000,0.003000,0.000000,FlatInitial
12:18:22.893 PM 02/13/2016,Teleop Enabled,0,FALSE,0,NO ERROR,0.000000,0.000000,4000.000000,4000.000000,Speed,Speed,0.060000,1.130000,2.620000,3.000000,102.000000,1,0,-0.005022,-0.003968,0,0.000000,0.000000,0.000000,-0.601501,0.537247,0.000000,0.001000,0.001000,0.000000,FlatInitial
12:18:22.994 PM 02/13/2016,Teleop Enabled,0,FALSE,0,NO ERROR,0.000000,0.000000,4000.000000,4000.000000,Speed,Speed,0.060000,1.140000,2.610000,3.000000,101.000000,1,0,-0.005022,-0.003968,0,0.000000,0.000000,0.000000,-0.601501,0.537247,0.000000,0.000000,0.003000,0.003000,FlatInitial
12:18:23.094 PM 02/13/2016,Teleop Enabled,0,FALSE,0,NO ERROR,0.000000,0.000000,4000.000000,4000.000000,Speed,Speed,0.060000,1.140000,2.620000,3.000000,102.000000,1,0,-0.005022,-0.003968,0,0.000000,0.000000,0.000000,-0.601501,0.537247,0.000000,0.000000,0.003000,0.003000,FlatInitial
