Time,RobotMode,AutoToRun,ErrorStatus, ErrorCode,ErrorSource,ActualRPM1,ActualRPM2,DesiredRPM1,DesiredRPM2,ControlMode1,ControlMode2,NavXYaw,NavXRoll,NavXPitch,ShooterState,LoopTime,IsLevel,IsAutoTargeting,LeftMotorOutput,RightMotorOutput,IsHaloDrive,NavXVelocityX,NavXVelocityY,NavXVelocityZ,NavXDisplacementX,NavXDisplacementY,NavXDisplacementZ,NavXAccelerationX,NavXAccelerationY,NavXAccelerationZ,AutoDefendState
03:33:09.998 PM 02/13/2016,Teleop Enabled,0,TRUE,-44087,NetComm_CAN_Receive.vi:5470007<APPEND>  <b>Complete call chain:</b>      NetComm_CAN_Receive.vi:5470007      WPI_CANTalonSRX_Receive.vi      WPI_MotorControlOpenCANTalonSRX.vi      Begin.vi      Robot Main.vi,0.000000,0.000000,4000.000000,4000.000000,Speed,Speed,-0.320000,0.290000,2.580000,3.000000,101.000000,1,0,0.000000,0.000000,0,0.000000,0.000000,0.000000,0.002426,0.001770,0.000000,0.000000,0.000000,0.004000,FlatInitial
03:33:10.103 PM 02/13/2016,Teleop Enabled,0,TRUE,-44087,NetComm_CAN_Receive.vi:5470007<APPEND>  <b>Complete call chain:</b>      NetComm_CAN_Receive.vi:5470007      WPI_CANTalonSRX_Receive.vi      WPI_MotorControlOpenCANTalonSRX.vi      Begin.vi      Robot Main.vi,0.000000,0.000000,4000.000000,4000.000000,Speed,Speed,-0.320000,0.300000,2.580000,3.000000,102.000000,1,0,-0.010478,-0.010478,0,0.000000,0.000000,0.000000,0.002426,0.001770,0.000000,0.000000,-0.003000,-0.004000,FlatInitial
03:33:10.204 PM 02/13/2016,Teleop Enabled,0,TRUE,-44087,NetComm_CAN_Receive.vi:5470007<APPEND>  <b>Complete call chain:</b>      NetComm_CAN_Receive.vi:5470007      WPI_CANTalonSRX_Receive.vi      WPI_MotorControlOpenCANTalonSRX.vi      Begin.vi      Robot Main.vi,0.000000,0.000000,4000.000000,4000.000000,Speed,Speed,-0.320000,0.290000,2.590000,3.000000,101.000000,1,0,-0.010478,-0.010478,0,-0.009918,0.002670,0.000000,0.002213,0.001801,0.000000,-0.003000,0.010000,-0.072000,FlatInitial
03:33:10.304 PM 02/13/2016,Teleop Enabled,0,TRUE,-44087,NetComm_CAN_Receive.vi:5470007<APPEND>  <b>Complete call chain:</b>      NetComm_CAN_Receive.vi:5470007      WPI_CANTalonSRX_Receive.vi      WPI_MotorControlOpenCANTalonSRX.vi      Begin.vi      Robot Main.vi,0.000000,0.000000,4000.000000,4000.000000,Speed,Speed,-0.320000,0.300000,2.600000,3.000000,102.000000,1,0,-0.010478,-0.010478,0,0.000000,0.000000,0.000000,0.002213,0.001938,0.000000,-0.007000,0.003000,0.010000,FlatInitial
03:33:10.406 PM 02/13/2016,Teleop Enabled,0,TRUE,-44087,NetComm_CAN_Receive.vi:5470007<APPEND>  <b>Complete call chain:</b>      NetComm_CAN_Receive.vi:5470007      WPI_CANTalonSRX_Receive.vi      WPI_MotorControlOpenCANTalonSRX.vi      Begin.vi      Robot Main.vi,0.000000,0.000000,4000.000000,4000.000000,Speed,Speed,-0.320000,0.300000,2.600000,3.000000,103.000000,1,0,-0.010478,-0.010478,0,0.005432,0.000000,0.000000,0.002335,0.001938,0.000000,-0.008000,-0.005000,0.028000,FlatInitial
03:33:10.507 PM 02/13/2016,Teleop Enabled,0,TRUE,-44087,NetComm_CAN_Receive.vi:5470007<APPEND>  <b>Complete call chain:</b>      NetComm_CAN_Receive.vi:5470007      WPI_CANTalonSRX_Receive.vi      WPI_MotorControlOpenCANTalonSRX.vi      Begin.vi      Robot Main.vi,0.000000,0.000000,4000.000000,4000.000000,Speed,Speed,-0.320000,0.300000,2.600000,3.000000,100.000000,1,0,-0.010478,-0.010478,0,0.000000,0.000000,0.000000,0.002335,0.001938,0.000000,-0.002000,-0.006000,0.015000,FlatInitial
03:33:10.607 PM 02/13/2016,Teleop Enabled,0,TRUE,-44087,NetComm_CAN_Receive.vi:5470007<APPEND>  <b>Complete call chain:</b>      NetComm_CAN_Receive.vi:5470007      WPI_CANTalonSRX_Receive.vi      WPI_MotorControlOpenCANTalonSRX.vi      Begin.vi      Robot Main.vi,0.000000,0.000000,4000.000000,4000.000000,Speed,Speed,-0.310000,0.300000,2.590000,3.000000,100.000000,1,0,-0.010478,-0.010478,0,0.000000,0.000000,0.000000,0.002335,0.001938,0.000000,-0.003000,-0.006000,0.007000,FlatInitial
03:33:10.707 PM 02/13/2016,Teleop Enabled,0,TRUE,-44087,NetComm_CAN_Receive.vi:5470007<APPEND>  <b>Complete call chain:</b>      NetComm_CAN_Receive.vi:5470007      WPI_CANTalonSRX_Receive.vi      WPI_MotorControlOpenCANTalonSRX.vi      Begin.vi      Robot Main.vi,0.000000,0.000000,4000.000000,4000.000000,Speed,Speed,-0.310000,0.300000,2.590000,3.000000,102.000000,1,0,-0.010478,-0.010478,0,0.000000,0.000000,0.000000,0.002335,0.001938,0.000000,0.000000,0.000000,0.002000,FlatInitial
03:33:10.808 PM 02/13/2016,Teleop Enabled,0,TRUE,-44087,NetComm_CAN_Receive.vi:5470007<APPEND>  <b>Complete call chain:</b>      NetComm_CAN_Receive.vi:5470007      WPI_CANTalonSRX_Receive.vi      WPI_MotorControlOpenCANTalonSRX.vi      Begin.vi      Robot Main.vi,0.000000,0.000000,4000.000000,4000.000000,Speed,Speed,-0.310000,0.300000,2.590000,3.000000,101.000000,1,0,-0.010478,-0.010478,0,0.000000,0.000000,0.000000,0.002335,0.001938,0.000000,0.007000,0.001000,0.004000,FlatInitial
03:33:10.908 PM 02/13/2016,Teleop Enabled,0,TRUE,-44087,NetComm_CAN_Receive.vi:5470007<APPEND>  <b>Complete call chain:</b>      NetComm_CAN_Receive.vi:5470007      WPI_CANTalonSRX_Receive.vi      WPI_MotorControlOpenCANTalonSRX.vi      Begin.vi      Robot Main.vi,0.000000,0.000000,4000.000000,4000.000000,Speed,Speed,-0.310000,0.300000,2.580000,3.000000,102.000000,1,0,-0.010478,-0.010478,0,0.000000,0.000000,0.000000,0.002335,0.001938,0.000000,0.003000,-0.001000,0.006000,FlatInitial
03:33:11.007 PM 02/13/2016,Teleop Enabled,0,TRUE,-44087,NetComm_CAN_Receive.vi:5470007<APPEND>  <b>Complete call chain:</b>      NetComm_CAN_Receive.vi:5470007      WPI_CANTalonSRX_Receive.vi      WPI_MotorControlOpenCANTalonSRX.vi      Begin.vi      Robot Main.vi,0.000000,0.000000,4000.000000,4000.000000,Speed,Speed,-0.320000,0.300000,2.580000,3.000000,102.000000,1,0,-0.010478,-0.010478,0,0.000000,0.000000,0.000000,0.002335,0.001938,0.000000,0.004000,0.001000,-0.001000,FlatInitial
03:33:11.108 PM 02/13/2016,Teleop Enabled,0,TRUE,-44087,NetComm_CAN_Receive.vi:5470007<APPEND>  <b>Complete call chain:</b>      NetComm_CAN_Receive.vi:5470007      WPI_CANTalonSRX_Receive.vi      WPI_MotorControlOpenCANTalonSRX.vi      Begin.vi      Robot Main.vi,0.000000,0.000000,4000.000000,4000.000000,Speed,Speed,-0.310000,0.300000,2.590000,3.000000,103.000000,1,0,-0.010478,-0.010478,0,0.000000,0.000000,0.000000,0.002335,0.001938,0.000000,0.003000,0.000000,0.006000,FlatInitial
03:33:11.209 PM 02/13/2016,Teleop Enabled,0,TRUE,-44087,NetComm_CAN_Receive.vi:5470007<APPEND>  <b>Complete call chain:</b>      NetComm_CAN_Receive.vi:5470007      WPI_CANTalonSRX_Receive.vi      WPI_CANTalonSRX_GetStatus.vi      ShooterVI.vi      Periodic Tasks.vi      Robot Main.vi,0.000000,0.000000,4000.000000,4000.000000,Speed,Speed,-0.310000,0.300000,2.590000,3.000000,102.000000,1,0,-0.010478,-0.010478,0,0.000000,0.000000,0.000000,0.002335,0.001938,0.000000,0.000000,-0.002000,0.010000,FlatInitial
03:33:11.309 PM 02/13/2016,Teleop Enabled,0,TRUE,-44087,NetComm_CAN_Receive.vi:5470007<APPEND>  <b>Complete call chain:</b>      NetComm_CAN_Receive.vi:5470007      WPI_CANTalonSRX_Receive.vi      WPI_CANTalonSRX_GetStatus.vi      ShooterVI.vi      Periodic Tasks.vi      Robot Main.vi,0.000000,0.000000,4000.000000,4000.000000,Speed,Speed,-0.310000,0.300000,2.580000,3.000000,102.000000,1,0,-0.010478,-0.010478,0,0.000000,0.000000,0.000000,0.002335,0.001938,0.000000,0.002000,-0.001000,0.006000,FlatInitial
03:33:11.409 PM 02/13/2016,Teleop Enabled,0,TRUE,-44003,<LOCATION>WPI_CameraIssue HTTP Request with Authentication.vi<CALLSTACK>WPI_CameraIssue HTTP Request with Authentication.vi< <WPI_CameraIssue Get.vi< <WPI_CameraSet Image Appearance Property.vi< <WPI_CameraSet Image Size.vi< <Vision Processing.vi< <Robot Main.vi,0.000000,0.000000,4000.000000,4000.000000,Speed,Speed,-0.310000,0.300000,2.590000,3.000000,103.000000,1,0,-0.010478,-0.010478,0,0.000000,0.000000,0.000000,0.002335,0.001938,0.000000,-0.003000,-0.001000,0.008000,FlatInitial
03:33:11.508 PM 02/13/2016,Teleop Enabled,0,FALSE,0,NO ERROR,0.000000,0.000000,4000.000000,4000.000000,Speed,Speed,-0.310000,0.300000,2.580000,3.000000,102.000000,1,0,-0.010478,-0.010478,0,0.000000,-0.005569,0.000000,0.002335,0.001816,0.000000,0.015000,-0.005000,0.022000,FlatInitial
03:33:11.608 PM 02/13/2016,Teleop Enabled,0,FALSE,0,NO ERROR,0.000000,0.000000,4000.000000,4000.000000,Speed,Speed,-0.300000,0.300000,2.580000,3.000000,103.000000,1,0,-0.010478,-0.010478,0,0.000000,0.000000,0.000000,0.002335,0.001816,0.000000,-0.013000,-0.008000,0.006000,FlatInitial
03:33:11.709 PM 02/13/2016,Teleop Enabled,0,FALSE,0,NO ERROR,0.000000,0.000000,4000.000000,4000.000000,Speed,Speed,-0.320000,0.310000,2.580000,3.000000,102.000000,1,0,-0.010478,-0.010478,0,0.000000,0.000000,0.000000,0.002335,0.001816,0.000000,0.010000,0.002000,0.009000,FlatInitial
03:33:11.809 PM 02/13/2016,Teleop Enabled,0,FALSE,0,NO ERROR,0.000000,0.000000,4000.000000,4000.000000,Speed,Speed,-0.300000,0.300000,2.580000,3.000000,101.000000,1,0,-0.010478,-0.010478,0,0.000000,0.000000,0.000000,0.002335,0.001816,0.000000,0.004000,0.000000,0.003000,FlatInitial
03:33:11.909 PM 02/13/2016,Teleop Enabled,0,FALSE,0,NO ERROR,0.000000,0.000000,4000.000000,4000.000000,Speed,Speed,-0.310000,0.300000,2.580000,3.000000,101.000000,1,0,-0.010478,-0.010478,0,0.000000,0.000000,0.000000,0.002335,0.001816,0.000000,0.001000,0.003000,0.001000,FlatInitial
03:33:12.009 PM 02/13/2016,Teleop Enabled,0,FALSE,0,NO ERROR,0.000000,0.000000,4000.000000,4000.000000,Speed,Speed,-0.310000,0.310000,2.580000,3.000000,103.000000,1,0,-0.010478,-0.010478,0,0.000000,0.000000,0.000000,0.002335,0.001816,0.000000,0.003000,0.003000,0.003000,FlatInitial
03:33:12.109 PM 02/13/2016,Teleop Enabled,0,FALSE,0,NO ERROR,0.000000,0.000000,4000.000000,4000.000000,Speed,Speed,-0.310000,0.310000,2.580000,3.000000,102.000000,1,0,-0.010478,-0.010478,0,0.000000,0.000000,0.000000,0.002335,0.001816,0.000000,0.003000,-0.001000,0.004000,FlatInitial
03:33:12.209 PM 02/13/2016,Teleop Enabled,0,FALSE,0,NO ERROR,0.000000,0.000000,4000.000000,4000.000000,Speed,Speed,-0.310000,0.310000,2.580000,3.000000,102.000000,1,0,-0.010478,-0.010478,0,0.000000,0.000000,0.000000,0.002335,0.001816,0.000000,-0.001000,0.000000,0.006000,FlatInitial
03:33:12.309 PM 02/13/2016,Teleop Enabled,0,FALSE,0,NO ERROR,0.000000,0.000000,4000.000000,4000.000000,Speed,Speed,-0.310000,0.310000,2.580000,3.000000,101.000000,1,0,-0.010478,-0.010478,0,0.000000,0.000000,0.000000,0.002335,0.001816,0.000000,-0.002000,0.000000,0.007000,FlatInitial
03:33:12.409 PM 02/13/2016,Teleop Enabled,0,FALSE,0,NO ERROR,0.000000,0.000000,4000.000000,4000.000000,Speed,Speed,-0.310000,0.310000,2.570000,3.000000,101.000000,1,0,-0.010478,-0.010478,0,0.000000,0.000000,0.000000,0.002335,0.001816,0.000000,-0.006000,-0.001000,0.007000,FlatInitial
03:33:12.509 PM 02/13/2016,Teleop Enabled,0,FALSE,0,NO ERROR,0.000000,0.000000,4000.000000,4000.000000,Speed,Speed,-0.310000,0.300000,2.570000,3.000000,102.000000,1,0,-0.010478,-0.010478,0,0.000000,0.000000,0.000000,0.002335,0.001816,0.000000,0.000000,-0.001000,0.006000,FlatInitial
03:33:12.609 PM 02/13/2016,Teleop Enabled,0,FALSE,0,NO ERROR,0.000000,0.000000,4000.000000,4000.000000,Speed,Speed,-0.310000,0.300000,2.560000,3.000000,103.000000,1,0,-0.010478,-0.010478,0,0.000000,0.000000,0.000000,0.002335,0.001816,0.000000,0.000000,-0.001000,0.008000,FlatInitial
03:33:12.710 PM 02/13/2016,Teleop Enabled,0,FALSE,0,NO ERROR,0.000000,0.000000,4000.000000,4000.000000,Speed,Speed,-0.310000,0.300000,2.560000,3.000000,105.000000,1,0,-0.010478,-0.010478,0,0.000000,0.000000,0.000000,0.002335,0.001816,0.000000,0.000000,-0.001000,0.006000,FlatInitial
03:33:12.810 PM 02/13/2016,Teleop Enabled,0,FALSE,0,NO ERROR,0.000000,0.000000,4000.000000,4000.000000,Speed,Speed,-0.310000,0.300000,2.560000,3.000000,106.000000,1,0,-0.010478,-0.010478,0,0.000244,-0.005005,0.000000,0.002335,0.001755,0.000000,-0.086000,-0.003000,0.113000,FlatInitial
03:33:12.910 PM 02/13/2016,Teleop Enabled,0,FALSE,0,NO ERROR,0.000000,0.000000,4000.000000,4000.000000,Speed,Speed,-0.300000,0.280000,2.550000,3.000000,102.000000,1,0,-0.010478,-0.010478,0,0.000214,0.000000,0.000000,0.002441,0.001633,0.000000,0.034000,-0.015000,0.016000,FlatInitial
03:33:13.012 PM 02/13/2016,Teleop Enabled,0,FALSE,0,NO ERROR,0.000000,0.000000,4000.000000,4000.000000,Speed,Speed,-0.320000,0.340000,2.600000,3.000000,100.000000,1,0,-0.010478,-0.010478,0,0.011520,0.000000,0.000000,0.002945,0.001633,0.000000,-0.015000,-0.004000,0.032000,FlatInitial
03:33:13.113 PM 02/13/2016,Teleop Enabled,0,FALSE,0,NO ERROR,0.000000,0.000000,4000.000000,4000.000000,Speed,Speed,-0.310000,0.310000,2.590000,3.000000,103.000000,1,0,-0.010478,-0.010478,0,0.008194,-0.006882,0.000000,0.003326,0.001526,0.000000,-0.019000,-0.012000,0.028000,FlatInitial
03:33:13.213 PM 02/13/2016,Teleop Enabled,0,FALSE,0,NO ERROR,0.000000,0.000000,4000.000000,4000.000000,Speed,Speed,-0.310000,0.350000,2.540000,3.000000,103.000000,1,0,-0.010478,-0.010478,0,0.000000,0.000000,0.000000,0.003494,0.001434,0.000000,-0.012000,0.005000,-0.019000,FlatInitial
03:33:13.314 PM 02/13/2016,Teleop Enabled,0,FALSE,0,NO ERROR,0.000000,0.000000,4000.000000,4000.000000,Speed,Speed,-0.300000,0.330000,2.530000,3.000000,102.000000,1,0,-0.010478,-0.010478,0,0.000000,0.000000,0.000000,0.003494,0.001434,0.000000,0.005000,0.003000,0.002000,FlatInitial
03:33:13.414 PM 02/13/2016,Teleop Enabled,0,FALSE,0,NO ERROR,0.000000,0.000000,4000.000000,4000.000000,Speed,Speed,-0.300000,0.340000,2.550000,3.000000,104.000000,1,0,-0.010478,-0.010478,0,0.000000,0.000000,0.000000,0.003494,0.001434,0.000000,0.004000,0.001000,-0.005000,FlatInitial
03:33:13.514 PM 02/13/2016,Teleop Enabled,0,FALSE,0,NO ERROR,0.000000,0.000000,4000.000000,4000.000000,Speed,Speed,-0.300000,0.330000,2.540000,3.000000,101.000000,1,0,-0.010478,-0.010478,0,0.000000,0.000000,0.000000,0.003494,0.001434,0.000000,-0.003000,0.010000,0.010000,FlatInitial
03:33:13.615 PM 02/13/2016,Teleop Enabled,0,FALSE,0,NO ERROR,0.000000,0.000000,4000.000000,4000.000000,Speed,Speed,-0.300000,0.350000,2.530000,3.000000,102.000000,1,0,-0.010478,-0.010478,0,0.000000,0.007523,0.000000,0.003494,0.001617,0.000000,0.017000,-0.013000,0.029000,FlatInitial
03:33:13.717 PM 02/13/2016,Teleop Enabled,0,FALSE,0,NO ERROR,0.000000,0.000000,4000.000000,4000.000000,Speed,Speed,-0.310000,0.330000,2.440000,3.000000,101.000000,1,0,-0.010478,-0.010478,0,-0.003204,0.000000,0.000000,0.003448,0.001617,0.000000,0.007000,0.000000,0.008000,FlatInitial
03:33:13.817 PM 02/13/2016,Teleop Enabled,0,FALSE,0,NO ERROR,0.000000,0.000000,4000.000000,4000.000000,Speed,Speed,-0.310000,0.330000,2.420000,3.000000,102.000000,1,0,-0.010478,-0.010478,0,0.000000,0.000000,0.000000,0.003616,0.001617,0.000000,0.010000,0.012000,-0.008000,FlatInitial
03:33:13.917 PM 02/13/2016,Teleop Enabled,0,FALSE,0,NO ERROR,0.000000,0.000000,4000.000000,4000.000000,Speed,Speed,-0.300000,0.330000,2.160000,3.000000,101.000000,1,0,-0.010478,-0.010478,0,0.000000,0.000000,0.000000,0.003616,0.001785,0.000000,-0.015000,0.006000,-0.073000,FlatInitial
03:33:14.017 PM 02/13/2016,Teleop Enabled,0,FALSE,0,NO ERROR,0.000000,0.000000,4000.000000,4000.000000,Speed,Speed,-0.280000,0.300000,1.920000,3.000000,101.000000,1,0,-0.010478,-0.010478,0,-0.017975,-0.036713,0.000000,0.003174,0.000107,0.000000,-0.014000,0.085000,-0.158000,FlatInitial
03:33:14.117 PM 02/13/2016,Teleop Enabled,0,FALSE,0,NO ERROR,0.000000,0.000000,4000.000000,4000.000000,Speed,Speed,-0.280000,0.350000,2.620000,3.000000,102.000000,1,0,-0.010478,-0.010478,0,-0.005981,-0.040222,0.000000,0.003113,-0.001480,0.000000,-0.075000,-0.002000,-0.125000,FlatInitial
03:33:14.217 PM 02/13/2016,Teleop Enabled,0,FALSE,0,NO ERROR,0.000000,0.000000,4000.000000,4000.000000,Speed,Speed,-0.250000,0.370000,2.270000,3.000000,102.000000,1,0,-0.010478,-0.010478,0,0.006287,-0.003677,0.000000,0.002808,-0.002655,0.000000,0.027000,-0.049000,-0.011000,FlatInitial
03:33:14.317 PM 02/13/2016,Teleop Enabled,0,FALSE,0,NO ERROR,0.000000,0.000000,4000.000000,4000.000000,Speed,Speed,-0.270000,0.330000,2.440000,3.000000,102.000000,1,0,-0.010478,-0.010478,0,0.013916,-0.041077,0.000000,0.003342,-0.003967,0.000000,-0.033000,-0.018000,0.008000,FlatInitial
03:33:14.416 PM 02/13/2016,Teleop Enabled,0,FALSE,0,NO ERROR,0.000000,0.000000,4000.000000,4000.000000,Speed,Speed,-0.270000,0.300000,2.300000,3.000000,102.000000,1,0,-0.010478,-0.010478,0,0.008636,-0.028839,0.000000,0.003662,-0.005630,0.000000,0.053000,0.108000,-0.104000,FlatInitial
03:33:14.516 PM 02/13/2016,Teleop Enabled,0,FALSE,0,NO ERROR,0.000000,0.000000,4000.000000,4000.000000,Speed,Speed,-0.250000,0.330000,2.360000,3.000000,101.000000,1,0,-0.010478,-0.010478,0,0.045212,0.013245,0.000000,0.005463,-0.005127,0.000000,0.053000,0.108000,-0.104000,FlatInitial
03:33:14.617 PM 02/13/2016,Teleop Enabled,0,FALSE,0,NO ERROR,0.000000,0.000000,4000.000000,4000.000000,Speed,Speed,-0.260000,0.350000,2.290000,3.000000,100.000000,1,0,-0.010478,-0.010478,0,0.045212,0.013245,0.000000,0.005463,-0.005127,0.000000,0.028000,-0.008000,-0.012000,FlatInitial
03:33:14.719 PM 02/13/2016,Teleop Enabled,0,FALSE,0,NO ERROR,0.000000,0.000000,4000.000000,4000.000000,Speed,Speed,-0.250000,0.340000,2.340000,3.000000,101.000000,1,0,-0.010478,-0.010478,0,0.030716,-0.003571,0.000000,0.009613,-0.004944,0.000000,0.003000,-0.023000,0.063000,FlatInitial
03:33:14.819 PM 02/13/2016,Teleop Enabled,0,FALSE,0,NO ERROR,0.000000,0.000000,4000.000000,4000.000000,Speed,Speed,-0.250000,0.370000,2.290000,3.000000,101.000000,1,0,-0.010478,-0.010478,0,0.006836,-0.027100,0.000000,0.010117,-0.005478,0.000000,0.003000,0.047000,-0.081000,FlatInitial
03:33:14.920 PM 02/13/2016,Teleop Enabled,0,FALSE,0,NO ERROR,0.000000,0.000000,4000.000000,4000.000000,Speed,Speed,-0.260000,0.360000,2.360000,3.000000,100.000000,1,0,-0.010478,-0.010478,0,0.000000,-0.019638,0.000000,0.009598,-0.006607,0.000000,0.003000,0.047000,-0.081000,FlatInitial
03:33:15.020 PM 02/13/2016,Teleop Enabled,0,FALSE,0,NO ERROR,0.000000,0.000000,4000.000000,4000.000000,Speed,Speed,-0.260000,0.360000,2.360000,3.000000,101.000000,1,0,-0.010478,-0.010478,0,-0.004166,-0.033661,0.000000,0.009491,-0.007339,0.000000,-0.045000,0.046000,0.061000,FlatInitial
03:33:15.120 PM 02/13/2016,Teleop Enabled,0,FALSE,0,NO ERROR,0.000000,0.000000,4000.000000,4000.000000,Speed,Speed,-0.260000,0.350000,2.430000,3.000000,102.000000,1,0,-0.010478,-0.010478,0,-0.002563,-0.038681,0.000000,0.009430,-0.009842,0.000000,0.031000,-0.063000,0.096000,FlatInitial
03:33:15.220 PM 02/13/2016,Teleop Enabled,0,FALSE,0,NO ERROR,0.000000,0.000000,4000.000000,4000.000000,Speed,Speed,-0.250000,0.340000,2.340000,3.000000,101.000000,1,0,-0.010478,-0.010478,0,0.020065,0.015045,0.000000,0.009903,-0.010635,0.000000,-0.001000,-0.002000,-0.107000,FlatInitial
03:33:15.321 PM 02/13/2016,Teleop Enabled,0,FALSE,0,NO ERROR,0.000000,0.000000,4000.000000,4000.000000,Speed,Speed,-0.260000,0.350000,2.400000,3.000000,102.000000,1,0,-0.010478,-0.010478,0,0.041382,-0.004944,0.000000,0.011734,-0.010406,0.000000,0.035000,0.087000,0.155000,FlatInitial
03:33:15.421 PM 02/13/2016,Teleop Enabled,0,FALSE,0,NO ERROR,0.000000,0.000000,4000.000000,4000.000000,Speed,Speed,-0.270000,0.310000,2.390000,3.000000,102.000000,1,0,-0.010478,-0.010478,0,0.041382,-0.004944,0.000000,0.011734,-0.010406,0.000000,0.009000,-0.007000,0.077000,FlatInitial
03:33:15.521 PM 02/13/2016,Teleop Enabled,0,FALSE,0,NO ERROR,0.000000,0.000000,4000.000000,4000.000000,Speed,Speed,-0.270000,0.310000,2.390000,3.000000,101.000000,1,0,-0.010478,-0.010478,0,0.000000,-0.000870,0.000000,0.013428,-0.010605,0.000000,0.055000,0.050000,-0.013000,FlatInitial
03:33:15.620 PM 02/13/2016,Teleop Enabled,0,FALSE,0,NO ERROR,0.000000,0.000000,4000.000000,4000.000000,Speed,Speed,-0.260000,0.340000,2.360000,3.000000,101.000000,1,0,-0.010478,-0.010478,0,0.000000,-0.000870,0.000000,0.013428,-0.010605,0.000000,0.010000,-0.005000,0.135000,FlatInitial
03:33:15.721 PM 02/13/2016,Teleop Enabled,0,FALSE,0,NO ERROR,0.000000,0.000000,4000.000000,4000.000000,Speed,Speed,-0.260000,0.340000,2.350000,3.000000,103.000000,1,0,-0.010478,-0.010478,0,-0.017563,0.006729,0.000000,0.013107,-0.010498,0.000000,-0.074000,0.025000,-0.087000,FlatInitial
03:33:15.820 PM 02/13/2016,Teleop Enabled,0,FALSE,0,NO ERROR,0.000000,0.000000,4000.000000,4000.000000,Speed,Speed,-0.250000,0.340000,2.340000,3.000000,106.000000,1,0,-0.010478,-0.010478,0,-0.035995,0.008667,0.000000,0.011414,-0.010239,0.000000,0.000000,-0.032000,0.062000,FlatInitial
03:33:15.922 PM 02/13/2016,Teleop Enabled,0,FALSE,0,NO ERROR,0.000000,0.000000,4000.000000,4000.000000,Speed,Speed,-0.250000,0.340000,2.320000,3.000000,101.000000,1,0,-0.010478,-0.010478,0,0.000000,-0.037476,0.000000,0.011414,-0.011139,0.000000,0.000000,0.064000,-0.148000,FlatInitial
03:33:16.022 PM 02/13/2016,Teleop Enabled,0,FALSE,0,NO ERROR,0.000000,0.000000,4000.000000,4000.000000,Speed,Speed,-0.250000,0.330000,2.310000,3.000000,101.000000,1,0,-0.010478,-0.010478,0,-0.017181,-0.003891,0.000000,0.010666,-0.012390,0.000000,-0.043000,0.049000,0.071000,FlatInitial
03:33:16.123 PM 02/13/2016,Teleop Enabled,0,FALSE,0,NO ERROR,0.000000,0.000000,4000.000000,4000.000000,Speed,Speed,-0.250000,0.330000,2.300000,3.000000,103.000000,1,0,-0.010478,-0.010478,0,-0.008621,-0.042130,0.000000,0.010223,-0.013107,0.000000,0.021000,-0.076000,0.043000,FlatInitial
03:33:16.223 PM 02/13/2016,Teleop Enabled,0,FALSE,0,NO ERROR,0.000000,0.000000,4000.000000,4000.000000,Speed,Speed,-0.260000,0.340000,2.340000,3.000000,101.000000,1,0,-0.010478,-0.010478,0,-0.006424,-0.037476,0.000000,0.010162,-0.014938,0.000000,-0.027000,-0.017000,-0.063000,FlatInitial
03:33:16.324 PM 02/13/2016,Teleop Enabled,0,FALSE,0,NO ERROR,0.000000,0.000000,4000.000000,4000.000000,Speed,Speed,-0.250000,0.330000,2.250000,3.000000,101.000000,1,0,-0.010478,-0.010478,0,0.002625,0.041656,0.000000,0.010010,-0.014099,0.000000,0.020000,0.062000,0.073000,FlatInitial
03:33:16.425 PM 02/13/2016,Teleop Enabled,0,FALSE,0,NO ERROR,0.000000,0.000000,4000.000000,4000.000000,Speed,Speed,-0.270000,0.360000,2.480000,3.000000,101.000000,1,0,-0.010478,-0.010478,0,-0.007675,0.008865,0.000000,0.010056,-0.013123,0.000000,-0.068000,0.032000,0.150000,FlatInitial
03:33:16.524 PM 02/13/2016,Teleop Enabled,0,FALSE,0,NO ERROR,0.000000,0.000000,4000.000000,4000.000000,Speed,Speed,-0.270000,0.360000,2.400000,3.000000,101.000000,1,0,-0.010478,-0.010478,0,-0.004562,0.063858,0.000000,0.010178,-0.011032,0.000000,-0.053000,0.080000,0.138000,FlatInitial
03:33:16.625 PM 02/13/2016,Teleop Enabled,0,FALSE,0,NO ERROR,0.000000,0.000000,4000.000000,4000.000000,Speed,Speed,-0.250000,0.320000,2.410000,3.000000,103.000000,1,0,-0.010478,-0.010478,0,-0.004303,0.023651,0.000000,0.009995,-0.008423,0.000000,0.043000,-0.028000,0.003000,FlatInitial
03:33:16.725 PM 02/13/2016,Teleop Enabled,0,FALSE,0,NO ERROR,0.000000,0.000000,4000.000000,4000.000000,Speed,Speed,-0.270000,0.320000,2.400000,3.000000,102.000000,1,0,-0.010478,-0.010478,0,-0.007523,0.000000,0.000000,0.009964,-0.007217,0.000000,0.001000,0.016000,-0.039000,FlatInitial
03:33:16.825 PM 02/13/2016,Teleop Enabled,0,FALSE,0,NO ERROR,0.000000,0.000000,4000.000000,4000.000000,Speed,Speed,-0.250000,0.330000,2.390000,3.000000,102.000000,1,0,-0.010478,-0.010478,0,0.000000,0.000000,0.000000,0.009903,-0.007217,0.000000,0.001000,-0.017000,0.043000,FlatInitial
03:33:16.926 PM 02/13/2016,Teleop Enabled,0,FALSE,0,NO ERROR,0.000000,0.000000,4000.000000,4000.000000,Speed,Speed,-0.270000,0.330000,2.410000,3.000000,102.000000,1,0,-0.010478,-0.010478,0,0.000000,0.000000,0.000000,0.009903,-0.007217,0.000000,0.008000,-0.003000,0.009000,FlatInitial
03:33:17.026 PM 02/13/2016,Teleop Enabled,0,FALSE,0,NO ERROR,0.000000,0.000000,4000.000000,4000.000000,Speed,Speed,-0.260000,0.340000,2.410000,3.000000,101.000000,1,0,-0.010478,-0.010478,0,0.000000,0.000000,0.000000,0.009903,-0.007217,0.000000,0.001000,0.003000,-0.004000,FlatInitial
03:33:17.128 PM 02/13/2016,Teleop Enabled,0,FALSE,0,NO ERROR,0.000000,0.000000,4000.000000,4000.000000,Speed,Speed,-0.260000,0.340000,2.500000,3.000000,103.000000,1,0,-0.010478,-0.010478,0,0.000000,0.000000,0.000000,0.009903,-0.007217,0.000000,0.004000,-0.019000,-0.023000,FlatInitial
03:33:17.228 PM 02/13/2016,Teleop Enabled,0,FALSE,0,NO ERROR,0.000000,0.000000,4000.000000,4000.000000,Speed,Speed,-0.250000,0.350000,2.460000,3.000000,101.000000,1,0,-0.010478,-0.010478,0,0.000000,0.000000,0.000000,0.009750,-0.007217,0.000000,-0.002000,0.003000,-0.004000,FlatInitial
03:33:17.327 PM 02/13/2016,Teleop Enabled,0,FALSE,0,NO ERROR,0.000000,0.000000,4000.000000,4000.000000,Speed,Speed,-0.250000,0.340000,2.520000,3.000000,101.000000,1,0,-0.010478,-0.010478,0,0.000000,0.000000,0.000000,0.009750,-0.007050,0.000000,-0.001000,0.014000,0.004000,FlatInitial
03:33:17.429 PM 02/13/2016,Teleop Enabled,0,FALSE,0,NO ERROR,0.000000,0.000000,4000.000000,4000.000000,Speed,Speed,-0.260000,0.320000,2.580000,3.000000,101.000000,1,0,-0.010478,-0.010478,0,0.001907,0.005020,0.000000,0.009766,-0.006790,0.000000,0.030000,-0.024000,0.010000,FlatInitial
03:33:17.528 PM 02/13/2016,Teleop Enabled,0,FALSE,0,NO ERROR,0.000000,0.000000,4000.000000,4000.000000,Speed,Speed,-0.250000,0.330000,2.520000,3.000000,102.000000,1,0,-0.010478,-0.010478,0,0.000000,-0.010056,0.000000,0.009857,-0.007126,0.000000,0.008000,-0.006000,0.024000,FlatInitial
03:33:17.629 PM 02/13/2016,Teleop Enabled,0,FALSE,0,NO ERROR,0.000000,0.000000,4000.000000,4000.000000,Speed,Speed,-0.260000,0.310000,2.280000,3.000000,101.000000,1,0,-0.010478,-0.010478,0,0.000000,0.004501,0.000000,0.009857,-0.007431,0.000000,0.004000,0.029000,0.016000,FlatInitial
03:33:17.730 PM 02/13/2016,Teleop Enabled,0,FALSE,0,NO ERROR,0.000000,0.000000,4000.000000,4000.000000,Speed,Speed,-0.270000,0.300000,2.650000,3.000000,102.000000,1,0,-0.010478,-0.010478,0,0.003143,-0.003937,0.000000,0.010056,-0.007080,0.000000,0.035000,-0.040000,0.037000,FlatInitial
03:33:17.832 PM 02/13/2016,Teleop Enabled,0,FALSE,0,NO ERROR,0.000000,0.000000,4000.000000,4000.000000,Speed,Speed,-0.270000,0.320000,2.320000,3.000000,102.000000,1,0,-0.010478,-0.010478,0,0.000000,0.003067,0.000000,0.010117,-0.007401,0.000000,0.006000,0.000000,-0.005000,FlatInitial
03:33:17.933 PM 02/13/2016,Teleop Enabled,0,FALSE,0,NO ERROR,0.000000,0.000000,4000.000000,4000.000000,Speed,Speed,-0.260000,0.320000,2.440000,3.000000,101.000000,1,0,-0.010478,-0.010478,0,0.000000,0.003098,0.000000,0.010117,-0.007202,0.000000,0.010000,0.019000,0.062000,FlatInitial
03:33:18.034 PM 02/13/2016,Teleop Enabled,0,FALSE,0,NO ERROR,0.000000,0.000000,4000.000000,4000.000000,Speed,Speed,-0.280000,0.330000,2.420000,3.000000,102.000000,1,0,-0.010478,-0.010478,0,0.004242,0.020782,0.000000,0.010162,-0.006790,0.000000,0.015000,-0.016000,0.030000,FlatInitial
03:33:18.137 PM 02/13/2016,Teleop Enabled,0,FALSE,0,NO ERROR,0.000000,0.000000,4000.000000,4000.000000,Speed,Speed,-0.280000,0.210000,1.050000,3.000000,102.000000,1,0,-0.010478,-0.010478,0,0.065689,-0.256165,0.000000,0.012329,-0.013885,0.000000,-0.507000,0.152000,-0.721000,FlatInitial
03:33:18.239 PM 02/13/2016,Teleop Enabled,0,FALSE,0,NO ERROR,0.000000,0.000000,4000.000000,4000.000000,Speed,Speed,-0.350000,0.300000,2.220000,3.000000,101.000000,1,0,-0.010478,-0.010478,0,-0.022720,-0.149811,0.000000,0.011871,-0.020416,0.000000,0.078000,0.131000,-0.415000,FlatInitial
03:33:18.339 PM 02/13/2016,Teleop Enabled,0,FALSE,0,NO ERROR,0.000000,0.000000,4000.000000,4000.000000,Speed,Speed,-0.320000,0.530000,2.310000,3.000000,102.000000,1,0,-0.010478,-0.010478,0,0.040451,-0.078644,0.000000,0.012756,-0.026993,0.000000,-0.021000,0.074000,-0.243000,FlatInitial
03:33:18.440 PM 02/13/2016,Teleop Enabled,0,FALSE,0,NO ERROR,0.000000,0.000000,4000.000000,4000.000000,Speed,Speed,-0.340000,0.380000,2.360000,3.000000,101.000000,1,0,-0.010478,-0.010478,0,0.027466,-0.054550,0.000000,0.013733,-0.029480,0.000000,-0.012000,-0.066000,-0.076000,FlatInitial
03:33:18.540 PM 02/13/2016,Teleop Enabled,0,FALSE,0,NO ERROR,0.000000,0.000000,4000.000000,4000.000000,Speed,Speed,-0.300000,0.360000,2.220000,3.000000,101.000000,1,0,-0.010478,-0.010478,0,0.032990,-0.067093,0.000000,0.015610,-0.033676,0.000000,0.038000,0.040000,-0.005000,FlatInitial
03:33:18.640 PM 02/13/2016,Teleop Enabled,0,FALSE,0,NO ERROR,0.000000,0.000000,4000.000000,4000.000000,Speed,Speed,-0.320000,0.350000,2.190000,3.000000,101.000000,1,0,-0.010478,-0.010478,0,0.034103,-0.066269,0.000000,0.017654,-0.037277,0.000000,0.001000,0.007000,0.147000,FlatInitial
03:33:18.741 PM 02/13/2016,Teleop Enabled,0,FALSE,0,NO ERROR,0.000000,0.000000,4000.000000,4000.000000,Speed,Speed,-0.300000,0.400000,2.190000,3.000000,102.000000,1,0,-0.010478,-0.010478,0,0.062531,-0.074417,0.000000,0.020660,-0.040726,0.000000,0.004000,0.050000,0.093000,FlatInitial
03:33:18.841 PM 02/13/2016,Teleop Enabled,0,FALSE,0,NO ERROR,0.000000,0.000000,4000.000000,4000.000000,Speed,Speed,-0.300000,0.350000,2.300000,3.000000,101.000000,1,0,-0.010478,-0.010478,0,0.008011,-0.056351,0.000000,0.021149,-0.043411,0.000000,0.021000,-0.014000,-0.040000,FlatInitial
03:33:18.941 PM 02/13/2016,Teleop Enabled,0,FALSE,0,NO ERROR,0.000000,0.000000,4000.000000,4000.000000,Speed,Speed,-0.310000,0.350000,2.310000,3.000000,102.000000,1,0,-0.010478,-0.010478,0,0.011627,-0.044968,0.000000,0.021851,-0.046051,0.000000,0.007000,0.009000,-0.011000,FlatInitial
03:33:19.041 PM 02/13/2016,Teleop Enabled,0,FALSE,0,NO ERROR,0.000000,0.000000,4000.000000,4000.000000,Speed,Speed,-0.300000,0.350000,2.280000,3.000000,101.000000,1,0,-0.010478,-0.010478,0,0.000000,-0.057861,0.000000,0.021851,-0.048645,0.000000,-0.003000,0.004000,-0.007000,FlatInitial
03:33:19.141 PM 02/13/2016,Teleop Enabled,0,FALSE,0,NO ERROR,0.000000,0.000000,4000.000000,4000.000000,Speed,Speed,-0.310000,0.350000,2.280000,3.000000,102.000000,1,0,-0.010478,-0.010478,0,0.000000,0.000000,0.000000,0.021851,-0.049210,0.000000,-0.013000,0.013000,0.013000,FlatInitial
03:33:19.242 PM 02/13/2016,Teleop Enabled,0,FALSE,0,NO ERROR,0.000000,0.000000,4000.000000,4000.000000,Speed,Speed,-0.300000,0.330000,2.340000,3.000000,102.000000,1,0,-0.010478,-0.010478,0,0.000000,0.000000,0.000000,0.021851,-0.049210,0.000000,0.002000,-0.017000,0.024000,FlatInitial
03:33:19.342 PM 02/13/2016,Teleop Enabled,0,FALSE,0,NO ERROR,0.000000,0.000000,4000.000000,4000.000000,Speed,Speed,-0.300000,0.330000,2.340000,3.000000,101.000000,1,0,-0.010478,-0.010478,0,-0.000092,0.000000,0.000000,0.021774,-0.049210,0.000000,0.007000,0.001000,0.009000,FlatInitial
03:33:19.442 PM 02/13/2016,Teleop Enabled,0,FALSE,0,NO ERROR,0.000000,0.000000,4000.000000,4000.000000,Speed,Speed,-0.290000,0.320000,2.400000,3.000000,103.000000,1,0,-0.010478,-0.010478,0,0.000397,0.000000,0.000000,0.021835,-0.049210,0.000000,0.003000,-0.002000,-0.040000,FlatInitial
03:33:19.542 PM 02/13/2016,Teleop Enabled,0,FALSE,0,NO ERROR,0.000000,0.000000,4000.000000,4000.000000,Speed,Speed,-0.270000,0.310000,2.490000,3.000000,100.000000,1,0,-0.010478,-0.010478,0,-0.005341,0.000000,0.000000,0.021744,-0.049210,0.000000,0.043000,0.000000,0.022000,FlatInitial
03:33:19.642 PM 02/13/2016,Teleop Enabled,0,FALSE,0,NO ERROR,0.000000,0.000000,4000.000000,4000.000000,Speed,Speed,-0.280000,0.330000,2.550000,3.000000,102.000000,1,0,-0.010478,-0.010478,0,0.004547,0.018127,0.000000,0.021835,-0.048828,0.000000,-0.014000,0.030000,0.066000,FlatInitial
03:33:19.742 PM 02/13/2016,Teleop Enabled,0,FALSE,0,NO ERROR,0.000000,0.000000,4000.000000,4000.000000,Speed,Speed,-0.320000,0.310000,2.420000,3.000000,101.000000,1,0,-0.010478,-0.010478,0,0.004929,0.054703,0.000000,0.022110,-0.046844,0.000000,-0.005000,0.000000,0.047000,FlatInitial
03:33:19.842 PM 02/13/2016,Teleop Enabled,0,FALSE,0,NO ERROR,0.000000,0.000000,4000.000000,4000.000000,Speed,Speed,-0.310000,0.330000,2.370000,3.000000,101.000000,1,0,-0.010478,-0.010478,0,0.001556,0.033585,0.000000,0.022293,-0.043976,0.000000,0.022000,-0.044000,0.052000,FlatInitial
03:33:19.942 PM 02/13/2016,Teleop Enabled,0,FALSE,0,NO ERROR,0.000000,0.000000,4000.000000,4000.000000,Speed,Speed,-0.350000,0.330000,2.170000,3.000000,102.000000,1,0,-0.010478,-0.010478,0,-0.001160,0.016403,0.000000,0.022354,-0.043182,0.000000,0.019000,-0.036000,0.052000,FlatInitial
03:33:20.043 PM 02/13/2016,Teleop Enabled,0,FALSE,0,NO ERROR,0.000000,0.000000,4000.000000,4000.000000,Speed,Speed,-0.330000,0.300000,1.470000,3.000000,101.000000,1,0,-0.010478,-0.010478,0,-0.023605,-0.050873,0.000000,0.022049,-0.043915,0.000000,-0.103000,0.054000,0.248000,FlatInitial
03:33:20.143 PM 02/13/2016,Teleop Enabled,0,FALSE,0,NO ERROR,0.000000,0.000000,4000.000000,4000.000000,Speed,Speed,-0.400000,0.510000,1.790000,3.000000,102.000000,1,0,-0.010478,-0.010478,0,-0.011490,0.064667,0.000000,0.021454,-0.043076,0.000000,-0.074000,-0.006000,0.596000,FlatInitial
03:33:20.243 PM 02/13/2016,Teleop Enabled,0,FALSE,0,NO ERROR,0.000000,0.000000,4000.000000,4000.000000,Speed,Speed,-0.240000,0.390000,2.440000,3.000000,104.000000,1,0,-0.010478,-0.010478,0,-0.001923,0.084961,0.000000,0.019852,-0.039017,0.000000,0.023000,0.011000,0.401000,FlatInitial
03:33:20.344 PM 02/13/2016,Teleop Enabled,0,FALSE,0,NO ERROR,0.000000,0.000000,4000.000000,4000.000000,Speed,Speed,-0.310000,0.280000,2.400000,3.000000,101.000000,1,0,-0.010478,-0.010478,0,-0.026672,0.103912,0.000000,0.018784,-0.034195,0.000000,0.190000,0.068000,-0.033000,FlatInitial
03:33:20.444 PM 02/13/2016,Teleop Enabled,0,FALSE,0,NO ERROR,0.000000,0.000000,4000.000000,4000.000000,Speed,Speed,-0.330000,0.320000,2.360000,3.000000,101.000000,1,0,-0.010478,-0.010478,0,-0.025894,0.096985,0.000000,0.017990,-0.028976,0.000000,-0.022000,-0.084000,-0.030000,FlatInitial
03:33:20.544 PM 02/13/2016,Teleop Enabled,0,FALSE,0,NO ERROR,0.000000,0.000000,4000.000000,4000.000000,Speed,Speed,-0.290000,0.330000,2.220000,3.000000,101.000000,1,0,-0.010478,-0.010478,0,-0.002441,0.061401,0.000000,0.017899,-0.025314,0.000000,-0.105000,-0.004000,-0.087000,FlatInitial
03:33:20.644 PM 02/13/2016,Teleop Enabled,0,FALSE,0,NO ERROR,0.000000,0.000000,4000.000000,4000.000000,Speed,Speed,-0.300000,0.350000,2.320000,3.000000,101.000000,1,0,-0.010478,-0.010478,0,0.012787,0.068985,0.000000,0.018066,-0.022171,0.000000,-0.018000,0.001000,-0.013000,FlatInitial
03:33:20.745 PM 02/13/2016,Teleop Enabled,0,FALSE,0,NO ERROR,0.000000,0.000000,4000.000000,4000.000000,Speed,Speed,-0.300000,0.330000,2.300000,3.000000,101.000000,1,0,-0.010478,-0.010478,0,0.005371,0.078720,0.000000,0.018448,-0.019089,0.000000,-0.030000,0.058000,-0.010000,FlatInitial
03:33:20.845 PM 02/13/2016,Teleop Enabled,0,FALSE,0,NO ERROR,0.000000,0.000000,4000.000000,4000.000000,Speed,Speed,-0.290000,0.350000,2.430000,3.000000,102.000000,1,0,-0.010478,-0.010478,0,0.003433,0.095078,0.000000,0.018723,-0.014374,0.000000,0.021000,-0.057000,0.162000,FlatInitial
03:33:20.945 PM 02/13/2016,Teleop Enabled,0,FALSE,0,NO ERROR,0.000000,0.000000,4000.000000,4000.000000,Speed,Speed,-0.310000,0.290000,2.400000,3.000000,103.000000,1,0,-0.010478,-0.010478,0,-0.008881,-0.007416,0.000000,0.018845,-0.012177,0.000000,0.058000,0.031000,-0.031000,FlatInitial
03:33:21.045 PM 02/13/2016,Teleop Enabled,0,FALSE,0,NO ERROR,0.000000,0.000000,4000.000000,4000.000000,Speed,Speed,-0.300000,0.300000,2.380000,3.000000,105.000000,1,0,-0.010478,-0.010478,0,0.001144,0.014603,0.000000,0.018784,-0.012177,0.000000,0.022000,0.022000,0.157000,FlatInitial
03:33:21.146 PM 02/13/2016,Teleop Enabled,0,FALSE,0,NO ERROR,0.000000,0.000000,4000.000000,4000.000000,Speed,Speed,-0.310000,0.330000,2.440000,3.000000,101.000000,1,0,-0.010478,-0.010478,0,0.017517,0.029678,0.000000,0.019302,-0.010696,0.000000,-0.025000,-0.079000,-0.032000,FlatInitial
03:33:21.245 PM 02/13/2016,Teleop Enabled,0,FALSE,0,NO ERROR,0.000000,0.000000,4000.000000,4000.000000,Speed,Speed,-0.310000,0.300000,2.420000,3.000000,102.000000,1,0,-0.010478,-0.010478,0,0.005585,-0.001907,0.000000,0.019730,-0.010635,0.000000,0.021000,-0.013000,0.038000,FlatInitial
03:33:21.346 PM 02/13/2016,Teleop Enabled,0,FALSE,0,NO ERROR,0.000000,0.000000,4000.000000,4000.000000,Speed,Speed,-0.290000,0.350000,2.440000,3.000000,101.000000,1,0,-0.010478,-0.010478,0,0.030334,0.004044,0.000000,0.020828,-0.010452,0.000000,0.062000,0.034000,-0.069000,FlatInitial
03:33:21.446 PM 02/13/2016,Teleop Enabled,0,FALSE,0,NO ERROR,0.000000,0.000000,4000.000000,4000.000000,Speed,Speed,-0.320000,0.350000,2.290000,3.000000,104.000000,1,0,-0.010478,-0.010478,0,0.044540,0.010986,0.000000,0.022751,-0.010071,0.000000,0.036000,0.002000,-0.049000,FlatInitial
03:33:21.547 PM 02/13/2016,Teleop Enabled,0,FALSE,0,NO ERROR,0.000000,0.000000,4000.000000,4000.000000,Speed,Speed,-0.310000,0.400000,2.400000,3.000000,102.000000,1,0,-0.010478,-0.010478,0,0.055984,0.045990,0.000000,0.025070,-0.008072,0.000000,0.015000,-0.118000,0.382000,FlatInitial
03:33:21.647 PM 02/13/2016,Teleop Enabled,0,FALSE,0,NO ERROR,0.000000,0.000000,4000.000000,4000.000000,Speed,Speed,-0.210000,0.410000,2.350000,3.000000,104.000000,1,0,-0.010478,-0.010478,0,0.073334,0.033630,0.000000,0.028351,-0.006470,0.000000,-0.061000,0.030000,0.058000,FlatInitial
03:33:21.747 PM 02/13/2016,Teleop Enabled,0,FALSE,0,NO ERROR,0.000000,0.000000,4000.000000,4000.000000,Speed,Speed,-0.270000,0.380000,2.310000,3.000000,101.000000,1,0,-0.010478,-0.010478,0,0.066910,0.016800,0.000000,0.032059,-0.004944,0.000000,-0.026000,-0.058000,0.058000,FlatInitial
03:33:21.848 PM 02/13/2016,Teleop Enabled,0,FALSE,0,NO ERROR,0.000000,0.000000,4000.000000,4000.000000,Speed,Speed,-0.250000,0.310000,2.360000,3.000000,103.000000,1,0,-0.010478,-0.010478,0,0.049362,0.042770,0.000000,0.034958,-0.003128,0.000000,-0.009000,-0.055000,0.025000,FlatInitial
03:33:21.947 PM 02/13/2016,Teleop Enabled,0,FALSE,0,NO ERROR,0.000000,0.000000,4000.000000,4000.000000,Speed,Speed,-0.250000,0.340000,2.300000,3.000000,101.000000,1,0,-0.010478,-0.010478,0,0.000000,0.000000,0.000000,0.036591,-0.002319,0.000000,-0.002000,0.011000,0.044000,FlatInitial
03:33:22.048 PM 02/13/2016,Teleop Enabled,0,FALSE,0,NO ERROR,0.000000,0.000000,4000.000000,4000.000000,Speed,Speed,-0.260000,0.330000,2.330000,3.000000,101.000000,1,0,-0.010478,-0.010478,0,0.000000,0.000000,0.000000,0.036591,-0.002213,0.000000,0.005000,0.013000,-0.021000,FlatInitial
03:33:22.148 PM 02/13/2016,Teleop Enabled,0,FALSE,0,NO ERROR,0.000000,0.000000,4000.000000,4000.000000,Speed,Speed,-0.260000,0.330000,2.340000,3.000000,101.000000,1,0,-0.010478,-0.010478,0,0.000000,0.000000,0.000000,0.036591,-0.002213,0.000000,0.003000,-0.006000,-0.002000,FlatInitial
03:33:22.249 PM 02/13/2016,Teleop Enabled,0,FALSE,0,NO ERROR,0.000000,0.000000,4000.000000,4000.000000,Speed,Speed,-0.270000,0.330000,2.360000,3.000000,101.000000,1,0,-0.010478,-0.010478,0,0.000000,0.000000,0.000000,0.036591,-0.002213,0.000000,0.004000,0.002000,0.007000,FlatInitial
03:33:22.349 PM 02/13/2016,Teleop Enabled,0,FALSE,0,NO ERROR,0.000000,0.000000,4000.000000,4000.000000,Speed,Speed,-0.250000,0.340000,2.420000,3.000000,102.000000,1,0,-0.010478,-0.010478,0,0.003830,0.000000,0.000000,0.036652,-0.002213,0.000000,0.014000,-0.026000,0.083000,FlatInitial
03:33:22.450 PM 02/13/2016,Teleop Enabled,0,FALSE,0,NO ERROR,0.000000,0.000000,4000.000000,4000.000000,Speed,Speed,-0.260000,0.330000,2.450000,3.000000,102.000000,1,0,-0.010478,-0.010478,0,0.000000,-0.020432,0.000000,0.036697,-0.002884,0.000000,0.001000,0.030000,-0.001000,FlatInitial
03:33:22.550 PM 02/13/2016,Teleop Enabled,0,FALSE,0,NO ERROR,0.000000,0.000000,4000.000000,4000.000000,Speed,Speed,-0.240000,0.360000,2.500000,3.000000,103.000000,1,0,-0.010478,-0.010478,0,0.000000,0.007965,0.000000,0.036591,-0.003113,0.000000,-0.008000,0.019000,0.063000,FlatInitial
03:33:22.651 PM 02/13/2016,Teleop Enabled,0,FALSE,0,NO ERROR,0.000000,0.000000,4000.000000,4000.000000,Speed,Speed,-0.270000,0.340000,2.480000,3.000000,104.000000,1,0,-0.010478,-0.010478,0,0.000000,0.024506,0.000000,0.036591,-0.002228,0.000000,0.007000,0.022000,0.000000,FlatInitial
03:33:22.751 PM 02/13/2016,Teleop Enabled,0,FALSE,0,NO ERROR,0.000000,0.000000,4000.000000,4000.000000,Speed,Speed,-0.260000,0.350000,2.530000,3.000000,102.000000,1,0,-0.010478,-0.010478,0,0.000000,0.000000,0.000000,0.036591,-0.001617,0.000000,-0.002000,-0.028000,-0.011000,FlatInitial
03:33:22.851 PM 02/13/2016,Teleop Enabled,0,FALSE,0,NO ERROR,0.000000,0.000000,4000.000000,4000.000000,Speed,Speed,-0.280000,0.340000,2.360000,3.000000,101.000000,1,0,-0.010478,-0.010478,0,0.000000,0.000000,0.000000,0.036591,-0.001923,0.000000,0.002000,0.012000,-0.014000,FlatInitial
03:33:22.952 PM 02/13/2016,Teleop Enabled,0,FALSE,0,NO ERROR,0.000000,0.000000,4000.000000,4000.000000,Speed,Speed,-0.260000,0.330000,2.430000,3.000000,102.000000,1,0,-0.010478,-0.010478,0,0.000000,-0.007996,0.000000,0.036591,-0.002045,0.000000,-0.006000,-0.015000,0.020000,FlatInitial
03:33:23.053 PM 02/13/2016,Teleop Enabled,0,FALSE,0,NO ERROR,0.000000,0.000000,4000.000000,4000.000000,Speed,Speed,-0.250000,0.340000,2.350000,3.000000,101.000000,1,0,-0.010478,-0.010478,0,0.000000,0.003601,0.000000,0.036591,-0.002121,0.000000,-0.001000,0.025000,-0.011000,FlatInitial
03:33:23.153 PM 02/13/2016,Teleop Enabled,0,FALSE,0,NO ERROR,0.000000,0.000000,4000.000000,4000.000000,Speed,Speed,-0.250000,0.330000,2.470000,3.000000,105.000000,1,0,-0.010478,-0.010478,0,0.000000,0.000000,0.000000,0.036591,-0.001923,0.000000,-0.005000,0.000000,0.015000,FlatInitial
03:33:23.254 PM 02/13/2016,Teleop Enabled,0,FALSE,0,NO ERROR,0.000000,0.000000,4000.000000,4000.000000,Speed,Speed,-0.250000,0.330000,2.440000,3.000000,101.000000,1,0,-0.010478,-0.010478,0,0.000000,0.000000,0.000000,0.036591,-0.001923,0.000000,-0.002000,-0.007000,0.011000,FlatInitial
03:33:23.353 PM 02/13/2016,Teleop Enabled,0,FALSE,0,NO ERROR,0.000000,0.000000,4000.000000,4000.000000,Speed,Speed,-0.250000,0.320000,2.410000,3.000000,101.000000,1,0,-0.010478,-0.010478,0,0.000000,0.000000,0.000000,0.036591,-0.001923,0.000000,0.001000,0.001000,0.004000,FlatInitial
03:33:23.454 PM 02/13/2016,Teleop Enabled,0,FALSE,0,NO ERROR,0.000000,0.000000,4000.000000,4000.000000,Speed,Speed,-0.250000,0.320000,2.420000,3.000000,103.000000,1,0,-0.010478,-0.010478,0,0.000000,0.000000,0.000000,0.036591,-0.001923,0.000000,0.002000,0.000000,0.008000,FlatInitial
03:33:23.554 PM 02/13/2016,Teleop Enabled,0,FALSE,0,NO ERROR,0.000000,0.000000,4000.000000,4000.000000,Speed,Speed,-0.250000,0.320000,2.420000,3.000000,101.000000,1,0,-0.010478,-0.010478,0,0.000000,0.000000,0.000000,0.036591,-0.001923,0.000000,-0.001000,0.004000,0.009000,FlatInitial
03:33:23.655 PM 02/13/2016,Teleop Enabled,0,FALSE,0,NO ERROR,0.000000,0.000000,4000.000000,4000.000000,Speed,Speed,-0.250000,0.320000,2.430000,3.000000,102.000000,1,0,-0.010478,-0.010478,0,0.000000,0.000000,0.000000,0.036591,-0.001923,0.000000,0.000000,0.000000,0.003000,FlatInitial
03:33:23.755 PM 02/13/2016,Teleop Enabled,0,FALSE,0,NO ERROR,0.000000,0.000000,4000.000000,4000.000000,Speed,Speed,-0.250000,0.330000,2.430000,3.000000,102.000000,1,0,-0.010478,-0.010478,0,0.000000,0.000000,0.000000,0.036591,-0.001923,0.000000,-0.001000,-0.002000,0.009000,FlatInitial
03:33:23.856 PM 02/13/2016,Teleop Enabled,0,FALSE,0,NO ERROR,0.000000,0.000000,4000.000000,4000.000000,Speed,Speed,-0.250000,0.330000,2.430000,3.000000,101.000000,1,0,-0.010478,-0.010478,0,0.000000,0.000000,0.000000,0.036591,-0.001923,0.000000,-0.003000,-0.003000,0.003000,FlatInitial
03:33:23.957 PM 02/13/2016,Teleop Enabled,0,FALSE,0,NO ERROR,0.000000,0.000000,4000.000000,4000.000000,Speed,Speed,-0.250000,0.330000,2.410000,3.000000,101.000000,1,0,-0.010478,-0.010478,0,0.000000,0.000000,0.000000,0.036591,-0.001923,0.000000,-0.004000,0.013000,0.066000,FlatInitial
03:33:24.057 PM 02/13/2016,Teleop Enabled,0,FALSE,0,NO ERROR,0.000000,0.000000,4000.000000,4000.000000,Speed,Speed,-0.260000,0.340000,2.470000,3.000000,102.000000,1,0,-0.010478,-0.010478,0,-0.001404,-0.001938,0.000000,0.036575,-0.001740,0.000000,-0.025000,-0.023000,0.030000,FlatInitial
03:33:24.158 PM 02/13/2016,Teleop Enabled,0,FALSE,0,NO ERROR,0.000000,0.000000,4000.000000,4000.000000,Speed,Speed,-0.260000,0.320000,2.370000,3.000000,102.000000,1,0,-0.010478,-0.010478,0,0.000000,0.000000,0.000000,0.036469,-0.001923,0.000000,0.002000,0.031000,-0.003000,FlatInitial
03:33:24.259 PM 02/13/2016,Teleop Enabled,0,FALSE,0,NO ERROR,0.000000,0.000000,4000.000000,4000.000000,Speed,Speed,-0.250000,0.330000,2.440000,3.000000,104.000000,1,0,-0.010478,-0.010478,0,0.000000,-0.004547,0.000000,0.036469,-0.001785,0.000000,-0.008000,-0.029000,0.043000,FlatInitial
03:33:24.360 PM 02/13/2016,Teleop Enabled,0,FALSE,0,NO ERROR,0.000000,0.000000,4000.000000,4000.000000,Speed,Speed,-0.260000,0.320000,2.410000,3.000000,101.000000,1,0,-0.010478,-0.010478,0,0.000000,0.000000,0.000000,0.036469,-0.001968,0.000000,0.004000,0.002000,0.009000,FlatInitial
03:33:24.462 PM 02/13/2016,Teleop Enabled,0,FALSE,0,NO ERROR,0.000000,0.000000,4000.000000,4000.000000,Speed,Speed,-0.250000,0.320000,2.460000,3.000000,101.000000,1,0,-0.010478,-0.010478,0,0.000000,0.000000,0.000000,0.036469,-0.001968,0.000000,-0.001000,0.006000,0.000000,FlatInitial
03:33:24.562 PM 02/13/2016,Teleop Enabled,0,FALSE,0,NO ERROR,0.000000,0.000000,4000.000000,4000.000000,Speed,Speed,-0.250000,0.310000,2.510000,3.000000,101.000000,1,0,-0.010478,-0.010478,0,-0.001236,-0.007721,0.000000,0.036423,-0.002167,0.000000,-0.024000,-0.083000,-0.032000,FlatInitial
03:33:24.663 PM 02/13/2016,Teleop Enabled,0,FALSE,0,NO ERROR,0.000000,0.000000,4000.000000,4000.000000,Speed,Speed,-0.190000,0.400000,2.490000,3.000000,102.000000,1,0,-0.010478,-0.010478,0,0.003113,-0.016403,0.000000,0.036377,-0.003464,0.000000,-0.038000,0.052000,0.044000,FlatInitial
03:33:24.764 PM 02/13/2016,Teleop Enabled,0,FALSE,0,NO ERROR,0.000000,0.000000,4000.000000,4000.000000,Speed,Speed,-0.310000,0.330000,2.690000,3.000000,101.000000,1,0,-0.010478,-0.010478,0,-0.010010,0.000000,0.000000,0.035995,-0.002914,0.000000,0.014000,0.039000,-0.066000,FlatInitial
03:33:24.865 PM 02/13/2016,Teleop Enabled,0,FALSE,0,NO ERROR,0.000000,0.000000,4000.000000,4000.000000,Speed,Speed,-0.190000,0.340000,2.630000,3.000000,103.000000,1,0,-0.010478,-0.010478,0,-0.007614,-0.004761,0.000000,0.035446,-0.002686,0.000000,-0.007000,-0.034000,-0.026000,FlatInitial
03:33:24.966 PM 02/13/2016,Teleop Enabled,0,FALSE,0,NO ERROR,0.000000,0.000000,4000.000000,4000.000000,Speed,Speed,-0.260000,0.360000,2.520000,3.000000,101.000000,1,0,-0.010478,-0.010478,0,0.003372,0.000000,0.000000,0.035568,-0.002930,0.000000,-0.006000,0.000000,0.014000,FlatInitial
03:33:25.065 PM 02/13/2016,Teleop Enabled,0,FALSE,0,NO ERROR,0.000000,0.000000,4000.000000,4000.000000,Speed,Speed,-0.250000,0.350000,2.450000,3.000000,101.000000,1,0,-0.010478,-0.010478,0,0.000000,0.006149,0.000000,0.035568,-0.002777,0.000000,0.013000,0.008000,-0.036000,FlatInitial
03:33:25.167 PM 02/13/2016,Teleop Enabled,0,FALSE,0,NO ERROR,0.000000,0.000000,4000.000000,4000.000000,Speed,Speed,-0.230000,0.370000,2.400000,3.000000,101.000000,1,0,-0.010478,-0.010478,0,0.000946,0.000000,0.000000,0.035538,-0.002930,0.000000,0.029000,0.017000,-0.037000,FlatInitial
03:33:25.266 PM 02/13/2016,Teleop Enabled,0,FALSE,0,NO ERROR,0.000000,0.000000,4000.000000,4000.000000,Speed,Speed,-0.260000,0.360000,2.350000,3.000000,101.000000,1,0,-0.010478,-0.010478,0,0.000000,0.000000,0.000000,0.035583,-0.002930,0.000000,0.000000,-0.003000,-0.004000,FlatInitial
03:33:25.366 PM 02/13/2016,Teleop Enabled,0,FALSE,0,NO ERROR,0.000000,0.000000,4000.000000,4000.000000,Speed,Speed,-0.290000,0.320000,2.060000,3.000000,100.000000,1,0,-0.010478,-0.010478,0,-0.000168,-0.038620,0.000000,0.035492,-0.003647,0.000000,0.079000,-0.083000,0.171000,FlatInitial
03:33:25.466 PM 02/13/2016,Teleop Enabled,0,FALSE,0,NO ERROR,0.000000,0.000000,4000.000000,4000.000000,Speed,Speed,-0.300000,0.400000,0.990000,3.000000,101.000000,1,0,-0.010478,-0.010478,0,0.042404,-0.035217,0.000000,0.036255,-0.006073,0.000000,0.065000,0.088000,-0.230000,FlatInitial
03:33:25.566 PM 02/13/2016,Teleop Enabled,0,FALSE,0,NO ERROR,0.000000,0.000000,4000.000000,4000.000000,Speed,Speed,-0.360000,0.270000,3.080000,3.000000,102.000000,1,0,-0.010478,-0.010478,0,-0.026062,-0.034225,0.000000,0.036835,-0.007355,0.000000,0.032000,0.001000,-0.354000,FlatInitial
03:33:25.667 PM 02/13/2016,Teleop Enabled,0,FALSE,0,NO ERROR,0.000000,0.000000,4000.000000,4000.000000,Speed,Speed,-0.370000,0.310000,2.560000,3.000000,101.000000,1,0,-0.010478,-0.010478,0,-0.019653,0.017502,0.000000,0.036926,-0.007492,0.000000,-0.110000,0.117000,-0.096000,FlatInitial
03:33:25.767 PM 02/13/2016,Teleop Enabled,0,FALSE,0,NO ERROR,0.000000,0.000000,4000.000000,4000.000000,Speed,Speed,-0.370000,0.340000,2.430000,3.000000,102.000000,1,0,-0.010478,-0.010478,0,0.011276,0.021957,0.000000,0.036789,-0.006897,0.000000,-0.032000,-0.070000,0.028000,FlatInitial
03:33:25.868 PM 02/13/2016,Teleop Enabled,0,FALSE,0,NO ERROR,0.000000,0.000000,4000.000000,4000.000000,Speed,Speed,-0.340000,0.330000,2.390000,3.000000,102.000000,1,0,-0.010478,-0.010478,0,0.001328,0.000000,0.000000,0.036697,-0.006882,0.000000,0.020000,-0.005000,0.110000,FlatInitial
03:33:25.969 PM 02/13/2016,Teleop Enabled,0,FALSE,0,NO ERROR,0.000000,0.000000,4000.000000,4000.000000,Speed,Speed,-0.330000,0.320000,2.330000,3.000000,101.000000,1,0,-0.010478,-0.010478,0,-0.001099,-0.011551,0.000000,0.036438,-0.007263,0.000000,0.015000,-0.012000,0.036000,FlatInitial
03:33:26.069 PM 02/13/2016,Teleop Enabled,0,FALSE,0,NO ERROR,0.000000,0.000000,4000.000000,4000.000000,Speed,Speed,-0.330000,0.320000,2.390000,3.000000,101.000000,1,0,-0.010478,-0.010478,0,0.000000,0.007278,0.000000,0.036438,-0.007111,0.000000,0.012000,-0.005000,0.013000,FlatInitial
03:33:26.168 PM 02/13/2016,Teleop Enabled,0,FALSE,0,NO ERROR,0.000000,0.000000,4000.000000,4000.000000,Speed,Speed,-0.340000,0.320000,2.370000,3.000000,104.000000,1,0,-0.010478,-0.010478,0,0.000000,0.000000,0.000000,0.036438,-0.007111,0.000000,0.006000,-0.012000,0.014000,FlatInitial
03:33:26.269 PM 02/13/2016,Teleop Enabled,0,FALSE,0,NO ERROR,0.000000,0.000000,4000.000000,4000.000000,Speed,Speed,-0.340000,0.320000,2.370000,3.000000,102.000000,1,0,-0.010478,-0.010478,0,0.000000,0.000000,0.000000,0.036438,-0.007111,0.000000,-0.002000,0.002000,0.001000,FlatInitial
03:33:26.370 PM 02/13/2016,Teleop Enabled,0,FALSE,0,NO ERROR,0.000000,0.000000,4000.000000,4000.000000,Speed,Speed,-0.340000,0.320000,2.340000,3.000000,101.000000,1,0,-0.010478,-0.010478,0,0.000000,0.000000,0.000000,0.036438,-0.007111,0.000000,-0.007000,0.006000,-0.013000,FlatInitial
03:33:26.470 PM 02/13/2016,Teleop Enabled,0,FALSE,0,NO ERROR,0.000000,0.000000,4000.000000,4000.000000,Speed,Speed,-0.340000,0.310000,2.430000,3.000000,102.000000,1,0,-0.010478,-0.010478,0,0.000000,-0.005814,0.000000,0.036438,-0.007187,0.000000,0.000000,0.017000,0.007000,FlatInitial
03:33:26.570 PM 02/13/2016,Teleop Enabled,0,FALSE,0,NO ERROR,0.000000,0.000000,4000.000000,4000.000000,Speed,Speed,-0.320000,0.310000,2.040000,3.000000,104.000000,1,0,-0.010478,-0.010478,0,0.001617,0.021866,0.000000,0.036453,-0.006821,0.000000,0.000000,0.004000,-0.098000,FlatInitial
03:33:26.670 PM 02/13/2016,Teleop Enabled,0,FALSE,0,NO ERROR,0.000000,0.000000,4000.000000,4000.000000,Speed,Speed,-0.260000,0.310000,2.480000,3.000000,101.000000,1,0,-0.010478,-0.010478,0,-0.005417,0.000000,0.000000,0.036469,-0.006012,0.000000,0.033000,0.009000,0.085000,FlatInitial
03:33:26.771 PM 02/13/2016,Teleop Enabled,0,FALSE,0,NO ERROR,0.000000,0.000000,4000.000000,4000.000000,Speed,Speed,-0.250000,0.320000,2.270000,3.000000,101.000000,1,0,-0.010478,-0.010478,0,0.000000,0.000000,0.000000,0.036362,-0.006012,0.000000,-0.006000,-0.002000,0.063000,FlatInitial
03:33:26.871 PM 02/13/2016,Teleop Enabled,0,FALSE,0,NO ERROR,0.000000,0.000000,4000.000000,4000.000000,Speed,Speed,-0.280000,0.320000,2.380000,3.000000,101.000000,1,0,-0.010478,-0.010478,0,0.000000,0.000000,0.000000,0.036362,-0.006012,0.000000,0.003000,0.000000,-0.009000,FlatInitial
03:33:26.971 PM 02/13/2016,Teleop Enabled,0,FALSE,0,NO ERROR,0.000000,0.000000,4000.000000,4000.000000,Speed,Speed,-0.260000,0.320000,2.350000,3.000000,101.000000,1,0,-0.010478,-0.010478,0,0.000000,-0.004364,0.000000,0.036362,-0.006058,0.000000,-0.011000,-0.047000,0.037000,FlatInitial
03:33:27.070 PM 02/13/2016,Teleop Enabled,0,FALSE,0,NO ERROR,0.000000,0.000000,4000.000000,4000.000000,Speed,Speed,-0.260000,0.310000,2.210000,3.000000,102.000000,1,0,-0.010478,-0.010478,0,0.000000,0.002365,0.000000,0.036362,-0.006149,0.000000,0.000000,0.000000,0.020000,FlatInitial
03:33:27.171 PM 02/13/2016,Teleop Enabled,0,FALSE,0,NO ERROR,0.000000,0.000000,4000.000000,4000.000000,Speed,Speed,-0.280000,0.310000,2.380000,3.000000,103.000000,1,0,-0.010478,-0.010478,0,0.000000,0.000000,0.000000,0.036362,-0.006287,0.000000,0.001000,0.015000,0.036000,FlatInitial
03:33:27.272 PM 02/13/2016,Teleop Enabled,0,FALSE,0,NO ERROR,0.000000,0.000000,4000.000000,4000.000000,Speed,Speed,-0.260000,0.310000,2.380000,3.000000,101.000000,1,0,-0.010478,-0.010478,0,0.000000,0.000000,0.000000,0.036499,-0.006134,0.000000,0.002000,-0.010000,0.024000,FlatInitial
03:33:27.372 PM 02/13/2016,Teleop Enabled,0,FALSE,0,NO ERROR,0.000000,0.000000,4000.000000,4000.000000,Speed,Speed,-0.270000,0.310000,2.340000,3.000000,103.000000,1,0,-0.010478,-0.010478,0,0.000000,0.002350,0.000000,0.036499,-0.006104,0.000000,0.003000,0.027000,-0.010000,FlatInitial
03:33:27.473 PM 02/13/2016,Teleop Enabled,0,FALSE,0,NO ERROR,0.000000,0.000000,4000.000000,4000.000000,Speed,Speed,-0.260000,0.290000,2.530000,3.000000,102.000000,1,0,-0.010478,-0.010478,0,-0.005081,-0.030487,0.000000,0.036377,-0.007019,0.000000,-0.013000,-0.015000,-0.001000,FlatInitial
03:33:27.573 PM 02/13/2016,Teleop Enabled,0,FALSE,0,NO ERROR,0.000000,0.000000,4000.000000,4000.000000,Speed,Speed,-0.240000,0.310000,2.610000,3.000000,106.000000,1,0,-0.010478,-0.010478,0,0.001801,0.010803,0.000000,0.036484,-0.007111,0.000000,-0.013000,-0.015000,-0.001000,FlatInitial
03:33:27.673 PM 02/13/2016,Teleop Enabled,0,FALSE,0,NO ERROR,0.000000,0.000000,4000.000000,4000.000000,Speed,Speed,-0.290000,0.290000,2.390000,3.000000,101.000000,1,0,-0.010478,-0.010478,0,0.004669,0.063248,0.000000,0.036728,-0.005142,0.000000,0.010000,0.052000,-0.165000,FlatInitial
03:33:27.773 PM 02/13/2016,Teleop Enabled,0,FALSE,0,NO ERROR,0.000000,0.000000,4000.000000,4000.000000,Speed,Speed,-0.290000,0.300000,2.490000,3.000000,102.000000,1,0,-0.010478,-0.010478,0,0.000870,0.059906,0.000000,0.036880,-0.001678,0.000000,0.010000,0.052000,-0.165000,FlatInitial
03:33:27.873 PM 02/13/2016,Teleop Enabled,0,FALSE,0,NO ERROR,0.000000,0.000000,4000.000000,4000.000000,Speed,Speed,-0.290000,0.300000,1.880000,3.000000,101.000000,1,0,-0.010478,-0.010478,0,0.000000,0.013168,0.000000,0.036896,-0.000198,0.000000,-0.023000,-0.025000,0.000000,FlatInitial
03:33:27.973 PM 02/13/2016,Teleop Enabled,0,FALSE,0,NO ERROR,0.000000,0.000000,4000.000000,4000.000000,Speed,Speed,-0.310000,0.280000,2.410000,3.000000,102.000000,1,0,-0.010478,-0.010478,0,0.000000,0.013168,0.000000,0.036896,-0.000198,0.000000,-0.013000,-0.012000,-0.226000,FlatInitial
03:33:28.073 PM 02/13/2016,Teleop Enabled,0,FALSE,0,NO ERROR,0.000000,0.000000,4000.000000,4000.000000,Speed,Speed,-0.240000,0.370000,1.810000,3.000000,102.000000,1,0,-0.010478,-0.010478,0,-0.048401,-0.039658,0.000000,0.035553,-0.004700,0.000000,0.088000,-0.563000,0.540000,FlatInitial
03:33:28.173 PM 02/13/2016,Teleop Enabled,0,FALSE,0,NO ERROR,0.000000,0.000000,4000.000000,4000.000000,Speed,Speed,-0.260000,0.260000,2.680000,3.000000,104.000000,1,0,-0.010478,-0.010478,0,-0.091934,0.083313,0.000000,0.031433,-0.002014,0.000000,-0.067000,0.178000,0.224000,FlatInitial
03:33:28.273 PM 02/13/2016,Teleop Enabled,0,FALSE,0,NO ERROR,0.000000,0.000000,4000.000000,4000.000000,Speed,Speed,-0.230000,0.240000,2.490000,3.000000,101.000000,1,0,-0.010478,-0.010478,0,-0.078003,0.111115,0.000000,0.027939,0.002869,0.000000,0.137000,-0.016000,0.217000,FlatInitial
03:33:28.373 PM 02/13/2016,Teleop Enabled,0,FALSE,0,NO ERROR,0.000000,0.000000,4000.000000,4000.000000,Speed,Speed,-0.230000,0.240000,2.490000,3.000000,102.000000,1,0,-0.010478,-0.010478,0,-0.054138,-0.006714,0.000000,0.025223,0.006104,0.000000,0.084000,0.029000,0.159000,FlatInitial
03:33:28.474 PM 02/13/2016,Teleop Enabled,0,FALSE,0,NO ERROR,0.000000,0.000000,4000.000000,4000.000000,Speed,Speed,-0.240000,0.330000,2.260000,3.000000,101.000000,1,0,-0.010478,-0.010478,0,-0.054138,-0.006714,0.000000,0.025223,0.006104,0.000000,0.025000,-0.020000,0.057000,FlatInitial
03:33:28.574 PM 02/13/2016,Teleop Enabled,0,FALSE,0,NO ERROR,0.000000,0.000000,4000.000000,4000.000000,Speed,Speed,-0.210000,0.330000,2.290000,3.000000,101.000000,1,0,-0.010478,-0.010478,0,-0.047760,-0.057922,0.000000,0.022308,0.003525,0.000000,-0.063000,-0.028000,-0.025000,FlatInitial
03:33:28.675 PM 02/13/2016,Teleop Enabled,0,FALSE,0,NO ERROR,0.000000,0.000000,4000.000000,4000.000000,Speed,Speed,-0.220000,0.330000,2.340000,3.000000,102.000000,1,0,-0.010478,-0.010478,0,-0.053558,-0.030945,0.000000,0.019623,0.001236,0.000000,0.046000,0.042000,0.032000,FlatInitial
03:33:28.775 PM 02/13/2016,Teleop Enabled,0,FALSE,0,NO ERROR,0.000000,0.000000,4000.000000,4000.000000,Speed,Speed,-0.220000,0.330000,2.340000,3.000000,100.000000,1,0,-0.010478,-0.010478,0,0.000000,-0.006912,0.000000,0.017944,0.000900,0.000000,0.017000,-0.032000,0.066000,FlatInitial
03:33:28.874 PM 02/13/2016,Teleop Enabled,0,FALSE,0,NO ERROR,0.000000,0.000000,4000.000000,4000.000000,Speed,Speed,-0.240000,0.300000,2.430000,3.000000,102.000000,1,0,-0.010478,-0.010478,0,-0.003555,-0.009186,0.000000,0.017807,0.000076,0.000000,0.028000,0.020000,-0.117000,FlatInitial
03:33:28.975 PM 02/13/2016,Teleop Enabled,0,FALSE,0,NO ERROR,0.000000,0.000000,4000.000000,4000.000000,Speed,Speed,-0.230000,0.310000,2.420000,3.000000,100.000000,1,0,-0.010478,-0.010478,0,0.025131,0.005280,0.000000,0.018295,-0.000061,0.000000,0.053000,-0.025000,0.121000,FlatInitial
03:33:29.076 PM 02/13/2016,Teleop Enabled,0,FALSE,0,NO ERROR,0.000000,0.000000,4000.000000,4000.000000,Speed,Speed,-0.230000,0.310000,2.370000,3.000000,102.000000,1,0,-0.010478,-0.010478,0,0.000000,0.003937,0.000000,0.019302,-0.000549,0.000000,-0.007000,0.030000,-0.082000,FlatInitial
03:33:29.176 PM 02/13/2016,Teleop Enabled,0,FALSE,0,NO ERROR,0.000000,0.000000,4000.000000,4000.000000,Speed,Speed,-0.220000,0.320000,2.390000,3.000000,102.000000,1,0,-0.010478,-0.010478,0,0.000000,0.036667,0.000000,0.019119,0.000793,0.000000,0.010000,-0.006000,0.142000,FlatInitial
03:33:29.276 PM 02/13/2016,Teleop Enabled,0,FALSE,0,NO ERROR,0.000000,0.000000,4000.000000,4000.000000,Speed,Speed,-0.210000,0.300000,2.340000,3.000000,105.000000,1,0,-0.010478,-0.010478,0,-0.003220,-0.001450,0.000000,0.019272,0.001801,0.000000,-0.026000,0.012000,-0.050000,FlatInitial
03:33:29.378 PM 02/13/2016,Teleop Enabled,0,FALSE,0,NO ERROR,0.000000,0.000000,4000.000000,4000.000000,Speed,Speed,-0.220000,0.310000,2.390000,3.000000,102.000000,1,0,-0.010478,-0.010478,0,0.000000,0.014755,0.000000,0.018906,0.002411,0.000000,-0.008000,-0.040000,0.026000,FlatInitial
03:33:29.478 PM 02/13/2016,Teleop Enabled,0,FALSE,0,NO ERROR,0.000000,0.000000,4000.000000,4000.000000,Speed,Speed,-0.220000,0.300000,2.350000,3.000000,102.000000,1,0,-0.010478,-0.010478,0,0.023651,-0.002502,0.000000,0.019913,0.002945,0.000000,-0.015000,-0.013000,-0.101000,FlatInitial
03:33:29.579 PM 02/13/2016,Teleop Enabled,0,FALSE,0,NO ERROR,0.000000,0.000000,4000.000000,4000.000000,Speed,Speed,-0.200000,0.270000,2.120000,3.000000,101.000000,1,0,-0.010478,-0.010478,0,-0.018021,0.001495,0.000000,0.019531,0.002594,0.000000,-0.011000,0.060000,-0.141000,FlatInitial
03:33:29.680 PM 02/13/2016,Teleop Enabled,0,FALSE,0,NO ERROR,0.000000,0.000000,4000.000000,4000.000000,Speed,Speed,-0.220000,0.270000,2.410000,3.000000,102.000000,1,0,-0.010478,-0.010478,0,0.020966,0.026917,0.000000,0.019943,0.003433,0.000000,0.070000,-0.016000,0.034000,FlatInitial
03:33:29.780 PM 02/13/2016,Teleop Enabled,0,FALSE,0,NO ERROR,0.000000,0.000000,4000.000000,4000.000000,Speed,Speed,-0.230000,0.300000,2.420000,3.000000,101.000000,1,0,-0.010478,-0.010478,0,0.041412,0.025497,0.000000,0.022064,0.004807,0.000000,-0.001000,0.004000,-0.090000,FlatInitial
