Time,RobotMode,AutoToRun,ErrorStatus, ErrorCode,ErrorSource,ActualRPM1,ActualRPM2,DesiredRPM1,DesiredRPM2,ControlMode1,ControlMode2,NavXYaw,NavXRoll,NavXPitch,ShooterState,LoopTime,IsLevel,IsAutoTargeting,LeftMotorOutput,RightMotorOutput,IsHaloDrive,NavXVelocityX,NavXVelocityY,NavXVelocityZ,NavXDisplacementX,NavXDisplacementY,NavXDisplacementZ,NavXAccelerationX,NavXAccelerationY,NavXAccelerationZ,AutoDefendState
03:57:17.859 PM 02/13/2016,Autonomous Enabled,0,TRUE,-44087,NetComm_CAN_Receive.vi:5470006<APPEND>  <b>Complete call chain:</b>      NetComm_CAN_Receive.vi:5470006      WPI_CANTalonSRX_Receive.vi      WPI_MotorControlOpenCANTalonSRX.vi      Begin.vi      Robot Main.vi,0.000000,0.000000,0.000000,0.000000,Speed,Speed,-0.150000,0.660000,2.730000,0.000000,102.000000,1,0,-0.000000,0.000000,1,0.000000,0.000000,0.000000,3.439697,12.048157,0.000000,-0.001000,0.000000,0.006000,FlatFinal
03:57:17.958 PM 02/13/2016,Autonomous Enabled,0,TRUE,-44087,NetComm_CAN_Receive.vi:5470006<APPEND>  <b>Complete call chain:</b>      NetComm_CAN_Receive.vi:5470006      WPI_CANTalonSRX_Receive.vi      WPI_MotorControlOpenCANTalonSRX.vi      Begin.vi      Robot Main.vi,0.000000,0.000000,0.000000,0.000000,Speed,Speed,-0.150000,0.660000,2.730000,0.000000,103.000000,1,0,-0.000000,0.000000,1,0.000000,0.000000,0.000000,3.439697,12.048157,0.000000,-0.001000,0.000000,0.006000,FlatFinal
03:57:18.059 PM 02/13/2016,Autonomous Enabled,0,TRUE,-44087,NetComm_CAN_Receive.vi:5470006<APPEND>  <b>Complete call chain:</b>      NetComm_CAN_Receive.vi:5470006      WPI_CANTalonSRX_Receive.vi      WPI_MotorControlOpenCANTalonSRX.vi      Begin.vi      Robot Main.vi,0.000000,0.000000,0.000000,0.000000,Speed,Speed,-0.150000,0.660000,2.730000,0.000000,102.000000,1,0,-0.000000,0.000000,1,0.000000,0.000000,0.000000,3.439697,12.048157,0.000000,-0.001000,0.000000,0.006000,FlatFinal
03:57:18.159 PM 02/13/2016,Autonomous Enabled,0,TRUE,-44087,NetComm_CAN_Receive.vi:5470006<APPEND>  <b>Complete call chain:</b>      NetComm_CAN_Receive.vi:5470006      WPI_CANTalonSRX_Receive.vi      WPI_MotorControlOpenCANTalonSRX.vi      Begin.vi      Robot Main.vi,0.000000,0.000000,0.000000,0.000000,Speed,Speed,-0.150000,0.660000,2.730000,0.000000,101.000000,1,0,-0.000000,0.000000,1,0.000000,0.000000,0.000000,3.439697,12.048157,0.000000,-0.001000,0.000000,0.006000,FlatFinal
03:57:18.259 PM 02/13/2016,Autonomous Enabled,0,TRUE,-44087,NetComm_CAN_Receive.vi:5470006<APPEND>  <b>Complete call chain:</b>      NetComm_CAN_Receive.vi:5470006      WPI_CANTalonSRX_Receive.vi      WPI_MotorControlOpenCANTalonSRX.vi      Begin.vi      Robot Main.vi,0.000000,0.000000,0.000000,0.000000,Speed,Speed,-0.150000,0.660000,2.730000,0.000000,101.000000,1,0,-0.000000,0.000000,1,0.000000,0.000000,0.000000,3.439697,12.048157,0.000000,-0.001000,0.000000,0.006000,FlatFinal
03:57:18.359 PM 02/13/2016,Autonomous Enabled,0,TRUE,-44087,NetComm_CAN_Receive.vi:5470006<APPEND>  <b>Complete call chain:</b>      NetComm_CAN_Receive.vi:5470006      WPI_CANTalonSRX_Receive.vi      WPI_MotorControlOpenCANTalonSRX.vi      Begin.vi      Robot Main.vi,0.000000,0.000000,0.000000,0.000000,Speed,Speed,-0.150000,0.660000,2.730000,0.000000,102.000000,1,0,-0.000000,0.000000,1,0.000000,0.000000,0.000000,3.439697,12.048157,0.000000,-0.001000,0.000000,0.006000,FlatFinal
03:57:18.459 PM 02/13/2016,Autonomous Enabled,0,TRUE,-44087,NetComm_CAN_Receive.vi:5470006<APPEND>  <b>Complete call chain:</b>      NetComm_CAN_Receive.vi:5470006      WPI_CANTalonSRX_Receive.vi      WPI_MotorControlOpenCANTalonSRX.vi      Begin.vi      Robot Main.vi,0.000000,0.000000,0.000000,0.000000,Speed,Speed,-0.150000,0.660000,2.730000,0.000000,101.000000,1,0,-0.000000,0.000000,1,0.000000,0.000000,0.000000,3.439697,12.048157,0.000000,-0.001000,0.000000,0.006000,FlatFinal
03:57:18.559 PM 02/13/2016,Autonomous Enabled,0,TRUE,-44087,NetComm_CAN_Receive.vi:5470006<APPEND>  <b>Complete call chain:</b>      NetComm_CAN_Receive.vi:5470006      WPI_CANTalonSRX_Receive.vi      WPI_MotorControlOpenCANTalonSRX.vi      Begin.vi      Robot Main.vi,0.000000,0.000000,0.000000,0.000000,Speed,Speed,-0.150000,0.660000,2.730000,0.000000,101.000000,1,0,-0.000000,0.000000,1,0.000000,0.000000,0.000000,3.439697,12.048157,0.000000,-0.001000,0.000000,0.006000,FlatFinal
03:57:18.660 PM 02/13/2016,Autonomous Enabled,0,TRUE,-44087,NetComm_CAN_Receive.vi:5470006<APPEND>  <b>Complete call chain:</b>      NetComm_CAN_Receive.vi:5470006      WPI_CANTalonSRX_Receive.vi      WPI_MotorControlOpenCANTalonSRX.vi      Begin.vi      Robot Main.vi,0.000000,0.000000,0.000000,0.000000,Speed,Speed,-0.150000,0.660000,2.730000,0.000000,103.000000,1,0,-0.000000,0.000000,1,0.000000,0.000000,0.000000,3.439697,12.048157,0.000000,-0.001000,0.000000,0.006000,FlatFinal
03:57:18.760 PM 02/13/2016,Autonomous Enabled,0,TRUE,-44087,NetComm_CAN_Receive.vi:5470006<APPEND>  <b>Complete call chain:</b>      NetComm_CAN_Receive.vi:5470006      WPI_CANTalonSRX_Receive.vi      WPI_MotorControlOpenCANTalonSRX.vi      Begin.vi      Robot Main.vi,0.000000,0.000000,0.000000,0.000000,Speed,Speed,-0.150000,0.660000,2.730000,0.000000,101.000000,1,0,-0.000000,0.000000,1,0.000000,0.000000,0.000000,3.439697,12.048157,0.000000,-0.001000,0.000000,0.006000,FlatFinal
03:57:18.859 PM 02/13/2016,Autonomous Enabled,0,TRUE,-44087,NetComm_CAN_Receive.vi:5470006<APPEND>  <b>Complete call chain:</b>      NetComm_CAN_Receive.vi:5470006      WPI_CANTalonSRX_Receive.vi      WPI_MotorControlOpenCANTalonSRX.vi      Begin.vi      Robot Main.vi,0.000000,0.000000,0.000000,0.000000,Speed,Speed,-0.150000,0.660000,2.730000,0.000000,101.000000,1,0,-0.000000,0.000000,1,0.000000,0.000000,0.000000,3.439697,12.048157,0.000000,-0.001000,0.000000,0.006000,FlatFinal
03:57:18.960 PM 02/13/2016,Autonomous Enabled,0,TRUE,-44087,NetComm_CAN_Receive.vi:5470006<APPEND>  <b>Complete call chain:</b>      NetComm_CAN_Receive.vi:5470006      WPI_CANTalonSRX_Receive.vi      WPI_MotorControlOpenCANTalonSRX.vi      Begin.vi      Robot Main.vi,0.000000,0.000000,0.000000,0.000000,Speed,Speed,-0.150000,0.660000,2.730000,0.000000,101.000000,1,0,-0.000000,0.000000,1,0.000000,0.000000,0.000000,3.439697,12.048157,0.000000,-0.001000,0.000000,0.006000,FlatFinal
03:57:19.061 PM 02/13/2016,Autonomous Enabled,0,TRUE,-44087,NetComm_CAN_Receive.vi:5470006<APPEND>  <b>Complete call chain:</b>      NetComm_CAN_Receive.vi:5470006      WPI_CANTalonSRX_Receive.vi      WPI_CANTalonSRX_GetStatus.vi      ShooterVI.vi      Periodic Tasks.vi      Robot Main.vi,0.000000,0.000000,0.000000,0.000000,Speed,Speed,-0.150000,0.660000,2.730000,0.000000,102.000000,1,0,-0.000000,0.000000,1,0.000000,0.000000,0.000000,3.439697,12.048157,0.000000,-0.001000,0.000000,0.006000,FlatFinal
03:57:19.161 PM 02/13/2016,Autonomous Enabled,0,TRUE,-44087,NetComm_CAN_Receive.vi:5470006<APPEND>  <b>Complete call chain:</b>      NetComm_CAN_Receive.vi:5470006      WPI_CANTalonSRX_Receive.vi      WPI_CANTalonSRX_GetStatus.vi      ShooterVI.vi      Periodic Tasks.vi      Robot Main.vi,0.000000,0.000000,0.000000,0.000000,Speed,Speed,-0.150000,0.660000,2.730000,0.000000,102.000000,1,0,-0.000000,0.000000,1,0.000000,0.000000,0.000000,3.439697,12.048157,0.000000,-0.001000,0.000000,0.006000,FlatFinal
03:57:19.261 PM 02/13/2016,Autonomous Enabled,0,FALSE,0,NO ERROR,0.000000,0.000000,0.000000,0.000000,Speed,Speed,-0.150000,0.660000,2.730000,0.000000,102.000000,1,0,-0.000000,0.000000,1,0.000000,0.000000,0.000000,3.439697,12.048157,0.000000,-0.001000,0.000000,0.006000,FlatFinal
03:57:19.361 PM 02/13/2016,Autonomous Enabled,0,FALSE,0,NO ERROR,0.000000,0.000000,0.000000,0.000000,Speed,Speed,-0.150000,0.660000,2.730000,0.000000,102.000000,1,0,-0.000000,0.000000,1,0.000000,0.000000,0.000000,3.439697,12.048157,0.000000,-0.001000,0.000000,0.006000,FlatFinal
03:57:19.462 PM 02/13/2016,Autonomous Enabled,0,FALSE,0,NO ERROR,0.000000,0.000000,0.000000,0.000000,Speed,Speed,-0.150000,0.660000,2.730000,0.000000,101.000000,1,0,-0.000000,0.000000,1,0.000000,0.000000,0.000000,3.439697,12.048157,0.000000,-0.001000,0.000000,0.006000,FlatFinal
03:57:19.562 PM 02/13/2016,Autonomous Enabled,0,FALSE,0,NO ERROR,0.000000,0.000000,0.000000,0.000000,Speed,Speed,-0.150000,0.660000,2.730000,0.000000,102.000000,1,0,-0.000000,0.000000,1,0.000000,0.000000,0.000000,3.439697,12.048157,0.000000,-0.001000,0.000000,0.006000,FlatFinal
03:57:19.662 PM 02/13/2016,Autonomous Enabled,0,FALSE,0,NO ERROR,0.000000,0.000000,0.000000,0.000000,Speed,Speed,-0.150000,0.660000,2.730000,0.000000,102.000000,1,0,-0.000000,0.000000,1,0.000000,0.000000,0.000000,3.439697,12.048157,0.000000,-0.001000,0.000000,0.006000,FlatFinal
03:57:19.762 PM 02/13/2016,Autonomous Enabled,0,FALSE,0,NO ERROR,0.000000,0.000000,0.000000,0.000000,Speed,Speed,-0.150000,0.660000,2.730000,0.000000,102.000000,1,0,-0.000000,0.000000,1,0.000000,0.000000,0.000000,3.439697,12.048157,0.000000,-0.001000,0.000000,0.006000,FlatFinal
03:57:19.862 PM 02/13/2016,Autonomous Enabled,0,FALSE,0,NO ERROR,0.000000,0.000000,0.000000,0.000000,Speed,Speed,-0.150000,0.660000,2.730000,0.000000,101.000000,1,0,-0.000000,0.000000,1,0.000000,0.000000,0.000000,3.439697,12.048157,0.000000,-0.001000,0.000000,0.006000,FlatFinal
03:57:19.963 PM 02/13/2016,Autonomous Enabled,0,FALSE,0,NO ERROR,0.000000,0.000000,0.000000,0.000000,Speed,Speed,-0.150000,0.660000,2.730000,0.000000,102.000000,1,0,-0.000000,0.000000,1,0.000000,0.000000,0.000000,3.439697,12.048157,0.000000,-0.001000,0.000000,0.006000,FlatFinal
03:57:20.064 PM 02/13/2016,Autonomous Enabled,0,FALSE,0,NO ERROR,0.000000,0.000000,-6000.000000,-6000.000000,Speed,Speed,-0.150000,0.660000,2.730000,1.000000,102.000000,1,0,-0.000000,0.000000,1,0.000000,0.000000,0.000000,3.439697,12.048157,0.000000,-0.001000,0.000000,0.006000,FlatFinal
03:57:20.164 PM 02/13/2016,Autonomous Enabled,0,FALSE,0,NO ERROR,0.000000,0.000000,0.000000,0.000000,Speed,Speed,-0.150000,0.660000,2.730000,2.000000,101.000000,1,0,-0.000000,0.000000,1,0.000000,0.000000,0.000000,3.439697,12.048157,0.000000,-0.001000,0.000000,0.006000,FlatFinal
03:57:20.265 PM 02/13/2016,Autonomous Enabled,0,FALSE,0,NO ERROR,0.000000,0.000000,0.000000,0.000000,Speed,Speed,-0.150000,0.660000,2.730000,2.000000,101.000000,1,0,-0.000000,0.000000,1,0.000000,0.000000,0.000000,3.439697,12.048157,0.000000,-0.001000,0.000000,0.006000,FlatFinal
03:57:20.365 PM 02/13/2016,Autonomous Enabled,0,FALSE,0,NO ERROR,0.000000,0.000000,0.000000,0.000000,Speed,Speed,-0.150000,0.660000,2.730000,2.000000,101.000000,1,0,-0.000000,0.000000,1,0.000000,0.000000,0.000000,3.439697,12.048157,0.000000,-0.001000,0.000000,0.006000,FlatFinal
03:57:20.464 PM 02/13/2016,Autonomous Enabled,0,FALSE,0,NO ERROR,0.000000,0.000000,0.000000,0.000000,Speed,Speed,-0.150000,0.660000,2.730000,2.000000,104.000000,1,0,-0.000000,0.000000,1,0.000000,0.000000,0.000000,3.439697,12.048157,0.000000,-0.001000,0.000000,0.006000,FlatFinal
03:57:20.565 PM 02/13/2016,Autonomous Enabled,0,FALSE,0,NO ERROR,0.000000,0.000000,0.000000,0.000000,Speed,Speed,-0.150000,0.660000,2.730000,2.000000,101.000000,1,0,-0.000000,0.000000,1,0.000000,0.000000,0.000000,3.439697,12.048157,0.000000,-0.001000,0.000000,0.006000,FlatFinal
03:57:20.665 PM 02/13/2016,Autonomous Enabled,0,FALSE,0,NO ERROR,0.000000,0.000000,0.000000,0.000000,Speed,Speed,-0.150000,0.660000,2.730000,2.000000,102.000000,1,0,-0.000000,0.000000,1,0.000000,0.000000,0.000000,3.439697,12.048157,0.000000,-0.001000,0.000000,0.006000,FlatFinal
03:57:20.765 PM 02/13/2016,Autonomous Enabled,0,FALSE,0,NO ERROR,0.000000,0.000000,0.000000,0.000000,Speed,Speed,-0.150000,0.660000,2.730000,2.000000,102.000000,1,0,-0.000000,0.000000,1,0.000000,0.000000,0.000000,3.439697,12.048157,0.000000,-0.001000,0.000000,0.006000,FlatFinal
03:57:20.866 PM 02/13/2016,Autonomous Enabled,0,FALSE,0,NO ERROR,0.000000,0.000000,0.000000,0.000000,Speed,Speed,-0.150000,0.660000,2.730000,2.000000,102.000000,1,0,-0.000000,0.000000,1,0.000000,0.000000,0.000000,3.439697,12.048157,0.000000,-0.001000,0.000000,0.006000,FlatFinal
03:57:20.968 PM 02/13/2016,Autonomous Enabled,0,FALSE,0,NO ERROR,0.000000,0.000000,0.000000,0.000000,Speed,Speed,-0.150000,0.660000,2.730000,2.000000,103.000000,1,0,-0.000000,0.000000,1,0.000000,0.000000,0.000000,3.439697,12.048157,0.000000,-0.001000,0.000000,0.006000,FlatFinal
03:57:21.069 PM 02/13/2016,Autonomous Enabled,0,FALSE,0,NO ERROR,0.000000,0.000000,0.000000,0.000000,Speed,Speed,-0.150000,0.660000,2.730000,2.000000,101.000000,1,0,-0.000000,0.000000,1,0.000000,0.000000,0.000000,3.439697,12.048157,0.000000,-0.001000,0.000000,0.006000,FlatFinal
03:57:21.169 PM 02/13/2016,Autonomous Enabled,0,FALSE,0,NO ERROR,0.000000,0.000000,0.000000,0.000000,Speed,Speed,-0.150000,0.660000,2.730000,2.000000,102.000000,1,0,-0.000000,0.000000,1,0.000000,0.000000,0.000000,3.439697,12.048157,0.000000,-0.001000,0.000000,0.006000,FlatFinal
03:57:21.270 PM 02/13/2016,Autonomous Enabled,0,FALSE,0,NO ERROR,0.000000,0.000000,0.000000,0.000000,Speed,Speed,-0.150000,0.660000,2.730000,2.000000,102.000000,1,0,-0.000000,0.000000,1,0.000000,0.000000,0.000000,3.439697,12.048157,0.000000,-0.001000,0.000000,0.006000,FlatFinal
03:57:21.370 PM 02/13/2016,Autonomous Enabled,0,FALSE,0,NO ERROR,0.000000,0.000000,0.000000,0.000000,Speed,Speed,-0.150000,0.660000,2.730000,2.000000,101.000000,1,0,-0.000000,0.000000,1,0.000000,0.000000,0.000000,3.439697,12.048157,0.000000,-0.001000,0.000000,0.006000,FlatFinal
03:57:21.470 PM 02/13/2016,Autonomous Enabled,0,FALSE,0,NO ERROR,0.000000,0.000000,4000.000000,4000.000000,Speed,Speed,-0.150000,0.660000,2.730000,3.000000,102.000000,1,0,-0.000000,0.000000,1,0.000000,0.000000,0.000000,3.439697,12.048157,0.000000,-0.001000,0.000000,0.006000,FlatFinal
03:57:21.570 PM 02/13/2016,Autonomous Enabled,0,FALSE,0,NO ERROR,0.000000,0.000000,4000.000000,4000.000000,Speed,Speed,-0.150000,0.660000,2.730000,3.000000,104.000000,1,0,-0.000000,0.000000,1,0.000000,0.000000,0.000000,3.439697,12.048157,0.000000,-0.001000,0.000000,0.006000,FlatFinal
03:57:21.670 PM 02/13/2016,Autonomous Enabled,0,FALSE,0,NO ERROR,0.000000,0.000000,4000.000000,4000.000000,Speed,Speed,-0.150000,0.660000,2.730000,3.000000,101.000000,1,0,-0.000000,0.000000,1,0.000000,0.000000,0.000000,3.439697,12.048157,0.000000,-0.001000,0.000000,0.006000,FlatFinal
03:57:21.769 PM 02/13/2016,Autonomous Enabled,0,FALSE,0,NO ERROR,0.000000,0.000000,4000.000000,4000.000000,Speed,Speed,-0.150000,0.660000,2.730000,3.000000,102.000000,1,0,-0.000000,0.000000,1,0.000000,0.000000,0.000000,3.439697,12.048157,0.000000,-0.001000,0.000000,0.006000,FlatFinal
03:57:21.870 PM 02/13/2016,Autonomous Enabled,0,TRUE,-44003,<LOCATION>WPI_CameraIssue HTTP Request with Authentication.vi<CALLSTACK>WPI_CameraIssue HTTP Request with Authentication.vi< <WPI_CameraIssue Get.vi< <WPI_CameraSet Image Appearance Property.vi< <WPI_CameraSet Image Size.vi< <Vision Processing.vi< <Robot Main.vi,0.000000,0.000000,4000.000000,4000.000000,Speed,Speed,-0.150000,0.660000,2.730000,3.000000,101.000000,1,0,-0.000000,0.000000,1,0.000000,0.000000,0.000000,3.439880,12.048157,0.000000,-0.001000,0.000000,0.006000,FlatFinal
03:57:21.970 PM 02/13/2016,Autonomous Enabled,0,FALSE,0,NO ERROR,0.000000,0.000000,4000.000000,4000.000000,Speed,Speed,-0.010000,0.650000,2.750000,3.000000,101.000000,1,0,-0.000000,0.000000,1,0.000000,0.000000,0.000000,3.439880,12.048157,0.000000,-0.001000,0.000000,0.006000,FlatFinal
03:57:22.072 PM 02/13/2016,Autonomous Enabled,0,FALSE,0,NO ERROR,0.000000,0.000000,4000.000000,4000.000000,Speed,Speed,-0.010000,0.660000,2.740000,3.000000,101.000000,1,0,-0.000000,0.000000,1,0.000000,0.000000,0.000000,3.439880,12.048157,0.000000,-0.003000,0.000000,0.005000,FlatFinal
03:57:22.174 PM 02/13/2016,Autonomous Enabled,0,FALSE,0,NO ERROR,0.000000,0.000000,4000.000000,4000.000000,Speed,Speed,-0.010000,0.660000,2.740000,3.000000,102.000000,1,0,-0.000000,0.000000,1,0.000000,0.000000,0.000000,3.439880,12.048157,0.000000,0.000000,0.000000,0.007000,FlatFinal
03:57:22.274 PM 02/13/2016,Autonomous Enabled,0,FALSE,0,NO ERROR,0.000000,0.000000,4000.000000,4000.000000,Speed,Speed,-0.010000,0.660000,2.740000,3.000000,101.000000,1,0,-0.000000,0.000000,1,0.000000,0.000000,0.000000,3.439880,12.048157,0.000000,0.000000,0.001000,0.006000,FlatFinal
03:57:22.375 PM 02/13/2016,Autonomous Enabled,0,FALSE,0,NO ERROR,0.000000,0.000000,4000.000000,4000.000000,Speed,Speed,-0.010000,0.660000,2.740000,3.000000,104.000000,1,0,-0.000000,0.000000,1,0.000000,0.000000,0.000000,3.439880,12.048157,0.000000,-0.003000,0.002000,0.005000,FlatFinal
03:57:22.477 PM 02/13/2016,Autonomous Enabled,0,FALSE,0,NO ERROR,0.000000,0.000000,4000.000000,4000.000000,Speed,Speed,-0.010000,0.660000,2.740000,3.000000,105.000000,1,0,-0.000000,0.000000,1,0.000000,0.000000,0.000000,3.439880,12.048157,0.000000,0.000000,0.002000,0.006000,FlatInitial
03:57:22.577 PM 02/13/2016,Autonomous Enabled,0,FALSE,0,NO ERROR,0.000000,0.000000,4000.000000,4000.000000,Speed,Speed,-0.020000,0.660000,2.720000,3.000000,101.000000,1,0,-0.000000,0.000000,1,-0.003036,0.002853,0.000000,3.439850,12.048187,0.000000,-0.029000,0.026000,0.044000,AngleUp
03:57:22.677 PM 02/13/2016,Autonomous Enabled,0,FALSE,0,NO ERROR,0.000000,0.000000,4000.000000,4000.000000,Speed,Speed,-0.870000,0.340000,10.300000,3.000000,101.000000,0,0,-0.000000,0.000000,1,-0.183456,0.784882,0.000000,3.435303,12.076508,0.000000,0.612000,0.828000,-0.433000,AngleUp
03:57:22.777 PM 02/13/2016,Autonomous Enabled,0,FALSE,0,NO ERROR,0.000000,0.000000,4000.000000,4000.000000,Speed,Speed,-1.390000,0.620000,9.310000,3.000000,102.000000,0,0,-0.000000,0.000000,1,0.002472,1.167603,0.000000,3.433319,12.131195,0.000000,0.167000,-0.027000,0.168000,AngleUp
03:57:22.878 PM 02/13/2016,Autonomous Enabled,0,FALSE,0,NO ERROR,0.000000,0.000000,4000.000000,4000.000000,Speed,Speed,-1.800000,0.730000,7.530000,3.000000,102.000000,0,0,-0.000000,0.000000,1,-0.014023,1.262268,0.000000,3.433548,12.206848,0.000000,0.026000,-0.135000,-0.647000,AngleUp
03:57:22.978 PM 02/13/2016,Autonomous Enabled,0,FALSE,0,NO ERROR,0.000000,0.000000,4000.000000,4000.000000,Speed,Speed,-2.260000,0.640000,9.630000,3.000000,104.000000,0,0,-0.000000,0.000000,1,-0.057495,1.195435,0.000000,3.431641,12.267914,0.000000,0.128000,-0.017000,-0.341000,AngleUp
03:57:23.079 PM 02/13/2016,Autonomous Enabled,0,FALSE,0,NO ERROR,0.000000,0.000000,4000.000000,4000.000000,Speed,Speed,-2.190000,1.100000,13.090000,3.000000,101.000000,0,0,-0.000000,0.000000,1,0.058533,1.081589,0.000000,3.432175,12.313354,0.000000,-0.081000,-0.372000,0.553000,AngleUp
03:57:23.180 PM 02/13/2016,Autonomous Enabled,0,FALSE,0,NO ERROR,0.000000,0.000000,4000.000000,4000.000000,Speed,Speed,-0.460000,1.510000,18.590000,3.000000,102.000000,0,0,-0.000000,0.000000,1,-0.013580,0.792221,0.000000,3.433578,12.360428,0.000000,0.302000,-0.345000,-0.167000,AngleUp
03:57:23.280 PM 02/13/2016,Autonomous Enabled,0,FALSE,0,NO ERROR,0.000000,0.000000,4000.000000,4000.000000,Speed,Speed,-0.260000,0.680000,31.160000,3.000000,100.000000,0,0,-0.000000,0.000000,1,0.188477,0.627060,0.000000,3.439575,12.399765,0.000000,-0.123000,-0.128000,1.174000,AngleUp
03:57:23.379 PM 02/13/2016,Autonomous Enabled,0,FALSE,0,NO ERROR,0.000000,0.000000,4000.000000,4000.000000,Speed,Speed,0.210000,0.870000,29.220000,3.000000,102.000000,0,0,-0.000000,0.000000,1,0.079697,0.489243,0.000000,3.444809,12.425873,0.000000,0.175000,0.031000,-0.959000,AngleUp
03:57:23.480 PM 02/13/2016,Autonomous Enabled,0,FALSE,0,NO ERROR,0.000000,0.000000,4000.000000,4000.000000,Speed,Speed,-0.560000,1.070000,28.100000,3.000000,101.000000,0,0,-0.000000,0.000000,1,0.169891,0.460953,0.000000,3.450562,12.453049,0.000000,-0.220000,0.246000,0.140000,AngleUp
03:57:23.580 PM 02/13/2016,Autonomous Enabled,0,FALSE,0,NO ERROR,0.000000,0.000000,4000.000000,4000.000000,Speed,Speed,0.840000,1.480000,13.720000,3.000000,103.000000,0,0,-0.000000,0.000000,1,-0.007996,-0.053970,0.000000,3.455505,12.467865,0.000000,0.063000,-0.087000,1.040000,AngleUp
03:57:23.681 PM 02/13/2016,Autonomous Enabled,0,FALSE,0,NO ERROR,0.000000,0.000000,4000.000000,4000.000000,Speed,Speed,0.570000,-1.100000,-5.940000,3.000000,114.000000,1,0,-0.000000,0.000000,1,0.012482,0.595901,0.000000,3.452957,12.477097,0.000000,0.251000,-0.189000,-0.666000,AngleUp
03:57:23.782 PM 02/13/2016,Autonomous Enabled,0,FALSE,0,NO ERROR,0.000000,0.000000,4000.000000,4000.000000,Speed,Speed,1.800000,-2.050000,-7.530000,3.000000,102.000000,0,0,-0.000000,0.000000,1,0.377380,0.592117,0.000000,3.464005,12.509796,0.000000,-1.235000,-0.908000,1.151000,AngleUp
03:57:23.882 PM 02/13/2016,Autonomous Enabled,0,FALSE,0,NO ERROR,0.000000,0.000000,4000.000000,4000.000000,Speed,Speed,6.310000,-0.250000,-1.180000,3.000000,105.000000,1,0,-0.000000,0.000000,1,0.046463,0.284286,0.000000,3.467041,12.526398,0.000000,0.105000,-0.196000,-1.076000,AngleUp
03:57:23.984 PM 02/13/2016,Autonomous Enabled,0,FALSE,0,NO ERROR,0.000000,0.000000,4000.000000,4000.000000,Speed,Speed,9.950000,-2.890000,6.340000,3.000000,103.000000,0,0,-0.000000,0.000000,1,-0.197021,0.259628,0.000000,3.464676,12.539917,0.000000,1.669000,-2.515000,0.697000,AngleUp
03:57:24.084 PM 02/13/2016,Autonomous Enabled,0,FALSE,0,NO ERROR,0.000000,0.000000,4000.000000,4000.000000,Speed,Speed,13.460000,8.850000,-10.020000,3.000000,105.000000,0,0,-0.000000,0.000000,1,0.303513,-0.205551,0.000000,3.482712,12.532364,0.000000,-0.782000,-0.680000,1.165000,AngleDown
03:57:24.184 PM 02/13/2016,Autonomous Enabled,0,FALSE,0,NO ERROR,0.000000,0.000000,4000.000000,4000.000000,Speed,Speed,10.980000,-3.330000,-4.140000,3.000000,104.000000,1,0,-0.000000,0.000000,1,0.014771,-0.284378,0.000000,3.491669,12.522751,0.000000,-0.089000,-0.271000,-1.238000,FlatFinal
03:57:24.285 PM 02/13/2016,Autonomous Enabled,0,FALSE,0,NO ERROR,0.000000,0.000000,4000.000000,4000.000000,Speed,Speed,10.980000,-3.330000,-4.140000,3.000000,102.000000,1,0,-0.000000,0.000000,1,0.014771,-0.284378,0.000000,3.491669,12.522751,0.000000,-0.089000,-0.271000,-1.238000,FlatFinal
03:57:24.386 PM 02/13/2016,Autonomous Disabled,0,FALSE,0,NO ERROR,0.000000,0.000000,4000.000000,4000.000000,Speed,Speed,-0.080000,1.790000,4.350000,3.000000,108.000000,1,0,-0.000000,0.000000,1,-0.146698,-0.763763,0.000000,3.493164,12.450134,0.000000,-0.382000,0.274000,-1.904000,FlatFinal
03:57:24.486 PM 02/13/2016,Autonomous Disabled,0,FALSE,0,NO ERROR,0.000000,0.000000,4000.000000,4000.000000,Speed,Speed,-2.080000,1.370000,-3.810000,3.000000,102.000000,1,0,-0.000000,0.000000,1,-0.434967,-1.080032,0.000000,3.467468,12.395416,0.000000,0.340000,0.422000,0.986000,FlatFinal
03:57:24.586 PM 02/13/2016,Autonomous Disabled,0,FALSE,0,NO ERROR,0.000000,0.000000,4000.000000,4000.000000,Speed,Speed,-1.720000,0.670000,2.670000,3.000000,102.000000,1,0,-0.000000,0.000000,1,-0.451050,-0.939468,0.000000,3.445496,12.348038,0.000000,0.631000,-0.184000,-0.882000,FlatFinal
03:57:24.686 PM 02/13/2016,Autonomous Disabled,0,FALSE,0,NO ERROR,0.000000,0.000000,4000.000000,4000.000000,Speed,Speed,-0.520000,1.090000,-4.050000,3.000000,102.000000,1,0,-0.000000,0.000000,1,-0.272705,-1.187576,0.000000,3.429367,12.288132,0.000000,0.194000,-0.077000,-0.596000,FlatFinal
03:57:24.785 PM 02/13/2016,Autonomous Disabled,0,FALSE,0,NO ERROR,0.000000,0.000000,4000.000000,4000.000000,Speed,Speed,-0.190000,1.080000,-2.550000,3.000000,102.000000,1,0,-0.000000,0.000000,1,-0.228485,-1.276245,0.000000,3.416290,12.227280,0.000000,0.208000,-0.670000,0.220000,FlatFinal
03:57:24.885 PM 02/13/2016,Autonomous Disabled,0,FALSE,0,NO ERROR,0.000000,0.000000,4000.000000,4000.000000,Speed,Speed,0.290000,0.850000,-0.400000,3.000000,102.000000,1,0,-0.000000,0.000000,1,-0.212067,-1.537308,0.000000,3.406464,12.151886,0.000000,0.137000,-0.028000,-1.284000,FlatFinal
03:57:24.986 PM 02/13/2016,Autonomous Disabled,0,FALSE,0,NO ERROR,0.000000,0.000000,4000.000000,4000.000000,Speed,Speed,0.200000,1.190000,-0.990000,3.000000,102.000000,1,0,-0.000000,0.000000,1,-0.108856,-1.303604,0.000000,3.400604,12.080399,0.000000,0.016000,0.060000,-0.290000,FlatFinal
03:57:25.087 PM 02/13/2016,Autonomous Disabled,0,FALSE,0,NO ERROR,0.000000,0.000000,4000.000000,4000.000000,Speed,Speed,0.000000,1.110000,-0.300000,3.000000,102.000000,1,0,-0.000000,0.000000,1,-0.164932,-1.289108,0.000000,3.393600,12.016785,0.000000,0.009000,-0.083000,-0.213000,FlatFinal
03:57:25.188 PM 02/13/2016,Autonomous Disabled,0,FALSE,0,NO ERROR,0.000000,0.000000,4000.000000,4000.000000,Speed,Speed,0.250000,0.990000,-0.770000,3.000000,102.000000,1,0,-0.000000,0.000000,1,-0.188324,0.003738,0.000000,3.384674,11.990692,0.000000,0.000000,-0.008000,0.052000,FlatFinal
03:57:25.289 PM 02/13/2016,Autonomous Disabled,0,FALSE,0,NO ERROR,0.000000,0.000000,4000.000000,4000.000000,Speed,Speed,0.100000,0.970000,-0.410000,3.000000,104.000000,1,0,-0.000000,0.000000,1,-0.184128,0.035034,0.000000,3.375565,11.991669,0.000000,-0.027000,0.041000,0.147000,FlatFinal
03:57:25.390 PM 02/13/2016,Autonomous Disabled,0,FALSE,0,NO ERROR,0.000000,0.000000,4000.000000,4000.000000,Speed,Speed,0.160000,1.000000,-0.160000,3.000000,102.000000,1,0,-0.000000,0.000000,1,-0.004532,0.094452,0.000000,3.371628,11.995651,0.000000,-0.028000,0.017000,0.100000,FlatFinal
03:57:25.491 PM 02/13/2016,Autonomous Disabled,0,FALSE,0,NO ERROR,0.000000,0.000000,4000.000000,4000.000000,Speed,Speed,0.110000,0.950000,0.050000,3.000000,104.000000,1,0,-0.000000,0.000000,1,0.000000,0.132492,0.000000,3.371429,12.000336,0.000000,-0.006000,0.042000,0.041000,FlatFinal
03:57:25.592 PM 02/13/2016,Autonomous Disabled,0,FALSE,0,NO ERROR,0.000000,0.000000,4000.000000,4000.000000,Speed,Speed,0.100000,0.950000,0.260000,3.000000,102.000000,1,0,-0.000000,0.000000,1,0.000000,0.173630,0.000000,3.371429,12.008224,0.000000,-0.007000,0.015000,0.022000,FlatFinal
03:57:25.691 PM 02/13/2016,Autonomous Disabled,0,FALSE,0,NO ERROR,0.000000,0.000000,4000.000000,4000.000000,Speed,Speed,0.100000,0.940000,0.310000,3.000000,102.000000,1,0,-0.000000,0.000000,1,0.000000,0.202454,0.000000,3.371429,12.019608,0.000000,-0.015000,0.019000,0.003000,FlatFinal
03:57:25.791 PM 02/13/2016,Autonomous Disabled,0,FALSE,0,NO ERROR,0.000000,0.000000,4000.000000,4000.000000,Speed,Speed,0.090000,0.920000,0.440000,3.000000,102.000000,1,0,-0.000000,0.000000,1,0.000000,0.226669,0.000000,3.371429,12.030441,0.000000,-0.013000,0.026000,0.015000,FlatFinal
03:57:25.896 PM 02/13/2016,Autonomous Disabled,0,FALSE,0,NO ERROR,0.000000,0.000000,4000.000000,4000.000000,Speed,Speed,0.120000,0.890000,0.570000,3.000000,102.000000,1,0,-0.000000,0.000000,1,0.000000,0.251617,0.000000,3.371429,12.042572,0.000000,-0.006000,0.021000,0.022000,FlatFinal
03:57:25.995 PM 02/13/2016,Autonomous Disabled,0,FALSE,0,NO ERROR,0.000000,0.000000,4000.000000,4000.000000,Speed,Speed,0.100000,0.880000,0.670000,3.000000,102.000000,1,0,-0.000000,0.000000,1,0.000000,0.277832,0.000000,3.371429,12.055923,0.000000,-0.001000,0.028000,0.004000,FlatFinal
03:57:26.096 PM 02/13/2016,Autonomous Disabled,0,FALSE,0,NO ERROR,0.000000,0.000000,4000.000000,4000.000000,Speed,Speed,0.110000,0.860000,0.790000,3.000000,102.000000,1,0,-0.000000,0.000000,1,0.000000,0.302948,0.000000,3.371429,12.070618,0.000000,0.000000,0.023000,0.000000,FlatFinal
03:57:26.195 PM 02/13/2016,Autonomous Disabled,0,FALSE,0,NO ERROR,0.000000,0.000000,4000.000000,4000.000000,Speed,Speed,0.100000,0.850000,0.900000,3.000000,104.000000,1,0,-0.000000,0.000000,1,0.000000,0.323471,0.000000,3.371429,12.086380,0.000000,0.000000,0.023000,0.001000,FlatFinal
03:57:26.296 PM 02/13/2016,Autonomous Disabled,0,FALSE,0,NO ERROR,0.000000,0.000000,4000.000000,4000.000000,Speed,Speed,0.110000,0.840000,0.980000,3.000000,101.000000,1,0,-0.000000,0.000000,1,0.000000,0.000000,0.000000,3.371429,12.096344,0.000000,0.000000,0.018000,0.000000,FlatFinal
03:57:26.397 PM 02/13/2016,Autonomous Disabled,0,FALSE,0,NO ERROR,0.000000,0.000000,4000.000000,4000.000000,Speed,Speed,0.110000,0.830000,1.050000,3.000000,101.000000,1,0,-0.000000,0.000000,1,0.000000,0.003876,0.000000,3.371429,12.096390,0.000000,-0.002000,0.020000,0.004000,FlatFinal
03:57:26.496 PM 02/13/2016,Autonomous Disabled,0,FALSE,0,NO ERROR,0.000000,0.000000,4000.000000,4000.000000,Speed,Speed,0.110000,0.820000,1.150000,3.000000,101.000000,1,0,-0.000000,0.000000,1,0.000000,0.022690,0.000000,3.371429,12.097153,0.000000,-0.004000,0.012000,0.009000,FlatFinal
03:57:26.596 PM 02/13/2016,Autonomous Disabled,0,FALSE,0,NO ERROR,0.000000,0.000000,4000.000000,4000.000000,Speed,Speed,0.100000,0.800000,1.200000,3.000000,102.000000,1,0,-0.000000,0.000000,1,0.000000,0.000000,0.000000,3.371429,12.097153,0.000000,0.000000,0.016000,0.007000,FlatFinal
03:57:26.697 PM 02/13/2016,Autonomous Disabled,0,FALSE,0,NO ERROR,0.000000,0.000000,4000.000000,4000.000000,Speed,Speed,0.110000,0.790000,1.270000,3.000000,103.000000,1,0,-0.000000,0.000000,1,0.000000,0.000000,0.000000,3.371429,12.097153,0.000000,-0.002000,0.012000,0.008000,FlatFinal
03:57:26.797 PM 02/13/2016,Autonomous Disabled,0,FALSE,0,NO ERROR,0.000000,0.000000,4000.000000,4000.000000,Speed,Speed,0.110000,0.780000,1.330000,3.000000,103.000000,1,0,-0.000000,0.000000,1,0.000000,0.000000,0.000000,3.371429,12.097153,0.000000,-0.001000,0.013000,0.007000,FlatFinal
03:57:26.897 PM 02/13/2016,Autonomous Disabled,0,FALSE,0,NO ERROR,0.000000,0.000000,4000.000000,4000.000000,Speed,Speed,0.110000,0.780000,1.380000,3.000000,101.000000,1,0,-0.000000,0.000000,1,0.000000,0.000000,0.000000,3.371429,12.097153,0.000000,-0.001000,0.012000,0.009000,FlatFinal
03:57:26.997 PM 02/13/2016,Autonomous Disabled,0,FALSE,0,NO ERROR,0.000000,0.000000,4000.000000,4000.000000,Speed,Speed,0.100000,0.770000,1.430000,3.000000,102.000000,1,0,-0.000000,0.000000,1,0.000000,0.000000,0.000000,3.371429,12.097153,0.000000,0.000000,0.010000,0.002000,FlatFinal
03:57:27.096 PM 02/13/2016,Autonomous Disabled,0,FALSE,0,NO ERROR,0.000000,0.000000,4000.000000,4000.000000,Speed,Speed,0.100000,0.770000,1.480000,3.000000,102.000000,1,0,-0.000000,0.000000,1,0.000000,0.000000,0.000000,3.371429,12.097153,0.000000,-0.003000,0.005000,0.006000,FlatFinal
03:57:27.196 PM 02/13/2016,Autonomous Disabled,0,FALSE,0,NO ERROR,0.000000,0.000000,4000.000000,4000.000000,Speed,Speed,0.100000,0.760000,1.520000,3.000000,101.000000,1,0,-0.000000,0.000000,1,0.000000,0.000000,0.000000,3.371429,12.097153,0.000000,-0.002000,0.008000,0.004000,FlatFinal
03:57:27.296 PM 02/13/2016,Autonomous Disabled,0,FALSE,0,NO ERROR,0.000000,0.000000,4000.000000,4000.000000,Speed,Speed,0.100000,0.760000,1.560000,3.000000,102.000000,1,0,-0.000000,0.000000,1,0.000000,0.000000,0.000000,3.371429,12.097153,0.000000,0.000000,0.009000,0.005000,FlatFinal
03:57:27.397 PM 02/13/2016,Autonomous Disabled,0,FALSE,0,NO ERROR,0.000000,0.000000,4000.000000,4000.000000,Speed,Speed,0.100000,0.750000,1.600000,3.000000,103.000000,1,0,-0.000000,0.000000,1,0.000000,0.000000,0.000000,3.371429,12.097153,0.000000,-0.004000,0.008000,0.003000,FlatFinal
03:57:27.498 PM 02/13/2016,Autonomous Disabled,0,FALSE,0,NO ERROR,0.000000,0.000000,4000.000000,4000.000000,Speed,Speed,0.100000,0.750000,1.630000,3.000000,100.000000,1,0,-0.000000,0.000000,1,0.000000,0.000000,0.000000,3.371429,12.097153,0.000000,0.000000,0.005000,0.003000,FlatFinal
03:57:27.598 PM 02/13/2016,Autonomous Disabled,0,FALSE,0,NO ERROR,0.000000,0.000000,4000.000000,4000.000000,Speed,Speed,0.100000,0.740000,1.660000,3.000000,103.000000,1,0,-0.000000,0.000000,1,0.000000,0.000000,0.000000,3.371429,12.097153,0.000000,-0.001000,0.007000,0.010000,FlatFinal
03:57:27.697 PM 02/13/2016,Autonomous Disabled,0,FALSE,0,NO ERROR,0.000000,0.000000,4000.000000,4000.000000,Speed,Speed,0.110000,0.740000,1.690000,3.000000,101.000000,1,0,-0.000000,0.000000,1,0.000000,0.000000,0.000000,3.371429,12.097153,0.000000,-0.001000,0.005000,0.002000,FlatFinal
03:57:27.797 PM 02/13/2016,Autonomous Disabled,0,FALSE,0,NO ERROR,0.000000,0.000000,4000.000000,4000.000000,Speed,Speed,0.110000,0.740000,1.720000,3.000000,101.000000,1,0,-0.000000,0.000000,1,0.000000,0.000000,0.000000,3.371429,12.097153,0.000000,0.001000,0.002000,0.006000,FlatFinal
03:57:27.897 PM 02/13/2016,Autonomous Disabled,0,FALSE,0,NO ERROR,0.000000,0.000000,4000.000000,4000.000000,Speed,Speed,0.110000,0.740000,1.740000,3.000000,102.000000,1,0,-0.000000,0.000000,1,0.000000,0.000000,0.000000,3.371429,12.097153,0.000000,0.002000,0.003000,0.004000,FlatFinal
03:57:27.998 PM 02/13/2016,Autonomous Disabled,0,FALSE,0,NO ERROR,0.000000,0.000000,4000.000000,4000.000000,Speed,Speed,0.110000,0.730000,1.760000,3.000000,102.000000,1,0,-0.000000,0.000000,1,0.000000,0.000000,0.000000,3.371429,12.097153,0.000000,-0.005000,0.005000,0.004000,FlatFinal
03:57:28.097 PM 02/13/2016,Autonomous Disabled,0,FALSE,0,NO ERROR,0.000000,0.000000,4000.000000,4000.000000,Speed,Speed,0.100000,0.720000,1.790000,3.000000,101.000000,1,0,-0.000000,0.000000,1,0.000000,0.000000,0.000000,3.371429,12.097153,0.000000,0.000000,0.003000,0.007000,FlatFinal
03:57:28.198 PM 02/13/2016,Autonomous Disabled,0,FALSE,0,NO ERROR,0.000000,0.000000,4000.000000,4000.000000,Speed,Speed,0.100000,0.720000,1.810000,3.000000,101.000000,1,0,-0.000000,0.000000,1,0.000000,0.000000,0.000000,3.371429,12.097153,0.000000,-0.001000,0.005000,0.004000,FlatFinal
03:57:28.299 PM 02/13/2016,Autonomous Disabled,0,FALSE,0,NO ERROR,0.000000,0.000000,4000.000000,4000.000000,Speed,Speed,0.100000,0.720000,1.830000,3.000000,107.000000,1,0,-0.000000,0.000000,1,0.000000,0.000000,0.000000,3.371429,12.097153,0.000000,-0.003000,0.002000,0.011000,FlatFinal
03:57:28.399 PM 02/13/2016,Autonomous Disabled,0,FALSE,0,NO ERROR,0.000000,0.000000,4000.000000,4000.000000,Speed,Speed,0.100000,0.720000,1.840000,3.000000,102.000000,1,0,-0.000000,0.000000,1,0.000000,0.000000,0.000000,3.371429,12.097153,0.000000,-0.002000,0.001000,0.008000,FlatFinal
03:57:28.498 PM 02/13/2016,Autonomous Disabled,0,FALSE,0,NO ERROR,0.000000,0.000000,4000.000000,4000.000000,Speed,Speed,0.100000,0.720000,1.860000,3.000000,102.000000,1,0,-0.000000,0.000000,1,0.000000,0.000000,0.000000,3.371429,12.097153,0.000000,0.000000,0.004000,0.005000,FlatFinal
03:57:28.599 PM 02/13/2016,Autonomous Disabled,0,FALSE,0,NO ERROR,0.000000,0.000000,4000.000000,4000.000000,Speed,Speed,0.100000,0.710000,1.860000,3.000000,101.000000,1,0,-0.000000,0.000000,1,0.000000,0.000000,0.000000,3.371429,12.097153,0.000000,0.000000,0.005000,0.007000,FlatFinal
03:57:28.699 PM 02/13/2016,Autonomous Disabled,0,FALSE,0,NO ERROR,0.000000,0.000000,4000.000000,4000.000000,Speed,Speed,0.100000,0.710000,1.890000,3.000000,102.000000,1,0,-0.000000,0.000000,1,0.000000,0.000000,0.000000,3.371429,12.097153,0.000000,-0.003000,0.003000,0.005000,FlatFinal
03:57:28.800 PM 02/13/2016,Autonomous Disabled,0,FALSE,0,NO ERROR,0.000000,0.000000,4000.000000,4000.000000,Speed,Speed,0.100000,0.710000,1.900000,3.000000,102.000000,1,0,-0.000000,0.000000,1,0.000000,0.000000,0.000000,3.371429,12.097153,0.000000,0.000000,0.001000,0.004000,FlatFinal
03:57:28.900 PM 02/13/2016,Autonomous Disabled,0,FALSE,0,NO ERROR,0.000000,0.000000,4000.000000,4000.000000,Speed,Speed,0.100000,0.710000,1.910000,3.000000,103.000000,1,0,-0.000000,0.000000,1,0.000000,0.000000,0.000000,3.371429,12.097153,0.000000,-0.002000,0.001000,0.006000,FlatFinal
03:57:29.001 PM 02/13/2016,Autonomous Disabled,0,FALSE,0,NO ERROR,0.000000,0.000000,4000.000000,4000.000000,Speed,Speed,0.100000,0.700000,1.920000,3.000000,101.000000,1,0,-0.000000,0.000000,1,0.000000,0.000000,0.000000,3.371429,12.097153,0.000000,0.000000,0.001000,0.008000,FlatFinal
03:57:29.101 PM 02/13/2016,Autonomous Disabled,0,FALSE,0,NO ERROR,0.000000,0.000000,4000.000000,4000.000000,Speed,Speed,0.100000,0.700000,1.930000,3.000000,103.000000,1,0,-0.000000,0.000000,1,0.000000,0.000000,0.000000,3.371429,12.097153,0.000000,0.000000,0.002000,0.005000,FlatFinal
03:57:29.201 PM 02/13/2016,Autonomous Disabled,0,FALSE,0,NO ERROR,0.000000,0.000000,4000.000000,4000.000000,Speed,Speed,0.100000,0.700000,1.940000,3.000000,105.000000,1,0,-0.000000,0.000000,1,0.000000,0.000000,0.000000,3.371429,12.097153,0.000000,-0.001000,0.001000,0.007000,FlatFinal
03:57:29.300 PM 02/13/2016,Autonomous Disabled,0,FALSE,0,NO ERROR,0.000000,0.000000,4000.000000,4000.000000,Speed,Speed,0.100000,0.690000,1.940000,3.000000,101.000000,1,0,-0.000000,0.000000,1,0.000000,0.000000,0.000000,3.371429,12.097153,0.000000,0.001000,0.000000,0.005000,FlatFinal
03:57:29.401 PM 02/13/2016,Autonomous Disabled,0,FALSE,0,NO ERROR,0.000000,0.000000,4000.000000,4000.000000,Speed,Speed,0.100000,0.690000,1.950000,3.000000,102.000000,1,0,-0.000000,0.000000,1,0.000000,0.000000,0.000000,3.371429,12.097153,0.000000,0.000000,0.000000,0.006000,FlatFinal
03:57:29.501 PM 02/13/2016,Autonomous Disabled,0,FALSE,0,NO ERROR,0.000000,0.000000,4000.000000,4000.000000,Speed,Speed,0.100000,0.690000,1.960000,3.000000,102.000000,1,0,-0.000000,0.000000,1,0.000000,0.000000,0.000000,3.371429,12.097153,0.000000,0.000000,0.002000,0.006000,FlatFinal
03:57:29.601 PM 02/13/2016,Autonomous Disabled,0,FALSE,0,NO ERROR,0.000000,0.000000,4000.000000,4000.000000,Speed,Speed,0.100000,0.690000,1.970000,3.000000,103.000000,1,0,-0.000000,0.000000,1,0.000000,0.000000,0.000000,3.371429,12.097153,0.000000,0.000000,0.004000,0.004000,FlatFinal
03:57:29.701 PM 02/13/2016,Autonomous Disabled,0,FALSE,0,NO ERROR,0.000000,0.000000,4000.000000,4000.000000,Speed,Speed,0.100000,0.700000,1.970000,3.000000,102.000000,1,0,-0.000000,0.000000,1,0.000000,0.000000,0.000000,3.371429,12.097153,0.000000,0.001000,0.000000,0.010000,FlatFinal
03:57:29.801 PM 02/13/2016,Autonomous Disabled,0,FALSE,0,NO ERROR,0.000000,0.000000,4000.000000,4000.000000,Speed,Speed,0.100000,0.700000,1.980000,3.000000,101.000000,1,0,-0.000000,0.000000,1,0.000000,0.000000,0.000000,3.371429,12.097153,0.000000,-0.001000,0.000000,0.005000,FlatFinal
03:57:29.902 PM 02/13/2016,Autonomous Disabled,0,FALSE,0,NO ERROR,0.000000,0.000000,4000.000000,4000.000000,Speed,Speed,0.090000,0.700000,1.990000,3.000000,101.000000,1,0,-0.000000,0.000000,1,0.000000,0.000000,0.000000,3.371429,12.097153,0.000000,0.000000,0.000000,0.004000,FlatFinal
03:57:30.002 PM 02/13/2016,Autonomous Disabled,0,FALSE,0,NO ERROR,0.000000,0.000000,4000.000000,4000.000000,Speed,Speed,0.090000,0.700000,1.990000,3.000000,104.000000,1,0,-0.000000,0.000000,1,0.000000,0.000000,0.000000,3.371429,12.097153,0.000000,-0.003000,0.001000,0.004000,FlatFinal
03:57:30.103 PM 02/13/2016,Autonomous Disabled,0,FALSE,0,NO ERROR,0.000000,0.000000,4000.000000,4000.000000,Speed,Speed,0.090000,0.700000,1.990000,3.000000,102.000000,1,0,-0.000000,0.000000,1,0.000000,0.000000,0.000000,3.371429,12.097153,0.000000,-0.003000,0.001000,0.004000,FlatFinal
03:57:30.204 PM 02/13/2016,Autonomous Disabled,0,FALSE,0,NO ERROR,0.000000,0.000000,4000.000000,4000.000000,Speed,Speed,0.090000,0.700000,1.990000,3.000000,102.000000,1,0,-0.000000,0.000000,1,0.000000,0.000000,0.000000,3.371429,12.097153,0.000000,0.000000,0.001000,0.010000,FlatFinal
03:57:30.303 PM 02/13/2016,Autonomous Disabled,0,FALSE,0,NO ERROR,0.000000,0.000000,4000.000000,4000.000000,Speed,Speed,0.090000,0.680000,2.000000,3.000000,103.000000,1,0,-0.000000,0.000000,1,0.000000,0.000000,0.000000,3.371429,12.097153,0.000000,0.000000,0.000000,0.004000,FlatFinal
03:57:30.404 PM 02/13/2016,Autonomous Disabled,0,FALSE,0,NO ERROR,0.000000,0.000000,4000.000000,4000.000000,Speed,Speed,0.090000,0.690000,2.010000,3.000000,102.000000,1,0,-0.000000,0.000000,1,0.000000,0.000000,0.000000,3.371429,12.097153,0.000000,-0.001000,0.001000,0.010000,FlatFinal
03:57:30.504 PM 02/13/2016,Autonomous Disabled,0,FALSE,0,NO ERROR,0.000000,0.000000,4000.000000,4000.000000,Speed,Speed,0.090000,0.690000,2.010000,3.000000,102.000000,1,0,-0.000000,0.000000,1,0.000000,0.000000,0.000000,3.371429,12.097153,0.000000,-0.001000,0.001000,0.010000,FlatFinal
03:57:30.604 PM 02/13/2016,Autonomous Disabled,0,FALSE,0,NO ERROR,0.000000,0.000000,4000.000000,4000.000000,Speed,Speed,0.090000,0.690000,2.010000,3.000000,100.000000,1,0,-0.000000,0.000000,1,0.000000,0.000000,0.000000,3.371429,12.097153,0.000000,0.000000,0.001000,0.006000,FlatFinal
03:57:30.705 PM 02/13/2016,Autonomous Disabled,0,FALSE,0,NO ERROR,0.000000,0.000000,4000.000000,4000.000000,Speed,Speed,0.090000,0.680000,2.020000,3.000000,102.000000,1,0,-0.000000,0.000000,1,0.000000,0.000000,0.000000,3.371429,12.097153,0.000000,0.002000,0.002000,0.008000,FlatFinal
03:57:30.804 PM 02/13/2016,Autonomous Disabled,0,FALSE,0,NO ERROR,0.000000,0.000000,4000.000000,4000.000000,Speed,Speed,0.090000,0.680000,2.020000,3.000000,101.000000,1,0,-0.000000,0.000000,1,0.000000,0.000000,0.000000,3.371429,12.097153,0.000000,0.002000,0.002000,0.008000,FlatFinal
03:57:30.905 PM 02/13/2016,Autonomous Disabled,0,FALSE,0,NO ERROR,0.000000,0.000000,4000.000000,4000.000000,Speed,Speed,0.090000,0.680000,2.020000,3.000000,101.000000,1,0,-0.000000,0.000000,1,0.000000,0.000000,0.000000,3.371429,12.097153,0.000000,-0.001000,0.000000,0.006000,FlatFinal
03:57:31.005 PM 02/13/2016,Autonomous Disabled,0,FALSE,0,NO ERROR,0.000000,0.000000,4000.000000,4000.000000,Speed,Speed,0.090000,0.680000,2.020000,3.000000,101.000000,1,0,-0.000000,0.000000,1,0.000000,0.000000,0.000000,3.371429,12.097153,0.000000,0.000000,0.000000,0.005000,FlatFinal
03:57:31.106 PM 02/13/2016,Autonomous Disabled,0,FALSE,0,NO ERROR,0.000000,0.000000,4000.000000,4000.000000,Speed,Speed,0.090000,0.690000,2.020000,3.000000,102.000000,1,0,-0.000000,0.000000,1,0.000000,0.000000,0.000000,3.371429,12.097153,0.000000,0.000000,0.000000,0.004000,FlatFinal
03:57:31.207 PM 02/13/2016,Autonomous Disabled,0,FALSE,0,NO ERROR,0.000000,0.000000,4000.000000,4000.000000,Speed,Speed,0.090000,0.680000,2.040000,3.000000,102.000000,1,0,-0.000000,0.000000,1,0.000000,0.000000,0.000000,3.371429,12.097153,0.000000,0.000000,0.000000,0.011000,FlatFinal
03:57:31.309 PM 02/13/2016,Autonomous Disabled,0,FALSE,0,NO ERROR,0.000000,0.000000,4000.000000,4000.000000,Speed,Speed,0.090000,0.680000,2.040000,3.000000,103.000000,1,0,-0.000000,0.000000,1,0.000000,0.000000,0.000000,3.371429,12.097153,0.000000,0.000000,0.000000,0.006000,FlatFinal
03:57:31.411 PM 02/13/2016,Autonomous Disabled,0,FALSE,0,NO ERROR,0.000000,0.000000,4000.000000,4000.000000,Speed,Speed,0.090000,0.680000,2.030000,3.000000,101.000000,1,0,-0.000000,0.000000,1,0.000000,0.000000,0.000000,3.371429,12.097153,0.000000,0.000000,0.000000,0.002000,FlatFinal
03:57:31.512 PM 02/13/2016,Autonomous Disabled,0,FALSE,0,NO ERROR,0.000000,0.000000,4000.000000,4000.000000,Speed,Speed,0.090000,0.680000,2.040000,3.000000,103.000000,1,0,-0.000000,0.000000,1,0.000000,0.000000,0.000000,3.371429,12.097153,0.000000,0.000000,0.002000,0.004000,FlatFinal
03:57:31.613 PM 02/13/2016,Autonomous Disabled,0,FALSE,0,NO ERROR,0.000000,0.000000,4000.000000,4000.000000,Speed,Speed,0.090000,0.680000,2.040000,3.000000,102.000000,1,0,-0.000000,0.000000,1,0.000000,0.000000,0.000000,3.371429,12.097153,0.000000,-0.001000,-0.001000,0.008000,FlatFinal
03:57:31.714 PM 02/13/2016,Autonomous Disabled,0,FALSE,0,NO ERROR,0.000000,0.000000,4000.000000,4000.000000,Speed,Speed,0.090000,0.680000,2.040000,3.000000,101.000000,1,0,-0.000000,0.000000,1,0.000000,0.000000,0.000000,3.371429,12.097153,0.000000,0.001000,-0.002000,0.006000,FlatFinal
03:57:31.816 PM 02/13/2016,Autonomous Disabled,0,FALSE,0,NO ERROR,0.000000,0.000000,4000.000000,4000.000000,Speed,Speed,0.090000,0.680000,2.040000,3.000000,102.000000,1,0,-0.000000,0.000000,1,0.000000,0.000000,0.000000,3.371429,12.097153,0.000000,0.002000,0.001000,0.002000,FlatFinal
03:57:31.916 PM 02/13/2016,Autonomous Disabled,0,FALSE,0,NO ERROR,0.000000,0.000000,4000.000000,4000.000000,Speed,Speed,0.090000,0.680000,2.040000,3.000000,102.000000,1,0,-0.000000,0.000000,1,0.000000,0.000000,0.000000,3.371429,12.097153,0.000000,-0.001000,0.000000,0.007000,FlatFinal
03:57:32.016 PM 02/13/2016,Autonomous Disabled,0,FALSE,0,NO ERROR,0.000000,0.000000,4000.000000,4000.000000,Speed,Speed,0.090000,0.680000,2.050000,3.000000,101.000000,1,0,-0.000000,0.000000,1,0.000000,0.000000,0.000000,3.371429,12.097153,0.000000,0.001000,-0.001000,0.004000,FlatFinal
03:57:32.117 PM 02/13/2016,Autonomous Disabled,0,FALSE,0,NO ERROR,0.000000,0.000000,4000.000000,4000.000000,Speed,Speed,0.090000,0.680000,2.040000,3.000000,101.000000,1,0,-0.000000,0.000000,1,0.000000,0.000000,0.000000,3.371429,12.097153,0.000000,0.001000,0.000000,0.004000,FlatFinal
03:57:32.218 PM 02/13/2016,Autonomous Disabled,0,FALSE,0,NO ERROR,0.000000,0.000000,4000.000000,4000.000000,Speed,Speed,0.090000,0.680000,2.050000,3.000000,102.000000,1,0,-0.000000,0.000000,1,0.000000,0.000000,0.000000,3.371429,12.097153,0.000000,0.000000,0.000000,0.006000,FlatFinal
03:57:32.318 PM 02/13/2016,Autonomous Disabled,0,FALSE,0,NO ERROR,0.000000,0.000000,4000.000000,4000.000000,Speed,Speed,0.090000,0.680000,2.040000,3.000000,101.000000,1,0,-0.000000,0.000000,1,0.000000,0.000000,0.000000,3.371429,12.097153,0.000000,0.000000,0.000000,0.005000,FlatFinal
03:57:32.419 PM 02/13/2016,Autonomous Disabled,0,FALSE,0,NO ERROR,0.000000,0.000000,4000.000000,4000.000000,Speed,Speed,0.090000,0.680000,2.050000,3.000000,103.000000,1,0,-0.000000,0.000000,1,0.000000,0.000000,0.000000,3.371429,12.097153,0.000000,0.000000,-0.001000,0.007000,FlatFinal
03:57:32.520 PM 02/13/2016,Autonomous Disabled,0,FALSE,0,NO ERROR,0.000000,0.000000,4000.000000,4000.000000,Speed,Speed,0.090000,0.680000,2.050000,3.000000,102.000000,1,0,-0.000000,0.000000,1,0.000000,0.000000,0.000000,3.371429,12.097153,0.000000,0.002000,-0.001000,0.006000,FlatFinal
03:57:32.620 PM 02/13/2016,Autonomous Disabled,0,FALSE,0,NO ERROR,0.000000,0.000000,4000.000000,4000.000000,Speed,Speed,0.090000,0.680000,2.060000,3.000000,102.000000,1,0,-0.000000,0.000000,1,0.000000,0.000000,0.000000,3.371429,12.097153,0.000000,-0.001000,0.000000,0.006000,FlatFinal
03:57:32.719 PM 02/13/2016,Autonomous Disabled,0,FALSE,0,NO ERROR,0.000000,0.000000,4000.000000,4000.000000,Speed,Speed,0.090000,0.680000,2.050000,3.000000,107.000000,1,0,-0.000000,0.000000,1,0.000000,0.000000,0.000000,3.371429,12.097153,0.000000,0.000000,-0.001000,0.009000,FlatFinal
03:57:32.820 PM 02/13/2016,Autonomous Disabled,0,FALSE,0,NO ERROR,0.000000,0.000000,4000.000000,4000.000000,Speed,Speed,0.090000,0.680000,2.060000,3.000000,100.000000,1,0,-0.000000,0.000000,1,0.000000,0.000000,0.000000,3.371429,12.097153,0.000000,-0.001000,0.000000,0.005000,FlatFinal
03:57:32.920 PM 02/13/2016,Autonomous Disabled,0,FALSE,0,NO ERROR,0.000000,0.000000,4000.000000,4000.000000,Speed,Speed,0.090000,0.690000,2.070000,3.000000,102.000000,1,0,-0.000000,0.000000,1,0.000000,0.000000,0.000000,3.371429,12.097153,0.000000,0.000000,-0.001000,0.005000,FlatFinal
03:57:33.020 PM 02/13/2016,Autonomous Disabled,0,FALSE,0,NO ERROR,0.000000,0.000000,4000.000000,4000.000000,Speed,Speed,0.090000,0.690000,2.070000,3.000000,102.000000,1,0,-0.000000,0.000000,1,0.000000,0.000000,0.000000,3.371429,12.097153,0.000000,0.000000,-0.001000,0.010000,FlatFinal
03:57:33.120 PM 02/13/2016,Autonomous Disabled,0,FALSE,0,NO ERROR,0.000000,0.000000,4000.000000,4000.000000,Speed,Speed,0.090000,0.680000,2.060000,3.000000,102.000000,1,0,-0.000000,0.000000,1,0.000000,0.000000,0.000000,3.371429,12.097153,0.000000,0.000000,-0.001000,0.007000,FlatFinal
03:57:33.220 PM 02/13/2016,Autonomous Disabled,0,FALSE,0,NO ERROR,0.000000,0.000000,4000.000000,4000.000000,Speed,Speed,0.090000,0.680000,2.060000,3.000000,103.000000,1,0,-0.000000,0.000000,1,0.000000,0.000000,0.000000,3.371429,12.097153,0.000000,0.000000,-0.002000,0.005000,FlatFinal
03:57:33.320 PM 02/13/2016,Autonomous Disabled,0,FALSE,0,NO ERROR,0.000000,0.000000,4000.000000,4000.000000,Speed,Speed,0.100000,0.670000,2.060000,3.000000,102.000000,1,0,-0.000000,0.000000,1,0.000000,0.000000,0.000000,3.371429,12.097153,0.000000,0.000000,0.001000,0.004000,FlatFinal
03:57:33.420 PM 02/13/2016,Autonomous Disabled,0,FALSE,0,NO ERROR,0.000000,0.000000,4000.000000,4000.000000,Speed,Speed,0.100000,0.670000,2.070000,3.000000,103.000000,1,0,-0.000000,0.000000,1,0.000000,0.000000,0.000000,3.371429,12.097153,0.000000,-0.002000,-0.002000,0.001000,FlatFinal
03:57:33.520 PM 02/13/2016,Autonomous Disabled,0,FALSE,0,NO ERROR,0.000000,0.000000,4000.000000,4000.000000,Speed,Speed,0.100000,0.670000,2.070000,3.000000,103.000000,1,0,-0.000000,0.000000,1,0.000000,0.000000,0.000000,3.371429,12.097153,0.000000,-0.001000,0.000000,0.007000,FlatFinal
03:57:33.619 PM 02/13/2016,Autonomous Disabled,0,FALSE,0,NO ERROR,0.000000,0.000000,4000.000000,4000.000000,Speed,Speed,0.100000,0.670000,2.070000,3.000000,103.000000,1,0,-0.000000,0.000000,1,0.000000,0.000000,0.000000,3.371429,12.097153,0.000000,0.001000,0.000000,0.007000,FlatFinal
03:57:33.720 PM 02/13/2016,Autonomous Disabled,0,FALSE,0,NO ERROR,0.000000,0.000000,4000.000000,4000.000000,Speed,Speed,0.100000,0.670000,2.070000,3.000000,102.000000,1,0,-0.000000,0.000000,1,0.000000,0.000000,0.000000,3.371429,12.097153,0.000000,0.000000,0.000000,0.002000,FlatFinal
03:57:33.820 PM 02/13/2016,Autonomous Disabled,0,FALSE,0,NO ERROR,0.000000,0.000000,4000.000000,4000.000000,Speed,Speed,0.100000,0.670000,2.070000,3.000000,103.000000,1,0,-0.000000,0.000000,1,0.000000,0.000000,0.000000,3.371429,12.097153,0.000000,0.000000,-0.002000,0.005000,FlatFinal
03:57:33.920 PM 02/13/2016,Autonomous Disabled,0,FALSE,0,NO ERROR,0.000000,0.000000,4000.000000,4000.000000,Speed,Speed,0.100000,0.670000,2.070000,3.000000,101.000000,1,0,-0.000000,0.000000,1,0.000000,0.000000,0.000000,3.371429,12.097153,0.000000,0.000000,0.000000,0.005000,FlatFinal
03:57:34.020 PM 02/13/2016,Autonomous Disabled,0,FALSE,0,NO ERROR,0.000000,0.000000,4000.000000,4000.000000,Speed,Speed,0.100000,0.670000,2.070000,3.000000,103.000000,1,0,-0.000000,0.000000,1,0.000000,0.000000,0.000000,3.371429,12.097153,0.000000,0.001000,-0.004000,0.008000,FlatFinal
03:57:34.120 PM 02/13/2016,Autonomous Disabled,0,FALSE,0,NO ERROR,0.000000,0.000000,4000.000000,4000.000000,Speed,Speed,0.100000,0.680000,2.060000,3.000000,102.000000,1,0,-0.000000,0.000000,1,0.000000,0.000000,0.000000,3.371429,12.097153,0.000000,0.001000,0.000000,0.009000,FlatFinal
03:57:34.220 PM 02/13/2016,Autonomous Disabled,0,FALSE,0,NO ERROR,0.000000,0.000000,4000.000000,4000.000000,Speed,Speed,0.100000,0.680000,2.070000,3.000000,104.000000,1,0,-0.000000,0.000000,1,0.000000,0.000000,0.000000,3.371429,12.097153,0.000000,0.000000,0.000000,0.007000,FlatFinal
03:57:34.320 PM 02/13/2016,Autonomous Disabled,0,FALSE,0,NO ERROR,0.000000,0.000000,4000.000000,4000.000000,Speed,Speed,0.100000,0.680000,2.060000,3.000000,101.000000,1,0,-0.000000,0.000000,1,0.000000,0.000000,0.000000,3.371429,12.097153,0.000000,-0.001000,0.000000,0.005000,FlatFinal
03:57:34.421 PM 02/13/2016,Autonomous Disabled,0,FALSE,0,NO ERROR,0.000000,0.000000,4000.000000,4000.000000,Speed,Speed,0.100000,0.680000,2.060000,3.000000,102.000000,1,0,-0.000000,0.000000,1,0.000000,0.000000,0.000000,3.371429,12.097153,0.000000,0.000000,-0.001000,0.006000,FlatFinal
03:57:34.521 PM 02/13/2016,Autonomous Disabled,0,FALSE,0,NO ERROR,0.000000,0.000000,4000.000000,4000.000000,Speed,Speed,0.100000,0.680000,2.060000,3.000000,102.000000,1,0,-0.000000,0.000000,1,0.000000,0.000000,0.000000,3.371429,12.097153,0.000000,0.000000,0.000000,0.008000,FlatFinal
03:57:34.621 PM 02/13/2016,Autonomous Disabled,0,FALSE,0,NO ERROR,0.000000,0.000000,4000.000000,4000.000000,Speed,Speed,0.100000,0.670000,2.060000,3.000000,102.000000,1,0,-0.000000,0.000000,1,0.000000,0.000000,0.000000,3.371429,12.097153,0.000000,0.000000,-0.002000,0.011000,FlatFinal
03:57:34.721 PM 02/13/2016,Autonomous Disabled,0,FALSE,0,NO ERROR,0.000000,0.000000,4000.000000,4000.000000,Speed,Speed,0.100000,0.670000,2.060000,3.000000,102.000000,1,0,-0.000000,0.000000,1,0.000000,0.000000,0.000000,3.371429,12.097153,0.000000,-0.001000,-0.001000,0.010000,FlatFinal
03:57:34.821 PM 02/13/2016,Autonomous Disabled,0,FALSE,0,NO ERROR,0.000000,0.000000,4000.000000,4000.000000,Speed,Speed,0.100000,0.670000,2.070000,3.000000,101.000000,1,0,-0.000000,0.000000,1,0.000000,0.000000,0.000000,3.371429,12.097153,0.000000,-0.001000,-0.001000,0.003000,FlatFinal
03:57:34.921 PM 02/13/2016,Autonomous Disabled,0,FALSE,0,NO ERROR,0.000000,0.000000,4000.000000,4000.000000,Speed,Speed,0.100000,0.670000,2.060000,3.000000,101.000000,1,0,-0.000000,0.000000,1,0.000000,0.000000,0.000000,3.371429,12.097153,0.000000,0.000000,0.000000,0.007000,FlatFinal
03:57:35.021 PM 02/13/2016,Autonomous Disabled,0,FALSE,0,NO ERROR,0.000000,0.000000,4000.000000,4000.000000,Speed,Speed,0.100000,0.670000,2.060000,3.000000,104.000000,1,0,-0.000000,0.000000,1,0.000000,0.000000,0.000000,3.371429,12.097153,0.000000,0.001000,0.000000,0.006000,FlatFinal
03:57:35.121 PM 02/13/2016,Autonomous Disabled,0,FALSE,0,NO ERROR,0.000000,0.000000,4000.000000,4000.000000,Speed,Speed,0.100000,0.670000,2.060000,3.000000,102.000000,1,0,-0.000000,0.000000,1,0.000000,0.000000,0.000000,3.371429,12.097153,0.000000,0.000000,0.001000,0.005000,FlatFinal
03:57:35.221 PM 02/13/2016,Autonomous Disabled,0,FALSE,0,NO ERROR,0.000000,0.000000,4000.000000,4000.000000,Speed,Speed,0.100000,0.660000,2.050000,3.000000,101.000000,1,0,-0.000000,0.000000,1,0.000000,0.000000,0.000000,3.371429,12.097153,0.000000,0.000000,0.000000,0.007000,FlatFinal
03:57:35.321 PM 02/13/2016,Autonomous Disabled,0,FALSE,0,NO ERROR,0.000000,0.000000,4000.000000,4000.000000,Speed,Speed,0.100000,0.660000,2.050000,3.000000,102.000000,1,0,-0.000000,0.000000,1,0.000000,0.000000,0.000000,3.371429,12.097153,0.000000,0.000000,-0.002000,0.005000,FlatFinal
03:57:35.422 PM 02/13/2016,Autonomous Disabled,0,FALSE,0,NO ERROR,0.000000,0.000000,4000.000000,4000.000000,Speed,Speed,0.100000,0.660000,2.050000,3.000000,103.000000,1,0,-0.000000,0.000000,1,0.000000,0.000000,0.000000,3.371429,12.097153,0.000000,0.000000,-0.001000,0.003000,FlatFinal
03:57:35.522 PM 02/13/2016,Autonomous Disabled,0,FALSE,0,NO ERROR,0.000000,0.000000,4000.000000,4000.000000,Speed,Speed,0.100000,0.660000,2.050000,3.000000,101.000000,1,0,-0.000000,0.000000,1,0.000000,0.000000,0.000000,3.371429,12.097153,0.000000,0.001000,-0.002000,0.007000,FlatFinal
03:57:35.622 PM 02/13/2016,Autonomous Disabled,0,FALSE,0,NO ERROR,0.000000,0.000000,4000.000000,4000.000000,Speed,Speed,0.100000,0.660000,2.050000,3.000000,101.000000,1,0,-0.000000,0.000000,1,0.000000,0.000000,0.000000,3.371429,12.097153,0.000000,0.000000,-0.002000,0.010000,FlatFinal
03:57:35.722 PM 02/13/2016,Autonomous Disabled,0,FALSE,0,NO ERROR,0.000000,0.000000,4000.000000,4000.000000,Speed,Speed,0.100000,0.660000,2.050000,3.000000,102.000000,1,0,-0.000000,0.000000,1,0.000000,0.000000,0.000000,3.371429,12.097153,0.000000,0.000000,-0.002000,0.006000,FlatFinal
03:57:35.823 PM 02/13/2016,Autonomous Disabled,0,FALSE,0,NO ERROR,0.000000,0.000000,4000.000000,4000.000000,Speed,Speed,0.100000,0.660000,2.050000,3.000000,103.000000,1,0,-0.000000,0.000000,1,0.000000,0.000000,0.000000,3.371429,12.097153,0.000000,-0.001000,-0.001000,0.004000,FlatFinal
03:57:35.923 PM 02/13/2016,Autonomous Disabled,0,FALSE,0,NO ERROR,0.000000,0.000000,4000.000000,4000.000000,Speed,Speed,0.100000,0.660000,2.050000,3.000000,103.000000,1,0,-0.000000,0.000000,1,0.000000,0.000000,0.000000,3.371429,12.097153,0.000000,0.000000,-0.001000,0.007000,FlatFinal
03:57:36.024 PM 02/13/2016,Autonomous Disabled,0,FALSE,0,NO ERROR,0.000000,0.000000,4000.000000,4000.000000,Speed,Speed,0.100000,0.660000,2.050000,3.000000,101.000000,1,0,-0.000000,0.000000,1,0.000000,0.000000,0.000000,3.371429,12.097153,0.000000,0.001000,0.000000,0.008000,FlatFinal
03:57:36.123 PM 02/13/2016,Autonomous Disabled,0,FALSE,0,NO ERROR,0.000000,0.000000,4000.000000,4000.000000,Speed,Speed,0.100000,0.660000,2.050000,3.000000,105.000000,1,0,-0.000000,0.000000,1,0.000000,0.000000,0.000000,3.371429,12.097153,0.000000,-0.001000,-0.001000,0.009000,FlatFinal
03:57:36.223 PM 02/13/2016,Autonomous Disabled,0,FALSE,0,NO ERROR,0.000000,0.000000,4000.000000,4000.000000,Speed,Speed,0.100000,0.660000,2.050000,3.000000,103.000000,1,0,-0.000000,0.000000,1,0.000000,0.000000,0.000000,3.371429,12.097153,0.000000,0.000000,-0.001000,0.009000,FlatFinal
03:57:36.324 PM 02/13/2016,Autonomous Disabled,0,FALSE,0,NO ERROR,0.000000,0.000000,4000.000000,4000.000000,Speed,Speed,0.110000,0.660000,2.050000,3.000000,101.000000,1,0,-0.000000,0.000000,1,0.000000,0.000000,0.000000,3.371429,12.097153,0.000000,0.000000,0.000000,0.007000,FlatFinal
03:57:36.424 PM 02/13/2016,Autonomous Disabled,0,FALSE,0,NO ERROR,0.000000,0.000000,4000.000000,4000.000000,Speed,Speed,0.110000,0.660000,2.050000,3.000000,103.000000,1,0,-0.000000,0.000000,1,0.000000,0.000000,0.000000,3.371429,12.097153,0.000000,0.001000,-0.001000,0.003000,FlatFinal
03:57:36.524 PM 02/13/2016,Autonomous Disabled,0,FALSE,0,NO ERROR,0.000000,0.000000,4000.000000,4000.000000,Speed,Speed,0.100000,0.660000,2.050000,3.000000,102.000000,1,0,-0.000000,0.000000,1,0.000000,0.000000,0.000000,3.371429,12.097153,0.000000,0.001000,0.000000,0.005000,FlatFinal
03:57:36.624 PM 02/13/2016,Autonomous Disabled,0,FALSE,0,NO ERROR,0.000000,0.000000,4000.000000,4000.000000,Speed,Speed,0.110000,0.660000,2.050000,3.000000,103.000000,1,0,-0.000000,0.000000,1,0.000000,0.000000,0.000000,3.371429,12.097153,0.000000,0.000000,0.001000,0.008000,FlatFinal
03:57:36.723 PM 02/13/2016,Autonomous Disabled,0,FALSE,0,NO ERROR,0.000000,0.000000,4000.000000,4000.000000,Speed,Speed,0.100000,0.660000,2.050000,3.000000,104.000000,1,0,-0.000000,0.000000,1,0.000000,0.000000,0.000000,3.371429,12.097153,0.000000,-0.001000,0.000000,0.006000,FlatFinal
03:57:36.823 PM 02/13/2016,Autonomous Disabled,0,FALSE,0,NO ERROR,0.000000,0.000000,4000.000000,4000.000000,Speed,Speed,0.110000,0.650000,2.040000,3.000000,101.000000,1,0,-0.000000,0.000000,1,0.000000,0.000000,0.000000,3.371429,12.097153,0.000000,0.002000,-0.001000,0.006000,FlatFinal
03:57:36.924 PM 02/13/2016,Autonomous Disabled,0,FALSE,0,NO ERROR,0.000000,0.000000,4000.000000,4000.000000,Speed,Speed,0.110000,0.650000,2.040000,3.000000,102.000000,1,0,-0.000000,0.000000,1,0.000000,0.000000,0.000000,3.371429,12.097153,0.000000,0.001000,-0.001000,0.005000,FlatFinal
03:57:37.024 PM 02/13/2016,Autonomous Disabled,0,FALSE,0,NO ERROR,0.000000,0.000000,4000.000000,4000.000000,Speed,Speed,0.110000,0.650000,2.050000,3.000000,101.000000,1,0,-0.000000,0.000000,1,0.000000,0.000000,0.000000,3.371429,12.097153,0.000000,0.001000,0.000000,0.007000,FlatFinal
03:57:37.124 PM 02/13/2016,Autonomous Disabled,0,FALSE,0,NO ERROR,0.000000,0.000000,4000.000000,4000.000000,Speed,Speed,0.110000,0.650000,2.050000,3.000000,102.000000,1,0,-0.000000,0.000000,1,0.000000,0.000000,0.000000,3.371429,12.097153,0.000000,0.001000,0.000000,0.006000,FlatFinal
03:57:37.224 PM 02/13/2016,Autonomous Disabled,0,FALSE,0,NO ERROR,0.000000,0.000000,4000.000000,4000.000000,Speed,Speed,0.110000,0.650000,2.050000,3.000000,101.000000,1,0,-0.000000,0.000000,1,0.000000,0.000000,0.000000,3.371429,12.097153,0.000000,-0.001000,0.000000,0.006000,FlatFinal
03:57:37.324 PM 02/13/2016,Autonomous Disabled,0,FALSE,0,NO ERROR,0.000000,0.000000,4000.000000,4000.000000,Speed,Speed,0.110000,0.650000,2.060000,3.000000,102.000000,1,0,-0.000000,0.000000,1,0.000000,0.000000,0.000000,3.371429,12.097153,0.000000,-0.003000,0.000000,0.005000,FlatFinal
03:57:37.425 PM 02/13/2016,Autonomous Disabled,0,FALSE,0,NO ERROR,0.000000,0.000000,4000.000000,4000.000000,Speed,Speed,0.110000,0.650000,2.060000,3.000000,102.000000,1,0,-0.000000,0.000000,1,0.000000,0.000000,0.000000,3.371429,12.097153,0.000000,0.001000,0.000000,0.001000,FlatFinal
03:57:37.525 PM 02/13/2016,Autonomous Disabled,0,FALSE,0,NO ERROR,0.000000,0.000000,4000.000000,4000.000000,Speed,Speed,0.110000,0.650000,2.060000,3.000000,104.000000,1,0,-0.000000,0.000000,1,0.000000,0.000000,0.000000,3.371429,12.097153,0.000000,0.000000,-0.001000,0.005000,FlatFinal
03:57:37.624 PM 02/13/2016,Autonomous Disabled,0,FALSE,0,NO ERROR,0.000000,0.000000,4000.000000,4000.000000,Speed,Speed,0.110000,0.660000,2.050000,3.000000,101.000000,1,0,-0.000000,0.000000,1,0.000000,0.000000,0.000000,3.371429,12.097153,0.000000,0.001000,-0.001000,0.005000,FlatFinal
