Time,RobotMode,AutoToRun,ErrorStatus, ErrorCode,ErrorSource,ActualRPM1,ActualRPM2,DesiredRPM1,DesiredRPM2,ControlMode1,ControlMode2,NavXYaw,NavXRoll,NavXPitch,ShooterState,LoopTime,IsLevel,IsAutoTargeting,LeftMotorOutput,RightMotorOutput,IsHaloDrive,NavXVelocityX,NavXVelocityY,NavXVelocityZ,NavXDisplacementX,NavXDisplacementY,NavXDisplacementZ,NavXAccelerationX,NavXAccelerationY,NavXAccelerationZ,AutoDefendState
11:13:20.528 AM 02/13/2016,Teleop Disabled,0,TRUE,-44087,NetComm_CAN_Receive.vi:5470006<APPEND>  <b>Complete call chain:</b>      NetComm_CAN_Receive.vi:5470006      WPI_CANTalonSRX_Receive.vi      WPI_MotorControlOpenCANTalonSRX.vi      Begin.vi      Robot Main.vi,0.000000,0.000000,4000.000000,4000.000000,Speed,Speed,0.000000,1.070000,2.940000,3.000000,101.000000,1,0,-0.002232,-0.003968,0,0.000000,0.000000,0.000000,-0.448303,0.501251,0.000000,0.000000,0.000000,0.003000,FlatInitial
11:13:20.628 AM 02/13/2016,Teleop Disabled,0,TRUE,-44087,NetComm_CAN_Receive.vi:5470006<APPEND>  <b>Complete call chain:</b>      NetComm_CAN_Receive.vi:5470006      WPI_CANTalonSRX_Receive.vi      WPI_MotorControlOpenCANTalonSRX.vi      Begin.vi      Robot Main.vi,0.000000,0.000000,0.000000,0.000000,Speed,Speed,0.000000,1.070000,2.940000,0.000000,5345035.000000,1,0,-0.002232,-0.003968,0,0.000000,0.000000,0.000000,-0.448303,0.501251,0.000000,0.000000,0.000000,0.003000,FlatInitial
11:13:20.728 AM 02/13/2016,Teleop Disabled,0,TRUE,-44087,NetComm_CAN_Receive.vi:5470006<APPEND>  <b>Complete call chain:</b>      NetComm_CAN_Receive.vi:5470006      WPI_CANTalonSRX_Receive.vi      WPI_MotorControlOpenCANTalonSRX.vi      Begin.vi      Robot Main.vi,0.000000,0.000000,0.000000,0.000000,Speed,Speed,0.000000,1.070000,2.940000,0.000000,101.000000,1,0,-0.002232,-0.003968,0,0.000000,0.000000,0.000000,-0.448303,0.501251,0.000000,0.000000,0.000000,0.003000,FlatInitial
11:13:20.829 AM 02/13/2016,Teleop Disabled,0,TRUE,-44087,NetComm_CAN_Receive.vi:5470006<APPEND>  <b>Complete call chain:</b>      NetComm_CAN_Receive.vi:5470006      WPI_CANTalonSRX_Receive.vi      WPI_MotorControlOpenCANTalonSRX.vi      Begin.vi      Robot Main.vi,0.000000,0.000000,0.000000,0.000000,Speed,Speed,0.000000,1.070000,2.940000,0.000000,101.000000,1,0,-0.002232,-0.003968,0,0.000000,0.000000,0.000000,-0.448303,0.501251,0.000000,0.000000,0.000000,0.003000,FlatInitial
11:13:20.930 AM 02/13/2016,Teleop Disabled,0,TRUE,-44087,NetComm_CAN_Receive.vi:5470006<APPEND>  <b>Complete call chain:</b>      NetComm_CAN_Receive.vi:5470006      WPI_CANTalonSRX_Receive.vi      WPI_MotorControlOpenCANTalonSRX.vi      Begin.vi      Robot Main.vi,0.000000,0.000000,0.000000,0.000000,Speed,Speed,0.000000,1.070000,2.940000,0.000000,101.000000,1,0,-0.002232,-0.003968,0,0.000000,0.000000,0.000000,-0.448303,0.501251,0.000000,0.000000,0.000000,0.003000,FlatInitial
11:13:21.030 AM 02/13/2016,Teleop Disabled,0,TRUE,-44087,NetComm_CAN_Receive.vi:5470006<APPEND>  <b>Complete call chain:</b>      NetComm_CAN_Receive.vi:5470006      WPI_CANTalonSRX_Receive.vi      WPI_MotorControlOpenCANTalonSRX.vi      Begin.vi      Robot Main.vi,0.000000,0.000000,0.000000,0.000000,Speed,Speed,0.000000,1.070000,2.940000,0.000000,101.000000,1,0,-0.002232,-0.003968,0,0.000000,0.000000,0.000000,-0.448303,0.501251,0.000000,0.000000,0.000000,0.003000,FlatInitial
11:13:21.130 AM 02/13/2016,Teleop Disabled,0,TRUE,-44087,NetComm_CAN_Receive.vi:5470006<APPEND>  <b>Complete call chain:</b>      NetComm_CAN_Receive.vi:5470006      WPI_CANTalonSRX_Receive.vi      WPI_MotorControlOpenCANTalonSRX.vi      Begin.vi      Robot Main.vi,0.000000,0.000000,0.000000,0.000000,Speed,Speed,0.000000,1.070000,2.940000,0.000000,100.000000,1,0,-0.002232,-0.003968,0,0.000000,0.000000,0.000000,-0.448303,0.501251,0.000000,0.000000,0.000000,0.003000,FlatInitial
11:13:21.231 AM 02/13/2016,Teleop Disabled,0,TRUE,-44087,NetComm_CAN_Receive.vi:5470006<APPEND>  <b>Complete call chain:</b>      NetComm_CAN_Receive.vi:5470006      WPI_CANTalonSRX_Receive.vi      WPI_MotorControlOpenCANTalonSRX.vi      Begin.vi      Robot Main.vi,0.000000,0.000000,0.000000,0.000000,Speed,Speed,0.000000,1.070000,2.940000,0.000000,101.000000,1,0,-0.002232,-0.003968,0,0.000000,0.000000,0.000000,-0.448303,0.501251,0.000000,0.000000,0.000000,0.003000,FlatInitial
11:13:21.331 AM 02/13/2016,Teleop Disabled,0,TRUE,-44087,NetComm_CAN_Receive.vi:5470006<APPEND>  <b>Complete call chain:</b>      NetComm_CAN_Receive.vi:5470006      WPI_CANTalonSRX_Receive.vi      WPI_MotorControlOpenCANTalonSRX.vi      Begin.vi      Robot Main.vi,0.000000,0.000000,0.000000,0.000000,Speed,Speed,0.000000,1.070000,2.940000,0.000000,101.000000,1,0,-0.002232,-0.003968,0,0.000000,0.000000,0.000000,-0.448303,0.501251,0.000000,0.000000,0.000000,0.003000,FlatInitial
11:13:21.431 AM 02/13/2016,Teleop Disabled,0,TRUE,-44087,NetComm_CAN_Receive.vi:5470006<APPEND>  <b>Complete call chain:</b>      NetComm_CAN_Receive.vi:5470006      WPI_CANTalonSRX_Receive.vi      WPI_MotorControlOpenCANTalonSRX.vi      Begin.vi      Robot Main.vi,0.000000,0.000000,0.000000,0.000000,Speed,Speed,0.000000,1.070000,2.940000,0.000000,100.000000,1,0,-0.002232,-0.003968,0,0.000000,0.000000,0.000000,-0.448303,0.501251,0.000000,0.000000,0.000000,0.003000,FlatInitial
11:13:21.531 AM 02/13/2016,Teleop Disabled,0,TRUE,-44087,NetComm_CAN_Receive.vi:5470006<APPEND>  <b>Complete call chain:</b>      NetComm_CAN_Receive.vi:5470006      WPI_CANTalonSRX_Receive.vi      WPI_MotorControlOpenCANTalonSRX.vi      Begin.vi      Robot Main.vi,0.000000,0.000000,0.000000,0.000000,Speed,Speed,0.000000,1.070000,2.940000,0.000000,102.000000,1,0,-0.002232,-0.003968,0,0.000000,0.000000,0.000000,-0.448303,0.501251,0.000000,0.000000,0.000000,0.003000,FlatInitial
11:13:21.631 AM 02/13/2016,Teleop Disabled,0,TRUE,-44087,NetComm_CAN_Receive.vi:5470006<APPEND>  <b>Complete call chain:</b>      NetComm_CAN_Receive.vi:5470006      WPI_CANTalonSRX_Receive.vi      WPI_MotorControlOpenCANTalonSRX.vi      Begin.vi      Robot Main.vi,0.000000,0.000000,0.000000,0.000000,Speed,Speed,0.000000,1.070000,2.940000,0.000000,102.000000,1,0,-0.002232,-0.003968,0,0.000000,0.000000,0.000000,-0.448303,0.501251,0.000000,0.000000,0.000000,0.003000,FlatInitial
11:13:21.732 AM 02/13/2016,Teleop Disabled,0,TRUE,-44087,NetComm_CAN_Receive.vi:5470006<APPEND>  <b>Complete call chain:</b>      NetComm_CAN_Receive.vi:5470006      WPI_CANTalonSRX_Receive.vi      WPI_CANTalonSRX_GetStatus.vi      ShooterVI.vi      Periodic Tasks.vi      Robot Main.vi,0.000000,0.000000,0.000000,0.000000,Speed,Speed,0.000000,1.070000,2.940000,0.000000,104.000000,1,0,-0.002232,-0.003968,0,0.000000,0.000000,0.000000,-0.448303,0.501251,0.000000,0.000000,0.000000,0.003000,FlatInitial
11:13:21.831 AM 02/13/2016,Teleop Disabled,0,TRUE,-44087,NetComm_CAN_Receive.vi:5470006<APPEND>  <b>Complete call chain:</b>      NetComm_CAN_Receive.vi:5470006      WPI_CANTalonSRX_Receive.vi      WPI_CANTalonSRX_GetStatus.vi      ShooterVI.vi      Periodic Tasks.vi      Robot Main.vi,0.000000,0.000000,0.000000,0.000000,Speed,Speed,0.000000,1.070000,2.940000,0.000000,101.000000,1,0,-0.002232,-0.003968,0,0.000000,0.000000,0.000000,-0.448303,0.501251,0.000000,0.000000,0.000000,0.003000,FlatInitial
11:13:21.932 AM 02/13/2016,Teleop Disabled,0,FALSE,0,NO ERROR,0.000000,0.000000,0.000000,0.000000,Speed,Speed,0.000000,1.070000,2.940000,0.000000,101.000000,1,0,-0.002232,-0.003968,0,0.000000,0.000000,0.000000,-0.448303,0.501251,0.000000,0.000000,0.000000,0.003000,FlatInitial
11:13:22.033 AM 02/13/2016,Teleop Disabled,0,FALSE,0,NO ERROR,0.000000,0.000000,0.000000,0.000000,Speed,Speed,0.000000,1.070000,2.940000,0.000000,102.000000,1,0,-0.002232,-0.003968,0,0.000000,0.000000,0.000000,-0.448303,0.501251,0.000000,0.000000,0.000000,0.003000,FlatInitial
11:13:22.134 AM 02/13/2016,Teleop Disabled,0,FALSE,0,NO ERROR,0.000000,0.000000,0.000000,0.000000,Speed,Speed,0.000000,1.070000,2.940000,0.000000,101.000000,1,0,-0.002232,-0.003968,0,0.000000,0.000000,0.000000,-0.448303,0.501251,0.000000,0.000000,0.000000,0.003000,FlatInitial
11:13:22.235 AM 02/13/2016,Teleop Disabled,0,FALSE,0,NO ERROR,0.000000,0.000000,0.000000,0.000000,Speed,Speed,0.000000,1.070000,2.940000,0.000000,102.000000,1,0,-0.002232,-0.003968,0,0.000000,0.000000,0.000000,-0.448303,0.501251,0.000000,0.000000,0.000000,0.003000,FlatInitial
11:13:22.336 AM 02/13/2016,Teleop Disabled,0,FALSE,0,NO ERROR,0.000000,0.000000,0.000000,0.000000,Speed,Speed,0.000000,1.070000,2.940000,0.000000,101.000000,1,0,-0.002232,-0.003968,0,0.000000,0.000000,0.000000,-0.448303,0.501251,0.000000,0.000000,0.000000,0.003000,FlatInitial
11:13:22.437 AM 02/13/2016,Teleop Disabled,0,FALSE,0,NO ERROR,0.000000,0.000000,0.000000,0.000000,Speed,Speed,0.000000,1.070000,2.940000,0.000000,101.000000,1,0,-0.002232,-0.003968,0,0.000000,0.000000,0.000000,-0.448303,0.501251,0.000000,0.000000,0.000000,0.003000,FlatInitial
11:13:22.536 AM 02/13/2016,Teleop Disabled,0,FALSE,0,NO ERROR,0.000000,0.000000,0.000000,0.000000,Speed,Speed,0.000000,1.070000,2.940000,0.000000,102.000000,1,0,-0.002232,-0.003968,0,0.000000,0.000000,0.000000,-0.448303,0.501251,0.000000,0.000000,0.000000,0.003000,FlatInitial
11:13:22.636 AM 02/13/2016,Teleop Disabled,0,FALSE,0,NO ERROR,0.000000,0.000000,0.000000,0.000000,Speed,Speed,0.000000,1.070000,2.940000,0.000000,101.000000,1,0,-0.002232,-0.003968,0,0.000000,0.000000,0.000000,-0.448303,0.501251,0.000000,0.000000,0.000000,0.003000,FlatInitial
11:13:22.736 AM 02/13/2016,Teleop Disabled,0,FALSE,0,NO ERROR,0.000000,0.000000,0.000000,0.000000,Speed,Speed,0.000000,1.070000,2.940000,0.000000,102.000000,1,0,-0.002232,-0.003968,0,0.000000,0.000000,0.000000,-0.448303,0.501251,0.000000,0.000000,0.000000,0.003000,FlatInitial
11:13:22.836 AM 02/13/2016,Teleop Disabled,0,FALSE,0,NO ERROR,0.000000,0.000000,0.000000,0.000000,Speed,Speed,0.000000,1.070000,2.940000,0.000000,103.000000,1,0,-0.002232,-0.003968,0,0.000000,0.000000,0.000000,-0.448303,0.501251,0.000000,0.000000,0.000000,0.003000,FlatInitial
11:13:22.937 AM 02/13/2016,Teleop Disabled,0,FALSE,0,NO ERROR,0.000000,0.000000,0.000000,0.000000,Speed,Speed,0.000000,1.070000,2.940000,0.000000,101.000000,1,0,-0.002232,-0.003968,0,0.000000,0.000000,0.000000,-0.448303,0.501251,0.000000,0.000000,0.000000,0.003000,FlatInitial
11:13:23.038 AM 02/13/2016,Teleop Disabled,0,FALSE,0,NO ERROR,0.000000,0.000000,0.000000,0.000000,Speed,Speed,0.000000,1.070000,2.940000,0.000000,101.000000,1,0,-0.002232,-0.003968,0,0.000000,0.000000,0.000000,-0.448303,0.501251,0.000000,0.000000,0.000000,0.003000,FlatInitial
11:13:23.138 AM 02/13/2016,Teleop Disabled,0,FALSE,0,NO ERROR,0.000000,0.000000,0.000000,0.000000,Speed,Speed,0.000000,1.070000,2.940000,0.000000,102.000000,1,0,-0.002232,-0.003968,0,0.000000,0.000000,0.000000,-0.448303,0.501251,0.000000,0.000000,0.000000,0.003000,FlatInitial
11:13:23.239 AM 02/13/2016,Teleop Disabled,0,FALSE,0,NO ERROR,0.000000,0.000000,0.000000,0.000000,Speed,Speed,0.000000,1.070000,2.940000,0.000000,100.000000,1,0,-0.002232,-0.003968,0,0.000000,0.000000,0.000000,-0.448303,0.501251,0.000000,0.000000,0.000000,0.003000,FlatInitial
11:13:23.339 AM 02/13/2016,Teleop Disabled,0,FALSE,0,NO ERROR,0.000000,0.000000,0.000000,0.000000,Speed,Speed,0.000000,1.070000,2.940000,0.000000,101.000000,1,0,-0.002232,-0.003968,0,0.000000,0.000000,0.000000,-0.448303,0.501251,0.000000,0.000000,0.000000,0.003000,FlatInitial
11:13:23.440 AM 02/13/2016,Teleop Disabled,0,FALSE,0,NO ERROR,0.000000,0.000000,0.000000,0.000000,Speed,Speed,0.000000,1.070000,2.940000,0.000000,102.000000,1,0,-0.002232,-0.003968,0,0.000000,0.000000,0.000000,-0.448303,0.501251,0.000000,0.000000,0.000000,0.003000,FlatInitial
11:13:23.541 AM 02/13/2016,Teleop Disabled,0,FALSE,0,NO ERROR,0.000000,0.000000,0.000000,0.000000,Speed,Speed,0.000000,1.070000,2.940000,0.000000,102.000000,1,0,-0.002232,-0.003968,0,0.000000,0.000000,0.000000,-0.448303,0.501251,0.000000,0.000000,0.000000,0.003000,FlatInitial
11:13:23.640 AM 02/13/2016,Teleop Disabled,0,FALSE,0,NO ERROR,0.000000,0.000000,0.000000,0.000000,Speed,Speed,0.000000,1.070000,2.940000,0.000000,101.000000,1,0,-0.002232,-0.003968,0,0.000000,0.000000,0.000000,-0.448303,0.501251,0.000000,0.000000,0.000000,0.003000,FlatInitial
11:13:23.740 AM 02/13/2016,Teleop Disabled,0,FALSE,0,NO ERROR,0.000000,0.000000,0.000000,0.000000,Speed,Speed,0.000000,1.070000,2.940000,0.000000,100.000000,1,0,-0.002232,-0.003968,0,0.000000,0.000000,0.000000,-0.448303,0.501251,0.000000,0.000000,0.000000,0.003000,FlatInitial
11:13:23.840 AM 02/13/2016,Teleop Disabled,0,FALSE,0,NO ERROR,0.000000,0.000000,-6000.000000,-6000.000000,Speed,Speed,0.000000,1.070000,2.940000,1.000000,101.000000,1,0,-0.002232,-0.003968,0,0.000000,0.000000,0.000000,-0.448303,0.501251,0.000000,0.000000,0.000000,0.003000,FlatInitial
11:13:23.942 AM 02/13/2016,Teleop Disabled,0,FALSE,0,NO ERROR,0.000000,0.000000,0.000000,0.000000,Speed,Speed,0.000000,1.070000,2.940000,2.000000,103.000000,1,0,-0.002232,-0.003968,0,0.000000,0.000000,0.000000,-0.448303,0.501251,0.000000,0.000000,0.000000,0.003000,FlatInitial
11:13:24.042 AM 02/13/2016,Teleop Disabled,0,FALSE,0,NO ERROR,0.000000,0.000000,0.000000,0.000000,Speed,Speed,0.000000,1.070000,2.940000,2.000000,101.000000,1,0,-0.002232,-0.003968,0,0.000000,0.000000,0.000000,-0.448303,0.501251,0.000000,0.000000,0.000000,0.003000,FlatInitial
11:13:24.141 AM 02/13/2016,Teleop Disabled,0,FALSE,0,NO ERROR,0.000000,0.000000,0.000000,0.000000,Speed,Speed,0.000000,1.070000,2.940000,2.000000,101.000000,1,0,-0.002232,-0.003968,0,0.000000,0.000000,0.000000,-0.448303,0.501251,0.000000,0.000000,0.000000,0.003000,FlatInitial
11:13:24.242 AM 02/13/2016,Teleop Disabled,0,FALSE,0,NO ERROR,0.000000,0.000000,0.000000,0.000000,Speed,Speed,0.000000,1.070000,2.940000,2.000000,101.000000,1,0,-0.002232,-0.003968,0,0.000000,0.000000,0.000000,-0.448303,0.501251,0.000000,0.000000,0.000000,0.003000,FlatInitial
11:13:24.343 AM 02/13/2016,Teleop Disabled,0,FALSE,0,NO ERROR,0.000000,0.000000,0.000000,0.000000,Speed,Speed,0.000000,1.070000,2.940000,2.000000,102.000000,1,0,-0.002232,-0.003968,0,0.000000,0.000000,0.000000,-0.448303,0.501251,0.000000,0.000000,0.000000,0.003000,FlatInitial
11:13:24.443 AM 02/13/2016,Teleop Disabled,0,FALSE,0,NO ERROR,0.000000,0.000000,0.000000,0.000000,Speed,Speed,0.000000,1.070000,2.940000,2.000000,101.000000,1,0,-0.002232,-0.003968,0,0.000000,0.000000,0.000000,-0.448303,0.501251,0.000000,0.000000,0.000000,0.003000,FlatInitial
11:13:24.542 AM 02/13/2016,Teleop Disabled,0,FALSE,0,NO ERROR,0.000000,0.000000,0.000000,0.000000,Speed,Speed,0.000000,1.070000,2.940000,2.000000,102.000000,1,0,-0.002232,-0.003968,0,0.000000,0.000000,0.000000,-0.448303,0.501251,0.000000,0.000000,0.000000,0.003000,FlatInitial
11:13:24.642 AM 02/13/2016,Teleop Disabled,0,FALSE,0,NO ERROR,0.000000,0.000000,0.000000,0.000000,Speed,Speed,0.000000,1.070000,2.940000,2.000000,103.000000,1,0,-0.002232,-0.003968,0,0.000000,0.000000,0.000000,-0.448303,0.501251,0.000000,0.000000,0.000000,0.003000,FlatInitial
11:13:24.742 AM 02/13/2016,Teleop Disabled,0,FALSE,0,NO ERROR,0.000000,0.000000,0.000000,0.000000,Speed,Speed,0.000000,1.070000,2.940000,2.000000,103.000000,1,0,-0.002232,-0.003968,0,0.000000,0.000000,0.000000,-0.448303,0.501251,0.000000,0.000000,0.000000,0.003000,FlatInitial
11:13:24.842 AM 02/13/2016,Teleop Disabled,0,FALSE,0,NO ERROR,0.000000,0.000000,0.000000,0.000000,Speed,Speed,0.000000,1.070000,2.940000,2.000000,101.000000,1,0,-0.002232,-0.003968,0,0.000000,0.000000,0.000000,-0.448303,0.501251,0.000000,0.000000,0.000000,0.003000,FlatInitial
11:13:24.943 AM 02/13/2016,Teleop Disabled,0,FALSE,0,NO ERROR,0.000000,0.000000,0.000000,0.000000,Speed,Speed,0.000000,1.070000,2.940000,2.000000,102.000000,1,0,-0.002232,-0.003968,0,0.000000,0.000000,0.000000,-0.448303,0.501251,0.000000,0.000000,0.000000,0.003000,FlatInitial
11:13:25.042 AM 02/13/2016,Teleop Disabled,0,FALSE,0,NO ERROR,0.000000,0.000000,0.000000,0.000000,Speed,Speed,0.000000,1.070000,2.940000,2.000000,102.000000,1,0,-0.002232,-0.003968,0,0.000000,0.000000,0.000000,-0.448303,0.501251,0.000000,0.000000,0.000000,0.003000,FlatInitial
11:13:25.142 AM 02/13/2016,Teleop Disabled,0,FALSE,0,NO ERROR,0.000000,0.000000,4000.000000,4000.000000,Speed,Speed,0.000000,1.070000,2.940000,3.000000,101.000000,1,0,-0.002232,-0.003968,0,0.000000,0.000000,0.000000,-0.448303,0.501251,0.000000,0.000000,0.000000,0.003000,FlatInitial
11:13:25.242 AM 02/13/2016,Teleop Disabled,0,FALSE,0,NO ERROR,0.000000,0.000000,4000.000000,4000.000000,Speed,Speed,0.000000,1.070000,2.940000,3.000000,101.000000,1,0,-0.002232,-0.003968,0,0.000000,0.000000,0.000000,-0.448303,0.501251,0.000000,0.000000,0.000000,0.003000,FlatInitial
11:13:25.342 AM 02/13/2016,Teleop Disabled,0,FALSE,0,NO ERROR,0.000000,0.000000,4000.000000,4000.000000,Speed,Speed,0.000000,1.070000,2.940000,3.000000,101.000000,1,0,-0.002232,-0.003968,0,0.000000,0.000000,0.000000,-0.448303,0.501251,0.000000,0.000000,0.000000,0.003000,FlatInitial
11:13:25.443 AM 02/13/2016,Teleop Disabled,0,FALSE,0,NO ERROR,0.000000,0.000000,4000.000000,4000.000000,Speed,Speed,0.000000,1.070000,2.940000,3.000000,101.000000,1,0,-0.002232,-0.003968,0,0.000000,0.000000,0.000000,-0.448303,0.501251,0.000000,0.000000,0.000000,0.003000,FlatInitial
11:13:25.546 AM 02/13/2016,Teleop Disabled,0,TRUE,-44003,<LOCATION>WPI_CameraIssue HTTP Request with Authentication.vi<CALLSTACK>WPI_CameraIssue HTTP Request with Authentication.vi< <WPI_CameraIssue Get.vi< <WPI_CameraSet Image Appearance Property.vi< <WPI_CameraSet Image Size.vi< <Vision Processing.vi< <Robot Main.vi,0.000000,0.000000,4000.000000,4000.000000,Speed,Speed,0.000000,1.070000,2.940000,3.000000,102.000000,1,0,-0.002232,-0.003968,0,0.000000,0.000000,0.000000,-0.448303,0.501251,0.000000,0.000000,0.000000,0.003000,FlatInitial
11:13:25.645 AM 02/13/2016,Teleop Disabled,0,FALSE,0,NO ERROR,0.000000,0.000000,4000.000000,4000.000000,Speed,Speed,-0.010000,1.030000,2.830000,3.000000,101.000000,1,0,-0.002232,-0.003968,0,0.001892,-0.017609,0.000000,-0.447540,0.499924,0.000000,-0.016000,0.006000,0.032000,FlatInitial
11:13:25.745 AM 02/13/2016,Teleop Disabled,0,FALSE,0,NO ERROR,0.000000,0.000000,4000.000000,4000.000000,Speed,Speed,0.000000,1.020000,2.840000,3.000000,103.000000,1,0,-0.002232,-0.003968,0,-0.001556,0.000000,0.000000,-0.447556,0.499741,0.000000,-0.026000,0.001000,-0.026000,FlatInitial
11:13:25.846 AM 02/13/2016,Teleop Disabled,0,FALSE,0,NO ERROR,0.000000,0.000000,4000.000000,4000.000000,Speed,Speed,-0.040000,1.050000,2.870000,3.000000,100.000000,1,0,-0.002232,-0.003968,0,0.000000,0.000000,0.000000,-0.447662,0.499741,0.000000,-0.005000,-0.014000,0.077000,FlatInitial
11:13:25.945 AM 02/13/2016,Teleop Disabled,0,FALSE,0,NO ERROR,0.000000,0.000000,4000.000000,4000.000000,Speed,Speed,0.000000,1.010000,2.930000,3.000000,101.000000,1,0,-0.002232,-0.003968,0,-0.002060,0.000000,0.000000,-0.447678,0.499741,0.000000,-0.021000,0.001000,-0.002000,FlatInitial
11:13:26.045 AM 02/13/2016,Teleop Disabled,0,FALSE,0,NO ERROR,0.000000,0.000000,4000.000000,4000.000000,Speed,Speed,-0.030000,1.050000,2.770000,3.000000,102.000000,1,0,-0.002232,-0.003968,0,0.000000,0.011597,0.000000,-0.447708,0.499939,0.000000,0.015000,0.006000,0.026000,FlatInitial
11:13:26.146 AM 02/13/2016,Teleop Disabled,0,FALSE,0,NO ERROR,0.000000,0.000000,4000.000000,4000.000000,Speed,Speed,0.000000,1.030000,2.850000,3.000000,101.000000,1,0,-0.002232,-0.003968,0,0.000000,0.000000,0.000000,-0.447708,0.499939,0.000000,0.000000,0.018000,-0.029000,FlatInitial
11:13:26.247 AM 02/13/2016,Teleop Disabled,0,FALSE,0,NO ERROR,0.000000,0.000000,4000.000000,4000.000000,Speed,Speed,-0.030000,1.060000,2.930000,3.000000,102.000000,1,0,-0.002232,-0.003968,0,0.000000,0.000000,0.000000,-0.447708,0.499939,0.000000,0.010000,-0.001000,-0.007000,FlatInitial
11:13:26.347 AM 02/13/2016,Teleop Disabled,0,FALSE,0,NO ERROR,0.000000,0.000000,4000.000000,4000.000000,Speed,Speed,-0.010000,1.040000,2.870000,3.000000,103.000000,1,0,-0.002232,-0.003968,0,0.000000,0.000000,0.000000,-0.447708,0.499939,0.000000,0.004000,0.008000,-0.006000,FlatInitial
11:13:26.447 AM 02/13/2016,Teleop Disabled,0,FALSE,0,NO ERROR,0.000000,0.000000,4000.000000,4000.000000,Speed,Speed,-0.020000,1.070000,2.890000,3.000000,101.000000,1,0,-0.002232,-0.003968,0,0.000000,0.000000,0.000000,-0.447708,0.499939,0.000000,0.002000,0.000000,-0.008000,FlatInitial
11:13:26.549 AM 02/13/2016,Teleop Disabled,0,FALSE,0,NO ERROR,0.000000,0.000000,4000.000000,4000.000000,Speed,Speed,-0.020000,1.040000,2.910000,3.000000,101.000000,1,0,-0.002232,-0.003968,0,0.000000,0.000000,0.000000,-0.447708,0.499939,0.000000,-0.003000,-0.001000,-0.002000,FlatInitial
11:13:26.648 AM 02/13/2016,Teleop Disabled,0,FALSE,0,NO ERROR,0.000000,0.000000,4000.000000,4000.000000,Speed,Speed,-0.010000,1.060000,2.870000,3.000000,104.000000,1,0,-0.002232,-0.003968,0,0.000000,0.000000,0.000000,-0.447708,0.499939,0.000000,0.003000,0.007000,-0.005000,FlatInitial
11:13:26.749 AM 02/13/2016,Teleop Disabled,0,FALSE,0,NO ERROR,0.000000,0.000000,4000.000000,4000.000000,Speed,Speed,-0.020000,1.050000,2.900000,3.000000,103.000000,1,0,-0.002232,-0.003968,0,0.000000,0.000000,0.000000,-0.447708,0.499939,0.000000,0.002000,-0.001000,0.002000,FlatInitial
11:13:26.850 AM 02/13/2016,Teleop Disabled,0,FALSE,0,NO ERROR,0.000000,0.000000,4000.000000,4000.000000,Speed,Speed,-0.020000,1.060000,2.900000,3.000000,102.000000,1,0,-0.002232,-0.003968,0,0.000000,0.000000,0.000000,-0.447708,0.499939,0.000000,0.000000,0.000000,0.000000,FlatInitial
11:13:26.950 AM 02/13/2016,Teleop Disabled,0,FALSE,0,NO ERROR,0.000000,0.000000,4000.000000,4000.000000,Speed,Speed,-0.020000,1.050000,2.900000,3.000000,101.000000,1,0,-0.002232,-0.003968,0,0.000000,0.000000,0.000000,-0.447708,0.499939,0.000000,0.001000,0.000000,-0.001000,FlatInitial
11:13:27.051 AM 02/13/2016,Teleop Disabled,0,FALSE,0,NO ERROR,0.000000,0.000000,4000.000000,4000.000000,Speed,Speed,-0.020000,1.050000,2.900000,3.000000,101.000000,1,0,-0.002232,-0.003968,0,0.000000,0.000000,0.000000,-0.447708,0.499939,0.000000,0.000000,0.000000,0.000000,FlatInitial
11:13:27.152 AM 02/13/2016,Teleop Disabled,0,FALSE,0,NO ERROR,0.000000,0.000000,4000.000000,4000.000000,Speed,Speed,-0.020000,1.050000,2.910000,3.000000,101.000000,1,0,-0.002232,-0.003968,0,0.000000,0.000000,0.000000,-0.447708,0.499939,0.000000,0.001000,-0.003000,0.000000,FlatInitial
11:13:27.253 AM 02/13/2016,Teleop Disabled,0,FALSE,0,NO ERROR,0.000000,0.000000,4000.000000,4000.000000,Speed,Speed,-0.020000,1.060000,2.910000,3.000000,103.000000,1,0,-0.002232,-0.003968,0,0.000000,0.000000,0.000000,-0.447708,0.499939,0.000000,0.002000,0.000000,0.001000,FlatInitial
11:13:27.353 AM 02/13/2016,Teleop Disabled,0,FALSE,0,NO ERROR,0.000000,0.000000,4000.000000,4000.000000,Speed,Speed,-0.020000,1.050000,2.910000,3.000000,101.000000,1,0,-0.002232,-0.003968,0,0.000000,0.000000,0.000000,-0.447708,0.499939,0.000000,-0.001000,0.000000,-0.005000,FlatInitial
11:13:27.453 AM 02/13/2016,Teleop Disabled,0,FALSE,0,NO ERROR,0.000000,0.000000,4000.000000,4000.000000,Speed,Speed,-0.020000,1.060000,2.910000,3.000000,101.000000,1,0,-0.002232,-0.003968,0,0.000000,0.000000,0.000000,-0.447708,0.499939,0.000000,0.000000,0.000000,0.000000,FlatInitial
11:13:27.553 AM 02/13/2016,Teleop Disabled,0,FALSE,0,NO ERROR,0.000000,0.000000,4000.000000,4000.000000,Speed,Speed,-0.010000,1.060000,2.920000,3.000000,103.000000,1,0,-0.002232,-0.003968,0,0.000000,0.000000,0.000000,-0.447708,0.499939,0.000000,0.000000,-0.002000,-0.001000,FlatInitial
11:13:27.652 AM 02/13/2016,Teleop Disabled,0,FALSE,0,NO ERROR,0.000000,0.000000,4000.000000,4000.000000,Speed,Speed,-0.010000,1.060000,2.910000,3.000000,103.000000,1,0,-0.002232,-0.003968,0,0.000000,0.000000,0.000000,-0.447708,0.499939,0.000000,0.001000,-0.001000,-0.001000,FlatInitial
11:13:27.752 AM 02/13/2016,Teleop Disabled,0,FALSE,0,NO ERROR,0.000000,0.000000,4000.000000,4000.000000,Speed,Speed,-0.010000,1.060000,2.910000,3.000000,102.000000,1,0,-0.002232,-0.003968,0,0.000000,0.000000,0.000000,-0.447708,0.499939,0.000000,0.003000,0.002000,-0.002000,FlatInitial
11:13:27.853 AM 02/13/2016,Teleop Disabled,0,FALSE,0,NO ERROR,0.000000,0.000000,4000.000000,4000.000000,Speed,Speed,-0.010000,1.070000,2.920000,3.000000,102.000000,1,0,-0.002232,-0.003968,0,0.000000,0.000000,0.000000,-0.447708,0.499939,0.000000,-0.002000,0.001000,-0.004000,FlatInitial
11:13:27.954 AM 02/13/2016,Teleop Disabled,0,FALSE,0,NO ERROR,0.000000,0.000000,4000.000000,4000.000000,Speed,Speed,-0.010000,1.070000,2.920000,3.000000,101.000000,1,0,-0.002232,-0.003968,0,0.000000,0.000000,0.000000,-0.447708,0.499939,0.000000,-0.001000,0.000000,-0.001000,FlatInitial
11:13:28.053 AM 02/13/2016,Teleop Disabled,0,FALSE,0,NO ERROR,0.000000,0.000000,4000.000000,4000.000000,Speed,Speed,-0.010000,1.070000,2.920000,3.000000,103.000000,1,0,-0.002232,-0.003968,0,0.000000,0.000000,0.000000,-0.447708,0.499939,0.000000,0.000000,0.000000,-0.002000,FlatInitial
11:13:28.153 AM 02/13/2016,Teleop Disabled,0,FALSE,0,NO ERROR,0.000000,0.000000,4000.000000,4000.000000,Speed,Speed,-0.010000,1.060000,2.930000,3.000000,102.000000,1,0,-0.002232,-0.003968,0,0.000000,0.000000,0.000000,-0.447708,0.499939,0.000000,-0.003000,0.000000,-0.003000,FlatInitial
11:13:28.254 AM 02/13/2016,Teleop Disabled,0,FALSE,0,NO ERROR,0.000000,0.000000,4000.000000,4000.000000,Speed,Speed,-0.010000,1.060000,2.930000,3.000000,102.000000,1,0,-0.002232,-0.003968,0,0.000000,0.000000,0.000000,-0.447708,0.499939,0.000000,0.000000,0.001000,0.002000,FlatInitial
11:13:28.354 AM 02/13/2016,Teleop Disabled,0,FALSE,0,NO ERROR,0.000000,0.000000,4000.000000,4000.000000,Speed,Speed,-0.010000,1.060000,2.930000,3.000000,101.000000,1,0,-0.002232,-0.003968,0,0.000000,0.000000,0.000000,-0.447708,0.499939,0.000000,-0.002000,0.000000,0.003000,FlatInitial
11:13:28.454 AM 02/13/2016,Teleop Disabled,0,FALSE,0,NO ERROR,0.000000,0.000000,4000.000000,4000.000000,Speed,Speed,0.000000,1.070000,2.900000,3.000000,101.000000,1,0,-0.002232,-0.003968,0,0.000000,0.000000,0.000000,-0.447708,0.499939,0.000000,0.000000,0.004000,0.000000,FlatInitial
11:13:28.555 AM 02/13/2016,Teleop Disabled,0,FALSE,0,NO ERROR,0.000000,0.000000,4000.000000,4000.000000,Speed,Speed,-0.020000,1.070000,2.890000,3.000000,102.000000,1,0,-0.002232,-0.003968,0,0.000000,0.000000,0.000000,-0.447708,0.499939,0.000000,-0.004000,-0.007000,0.008000,FlatInitial
11:13:28.654 AM 02/13/2016,Teleop Disabled,0,FALSE,0,NO ERROR,0.000000,0.000000,4000.000000,4000.000000,Speed,Speed,-0.010000,1.070000,2.870000,3.000000,102.000000,1,0,-0.002232,-0.003968,0,0.000000,0.000000,0.000000,-0.447708,0.499939,0.000000,0.003000,0.003000,0.005000,FlatInitial
11:13:28.755 AM 02/13/2016,Teleop Disabled,0,FALSE,0,NO ERROR,0.000000,0.000000,4000.000000,4000.000000,Speed,Speed,0.000000,1.070000,2.930000,3.000000,101.000000,1,0,-0.002232,-0.003968,0,0.000000,0.000000,0.000000,-0.447708,0.499939,0.000000,-0.003000,0.004000,0.000000,FlatInitial
11:13:28.855 AM 02/13/2016,Teleop Disabled,0,FALSE,0,NO ERROR,0.000000,0.000000,4000.000000,4000.000000,Speed,Speed,0.000000,1.070000,2.950000,3.000000,102.000000,1,0,-0.002232,-0.003968,0,0.000000,0.000000,0.000000,-0.447708,0.499939,0.000000,0.001000,0.006000,-0.007000,FlatInitial
11:13:28.956 AM 02/13/2016,Teleop Disabled,0,FALSE,0,NO ERROR,0.000000,0.000000,4000.000000,4000.000000,Speed,Speed,-0.010000,1.070000,2.960000,3.000000,103.000000,1,0,-0.002232,-0.003968,0,0.000000,0.000000,0.000000,-0.447708,0.499939,0.000000,-0.003000,0.001000,0.003000,FlatInitial
11:13:29.055 AM 02/13/2016,Teleop Disabled,0,FALSE,0,NO ERROR,0.000000,0.000000,4000.000000,4000.000000,Speed,Speed,0.000000,1.060000,2.940000,3.000000,103.000000,1,0,-0.002232,-0.003968,0,0.000000,0.000000,0.000000,-0.447708,0.499939,0.000000,-0.001000,-0.006000,-0.003000,FlatInitial
11:13:29.156 AM 02/13/2016,Teleop Disabled,0,FALSE,0,NO ERROR,0.000000,0.000000,4000.000000,4000.000000,Speed,Speed,0.000000,1.060000,2.940000,3.000000,102.000000,1,0,-0.002232,-0.003968,0,0.000000,0.000000,0.000000,-0.447708,0.499939,0.000000,0.000000,0.001000,0.000000,FlatInitial
11:13:29.256 AM 02/13/2016,Teleop Disabled,0,FALSE,0,NO ERROR,0.000000,0.000000,4000.000000,4000.000000,Speed,Speed,0.000000,1.060000,2.930000,3.000000,103.000000,1,0,-0.002232,-0.003968,0,0.000000,0.000000,0.000000,-0.447708,0.499939,0.000000,0.002000,-0.003000,-0.001000,FlatInitial
11:13:29.356 AM 02/13/2016,Teleop Disabled,0,FALSE,0,NO ERROR,0.000000,0.000000,4000.000000,4000.000000,Speed,Speed,-0.010000,1.060000,2.930000,3.000000,103.000000,1,0,-0.002232,-0.003968,0,0.000000,0.000000,0.000000,-0.447708,0.499939,0.000000,0.000000,0.003000,0.001000,FlatInitial
11:13:29.457 AM 02/13/2016,Teleop Disabled,0,FALSE,0,NO ERROR,0.000000,0.000000,4000.000000,4000.000000,Speed,Speed,0.000000,1.060000,2.940000,3.000000,102.000000,1,0,-0.002232,-0.003968,0,0.000000,0.000000,0.000000,-0.447708,0.499939,0.000000,-0.002000,-0.001000,0.000000,FlatInitial
11:13:29.556 AM 02/13/2016,Teleop Disabled,0,FALSE,0,NO ERROR,0.000000,0.000000,4000.000000,4000.000000,Speed,Speed,0.000000,1.060000,2.940000,3.000000,102.000000,1,0,-0.002232,-0.003968,0,0.000000,0.000000,0.000000,-0.447708,0.499939,0.000000,-0.001000,-0.002000,0.000000,FlatInitial
11:13:29.657 AM 02/13/2016,Teleop Disabled,0,FALSE,0,NO ERROR,0.000000,0.000000,4000.000000,4000.000000,Speed,Speed,0.000000,1.060000,2.930000,3.000000,102.000000,1,0,-0.002232,-0.003968,0,0.000000,0.000000,0.000000,-0.447708,0.499939,0.000000,0.000000,0.003000,-0.002000,FlatInitial
11:13:29.757 AM 02/13/2016,Teleop Disabled,0,FALSE,0,NO ERROR,0.000000,0.000000,4000.000000,4000.000000,Speed,Speed,0.000000,1.050000,2.930000,3.000000,101.000000,1,0,-0.002232,-0.003968,0,0.000000,0.000000,0.000000,-0.447708,0.499939,0.000000,0.000000,0.003000,0.000000,FlatInitial
11:13:29.857 AM 02/13/2016,Teleop Disabled,0,FALSE,0,NO ERROR,0.000000,0.000000,4000.000000,4000.000000,Speed,Speed,0.000000,1.060000,2.930000,3.000000,104.000000,1,0,-0.002232,-0.003968,0,0.000000,0.000000,0.000000,-0.447708,0.499939,0.000000,0.000000,0.000000,0.000000,FlatInitial
11:13:29.957 AM 02/13/2016,Teleop Disabled,0,FALSE,0,NO ERROR,0.000000,0.000000,4000.000000,4000.000000,Speed,Speed,0.000000,1.060000,2.930000,3.000000,102.000000,1,0,-0.002232,-0.003968,0,0.000000,0.000000,0.000000,-0.447708,0.499939,0.000000,0.001000,0.000000,0.001000,FlatInitial
11:13:30.058 AM 02/13/2016,Teleop Disabled,0,FALSE,0,NO ERROR,0.000000,0.000000,4000.000000,4000.000000,Speed,Speed,0.000000,1.060000,2.930000,3.000000,101.000000,1,0,-0.002232,-0.003968,0,0.000000,0.000000,0.000000,-0.447708,0.499939,0.000000,0.000000,0.000000,0.003000,FlatInitial
11:13:30.158 AM 02/13/2016,Teleop Disabled,0,FALSE,0,NO ERROR,0.000000,0.000000,4000.000000,4000.000000,Speed,Speed,0.000000,1.060000,2.940000,3.000000,102.000000,1,0,-0.002232,-0.003968,0,0.000000,0.000000,0.000000,-0.447708,0.499939,0.000000,0.001000,-0.001000,-0.001000,FlatInitial
11:13:30.258 AM 02/13/2016,Teleop Disabled,0,FALSE,0,NO ERROR,0.000000,0.000000,4000.000000,4000.000000,Speed,Speed,0.000000,1.070000,2.930000,3.000000,101.000000,1,0,-0.002232,-0.003968,0,0.000000,0.000000,0.000000,-0.447708,0.499939,0.000000,0.004000,-0.001000,0.000000,FlatInitial
11:13:30.357 AM 02/13/2016,Teleop Disabled,0,FALSE,0,NO ERROR,0.000000,0.000000,4000.000000,4000.000000,Speed,Speed,0.000000,1.070000,2.930000,3.000000,102.000000,1,0,-0.002232,-0.003968,0,0.000000,0.000000,0.000000,-0.447708,0.499939,0.000000,0.001000,-0.001000,-0.001000,FlatInitial
11:13:30.458 AM 02/13/2016,Teleop Disabled,0,FALSE,0,NO ERROR,0.000000,0.000000,4000.000000,4000.000000,Speed,Speed,0.000000,1.080000,2.940000,3.000000,103.000000,1,0,-0.002232,-0.003968,0,0.000000,0.000000,0.000000,-0.447708,0.499939,0.000000,0.000000,0.001000,-0.001000,FlatInitial
11:13:30.558 AM 02/13/2016,Teleop Disabled,0,FALSE,0,NO ERROR,0.000000,0.000000,4000.000000,4000.000000,Speed,Speed,0.000000,1.080000,2.940000,3.000000,103.000000,1,0,-0.002232,-0.003968,0,0.000000,0.000000,0.000000,-0.447708,0.499939,0.000000,0.000000,0.000000,0.000000,FlatInitial
11:13:30.657 AM 02/13/2016,Teleop Disabled,0,FALSE,0,NO ERROR,0.000000,0.000000,4000.000000,4000.000000,Speed,Speed,0.000000,1.080000,2.940000,3.000000,102.000000,1,0,-0.002232,-0.003968,0,0.000000,0.000000,0.000000,-0.447708,0.499939,0.000000,-0.002000,0.000000,0.002000,FlatInitial
11:13:30.758 AM 02/13/2016,Teleop Disabled,0,FALSE,0,NO ERROR,0.000000,0.000000,4000.000000,4000.000000,Speed,Speed,0.000000,1.070000,2.940000,3.000000,102.000000,1,0,-0.002232,-0.003968,0,0.000000,0.000000,0.000000,-0.447708,0.499939,0.000000,-0.002000,0.000000,0.002000,FlatInitial
11:13:30.858 AM 02/13/2016,Teleop Disabled,0,FALSE,0,NO ERROR,0.000000,0.000000,4000.000000,4000.000000,Speed,Speed,-0.010000,1.070000,2.940000,3.000000,102.000000,1,0,-0.002232,-0.003968,0,0.000000,0.000000,0.000000,-0.447708,0.499939,0.000000,0.001000,-0.002000,0.001000,FlatInitial
11:13:30.957 AM 02/13/2016,Teleop Disabled,0,FALSE,0,NO ERROR,0.000000,0.000000,4000.000000,4000.000000,Speed,Speed,0.000000,1.070000,2.940000,3.000000,102.000000,1,0,-0.002232,-0.003968,0,0.000000,0.000000,0.000000,-0.447708,0.499939,0.000000,0.000000,0.000000,0.002000,FlatInitial
11:13:31.058 AM 02/13/2016,Teleop Disabled,0,FALSE,0,NO ERROR,0.000000,0.000000,4000.000000,4000.000000,Speed,Speed,-0.010000,1.080000,2.950000,3.000000,101.000000,1,0,-0.002232,-0.003968,0,0.000000,0.000000,0.000000,-0.447708,0.499939,0.000000,0.000000,-0.002000,0.002000,FlatInitial
11:13:31.158 AM 02/13/2016,Teleop Disabled,0,FALSE,0,NO ERROR,0.000000,0.000000,4000.000000,4000.000000,Speed,Speed,0.000000,1.080000,2.940000,3.000000,102.000000,1,0,-0.002232,-0.003968,0,0.000000,0.000000,0.000000,-0.447708,0.499939,0.000000,0.000000,-0.002000,0.000000,FlatInitial
11:13:31.259 AM 02/13/2016,Teleop Disabled,0,FALSE,0,NO ERROR,0.000000,0.000000,4000.000000,4000.000000,Speed,Speed,0.000000,1.080000,2.940000,3.000000,101.000000,1,0,-0.002232,-0.003968,0,0.000000,0.000000,0.000000,-0.447708,0.499939,0.000000,0.000000,-0.002000,-0.002000,FlatInitial
11:13:31.360 AM 02/13/2016,Teleop Disabled,0,FALSE,0,NO ERROR,0.000000,0.000000,4000.000000,4000.000000,Speed,Speed,0.000000,1.080000,2.940000,3.000000,101.000000,1,0,-0.002232,-0.003968,0,0.000000,0.000000,0.000000,-0.447708,0.499939,0.000000,-0.001000,0.000000,-0.002000,FlatInitial
11:13:31.461 AM 02/13/2016,Teleop Enabled,0,FALSE,0,NO ERROR,0.000000,0.000000,4000.000000,4000.000000,Speed,Speed,-0.010000,1.090000,2.940000,3.000000,102.000000,1,0,-0.006200,-0.003968,0,-0.016144,-0.004028,0.000000,-0.447891,0.499893,0.000000,-0.002000,-0.001000,-0.001000,FlatInitial
11:13:31.563 AM 02/13/2016,Teleop Enabled,0,FALSE,0,NO ERROR,0.000000,0.000000,4000.000000,4000.000000,Speed,Speed,-0.010000,1.090000,2.950000,3.000000,102.000000,1,0,-0.006200,-0.003968,0,0.000000,0.000000,0.000000,-0.448151,0.499786,0.000000,0.003000,0.005000,-0.001000,FlatInitial
11:13:31.664 AM 02/13/2016,Teleop Enabled,0,FALSE,0,NO ERROR,0.000000,0.000000,4000.000000,4000.000000,Speed,Speed,-0.010000,1.090000,2.950000,3.000000,101.000000,1,0,-0.006200,-0.003968,0,0.000000,0.000000,0.000000,-0.448151,0.499786,0.000000,-0.014000,-0.012000,0.007000,FlatInitial
11:13:31.766 AM 02/13/2016,Teleop Enabled,0,FALSE,0,NO ERROR,0.000000,0.000000,4000.000000,4000.000000,Speed,Speed,-0.010000,1.090000,2.950000,3.000000,103.000000,1,0,-0.006200,-0.003968,0,0.000000,0.000000,0.000000,-0.448151,0.499786,0.000000,0.001000,-0.009000,0.038000,FlatInitial
11:13:31.867 AM 02/13/2016,Teleop Enabled,0,FALSE,0,NO ERROR,0.000000,0.000000,4000.000000,4000.000000,Speed,Speed,-0.010000,1.090000,2.950000,3.000000,100.000000,1,0,-0.006200,-0.003968,0,0.000000,0.000000,0.000000,-0.448151,0.499786,0.000000,-0.003000,-0.008000,0.009000,FlatInitial
11:13:31.967 AM 02/13/2016,Teleop Enabled,0,FALSE,0,NO ERROR,0.000000,0.000000,4000.000000,4000.000000,Speed,Speed,-0.010000,1.090000,2.950000,3.000000,105.000000,1,0,-0.006200,-0.003968,0,0.000000,0.000000,0.000000,-0.448151,0.499786,0.000000,-0.007000,0.000000,0.015000,FlatInitial
11:13:32.067 AM 02/13/2016,Teleop Enabled,0,FALSE,0,NO ERROR,0.000000,0.000000,4000.000000,4000.000000,Speed,Speed,-0.010000,1.080000,2.950000,3.000000,103.000000,1,0,-0.006200,-0.003968,0,0.000000,0.000000,0.000000,-0.448151,0.499786,0.000000,0.002000,-0.001000,0.002000,FlatInitial
11:13:32.169 AM 02/13/2016,Teleop Enabled,0,FALSE,0,NO ERROR,0.000000,0.000000,4000.000000,4000.000000,Speed,Speed,-0.010000,1.080000,2.950000,3.000000,101.000000,1,0,-0.006200,-0.003968,0,0.000000,0.000000,0.000000,-0.448151,0.499786,0.000000,-0.001000,-0.002000,0.005000,FlatInitial
11:13:32.270 AM 02/13/2016,Teleop Enabled,0,FALSE,0,NO ERROR,0.000000,0.000000,4000.000000,4000.000000,Speed,Speed,-0.010000,1.080000,2.950000,3.000000,101.000000,1,0,-0.006200,-0.003968,0,0.000000,0.000000,0.000000,-0.448151,0.499786,0.000000,0.002000,0.002000,0.000000,FlatInitial
11:13:32.369 AM 02/13/2016,Teleop Enabled,0,FALSE,0,NO ERROR,0.000000,0.000000,4000.000000,4000.000000,Speed,Speed,0.000000,1.070000,2.950000,3.000000,101.000000,1,0,-0.006200,-0.003968,0,0.000000,0.000000,0.000000,-0.448151,0.499786,0.000000,-0.002000,0.004000,-0.001000,FlatInitial
11:13:32.469 AM 02/13/2016,Teleop Enabled,0,FALSE,0,NO ERROR,0.000000,0.000000,4000.000000,4000.000000,Speed,Speed,-0.010000,1.080000,2.950000,3.000000,102.000000,1,0,-0.006200,-0.003968,0,0.000000,0.000000,0.000000,-0.448151,0.499786,0.000000,0.002000,0.002000,-0.002000,FlatInitial
11:13:32.569 AM 02/13/2016,Teleop Enabled,0,FALSE,0,NO ERROR,0.000000,0.000000,4000.000000,4000.000000,Speed,Speed,-0.010000,1.080000,2.950000,3.000000,103.000000,1,0,-0.006200,-0.003968,0,0.000000,0.000000,0.000000,-0.448151,0.499786,0.000000,0.000000,0.003000,-0.004000,FlatInitial
11:13:32.670 AM 02/13/2016,Teleop Enabled,0,FALSE,0,NO ERROR,0.000000,0.000000,4000.000000,4000.000000,Speed,Speed,-0.010000,1.080000,2.950000,3.000000,102.000000,1,0,-0.006200,-0.003968,0,0.000000,0.000000,0.000000,-0.448151,0.499786,0.000000,-0.001000,-0.002000,-0.005000,FlatInitial
11:13:32.769 AM 02/13/2016,Teleop Enabled,0,FALSE,0,NO ERROR,0.000000,0.000000,4000.000000,4000.000000,Speed,Speed,-0.010000,1.080000,2.950000,3.000000,101.000000,1,0,-0.006200,-0.003968,0,0.000000,0.000000,0.000000,-0.448151,0.499786,0.000000,0.000000,-0.004000,0.002000,FlatInitial
11:13:32.870 AM 02/13/2016,Teleop Enabled,0,FALSE,0,NO ERROR,0.000000,0.000000,4000.000000,4000.000000,Speed,Speed,0.000000,1.070000,2.940000,3.000000,101.000000,1,0,-0.006200,-0.003968,0,0.000000,0.005020,0.000000,-0.448151,0.499863,0.000000,0.006000,-0.024000,0.048000,FlatInitial
11:13:32.971 AM 02/13/2016,Teleop Enabled,0,FALSE,0,NO ERROR,0.000000,0.000000,4000.000000,4000.000000,Speed,Speed,-0.010000,1.070000,2.950000,3.000000,105.000000,1,0,-0.006200,-0.003968,0,0.000000,0.000000,0.000000,-0.448151,0.499878,0.000000,-0.004000,0.000000,-0.010000,FlatInitial
11:13:33.071 AM 02/13/2016,Teleop Enabled,0,FALSE,0,NO ERROR,0.000000,0.000000,4000.000000,4000.000000,Speed,Speed,-0.010000,1.080000,2.960000,3.000000,101.000000,1,0,-0.006200,-0.003968,0,0.000000,0.000000,0.000000,-0.448151,0.499878,0.000000,-0.002000,-0.004000,0.013000,FlatInitial
11:13:33.172 AM 02/13/2016,Teleop Enabled,0,FALSE,0,NO ERROR,0.000000,0.000000,4000.000000,4000.000000,Speed,Speed,-0.010000,1.080000,2.960000,3.000000,101.000000,1,0,-0.006200,-0.003968,0,0.000000,0.000000,0.000000,-0.448151,0.499878,0.000000,-0.007000,-0.006000,0.010000,FlatInitial
11:13:33.274 AM 02/13/2016,Teleop Enabled,0,FALSE,0,NO ERROR,0.000000,0.000000,4000.000000,4000.000000,Speed,Speed,-0.010000,1.070000,2.950000,3.000000,102.000000,1,0,-0.006200,-0.003968,0,0.000000,0.000000,0.000000,-0.448151,0.499878,0.000000,0.000000,-0.002000,-0.001000,FlatInitial
11:13:33.374 AM 02/13/2016,Teleop Enabled,0,FALSE,0,NO ERROR,0.000000,0.000000,4000.000000,4000.000000,Speed,Speed,-0.010000,1.080000,2.940000,3.000000,102.000000,1,0,-0.006200,-0.003968,0,0.000000,0.000000,0.000000,-0.448151,0.499878,0.000000,0.000000,-0.003000,0.012000,FlatInitial
11:13:33.475 AM 02/13/2016,Teleop Enabled,0,FALSE,0,NO ERROR,0.000000,0.000000,4000.000000,4000.000000,Speed,Speed,-0.010000,1.080000,2.950000,3.000000,101.000000,1,0,-0.006200,-0.003968,0,0.000000,0.000000,0.000000,-0.448151,0.499878,0.000000,0.000000,-0.006000,0.006000,FlatInitial
11:13:33.575 AM 02/13/2016,Teleop Enabled,0,FALSE,0,NO ERROR,0.000000,0.000000,4000.000000,4000.000000,Speed,Speed,-0.010000,1.080000,2.950000,3.000000,101.000000,1,0,-0.006200,-0.003968,0,0.000000,0.000000,0.000000,-0.448151,0.499878,0.000000,0.000000,-0.003000,0.007000,FlatInitial
11:13:33.675 AM 02/13/2016,Teleop Enabled,0,FALSE,0,NO ERROR,0.000000,0.000000,4000.000000,4000.000000,Speed,Speed,-0.010000,1.080000,2.950000,3.000000,101.000000,1,0,-0.006200,-0.003968,0,0.000000,0.000000,0.000000,-0.448151,0.499878,0.000000,0.000000,-0.004000,0.000000,FlatInitial
11:13:33.775 AM 02/13/2016,Teleop Enabled,0,FALSE,0,NO ERROR,0.000000,0.000000,4000.000000,4000.000000,Speed,Speed,-0.010000,1.080000,2.950000,3.000000,101.000000,1,0,-0.006200,-0.003968,0,0.000000,0.000000,0.000000,-0.448151,0.499878,0.000000,0.001000,-0.004000,-0.003000,FlatInitial
11:13:33.876 AM 02/13/2016,Teleop Enabled,0,FALSE,0,NO ERROR,0.000000,0.000000,4000.000000,4000.000000,Speed,Speed,-0.010000,1.080000,2.950000,3.000000,103.000000,1,0,-0.006200,-0.003968,0,0.000000,0.000000,0.000000,-0.448151,0.499878,0.000000,0.000000,0.000000,0.006000,FlatInitial
11:13:33.975 AM 02/13/2016,Teleop Enabled,0,FALSE,0,NO ERROR,0.000000,0.000000,4000.000000,4000.000000,Speed,Speed,0.000000,1.080000,2.940000,3.000000,103.000000,1,0,-0.006200,-0.003968,0,0.000000,0.000000,0.000000,-0.448151,0.499878,0.000000,-0.001000,0.000000,0.001000,FlatInitial
11:13:34.075 AM 02/13/2016,Teleop Enabled,0,FALSE,0,NO ERROR,0.000000,0.000000,4000.000000,4000.000000,Speed,Speed,0.000000,1.070000,2.940000,3.000000,105.000000,1,0,-0.006200,-0.003968,0,0.000000,0.000000,0.000000,-0.448151,0.499878,0.000000,-0.001000,-0.001000,0.002000,FlatInitial
11:13:34.176 AM 02/13/2016,Teleop Enabled,0,FALSE,0,NO ERROR,0.000000,0.000000,4000.000000,4000.000000,Speed,Speed,0.000000,1.060000,2.940000,3.000000,102.000000,1,0,-0.006200,-0.003968,0,0.000000,0.000000,0.000000,-0.448151,0.499878,0.000000,0.000000,-0.002000,0.000000,FlatInitial
11:13:34.277 AM 02/13/2016,Teleop Enabled,0,FALSE,0,NO ERROR,0.000000,0.000000,4000.000000,4000.000000,Speed,Speed,0.000000,1.070000,2.940000,3.000000,104.000000,1,0,-0.006200,-0.003968,0,0.000000,0.000000,0.000000,-0.448151,0.499878,0.000000,-0.004000,0.000000,0.002000,FlatInitial
11:13:34.377 AM 02/13/2016,Teleop Enabled,0,FALSE,0,NO ERROR,0.000000,0.000000,4000.000000,4000.000000,Speed,Speed,0.000000,1.060000,2.930000,3.000000,101.000000,1,0,-0.006200,-0.003968,0,0.000000,0.000000,0.000000,-0.448151,0.499878,0.000000,-0.002000,-0.003000,0.000000,FlatInitial
11:13:34.478 AM 02/13/2016,Teleop Enabled,0,FALSE,0,NO ERROR,0.000000,0.000000,4000.000000,4000.000000,Speed,Speed,-0.010000,1.060000,2.930000,3.000000,101.000000,1,0,-0.006200,-0.003968,0,0.000000,0.000000,0.000000,-0.448151,0.499878,0.000000,0.000000,0.002000,0.002000,FlatInitial
11:13:34.577 AM 02/13/2016,Teleop Enabled,0,FALSE,0,NO ERROR,0.000000,0.000000,4000.000000,4000.000000,Speed,Speed,0.000000,1.050000,2.930000,3.000000,102.000000,1,0,-0.006200,-0.003968,0,0.000000,0.000000,0.000000,-0.448151,0.499878,0.000000,0.002000,-0.001000,-0.002000,FlatInitial
11:13:34.678 AM 02/13/2016,Teleop Enabled,0,FALSE,0,NO ERROR,0.000000,0.000000,4000.000000,4000.000000,Speed,Speed,-0.010000,1.060000,2.930000,3.000000,102.000000,1,0,-0.006200,-0.003968,0,0.000000,0.000000,0.000000,-0.448151,0.499878,0.000000,0.000000,0.003000,-0.003000,FlatInitial
11:13:34.778 AM 02/13/2016,Teleop Enabled,0,FALSE,0,NO ERROR,0.000000,0.000000,4000.000000,4000.000000,Speed,Speed,-0.010000,1.060000,2.930000,3.000000,103.000000,1,0,-0.006200,-0.003968,0,0.000000,0.000000,0.000000,-0.448151,0.499878,0.000000,-0.001000,0.000000,-0.003000,FlatInitial
11:13:34.878 AM 02/13/2016,Teleop Enabled,0,FALSE,0,NO ERROR,0.000000,0.000000,4000.000000,4000.000000,Speed,Speed,-0.010000,1.060000,2.930000,3.000000,104.000000,1,0,-0.006200,-0.003968,0,0.000000,0.000000,0.000000,-0.448151,0.499878,0.000000,0.000000,-0.002000,0.001000,FlatInitial
11:13:34.978 AM 02/13/2016,Teleop Enabled,0,FALSE,0,NO ERROR,0.000000,0.000000,4000.000000,4000.000000,Speed,Speed,-0.010000,1.060000,2.930000,3.000000,104.000000,1,0,-0.006200,-0.003968,0,0.000000,0.000000,0.000000,-0.448151,0.499878,0.000000,0.000000,0.002000,0.000000,FlatInitial
11:13:35.078 AM 02/13/2016,Teleop Enabled,0,FALSE,0,NO ERROR,0.000000,0.000000,4000.000000,4000.000000,Speed,Speed,-0.010000,1.070000,2.920000,3.000000,102.000000,1,0,-0.006200,-0.003968,0,0.000000,0.000000,0.000000,-0.448151,0.499878,0.000000,0.000000,0.002000,0.000000,FlatInitial
11:13:35.178 AM 02/13/2016,Teleop Enabled,0,FALSE,0,NO ERROR,0.000000,0.000000,4000.000000,4000.000000,Speed,Speed,-0.010000,1.070000,2.920000,3.000000,101.000000,1,0,-0.006200,-0.003968,0,0.000000,0.000000,0.000000,-0.448151,0.499878,0.000000,0.000000,-0.002000,-0.002000,FlatInitial
11:13:35.278 AM 02/13/2016,Teleop Enabled,0,FALSE,0,NO ERROR,0.000000,0.000000,4000.000000,4000.000000,Speed,Speed,-0.010000,1.070000,2.920000,3.000000,103.000000,1,0,-0.006200,-0.003968,0,0.000000,0.000000,0.000000,-0.448151,0.499878,0.000000,0.002000,-0.001000,-0.004000,FlatInitial
11:13:35.379 AM 02/13/2016,Teleop Enabled,0,FALSE,0,NO ERROR,0.000000,0.000000,4000.000000,4000.000000,Speed,Speed,-0.020000,1.060000,2.920000,3.000000,102.000000,1,0,-0.006200,-0.003968,0,0.000000,0.000000,0.000000,-0.448151,0.499878,0.000000,0.000000,0.000000,0.001000,FlatInitial
11:13:35.479 AM 02/13/2016,Teleop Enabled,0,FALSE,0,NO ERROR,0.000000,0.000000,4000.000000,4000.000000,Speed,Speed,-0.010000,1.070000,2.920000,3.000000,102.000000,1,0,-0.006200,-0.003968,0,0.000000,0.000000,0.000000,-0.448151,0.499878,0.000000,0.000000,0.000000,0.000000,FlatInitial
11:13:35.580 AM 02/13/2016,Teleop Enabled,0,FALSE,0,NO ERROR,0.000000,0.000000,4000.000000,4000.000000,Speed,Speed,-0.020000,1.060000,2.930000,3.000000,101.000000,1,0,-0.012152,-0.003968,0,0.000000,0.000000,0.000000,-0.448151,0.499878,0.000000,0.000000,0.000000,0.002000,FlatInitial
11:13:35.681 AM 02/13/2016,Teleop Enabled,0,FALSE,0,NO ERROR,0.000000,0.000000,4000.000000,4000.000000,Speed,Speed,-0.020000,1.060000,2.930000,3.000000,104.000000,1,0,-0.012152,-0.003968,0,0.000000,0.000000,0.000000,-0.448151,0.499878,0.000000,0.002000,0.000000,0.001000,FlatInitial
11:13:35.781 AM 02/13/2016,Teleop Enabled,0,FALSE,0,NO ERROR,0.000000,0.000000,4000.000000,4000.000000,Speed,Speed,-0.020000,1.060000,2.930000,3.000000,104.000000,1,0,-0.006200,-0.003968,0,0.000000,0.000000,0.000000,-0.448151,0.499878,0.000000,0.000000,0.000000,0.003000,FlatInitial
11:13:35.883 AM 02/13/2016,Teleop Enabled,0,FALSE,0,NO ERROR,0.000000,0.000000,4000.000000,4000.000000,Speed,Speed,-0.020000,1.060000,2.930000,3.000000,100.000000,1,0,-0.006200,-0.003968,0,0.000000,0.000000,0.000000,-0.448151,0.499878,0.000000,0.001000,-0.001000,0.002000,FlatInitial
11:13:35.983 AM 02/13/2016,Teleop Enabled,0,FALSE,0,NO ERROR,0.000000,0.000000,4000.000000,4000.000000,Speed,Speed,-0.020000,1.060000,2.930000,3.000000,101.000000,1,0,-0.006200,-0.003968,0,0.000000,0.000000,0.000000,-0.448151,0.499878,0.000000,0.002000,0.001000,-0.002000,FlatInitial
11:13:36.083 AM 02/13/2016,Teleop Enabled,0,FALSE,0,NO ERROR,0.000000,0.000000,4000.000000,4000.000000,Speed,Speed,-0.020000,1.070000,2.920000,3.000000,102.000000,1,0,-0.006200,-0.003968,0,0.000000,0.000000,0.000000,-0.448151,0.499878,0.000000,0.000000,0.001000,0.003000,FlatInitial
11:13:36.183 AM 02/13/2016,Teleop Enabled,0,FALSE,0,NO ERROR,0.000000,0.000000,4000.000000,4000.000000,Speed,Speed,-0.020000,1.060000,2.920000,3.000000,103.000000,1,0,-0.006200,-0.003968,0,0.000000,0.000000,0.000000,-0.448151,0.499878,0.000000,0.000000,0.001000,-0.001000,FlatInitial
11:13:36.283 AM 02/13/2016,Teleop Enabled,0,FALSE,0,NO ERROR,0.000000,0.000000,4000.000000,4000.000000,Speed,Speed,-0.020000,1.060000,2.920000,3.000000,120.000000,1,0,-0.006200,-0.003968,0,0.000000,0.000000,0.000000,-0.448151,0.499878,0.000000,-0.001000,-0.001000,0.001000,FlatInitial
11:13:36.384 AM 02/13/2016,Teleop Enabled,0,FALSE,0,NO ERROR,0.000000,0.000000,4000.000000,4000.000000,Speed,Speed,-0.020000,1.070000,2.920000,3.000000,101.000000,1,0,-0.006200,-0.003968,0,0.000000,0.000000,0.000000,-0.448151,0.499878,0.000000,0.000000,0.001000,0.000000,FlatInitial
11:13:36.484 AM 02/13/2016,Teleop Enabled,0,FALSE,0,NO ERROR,0.000000,0.000000,4000.000000,4000.000000,Speed,Speed,-0.020000,1.070000,2.920000,3.000000,101.000000,1,0,-0.006200,-0.003968,0,0.000000,0.000000,0.000000,-0.448151,0.499878,0.000000,0.000000,0.000000,-0.001000,FlatInitial
11:13:36.585 AM 02/13/2016,Teleop Enabled,0,FALSE,0,NO ERROR,0.000000,0.000000,4000.000000,4000.000000,Speed,Speed,-0.020000,1.070000,2.920000,3.000000,101.000000,1,0,-0.006200,-0.003968,0,0.000000,0.000000,0.000000,-0.448151,0.499878,0.000000,0.000000,0.000000,-0.005000,FlatInitial
11:13:36.686 AM 02/13/2016,Teleop Enabled,0,FALSE,0,NO ERROR,0.000000,0.000000,4000.000000,4000.000000,Speed,Speed,-0.020000,1.070000,2.920000,3.000000,104.000000,1,0,-0.006200,-0.003968,0,0.000000,0.000000,0.000000,-0.448151,0.499878,0.000000,0.002000,0.000000,0.000000,FlatInitial
11:13:36.787 AM 02/13/2016,Teleop Enabled,0,FALSE,0,NO ERROR,0.000000,0.000000,4000.000000,4000.000000,Speed,Speed,-0.020000,1.070000,2.920000,3.000000,104.000000,1,0,-0.001550,-0.003968,0,0.000000,0.000000,0.000000,-0.448151,0.499878,0.000000,0.001000,0.000000,0.001000,FlatInitial
11:13:36.887 AM 02/13/2016,Teleop Enabled,0,FALSE,0,NO ERROR,0.000000,0.000000,4000.000000,4000.000000,Speed,Speed,-0.020000,1.070000,2.930000,3.000000,103.000000,1,0,-0.001550,-0.003968,0,0.000000,0.000000,0.000000,-0.448151,0.499878,0.000000,0.000000,0.000000,0.000000,FlatInitial
11:13:36.988 AM 02/13/2016,Teleop Enabled,0,FALSE,0,NO ERROR,0.000000,0.000000,4000.000000,4000.000000,Speed,Speed,-0.020000,1.070000,2.920000,3.000000,102.000000,1,0,-0.001550,-0.003968,0,0.000000,0.000000,0.000000,-0.448151,0.499878,0.000000,-0.002000,0.000000,0.000000,FlatInitial
11:13:37.090 AM 02/13/2016,Teleop Enabled,0,FALSE,0,NO ERROR,0.000000,0.000000,4000.000000,4000.000000,Speed,Speed,-0.020000,1.070000,2.920000,3.000000,101.000000,1,0,-0.001550,-0.003968,0,0.000000,0.000000,0.000000,-0.448151,0.499878,0.000000,0.000000,0.000000,0.001000,FlatInitial
11:13:37.190 AM 02/13/2016,Teleop Enabled,0,FALSE,0,NO ERROR,0.000000,0.000000,4000.000000,4000.000000,Speed,Speed,-0.020000,1.070000,2.920000,3.000000,102.000000,1,0,-0.001550,-0.003968,0,0.000000,0.000000,0.000000,-0.448151,0.499878,0.000000,0.000000,0.000000,0.002000,FlatInitial
11:13:37.291 AM 02/13/2016,Teleop Enabled,0,FALSE,0,NO ERROR,0.000000,0.000000,4000.000000,4000.000000,Speed,Speed,-0.020000,1.070000,2.920000,3.000000,101.000000,1,0,-0.001550,-0.003968,0,0.000000,0.000000,0.000000,-0.448151,0.499878,0.000000,0.001000,-0.001000,-0.004000,FlatInitial
11:13:37.392 AM 02/13/2016,Teleop Enabled,0,FALSE,0,NO ERROR,0.000000,0.000000,4000.000000,4000.000000,Speed,Speed,-0.020000,1.070000,2.920000,3.000000,101.000000,1,0,-0.001550,-0.003968,0,0.000000,0.000000,0.000000,-0.448151,0.499878,0.000000,0.002000,0.000000,0.002000,FlatInitial
11:13:37.492 AM 02/13/2016,Teleop Enabled,0,FALSE,0,NO ERROR,0.000000,0.000000,4000.000000,4000.000000,Speed,Speed,-0.020000,1.070000,2.930000,3.000000,103.000000,1,0,-0.001550,-0.003968,0,0.000000,0.000000,0.000000,-0.448151,0.499878,0.000000,-0.001000,0.000000,0.000000,FlatInitial
11:13:37.593 AM 02/13/2016,Teleop Enabled,0,FALSE,0,NO ERROR,0.000000,0.000000,4000.000000,4000.000000,Speed,Speed,-0.020000,1.070000,2.930000,3.000000,101.000000,1,0,-0.001550,-0.003968,0,0.000000,0.000000,0.000000,-0.448151,0.499878,0.000000,0.002000,0.000000,0.003000,FlatInitial
11:13:37.694 AM 02/13/2016,Teleop Enabled,0,FALSE,0,NO ERROR,0.000000,0.000000,4000.000000,4000.000000,Speed,Speed,-0.020000,1.070000,2.930000,3.000000,102.000000,1,0,-0.001550,-0.003968,0,0.000000,0.000000,0.000000,-0.448151,0.499878,0.000000,0.000000,0.003000,-0.002000,FlatInitial
11:13:37.793 AM 02/13/2016,Teleop Enabled,0,FALSE,0,NO ERROR,0.000000,0.000000,4000.000000,4000.000000,Speed,Speed,-0.010000,1.070000,2.940000,3.000000,104.000000,1,0,-0.001550,-0.003968,0,0.000000,0.000000,0.000000,-0.448151,0.499878,0.000000,0.000000,-0.001000,-0.003000,FlatInitial
11:13:37.894 AM 02/13/2016,Teleop Enabled,0,FALSE,0,NO ERROR,0.000000,0.000000,4000.000000,4000.000000,Speed,Speed,-0.020000,1.070000,2.940000,3.000000,101.000000,1,0,-0.001550,-0.003968,0,0.000000,0.000000,0.000000,-0.448151,0.499878,0.000000,-0.002000,0.003000,0.000000,FlatInitial
11:13:37.995 AM 02/13/2016,Teleop Enabled,0,FALSE,0,NO ERROR,0.000000,0.000000,4000.000000,4000.000000,Speed,Speed,-0.020000,1.070000,2.940000,3.000000,103.000000,1,0,-0.001550,-0.003968,0,0.000000,0.000000,0.000000,-0.448151,0.499878,0.000000,-0.002000,0.000000,-0.004000,FlatInitial
11:13:38.095 AM 02/13/2016,Teleop Enabled,0,FALSE,0,NO ERROR,0.000000,0.000000,4000.000000,4000.000000,Speed,Speed,-0.020000,1.070000,2.930000,3.000000,101.000000,1,0,-0.001550,-0.003968,0,0.000000,0.000000,0.000000,-0.448151,0.499878,0.000000,0.000000,-0.002000,-0.002000,FlatInitial
11:13:38.196 AM 02/13/2016,Teleop Enabled,0,FALSE,0,NO ERROR,0.000000,0.000000,4000.000000,4000.000000,Speed,Speed,-0.020000,1.070000,2.930000,3.000000,102.000000,1,0,-0.001550,-0.003968,0,0.000000,0.000000,0.000000,-0.448151,0.499878,0.000000,0.000000,0.000000,0.001000,FlatInitial
11:13:38.300 AM 02/13/2016,Teleop Enabled,0,FALSE,0,NO ERROR,0.000000,0.000000,4000.000000,4000.000000,Speed,Speed,-0.020000,1.060000,2.930000,3.000000,101.000000,1,0,-0.001550,-0.003968,0,0.000000,0.000000,0.000000,-0.448151,0.499878,0.000000,-0.002000,-0.001000,0.000000,FlatInitial
11:13:38.402 AM 02/13/2016,Teleop Enabled,0,FALSE,0,NO ERROR,0.000000,0.000000,4000.000000,4000.000000,Speed,Speed,-0.020000,1.060000,2.930000,3.000000,104.000000,1,0,-0.001550,-0.003968,0,0.000000,0.000000,0.000000,-0.448151,0.499878,0.000000,0.000000,0.000000,0.004000,FlatInitial
11:13:38.503 AM 02/13/2016,Teleop Enabled,0,FALSE,0,NO ERROR,0.000000,0.000000,4000.000000,4000.000000,Speed,Speed,-0.020000,1.050000,2.930000,3.000000,102.000000,1,0,-0.001550,-0.003968,0,0.000000,0.000000,0.000000,-0.448151,0.499878,0.000000,0.002000,0.000000,0.000000,FlatInitial
11:13:38.603 AM 02/13/2016,Teleop Enabled,0,FALSE,0,NO ERROR,0.000000,0.000000,4000.000000,4000.000000,Speed,Speed,-0.020000,1.050000,2.930000,3.000000,101.000000,1,0,-0.001550,-0.003968,0,0.000000,0.000000,0.000000,-0.448151,0.499878,0.000000,0.002000,0.001000,0.000000,FlatInitial
11:13:38.704 AM 02/13/2016,Teleop Enabled,0,FALSE,0,NO ERROR,0.000000,0.000000,4000.000000,4000.000000,Speed,Speed,-0.020000,1.060000,2.930000,3.000000,101.000000,1,0,-0.001550,-0.003968,0,0.000000,0.000000,0.000000,-0.448151,0.499878,0.000000,0.000000,0.000000,-0.002000,FlatInitial
11:13:38.804 AM 02/13/2016,Teleop Enabled,0,FALSE,0,NO ERROR,0.000000,0.000000,4000.000000,4000.000000,Speed,Speed,-0.020000,1.060000,2.930000,3.000000,105.000000,1,0,-0.001550,-0.003968,0,0.000000,0.000000,0.000000,-0.448151,0.499878,0.000000,0.002000,0.000000,0.000000,FlatInitial
11:13:38.905 AM 02/13/2016,Teleop Enabled,0,FALSE,0,NO ERROR,0.000000,0.000000,4000.000000,4000.000000,Speed,Speed,-0.020000,1.060000,2.930000,3.000000,104.000000,1,0,-0.001550,-0.003968,0,0.000000,0.000000,0.000000,-0.448151,0.499878,0.000000,-0.003000,0.000000,-0.001000,FlatInitial
11:13:39.004 AM 02/13/2016,Teleop Enabled,0,FALSE,0,NO ERROR,0.000000,0.000000,4000.000000,4000.000000,Speed,Speed,-0.020000,1.060000,2.930000,3.000000,101.000000,1,0,-0.001550,-0.003968,0,0.000000,0.000000,0.000000,-0.448151,0.499878,0.000000,-0.001000,0.000000,0.000000,FlatInitial
11:13:39.106 AM 02/13/2016,Teleop Enabled,0,FALSE,0,NO ERROR,0.000000,0.000000,4000.000000,4000.000000,Speed,Speed,-0.020000,1.060000,2.920000,3.000000,103.000000,1,0,-0.001550,-0.003968,0,0.000000,0.000000,0.000000,-0.448151,0.499878,0.000000,0.001000,0.001000,-0.001000,FlatInitial
11:13:39.206 AM 02/13/2016,Teleop Enabled,0,FALSE,0,NO ERROR,0.000000,0.000000,4000.000000,4000.000000,Speed,Speed,-0.020000,1.060000,2.930000,3.000000,102.000000,1,0,-0.001550,-0.003968,0,0.000000,0.000000,0.000000,-0.448151,0.499878,0.000000,0.000000,0.000000,0.002000,FlatInitial
11:13:39.305 AM 02/13/2016,Teleop Enabled,0,FALSE,0,NO ERROR,0.000000,0.000000,4000.000000,4000.000000,Speed,Speed,-0.020000,1.060000,2.930000,3.000000,102.000000,1,0,-0.001550,-0.003968,0,0.000000,0.000000,0.000000,-0.448151,0.499878,0.000000,0.002000,0.000000,0.001000,FlatInitial
11:13:39.406 AM 02/13/2016,Teleop Enabled,0,FALSE,0,NO ERROR,0.000000,0.000000,4000.000000,4000.000000,Speed,Speed,-0.020000,1.060000,2.930000,3.000000,102.000000,1,0,-0.001550,-0.003968,0,0.000000,0.000000,0.000000,-0.448151,0.499878,0.000000,0.000000,0.002000,-0.004000,FlatInitial
11:13:39.506 AM 02/13/2016,Teleop Enabled,0,FALSE,0,NO ERROR,0.000000,0.000000,4000.000000,4000.000000,Speed,Speed,-0.020000,1.060000,2.930000,3.000000,102.000000,1,0,-0.001550,-0.003968,0,0.000000,0.000000,0.000000,-0.448151,0.499878,0.000000,0.001000,0.000000,-0.001000,FlatInitial
11:13:39.607 AM 02/13/2016,Teleop Enabled,0,FALSE,0,NO ERROR,0.000000,0.000000,4000.000000,4000.000000,Speed,Speed,-0.030000,1.060000,2.930000,3.000000,106.000000,1,0,-0.001550,-0.003968,0,0.000000,0.000000,0.000000,-0.448151,0.499878,0.000000,0.000000,0.000000,-0.003000,FlatInitial
11:13:39.707 AM 02/13/2016,Teleop Enabled,0,FALSE,0,NO ERROR,0.000000,0.000000,4000.000000,4000.000000,Speed,Speed,-0.030000,1.060000,2.930000,3.000000,102.000000,1,0,-0.001550,-0.003968,0,0.000000,0.000000,0.000000,-0.448151,0.499878,0.000000,0.000000,-0.001000,0.000000,FlatInitial
11:13:39.808 AM 02/13/2016,Teleop Enabled,0,FALSE,0,NO ERROR,0.000000,0.000000,4000.000000,4000.000000,Speed,Speed,-0.030000,1.060000,2.930000,3.000000,101.000000,1,0,-0.001550,-0.003968,0,0.000000,0.000000,0.000000,-0.448151,0.499878,0.000000,0.000000,-0.001000,0.000000,FlatInitial
11:13:39.908 AM 02/13/2016,Teleop Enabled,0,FALSE,0,NO ERROR,0.000000,0.000000,4000.000000,4000.000000,Speed,Speed,-0.020000,1.060000,2.930000,3.000000,102.000000,1,0,-0.001550,-0.003968,0,0.000000,0.000000,0.000000,-0.448151,0.499878,0.000000,0.000000,0.001000,0.002000,FlatInitial
11:13:40.008 AM 02/13/2016,Teleop Enabled,0,FALSE,0,NO ERROR,0.000000,0.000000,4000.000000,4000.000000,Speed,Speed,-0.020000,1.060000,2.930000,3.000000,119.000000,1,0,-0.001550,-0.003968,0,0.000000,0.000000,0.000000,-0.448151,0.499878,0.000000,0.001000,0.000000,0.000000,FlatInitial
11:13:40.108 AM 02/13/2016,Teleop Enabled,0,FALSE,0,NO ERROR,0.000000,0.000000,4000.000000,4000.000000,Speed,Speed,-0.020000,1.060000,2.930000,3.000000,102.000000,1,0,-0.001550,-0.003968,0,0.000000,0.000000,0.000000,-0.448151,0.499878,0.000000,0.002000,0.000000,0.000000,FlatInitial
11:13:40.210 AM 02/13/2016,Teleop Enabled,0,FALSE,0,NO ERROR,0.000000,0.000000,4000.000000,4000.000000,Speed,Speed,-0.020000,1.070000,2.920000,3.000000,101.000000,1,0,-0.001550,-0.003968,0,0.000000,0.000000,0.000000,-0.448151,0.499878,0.000000,0.001000,0.000000,0.000000,FlatInitial
11:13:40.309 AM 02/13/2016,Teleop Enabled,0,FALSE,0,NO ERROR,0.000000,0.000000,4000.000000,4000.000000,Speed,Speed,-0.020000,1.070000,2.920000,3.000000,102.000000,1,0,-0.001550,-0.003968,0,0.000000,0.000000,0.000000,-0.448151,0.499878,0.000000,0.000000,-0.001000,0.000000,FlatInitial
11:13:40.409 AM 02/13/2016,Teleop Enabled,0,FALSE,0,NO ERROR,0.000000,0.000000,4000.000000,4000.000000,Speed,Speed,-0.020000,1.060000,2.920000,3.000000,115.000000,1,0,-0.001550,-0.003968,0,0.000000,0.000000,0.000000,-0.448151,0.499878,0.000000,0.000000,0.000000,0.000000,FlatInitial
