Time,RobotMode,AutoToRun,ErrorStatus, ErrorCode,ErrorSource,ActualRPM1,ActualRPM2,DesiredRPM1,DesiredRPM2,ControlMode1,ControlMode2,NavXYaw,NavXRoll,NavXPitch,ShooterState,LoopTime,IsLevel,IsAutoTargeting,LeftMotorOutput,RightMotorOutput,IsHaloDrive,NavXVelocityX,NavXVelocityY,NavXVelocityZ,NavXDisplacementX,NavXDisplacementY,NavXDisplacementZ,NavXAccelerationX,NavXAccelerationY,NavXAccelerationZ,AutoDefendState
12:02:49.307 PM 02/13/2016,Teleop Enabled,0,TRUE,-44087,NetComm_CAN_Receive.vi:5470006<APPEND>  <b>Complete call chain:</b>      NetComm_CAN_Receive.vi:5470006      WPI_CANTalonSRX_Receive.vi      WPI_MotorControlOpenCANTalonSRX.vi      Begin.vi      Robot Main.vi,0.000000,0.000000,4000.000000,4000.000000,Speed,Speed,-0.010000,1.120000,2.880000,3.000000,102.000000,1,0,-0.005022,-0.005022,0,0.000000,0.000000,0.000000,-0.282013,0.552872,0.000000,0.000000,-0.001000,0.007000,FlatInitial
12:02:49.408 PM 02/13/2016,Teleop Enabled,0,TRUE,-44087,NetComm_CAN_Receive.vi:5470006<APPEND>  <b>Complete call chain:</b>      NetComm_CAN_Receive.vi:5470006      WPI_CANTalonSRX_Receive.vi      WPI_MotorControlOpenCANTalonSRX.vi      Begin.vi      Robot Main.vi,0.000000,0.000000,4000.000000,4000.000000,Speed,Speed,-0.010000,1.130000,2.870000,3.000000,102.000000,1,0,-0.005022,-0.005022,0,0.001770,0.003021,0.000000,-0.281982,0.552902,0.000000,0.000000,-0.001000,0.007000,FlatInitial
12:02:49.510 PM 02/13/2016,Teleop Enabled,0,TRUE,-44087,NetComm_CAN_Receive.vi:5470006<APPEND>  <b>Complete call chain:</b>      NetComm_CAN_Receive.vi:5470006      WPI_CANTalonSRX_Receive.vi      WPI_MotorControlOpenCANTalonSRX.vi      Begin.vi      Robot Main.vi,0.000000,0.000000,4000.000000,4000.000000,Speed,Speed,-0.020000,1.120000,2.870000,3.000000,103.000000,1,0,-0.005022,-0.005022,0,0.004501,0.002625,0.000000,-0.281693,0.553024,0.000000,0.000000,-0.002000,-0.017000,FlatInitial
12:02:49.609 PM 02/13/2016,Teleop Enabled,0,TRUE,-44087,NetComm_CAN_Receive.vi:5470006<APPEND>  <b>Complete call chain:</b>      NetComm_CAN_Receive.vi:5470006      WPI_CANTalonSRX_Receive.vi      WPI_MotorControlOpenCANTalonSRX.vi      Begin.vi      Robot Main.vi,0.000000,0.000000,4000.000000,4000.000000,Speed,Speed,0.000000,1.120000,2.860000,3.000000,101.000000,1,0,-0.005022,-0.005022,0,0.000000,0.000000,0.000000,-0.281693,0.553085,0.000000,0.006000,0.002000,-0.030000,FlatInitial
12:02:49.709 PM 02/13/2016,Teleop Enabled,0,TRUE,-44087,NetComm_CAN_Receive.vi:5470006<APPEND>  <b>Complete call chain:</b>      NetComm_CAN_Receive.vi:5470006      WPI_CANTalonSRX_Receive.vi      WPI_MotorControlOpenCANTalonSRX.vi      Begin.vi      Robot Main.vi,0.000000,0.000000,4000.000000,4000.000000,Speed,Speed,-0.010000,1.130000,2.870000,3.000000,101.000000,1,0,-0.005022,-0.005022,0,0.000000,0.000000,0.000000,-0.281693,0.553085,0.000000,0.006000,0.002000,-0.030000,FlatInitial
12:02:49.810 PM 02/13/2016,Teleop Enabled,0,TRUE,-44087,NetComm_CAN_Receive.vi:5470006<APPEND>  <b>Complete call chain:</b>      NetComm_CAN_Receive.vi:5470006      WPI_CANTalonSRX_Receive.vi      WPI_MotorControlOpenCANTalonSRX.vi      Begin.vi      Robot Main.vi,0.000000,0.000000,4000.000000,4000.000000,Speed,Speed,-0.010000,1.130000,2.870000,3.000000,102.000000,1,0,-0.005022,-0.005022,0,0.000000,0.000000,0.000000,-0.281693,0.553085,0.000000,0.002000,0.001000,-0.001000,FlatInitial
12:02:49.910 PM 02/13/2016,Teleop Enabled,0,TRUE,-44087,NetComm_CAN_Receive.vi:5470006<APPEND>  <b>Complete call chain:</b>      NetComm_CAN_Receive.vi:5470006      WPI_CANTalonSRX_Receive.vi      WPI_MotorControlOpenCANTalonSRX.vi      Begin.vi      Robot Main.vi,0.000000,0.000000,4000.000000,4000.000000,Speed,Speed,-0.010000,1.130000,2.870000,3.000000,101.000000,1,0,-0.005022,-0.005022,0,0.000000,0.000000,0.000000,-0.281693,0.553085,0.000000,0.000000,0.001000,0.010000,FlatInitial
12:02:50.011 PM 02/13/2016,Teleop Enabled,0,TRUE,-44087,NetComm_CAN_Receive.vi:5470006<APPEND>  <b>Complete call chain:</b>      NetComm_CAN_Receive.vi:5470006      WPI_CANTalonSRX_Receive.vi      WPI_MotorControlOpenCANTalonSRX.vi      Begin.vi      Robot Main.vi,0.000000,0.000000,4000.000000,4000.000000,Speed,Speed,-0.010000,1.120000,2.880000,3.000000,102.000000,1,0,-0.005022,-0.005022,0,0.000000,0.000000,0.000000,-0.281693,0.553085,0.000000,-0.002000,-0.005000,0.006000,FlatInitial
12:02:50.111 PM 02/13/2016,Teleop Enabled,0,TRUE,-44087,NetComm_CAN_Receive.vi:5470006<APPEND>  <b>Complete call chain:</b>      NetComm_CAN_Receive.vi:5470006      WPI_CANTalonSRX_Receive.vi      WPI_MotorControlOpenCANTalonSRX.vi      Begin.vi      Robot Main.vi,0.000000,0.000000,4000.000000,4000.000000,Speed,Speed,-0.010000,1.120000,2.880000,3.000000,102.000000,1,0,-0.005022,-0.005022,0,0.000000,0.000000,0.000000,-0.281693,0.553085,0.000000,0.000000,-0.004000,0.013000,FlatInitial
12:02:50.211 PM 02/13/2016,Teleop Enabled,0,TRUE,-44087,NetComm_CAN_Receive.vi:5470006<APPEND>  <b>Complete call chain:</b>      NetComm_CAN_Receive.vi:5470006      WPI_CANTalonSRX_Receive.vi      WPI_MotorControlOpenCANTalonSRX.vi      Begin.vi      Robot Main.vi,0.000000,0.000000,4000.000000,4000.000000,Speed,Speed,-0.010000,1.130000,2.870000,3.000000,102.000000,1,0,-0.005022,-0.005022,0,0.000000,0.000000,0.000000,-0.281693,0.553085,0.000000,0.001000,-0.004000,0.000000,FlatInitial
12:02:50.311 PM 02/13/2016,Teleop Enabled,0,TRUE,-44087,NetComm_CAN_Receive.vi:5470006<APPEND>  <b>Complete call chain:</b>      NetComm_CAN_Receive.vi:5470006      WPI_CANTalonSRX_Receive.vi      WPI_MotorControlOpenCANTalonSRX.vi      Begin.vi      Robot Main.vi,0.000000,0.000000,4000.000000,4000.000000,Speed,Speed,-0.010000,1.130000,2.870000,3.000000,106.000000,1,0,-0.005022,-0.005022,0,0.000000,0.000000,0.000000,-0.281693,0.553085,0.000000,0.001000,-0.004000,0.000000,FlatInitial
12:02:50.411 PM 02/13/2016,Teleop Enabled,0,TRUE,-44087,NetComm_CAN_Receive.vi:5470006<APPEND>  <b>Complete call chain:</b>      NetComm_CAN_Receive.vi:5470006      WPI_CANTalonSRX_Receive.vi      WPI_MotorControlOpenCANTalonSRX.vi      Begin.vi      Robot Main.vi,0.000000,0.000000,4000.000000,4000.000000,Speed,Speed,-0.020000,1.130000,2.870000,3.000000,102.000000,1,0,-0.005022,-0.005022,0,0.000000,0.000000,0.000000,-0.281693,0.553085,0.000000,0.001000,-0.002000,0.000000,FlatInitial
12:02:50.511 PM 02/13/2016,Teleop Enabled,0,TRUE,-44087,NetComm_CAN_Receive.vi:5470006<APPEND>  <b>Complete call chain:</b>      NetComm_CAN_Receive.vi:5470006      WPI_CANTalonSRX_Receive.vi      WPI_CANTalonSRX_GetStatus.vi      ShooterVI.vi      Periodic Tasks.vi      Robot Main.vi,0.000000,0.000000,4000.000000,4000.000000,Speed,Speed,-0.020000,1.130000,2.870000,3.000000,102.000000,1,0,-0.005022,-0.005022,0,0.000000,0.000000,0.000000,-0.281693,0.553085,0.000000,0.000000,0.003000,-0.003000,FlatInitial
12:02:50.612 PM 02/13/2016,Teleop Enabled,0,TRUE,-44087,NetComm_CAN_Receive.vi:5470006<APPEND>  <b>Complete call chain:</b>      NetComm_CAN_Receive.vi:5470006      WPI_CANTalonSRX_Receive.vi      WPI_CANTalonSRX_GetStatus.vi      ShooterVI.vi      Periodic Tasks.vi      Robot Main.vi,0.000000,0.000000,4000.000000,4000.000000,Speed,Speed,-0.010000,1.120000,2.870000,3.000000,102.000000,1,0,-0.005022,-0.005022,0,0.000000,0.000000,0.000000,-0.281693,0.553085,0.000000,0.000000,0.000000,-0.001000,FlatInitial
12:02:50.713 PM 02/13/2016,Teleop Enabled,0,TRUE,-44003,<LOCATION>WPI_CameraIssue HTTP Request with Authentication.vi<CALLSTACK>WPI_CameraIssue HTTP Request with Authentication.vi< <WPI_CameraIssue Get.vi< <WPI_CameraSet Image Appearance Property.vi< <WPI_CameraSet Image Size.vi< <Vision Processing.vi< <Robot Main.vi,0.000000,0.000000,4000.000000,4000.000000,Speed,Speed,-0.010000,1.120000,2.870000,3.000000,109.000000,1,0,-0.005022,-0.005022,0,0.000000,0.000000,0.000000,-0.281693,0.553085,0.000000,0.000000,0.000000,-0.001000,FlatInitial
12:02:50.812 PM 02/13/2016,Teleop Enabled,0,FALSE,0,NO ERROR,0.000000,0.000000,4000.000000,4000.000000,Speed,Speed,-0.020000,1.110000,2.870000,3.000000,102.000000,1,0,-0.005022,-0.005022,0,0.000000,0.000000,0.000000,-0.281738,0.553085,0.000000,-0.002000,-0.006000,0.042000,FlatInitial
12:02:50.913 PM 02/13/2016,Teleop Enabled,0,FALSE,0,NO ERROR,0.000000,0.000000,4000.000000,4000.000000,Speed,Speed,-0.020000,1.110000,2.870000,3.000000,101.000000,1,0,-0.005022,-0.005022,0,0.000000,0.000000,0.000000,-0.281738,0.553085,0.000000,-0.007000,0.011000,0.011000,FlatInitial
12:02:51.014 PM 02/13/2016,Teleop Enabled,0,FALSE,0,NO ERROR,0.000000,0.000000,4000.000000,4000.000000,Speed,Speed,-0.010000,1.120000,2.880000,3.000000,104.000000,1,0,-0.005022,-0.005022,0,0.000000,0.000000,0.000000,-0.281738,0.553223,0.000000,0.000000,-0.010000,0.014000,FlatInitial
12:02:51.115 PM 02/13/2016,Teleop Enabled,0,FALSE,0,NO ERROR,0.000000,0.000000,4000.000000,4000.000000,Speed,Speed,-0.020000,1.120000,2.880000,3.000000,102.000000,1,0,-0.005022,-0.005022,0,0.000000,0.000000,0.000000,-0.281738,0.553345,0.000000,0.004000,0.003000,-0.009000,FlatInitial
12:02:51.215 PM 02/13/2016,Teleop Enabled,0,FALSE,0,NO ERROR,0.000000,0.000000,4000.000000,4000.000000,Speed,Speed,-0.020000,1.120000,2.880000,3.000000,102.000000,1,0,-0.005022,-0.005022,0,0.000000,0.000000,0.000000,-0.281738,0.553345,0.000000,0.001000,-0.009000,0.007000,FlatInitial
12:02:51.315 PM 02/13/2016,Teleop Enabled,0,FALSE,0,NO ERROR,0.000000,0.000000,4000.000000,4000.000000,Speed,Speed,-0.020000,1.120000,2.890000,3.000000,103.000000,1,0,-0.005022,-0.005022,0,0.000000,0.000000,0.000000,-0.281738,0.553345,0.000000,0.002000,-0.003000,0.002000,FlatInitial
12:02:51.415 PM 02/13/2016,Teleop Enabled,0,FALSE,0,NO ERROR,0.000000,0.000000,4000.000000,4000.000000,Speed,Speed,-0.020000,1.120000,2.870000,3.000000,103.000000,1,0,-0.005022,-0.005022,0,0.000000,0.000000,0.000000,-0.281738,0.553345,0.000000,-0.002000,0.005000,0.000000,FlatInitial
12:02:51.517 PM 02/13/2016,Teleop Enabled,0,FALSE,0,NO ERROR,0.000000,0.000000,4000.000000,4000.000000,Speed,Speed,-0.020000,1.120000,2.870000,3.000000,101.000000,1,0,-0.005022,-0.005022,0,0.000000,0.000000,0.000000,-0.281738,0.553345,0.000000,0.000000,0.002000,0.004000,FlatInitial
12:02:51.617 PM 02/13/2016,Teleop Enabled,0,FALSE,0,NO ERROR,0.000000,0.000000,4000.000000,4000.000000,Speed,Speed,-0.020000,1.120000,2.880000,3.000000,102.000000,1,0,-0.005022,-0.005022,0,0.000000,0.000000,0.000000,-0.281738,0.553345,0.000000,-0.002000,0.004000,-0.003000,FlatInitial
12:02:51.717 PM 02/13/2016,Teleop Enabled,0,FALSE,0,NO ERROR,0.000000,0.000000,4000.000000,4000.000000,Speed,Speed,-0.020000,1.120000,2.880000,3.000000,101.000000,1,0,-0.005022,-0.005022,0,0.000000,0.000000,0.000000,-0.281738,0.553345,0.000000,0.000000,0.002000,0.000000,FlatInitial
12:02:51.816 PM 02/13/2016,Teleop Enabled,0,FALSE,0,NO ERROR,0.000000,0.000000,4000.000000,4000.000000,Speed,Speed,-0.030000,1.120000,2.880000,3.000000,101.000000,1,0,-0.005022,-0.005022,0,0.000000,0.000000,0.000000,-0.281738,0.553345,0.000000,0.000000,0.003000,0.000000,FlatInitial
12:02:51.917 PM 02/13/2016,Teleop Enabled,0,FALSE,0,NO ERROR,0.000000,0.000000,4000.000000,4000.000000,Speed,Speed,-0.030000,1.120000,2.880000,3.000000,102.000000,1,0,-0.005022,-0.005022,0,0.000000,0.000000,0.000000,-0.281738,0.553345,0.000000,0.000000,0.001000,0.000000,FlatInitial
12:02:52.016 PM 02/13/2016,Teleop Enabled,0,FALSE,0,NO ERROR,0.000000,0.000000,4000.000000,4000.000000,Speed,Speed,-0.030000,1.120000,2.880000,3.000000,101.000000,1,0,-0.005022,-0.005022,0,0.000000,0.000000,0.000000,-0.281738,0.553345,0.000000,0.000000,-0.001000,0.000000,FlatInitial
12:02:52.117 PM 02/13/2016,Teleop Enabled,0,FALSE,0,NO ERROR,0.000000,0.000000,4000.000000,4000.000000,Speed,Speed,-0.030000,1.120000,2.880000,3.000000,103.000000,1,0,-0.005022,-0.005022,0,0.000000,0.000000,0.000000,-0.281738,0.553345,0.000000,-0.001000,-0.001000,-0.002000,FlatInitial
12:02:52.217 PM 02/13/2016,Teleop Enabled,0,FALSE,0,NO ERROR,0.000000,0.000000,4000.000000,4000.000000,Speed,Speed,-0.040000,1.120000,2.880000,3.000000,101.000000,1,0,-0.005022,-0.005022,0,0.000000,0.000000,0.000000,-0.281738,0.553345,0.000000,0.000000,0.000000,0.004000,FlatInitial
12:02:52.318 PM 02/13/2016,Teleop Enabled,0,FALSE,0,NO ERROR,0.000000,0.000000,4000.000000,4000.000000,Speed,Speed,-0.040000,1.120000,2.880000,3.000000,101.000000,1,0,-0.005022,-0.005022,0,0.000000,0.000000,0.000000,-0.281738,0.553345,0.000000,0.000000,-0.001000,0.002000,FlatInitial
12:02:52.418 PM 02/13/2016,Teleop Enabled,0,FALSE,0,NO ERROR,0.000000,0.000000,4000.000000,4000.000000,Speed,Speed,-0.040000,1.130000,2.880000,3.000000,102.000000,1,0,-0.005022,-0.005022,0,0.000000,0.000000,0.000000,-0.281738,0.553345,0.000000,0.000000,0.002000,0.001000,FlatInitial
12:02:52.519 PM 02/13/2016,Teleop Enabled,0,FALSE,0,NO ERROR,0.000000,0.000000,4000.000000,4000.000000,Speed,Speed,-0.050000,1.130000,2.880000,3.000000,103.000000,1,0,-0.005022,-0.005022,0,0.000000,0.000000,0.000000,-0.281738,0.553345,0.000000,0.000000,0.000000,0.001000,FlatInitial
12:02:52.619 PM 02/13/2016,Teleop Enabled,0,FALSE,0,NO ERROR,0.000000,0.000000,4000.000000,4000.000000,Speed,Speed,-0.050000,1.120000,2.880000,3.000000,103.000000,1,0,-0.005022,-0.005022,0,0.000000,0.000000,0.000000,-0.281738,0.553345,0.000000,0.000000,0.000000,0.000000,FlatInitial
12:02:52.721 PM 02/13/2016,Teleop Enabled,0,FALSE,0,NO ERROR,0.000000,0.000000,4000.000000,4000.000000,Speed,Speed,-0.050000,1.120000,2.880000,3.000000,102.000000,1,0,-0.005022,-0.005022,0,0.000000,0.000000,0.000000,-0.281738,0.553345,0.000000,0.000000,-0.001000,-0.002000,FlatInitial
12:02:52.822 PM 02/13/2016,Teleop Enabled,0,FALSE,0,NO ERROR,0.000000,0.000000,4000.000000,4000.000000,Speed,Speed,-0.050000,1.120000,2.880000,3.000000,101.000000,1,0,-0.005022,-0.005022,0,0.000000,0.000000,0.000000,-0.281738,0.553345,0.000000,0.000000,0.001000,0.002000,FlatInitial
12:02:52.923 PM 02/13/2016,Teleop Enabled,0,FALSE,0,NO ERROR,0.000000,0.000000,4000.000000,4000.000000,Speed,Speed,-0.050000,1.120000,2.880000,3.000000,102.000000,1,0,-0.005022,-0.005022,0,0.000000,0.000000,0.000000,-0.281738,0.553345,0.000000,-0.001000,0.000000,0.001000,FlatInitial
12:02:53.024 PM 02/13/2016,Teleop Enabled,0,FALSE,0,NO ERROR,0.000000,0.000000,4000.000000,4000.000000,Speed,Speed,-0.050000,1.120000,2.880000,3.000000,101.000000,1,0,-0.005022,-0.005022,0,0.000000,0.000000,0.000000,-0.281738,0.553345,0.000000,0.000000,0.002000,0.001000,FlatInitial
12:02:53.125 PM 02/13/2016,Teleop Enabled,0,FALSE,0,NO ERROR,0.000000,0.000000,4000.000000,4000.000000,Speed,Speed,-0.050000,1.130000,2.870000,3.000000,101.000000,1,0,-0.005022,-0.005022,0,0.000000,0.000000,0.000000,-0.281738,0.553345,0.000000,-0.002000,-0.001000,-0.001000,FlatInitial
12:02:53.225 PM 02/13/2016,Teleop Enabled,0,FALSE,0,NO ERROR,0.000000,0.000000,4000.000000,4000.000000,Speed,Speed,-0.050000,1.130000,2.870000,3.000000,101.000000,1,0,-0.005022,-0.005022,0,0.000000,0.000000,0.000000,-0.281738,0.553345,0.000000,0.000000,0.001000,-0.002000,FlatInitial
12:02:53.324 PM 02/13/2016,Teleop Enabled,0,FALSE,0,NO ERROR,0.000000,0.000000,4000.000000,4000.000000,Speed,Speed,-0.050000,1.130000,2.870000,3.000000,101.000000,1,0,-0.005022,-0.005022,0,0.000000,0.000000,0.000000,-0.281738,0.553345,0.000000,0.001000,-0.001000,0.000000,FlatInitial
12:02:53.424 PM 02/13/2016,Teleop Enabled,0,FALSE,0,NO ERROR,0.000000,0.000000,4000.000000,4000.000000,Speed,Speed,-0.060000,1.130000,2.870000,3.000000,101.000000,1,0,-0.005022,-0.005022,0,0.000000,0.000000,0.000000,-0.281738,0.553345,0.000000,0.001000,-0.001000,0.006000,FlatInitial
12:02:53.525 PM 02/13/2016,Teleop Enabled,0,FALSE,0,NO ERROR,0.000000,0.000000,4000.000000,4000.000000,Speed,Speed,-0.060000,1.130000,2.870000,3.000000,104.000000,1,0,-0.005022,-0.005022,0,0.000000,0.000000,0.000000,-0.281738,0.553345,0.000000,-0.002000,0.000000,0.004000,FlatInitial
12:02:53.626 PM 02/13/2016,Teleop Enabled,0,FALSE,0,NO ERROR,0.000000,0.000000,4000.000000,4000.000000,Speed,Speed,-0.060000,1.120000,2.880000,3.000000,102.000000,1,0,-0.005022,-0.005022,0,0.000000,0.000000,0.000000,-0.281738,0.553345,0.000000,0.001000,0.000000,-0.002000,FlatInitial
12:02:53.726 PM 02/13/2016,Teleop Enabled,0,FALSE,0,NO ERROR,0.000000,0.000000,4000.000000,4000.000000,Speed,Speed,-0.060000,1.120000,2.880000,3.000000,103.000000,1,0,-0.005022,-0.005022,0,0.000000,0.000000,0.000000,-0.281738,0.553345,0.000000,0.000000,-0.002000,-0.003000,FlatInitial
12:02:53.826 PM 02/13/2016,Teleop Enabled,0,FALSE,0,NO ERROR,0.000000,0.000000,4000.000000,4000.000000,Speed,Speed,-0.060000,1.120000,2.880000,3.000000,101.000000,1,0,-0.005022,-0.005022,0,0.000000,0.000000,0.000000,-0.281738,0.553345,0.000000,0.001000,-0.001000,0.000000,FlatInitial
12:02:53.926 PM 02/13/2016,Teleop Enabled,0,FALSE,0,NO ERROR,0.000000,0.000000,4000.000000,4000.000000,Speed,Speed,-0.060000,1.130000,2.880000,3.000000,101.000000,1,0,-0.005022,-0.005022,0,0.000000,0.000000,0.000000,-0.281738,0.553345,0.000000,-0.002000,0.000000,0.001000,FlatInitial
12:02:54.026 PM 02/13/2016,Teleop Enabled,0,FALSE,0,NO ERROR,0.000000,0.000000,4000.000000,4000.000000,Speed,Speed,-0.060000,1.130000,2.880000,3.000000,103.000000,1,0,-0.005022,-0.005022,0,0.000000,0.000000,0.000000,-0.281738,0.553345,0.000000,0.000000,0.000000,0.000000,FlatInitial
12:02:54.125 PM 02/13/2016,Teleop Enabled,0,FALSE,0,NO ERROR,0.000000,0.000000,4000.000000,4000.000000,Speed,Speed,-0.070000,1.130000,2.880000,3.000000,101.000000,1,0,-0.005022,-0.005022,0,0.000000,0.000000,0.000000,-0.281738,0.553345,0.000000,0.000000,-0.001000,0.003000,FlatInitial
12:02:54.226 PM 02/13/2016,Teleop Enabled,0,FALSE,0,NO ERROR,0.000000,0.000000,4000.000000,4000.000000,Speed,Speed,-0.070000,1.140000,2.880000,3.000000,101.000000,1,0,-0.005022,-0.005022,0,0.000000,0.000000,0.000000,-0.281738,0.553345,0.000000,0.002000,0.001000,0.004000,FlatInitial
12:02:54.325 PM 02/13/2016,Teleop Enabled,0,FALSE,0,NO ERROR,0.000000,0.000000,4000.000000,4000.000000,Speed,Speed,-0.070000,1.140000,2.880000,3.000000,101.000000,1,0,-0.005022,-0.005022,0,0.000000,0.000000,0.000000,-0.281738,0.553345,0.000000,-0.001000,0.000000,-0.001000,FlatInitial
12:02:54.425 PM 02/13/2016,Teleop Enabled,0,FALSE,0,NO ERROR,0.000000,0.000000,4000.000000,4000.000000,Speed,Speed,-0.080000,1.140000,2.900000,3.000000,101.000000,1,0,-0.005022,-0.005022,0,-0.001617,-0.014465,0.000000,-0.281815,0.553116,0.000000,0.107000,0.038000,-0.010000,FlatInitial
12:02:54.526 PM 02/13/2016,Teleop Enabled,0,FALSE,0,NO ERROR,0.000000,0.000000,4000.000000,4000.000000,Speed,Speed,0.050000,1.030000,3.120000,3.000000,101.000000,1,0,-0.005022,-0.005022,0,-0.032013,0.006973,0.000000,-0.282623,0.552551,0.000000,0.021000,0.083000,0.134000,FlatInitial
12:02:54.625 PM 02/13/2016,Teleop Enabled,0,FALSE,0,NO ERROR,0.000000,0.000000,4000.000000,4000.000000,Speed,Speed,0.050000,1.040000,3.220000,3.000000,102.000000,1,0,-0.005022,-0.005022,0,-0.037582,0.023788,0.000000,-0.283417,0.552872,0.000000,0.084000,-0.032000,0.058000,FlatInitial
12:02:54.725 PM 02/13/2016,Teleop Enabled,0,FALSE,0,NO ERROR,0.000000,0.000000,4000.000000,4000.000000,Speed,Speed,-0.120000,1.140000,3.040000,3.000000,102.000000,1,0,-0.005022,-0.005022,0,0.003448,0.000000,0.000000,-0.284027,0.554459,0.000000,0.034000,0.016000,-0.046000,FlatInitial
12:02:54.825 PM 02/13/2016,Teleop Enabled,0,FALSE,0,NO ERROR,0.000000,0.000000,4000.000000,4000.000000,Speed,Speed,-0.230000,1.130000,2.620000,3.000000,102.000000,1,0,-0.005022,-0.005022,0,0.016724,0.040268,0.000000,-0.283829,0.555344,0.000000,0.054000,-0.019000,0.194000,FlatInitial
12:02:54.925 PM 02/13/2016,Teleop Enabled,0,FALSE,0,NO ERROR,0.000000,0.000000,4000.000000,4000.000000,Speed,Speed,-0.110000,1.100000,1.630000,3.000000,101.000000,1,0,-0.005022,-0.005022,0,-0.016953,-0.038239,0.000000,-0.283844,0.554932,0.000000,-0.023000,0.002000,0.059000,FlatInitial
12:02:55.025 PM 02/13/2016,Teleop Enabled,0,FALSE,0,NO ERROR,0.000000,0.000000,4000.000000,4000.000000,Speed,Speed,-0.190000,1.110000,0.960000,3.000000,104.000000,1,0,-0.005022,-0.005022,0,-0.000671,-0.122574,0.000000,-0.284821,0.550690,0.000000,0.096000,-0.135000,-0.115000,FlatInitial
12:02:55.126 PM 02/13/2016,Teleop Enabled,0,FALSE,0,NO ERROR,0.000000,0.000000,4000.000000,4000.000000,Speed,Speed,-0.210000,1.150000,2.620000,3.000000,102.000000,1,0,-0.005022,-0.005022,0,-0.018585,-0.152832,0.000000,-0.285187,0.543671,0.000000,-0.144000,-0.108000,0.373000,FlatInitial
12:02:55.226 PM 02/13/2016,Teleop Enabled,0,FALSE,0,NO ERROR,0.000000,0.000000,4000.000000,4000.000000,Speed,Speed,-0.180000,1.100000,2.290000,3.000000,104.000000,1,0,-0.005022,-0.005022,0,-0.033371,-0.136490,0.000000,-0.286911,0.535507,0.000000,-0.039000,0.141000,0.137000,FlatInitial
12:02:55.326 PM 02/13/2016,Teleop Enabled,0,FALSE,0,NO ERROR,0.000000,0.000000,4000.000000,4000.000000,Speed,Speed,-0.080000,1.100000,2.900000,3.000000,101.000000,1,0,-0.005022,-0.005022,0,0.005951,0.005722,0.000000,-0.287827,0.531998,0.000000,0.009000,0.067000,-0.001000,FlatInitial
12:02:55.426 PM 02/13/2016,Teleop Enabled,0,FALSE,0,NO ERROR,0.000000,0.000000,4000.000000,4000.000000,Speed,Speed,-0.180000,1.130000,2.710000,3.000000,103.000000,1,0,-0.005022,-0.005022,0,-0.003464,0.000000,0.000000,-0.287842,0.533020,0.000000,0.000000,-0.018000,-0.027000,FlatInitial
12:02:55.526 PM 02/13/2016,Teleop Enabled,0,FALSE,0,NO ERROR,0.000000,0.000000,4000.000000,4000.000000,Speed,Speed,-0.200000,1.140000,2.600000,3.000000,102.000000,1,0,-0.005022,-0.005022,0,0.005646,0.000000,0.000000,-0.287750,0.533020,0.000000,-0.012000,-0.002000,0.041000,FlatInitial
12:02:55.625 PM 02/13/2016,Teleop Enabled,0,FALSE,0,NO ERROR,0.000000,0.000000,4000.000000,4000.000000,Speed,Speed,-0.170000,1.090000,2.630000,3.000000,102.000000,1,0,-0.005022,-0.005022,0,0.000000,0.000000,0.000000,-0.287750,0.532776,0.000000,-0.004000,-0.007000,0.015000,FlatInitial
12:02:55.726 PM 02/13/2016,Teleop Enabled,0,FALSE,0,NO ERROR,0.000000,0.000000,4000.000000,4000.000000,Speed,Speed,-0.200000,1.120000,2.540000,3.000000,101.000000,1,0,-0.005022,-0.005022,0,0.000000,0.000000,0.000000,-0.287598,0.532776,0.000000,-0.009000,0.003000,0.010000,FlatInitial
12:02:55.826 PM 02/13/2016,Teleop Enabled,0,FALSE,0,NO ERROR,0.000000,0.000000,4000.000000,4000.000000,Speed,Speed,-0.160000,1.100000,2.590000,3.000000,101.000000,1,0,-0.005022,-0.005022,0,0.000000,0.000000,0.000000,-0.287598,0.532776,0.000000,-0.001000,0.001000,0.008000,FlatInitial
12:02:55.926 PM 02/13/2016,Teleop Enabled,0,FALSE,0,NO ERROR,0.000000,0.000000,4000.000000,4000.000000,Speed,Speed,-0.170000,1.120000,2.660000,3.000000,106.000000,1,0,-0.005022,-0.005022,0,0.000000,0.004440,0.000000,-0.287598,0.532822,0.000000,-0.004000,0.027000,0.000000,FlatInitial
12:02:56.025 PM 02/13/2016,Teleop Enabled,0,FALSE,0,NO ERROR,0.000000,0.000000,4000.000000,4000.000000,Speed,Speed,-0.150000,1.100000,2.610000,3.000000,101.000000,1,0,-0.005022,-0.005022,0,0.000000,0.000000,0.000000,-0.287598,0.533035,0.000000,0.005000,-0.007000,-0.002000,FlatInitial
12:02:56.126 PM 02/13/2016,Teleop Enabled,0,FALSE,0,NO ERROR,0.000000,0.000000,4000.000000,4000.000000,Speed,Speed,-0.200000,1.110000,2.670000,3.000000,101.000000,1,0,-0.005022,-0.005022,0,0.000000,0.000000,0.000000,-0.287598,0.533035,0.000000,-0.001000,-0.004000,0.001000,FlatInitial
12:02:56.225 PM 02/13/2016,Teleop Enabled,0,FALSE,0,NO ERROR,0.000000,0.000000,4000.000000,4000.000000,Speed,Speed,-0.170000,1.110000,2.650000,3.000000,102.000000,1,0,-0.005022,-0.005022,0,0.000000,0.000000,0.000000,-0.287598,0.533035,0.000000,0.003000,-0.004000,-0.005000,FlatInitial
12:02:56.326 PM 02/13/2016,Teleop Enabled,0,FALSE,0,NO ERROR,0.000000,0.000000,4000.000000,4000.000000,Speed,Speed,-0.160000,1.110000,2.630000,3.000000,101.000000,1,0,-0.005022,-0.005022,0,0.000000,0.000000,0.000000,-0.287598,0.533035,0.000000,0.000000,0.004000,-0.001000,FlatInitial
12:02:56.426 PM 02/13/2016,Teleop Enabled,0,FALSE,0,NO ERROR,0.000000,0.000000,4000.000000,4000.000000,Speed,Speed,-0.170000,1.110000,2.670000,3.000000,102.000000,1,0,-0.005022,-0.005022,0,0.000000,0.000000,0.000000,-0.287598,0.533035,0.000000,-0.001000,-0.003000,0.000000,FlatInitial
12:02:56.526 PM 02/13/2016,Teleop Enabled,0,FALSE,0,NO ERROR,0.000000,0.000000,4000.000000,4000.000000,Speed,Speed,-0.170000,1.110000,2.640000,3.000000,102.000000,1,0,-0.005022,-0.005022,0,0.000000,0.000000,0.000000,-0.287598,0.533035,0.000000,0.000000,0.000000,0.000000,FlatInitial
12:02:56.626 PM 02/13/2016,Teleop Enabled,0,FALSE,0,NO ERROR,0.000000,0.000000,4000.000000,4000.000000,Speed,Speed,-0.150000,1.110000,2.620000,3.000000,101.000000,1,0,-0.005022,-0.005022,0,0.000000,0.000000,0.000000,-0.287598,0.533035,0.000000,0.000000,0.001000,0.001000,FlatInitial
12:02:56.727 PM 02/13/2016,Teleop Enabled,0,FALSE,0,NO ERROR,0.000000,0.000000,4000.000000,4000.000000,Speed,Speed,-0.170000,1.120000,2.660000,3.000000,102.000000,1,0,-0.005022,-0.005022,0,0.000000,0.000000,0.000000,-0.287598,0.533035,0.000000,0.000000,-0.001000,0.007000,FlatInitial
12:02:56.828 PM 02/13/2016,Teleop Enabled,0,FALSE,0,NO ERROR,0.000000,0.000000,4000.000000,4000.000000,Speed,Speed,-0.160000,1.120000,2.630000,3.000000,107.000000,1,0,-0.005022,-0.005022,0,0.000000,0.000000,0.000000,-0.287598,0.533035,0.000000,0.000000,-0.001000,-0.002000,FlatInitial
12:02:56.929 PM 02/13/2016,Teleop Enabled,0,FALSE,0,NO ERROR,0.000000,0.000000,4000.000000,4000.000000,Speed,Speed,-0.170000,1.120000,2.640000,3.000000,103.000000,1,0,-0.005022,-0.005022,0,0.000000,0.000000,0.000000,-0.287598,0.533035,0.000000,0.000000,0.000000,0.004000,FlatInitial
12:02:57.029 PM 02/13/2016,Teleop Enabled,0,FALSE,0,NO ERROR,0.000000,0.000000,4000.000000,4000.000000,Speed,Speed,-0.170000,1.120000,2.660000,3.000000,103.000000,1,0,-0.005022,-0.005022,0,0.000000,0.000000,0.000000,-0.287598,0.533035,0.000000,0.000000,0.002000,0.001000,FlatInitial
12:02:57.130 PM 02/13/2016,Teleop Enabled,0,FALSE,0,NO ERROR,0.000000,0.000000,4000.000000,4000.000000,Speed,Speed,-0.160000,1.120000,2.630000,3.000000,101.000000,1,0,-0.005022,-0.005022,0,0.000000,0.000000,0.000000,-0.287598,0.533035,0.000000,0.000000,-0.003000,-0.001000,FlatInitial
12:02:57.229 PM 02/13/2016,Teleop Enabled,0,FALSE,0,NO ERROR,0.000000,0.000000,4000.000000,4000.000000,Speed,Speed,-0.170000,1.120000,2.650000,3.000000,101.000000,1,0,-0.005022,-0.005022,0,0.000000,0.000000,0.000000,-0.287598,0.533035,0.000000,0.001000,-0.001000,-0.002000,FlatInitial
12:02:57.329 PM 02/13/2016,Teleop Enabled,0,FALSE,0,NO ERROR,0.000000,0.000000,4000.000000,4000.000000,Speed,Speed,-0.160000,1.130000,2.640000,3.000000,101.000000,1,0,-0.005022,-0.005022,0,0.000000,0.000000,0.000000,-0.287598,0.533035,0.000000,0.000000,0.001000,0.003000,FlatInitial
12:02:57.430 PM 02/13/2016,Teleop Enabled,0,FALSE,0,NO ERROR,0.000000,0.000000,4000.000000,4000.000000,Speed,Speed,-0.170000,1.120000,2.630000,3.000000,103.000000,1,0,-0.005022,-0.005022,0,0.000000,0.000000,0.000000,-0.287598,0.533035,0.000000,0.000000,0.001000,0.003000,FlatInitial
12:02:57.531 PM 02/13/2016,Teleop Enabled,0,FALSE,0,NO ERROR,0.000000,0.000000,4000.000000,4000.000000,Speed,Speed,-0.170000,1.130000,2.660000,3.000000,101.000000,1,0,-0.005022,-0.005022,0,0.000000,0.000000,0.000000,-0.287598,0.533035,0.000000,0.000000,0.000000,0.003000,FlatInitial
12:02:57.631 PM 02/13/2016,Teleop Enabled,0,FALSE,0,NO ERROR,0.000000,0.000000,4000.000000,4000.000000,Speed,Speed,-0.170000,1.130000,2.640000,3.000000,102.000000,1,0,-0.005022,-0.005022,0,0.000000,0.000000,0.000000,-0.287598,0.533035,0.000000,0.001000,-0.002000,0.002000,FlatInitial
12:02:57.731 PM 02/13/2016,Teleop Enabled,0,FALSE,0,NO ERROR,0.000000,0.000000,4000.000000,4000.000000,Speed,Speed,-0.170000,1.130000,2.650000,3.000000,102.000000,1,0,-0.005022,-0.005022,0,0.000000,0.000000,0.000000,-0.287598,0.533035,0.000000,0.001000,-0.002000,0.002000,FlatInitial
12:02:57.831 PM 02/13/2016,Teleop Enabled,0,FALSE,0,NO ERROR,0.000000,0.000000,4000.000000,4000.000000,Speed,Speed,-0.170000,1.120000,2.650000,3.000000,105.000000,1,0,-0.005022,-0.005022,0,0.000000,0.000000,0.000000,-0.287598,0.533035,0.000000,0.000000,0.001000,0.000000,FlatInitial
12:02:57.933 PM 02/13/2016,Teleop Enabled,0,FALSE,0,NO ERROR,0.000000,0.000000,4000.000000,4000.000000,Speed,Speed,-0.170000,1.120000,2.630000,3.000000,102.000000,1,0,-0.005022,-0.005022,0,0.000000,0.000000,0.000000,-0.287598,0.533035,0.000000,-0.001000,0.001000,-0.008000,FlatInitial
12:02:58.033 PM 02/13/2016,Teleop Enabled,0,FALSE,0,NO ERROR,0.000000,0.000000,4000.000000,4000.000000,Speed,Speed,-0.190000,1.120000,2.550000,3.000000,100.000000,1,0,-0.005022,-0.005022,0,-0.053055,-0.021866,0.000000,-0.288132,0.532791,0.000000,-0.666000,-0.305000,0.187000,FlatInitial
12:02:58.133 PM 02/13/2016,Teleop Enabled,0,FALSE,0,NO ERROR,0.000000,0.000000,4000.000000,4000.000000,Speed,Speed,0.040000,0.990000,1.470000,3.000000,102.000000,1,0,-0.005022,-0.005022,0,-0.058563,0.150986,0.000000,-0.293304,0.534576,0.000000,0.025000,0.068000,0.216000,FlatInitial
12:02:58.233 PM 02/13/2016,Teleop Enabled,0,FALSE,0,NO ERROR,0.000000,0.000000,4000.000000,4000.000000,Speed,Speed,0.170000,1.080000,1.620000,3.000000,101.000000,1,0,-0.005022,-0.005022,0,-0.067535,0.148529,0.000000,-0.296326,0.541687,0.000000,-0.023000,-0.077000,-0.634000,FlatInitial
12:02:58.334 PM 02/13/2016,Teleop Enabled,0,FALSE,0,NO ERROR,0.000000,0.000000,4000.000000,4000.000000,Speed,Speed,-0.190000,1.180000,2.740000,3.000000,101.000000,1,0,-0.005022,-0.005022,0,-0.032867,0.066666,0.000000,-0.298416,0.547409,0.000000,-0.039000,0.071000,-0.309000,FlatInitial
12:02:58.433 PM 02/13/2016,Teleop Enabled,0,FALSE,0,NO ERROR,0.000000,0.000000,4000.000000,4000.000000,Speed,Speed,-0.110000,1.120000,2.590000,3.000000,101.000000,1,0,-0.005022,-0.005022,0,-0.047226,0.078430,0.000000,-0.300430,0.551254,0.000000,-0.031000,0.040000,-0.221000,FlatInitial
12:02:58.534 PM 02/13/2016,Teleop Enabled,0,FALSE,0,NO ERROR,0.000000,0.000000,4000.000000,4000.000000,Speed,Speed,0.140000,1.150000,2.630000,3.000000,102.000000,1,0,-0.005022,-0.005022,0,0.000687,0.045715,0.000000,-0.301346,0.554367,0.000000,0.004000,-0.027000,-0.179000,FlatInitial
12:02:58.635 PM 02/13/2016,Teleop Enabled,0,FALSE,0,NO ERROR,0.000000,0.000000,4000.000000,4000.000000,Speed,Speed,0.000000,0.800000,2.410000,3.000000,102.000000,1,0,-0.005022,-0.005022,0,-0.077606,0.145126,0.000000,-0.306152,0.555725,0.000000,0.004000,-0.027000,-0.179000,FlatInitial
12:02:58.735 PM 02/13/2016,Teleop Enabled,0,FALSE,0,NO ERROR,0.000000,0.000000,4000.000000,4000.000000,Speed,Speed,0.120000,1.230000,2.570000,3.000000,103.000000,1,0,-0.005022,-0.005022,0,-0.079071,0.142014,0.000000,-0.309860,0.561081,0.000000,-0.198000,0.045000,-0.127000,FlatInitial
12:02:58.836 PM 02/13/2016,Teleop Enabled,0,FALSE,0,NO ERROR,0.000000,0.000000,4000.000000,4000.000000,Speed,Speed,-0.090000,1.230000,2.900000,3.000000,103.000000,1,0,-0.005022,-0.005022,0,-0.095917,0.128571,0.000000,-0.314667,0.568726,0.000000,-0.014000,0.175000,0.063000,FlatInitial
12:02:58.937 PM 02/13/2016,Teleop Enabled,0,FALSE,0,NO ERROR,0.000000,0.000000,4000.000000,4000.000000,Speed,Speed,0.020000,1.220000,2.780000,3.000000,103.000000,1,0,-0.005022,-0.005022,0,-0.079239,0.179123,0.000000,-0.318848,0.576706,0.000000,0.010000,-0.035000,-0.213000,FlatInitial
12:02:59.038 PM 02/13/2016,Teleop Enabled,0,FALSE,0,NO ERROR,0.000000,0.000000,4000.000000,4000.000000,Speed,Speed,-0.030000,1.170000,2.820000,3.000000,101.000000,1,0,-0.005022,-0.005022,0,-0.008316,0.139511,0.000000,-0.319946,0.584106,0.000000,-0.040000,0.032000,-0.037000,FlatInitial
12:02:59.138 PM 02/13/2016,Teleop Enabled,0,FALSE,0,NO ERROR,0.000000,0.000000,4000.000000,4000.000000,Speed,Speed,-0.030000,1.180000,2.820000,3.000000,101.000000,1,0,-0.005022,-0.005022,0,-0.004608,0.000000,0.000000,-0.320847,0.587128,0.000000,0.043000,-0.001000,-0.062000,FlatInitial
12:02:59.239 PM 02/13/2016,Teleop Enabled,0,FALSE,0,NO ERROR,0.000000,0.000000,4000.000000,4000.000000,Speed,Speed,-0.020000,1.160000,2.740000,3.000000,101.000000,1,0,-0.005022,-0.005022,0,-0.013412,0.000000,0.000000,-0.321213,0.587128,0.000000,-0.013000,0.018000,-0.003000,FlatInitial
12:02:59.341 PM 02/13/2016,Teleop Enabled,0,FALSE,0,NO ERROR,0.000000,0.000000,4000.000000,4000.000000,Speed,Speed,-0.050000,1.180000,2.800000,3.000000,102.000000,1,0,-0.005022,-0.005022,0,0.002609,0.000000,0.000000,-0.321335,0.587128,0.000000,0.012000,0.011000,-0.023000,FlatInitial
12:02:59.441 PM 02/13/2016,Teleop Enabled,0,FALSE,0,NO ERROR,0.000000,0.000000,4000.000000,4000.000000,Speed,Speed,-0.050000,1.170000,2.830000,3.000000,102.000000,1,0,-0.005022,-0.005022,0,0.000000,0.000000,0.000000,-0.321198,0.587128,0.000000,-0.012000,0.005000,-0.007000,FlatInitial
12:02:59.543 PM 02/13/2016,Teleop Enabled,0,FALSE,0,NO ERROR,0.000000,0.000000,4000.000000,4000.000000,Speed,Speed,-0.030000,1.150000,2.810000,3.000000,102.000000,1,0,-0.005022,-0.005022,0,0.000000,0.000000,0.000000,-0.321198,0.587128,0.000000,0.015000,0.007000,-0.006000,FlatInitial
12:02:59.643 PM 02/13/2016,Teleop Enabled,0,FALSE,0,NO ERROR,0.000000,0.000000,4000.000000,4000.000000,Speed,Speed,-0.050000,1.150000,2.840000,3.000000,113.000000,1,0,-0.005022,-0.005022,0,0.000000,0.000000,0.000000,-0.321198,0.587128,0.000000,-0.010000,0.005000,-0.010000,FlatInitial
12:02:59.743 PM 02/13/2016,Teleop Enabled,0,FALSE,0,NO ERROR,0.000000,0.000000,4000.000000,4000.000000,Speed,Speed,-0.030000,1.140000,2.830000,3.000000,103.000000,1,0,-0.005022,-0.005022,0,0.000000,0.000000,0.000000,-0.321198,0.587128,0.000000,0.012000,0.002000,-0.007000,FlatInitial
12:02:59.844 PM 02/13/2016,Teleop Enabled,0,FALSE,0,NO ERROR,0.000000,0.000000,4000.000000,4000.000000,Speed,Speed,-0.050000,1.150000,2.840000,3.000000,101.000000,1,0,-0.005022,-0.005022,0,0.000000,0.000000,0.000000,-0.321198,0.587128,0.000000,-0.007000,0.005000,-0.003000,FlatInitial
12:02:59.944 PM 02/13/2016,Teleop Enabled,0,FALSE,0,NO ERROR,0.000000,0.000000,4000.000000,4000.000000,Speed,Speed,-0.030000,1.140000,2.830000,3.000000,101.000000,1,0,-0.005022,-0.005022,0,0.000000,0.000000,0.000000,-0.321198,0.587128,0.000000,0.005000,0.002000,-0.003000,FlatInitial
12:03:00.044 PM 02/13/2016,Teleop Enabled,0,FALSE,0,NO ERROR,0.000000,0.000000,4000.000000,4000.000000,Speed,Speed,-0.050000,1.140000,2.860000,3.000000,101.000000,1,0,-0.005022,-0.005022,0,0.000000,0.000000,0.000000,-0.321198,0.587128,0.000000,-0.004000,0.005000,-0.005000,FlatInitial
12:03:00.144 PM 02/13/2016,Teleop Enabled,0,FALSE,0,NO ERROR,0.000000,0.000000,4000.000000,4000.000000,Speed,Speed,-0.030000,1.130000,2.850000,3.000000,102.000000,1,0,-0.005022,-0.005022,0,0.000000,0.000000,0.000000,-0.321198,0.587128,0.000000,0.001000,0.000000,0.000000,FlatInitial
12:03:00.244 PM 02/13/2016,Teleop Enabled,0,FALSE,0,NO ERROR,0.000000,0.000000,4000.000000,4000.000000,Speed,Speed,-0.050000,1.140000,2.850000,3.000000,103.000000,1,0,-0.005022,-0.005022,0,0.000000,0.000000,0.000000,-0.321198,0.587128,0.000000,0.001000,0.000000,0.000000,FlatInitial
12:03:00.344 PM 02/13/2016,Teleop Enabled,0,FALSE,0,NO ERROR,0.000000,0.000000,4000.000000,4000.000000,Speed,Speed,-0.040000,1.130000,2.860000,3.000000,103.000000,1,0,-0.005022,-0.005022,0,0.000000,0.000000,0.000000,-0.321198,0.587128,0.000000,0.000000,0.000000,-0.007000,FlatInitial
12:03:00.444 PM 02/13/2016,Teleop Enabled,0,FALSE,0,NO ERROR,0.000000,0.000000,4000.000000,4000.000000,Speed,Speed,-0.060000,1.140000,2.860000,3.000000,104.000000,1,0,-0.005022,-0.005022,0,0.000000,0.000000,0.000000,-0.321198,0.587128,0.000000,0.000000,0.000000,-0.007000,FlatInitial
12:03:00.544 PM 02/13/2016,Teleop Enabled,0,FALSE,0,NO ERROR,0.000000,0.000000,4000.000000,4000.000000,Speed,Speed,-0.060000,1.140000,2.860000,3.000000,101.000000,1,0,-0.005022,-0.005022,0,0.000000,0.000000,0.000000,-0.321198,0.587128,0.000000,-0.005000,0.001000,0.000000,FlatInitial
12:03:00.645 PM 02/13/2016,Teleop Enabled,0,FALSE,0,NO ERROR,0.000000,0.000000,4000.000000,4000.000000,Speed,Speed,-0.060000,1.130000,2.870000,3.000000,101.000000,1,0,-0.005022,-0.005022,0,0.000000,0.000000,0.000000,-0.321198,0.587128,0.000000,0.002000,0.000000,0.004000,FlatInitial
12:03:00.744 PM 02/13/2016,Teleop Enabled,0,FALSE,0,NO ERROR,0.000000,0.000000,4000.000000,4000.000000,Speed,Speed,-0.050000,1.130000,2.870000,3.000000,104.000000,1,0,-0.005022,-0.005022,0,0.000000,0.000000,0.000000,-0.321198,0.587128,0.000000,0.000000,0.000000,0.005000,FlatInitial
12:03:00.844 PM 02/13/2016,Teleop Enabled,0,FALSE,0,NO ERROR,0.000000,0.000000,4000.000000,4000.000000,Speed,Speed,-0.050000,1.130000,2.870000,3.000000,101.000000,1,0,-0.005022,-0.005022,0,0.000000,0.000000,0.000000,-0.321198,0.587128,0.000000,0.000000,0.000000,0.005000,FlatInitial
12:03:00.944 PM 02/13/2016,Teleop Enabled,0,FALSE,0,NO ERROR,0.000000,0.000000,4000.000000,4000.000000,Speed,Speed,-0.050000,1.120000,2.880000,3.000000,101.000000,1,0,-0.005022,-0.005022,0,0.000000,0.000000,0.000000,-0.321198,0.587128,0.000000,0.000000,0.003000,0.000000,FlatInitial
12:03:01.044 PM 02/13/2016,Teleop Enabled,0,FALSE,0,NO ERROR,0.000000,0.000000,4000.000000,4000.000000,Speed,Speed,-0.060000,1.120000,2.880000,3.000000,101.000000,1,0,-0.005022,-0.005022,0,0.000000,0.000000,0.000000,-0.321198,0.587128,0.000000,0.002000,0.000000,0.002000,FlatInitial
12:03:01.145 PM 02/13/2016,Teleop Enabled,0,FALSE,0,NO ERROR,0.000000,0.000000,4000.000000,4000.000000,Speed,Speed,-0.060000,1.120000,2.880000,3.000000,101.000000,1,0,-0.005022,-0.005022,0,0.000000,0.000000,0.000000,-0.321198,0.587128,0.000000,-0.002000,-0.001000,0.003000,FlatInitial
12:03:01.245 PM 02/13/2016,Teleop Enabled,0,FALSE,0,NO ERROR,0.000000,0.000000,4000.000000,4000.000000,Speed,Speed,-0.060000,1.120000,2.880000,3.000000,104.000000,1,0,-0.005022,-0.005022,0,0.000000,0.000000,0.000000,-0.321198,0.587128,0.000000,0.000000,0.002000,0.006000,FlatInitial
12:03:01.344 PM 02/13/2016,Teleop Enabled,0,FALSE,0,NO ERROR,0.000000,0.000000,4000.000000,4000.000000,Speed,Speed,-0.060000,1.110000,2.890000,3.000000,103.000000,1,0,-0.005022,-0.005022,0,0.000000,0.000000,0.000000,-0.321198,0.587128,0.000000,0.000000,0.000000,0.003000,FlatInitial
12:03:01.444 PM 02/13/2016,Teleop Enabled,0,FALSE,0,NO ERROR,0.000000,0.000000,4000.000000,4000.000000,Speed,Speed,-0.060000,1.110000,2.890000,3.000000,102.000000,1,0,-0.005022,-0.005022,0,0.000000,0.000000,0.000000,-0.321198,0.587128,0.000000,0.001000,0.002000,0.000000,FlatInitial
12:03:01.544 PM 02/13/2016,Teleop Enabled,0,FALSE,0,NO ERROR,0.000000,0.000000,4000.000000,4000.000000,Speed,Speed,-0.060000,1.110000,2.890000,3.000000,102.000000,1,0,-0.005022,-0.005022,0,0.000000,0.000000,0.000000,-0.321198,0.587128,0.000000,0.000000,0.000000,0.000000,FlatInitial
12:03:01.646 PM 02/13/2016,Teleop Enabled,0,FALSE,0,NO ERROR,0.000000,0.000000,4000.000000,4000.000000,Speed,Speed,-0.060000,1.110000,2.890000,3.000000,101.000000,1,0,-0.005022,-0.005022,0,0.000000,0.000000,0.000000,-0.321198,0.587128,0.000000,0.000000,0.000000,-0.001000,FlatInitial
12:03:01.747 PM 02/13/2016,Teleop Enabled,0,FALSE,0,NO ERROR,0.000000,0.000000,4000.000000,4000.000000,Speed,Speed,-0.060000,1.110000,2.890000,3.000000,101.000000,1,0,-0.005022,-0.005022,0,0.000000,0.000000,0.000000,-0.321198,0.587128,0.000000,0.000000,0.000000,0.000000,FlatInitial
12:03:01.848 PM 02/13/2016,Teleop Enabled,0,FALSE,0,NO ERROR,0.000000,0.000000,4000.000000,4000.000000,Speed,Speed,-0.060000,1.110000,2.890000,3.000000,101.000000,1,0,-0.005022,-0.005022,0,0.000000,0.000000,0.000000,-0.321198,0.587128,0.000000,0.001000,0.000000,0.001000,FlatInitial
12:03:01.948 PM 02/13/2016,Teleop Enabled,0,FALSE,0,NO ERROR,0.000000,0.000000,4000.000000,4000.000000,Speed,Speed,-0.060000,1.110000,2.890000,3.000000,101.000000,1,0,-0.005022,-0.005022,0,0.000000,0.000000,0.000000,-0.321198,0.587128,0.000000,0.001000,0.000000,0.000000,FlatInitial
12:03:02.049 PM 02/13/2016,Teleop Enabled,0,FALSE,0,NO ERROR,0.000000,0.000000,4000.000000,4000.000000,Speed,Speed,-0.060000,1.110000,2.890000,3.000000,102.000000,1,0,-0.005022,-0.005022,0,0.000000,0.000000,0.000000,-0.321198,0.587128,0.000000,0.001000,0.000000,-0.001000,FlatInitial
12:03:02.149 PM 02/13/2016,Teleop Enabled,0,FALSE,0,NO ERROR,0.000000,0.000000,4000.000000,4000.000000,Speed,Speed,-0.060000,1.110000,2.890000,3.000000,102.000000,1,0,-0.005022,-0.005022,0,0.000000,0.000000,0.000000,-0.321198,0.587128,0.000000,0.000000,0.000000,0.000000,FlatInitial
12:03:02.249 PM 02/13/2016,Teleop Enabled,0,FALSE,0,NO ERROR,0.000000,0.000000,4000.000000,4000.000000,Speed,Speed,-0.060000,1.110000,2.890000,3.000000,101.000000,1,0,-0.005022,-0.005022,0,0.000000,0.000000,0.000000,-0.321198,0.587128,0.000000,0.000000,0.000000,0.001000,FlatInitial
12:03:02.348 PM 02/13/2016,Teleop Enabled,0,FALSE,0,NO ERROR,0.000000,0.000000,4000.000000,4000.000000,Speed,Speed,-0.060000,1.120000,2.890000,3.000000,102.000000,1,0,-0.005022,-0.005022,0,0.000000,0.000000,0.000000,-0.321198,0.587128,0.000000,0.001000,0.001000,0.000000,FlatInitial
12:03:02.448 PM 02/13/2016,Teleop Enabled,0,FALSE,0,NO ERROR,0.000000,0.000000,4000.000000,4000.000000,Speed,Speed,-0.060000,1.120000,2.890000,3.000000,103.000000,1,0,-0.005022,-0.005022,0,0.000000,0.000000,0.000000,-0.321198,0.587128,0.000000,0.002000,0.001000,0.003000,FlatInitial
12:03:02.549 PM 02/13/2016,Teleop Enabled,0,FALSE,0,NO ERROR,0.000000,0.000000,4000.000000,4000.000000,Speed,Speed,-0.060000,1.110000,2.890000,3.000000,103.000000,1,0,-0.005022,-0.005022,0,0.000000,0.000000,0.000000,-0.321198,0.587128,0.000000,0.001000,0.000000,0.001000,FlatInitial
12:03:02.648 PM 02/13/2016,Teleop Enabled,0,FALSE,0,NO ERROR,0.000000,0.000000,4000.000000,4000.000000,Speed,Speed,-0.060000,1.110000,2.900000,3.000000,101.000000,1,0,-0.005022,-0.005022,0,0.000000,0.000000,0.000000,-0.321198,0.587128,0.000000,0.000000,-0.001000,-0.001000,FlatInitial
12:03:02.748 PM 02/13/2016,Teleop Enabled,0,FALSE,0,NO ERROR,0.000000,0.000000,4000.000000,4000.000000,Speed,Speed,-0.060000,1.110000,2.890000,3.000000,101.000000,1,0,-0.005022,-0.005022,0,0.000000,0.000000,0.000000,-0.321198,0.587128,0.000000,0.000000,0.000000,0.001000,FlatInitial
12:03:02.849 PM 02/13/2016,Teleop Enabled,0,FALSE,0,NO ERROR,0.000000,0.000000,4000.000000,4000.000000,Speed,Speed,-0.060000,1.110000,2.890000,3.000000,103.000000,1,0,-0.005022,-0.005022,0,0.000000,0.000000,0.000000,-0.321198,0.587128,0.000000,-0.001000,-0.001000,0.000000,FlatInitial
12:03:02.950 PM 02/13/2016,Teleop Enabled,0,FALSE,0,NO ERROR,0.000000,0.000000,4000.000000,4000.000000,Speed,Speed,-0.060000,1.110000,2.890000,3.000000,101.000000,1,0,-0.005022,-0.005022,0,0.000000,0.000000,0.000000,-0.321198,0.587128,0.000000,0.000000,0.001000,-0.002000,FlatInitial
12:03:03.051 PM 02/13/2016,Teleop Enabled,0,FALSE,0,NO ERROR,0.000000,0.000000,4000.000000,4000.000000,Speed,Speed,-0.060000,1.110000,2.900000,3.000000,105.000000,1,0,-0.005022,-0.005022,0,0.000000,0.000000,0.000000,-0.321198,0.587128,0.000000,0.001000,-0.001000,0.004000,FlatInitial
12:03:03.150 PM 02/13/2016,Teleop Enabled,0,FALSE,0,NO ERROR,0.000000,0.000000,4000.000000,4000.000000,Speed,Speed,-0.060000,1.110000,2.900000,3.000000,102.000000,1,0,-0.005022,-0.005022,0,0.000000,0.000000,0.000000,-0.321198,0.587128,0.000000,0.000000,-0.002000,0.000000,FlatInitial
12:03:03.251 PM 02/13/2016,Teleop Enabled,0,FALSE,0,NO ERROR,0.000000,0.000000,4000.000000,4000.000000,Speed,Speed,-0.050000,1.100000,2.910000,3.000000,102.000000,1,0,-0.005022,-0.005022,0,0.000000,0.000000,0.000000,-0.321198,0.587128,0.000000,-0.001000,-0.001000,0.000000,FlatInitial
12:03:03.351 PM 02/13/2016,Teleop Enabled,0,FALSE,0,NO ERROR,0.000000,0.000000,4000.000000,4000.000000,Speed,Speed,-0.050000,1.110000,2.900000,3.000000,101.000000,1,0,-0.005022,-0.005022,0,0.000000,0.000000,0.000000,-0.321198,0.587128,0.000000,0.000000,0.001000,0.000000,FlatInitial
12:03:03.451 PM 02/13/2016,Teleop Enabled,0,FALSE,0,NO ERROR,0.000000,0.000000,4000.000000,4000.000000,Speed,Speed,-0.050000,1.110000,2.890000,3.000000,102.000000,1,0,-0.005022,-0.005022,0,0.000000,0.000000,0.000000,-0.321198,0.587128,0.000000,0.000000,0.001000,0.002000,FlatInitial
12:03:03.551 PM 02/13/2016,Teleop Enabled,0,FALSE,0,NO ERROR,0.000000,0.000000,4000.000000,4000.000000,Speed,Speed,-0.050000,1.100000,2.900000,3.000000,102.000000,1,0,-0.005022,-0.005022,0,0.000000,0.000000,0.000000,-0.321198,0.587128,0.000000,0.000000,0.000000,0.003000,FlatInitial
12:03:03.651 PM 02/13/2016,Teleop Enabled,0,FALSE,0,NO ERROR,0.000000,0.000000,4000.000000,4000.000000,Speed,Speed,-0.050000,1.110000,2.890000,3.000000,103.000000,1,0,-0.005022,-0.005022,0,0.000000,0.000000,0.000000,-0.321198,0.587128,0.000000,0.000000,0.000000,0.000000,FlatInitial
12:03:03.751 PM 02/13/2016,Teleop Enabled,0,FALSE,0,NO ERROR,0.000000,0.000000,4000.000000,4000.000000,Speed,Speed,-0.050000,1.110000,2.890000,3.000000,101.000000,1,0,-0.005022,-0.005022,0,0.000000,0.000000,0.000000,-0.321198,0.587128,0.000000,0.001000,0.000000,0.005000,FlatInitial
12:03:03.851 PM 02/13/2016,Teleop Enabled,0,FALSE,0,NO ERROR,0.000000,0.000000,4000.000000,4000.000000,Speed,Speed,-0.050000,1.100000,2.900000,3.000000,101.000000,1,0,-0.005022,-0.005022,0,0.000000,0.000000,0.000000,-0.321198,0.587128,0.000000,0.001000,0.000000,0.001000,FlatInitial
12:03:03.954 PM 02/13/2016,Teleop Enabled,0,FALSE,0,NO ERROR,0.000000,0.000000,4000.000000,4000.000000,Speed,Speed,-0.050000,1.110000,2.890000,3.000000,101.000000,1,0,-0.005022,-0.005022,0,0.000000,0.000000,0.000000,-0.321198,0.587128,0.000000,0.000000,0.000000,0.001000,FlatInitial
12:03:04.054 PM 02/13/2016,Teleop Enabled,0,FALSE,0,NO ERROR,0.000000,0.000000,4000.000000,4000.000000,Speed,Speed,-0.050000,1.110000,2.900000,3.000000,101.000000,1,0,-0.005022,-0.005022,0,0.000000,0.000000,0.000000,-0.321198,0.587128,0.000000,0.000000,0.001000,0.000000,FlatInitial
12:03:04.154 PM 02/13/2016,Teleop Enabled,0,FALSE,0,NO ERROR,0.000000,0.000000,4000.000000,4000.000000,Speed,Speed,-0.050000,1.110000,2.900000,3.000000,102.000000,1,0,-0.005022,-0.005022,0,0.000000,0.000000,0.000000,-0.321198,0.587128,0.000000,-0.001000,0.000000,0.003000,FlatInitial
12:03:04.255 PM 02/13/2016,Teleop Enabled,0,FALSE,0,NO ERROR,0.000000,0.000000,4000.000000,4000.000000,Speed,Speed,-0.050000,1.110000,2.890000,3.000000,102.000000,1,0,-0.005022,-0.005022,0,0.000000,0.000000,0.000000,-0.321198,0.587128,0.000000,-0.001000,0.000000,0.000000,FlatInitial
12:03:04.355 PM 02/13/2016,Teleop Enabled,0,FALSE,0,NO ERROR,0.000000,0.000000,4000.000000,4000.000000,Speed,Speed,-0.050000,1.100000,2.890000,3.000000,102.000000,1,0,-0.005022,-0.005022,0,0.000000,0.000000,0.000000,-0.321198,0.587128,0.000000,0.000000,0.002000,0.003000,FlatInitial
12:03:04.456 PM 02/13/2016,Teleop Enabled,0,FALSE,0,NO ERROR,0.000000,0.000000,4000.000000,4000.000000,Speed,Speed,-0.050000,1.100000,2.890000,3.000000,101.000000,1,0,-0.005022,-0.005022,0,0.000000,0.000000,0.000000,-0.321198,0.587128,0.000000,0.000000,0.000000,-0.001000,FlatInitial
12:03:04.556 PM 02/13/2016,Teleop Enabled,0,FALSE,0,NO ERROR,0.000000,0.000000,4000.000000,4000.000000,Speed,Speed,-0.050000,1.100000,2.890000,3.000000,104.000000,1,0,-0.005022,-0.005022,0,0.000000,0.000000,0.000000,-0.321198,0.587128,0.000000,0.003000,0.000000,-0.001000,FlatInitial
12:03:04.655 PM 02/13/2016,Teleop Enabled,0,FALSE,0,NO ERROR,0.000000,0.000000,4000.000000,4000.000000,Speed,Speed,-0.050000,1.110000,2.900000,3.000000,103.000000,1,0,-0.005022,-0.005022,0,0.000000,0.000000,0.000000,-0.321198,0.587128,0.000000,0.000000,-0.001000,0.000000,FlatInitial
12:03:04.756 PM 02/13/2016,Teleop Enabled,0,FALSE,0,NO ERROR,0.000000,0.000000,4000.000000,4000.000000,Speed,Speed,-0.050000,1.110000,2.900000,3.000000,101.000000,1,0,-0.005022,-0.005022,0,0.000000,0.000000,0.000000,-0.321198,0.587128,0.000000,0.001000,-0.001000,0.002000,FlatInitial
12:03:04.857 PM 02/13/2016,Teleop Enabled,0,FALSE,0,NO ERROR,0.000000,0.000000,4000.000000,4000.000000,Speed,Speed,-0.050000,1.110000,2.900000,3.000000,102.000000,1,0,-0.005022,-0.005022,0,0.000000,0.000000,0.000000,-0.321198,0.587128,0.000000,0.000000,0.000000,0.003000,FlatInitial
12:03:04.958 PM 02/13/2016,Teleop Enabled,0,FALSE,0,NO ERROR,0.000000,0.000000,4000.000000,4000.000000,Speed,Speed,-0.050000,1.110000,2.900000,3.000000,100.000000,1,0,-0.005022,-0.005022,0,0.000000,0.000000,0.000000,-0.321198,0.587128,0.000000,0.000000,-0.002000,0.001000,FlatInitial
12:03:05.060 PM 02/13/2016,Teleop Enabled,0,FALSE,0,NO ERROR,0.000000,0.000000,4000.000000,4000.000000,Speed,Speed,-0.060000,1.110000,2.900000,3.000000,102.000000,1,0,-0.005022,-0.005022,0,0.000000,0.000000,0.000000,-0.321198,0.587128,0.000000,0.002000,0.000000,0.003000,FlatInitial
12:03:05.161 PM 02/13/2016,Teleop Enabled,0,FALSE,0,NO ERROR,0.000000,0.000000,4000.000000,4000.000000,Speed,Speed,-0.060000,1.110000,2.910000,3.000000,102.000000,1,0,-0.005022,-0.005022,0,0.000000,0.000000,0.000000,-0.321198,0.587128,0.000000,0.001000,0.003000,0.003000,FlatInitial
12:03:05.261 PM 02/13/2016,Teleop Enabled,0,FALSE,0,NO ERROR,0.000000,0.000000,4000.000000,4000.000000,Speed,Speed,-0.060000,1.110000,2.910000,3.000000,102.000000,1,0,-0.005022,-0.005022,0,0.000000,0.000000,0.000000,-0.321198,0.587128,0.000000,-0.001000,-0.002000,0.000000,FlatInitial
12:03:05.362 PM 02/13/2016,Teleop Enabled,0,FALSE,0,NO ERROR,0.000000,0.000000,4000.000000,4000.000000,Speed,Speed,-0.060000,1.110000,2.900000,3.000000,101.000000,1,0,-0.005022,-0.005022,0,0.000000,0.000000,0.000000,-0.321198,0.587128,0.000000,0.000000,-0.001000,-0.001000,FlatInitial
12:03:05.463 PM 02/13/2016,Teleop Enabled,0,FALSE,0,NO ERROR,0.000000,0.000000,4000.000000,4000.000000,Speed,Speed,-0.060000,1.110000,2.910000,3.000000,105.000000,1,0,-0.005022,-0.005022,0,0.000000,0.000000,0.000000,-0.321198,0.587128,0.000000,-0.001000,0.000000,0.006000,FlatInitial
12:03:05.564 PM 02/13/2016,Teleop Enabled,0,FALSE,0,NO ERROR,0.000000,0.000000,4000.000000,4000.000000,Speed,Speed,-0.060000,1.120000,2.910000,3.000000,101.000000,1,0,-0.005022,-0.005022,0,0.000000,0.000000,0.000000,-0.321198,0.587128,0.000000,0.000000,0.000000,0.001000,FlatInitial
12:03:05.666 PM 02/13/2016,Teleop Enabled,0,FALSE,0,NO ERROR,0.000000,0.000000,4000.000000,4000.000000,Speed,Speed,-0.060000,1.120000,2.910000,3.000000,102.000000,1,0,-0.005022,-0.005022,0,0.000000,0.000000,0.000000,-0.321198,0.587128,0.000000,0.000000,0.001000,0.000000,FlatInitial
12:03:05.767 PM 02/13/2016,Teleop Enabled,0,FALSE,0,NO ERROR,0.000000,0.000000,4000.000000,4000.000000,Speed,Speed,-0.060000,1.120000,2.910000,3.000000,103.000000,1,0,-0.005022,-0.005022,0,0.000000,0.000000,0.000000,-0.321198,0.587128,0.000000,0.001000,0.000000,-0.001000,FlatInitial
12:03:05.868 PM 02/13/2016,Teleop Enabled,0,FALSE,0,NO ERROR,0.000000,0.000000,4000.000000,4000.000000,Speed,Speed,-0.060000,1.120000,2.900000,3.000000,103.000000,1,0,-0.005022,-0.005022,0,0.000000,0.000000,0.000000,-0.321198,0.587128,0.000000,0.000000,0.000000,-0.001000,FlatInitial
12:03:05.969 PM 02/13/2016,Teleop Enabled,0,FALSE,0,NO ERROR,0.000000,0.000000,4000.000000,4000.000000,Speed,Speed,-0.070000,1.120000,2.900000,3.000000,101.000000,1,0,-0.005022,-0.005022,0,0.000000,0.000000,0.000000,-0.321198,0.587128,0.000000,0.000000,-0.002000,0.002000,FlatInitial
12:03:06.068 PM 02/13/2016,Teleop Enabled,0,FALSE,0,NO ERROR,0.000000,0.000000,4000.000000,4000.000000,Speed,Speed,-0.070000,1.120000,2.900000,3.000000,101.000000,1,0,-0.005022,-0.005022,0,0.000000,0.000000,0.000000,-0.321198,0.587128,0.000000,0.000000,0.000000,0.000000,FlatInitial
12:03:06.168 PM 02/13/2016,Teleop Enabled,0,FALSE,0,NO ERROR,0.000000,0.000000,4000.000000,4000.000000,Speed,Speed,-0.070000,1.120000,2.890000,3.000000,101.000000,1,0,-0.005022,-0.005022,0,0.000000,0.000000,0.000000,-0.321198,0.587128,0.000000,0.001000,-0.001000,0.000000,FlatInitial
12:03:06.270 PM 02/13/2016,Teleop Enabled,0,FALSE,0,NO ERROR,0.000000,0.000000,4000.000000,4000.000000,Speed,Speed,-0.070000,1.120000,2.890000,3.000000,105.000000,1,0,-0.005022,-0.005022,0,0.000000,0.000000,0.000000,-0.321198,0.587128,0.000000,-0.004000,0.002000,0.002000,FlatInitial
12:03:06.371 PM 02/13/2016,Teleop Enabled,0,FALSE,0,NO ERROR,0.000000,0.000000,4000.000000,4000.000000,Speed,Speed,-0.070000,1.110000,2.900000,3.000000,113.000000,1,0,-0.005022,-0.005022,0,0.000000,0.000000,0.000000,-0.321198,0.587128,0.000000,0.000000,0.000000,-0.005000,FlatInitial
12:03:06.470 PM 02/13/2016,Teleop Enabled,0,FALSE,0,NO ERROR,0.000000,0.000000,4000.000000,4000.000000,Speed,Speed,-0.080000,1.110000,2.900000,3.000000,104.000000,1,0,-0.005022,-0.005022,0,0.000000,0.000000,0.000000,-0.321198,0.587128,0.000000,0.000000,0.000000,0.001000,FlatInitial
12:03:06.570 PM 02/13/2016,Teleop Enabled,0,FALSE,0,NO ERROR,0.000000,0.000000,4000.000000,4000.000000,Speed,Speed,-0.080000,1.110000,2.900000,3.000000,102.000000,1,0,-0.005022,-0.005022,0,0.000000,0.000000,0.000000,-0.321198,0.587128,0.000000,0.000000,-0.002000,0.002000,FlatInitial
12:03:06.670 PM 02/13/2016,Teleop Enabled,0,FALSE,0,NO ERROR,0.000000,0.000000,4000.000000,4000.000000,Speed,Speed,-0.080000,1.110000,2.900000,3.000000,101.000000,1,0,-0.005022,-0.005022,0,0.000000,0.000000,0.000000,-0.321198,0.587128,0.000000,0.000000,-0.002000,-0.003000,FlatInitial
12:03:06.770 PM 02/13/2016,Teleop Enabled,0,FALSE,0,NO ERROR,0.000000,0.000000,4000.000000,4000.000000,Speed,Speed,-0.080000,1.110000,2.900000,3.000000,101.000000,1,0,-0.005022,-0.005022,0,0.000000,0.000000,0.000000,-0.321198,0.587128,0.000000,0.001000,0.000000,0.001000,FlatInitial
12:03:06.870 PM 02/13/2016,Teleop Enabled,0,FALSE,0,NO ERROR,0.000000,0.000000,4000.000000,4000.000000,Speed,Speed,-0.080000,1.110000,2.910000,3.000000,103.000000,1,0,-0.005022,-0.005022,0,0.000000,0.000000,0.000000,-0.321198,0.587128,0.000000,0.000000,0.000000,0.000000,FlatInitial
12:03:06.970 PM 02/13/2016,Teleop Enabled,0,FALSE,0,NO ERROR,0.000000,0.000000,4000.000000,4000.000000,Speed,Speed,-0.080000,1.110000,2.900000,3.000000,102.000000,1,0,-0.005022,-0.005022,0,0.000000,0.000000,0.000000,-0.321198,0.587128,0.000000,0.002000,0.000000,0.000000,FlatInitial
12:03:07.070 PM 02/13/2016,Teleop Enabled,0,FALSE,0,NO ERROR,0.000000,0.000000,4000.000000,4000.000000,Speed,Speed,-0.080000,1.120000,2.900000,3.000000,103.000000,1,0,-0.005022,-0.005022,0,0.000000,0.000000,0.000000,-0.321198,0.587128,0.000000,0.003000,0.001000,0.000000,FlatInitial
12:03:07.170 PM 02/13/2016,Teleop Enabled,0,FALSE,0,NO ERROR,0.000000,0.000000,4000.000000,4000.000000,Speed,Speed,-0.080000,1.110000,2.900000,3.000000,100.000000,1,0,-0.005022,-0.005022,0,0.000000,0.000000,0.000000,-0.321198,0.587128,0.000000,0.000000,0.000000,0.000000,FlatInitial
12:03:07.270 PM 02/13/2016,Teleop Enabled,0,FALSE,0,NO ERROR,0.000000,0.000000,4000.000000,4000.000000,Speed,Speed,-0.080000,1.110000,2.900000,3.000000,100.000000,1,0,-0.005022,-0.005022,0,0.000000,0.000000,0.000000,-0.321198,0.587128,0.000000,-0.001000,-0.001000,0.002000,FlatInitial
12:03:07.371 PM 02/13/2016,Teleop Enabled,0,FALSE,0,NO ERROR,0.000000,0.000000,4000.000000,4000.000000,Speed,Speed,-0.080000,1.110000,2.900000,3.000000,101.000000,1,0,-0.005022,-0.005022,0,0.000000,0.000000,0.000000,-0.321198,0.587128,0.000000,0.000000,-0.001000,0.000000,FlatInitial
12:03:07.471 PM 02/13/2016,Teleop Enabled,0,FALSE,0,NO ERROR,0.000000,0.000000,4000.000000,4000.000000,Speed,Speed,-0.080000,1.110000,2.900000,3.000000,101.000000,1,0,-0.005022,-0.005022,0,0.000000,0.000000,0.000000,-0.321198,0.587128,0.000000,0.000000,0.000000,0.000000,FlatInitial
12:03:07.571 PM 02/13/2016,Teleop Enabled,0,FALSE,0,NO ERROR,0.000000,0.000000,4000.000000,4000.000000,Speed,Speed,-0.080000,1.110000,2.900000,3.000000,102.000000,1,0,-0.005022,-0.005022,0,0.000000,0.000000,0.000000,-0.321198,0.587128,0.000000,0.002000,-0.002000,-0.002000,FlatInitial
12:03:07.672 PM 02/13/2016,Teleop Enabled,0,FALSE,0,NO ERROR,0.000000,0.000000,4000.000000,4000.000000,Speed,Speed,-0.080000,1.110000,2.900000,3.000000,102.000000,1,0,-0.005022,-0.005022,0,0.000000,0.000000,0.000000,-0.321198,0.587128,0.000000,0.000000,0.002000,0.001000,FlatInitial
12:03:07.772 PM 02/13/2016,Teleop Enabled,0,FALSE,0,NO ERROR,0.000000,0.000000,4000.000000,4000.000000,Speed,Speed,-0.080000,1.110000,2.900000,3.000000,103.000000,1,0,-0.005022,-0.005022,0,0.000000,0.000000,0.000000,-0.321198,0.587128,0.000000,0.000000,0.002000,0.001000,FlatInitial
12:03:07.872 PM 02/13/2016,Teleop Enabled,0,FALSE,0,NO ERROR,0.000000,0.000000,4000.000000,4000.000000,Speed,Speed,-0.080000,1.100000,2.900000,3.000000,102.000000,1,0,-0.005022,-0.005022,0,0.000000,0.000000,0.000000,-0.321198,0.587128,0.000000,0.001000,-0.003000,-0.004000,FlatInitial
12:03:07.973 PM 02/13/2016,Teleop Enabled,0,FALSE,0,NO ERROR,0.000000,0.000000,4000.000000,4000.000000,Speed,Speed,-0.080000,1.100000,2.900000,3.000000,101.000000,1,0,-0.005022,-0.005022,0,0.000000,0.000000,0.000000,-0.321198,0.587128,0.000000,0.000000,-0.002000,-0.003000,FlatInitial
12:03:08.074 PM 02/13/2016,Teleop Enabled,0,FALSE,0,NO ERROR,0.000000,0.000000,4000.000000,4000.000000,Speed,Speed,-0.080000,1.110000,2.900000,3.000000,101.000000,1,0,-0.005022,-0.005022,0,0.000000,0.000000,0.000000,-0.321198,0.587128,0.000000,0.000000,-0.002000,-0.002000,FlatInitial
12:03:08.174 PM 02/13/2016,Teleop Enabled,0,FALSE,0,NO ERROR,0.000000,0.000000,4000.000000,4000.000000,Speed,Speed,-0.080000,1.110000,2.900000,3.000000,101.000000,1,0,-0.005022,-0.005022,0,0.000000,0.000000,0.000000,-0.321198,0.587128,0.000000,0.001000,0.000000,-0.001000,FlatInitial
12:03:08.274 PM 02/13/2016,Teleop Enabled,0,FALSE,0,NO ERROR,0.000000,0.000000,4000.000000,4000.000000,Speed,Speed,-0.080000,1.120000,2.890000,3.000000,103.000000,1,0,-0.005022,-0.005022,0,0.000000,0.000000,0.000000,-0.321198,0.587128,0.000000,0.001000,-0.001000,0.003000,FlatInitial
12:03:08.373 PM 02/13/2016,Teleop Enabled,0,FALSE,0,NO ERROR,0.000000,0.000000,4000.000000,4000.000000,Speed,Speed,-0.080000,1.120000,2.890000,3.000000,102.000000,1,0,-0.005022,-0.005022,0,0.000000,0.000000,0.000000,-0.321198,0.587128,0.000000,0.000000,-0.001000,0.003000,FlatInitial
12:03:08.474 PM 02/13/2016,Teleop Enabled,0,FALSE,0,NO ERROR,0.000000,0.000000,4000.000000,4000.000000,Speed,Speed,-0.080000,1.120000,2.890000,3.000000,103.000000,1,0,-0.005022,-0.005022,0,0.000000,0.000000,0.000000,-0.321198,0.587128,0.000000,0.000000,0.000000,0.006000,FlatInitial
12:03:08.575 PM 02/13/2016,Teleop Enabled,0,FALSE,0,NO ERROR,0.000000,0.000000,4000.000000,4000.000000,Speed,Speed,-0.080000,1.120000,2.890000,3.000000,102.000000,1,0,-0.005022,-0.005022,0,0.000000,0.000000,0.000000,-0.321198,0.587128,0.000000,0.000000,0.000000,0.000000,FlatInitial
12:03:08.676 PM 02/13/2016,Teleop Enabled,0,FALSE,0,NO ERROR,0.000000,0.000000,4000.000000,4000.000000,Speed,Speed,-0.080000,1.120000,2.890000,3.000000,101.000000,1,0,-0.005022,-0.005022,0,0.000000,0.000000,0.000000,-0.321198,0.587128,0.000000,0.001000,-0.001000,0.002000,FlatInitial
12:03:08.776 PM 02/13/2016,Teleop Enabled,0,FALSE,0,NO ERROR,0.000000,0.000000,4000.000000,4000.000000,Speed,Speed,-0.080000,1.120000,2.890000,3.000000,101.000000,1,0,-0.005022,-0.005022,0,0.000000,0.000000,0.000000,-0.321198,0.587128,0.000000,0.000000,-0.001000,0.002000,FlatInitial
12:03:08.877 PM 02/13/2016,Teleop Enabled,0,FALSE,0,NO ERROR,0.000000,0.000000,4000.000000,4000.000000,Speed,Speed,-0.080000,1.120000,2.890000,3.000000,102.000000,1,0,-0.005022,-0.005022,0,0.000000,0.000000,0.000000,-0.321198,0.587128,0.000000,0.000000,0.000000,0.002000,FlatInitial
12:03:08.978 PM 02/13/2016,Teleop Enabled,0,FALSE,0,NO ERROR,0.000000,0.000000,4000.000000,4000.000000,Speed,Speed,-0.080000,1.130000,2.890000,3.000000,102.000000,1,0,-0.005022,-0.005022,0,0.000000,0.000000,0.000000,-0.321198,0.587128,0.000000,0.002000,0.002000,0.002000,FlatInitial
12:03:09.077 PM 02/13/2016,Teleop Enabled,0,FALSE,0,NO ERROR,0.000000,0.000000,4000.000000,4000.000000,Speed,Speed,-0.080000,1.130000,2.890000,3.000000,103.000000,1,0,-0.005022,-0.005022,0,0.000000,0.000000,0.000000,-0.321198,0.587128,0.000000,0.002000,0.000000,-0.002000,FlatInitial
