Time,RobotMode,AutoToRun,ErrorStatus, ErrorCode,ErrorSource,ActualRPM1,ActualRPM2,DesiredRPM1,DesiredRPM2,ControlMode1,ControlMode2,NavXYaw,NavXRoll,NavXPitch,ShooterState,LoopTime,IsLevel,IsAutoTargeting,LeftMotorOutput,RightMotorOutput,IsHaloDrive,NavXVelocityX,NavXVelocityY,NavXVelocityZ,NavXDisplacementX,NavXDisplacementY,NavXDisplacementZ,NavXAccelerationX,NavXAccelerationY,NavXAccelerationZ,AutoDefendState
04:09:42.757 PM 02/13/2016,Autonomous Disabled,0,TRUE,-44087,NetComm_CAN_Receive.vi:5470006<APPEND>  <b>Complete call chain:</b>      NetComm_CAN_Receive.vi:5470006      WPI_CANTalonSRX_Receive.vi      WPI_MotorControlOpenCANTalonSRX.vi      Begin.vi      Robot Main.vi,0.000000,0.000000,4000.000000,4000.000000,Speed,Speed,-2.050000,0.730000,2.400000,3.000000,101.000000,1,0,-0.000000,0.000000,1,0.000000,0.000000,0.000000,1.006256,4.215500,0.000000,0.000000,0.000000,0.008000,FlatFinal
04:09:42.859 PM 02/13/2016,Teleop Disabled,0,TRUE,-44087,NetComm_CAN_Receive.vi:5470006<APPEND>  <b>Complete call chain:</b>      NetComm_CAN_Receive.vi:5470006      WPI_CANTalonSRX_Receive.vi      WPI_MotorControlOpenCANTalonSRX.vi      Begin.vi      Robot Main.vi,0.000000,0.000000,0.000000,0.000000,Speed,Speed,-2.050000,0.730000,2.400000,0.000000,18588.000000,1,0,-0.000000,0.000000,1,0.000000,0.000000,0.000000,1.006256,4.215500,0.000000,0.000000,0.000000,0.008000,FlatFinal
04:09:42.960 PM 02/13/2016,Teleop Disabled,0,TRUE,-44087,NetComm_CAN_Receive.vi:5470006<APPEND>  <b>Complete call chain:</b>      NetComm_CAN_Receive.vi:5470006      WPI_CANTalonSRX_Receive.vi      WPI_MotorControlOpenCANTalonSRX.vi      Begin.vi      Robot Main.vi,0.000000,0.000000,0.000000,0.000000,Speed,Speed,-2.050000,0.730000,2.400000,0.000000,101.000000,1,0,-0.000000,0.000000,1,0.000000,0.000000,0.000000,1.006256,4.215500,0.000000,0.000000,0.000000,0.008000,FlatFinal
04:09:43.060 PM 02/13/2016,Teleop Disabled,0,TRUE,-44087,NetComm_CAN_Receive.vi:5470006<APPEND>  <b>Complete call chain:</b>      NetComm_CAN_Receive.vi:5470006      WPI_CANTalonSRX_Receive.vi      WPI_MotorControlOpenCANTalonSRX.vi      Begin.vi      Robot Main.vi,0.000000,0.000000,0.000000,0.000000,Speed,Speed,-2.050000,0.730000,2.400000,0.000000,101.000000,1,0,-0.000000,0.000000,1,0.000000,0.000000,0.000000,1.006256,4.215500,0.000000,0.000000,0.000000,0.008000,FlatFinal
04:09:43.160 PM 02/13/2016,Teleop Disabled,0,TRUE,-44087,NetComm_CAN_Receive.vi:5470006<APPEND>  <b>Complete call chain:</b>      NetComm_CAN_Receive.vi:5470006      WPI_CANTalonSRX_Receive.vi      WPI_MotorControlOpenCANTalonSRX.vi      Begin.vi      Robot Main.vi,0.000000,0.000000,0.000000,0.000000,Speed,Speed,-2.050000,0.730000,2.400000,0.000000,101.000000,1,0,-0.000000,0.000000,1,0.000000,0.000000,0.000000,1.006256,4.215500,0.000000,0.000000,0.000000,0.008000,FlatFinal
04:09:43.260 PM 02/13/2016,Teleop Disabled,0,TRUE,-44087,NetComm_CAN_Receive.vi:5470006<APPEND>  <b>Complete call chain:</b>      NetComm_CAN_Receive.vi:5470006      WPI_CANTalonSRX_Receive.vi      WPI_MotorControlOpenCANTalonSRX.vi      Begin.vi      Robot Main.vi,0.000000,0.000000,0.000000,0.000000,Speed,Speed,-2.050000,0.730000,2.400000,0.000000,101.000000,1,0,-0.000000,0.000000,1,0.000000,0.000000,0.000000,1.006256,4.215500,0.000000,0.000000,0.000000,0.008000,FlatFinal
04:09:43.361 PM 02/13/2016,Teleop Disabled,0,TRUE,-44087,NetComm_CAN_Receive.vi:5470006<APPEND>  <b>Complete call chain:</b>      NetComm_CAN_Receive.vi:5470006      WPI_CANTalonSRX_Receive.vi      WPI_MotorControlOpenCANTalonSRX.vi      Begin.vi      Robot Main.vi,0.000000,0.000000,0.000000,0.000000,Speed,Speed,-2.050000,0.730000,2.400000,0.000000,102.000000,1,0,-0.000000,0.000000,1,0.000000,0.000000,0.000000,1.006256,4.215500,0.000000,0.000000,0.000000,0.008000,FlatFinal
04:09:43.461 PM 02/13/2016,Teleop Disabled,0,TRUE,-44087,NetComm_CAN_Receive.vi:5470006<APPEND>  <b>Complete call chain:</b>      NetComm_CAN_Receive.vi:5470006      WPI_CANTalonSRX_Receive.vi      WPI_MotorControlOpenCANTalonSRX.vi      Begin.vi      Robot Main.vi,0.000000,0.000000,0.000000,0.000000,Speed,Speed,-2.050000,0.730000,2.400000,0.000000,101.000000,1,0,-0.000000,0.000000,1,0.000000,0.000000,0.000000,1.006256,4.215500,0.000000,0.000000,0.000000,0.008000,FlatFinal
04:09:43.561 PM 02/13/2016,Teleop Disabled,0,TRUE,-44087,NetComm_CAN_Receive.vi:5470006<APPEND>  <b>Complete call chain:</b>      NetComm_CAN_Receive.vi:5470006      WPI_CANTalonSRX_Receive.vi      WPI_MotorControlOpenCANTalonSRX.vi      Begin.vi      Robot Main.vi,0.000000,0.000000,0.000000,0.000000,Speed,Speed,-2.050000,0.730000,2.400000,0.000000,102.000000,1,0,-0.000000,0.000000,1,0.000000,0.000000,0.000000,1.006256,4.215500,0.000000,0.000000,0.000000,0.008000,FlatFinal
04:09:43.662 PM 02/13/2016,Teleop Disabled,0,TRUE,-44087,NetComm_CAN_Receive.vi:5470006<APPEND>  <b>Complete call chain:</b>      NetComm_CAN_Receive.vi:5470006      WPI_CANTalonSRX_Receive.vi      WPI_MotorControlOpenCANTalonSRX.vi      Begin.vi      Robot Main.vi,0.000000,0.000000,0.000000,0.000000,Speed,Speed,-2.050000,0.730000,2.400000,0.000000,101.000000,1,0,-0.000000,0.000000,1,0.000000,0.000000,0.000000,1.006256,4.215500,0.000000,0.000000,0.000000,0.008000,FlatFinal
04:09:43.762 PM 02/13/2016,Teleop Disabled,0,TRUE,-44087,NetComm_CAN_Receive.vi:5470006<APPEND>  <b>Complete call chain:</b>      NetComm_CAN_Receive.vi:5470006      WPI_CANTalonSRX_Receive.vi      WPI_MotorControlOpenCANTalonSRX.vi      Begin.vi      Robot Main.vi,0.000000,0.000000,0.000000,0.000000,Speed,Speed,-2.050000,0.730000,2.400000,0.000000,101.000000,1,0,-0.000000,0.000000,1,0.000000,0.000000,0.000000,1.006256,4.215500,0.000000,0.000000,0.000000,0.008000,FlatFinal
04:09:43.862 PM 02/13/2016,Teleop Disabled,0,TRUE,-44087,NetComm_CAN_Receive.vi:5470006<APPEND>  <b>Complete call chain:</b>      NetComm_CAN_Receive.vi:5470006      WPI_CANTalonSRX_Receive.vi      WPI_MotorControlOpenCANTalonSRX.vi      Begin.vi      Robot Main.vi,0.000000,0.000000,0.000000,0.000000,Speed,Speed,-2.050000,0.730000,2.400000,0.000000,102.000000,1,0,-0.000000,0.000000,1,0.000000,0.000000,0.000000,1.006256,4.215500,0.000000,0.000000,0.000000,0.008000,FlatFinal
04:09:43.963 PM 02/13/2016,Teleop Disabled,0,TRUE,-44087,NetComm_CAN_Receive.vi:5470006<APPEND>  <b>Complete call chain:</b>      NetComm_CAN_Receive.vi:5470006      WPI_CANTalonSRX_Receive.vi      WPI_CANTalonSRX_GetStatus.vi      ShooterVI.vi      Periodic Tasks.vi      Robot Main.vi,0.000000,0.000000,0.000000,0.000000,Speed,Speed,-2.050000,0.730000,2.400000,0.000000,102.000000,1,0,-0.000000,0.000000,1,0.000000,0.000000,0.000000,1.006256,4.215500,0.000000,0.000000,0.000000,0.008000,FlatFinal
04:09:44.064 PM 02/13/2016,Teleop Disabled,0,TRUE,-44087,NetComm_CAN_Receive.vi:5470006<APPEND>  <b>Complete call chain:</b>      NetComm_CAN_Receive.vi:5470006      WPI_CANTalonSRX_Receive.vi      WPI_CANTalonSRX_GetStatus.vi      ShooterVI.vi      Periodic Tasks.vi      Robot Main.vi,0.000000,0.000000,0.000000,0.000000,Speed,Speed,-2.050000,0.730000,2.400000,0.000000,101.000000,1,0,-0.000000,0.000000,1,0.000000,0.000000,0.000000,1.006256,4.215500,0.000000,0.000000,0.000000,0.008000,FlatFinal
04:09:44.164 PM 02/13/2016,Teleop Disabled,0,FALSE,0,NO ERROR,0.000000,0.000000,0.000000,0.000000,Speed,Speed,-2.050000,0.730000,2.400000,0.000000,100.000000,1,0,-0.000000,0.000000,1,0.000000,0.000000,0.000000,1.006256,4.215500,0.000000,0.000000,0.000000,0.008000,FlatFinal
04:09:44.264 PM 02/13/2016,Teleop Disabled,0,FALSE,0,NO ERROR,0.000000,0.000000,0.000000,0.000000,Speed,Speed,-2.050000,0.730000,2.400000,0.000000,100.000000,1,0,-0.000000,0.000000,1,0.000000,0.000000,0.000000,1.006256,4.215500,0.000000,0.000000,0.000000,0.008000,FlatFinal
04:09:44.365 PM 02/13/2016,Teleop Disabled,0,FALSE,0,NO ERROR,0.000000,0.000000,0.000000,0.000000,Speed,Speed,-2.050000,0.730000,2.400000,0.000000,102.000000,1,0,-0.000000,0.000000,1,0.000000,0.000000,0.000000,1.006256,4.215500,0.000000,0.000000,0.000000,0.008000,FlatFinal
04:09:44.466 PM 02/13/2016,Teleop Disabled,0,FALSE,0,NO ERROR,0.000000,0.000000,0.000000,0.000000,Speed,Speed,-2.050000,0.730000,2.400000,0.000000,102.000000,1,0,-0.000000,0.000000,1,0.000000,0.000000,0.000000,1.006256,4.215500,0.000000,0.000000,0.000000,0.008000,FlatFinal
04:09:44.566 PM 02/13/2016,Teleop Disabled,0,FALSE,0,NO ERROR,0.000000,0.000000,0.000000,0.000000,Speed,Speed,-2.050000,0.730000,2.400000,0.000000,101.000000,1,0,-0.000000,0.000000,1,0.000000,0.000000,0.000000,1.006256,4.215500,0.000000,0.000000,0.000000,0.008000,FlatFinal
04:09:44.666 PM 02/13/2016,Teleop Disabled,0,FALSE,0,NO ERROR,0.000000,0.000000,0.000000,0.000000,Speed,Speed,-2.050000,0.730000,2.400000,0.000000,101.000000,1,0,-0.000000,0.000000,1,0.000000,0.000000,0.000000,1.006256,4.215500,0.000000,0.000000,0.000000,0.008000,FlatFinal
04:09:44.767 PM 02/13/2016,Teleop Disabled,0,FALSE,0,NO ERROR,0.000000,0.000000,0.000000,0.000000,Speed,Speed,-2.050000,0.730000,2.400000,0.000000,101.000000,1,0,-0.000000,0.000000,1,0.000000,0.000000,0.000000,1.006256,4.215500,0.000000,0.000000,0.000000,0.008000,FlatFinal
04:09:44.867 PM 02/13/2016,Teleop Disabled,0,FALSE,0,NO ERROR,0.000000,0.000000,0.000000,0.000000,Speed,Speed,-2.050000,0.730000,2.400000,0.000000,103.000000,1,0,-0.000000,0.000000,1,0.000000,0.000000,0.000000,1.006256,4.215500,0.000000,0.000000,0.000000,0.008000,FlatFinal
04:09:44.967 PM 02/13/2016,Teleop Disabled,0,FALSE,0,NO ERROR,0.000000,0.000000,0.000000,0.000000,Speed,Speed,-2.050000,0.730000,2.400000,0.000000,100.000000,1,0,-0.000000,0.000000,1,0.000000,0.000000,0.000000,1.006256,4.215500,0.000000,0.000000,0.000000,0.008000,FlatFinal
04:09:45.067 PM 02/13/2016,Teleop Disabled,0,FALSE,0,NO ERROR,0.000000,0.000000,0.000000,0.000000,Speed,Speed,-2.050000,0.730000,2.400000,0.000000,101.000000,1,0,-0.000000,0.000000,1,0.000000,0.000000,0.000000,1.006256,4.215500,0.000000,0.000000,0.000000,0.008000,FlatFinal
04:09:45.168 PM 02/13/2016,Teleop Disabled,0,FALSE,0,NO ERROR,0.000000,0.000000,0.000000,0.000000,Speed,Speed,-2.050000,0.730000,2.400000,0.000000,102.000000,1,0,-0.000000,0.000000,1,0.000000,0.000000,0.000000,1.006256,4.215500,0.000000,0.000000,0.000000,0.008000,FlatFinal
04:09:45.268 PM 02/13/2016,Teleop Disabled,0,FALSE,0,NO ERROR,0.000000,0.000000,0.000000,0.000000,Speed,Speed,-2.050000,0.730000,2.400000,0.000000,101.000000,1,0,-0.000000,0.000000,1,0.000000,0.000000,0.000000,1.006256,4.215500,0.000000,0.000000,0.000000,0.008000,FlatFinal
04:09:45.368 PM 02/13/2016,Teleop Disabled,0,FALSE,0,NO ERROR,0.000000,0.000000,0.000000,0.000000,Speed,Speed,-2.050000,0.730000,2.400000,0.000000,101.000000,1,0,-0.000000,0.000000,1,0.000000,0.000000,0.000000,1.006256,4.215500,0.000000,0.000000,0.000000,0.008000,FlatFinal
04:09:45.468 PM 02/13/2016,Teleop Disabled,0,FALSE,0,NO ERROR,0.000000,0.000000,0.000000,0.000000,Speed,Speed,-2.050000,0.730000,2.400000,0.000000,101.000000,1,0,-0.000000,0.000000,1,0.000000,0.000000,0.000000,1.006256,4.215500,0.000000,0.000000,0.000000,0.008000,FlatFinal
04:09:45.569 PM 02/13/2016,Teleop Disabled,0,FALSE,0,NO ERROR,0.000000,0.000000,0.000000,0.000000,Speed,Speed,-2.050000,0.730000,2.400000,0.000000,103.000000,1,0,-0.000000,0.000000,1,0.000000,0.000000,0.000000,1.006256,4.215500,0.000000,0.000000,0.000000,0.008000,FlatFinal
04:09:45.669 PM 02/13/2016,Teleop Disabled,0,FALSE,0,NO ERROR,0.000000,0.000000,0.000000,0.000000,Speed,Speed,-2.050000,0.730000,2.400000,0.000000,101.000000,1,0,-0.000000,0.000000,1,0.000000,0.000000,0.000000,1.006256,4.215500,0.000000,0.000000,0.000000,0.008000,FlatFinal
04:09:45.771 PM 02/13/2016,Teleop Disabled,0,FALSE,0,NO ERROR,0.000000,0.000000,0.000000,0.000000,Speed,Speed,-2.050000,0.730000,2.400000,0.000000,101.000000,1,0,-0.000000,0.000000,1,0.000000,0.000000,0.000000,1.006256,4.215500,0.000000,0.000000,0.000000,0.008000,FlatFinal
04:09:45.871 PM 02/13/2016,Teleop Disabled,0,FALSE,0,NO ERROR,0.000000,0.000000,0.000000,0.000000,Speed,Speed,-2.050000,0.730000,2.400000,0.000000,101.000000,1,0,-0.000000,0.000000,1,0.000000,0.000000,0.000000,1.006256,4.215500,0.000000,0.000000,0.000000,0.008000,FlatFinal
04:09:45.971 PM 02/13/2016,Teleop Disabled,0,FALSE,0,NO ERROR,0.000000,0.000000,0.000000,0.000000,Speed,Speed,-2.050000,0.730000,2.400000,0.000000,101.000000,1,0,-0.000000,0.000000,1,0.000000,0.000000,0.000000,1.006256,4.215500,0.000000,0.000000,0.000000,0.008000,FlatFinal
04:09:46.071 PM 02/13/2016,Teleop Disabled,0,FALSE,0,NO ERROR,0.000000,0.000000,-6000.000000,-6000.000000,Speed,Speed,-2.050000,0.730000,2.400000,1.000000,101.000000,1,0,-0.000000,0.000000,1,0.000000,0.000000,0.000000,1.006256,4.215500,0.000000,0.000000,0.000000,0.008000,FlatFinal
04:09:46.171 PM 02/13/2016,Teleop Disabled,0,FALSE,0,NO ERROR,0.000000,0.000000,0.000000,0.000000,Speed,Speed,-2.050000,0.730000,2.400000,2.000000,101.000000,1,0,-0.000000,0.000000,1,0.000000,0.000000,0.000000,1.006256,4.215500,0.000000,0.000000,0.000000,0.008000,FlatFinal
04:09:46.271 PM 02/13/2016,Teleop Disabled,0,FALSE,0,NO ERROR,0.000000,0.000000,0.000000,0.000000,Speed,Speed,-2.050000,0.730000,2.400000,2.000000,102.000000,1,0,-0.000000,0.000000,1,0.000000,0.000000,0.000000,1.006256,4.215500,0.000000,0.000000,0.000000,0.008000,FlatFinal
04:09:46.372 PM 02/13/2016,Teleop Disabled,0,FALSE,0,NO ERROR,0.000000,0.000000,0.000000,0.000000,Speed,Speed,-2.050000,0.730000,2.400000,2.000000,103.000000,1,0,-0.000000,0.000000,1,0.000000,0.000000,0.000000,1.006256,4.215500,0.000000,0.000000,0.000000,0.008000,FlatFinal
04:09:46.471 PM 02/13/2016,Teleop Disabled,0,FALSE,0,NO ERROR,0.000000,0.000000,0.000000,0.000000,Speed,Speed,-2.050000,0.730000,2.400000,2.000000,103.000000,1,0,-0.000000,0.000000,1,0.000000,0.000000,0.000000,1.006256,4.215500,0.000000,0.000000,0.000000,0.008000,FlatFinal
04:09:46.572 PM 02/13/2016,Teleop Disabled,0,FALSE,0,NO ERROR,0.000000,0.000000,0.000000,0.000000,Speed,Speed,-2.050000,0.730000,2.400000,2.000000,101.000000,1,0,-0.000000,0.000000,1,0.000000,0.000000,0.000000,1.006256,4.215500,0.000000,0.000000,0.000000,0.008000,FlatFinal
04:09:46.673 PM 02/13/2016,Teleop Disabled,0,FALSE,0,NO ERROR,0.000000,0.000000,0.000000,0.000000,Speed,Speed,-2.050000,0.730000,2.400000,2.000000,101.000000,1,0,-0.000000,0.000000,1,0.000000,0.000000,0.000000,1.006256,4.215500,0.000000,0.000000,0.000000,0.008000,FlatFinal
04:09:46.773 PM 02/13/2016,Teleop Disabled,0,FALSE,0,NO ERROR,0.000000,0.000000,0.000000,0.000000,Speed,Speed,-2.050000,0.730000,2.400000,2.000000,101.000000,1,0,-0.000000,0.000000,1,0.000000,0.000000,0.000000,1.006256,4.215500,0.000000,0.000000,0.000000,0.008000,FlatFinal
04:09:46.873 PM 02/13/2016,Teleop Disabled,0,FALSE,0,NO ERROR,0.000000,0.000000,0.000000,0.000000,Speed,Speed,-2.050000,0.730000,2.400000,2.000000,102.000000,1,0,-0.000000,0.000000,1,0.000000,0.000000,0.000000,1.006256,4.215500,0.000000,0.000000,0.000000,0.008000,FlatFinal
04:09:46.974 PM 02/13/2016,Teleop Disabled,0,FALSE,0,NO ERROR,0.000000,0.000000,0.000000,0.000000,Speed,Speed,-2.050000,0.730000,2.400000,2.000000,101.000000,1,0,-0.000000,0.000000,1,0.000000,0.000000,0.000000,1.006256,4.215500,0.000000,0.000000,0.000000,0.008000,FlatFinal
04:09:47.074 PM 02/13/2016,Teleop Disabled,0,FALSE,0,NO ERROR,0.000000,0.000000,0.000000,0.000000,Speed,Speed,-2.050000,0.730000,2.400000,2.000000,105.000000,1,0,-0.000000,0.000000,1,0.000000,0.000000,0.000000,1.006256,4.215500,0.000000,0.000000,0.000000,0.008000,FlatFinal
04:09:47.173 PM 02/13/2016,Teleop Disabled,0,FALSE,0,NO ERROR,0.000000,0.000000,0.000000,0.000000,Speed,Speed,-2.050000,0.730000,2.400000,2.000000,101.000000,1,0,-0.000000,0.000000,1,0.000000,0.000000,0.000000,1.006256,4.215500,0.000000,0.000000,0.000000,0.008000,FlatFinal
04:09:47.273 PM 02/13/2016,Teleop Disabled,0,FALSE,0,NO ERROR,0.000000,0.000000,0.000000,0.000000,Speed,Speed,-2.050000,0.730000,2.400000,2.000000,101.000000,1,0,-0.000000,0.000000,1,0.000000,0.000000,0.000000,1.006256,4.215500,0.000000,0.000000,0.000000,0.008000,FlatFinal
04:09:47.374 PM 02/13/2016,Teleop Disabled,0,FALSE,0,NO ERROR,0.000000,0.000000,4000.000000,4000.000000,Speed,Speed,-2.050000,0.730000,2.400000,3.000000,101.000000,1,0,-0.000000,0.000000,1,0.000000,0.000000,0.000000,1.006256,4.215500,0.000000,0.000000,0.000000,0.008000,FlatFinal
04:09:47.474 PM 02/13/2016,Teleop Disabled,0,FALSE,0,NO ERROR,0.000000,0.000000,4000.000000,4000.000000,Speed,Speed,-2.050000,0.730000,2.400000,3.000000,102.000000,1,0,-0.000000,0.000000,1,0.000000,0.000000,0.000000,1.006256,4.215500,0.000000,0.000000,0.000000,0.008000,FlatFinal
04:09:47.573 PM 02/13/2016,Teleop Disabled,0,FALSE,0,NO ERROR,0.000000,0.000000,4000.000000,4000.000000,Speed,Speed,-2.050000,0.730000,2.400000,3.000000,102.000000,1,0,-0.000000,0.000000,1,0.000000,0.000000,0.000000,1.006256,4.215500,0.000000,0.000000,0.000000,0.008000,FlatFinal
04:09:47.674 PM 02/13/2016,Teleop Disabled,0,FALSE,0,NO ERROR,0.000000,0.000000,4000.000000,4000.000000,Speed,Speed,-2.050000,0.730000,2.400000,3.000000,102.000000,1,0,-0.000000,0.000000,1,0.000000,0.000000,0.000000,1.006256,4.215500,0.000000,0.000000,0.000000,0.008000,FlatFinal
04:09:47.774 PM 02/13/2016,Teleop Disabled,0,TRUE,-44003,<LOCATION>WPI_CameraIssue HTTP Request with Authentication.vi<CALLSTACK>WPI_CameraIssue HTTP Request with Authentication.vi< <WPI_CameraIssue Get.vi< <WPI_CameraSet Image Appearance Property.vi< <WPI_CameraSet Image Size.vi< <Vision Processing.vi< <Robot Main.vi,0.000000,0.000000,4000.000000,4000.000000,Speed,Speed,-2.050000,0.730000,2.400000,3.000000,101.000000,1,0,-0.000000,0.000000,1,0.000000,0.000000,0.000000,1.006256,4.215500,0.000000,0.000000,0.000000,0.008000,FlatFinal
04:09:47.876 PM 02/13/2016,Teleop Disabled,0,FALSE,0,NO ERROR,0.000000,0.000000,4000.000000,4000.000000,Speed,Speed,0.000000,0.700000,2.380000,3.000000,102.000000,1,0,-0.000000,0.000000,1,0.000000,0.000000,0.000000,1.006454,4.215836,0.000000,-0.001000,0.000000,0.003000,FlatFinal
04:09:47.976 PM 02/13/2016,Teleop Disabled,0,FALSE,0,NO ERROR,0.000000,0.000000,4000.000000,4000.000000,Speed,Speed,0.000000,0.710000,2.380000,3.000000,102.000000,1,0,-0.000000,0.000000,1,0.000000,0.000000,0.000000,1.006454,4.215836,0.000000,0.000000,0.000000,0.004000,FlatFinal
04:09:48.076 PM 02/13/2016,Teleop Disabled,0,FALSE,0,NO ERROR,0.000000,0.000000,4000.000000,4000.000000,Speed,Speed,0.000000,0.700000,2.380000,3.000000,102.000000,1,0,-0.000000,0.000000,1,0.000000,0.000000,0.000000,1.006454,4.215836,0.000000,0.000000,-0.001000,0.004000,FlatFinal
04:09:48.176 PM 02/13/2016,Teleop Disabled,0,FALSE,0,NO ERROR,0.000000,0.000000,4000.000000,4000.000000,Speed,Speed,0.000000,0.700000,2.380000,3.000000,102.000000,1,0,-0.000000,0.000000,1,0.000000,0.000000,0.000000,1.006454,4.215836,0.000000,-0.001000,-0.003000,0.007000,FlatFinal
04:09:48.277 PM 02/13/2016,Teleop Disabled,0,FALSE,0,NO ERROR,0.000000,0.000000,4000.000000,4000.000000,Speed,Speed,0.000000,0.700000,2.380000,3.000000,102.000000,1,0,-0.000000,0.000000,1,0.000000,0.000000,0.000000,1.006454,4.215836,0.000000,0.000000,0.000000,0.011000,FlatFinal
04:09:48.377 PM 02/13/2016,Teleop Disabled,0,FALSE,0,NO ERROR,0.000000,0.000000,4000.000000,4000.000000,Speed,Speed,0.000000,0.700000,2.380000,3.000000,102.000000,1,0,-0.000000,0.000000,1,0.000000,0.000000,0.000000,1.006454,4.215836,0.000000,0.000000,-0.001000,0.010000,FlatFinal
04:09:48.476 PM 02/13/2016,Teleop Disabled,0,FALSE,0,NO ERROR,0.000000,0.000000,4000.000000,4000.000000,Speed,Speed,0.000000,0.700000,2.380000,3.000000,104.000000,1,0,-0.000000,0.000000,1,0.000000,0.000000,0.000000,1.006454,4.215836,0.000000,0.000000,0.000000,0.004000,FlatFinal
04:09:48.577 PM 02/13/2016,Teleop Disabled,0,FALSE,0,NO ERROR,0.000000,0.000000,4000.000000,4000.000000,Speed,Speed,0.000000,0.700000,2.380000,3.000000,100.000000,1,0,-0.000000,0.000000,1,0.000000,0.000000,0.000000,1.006454,4.215836,0.000000,0.000000,0.001000,0.008000,FlatFinal
04:09:48.676 PM 02/13/2016,Teleop Disabled,0,FALSE,0,NO ERROR,0.000000,0.000000,4000.000000,4000.000000,Speed,Speed,0.000000,0.700000,2.380000,3.000000,103.000000,1,0,-0.000000,0.000000,1,0.000000,0.000000,0.000000,1.006454,4.215836,0.000000,0.001000,-0.001000,0.005000,FlatFinal
04:09:48.777 PM 02/13/2016,Teleop Disabled,0,FALSE,0,NO ERROR,0.000000,0.000000,4000.000000,4000.000000,Speed,Speed,0.000000,0.700000,2.380000,3.000000,102.000000,1,0,-0.000000,0.000000,1,0.000000,0.000000,0.000000,1.006454,4.215836,0.000000,0.002000,0.002000,0.006000,FlatFinal
04:09:48.878 PM 02/13/2016,Teleop Disabled,0,FALSE,0,NO ERROR,0.000000,0.000000,4000.000000,4000.000000,Speed,Speed,0.000000,0.700000,2.370000,3.000000,101.000000,1,0,-0.000000,0.000000,1,0.000000,0.000000,0.000000,1.006454,4.215836,0.000000,0.000000,0.002000,0.007000,FlatFinal
04:09:48.979 PM 02/13/2016,Teleop Disabled,0,FALSE,0,NO ERROR,0.000000,0.000000,4000.000000,4000.000000,Speed,Speed,0.000000,0.700000,2.380000,3.000000,102.000000,1,0,-0.000000,0.000000,1,0.000000,0.000000,0.000000,1.006454,4.215836,0.000000,0.000000,0.000000,0.006000,FlatFinal
04:09:49.080 PM 02/13/2016,Teleop Disabled,0,FALSE,0,NO ERROR,0.000000,0.000000,4000.000000,4000.000000,Speed,Speed,0.000000,0.710000,2.370000,3.000000,102.000000,1,0,-0.000000,0.000000,1,0.000000,0.000000,0.000000,1.006454,4.215836,0.000000,0.000000,-0.001000,0.006000,FlatFinal
04:09:49.181 PM 02/13/2016,Teleop Disabled,0,FALSE,0,NO ERROR,0.000000,0.000000,4000.000000,4000.000000,Speed,Speed,0.000000,0.700000,2.370000,3.000000,104.000000,1,0,-0.000000,0.000000,1,0.000000,0.000000,0.000000,1.006454,4.215836,0.000000,0.000000,0.004000,0.011000,FlatFinal
04:09:49.281 PM 02/13/2016,Teleop Disabled,0,FALSE,0,NO ERROR,0.000000,0.000000,4000.000000,4000.000000,Speed,Speed,0.000000,0.700000,2.370000,3.000000,102.000000,1,0,-0.000000,0.000000,1,0.000000,0.000000,0.000000,1.006454,4.215836,0.000000,0.000000,0.000000,0.007000,FlatFinal
04:09:53.700 PM 02/13/2016,Teleop Enabled,0,FALSE,0,NO ERROR,0.000000,0.000000,4000.000000,4000.000000,Speed,Speed,0.000000,0.700000,2.380000,3.000000,101.000000,1,0,-0.000000,0.000000,1,0.000000,0.000000,0.000000,1.006454,4.215836,0.000000,0.000000,-0.001000,0.007000,FlatFinal
04:09:53.800 PM 02/13/2016,Teleop Enabled,0,FALSE,0,NO ERROR,0.000000,0.000000,4000.000000,4000.000000,Speed,Speed,0.000000,0.700000,2.380000,3.000000,103.000000,1,0,-0.000000,0.000000,1,0.000000,0.000000,0.000000,1.006454,4.215836,0.000000,0.005000,-0.005000,0.072000,FlatFinal
04:09:53.901 PM 02/13/2016,Teleop Enabled,0,FALSE,0,NO ERROR,0.000000,0.000000,4000.000000,4000.000000,Speed,Speed,0.000000,0.700000,2.380000,3.000000,101.000000,1,0,-0.000000,0.000000,1,0.000000,0.000000,0.000000,1.006454,4.216003,0.000000,0.005000,-0.005000,0.072000,FlatFinal
04:09:54.000 PM 02/13/2016,Teleop Enabled,0,FALSE,0,NO ERROR,0.000000,0.000000,4000.000000,4000.000000,Speed,Speed,-0.010000,0.690000,2.370000,3.000000,104.000000,1,0,-0.000000,0.000000,1,0.000000,0.000000,0.000000,1.006454,4.216003,0.000000,0.002000,-0.003000,0.008000,FlatFinal
04:09:54.101 PM 02/13/2016,Teleop Enabled,0,FALSE,0,NO ERROR,0.000000,0.000000,4000.000000,4000.000000,Speed,Speed,0.000000,0.700000,2.380000,3.000000,102.000000,1,0,-0.000000,0.000000,1,0.000000,0.000000,0.000000,1.006454,4.216003,0.000000,-0.002000,0.000000,0.014000,FlatFinal
04:09:54.202 PM 02/13/2016,Teleop Enabled,0,FALSE,0,NO ERROR,0.000000,0.000000,4000.000000,4000.000000,Speed,Speed,-0.010000,0.710000,2.370000,3.000000,103.000000,1,0,-0.000000,0.000000,1,0.000000,0.000000,0.000000,1.006454,4.216003,0.000000,-0.002000,-0.006000,0.009000,FlatFinal
04:09:54.302 PM 02/13/2016,Teleop Enabled,0,FALSE,0,NO ERROR,0.000000,0.000000,4000.000000,4000.000000,Speed,Speed,0.000000,0.700000,2.370000,3.000000,101.000000,1,0,-0.000000,0.000000,1,0.000000,0.000000,0.000000,1.006454,4.216003,0.000000,-0.008000,-0.002000,0.020000,FlatFinal
04:09:54.402 PM 02/13/2016,Teleop Enabled,0,FALSE,0,NO ERROR,0.000000,0.000000,4000.000000,4000.000000,Speed,Speed,-0.020000,0.710000,2.370000,3.000000,101.000000,1,0,-0.000000,0.000000,1,0.000000,0.000000,0.000000,1.006454,4.216003,0.000000,-0.005000,0.000000,0.000000,FlatFinal
04:09:54.503 PM 02/13/2016,Teleop Enabled,0,FALSE,0,NO ERROR,0.000000,0.000000,4000.000000,4000.000000,Speed,Speed,-0.010000,0.710000,2.370000,3.000000,101.000000,1,0,-0.000000,0.000000,1,0.000000,0.000000,0.000000,1.006454,4.216003,0.000000,0.000000,-0.003000,0.011000,FlatFinal
04:09:54.603 PM 02/13/2016,Teleop Enabled,0,FALSE,0,NO ERROR,0.000000,0.000000,4000.000000,4000.000000,Speed,Speed,-0.010000,0.700000,2.380000,3.000000,101.000000,1,0,-0.000000,0.000000,1,0.000000,0.000000,0.000000,1.006454,4.216003,0.000000,0.000000,-0.003000,0.011000,FlatFinal
04:09:54.704 PM 02/13/2016,Teleop Enabled,0,FALSE,0,NO ERROR,0.000000,0.000000,4000.000000,4000.000000,Speed,Speed,-0.010000,0.700000,2.380000,3.000000,101.000000,1,0,-0.000000,0.000000,1,0.000000,0.000000,0.000000,1.006454,4.216003,0.000000,0.003000,-0.001000,0.010000,FlatFinal
04:09:54.806 PM 02/13/2016,Teleop Enabled,0,FALSE,0,NO ERROR,0.000000,0.000000,4000.000000,4000.000000,Speed,Speed,-0.010000,0.700000,2.380000,3.000000,102.000000,1,0,-0.000000,0.000000,1,0.000000,0.000000,0.000000,1.006454,4.216003,0.000000,0.003000,-0.001000,0.010000,FlatFinal
04:09:54.907 PM 02/13/2016,Teleop Enabled,0,FALSE,0,NO ERROR,0.000000,0.000000,4000.000000,4000.000000,Speed,Speed,-0.010000,0.710000,2.380000,3.000000,101.000000,1,0,-0.000000,0.000000,1,0.000000,0.000000,0.000000,1.006454,4.216003,0.000000,0.001000,-0.002000,0.004000,FlatFinal
04:09:55.008 PM 02/13/2016,Teleop Enabled,0,FALSE,0,NO ERROR,0.000000,0.000000,4000.000000,4000.000000,Speed,Speed,-0.020000,0.700000,2.380000,3.000000,101.000000,1,0,-0.000000,0.000000,1,0.000000,0.000000,0.000000,1.006454,4.216003,0.000000,0.001000,-0.002000,0.004000,FlatFinal
04:09:55.108 PM 02/13/2016,Teleop Enabled,0,FALSE,0,NO ERROR,0.000000,0.000000,4000.000000,4000.000000,Speed,Speed,-0.020000,0.700000,2.380000,3.000000,102.000000,1,0,-0.000000,0.000000,1,0.000000,0.000000,0.000000,1.006454,4.216003,0.000000,0.002000,0.000000,0.011000,FlatFinal
04:09:55.208 PM 02/13/2016,Teleop Enabled,0,FALSE,0,NO ERROR,0.000000,0.000000,4000.000000,4000.000000,Speed,Speed,-0.010000,0.700000,2.380000,3.000000,102.000000,1,0,-0.000000,0.000000,1,0.000000,0.000000,0.000000,1.006454,4.216003,0.000000,-0.010000,0.014000,-0.029000,FlatFinal
04:09:55.309 PM 02/13/2016,Teleop Enabled,0,FALSE,0,NO ERROR,0.000000,0.000000,4000.000000,4000.000000,Speed,Speed,-0.020000,0.700000,2.380000,3.000000,102.000000,1,0,-0.000000,0.000000,1,0.000000,0.000000,0.000000,1.006454,4.216003,0.000000,-0.004000,0.003000,0.008000,FlatFinal
04:09:55.409 PM 02/13/2016,Teleop Enabled,0,FALSE,0,NO ERROR,0.000000,0.000000,4000.000000,4000.000000,Speed,Speed,-0.010000,0.700000,2.380000,3.000000,101.000000,1,0,-0.000000,0.000000,1,0.000000,0.000000,0.000000,1.006454,4.216003,0.000000,-0.015000,-0.001000,0.013000,FlatFinal
04:09:55.511 PM 02/13/2016,Teleop Enabled,0,FALSE,0,NO ERROR,0.000000,0.000000,4000.000000,4000.000000,Speed,Speed,-0.020000,0.700000,2.390000,3.000000,102.000000,1,0,-0.000000,0.000000,1,0.000000,0.000000,0.000000,1.006454,4.216003,0.000000,-0.013000,-0.004000,0.015000,FlatFinal
04:09:55.613 PM 02/13/2016,Teleop Enabled,0,FALSE,0,NO ERROR,0.000000,0.000000,4000.000000,4000.000000,Speed,Speed,-0.020000,0.700000,2.380000,3.000000,106.000000,1,0,-0.000000,0.000000,1,0.000000,0.000000,0.000000,1.006454,4.216003,0.000000,-0.005000,-0.001000,0.013000,FlatFinal
04:09:55.714 PM 02/13/2016,Teleop Enabled,0,FALSE,0,NO ERROR,0.000000,0.000000,4000.000000,4000.000000,Speed,Speed,-0.020000,0.700000,2.380000,3.000000,104.000000,1,0,-0.000000,0.000000,1,0.000000,0.000000,0.000000,1.006454,4.216003,0.000000,0.000000,0.000000,0.016000,FlatFinal
04:09:55.815 PM 02/13/2016,Teleop Enabled,0,FALSE,0,NO ERROR,0.000000,0.000000,4000.000000,4000.000000,Speed,Speed,-0.020000,0.700000,2.380000,3.000000,103.000000,1,0,-0.000000,0.000000,1,0.000000,0.000000,0.000000,1.006454,4.216003,0.000000,0.001000,0.000000,0.008000,FlatFinal
04:09:55.915 PM 02/13/2016,Teleop Enabled,0,FALSE,0,NO ERROR,0.000000,0.000000,4000.000000,4000.000000,Speed,Speed,-0.020000,0.700000,2.380000,3.000000,102.000000,1,0,-0.000000,0.000000,1,0.000000,0.000000,0.000000,1.006454,4.216003,0.000000,0.006000,0.000000,0.012000,FlatFinal
04:09:56.017 PM 02/13/2016,Teleop Enabled,0,FALSE,0,NO ERROR,0.000000,0.000000,4000.000000,4000.000000,Speed,Speed,-0.020000,0.710000,2.380000,3.000000,102.000000,1,0,-0.000000,0.000000,1,0.000000,0.000000,0.000000,1.006454,4.216003,0.000000,0.000000,-0.003000,0.007000,FlatFinal
04:09:56.117 PM 02/13/2016,Teleop Enabled,0,FALSE,0,NO ERROR,0.000000,0.000000,4000.000000,4000.000000,Speed,Speed,-0.020000,0.710000,2.380000,3.000000,102.000000,1,0,-0.000000,0.000000,1,0.000000,0.000000,0.000000,1.006454,4.216003,0.000000,0.001000,0.000000,0.003000,FlatFinal
04:09:56.218 PM 02/13/2016,Teleop Enabled,0,FALSE,0,NO ERROR,0.000000,0.000000,4000.000000,4000.000000,Speed,Speed,-0.020000,0.710000,2.370000,3.000000,104.000000,1,0,-0.000000,0.000000,1,0.000000,0.000000,0.000000,1.006454,4.216003,0.000000,-0.001000,0.000000,0.006000,FlatFinal
04:09:56.318 PM 02/13/2016,Teleop Enabled,0,FALSE,0,NO ERROR,0.000000,0.000000,4000.000000,4000.000000,Speed,Speed,-0.020000,0.710000,2.380000,3.000000,103.000000,1,0,-0.000000,0.000000,1,0.000000,0.000000,0.000000,1.006454,4.216003,0.000000,0.000000,0.002000,0.007000,FlatFinal
04:09:56.419 PM 02/13/2016,Teleop Enabled,0,FALSE,0,NO ERROR,0.000000,0.000000,4000.000000,4000.000000,Speed,Speed,-0.020000,0.720000,2.370000,3.000000,104.000000,1,0,-0.000000,0.000000,1,0.000000,0.000000,0.000000,1.006454,4.216003,0.000000,0.001000,0.000000,0.006000,FlatFinal
04:09:56.519 PM 02/13/2016,Teleop Enabled,0,FALSE,0,NO ERROR,0.000000,0.000000,4000.000000,4000.000000,Speed,Speed,-0.020000,0.720000,2.370000,3.000000,108.000000,1,0,-0.000000,0.000000,1,0.000000,0.000000,0.000000,1.006454,4.216003,0.000000,0.000000,0.001000,0.005000,FlatFinal
04:09:56.620 PM 02/13/2016,Teleop Enabled,0,FALSE,0,NO ERROR,0.000000,0.000000,4000.000000,4000.000000,Speed,Speed,-0.020000,0.720000,2.370000,3.000000,100.000000,1,0,-0.000000,0.000000,1,0.000000,0.000000,0.000000,1.006454,4.216003,0.000000,0.000000,0.000000,0.008000,FlatFinal
04:09:56.721 PM 02/13/2016,Teleop Enabled,0,FALSE,0,NO ERROR,0.000000,0.000000,4000.000000,4000.000000,Speed,Speed,-0.030000,0.720000,2.370000,3.000000,104.000000,1,0,-0.000000,0.000000,1,0.000000,0.000000,0.000000,1.006454,4.216003,0.000000,-0.002000,-0.003000,0.009000,FlatFinal
04:09:56.823 PM 02/13/2016,Teleop Enabled,0,FALSE,0,NO ERROR,0.000000,0.000000,4000.000000,4000.000000,Speed,Speed,-0.030000,0.720000,2.370000,3.000000,106.000000,1,0,-0.000000,0.000000,1,0.000000,0.000000,0.000000,1.006454,4.216003,0.000000,-0.002000,0.001000,0.005000,FlatFinal
04:09:56.923 PM 02/13/2016,Teleop Enabled,0,FALSE,0,NO ERROR,0.000000,0.000000,4000.000000,4000.000000,Speed,Speed,-0.040000,0.720000,2.370000,3.000000,101.000000,1,0,-0.000000,0.000000,1,0.000000,0.000000,0.000000,1.006454,4.216003,0.000000,-0.001000,0.000000,0.005000,FlatFinal
04:09:57.024 PM 02/13/2016,Teleop Enabled,0,FALSE,0,NO ERROR,0.000000,0.000000,4000.000000,4000.000000,Speed,Speed,-0.040000,0.720000,2.370000,3.000000,104.000000,1,0,-0.000000,0.000000,1,0.000000,0.000000,0.000000,1.006454,4.216003,0.000000,-0.005000,0.000000,0.007000,FlatFinal
04:09:57.125 PM 02/13/2016,Teleop Enabled,0,FALSE,0,NO ERROR,0.000000,0.000000,4000.000000,4000.000000,Speed,Speed,-0.040000,0.710000,2.370000,3.000000,113.000000,1,0,-0.000000,0.000000,1,0.000000,0.000000,0.000000,1.006454,4.216003,0.000000,0.000000,0.000000,0.006000,FlatFinal
04:09:57.226 PM 02/13/2016,Teleop Enabled,0,FALSE,0,NO ERROR,0.000000,0.000000,4000.000000,4000.000000,Speed,Speed,-0.040000,0.710000,2.370000,3.000000,102.000000,1,0,-0.000000,0.000000,1,0.000000,0.000000,0.000000,1.006454,4.216003,0.000000,0.000000,0.001000,0.002000,FlatFinal
04:09:57.327 PM 02/13/2016,Teleop Enabled,0,FALSE,0,NO ERROR,0.000000,0.000000,4000.000000,4000.000000,Speed,Speed,-0.040000,0.710000,2.370000,3.000000,101.000000,1,0,-0.000000,0.000000,1,0.000000,0.000000,0.000000,1.006454,4.216003,0.000000,0.001000,0.001000,0.006000,FlatFinal
04:09:57.427 PM 02/13/2016,Teleop Enabled,0,FALSE,0,NO ERROR,0.000000,0.000000,4000.000000,4000.000000,Speed,Speed,-0.040000,0.710000,2.370000,3.000000,101.000000,1,0,-0.000000,0.000000,1,0.000000,0.000000,0.000000,1.006454,4.216003,0.000000,-0.001000,0.001000,0.005000,FlatFinal
04:09:57.528 PM 02/13/2016,Teleop Enabled,0,FALSE,0,NO ERROR,0.000000,0.000000,4000.000000,4000.000000,Speed,Speed,-0.040000,0.710000,2.370000,3.000000,103.000000,1,0,-0.000000,0.000000,1,0.000000,0.000000,0.000000,1.006454,4.216003,0.000000,0.001000,0.003000,0.007000,FlatFinal
04:09:57.627 PM 02/13/2016,Teleop Enabled,0,FALSE,0,NO ERROR,0.000000,0.000000,4000.000000,4000.000000,Speed,Speed,-0.040000,0.720000,2.370000,3.000000,103.000000,1,0,-0.000000,0.000000,1,0.000000,0.000000,0.000000,1.006454,4.216003,0.000000,-0.001000,0.001000,0.005000,FlatFinal
04:09:57.727 PM 02/13/2016,Teleop Enabled,0,FALSE,0,NO ERROR,0.000000,0.000000,4000.000000,4000.000000,Speed,Speed,-0.040000,0.720000,2.370000,3.000000,102.000000,1,0,-0.000000,0.000000,1,0.000000,0.000000,0.000000,1.006454,4.216003,0.000000,-0.003000,0.000000,0.005000,FlatFinal
04:09:57.827 PM 02/13/2016,Teleop Enabled,0,FALSE,0,NO ERROR,0.000000,0.000000,4000.000000,4000.000000,Speed,Speed,-0.040000,0.720000,2.370000,3.000000,101.000000,1,0,-0.000000,0.000000,1,0.000000,0.000000,0.000000,1.006454,4.216003,0.000000,0.000000,-0.001000,0.006000,FlatFinal
04:09:57.928 PM 02/13/2016,Teleop Enabled,0,FALSE,0,NO ERROR,0.000000,0.000000,4000.000000,4000.000000,Speed,Speed,-0.040000,0.720000,2.370000,3.000000,101.000000,1,0,-0.000000,0.000000,1,0.000000,0.000000,0.000000,1.006454,4.216003,0.000000,0.000000,0.000000,0.008000,FlatFinal
04:09:58.027 PM 02/13/2016,Teleop Enabled,0,FALSE,0,NO ERROR,0.000000,0.000000,4000.000000,4000.000000,Speed,Speed,-0.040000,0.710000,2.370000,3.000000,104.000000,1,0,-0.000000,0.000000,1,0.000000,0.000000,0.000000,1.006454,4.216003,0.000000,0.001000,0.000000,0.009000,FlatFinal
04:09:58.127 PM 02/13/2016,Teleop Enabled,0,FALSE,0,NO ERROR,0.000000,0.000000,4000.000000,4000.000000,Speed,Speed,-0.040000,0.720000,2.370000,3.000000,104.000000,1,0,-0.000000,0.000000,1,0.000000,0.000000,0.000000,1.006454,4.216003,0.000000,-0.001000,0.000000,0.006000,FlatFinal
04:09:58.228 PM 02/13/2016,Teleop Enabled,0,FALSE,0,NO ERROR,0.000000,0.000000,4000.000000,4000.000000,Speed,Speed,-0.040000,0.720000,2.370000,3.000000,101.000000,1,0,-0.000000,0.000000,1,0.000000,0.000000,0.000000,1.006454,4.216003,0.000000,-0.001000,0.000000,0.009000,FlatFinal
04:09:58.328 PM 02/13/2016,Teleop Enabled,0,FALSE,0,NO ERROR,0.000000,0.000000,4000.000000,4000.000000,Speed,Speed,-0.040000,0.710000,2.370000,3.000000,101.000000,1,0,-0.000000,0.000000,1,0.000000,0.000000,0.000000,1.006454,4.216003,0.000000,-0.001000,0.000000,0.008000,FlatFinal
04:09:58.428 PM 02/13/2016,Teleop Enabled,0,FALSE,0,NO ERROR,0.000000,0.000000,4000.000000,4000.000000,Speed,Speed,-0.040000,0.710000,2.370000,3.000000,101.000000,1,0,-0.000000,0.000000,1,0.000000,0.000000,0.000000,1.006454,4.216003,0.000000,-0.001000,0.000000,0.004000,FlatFinal
04:09:58.529 PM 02/13/2016,Teleop Enabled,0,FALSE,0,NO ERROR,0.000000,0.000000,4000.000000,4000.000000,Speed,Speed,-0.040000,0.710000,2.370000,3.000000,103.000000,1,0,-0.000000,0.000000,1,0.000000,0.000000,0.000000,1.006454,4.216003,0.000000,0.000000,0.000000,0.004000,FlatFinal
04:09:58.629 PM 02/13/2016,Teleop Enabled,0,FALSE,0,NO ERROR,0.000000,0.000000,4000.000000,4000.000000,Speed,Speed,-0.040000,0.710000,2.380000,3.000000,101.000000,1,0,-0.000000,0.000000,1,0.000000,0.000000,0.000000,1.006454,4.216003,0.000000,-0.004000,0.002000,0.011000,FlatFinal
04:09:58.729 PM 02/13/2016,Teleop Enabled,0,FALSE,0,NO ERROR,0.000000,0.000000,4000.000000,4000.000000,Speed,Speed,-0.040000,0.710000,2.380000,3.000000,102.000000,1,0,-0.000000,0.000000,1,0.000000,0.000000,0.000000,1.006454,4.216003,0.000000,0.001000,0.000000,0.007000,FlatFinal
04:09:58.829 PM 02/13/2016,Teleop Enabled,0,FALSE,0,NO ERROR,0.000000,0.000000,4000.000000,4000.000000,Speed,Speed,-0.040000,0.710000,2.380000,3.000000,102.000000,1,0,-0.000000,0.000000,1,0.000000,0.000000,0.000000,1.006454,4.216003,0.000000,0.000000,0.000000,0.003000,FlatFinal
04:09:58.929 PM 02/13/2016,Teleop Enabled,0,FALSE,0,NO ERROR,0.000000,0.000000,4000.000000,4000.000000,Speed,Speed,-0.040000,0.710000,2.380000,3.000000,102.000000,1,0,-0.000000,0.000000,1,0.000000,0.000000,0.000000,1.006454,4.216003,0.000000,0.000000,0.001000,0.004000,FlatFinal
04:09:59.030 PM 02/13/2016,Teleop Enabled,0,FALSE,0,NO ERROR,0.000000,0.000000,4000.000000,4000.000000,Speed,Speed,-0.040000,0.710000,2.380000,3.000000,101.000000,1,0,-0.000000,0.000000,1,0.000000,0.000000,0.000000,1.006454,4.216003,0.000000,0.003000,0.000000,0.007000,FlatFinal
04:09:59.131 PM 02/13/2016,Teleop Enabled,0,FALSE,0,NO ERROR,0.000000,0.000000,4000.000000,4000.000000,Speed,Speed,-0.040000,0.710000,2.380000,3.000000,103.000000,1,0,-0.000000,0.000000,1,0.000000,0.000000,0.000000,1.006454,4.216003,0.000000,0.000000,0.000000,0.007000,FlatFinal
04:09:59.230 PM 02/13/2016,Teleop Enabled,0,FALSE,0,NO ERROR,0.000000,0.000000,4000.000000,4000.000000,Speed,Speed,-0.040000,0.710000,2.380000,3.000000,101.000000,1,0,-0.000000,0.000000,1,0.000000,0.000000,0.000000,1.006454,4.216003,0.000000,0.001000,-0.001000,0.010000,FlatFinal
04:09:59.331 PM 02/13/2016,Teleop Enabled,0,FALSE,0,NO ERROR,0.000000,0.000000,4000.000000,4000.000000,Speed,Speed,-0.040000,0.710000,2.380000,3.000000,102.000000,1,0,-0.000000,0.000000,1,0.000000,0.000000,0.000000,1.006454,4.216003,0.000000,0.000000,0.000000,0.004000,FlatFinal
04:09:59.432 PM 02/13/2016,Teleop Enabled,0,FALSE,0,NO ERROR,0.000000,0.000000,4000.000000,4000.000000,Speed,Speed,-0.040000,0.710000,2.370000,3.000000,103.000000,1,0,-0.000000,0.000000,1,0.000000,0.000000,0.000000,1.006454,4.216003,0.000000,0.001000,0.003000,0.007000,FlatFinal
04:09:59.533 PM 02/13/2016,Teleop Enabled,0,FALSE,0,NO ERROR,0.000000,0.000000,4000.000000,4000.000000,Speed,Speed,-0.040000,0.710000,2.370000,3.000000,102.000000,1,0,-0.000000,0.000000,1,0.000000,0.000000,0.000000,1.006454,4.216003,0.000000,0.000000,0.001000,0.008000,FlatFinal
04:09:59.633 PM 02/13/2016,Teleop Enabled,0,FALSE,0,NO ERROR,0.000000,0.000000,4000.000000,4000.000000,Speed,Speed,-0.050000,0.720000,2.370000,3.000000,100.000000,1,0,-0.000000,0.000000,1,0.000000,0.000000,0.000000,1.006454,4.216003,0.000000,-0.001000,0.000000,0.009000,FlatFinal
04:09:59.734 PM 02/13/2016,Teleop Enabled,0,FALSE,0,NO ERROR,0.000000,0.000000,4000.000000,4000.000000,Speed,Speed,-0.040000,0.720000,2.370000,3.000000,102.000000,1,0,-0.000000,0.000000,1,0.000000,0.000000,0.000000,1.006454,4.216003,0.000000,0.000000,-0.001000,0.004000,FlatFinal
04:09:59.834 PM 02/13/2016,Teleop Enabled,0,FALSE,0,NO ERROR,0.000000,0.000000,4000.000000,4000.000000,Speed,Speed,-0.040000,0.710000,2.370000,3.000000,102.000000,1,0,-0.000000,0.000000,1,0.000000,0.000000,0.000000,1.006454,4.216003,0.000000,0.000000,0.000000,0.003000,FlatFinal
04:09:59.935 PM 02/13/2016,Teleop Enabled,0,FALSE,0,NO ERROR,0.000000,0.000000,4000.000000,4000.000000,Speed,Speed,-0.040000,0.710000,2.370000,3.000000,103.000000,1,0,-0.000000,0.000000,1,0.000000,0.000000,0.000000,1.006454,4.216003,0.000000,0.001000,0.001000,0.006000,FlatFinal
04:10:00.035 PM 02/13/2016,Teleop Enabled,0,FALSE,0,NO ERROR,0.000000,0.000000,4000.000000,4000.000000,Speed,Speed,-0.040000,0.720000,2.370000,3.000000,102.000000,1,0,-0.000000,0.000000,1,0.000000,0.000000,0.000000,1.006454,4.216003,0.000000,0.000000,-0.001000,0.009000,FlatFinal
04:10:00.136 PM 02/13/2016,Teleop Enabled,0,FALSE,0,NO ERROR,0.000000,0.000000,4000.000000,4000.000000,Speed,Speed,-0.040000,0.720000,2.370000,3.000000,101.000000,1,0,-0.000000,0.000000,1,0.000000,0.000000,0.000000,1.006454,4.216003,0.000000,0.000000,0.000000,0.009000,FlatFinal
04:10:00.236 PM 02/13/2016,Teleop Enabled,0,FALSE,0,NO ERROR,0.000000,0.000000,4000.000000,4000.000000,Speed,Speed,-0.040000,0.710000,2.370000,3.000000,102.000000,1,0,-0.000000,0.000000,1,0.000000,0.000000,0.000000,1.006454,4.216003,0.000000,-0.003000,-0.001000,0.006000,FlatFinal
04:10:00.336 PM 02/13/2016,Teleop Enabled,0,FALSE,0,NO ERROR,0.000000,0.000000,4000.000000,4000.000000,Speed,Speed,-0.040000,0.710000,2.370000,3.000000,101.000000,1,0,-0.000000,0.000000,1,0.000000,0.000000,0.000000,1.006454,4.216003,0.000000,-0.002000,0.001000,0.006000,FlatFinal
04:10:00.436 PM 02/13/2016,Teleop Enabled,0,FALSE,0,NO ERROR,0.000000,0.000000,4000.000000,4000.000000,Speed,Speed,-0.040000,0.710000,2.360000,3.000000,102.000000,1,0,-0.000000,0.000000,1,0.000000,0.000000,0.000000,1.006454,4.216003,0.000000,0.001000,-0.001000,0.012000,FlatFinal
04:10:00.537 PM 02/13/2016,Teleop Enabled,0,FALSE,0,NO ERROR,0.000000,0.000000,4000.000000,4000.000000,Speed,Speed,-0.040000,0.710000,2.360000,3.000000,102.000000,1,0,-0.000000,0.000000,1,0.000000,0.000000,0.000000,1.006454,4.216003,0.000000,0.000000,0.000000,0.009000,FlatFinal
04:10:00.637 PM 02/13/2016,Teleop Enabled,0,FALSE,0,NO ERROR,0.000000,0.000000,4000.000000,4000.000000,Speed,Speed,-0.040000,0.710000,2.360000,3.000000,108.000000,1,0,-0.000000,0.000000,1,0.000000,0.000000,0.000000,1.006454,4.216003,0.000000,0.000000,0.001000,0.006000,FlatFinal
04:10:00.738 PM 02/13/2016,Teleop Enabled,0,FALSE,0,NO ERROR,0.000000,0.000000,4000.000000,4000.000000,Speed,Speed,-0.040000,0.710000,2.360000,3.000000,101.000000,1,0,-0.000000,0.000000,1,0.000000,0.000000,0.000000,1.006454,4.216003,0.000000,0.001000,0.000000,0.006000,FlatFinal
04:10:00.839 PM 02/13/2016,Teleop Enabled,0,FALSE,0,NO ERROR,0.000000,0.000000,4000.000000,4000.000000,Speed,Speed,-0.040000,0.710000,2.360000,3.000000,100.000000,1,0,-0.000000,0.000000,1,0.000000,0.000000,0.000000,1.006454,4.216003,0.000000,-0.001000,0.000000,0.005000,FlatFinal
04:10:00.940 PM 02/13/2016,Teleop Enabled,0,FALSE,0,NO ERROR,0.000000,0.000000,4000.000000,4000.000000,Speed,Speed,-0.050000,0.710000,2.360000,3.000000,101.000000,1,0,-0.000000,0.000000,1,0.000000,0.000000,0.000000,1.006454,4.216003,0.000000,0.000000,0.000000,0.006000,FlatFinal
04:10:01.041 PM 02/13/2016,Teleop Enabled,0,FALSE,0,NO ERROR,0.000000,0.000000,4000.000000,4000.000000,Speed,Speed,-0.050000,0.700000,2.360000,3.000000,101.000000,1,0,-0.000000,0.000000,1,0.000000,0.000000,0.000000,1.006454,4.216003,0.000000,0.003000,0.001000,0.009000,FlatFinal
04:10:01.141 PM 02/13/2016,Teleop Enabled,0,FALSE,0,NO ERROR,0.000000,0.000000,4000.000000,4000.000000,Speed,Speed,-0.050000,0.710000,2.360000,3.000000,101.000000,1,0,-0.000000,0.000000,1,0.000000,0.000000,0.000000,1.006454,4.216003,0.000000,-0.001000,0.000000,0.008000,FlatFinal
04:10:01.242 PM 02/13/2016,Teleop Enabled,0,FALSE,0,NO ERROR,0.000000,0.000000,4000.000000,4000.000000,Speed,Speed,-0.050000,0.710000,2.360000,3.000000,102.000000,1,0,-0.000000,0.000000,1,0.000000,0.000000,0.000000,1.006454,4.216003,0.000000,0.000000,-0.001000,0.009000,FlatFinal
04:10:01.343 PM 02/13/2016,Teleop Enabled,0,FALSE,0,NO ERROR,0.000000,0.000000,4000.000000,4000.000000,Speed,Speed,-0.050000,0.710000,2.370000,3.000000,102.000000,1,0,-0.000000,0.000000,1,0.000000,0.000000,0.000000,1.006454,4.216003,0.000000,0.000000,0.000000,0.009000,FlatFinal
04:10:01.448 PM 02/13/2016,Teleop Enabled,0,FALSE,0,NO ERROR,0.000000,0.000000,4000.000000,4000.000000,Speed,Speed,-0.050000,0.710000,2.360000,3.000000,100.000000,1,0,-0.000000,0.000000,1,0.000000,0.000000,0.000000,1.006454,4.216003,0.000000,-0.001000,0.000000,0.003000,FlatFinal
04:10:01.548 PM 02/13/2016,Teleop Enabled,0,FALSE,0,NO ERROR,0.000000,0.000000,4000.000000,4000.000000,Speed,Speed,-0.050000,0.710000,2.370000,3.000000,102.000000,1,0,-0.000000,0.000000,1,0.000000,0.000000,0.000000,1.006454,4.216003,0.000000,0.001000,0.000000,0.006000,FlatFinal
04:10:01.648 PM 02/13/2016,Teleop Enabled,0,FALSE,0,NO ERROR,0.000000,0.000000,4000.000000,4000.000000,Speed,Speed,-0.050000,0.710000,2.370000,3.000000,101.000000,1,0,-0.000000,0.000000,1,0.000000,0.000000,0.000000,1.006454,4.216003,0.000000,0.000000,0.000000,0.004000,FlatFinal
04:10:01.747 PM 02/13/2016,Teleop Enabled,0,FALSE,0,NO ERROR,0.000000,0.000000,4000.000000,4000.000000,Speed,Speed,-0.050000,0.710000,2.370000,3.000000,101.000000,1,0,-0.000000,0.000000,1,0.000000,0.000000,0.000000,1.006454,4.216003,0.000000,0.001000,0.000000,0.009000,FlatFinal
04:10:01.848 PM 02/13/2016,Teleop Enabled,0,FALSE,0,NO ERROR,0.000000,0.000000,4000.000000,4000.000000,Speed,Speed,-0.050000,0.710000,2.370000,3.000000,101.000000,1,0,-0.000000,0.000000,1,0.000000,0.000000,0.000000,1.006454,4.216003,0.000000,0.001000,0.000000,0.004000,FlatFinal
04:10:01.948 PM 02/13/2016,Teleop Enabled,0,FALSE,0,NO ERROR,0.000000,0.000000,4000.000000,4000.000000,Speed,Speed,-0.050000,0.710000,2.370000,3.000000,101.000000,1,0,-0.000000,0.000000,1,0.000000,0.000000,0.000000,1.006454,4.216003,0.000000,0.001000,0.000000,0.006000,FlatFinal
04:10:02.049 PM 02/13/2016,Teleop Enabled,0,FALSE,0,NO ERROR,0.000000,0.000000,4000.000000,4000.000000,Speed,Speed,-0.040000,0.710000,2.380000,3.000000,102.000000,1,0,-0.000000,0.000000,1,0.000000,0.000000,0.000000,1.006454,4.216003,0.000000,-0.001000,0.002000,0.006000,FlatFinal
04:10:02.149 PM 02/13/2016,Teleop Enabled,0,FALSE,0,NO ERROR,0.000000,0.000000,4000.000000,4000.000000,Speed,Speed,-0.040000,0.710000,2.380000,3.000000,101.000000,1,0,-0.000000,0.000000,1,0.000000,0.000000,0.000000,1.006454,4.216003,0.000000,0.000000,-0.003000,0.008000,FlatFinal
04:10:02.249 PM 02/13/2016,Teleop Enabled,0,FALSE,0,NO ERROR,0.000000,0.000000,4000.000000,4000.000000,Speed,Speed,-0.050000,0.710000,2.370000,3.000000,103.000000,1,0,-0.000000,0.000000,1,0.000000,0.000000,0.000000,1.006454,4.216003,0.000000,0.000000,-0.002000,0.010000,FlatFinal
04:10:02.349 PM 02/13/2016,Teleop Enabled,0,FALSE,0,NO ERROR,0.000000,0.000000,4000.000000,4000.000000,Speed,Speed,-0.050000,0.710000,2.370000,3.000000,101.000000,1,0,-0.000000,0.000000,1,0.000000,0.000000,0.000000,1.006454,4.216003,0.000000,-0.002000,-0.001000,0.006000,FlatFinal
04:10:02.448 PM 02/13/2016,Teleop Enabled,0,FALSE,0,NO ERROR,0.000000,0.000000,4000.000000,4000.000000,Speed,Speed,-0.050000,0.710000,2.380000,3.000000,101.000000,1,0,-0.000000,0.000000,1,0.000000,0.000000,0.000000,1.006454,4.216003,0.000000,-0.001000,0.000000,0.010000,FlatFinal
04:10:02.549 PM 02/13/2016,Teleop Enabled,0,FALSE,0,NO ERROR,0.000000,0.000000,4000.000000,4000.000000,Speed,Speed,-0.050000,0.710000,2.380000,3.000000,103.000000,1,0,-0.000000,0.000000,1,0.000000,0.000000,0.000000,1.006454,4.216003,0.000000,0.000000,0.000000,0.003000,FlatFinal
04:10:02.650 PM 02/13/2016,Teleop Enabled,0,FALSE,0,NO ERROR,0.000000,0.000000,4000.000000,4000.000000,Speed,Speed,-0.050000,0.710000,2.380000,3.000000,101.000000,1,0,-0.000000,0.000000,1,0.000000,0.000000,0.000000,1.006454,4.216003,0.000000,-0.001000,-0.001000,0.006000,FlatFinal
04:10:02.750 PM 02/13/2016,Teleop Enabled,0,FALSE,0,NO ERROR,0.000000,0.000000,4000.000000,4000.000000,Speed,Speed,-0.050000,0.710000,2.380000,3.000000,103.000000,1,0,-0.000000,0.000000,1,0.000000,0.000000,0.000000,1.006454,4.216003,0.000000,-0.001000,-0.002000,0.004000,FlatFinal
04:10:02.851 PM 02/13/2016,Teleop Enabled,0,FALSE,0,NO ERROR,0.000000,0.000000,4000.000000,4000.000000,Speed,Speed,-0.050000,0.700000,2.380000,3.000000,102.000000,1,0,-0.000000,0.000000,1,0.000000,0.000000,0.000000,1.006454,4.216003,0.000000,-0.002000,0.003000,0.008000,FlatFinal
04:10:02.952 PM 02/13/2016,Teleop Enabled,0,FALSE,0,NO ERROR,0.000000,0.000000,4000.000000,4000.000000,Speed,Speed,-0.040000,0.700000,2.380000,3.000000,102.000000,1,0,-0.322835,0.322835,1,0.000000,0.000000,0.000000,1.006454,4.216003,0.000000,-0.001000,-0.002000,0.006000,FlatFinal
04:10:03.052 PM 02/13/2016,Teleop Enabled,0,FALSE,0,NO ERROR,0.000000,0.000000,4000.000000,4000.000000,Speed,Speed,0.040000,0.640000,2.630000,3.000000,103.000000,1,0,-0.527559,0.527559,1,-0.025726,0.053986,0.000000,1.006195,4.216599,0.000000,-0.244000,0.437000,0.115000,FlatFinal
04:10:03.154 PM 02/13/2016,Teleop Enabled,0,FALSE,0,NO ERROR,0.000000,0.000000,4000.000000,4000.000000,Speed,Speed,7.940000,-0.940000,3.480000,3.000000,101.000000,1,0,-0.732283,0.732283,1,-0.311890,0.357513,0.000000,0.995636,4.229202,0.000000,-0.121000,0.293000,-0.040000,FlatFinal
04:10:03.254 PM 02/13/2016,Teleop Enabled,0,FALSE,0,NO ERROR,0.000000,0.000000,4000.000000,4000.000000,Speed,Speed,22.570000,-1.060000,4.530000,3.000000,102.000000,1,0,-0.000000,0.000000,1,-0.228668,0.506424,0.000000,0.980804,4.252609,0.000000,0.362000,0.171000,0.098000,FlatFinal
04:10:03.356 PM 02/13/2016,Teleop Enabled,0,FALSE,0,NO ERROR,0.000000,0.000000,4000.000000,4000.000000,Speed,Speed,41.480000,-1.890000,4.220000,3.000000,105.000000,1,0,-0.000000,0.000000,1,-0.043579,0.649048,0.000000,0.976105,4.283020,0.000000,0.301000,-1.099000,-0.514000,FlatFinal
04:10:03.457 PM 02/13/2016,Teleop Enabled,0,FALSE,0,NO ERROR,0.000000,0.000000,4000.000000,4000.000000,Speed,Speed,51.350000,0.720000,2.500000,3.000000,102.000000,1,0,-0.000000,0.000000,1,0.016846,-0.251205,0.000000,0.976547,4.288589,0.000000,-0.041000,-0.183000,-0.140000,FlatFinal
04:10:03.557 PM 02/13/2016,Teleop Enabled,0,FALSE,0,NO ERROR,0.000000,0.000000,4000.000000,4000.000000,Speed,Speed,50.410000,0.300000,1.750000,3.000000,104.000000,1,0,-0.000000,0.000000,1,-0.022629,-0.124741,0.000000,0.975311,4.280914,0.000000,0.174000,-0.034000,-0.011000,FlatFinal
04:10:03.658 PM 02/13/2016,Teleop Enabled,0,FALSE,0,NO ERROR,0.000000,0.000000,4000.000000,4000.000000,Speed,Speed,49.950000,0.660000,2.560000,3.000000,102.000000,1,0,-0.251969,0.251969,1,0.059784,-0.140137,0.000000,0.977783,4.274002,0.000000,-0.098000,0.156000,-0.054000,FlatFinal
04:10:03.759 PM 02/13/2016,Teleop Enabled,0,FALSE,0,NO ERROR,0.000000,0.000000,4000.000000,4000.000000,Speed,Speed,50.350000,0.530000,2.240000,3.000000,102.000000,1,0,-0.677165,0.677165,1,0.058807,-0.106491,0.000000,0.980438,4.267273,0.000000,0.063000,0.310000,-0.034000,FlatFinal
04:10:03.859 PM 02/13/2016,Teleop Enabled,0,FALSE,0,NO ERROR,0.000000,0.000000,4000.000000,4000.000000,Speed,Speed,57.990000,-0.920000,3.490000,3.000000,102.000000,1,0,-0.700787,0.700787,1,0.169754,0.309250,0.000000,0.986725,4.274902,0.000000,0.234000,0.453000,-0.060000,FlatFinal
04:10:03.959 PM 02/13/2016,Teleop Enabled,0,FALSE,0,NO ERROR,0.000000,0.000000,4000.000000,4000.000000,Speed,Speed,75.020000,-1.670000,4.090000,3.000000,101.000000,1,0,-0.716535,0.716535,1,0.376495,0.436356,0.000000,1.001328,4.296906,0.000000,0.160000,-0.112000,0.112000,FlatFinal
04:10:04.058 PM 02/13/2016,Teleop Enabled,0,FALSE,0,NO ERROR,0.000000,0.000000,4000.000000,4000.000000,Speed,Speed,96.060000,-1.820000,3.990000,3.000000,105.000000,1,0,-0.425197,0.425197,1,0.621613,0.263412,0.000000,1.027740,4.313934,0.000000,0.107000,-0.199000,-0.076000,FlatFinal
04:10:04.159 PM 02/13/2016,Teleop Enabled,0,FALSE,0,NO ERROR,0.000000,0.000000,4000.000000,4000.000000,Speed,Speed,116.810000,-1.240000,3.360000,3.000000,101.000000,1,0,-0.425197,0.425197,1,0.559280,-0.015686,0.000000,1.058975,4.318863,0.000000,-0.320000,-0.157000,-0.074000,FlatFinal
04:10:04.258 PM 02/13/2016,Teleop Enabled,0,FALSE,0,NO ERROR,0.000000,0.000000,4000.000000,4000.000000,Speed,Speed,132.550000,-0.420000,3.030000,3.000000,101.000000,1,0,-0.000000,0.000000,1,0.367889,-0.292236,0.000000,1.080643,4.309341,0.000000,-0.182000,-0.302000,-0.408000,FlatFinal
04:10:04.359 PM 02/13/2016,Teleop Enabled,0,FALSE,0,NO ERROR,0.000000,0.000000,4000.000000,4000.000000,Speed,Speed,138.070000,1.100000,1.470000,3.000000,101.000000,1,0,-0.000000,0.000000,1,-0.136627,-0.298157,0.000000,1.084732,4.292618,0.000000,0.005000,0.101000,-0.012000,FlatFinal
04:10:04.460 PM 02/13/2016,Teleop Enabled,0,FALSE,0,NO ERROR,0.000000,0.000000,4000.000000,4000.000000,Speed,Speed,136.410000,1.040000,1.510000,3.000000,101.000000,1,0,-0.204724,0.204724,1,0.066071,-0.334610,0.000000,1.084534,4.277908,0.000000,-0.096000,-0.040000,0.056000,FlatFinal
04:10:04.561 PM 02/13/2016,Teleop Enabled,0,FALSE,0,NO ERROR,0.000000,0.000000,4000.000000,4000.000000,Speed,Speed,136.570000,0.860000,1.470000,3.000000,103.000000,1,0,-0.417323,0.417323,1,0.141861,-0.339081,0.000000,1.089233,4.257462,0.000000,0.300000,-0.092000,0.050000,FlatFinal
04:10:04.663 PM 02/13/2016,Teleop Enabled,0,FALSE,0,NO ERROR,0.000000,0.000000,4000.000000,4000.000000,Speed,Speed,141.610000,-0.160000,2.390000,3.000000,102.000000,1,0,-0.433071,0.433071,1,0.388992,-0.351944,0.000000,1.101410,4.243134,0.000000,0.246000,-0.107000,0.024000,FlatFinal
04:10:04.763 PM 02/13/2016,Teleop Enabled,0,FALSE,0,NO ERROR,0.000000,0.000000,4000.000000,4000.000000,Speed,Speed,152.460000,-0.360000,3.010000,3.000000,101.000000,1,0,-0.000000,0.000000,1,0.469559,-0.427551,0.000000,1.124695,4.223282,0.000000,-0.140000,-0.165000,0.034000,FlatFinal
04:10:04.863 PM 02/13/2016,Teleop Enabled,0,FALSE,0,NO ERROR,0.000000,0.000000,4000.000000,4000.000000,Speed,Speed,164.540000,-0.190000,2.780000,3.000000,101.000000,1,0,-0.000000,0.000000,1,0.227570,-0.457596,0.000000,1.147324,4.193604,0.000000,-0.812000,0.467000,-0.014000,FlatFinal
04:10:04.964 PM 02/13/2016,Teleop Enabled,0,FALSE,0,NO ERROR,0.000000,0.000000,4000.000000,4000.000000,Speed,Speed,167.120000,1.540000,1.430000,3.000000,101.000000,1,0,-0.000000,0.000000,1,-0.076126,-0.250183,0.000000,1.144806,4.179077,0.000000,0.170000,-0.011000,0.085000,FlatFinal
04:10:05.065 PM 02/13/2016,Teleop Enabled,0,FALSE,0,NO ERROR,0.000000,0.000000,4000.000000,4000.000000,Speed,Speed,166.090000,1.330000,1.870000,3.000000,102.000000,1,0,-0.000000,0.000000,1,-0.023972,-0.364746,0.000000,1.143951,4.162704,0.000000,-0.068000,-0.020000,0.145000,FlatFinal
04:10:05.165 PM 02/13/2016,Teleop Enabled,0,FALSE,0,NO ERROR,0.000000,0.000000,4000.000000,4000.000000,Speed,Speed,166.410000,1.220000,1.710000,3.000000,101.000000,1,0,-0.000000,0.000000,1,0.015060,0.000000,0.000000,1.143936,4.159012,0.000000,-0.065000,-0.010000,0.068000,FlatFinal
04:10:05.266 PM 02/13/2016,Teleop Enabled,0,FALSE,0,NO ERROR,0.000000,0.000000,4000.000000,4000.000000,Speed,Speed,166.280000,1.280000,1.830000,3.000000,105.000000,1,0,-0.212598,0.212598,1,-0.004318,0.024094,0.000000,1.143448,4.159454,0.000000,0.043000,0.075000,0.050000,FlatFinal
04:10:05.367 PM 02/13/2016,Teleop Enabled,0,FALSE,0,NO ERROR,0.000000,0.000000,4000.000000,4000.000000,Speed,Speed,169.240000,0.730000,2.150000,3.000000,102.000000,1,0,-0.000000,0.000000,1,0.114212,-0.085724,0.000000,1.147385,4.156479,0.000000,0.029000,-0.002000,-0.063000,FlatFinal
04:10:05.468 PM 02/13/2016,Teleop Enabled,0,FALSE,0,NO ERROR,0.000000,0.000000,4000.000000,4000.000000,Speed,Speed,173.170000,1.050000,2.030000,3.000000,104.000000,1,0,-0.228346,0.228346,1,-0.016541,0.028885,0.000000,1.151855,4.153976,0.000000,-0.219000,0.155000,0.064000,FlatFinal
04:10:05.568 PM 02/13/2016,Teleop Enabled,0,FALSE,0,NO ERROR,0.000000,0.000000,4000.000000,4000.000000,Speed,Speed,174.520000,1.030000,2.140000,3.000000,102.000000,1,0,-0.000000,0.000000,1,0.026108,-0.045898,0.000000,1.151505,4.153244,0.000000,-0.070000,0.211000,-0.014000,FlatFinal
04:10:05.668 PM 02/13/2016,Teleop Enabled,0,FALSE,0,NO ERROR,0.000000,0.000000,4000.000000,4000.000000,Speed,Speed,175.250000,1.250000,1.660000,3.000000,102.000000,1,0,-0.000000,0.000000,1,-0.059769,0.061127,0.000000,1.150848,4.154480,0.000000,-0.138000,0.068000,-0.130000,FlatFinal
04:10:05.768 PM 02/13/2016,Teleop Enabled,0,FALSE,0,NO ERROR,0.000000,0.000000,4000.000000,4000.000000,Speed,Speed,174.280000,1.210000,2.110000,3.000000,102.000000,1,0,-0.000000,0.000000,1,-0.008911,-0.007904,0.000000,1.148865,4.155655,0.000000,-0.007000,0.025000,0.017000,FlatFinal
04:10:05.868 PM 02/13/2016,Teleop Enabled,0,FALSE,0,NO ERROR,0.000000,0.000000,4000.000000,4000.000000,Speed,Speed,174.500000,1.300000,1.910000,3.000000,101.000000,1,0,-0.000000,0.000000,1,-0.019043,0.008682,0.000000,1.147491,4.155716,0.000000,0.032000,0.030000,-0.030000,FlatFinal
04:10:05.969 PM 02/13/2016,Teleop Enabled,0,FALSE,0,NO ERROR,0.000000,0.000000,4000.000000,4000.000000,Speed,Speed,174.370000,1.330000,1.870000,3.000000,103.000000,1,0,-0.000000,0.000000,1,-0.031403,-0.007935,0.000000,1.146072,4.156342,0.000000,0.055000,-0.063000,0.035000,FlatFinal
04:10:06.068 PM 02/13/2016,Teleop Enabled,0,FALSE,0,NO ERROR,0.000000,0.000000,4000.000000,4000.000000,Speed,Speed,174.370000,1.330000,1.870000,3.000000,102.000000,1,0,-0.417323,-0.417323,1,-0.031403,-0.007935,0.000000,1.146072,4.156342,0.000000,0.055000,-0.063000,0.035000,FlatFinal
04:10:06.169 PM 02/13/2016,Teleop Enabled,0,FALSE,0,NO ERROR,0.000000,0.000000,4000.000000,4000.000000,Speed,Speed,174.720000,1.340000,5.810000,3.000000,103.000000,1,0,-0.433071,-0.433071,1,-0.014984,-0.389694,0.000000,1.144897,4.140366,0.000000,0.124000,-0.079000,0.143000,FlatFinal
04:10:06.269 PM 02/13/2016,Teleop Enabled,0,FALSE,0,NO ERROR,0.000000,0.000000,4000.000000,4000.000000,Speed,Speed,174.880000,1.180000,5.220000,3.000000,103.000000,1,0,-0.433071,-0.433071,1,0.014084,-0.589813,0.000000,1.145981,4.113144,0.000000,0.124000,-0.079000,0.143000,FlatFinal
04:10:06.369 PM 02/13/2016,Teleop Enabled,0,FALSE,0,NO ERROR,0.000000,0.000000,4000.000000,4000.000000,Speed,Speed,174.850000,1.160000,5.920000,3.000000,101.000000,1,0,-0.433071,-0.433071,1,0.000000,-0.593521,0.000000,1.146591,4.082596,0.000000,-0.017000,0.012000,-0.207000,FlatFinal
04:10:06.469 PM 02/13/2016,Teleop Enabled,0,FALSE,0,NO ERROR,0.000000,0.000000,4000.000000,4000.000000,Speed,Speed,174.780000,1.160000,5.610000,3.000000,102.000000,1,0,-0.433071,-0.433071,1,0.000076,-0.590164,0.000000,1.146637,4.052750,0.000000,-0.010000,-0.012000,-0.126000,FlatFinal
04:10:06.571 PM 02/13/2016,Teleop Enabled,0,FALSE,0,NO ERROR,0.000000,0.000000,4000.000000,4000.000000,Speed,Speed,174.780000,1.160000,5.610000,3.000000,101.000000,1,0,-0.440945,-0.440945,1,0.000076,-0.590164,0.000000,1.146637,4.052750,0.000000,0.043000,-0.037000,-0.174000,FlatFinal
04:10:06.671 PM 02/13/2016,Teleop Enabled,0,FALSE,0,NO ERROR,0.000000,0.000000,4000.000000,4000.000000,Speed,Speed,174.570000,1.100000,6.170000,3.000000,103.000000,0,0,-0.629921,-0.629921,1,0.002670,-0.570206,0.000000,1.146576,3.996536,0.000000,0.031000,-0.193000,0.067000,FlatFinal
04:10:06.772 PM 02/13/2016,Teleop Enabled,0,FALSE,0,NO ERROR,0.000000,0.000000,4000.000000,4000.000000,Speed,Speed,174.570000,1.100000,6.170000,3.000000,102.000000,0,0,-0.826772,-0.826772,1,0.002670,-0.570206,0.000000,1.146576,3.996536,0.000000,0.031000,-0.193000,0.067000,FlatFinal
04:10:06.874 PM 02/13/2016,Teleop Enabled,0,FALSE,0,NO ERROR,0.000000,0.000000,4000.000000,4000.000000,Speed,Speed,174.470000,1.120000,7.720000,3.000000,101.000000,0,0,-0.881890,-0.881890,1,-0.001114,-0.808105,0.000000,1.146606,3.954666,0.000000,0.024000,-0.373000,-0.072000,FlatFinal
04:10:06.975 PM 02/13/2016,Teleop Enabled,0,FALSE,0,NO ERROR,0.000000,0.000000,4000.000000,4000.000000,Speed,Speed,174.600000,0.970000,14.760000,3.000000,102.000000,0,0,-0.881890,-0.881890,1,0.023804,-0.981400,0.000000,1.147537,3.908112,0.000000,0.059000,-0.206000,0.018000,FlatFinal
04:10:07.076 PM 02/13/2016,Teleop Enabled,0,FALSE,0,NO ERROR,0.000000,0.000000,4000.000000,4000.000000,Speed,Speed,175.090000,0.950000,26.930000,3.000000,103.000000,0,0,-0.897638,-0.897638,1,0.012100,0.215530,0.000000,1.150848,3.898666,0.000000,-0.394000,0.022000,0.702000,FlatFinal
04:10:07.177 PM 02/13/2016,Teleop Enabled,0,FALSE,0,NO ERROR,0.000000,0.000000,4000.000000,4000.000000,Speed,Speed,175.090000,0.950000,26.930000,3.000000,101.000000,0,0,-0.897638,-0.897638,1,0.012100,0.215530,0.000000,1.150848,3.898666,0.000000,-0.394000,0.022000,0.702000,FlatFinal
04:10:07.278 PM 02/13/2016,Teleop Enabled,0,FALSE,0,NO ERROR,0.000000,0.000000,4000.000000,4000.000000,Speed,Speed,176.110000,0.580000,37.630000,3.000000,104.000000,0,0,-0.716535,-0.716535,1,-0.183243,0.409348,0.000000,1.147659,3.914337,0.000000,-0.665000,0.524000,0.194000,FlatFinal
