Time,RobotMode,AutoToRun,ErrorStatus, ErrorCode,ErrorSource,ActualRPM1,ActualRPM2,DesiredRPM1,DesiredRPM2,ControlMode1,ControlMode2,NavXYaw,NavXRoll,NavXPitch,ShooterState,LoopTime,IsLevel,IsAutoTargeting,LeftMotorOutput,RightMotorOutput,IsHaloDrive,NavXVelocityX,NavXVelocityY,NavXVelocityZ,NavXDisplacementX,NavXDisplacementY,NavXDisplacementZ,NavXAccelerationX,NavXAccelerationY,NavXAccelerationZ,AutoDefendState
12:13:04.014 PM 02/13/2016,Teleop Disabled,0,TRUE,-44087,NetComm_CAN_Receive.vi:5470006<APPEND>  <b>Complete call chain:</b>      NetComm_CAN_Receive.vi:5470006      WPI_CANTalonSRX_Receive.vi      WPI_MotorControlOpenCANTalonSRX.vi      Begin.vi      Robot Main.vi,0.000000,0.000000,4000.000000,4000.000000,Speed,Speed,-0.100000,1.100000,2.860000,3.000000,102.000000,1,0,-0.005022,-0.003968,0,0.000000,0.000000,0.000000,-0.437210,0.735291,0.000000,0.001000,0.001000,0.000000,FlatInitial
12:13:04.114 PM 02/13/2016,Teleop Disabled,0,TRUE,-44087,NetComm_CAN_Receive.vi:5470006<APPEND>  <b>Complete call chain:</b>      NetComm_CAN_Receive.vi:5470006      WPI_CANTalonSRX_Receive.vi      WPI_MotorControlOpenCANTalonSRX.vi      Begin.vi      Robot Main.vi,0.000000,0.000000,0.000000,0.000000,Speed,Speed,-0.170000,1.110000,2.860000,0.000000,14765.000000,1,0,-0.005022,-0.003968,0,0.000000,0.000000,0.000000,-0.437210,0.735291,0.000000,0.001000,-0.001000,-0.001000,FlatInitial
12:13:04.214 PM 02/13/2016,Teleop Disabled,0,TRUE,-44087,NetComm_CAN_Receive.vi:5470006<APPEND>  <b>Complete call chain:</b>      NetComm_CAN_Receive.vi:5470006      WPI_CANTalonSRX_Receive.vi      WPI_MotorControlOpenCANTalonSRX.vi      Begin.vi      Robot Main.vi,0.000000,0.000000,0.000000,0.000000,Speed,Speed,-0.170000,1.110000,2.860000,0.000000,101.000000,1,0,-0.005022,-0.003968,0,0.000000,0.000000,0.000000,-0.437210,0.735291,0.000000,0.001000,-0.001000,-0.001000,FlatInitial
12:13:04.314 PM 02/13/2016,Teleop Disabled,0,TRUE,-44087,NetComm_CAN_Receive.vi:5470006<APPEND>  <b>Complete call chain:</b>      NetComm_CAN_Receive.vi:5470006      WPI_CANTalonSRX_Receive.vi      WPI_MotorControlOpenCANTalonSRX.vi      Begin.vi      Robot Main.vi,0.000000,0.000000,0.000000,0.000000,Speed,Speed,-0.170000,1.110000,2.860000,0.000000,101.000000,1,0,-0.005022,-0.003968,0,0.000000,0.000000,0.000000,-0.437210,0.735291,0.000000,0.001000,-0.001000,-0.001000,FlatInitial
12:13:04.415 PM 02/13/2016,Teleop Disabled,0,TRUE,-44087,NetComm_CAN_Receive.vi:5470006<APPEND>  <b>Complete call chain:</b>      NetComm_CAN_Receive.vi:5470006      WPI_CANTalonSRX_Receive.vi      WPI_MotorControlOpenCANTalonSRX.vi      Begin.vi      Robot Main.vi,0.000000,0.000000,0.000000,0.000000,Speed,Speed,-0.170000,1.110000,2.860000,0.000000,102.000000,1,0,-0.005022,-0.003968,0,0.000000,0.000000,0.000000,-0.437210,0.735291,0.000000,0.001000,-0.001000,-0.001000,FlatInitial
12:13:04.515 PM 02/13/2016,Teleop Disabled,0,TRUE,-44087,NetComm_CAN_Receive.vi:5470006<APPEND>  <b>Complete call chain:</b>      NetComm_CAN_Receive.vi:5470006      WPI_CANTalonSRX_Receive.vi      WPI_MotorControlOpenCANTalonSRX.vi      Begin.vi      Robot Main.vi,0.000000,0.000000,0.000000,0.000000,Speed,Speed,-0.170000,1.110000,2.860000,0.000000,101.000000,1,0,-0.005022,-0.003968,0,0.000000,0.000000,0.000000,-0.437210,0.735291,0.000000,0.001000,-0.001000,-0.001000,FlatInitial
12:13:04.616 PM 02/13/2016,Teleop Disabled,0,TRUE,-44087,NetComm_CAN_Receive.vi:5470006<APPEND>  <b>Complete call chain:</b>      NetComm_CAN_Receive.vi:5470006      WPI_CANTalonSRX_Receive.vi      WPI_MotorControlOpenCANTalonSRX.vi      Begin.vi      Robot Main.vi,0.000000,0.000000,0.000000,0.000000,Speed,Speed,-0.170000,1.110000,2.860000,0.000000,101.000000,1,0,-0.005022,-0.003968,0,0.000000,0.000000,0.000000,-0.437210,0.735291,0.000000,0.001000,-0.001000,-0.001000,FlatInitial
12:13:04.717 PM 02/13/2016,Teleop Disabled,0,TRUE,-44087,NetComm_CAN_Receive.vi:5470006<APPEND>  <b>Complete call chain:</b>      NetComm_CAN_Receive.vi:5470006      WPI_CANTalonSRX_Receive.vi      WPI_MotorControlOpenCANTalonSRX.vi      Begin.vi      Robot Main.vi,0.000000,0.000000,0.000000,0.000000,Speed,Speed,-0.170000,1.110000,2.860000,0.000000,102.000000,1,0,-0.005022,-0.003968,0,0.000000,0.000000,0.000000,-0.437210,0.735291,0.000000,0.001000,-0.001000,-0.001000,FlatInitial
12:13:04.818 PM 02/13/2016,Teleop Disabled,0,TRUE,-44087,NetComm_CAN_Receive.vi:5470006<APPEND>  <b>Complete call chain:</b>      NetComm_CAN_Receive.vi:5470006      WPI_CANTalonSRX_Receive.vi      WPI_MotorControlOpenCANTalonSRX.vi      Begin.vi      Robot Main.vi,0.000000,0.000000,0.000000,0.000000,Speed,Speed,-0.170000,1.110000,2.860000,0.000000,101.000000,1,0,-0.005022,-0.003968,0,0.000000,0.000000,0.000000,-0.437210,0.735291,0.000000,0.001000,-0.001000,-0.001000,FlatInitial
12:13:04.918 PM 02/13/2016,Teleop Disabled,0,TRUE,-44087,NetComm_CAN_Receive.vi:5470006<APPEND>  <b>Complete call chain:</b>      NetComm_CAN_Receive.vi:5470006      WPI_CANTalonSRX_Receive.vi      WPI_MotorControlOpenCANTalonSRX.vi      Begin.vi      Robot Main.vi,0.000000,0.000000,0.000000,0.000000,Speed,Speed,-0.170000,1.110000,2.860000,0.000000,102.000000,1,0,-0.005022,-0.003968,0,0.000000,0.000000,0.000000,-0.437210,0.735291,0.000000,0.001000,-0.001000,-0.001000,FlatInitial
12:13:05.019 PM 02/13/2016,Teleop Disabled,0,TRUE,-44087,NetComm_CAN_Receive.vi:5470006<APPEND>  <b>Complete call chain:</b>      NetComm_CAN_Receive.vi:5470006      WPI_CANTalonSRX_Receive.vi      WPI_MotorControlOpenCANTalonSRX.vi      Begin.vi      Robot Main.vi,0.000000,0.000000,0.000000,0.000000,Speed,Speed,-0.170000,1.110000,2.860000,0.000000,102.000000,1,0,-0.005022,-0.003968,0,0.000000,0.000000,0.000000,-0.437210,0.735291,0.000000,0.001000,-0.001000,-0.001000,FlatInitial
12:13:05.120 PM 02/13/2016,Teleop Disabled,0,TRUE,-44087,NetComm_CAN_Receive.vi:5470006<APPEND>  <b>Complete call chain:</b>      NetComm_CAN_Receive.vi:5470006      WPI_CANTalonSRX_Receive.vi      WPI_MotorControlOpenCANTalonSRX.vi      Begin.vi      Robot Main.vi,0.000000,0.000000,0.000000,0.000000,Speed,Speed,-0.170000,1.110000,2.860000,0.000000,103.000000,1,0,-0.005022,-0.003968,0,0.000000,0.000000,0.000000,-0.437210,0.735291,0.000000,0.001000,-0.001000,-0.001000,FlatInitial
12:13:05.221 PM 02/13/2016,Teleop Disabled,0,TRUE,-44087,NetComm_CAN_Receive.vi:5470006<APPEND>  <b>Complete call chain:</b>      NetComm_CAN_Receive.vi:5470006      WPI_CANTalonSRX_Receive.vi      WPI_CANTalonSRX_GetStatus.vi      ShooterVI.vi      Periodic Tasks.vi      Robot Main.vi,0.000000,0.000000,0.000000,0.000000,Speed,Speed,-0.170000,1.110000,2.860000,0.000000,101.000000,1,0,-0.005022,-0.003968,0,0.000000,0.000000,0.000000,-0.437210,0.735291,0.000000,0.001000,-0.001000,-0.001000,FlatInitial
12:13:05.321 PM 02/13/2016,Teleop Disabled,0,TRUE,-44087,NetComm_CAN_Receive.vi:5470006<APPEND>  <b>Complete call chain:</b>      NetComm_CAN_Receive.vi:5470006      WPI_CANTalonSRX_Receive.vi      WPI_CANTalonSRX_GetStatus.vi      ShooterVI.vi      Periodic Tasks.vi      Robot Main.vi,0.000000,0.000000,0.000000,0.000000,Speed,Speed,-0.170000,1.110000,2.860000,0.000000,101.000000,1,0,-0.005022,-0.003968,0,0.000000,0.000000,0.000000,-0.437210,0.735291,0.000000,0.001000,-0.001000,-0.001000,FlatInitial
12:13:05.422 PM 02/13/2016,Teleop Disabled,0,FALSE,0,NO ERROR,0.000000,0.000000,0.000000,0.000000,Speed,Speed,-0.170000,1.110000,2.860000,0.000000,102.000000,1,0,-0.005022,-0.003968,0,0.000000,0.000000,0.000000,-0.437210,0.735291,0.000000,0.001000,-0.001000,-0.001000,FlatInitial
12:13:05.523 PM 02/13/2016,Teleop Disabled,0,FALSE,0,NO ERROR,0.000000,0.000000,0.000000,0.000000,Speed,Speed,-0.170000,1.110000,2.860000,0.000000,102.000000,1,0,-0.005022,-0.003968,0,0.000000,0.000000,0.000000,-0.437210,0.735291,0.000000,0.001000,-0.001000,-0.001000,FlatInitial
12:13:05.623 PM 02/13/2016,Teleop Disabled,0,FALSE,0,NO ERROR,0.000000,0.000000,0.000000,0.000000,Speed,Speed,-0.170000,1.110000,2.860000,0.000000,101.000000,1,0,-0.005022,-0.003968,0,0.000000,0.000000,0.000000,-0.437210,0.735291,0.000000,0.001000,-0.001000,-0.001000,FlatInitial
12:13:05.723 PM 02/13/2016,Teleop Disabled,0,FALSE,0,NO ERROR,0.000000,0.000000,0.000000,0.000000,Speed,Speed,-0.170000,1.110000,2.860000,0.000000,101.000000,1,0,-0.005022,-0.003968,0,0.000000,0.000000,0.000000,-0.437210,0.735291,0.000000,0.001000,-0.001000,-0.001000,FlatInitial
12:13:05.823 PM 02/13/2016,Teleop Disabled,0,FALSE,0,NO ERROR,0.000000,0.000000,0.000000,0.000000,Speed,Speed,-0.170000,1.110000,2.860000,0.000000,101.000000,1,0,-0.005022,-0.003968,0,0.000000,0.000000,0.000000,-0.437210,0.735291,0.000000,0.001000,-0.001000,-0.001000,FlatInitial
12:13:05.923 PM 02/13/2016,Teleop Disabled,0,FALSE,0,NO ERROR,0.000000,0.000000,0.000000,0.000000,Speed,Speed,-0.170000,1.110000,2.860000,0.000000,103.000000,1,0,-0.005022,-0.003968,0,0.000000,0.000000,0.000000,-0.437210,0.735291,0.000000,0.001000,-0.001000,-0.001000,FlatInitial
12:13:06.024 PM 02/13/2016,Teleop Disabled,0,FALSE,0,NO ERROR,0.000000,0.000000,0.000000,0.000000,Speed,Speed,-0.170000,1.110000,2.860000,0.000000,101.000000,1,0,-0.005022,-0.003968,0,0.000000,0.000000,0.000000,-0.437210,0.735291,0.000000,0.001000,-0.001000,-0.001000,FlatInitial
12:13:06.123 PM 02/13/2016,Teleop Disabled,0,FALSE,0,NO ERROR,0.000000,0.000000,0.000000,0.000000,Speed,Speed,-0.170000,1.110000,2.860000,0.000000,101.000000,1,0,-0.005022,-0.003968,0,0.000000,0.000000,0.000000,-0.437210,0.735291,0.000000,0.001000,-0.001000,-0.001000,FlatInitial
12:13:06.223 PM 02/13/2016,Teleop Disabled,0,FALSE,0,NO ERROR,0.000000,0.000000,0.000000,0.000000,Speed,Speed,-0.170000,1.110000,2.860000,0.000000,102.000000,1,0,-0.005022,-0.003968,0,0.000000,0.000000,0.000000,-0.437210,0.735291,0.000000,0.001000,-0.001000,-0.001000,FlatInitial
12:13:06.324 PM 02/13/2016,Teleop Disabled,0,FALSE,0,NO ERROR,0.000000,0.000000,0.000000,0.000000,Speed,Speed,-0.170000,1.110000,2.860000,0.000000,100.000000,1,0,-0.005022,-0.003968,0,0.000000,0.000000,0.000000,-0.437210,0.735291,0.000000,0.001000,-0.001000,-0.001000,FlatInitial
12:13:06.425 PM 02/13/2016,Teleop Disabled,0,FALSE,0,NO ERROR,0.000000,0.000000,0.000000,0.000000,Speed,Speed,-0.170000,1.110000,2.860000,0.000000,101.000000,1,0,-0.005022,-0.003968,0,0.000000,0.000000,0.000000,-0.437210,0.735291,0.000000,0.001000,-0.001000,-0.001000,FlatInitial
12:13:06.526 PM 02/13/2016,Teleop Disabled,0,FALSE,0,NO ERROR,0.000000,0.000000,0.000000,0.000000,Speed,Speed,-0.170000,1.110000,2.860000,0.000000,100.000000,1,0,-0.005022,-0.003968,0,0.000000,0.000000,0.000000,-0.437210,0.735291,0.000000,0.001000,-0.001000,-0.001000,FlatInitial
12:13:06.626 PM 02/13/2016,Teleop Disabled,0,FALSE,0,NO ERROR,0.000000,0.000000,0.000000,0.000000,Speed,Speed,-0.170000,1.110000,2.860000,0.000000,101.000000,1,0,-0.005022,-0.003968,0,0.000000,0.000000,0.000000,-0.437210,0.735291,0.000000,0.001000,-0.001000,-0.001000,FlatInitial
12:13:06.726 PM 02/13/2016,Teleop Disabled,0,FALSE,0,NO ERROR,0.000000,0.000000,0.000000,0.000000,Speed,Speed,-0.170000,1.110000,2.860000,0.000000,103.000000,1,0,-0.005022,-0.003968,0,0.000000,0.000000,0.000000,-0.437210,0.735291,0.000000,0.001000,-0.001000,-0.001000,FlatInitial
12:13:06.826 PM 02/13/2016,Teleop Disabled,0,FALSE,0,NO ERROR,0.000000,0.000000,0.000000,0.000000,Speed,Speed,-0.170000,1.110000,2.860000,0.000000,103.000000,1,0,-0.005022,-0.003968,0,0.000000,0.000000,0.000000,-0.437210,0.735291,0.000000,0.001000,-0.001000,-0.001000,FlatInitial
12:13:06.926 PM 02/13/2016,Teleop Disabled,0,FALSE,0,NO ERROR,0.000000,0.000000,0.000000,0.000000,Speed,Speed,-0.170000,1.110000,2.860000,0.000000,102.000000,1,0,-0.005022,-0.003968,0,0.000000,0.000000,0.000000,-0.437210,0.735291,0.000000,0.001000,-0.001000,-0.001000,FlatInitial
12:13:07.028 PM 02/13/2016,Teleop Disabled,0,FALSE,0,NO ERROR,0.000000,0.000000,0.000000,0.000000,Speed,Speed,-0.170000,1.110000,2.860000,0.000000,102.000000,1,0,-0.005022,-0.003968,0,0.000000,0.000000,0.000000,-0.437210,0.735291,0.000000,0.001000,-0.001000,-0.001000,FlatInitial
12:13:07.128 PM 02/13/2016,Teleop Disabled,0,FALSE,0,NO ERROR,0.000000,0.000000,0.000000,0.000000,Speed,Speed,-0.170000,1.110000,2.860000,0.000000,103.000000,1,0,-0.005022,-0.003968,0,0.000000,0.000000,0.000000,-0.437210,0.735291,0.000000,0.001000,-0.001000,-0.001000,FlatInitial
12:13:07.228 PM 02/13/2016,Teleop Disabled,0,FALSE,0,NO ERROR,0.000000,0.000000,0.000000,0.000000,Speed,Speed,-0.170000,1.110000,2.860000,0.000000,102.000000,1,0,-0.005022,-0.003968,0,0.000000,0.000000,0.000000,-0.437210,0.735291,0.000000,0.001000,-0.001000,-0.001000,FlatInitial
12:13:07.329 PM 02/13/2016,Teleop Disabled,0,FALSE,0,NO ERROR,0.000000,0.000000,-6000.000000,-6000.000000,Speed,Speed,-0.170000,1.110000,2.860000,1.000000,103.000000,1,0,-0.005022,-0.003968,0,0.000000,0.000000,0.000000,-0.437210,0.735291,0.000000,0.001000,-0.001000,-0.001000,FlatInitial
12:13:07.429 PM 02/13/2016,Teleop Disabled,0,FALSE,0,NO ERROR,0.000000,0.000000,0.000000,0.000000,Speed,Speed,-0.170000,1.110000,2.860000,2.000000,101.000000,1,0,-0.005022,-0.003968,0,0.000000,0.000000,0.000000,-0.437210,0.735291,0.000000,0.001000,-0.001000,-0.001000,FlatInitial
12:13:07.529 PM 02/13/2016,Teleop Disabled,0,FALSE,0,NO ERROR,0.000000,0.000000,0.000000,0.000000,Speed,Speed,-0.170000,1.110000,2.860000,2.000000,102.000000,1,0,-0.005022,-0.003968,0,0.000000,0.000000,0.000000,-0.437210,0.735291,0.000000,0.001000,-0.001000,-0.001000,FlatInitial
12:13:07.630 PM 02/13/2016,Teleop Disabled,0,FALSE,0,NO ERROR,0.000000,0.000000,0.000000,0.000000,Speed,Speed,-0.170000,1.110000,2.860000,2.000000,102.000000,1,0,-0.005022,-0.003968,0,0.000000,0.000000,0.000000,-0.437210,0.735291,0.000000,0.001000,-0.001000,-0.001000,FlatInitial
12:13:07.731 PM 02/13/2016,Teleop Disabled,0,FALSE,0,NO ERROR,0.000000,0.000000,0.000000,0.000000,Speed,Speed,-0.170000,1.110000,2.860000,2.000000,101.000000,1,0,-0.005022,-0.003968,0,0.000000,0.000000,0.000000,-0.437210,0.735291,0.000000,0.001000,-0.001000,-0.001000,FlatInitial
12:13:07.831 PM 02/13/2016,Teleop Disabled,0,FALSE,0,NO ERROR,0.000000,0.000000,0.000000,0.000000,Speed,Speed,-0.170000,1.110000,2.860000,2.000000,102.000000,1,0,-0.005022,-0.003968,0,0.000000,0.000000,0.000000,-0.437210,0.735291,0.000000,0.001000,-0.001000,-0.001000,FlatInitial
12:13:07.931 PM 02/13/2016,Teleop Disabled,0,FALSE,0,NO ERROR,0.000000,0.000000,0.000000,0.000000,Speed,Speed,-0.170000,1.110000,2.860000,2.000000,102.000000,1,0,-0.005022,-0.003968,0,0.000000,0.000000,0.000000,-0.437210,0.735291,0.000000,0.001000,-0.001000,-0.001000,FlatInitial
12:13:08.031 PM 02/13/2016,Teleop Disabled,0,FALSE,0,NO ERROR,0.000000,0.000000,0.000000,0.000000,Speed,Speed,-0.170000,1.110000,2.860000,2.000000,101.000000,1,0,-0.005022,-0.003968,0,0.000000,0.000000,0.000000,-0.437210,0.735291,0.000000,0.001000,-0.001000,-0.001000,FlatInitial
12:13:08.131 PM 02/13/2016,Teleop Disabled,0,FALSE,0,NO ERROR,0.000000,0.000000,0.000000,0.000000,Speed,Speed,-0.170000,1.110000,2.860000,2.000000,102.000000,1,0,-0.005022,-0.003968,0,0.000000,0.000000,0.000000,-0.437210,0.735291,0.000000,0.001000,-0.001000,-0.001000,FlatInitial
12:13:08.231 PM 02/13/2016,Teleop Disabled,0,FALSE,0,NO ERROR,0.000000,0.000000,0.000000,0.000000,Speed,Speed,-0.170000,1.110000,2.860000,2.000000,102.000000,1,0,-0.005022,-0.003968,0,0.000000,0.000000,0.000000,-0.437210,0.735291,0.000000,0.001000,-0.001000,-0.001000,FlatInitial
12:13:08.331 PM 02/13/2016,Teleop Disabled,0,FALSE,0,NO ERROR,0.000000,0.000000,0.000000,0.000000,Speed,Speed,-0.170000,1.110000,2.860000,2.000000,101.000000,1,0,-0.005022,-0.003968,0,0.000000,0.000000,0.000000,-0.437210,0.735291,0.000000,0.001000,-0.001000,-0.001000,FlatInitial
12:13:08.432 PM 02/13/2016,Teleop Disabled,0,FALSE,0,NO ERROR,0.000000,0.000000,0.000000,0.000000,Speed,Speed,-0.170000,1.110000,2.860000,2.000000,102.000000,1,0,-0.005022,-0.003968,0,0.000000,0.000000,0.000000,-0.437210,0.735291,0.000000,0.001000,-0.001000,-0.001000,FlatInitial
12:13:08.533 PM 02/13/2016,Teleop Disabled,0,FALSE,0,NO ERROR,0.000000,0.000000,0.000000,0.000000,Speed,Speed,-0.170000,1.110000,2.860000,2.000000,102.000000,1,0,-0.005022,-0.003968,0,0.000000,0.000000,0.000000,-0.437210,0.735291,0.000000,0.001000,-0.001000,-0.001000,FlatInitial
12:13:08.633 PM 02/13/2016,Teleop Disabled,0,FALSE,0,NO ERROR,0.000000,0.000000,4000.000000,4000.000000,Speed,Speed,-0.170000,1.110000,2.860000,3.000000,102.000000,1,0,-0.005022,-0.003968,0,0.000000,0.000000,0.000000,-0.437210,0.735291,0.000000,0.001000,-0.001000,-0.001000,FlatInitial
12:13:08.733 PM 02/13/2016,Teleop Disabled,0,FALSE,0,NO ERROR,0.000000,0.000000,4000.000000,4000.000000,Speed,Speed,-0.170000,1.110000,2.860000,3.000000,101.000000,1,0,-0.005022,-0.003968,0,0.000000,0.000000,0.000000,-0.437210,0.735291,0.000000,0.001000,-0.001000,-0.001000,FlatInitial
12:13:08.833 PM 02/13/2016,Teleop Disabled,0,FALSE,0,NO ERROR,0.000000,0.000000,4000.000000,4000.000000,Speed,Speed,-0.170000,1.110000,2.860000,3.000000,101.000000,1,0,-0.005022,-0.003968,0,0.000000,0.000000,0.000000,-0.437210,0.735291,0.000000,0.001000,-0.001000,-0.001000,FlatInitial
12:13:08.933 PM 02/13/2016,Teleop Disabled,0,FALSE,0,NO ERROR,0.000000,0.000000,4000.000000,4000.000000,Speed,Speed,-0.170000,1.110000,2.860000,3.000000,102.000000,1,0,-0.005022,-0.003968,0,0.000000,0.000000,0.000000,-0.437210,0.735291,0.000000,0.001000,-0.001000,-0.001000,FlatInitial
12:13:17.959 PM 02/13/2016,Teleop Enabled,0,TRUE,-44003,<LOCATION>WPI_CameraIssue HTTP Request with Authentication.vi<CALLSTACK>WPI_CameraIssue HTTP Request with Authentication.vi< <WPI_CameraIssue Get.vi< <WPI_CameraSet Image Appearance Property.vi< <WPI_CameraSet Image Size.vi< <Vision Processing.vi< <Robot Main.vi,0.000000,0.000000,4000.000000,4000.000000,Speed,Speed,-0.110000,1.100000,2.860000,3.000000,103.000000,1,0,-0.005022,-0.003968,0,0.000000,0.000000,0.000000,-0.436127,0.736038,0.000000,-0.006000,0.000000,0.001000,FlatInitial
12:13:18.060 PM 02/13/2016,Teleop Enabled,0,FALSE,0,NO ERROR,0.000000,0.000000,4000.000000,4000.000000,Speed,Speed,-0.110000,1.120000,2.850000,3.000000,102.000000,1,0,-0.005022,-0.003968,0,0.000000,0.000000,0.000000,-0.436127,0.736038,0.000000,0.007000,-0.003000,-0.003000,FlatInitial
12:13:18.161 PM 02/13/2016,Teleop Enabled,0,FALSE,0,NO ERROR,0.000000,0.000000,4000.000000,4000.000000,Speed,Speed,-0.110000,1.110000,2.850000,3.000000,100.000000,1,0,-0.005022,-0.003968,0,-0.006943,0.000000,0.000000,-0.436218,0.736038,0.000000,0.016000,0.031000,0.050000,FlatInitial
12:13:18.261 PM 02/13/2016,Teleop Enabled,0,FALSE,0,NO ERROR,0.000000,0.000000,4000.000000,4000.000000,Speed,Speed,-0.110000,1.120000,2.840000,3.000000,103.000000,1,0,-0.005022,-0.003968,0,0.000000,0.000000,0.000000,-0.436295,0.736084,0.000000,0.005000,-0.003000,0.084000,FlatInitial
12:13:18.361 PM 02/13/2016,Teleop Enabled,0,FALSE,0,NO ERROR,0.000000,0.000000,4000.000000,4000.000000,Speed,Speed,-0.100000,1.110000,2.840000,3.000000,103.000000,1,0,-0.005022,-0.003968,0,0.000000,0.000000,0.000000,-0.436295,0.736084,0.000000,0.007000,0.010000,-0.018000,FlatInitial
12:13:18.461 PM 02/13/2016,Teleop Enabled,0,FALSE,0,NO ERROR,0.000000,0.000000,4000.000000,4000.000000,Speed,Speed,-0.110000,1.110000,2.830000,3.000000,102.000000,1,0,-0.005022,-0.003968,0,0.000000,0.000000,0.000000,-0.436295,0.736084,0.000000,0.005000,0.006000,-0.022000,FlatInitial
12:13:18.562 PM 02/13/2016,Teleop Enabled,0,FALSE,0,NO ERROR,0.000000,0.000000,4000.000000,4000.000000,Speed,Speed,-0.110000,1.100000,2.870000,3.000000,101.000000,1,0,-0.005022,-0.003968,0,0.000000,0.000000,0.000000,-0.436295,0.736084,0.000000,-0.004000,0.010000,-0.010000,FlatInitial
12:13:18.663 PM 02/13/2016,Teleop Enabled,0,FALSE,0,NO ERROR,0.000000,0.000000,4000.000000,4000.000000,Speed,Speed,-0.110000,1.100000,2.860000,3.000000,101.000000,1,0,-0.005022,-0.003968,0,0.000000,0.000000,0.000000,-0.436295,0.736084,0.000000,0.007000,0.006000,-0.011000,FlatInitial
12:13:18.763 PM 02/13/2016,Teleop Enabled,0,FALSE,0,NO ERROR,0.000000,0.000000,4000.000000,4000.000000,Speed,Speed,-0.110000,1.100000,2.860000,3.000000,104.000000,1,0,-0.005022,-0.003968,0,0.000000,0.000000,0.000000,-0.436295,0.736084,0.000000,0.000000,0.002000,-0.018000,FlatInitial
12:13:18.864 PM 02/13/2016,Teleop Enabled,0,FALSE,0,NO ERROR,0.000000,0.000000,4000.000000,4000.000000,Speed,Speed,-0.110000,1.110000,2.860000,3.000000,102.000000,1,0,-0.005022,-0.003968,0,0.000000,0.000000,0.000000,-0.436295,0.736084,0.000000,0.000000,0.002000,-0.007000,FlatInitial
12:13:18.963 PM 02/13/2016,Teleop Enabled,0,FALSE,0,NO ERROR,0.000000,0.000000,4000.000000,4000.000000,Speed,Speed,-0.110000,1.110000,2.860000,3.000000,102.000000,1,0,-0.005022,-0.003968,0,0.000000,0.000000,0.000000,-0.436295,0.736084,0.000000,-0.001000,0.000000,-0.002000,FlatInitial
12:13:19.063 PM 02/13/2016,Teleop Enabled,0,FALSE,0,NO ERROR,0.000000,0.000000,4000.000000,4000.000000,Speed,Speed,-0.110000,1.110000,2.860000,3.000000,101.000000,1,0,-0.005022,-0.003968,0,0.000000,0.000000,0.000000,-0.436295,0.736084,0.000000,-0.002000,-0.005000,0.006000,FlatInitial
12:13:19.164 PM 02/13/2016,Teleop Enabled,0,FALSE,0,NO ERROR,0.000000,0.000000,4000.000000,4000.000000,Speed,Speed,-0.110000,1.110000,2.860000,3.000000,102.000000,1,0,-0.005022,-0.003968,0,0.000000,0.000000,0.000000,-0.436295,0.736084,0.000000,-0.002000,0.000000,0.004000,FlatInitial
12:13:19.264 PM 02/13/2016,Teleop Enabled,0,FALSE,0,NO ERROR,0.000000,0.000000,4000.000000,4000.000000,Speed,Speed,-0.110000,1.110000,2.860000,3.000000,101.000000,1,0,-0.005022,-0.003968,0,0.000000,0.000000,0.000000,-0.436295,0.736084,0.000000,0.000000,0.001000,0.003000,FlatInitial
12:13:19.366 PM 02/13/2016,Teleop Enabled,0,FALSE,0,NO ERROR,0.000000,0.000000,4000.000000,4000.000000,Speed,Speed,-0.100000,1.110000,2.870000,3.000000,102.000000,1,0,-0.005022,-0.003968,0,0.000000,0.000000,0.000000,-0.436295,0.736084,0.000000,0.015000,0.004000,-0.099000,FlatInitial
12:13:19.466 PM 02/13/2016,Teleop Enabled,0,FALSE,0,NO ERROR,0.000000,0.000000,4000.000000,4000.000000,Speed,Speed,-0.110000,1.110000,2.860000,3.000000,101.000000,1,0,-0.005022,-0.003968,0,0.006012,0.000000,0.000000,-0.436188,0.736084,0.000000,-0.015000,0.013000,-0.027000,FlatInitial
12:13:19.566 PM 02/13/2016,Teleop Enabled,0,FALSE,0,NO ERROR,0.000000,0.000000,4000.000000,4000.000000,Speed,Speed,-0.110000,1.110000,2.870000,3.000000,101.000000,1,0,-0.005022,-0.003968,0,0.000000,0.000000,0.000000,-0.436142,0.736084,0.000000,-0.004000,0.000000,0.009000,FlatInitial
12:13:19.666 PM 02/13/2016,Teleop Enabled,0,FALSE,0,NO ERROR,0.000000,0.000000,4000.000000,4000.000000,Speed,Speed,-0.110000,1.110000,2.870000,3.000000,101.000000,1,0,-0.005022,-0.003968,0,0.000000,0.000000,0.000000,-0.436142,0.736084,0.000000,0.006000,0.004000,0.007000,FlatInitial
12:13:19.766 PM 02/13/2016,Teleop Enabled,0,FALSE,0,NO ERROR,0.000000,0.000000,4000.000000,4000.000000,Speed,Speed,-0.110000,1.110000,2.860000,3.000000,103.000000,1,0,-0.005022,-0.003968,0,0.000000,0.000000,0.000000,-0.436142,0.736084,0.000000,-0.002000,-0.001000,-0.015000,FlatInitial
12:13:19.865 PM 02/13/2016,Teleop Enabled,0,FALSE,0,NO ERROR,0.000000,0.000000,4000.000000,4000.000000,Speed,Speed,-0.110000,1.110000,2.860000,3.000000,102.000000,1,0,-0.005022,-0.003968,0,0.000000,0.000000,0.000000,-0.436142,0.736084,0.000000,-0.003000,0.005000,-0.002000,FlatInitial
12:13:19.966 PM 02/13/2016,Teleop Enabled,0,FALSE,0,NO ERROR,0.000000,0.000000,4000.000000,4000.000000,Speed,Speed,-0.110000,1.100000,2.860000,3.000000,104.000000,1,0,-0.005022,-0.003968,0,0.000000,0.000000,0.000000,-0.436142,0.736084,0.000000,0.000000,0.000000,0.001000,FlatInitial
12:13:20.067 PM 02/13/2016,Teleop Enabled,0,FALSE,0,NO ERROR,0.000000,0.000000,4000.000000,4000.000000,Speed,Speed,-0.110000,1.100000,2.860000,3.000000,100.000000,1,0,-0.005022,-0.003968,0,0.000000,0.000000,0.000000,-0.436142,0.736084,0.000000,0.001000,-0.005000,-0.002000,FlatInitial
12:13:20.166 PM 02/13/2016,Teleop Enabled,0,FALSE,0,NO ERROR,0.000000,0.000000,4000.000000,4000.000000,Speed,Speed,-0.110000,1.100000,2.860000,3.000000,101.000000,1,0,-0.005022,-0.003968,0,0.000000,0.000000,0.000000,-0.436142,0.736084,0.000000,-0.001000,0.000000,0.000000,FlatInitial
12:13:20.268 PM 02/13/2016,Teleop Enabled,0,FALSE,0,NO ERROR,0.000000,0.000000,4000.000000,4000.000000,Speed,Speed,-0.110000,1.100000,2.860000,3.000000,101.000000,1,0,-0.005022,-0.003968,0,0.000000,0.000000,0.000000,-0.436142,0.736084,0.000000,-0.002000,0.001000,0.000000,FlatInitial
12:13:20.368 PM 02/13/2016,Teleop Enabled,0,FALSE,0,NO ERROR,0.000000,0.000000,4000.000000,4000.000000,Speed,Speed,-0.110000,1.110000,2.860000,3.000000,101.000000,1,0,-0.005022,-0.003968,0,0.000000,0.000000,0.000000,-0.436142,0.736084,0.000000,-0.002000,0.001000,0.000000,FlatInitial
12:13:20.468 PM 02/13/2016,Teleop Enabled,0,FALSE,0,NO ERROR,0.000000,0.000000,4000.000000,4000.000000,Speed,Speed,-0.110000,1.110000,2.870000,3.000000,101.000000,1,0,-0.005022,-0.003968,0,0.000000,0.000000,0.000000,-0.436142,0.736084,0.000000,0.000000,0.000000,0.003000,FlatInitial
12:13:20.569 PM 02/13/2016,Teleop Enabled,0,FALSE,0,NO ERROR,0.000000,0.000000,4000.000000,4000.000000,Speed,Speed,-0.110000,1.110000,2.870000,3.000000,101.000000,1,0,-0.005022,-0.003968,0,0.000000,0.000000,0.000000,-0.436142,0.736084,0.000000,-0.001000,-0.003000,0.002000,FlatInitial
12:13:20.670 PM 02/13/2016,Teleop Enabled,0,FALSE,0,NO ERROR,0.000000,0.000000,4000.000000,4000.000000,Speed,Speed,-0.110000,1.110000,2.860000,3.000000,104.000000,1,0,-0.005022,-0.003968,0,0.000000,0.000000,0.000000,-0.436142,0.736084,0.000000,0.001000,0.000000,0.003000,FlatInitial
12:13:20.771 PM 02/13/2016,Teleop Enabled,0,FALSE,0,NO ERROR,0.000000,0.000000,4000.000000,4000.000000,Speed,Speed,-0.110000,1.120000,2.870000,3.000000,101.000000,1,0,-0.005022,-0.003968,0,0.000000,0.000000,0.000000,-0.436142,0.736084,0.000000,0.000000,0.000000,0.001000,FlatInitial
12:13:20.872 PM 02/13/2016,Teleop Enabled,0,FALSE,0,NO ERROR,0.000000,0.000000,4000.000000,4000.000000,Speed,Speed,-0.110000,1.110000,2.870000,3.000000,102.000000,1,0,-0.005022,-0.003968,0,0.000000,0.000000,0.000000,-0.436142,0.736084,0.000000,0.001000,0.000000,0.004000,FlatInitial
12:13:20.971 PM 02/13/2016,Teleop Enabled,0,FALSE,0,NO ERROR,0.000000,0.000000,4000.000000,4000.000000,Speed,Speed,-0.110000,1.120000,2.870000,3.000000,101.000000,1,0,-0.005022,-0.003968,0,0.000000,0.000000,0.000000,-0.436142,0.736084,0.000000,0.001000,0.000000,0.004000,FlatInitial
12:13:21.071 PM 02/13/2016,Teleop Enabled,0,FALSE,0,NO ERROR,0.000000,0.000000,4000.000000,4000.000000,Speed,Speed,-0.120000,1.120000,2.870000,3.000000,106.000000,1,0,-0.005022,-0.003968,0,0.000000,0.000000,0.000000,-0.436142,0.736084,0.000000,-0.001000,0.000000,0.002000,FlatInitial
12:13:21.171 PM 02/13/2016,Teleop Enabled,0,FALSE,0,NO ERROR,0.000000,0.000000,4000.000000,4000.000000,Speed,Speed,-0.120000,1.120000,2.870000,3.000000,100.000000,1,0,-0.005022,-0.003968,0,0.000000,0.000000,0.000000,-0.436142,0.736084,0.000000,-0.001000,0.000000,0.002000,FlatInitial
12:13:21.271 PM 02/13/2016,Teleop Enabled,0,FALSE,0,NO ERROR,0.000000,0.000000,4000.000000,4000.000000,Speed,Speed,-0.120000,1.120000,2.870000,3.000000,101.000000,1,0,-0.005022,-0.003968,0,0.000000,0.000000,0.000000,-0.436142,0.736084,0.000000,0.001000,0.000000,0.000000,FlatInitial
12:13:21.372 PM 02/13/2016,Teleop Enabled,0,FALSE,0,NO ERROR,0.000000,0.000000,4000.000000,4000.000000,Speed,Speed,-0.120000,1.120000,2.870000,3.000000,101.000000,1,0,-0.005022,-0.003968,0,0.000000,0.000000,0.000000,-0.436142,0.736084,0.000000,-0.003000,0.002000,-0.002000,FlatInitial
12:13:21.473 PM 02/13/2016,Teleop Enabled,0,FALSE,0,NO ERROR,0.000000,0.000000,4000.000000,4000.000000,Speed,Speed,-0.120000,1.110000,2.860000,3.000000,101.000000,1,0,-0.005022,-0.003968,0,0.000000,0.000000,0.000000,-0.436142,0.736084,0.000000,-0.001000,0.004000,0.000000,FlatInitial
12:13:21.575 PM 02/13/2016,Teleop Enabled,0,FALSE,0,NO ERROR,0.000000,0.000000,4000.000000,4000.000000,Speed,Speed,-0.120000,1.110000,2.860000,3.000000,104.000000,1,0,-0.005022,-0.003968,0,0.000000,0.000000,0.000000,-0.436142,0.736084,0.000000,0.000000,0.000000,0.002000,FlatInitial
12:13:21.676 PM 02/13/2016,Teleop Enabled,0,FALSE,0,NO ERROR,0.000000,0.000000,4000.000000,4000.000000,Speed,Speed,-0.120000,1.110000,2.860000,3.000000,102.000000,1,0,-0.005022,-0.003968,0,0.000000,0.000000,0.000000,-0.436142,0.736084,0.000000,0.000000,0.000000,-0.003000,FlatInitial
12:13:21.775 PM 02/13/2016,Teleop Enabled,0,FALSE,0,NO ERROR,0.000000,0.000000,4000.000000,4000.000000,Speed,Speed,-0.120000,1.120000,2.860000,3.000000,101.000000,1,0,-0.005022,-0.003968,0,0.000000,0.000000,0.000000,-0.436142,0.736084,0.000000,0.000000,-0.001000,0.003000,FlatInitial
12:13:21.876 PM 02/13/2016,Teleop Enabled,0,FALSE,0,NO ERROR,0.000000,0.000000,4000.000000,4000.000000,Speed,Speed,-0.120000,1.120000,2.860000,3.000000,103.000000,1,0,-0.005022,-0.003968,0,0.000000,0.000000,0.000000,-0.436142,0.736084,0.000000,0.000000,-0.001000,0.003000,FlatInitial
12:13:21.976 PM 02/13/2016,Teleop Enabled,0,FALSE,0,NO ERROR,0.000000,0.000000,4000.000000,4000.000000,Speed,Speed,-0.120000,1.110000,2.860000,3.000000,103.000000,1,0,-0.005022,-0.003968,0,0.000000,0.000000,0.000000,-0.436142,0.736084,0.000000,0.001000,0.001000,-0.003000,FlatInitial
12:13:22.076 PM 02/13/2016,Teleop Enabled,0,FALSE,0,NO ERROR,0.000000,0.000000,4000.000000,4000.000000,Speed,Speed,-0.120000,1.110000,2.860000,3.000000,103.000000,1,0,-0.005022,-0.003968,0,0.000000,0.000000,0.000000,-0.436142,0.736084,0.000000,0.001000,0.001000,-0.003000,FlatInitial
12:13:22.177 PM 02/13/2016,Teleop Enabled,0,FALSE,0,NO ERROR,0.000000,0.000000,4000.000000,4000.000000,Speed,Speed,-0.120000,1.110000,2.860000,3.000000,102.000000,1,0,-0.005022,-0.003968,0,0.000000,0.000000,0.000000,-0.436142,0.736084,0.000000,0.001000,0.000000,0.004000,FlatInitial
12:13:22.277 PM 02/13/2016,Teleop Enabled,0,FALSE,0,NO ERROR,0.000000,0.000000,4000.000000,4000.000000,Speed,Speed,-0.120000,1.120000,2.850000,3.000000,101.000000,1,0,-0.005022,-0.003968,0,0.000000,0.000000,0.000000,-0.436142,0.736084,0.000000,0.000000,0.002000,0.001000,FlatInitial
12:13:22.378 PM 02/13/2016,Teleop Enabled,0,FALSE,0,NO ERROR,0.000000,0.000000,4000.000000,4000.000000,Speed,Speed,-0.120000,1.120000,2.850000,3.000000,101.000000,1,0,-0.005022,-0.003968,0,0.000000,0.000000,0.000000,-0.436142,0.736084,0.000000,0.000000,0.000000,0.000000,FlatInitial
12:13:22.479 PM 02/13/2016,Teleop Enabled,0,FALSE,0,NO ERROR,0.000000,0.000000,4000.000000,4000.000000,Speed,Speed,-0.130000,1.120000,2.850000,3.000000,104.000000,1,0,-0.005022,-0.003968,0,0.000000,0.000000,0.000000,-0.436142,0.736084,0.000000,0.000000,0.001000,0.005000,FlatInitial
12:13:22.579 PM 02/13/2016,Teleop Enabled,0,FALSE,0,NO ERROR,0.000000,0.000000,4000.000000,4000.000000,Speed,Speed,-0.130000,1.120000,2.850000,3.000000,104.000000,1,0,-0.005022,-0.003968,0,0.000000,0.000000,0.000000,-0.436142,0.736084,0.000000,0.000000,0.000000,0.000000,FlatInitial
12:13:22.679 PM 02/13/2016,Teleop Enabled,0,FALSE,0,NO ERROR,0.000000,0.000000,4000.000000,4000.000000,Speed,Speed,-0.130000,1.110000,2.860000,3.000000,101.000000,1,0,-0.005022,-0.003968,0,0.000000,0.000000,0.000000,-0.436142,0.736084,0.000000,-0.003000,-0.001000,0.002000,FlatInitial
12:13:22.779 PM 02/13/2016,Teleop Enabled,0,FALSE,0,NO ERROR,0.000000,0.000000,4000.000000,4000.000000,Speed,Speed,-0.140000,1.110000,2.860000,3.000000,101.000000,1,0,-0.005022,-0.003968,0,0.000000,0.000000,0.000000,-0.436142,0.736084,0.000000,0.000000,0.000000,0.002000,FlatInitial
12:13:22.879 PM 02/13/2016,Teleop Enabled,0,FALSE,0,NO ERROR,0.000000,0.000000,4000.000000,4000.000000,Speed,Speed,-0.140000,1.110000,2.860000,3.000000,101.000000,1,0,-0.005022,-0.003968,0,0.000000,0.000000,0.000000,-0.436142,0.736084,0.000000,0.001000,0.000000,0.004000,FlatInitial
12:13:22.980 PM 02/13/2016,Teleop Enabled,0,FALSE,0,NO ERROR,0.000000,0.000000,4000.000000,4000.000000,Speed,Speed,-0.140000,1.110000,2.860000,3.000000,101.000000,1,0,-0.005022,-0.003968,0,0.000000,0.000000,0.000000,-0.436142,0.736084,0.000000,0.004000,-0.002000,0.001000,FlatInitial
12:13:23.081 PM 02/13/2016,Teleop Enabled,0,FALSE,0,NO ERROR,0.000000,0.000000,4000.000000,4000.000000,Speed,Speed,-0.140000,1.120000,2.860000,3.000000,102.000000,1,0,-0.005022,-0.003968,0,0.000000,0.000000,0.000000,-0.436142,0.736084,0.000000,-0.001000,0.000000,0.000000,FlatInitial
12:13:23.182 PM 02/13/2016,Teleop Enabled,0,FALSE,0,NO ERROR,0.000000,0.000000,4000.000000,4000.000000,Speed,Speed,-0.140000,1.110000,2.860000,3.000000,102.000000,1,0,-0.005022,-0.003968,0,0.000000,0.000000,0.000000,-0.436142,0.736084,0.000000,0.002000,0.000000,0.000000,FlatInitial
12:13:23.283 PM 02/13/2016,Teleop Enabled,0,FALSE,0,NO ERROR,0.000000,0.000000,4000.000000,4000.000000,Speed,Speed,-0.140000,1.110000,2.860000,3.000000,103.000000,1,0,-0.005022,-0.003968,0,0.000000,0.000000,0.000000,-0.436142,0.736084,0.000000,0.000000,0.001000,0.000000,FlatInitial
12:13:23.384 PM 02/13/2016,Teleop Enabled,0,FALSE,0,NO ERROR,0.000000,0.000000,4000.000000,4000.000000,Speed,Speed,-0.140000,1.110000,2.860000,3.000000,103.000000,1,0,-0.005022,-0.003968,0,0.000000,0.000000,0.000000,-0.436142,0.736084,0.000000,0.002000,0.000000,0.000000,FlatInitial
12:13:23.485 PM 02/13/2016,Teleop Enabled,0,FALSE,0,NO ERROR,0.000000,0.000000,4000.000000,4000.000000,Speed,Speed,-0.140000,1.110000,2.860000,3.000000,102.000000,1,0,-0.005022,-0.003968,0,0.000000,0.000000,0.000000,-0.436142,0.736084,0.000000,0.001000,-0.001000,0.000000,FlatInitial
12:13:23.586 PM 02/13/2016,Teleop Enabled,0,FALSE,0,NO ERROR,0.000000,0.000000,4000.000000,4000.000000,Speed,Speed,-0.140000,1.110000,2.860000,3.000000,101.000000,1,0,-0.005022,-0.003968,0,0.000000,0.000000,0.000000,-0.436142,0.736084,0.000000,0.001000,-0.002000,0.004000,FlatInitial
12:13:23.686 PM 02/13/2016,Teleop Enabled,0,FALSE,0,NO ERROR,0.000000,0.000000,4000.000000,4000.000000,Speed,Speed,-0.140000,1.110000,2.860000,3.000000,102.000000,1,0,-0.005022,-0.003968,0,0.000000,0.000000,0.000000,-0.436142,0.736084,0.000000,-0.002000,0.000000,0.000000,FlatInitial
12:13:23.787 PM 02/13/2016,Teleop Enabled,0,FALSE,0,NO ERROR,0.000000,0.000000,4000.000000,4000.000000,Speed,Speed,-0.150000,1.110000,2.850000,3.000000,101.000000,1,0,-0.005022,-0.003968,0,0.000000,0.000000,0.000000,-0.436142,0.736084,0.000000,0.000000,0.000000,0.001000,FlatInitial
12:13:23.888 PM 02/13/2016,Teleop Enabled,0,FALSE,0,NO ERROR,0.000000,0.000000,4000.000000,4000.000000,Speed,Speed,-0.150000,1.120000,2.850000,3.000000,102.000000,1,0,-0.005022,-0.003968,0,0.000000,0.000000,0.000000,-0.436142,0.736084,0.000000,0.000000,0.000000,0.000000,FlatInitial
12:13:23.989 PM 02/13/2016,Teleop Enabled,0,FALSE,0,NO ERROR,0.000000,0.000000,4000.000000,4000.000000,Speed,Speed,-0.150000,1.110000,2.860000,3.000000,103.000000,1,0,-0.005022,-0.003968,0,0.000000,0.000000,0.000000,-0.436142,0.736084,0.000000,0.001000,0.001000,0.001000,FlatInitial
12:13:24.090 PM 02/13/2016,Teleop Enabled,0,FALSE,0,NO ERROR,0.000000,0.000000,4000.000000,4000.000000,Speed,Speed,-0.150000,1.120000,2.850000,3.000000,101.000000,1,0,-0.005022,-0.003968,0,0.000000,0.000000,0.000000,-0.436142,0.736084,0.000000,-0.003000,0.002000,0.002000,FlatInitial
12:13:24.190 PM 02/13/2016,Teleop Enabled,0,FALSE,0,NO ERROR,0.000000,0.000000,4000.000000,4000.000000,Speed,Speed,-0.150000,1.110000,2.860000,3.000000,105.000000,1,0,-0.005022,-0.003968,0,0.000000,0.000000,0.000000,-0.436142,0.736084,0.000000,-0.001000,0.001000,0.000000,FlatInitial
12:13:24.291 PM 02/13/2016,Teleop Enabled,0,FALSE,0,NO ERROR,0.000000,0.000000,4000.000000,4000.000000,Speed,Speed,-0.150000,1.120000,2.850000,3.000000,101.000000,1,0,-0.005022,-0.003968,0,0.000000,0.000000,0.000000,-0.436142,0.736084,0.000000,0.000000,0.001000,-0.003000,FlatInitial
12:13:24.391 PM 02/13/2016,Teleop Enabled,0,FALSE,0,NO ERROR,0.000000,0.000000,4000.000000,4000.000000,Speed,Speed,-0.160000,1.110000,2.860000,3.000000,103.000000,1,0,-0.005022,-0.003968,0,0.000000,0.000000,0.000000,-0.436142,0.736084,0.000000,0.001000,0.000000,0.000000,FlatInitial
12:13:24.491 PM 02/13/2016,Teleop Enabled,0,FALSE,0,NO ERROR,0.000000,0.000000,4000.000000,4000.000000,Speed,Speed,-0.160000,1.110000,2.850000,3.000000,100.000000,1,0,-0.005022,-0.003968,0,0.000000,0.000000,0.000000,-0.436142,0.736084,0.000000,-0.001000,-0.002000,0.002000,FlatInitial
12:13:24.593 PM 02/13/2016,Teleop Enabled,0,FALSE,0,NO ERROR,0.000000,0.000000,4000.000000,4000.000000,Speed,Speed,-0.160000,1.110000,2.840000,3.000000,100.000000,1,0,-0.005022,-0.003968,0,0.000000,0.000000,0.000000,-0.436142,0.736084,0.000000,0.004000,0.003000,0.000000,FlatInitial
12:13:24.692 PM 02/13/2016,Teleop Enabled,0,FALSE,0,NO ERROR,0.000000,0.000000,4000.000000,4000.000000,Speed,Speed,-0.160000,1.110000,2.850000,3.000000,100.000000,1,0,-0.005022,-0.003968,0,0.000000,0.000000,0.000000,-0.436142,0.736084,0.000000,-0.002000,-0.002000,0.004000,FlatInitial
12:13:24.793 PM 02/13/2016,Teleop Enabled,0,FALSE,0,NO ERROR,0.000000,0.000000,4000.000000,4000.000000,Speed,Speed,-0.160000,1.110000,2.850000,3.000000,102.000000,1,0,-0.005022,-0.003968,0,0.000000,0.000000,0.000000,-0.436142,0.736084,0.000000,0.000000,0.000000,0.004000,FlatInitial
12:13:24.893 PM 02/13/2016,Teleop Enabled,0,FALSE,0,NO ERROR,0.000000,0.000000,4000.000000,4000.000000,Speed,Speed,-0.170000,1.110000,2.850000,3.000000,101.000000,1,0,-0.005022,-0.003968,0,0.000000,0.000000,0.000000,-0.436142,0.736084,0.000000,-0.011000,-0.004000,0.000000,FlatInitial
12:13:24.993 PM 02/13/2016,Teleop Enabled,0,FALSE,0,NO ERROR,0.000000,0.000000,4000.000000,4000.000000,Speed,Speed,-0.140000,1.120000,2.820000,3.000000,101.000000,1,0,-0.005022,-0.003968,0,-0.010025,-0.042938,0.000000,-0.435959,0.735168,0.000000,0.019000,-0.034000,-0.451000,FlatInitial
12:13:25.094 PM 02/13/2016,Teleop Enabled,0,FALSE,0,NO ERROR,0.000000,0.000000,4000.000000,4000.000000,Speed,Speed,-0.150000,1.120000,2.990000,3.000000,102.000000,1,0,-0.005022,-0.003968,0,-0.038010,-0.000412,0.000000,-0.437866,0.734192,0.000000,-0.097000,-0.035000,-0.004000,FlatInitial
12:13:25.195 PM 02/13/2016,Teleop Enabled,0,FALSE,0,NO ERROR,0.000000,0.000000,4000.000000,4000.000000,Speed,Speed,-0.150000,1.090000,2.980000,3.000000,101.000000,1,0,-0.005022,-0.003968,0,-0.058914,0.004196,0.000000,-0.441193,0.734589,0.000000,0.050000,0.023000,-0.163000,FlatInitial
12:13:25.296 PM 02/13/2016,Teleop Enabled,0,FALSE,0,NO ERROR,0.000000,0.000000,4000.000000,4000.000000,Speed,Speed,-0.260000,1.140000,3.040000,3.000000,101.000000,1,0,-0.005022,-0.003968,0,-0.072556,0.041428,0.000000,-0.444427,0.735962,0.000000,-0.135000,0.006000,-0.045000,FlatInitial
12:13:25.396 PM 02/13/2016,Teleop Enabled,0,FALSE,0,NO ERROR,0.000000,0.000000,4000.000000,4000.000000,Speed,Speed,-0.110000,1.020000,2.070000,3.000000,103.000000,1,0,-0.005022,-0.003968,0,-0.085266,0.032440,0.000000,-0.448212,0.738586,0.000000,0.020000,-0.009000,-0.259000,FlatInitial
12:13:25.496 PM 02/13/2016,Teleop Enabled,0,FALSE,0,NO ERROR,0.000000,0.000000,4000.000000,4000.000000,Speed,Speed,-0.310000,1.120000,0.960000,3.000000,101.000000,1,0,-0.005022,-0.003968,0,-0.087097,-0.001007,0.000000,-0.452774,0.739029,0.000000,0.030000,-0.195000,-0.389000,FlatInitial
12:13:25.597 PM 02/13/2016,Teleop Enabled,0,FALSE,0,NO ERROR,0.000000,0.000000,4000.000000,4000.000000,Speed,Speed,-0.420000,1.040000,2.410000,3.000000,102.000000,1,0,-0.005022,-0.003968,0,-0.167221,-0.042007,0.000000,-0.458771,0.737976,0.000000,0.180000,0.225000,0.237000,FlatInitial
12:13:25.697 PM 02/13/2016,Teleop Enabled,0,FALSE,0,NO ERROR,0.000000,0.000000,4000.000000,4000.000000,Speed,Speed,-0.360000,1.010000,1.750000,3.000000,104.000000,1,0,-0.005022,-0.003968,0,0.000000,-0.092972,0.000000,-0.464874,0.733521,0.000000,0.019000,0.257000,-0.204000,FlatInitial
12:13:25.798 PM 02/13/2016,Teleop Enabled,0,FALSE,0,NO ERROR,0.000000,0.000000,4000.000000,4000.000000,Speed,Speed,-0.150000,1.090000,2.880000,3.000000,102.000000,1,0,-0.005022,-0.003968,0,-0.040329,0.001984,0.000000,-0.466568,0.733231,0.000000,-0.079000,-0.018000,0.267000,FlatInitial
12:13:25.898 PM 02/13/2016,Teleop Enabled,0,FALSE,0,NO ERROR,0.000000,0.000000,4000.000000,4000.000000,Speed,Speed,-0.210000,1.090000,2.690000,3.000000,101.000000,1,0,-0.005022,-0.003968,0,-0.013626,0.062683,0.000000,-0.467667,0.735352,0.000000,-0.053000,-0.022000,0.077000,FlatInitial
12:13:25.999 PM 02/13/2016,Teleop Enabled,0,FALSE,0,NO ERROR,0.000000,0.000000,4000.000000,4000.000000,Speed,Speed,-0.350000,1.070000,2.630000,3.000000,101.000000,1,0,-0.005022,-0.003968,0,-0.018433,0.043106,0.000000,-0.468506,0.738007,0.000000,0.016000,-0.011000,-0.020000,FlatInitial
12:13:26.099 PM 02/13/2016,Teleop Enabled,0,FALSE,0,NO ERROR,0.000000,0.000000,4000.000000,4000.000000,Speed,Speed,-0.240000,1.060000,2.580000,3.000000,100.000000,1,0,-0.005022,-0.003968,0,0.000000,-0.014771,0.000000,-0.468674,0.737747,0.000000,0.019000,-0.041000,-0.004000,FlatInitial
12:13:26.200 PM 02/13/2016,Teleop Enabled,0,FALSE,0,NO ERROR,0.000000,0.000000,4000.000000,4000.000000,Speed,Speed,-0.260000,1.090000,2.440000,3.000000,102.000000,1,0,-0.005022,-0.003968,0,0.000000,0.000000,0.000000,-0.468689,0.736603,0.000000,0.013000,0.007000,-0.020000,FlatInitial
12:13:26.300 PM 02/13/2016,Teleop Enabled,0,FALSE,0,NO ERROR,0.000000,0.000000,4000.000000,4000.000000,Speed,Speed,-0.350000,1.100000,2.530000,3.000000,101.000000,1,0,-0.005022,-0.003968,0,0.000000,0.000000,0.000000,-0.468689,0.736603,0.000000,-0.005000,0.014000,0.018000,FlatInitial
12:13:26.401 PM 02/13/2016,Teleop Enabled,0,FALSE,0,NO ERROR,0.000000,0.000000,4000.000000,4000.000000,Speed,Speed,-0.290000,1.090000,2.620000,3.000000,102.000000,1,0,-0.005022,-0.003968,0,0.000000,0.014572,0.000000,-0.468689,0.737122,0.000000,0.002000,0.003000,0.002000,FlatInitial
12:13:26.501 PM 02/13/2016,Teleop Enabled,0,FALSE,0,NO ERROR,0.000000,0.000000,4000.000000,4000.000000,Speed,Speed,-0.320000,1.100000,2.610000,3.000000,102.000000,1,0,-0.005022,-0.003968,0,0.000000,0.000000,0.000000,-0.468689,0.737122,0.000000,-0.005000,0.003000,0.011000,FlatInitial
12:13:26.601 PM 02/13/2016,Teleop Enabled,0,FALSE,0,NO ERROR,0.000000,0.000000,4000.000000,4000.000000,Speed,Speed,-0.320000,1.090000,2.630000,3.000000,107.000000,1,0,-0.005022,-0.003968,0,0.000000,0.000000,0.000000,-0.468689,0.737122,0.000000,-0.002000,-0.006000,0.003000,FlatInitial
12:13:26.701 PM 02/13/2016,Teleop Enabled,0,FALSE,0,NO ERROR,0.000000,0.000000,4000.000000,4000.000000,Speed,Speed,-0.300000,1.100000,2.600000,3.000000,102.000000,1,0,-0.005022,-0.003968,0,0.000000,0.000000,0.000000,-0.468689,0.737122,0.000000,-0.001000,-0.004000,0.003000,FlatInitial
12:13:26.802 PM 02/13/2016,Teleop Enabled,0,FALSE,0,NO ERROR,0.000000,0.000000,4000.000000,4000.000000,Speed,Speed,-0.320000,1.110000,2.600000,3.000000,105.000000,1,0,-0.005022,-0.003968,0,0.000000,0.000000,0.000000,-0.468689,0.737122,0.000000,0.006000,0.002000,-0.005000,FlatInitial
12:13:26.902 PM 02/13/2016,Teleop Enabled,0,FALSE,0,NO ERROR,0.000000,0.000000,4000.000000,4000.000000,Speed,Speed,-0.310000,1.100000,2.630000,3.000000,101.000000,1,0,-0.005022,-0.003968,0,0.000000,0.000000,0.000000,-0.468689,0.737122,0.000000,0.000000,0.001000,0.002000,FlatInitial
12:13:27.002 PM 02/13/2016,Teleop Enabled,0,FALSE,0,NO ERROR,0.000000,0.000000,4000.000000,4000.000000,Speed,Speed,-0.320000,1.100000,2.630000,3.000000,102.000000,1,0,-0.005022,-0.003968,0,0.000000,0.000000,0.000000,-0.468689,0.737122,0.000000,0.000000,0.001000,0.000000,FlatInitial
12:13:27.103 PM 02/13/2016,Teleop Enabled,0,FALSE,0,NO ERROR,0.000000,0.000000,4000.000000,4000.000000,Speed,Speed,-0.320000,1.110000,2.640000,3.000000,103.000000,1,0,-0.005022,-0.003968,0,0.000000,0.000000,0.000000,-0.468689,0.737122,0.000000,0.003000,0.000000,0.001000,FlatInitial
12:13:27.203 PM 02/13/2016,Teleop Enabled,0,FALSE,0,NO ERROR,0.000000,0.000000,4000.000000,4000.000000,Speed,Speed,-0.310000,1.100000,2.640000,3.000000,101.000000,1,0,-0.005022,-0.003968,0,0.000000,0.000000,0.000000,-0.468689,0.737122,0.000000,0.001000,-0.001000,0.003000,FlatInitial
12:13:27.302 PM 02/13/2016,Teleop Enabled,0,FALSE,0,NO ERROR,0.000000,0.000000,4000.000000,4000.000000,Speed,Speed,-0.310000,1.110000,2.630000,3.000000,103.000000,1,0,-0.005022,-0.003968,0,0.000000,0.000000,0.000000,-0.468689,0.737122,0.000000,0.000000,0.002000,0.003000,FlatInitial
12:13:27.402 PM 02/13/2016,Teleop Enabled,0,FALSE,0,NO ERROR,0.000000,0.000000,4000.000000,4000.000000,Speed,Speed,-0.320000,1.110000,2.640000,3.000000,107.000000,1,0,-0.005022,-0.003968,0,0.000000,0.000000,0.000000,-0.468689,0.737122,0.000000,-0.001000,0.002000,0.001000,FlatInitial
12:13:27.503 PM 02/13/2016,Teleop Enabled,0,FALSE,0,NO ERROR,0.000000,0.000000,4000.000000,4000.000000,Speed,Speed,-0.320000,1.110000,2.640000,3.000000,101.000000,1,0,-0.005022,-0.003968,0,0.000000,0.000000,0.000000,-0.468689,0.737122,0.000000,0.000000,0.000000,0.001000,FlatInitial
12:13:27.604 PM 02/13/2016,Teleop Enabled,0,FALSE,0,NO ERROR,0.000000,0.000000,4000.000000,4000.000000,Speed,Speed,-0.320000,1.110000,2.640000,3.000000,102.000000,1,0,-0.005022,-0.003968,0,0.000000,0.000000,0.000000,-0.468689,0.737122,0.000000,0.000000,0.001000,0.002000,FlatInitial
12:13:27.704 PM 02/13/2016,Teleop Enabled,0,FALSE,0,NO ERROR,0.000000,0.000000,4000.000000,4000.000000,Speed,Speed,-0.320000,1.110000,2.640000,3.000000,103.000000,1,0,-0.005022,-0.003968,0,0.000000,0.000000,0.000000,-0.468689,0.737122,0.000000,0.000000,0.001000,0.003000,FlatInitial
12:13:27.805 PM 02/13/2016,Teleop Enabled,0,FALSE,0,NO ERROR,0.000000,0.000000,4000.000000,4000.000000,Speed,Speed,-0.320000,1.110000,2.640000,3.000000,102.000000,1,0,-0.005022,-0.003968,0,0.000000,0.000000,0.000000,-0.468689,0.737122,0.000000,0.000000,0.000000,-0.001000,FlatInitial
12:13:27.906 PM 02/13/2016,Teleop Enabled,0,FALSE,0,NO ERROR,0.000000,0.000000,4000.000000,4000.000000,Speed,Speed,-0.320000,1.110000,2.650000,3.000000,101.000000,1,0,-0.005022,-0.003968,0,0.000000,0.000000,0.000000,-0.468689,0.737122,0.000000,0.000000,0.000000,0.003000,FlatInitial
12:13:28.005 PM 02/13/2016,Teleop Enabled,0,FALSE,0,NO ERROR,0.000000,0.000000,4000.000000,4000.000000,Speed,Speed,-0.320000,1.110000,2.650000,3.000000,102.000000,1,0,-0.005022,-0.003968,0,0.000000,0.000000,0.000000,-0.468689,0.737122,0.000000,-0.001000,-0.004000,0.000000,FlatInitial
12:13:28.106 PM 02/13/2016,Teleop Enabled,0,FALSE,0,NO ERROR,0.000000,0.000000,4000.000000,4000.000000,Speed,Speed,-0.330000,1.120000,2.650000,3.000000,101.000000,1,0,-0.005022,-0.003968,0,0.000000,0.000000,0.000000,-0.468689,0.737122,0.000000,0.001000,0.002000,-0.003000,FlatInitial
12:13:28.210 PM 02/13/2016,Teleop Enabled,0,FALSE,0,NO ERROR,0.000000,0.000000,4000.000000,4000.000000,Speed,Speed,-0.320000,1.110000,2.650000,3.000000,106.000000,1,0,-0.005022,-0.003968,0,0.000000,0.000000,0.000000,-0.468689,0.737122,0.000000,0.000000,0.000000,0.000000,FlatInitial
12:13:28.311 PM 02/13/2016,Teleop Enabled,0,FALSE,0,NO ERROR,0.000000,0.000000,4000.000000,4000.000000,Speed,Speed,-0.330000,1.110000,2.660000,3.000000,101.000000,1,0,-0.005022,-0.003968,0,0.000000,0.000000,0.000000,-0.468689,0.737122,0.000000,0.001000,0.000000,0.003000,FlatInitial
12:13:28.410 PM 02/13/2016,Teleop Enabled,0,FALSE,0,NO ERROR,0.000000,0.000000,4000.000000,4000.000000,Speed,Speed,-0.320000,1.110000,2.660000,3.000000,101.000000,1,0,-0.005022,-0.003968,0,0.000000,0.000000,0.000000,-0.468689,0.737122,0.000000,0.000000,0.000000,-0.002000,FlatInitial
12:13:28.511 PM 02/13/2016,Teleop Enabled,0,FALSE,0,NO ERROR,0.000000,0.000000,4000.000000,4000.000000,Speed,Speed,-0.330000,1.110000,2.660000,3.000000,101.000000,1,0,-0.005022,-0.003968,0,0.000000,0.000000,0.000000,-0.468689,0.737122,0.000000,0.002000,0.000000,0.002000,FlatInitial
12:13:28.612 PM 02/13/2016,Teleop Enabled,0,FALSE,0,NO ERROR,0.000000,0.000000,4000.000000,4000.000000,Speed,Speed,-0.330000,1.110000,2.660000,3.000000,101.000000,1,0,-0.005022,-0.003968,0,0.000000,0.000000,0.000000,-0.468689,0.737122,0.000000,-0.002000,0.000000,0.001000,FlatInitial
12:13:28.713 PM 02/13/2016,Teleop Enabled,0,FALSE,0,NO ERROR,0.000000,0.000000,4000.000000,4000.000000,Speed,Speed,-0.330000,1.110000,2.660000,3.000000,104.000000,1,0,-0.005022,-0.003968,0,0.000000,0.000000,0.000000,-0.468689,0.737122,0.000000,0.000000,0.000000,0.001000,FlatInitial
12:13:28.812 PM 02/13/2016,Teleop Enabled,0,FALSE,0,NO ERROR,0.000000,0.000000,4000.000000,4000.000000,Speed,Speed,-0.330000,1.110000,2.660000,3.000000,100.000000,1,0,-0.005022,-0.003968,0,0.000000,0.000000,0.000000,-0.468689,0.737122,0.000000,-0.001000,-0.001000,0.000000,FlatInitial
12:13:28.912 PM 02/13/2016,Teleop Enabled,0,FALSE,0,NO ERROR,0.000000,0.000000,4000.000000,4000.000000,Speed,Speed,-0.330000,1.100000,2.670000,3.000000,102.000000,1,0,-0.005022,-0.003968,0,0.000000,0.000000,0.000000,-0.468689,0.737122,0.000000,0.000000,0.000000,0.001000,FlatInitial
12:13:29.015 PM 02/13/2016,Teleop Enabled,0,FALSE,0,NO ERROR,0.000000,0.000000,4000.000000,4000.000000,Speed,Speed,-0.330000,1.100000,2.660000,3.000000,104.000000,1,0,-0.005022,-0.003968,0,0.000000,0.000000,0.000000,-0.468689,0.737122,0.000000,-0.002000,0.001000,0.000000,FlatInitial
12:13:29.114 PM 02/13/2016,Teleop Enabled,0,FALSE,0,NO ERROR,0.000000,0.000000,4000.000000,4000.000000,Speed,Speed,-0.330000,1.110000,2.660000,3.000000,102.000000,1,0,-0.005022,-0.003968,0,0.000000,0.000000,0.000000,-0.468689,0.737122,0.000000,0.000000,0.000000,0.001000,FlatInitial
12:13:29.215 PM 02/13/2016,Teleop Enabled,0,FALSE,0,NO ERROR,0.000000,0.000000,4000.000000,4000.000000,Speed,Speed,-0.330000,1.110000,2.660000,3.000000,102.000000,1,0,-0.005022,-0.003968,0,0.000000,0.000000,0.000000,-0.468689,0.737122,0.000000,-0.001000,-0.001000,0.000000,FlatInitial
12:13:29.314 PM 02/13/2016,Teleop Enabled,0,FALSE,0,NO ERROR,0.000000,0.000000,4000.000000,4000.000000,Speed,Speed,-0.330000,1.110000,2.660000,3.000000,103.000000,1,0,-0.005022,-0.003968,0,0.000000,0.000000,0.000000,-0.468689,0.737122,0.000000,0.000000,-0.001000,0.002000,FlatInitial
12:13:29.416 PM 02/13/2016,Teleop Enabled,0,FALSE,0,NO ERROR,0.000000,0.000000,4000.000000,4000.000000,Speed,Speed,-0.330000,1.100000,2.660000,3.000000,101.000000,1,0,-0.005022,-0.003968,0,0.000000,0.000000,0.000000,-0.468689,0.737122,0.000000,-0.002000,0.001000,-0.001000,FlatInitial
12:13:29.516 PM 02/13/2016,Teleop Enabled,0,FALSE,0,NO ERROR,0.000000,0.000000,4000.000000,4000.000000,Speed,Speed,-0.330000,1.110000,2.660000,3.000000,103.000000,1,0,-0.005022,-0.003968,0,0.000000,0.000000,0.000000,-0.468689,0.737122,0.000000,0.000000,0.002000,0.000000,FlatInitial
12:13:29.616 PM 02/13/2016,Teleop Enabled,0,FALSE,0,NO ERROR,0.000000,0.000000,4000.000000,4000.000000,Speed,Speed,-0.330000,1.100000,2.660000,3.000000,103.000000,1,0,-0.005022,-0.003968,0,0.000000,0.000000,0.000000,-0.468689,0.737122,0.000000,0.000000,0.000000,0.000000,FlatInitial
12:13:29.717 PM 02/13/2016,Teleop Enabled,0,FALSE,0,NO ERROR,0.000000,0.000000,4000.000000,4000.000000,Speed,Speed,-0.340000,1.110000,2.660000,3.000000,102.000000,1,0,-0.005022,-0.003968,0,0.000000,0.000000,0.000000,-0.468689,0.737122,0.000000,0.001000,-0.002000,0.003000,FlatInitial
12:13:29.817 PM 02/13/2016,Teleop Enabled,0,FALSE,0,NO ERROR,0.000000,0.000000,4000.000000,4000.000000,Speed,Speed,-0.340000,1.110000,2.660000,3.000000,104.000000,1,0,-0.005022,-0.003968,0,0.000000,0.000000,0.000000,-0.468689,0.737122,0.000000,0.000000,-0.001000,0.002000,FlatInitial
12:13:29.917 PM 02/13/2016,Teleop Enabled,0,FALSE,0,NO ERROR,0.000000,0.000000,4000.000000,4000.000000,Speed,Speed,-0.340000,1.110000,2.660000,3.000000,102.000000,1,0,-0.005022,-0.003968,0,0.000000,0.000000,0.000000,-0.468689,0.737122,0.000000,0.000000,0.000000,0.001000,FlatInitial
12:13:30.017 PM 02/13/2016,Teleop Enabled,0,FALSE,0,NO ERROR,0.000000,0.000000,4000.000000,4000.000000,Speed,Speed,-0.340000,1.110000,2.660000,3.000000,104.000000,1,0,-0.005022,-0.003968,0,0.000000,0.000000,0.000000,-0.468689,0.737122,0.000000,-0.001000,0.000000,0.003000,FlatInitial
12:13:30.118 PM 02/13/2016,Teleop Enabled,0,FALSE,0,NO ERROR,0.000000,0.000000,4000.000000,4000.000000,Speed,Speed,-0.340000,1.110000,2.670000,3.000000,103.000000,1,0,-0.005022,-0.003968,0,0.000000,0.000000,0.000000,-0.468689,0.737122,0.000000,0.000000,0.003000,0.003000,FlatInitial
12:13:30.219 PM 02/13/2016,Teleop Enabled,0,FALSE,0,NO ERROR,0.000000,0.000000,4000.000000,4000.000000,Speed,Speed,-0.340000,1.120000,2.680000,3.000000,102.000000,1,0,-0.005022,-0.003968,0,0.000000,0.000000,0.000000,-0.468689,0.737122,0.000000,0.000000,-0.001000,0.000000,FlatInitial
12:13:30.318 PM 02/13/2016,Teleop Enabled,0,FALSE,0,NO ERROR,0.000000,0.000000,4000.000000,4000.000000,Speed,Speed,-0.340000,1.120000,2.680000,3.000000,100.000000,1,0,-0.005022,-0.003968,0,0.000000,0.000000,0.000000,-0.468689,0.737122,0.000000,-0.002000,0.000000,0.000000,FlatInitial
12:13:30.418 PM 02/13/2016,Teleop Enabled,0,FALSE,0,NO ERROR,0.000000,0.000000,4000.000000,4000.000000,Speed,Speed,-0.340000,1.120000,2.680000,3.000000,102.000000,1,0,-0.005022,-0.003968,0,0.000000,0.000000,0.000000,-0.468689,0.737122,0.000000,0.000000,0.000000,0.004000,FlatInitial
12:13:30.518 PM 02/13/2016,Teleop Enabled,0,FALSE,0,NO ERROR,0.000000,0.000000,4000.000000,4000.000000,Speed,Speed,-0.340000,1.110000,2.680000,3.000000,103.000000,1,0,-0.005022,-0.003968,0,0.000000,0.000000,0.000000,-0.468689,0.737122,0.000000,0.000000,0.000000,0.003000,FlatInitial
12:13:30.618 PM 02/13/2016,Teleop Enabled,0,FALSE,0,NO ERROR,0.000000,0.000000,4000.000000,4000.000000,Speed,Speed,-0.340000,1.110000,2.680000,3.000000,101.000000,1,0,-0.005022,-0.003968,0,0.000000,0.000000,0.000000,-0.468689,0.737122,0.000000,0.000000,-0.002000,0.005000,FlatInitial
12:13:30.719 PM 02/13/2016,Teleop Enabled,0,FALSE,0,NO ERROR,0.000000,0.000000,4000.000000,4000.000000,Speed,Speed,-0.350000,1.120000,2.680000,3.000000,103.000000,1,0,-0.005022,-0.003968,0,0.000000,0.000000,0.000000,-0.468689,0.737122,0.000000,-0.002000,0.000000,0.000000,FlatInitial
12:13:30.820 PM 02/13/2016,Teleop Enabled,0,FALSE,0,NO ERROR,0.000000,0.000000,4000.000000,4000.000000,Speed,Speed,-0.350000,1.110000,2.680000,3.000000,101.000000,1,0,-0.005022,-0.003968,0,0.000000,0.000000,0.000000,-0.468689,0.737122,0.000000,0.000000,0.000000,0.001000,FlatInitial
12:13:30.921 PM 02/13/2016,Teleop Enabled,0,FALSE,0,NO ERROR,0.000000,0.000000,4000.000000,4000.000000,Speed,Speed,-0.350000,1.110000,2.680000,3.000000,101.000000,1,0,-0.005022,-0.003968,0,0.000000,0.000000,0.000000,-0.468689,0.737122,0.000000,-0.002000,-0.004000,-0.001000,FlatInitial
12:13:31.022 PM 02/13/2016,Teleop Enabled,0,FALSE,0,NO ERROR,0.000000,0.000000,4000.000000,4000.000000,Speed,Speed,-0.350000,1.110000,2.680000,3.000000,101.000000,1,0,-0.005022,-0.003968,0,0.000000,0.000000,0.000000,-0.468689,0.737122,0.000000,0.000000,0.000000,0.002000,FlatInitial
12:13:31.123 PM 02/13/2016,Teleop Enabled,0,FALSE,0,NO ERROR,0.000000,0.000000,4000.000000,4000.000000,Speed,Speed,-0.350000,1.110000,2.680000,3.000000,105.000000,1,0,-0.005022,-0.003968,0,0.000000,0.000000,0.000000,-0.468689,0.737122,0.000000,0.000000,0.000000,-0.001000,FlatInitial
12:13:31.223 PM 02/13/2016,Teleop Enabled,0,FALSE,0,NO ERROR,0.000000,0.000000,4000.000000,4000.000000,Speed,Speed,-0.350000,1.110000,2.680000,3.000000,103.000000,1,0,-0.005022,-0.003968,0,0.000000,0.000000,0.000000,-0.468689,0.737122,0.000000,0.000000,0.002000,0.000000,FlatInitial
12:13:31.323 PM 02/13/2016,Teleop Enabled,0,FALSE,0,NO ERROR,0.000000,0.000000,4000.000000,4000.000000,Speed,Speed,-0.350000,1.120000,2.680000,3.000000,101.000000,1,0,-0.005022,-0.003968,0,0.000000,0.000000,0.000000,-0.468689,0.737122,0.000000,0.002000,-0.001000,0.000000,FlatInitial
12:13:31.424 PM 02/13/2016,Teleop Enabled,0,FALSE,0,NO ERROR,0.000000,0.000000,4000.000000,4000.000000,Speed,Speed,-0.350000,1.120000,2.680000,3.000000,101.000000,1,0,-0.005022,-0.003968,0,0.000000,0.000000,0.000000,-0.468689,0.737122,0.000000,-0.003000,0.000000,0.000000,FlatInitial
12:13:31.524 PM 02/13/2016,Teleop Enabled,0,FALSE,0,NO ERROR,0.000000,0.000000,4000.000000,4000.000000,Speed,Speed,-0.350000,1.110000,2.680000,3.000000,101.000000,1,0,-0.005022,-0.003968,0,0.000000,0.000000,0.000000,-0.468689,0.737122,0.000000,-0.001000,-0.001000,0.000000,FlatInitial
12:13:31.625 PM 02/13/2016,Teleop Enabled,0,FALSE,0,NO ERROR,0.000000,0.000000,4000.000000,4000.000000,Speed,Speed,-0.350000,1.120000,2.680000,3.000000,103.000000,1,0,-0.005022,-0.003968,0,0.000000,0.000000,0.000000,-0.468689,0.737122,0.000000,-0.001000,-0.002000,-0.001000,FlatInitial
12:13:31.725 PM 02/13/2016,Teleop Enabled,0,FALSE,0,NO ERROR,0.000000,0.000000,4000.000000,4000.000000,Speed,Speed,-0.350000,1.110000,2.680000,3.000000,100.000000,1,0,-0.005022,-0.003968,0,0.000000,0.000000,0.000000,-0.468689,0.737122,0.000000,-0.001000,-0.003000,0.001000,FlatInitial
12:13:31.825 PM 02/13/2016,Teleop Enabled,0,FALSE,0,NO ERROR,0.000000,0.000000,4000.000000,4000.000000,Speed,Speed,-0.350000,1.110000,2.680000,3.000000,101.000000,1,0,-0.005022,-0.003968,0,0.000000,0.000000,0.000000,-0.468689,0.737122,0.000000,0.000000,-0.002000,0.001000,FlatInitial
12:13:31.926 PM 02/13/2016,Teleop Enabled,0,FALSE,0,NO ERROR,0.000000,0.000000,4000.000000,4000.000000,Speed,Speed,-0.350000,1.120000,2.680000,3.000000,102.000000,1,0,-0.005022,-0.003968,0,0.000000,0.000000,0.000000,-0.468689,0.737122,0.000000,-0.002000,-0.002000,0.001000,FlatInitial
12:13:32.027 PM 02/13/2016,Teleop Enabled,0,FALSE,0,NO ERROR,0.000000,0.000000,4000.000000,4000.000000,Speed,Speed,-0.350000,1.120000,2.680000,3.000000,101.000000,1,0,-0.005022,-0.003968,0,0.000000,0.000000,0.000000,-0.468689,0.737122,0.000000,0.000000,0.000000,0.001000,FlatInitial
12:13:32.128 PM 02/13/2016,Teleop Enabled,0,FALSE,0,NO ERROR,0.000000,0.000000,4000.000000,4000.000000,Speed,Speed,-0.350000,1.120000,2.670000,3.000000,101.000000,1,0,-0.005022,-0.003968,0,0.000000,0.000000,0.000000,-0.468689,0.737122,0.000000,0.000000,0.001000,0.001000,FlatInitial
12:13:32.229 PM 02/13/2016,Teleop Enabled,0,FALSE,0,NO ERROR,0.000000,0.000000,4000.000000,4000.000000,Speed,Speed,-0.350000,1.120000,2.670000,3.000000,102.000000,1,0,-0.005022,-0.003968,0,0.000000,0.000000,0.000000,-0.468689,0.737122,0.000000,0.000000,0.000000,0.004000,FlatInitial
12:13:32.330 PM 02/13/2016,Teleop Enabled,0,FALSE,0,NO ERROR,0.000000,0.000000,4000.000000,4000.000000,Speed,Speed,-0.350000,1.110000,2.670000,3.000000,103.000000,1,0,-0.005022,-0.003968,0,0.000000,0.000000,0.000000,-0.468689,0.737122,0.000000,0.000000,-0.001000,0.000000,FlatInitial
12:13:32.430 PM 02/13/2016,Teleop Enabled,0,FALSE,0,NO ERROR,0.000000,0.000000,4000.000000,4000.000000,Speed,Speed,-0.360000,1.100000,2.140000,3.000000,101.000000,1,0,-0.005022,-0.003968,0,0.000351,-0.023941,0.000000,-0.468674,0.736633,0.000000,-0.049000,0.031000,0.169000,FlatInitial
12:13:32.531 PM 02/13/2016,Teleop Enabled,0,FALSE,0,NO ERROR,0.000000,0.000000,4000.000000,4000.000000,Speed,Speed,-0.040000,1.080000,1.300000,3.000000,102.000000,1,0,-0.005022,-0.003968,0,-0.004501,0.068253,0.000000,-0.469147,0.738007,0.000000,0.002000,0.138000,-0.056000,FlatInitial
12:13:32.632 PM 02/13/2016,Teleop Enabled,0,FALSE,0,NO ERROR,0.000000,0.000000,4000.000000,4000.000000,Speed,Speed,-0.270000,1.210000,2.870000,3.000000,100.000000,1,0,-0.005022,-0.003968,0,0.044891,0.101273,0.000000,-0.468094,0.743698,0.000000,-0.031000,-0.250000,0.285000,FlatInitial
12:13:32.731 PM 02/13/2016,Teleop Enabled,0,FALSE,0,NO ERROR,0.000000,0.000000,4000.000000,4000.000000,Speed,Speed,-0.630000,1.160000,3.120000,3.000000,102.000000,1,0,-0.005022,-0.003968,0,0.017395,0.036453,0.000000,-0.466614,0.745712,0.000000,-0.014000,0.009000,0.099000,FlatInitial
12:13:32.831 PM 02/13/2016,Teleop Enabled,0,FALSE,0,NO ERROR,0.000000,0.000000,4000.000000,4000.000000,Speed,Speed,-0.220000,1.180000,2.840000,3.000000,102.000000,1,0,-0.005022,-0.003968,0,0.029388,-0.013794,0.000000,-0.466156,0.746414,0.000000,0.005000,-0.036000,0.040000,FlatInitial
