Time,RobotMode,AutoToRun,ErrorStatus, ErrorCode,ErrorSource,ActualRPM1,ActualRPM2,DesiredRPM1,DesiredRPM2,ControlMode1,ControlMode2,NavXYaw,NavXRoll,NavXPitch,ShooterState,LoopTime,IsLevel,IsAutoTargeting,LeftMotorOutput,RightMotorOutput,IsHaloDrive,NavXVelocityX,NavXVelocityY,NavXVelocityZ,NavXDisplacementX,NavXDisplacementY,NavXDisplacementZ,NavXAccelerationX,NavXAccelerationY,NavXAccelerationZ,AutoDefendState
01:02:49.687 PM 02/14/2016,Teleop Enabled,0,TRUE,-44087,NetComm_CAN_Receive.vi:5470006<APPEND>  <b>Complete call chain:</b>      NetComm_CAN_Receive.vi:5470006      WPI_CANTalonSRX_Receive.vi      WPI_MotorControlOpenCANTalonSRX.vi      Begin.vi      Robot Main.vi,0.000000,0.000000,4000.000000,4000.000000,Speed,Speed,-0.450000,2.600000,1.020000,3.000000,101.000000,1,0,-0.006200,-0.006200,0,0.000000,0.000000,0.000000,-0.104980,0.010376,0.000000,-0.001000,-0.003000,0.001000,FlatInitial
01:02:49.789 PM 02/14/2016,Teleop Enabled,0,TRUE,-44087,NetComm_CAN_Receive.vi:5470006<APPEND>  <b>Complete call chain:</b>      NetComm_CAN_Receive.vi:5470006      WPI_CANTalonSRX_Receive.vi      WPI_MotorControlOpenCANTalonSRX.vi      Begin.vi      Robot Main.vi,0.000000,0.000000,4000.000000,4000.000000,Speed,Speed,-0.460000,2.600000,1.040000,3.000000,102.000000,1,0,-0.006200,-0.006200,0,-0.012512,-0.001862,0.000000,-0.105301,0.010300,0.000000,0.074000,0.018000,0.017000,FlatInitial
01:02:49.889 PM 02/14/2016,Teleop Enabled,0,TRUE,-44087,NetComm_CAN_Receive.vi:5470006<APPEND>  <b>Complete call chain:</b>      NetComm_CAN_Receive.vi:5470006      WPI_CANTalonSRX_Receive.vi      WPI_MotorControlOpenCANTalonSRX.vi      Begin.vi      Robot Main.vi,0.000000,0.000000,4000.000000,4000.000000,Speed,Speed,-0.450000,2.550000,0.960000,3.000000,105.000000,1,0,-0.006200,-0.006200,0,-0.010345,0.000000,0.000000,-0.105576,0.010300,0.000000,-0.006000,-0.008000,-0.019000,FlatInitial
01:02:49.990 PM 02/14/2016,Teleop Enabled,0,TRUE,-44087,NetComm_CAN_Receive.vi:5470006<APPEND>  <b>Complete call chain:</b>      NetComm_CAN_Receive.vi:5470006      WPI_CANTalonSRX_Receive.vi      WPI_MotorControlOpenCANTalonSRX.vi      Begin.vi      Robot Main.vi,0.000000,0.000000,4000.000000,4000.000000,Speed,Speed,-0.450000,2.620000,1.040000,3.000000,102.000000,1,0,-0.006200,-0.006200,0,0.000000,0.000000,0.000000,-0.105698,0.010300,0.000000,-0.018000,-0.007000,-0.018000,FlatInitial
01:02:50.090 PM 02/14/2016,Teleop Enabled,0,TRUE,-44087,NetComm_CAN_Receive.vi:5470006<APPEND>  <b>Complete call chain:</b>      NetComm_CAN_Receive.vi:5470006      WPI_CANTalonSRX_Receive.vi      WPI_MotorControlOpenCANTalonSRX.vi      Begin.vi      Robot Main.vi,0.000000,0.000000,4000.000000,4000.000000,Speed,Speed,-0.460000,2.620000,1.020000,3.000000,100.000000,1,0,-0.006200,-0.006200,0,0.000000,0.000000,0.000000,-0.105698,0.010300,0.000000,-0.001000,0.000000,0.011000,FlatInitial
01:02:50.190 PM 02/14/2016,Teleop Enabled,0,TRUE,-44087,NetComm_CAN_Receive.vi:5470006<APPEND>  <b>Complete call chain:</b>      NetComm_CAN_Receive.vi:5470006      WPI_CANTalonSRX_Receive.vi      WPI_MotorControlOpenCANTalonSRX.vi      Begin.vi      Robot Main.vi,0.000000,0.000000,4000.000000,4000.000000,Speed,Speed,-0.460000,2.620000,1.020000,3.000000,101.000000,1,0,-0.006200,-0.006200,0,0.000000,0.000000,0.000000,-0.105698,0.010300,0.000000,0.012000,0.006000,0.025000,FlatInitial
01:02:50.290 PM 02/14/2016,Teleop Enabled,0,TRUE,-44087,NetComm_CAN_Receive.vi:5470006<APPEND>  <b>Complete call chain:</b>      NetComm_CAN_Receive.vi:5470006      WPI_CANTalonSRX_Receive.vi      WPI_MotorControlOpenCANTalonSRX.vi      Begin.vi      Robot Main.vi,0.000000,0.000000,4000.000000,4000.000000,Speed,Speed,-0.460000,2.600000,1.000000,3.000000,102.000000,1,0,-0.006200,-0.006200,0,0.000000,0.000000,0.000000,-0.105698,0.010300,0.000000,-0.003000,-0.001000,0.011000,FlatInitial
01:02:50.391 PM 02/14/2016,Teleop Enabled,0,TRUE,-44087,NetComm_CAN_Receive.vi:5470006<APPEND>  <b>Complete call chain:</b>      NetComm_CAN_Receive.vi:5470006      WPI_CANTalonSRX_Receive.vi      WPI_MotorControlOpenCANTalonSRX.vi      Begin.vi      Robot Main.vi,0.000000,0.000000,4000.000000,4000.000000,Speed,Speed,-0.460000,2.600000,1.000000,3.000000,101.000000,1,0,-0.006200,-0.006200,0,0.000000,0.000000,0.000000,-0.105698,0.010300,0.000000,0.004000,-0.001000,0.005000,FlatInitial
01:02:50.491 PM 02/14/2016,Teleop Enabled,0,TRUE,-44087,NetComm_CAN_Receive.vi:5470006<APPEND>  <b>Complete call chain:</b>      NetComm_CAN_Receive.vi:5470006      WPI_CANTalonSRX_Receive.vi      WPI_MotorControlOpenCANTalonSRX.vi      Begin.vi      Robot Main.vi,0.000000,0.000000,4000.000000,4000.000000,Speed,Speed,-0.460000,2.620000,1.030000,3.000000,103.000000,1,0,-0.006200,-0.006200,0,0.000000,0.000000,0.000000,-0.105698,0.010300,0.000000,0.002000,0.007000,0.013000,FlatInitial
01:02:50.590 PM 02/14/2016,Teleop Enabled,0,TRUE,-44087,NetComm_CAN_Receive.vi:5470006<APPEND>  <b>Complete call chain:</b>      NetComm_CAN_Receive.vi:5470006      WPI_CANTalonSRX_Receive.vi      WPI_MotorControlOpenCANTalonSRX.vi      Begin.vi      Robot Main.vi,0.000000,0.000000,4000.000000,4000.000000,Speed,Speed,-0.460000,2.560000,0.930000,3.000000,104.000000,1,0,-0.006200,-0.006200,0,0.000000,0.000000,0.000000,-0.105698,0.010300,0.000000,-0.002000,-0.006000,-0.011000,FlatInitial
01:02:50.690 PM 02/14/2016,Teleop Enabled,0,TRUE,-44087,NetComm_CAN_Receive.vi:5470006<APPEND>  <b>Complete call chain:</b>      NetComm_CAN_Receive.vi:5470006      WPI_CANTalonSRX_Receive.vi      WPI_MotorControlOpenCANTalonSRX.vi      Begin.vi      Robot Main.vi,0.000000,0.000000,4000.000000,4000.000000,Speed,Speed,-0.460000,2.610000,1.020000,3.000000,101.000000,1,0,-0.006200,-0.006200,0,0.000000,0.000000,0.000000,-0.105698,0.010300,0.000000,-0.003000,0.002000,0.004000,FlatInitial
01:02:50.791 PM 02/14/2016,Teleop Enabled,0,TRUE,-44087,NetComm_CAN_Receive.vi:5470006<APPEND>  <b>Complete call chain:</b>      NetComm_CAN_Receive.vi:5470006      WPI_CANTalonSRX_Receive.vi      WPI_MotorControlOpenCANTalonSRX.vi      Begin.vi      Robot Main.vi,0.000000,0.000000,4000.000000,4000.000000,Speed,Speed,-0.460000,2.590000,0.950000,3.000000,101.000000,1,0,-0.006200,-0.006200,0,0.000000,0.000000,0.000000,-0.105698,0.010300,0.000000,0.000000,-0.001000,0.001000,FlatInitial
01:02:50.892 PM 02/14/2016,Teleop Enabled,0,TRUE,-44087,NetComm_CAN_Receive.vi:5470006<APPEND>  <b>Complete call chain:</b>      NetComm_CAN_Receive.vi:5470006      WPI_CANTalonSRX_Receive.vi      WPI_CANTalonSRX_GetStatus.vi      ShooterVI.vi      Periodic Tasks.vi      Robot Main.vi,0.000000,0.000000,4000.000000,4000.000000,Speed,Speed,-0.460000,2.610000,0.990000,3.000000,102.000000,1,0,-0.006200,-0.006200,0,0.000000,0.000000,0.000000,-0.105698,0.010300,0.000000,-0.001000,0.000000,0.005000,FlatInitial
01:02:50.992 PM 02/14/2016,Teleop Enabled,0,TRUE,-44087,NetComm_CAN_Receive.vi:5470006<APPEND>  <b>Complete call chain:</b>      NetComm_CAN_Receive.vi:5470006      WPI_CANTalonSRX_Receive.vi      WPI_CANTalonSRX_GetStatus.vi      ShooterVI.vi      Periodic Tasks.vi      Robot Main.vi,0.000000,0.000000,4000.000000,4000.000000,Speed,Speed,-0.460000,2.600000,0.990000,3.000000,100.000000,1,0,-0.006200,-0.006200,0,0.000000,0.000000,0.000000,-0.105698,0.010300,0.000000,-0.001000,0.000000,0.004000,FlatInitial
01:02:51.093 PM 02/14/2016,Teleop Enabled,0,FALSE,0,NO ERROR,0.000000,0.000000,4000.000000,4000.000000,Speed,Speed,-0.460000,2.600000,0.970000,3.000000,102.000000,1,0,-0.006200,-0.006200,0,-0.002655,0.000000,0.000000,-0.105759,0.010300,0.000000,0.017000,0.018000,0.048000,FlatInitial
01:02:51.193 PM 02/14/2016,Teleop Disabled,0,FALSE,0,NO ERROR,0.000000,0.000000,4000.000000,4000.000000,Speed,Speed,-0.460000,2.590000,1.000000,3.000000,101.000000,1,0,-0.006200,-0.006200,0,-0.003571,0.000000,0.000000,-0.105743,0.010300,0.000000,0.014000,0.015000,0.036000,FlatInitial
01:02:51.294 PM 02/14/2016,Teleop Disabled,0,FALSE,0,NO ERROR,0.000000,0.000000,4000.000000,4000.000000,Speed,Speed,-0.470000,2.510000,0.860000,3.000000,102.000000,1,0,-0.006200,-0.006200,0,0.000000,0.000000,0.000000,-0.105743,0.010300,0.000000,0.001000,-0.007000,0.010000,FlatInitial
01:02:51.394 PM 02/14/2016,Teleop Disabled,0,FALSE,0,NO ERROR,0.000000,0.000000,4000.000000,4000.000000,Speed,Speed,-0.470000,2.620000,1.040000,3.000000,101.000000,1,0,-0.006200,-0.006200,0,0.000000,0.000000,0.000000,-0.105743,0.010300,0.000000,0.003000,0.011000,0.023000,FlatInitial
01:02:51.494 PM 02/14/2016,Teleop Disabled,0,FALSE,0,NO ERROR,0.000000,0.000000,4000.000000,4000.000000,Speed,Speed,-0.470000,2.540000,0.890000,3.000000,102.000000,1,0,-0.006200,-0.006200,0,0.000000,0.000000,0.000000,-0.105743,0.010300,0.000000,0.000000,0.000000,0.002000,FlatInitial
01:02:51.594 PM 02/14/2016,Teleop Disabled,0,FALSE,0,NO ERROR,0.000000,0.000000,4000.000000,4000.000000,Speed,Speed,-0.470000,2.580000,0.980000,3.000000,101.000000,1,0,-0.006200,-0.006200,0,0.000000,0.000000,0.000000,-0.105743,0.010300,0.000000,0.002000,0.001000,0.009000,FlatInitial
01:02:51.694 PM 02/14/2016,Teleop Disabled,0,FALSE,0,NO ERROR,0.000000,0.000000,4000.000000,4000.000000,Speed,Speed,-0.470000,2.570000,0.940000,3.000000,102.000000,1,0,-0.006200,-0.006200,0,0.000000,0.000000,0.000000,-0.105743,0.010300,0.000000,-0.002000,0.000000,0.000000,FlatInitial
01:02:51.795 PM 02/14/2016,Teleop Disabled,0,FALSE,0,NO ERROR,0.000000,0.000000,4000.000000,4000.000000,Speed,Speed,-0.480000,2.540000,0.960000,3.000000,101.000000,1,0,-0.006200,-0.006200,0,0.012161,0.000000,0.000000,-0.105377,0.010300,0.000000,-0.019000,-0.003000,-0.001000,FlatInitial
01:02:51.895 PM 02/14/2016,Teleop Disabled,0,FALSE,0,NO ERROR,0.000000,0.000000,4000.000000,4000.000000,Speed,Speed,-0.480000,2.560000,0.960000,3.000000,103.000000,1,0,-0.006200,-0.006200,0,0.000000,0.000000,0.000000,-0.105270,0.010300,0.000000,-0.004000,-0.003000,0.004000,FlatInitial
01:02:51.996 PM 02/14/2016,Teleop Disabled,0,FALSE,0,NO ERROR,0.000000,0.000000,4000.000000,4000.000000,Speed,Speed,-0.480000,2.560000,0.950000,3.000000,102.000000,1,0,-0.006200,-0.006200,0,0.000000,0.000000,0.000000,-0.105270,0.010300,0.000000,0.000000,0.003000,0.007000,FlatInitial
01:02:52.096 PM 02/14/2016,Teleop Disabled,0,FALSE,0,NO ERROR,0.000000,0.000000,4000.000000,4000.000000,Speed,Speed,-0.480000,2.570000,0.970000,3.000000,100.000000,1,0,-0.006200,-0.006200,0,0.000000,0.000000,0.000000,-0.105270,0.010300,0.000000,0.000000,0.001000,0.006000,FlatInitial
01:02:52.199 PM 02/14/2016,Teleop Disabled,0,FALSE,0,NO ERROR,0.000000,0.000000,4000.000000,4000.000000,Speed,Speed,-0.480000,2.550000,0.940000,3.000000,102.000000,1,0,-0.006200,-0.006200,0,0.000000,0.000000,0.000000,-0.105270,0.010300,0.000000,0.000000,0.001000,0.008000,FlatInitial
01:02:52.299 PM 02/14/2016,Teleop Disabled,0,FALSE,0,NO ERROR,0.000000,0.000000,4000.000000,4000.000000,Speed,Speed,-0.480000,2.580000,0.970000,3.000000,102.000000,1,0,-0.006200,-0.006200,0,0.000000,0.000000,0.000000,-0.105270,0.010300,0.000000,-0.001000,0.000000,0.006000,FlatInitial
01:02:52.399 PM 02/14/2016,Teleop Disabled,0,FALSE,0,NO ERROR,0.000000,0.000000,4000.000000,4000.000000,Speed,Speed,-0.480000,2.560000,0.950000,3.000000,102.000000,1,0,-0.006200,-0.006200,0,0.000000,0.000000,0.000000,-0.105270,0.010300,0.000000,0.000000,0.001000,0.003000,FlatInitial
01:02:52.498 PM 02/14/2016,Teleop Disabled,0,FALSE,0,NO ERROR,0.000000,0.000000,4000.000000,4000.000000,Speed,Speed,-0.480000,2.570000,0.970000,3.000000,102.000000,1,0,-0.006200,-0.006200,0,0.000000,0.000000,0.000000,-0.105270,0.010300,0.000000,0.001000,0.000000,0.008000,FlatInitial
01:02:52.598 PM 02/14/2016,Teleop Disabled,0,FALSE,0,NO ERROR,0.000000,0.000000,4000.000000,4000.000000,Speed,Speed,-0.480000,2.570000,0.950000,3.000000,102.000000,1,0,-0.006200,-0.006200,0,0.000000,0.000000,0.000000,-0.105270,0.010300,0.000000,0.000000,-0.002000,0.006000,FlatInitial
01:02:52.699 PM 02/14/2016,Teleop Disabled,0,FALSE,0,NO ERROR,0.000000,0.000000,4000.000000,4000.000000,Speed,Speed,-0.480000,2.570000,0.960000,3.000000,101.000000,1,0,-0.006200,-0.006200,0,0.000000,0.000000,0.000000,-0.105270,0.010300,0.000000,-0.002000,0.001000,0.004000,FlatInitial
01:02:52.799 PM 02/14/2016,Teleop Disabled,0,FALSE,0,NO ERROR,0.000000,0.000000,4000.000000,4000.000000,Speed,Speed,-0.480000,2.570000,0.950000,3.000000,101.000000,1,0,-0.006200,-0.006200,0,0.000000,0.000000,0.000000,-0.105270,0.010300,0.000000,0.000000,0.000000,0.004000,FlatInitial
01:02:52.899 PM 02/14/2016,Teleop Disabled,0,FALSE,0,NO ERROR,0.000000,0.000000,4000.000000,4000.000000,Speed,Speed,-0.480000,2.580000,0.970000,3.000000,101.000000,1,0,-0.006200,-0.006200,0,0.000000,0.000000,0.000000,-0.105270,0.010300,0.000000,-0.001000,0.000000,0.002000,FlatInitial
01:02:52.999 PM 02/14/2016,Teleop Disabled,0,FALSE,0,NO ERROR,0.000000,0.000000,4000.000000,4000.000000,Speed,Speed,-0.480000,2.570000,0.960000,3.000000,102.000000,1,0,-0.006200,-0.006200,0,0.000000,0.000000,0.000000,-0.105270,0.010300,0.000000,0.000000,0.000000,0.000000,FlatInitial
01:02:53.098 PM 02/14/2016,Teleop Disabled,0,FALSE,0,NO ERROR,0.000000,0.000000,4000.000000,4000.000000,Speed,Speed,-0.480000,2.580000,0.970000,3.000000,103.000000,1,0,-0.006200,-0.006200,0,0.000000,0.000000,0.000000,-0.105270,0.010300,0.000000,0.000000,0.000000,0.001000,FlatInitial
01:02:53.199 PM 02/14/2016,Teleop Disabled,0,FALSE,0,NO ERROR,0.000000,0.000000,4000.000000,4000.000000,Speed,Speed,-0.490000,2.570000,0.960000,3.000000,100.000000,1,0,-0.006200,-0.006200,0,0.000000,0.000000,0.000000,-0.105270,0.010300,0.000000,0.001000,0.001000,0.002000,FlatInitial
01:02:53.299 PM 02/14/2016,Teleop Disabled,0,FALSE,0,NO ERROR,0.000000,0.000000,4000.000000,4000.000000,Speed,Speed,-0.490000,2.580000,0.960000,3.000000,102.000000,1,0,-0.006200,-0.006200,0,0.000000,0.000000,0.000000,-0.105270,0.010300,0.000000,-0.002000,0.000000,0.004000,FlatInitial
01:02:53.400 PM 02/14/2016,Teleop Disabled,0,FALSE,0,NO ERROR,0.000000,0.000000,4000.000000,4000.000000,Speed,Speed,-0.490000,2.580000,0.950000,3.000000,102.000000,1,0,-0.006200,-0.006200,0,0.000000,0.000000,0.000000,-0.105270,0.010300,0.000000,0.001000,0.000000,0.004000,FlatInitial
01:02:53.499 PM 02/14/2016,Teleop Disabled,0,FALSE,0,NO ERROR,0.000000,0.000000,4000.000000,4000.000000,Speed,Speed,-0.490000,2.580000,0.950000,3.000000,104.000000,1,0,-0.006200,-0.006200,0,0.000000,0.000000,0.000000,-0.105270,0.010300,0.000000,-0.001000,0.000000,0.003000,FlatInitial
01:02:53.599 PM 02/14/2016,Teleop Disabled,0,FALSE,0,NO ERROR,0.000000,0.000000,4000.000000,4000.000000,Speed,Speed,-0.490000,2.580000,0.950000,3.000000,101.000000,1,0,-0.006200,-0.006200,0,0.000000,0.000000,0.000000,-0.105270,0.010300,0.000000,0.000000,0.001000,0.003000,FlatInitial
01:02:53.700 PM 02/14/2016,Teleop Disabled,0,FALSE,0,NO ERROR,0.000000,0.000000,4000.000000,4000.000000,Speed,Speed,-0.500000,2.580000,0.960000,3.000000,102.000000,1,0,-0.006200,-0.006200,0,0.000000,0.000000,0.000000,-0.105270,0.010300,0.000000,0.001000,0.002000,0.004000,FlatInitial
01:02:53.799 PM 02/14/2016,Teleop Disabled,0,FALSE,0,NO ERROR,0.000000,0.000000,4000.000000,4000.000000,Speed,Speed,-0.500000,2.580000,0.950000,3.000000,101.000000,1,0,-0.006200,-0.006200,0,0.000000,0.000000,0.000000,-0.105270,0.010300,0.000000,0.001000,0.000000,0.004000,FlatInitial
01:02:53.899 PM 02/14/2016,Teleop Disabled,0,FALSE,0,NO ERROR,0.000000,0.000000,4000.000000,4000.000000,Speed,Speed,-0.500000,2.580000,0.960000,3.000000,102.000000,1,0,-0.006200,-0.006200,0,0.000000,0.000000,0.000000,-0.105270,0.010300,0.000000,-0.003000,-0.003000,0.006000,FlatInitial
01:02:54.000 PM 02/14/2016,Teleop Disabled,0,FALSE,0,NO ERROR,0.000000,0.000000,4000.000000,4000.000000,Speed,Speed,-0.500000,2.580000,0.960000,3.000000,101.000000,1,0,-0.006200,-0.006200,0,0.000000,0.000000,0.000000,-0.105270,0.010300,0.000000,0.000000,0.000000,0.005000,FlatInitial
01:02:54.100 PM 02/14/2016,Teleop Disabled,0,FALSE,0,NO ERROR,0.000000,0.000000,4000.000000,4000.000000,Speed,Speed,-0.500000,2.570000,0.950000,3.000000,102.000000,1,0,-0.006200,-0.006200,0,0.000000,0.000000,0.000000,-0.105270,0.010300,0.000000,0.000000,0.002000,0.005000,FlatInitial
01:02:54.200 PM 02/14/2016,Teleop Disabled,0,FALSE,0,NO ERROR,0.000000,0.000000,4000.000000,4000.000000,Speed,Speed,-0.500000,2.570000,0.960000,3.000000,102.000000,1,0,-0.006200,-0.006200,0,0.000000,0.000000,0.000000,-0.105270,0.010300,0.000000,0.003000,0.001000,0.002000,FlatInitial
01:02:54.301 PM 02/14/2016,Teleop Disabled,0,FALSE,0,NO ERROR,0.000000,0.000000,4000.000000,4000.000000,Speed,Speed,-0.500000,2.580000,0.950000,3.000000,101.000000,1,0,-0.006200,-0.006200,0,0.000000,0.000000,0.000000,-0.105270,0.010300,0.000000,0.000000,0.002000,0.005000,FlatInitial
01:02:54.401 PM 02/14/2016,Teleop Disabled,0,FALSE,0,NO ERROR,0.000000,0.000000,4000.000000,4000.000000,Speed,Speed,-0.500000,2.580000,0.950000,3.000000,102.000000,1,0,-0.006200,-0.006200,0,0.000000,0.000000,0.000000,-0.105270,0.010300,0.000000,0.001000,0.000000,0.007000,FlatInitial
01:02:54.501 PM 02/14/2016,Teleop Disabled,0,FALSE,0,NO ERROR,0.000000,0.000000,4000.000000,4000.000000,Speed,Speed,-0.510000,2.580000,0.950000,3.000000,100.000000,1,0,-0.006200,-0.006200,0,0.000000,0.000000,0.000000,-0.105270,0.010300,0.000000,0.001000,0.000000,0.007000,FlatInitial
01:02:54.601 PM 02/14/2016,Teleop Disabled,0,FALSE,0,NO ERROR,0.000000,0.000000,4000.000000,4000.000000,Speed,Speed,-0.510000,2.580000,0.950000,3.000000,101.000000,1,0,-0.006200,-0.006200,0,0.000000,0.000000,0.000000,-0.105270,0.010300,0.000000,-0.001000,-0.001000,0.002000,FlatInitial
01:02:54.702 PM 02/14/2016,Teleop Disabled,0,FALSE,0,NO ERROR,0.000000,0.000000,4000.000000,4000.000000,Speed,Speed,-0.510000,2.580000,0.940000,3.000000,102.000000,1,0,-0.006200,-0.006200,0,0.000000,0.000000,0.000000,-0.105270,0.010300,0.000000,0.000000,-0.001000,0.004000,FlatInitial
01:02:54.803 PM 02/14/2016,Teleop Disabled,0,FALSE,0,NO ERROR,0.000000,0.000000,4000.000000,4000.000000,Speed,Speed,-0.510000,2.580000,0.950000,3.000000,102.000000,1,0,-0.006200,-0.006200,0,0.000000,0.000000,0.000000,-0.105270,0.010300,0.000000,0.000000,0.001000,0.004000,FlatInitial
01:02:54.903 PM 02/14/2016,Teleop Disabled,0,FALSE,0,NO ERROR,0.000000,0.000000,4000.000000,4000.000000,Speed,Speed,-0.520000,2.580000,0.940000,3.000000,103.000000,1,0,-0.006200,-0.006200,0,0.000000,0.000000,0.000000,-0.105270,0.010300,0.000000,0.000000,0.000000,0.008000,FlatInitial
01:02:55.005 PM 02/14/2016,Teleop Disabled,0,FALSE,0,NO ERROR,0.000000,0.000000,4000.000000,4000.000000,Speed,Speed,-0.520000,2.580000,0.940000,3.000000,103.000000,1,0,-0.006200,-0.006200,0,0.000000,0.000000,0.000000,-0.105270,0.010300,0.000000,-0.001000,-0.001000,0.005000,FlatInitial
01:02:55.106 PM 02/14/2016,Teleop Disabled,0,FALSE,0,NO ERROR,0.000000,0.000000,4000.000000,4000.000000,Speed,Speed,-0.520000,2.580000,0.950000,3.000000,101.000000,1,0,-0.006200,-0.006200,0,0.000000,0.000000,0.000000,-0.105270,0.010300,0.000000,0.000000,0.000000,0.004000,FlatInitial
01:02:55.207 PM 02/14/2016,Teleop Disabled,0,FALSE,0,NO ERROR,0.000000,0.000000,4000.000000,4000.000000,Speed,Speed,-0.520000,2.580000,0.950000,3.000000,102.000000,1,0,-0.006200,-0.006200,0,0.000000,0.000000,0.000000,-0.105270,0.010300,0.000000,0.000000,0.000000,0.004000,FlatInitial
01:02:55.307 PM 02/14/2016,Teleop Disabled,0,FALSE,0,NO ERROR,0.000000,0.000000,4000.000000,4000.000000,Speed,Speed,-0.520000,2.580000,0.950000,3.000000,101.000000,1,0,-0.006200,-0.006200,0,0.000000,0.000000,0.000000,-0.105270,0.010300,0.000000,0.000000,-0.001000,0.005000,FlatInitial
01:02:55.408 PM 02/14/2016,Teleop Disabled,0,FALSE,0,NO ERROR,0.000000,0.000000,4000.000000,4000.000000,Speed,Speed,-0.520000,2.580000,0.950000,3.000000,102.000000,1,0,-0.006200,-0.006200,0,0.000000,0.000000,0.000000,-0.105270,0.010300,0.000000,0.000000,-0.001000,0.005000,FlatInitial
01:02:55.508 PM 02/14/2016,Teleop Disabled,0,FALSE,0,NO ERROR,0.000000,0.000000,4000.000000,4000.000000,Speed,Speed,-0.520000,2.580000,0.950000,3.000000,101.000000,1,0,-0.006200,-0.006200,0,0.000000,0.000000,0.000000,-0.105270,0.010300,0.000000,0.002000,-0.004000,0.000000,FlatInitial
01:02:55.608 PM 02/14/2016,Teleop Disabled,0,FALSE,0,NO ERROR,0.000000,0.000000,4000.000000,4000.000000,Speed,Speed,-0.520000,2.570000,0.950000,3.000000,101.000000,1,0,-0.006200,-0.006200,0,0.000000,0.000000,0.000000,-0.105270,0.010300,0.000000,-0.001000,0.000000,0.000000,FlatInitial
01:02:55.708 PM 02/14/2016,Teleop Disabled,0,FALSE,0,NO ERROR,0.000000,0.000000,4000.000000,4000.000000,Speed,Speed,-0.530000,2.580000,0.950000,3.000000,103.000000,1,0,-0.006200,-0.006200,0,0.000000,0.000000,0.000000,-0.105270,0.010300,0.000000,0.002000,0.000000,0.002000,FlatInitial
01:02:55.808 PM 02/14/2016,Teleop Disabled,0,FALSE,0,NO ERROR,0.000000,0.000000,4000.000000,4000.000000,Speed,Speed,-0.530000,2.580000,0.950000,3.000000,102.000000,1,0,-0.006200,-0.006200,0,0.000000,0.000000,0.000000,-0.105270,0.010300,0.000000,-0.001000,0.001000,0.004000,FlatInitial
01:02:55.908 PM 02/14/2016,Teleop Disabled,0,FALSE,0,NO ERROR,0.000000,0.000000,4000.000000,4000.000000,Speed,Speed,-0.530000,2.580000,0.950000,3.000000,101.000000,1,0,-0.006200,-0.006200,0,0.000000,0.000000,0.000000,-0.105270,0.010300,0.000000,-0.001000,0.000000,0.001000,FlatInitial
01:02:56.008 PM 02/14/2016,Teleop Disabled,0,FALSE,0,NO ERROR,0.000000,0.000000,4000.000000,4000.000000,Speed,Speed,-0.530000,2.580000,0.950000,3.000000,105.000000,1,0,-0.006200,-0.006200,0,0.000000,0.000000,0.000000,-0.105270,0.010300,0.000000,0.000000,0.000000,0.000000,FlatInitial
01:02:56.108 PM 02/14/2016,Teleop Disabled,0,FALSE,0,NO ERROR,0.000000,0.000000,4000.000000,4000.000000,Speed,Speed,-0.530000,2.580000,0.950000,3.000000,101.000000,1,0,-0.006200,-0.006200,0,0.000000,0.000000,0.000000,-0.105270,0.010300,0.000000,0.000000,0.001000,0.004000,FlatInitial
01:02:56.208 PM 02/14/2016,Teleop Disabled,0,FALSE,0,NO ERROR,0.000000,0.000000,4000.000000,4000.000000,Speed,Speed,-0.530000,2.570000,0.950000,3.000000,103.000000,1,0,-0.006200,-0.006200,0,0.000000,0.000000,0.000000,-0.105270,0.010300,0.000000,0.001000,0.000000,0.002000,FlatInitial
01:02:56.310 PM 02/14/2016,Teleop Disabled,0,FALSE,0,NO ERROR,0.000000,0.000000,4000.000000,4000.000000,Speed,Speed,-0.530000,2.570000,0.950000,3.000000,101.000000,1,0,-0.006200,-0.006200,0,0.000000,0.000000,0.000000,-0.105270,0.010300,0.000000,0.000000,0.000000,0.004000,FlatInitial
01:02:56.410 PM 02/14/2016,Teleop Disabled,0,FALSE,0,NO ERROR,0.000000,0.000000,4000.000000,4000.000000,Speed,Speed,-0.530000,2.580000,0.950000,3.000000,101.000000,1,0,-0.006200,-0.006200,0,0.000000,0.000000,0.000000,-0.105270,0.010300,0.000000,-0.004000,0.001000,0.001000,FlatInitial
01:02:56.510 PM 02/14/2016,Teleop Disabled,0,FALSE,0,NO ERROR,0.000000,0.000000,4000.000000,4000.000000,Speed,Speed,-0.530000,2.580000,0.950000,3.000000,100.000000,1,0,-0.006200,-0.006200,0,0.000000,0.000000,0.000000,-0.105270,0.010300,0.000000,0.001000,-0.002000,0.004000,FlatInitial
01:02:56.610 PM 02/14/2016,Teleop Disabled,0,FALSE,0,NO ERROR,0.000000,0.000000,4000.000000,4000.000000,Speed,Speed,-0.530000,2.580000,0.950000,3.000000,101.000000,1,0,-0.006200,-0.006200,0,0.000000,0.000000,0.000000,-0.105270,0.010300,0.000000,0.001000,-0.001000,0.003000,FlatInitial
01:02:56.709 PM 02/14/2016,Teleop Disabled,0,FALSE,0,NO ERROR,0.000000,0.000000,4000.000000,4000.000000,Speed,Speed,-0.530000,2.580000,0.950000,3.000000,101.000000,1,0,-0.006200,-0.006200,0,0.000000,0.000000,0.000000,-0.105270,0.010300,0.000000,0.001000,0.000000,0.004000,FlatInitial
01:02:56.810 PM 02/14/2016,Teleop Disabled,0,FALSE,0,NO ERROR,0.000000,0.000000,4000.000000,4000.000000,Speed,Speed,-0.540000,2.580000,0.960000,3.000000,101.000000,1,0,-0.006200,-0.006200,0,0.000000,0.000000,0.000000,-0.105270,0.010300,0.000000,0.002000,0.000000,0.000000,FlatInitial
01:02:56.911 PM 02/14/2016,Teleop Disabled,0,FALSE,0,NO ERROR,0.000000,0.000000,4000.000000,4000.000000,Speed,Speed,-0.540000,2.580000,0.960000,3.000000,101.000000,1,0,-0.006200,-0.006200,0,0.000000,0.000000,0.000000,-0.105270,0.010300,0.000000,0.000000,0.001000,0.005000,FlatInitial
01:02:57.011 PM 02/14/2016,Teleop Disabled,0,FALSE,0,NO ERROR,0.000000,0.000000,4000.000000,4000.000000,Speed,Speed,-0.530000,2.580000,0.950000,3.000000,101.000000,1,0,-0.006200,-0.006200,0,0.000000,0.000000,0.000000,-0.105270,0.010300,0.000000,0.000000,0.000000,0.003000,FlatInitial
01:02:57.111 PM 02/14/2016,Teleop Disabled,0,FALSE,0,NO ERROR,0.000000,0.000000,4000.000000,4000.000000,Speed,Speed,-0.530000,2.580000,0.950000,3.000000,101.000000,1,0,-0.006200,-0.006200,0,0.000000,0.000000,0.000000,-0.105270,0.010300,0.000000,0.000000,0.000000,0.005000,FlatInitial
01:02:57.211 PM 02/14/2016,Teleop Disabled,0,FALSE,0,NO ERROR,0.000000,0.000000,4000.000000,4000.000000,Speed,Speed,-0.540000,2.570000,0.950000,3.000000,102.000000,1,0,-0.006200,-0.006200,0,0.000000,0.000000,0.000000,-0.105270,0.010300,0.000000,0.001000,0.000000,0.005000,FlatInitial
01:02:57.310 PM 02/14/2016,Teleop Disabled,0,FALSE,0,NO ERROR,0.000000,0.000000,4000.000000,4000.000000,Speed,Speed,-0.540000,2.570000,0.950000,3.000000,100.000000,1,0,-0.006200,-0.006200,0,0.000000,0.000000,0.000000,-0.105270,0.010300,0.000000,0.000000,0.000000,0.003000,FlatInitial
01:02:57.411 PM 02/14/2016,Teleop Disabled,0,FALSE,0,NO ERROR,0.000000,0.000000,4000.000000,4000.000000,Speed,Speed,-0.540000,2.580000,0.950000,3.000000,101.000000,1,0,-0.006200,-0.006200,0,0.000000,0.000000,0.000000,-0.105270,0.010300,0.000000,0.000000,-0.001000,0.008000,FlatInitial
01:02:57.511 PM 02/14/2016,Teleop Disabled,0,FALSE,0,NO ERROR,0.000000,0.000000,4000.000000,4000.000000,Speed,Speed,-0.540000,2.580000,0.950000,3.000000,101.000000,1,0,-0.006200,-0.006200,0,0.000000,0.000000,0.000000,-0.105270,0.010300,0.000000,0.000000,0.000000,0.008000,FlatInitial
01:02:57.610 PM 02/14/2016,Teleop Disabled,0,FALSE,0,NO ERROR,0.000000,0.000000,4000.000000,4000.000000,Speed,Speed,-0.540000,2.570000,0.950000,3.000000,102.000000,1,0,-0.006200,-0.006200,0,0.000000,0.000000,0.000000,-0.105270,0.010300,0.000000,0.001000,0.000000,0.010000,FlatInitial
01:02:57.711 PM 02/14/2016,Teleop Disabled,0,FALSE,0,NO ERROR,0.000000,0.000000,4000.000000,4000.000000,Speed,Speed,-0.540000,2.580000,0.950000,3.000000,104.000000,1,0,-0.006200,-0.006200,0,0.000000,0.000000,0.000000,-0.105270,0.010300,0.000000,0.002000,0.000000,0.002000,FlatInitial
01:02:57.811 PM 02/14/2016,Teleop Disabled,0,FALSE,0,NO ERROR,0.000000,0.000000,4000.000000,4000.000000,Speed,Speed,-0.540000,2.570000,0.950000,3.000000,102.000000,1,0,-0.006200,-0.006200,0,0.000000,0.000000,0.000000,-0.105270,0.010300,0.000000,-0.002000,0.003000,0.003000,FlatInitial
01:02:57.910 PM 02/14/2016,Teleop Disabled,0,FALSE,0,NO ERROR,0.000000,0.000000,4000.000000,4000.000000,Speed,Speed,-0.540000,2.570000,0.950000,3.000000,101.000000,1,0,-0.006200,-0.006200,0,0.000000,0.000000,0.000000,-0.105270,0.010300,0.000000,-0.001000,0.002000,0.005000,FlatInitial
01:02:58.011 PM 02/14/2016,Teleop Disabled,0,FALSE,0,NO ERROR,0.000000,0.000000,4000.000000,4000.000000,Speed,Speed,-0.540000,2.570000,0.950000,3.000000,102.000000,1,0,-0.006200,-0.006200,0,0.000000,0.000000,0.000000,-0.105270,0.010300,0.000000,0.000000,-0.001000,0.005000,FlatInitial
01:02:58.111 PM 02/14/2016,Teleop Disabled,0,FALSE,0,NO ERROR,0.000000,0.000000,4000.000000,4000.000000,Speed,Speed,-0.540000,2.560000,0.950000,3.000000,101.000000,1,0,-0.006200,-0.006200,0,0.000000,0.000000,0.000000,-0.105270,0.010300,0.000000,0.000000,0.000000,0.007000,FlatInitial
01:02:58.211 PM 02/14/2016,Teleop Disabled,0,FALSE,0,NO ERROR,0.000000,0.000000,4000.000000,4000.000000,Speed,Speed,-0.540000,2.560000,0.950000,3.000000,103.000000,1,0,-0.006200,-0.006200,0,0.000000,0.000000,0.000000,-0.105270,0.010300,0.000000,-0.001000,-0.001000,0.003000,FlatInitial
01:02:58.311 PM 02/14/2016,Teleop Disabled,0,FALSE,0,NO ERROR,0.000000,0.000000,4000.000000,4000.000000,Speed,Speed,-0.550000,2.570000,0.950000,3.000000,102.000000,1,0,-0.006200,-0.006200,0,0.000000,0.000000,0.000000,-0.105270,0.010300,0.000000,0.000000,0.002000,0.005000,FlatInitial
01:02:58.411 PM 02/14/2016,Teleop Disabled,0,FALSE,0,NO ERROR,0.000000,0.000000,4000.000000,4000.000000,Speed,Speed,-0.550000,2.560000,0.950000,3.000000,100.000000,1,0,-0.006200,-0.006200,0,0.000000,0.000000,0.000000,-0.105270,0.010300,0.000000,-0.002000,0.001000,0.004000,FlatInitial
01:02:58.511 PM 02/14/2016,Teleop Disabled,0,FALSE,0,NO ERROR,0.000000,0.000000,4000.000000,4000.000000,Speed,Speed,-0.550000,2.560000,0.950000,3.000000,105.000000,1,0,-0.006200,-0.006200,0,0.000000,0.000000,0.000000,-0.105270,0.010300,0.000000,0.001000,0.000000,0.007000,FlatInitial
01:02:58.611 PM 02/14/2016,Teleop Disabled,0,FALSE,0,NO ERROR,0.000000,0.000000,4000.000000,4000.000000,Speed,Speed,-0.550000,2.570000,0.950000,3.000000,103.000000,1,0,-0.006200,-0.006200,0,0.000000,0.000000,0.000000,-0.105270,0.010300,0.000000,-0.002000,0.000000,0.004000,FlatInitial
01:02:58.712 PM 02/14/2016,Teleop Disabled,0,FALSE,0,NO ERROR,0.000000,0.000000,4000.000000,4000.000000,Speed,Speed,-0.550000,2.570000,0.950000,3.000000,102.000000,1,0,-0.006200,-0.006200,0,0.000000,0.000000,0.000000,-0.105270,0.010300,0.000000,0.000000,-0.002000,0.004000,FlatInitial
01:02:58.812 PM 02/14/2016,Teleop Disabled,0,FALSE,0,NO ERROR,0.000000,0.000000,4000.000000,4000.000000,Speed,Speed,-0.550000,2.580000,0.950000,3.000000,102.000000,1,0,-0.006200,-0.006200,0,0.000000,0.000000,0.000000,-0.105270,0.010300,0.000000,0.000000,-0.002000,0.004000,FlatInitial
01:02:58.912 PM 02/14/2016,Teleop Disabled,0,FALSE,0,NO ERROR,0.000000,0.000000,4000.000000,4000.000000,Speed,Speed,-0.550000,2.570000,0.940000,3.000000,102.000000,1,0,-0.006200,-0.006200,0,0.000000,0.000000,0.000000,-0.105270,0.010300,0.000000,-0.001000,0.001000,0.005000,FlatInitial
01:02:59.013 PM 02/14/2016,Teleop Disabled,0,FALSE,0,NO ERROR,0.000000,0.000000,4000.000000,4000.000000,Speed,Speed,-0.550000,2.580000,0.940000,3.000000,102.000000,1,0,-0.006200,-0.006200,0,0.000000,0.000000,0.000000,-0.105270,0.010300,0.000000,0.000000,0.000000,0.005000,FlatInitial
01:02:59.113 PM 02/14/2016,Teleop Disabled,0,FALSE,0,NO ERROR,0.000000,0.000000,4000.000000,4000.000000,Speed,Speed,-0.550000,2.570000,0.940000,3.000000,102.000000,1,0,-0.006200,-0.006200,0,0.000000,0.000000,0.000000,-0.105270,0.010300,0.000000,0.000000,-0.001000,0.005000,FlatInitial
01:02:59.214 PM 02/14/2016,Teleop Disabled,0,FALSE,0,NO ERROR,0.000000,0.000000,4000.000000,4000.000000,Speed,Speed,-0.550000,2.570000,0.940000,3.000000,101.000000,1,0,-0.006200,-0.006200,0,0.000000,0.000000,0.000000,-0.105270,0.010300,0.000000,0.002000,-0.001000,0.001000,FlatInitial
01:02:59.314 PM 02/14/2016,Teleop Disabled,0,FALSE,0,NO ERROR,0.000000,0.000000,4000.000000,4000.000000,Speed,Speed,-0.550000,2.570000,0.940000,3.000000,102.000000,1,0,-0.006200,-0.006200,0,0.000000,0.000000,0.000000,-0.105270,0.010300,0.000000,0.000000,0.000000,0.001000,FlatInitial
01:02:59.415 PM 02/14/2016,Teleop Disabled,0,FALSE,0,NO ERROR,0.000000,0.000000,4000.000000,4000.000000,Speed,Speed,-0.550000,2.570000,0.950000,3.000000,102.000000,1,0,-0.006200,-0.006200,0,0.000000,0.000000,0.000000,-0.105270,0.010300,0.000000,-0.001000,0.002000,0.008000,FlatInitial
01:02:59.516 PM 02/14/2016,Teleop Disabled,0,FALSE,0,NO ERROR,0.000000,0.000000,4000.000000,4000.000000,Speed,Speed,-0.550000,2.570000,0.940000,3.000000,104.000000,1,0,-0.006200,-0.006200,0,0.000000,0.000000,0.000000,-0.105270,0.010300,0.000000,0.000000,0.000000,0.006000,FlatInitial
01:02:59.618 PM 02/14/2016,Teleop Disabled,0,FALSE,0,NO ERROR,0.000000,0.000000,4000.000000,4000.000000,Speed,Speed,-0.560000,2.570000,0.950000,3.000000,103.000000,1,0,-0.006200,-0.006200,0,0.000000,0.000000,0.000000,-0.105270,0.010300,0.000000,0.002000,0.003000,0.004000,FlatInitial
01:02:59.718 PM 02/14/2016,Teleop Disabled,0,FALSE,0,NO ERROR,0.000000,0.000000,4000.000000,4000.000000,Speed,Speed,-0.550000,2.580000,0.940000,3.000000,104.000000,1,0,-0.006200,-0.006200,0,0.000000,0.000000,0.000000,-0.105270,0.010300,0.000000,-0.003000,0.002000,0.006000,FlatInitial
01:02:59.820 PM 02/14/2016,Teleop Disabled,0,FALSE,0,NO ERROR,0.000000,0.000000,4000.000000,4000.000000,Speed,Speed,-0.560000,2.580000,0.950000,3.000000,102.000000,1,0,-0.006200,-0.006200,0,0.000000,0.000000,0.000000,-0.105270,0.010300,0.000000,-0.003000,-0.001000,0.010000,FlatInitial
01:02:59.920 PM 02/14/2016,Teleop Disabled,0,FALSE,0,NO ERROR,0.000000,0.000000,4000.000000,4000.000000,Speed,Speed,-0.560000,2.580000,0.940000,3.000000,102.000000,1,0,-0.006200,-0.006200,0,0.000000,0.000000,0.000000,-0.105270,0.010300,0.000000,0.000000,-0.002000,0.007000,FlatInitial
01:03:00.020 PM 02/14/2016,Teleop Disabled,0,FALSE,0,NO ERROR,0.000000,0.000000,4000.000000,4000.000000,Speed,Speed,-0.560000,2.580000,0.940000,3.000000,104.000000,1,0,-0.006200,-0.006200,0,0.000000,0.000000,0.000000,-0.105270,0.010300,0.000000,-0.001000,0.001000,0.004000,FlatInitial
01:03:00.120 PM 02/14/2016,Teleop Disabled,0,FALSE,0,NO ERROR,0.000000,0.000000,4000.000000,4000.000000,Speed,Speed,-0.560000,2.570000,0.940000,3.000000,103.000000,1,0,-0.006200,-0.006200,0,0.000000,0.000000,0.000000,-0.105270,0.010300,0.000000,0.000000,0.000000,0.005000,FlatInitial
01:03:00.221 PM 02/14/2016,Teleop Disabled,0,FALSE,0,NO ERROR,0.000000,0.000000,4000.000000,4000.000000,Speed,Speed,-0.570000,2.580000,0.940000,3.000000,105.000000,1,0,-0.006200,-0.006200,0,0.000000,0.000000,0.000000,-0.105270,0.010300,0.000000,0.001000,0.000000,0.005000,FlatInitial
01:03:00.321 PM 02/14/2016,Teleop Disabled,0,FALSE,0,NO ERROR,0.000000,0.000000,4000.000000,4000.000000,Speed,Speed,-0.570000,2.570000,0.950000,3.000000,102.000000,1,0,-0.006200,-0.006200,0,0.000000,0.000000,0.000000,-0.105270,0.010300,0.000000,0.000000,0.000000,0.001000,FlatInitial
01:03:00.421 PM 02/14/2016,Teleop Disabled,0,FALSE,0,NO ERROR,0.000000,0.000000,4000.000000,4000.000000,Speed,Speed,-0.570000,2.570000,0.950000,3.000000,103.000000,1,0,-0.006200,-0.006200,0,0.000000,0.000000,0.000000,-0.105270,0.010300,0.000000,0.000000,0.000000,0.001000,FlatInitial
01:03:00.522 PM 02/14/2016,Teleop Disabled,0,FALSE,0,NO ERROR,0.000000,0.000000,4000.000000,4000.000000,Speed,Speed,-0.570000,2.570000,0.940000,3.000000,101.000000,1,0,-0.006200,-0.006200,0,0.000000,0.000000,0.000000,-0.105270,0.010300,0.000000,0.000000,-0.001000,0.005000,FlatInitial
01:03:00.623 PM 02/14/2016,Teleop Disabled,0,FALSE,0,NO ERROR,0.000000,0.000000,4000.000000,4000.000000,Speed,Speed,-0.570000,2.570000,0.940000,3.000000,103.000000,1,0,-0.006200,-0.006200,0,0.000000,0.000000,0.000000,-0.105270,0.010300,0.000000,0.000000,-0.001000,0.012000,FlatInitial
01:03:00.724 PM 02/14/2016,Teleop Disabled,0,FALSE,0,NO ERROR,0.000000,0.000000,4000.000000,4000.000000,Speed,Speed,-0.570000,2.580000,0.940000,3.000000,104.000000,1,0,-0.006200,-0.006200,0,-0.004425,0.000000,0.000000,-0.105316,0.010300,0.000000,-0.001000,-0.011000,-0.010000,FlatInitial
01:03:00.825 PM 02/14/2016,Teleop Disabled,0,FALSE,0,NO ERROR,0.000000,0.000000,4000.000000,4000.000000,Speed,Speed,-0.570000,2.570000,0.950000,3.000000,102.000000,1,0,-0.006200,-0.006200,0,0.000000,0.000000,0.000000,-0.105469,0.010300,0.000000,-0.011000,0.010000,-0.019000,FlatInitial
01:03:00.927 PM 02/14/2016,Teleop Disabled,0,FALSE,0,NO ERROR,0.000000,0.000000,4000.000000,4000.000000,Speed,Speed,-0.570000,2.560000,0.950000,3.000000,103.000000,1,0,-0.006200,-0.006200,0,0.000000,0.000000,0.000000,-0.105469,0.010300,0.000000,-0.010000,-0.002000,0.004000,FlatInitial
01:03:01.027 PM 02/14/2016,Teleop Disabled,0,FALSE,0,NO ERROR,0.000000,0.000000,4000.000000,4000.000000,Speed,Speed,-0.570000,2.560000,0.950000,3.000000,101.000000,1,0,-0.006200,-0.006200,0,0.000000,0.000000,0.000000,-0.105469,0.010300,0.000000,-0.001000,0.001000,0.008000,FlatInitial
01:03:01.127 PM 02/14/2016,Teleop Disabled,0,FALSE,0,NO ERROR,0.000000,0.000000,4000.000000,4000.000000,Speed,Speed,-0.570000,2.560000,0.950000,3.000000,101.000000,1,0,-0.006200,-0.006200,0,0.000000,0.000000,0.000000,-0.105469,0.010300,0.000000,0.003000,-0.003000,0.008000,FlatInitial
01:03:01.228 PM 02/14/2016,Teleop Disabled,0,FALSE,0,NO ERROR,0.000000,0.000000,4000.000000,4000.000000,Speed,Speed,-0.580000,2.550000,0.940000,3.000000,101.000000,1,0,-0.006200,-0.006200,0,0.000000,0.000000,0.000000,-0.105469,0.010300,0.000000,0.002000,0.000000,0.005000,FlatInitial
01:03:01.328 PM 02/14/2016,Teleop Disabled,0,FALSE,0,NO ERROR,0.000000,0.000000,4000.000000,4000.000000,Speed,Speed,-0.580000,2.560000,0.950000,3.000000,102.000000,1,0,-0.006200,-0.006200,0,0.000000,0.000000,0.000000,-0.105469,0.010300,0.000000,-0.001000,-0.002000,0.008000,FlatInitial
01:03:01.428 PM 02/14/2016,Teleop Disabled,0,FALSE,0,NO ERROR,0.000000,0.000000,4000.000000,4000.000000,Speed,Speed,-0.590000,2.550000,0.930000,3.000000,101.000000,1,0,-0.006200,-0.006200,0,0.000000,0.000000,0.000000,-0.105469,0.010300,0.000000,-0.002000,0.012000,-0.001000,FlatInitial
01:03:01.528 PM 02/14/2016,Teleop Disabled,0,FALSE,0,NO ERROR,0.000000,0.000000,4000.000000,4000.000000,Speed,Speed,-0.590000,2.540000,0.890000,3.000000,102.000000,1,0,-0.006200,-0.006200,0,0.000000,0.000000,0.000000,-0.105469,0.010300,0.000000,0.000000,-0.007000,-0.005000,FlatInitial
01:03:01.628 PM 02/14/2016,Teleop Disabled,0,FALSE,0,NO ERROR,0.000000,0.000000,4000.000000,4000.000000,Speed,Speed,-0.600000,2.540000,0.880000,3.000000,101.000000,1,0,-0.006200,-0.006200,0,0.000000,0.000000,0.000000,-0.105469,0.010300,0.000000,0.002000,-0.004000,0.003000,FlatInitial
01:03:01.728 PM 02/14/2016,Teleop Disabled,0,FALSE,0,NO ERROR,0.000000,0.000000,4000.000000,4000.000000,Speed,Speed,-0.610000,2.560000,0.880000,3.000000,102.000000,1,0,-0.006200,-0.006200,0,0.000000,0.000000,0.000000,-0.105469,0.010300,0.000000,0.002000,0.004000,0.011000,FlatInitial
01:03:01.829 PM 02/14/2016,Teleop Disabled,0,FALSE,0,NO ERROR,0.000000,0.000000,4000.000000,4000.000000,Speed,Speed,-0.630000,2.560000,0.840000,3.000000,100.000000,1,0,-0.006200,-0.006200,0,0.000000,0.000000,0.000000,-0.105469,0.010300,0.000000,0.001000,0.005000,0.012000,FlatInitial
01:03:01.929 PM 02/14/2016,Teleop Disabled,0,FALSE,0,NO ERROR,0.000000,0.000000,4000.000000,4000.000000,Speed,Speed,-0.840000,2.600000,0.820000,3.000000,102.000000,1,0,-0.006200,-0.006200,0,0.000000,0.000000,0.000000,-0.105469,0.010513,0.000000,-0.002000,0.004000,0.018000,FlatInitial
01:03:02.029 PM 02/14/2016,Teleop Disabled,0,FALSE,0,NO ERROR,0.000000,0.000000,4000.000000,4000.000000,Speed,Speed,-0.970000,2.420000,0.820000,3.000000,102.000000,1,0,-0.006200,-0.006200,0,0.000000,0.000000,0.000000,-0.105743,0.010513,0.000000,0.000000,-0.009000,-0.004000,FlatInitial
01:03:02.130 PM 02/14/2016,Teleop Disabled,0,FALSE,0,NO ERROR,0.000000,0.000000,4000.000000,4000.000000,Speed,Speed,-0.900000,2.470000,1.020000,3.000000,101.000000,1,0,-0.006200,-0.006200,0,0.000000,0.000000,0.000000,-0.105743,0.010513,0.000000,0.001000,0.006000,0.017000,FlatInitial
01:03:02.230 PM 02/14/2016,Teleop Disabled,0,FALSE,0,NO ERROR,0.000000,0.000000,4000.000000,4000.000000,Speed,Speed,-0.910000,2.480000,0.960000,3.000000,101.000000,1,0,-0.006200,-0.006200,0,0.000000,0.000000,0.000000,-0.105743,0.010513,0.000000,-0.008000,-0.004000,-0.014000,FlatInitial
01:03:02.330 PM 02/14/2016,Teleop Disabled,0,FALSE,0,NO ERROR,0.000000,0.000000,4000.000000,4000.000000,Speed,Speed,-0.960000,2.540000,0.730000,3.000000,103.000000,1,0,-0.006200,-0.006200,0,0.000000,0.000000,0.000000,-0.105743,0.010513,0.000000,0.011000,0.006000,0.021000,FlatInitial
01:03:02.430 PM 02/14/2016,Teleop Disabled,0,FALSE,0,NO ERROR,0.000000,0.000000,4000.000000,4000.000000,Speed,Speed,-0.940000,2.480000,0.780000,3.000000,101.000000,1,0,-0.006200,-0.006200,0,0.000000,0.000000,0.000000,-0.105743,0.010513,0.000000,0.001000,-0.002000,0.011000,FlatInitial
01:03:02.530 PM 02/14/2016,Teleop Disabled,0,FALSE,0,NO ERROR,0.000000,0.000000,4000.000000,4000.000000,Speed,Speed,-0.940000,2.500000,0.780000,3.000000,102.000000,1,0,-0.006200,-0.006200,0,0.000000,0.000000,0.000000,-0.105743,0.010513,0.000000,0.000000,0.000000,0.002000,FlatInitial
01:03:02.630 PM 02/14/2016,Teleop Disabled,0,FALSE,0,NO ERROR,0.000000,0.000000,4000.000000,4000.000000,Speed,Speed,-0.940000,2.530000,0.850000,3.000000,101.000000,1,0,-0.006200,-0.006200,0,0.000000,0.000000,0.000000,-0.105743,0.010513,0.000000,0.003000,0.001000,0.013000,FlatInitial
01:03:02.730 PM 02/14/2016,Teleop Disabled,0,FALSE,0,NO ERROR,0.000000,0.000000,4000.000000,4000.000000,Speed,Speed,-0.940000,2.510000,0.820000,3.000000,101.000000,1,0,-0.006200,-0.006200,0,0.000000,0.000000,0.000000,-0.105743,0.010513,0.000000,0.000000,-0.002000,0.000000,FlatInitial
01:03:02.829 PM 02/14/2016,Teleop Disabled,0,FALSE,0,NO ERROR,0.000000,0.000000,4000.000000,4000.000000,Speed,Speed,-0.940000,2.540000,0.860000,3.000000,103.000000,1,0,-0.006200,-0.006200,0,0.000000,0.000000,0.000000,-0.105743,0.010513,0.000000,0.011000,0.003000,0.019000,FlatInitial
01:03:02.930 PM 02/14/2016,Teleop Disabled,0,FALSE,0,NO ERROR,0.000000,0.000000,4000.000000,4000.000000,Speed,Speed,-0.950000,2.570000,0.880000,3.000000,102.000000,1,0,-0.006200,-0.006200,0,0.000000,0.000000,0.000000,-0.105545,0.010513,0.000000,-0.005000,-0.004000,-0.011000,FlatInitial
01:03:03.030 PM 02/14/2016,Teleop Disabled,0,FALSE,0,NO ERROR,0.000000,0.000000,4000.000000,4000.000000,Speed,Speed,-0.950000,2.580000,0.920000,3.000000,101.000000,1,0,-0.006200,-0.006200,0,0.000000,0.000000,0.000000,-0.105545,0.010513,0.000000,0.008000,0.000000,0.017000,FlatInitial
01:03:03.130 PM 02/14/2016,Teleop Disabled,0,FALSE,0,NO ERROR,0.000000,0.000000,4000.000000,4000.000000,Speed,Speed,-0.940000,2.550000,0.860000,3.000000,101.000000,1,0,-0.006200,-0.006200,0,0.000000,0.000000,0.000000,-0.105545,0.010513,0.000000,0.000000,0.000000,0.007000,FlatInitial
01:03:03.230 PM 02/14/2016,Teleop Disabled,0,FALSE,0,NO ERROR,0.000000,0.000000,4000.000000,4000.000000,Speed,Speed,-0.950000,2.510000,0.820000,3.000000,104.000000,1,0,-0.006200,-0.006200,0,0.000000,0.000000,0.000000,-0.105545,0.010513,0.000000,-0.008000,0.000000,-0.007000,FlatInitial
01:03:03.329 PM 02/14/2016,Teleop Disabled,0,FALSE,0,NO ERROR,0.000000,0.000000,4000.000000,4000.000000,Speed,Speed,-0.950000,2.550000,0.870000,3.000000,103.000000,1,0,-0.006200,-0.006200,0,0.000000,0.000000,0.000000,-0.105545,0.010513,0.000000,0.000000,0.002000,0.006000,FlatInitial
01:03:03.430 PM 02/14/2016,Teleop Disabled,0,FALSE,0,NO ERROR,0.000000,0.000000,4000.000000,4000.000000,Speed,Speed,-0.950000,2.500000,0.800000,3.000000,104.000000,1,0,-0.006200,-0.006200,0,0.000000,0.000000,0.000000,-0.105545,0.010513,0.000000,0.004000,0.000000,0.009000,FlatInitial
01:03:03.530 PM 02/14/2016,Teleop Disabled,0,FALSE,0,NO ERROR,0.000000,0.000000,4000.000000,4000.000000,Speed,Speed,-0.950000,2.520000,0.840000,3.000000,100.000000,1,0,-0.006200,-0.006200,0,0.000000,0.000000,0.000000,-0.105545,0.010513,0.000000,-0.001000,0.000000,0.000000,FlatInitial
01:03:03.631 PM 02/14/2016,Teleop Disabled,0,FALSE,0,NO ERROR,0.000000,0.000000,4000.000000,4000.000000,Speed,Speed,-0.950000,2.500000,0.780000,3.000000,101.000000,1,0,-0.006200,-0.006200,0,0.000000,0.000000,0.000000,-0.105545,0.010513,0.000000,0.000000,-0.003000,0.002000,FlatInitial
01:03:03.731 PM 02/14/2016,Teleop Disabled,0,FALSE,0,NO ERROR,0.000000,0.000000,4000.000000,4000.000000,Speed,Speed,-0.950000,2.510000,0.840000,3.000000,101.000000,1,0,-0.006200,-0.006200,0,0.000000,0.000000,0.000000,-0.105545,0.010513,0.000000,0.002000,0.003000,0.018000,FlatInitial
01:03:03.831 PM 02/14/2016,Teleop Disabled,0,FALSE,0,NO ERROR,0.000000,0.000000,4000.000000,4000.000000,Speed,Speed,-0.950000,2.500000,0.810000,3.000000,102.000000,1,0,-0.006200,-0.006200,0,0.000000,0.000000,0.000000,-0.105545,0.010513,0.000000,-0.002000,-0.002000,-0.006000,FlatInitial
01:03:03.931 PM 02/14/2016,Teleop Disabled,0,FALSE,0,NO ERROR,0.000000,0.000000,4000.000000,4000.000000,Speed,Speed,-0.950000,2.520000,0.850000,3.000000,101.000000,1,0,-0.006200,-0.006200,0,0.000000,0.000000,0.000000,-0.105545,0.010513,0.000000,0.000000,0.003000,0.013000,FlatInitial
01:03:04.032 PM 02/14/2016,Teleop Disabled,0,FALSE,0,NO ERROR,0.000000,0.000000,4000.000000,4000.000000,Speed,Speed,-0.940000,2.530000,0.870000,3.000000,102.000000,1,0,-0.006200,-0.006200,0,0.000000,0.000000,0.000000,-0.105545,0.010513,0.000000,0.002000,0.003000,0.009000,FlatInitial
01:03:04.132 PM 02/14/2016,Teleop Disabled,0,FALSE,0,NO ERROR,0.000000,0.000000,4000.000000,4000.000000,Speed,Speed,-0.940000,2.530000,0.880000,3.000000,102.000000,1,0,-0.006200,-0.006200,0,0.000000,0.000000,0.000000,-0.105545,0.010513,0.000000,0.004000,0.003000,0.017000,FlatInitial
01:03:04.233 PM 02/14/2016,Teleop Disabled,0,FALSE,0,NO ERROR,0.000000,0.000000,4000.000000,4000.000000,Speed,Speed,-0.940000,2.530000,0.850000,3.000000,100.000000,1,0,-0.006200,-0.006200,0,0.000000,0.000000,0.000000,-0.105545,0.010513,0.000000,0.004000,0.003000,0.017000,FlatInitial
01:03:04.334 PM 02/14/2016,Teleop Disabled,0,FALSE,0,NO ERROR,0.000000,0.000000,4000.000000,4000.000000,Speed,Speed,-0.950000,2.540000,0.850000,3.000000,102.000000,1,0,-0.006200,-0.006200,0,0.000000,0.000000,0.000000,-0.105545,0.010513,0.000000,0.004000,-0.001000,0.007000,FlatInitial
01:03:04.434 PM 02/14/2016,Teleop Disabled,0,FALSE,0,NO ERROR,0.000000,0.000000,4000.000000,4000.000000,Speed,Speed,-0.950000,2.520000,0.820000,3.000000,102.000000,1,0,-0.006200,-0.006200,0,0.000000,0.000000,0.000000,-0.105545,0.010513,0.000000,-0.001000,0.002000,0.005000,FlatInitial
01:03:04.533 PM 02/14/2016,Teleop Disabled,0,FALSE,0,NO ERROR,0.000000,0.000000,4000.000000,4000.000000,Speed,Speed,-0.950000,2.510000,0.820000,3.000000,100.000000,1,0,-0.006200,-0.006200,0,0.000000,0.000000,0.000000,-0.105545,0.010513,0.000000,-0.001000,0.002000,0.005000,FlatInitial
01:03:04.634 PM 02/14/2016,Teleop Disabled,0,FALSE,0,NO ERROR,0.000000,0.000000,4000.000000,4000.000000,Speed,Speed,-0.960000,2.550000,0.880000,3.000000,104.000000,1,0,-0.006200,-0.006200,0,0.000000,0.000000,0.000000,-0.105545,0.010513,0.000000,-0.002000,0.000000,0.006000,FlatInitial
01:03:04.734 PM 02/14/2016,Teleop Disabled,0,FALSE,0,NO ERROR,0.000000,0.000000,4000.000000,4000.000000,Speed,Speed,-0.950000,2.540000,0.880000,3.000000,101.000000,1,0,-0.006200,-0.006200,0,0.000000,0.000000,0.000000,-0.105545,0.010513,0.000000,-0.002000,0.000000,0.006000,FlatInitial
01:03:04.834 PM 02/14/2016,Teleop Disabled,0,FALSE,0,NO ERROR,0.000000,0.000000,4000.000000,4000.000000,Speed,Speed,-0.960000,2.510000,0.810000,3.000000,102.000000,1,0,-0.006200,-0.006200,0,0.000000,0.000000,0.000000,-0.105545,0.010513,0.000000,0.000000,0.001000,0.008000,FlatInitial
01:03:04.935 PM 02/14/2016,Teleop Disabled,0,FALSE,0,NO ERROR,0.000000,0.000000,4000.000000,4000.000000,Speed,Speed,-0.960000,2.510000,0.810000,3.000000,102.000000,1,0,-0.006200,-0.006200,0,0.000000,0.000000,0.000000,-0.105545,0.010513,0.000000,0.000000,0.000000,0.000000,FlatInitial
01:03:05.036 PM 02/14/2016,Teleop Disabled,0,FALSE,0,NO ERROR,0.000000,0.000000,4000.000000,4000.000000,Speed,Speed,-0.950000,2.540000,0.980000,3.000000,102.000000,1,0,-0.006200,-0.006200,0,0.000000,0.000000,0.000000,-0.105545,0.010513,0.000000,0.000000,0.000000,0.000000,FlatInitial
01:03:05.136 PM 02/14/2016,Teleop Disabled,0,FALSE,0,NO ERROR,0.000000,0.000000,4000.000000,4000.000000,Speed,Speed,-0.940000,2.560000,1.010000,3.000000,100.000000,1,0,-0.006200,-0.006200,0,0.000000,0.000000,0.000000,-0.105545,0.010513,0.000000,-0.005000,0.002000,-0.005000,FlatInitial
01:03:05.236 PM 02/14/2016,Teleop Disabled,0,FALSE,0,NO ERROR,0.000000,0.000000,4000.000000,4000.000000,Speed,Speed,-0.940000,2.490000,0.840000,3.000000,104.000000,1,0,-0.006200,-0.006200,0,0.000000,0.000000,0.000000,-0.105545,0.010513,0.000000,0.005000,-0.002000,0.004000,FlatInitial
01:03:05.338 PM 02/14/2016,Teleop Disabled,0,FALSE,0,NO ERROR,0.000000,0.000000,4000.000000,4000.000000,Speed,Speed,-0.880000,2.400000,0.680000,3.000000,102.000000,1,0,-0.006200,-0.006200,0,0.000000,0.002960,0.000000,-0.105545,0.010544,0.000000,-0.011000,0.020000,0.003000,FlatInitial
01:03:05.438 PM 02/14/2016,Teleop Disabled,0,FALSE,0,NO ERROR,0.000000,0.000000,4000.000000,4000.000000,Speed,Speed,-0.290000,2.240000,0.780000,3.000000,104.000000,1,0,-0.006200,-0.006200,0,0.000000,0.002960,0.000000,-0.105545,0.010544,0.000000,-0.011000,0.020000,0.003000,FlatInitial
01:03:05.539 PM 02/14/2016,Teleop Disabled,0,FALSE,0,NO ERROR,0.000000,0.000000,4000.000000,4000.000000,Speed,Speed,0.500000,2.310000,0.760000,3.000000,105.000000,1,0,-0.006200,-0.006200,0,0.058426,0.131256,0.000000,-0.104996,0.017868,0.000000,0.039000,0.027000,0.035000,FlatInitial
01:03:05.639 PM 02/14/2016,Teleop Disabled,0,FALSE,0,NO ERROR,0.000000,0.000000,4000.000000,4000.000000,Speed,Speed,0.310000,2.490000,1.080000,3.000000,103.000000,1,0,-0.006200,-0.006200,0,0.102936,0.000000,0.000000,-0.100540,0.023712,0.000000,0.039000,0.027000,0.035000,FlatInitial
01:03:05.740 PM 02/14/2016,Teleop Disabled,0,FALSE,0,NO ERROR,0.000000,0.000000,4000.000000,4000.000000,Speed,Speed,-0.550000,2.780000,1.980000,3.000000,102.000000,1,0,-0.006200,-0.006200,0,-0.013062,0.000000,0.000000,-0.100723,0.023849,0.000000,0.016000,0.004000,-0.030000,FlatInitial
01:03:05.841 PM 02/14/2016,Teleop Disabled,0,FALSE,0,NO ERROR,0.000000,0.000000,4000.000000,4000.000000,Speed,Speed,-1.080000,2.740000,2.070000,3.000000,102.000000,1,0,-0.006200,-0.006200,0,-0.039459,-0.014847,0.000000,-0.102386,0.023651,0.000000,-0.051000,0.002000,0.014000,FlatInitial
01:03:05.941 PM 02/14/2016,Teleop Disabled,0,FALSE,0,NO ERROR,0.000000,0.000000,4000.000000,4000.000000,Speed,Speed,-1.540000,2.630000,2.120000,3.000000,102.000000,1,0,-0.006200,-0.006200,0,-0.039459,-0.014847,0.000000,-0.102386,0.023651,0.000000,-0.016000,-0.036000,0.000000,FlatInitial
01:03:06.041 PM 02/14/2016,Teleop Disabled,0,FALSE,0,NO ERROR,0.000000,0.000000,4000.000000,4000.000000,Speed,Speed,-1.910000,2.440000,2.310000,3.000000,102.000000,1,0,-0.006200,-0.006200,0,-0.017014,-0.163116,0.000000,-0.102951,0.015167,0.000000,-0.009000,-0.077000,0.051000,FlatInitial
01:03:06.141 PM 02/14/2016,Teleop Disabled,0,FALSE,0,NO ERROR,0.000000,0.000000,4000.000000,4000.000000,Speed,Speed,-2.170000,2.090000,2.480000,3.000000,101.000000,1,0,-0.006200,-0.006200,0,0.000000,-0.227783,0.000000,-0.103394,0.004730,0.000000,-0.006000,-0.095000,0.066000,FlatInitial
01:03:06.242 PM 02/14/2016,Teleop Disabled,0,FALSE,0,NO ERROR,0.000000,0.000000,4000.000000,4000.000000,Speed,Speed,-2.380000,1.660000,3.240000,3.000000,101.000000,1,0,-0.006200,-0.006200,0,0.010361,-0.006500,0.000000,-0.103088,0.004639,0.000000,0.015000,-0.001000,0.014000,FlatInitial
01:03:06.342 PM 02/14/2016,Teleop Disabled,0,FALSE,0,NO ERROR,0.000000,0.000000,4000.000000,4000.000000,Speed,Speed,-2.700000,0.950000,4.510000,3.000000,101.000000,1,0,-0.006200,-0.006200,0,0.002762,0.024506,0.000000,-0.102921,0.004883,0.000000,0.012000,-0.014000,0.016000,FlatInitial
01:03:06.442 PM 02/14/2016,Teleop Disabled,0,FALSE,0,NO ERROR,0.000000,0.000000,4000.000000,4000.000000,Speed,Speed,-2.810000,1.110000,4.820000,3.000000,102.000000,1,0,-0.006200,-0.006200,0,0.002762,0.024506,0.000000,-0.102921,0.004883,0.000000,0.036000,0.061000,-0.205000,FlatInitial
01:03:06.542 PM 02/14/2016,Teleop Disabled,0,FALSE,0,NO ERROR,0.000000,0.000000,4000.000000,4000.000000,Speed,Speed,-2.710000,1.330000,3.830000,3.000000,101.000000,1,0,-0.006200,-0.006200,0,0.014603,0.004395,0.000000,-0.102463,0.005249,0.000000,0.001000,0.056000,-0.134000,FlatInitial
01:03:06.642 PM 02/14/2016,Teleop Disabled,0,FALSE,0,NO ERROR,0.000000,0.000000,4000.000000,4000.000000,Speed,Speed,-2.450000,2.640000,1.840000,3.000000,103.000000,1,0,-0.006200,-0.006200,0,-0.006683,0.104324,0.000000,-0.102524,0.008057,0.000000,-0.005000,-0.048000,-0.016000,FlatInitial
01:03:06.742 PM 02/14/2016,Teleop Disabled,0,FALSE,0,NO ERROR,0.000000,0.000000,4000.000000,4000.000000,Speed,Speed,-2.370000,2.710000,-0.670000,3.000000,102.000000,1,0,-0.006200,-0.006200,0,-0.007324,0.102463,0.000000,-0.102905,0.013321,0.000000,0.293000,-0.091000,-0.661000,FlatInitial
01:03:06.842 PM 02/14/2016,Teleop Disabled,0,FALSE,0,NO ERROR,0.000000,0.000000,4000.000000,4000.000000,Speed,Speed,-2.370000,2.710000,-0.670000,3.000000,102.000000,1,0,-0.006200,-0.006200,0,-0.015518,0.051697,0.000000,-0.101730,0.017944,0.000000,0.017000,-0.062000,0.072000,FlatInitial
01:03:06.943 PM 02/14/2016,Teleop Disabled,0,FALSE,0,NO ERROR,0.000000,0.000000,4000.000000,4000.000000,Speed,Speed,-2.260000,0.890000,-4.150000,3.000000,102.000000,1,0,-0.006200,-0.006200,0,-0.015518,0.051697,0.000000,-0.101730,0.017944,0.000000,-0.018000,0.074000,-0.016000,FlatInitial
01:03:07.044 PM 02/14/2016,Teleop Disabled,0,FALSE,0,NO ERROR,0.000000,0.000000,4000.000000,4000.000000,Speed,Speed,-2.160000,1.700000,-6.510000,3.000000,101.000000,0,0,-0.006200,-0.006200,0,0.034683,0.189529,0.000000,-0.101196,0.030853,0.000000,0.026000,0.035000,-0.058000,FlatInitial
01:03:07.144 PM 02/14/2016,Teleop Disabled,0,FALSE,0,NO ERROR,0.000000,0.000000,4000.000000,4000.000000,Speed,Speed,-2.160000,1.700000,-6.510000,3.000000,102.000000,0,0,-0.006200,-0.006200,0,0.034683,0.189529,0.000000,-0.101196,0.030853,0.000000,0.031000,0.055000,-0.056000,FlatInitial
01:03:07.245 PM 02/14/2016,Teleop Disabled,0,FALSE,0,NO ERROR,0.000000,0.000000,4000.000000,4000.000000,Speed,Speed,-2.240000,1.280000,-7.780000,3.000000,102.000000,0,0,-0.006200,-0.006200,0,0.000000,0.000000,0.000000,-0.100357,0.049591,0.000000,0.019000,0.043000,-0.104000,FlatInitial
01:03:07.347 PM 02/14/2016,Teleop Disabled,0,FALSE,0,NO ERROR,0.000000,0.000000,4000.000000,4000.000000,Speed,Speed,-2.290000,1.300000,-7.670000,3.000000,102.000000,0,0,-0.006200,-0.006200,0,0.000000,0.000000,0.000000,-0.100357,0.049591,0.000000,0.032000,0.004000,-0.114000,FlatInitial
01:03:07.446 PM 02/14/2016,Teleop Disabled,0,FALSE,0,NO ERROR,0.000000,0.000000,4000.000000,4000.000000,Speed,Speed,-2.530000,2.330000,-6.620000,3.000000,101.000000,0,0,-0.006200,-0.006200,0,0.033051,0.024963,0.000000,-0.099121,0.050308,0.000000,0.013000,0.022000,-0.126000,FlatInitial
01:03:07.547 PM 02/14/2016,Teleop Disabled,0,FALSE,0,NO ERROR,0.000000,0.000000,4000.000000,4000.000000,Speed,Speed,-3.170000,3.960000,-4.350000,3.000000,101.000000,1,0,-0.006200,-0.006200,0,0.006912,-0.007172,0.000000,-0.097961,0.050842,0.000000,-0.046000,-0.029000,-0.035000,FlatInitial
01:03:07.647 PM 02/14/2016,Teleop Disabled,0,FALSE,0,NO ERROR,0.000000,0.000000,4000.000000,4000.000000,Speed,Speed,-3.620000,3.990000,-2.650000,3.000000,103.000000,1,0,-0.006200,-0.006200,0,-0.063934,-0.059143,0.000000,-0.099503,0.049149,0.000000,-0.092000,-0.076000,0.017000,FlatInitial
01:03:07.748 PM 02/14/2016,Teleop Disabled,0,FALSE,0,NO ERROR,0.000000,0.000000,4000.000000,4000.000000,Speed,Speed,-3.620000,2.900000,-1.500000,3.000000,102.000000,1,0,-0.006200,-0.006200,0,-0.125305,-0.120590,0.000000,-0.104828,0.044281,0.000000,-0.014000,-0.038000,-0.119000,FlatInitial
01:03:07.849 PM 02/14/2016,Teleop Disabled,0,FALSE,0,NO ERROR,0.000000,0.000000,4000.000000,4000.000000,Speed,Speed,-3.670000,1.730000,-0.130000,3.000000,102.000000,1,0,-0.006200,-0.006200,0,-0.124924,-0.129028,0.000000,-0.110733,0.037888,0.000000,-0.050000,-0.008000,-0.204000,FlatInitial
01:03:07.950 PM 02/14/2016,Teleop Disabled,0,FALSE,0,NO ERROR,0.000000,0.000000,4000.000000,4000.000000,Speed,Speed,-3.550000,1.320000,0.860000,3.000000,101.000000,1,0,-0.006200,-0.006200,0,-0.152008,-0.153839,0.000000,-0.118011,0.030716,0.000000,-0.018000,-0.044000,-0.220000,FlatInitial
01:03:08.051 PM 02/14/2016,Teleop Disabled,0,FALSE,0,NO ERROR,0.000000,0.000000,4000.000000,4000.000000,Speed,Speed,-3.480000,2.280000,1.140000,3.000000,101.000000,1,0,-0.006200,-0.006200,0,-0.076218,-0.190048,0.000000,-0.122711,0.020401,0.000000,-0.066000,0.049000,0.027000,FlatInitial
01:03:08.151 PM 02/14/2016,Teleop Disabled,0,FALSE,0,NO ERROR,0.000000,0.000000,4000.000000,4000.000000,Speed,Speed,-3.780000,2.160000,0.990000,3.000000,102.000000,1,0,-0.006200,-0.006200,0,-0.014618,-0.192749,0.000000,-0.124557,0.010681,0.000000,-0.044000,0.032000,0.015000,FlatInitial
01:03:08.251 PM 02/14/2016,Teleop Disabled,0,FALSE,0,NO ERROR,0.000000,0.000000,4000.000000,4000.000000,Speed,Speed,-3.850000,2.400000,1.110000,3.000000,101.000000,1,0,-0.006200,-0.006200,0,0.000000,0.001541,0.000000,-0.124741,0.008820,0.000000,0.008000,0.024000,0.062000,FlatInitial
01:03:08.351 PM 02/14/2016,Teleop Disabled,0,FALSE,0,NO ERROR,0.000000,0.000000,4000.000000,4000.000000,Speed,Speed,-3.800000,2.390000,0.800000,3.000000,103.000000,1,0,-0.006200,-0.006200,0,0.000000,0.000000,0.000000,-0.124741,0.009308,0.000000,0.011000,0.000000,0.001000,FlatInitial
01:03:08.451 PM 02/14/2016,Teleop Disabled,0,FALSE,0,NO ERROR,0.000000,0.000000,4000.000000,4000.000000,Speed,Speed,-3.830000,2.580000,-0.210000,3.000000,101.000000,1,0,-0.006200,-0.006200,0,0.003922,0.006912,0.000000,-0.124710,0.009460,0.000000,-0.009000,0.016000,0.019000,FlatInitial
01:03:08.552 PM 02/14/2016,Teleop Disabled,0,FALSE,0,NO ERROR,0.000000,0.000000,4000.000000,4000.000000,Speed,Speed,-3.760000,2.310000,-1.490000,3.000000,102.000000,1,0,-0.006200,-0.006200,0,0.000000,0.000000,0.000000,-0.124619,0.009460,0.000000,-0.003000,-0.001000,-0.038000,FlatInitial
01:03:08.652 PM 02/14/2016,Teleop Disabled,0,FALSE,0,NO ERROR,0.000000,0.000000,4000.000000,4000.000000,Speed,Speed,-3.770000,2.330000,-2.340000,3.000000,102.000000,1,0,-0.006200,-0.006200,0,0.000000,0.000000,0.000000,-0.124619,0.009460,0.000000,0.008000,0.011000,0.007000,FlatInitial
01:03:08.753 PM 02/14/2016,Teleop Disabled,0,FALSE,0,NO ERROR,0.000000,0.000000,4000.000000,4000.000000,Speed,Speed,-3.760000,2.270000,-2.520000,3.000000,101.000000,1,0,-0.006200,-0.006200,0,0.000000,0.000000,0.000000,-0.124619,0.009460,0.000000,-0.006000,0.002000,-0.014000,FlatInitial
01:03:08.854 PM 02/14/2016,Teleop Disabled,0,FALSE,0,NO ERROR,0.000000,0.000000,4000.000000,4000.000000,Speed,Speed,-3.780000,2.320000,-2.050000,3.000000,102.000000,1,0,-0.006200,-0.006200,0,0.000000,0.000000,0.000000,-0.124619,0.009460,0.000000,-0.007000,-0.001000,-0.010000,FlatInitial
01:03:08.954 PM 02/14/2016,Teleop Disabled,0,FALSE,0,NO ERROR,0.000000,0.000000,4000.000000,4000.000000,Speed,Speed,-3.820000,2.400000,-1.260000,3.000000,101.000000,1,0,-0.006200,-0.006200,0,0.000000,0.000000,0.000000,-0.124619,0.009460,0.000000,-0.004000,0.002000,0.010000,FlatInitial
01:03:09.055 PM 02/14/2016,Teleop Disabled,0,FALSE,0,NO ERROR,0.000000,0.000000,4000.000000,4000.000000,Speed,Speed,-3.840000,2.470000,-0.430000,3.000000,101.000000,1,0,-0.006200,-0.006200,0,0.000000,0.000000,0.000000,-0.124619,0.009460,0.000000,0.004000,0.000000,0.012000,FlatInitial
01:03:09.156 PM 02/14/2016,Teleop Disabled,0,FALSE,0,NO ERROR,0.000000,0.000000,4000.000000,4000.000000,Speed,Speed,-3.860000,2.580000,0.420000,3.000000,102.000000,1,0,-0.006200,-0.006200,0,0.000000,0.000000,0.000000,-0.124619,0.009460,0.000000,-0.011000,0.000000,0.015000,FlatInitial
01:03:09.256 PM 02/14/2016,Teleop Disabled,0,FALSE,0,NO ERROR,0.000000,0.000000,4000.000000,4000.000000,Speed,Speed,-3.820000,2.410000,1.270000,3.000000,102.000000,1,0,-0.006200,-0.006200,0,0.003998,-0.000763,0.000000,-0.124557,0.009445,0.000000,-0.011000,0.027000,0.056000,FlatInitial
01:03:09.357 PM 02/14/2016,Teleop Disabled,0,FALSE,0,NO ERROR,0.000000,0.000000,4000.000000,4000.000000,Speed,Speed,-3.310000,2.210000,1.380000,3.000000,102.000000,1,0,-0.006200,-0.006200,0,-0.015564,0.000000,0.000000,-0.125015,0.009705,0.000000,-0.014000,-0.008000,0.035000,FlatInitial
01:03:09.457 PM 02/14/2016,Teleop Disabled,0,FALSE,0,NO ERROR,0.000000,0.000000,4000.000000,4000.000000,Speed,Speed,-2.690000,2.190000,1.390000,3.000000,103.000000,1,0,-0.006200,-0.006200,0,0.000000,0.000000,0.000000,-0.125015,0.009705,0.000000,0.005000,0.006000,0.020000,FlatInitial
