Time,RobotMode,AutoToRun,ErrorStatus, ErrorCode,ErrorSource,ActualRPM1,ActualRPM2,DesiredRPM1,DesiredRPM2,ControlMode1,ControlMode2,NavXYaw,NavXRoll,NavXPitch,ShooterState,LoopTime,IsLevel,IsAutoTargeting,LeftMotorOutput,RightMotorOutput,IsHaloDrive,NavXVelocityX,NavXVelocityY,NavXVelocityZ,NavXDisplacementX,NavXDisplacementY,NavXDisplacementZ,NavXAccelerationX,NavXAccelerationY,NavXAccelerationZ,AutoDefendState
11:01:32.879 AM 02/13/2016,Teleop Disabled,0,TRUE,-44087,NetComm_CAN_Receive.vi:5470006<APPEND>  <b>Complete call chain:</b>      NetComm_CAN_Receive.vi:5470006      WPI_CANTalonSRX_Receive.vi      WPI_MotorControlOpenCANTalonSRX.vi      Begin.vi      Robot Main.vi,0.000000,0.000000,9000.000000,9000.000000,Speed,Speed,-0.400000,1.150000,2.660000,4.000000,101.000000,1,0,-0.003038,-0.005022,0,0.000000,0.000000,0.000000,-1.506805,-0.756180,0.000000,-0.001000,0.000000,0.003000,FlatInitial
11:01:32.978 AM 02/13/2016,Teleop Disabled,0,TRUE,-44087,NetComm_CAN_Receive.vi:5470006<APPEND>  <b>Complete call chain:</b>      NetComm_CAN_Receive.vi:5470006      WPI_CANTalonSRX_Receive.vi      WPI_MotorControlOpenCANTalonSRX.vi      Begin.vi      Robot Main.vi,0.000000,0.000000,0.000000,0.000000,Speed,Speed,-0.570000,1.110000,2.890000,0.000000,4637392.000000,1,0,-0.003038,-0.005022,0,0.000000,0.000000,0.000000,-1.506805,-0.756180,0.000000,-0.001000,0.000000,0.003000,FlatInitial
11:01:33.078 AM 02/13/2016,Teleop Disabled,0,TRUE,-44087,NetComm_CAN_Receive.vi:5470006<APPEND>  <b>Complete call chain:</b>      NetComm_CAN_Receive.vi:5470006      WPI_CANTalonSRX_Receive.vi      WPI_MotorControlOpenCANTalonSRX.vi      Begin.vi      Robot Main.vi,0.000000,0.000000,0.000000,0.000000,Speed,Speed,-0.570000,1.110000,2.890000,0.000000,102.000000,1,0,-0.003038,-0.005022,0,0.000000,0.000000,0.000000,-1.506805,-0.756180,0.000000,-0.001000,0.000000,0.003000,FlatInitial
11:01:33.179 AM 02/13/2016,Teleop Disabled,0,TRUE,-44087,NetComm_CAN_Receive.vi:5470006<APPEND>  <b>Complete call chain:</b>      NetComm_CAN_Receive.vi:5470006      WPI_CANTalonSRX_Receive.vi      WPI_MotorControlOpenCANTalonSRX.vi      Begin.vi      Robot Main.vi,0.000000,0.000000,0.000000,0.000000,Speed,Speed,-0.570000,1.110000,2.890000,0.000000,103.000000,1,0,-0.003038,-0.005022,0,0.000000,0.000000,0.000000,-1.506805,-0.756180,0.000000,-0.001000,0.000000,0.003000,FlatInitial
11:01:33.280 AM 02/13/2016,Teleop Disabled,0,TRUE,-44087,NetComm_CAN_Receive.vi:5470006<APPEND>  <b>Complete call chain:</b>      NetComm_CAN_Receive.vi:5470006      WPI_CANTalonSRX_Receive.vi      WPI_MotorControlOpenCANTalonSRX.vi      Begin.vi      Robot Main.vi,0.000000,0.000000,0.000000,0.000000,Speed,Speed,-0.570000,1.110000,2.890000,0.000000,102.000000,1,0,-0.003038,-0.005022,0,0.000000,0.000000,0.000000,-1.506805,-0.756180,0.000000,-0.001000,0.000000,0.003000,FlatInitial
11:01:33.379 AM 02/13/2016,Teleop Disabled,0,TRUE,-44087,NetComm_CAN_Receive.vi:5470006<APPEND>  <b>Complete call chain:</b>      NetComm_CAN_Receive.vi:5470006      WPI_CANTalonSRX_Receive.vi      WPI_MotorControlOpenCANTalonSRX.vi      Begin.vi      Robot Main.vi,0.000000,0.000000,0.000000,0.000000,Speed,Speed,-0.570000,1.110000,2.890000,0.000000,103.000000,1,0,-0.003038,-0.005022,0,0.000000,0.000000,0.000000,-1.506805,-0.756180,0.000000,-0.001000,0.000000,0.003000,FlatInitial
11:01:33.480 AM 02/13/2016,Teleop Disabled,0,TRUE,-44087,NetComm_CAN_Receive.vi:5470006<APPEND>  <b>Complete call chain:</b>      NetComm_CAN_Receive.vi:5470006      WPI_CANTalonSRX_Receive.vi      WPI_CANTalonSRX_GetStatus.vi      ShooterVI.vi      Periodic Tasks.vi      Robot Main.vi,0.000000,0.000000,0.000000,0.000000,Speed,Speed,-0.570000,1.110000,2.890000,0.000000,101.000000,1,0,-0.003038,-0.005022,0,0.000000,0.000000,0.000000,-1.506805,-0.756180,0.000000,-0.001000,0.000000,0.003000,FlatInitial
11:01:33.580 AM 02/13/2016,Teleop Disabled,0,TRUE,-44087,NetComm_CAN_Receive.vi:5470006<APPEND>  <b>Complete call chain:</b>      NetComm_CAN_Receive.vi:5470006      WPI_CANTalonSRX_Receive.vi      WPI_CANTalonSRX_GetStatus.vi      ShooterVI.vi      Periodic Tasks.vi      Robot Main.vi,0.000000,0.000000,0.000000,0.000000,Speed,Speed,-0.570000,1.110000,2.890000,0.000000,101.000000,1,0,-0.003038,-0.005022,0,0.000000,0.000000,0.000000,-1.506805,-0.756180,0.000000,-0.001000,0.000000,0.003000,FlatInitial
11:01:33.679 AM 02/13/2016,Teleop Disabled,0,FALSE,0,NO ERROR,0.000000,0.000000,0.000000,0.000000,Speed,Speed,-0.570000,1.110000,2.890000,0.000000,102.000000,1,0,-0.003038,-0.005022,0,0.000000,0.000000,0.000000,-1.506805,-0.756180,0.000000,-0.001000,0.000000,0.003000,FlatInitial
11:01:33.779 AM 02/13/2016,Teleop Disabled,0,FALSE,0,NO ERROR,0.000000,0.000000,0.000000,0.000000,Speed,Speed,-0.570000,1.110000,2.890000,0.000000,103.000000,1,0,-0.003038,-0.005022,0,0.000000,0.000000,0.000000,-1.506805,-0.756180,0.000000,-0.001000,0.000000,0.003000,FlatInitial
11:01:33.879 AM 02/13/2016,Teleop Disabled,0,FALSE,0,NO ERROR,0.000000,0.000000,0.000000,0.000000,Speed,Speed,-0.570000,1.110000,2.890000,0.000000,101.000000,1,0,-0.003038,-0.005022,0,0.000000,0.000000,0.000000,-1.506805,-0.756180,0.000000,-0.001000,0.000000,0.003000,FlatInitial
11:01:33.980 AM 02/13/2016,Teleop Disabled,0,FALSE,0,NO ERROR,0.000000,0.000000,0.000000,0.000000,Speed,Speed,-0.570000,1.110000,2.890000,0.000000,103.000000,1,0,-0.003038,-0.005022,0,0.000000,0.000000,0.000000,-1.506805,-0.756180,0.000000,-0.001000,0.000000,0.003000,FlatInitial
11:01:34.080 AM 02/13/2016,Teleop Disabled,0,FALSE,0,NO ERROR,0.000000,0.000000,0.000000,0.000000,Speed,Speed,-0.570000,1.110000,2.890000,0.000000,101.000000,1,0,-0.003038,-0.005022,0,0.000000,0.000000,0.000000,-1.506805,-0.756180,0.000000,-0.001000,0.000000,0.003000,FlatInitial
11:01:34.181 AM 02/13/2016,Teleop Disabled,0,FALSE,0,NO ERROR,0.000000,0.000000,0.000000,0.000000,Speed,Speed,-0.570000,1.110000,2.890000,0.000000,103.000000,1,0,-0.003038,-0.005022,0,0.000000,0.000000,0.000000,-1.506805,-0.756180,0.000000,-0.001000,0.000000,0.003000,FlatInitial
11:01:34.282 AM 02/13/2016,Teleop Disabled,0,FALSE,0,NO ERROR,0.000000,0.000000,0.000000,0.000000,Speed,Speed,-0.570000,1.110000,2.890000,0.000000,102.000000,1,0,-0.003038,-0.005022,0,0.000000,0.000000,0.000000,-1.506805,-0.756180,0.000000,-0.001000,0.000000,0.003000,FlatInitial
11:01:34.382 AM 02/13/2016,Teleop Disabled,0,FALSE,0,NO ERROR,0.000000,0.000000,0.000000,0.000000,Speed,Speed,-0.570000,1.110000,2.890000,0.000000,102.000000,1,0,-0.003038,-0.005022,0,0.000000,0.000000,0.000000,-1.506805,-0.756180,0.000000,-0.001000,0.000000,0.003000,FlatInitial
11:01:34.482 AM 02/13/2016,Teleop Disabled,0,FALSE,0,NO ERROR,0.000000,0.000000,0.000000,0.000000,Speed,Speed,-0.570000,1.110000,2.890000,0.000000,102.000000,1,0,-0.003038,-0.005022,0,0.000000,0.000000,0.000000,-1.506805,-0.756180,0.000000,-0.001000,0.000000,0.003000,FlatInitial
11:01:34.583 AM 02/13/2016,Teleop Disabled,0,FALSE,0,NO ERROR,0.000000,0.000000,0.000000,0.000000,Speed,Speed,-0.570000,1.110000,2.890000,0.000000,100.000000,1,0,-0.003038,-0.005022,0,0.000000,0.000000,0.000000,-1.506805,-0.756180,0.000000,-0.001000,0.000000,0.003000,FlatInitial
11:01:34.683 AM 02/13/2016,Teleop Disabled,0,FALSE,0,NO ERROR,0.000000,0.000000,0.000000,0.000000,Speed,Speed,-0.570000,1.110000,2.890000,0.000000,102.000000,1,0,-0.003038,-0.005022,0,0.000000,0.000000,0.000000,-1.506805,-0.756180,0.000000,-0.001000,0.000000,0.003000,FlatInitial
11:01:34.784 AM 02/13/2016,Teleop Disabled,0,FALSE,0,NO ERROR,0.000000,0.000000,0.000000,0.000000,Speed,Speed,-0.570000,1.110000,2.890000,0.000000,101.000000,1,0,-0.003038,-0.005022,0,0.000000,0.000000,0.000000,-1.506805,-0.756180,0.000000,-0.001000,0.000000,0.003000,FlatInitial
11:01:34.885 AM 02/13/2016,Teleop Disabled,0,FALSE,0,NO ERROR,0.000000,0.000000,0.000000,0.000000,Speed,Speed,-0.570000,1.110000,2.890000,0.000000,102.000000,1,0,-0.003038,-0.005022,0,0.000000,0.000000,0.000000,-1.506805,-0.756180,0.000000,-0.001000,0.000000,0.003000,FlatInitial
11:01:34.985 AM 02/13/2016,Teleop Disabled,0,FALSE,0,NO ERROR,0.000000,0.000000,0.000000,0.000000,Speed,Speed,-0.570000,1.110000,2.890000,0.000000,103.000000,1,0,-0.003038,-0.005022,0,0.000000,0.000000,0.000000,-1.506805,-0.756180,0.000000,-0.001000,0.000000,0.003000,FlatInitial
11:01:35.085 AM 02/13/2016,Teleop Disabled,0,FALSE,0,NO ERROR,0.000000,0.000000,0.000000,0.000000,Speed,Speed,-0.570000,1.110000,2.890000,0.000000,100.000000,1,0,-0.003038,-0.005022,0,0.000000,0.000000,0.000000,-1.506805,-0.756180,0.000000,-0.001000,0.000000,0.003000,FlatInitial
11:01:35.186 AM 02/13/2016,Teleop Disabled,0,FALSE,0,NO ERROR,0.000000,0.000000,0.000000,0.000000,Speed,Speed,-0.570000,1.110000,2.890000,0.000000,101.000000,1,0,-0.003038,-0.005022,0,0.000000,0.000000,0.000000,-1.506805,-0.756180,0.000000,-0.001000,0.000000,0.003000,FlatInitial
11:01:35.285 AM 02/13/2016,Teleop Disabled,0,FALSE,0,NO ERROR,0.000000,0.000000,0.000000,0.000000,Speed,Speed,-0.570000,1.110000,2.890000,0.000000,101.000000,1,0,-0.003038,-0.005022,0,0.000000,0.000000,0.000000,-1.506805,-0.756180,0.000000,-0.001000,0.000000,0.003000,FlatInitial
11:01:35.386 AM 02/13/2016,Teleop Disabled,0,FALSE,0,NO ERROR,0.000000,0.000000,0.000000,0.000000,Speed,Speed,-0.570000,1.110000,2.890000,0.000000,101.000000,1,0,-0.003038,-0.005022,0,0.000000,0.000000,0.000000,-1.506805,-0.756180,0.000000,-0.001000,0.000000,0.003000,FlatInitial
11:01:35.486 AM 02/13/2016,Teleop Disabled,0,FALSE,0,NO ERROR,0.000000,0.000000,0.000000,0.000000,Speed,Speed,-0.570000,1.110000,2.890000,0.000000,102.000000,1,0,-0.003038,-0.005022,0,0.000000,0.000000,0.000000,-1.506805,-0.756180,0.000000,-0.001000,0.000000,0.003000,FlatInitial
11:01:35.587 AM 02/13/2016,Teleop Disabled,0,FALSE,0,NO ERROR,0.000000,0.000000,0.000000,0.000000,Speed,Speed,-0.570000,1.110000,2.890000,0.000000,103.000000,1,0,-0.003038,-0.005022,0,0.000000,0.000000,0.000000,-1.506805,-0.756180,0.000000,-0.001000,0.000000,0.003000,FlatInitial
11:01:35.687 AM 02/13/2016,Teleop Disabled,0,FALSE,0,NO ERROR,0.000000,0.000000,0.000000,0.000000,Speed,Speed,-0.570000,1.110000,2.890000,0.000000,101.000000,1,0,-0.003038,-0.005022,0,0.000000,0.000000,0.000000,-1.506805,-0.756180,0.000000,-0.001000,0.000000,0.003000,FlatInitial
11:01:35.787 AM 02/13/2016,Teleop Disabled,0,FALSE,0,NO ERROR,0.000000,0.000000,0.000000,0.000000,Speed,Speed,-0.570000,1.110000,2.890000,0.000000,101.000000,1,0,-0.003038,-0.005022,0,0.000000,0.000000,0.000000,-1.506805,-0.756180,0.000000,-0.001000,0.000000,0.003000,FlatInitial
11:01:35.887 AM 02/13/2016,Teleop Disabled,0,FALSE,0,NO ERROR,0.000000,0.000000,0.000000,0.000000,Speed,Speed,-0.570000,1.110000,2.890000,0.000000,101.000000,1,0,-0.003038,-0.005022,0,0.000000,0.000000,0.000000,-1.506805,-0.756180,0.000000,-0.001000,0.000000,0.003000,FlatInitial
11:01:35.987 AM 02/13/2016,Teleop Disabled,0,FALSE,0,NO ERROR,0.000000,0.000000,0.000000,0.000000,Speed,Speed,-0.570000,1.110000,2.890000,0.000000,101.000000,1,0,-0.003038,-0.005022,0,0.000000,0.000000,0.000000,-1.506805,-0.756180,0.000000,-0.001000,0.000000,0.003000,FlatInitial
11:01:36.087 AM 02/13/2016,Teleop Disabled,0,FALSE,0,NO ERROR,0.000000,0.000000,0.000000,0.000000,Speed,Speed,-0.570000,1.110000,2.890000,0.000000,101.000000,1,0,-0.003038,-0.005022,0,0.000000,0.000000,0.000000,-1.506805,-0.756180,0.000000,-0.001000,0.000000,0.003000,FlatInitial
11:01:36.188 AM 02/13/2016,Teleop Disabled,0,FALSE,0,NO ERROR,0.000000,0.000000,-6000.000000,-6000.000000,Speed,Speed,-0.570000,1.110000,2.890000,1.000000,101.000000,1,0,-0.003038,-0.005022,0,0.000000,0.000000,0.000000,-1.506805,-0.756180,0.000000,-0.001000,0.000000,0.003000,FlatInitial
11:01:36.289 AM 02/13/2016,Teleop Disabled,0,FALSE,0,NO ERROR,0.000000,0.000000,0.000000,0.000000,Speed,Speed,-0.570000,1.110000,2.890000,2.000000,103.000000,1,0,-0.003038,-0.005022,0,0.000000,0.000000,0.000000,-1.506805,-0.756180,0.000000,-0.001000,0.000000,0.003000,FlatInitial
11:01:36.390 AM 02/13/2016,Teleop Disabled,0,FALSE,0,NO ERROR,0.000000,0.000000,0.000000,0.000000,Speed,Speed,-0.570000,1.110000,2.890000,2.000000,102.000000,1,0,-0.003038,-0.005022,0,0.000000,0.000000,0.000000,-1.506805,-0.756180,0.000000,-0.001000,0.000000,0.003000,FlatInitial
11:01:36.489 AM 02/13/2016,Teleop Disabled,0,FALSE,0,NO ERROR,0.000000,0.000000,0.000000,0.000000,Speed,Speed,-0.570000,1.110000,2.890000,2.000000,101.000000,1,0,-0.003038,-0.005022,0,0.000000,0.000000,0.000000,-1.506805,-0.756180,0.000000,-0.001000,0.000000,0.003000,FlatInitial
11:01:36.590 AM 02/13/2016,Teleop Disabled,0,FALSE,0,NO ERROR,0.000000,0.000000,0.000000,0.000000,Speed,Speed,-0.570000,1.110000,2.890000,2.000000,101.000000,1,0,-0.003038,-0.005022,0,0.000000,0.000000,0.000000,-1.506805,-0.756180,0.000000,-0.001000,0.000000,0.003000,FlatInitial
11:01:36.690 AM 02/13/2016,Teleop Disabled,0,FALSE,0,NO ERROR,0.000000,0.000000,0.000000,0.000000,Speed,Speed,-0.570000,1.110000,2.890000,2.000000,102.000000,1,0,-0.003038,-0.005022,0,0.000000,0.000000,0.000000,-1.506805,-0.756180,0.000000,-0.001000,0.000000,0.003000,FlatInitial
11:01:36.789 AM 02/13/2016,Teleop Disabled,0,FALSE,0,NO ERROR,0.000000,0.000000,0.000000,0.000000,Speed,Speed,-0.570000,1.110000,2.890000,2.000000,102.000000,1,0,-0.003038,-0.005022,0,0.000000,0.000000,0.000000,-1.506805,-0.756180,0.000000,-0.001000,0.000000,0.003000,FlatInitial
11:01:36.890 AM 02/13/2016,Teleop Disabled,0,FALSE,0,NO ERROR,0.000000,0.000000,0.000000,0.000000,Speed,Speed,-0.570000,1.110000,2.890000,2.000000,100.000000,1,0,-0.003038,-0.005022,0,0.000000,0.000000,0.000000,-1.506805,-0.756180,0.000000,-0.001000,0.000000,0.003000,FlatInitial
11:01:36.990 AM 02/13/2016,Teleop Disabled,0,FALSE,0,NO ERROR,0.000000,0.000000,0.000000,0.000000,Speed,Speed,-0.570000,1.110000,2.890000,2.000000,101.000000,1,0,-0.003038,-0.005022,0,0.000000,0.000000,0.000000,-1.506805,-0.756180,0.000000,-0.001000,0.000000,0.003000,FlatInitial
11:01:37.091 AM 02/13/2016,Teleop Disabled,0,FALSE,0,NO ERROR,0.000000,0.000000,0.000000,0.000000,Speed,Speed,-0.570000,1.110000,2.890000,2.000000,101.000000,1,0,-0.003038,-0.005022,0,0.000000,0.000000,0.000000,-1.506805,-0.756180,0.000000,-0.001000,0.000000,0.003000,FlatInitial
11:01:37.191 AM 02/13/2016,Teleop Disabled,0,FALSE,0,NO ERROR,0.000000,0.000000,0.000000,0.000000,Speed,Speed,-0.570000,1.110000,2.890000,2.000000,102.000000,1,0,-0.003038,-0.005022,0,0.000000,0.000000,0.000000,-1.506805,-0.756180,0.000000,-0.001000,0.000000,0.003000,FlatInitial
11:01:37.291 AM 02/13/2016,Teleop Disabled,0,FALSE,0,NO ERROR,0.000000,0.000000,0.000000,0.000000,Speed,Speed,-0.570000,1.110000,2.890000,2.000000,101.000000,1,0,-0.003038,-0.005022,0,0.000000,0.000000,0.000000,-1.506805,-0.756180,0.000000,-0.001000,0.000000,0.003000,FlatInitial
11:01:37.392 AM 02/13/2016,Teleop Disabled,0,FALSE,0,NO ERROR,0.000000,0.000000,0.000000,0.000000,Speed,Speed,-0.570000,1.110000,2.890000,2.000000,101.000000,1,0,-0.003038,-0.005022,0,0.000000,0.000000,0.000000,-1.506805,-0.756180,0.000000,-0.001000,0.000000,0.003000,FlatInitial
11:01:37.493 AM 02/13/2016,Teleop Disabled,0,FALSE,0,NO ERROR,0.000000,0.000000,4000.000000,4000.000000,Speed,Speed,-0.570000,1.110000,2.890000,3.000000,101.000000,1,0,-0.003038,-0.005022,0,0.000000,0.000000,0.000000,-1.506805,-0.756180,0.000000,-0.001000,0.000000,0.003000,FlatInitial
11:01:37.592 AM 02/13/2016,Teleop Disabled,0,FALSE,0,NO ERROR,0.000000,0.000000,4000.000000,4000.000000,Speed,Speed,-0.570000,1.110000,2.890000,3.000000,101.000000,1,0,-0.003038,-0.005022,0,0.000000,0.000000,0.000000,-1.506805,-0.756180,0.000000,-0.001000,0.000000,0.003000,FlatInitial
11:01:37.694 AM 02/13/2016,Teleop Disabled,0,FALSE,0,NO ERROR,0.000000,0.000000,4000.000000,4000.000000,Speed,Speed,-0.570000,1.110000,2.890000,3.000000,101.000000,1,0,-0.003038,-0.005022,0,0.000000,0.000000,0.000000,-1.506805,-0.756180,0.000000,-0.001000,0.000000,0.003000,FlatInitial
11:01:37.796 AM 02/13/2016,Teleop Disabled,0,FALSE,0,NO ERROR,0.000000,0.000000,4000.000000,4000.000000,Speed,Speed,-0.570000,1.110000,2.890000,3.000000,101.000000,1,0,-0.003038,-0.005022,0,0.000000,0.000000,0.000000,-1.506805,-0.756180,0.000000,-0.001000,0.000000,0.003000,FlatInitial
11:01:37.895 AM 02/13/2016,Teleop Disabled,0,TRUE,-44003,<LOCATION>WPI_CameraIssue HTTP Request with Authentication.vi<CALLSTACK>WPI_CameraIssue HTTP Request with Authentication.vi< <WPI_CameraIssue Get.vi< <WPI_CameraSet Image Appearance Property.vi< <WPI_CameraSet Image Size.vi< <Vision Processing.vi< <Robot Main.vi,0.000000,0.000000,4000.000000,4000.000000,Speed,Speed,-0.570000,1.110000,2.890000,3.000000,101.000000,1,0,-0.003038,-0.005022,0,0.000000,0.000000,0.000000,-1.506805,-0.756180,0.000000,-0.001000,0.000000,0.003000,FlatInitial
11:01:37.996 AM 02/13/2016,Teleop Disabled,0,FALSE,0,NO ERROR,0.000000,0.000000,4000.000000,4000.000000,Speed,Speed,-0.020000,1.100000,2.890000,3.000000,101.000000,1,0,-0.003038,-0.005022,0,0.000000,0.000000,0.000000,-1.490067,-0.758469,0.000000,0.000000,0.000000,0.000000,FlatInitial
11:01:38.097 AM 02/13/2016,Teleop Disabled,0,FALSE,0,NO ERROR,0.000000,0.000000,4000.000000,4000.000000,Speed,Speed,-0.020000,1.100000,2.890000,3.000000,103.000000,1,0,-0.003038,-0.005022,0,0.000000,0.000000,0.000000,-1.490067,-0.758469,0.000000,0.003000,0.002000,0.000000,FlatInitial
11:01:38.196 AM 02/13/2016,Teleop Disabled,0,FALSE,0,NO ERROR,0.000000,0.000000,4000.000000,4000.000000,Speed,Speed,-0.020000,1.090000,2.880000,3.000000,103.000000,1,0,-0.003038,-0.005022,0,0.000000,0.000000,0.000000,-1.490067,-0.758469,0.000000,0.000000,0.002000,-0.001000,FlatInitial
11:01:38.297 AM 02/13/2016,Teleop Disabled,0,FALSE,0,NO ERROR,0.000000,0.000000,4000.000000,4000.000000,Speed,Speed,-0.030000,1.100000,2.890000,3.000000,103.000000,1,0,-0.003038,-0.005022,0,0.000000,0.000000,0.000000,-1.490067,-0.758469,0.000000,0.001000,0.000000,0.005000,FlatInitial
11:01:38.398 AM 02/13/2016,Teleop Disabled,0,FALSE,0,NO ERROR,0.000000,0.000000,4000.000000,4000.000000,Speed,Speed,-0.030000,1.100000,2.890000,3.000000,102.000000,1,0,-0.003038,-0.005022,0,0.000000,0.000000,0.000000,-1.490067,-0.758469,0.000000,-0.002000,0.001000,-0.005000,FlatInitial
11:01:38.499 AM 02/13/2016,Teleop Disabled,0,FALSE,0,NO ERROR,0.000000,0.000000,4000.000000,4000.000000,Speed,Speed,-0.020000,1.100000,2.890000,3.000000,101.000000,1,0,-0.003038,-0.005022,0,0.000000,0.000000,0.000000,-1.490067,-0.758469,0.000000,0.000000,-0.003000,0.001000,FlatInitial
11:01:38.600 AM 02/13/2016,Teleop Disabled,0,FALSE,0,NO ERROR,0.000000,0.000000,4000.000000,4000.000000,Speed,Speed,-0.020000,1.100000,2.890000,3.000000,101.000000,1,0,-0.003038,-0.005022,0,0.000000,0.000000,0.000000,-1.490067,-0.758469,0.000000,0.000000,0.000000,-0.001000,FlatInitial
11:01:38.703 AM 02/13/2016,Teleop Disabled,0,FALSE,0,NO ERROR,0.000000,0.000000,4000.000000,4000.000000,Speed,Speed,-0.030000,1.100000,2.900000,3.000000,102.000000,1,0,-0.003038,-0.005022,0,0.000000,0.000000,0.000000,-1.490067,-0.758469,0.000000,-0.001000,0.001000,0.002000,FlatInitial
11:01:38.802 AM 02/13/2016,Teleop Disabled,0,FALSE,0,NO ERROR,0.000000,0.000000,4000.000000,4000.000000,Speed,Speed,-0.030000,1.090000,2.900000,3.000000,102.000000,1,0,-0.003038,-0.005022,0,0.000000,0.000000,0.000000,-1.490067,-0.758469,0.000000,0.000000,0.001000,0.000000,FlatInitial
11:01:38.903 AM 02/13/2016,Teleop Disabled,0,FALSE,0,NO ERROR,0.000000,0.000000,4000.000000,4000.000000,Speed,Speed,-0.030000,1.100000,2.900000,3.000000,105.000000,1,0,-0.003038,-0.005022,0,0.000000,0.000000,0.000000,-1.490067,-0.758469,0.000000,0.000000,0.000000,0.002000,FlatInitial
11:01:39.004 AM 02/13/2016,Teleop Disabled,0,FALSE,0,NO ERROR,0.000000,0.000000,4000.000000,4000.000000,Speed,Speed,-0.020000,1.100000,2.900000,3.000000,102.000000,1,0,-0.003038,-0.005022,0,0.000000,0.000000,0.000000,-1.490067,-0.758469,0.000000,0.000000,0.001000,0.001000,FlatInitial
11:01:39.105 AM 02/13/2016,Teleop Enabled,0,FALSE,0,NO ERROR,0.000000,0.000000,4000.000000,4000.000000,Speed,Speed,-0.020000,1.100000,2.890000,3.000000,103.000000,1,0,-0.003038,-0.003968,0,0.000000,0.000000,0.000000,-1.490067,-0.758469,0.000000,0.000000,-0.001000,0.001000,FlatInitial
11:01:39.206 AM 02/13/2016,Teleop Enabled,0,FALSE,0,NO ERROR,0.000000,0.000000,4000.000000,4000.000000,Speed,Speed,-0.030000,1.070000,2.900000,3.000000,101.000000,1,0,-0.003038,-0.003968,0,-0.022064,0.000000,0.000000,-1.490570,-0.758469,0.000000,-0.008000,0.005000,-0.015000,FlatInitial
11:01:39.307 AM 02/13/2016,Teleop Enabled,0,FALSE,0,NO ERROR,0.000000,0.000000,4000.000000,4000.000000,Speed,Speed,-0.010000,1.060000,2.890000,3.000000,101.000000,1,0,-0.003038,-0.003968,0,0.000000,0.000000,0.000000,-1.490570,-0.758469,0.000000,0.007000,-0.004000,0.002000,FlatInitial
11:01:39.408 AM 02/13/2016,Teleop Enabled,0,FALSE,0,NO ERROR,0.000000,0.000000,4000.000000,4000.000000,Speed,Speed,-0.030000,1.060000,2.890000,3.000000,102.000000,1,0,-0.003038,-0.003968,0,0.000000,0.000000,0.000000,-1.490570,-0.758469,0.000000,0.000000,0.001000,0.015000,FlatInitial
11:01:39.508 AM 02/13/2016,Teleop Enabled,0,FALSE,0,NO ERROR,0.000000,0.000000,4000.000000,4000.000000,Speed,Speed,-0.030000,1.070000,2.900000,3.000000,103.000000,1,0,-0.003038,-0.003968,0,0.000000,0.000000,0.000000,-1.490570,-0.758469,0.000000,0.000000,0.002000,0.007000,FlatInitial
11:01:39.609 AM 02/13/2016,Teleop Enabled,0,FALSE,0,NO ERROR,0.000000,0.000000,4000.000000,4000.000000,Speed,Speed,-0.030000,1.070000,2.900000,3.000000,101.000000,1,0,-0.003038,-0.003968,0,0.000000,0.000000,0.000000,-1.490570,-0.758469,0.000000,0.002000,0.002000,-0.024000,FlatInitial
11:01:39.709 AM 02/13/2016,Teleop Enabled,0,FALSE,0,NO ERROR,0.000000,0.000000,4000.000000,4000.000000,Speed,Speed,-0.040000,1.080000,2.900000,3.000000,103.000000,1,0,-0.003038,-0.003968,0,0.000000,0.000000,0.000000,-1.490570,-0.758469,0.000000,0.000000,0.006000,-0.006000,FlatInitial
11:01:39.810 AM 02/13/2016,Teleop Enabled,0,FALSE,0,NO ERROR,0.000000,0.000000,4000.000000,4000.000000,Speed,Speed,-0.040000,1.080000,2.900000,3.000000,100.000000,1,0,-0.003038,-0.003968,0,0.000000,0.000000,0.000000,-1.490570,-0.758469,0.000000,0.002000,0.004000,-0.002000,FlatInitial
11:01:39.910 AM 02/13/2016,Teleop Enabled,0,FALSE,0,NO ERROR,0.000000,0.000000,4000.000000,4000.000000,Speed,Speed,-0.040000,1.080000,2.900000,3.000000,102.000000,1,0,-0.003038,-0.003968,0,0.000000,0.000000,0.000000,-1.490570,-0.758469,0.000000,-0.002000,0.003000,-0.008000,FlatInitial
11:01:40.010 AM 02/13/2016,Teleop Enabled,0,FALSE,0,NO ERROR,0.000000,0.000000,4000.000000,4000.000000,Speed,Speed,-0.040000,1.090000,2.910000,3.000000,101.000000,1,0,-0.003038,-0.003968,0,0.000000,0.000000,0.000000,-1.490570,-0.758469,0.000000,-0.001000,0.000000,0.000000,FlatInitial
11:01:40.110 AM 02/13/2016,Teleop Enabled,0,FALSE,0,NO ERROR,0.000000,0.000000,4000.000000,4000.000000,Speed,Speed,-0.040000,1.090000,2.910000,3.000000,102.000000,1,0,-0.003038,-0.003968,0,0.000000,0.000000,0.000000,-1.490570,-0.758469,0.000000,0.000000,0.000000,0.004000,FlatInitial
11:01:40.210 AM 02/13/2016,Teleop Enabled,0,FALSE,0,NO ERROR,0.000000,0.000000,4000.000000,4000.000000,Speed,Speed,-0.040000,1.090000,2.910000,3.000000,102.000000,1,0,-0.003038,-0.003968,0,0.000000,0.000000,0.000000,-1.490570,-0.758469,0.000000,0.001000,0.000000,0.004000,FlatInitial
11:01:40.311 AM 02/13/2016,Teleop Enabled,0,FALSE,0,NO ERROR,0.000000,0.000000,4000.000000,4000.000000,Speed,Speed,-0.040000,1.090000,2.910000,3.000000,103.000000,1,0,-0.003038,-0.003968,0,0.000000,0.000000,0.000000,-1.490570,-0.758469,0.000000,0.000000,0.000000,-0.002000,FlatInitial
11:01:40.412 AM 02/13/2016,Teleop Enabled,0,FALSE,0,NO ERROR,0.000000,0.000000,4000.000000,4000.000000,Speed,Speed,-0.040000,1.090000,2.910000,3.000000,103.000000,1,0,-0.003038,-0.003968,0,0.000000,0.000000,0.000000,-1.490570,-0.758469,0.000000,0.000000,-0.001000,-0.001000,FlatInitial
11:01:40.513 AM 02/13/2016,Teleop Enabled,0,FALSE,0,NO ERROR,0.000000,0.000000,4000.000000,4000.000000,Speed,Speed,-0.040000,1.090000,2.910000,3.000000,100.000000,1,0,-0.003038,-0.003968,0,0.000000,0.000000,0.000000,-1.490570,-0.758469,0.000000,0.013000,-0.014000,-0.002000,FlatInitial
11:01:40.613 AM 02/13/2016,Teleop Enabled,0,FALSE,0,NO ERROR,0.000000,0.000000,4000.000000,4000.000000,Speed,Speed,-0.040000,1.100000,2.900000,3.000000,103.000000,1,0,-0.003038,-0.003968,0,0.000000,0.000000,0.000000,-1.490570,-0.758469,0.000000,-0.002000,-0.004000,0.039000,FlatInitial
11:01:40.714 AM 02/13/2016,Teleop Enabled,0,FALSE,0,NO ERROR,0.000000,0.000000,4000.000000,4000.000000,Speed,Speed,-0.040000,1.100000,2.900000,3.000000,102.000000,1,0,-0.003038,-0.003968,0,0.000000,0.000000,0.000000,-1.490570,-0.758469,0.000000,-0.008000,0.005000,-0.007000,FlatInitial
11:01:40.813 AM 02/13/2016,Teleop Enabled,0,FALSE,0,NO ERROR,0.000000,0.000000,4000.000000,4000.000000,Speed,Speed,-0.040000,1.110000,2.910000,3.000000,101.000000,1,0,-0.003038,-0.003968,0,0.000000,0.000000,0.000000,-1.490570,-0.758469,0.000000,-0.001000,-0.001000,0.002000,FlatInitial
11:01:40.913 AM 02/13/2016,Teleop Enabled,0,FALSE,0,NO ERROR,0.000000,0.000000,4000.000000,4000.000000,Speed,Speed,-0.040000,1.110000,2.900000,3.000000,101.000000,1,0,-0.003038,-0.003968,0,0.000000,0.000000,0.000000,-1.490570,-0.758469,0.000000,0.000000,0.001000,0.000000,FlatInitial
11:01:41.016 AM 02/13/2016,Teleop Enabled,0,FALSE,0,NO ERROR,0.000000,0.000000,4000.000000,4000.000000,Speed,Speed,-0.040000,1.110000,2.900000,3.000000,103.000000,1,0,-0.003038,-0.003968,0,0.000000,0.000000,0.000000,-1.490570,-0.758469,0.000000,0.003000,0.002000,-0.004000,FlatInitial
11:01:41.116 AM 02/13/2016,Teleop Enabled,0,FALSE,0,NO ERROR,0.000000,0.000000,4000.000000,4000.000000,Speed,Speed,-0.040000,1.100000,2.900000,3.000000,102.000000,1,0,-0.003038,-0.003968,0,0.000000,0.000000,0.000000,-1.490570,-0.758469,0.000000,0.000000,0.003000,0.000000,FlatInitial
11:01:41.217 AM 02/13/2016,Teleop Enabled,0,FALSE,0,NO ERROR,0.000000,0.000000,4000.000000,4000.000000,Speed,Speed,-0.040000,1.100000,2.900000,3.000000,101.000000,1,0,-0.003038,-0.003968,0,0.000000,0.000000,0.000000,-1.490570,-0.758469,0.000000,-0.001000,0.000000,-0.001000,FlatInitial
11:01:41.317 AM 02/13/2016,Teleop Enabled,0,FALSE,0,NO ERROR,0.000000,0.000000,4000.000000,4000.000000,Speed,Speed,-0.040000,1.100000,2.900000,3.000000,102.000000,1,0,-0.003038,-0.003968,0,0.000000,0.000000,0.000000,-1.490570,-0.758469,0.000000,0.000000,0.002000,-0.009000,FlatInitial
11:01:41.416 AM 02/13/2016,Teleop Enabled,0,FALSE,0,NO ERROR,0.000000,0.000000,4000.000000,4000.000000,Speed,Speed,-0.050000,1.100000,2.900000,3.000000,103.000000,1,0,-0.003038,-0.003968,0,0.000000,0.000000,0.000000,-1.490570,-0.758469,0.000000,-0.001000,-0.002000,0.006000,FlatInitial
11:01:41.517 AM 02/13/2016,Teleop Enabled,0,FALSE,0,NO ERROR,0.000000,0.000000,4000.000000,4000.000000,Speed,Speed,-0.050000,1.100000,2.900000,3.000000,106.000000,1,0,-0.003038,-0.003968,0,0.000000,0.000000,0.000000,-1.490570,-0.758469,0.000000,0.002000,0.000000,0.006000,FlatInitial
11:01:41.618 AM 02/13/2016,Teleop Enabled,0,FALSE,0,NO ERROR,0.000000,0.000000,4000.000000,4000.000000,Speed,Speed,-0.050000,1.100000,2.900000,3.000000,101.000000,1,0,-0.003038,-0.003968,0,0.000000,0.000000,0.000000,-1.490570,-0.758469,0.000000,0.000000,-0.001000,-0.002000,FlatInitial
11:01:41.720 AM 02/13/2016,Teleop Enabled,0,FALSE,0,NO ERROR,0.000000,0.000000,4000.000000,4000.000000,Speed,Speed,-0.050000,1.100000,2.900000,3.000000,103.000000,1,0,-0.003038,-0.003968,0,0.000000,0.000000,0.000000,-1.490570,-0.758469,0.000000,0.000000,-0.001000,0.002000,FlatInitial
11:01:41.821 AM 02/13/2016,Teleop Enabled,0,FALSE,0,NO ERROR,0.000000,0.000000,4000.000000,4000.000000,Speed,Speed,-0.050000,1.100000,2.900000,3.000000,102.000000,1,0,-0.003038,-0.003968,0,0.000000,0.000000,0.000000,-1.490570,-0.758469,0.000000,0.000000,0.001000,-0.001000,FlatInitial
11:01:41.921 AM 02/13/2016,Teleop Enabled,0,FALSE,0,NO ERROR,0.000000,0.000000,4000.000000,4000.000000,Speed,Speed,-0.050000,1.100000,2.900000,3.000000,101.000000,1,0,-0.003038,-0.003968,0,0.000000,0.000000,0.000000,-1.490570,-0.758469,0.000000,0.000000,0.000000,-0.004000,FlatInitial
11:01:42.022 AM 02/13/2016,Teleop Enabled,0,FALSE,0,NO ERROR,0.000000,0.000000,4000.000000,4000.000000,Speed,Speed,-0.050000,1.100000,2.900000,3.000000,101.000000,1,0,-0.003038,-0.003968,0,0.000000,0.000000,0.000000,-1.490570,-0.758469,0.000000,0.001000,0.001000,-0.001000,FlatInitial
11:01:42.123 AM 02/13/2016,Teleop Enabled,0,FALSE,0,NO ERROR,0.000000,0.000000,4000.000000,4000.000000,Speed,Speed,-0.050000,1.100000,2.900000,3.000000,101.000000,1,0,-0.003038,-0.003968,0,0.000000,0.000000,0.000000,-1.490570,-0.758469,0.000000,0.000000,0.000000,0.001000,FlatInitial
11:01:42.224 AM 02/13/2016,Teleop Enabled,0,FALSE,0,NO ERROR,0.000000,0.000000,4000.000000,4000.000000,Speed,Speed,-0.050000,1.100000,2.900000,3.000000,102.000000,1,0,-0.003038,-0.003968,0,0.000000,0.000000,0.000000,-1.490570,-0.758469,0.000000,-0.002000,-0.002000,0.002000,FlatInitial
11:01:42.325 AM 02/13/2016,Teleop Enabled,0,FALSE,0,NO ERROR,0.000000,0.000000,4000.000000,4000.000000,Speed,Speed,-0.060000,1.100000,2.900000,3.000000,101.000000,1,0,-0.003038,-0.003968,0,0.000000,0.000000,0.000000,-1.490570,-0.758469,0.000000,0.001000,0.000000,0.001000,FlatInitial
11:01:42.425 AM 02/13/2016,Teleop Enabled,0,FALSE,0,NO ERROR,0.000000,0.000000,4000.000000,4000.000000,Speed,Speed,-0.060000,1.100000,2.900000,3.000000,102.000000,1,0,-0.003038,-0.003968,0,0.000000,0.000000,0.000000,-1.490570,-0.758469,0.000000,0.003000,0.002000,0.000000,FlatInitial
11:01:42.525 AM 02/13/2016,Teleop Enabled,0,FALSE,0,NO ERROR,0.000000,0.000000,4000.000000,4000.000000,Speed,Speed,-0.060000,1.100000,2.900000,3.000000,102.000000,1,0,-0.003038,-0.003968,0,0.000000,0.000000,0.000000,-1.490570,-0.758469,0.000000,0.003000,0.002000,0.000000,FlatInitial
11:01:42.626 AM 02/13/2016,Teleop Enabled,0,FALSE,0,NO ERROR,0.000000,0.000000,4000.000000,4000.000000,Speed,Speed,-0.050000,1.090000,2.900000,3.000000,104.000000,1,0,-0.003038,-0.003968,0,0.000000,0.000000,0.000000,-1.490570,-0.758469,0.000000,0.000000,0.000000,0.001000,FlatInitial
11:01:42.730 AM 02/13/2016,Teleop Enabled,0,FALSE,0,NO ERROR,0.000000,0.000000,4000.000000,4000.000000,Speed,Speed,-0.050000,1.090000,2.910000,3.000000,101.000000,1,0,-0.003038,-0.003968,0,0.000000,0.000000,0.000000,-1.490570,-0.758469,0.000000,0.000000,0.000000,0.001000,FlatInitial
11:01:42.829 AM 02/13/2016,Teleop Enabled,0,FALSE,0,NO ERROR,0.000000,0.000000,4000.000000,4000.000000,Speed,Speed,-0.060000,1.090000,2.910000,3.000000,102.000000,1,0,-0.003038,-0.003968,0,0.000000,0.000000,0.000000,-1.490570,-0.758469,0.000000,0.001000,0.005000,0.000000,FlatInitial
11:01:42.929 AM 02/13/2016,Teleop Enabled,0,FALSE,0,NO ERROR,0.000000,0.000000,4000.000000,4000.000000,Speed,Speed,-0.060000,1.090000,2.910000,3.000000,100.000000,1,0,-0.003038,-0.003968,0,0.000000,0.000000,0.000000,-1.490570,-0.758469,0.000000,0.000000,0.000000,-0.001000,FlatInitial
11:01:43.030 AM 02/13/2016,Teleop Enabled,0,FALSE,0,NO ERROR,0.000000,0.000000,4000.000000,4000.000000,Speed,Speed,-0.060000,1.090000,2.910000,3.000000,102.000000,1,0,-0.003038,-0.003968,0,0.000000,0.000000,0.000000,-1.490570,-0.758469,0.000000,0.002000,-0.001000,-0.002000,FlatInitial
11:01:43.130 AM 02/13/2016,Teleop Enabled,0,FALSE,0,NO ERROR,0.000000,0.000000,4000.000000,4000.000000,Speed,Speed,-0.050000,1.100000,2.900000,3.000000,103.000000,1,0,-0.003038,-0.003968,0,0.000000,0.000000,0.000000,-1.490570,-0.758469,0.000000,0.002000,-0.001000,-0.002000,FlatInitial
11:01:43.233 AM 02/13/2016,Teleop Enabled,0,FALSE,0,NO ERROR,0.000000,0.000000,4000.000000,4000.000000,Speed,Speed,-0.060000,1.100000,2.900000,3.000000,106.000000,1,0,-0.003038,-0.003968,0,0.000000,0.000000,0.000000,-1.490570,-0.758469,0.000000,0.001000,-0.001000,-0.003000,FlatInitial
11:01:43.333 AM 02/13/2016,Teleop Enabled,0,FALSE,0,NO ERROR,0.000000,0.000000,4000.000000,4000.000000,Speed,Speed,-0.060000,1.100000,2.900000,3.000000,101.000000,1,0,-0.003038,-0.003968,0,0.000000,0.000000,0.000000,-1.490570,-0.758469,0.000000,0.001000,0.000000,0.001000,FlatInitial
11:01:43.433 AM 02/13/2016,Teleop Enabled,0,FALSE,0,NO ERROR,0.000000,0.000000,4000.000000,4000.000000,Speed,Speed,-0.050000,1.100000,2.900000,3.000000,104.000000,1,0,-0.003038,-0.003968,0,0.000000,0.000000,0.000000,-1.490570,-0.758469,0.000000,0.001000,0.002000,-0.004000,FlatInitial
11:01:43.536 AM 02/13/2016,Teleop Enabled,0,FALSE,0,NO ERROR,0.000000,0.000000,4000.000000,4000.000000,Speed,Speed,-0.050000,1.100000,2.900000,3.000000,106.000000,1,0,-0.003038,-0.003968,0,0.000000,0.000000,0.000000,-1.490570,-0.758469,0.000000,0.001000,0.002000,-0.004000,FlatInitial
11:01:43.636 AM 02/13/2016,Teleop Enabled,0,FALSE,0,NO ERROR,0.000000,0.000000,4000.000000,4000.000000,Speed,Speed,-0.050000,1.100000,2.900000,3.000000,102.000000,1,0,-0.003038,-0.003968,0,0.000000,0.000000,0.000000,-1.490570,-0.758469,0.000000,0.000000,-0.001000,-0.002000,FlatInitial
11:01:43.737 AM 02/13/2016,Teleop Enabled,0,FALSE,0,NO ERROR,0.000000,0.000000,4000.000000,4000.000000,Speed,Speed,-0.050000,1.110000,2.900000,3.000000,102.000000,1,0,-0.003038,-0.003968,0,0.000000,0.000000,0.000000,-1.490570,-0.758469,0.000000,0.003000,-0.003000,-0.002000,FlatInitial
11:01:43.838 AM 02/13/2016,Teleop Enabled,0,FALSE,0,NO ERROR,0.000000,0.000000,4000.000000,4000.000000,Speed,Speed,-0.050000,1.110000,2.900000,3.000000,101.000000,1,0,-0.003038,-0.003968,0,0.000000,0.000000,0.000000,-1.490570,-0.758469,0.000000,0.000000,0.000000,-0.001000,FlatInitial
11:01:43.938 AM 02/13/2016,Teleop Enabled,0,FALSE,0,NO ERROR,0.000000,0.000000,4000.000000,4000.000000,Speed,Speed,-0.050000,1.110000,2.900000,3.000000,101.000000,1,0,-0.003038,-0.003968,0,0.000000,0.000000,0.000000,-1.490570,-0.758469,0.000000,0.002000,0.000000,0.000000,FlatInitial
11:01:44.039 AM 02/13/2016,Teleop Enabled,0,FALSE,0,NO ERROR,0.000000,0.000000,4000.000000,4000.000000,Speed,Speed,-0.060000,1.110000,2.900000,3.000000,101.000000,1,0,-0.003038,-0.003968,0,0.000000,0.000000,0.000000,-1.490570,-0.758469,0.000000,0.000000,0.000000,0.001000,FlatInitial
11:01:44.140 AM 02/13/2016,Teleop Enabled,0,FALSE,0,NO ERROR,0.000000,0.000000,4000.000000,4000.000000,Speed,Speed,-0.060000,1.110000,2.900000,3.000000,109.000000,1,0,-0.003038,-0.003968,0,0.000000,0.000000,0.000000,-1.490570,-0.758469,0.000000,-0.002000,0.001000,0.000000,FlatInitial
11:01:44.239 AM 02/13/2016,Teleop Enabled,0,FALSE,0,NO ERROR,0.000000,0.000000,4000.000000,4000.000000,Speed,Speed,-0.060000,1.110000,2.900000,3.000000,102.000000,1,0,-0.003038,-0.003968,0,0.000000,0.000000,0.000000,-1.490570,-0.758469,0.000000,0.000000,0.003000,0.001000,FlatInitial
11:01:44.340 AM 02/13/2016,Teleop Enabled,0,FALSE,0,NO ERROR,0.000000,0.000000,4000.000000,4000.000000,Speed,Speed,-0.060000,1.110000,2.900000,3.000000,101.000000,1,0,-0.003038,-0.003968,0,0.000000,0.000000,0.000000,-1.490570,-0.758469,0.000000,0.000000,0.000000,0.000000,FlatInitial
11:01:44.440 AM 02/13/2016,Teleop Enabled,0,FALSE,0,NO ERROR,0.000000,0.000000,4000.000000,4000.000000,Speed,Speed,-0.060000,1.110000,2.900000,3.000000,102.000000,1,0,-0.003038,-0.003968,0,0.000000,0.000000,0.000000,-1.490570,-0.758469,0.000000,0.002000,0.000000,0.003000,FlatInitial
11:01:44.540 AM 02/13/2016,Teleop Enabled,0,FALSE,0,NO ERROR,0.000000,0.000000,9000.000000,9000.000000,Speed,Speed,-0.070000,1.110000,2.890000,4.000000,100.000000,1,0,-0.003038,-0.003968,0,0.000000,0.000000,0.000000,-1.490570,-0.758469,0.000000,-0.003000,0.000000,0.000000,FlatInitial
11:01:44.640 AM 02/13/2016,Teleop Enabled,0,FALSE,0,NO ERROR,0.000000,0.000000,9000.000000,9000.000000,Speed,Speed,-0.070000,1.020000,3.000000,4.000000,102.000000,1,0,-0.003038,-0.003968,0,-0.041962,-0.005173,0.000000,-1.491226,-0.758438,0.000000,0.058000,-0.066000,0.496000,FlatInitial
11:01:44.740 AM 02/13/2016,Teleop Enabled,0,FALSE,0,NO ERROR,0.000000,0.000000,9000.000000,9000.000000,Speed,Speed,0.000000,0.940000,3.130000,4.000000,103.000000,1,0,-0.003038,-0.003968,0,0.021942,-0.055557,0.000000,-1.490524,-0.760010,0.000000,0.070000,-0.097000,0.054000,FlatInitial
11:01:44.841 AM 02/13/2016,Teleop Enabled,0,FALSE,0,NO ERROR,0.000000,0.000000,9000.000000,9000.000000,Speed,Speed,-0.090000,1.150000,3.110000,4.000000,105.000000,1,0,-0.003038,-0.003968,0,0.012924,-0.037628,0.000000,-1.490265,-0.762039,0.000000,-0.007000,0.013000,0.192000,FlatInitial
11:01:44.941 AM 02/13/2016,Teleop Enabled,0,FALSE,0,NO ERROR,0.000000,0.000000,9000.000000,9000.000000,Speed,Speed,-0.160000,1.130000,3.200000,4.000000,102.000000,1,0,-0.003038,-0.003968,0,0.000000,0.056534,0.000000,-1.489609,-0.760681,0.000000,0.014000,0.086000,-0.134000,FlatInitial
11:01:45.042 AM 02/13/2016,Teleop Enabled,0,FALSE,0,NO ERROR,0.000000,0.000000,9000.000000,9000.000000,Speed,Speed,-0.130000,1.050000,2.610000,4.000000,101.000000,1,0,-0.003038,-0.003968,0,0.005920,0.110489,0.000000,-1.489716,-0.757095,0.000000,0.027000,0.102000,-0.009000,FlatInitial
11:01:45.142 AM 02/13/2016,Teleop Enabled,0,FALSE,0,NO ERROR,0.000000,0.000000,9000.000000,9000.000000,Speed,Speed,-0.230000,1.080000,2.050000,4.000000,101.000000,1,0,-0.003038,-0.003968,0,0.023056,0.124191,0.000000,-1.488754,-0.749313,0.000000,-0.144000,-0.134000,-0.018000,FlatInitial
11:01:45.244 AM 02/13/2016,Teleop Enabled,0,FALSE,0,NO ERROR,0.000000,0.000000,9000.000000,9000.000000,Speed,Speed,-0.270000,1.230000,1.660000,4.000000,102.000000,1,0,-0.003038,-0.003968,0,-0.011154,0.078751,0.000000,-1.488602,-0.745667,0.000000,-0.109000,0.032000,-0.040000,FlatInitial
11:01:45.346 AM 02/13/2016,Teleop Enabled,0,FALSE,0,NO ERROR,0.000000,0.000000,9000.000000,9000.000000,Speed,Speed,-0.320000,1.070000,3.380000,4.000000,101.000000,1,0,-0.003038,-0.003968,0,-0.024246,0.053467,0.000000,-1.489685,-0.741455,0.000000,0.093000,-0.002000,-0.126000,FlatInitial
11:01:45.446 AM 02/13/2016,Teleop Enabled,0,FALSE,0,NO ERROR,0.000000,0.000000,9000.000000,9000.000000,Speed,Speed,-0.340000,1.120000,2.570000,4.000000,103.000000,1,0,-0.003038,-0.003968,0,-0.007996,0.007309,0.000000,-1.490204,-0.740250,0.000000,0.014000,0.067000,-0.260000,FlatInitial
11:01:45.547 AM 02/13/2016,Teleop Enabled,0,FALSE,0,NO ERROR,0.000000,0.000000,9000.000000,9000.000000,Speed,Speed,-0.360000,1.160000,2.820000,4.000000,101.000000,1,0,-0.003038,-0.003968,0,-0.013443,-0.006821,0.000000,-1.490631,-0.740189,0.000000,-0.071000,-0.004000,-0.109000,FlatInitial
11:01:45.647 AM 02/13/2016,Teleop Enabled,0,FALSE,0,NO ERROR,0.000000,0.000000,9000.000000,9000.000000,Speed,Speed,-0.320000,1.120000,2.790000,4.000000,101.000000,1,0,-0.003038,-0.003968,0,0.000000,0.002319,0.000000,-1.491074,-0.740051,0.000000,-0.005000,-0.026000,-0.129000,FlatInitial
11:01:45.748 AM 02/13/2016,Teleop Enabled,0,FALSE,0,NO ERROR,0.000000,0.000000,9000.000000,9000.000000,Speed,Speed,-0.340000,1.130000,2.690000,4.000000,101.000000,1,0,-0.003038,-0.003968,0,0.000000,0.000000,0.000000,-1.490936,-0.740005,0.000000,-0.019000,0.015000,-0.109000,FlatInitial
11:01:45.849 AM 02/13/2016,Teleop Enabled,0,FALSE,0,NO ERROR,0.000000,0.000000,9000.000000,9000.000000,Speed,Speed,-0.360000,1.130000,2.830000,4.000000,103.000000,1,0,-0.003038,-0.003968,0,-0.004807,-0.000351,0.000000,-1.490997,-0.740067,0.000000,0.026000,0.005000,-0.023000,FlatInitial
11:01:45.948 AM 02/13/2016,Teleop Enabled,0,FALSE,0,NO ERROR,0.000000,0.000000,9000.000000,9000.000000,Speed,Speed,-0.320000,1.120000,2.790000,4.000000,101.000000,1,0,-0.003038,-0.003968,0,-0.003052,0.000000,0.000000,-1.491028,-0.740005,0.000000,0.008000,0.003000,0.005000,FlatInitial
11:01:46.049 AM 02/13/2016,Teleop Enabled,0,FALSE,0,NO ERROR,0.000000,0.000000,9000.000000,9000.000000,Speed,Speed,-0.330000,1.130000,2.780000,4.000000,102.000000,1,0,-0.003038,-0.003968,0,0.000000,0.000000,0.000000,-1.491043,-0.740005,0.000000,0.009000,-0.017000,-0.003000,FlatInitial
11:01:46.151 AM 02/13/2016,Teleop Enabled,0,FALSE,0,NO ERROR,0.000000,0.000000,9000.000000,9000.000000,Speed,Speed,-0.320000,1.130000,2.740000,4.000000,101.000000,1,0,-0.003038,-0.003968,0,0.000000,0.000000,0.000000,-1.491043,-0.740005,0.000000,0.000000,-0.002000,-0.008000,FlatInitial
11:01:46.252 AM 02/13/2016,Teleop Enabled,0,FALSE,0,NO ERROR,0.000000,0.000000,9000.000000,9000.000000,Speed,Speed,-0.330000,1.130000,2.740000,4.000000,106.000000,1,0,-0.003038,-0.003968,0,0.000000,0.000000,0.000000,-1.491043,-0.740005,0.000000,0.004000,0.000000,-0.004000,FlatInitial
11:01:46.352 AM 02/13/2016,Teleop Enabled,0,FALSE,0,NO ERROR,0.000000,0.000000,9000.000000,9000.000000,Speed,Speed,-0.330000,1.140000,2.760000,4.000000,100.000000,1,0,-0.003038,-0.003968,0,0.000000,0.000000,0.000000,-1.491043,-0.740005,0.000000,-0.003000,0.003000,-0.002000,FlatInitial
11:01:46.452 AM 02/13/2016,Teleop Enabled,0,FALSE,0,NO ERROR,0.000000,0.000000,9000.000000,9000.000000,Speed,Speed,-0.330000,1.130000,2.740000,4.000000,102.000000,1,0,-0.003038,-0.003968,0,0.000000,0.000000,0.000000,-1.491043,-0.740005,0.000000,0.003000,0.006000,0.003000,FlatInitial
11:01:46.553 AM 02/13/2016,Teleop Enabled,0,FALSE,0,NO ERROR,0.000000,0.000000,9000.000000,9000.000000,Speed,Speed,-0.330000,1.130000,2.740000,4.000000,101.000000,1,0,-0.003038,-0.003968,0,0.000000,0.000000,0.000000,-1.491043,-0.740005,0.000000,-0.002000,-0.003000,0.001000,FlatInitial
11:01:46.654 AM 02/13/2016,Teleop Enabled,0,FALSE,0,NO ERROR,0.000000,0.000000,9000.000000,9000.000000,Speed,Speed,-0.330000,1.130000,2.730000,4.000000,102.000000,1,0,-0.003038,-0.003968,0,0.000000,0.000000,0.000000,-1.491043,-0.740005,0.000000,0.004000,0.007000,0.000000,FlatInitial
11:01:46.756 AM 02/13/2016,Teleop Enabled,0,FALSE,0,NO ERROR,0.000000,0.000000,9000.000000,9000.000000,Speed,Speed,-0.340000,1.130000,2.720000,4.000000,102.000000,1,0,-0.003038,-0.003968,0,0.000000,0.000000,0.000000,-1.491043,-0.740005,0.000000,-0.003000,-0.007000,0.000000,FlatInitial
11:01:46.856 AM 02/13/2016,Teleop Enabled,0,FALSE,0,NO ERROR,0.000000,0.000000,9000.000000,9000.000000,Speed,Speed,-0.340000,1.130000,2.730000,4.000000,101.000000,1,0,-0.003038,-0.003968,0,0.000000,0.000000,0.000000,-1.491043,-0.740005,0.000000,-0.001000,-0.004000,0.005000,FlatInitial
11:01:46.956 AM 02/13/2016,Teleop Enabled,0,FALSE,0,NO ERROR,0.000000,0.000000,9000.000000,9000.000000,Speed,Speed,-0.350000,1.140000,2.750000,4.000000,102.000000,1,0,-0.003038,-0.003968,0,0.000000,0.000000,0.000000,-1.491043,-0.740005,0.000000,-0.002000,-0.003000,0.003000,FlatInitial
11:01:47.057 AM 02/13/2016,Teleop Enabled,0,FALSE,0,NO ERROR,0.000000,0.000000,9000.000000,9000.000000,Speed,Speed,-0.340000,1.140000,2.810000,4.000000,102.000000,1,0,-0.003038,-0.003968,0,0.000000,0.000000,0.000000,-1.491043,-0.740005,0.000000,0.004000,0.003000,-0.003000,FlatInitial
11:01:47.156 AM 02/13/2016,Teleop Enabled,0,FALSE,0,NO ERROR,0.000000,0.000000,9000.000000,9000.000000,Speed,Speed,-0.350000,1.150000,2.870000,4.000000,102.000000,1,0,-0.003038,-0.003968,0,0.000000,0.000000,0.000000,-1.491043,-0.740005,0.000000,-0.007000,0.002000,0.003000,FlatInitial
11:01:47.257 AM 02/13/2016,Teleop Enabled,0,FALSE,0,NO ERROR,0.000000,0.000000,9000.000000,9000.000000,Speed,Speed,-0.340000,1.160000,2.930000,4.000000,103.000000,1,0,-0.003038,-0.003968,0,-0.003464,0.000000,0.000000,-1.491074,-0.740005,0.000000,-0.013000,0.054000,-0.005000,FlatInitial
11:01:47.358 AM 02/13/2016,Teleop Enabled,0,FALSE,0,NO ERROR,0.000000,0.000000,9000.000000,9000.000000,Speed,Speed,-0.340000,1.140000,3.030000,4.000000,102.000000,1,0,-0.003038,-0.003968,0,-0.020981,0.003601,0.000000,-1.491882,-0.739685,0.000000,-0.053000,-0.026000,-0.018000,FlatInitial
11:01:47.459 AM 02/13/2016,Teleop Enabled,0,FALSE,0,NO ERROR,0.000000,0.000000,9000.000000,9000.000000,Speed,Speed,-0.390000,1.170000,3.020000,4.000000,101.000000,1,0,-0.003038,-0.003968,0,0.002838,-0.012558,0.000000,-1.492844,-0.740189,0.000000,0.020000,0.062000,0.044000,FlatInitial
11:01:47.561 AM 02/13/2016,Teleop Enabled,0,FALSE,0,NO ERROR,0.000000,0.000000,9000.000000,9000.000000,Speed,Speed,-0.380000,1.160000,2.840000,4.000000,102.000000,1,0,-0.003038,-0.003968,0,0.012238,-0.003632,0.000000,-1.492493,-0.740479,0.000000,-0.033000,-0.005000,-0.071000,FlatInitial
11:01:47.660 AM 02/13/2016,Teleop Enabled,0,FALSE,0,NO ERROR,0.000000,0.000000,9000.000000,9000.000000,Speed,Speed,-0.340000,1.150000,2.840000,4.000000,101.000000,1,0,-0.003038,-0.003968,0,-0.005020,0.011978,0.000000,-1.492538,-0.739853,0.000000,-0.005000,-0.008000,0.037000,FlatInitial
11:01:47.760 AM 02/13/2016,Teleop Enabled,0,FALSE,0,NO ERROR,0.000000,0.000000,9000.000000,9000.000000,Speed,Speed,-0.290000,1.110000,2.690000,4.000000,102.000000,1,0,-0.003038,-0.003968,0,-0.019104,0.016403,0.000000,-1.492935,-0.739014,0.000000,-0.001000,-0.047000,0.074000,FlatInitial
11:01:47.861 AM 02/13/2016,Teleop Enabled,0,FALSE,0,NO ERROR,0.000000,0.000000,9000.000000,9000.000000,Speed,Speed,-0.320000,1.110000,2.670000,4.000000,101.000000,1,0,-0.003038,-0.003968,0,-0.017456,-0.012466,0.000000,-1.493317,-0.738846,0.000000,0.017000,-0.065000,-0.044000,FlatInitial
11:01:47.961 AM 02/13/2016,Teleop Enabled,0,FALSE,0,NO ERROR,0.000000,0.000000,9000.000000,9000.000000,Speed,Speed,-0.320000,1.100000,2.630000,4.000000,102.000000,1,0,-0.003038,-0.003968,0,0.005478,0.004105,0.000000,-1.493149,-0.738953,0.000000,0.044000,-0.009000,0.019000,FlatInitial
11:01:48.062 AM 02/13/2016,Teleop Enabled,0,FALSE,0,NO ERROR,0.000000,0.000000,9000.000000,9000.000000,Speed,Speed,-0.310000,1.090000,2.630000,4.000000,102.000000,1,0,-0.003038,-0.003968,0,0.034286,-0.009811,0.000000,-1.492355,-0.739197,0.000000,0.021000,-0.011000,0.041000,FlatInitial
11:01:48.162 AM 02/13/2016,Teleop Enabled,0,FALSE,0,NO ERROR,0.000000,0.000000,9000.000000,9000.000000,Speed,Speed,-0.330000,1.110000,2.670000,4.000000,101.000000,1,0,-0.003038,-0.003968,0,0.015747,0.002106,0.000000,-1.490997,-0.739410,0.000000,-0.058000,0.049000,-0.026000,FlatInitial
11:01:48.262 AM 02/13/2016,Teleop Enabled,0,FALSE,0,NO ERROR,0.000000,0.000000,9000.000000,9000.000000,Speed,Speed,-0.330000,1.120000,2.680000,4.000000,102.000000,1,0,-0.003038,-0.003968,0,0.001053,0.002869,0.000000,-1.490891,-0.738770,0.000000,0.022000,0.042000,-0.006000,FlatInitial
11:01:48.361 AM 02/13/2016,Teleop Enabled,0,FALSE,0,NO ERROR,0.000000,0.000000,9000.000000,9000.000000,Speed,Speed,-0.320000,1.140000,2.750000,4.000000,105.000000,1,0,-0.003038,-0.003968,0,0.016159,0.004013,0.000000,-1.490509,-0.738144,0.000000,-0.005000,-0.092000,-0.046000,FlatInitial
11:01:48.462 AM 02/13/2016,Teleop Enabled,0,FALSE,0,NO ERROR,0.000000,0.000000,9000.000000,9000.000000,Speed,Speed,-0.320000,1.110000,2.700000,4.000000,100.000000,1,0,-0.003038,-0.003968,0,0.005646,0.009247,0.000000,-1.490417,-0.737808,0.000000,-0.032000,-0.037000,-0.051000,FlatInitial
11:01:48.561 AM 02/13/2016,Teleop Enabled,0,FALSE,0,NO ERROR,0.000000,0.000000,9000.000000,9000.000000,Speed,Speed,-0.330000,1.120000,2.670000,4.000000,102.000000,1,0,-0.003038,-0.003968,0,-0.001282,0.002350,0.000000,-1.490540,-0.737335,0.000000,-0.045000,-0.022000,0.041000,FlatInitial
11:01:48.662 AM 02/13/2016,Teleop Enabled,0,FALSE,0,NO ERROR,0.000000,0.000000,9000.000000,9000.000000,Speed,Speed,-0.320000,1.100000,2.710000,4.000000,102.000000,1,0,-0.003038,-0.003968,0,0.002396,-0.007324,0.000000,-1.490707,-0.737930,0.000000,-0.007000,-0.022000,-0.030000,FlatInitial
11:01:48.762 AM 02/13/2016,Teleop Enabled,0,FALSE,0,NO ERROR,0.000000,0.000000,9000.000000,9000.000000,Speed,Speed,-0.320000,1.110000,2.680000,4.000000,101.000000,1,0,-0.003038,-0.003968,0,0.017899,-0.004379,0.000000,-1.490372,-0.738358,0.000000,0.035000,-0.009000,0.101000,FlatInitial
11:01:48.862 AM 02/13/2016,Teleop Enabled,0,FALSE,0,NO ERROR,0.000000,0.000000,9000.000000,9000.000000,Speed,Speed,-0.320000,1.110000,2.990000,4.000000,102.000000,1,0,-0.003038,-0.003968,0,0.035583,-0.006516,0.000000,-1.488602,-0.738602,0.000000,-0.013000,0.038000,-0.054000,FlatInitial
11:01:48.963 AM 02/13/2016,Teleop Enabled,0,FALSE,0,NO ERROR,0.000000,0.000000,9000.000000,9000.000000,Speed,Speed,-0.340000,1.130000,2.830000,4.000000,101.000000,1,0,-0.003038,-0.003968,0,0.014862,0.008713,0.000000,-1.487595,-0.738602,0.000000,0.027000,0.063000,0.065000,FlatInitial
11:01:49.063 AM 02/13/2016,Teleop Enabled,0,FALSE,0,NO ERROR,0.000000,0.000000,9000.000000,9000.000000,Speed,Speed,-0.320000,1.150000,2.670000,4.000000,102.000000,1,0,-0.003038,-0.003968,0,0.028946,0.042023,0.000000,-1.486069,-0.736740,0.000000,0.010000,-0.024000,0.135000,FlatInitial
11:01:49.164 AM 02/13/2016,Teleop Enabled,0,FALSE,0,NO ERROR,0.000000,0.000000,9000.000000,9000.000000,Speed,Speed,-0.300000,1.100000,2.680000,4.000000,101.000000,1,0,-0.003038,-0.003968,0,0.071213,0.000000,0.000000,-1.482819,-0.735168,0.000000,0.062000,-0.010000,0.024000,FlatInitial
11:01:49.265 AM 02/13/2016,Teleop Enabled,0,FALSE,0,NO ERROR,0.000000,0.000000,9000.000000,9000.000000,Speed,Speed,-0.320000,1.070000,2.570000,4.000000,102.000000,1,0,-0.003038,-0.003968,0,0.089249,-0.022400,0.000000,-1.478333,-0.735886,0.000000,-0.001000,-0.081000,-0.040000,FlatInitial
11:01:49.365 AM 02/13/2016,Teleop Enabled,0,FALSE,0,NO ERROR,0.000000,0.000000,9000.000000,9000.000000,Speed,Speed,-0.300000,1.060000,2.470000,4.000000,102.000000,1,0,-0.003038,-0.003968,0,0.106644,-0.004852,0.000000,-1.473831,-0.736237,0.000000,0.029000,-0.055000,0.125000,FlatInitial
11:01:49.464 AM 02/13/2016,Teleop Enabled,0,FALSE,0,NO ERROR,0.000000,0.000000,9000.000000,9000.000000,Speed,Speed,-0.330000,1.070000,2.600000,4.000000,103.000000,1,0,-0.003038,-0.003968,0,0.090164,0.001602,0.000000,-1.469818,-0.736557,0.000000,-0.010000,0.050000,-0.037000,FlatInitial
11:01:49.565 AM 02/13/2016,Teleop Enabled,0,FALSE,0,NO ERROR,0.000000,0.000000,9000.000000,9000.000000,Speed,Speed,-0.320000,1.070000,2.620000,4.000000,102.000000,1,0,-0.003038,-0.003968,0,0.006775,0.006668,0.000000,-1.466583,-0.736206,0.000000,0.054000,0.079000,0.031000,FlatInitial
11:01:49.664 AM 02/13/2016,Teleop Enabled,0,FALSE,0,NO ERROR,0.000000,0.000000,9000.000000,9000.000000,Speed,Speed,-0.300000,1.090000,2.660000,4.000000,101.000000,1,0,-0.003038,-0.003968,0,-0.008438,-0.010712,0.000000,-1.466797,-0.736328,0.000000,0.005000,-0.069000,-0.084000,FlatInitial
11:01:49.765 AM 02/13/2016,Teleop Enabled,0,FALSE,0,NO ERROR,0.000000,0.000000,9000.000000,9000.000000,Speed,Speed,-0.320000,1.110000,2.650000,4.000000,102.000000,1,0,-0.003038,-0.003968,0,-0.014999,-0.002518,0.000000,-1.467926,-0.736755,0.000000,0.030000,0.037000,-0.012000,FlatInitial
11:01:49.865 AM 02/13/2016,Teleop Enabled,0,FALSE,0,NO ERROR,0.000000,0.000000,9000.000000,9000.000000,Speed,Speed,-0.290000,1.120000,2.630000,4.000000,101.000000,1,0,-0.003038,-0.003968,0,0.000000,0.000000,0.000000,-1.468231,-0.737045,0.000000,-0.013000,-0.019000,-0.010000,FlatInitial
11:01:49.965 AM 02/13/2016,Teleop Enabled,0,FALSE,0,NO ERROR,0.000000,0.000000,9000.000000,9000.000000,Speed,Speed,-0.300000,1.090000,2.640000,4.000000,101.000000,1,0,-0.003038,-0.003968,0,-0.022614,0.010773,0.000000,-1.468796,-0.737030,0.000000,-0.021000,0.066000,0.021000,FlatInitial
11:01:50.066 AM 02/13/2016,Teleop Enabled,0,FALSE,0,NO ERROR,0.000000,0.000000,9000.000000,9000.000000,Speed,Speed,-0.310000,1.100000,2.640000,4.000000,101.000000,1,0,-0.003038,-0.003968,0,-0.009552,0.008667,0.000000,-1.469131,-0.736359,0.000000,-0.080000,-0.023000,0.098000,FlatInitial
11:01:50.166 AM 02/13/2016,Teleop Enabled,0,FALSE,0,NO ERROR,0.000000,0.000000,9000.000000,9000.000000,Speed,Speed,-0.300000,1.080000,2.660000,4.000000,102.000000,1,0,-0.003038,-0.003968,0,-0.052582,0.002274,0.000000,-1.470642,-0.736511,0.000000,-0.054000,0.093000,-0.107000,FlatInitial
11:01:50.266 AM 02/13/2016,Teleop Enabled,0,FALSE,0,NO ERROR,0.000000,0.000000,9000.000000,9000.000000,Speed,Speed,-0.310000,1.110000,2.630000,4.000000,100.000000,1,0,-0.003038,-0.003968,0,-0.035538,-0.001862,0.000000,-1.472778,-0.736252,0.000000,0.044000,0.072000,0.077000,FlatInitial
11:01:50.366 AM 02/13/2016,Teleop Enabled,0,FALSE,0,NO ERROR,0.000000,0.000000,9000.000000,9000.000000,Speed,Speed,-0.310000,1.100000,2.620000,4.000000,101.000000,1,0,-0.003038,-0.003968,0,-0.001984,-0.017014,0.000000,-1.473511,-0.736496,0.000000,-0.082000,0.048000,-0.084000,FlatInitial
11:01:50.467 AM 02/13/2016,Teleop Enabled,0,FALSE,0,NO ERROR,0.000000,0.000000,9000.000000,9000.000000,Speed,Speed,-0.300000,1.110000,2.660000,4.000000,105.000000,1,0,-0.003038,-0.003968,0,0.000000,0.003204,0.000000,-1.473862,-0.736359,0.000000,0.042000,0.043000,0.022000,FlatInitial
11:01:50.567 AM 02/13/2016,Teleop Enabled,0,FALSE,0,NO ERROR,0.000000,0.000000,9000.000000,9000.000000,Speed,Speed,-0.310000,1.130000,2.670000,4.000000,102.000000,1,0,-0.003038,-0.003968,0,0.010788,-0.004349,0.000000,-1.473526,-0.736023,0.000000,0.001000,-0.085000,-0.026000,FlatInitial
11:01:50.668 AM 02/13/2016,Teleop Enabled,0,FALSE,0,NO ERROR,0.000000,0.000000,9000.000000,9000.000000,Speed,Speed,-0.300000,1.100000,2.640000,4.000000,104.000000,1,0,-0.003038,-0.003968,0,-0.007675,0.009064,0.000000,-1.473907,-0.735947,0.000000,0.016000,-0.018000,0.009000,FlatInitial
11:01:50.769 AM 02/13/2016,Teleop Enabled,0,FALSE,0,NO ERROR,0.000000,0.000000,9000.000000,9000.000000,Speed,Speed,-0.310000,1.120000,2.670000,4.000000,101.000000,1,0,-0.003038,-0.003968,0,0.021408,0.004990,0.000000,-1.473480,-0.735886,0.000000,0.002000,-0.100000,-0.002000,FlatInitial
11:01:50.870 AM 02/13/2016,Teleop Enabled,0,FALSE,0,NO ERROR,0.000000,0.000000,9000.000000,9000.000000,Speed,Speed,-0.310000,1.110000,2.660000,4.000000,102.000000,1,0,-0.003038,-0.003968,0,-0.021851,0.012299,0.000000,-1.473755,-0.736160,0.000000,-0.011000,0.006000,-0.037000,FlatInitial
11:01:50.972 AM 02/13/2016,Teleop Enabled,0,FALSE,0,NO ERROR,0.000000,0.000000,9000.000000,9000.000000,Speed,Speed,-0.300000,1.120000,2.650000,4.000000,101.000000,1,0,-0.003038,-0.003968,0,0.008286,0.013535,0.000000,-1.473633,-0.735809,0.000000,-0.026000,-0.015000,0.147000,FlatInitial
11:01:51.073 AM 02/13/2016,Teleop Enabled,0,FALSE,0,NO ERROR,0.000000,0.000000,9000.000000,9000.000000,Speed,Speed,-0.300000,1.110000,2.660000,4.000000,103.000000,1,0,-0.003038,-0.003968,0,-0.009781,0.004944,0.000000,-1.473251,-0.735458,0.000000,-0.055000,0.082000,-0.130000,FlatInitial
11:01:51.174 AM 02/13/2016,Teleop Enabled,0,FALSE,0,NO ERROR,0.000000,0.000000,9000.000000,9000.000000,Speed,Speed,-0.300000,1.100000,2.660000,4.000000,102.000000,1,0,-0.003038,-0.003968,0,0.000000,0.000000,0.000000,-1.473328,-0.735031,0.000000,0.019000,-0.005000,0.138000,FlatInitial
11:01:51.276 AM 02/13/2016,Teleop Enabled,0,FALSE,0,NO ERROR,0.000000,0.000000,9000.000000,9000.000000,Speed,Speed,-0.300000,1.090000,2.650000,4.000000,101.000000,1,0,-0.003038,-0.003968,0,0.000000,-0.019592,0.000000,-1.472961,-0.735275,0.000000,-0.014000,0.010000,-0.146000,FlatInitial
11:01:51.377 AM 02/13/2016,Teleop Enabled,0,FALSE,0,NO ERROR,0.000000,0.000000,9000.000000,9000.000000,Speed,Speed,-0.300000,1.090000,2.660000,4.000000,100.000000,1,0,-0.003038,-0.003968,0,0.000000,0.004196,0.000000,-1.473419,-0.735306,0.000000,-0.016000,-0.032000,0.078000,FlatInitial
11:01:51.477 AM 02/13/2016,Teleop Enabled,0,FALSE,0,NO ERROR,0.000000,0.000000,9000.000000,9000.000000,Speed,Speed,-0.310000,1.110000,2.660000,4.000000,103.000000,1,0,-0.003038,-0.003968,0,0.007599,0.002563,0.000000,-1.473175,-0.735016,0.000000,0.066000,-0.013000,-0.059000,FlatInitial
11:01:51.577 AM 02/13/2016,Teleop Enabled,0,FALSE,0,NO ERROR,0.000000,0.000000,9000.000000,9000.000000,Speed,Speed,-0.310000,1.100000,2.670000,4.000000,102.000000,1,0,-0.003038,-0.003968,0,-0.001068,0.015991,0.000000,-1.473236,-0.734833,0.000000,0.072000,-0.026000,-0.072000,FlatInitial
11:01:51.676 AM 02/13/2016,Teleop Enabled,0,FALSE,0,NO ERROR,0.000000,0.000000,9000.000000,9000.000000,Speed,Speed,-0.310000,1.130000,2.670000,4.000000,101.000000,1,0,-0.003038,-0.003968,0,0.012360,-0.004150,0.000000,-1.472900,-0.734512,0.000000,-0.025000,-0.028000,-0.028000,FlatInitial
11:01:51.776 AM 02/13/2016,Teleop Enabled,0,FALSE,0,NO ERROR,0.000000,0.000000,9000.000000,9000.000000,Speed,Speed,-0.310000,1.110000,2.660000,4.000000,102.000000,1,0,-0.003038,-0.003968,0,-0.014038,-0.003952,0.000000,-1.472946,-0.735123,0.000000,-0.005000,0.093000,-0.049000,FlatInitial
11:01:51.877 AM 02/13/2016,Teleop Enabled,0,FALSE,0,NO ERROR,0.000000,0.000000,9000.000000,9000.000000,Speed,Speed,-0.310000,1.120000,2.670000,4.000000,103.000000,1,0,-0.003038,-0.003968,0,0.008942,0.003479,0.000000,-1.472977,-0.735138,0.000000,0.013000,0.046000,0.050000,FlatInitial
11:01:51.978 AM 02/13/2016,Teleop Enabled,0,FALSE,0,NO ERROR,0.000000,0.000000,9000.000000,9000.000000,Speed,Speed,-0.300000,1.110000,2.660000,4.000000,101.000000,1,0,-0.003038,-0.003968,0,0.011353,-0.013351,0.000000,-1.472366,-0.735214,0.000000,-0.104000,0.026000,0.027000,FlatInitial
11:01:52.078 AM 02/13/2016,Teleop Enabled,0,FALSE,0,NO ERROR,0.000000,0.000000,9000.000000,9000.000000,Speed,Speed,-0.310000,1.110000,2.660000,4.000000,102.000000,1,0,-0.003038,-0.003968,0,0.000000,-0.000244,0.000000,-1.472351,-0.735016,0.000000,0.018000,0.012000,0.157000,FlatInitial
11:01:52.180 AM 02/13/2016,Teleop Enabled,0,FALSE,0,NO ERROR,0.000000,0.000000,9000.000000,9000.000000,Speed,Speed,-0.300000,1.100000,2.650000,4.000000,102.000000,1,0,-0.003038,-0.003968,0,0.000000,-0.013763,0.000000,-1.472061,-0.735031,0.000000,-0.016000,0.019000,-0.133000,FlatInitial
11:01:52.281 AM 02/13/2016,Teleop Enabled,0,FALSE,0,NO ERROR,0.000000,0.000000,9000.000000,9000.000000,Speed,Speed,-0.300000,1.090000,2.650000,4.000000,102.000000,1,0,-0.003038,-0.003968,0,-0.024063,0.000000,0.000000,-1.472839,-0.735199,0.000000,-0.007000,-0.047000,0.073000,FlatInitial
11:01:52.382 AM 02/13/2016,Teleop Enabled,0,FALSE,0,NO ERROR,0.000000,0.000000,9000.000000,9000.000000,Speed,Speed,-0.300000,1.120000,2.650000,4.000000,101.000000,1,0,-0.003038,-0.003968,0,-0.020111,0.002243,0.000000,-1.473846,-0.735229,0.000000,0.073000,-0.002000,-0.056000,FlatInitial
11:01:52.482 AM 02/13/2016,Teleop Enabled,0,FALSE,0,NO ERROR,0.000000,0.000000,9000.000000,9000.000000,Speed,Speed,-0.300000,1.120000,2.670000,4.000000,102.000000,1,0,-0.003038,-0.003968,0,-0.021133,0.010132,0.000000,-1.474854,-0.735260,0.000000,0.046000,-0.025000,-0.069000,FlatInitial
11:01:52.583 AM 02/13/2016,Teleop Enabled,0,FALSE,0,NO ERROR,0.000000,0.000000,9000.000000,9000.000000,Speed,Speed,-0.310000,1.130000,2.690000,4.000000,103.000000,1,0,-0.003038,-0.003968,0,0.014389,0.011261,0.000000,-1.474823,-0.734985,0.000000,0.035000,-0.022000,0.018000,FlatInitial
11:01:52.683 AM 02/13/2016,Teleop Enabled,0,FALSE,0,NO ERROR,0.000000,0.000000,9000.000000,9000.000000,Speed,Speed,-0.310000,1.140000,2.660000,4.000000,102.000000,1,0,-0.003038,-0.003968,0,-0.023178,-0.000900,0.000000,-1.474976,-0.735458,0.000000,-0.021000,0.081000,-0.035000,FlatInitial
11:01:52.784 AM 02/13/2016,Teleop Enabled,0,FALSE,0,NO ERROR,0.000000,0.000000,9000.000000,9000.000000,Speed,Speed,-0.310000,1.110000,2.660000,4.000000,101.000000,1,0,-0.003038,-0.003968,0,0.008530,-0.000870,0.000000,-1.475128,-0.735535,0.000000,0.009000,0.032000,0.066000,FlatInitial
11:01:52.884 AM 02/13/2016,Teleop Enabled,0,FALSE,0,NO ERROR,0.000000,0.000000,9000.000000,9000.000000,Speed,Speed,-0.310000,1.140000,2.660000,4.000000,103.000000,1,0,-0.003038,-0.003968,0,0.018600,-0.013840,0.000000,-1.474701,-0.735779,0.000000,-0.101000,0.035000,0.010000,FlatInitial
11:01:52.984 AM 02/13/2016,Teleop Enabled,0,FALSE,0,NO ERROR,0.000000,0.000000,9000.000000,9000.000000,Speed,Speed,-0.310000,1.110000,2.660000,4.000000,101.000000,1,0,-0.003038,-0.003968,0,0.014221,0.000000,0.000000,-1.474548,-0.735947,0.000000,0.055000,-0.018000,0.091000,FlatInitial
11:01:53.084 AM 02/13/2016,Teleop Enabled,0,FALSE,0,NO ERROR,0.000000,0.000000,9000.000000,9000.000000,Speed,Speed,-0.350000,1.100000,2.700000,4.000000,103.000000,1,0,-0.003038,-0.003968,0,0.029495,-0.009216,0.000000,-1.473007,-0.736053,0.000000,0.009000,0.019000,-0.030000,FlatInitial
