Time,RobotMode,AutoToRun,ErrorStatus, ErrorCode,ErrorSource,ActualRPM1,ActualRPM2,DesiredRPM1,DesiredRPM2,ControlMode1,ControlMode2,NavXYaw,NavXRoll,NavXPitch,ShooterState,LoopTime,IsLevel,IsAutoTargeting,LeftMotorOutput,RightMotorOutput,IsHaloDrive,NavXVelocityX,NavXVelocityY,NavXVelocityZ,NavXDisplacementX,NavXDisplacementY,NavXDisplacementZ,NavXAccelerationX,NavXAccelerationY,NavXAccelerationZ,AutoDefendState
03:44:55.314 PM 02/13/2016,Teleop Enabled,0,TRUE,-44087,NetComm_CAN_Receive.vi:5470006<APPEND>  <b>Complete call chain:</b>      NetComm_CAN_Receive.vi:5470006      WPI_CANTalonSRX_Receive.vi      WPI_MotorControlOpenCANTalonSRX.vi      Begin.vi      Robot Main.vi,0.000000,0.000000,0.000000,0.000000,Speed,Speed,4.180000,0.330000,2.340000,0.000000,100.000000,1,0,-0.012152,-0.010478,0,0.000000,0.000000,0.000000,-0.157562,0.013504,0.000000,0.001000,0.001000,0.008000,FlatInitial
03:44:55.414 PM 02/13/2016,Teleop Enabled,0,TRUE,-44087,NetComm_CAN_Receive.vi:5470006<APPEND>  <b>Complete call chain:</b>      NetComm_CAN_Receive.vi:5470006      WPI_CANTalonSRX_Receive.vi      WPI_MotorControlOpenCANTalonSRX.vi      Begin.vi      Robot Main.vi,0.000000,0.000000,0.000000,0.000000,Speed,Speed,4.180000,0.330000,2.340000,0.000000,101.000000,1,0,-0.012152,-0.010478,0,0.000000,0.000000,0.000000,-0.157562,0.013504,0.000000,0.001000,0.001000,0.008000,FlatInitial
03:44:55.514 PM 02/13/2016,Teleop Enabled,0,TRUE,-44087,NetComm_CAN_Receive.vi:5470006<APPEND>  <b>Complete call chain:</b>      NetComm_CAN_Receive.vi:5470006      WPI_CANTalonSRX_Receive.vi      WPI_MotorControlOpenCANTalonSRX.vi      Begin.vi      Robot Main.vi,0.000000,0.000000,-6000.000000,-6000.000000,Speed,Speed,4.180000,0.330000,2.340000,1.000000,102.000000,1,0,-0.012152,-0.010478,0,0.000000,0.000000,0.000000,-0.157562,0.013504,0.000000,0.001000,0.001000,0.008000,FlatInitial
03:44:55.615 PM 02/13/2016,Teleop Enabled,0,TRUE,-44087,NetComm_CAN_Receive.vi:5470006<APPEND>  <b>Complete call chain:</b>      NetComm_CAN_Receive.vi:5470006      WPI_CANTalonSRX_Receive.vi      WPI_MotorControlOpenCANTalonSRX.vi      Begin.vi      Robot Main.vi,0.000000,0.000000,0.000000,0.000000,Speed,Speed,4.180000,0.330000,2.340000,2.000000,101.000000,1,0,-0.012152,-0.010478,0,0.000000,0.000000,0.000000,-0.157562,0.013504,0.000000,0.001000,0.001000,0.008000,FlatInitial
03:44:55.716 PM 02/13/2016,Teleop Enabled,0,TRUE,-44087,NetComm_CAN_Receive.vi:5470006<APPEND>  <b>Complete call chain:</b>      NetComm_CAN_Receive.vi:5470006      WPI_CANTalonSRX_Receive.vi      WPI_MotorControlOpenCANTalonSRX.vi      Begin.vi      Robot Main.vi,0.000000,0.000000,0.000000,0.000000,Speed,Speed,4.180000,0.330000,2.340000,2.000000,100.000000,1,0,-0.012152,-0.010478,0,0.000000,0.000000,0.000000,-0.157562,0.013504,0.000000,0.001000,0.001000,0.008000,FlatInitial
03:44:55.816 PM 02/13/2016,Teleop Enabled,0,TRUE,-44087,NetComm_CAN_Receive.vi:5470006<APPEND>  <b>Complete call chain:</b>      NetComm_CAN_Receive.vi:5470006      WPI_CANTalonSRX_Receive.vi      WPI_MotorControlOpenCANTalonSRX.vi      Begin.vi      Robot Main.vi,0.000000,0.000000,0.000000,0.000000,Speed,Speed,4.180000,0.330000,2.340000,2.000000,101.000000,1,0,-0.012152,-0.010478,0,0.000000,0.000000,0.000000,-0.157562,0.013504,0.000000,0.001000,0.001000,0.008000,FlatInitial
03:44:55.916 PM 02/13/2016,Teleop Enabled,0,TRUE,-44087,NetComm_CAN_Receive.vi:5470006<APPEND>  <b>Complete call chain:</b>      NetComm_CAN_Receive.vi:5470006      WPI_CANTalonSRX_Receive.vi      WPI_MotorControlOpenCANTalonSRX.vi      Begin.vi      Robot Main.vi,0.000000,0.000000,0.000000,0.000000,Speed,Speed,4.180000,0.330000,2.340000,2.000000,100.000000,1,0,-0.012152,-0.010478,0,0.000000,0.000000,0.000000,-0.157562,0.013504,0.000000,0.001000,0.001000,0.008000,FlatInitial
03:44:56.015 PM 02/13/2016,Teleop Enabled,0,TRUE,-44087,NetComm_CAN_Receive.vi:5470006<APPEND>  <b>Complete call chain:</b>      NetComm_CAN_Receive.vi:5470006      WPI_CANTalonSRX_Receive.vi      WPI_MotorControlOpenCANTalonSRX.vi      Begin.vi      Robot Main.vi,0.000000,0.000000,0.000000,0.000000,Speed,Speed,4.180000,0.330000,2.340000,2.000000,101.000000,1,0,-0.012152,-0.010478,0,0.000000,0.000000,0.000000,-0.157562,0.013504,0.000000,0.001000,0.001000,0.008000,FlatInitial
03:44:56.116 PM 02/13/2016,Teleop Enabled,0,TRUE,-44087,NetComm_CAN_Receive.vi:5470006<APPEND>  <b>Complete call chain:</b>      NetComm_CAN_Receive.vi:5470006      WPI_CANTalonSRX_Receive.vi      WPI_MotorControlOpenCANTalonSRX.vi      Begin.vi      Robot Main.vi,0.000000,0.000000,0.000000,0.000000,Speed,Speed,4.180000,0.330000,2.340000,2.000000,102.000000,1,0,-0.012152,-0.010478,0,0.000000,0.000000,0.000000,-0.157562,0.013504,0.000000,0.001000,0.001000,0.008000,FlatInitial
03:44:56.216 PM 02/13/2016,Teleop Enabled,0,TRUE,-44087,NetComm_CAN_Receive.vi:5470006<APPEND>  <b>Complete call chain:</b>      NetComm_CAN_Receive.vi:5470006      WPI_CANTalonSRX_Receive.vi      WPI_MotorControlOpenCANTalonSRX.vi      Begin.vi      Robot Main.vi,0.000000,0.000000,0.000000,0.000000,Speed,Speed,4.180000,0.330000,2.340000,2.000000,101.000000,1,0,-0.012152,-0.010478,0,0.000000,0.000000,0.000000,-0.157562,0.013504,0.000000,0.001000,0.001000,0.008000,FlatInitial
03:44:56.315 PM 02/13/2016,Teleop Enabled,0,TRUE,-44087,NetComm_CAN_Receive.vi:5470006<APPEND>  <b>Complete call chain:</b>      NetComm_CAN_Receive.vi:5470006      WPI_CANTalonSRX_Receive.vi      WPI_MotorControlOpenCANTalonSRX.vi      Begin.vi      Robot Main.vi,0.000000,0.000000,0.000000,0.000000,Speed,Speed,4.180000,0.330000,2.340000,2.000000,101.000000,1,0,-0.012152,-0.010478,0,0.000000,0.000000,0.000000,-0.157562,0.013504,0.000000,0.001000,0.001000,0.008000,FlatInitial
03:44:56.416 PM 02/13/2016,Teleop Enabled,0,TRUE,-44087,NetComm_CAN_Receive.vi:5470006<APPEND>  <b>Complete call chain:</b>      NetComm_CAN_Receive.vi:5470006      WPI_CANTalonSRX_Receive.vi      WPI_MotorControlOpenCANTalonSRX.vi      Begin.vi      Robot Main.vi,0.000000,0.000000,0.000000,0.000000,Speed,Speed,4.180000,0.330000,2.340000,2.000000,102.000000,1,0,-0.012152,-0.010478,0,0.000000,0.000000,0.000000,-0.157562,0.013504,0.000000,0.001000,0.001000,0.008000,FlatInitial
03:44:56.516 PM 02/13/2016,Teleop Enabled,0,TRUE,-44087,NetComm_CAN_Receive.vi:5470006<APPEND>  <b>Complete call chain:</b>      NetComm_CAN_Receive.vi:5470006      WPI_CANTalonSRX_Receive.vi      WPI_CANTalonSRX_GetStatus.vi      ShooterVI.vi      Periodic Tasks.vi      Robot Main.vi,0.000000,0.000000,0.000000,0.000000,Speed,Speed,4.180000,0.330000,2.340000,2.000000,101.000000,1,0,-0.012152,-0.010478,0,0.000000,0.000000,0.000000,-0.157562,0.013504,0.000000,0.001000,0.001000,0.008000,FlatInitial
03:44:56.616 PM 02/13/2016,Teleop Enabled,0,TRUE,-44087,NetComm_CAN_Receive.vi:5470006<APPEND>  <b>Complete call chain:</b>      NetComm_CAN_Receive.vi:5470006      WPI_CANTalonSRX_Receive.vi      WPI_CANTalonSRX_GetStatus.vi      ShooterVI.vi      Periodic Tasks.vi      Robot Main.vi,0.000000,0.000000,0.000000,0.000000,Speed,Speed,4.180000,0.330000,2.340000,2.000000,106.000000,1,0,-0.012152,-0.010478,0,0.000000,0.000000,0.000000,-0.157562,0.013504,0.000000,0.001000,0.001000,0.008000,FlatInitial
03:44:56.715 PM 02/13/2016,Teleop Enabled,0,FALSE,0,NO ERROR,0.000000,0.000000,0.000000,0.000000,Speed,Speed,4.180000,0.330000,2.340000,2.000000,102.000000,1,0,-0.012152,-0.010478,0,0.000000,0.000000,0.000000,-0.157562,0.013504,0.000000,0.001000,0.001000,0.008000,FlatInitial
03:44:56.865 PM 02/13/2016,Teleop Enabled,0,FALSE,0,NO ERROR,0.000000,0.000000,4000.000000,4000.000000,Speed,Speed,4.180000,0.330000,2.340000,3.000000,102.000000,1,0,-0.012152,-0.010478,0,0.000000,0.000000,0.000000,-0.157562,0.013504,0.000000,0.001000,0.001000,0.008000,FlatInitial
03:44:56.964 PM 02/13/2016,Teleop Enabled,0,FALSE,0,NO ERROR,0.000000,0.000000,4000.000000,4000.000000,Speed,Speed,4.180000,0.330000,2.340000,3.000000,101.000000,1,0,-0.012152,-0.010478,0,0.000000,0.000000,0.000000,-0.157562,0.013504,0.000000,0.001000,0.001000,0.008000,FlatInitial
03:44:57.065 PM 02/13/2016,Teleop Enabled,0,FALSE,0,NO ERROR,0.000000,0.000000,4000.000000,4000.000000,Speed,Speed,4.180000,0.330000,2.340000,3.000000,101.000000,1,0,-0.012152,-0.010478,0,0.000000,0.000000,0.000000,-0.157562,0.013504,0.000000,0.001000,0.001000,0.008000,FlatInitial
03:44:57.165 PM 02/13/2016,Teleop Enabled,0,FALSE,0,NO ERROR,0.000000,0.000000,4000.000000,4000.000000,Speed,Speed,4.180000,0.330000,2.340000,3.000000,101.000000,1,0,-0.012152,-0.010478,0,0.000000,0.000000,0.000000,-0.157562,0.013504,0.000000,0.001000,0.001000,0.008000,FlatInitial
03:44:57.265 PM 02/13/2016,Teleop Enabled,0,TRUE,-44003,<LOCATION>WPI_CameraIssue HTTP Request with Authentication.vi<CALLSTACK>WPI_CameraIssue HTTP Request with Authentication.vi< <WPI_CameraIssue Get.vi< <WPI_CameraSet Image Appearance Property.vi< <WPI_CameraSet Image Size.vi< <Vision Processing.vi< <Robot Main.vi,0.000000,0.000000,4000.000000,4000.000000,Speed,Speed,0.000000,0.960000,2.760000,3.000000,101.000000,1,0,-0.012152,-0.010478,0,0.000000,0.000000,0.000000,-0.157562,0.013504,0.000000,0.001000,0.001000,0.008000,FlatInitial
03:44:57.366 PM 02/13/2016,Teleop Enabled,0,FALSE,0,NO ERROR,0.000000,0.000000,4000.000000,4000.000000,Speed,Speed,0.000000,0.960000,2.750000,3.000000,102.000000,1,0,-0.012152,-0.010478,0,0.000000,0.000000,0.000000,-0.809875,0.707596,0.000000,0.000000,-0.001000,0.007000,FlatInitial
03:44:57.467 PM 02/13/2016,Teleop Enabled,0,FALSE,0,NO ERROR,0.000000,0.000000,4000.000000,4000.000000,Speed,Speed,0.000000,0.960000,2.750000,3.000000,102.000000,1,0,-0.012152,-0.010478,0,0.000000,0.000000,0.000000,-0.809875,0.707596,0.000000,0.002000,0.000000,0.000000,FlatInitial
03:44:57.568 PM 02/13/2016,Teleop Enabled,0,FALSE,0,NO ERROR,0.000000,0.000000,4000.000000,4000.000000,Speed,Speed,0.000000,0.960000,2.760000,3.000000,102.000000,1,0,-0.012152,-0.010478,0,0.000000,0.000000,0.000000,-0.809875,0.707596,0.000000,0.001000,0.002000,0.006000,FlatInitial
03:44:57.669 PM 02/13/2016,Teleop Enabled,0,FALSE,0,NO ERROR,0.000000,0.000000,4000.000000,4000.000000,Speed,Speed,0.000000,0.960000,2.760000,3.000000,102.000000,1,0,-0.012152,-0.010478,0,0.000000,0.000000,0.000000,-0.809875,0.707596,0.000000,0.000000,0.003000,0.001000,FlatInitial
03:44:57.770 PM 02/13/2016,Teleop Enabled,0,FALSE,0,NO ERROR,0.000000,0.000000,4000.000000,4000.000000,Speed,Speed,0.000000,0.960000,2.760000,3.000000,103.000000,1,0,-0.012152,-0.010478,0,0.000000,0.000000,0.000000,-0.809875,0.707596,0.000000,0.000000,0.001000,0.006000,FlatInitial
03:44:57.871 PM 02/13/2016,Teleop Enabled,0,FALSE,0,NO ERROR,0.000000,0.000000,4000.000000,4000.000000,Speed,Speed,0.000000,0.960000,2.760000,3.000000,102.000000,1,0,-0.012152,-0.010478,0,0.000000,0.000000,0.000000,-0.809875,0.707596,0.000000,0.001000,0.002000,0.004000,FlatInitial
03:44:57.972 PM 02/13/2016,Teleop Enabled,0,FALSE,0,NO ERROR,0.000000,0.000000,4000.000000,4000.000000,Speed,Speed,0.000000,0.960000,2.750000,3.000000,107.000000,1,0,-0.012152,-0.010478,0,0.000000,0.000000,0.000000,-0.809875,0.707596,0.000000,-0.001000,0.001000,0.005000,FlatInitial
03:44:58.071 PM 02/13/2016,Teleop Enabled,0,FALSE,0,NO ERROR,0.000000,0.000000,4000.000000,4000.000000,Speed,Speed,0.000000,0.960000,2.750000,3.000000,100.000000,1,0,-0.012152,-0.010478,0,0.000000,0.000000,0.000000,-0.809875,0.707596,0.000000,-0.001000,0.002000,0.010000,FlatInitial
03:44:58.173 PM 02/13/2016,Teleop Enabled,0,FALSE,0,NO ERROR,0.000000,0.000000,4000.000000,4000.000000,Speed,Speed,0.000000,0.960000,2.750000,3.000000,103.000000,1,0,-0.012152,-0.010478,0,0.000000,0.000000,0.000000,-0.809875,0.707596,0.000000,0.002000,0.001000,0.005000,FlatInitial
03:44:58.273 PM 02/13/2016,Teleop Enabled,0,FALSE,0,NO ERROR,0.000000,0.000000,4000.000000,4000.000000,Speed,Speed,0.000000,0.960000,2.740000,3.000000,101.000000,1,0,-0.022382,-0.010478,0,0.000000,0.000000,0.000000,-0.809875,0.707596,0.000000,0.000000,0.002000,0.005000,FlatInitial
03:44:58.373 PM 02/13/2016,Teleop Enabled,0,FALSE,0,NO ERROR,0.000000,0.000000,4000.000000,4000.000000,Speed,Speed,0.000000,0.960000,2.740000,3.000000,102.000000,1,0,-0.000248,-0.010478,0,0.000000,0.000000,0.000000,-0.809875,0.707596,0.000000,0.002000,0.000000,0.006000,FlatInitial
03:44:58.473 PM 02/13/2016,Teleop Enabled,0,FALSE,0,NO ERROR,0.000000,0.000000,4000.000000,4000.000000,Speed,Speed,0.000000,0.960000,2.740000,3.000000,102.000000,1,0,0.386943,-0.010478,0,0.000000,0.000000,0.000000,-0.809875,0.707596,0.000000,0.001000,-0.001000,0.002000,FlatInitial
03:44:58.575 PM 02/13/2016,Teleop Enabled,0,FALSE,0,NO ERROR,0.000000,0.000000,4000.000000,4000.000000,Speed,Speed,0.000000,0.960000,2.740000,3.000000,103.000000,1,0,1.000000,-0.010478,0,0.000000,0.000000,0.000000,-0.809875,0.707596,0.000000,0.004000,-0.005000,-0.009000,FlatInitial
03:44:58.675 PM 02/13/2016,Teleop Enabled,0,FALSE,0,NO ERROR,0.000000,0.000000,4000.000000,4000.000000,Speed,Speed,-2.470000,1.700000,-1.160000,3.000000,105.000000,1,0,-0.001550,-0.010478,0,0.016129,-0.730606,0.000000,-0.810959,0.689499,0.000000,0.489000,-1.063000,0.303000,FlatInitial
03:44:58.776 PM 02/13/2016,Teleop Enabled,0,FALSE,0,NO ERROR,0.000000,0.000000,4000.000000,4000.000000,Speed,Speed,-13.510000,2.780000,-4.430000,3.000000,102.000000,1,0,-0.001550,-0.010478,0,0.424820,-1.079910,0.000000,-0.795242,0.637756,0.000000,0.207000,0.103000,-0.545000,FlatInitial
03:44:58.877 PM 02/13/2016,Teleop Enabled,0,FALSE,0,NO ERROR,0.000000,0.000000,4000.000000,4000.000000,Speed,Speed,-24.950000,1.250000,1.010000,3.000000,102.000000,1,0,-0.010478,-0.010478,0,0.211075,-0.834778,0.000000,-0.777008,0.591110,0.000000,-0.848000,0.001000,0.283000,FlatInitial
03:44:58.978 PM 02/13/2016,Teleop Enabled,0,FALSE,0,NO ERROR,0.000000,0.000000,4000.000000,4000.000000,Speed,Speed,-30.640000,1.500000,-0.010000,3.000000,102.000000,1,0,-0.022382,-0.010478,0,0.202042,-0.639801,0.000000,-0.772690,0.552216,0.000000,0.613000,0.640000,1.023000,FlatInitial
03:44:59.079 PM 02/13/2016,Teleop Enabled,0,FALSE,0,NO ERROR,0.000000,0.000000,4000.000000,4000.000000,Speed,Speed,-34.290000,2.340000,-0.730000,3.000000,104.000000,1,0,-0.024800,-0.010478,0,0.372208,-0.306305,0.000000,-0.752792,0.534653,0.000000,-0.260000,-0.068000,-0.531000,FlatInitial
03:44:59.180 PM 02/13/2016,Teleop Enabled,0,FALSE,0,NO ERROR,0.000000,0.000000,4000.000000,4000.000000,Speed,Speed,-38.090000,1.480000,2.350000,3.000000,101.000000,1,0,-0.015872,-0.010478,0,0.144852,-0.385284,0.000000,-0.742050,0.516586,0.000000,-0.075000,0.108000,-0.702000,FlatInitial
03:44:59.280 PM 02/13/2016,Teleop Enabled,0,FALSE,0,NO ERROR,0.000000,0.000000,4000.000000,4000.000000,Speed,Speed,-40.130000,2.200000,1.050000,3.000000,103.000000,1,0,-0.024800,-0.010478,0,0.141434,-0.181900,0.000000,-0.735428,0.502274,0.000000,-0.124000,0.118000,-0.026000,FlatInitial
03:44:59.383 PM 02/13/2016,Teleop Enabled,0,FALSE,0,NO ERROR,0.000000,0.000000,4000.000000,4000.000000,Speed,Speed,-41.120000,1.710000,2.450000,3.000000,103.000000,1,0,-0.104222,-0.010478,0,0.002869,-0.177475,0.000000,-0.732239,0.494812,0.000000,-0.084000,0.061000,0.726000,FlatInitial
03:44:59.481 PM 02/13/2016,Teleop Enabled,0,FALSE,0,NO ERROR,0.000000,0.000000,4000.000000,4000.000000,Speed,Speed,-41.460000,1.650000,3.510000,3.000000,103.000000,1,0,-0.348751,-0.010478,0,-0.080750,-0.051804,0.000000,-0.734253,0.488266,0.000000,-0.324000,0.217000,0.300000,FlatInitial
03:44:59.582 PM 02/13/2016,Teleop Enabled,0,FALSE,0,NO ERROR,0.000000,0.000000,4000.000000,4000.000000,Speed,Speed,-39.230000,1.160000,5.150000,3.000000,101.000000,1,0,-0.312543,-0.010478,0,-0.356689,0.137741,0.000000,-0.746841,0.490738,0.000000,0.084000,0.296000,0.259000,FlatInitial
03:44:59.683 PM 02/13/2016,Teleop Enabled,0,FALSE,0,NO ERROR,0.000000,0.000000,4000.000000,4000.000000,Speed,Speed,-36.790000,1.240000,5.780000,3.000000,102.000000,1,0,-0.094302,-0.010478,0,-0.389801,0.289001,0.000000,-0.764328,0.503632,0.000000,-0.367000,-0.014000,-0.143000,FlatInitial
03:44:59.783 PM 02/13/2016,Teleop Enabled,0,FALSE,0,NO ERROR,0.000000,0.000000,4000.000000,4000.000000,Speed,Speed,-34.690000,1.030000,5.450000,3.000000,101.000000,1,0,-0.174158,-0.010478,0,-0.469986,-0.005798,0.000000,-0.789246,0.503082,0.000000,0.299000,0.011000,-0.032000,FlatInitial
03:44:59.883 PM 02/13/2016,Teleop Enabled,0,FALSE,0,NO ERROR,0.000000,0.000000,4000.000000,4000.000000,Speed,Speed,-33.900000,1.150000,4.690000,3.000000,104.000000,1,0,-0.339513,-0.010478,0,-0.356201,-0.097641,0.000000,-0.810349,0.500366,0.000000,-0.081000,0.012000,-0.084000,FlatInitial
03:44:59.982 PM 02/13/2016,Teleop Enabled,0,FALSE,0,NO ERROR,0.000000,0.000000,4000.000000,4000.000000,Speed,Speed,-32.890000,1.280000,5.820000,3.000000,103.000000,1,0,-0.377209,-0.010478,0,-0.398285,0.032471,0.000000,-0.829315,0.499084,0.000000,-0.059000,0.051000,-0.021000,FlatInitial
03:45:00.083 PM 02/13/2016,Teleop Enabled,0,FALSE,0,NO ERROR,0.000000,0.000000,4000.000000,4000.000000,Speed,Speed,-30.680000,0.820000,6.000000,3.000000,102.000000,0,0,-0.480129,-0.010478,0,-0.483414,0.085938,0.000000,-0.851990,0.502197,0.000000,-0.089000,0.110000,0.011000,FlatInitial
03:45:00.183 PM 02/13/2016,Teleop Enabled,0,FALSE,0,NO ERROR,0.000000,0.000000,4000.000000,4000.000000,Speed,Speed,-27.450000,0.820000,7.380000,3.000000,103.000000,0,0,-0.491103,-0.010478,0,-0.522888,0.240005,0.000000,-0.872650,0.509308,0.000000,0.096000,0.142000,0.062000,FlatInitial
03:45:00.284 PM 02/13/2016,Teleop Enabled,0,FALSE,0,NO ERROR,0.000000,0.000000,4000.000000,4000.000000,Speed,Speed,-23.720000,0.430000,7.150000,3.000000,102.000000,0,0,-0.278319,-0.010478,0,-0.565125,0.359039,0.000000,-0.904251,0.529053,0.000000,-0.097000,0.183000,-0.088000,FlatInitial
03:45:00.384 PM 02/13/2016,Teleop Enabled,0,FALSE,0,NO ERROR,0.000000,0.000000,4000.000000,4000.000000,Speed,Speed,-19.350000,0.570000,7.240000,3.000000,103.000000,0,0,-0.020088,-0.010478,0,-0.457718,0.428207,0.000000,-0.931702,0.550262,0.000000,0.356000,-0.212000,0.128000,FlatInitial
03:45:00.485 PM 02/13/2016,Teleop Enabled,0,FALSE,0,NO ERROR,0.000000,0.000000,4000.000000,4000.000000,Speed,Speed,-17.270000,0.610000,4.550000,3.000000,103.000000,1,0,0.003038,-0.010478,0,-0.310074,0.206497,0.000000,-0.949402,0.565216,0.000000,0.090000,-0.009000,-0.148000,FlatInitial
03:45:00.585 PM 02/13/2016,Teleop Enabled,0,FALSE,0,NO ERROR,0.000000,0.000000,4000.000000,4000.000000,Speed,Speed,-16.290000,0.910000,5.300000,3.000000,101.000000,1,0,0.006200,-0.010478,0,-0.234024,0.143387,0.000000,-0.963043,0.574753,0.000000,0.007000,-0.215000,-0.011000,FlatInitial
03:45:00.685 PM 02/13/2016,Teleop Enabled,0,FALSE,0,NO ERROR,0.000000,0.000000,4000.000000,4000.000000,Speed,Speed,-16.050000,0.810000,3.730000,3.000000,102.000000,1,0,0.045198,-0.010478,0,-0.207138,0.007706,0.000000,-0.973892,0.576965,0.000000,0.034000,-0.090000,0.031000,FlatInitial
03:45:00.785 PM 02/13/2016,Teleop Enabled,0,FALSE,0,NO ERROR,0.000000,0.000000,4000.000000,4000.000000,Speed,Speed,-16.140000,0.820000,3.810000,3.000000,102.000000,1,0,0.246078,-0.010478,0,-0.159424,-0.103714,0.000000,-0.983246,0.575043,0.000000,0.156000,-0.403000,0.117000,FlatInitial
03:45:00.885 PM 02/13/2016,Teleop Enabled,0,FALSE,0,NO ERROR,0.000000,0.000000,4000.000000,4000.000000,Speed,Speed,-18.380000,1.280000,0.370000,3.000000,103.000000,1,0,0.246078,-0.010478,0,0.091339,-0.519638,0.000000,-0.985168,0.557831,0.000000,0.497000,-0.212000,-0.075000,FlatInitial
03:45:00.986 PM 02/13/2016,Teleop Enabled,0,FALSE,0,NO ERROR,0.000000,0.000000,4000.000000,4000.000000,Speed,Speed,-24.930000,1.400000,-1.220000,3.000000,101.000000,1,0,0.246078,-0.010478,0,0.260895,-0.768890,0.000000,-0.971054,0.516418,0.000000,-0.035000,-0.177000,0.106000,FlatInitial
03:45:01.087 PM 02/13/2016,Teleop Enabled,0,FALSE,0,NO ERROR,0.000000,0.000000,4000.000000,4000.000000,Speed,Speed,-32.740000,0.770000,0.230000,3.000000,114.000000,1,0,0.114638,-0.010478,0,0.143616,-0.847305,0.000000,-0.962402,0.474457,0.000000,0.161000,-0.043000,-0.052000,FlatInitial
03:45:01.187 PM 02/13/2016,Teleop Enabled,0,FALSE,0,NO ERROR,0.000000,0.000000,4000.000000,4000.000000,Speed,Speed,-38.900000,1.090000,-0.610000,3.000000,102.000000,1,0,0.000000,-0.010478,0,0.189301,-0.733856,0.000000,-0.952560,0.435822,0.000000,-0.147000,-0.004000,-0.201000,FlatInitial
03:45:01.288 PM 02/13/2016,Teleop Enabled,0,FALSE,0,NO ERROR,0.000000,0.000000,4000.000000,4000.000000,Speed,Speed,-41.910000,0.010000,0.970000,3.000000,102.000000,1,0,-0.006200,-0.010478,0,-0.112564,-0.748230,0.000000,-0.952209,0.397583,0.000000,0.045000,0.338000,-0.236000,FlatInitial
03:45:01.388 PM 02/13/2016,Teleop Enabled,0,FALSE,0,NO ERROR,0.000000,0.000000,4000.000000,4000.000000,Speed,Speed,-41.190000,0.210000,1.260000,3.000000,102.000000,1,0,-0.015872,-0.010478,0,-0.182617,-0.584793,0.000000,-0.958450,0.367096,0.000000,-0.280000,-0.087000,0.037000,FlatInitial
03:45:01.487 PM 02/13/2016,Teleop Enabled,0,FALSE,0,NO ERROR,0.000000,0.000000,4000.000000,4000.000000,Speed,Speed,-40.280000,0.360000,1.510000,3.000000,102.000000,1,0,-0.015872,-0.010478,0,-0.125534,-0.579163,0.000000,-0.967468,0.337555,0.000000,0.004000,0.053000,-0.048000,FlatInitial
03:45:01.588 PM 02/13/2016,Teleop Enabled,0,FALSE,0,NO ERROR,0.000000,0.000000,4000.000000,4000.000000,Speed,Speed,-40.800000,0.310000,1.590000,3.000000,101.000000,1,0,-0.015872,-0.010478,0,-0.192017,0.021881,0.000000,-0.975769,0.326462,0.000000,0.000000,0.067000,-0.005000,FlatInitial
03:45:01.687 PM 02/13/2016,Teleop Enabled,0,FALSE,0,NO ERROR,0.000000,0.000000,4000.000000,4000.000000,Speed,Speed,-40.670000,0.290000,1.770000,3.000000,103.000000,1,0,-0.015872,-0.010478,0,-0.031174,0.060226,0.000000,-0.976349,0.329407,0.000000,-0.045000,-0.026000,0.045000,FlatInitial
03:45:01.789 PM 02/13/2016,Teleop Enabled,0,FALSE,0,NO ERROR,0.000000,0.000000,4000.000000,4000.000000,Speed,Speed,-40.710000,0.380000,1.790000,3.000000,102.000000,1,0,-0.015872,-0.010478,0,-0.014297,0.066238,0.000000,-0.977280,0.334106,0.000000,-0.045000,-0.026000,0.045000,FlatInitial
03:45:01.890 PM 02/13/2016,Teleop Enabled,0,FALSE,0,NO ERROR,0.000000,0.000000,4000.000000,4000.000000,Speed,Speed,-40.760000,0.420000,1.800000,3.000000,103.000000,1,0,-0.015872,-0.010478,0,0.000000,0.084488,0.000000,-0.977432,0.337234,0.000000,-0.014000,0.006000,0.014000,FlatInitial
03:45:01.990 PM 02/13/2016,Teleop Enabled,0,FALSE,0,NO ERROR,0.000000,0.000000,4000.000000,4000.000000,Speed,Speed,-40.650000,0.400000,1.820000,3.000000,102.000000,1,0,-0.013950,-0.010478,0,0.000778,0.000000,0.000000,-0.977600,0.338074,0.000000,0.019000,0.015000,0.000000,FlatInitial
03:45:02.092 PM 02/13/2016,Teleop Enabled,0,FALSE,0,NO ERROR,0.000000,0.000000,4000.000000,4000.000000,Speed,Speed,-40.720000,0.420000,1.840000,3.000000,102.000000,1,0,-0.013950,-0.010478,0,0.000000,0.000000,0.000000,-0.977524,0.338074,0.000000,-0.007000,0.009000,0.004000,FlatInitial
03:45:02.192 PM 02/13/2016,Teleop Enabled,0,FALSE,0,NO ERROR,0.000000,0.000000,4000.000000,4000.000000,Speed,Speed,-40.690000,0.440000,1.880000,3.000000,102.000000,1,0,-0.013950,-0.010478,0,0.000000,0.000000,0.000000,-0.977524,0.338272,0.000000,-0.003000,0.008000,0.000000,FlatInitial
03:45:02.293 PM 02/13/2016,Teleop Enabled,0,FALSE,0,NO ERROR,0.000000,0.000000,4000.000000,4000.000000,Speed,Speed,-40.680000,0.470000,1.920000,3.000000,100.000000,1,0,-0.013950,-0.010478,0,0.000000,0.000000,0.000000,-0.977524,0.338272,0.000000,-0.015000,0.005000,0.004000,FlatInitial
03:45:02.394 PM 02/13/2016,Teleop Enabled,0,FALSE,0,NO ERROR,0.000000,0.000000,4000.000000,4000.000000,Speed,Speed,-40.700000,0.480000,1.980000,3.000000,102.000000,1,0,-0.013950,-0.010478,0,0.000000,0.000000,0.000000,-0.977524,0.338272,0.000000,-0.007000,-0.001000,0.004000,FlatInitial
03:45:02.494 PM 02/13/2016,Teleop Enabled,0,FALSE,0,NO ERROR,0.000000,0.000000,4000.000000,4000.000000,Speed,Speed,-40.690000,0.500000,1.990000,3.000000,102.000000,1,0,-0.013950,-0.010478,0,0.000000,0.000000,0.000000,-0.977524,0.338272,0.000000,0.001000,0.008000,0.001000,FlatInitial
03:45:02.595 PM 02/13/2016,Teleop Enabled,0,FALSE,0,NO ERROR,0.000000,0.000000,4000.000000,4000.000000,Speed,Speed,-40.700000,0.500000,2.010000,3.000000,104.000000,1,0,-0.013950,-0.010478,0,0.000000,0.000000,0.000000,-0.977524,0.338272,0.000000,0.001000,0.007000,0.009000,FlatInitial
03:45:02.695 PM 02/13/2016,Teleop Enabled,0,FALSE,0,NO ERROR,0.000000,0.000000,4000.000000,4000.000000,Speed,Speed,-40.680000,0.510000,2.040000,3.000000,101.000000,1,0,-0.013950,-0.010478,0,0.000000,0.000000,0.000000,-0.977524,0.338272,0.000000,0.001000,0.005000,0.006000,FlatInitial
03:45:02.795 PM 02/13/2016,Teleop Enabled,0,FALSE,0,NO ERROR,0.000000,0.000000,4000.000000,4000.000000,Speed,Speed,-40.690000,0.520000,2.060000,3.000000,102.000000,1,0,-0.013950,-0.010478,0,0.000000,0.000000,0.000000,-0.977524,0.338272,0.000000,-0.002000,0.007000,0.009000,FlatInitial
03:45:02.895 PM 02/13/2016,Teleop Enabled,0,FALSE,0,NO ERROR,0.000000,0.000000,4000.000000,4000.000000,Speed,Speed,-40.680000,0.520000,2.080000,3.000000,102.000000,1,0,-0.013950,-0.010478,0,0.000000,0.000000,0.000000,-0.977524,0.338272,0.000000,-0.001000,0.003000,0.007000,FlatInitial
03:45:02.995 PM 02/13/2016,Teleop Enabled,0,FALSE,0,NO ERROR,0.000000,0.000000,4000.000000,4000.000000,Speed,Speed,-40.690000,0.540000,2.100000,3.000000,102.000000,1,0,-0.010478,-0.010478,0,0.000000,0.000000,0.000000,-0.977524,0.338272,0.000000,-0.003000,0.004000,0.005000,FlatInitial
03:45:03.095 PM 02/13/2016,Teleop Enabled,0,FALSE,0,NO ERROR,0.000000,0.000000,4000.000000,4000.000000,Speed,Speed,-40.680000,0.550000,2.120000,3.000000,102.000000,1,0,-0.010478,-0.010478,0,0.000000,0.000000,0.000000,-0.977524,0.338272,0.000000,-0.001000,0.002000,0.001000,FlatInitial
03:45:03.196 PM 02/13/2016,Teleop Enabled,0,FALSE,0,NO ERROR,0.000000,0.000000,4000.000000,4000.000000,Speed,Speed,-40.690000,0.550000,2.130000,3.000000,102.000000,1,0,-0.010478,-0.010478,0,0.000000,0.000000,0.000000,-0.977524,0.338272,0.000000,-0.002000,0.004000,0.009000,FlatInitial
03:45:03.296 PM 02/13/2016,Teleop Enabled,0,FALSE,0,NO ERROR,0.000000,0.000000,4000.000000,4000.000000,Speed,Speed,-40.680000,0.560000,2.150000,3.000000,102.000000,1,0,-0.013950,-0.010478,0,0.000000,0.000000,0.000000,-0.977524,0.338272,0.000000,0.003000,0.004000,0.009000,FlatInitial
03:45:03.396 PM 02/13/2016,Teleop Enabled,0,FALSE,0,NO ERROR,0.000000,0.000000,4000.000000,4000.000000,Speed,Speed,-40.680000,0.570000,2.160000,3.000000,100.000000,1,0,-0.657759,-0.010478,0,-0.002869,0.003220,0.000000,-0.977554,0.338303,0.000000,-0.029000,0.031000,0.005000,FlatInitial
03:45:03.496 PM 02/13/2016,Teleop Enabled,0,FALSE,0,NO ERROR,0.000000,0.000000,4000.000000,4000.000000,Speed,Speed,-39.150000,0.400000,4.750000,3.000000,102.000000,1,0,-0.657759,-0.010478,0,-0.301178,0.319534,0.000000,-0.984085,0.344910,0.000000,-0.329000,0.419000,0.151000,FlatInitial
03:45:03.596 PM 02/13/2016,Teleop Enabled,0,FALSE,0,NO ERROR,0.000000,0.000000,4000.000000,4000.000000,Speed,Speed,-33.140000,0.250000,6.250000,3.000000,102.000000,0,0,-0.005022,-0.010478,0,-0.434753,0.675110,0.000000,-1.003922,0.373093,0.000000,0.350000,-0.397000,-0.162000,FlatInitial
03:45:03.696 PM 02/13/2016,Teleop Enabled,0,FALSE,0,NO ERROR,0.000000,0.000000,4000.000000,4000.000000,Speed,Speed,-28.820000,-0.320000,3.820000,3.000000,103.000000,1,0,-0.005022,-0.010478,0,-0.463776,0.460770,0.000000,-1.026672,0.397705,0.000000,0.282000,0.190000,-0.252000,FlatInitial
03:45:03.796 PM 02/13/2016,Teleop Enabled,0,FALSE,0,NO ERROR,0.000000,0.000000,4000.000000,4000.000000,Speed,Speed,-25.650000,0.790000,4.330000,3.000000,101.000000,1,0,-0.005022,-0.010478,0,-0.152969,0.419861,0.000000,-1.039642,0.426712,0.000000,-0.229000,-0.216000,-0.195000,FlatInitial
03:45:03.895 PM 02/13/2016,Teleop Enabled,0,FALSE,0,NO ERROR,0.000000,0.000000,4000.000000,4000.000000,Speed,Speed,-24.580000,0.540000,2.920000,3.000000,102.000000,1,0,-0.005022,-0.010478,0,-0.106216,0.306015,0.000000,-1.045776,0.440262,0.000000,0.192000,0.038000,-0.190000,FlatInitial
03:45:03.995 PM 02/13/2016,Teleop Enabled,0,FALSE,0,NO ERROR,0.000000,0.000000,4000.000000,4000.000000,Speed,Speed,-24.770000,0.630000,3.150000,3.000000,102.000000,1,0,-0.005022,-0.010478,0,-0.047043,0.235428,0.000000,-1.047791,0.456802,0.000000,-0.032000,-0.098000,0.019000,FlatInitial
03:45:04.096 PM 02/13/2016,Teleop Enabled,0,FALSE,0,NO ERROR,0.000000,0.000000,4000.000000,4000.000000,Speed,Speed,-24.600000,0.780000,2.400000,3.000000,100.000000,1,0,-0.005022,-0.010478,0,0.010284,0.177628,0.000000,-1.048264,0.466812,0.000000,-0.022000,-0.083000,-0.017000,FlatInitial
03:45:04.198 PM 02/13/2016,Teleop Enabled,0,FALSE,0,NO ERROR,0.000000,0.000000,4000.000000,4000.000000,Speed,Speed,-24.620000,0.690000,2.460000,3.000000,103.000000,1,0,-0.005022,-0.010478,0,0.032318,0.119629,0.000000,-1.047546,0.473923,0.000000,0.080000,-0.051000,0.042000,FlatInitial
03:45:04.298 PM 02/13/2016,Teleop Enabled,0,FALSE,0,NO ERROR,0.000000,0.000000,4000.000000,4000.000000,Speed,Speed,-24.670000,0.720000,1.960000,3.000000,100.000000,1,0,-0.005022,-0.010478,0,0.000000,0.061615,0.000000,-1.046631,0.478195,0.000000,0.048000,-0.031000,-0.023000,FlatInitial
03:45:04.400 PM 02/13/2016,Teleop Enabled,0,FALSE,0,NO ERROR,0.000000,0.000000,4000.000000,4000.000000,Speed,Speed,-24.660000,0.780000,1.940000,3.000000,100.000000,1,0,-0.005022,-0.010478,0,0.031982,0.017258,0.000000,-1.045532,0.480103,0.000000,0.022000,-0.067000,0.032000,FlatInitial
03:45:04.500 PM 02/13/2016,Teleop Enabled,0,FALSE,0,NO ERROR,0.000000,0.000000,4000.000000,4000.000000,Speed,Speed,-24.680000,0.810000,1.540000,3.000000,101.000000,1,0,-0.005022,-0.010478,0,0.064667,-0.037415,0.000000,-1.042480,0.479034,0.000000,0.022000,-0.067000,0.032000,FlatInitial
03:45:04.601 PM 02/13/2016,Teleop Enabled,0,FALSE,0,NO ERROR,0.000000,0.000000,4000.000000,4000.000000,Speed,Speed,-24.690000,0.770000,1.620000,3.000000,102.000000,1,0,-0.005022,-0.010478,0,0.000000,0.000000,0.000000,-1.042480,0.478195,0.000000,0.019000,0.010000,0.032000,FlatInitial
03:45:04.702 PM 02/13/2016,Teleop Enabled,0,FALSE,0,NO ERROR,0.000000,0.000000,4000.000000,4000.000000,Speed,Speed,-24.640000,0.780000,1.630000,3.000000,101.000000,1,0,-0.005022,-0.010478,0,0.000000,0.000000,0.000000,-1.042480,0.478195,0.000000,0.002000,0.019000,0.012000,FlatInitial
03:45:04.802 PM 02/13/2016,Teleop Enabled,0,FALSE,0,NO ERROR,0.000000,0.000000,4000.000000,4000.000000,Speed,Speed,-24.680000,0.790000,1.770000,3.000000,101.000000,1,0,-0.005022,-0.010478,0,0.000000,0.021652,0.000000,-1.042480,0.478836,0.000000,-0.008000,0.026000,-0.001000,FlatInitial
03:45:04.903 PM 02/13/2016,Teleop Enabled,0,FALSE,0,NO ERROR,0.000000,0.000000,4000.000000,4000.000000,Speed,Speed,-24.650000,0.800000,1.860000,3.000000,102.000000,1,0,-0.005022,-0.010478,0,0.000000,0.000000,0.000000,-1.042480,0.480148,0.000000,-0.008000,0.009000,0.000000,FlatInitial
03:45:05.004 PM 02/13/2016,Teleop Enabled,0,FALSE,0,NO ERROR,0.000000,0.000000,4000.000000,4000.000000,Speed,Speed,-24.660000,0.800000,1.890000,3.000000,101.000000,1,0,-0.005022,-0.001550,0,0.000000,0.000000,0.000000,-1.042480,0.480148,0.000000,-0.008000,0.009000,0.000000,FlatInitial
03:45:05.104 PM 02/13/2016,Teleop Enabled,0,FALSE,0,NO ERROR,0.000000,0.000000,4000.000000,4000.000000,Speed,Speed,-24.660000,0.810000,1.920000,3.000000,102.000000,1,0,-0.005022,-0.015872,0,0.000000,0.000000,0.000000,-1.042480,0.480148,0.000000,-0.010000,0.007000,0.001000,FlatInitial
03:45:05.204 PM 02/13/2016,Teleop Enabled,0,FALSE,0,NO ERROR,0.000000,0.000000,4000.000000,4000.000000,Speed,Speed,-24.670000,0.800000,1.950000,3.000000,102.000000,1,0,-0.005022,-0.358113,0,0.000000,0.000000,0.000000,-1.042480,0.480148,0.000000,-0.003000,0.004000,0.008000,FlatInitial
03:45:05.304 PM 02/13/2016,Teleop Enabled,0,FALSE,0,NO ERROR,0.000000,0.000000,4000.000000,4000.000000,Speed,Speed,-23.330000,0.310000,0.520000,3.000000,102.000000,1,0,-0.005022,-0.513423,0,-0.072342,-0.141418,0.000000,-1.043747,0.477081,0.000000,-0.050000,-0.165000,0.107000,FlatInitial
03:45:05.405 PM 02/13/2016,Teleop Enabled,0,FALSE,0,NO ERROR,0.000000,0.000000,4000.000000,4000.000000,Speed,Speed,-16.990000,-0.160000,-0.240000,3.000000,100.000000,1,0,-0.005022,-0.215822,0,-0.007248,-0.260941,0.000000,-1.048325,0.465408,0.000000,0.086000,0.122000,-0.088000,FlatInitial
03:45:05.506 PM 02/13/2016,Teleop Enabled,0,FALSE,0,NO ERROR,0.000000,0.000000,4000.000000,4000.000000,Speed,Speed,-8.900000,1.270000,1.040000,3.000000,103.000000,1,0,0.000000,-0.022382,0,-0.007248,-0.260941,0.000000,-1.048325,0.465408,0.000000,0.086000,0.122000,-0.088000,FlatInitial
03:45:05.607 PM 02/13/2016,Teleop Enabled,0,FALSE,0,NO ERROR,0.000000,0.000000,4000.000000,4000.000000,Speed,Speed,-7.110000,0.090000,-0.390000,3.000000,101.000000,1,0,0.006200,-0.022382,0,0.309433,-0.335754,0.000000,-1.038712,0.448608,0.000000,0.025000,-0.114000,-0.013000,FlatInitial
03:45:05.707 PM 02/13/2016,Teleop Enabled,0,FALSE,0,NO ERROR,0.000000,0.000000,4000.000000,4000.000000,Speed,Speed,-7.110000,0.090000,-0.390000,3.000000,103.000000,1,0,0.114638,-0.020088,0,0.059448,-0.334442,0.000000,-1.030884,0.430878,0.000000,0.061000,0.119000,-0.302000,FlatInitial
03:45:05.807 PM 02/13/2016,Teleop Enabled,0,FALSE,0,NO ERROR,0.000000,0.000000,4000.000000,4000.000000,Speed,Speed,-6.520000,0.950000,0.650000,3.000000,102.000000,1,0,0.114638,-0.020088,0,0.212982,-0.173523,0.000000,-1.010910,0.408005,0.000000,-0.271000,0.041000,-0.039000,FlatInitial
03:45:05.908 PM 02/13/2016,Teleop Enabled,0,FALSE,0,NO ERROR,0.000000,0.000000,4000.000000,4000.000000,Speed,Speed,-7.020000,0.880000,1.520000,3.000000,102.000000,1,0,0.114638,-0.080352,0,0.190506,-0.115082,0.000000,-0.999512,0.401459,0.000000,-0.077000,-0.004000,0.059000,FlatInitial
03:45:06.009 PM 02/13/2016,Teleop Enabled,0,FALSE,0,NO ERROR,0.000000,0.000000,4000.000000,4000.000000,Speed,Speed,-7.210000,0.990000,1.170000,3.000000,102.000000,1,0,0.174158,-0.120032,0,0.225891,-0.073517,0.000000,-0.988831,0.397202,0.000000,-0.041000,-0.030000,-0.011000,FlatInitial
03:45:06.110 PM 02/13/2016,Teleop Enabled,0,FALSE,0,NO ERROR,0.000000,0.000000,4000.000000,4000.000000,Speed,Speed,-7.590000,0.940000,1.030000,3.000000,103.000000,1,0,0.321409,-0.120032,0,0.232224,-0.144165,0.000000,-0.978104,0.392014,0.000000,-0.041000,-0.030000,-0.011000,FlatInitial
03:45:06.210 PM 02/13/2016,Teleop Enabled,0,FALSE,0,NO ERROR,0.000000,0.000000,4000.000000,4000.000000,Speed,Speed,-9.600000,1.270000,-0.280000,3.000000,103.000000,1,0,0.339513,-0.120032,0,0.328918,-0.314148,0.000000,-0.963455,0.379486,0.000000,0.112000,-0.197000,0.046000,FlatInitial
03:45:06.310 PM 02/13/2016,Teleop Enabled,0,FALSE,0,NO ERROR,0.000000,0.000000,4000.000000,4000.000000,Speed,Speed,-13.370000,1.320000,-0.240000,3.000000,100.000000,1,0,0.339513,-0.120032,0,0.375763,-0.416626,0.000000,-0.945145,0.360199,0.000000,0.101000,-0.134000,-0.059000,FlatInitial
03:45:06.413 PM 02/13/2016,Teleop Enabled,0,FALSE,0,NO ERROR,0.000000,0.000000,4000.000000,4000.000000,Speed,Speed,-16.720000,1.560000,-0.650000,3.000000,104.000000,1,0,0.339513,-0.120032,0,0.440689,0.006256,0.000000,-0.924591,0.351868,0.000000,0.090000,0.001000,-0.006000,FlatInitial
03:45:06.512 PM 02/13/2016,Teleop Enabled,0,FALSE,0,NO ERROR,0.000000,0.000000,4000.000000,4000.000000,Speed,Speed,-20.170000,1.410000,-0.400000,3.000000,101.000000,1,0,0.339513,-0.120032,0,0.441254,-0.012604,0.000000,-0.902039,0.351669,0.000000,0.003000,0.040000,-0.133000,FlatInitial
03:45:06.613 PM 02/13/2016,Teleop Enabled,0,FALSE,0,NO ERROR,0.000000,0.000000,4000.000000,4000.000000,Speed,Speed,-23.160000,1.710000,-0.390000,3.000000,101.000000,1,0,0.201438,-0.437473,0,0.441254,-0.012604,0.000000,-0.902039,0.351669,0.000000,0.003000,0.040000,-0.133000,FlatInitial
03:45:06.714 PM 02/13/2016,Teleop Enabled,0,FALSE,0,NO ERROR,0.000000,0.000000,4000.000000,4000.000000,Speed,Speed,-23.160000,1.710000,-0.390000,3.000000,101.000000,1,0,0.201438,-0.437473,0,0.497986,0.071609,0.000000,-0.873215,0.353516,0.000000,-0.156000,-0.100000,0.081000,FlatInitial
03:45:06.816 PM 02/13/2016,Teleop Enabled,0,FALSE,0,NO ERROR,0.000000,0.000000,4000.000000,4000.000000,Speed,Speed,-20.880000,0.990000,0.570000,3.000000,102.000000,1,0,0.167648,-0.027342,0,0.420197,0.013458,0.000000,-0.850754,0.355728,0.000000,-0.044000,-0.003000,-0.123000,FlatInitial
03:45:06.916 PM 02/13/2016,Teleop Enabled,0,FALSE,0,NO ERROR,0.000000,0.000000,4000.000000,4000.000000,Speed,Speed,-19.850000,1.070000,1.410000,3.000000,102.000000,1,0,0.003038,-0.022382,0,0.370270,0.058258,0.000000,-0.815247,0.356201,0.000000,0.147000,0.011000,-0.001000,FlatInitial
03:45:07.017 PM 02/13/2016,Teleop Enabled,0,FALSE,0,NO ERROR,0.000000,0.000000,4000.000000,4000.000000,Speed,Speed,-19.850000,1.070000,1.410000,3.000000,102.000000,1,0,-0.007502,-0.024800,0,0.370270,0.058258,0.000000,-0.815247,0.356201,0.000000,0.022000,-0.011000,0.225000,FlatInitial
03:45:07.118 PM 02/13/2016,Teleop Enabled,0,FALSE,0,NO ERROR,0.000000,0.000000,4000.000000,4000.000000,Speed,Speed,-19.660000,1.100000,0.860000,3.000000,101.000000,1,0,-0.104222,-0.022382,0,0.315750,0.188858,0.000000,-0.795212,0.363724,0.000000,-0.099000,0.073000,-0.112000,FlatInitial
03:45:07.218 PM 02/13/2016,Teleop Enabled,0,FALSE,0,NO ERROR,0.000000,0.000000,4000.000000,4000.000000,Speed,Speed,-17.910000,0.800000,3.560000,3.000000,102.000000,1,0,-0.458553,-0.048608,0,0.275070,0.273788,0.000000,-0.780838,0.375809,0.000000,-0.303000,0.431000,-0.047000,FlatInitial
03:45:07.318 PM 02/13/2016,Teleop Enabled,0,FALSE,0,NO ERROR,0.000000,0.000000,4000.000000,4000.000000,Speed,Speed,-17.910000,0.800000,3.560000,3.000000,102.000000,1,0,-0.536239,-0.059582,0,0.102936,0.727936,0.000000,-0.772705,0.402008,0.000000,0.008000,0.512000,-0.019000,FlatInitial
03:45:07.418 PM 02/13/2016,Teleop Enabled,0,FALSE,0,NO ERROR,0.000000,0.000000,4000.000000,4000.000000,Speed,Speed,-11.930000,0.700000,6.570000,3.000000,103.000000,0,0,-0.008928,-0.027342,0,-0.036118,1.269318,0.000000,-0.770294,0.465652,0.000000,-0.302000,0.314000,0.088000,FlatInitial
03:45:07.522 PM 02/13/2016,Teleop Enabled,0,FALSE,0,NO ERROR,0.000000,0.000000,4000.000000,4000.000000,Speed,Speed,-4.590000,-0.780000,7.490000,3.000000,103.000000,0,0,-0.008928,-0.000248,0,-0.216888,1.445953,0.000000,-0.777008,0.521484,0.000000,0.102000,-0.085000,0.031000,FlatInitial
03:45:07.619 PM 02/13/2016,Teleop Enabled,0,FALSE,0,NO ERROR,0.000000,0.000000,4000.000000,4000.000000,Speed,Speed,-0.070000,-0.360000,5.410000,3.000000,103.000000,1,0,-0.010478,0.174158,0,-0.039932,1.161194,0.000000,-0.782227,0.584869,0.000000,0.095000,-0.138000,0.017000,FlatInitial
03:45:07.720 PM 02/13/2016,Teleop Enabled,0,FALSE,0,NO ERROR,0.000000,0.000000,4000.000000,4000.000000,Speed,Speed,1.900000,0.120000,5.310000,3.000000,105.000000,1,0,-0.015872,0.750202,0,0.114731,0.964554,0.000000,-0.779099,0.648712,0.000000,-0.066000,-0.174000,-0.056000,FlatInitial
03:45:07.821 PM 02/13/2016,Teleop Enabled,0,FALSE,0,NO ERROR,0.000000,0.000000,4000.000000,4000.000000,Speed,Speed,0.410000,0.440000,5.810000,3.000000,103.000000,1,0,-0.041912,0.167648,0,0.155670,1.066681,0.000000,-0.771606,0.697754,0.000000,-0.267000,0.145000,0.062000,FlatInitial
03:45:07.922 PM 02/13/2016,Teleop Enabled,0,FALSE,0,NO ERROR,0.000000,0.000000,4000.000000,4000.000000,Speed,Speed,-6.830000,0.710000,5.990000,3.000000,101.000000,1,0,-0.148862,0.007502,0,0.050232,1.198654,0.000000,-0.768906,0.755905,0.000000,0.617000,0.061000,0.054000,FlatInitial
03:45:08.023 PM 02/13/2016,Teleop Enabled,0,FALSE,0,NO ERROR,0.000000,0.000000,4000.000000,4000.000000,Speed,Speed,-11.300000,1.280000,4.720000,3.000000,103.000000,1,0,-0.696633,-0.001550,0,0.193024,1.129730,0.000000,-0.757889,0.814529,0.000000,-0.304000,-0.076000,-0.398000,FlatInitial
03:45:08.123 PM 02/13/2016,Teleop Enabled,0,FALSE,0,NO ERROR,0.000000,0.000000,4000.000000,4000.000000,Speed,Speed,-14.780000,0.550000,7.110000,3.000000,105.000000,0,0,-0.736623,-0.003038,0,-0.134048,1.236130,0.000000,-0.759018,0.882614,0.000000,-0.274000,0.568000,-0.054000,FlatInitial
03:45:08.224 PM 02/13/2016,Teleop Enabled,0,FALSE,0,NO ERROR,0.000000,0.000000,4000.000000,4000.000000,Speed,Speed,-12.110000,0.400000,8.720000,3.000000,102.000000,0,0,-0.048608,-0.002232,0,-0.173126,1.642944,0.000000,-0.766022,0.942642,0.000000,-0.229000,0.320000,0.208000,FlatInitial
03:45:08.325 PM 02/13/2016,Teleop Enabled,0,FALSE,0,NO ERROR,0.000000,0.000000,4000.000000,4000.000000,Speed,Speed,-5.410000,-0.290000,8.900000,3.000000,103.000000,0,0,-0.007502,-0.000992,0,-0.178162,1.753281,0.000000,-0.776901,1.029663,0.000000,0.375000,-0.237000,-0.102000,FlatInitial
03:45:08.425 PM 02/13/2016,Teleop Enabled,0,FALSE,0,NO ERROR,0.000000,0.000000,4000.000000,4000.000000,Speed,Speed,-0.900000,0.100000,6.100000,3.000000,101.000000,0,0,0.000000,-0.000248,0,0.036728,1.454254,0.000000,-0.777939,1.108170,0.000000,0.057000,-0.066000,-0.080000,FlatInitial
03:45:08.526 PM 02/13/2016,Teleop Enabled,0,FALSE,0,NO ERROR,0.000000,0.000000,4000.000000,4000.000000,Speed,Speed,2.150000,0.630000,6.310000,3.000000,101.000000,0,0,0.000248,-0.000558,0,0.187256,1.285461,0.000000,-0.773148,1.177551,0.000000,-0.013000,-0.245000,0.068000,FlatInitial
03:45:08.626 PM 02/13/2016,Teleop Enabled,0,FALSE,0,NO ERROR,0.000000,0.000000,4000.000000,4000.000000,Speed,Speed,3.220000,0.530000,4.620000,3.000000,100.000000,1,0,0.002232,-0.003038,0,0.185638,1.069748,0.000000,-0.761932,1.246429,0.000000,0.086000,-0.036000,-0.126000,FlatInitial
03:45:08.726 PM 02/13/2016,Teleop Enabled,0,FALSE,0,NO ERROR,0.000000,0.000000,4000.000000,4000.000000,Speed,Speed,3.350000,0.740000,4.640000,3.000000,101.000000,1,0,0.015872,-0.080352,0,-0.002762,0.975067,0.000000,-0.755737,1.297119,0.000000,-0.043000,-0.152000,-0.030000,FlatInitial
03:45:08.827 PM 02/13/2016,Teleop Enabled,0,FALSE,0,NO ERROR,0.000000,0.000000,4000.000000,4000.000000,Speed,Speed,3.480000,0.610000,3.390000,3.000000,106.000000,1,0,0.215822,-0.155000,0,-0.043594,0.834900,0.000000,-0.756897,1.342117,0.000000,-0.134000,-0.206000,0.039000,FlatInitial
03:45:08.927 PM 02/13/2016,Teleop Enabled,0,FALSE,0,NO ERROR,0.000000,0.000000,4000.000000,4000.000000,Speed,Speed,5.610000,0.220000,0.070000,3.000000,104.000000,1,0,0.278319,-0.155000,0,-0.102463,0.503220,0.000000,-0.760468,1.368439,0.000000,-0.012000,-0.788000,-0.142000,FlatInitial
03:45:09.028 PM 02/13/2016,Teleop Enabled,0,FALSE,0,NO ERROR,0.000000,0.000000,4000.000000,4000.000000,Speed,Speed,6.000000,1.100000,-2.380000,3.000000,102.000000,1,0,0.278319,-0.114638,0,0.028229,-0.156845,0.000000,-0.762955,1.372482,0.000000,-0.001000,-0.359000,-0.020000,FlatInitial
03:45:09.129 PM 02/13/2016,Teleop Enabled,0,FALSE,0,NO ERROR,0.000000,0.000000,4000.000000,4000.000000,Speed,Speed,3.940000,0.600000,-1.190000,3.000000,101.000000,1,0,0.278319,-0.067518,0,-0.082138,-0.308487,0.000000,-0.765182,1.358917,0.000000,0.053000,-0.019000,-0.298000,FlatInitial
03:45:09.230 PM 02/13/2016,Teleop Enabled,0,FALSE,0,NO ERROR,0.000000,0.000000,4000.000000,4000.000000,Speed,Speed,2.080000,1.180000,-2.200000,3.000000,103.000000,1,0,0.278319,-0.067518,0,0.062836,-0.320618,0.000000,-0.765320,1.342804,0.000000,0.127000,-0.065000,0.101000,FlatInitial
03:45:09.329 PM 02/13/2016,Teleop Enabled,0,FALSE,0,NO ERROR,0.000000,0.000000,4000.000000,4000.000000,Speed,Speed,-0.930000,0.920000,-1.560000,3.000000,100.000000,1,0,0.278319,-0.055800,0,-0.001068,-0.308090,0.000000,-0.763153,1.326385,0.000000,-0.120000,0.134000,0.163000,FlatInitial
03:45:09.430 PM 02/13/2016,Teleop Enabled,0,FALSE,0,NO ERROR,0.000000,0.000000,4000.000000,4000.000000,Speed,Speed,-4.150000,1.190000,-1.500000,3.000000,101.000000,1,0,0.278319,-0.052142,0,0.133865,-0.253952,0.000000,-0.759476,1.312927,0.000000,-0.074000,0.012000,0.045000,FlatInitial
03:45:09.531 PM 02/13/2016,Teleop Enabled,0,FALSE,0,NO ERROR,0.000000,0.000000,4000.000000,4000.000000,Speed,Speed,-6.840000,0.970000,-0.870000,3.000000,102.000000,1,0,0.270073,-0.052142,0,0.094086,-0.010086,0.000000,-0.753983,1.312653,0.000000,-0.030000,0.023000,0.301000,FlatInitial
03:45:09.632 PM 02/13/2016,Teleop Enabled,0,FALSE,0,NO ERROR,0.000000,0.000000,4000.000000,4000.000000,Speed,Speed,-9.050000,1.220000,-0.870000,3.000000,103.000000,1,0,0.187550,-0.052142,0,0.152405,0.061218,0.000000,-0.748184,1.314117,0.000000,0.074000,0.029000,0.114000,FlatInitial
03:45:09.732 PM 02/13/2016,Teleop Enabled,0,FALSE,0,NO ERROR,0.000000,0.000000,4000.000000,4000.000000,Speed,Speed,-11.220000,0.910000,-0.090000,3.000000,104.000000,1,0,0.045198,-0.052142,0,0.109497,0.017517,0.000000,-0.741486,1.314957,0.000000,-0.057000,0.148000,0.062000,FlatInitial
03:45:09.833 PM 02/13/2016,Teleop Enabled,0,FALSE,0,NO ERROR,0.000000,0.000000,4000.000000,4000.000000,Speed,Speed,-12.100000,0.940000,1.030000,3.000000,105.000000,1,0,0.045198,-0.052142,0,0.068100,0.238083,0.000000,-0.736969,1.321503,0.000000,-0.134000,0.280000,-0.046000,FlatInitial
03:45:09.933 PM 02/13/2016,Teleop Enabled,0,FALSE,0,NO ERROR,0.000000,0.000000,4000.000000,4000.000000,Speed,Speed,-11.460000,0.810000,1.840000,3.000000,101.000000,1,0,0.048608,-0.089528,0,0.012497,0.357025,0.000000,-0.735397,1.337418,0.000000,-0.029000,0.105000,0.009000,FlatInitial
03:45:10.034 PM 02/13/2016,Teleop Enabled,0,FALSE,0,NO ERROR,0.000000,0.000000,4000.000000,4000.000000,Speed,Speed,-11.350000,0.930000,2.280000,3.000000,103.000000,1,0,0.114638,-0.089528,0,-0.001053,0.446884,0.000000,-0.735275,1.358063,0.000000,-0.052000,0.079000,0.023000,FlatInitial
03:45:10.134 PM 02/13/2016,Teleop Enabled,0,FALSE,0,NO ERROR,0.000000,0.000000,4000.000000,4000.000000,Speed,Speed,-11.340000,0.930000,2.520000,3.000000,101.000000,1,0,0.114638,-0.089528,0,0.000000,0.502747,0.000000,-0.735519,1.382324,0.000000,0.004000,0.042000,-0.040000,FlatInitial
03:45:10.235 PM 02/13/2016,Teleop Enabled,0,FALSE,0,NO ERROR,0.000000,0.000000,4000.000000,4000.000000,Speed,Speed,-11.430000,0.940000,2.650000,3.000000,101.000000,1,0,0.114638,-0.099200,0,0.000000,0.000000,0.000000,-0.735519,1.397858,0.000000,-0.002000,-0.011000,-0.086000,FlatInitial
03:45:10.336 PM 02/13/2016,Teleop Enabled,0,FALSE,0,NO ERROR,0.000000,0.000000,4000.000000,4000.000000,Speed,Speed,-11.570000,0.930000,2.650000,3.000000,102.000000,1,0,0.114638,-0.155000,0,0.000000,0.021729,0.000000,-0.735519,1.398514,0.000000,-0.006000,-0.002000,0.013000,FlatInitial
03:45:10.436 PM 02/13/2016,Teleop Enabled,0,FALSE,0,NO ERROR,0.000000,0.000000,4000.000000,4000.000000,Speed,Speed,-11.600000,0.890000,2.660000,3.000000,102.000000,1,0,0.075950,-0.215822,0,0.000000,0.000000,0.000000,-0.735519,1.398727,0.000000,-0.005000,0.006000,0.030000,FlatInitial
03:45:10.535 PM 02/13/2016,Teleop Enabled,0,FALSE,0,NO ERROR,0.000000,0.000000,4000.000000,4000.000000,Speed,Speed,-10.960000,0.760000,2.100000,3.000000,102.000000,1,0,0.030008,-0.208568,0,-0.014389,-0.042023,0.000000,-0.735809,1.397583,0.000000,-0.013000,-0.036000,-0.005000,FlatInitial
03:45:10.636 PM 02/13/2016,Teleop Enabled,0,FALSE,0,NO ERROR,0.000000,0.000000,4000.000000,4000.000000,Speed,Speed,-10.100000,0.760000,2.370000,3.000000,100.000000,1,0,0.007502,-0.201438,0,0.010757,-0.070526,0.000000,-0.735733,1.393951,0.000000,0.055000,-0.097000,0.058000,FlatInitial
03:45:10.736 PM 02/13/2016,Teleop Enabled,0,FALSE,0,NO ERROR,0.000000,0.000000,4000.000000,4000.000000,Speed,Speed,-9.220000,0.670000,1.750000,3.000000,102.000000,1,0,0.007502,-0.027342,0,-0.005142,-0.098785,0.000000,-0.735657,1.389221,0.000000,0.025000,0.038000,-0.021000,FlatInitial
03:45:10.836 PM 02/13/2016,Teleop Enabled,0,FALSE,0,NO ERROR,0.000000,0.000000,4000.000000,4000.000000,Speed,Speed,-8.950000,0.900000,2.170000,3.000000,102.000000,1,0,-0.007502,-0.024800,0,0.029709,-0.059784,0.000000,-0.734436,1.385284,0.000000,-0.008000,0.044000,0.016000,FlatInitial
03:45:10.936 PM 02/13/2016,Teleop Enabled,0,FALSE,0,NO ERROR,0.000000,0.000000,4000.000000,4000.000000,Speed,Speed,-9.170000,0.870000,2.090000,3.000000,105.000000,1,0,-0.013950,-0.109368,0,0.026276,0.011169,0.000000,-0.733536,1.383926,0.000000,0.015000,0.116000,0.031000,FlatInitial
03:45:11.036 PM 02/13/2016,Teleop Enabled,0,FALSE,0,NO ERROR,0.000000,0.000000,4000.000000,4000.000000,Speed,Speed,-9.070000,0.820000,2.910000,3.000000,100.000000,1,0,-0.084878,-0.223200,0,0.001999,0.074158,0.000000,-0.732971,1.386658,0.000000,0.000000,0.028000,0.093000,FlatInitial
03:45:11.136 PM 02/13/2016,Teleop Enabled,0,FALSE,0,NO ERROR,0.000000,0.000000,4000.000000,4000.000000,Speed,Speed,-8.340000,0.640000,2.860000,3.000000,101.000000,1,0,-0.447951,-0.148862,0,-0.074509,0.201416,0.000000,-0.734604,1.393539,0.000000,-0.149000,0.169000,0.004000,FlatInitial
03:45:11.237 PM 02/13/2016,Teleop Enabled,0,FALSE,0,NO ERROR,0.000000,0.000000,4000.000000,4000.000000,Speed,Speed,-4.550000,0.480000,4.140000,3.000000,102.000000,1,0,-0.006200,-0.010478,0,-0.086914,0.344009,0.000000,-0.739700,1.407730,0.000000,0.075000,0.390000,0.001000,FlatInitial
03:45:11.337 PM 02/13/2016,Teleop Enabled,0,FALSE,0,NO ERROR,0.000000,0.000000,4000.000000,4000.000000,Speed,Speed,-1.360000,0.450000,3.970000,3.000000,103.000000,1,0,0.000992,-0.010478,0,-0.048401,0.404190,0.000000,-0.742767,1.431168,0.000000,-0.332000,-0.059000,-0.165000,FlatInitial
03:45:11.438 PM 02/13/2016,Teleop Enabled,0,FALSE,0,NO ERROR,0.000000,0.000000,4000.000000,4000.000000,Speed,Speed,-2.260000,0.680000,3.730000,3.000000,102.000000,1,0,0.000992,-0.010478,0,-0.052399,0.405655,0.000000,-0.747864,1.451202,0.000000,0.256000,-0.014000,0.005000,FlatInitial
03:45:11.538 PM 02/13/2016,Teleop Enabled,0,FALSE,0,NO ERROR,0.000000,0.000000,4000.000000,4000.000000,Speed,Speed,-2.370000,0.370000,3.640000,3.000000,102.000000,1,0,0.000992,-0.010478,0,-0.107452,0.408081,0.000000,-0.750931,1.471313,0.000000,-0.045000,0.021000,-0.003000,FlatInitial
03:45:11.638 PM 02/13/2016,Teleop Enabled,0,FALSE,0,NO ERROR,0.000000,0.000000,4000.000000,4000.000000,Speed,Speed,-2.040000,0.580000,3.700000,3.000000,100.000000,1,0,0.000992,-0.010478,0,-0.057755,0.366776,0.000000,-0.754639,1.490997,0.000000,-0.074000,-0.030000,-0.001000,FlatInitial
03:45:11.738 PM 02/13/2016,Teleop Enabled,0,FALSE,0,NO ERROR,0.000000,0.000000,4000.000000,4000.000000,Speed,Speed,-2.220000,0.640000,3.390000,3.000000,102.000000,1,0,0.000992,-0.010478,0,-0.053375,0.353149,0.000000,-0.758118,1.508652,0.000000,-0.035000,0.011000,0.000000,FlatInitial
03:45:11.839 PM 02/13/2016,Teleop Enabled,0,FALSE,0,NO ERROR,0.000000,0.000000,4000.000000,4000.000000,Speed,Speed,-2.130000,0.580000,3.530000,3.000000,104.000000,1,0,0.000992,-0.010478,0,-0.064392,-0.009842,0.000000,-0.761353,1.515640,0.000000,0.038000,-0.027000,0.011000,FlatInitial
03:45:11.940 PM 02/13/2016,Teleop Enabled,0,FALSE,0,NO ERROR,0.000000,0.000000,4000.000000,4000.000000,Speed,Speed,-2.160000,0.580000,3.410000,3.000000,102.000000,1,0,-0.000000,0.000000,1,-0.060806,0.000000,0.000000,-0.764145,1.515076,0.000000,0.031000,-0.018000,0.032000,FlatInitial
03:45:12.041 PM 02/13/2016,Teleop Enabled,0,FALSE,0,NO ERROR,0.000000,0.000000,4000.000000,4000.000000,Speed,Speed,-2.190000,0.620000,3.350000,3.000000,103.000000,1,0,-0.000000,0.000000,1,-0.052383,0.000000,0.000000,-0.766693,1.515076,0.000000,-0.023000,0.003000,0.002000,FlatInitial
03:45:12.140 PM 02/13/2016,Teleop Enabled,0,FALSE,0,NO ERROR,0.000000,0.000000,4000.000000,4000.000000,Speed,Speed,-2.140000,0.650000,3.340000,3.000000,103.000000,1,0,-0.000000,0.000000,1,0.000000,-0.013382,0.000000,-0.768707,1.514801,0.000000,-0.013000,-0.014000,0.006000,FlatInitial
03:45:12.242 PM 02/13/2016,Teleop Enabled,0,FALSE,0,NO ERROR,0.000000,0.000000,4000.000000,4000.000000,Speed,Speed,-2.190000,0.670000,3.280000,3.000000,101.000000,1,0,-0.000000,0.000000,1,0.000000,0.000000,0.000000,-0.768707,1.514801,0.000000,-0.006000,-0.008000,0.004000,FlatInitial
03:45:12.342 PM 02/13/2016,Teleop Enabled,0,FALSE,0,NO ERROR,0.000000,0.000000,4000.000000,4000.000000,Speed,Speed,-2.150000,0.680000,3.220000,3.000000,106.000000,1,0,-0.000000,0.000000,1,0.000000,0.000000,0.000000,-0.768707,1.514801,0.000000,0.004000,-0.007000,0.007000,FlatInitial
03:45:12.442 PM 02/13/2016,Teleop Enabled,0,FALSE,0,NO ERROR,0.000000,0.000000,4000.000000,4000.000000,Speed,Speed,-2.190000,0.680000,3.200000,3.000000,101.000000,1,0,-0.000000,0.000000,1,0.000000,0.000000,0.000000,-0.768707,1.514801,0.000000,0.008000,-0.002000,0.004000,FlatInitial
03:45:12.543 PM 02/13/2016,Teleop Enabled,0,FALSE,0,NO ERROR,0.000000,0.000000,4000.000000,4000.000000,Speed,Speed,-2.170000,0.690000,3.170000,3.000000,103.000000,1,0,-0.000000,0.000000,1,0.000000,0.000000,0.000000,-0.768707,1.514801,0.000000,0.009000,-0.012000,0.006000,FlatInitial
03:45:12.644 PM 02/13/2016,Teleop Enabled,0,FALSE,0,NO ERROR,0.000000,0.000000,4000.000000,4000.000000,Speed,Speed,-2.190000,0.710000,3.120000,3.000000,103.000000,1,0,-0.000000,0.000000,1,0.000000,0.000000,0.000000,-0.768707,1.514801,0.000000,0.001000,-0.005000,0.009000,FlatInitial
03:45:12.745 PM 02/13/2016,Teleop Enabled,0,FALSE,0,NO ERROR,0.000000,0.000000,4000.000000,4000.000000,Speed,Speed,-2.180000,0.720000,3.100000,3.000000,101.000000,1,0,-0.000000,0.000000,1,0.000000,0.000000,0.000000,-0.768707,1.514801,0.000000,0.001000,-0.006000,0.011000,FlatInitial
03:45:12.846 PM 02/13/2016,Teleop Enabled,0,FALSE,0,NO ERROR,0.000000,0.000000,4000.000000,4000.000000,Speed,Speed,-2.180000,0.730000,3.060000,3.000000,105.000000,1,0,-0.000000,0.000000,1,0.000000,0.000000,0.000000,-0.768707,1.514801,0.000000,-0.001000,-0.003000,0.007000,FlatInitial
03:45:12.949 PM 02/13/2016,Teleop Enabled,0,FALSE,0,NO ERROR,0.000000,0.000000,4000.000000,4000.000000,Speed,Speed,-2.180000,0.750000,3.040000,3.000000,101.000000,1,0,-0.000000,0.000000,1,0.000000,0.000000,0.000000,-0.768707,1.514801,0.000000,-0.002000,-0.007000,0.008000,FlatInitial
03:45:13.049 PM 02/13/2016,Teleop Enabled,0,FALSE,0,NO ERROR,0.000000,0.000000,4000.000000,4000.000000,Speed,Speed,-2.180000,0.760000,3.010000,3.000000,102.000000,1,0,-0.000000,0.000000,1,0.000000,0.000000,0.000000,-0.768707,1.514801,0.000000,0.000000,-0.005000,0.003000,FlatInitial
03:45:13.151 PM 02/13/2016,Teleop Enabled,0,FALSE,0,NO ERROR,0.000000,0.000000,4000.000000,4000.000000,Speed,Speed,-2.180000,0.760000,3.000000,3.000000,101.000000,1,0,-0.614173,-0.614173,1,0.000000,0.000000,0.000000,-0.768707,1.514801,0.000000,0.000000,-0.006000,0.006000,FlatInitial
03:45:13.253 PM 02/13/2016,Teleop Enabled,0,FALSE,0,NO ERROR,0.000000,0.000000,4000.000000,4000.000000,Speed,Speed,-2.240000,0.770000,4.750000,3.000000,103.000000,1,0,-0.905512,-0.905512,1,0.001831,0.245880,0.000000,-0.768677,1.518021,0.000000,0.037000,0.842000,0.305000,FlatInitial
03:45:13.353 PM 02/13/2016,Teleop Enabled,0,FALSE,0,NO ERROR,0.000000,0.000000,4000.000000,4000.000000,Speed,Speed,-2.180000,0.660000,10.420000,3.000000,101.000000,0,0,-0.000000,0.000000,1,0.061951,0.958221,0.000000,-0.767014,1.550720,0.000000,0.107000,0.511000,-0.047000,FlatInitial
03:45:13.454 PM 02/13/2016,Teleop Enabled,0,FALSE,0,NO ERROR,0.000000,0.000000,4000.000000,4000.000000,Speed,Speed,-2.050000,0.540000,9.720000,3.000000,103.000000,0,0,-0.000000,0.000000,1,-0.002686,1.251846,0.000000,-0.764694,1.612152,0.000000,-0.138000,-0.350000,0.549000,FlatInitial
03:45:13.556 PM 02/13/2016,Teleop Enabled,0,FALSE,0,NO ERROR,0.000000,0.000000,4000.000000,4000.000000,Speed,Speed,-1.940000,0.820000,6.460000,3.000000,103.000000,0,0,-0.000000,0.000000,1,0.057739,1.062073,0.000000,-0.764282,1.666733,0.000000,-0.014000,-0.053000,-0.544000,FlatInitial
03:45:13.657 PM 02/13/2016,Teleop Enabled,0,FALSE,0,NO ERROR,0.000000,0.000000,4000.000000,4000.000000,Speed,Speed,-1.900000,0.800000,7.790000,3.000000,103.000000,0,0,0.244094,0.244094,1,0.095688,0.812576,0.000000,-0.759171,1.721680,0.000000,-0.051000,0.052000,-0.765000,FlatInitial
03:45:13.757 PM 02/13/2016,Teleop Enabled,0,FALSE,0,NO ERROR,0.000000,0.000000,4000.000000,4000.000000,Speed,Speed,-1.520000,0.350000,-0.070000,3.000000,105.000000,1,0,0.338583,0.338583,1,0.130371,0.142929,0.000000,-0.754715,1.740768,0.000000,-0.071000,-0.901000,0.765000,FlatInitial
03:45:13.856 PM 02/13/2016,Teleop Enabled,0,FALSE,0,NO ERROR,0.000000,0.000000,4000.000000,4000.000000,Speed,Speed,-1.210000,0.530000,-1.020000,3.000000,101.000000,1,0,0.228346,0.228346,1,0.051636,-0.293884,0.000000,-0.751495,1.732254,0.000000,0.085000,-0.914000,-0.201000,FlatInitial
03:45:13.957 PM 02/13/2016,Teleop Enabled,0,FALSE,0,NO ERROR,0.000000,0.000000,4000.000000,4000.000000,Speed,Speed,-0.770000,0.580000,0.080000,3.000000,101.000000,1,0,-0.000000,0.000000,1,-0.229874,-0.665558,0.000000,-0.759918,1.708801,0.000000,0.412000,-0.064000,0.631000,FlatInitial
03:45:14.058 PM 02/13/2016,Teleop Enabled,0,FALSE,0,NO ERROR,0.000000,0.000000,4000.000000,4000.000000,Speed,Speed,-0.260000,0.540000,0.440000,3.000000,103.000000,1,0,-0.000000,0.000000,1,0.080551,-0.693771,0.000000,-0.758041,1.668228,0.000000,-0.031000,-0.469000,0.996000,FlatInitial
03:45:14.158 PM 02/13/2016,Teleop Enabled,0,FALSE,0,NO ERROR,0.000000,0.000000,4000.000000,4000.000000,Speed,Speed,-0.180000,0.740000,0.690000,3.000000,101.000000,1,0,-0.000000,0.000000,1,0.027313,-0.783569,0.000000,-0.752869,1.628967,0.000000,0.289000,-0.041000,-0.008000,FlatInitial
03:45:14.259 PM 02/13/2016,Teleop Enabled,0,FALSE,0,NO ERROR,0.000000,0.000000,4000.000000,4000.000000,Speed,Speed,-0.140000,0.720000,1.650000,3.000000,102.000000,1,0,0.314961,0.314961,1,0.010010,-0.709793,0.000000,-0.751907,1.592102,0.000000,0.089000,0.065000,0.125000,FlatInitial
03:45:14.359 PM 02/13/2016,Teleop Enabled,0,FALSE,0,NO ERROR,0.000000,0.000000,4000.000000,4000.000000,Speed,Speed,-0.080000,0.780000,0.270000,3.000000,113.000000,1,0,0.283465,0.283465,1,0.037872,-0.954971,0.000000,-0.750259,1.552490,0.000000,0.067000,-0.400000,0.192000,FlatInitial
03:45:14.459 PM 02/13/2016,Teleop Enabled,0,FALSE,0,NO ERROR,0.000000,0.000000,4000.000000,4000.000000,Speed,Speed,-0.310000,0.940000,-2.610000,3.000000,101.000000,1,0,-0.000000,0.000000,1,0.084518,-1.140259,0.000000,-0.746109,1.497879,0.000000,0.002000,0.103000,-0.238000,FlatInitial
03:45:14.559 PM 02/13/2016,Teleop Enabled,0,FALSE,0,NO ERROR,0.000000,0.000000,4000.000000,4000.000000,Speed,Speed,-0.720000,0.670000,1.530000,3.000000,101.000000,1,0,-0.000000,0.000000,1,0.065323,-0.979172,0.000000,-0.742355,1.446655,0.000000,-0.045000,-0.070000,0.998000,FlatInitial
03:45:14.659 PM 02/13/2016,Teleop Enabled,0,FALSE,0,NO ERROR,0.000000,0.000000,4000.000000,4000.000000,Speed,Speed,-0.570000,0.630000,0.890000,3.000000,102.000000,1,0,-0.000000,0.000000,1,0.007843,-0.950134,0.000000,-0.740829,1.398285,0.000000,0.158000,0.058000,0.456000,FlatInitial
03:45:14.760 PM 02/13/2016,Teleop Enabled,0,FALSE,0,NO ERROR,0.000000,0.000000,4000.000000,4000.000000,Speed,Speed,-0.580000,0.580000,1.170000,3.000000,104.000000,1,0,-0.000000,0.000000,1,0.046982,-0.836166,0.000000,-0.739410,1.354172,0.000000,-0.078000,-0.047000,0.723000,FlatInitial
03:45:14.860 PM 02/13/2016,Teleop Enabled,0,FALSE,0,NO ERROR,0.000000,0.000000,4000.000000,4000.000000,Speed,Speed,-0.640000,0.730000,2.040000,3.000000,101.000000,1,0,-0.000000,0.000000,1,0.056732,-0.813965,0.000000,-0.736877,1.312881,0.000000,-0.070000,0.097000,-0.111000,FlatInitial
03:45:14.960 PM 02/13/2016,Teleop Enabled,0,FALSE,0,NO ERROR,0.000000,0.000000,4000.000000,4000.000000,Speed,Speed,-0.650000,0.670000,1.800000,3.000000,104.000000,1,0,-0.000000,0.000000,1,0.059799,-0.720657,0.000000,-0.733856,1.275269,0.000000,0.042000,0.074000,-0.203000,FlatInitial
03:45:15.061 PM 02/13/2016,Teleop Enabled,0,FALSE,0,NO ERROR,0.000000,0.000000,4000.000000,4000.000000,Speed,Speed,-0.690000,0.650000,2.300000,3.000000,102.000000,1,0,-0.000000,0.000000,1,0.049057,-0.675247,0.000000,-0.730865,1.241241,0.000000,0.011000,-0.027000,0.008000,FlatInitial
03:45:15.162 PM 02/13/2016,Teleop Enabled,0,FALSE,0,NO ERROR,0.000000,0.000000,4000.000000,4000.000000,Speed,Speed,-1.120000,0.790000,2.720000,3.000000,101.000000,1,0,-0.000000,0.000000,1,0.056458,-0.568375,0.000000,-0.727478,1.210281,0.000000,-0.110000,0.000000,-0.001000,FlatInitial
