Time,RobotMode,AutoToRun,ErrorStatus, ErrorCode,ErrorSource,ActualRPM1,ActualRPM2,DesiredRPM1,DesiredRPM2,ControlMode1,ControlMode2,NavXYaw,NavXRoll,NavXPitch,ShooterState,LoopTime,IsLevel,IsAutoTargeting,LeftMotorOutput,RightMotorOutput,IsHaloDrive,NavXVelocityX,NavXVelocityY,NavXVelocityZ,NavXDisplacementX,NavXDisplacementY,NavXDisplacementZ,NavXAccelerationX,NavXAccelerationY,NavXAccelerationZ,AutoDefendState
02:58:20.861 PM 02/13/2016,Autonomous Disabled,0,TRUE,-44087,NetComm_CAN_Receive.vi:5470006<APPEND>  <b>Complete call chain:</b>      NetComm_CAN_Receive.vi:5470006      WPI_CANTalonSRX_Receive.vi      WPI_MotorControlOpenCANTalonSRX.vi      Begin.vi      Robot Main.vi,0.000000,0.000000,4000.000000,4000.000000,Speed,Speed,17.420000,1.270000,2.710000,3.000000,105.000000,1,0,-0.000000,0.000000,1,0.000000,0.000000,0.000000,0.314484,-0.646393,0.000000,0.000000,0.001000,0.008000,FlatInitial
02:58:20.961 PM 02/13/2016,Teleop Disabled,0,TRUE,-44087,NetComm_CAN_Receive.vi:5470006<APPEND>  <b>Complete call chain:</b>      NetComm_CAN_Receive.vi:5470006      WPI_CANTalonSRX_Receive.vi      WPI_MotorControlOpenCANTalonSRX.vi      Begin.vi      Robot Main.vi,0.000000,0.000000,0.000000,0.000000,Speed,Speed,17.410000,1.270000,2.710000,0.000000,14655.000000,1,0,-0.000000,0.000000,1,0.000000,0.000000,0.000000,0.314484,-0.646393,0.000000,0.000000,0.000000,0.009000,FlatInitial
02:58:21.061 PM 02/13/2016,Teleop Disabled,0,TRUE,-44087,NetComm_CAN_Receive.vi:5470006<APPEND>  <b>Complete call chain:</b>      NetComm_CAN_Receive.vi:5470006      WPI_CANTalonSRX_Receive.vi      WPI_MotorControlOpenCANTalonSRX.vi      Begin.vi      Robot Main.vi,0.000000,0.000000,0.000000,0.000000,Speed,Speed,17.410000,1.270000,2.710000,0.000000,101.000000,1,0,-0.000000,0.000000,1,0.000000,0.000000,0.000000,0.314484,-0.646393,0.000000,0.000000,0.000000,0.009000,FlatInitial
02:58:21.161 PM 02/13/2016,Teleop Disabled,0,TRUE,-44087,NetComm_CAN_Receive.vi:5470006<APPEND>  <b>Complete call chain:</b>      NetComm_CAN_Receive.vi:5470006      WPI_CANTalonSRX_Receive.vi      WPI_MotorControlOpenCANTalonSRX.vi      Begin.vi      Robot Main.vi,0.000000,0.000000,0.000000,0.000000,Speed,Speed,17.410000,1.270000,2.710000,0.000000,100.000000,1,0,-0.000000,0.000000,1,0.000000,0.000000,0.000000,0.314484,-0.646393,0.000000,0.000000,0.000000,0.009000,FlatInitial
02:58:21.261 PM 02/13/2016,Teleop Disabled,0,TRUE,-44087,NetComm_CAN_Receive.vi:5470006<APPEND>  <b>Complete call chain:</b>      NetComm_CAN_Receive.vi:5470006      WPI_CANTalonSRX_Receive.vi      WPI_MotorControlOpenCANTalonSRX.vi      Begin.vi      Robot Main.vi,0.000000,0.000000,0.000000,0.000000,Speed,Speed,17.410000,1.270000,2.710000,0.000000,101.000000,1,0,-0.000000,0.000000,1,0.000000,0.000000,0.000000,0.314484,-0.646393,0.000000,0.000000,0.000000,0.009000,FlatInitial
02:58:21.361 PM 02/13/2016,Teleop Disabled,0,TRUE,-44087,NetComm_CAN_Receive.vi:5470006<APPEND>  <b>Complete call chain:</b>      NetComm_CAN_Receive.vi:5470006      WPI_CANTalonSRX_Receive.vi      WPI_MotorControlOpenCANTalonSRX.vi      Begin.vi      Robot Main.vi,0.000000,0.000000,0.000000,0.000000,Speed,Speed,17.410000,1.270000,2.710000,0.000000,101.000000,1,0,-0.000000,0.000000,1,0.000000,0.000000,0.000000,0.314484,-0.646393,0.000000,0.000000,0.000000,0.009000,FlatInitial
02:58:21.461 PM 02/13/2016,Teleop Disabled,0,TRUE,-44087,NetComm_CAN_Receive.vi:5470006<APPEND>  <b>Complete call chain:</b>      NetComm_CAN_Receive.vi:5470006      WPI_CANTalonSRX_Receive.vi      WPI_MotorControlOpenCANTalonSRX.vi      Begin.vi      Robot Main.vi,0.000000,0.000000,0.000000,0.000000,Speed,Speed,17.410000,1.270000,2.710000,0.000000,101.000000,1,0,-0.000000,0.000000,1,0.000000,0.000000,0.000000,0.314484,-0.646393,0.000000,0.000000,0.000000,0.009000,FlatInitial
02:58:21.561 PM 02/13/2016,Teleop Disabled,0,TRUE,-44087,NetComm_CAN_Receive.vi:5470006<APPEND>  <b>Complete call chain:</b>      NetComm_CAN_Receive.vi:5470006      WPI_CANTalonSRX_Receive.vi      WPI_MotorControlOpenCANTalonSRX.vi      Begin.vi      Robot Main.vi,0.000000,0.000000,0.000000,0.000000,Speed,Speed,17.410000,1.270000,2.710000,0.000000,101.000000,1,0,-0.000000,0.000000,1,0.000000,0.000000,0.000000,0.314484,-0.646393,0.000000,0.000000,0.000000,0.009000,FlatInitial
02:58:21.661 PM 02/13/2016,Teleop Disabled,0,TRUE,-44087,NetComm_CAN_Receive.vi:5470006<APPEND>  <b>Complete call chain:</b>      NetComm_CAN_Receive.vi:5470006      WPI_CANTalonSRX_Receive.vi      WPI_MotorControlOpenCANTalonSRX.vi      Begin.vi      Robot Main.vi,0.000000,0.000000,0.000000,0.000000,Speed,Speed,17.410000,1.270000,2.710000,0.000000,102.000000,1,0,-0.000000,0.000000,1,0.000000,0.000000,0.000000,0.314484,-0.646393,0.000000,0.000000,0.000000,0.009000,FlatInitial
02:58:21.761 PM 02/13/2016,Teleop Disabled,0,TRUE,-44087,NetComm_CAN_Receive.vi:5470006<APPEND>  <b>Complete call chain:</b>      NetComm_CAN_Receive.vi:5470006      WPI_CANTalonSRX_Receive.vi      WPI_MotorControlOpenCANTalonSRX.vi      Begin.vi      Robot Main.vi,0.000000,0.000000,0.000000,0.000000,Speed,Speed,17.410000,1.270000,2.710000,0.000000,101.000000,1,0,-0.000000,0.000000,1,0.000000,0.000000,0.000000,0.314484,-0.646393,0.000000,0.000000,0.000000,0.009000,FlatInitial
02:58:21.861 PM 02/13/2016,Teleop Disabled,0,TRUE,-44087,NetComm_CAN_Receive.vi:5470006<APPEND>  <b>Complete call chain:</b>      NetComm_CAN_Receive.vi:5470006      WPI_CANTalonSRX_Receive.vi      WPI_MotorControlOpenCANTalonSRX.vi      Begin.vi      Robot Main.vi,0.000000,0.000000,0.000000,0.000000,Speed,Speed,17.410000,1.270000,2.710000,0.000000,101.000000,1,0,-0.000000,0.000000,1,0.000000,0.000000,0.000000,0.314484,-0.646393,0.000000,0.000000,0.000000,0.009000,FlatInitial
02:58:21.961 PM 02/13/2016,Teleop Disabled,0,TRUE,-44087,NetComm_CAN_Receive.vi:5470006<APPEND>  <b>Complete call chain:</b>      NetComm_CAN_Receive.vi:5470006      WPI_CANTalonSRX_Receive.vi      WPI_MotorControlOpenCANTalonSRX.vi      Begin.vi      Robot Main.vi,0.000000,0.000000,0.000000,0.000000,Speed,Speed,17.410000,1.270000,2.710000,0.000000,101.000000,1,0,-0.000000,0.000000,1,0.000000,0.000000,0.000000,0.314484,-0.646393,0.000000,0.000000,0.000000,0.009000,FlatInitial
02:58:22.063 PM 02/13/2016,Teleop Disabled,0,TRUE,-44087,NetComm_CAN_Receive.vi:5470006<APPEND>  <b>Complete call chain:</b>      NetComm_CAN_Receive.vi:5470006      WPI_CANTalonSRX_Receive.vi      WPI_CANTalonSRX_GetStatus.vi      ShooterVI.vi      Periodic Tasks.vi      Robot Main.vi,0.000000,0.000000,0.000000,0.000000,Speed,Speed,17.410000,1.270000,2.710000,0.000000,101.000000,1,0,-0.000000,0.000000,1,0.000000,0.000000,0.000000,0.314484,-0.646393,0.000000,0.000000,0.000000,0.009000,FlatInitial
02:58:22.163 PM 02/13/2016,Teleop Disabled,0,FALSE,0,NO ERROR,0.000000,0.000000,0.000000,0.000000,Speed,Speed,17.410000,1.270000,2.710000,0.000000,102.000000,1,0,-0.000000,0.000000,1,0.000000,0.000000,0.000000,0.314484,-0.646393,0.000000,0.000000,0.000000,0.009000,FlatInitial
02:58:22.263 PM 02/13/2016,Teleop Disabled,0,FALSE,0,NO ERROR,0.000000,0.000000,0.000000,0.000000,Speed,Speed,17.410000,1.270000,2.710000,0.000000,101.000000,1,0,-0.000000,0.000000,1,0.000000,0.000000,0.000000,0.314484,-0.646393,0.000000,0.000000,0.000000,0.009000,FlatInitial
02:58:22.362 PM 02/13/2016,Teleop Disabled,0,FALSE,0,NO ERROR,0.000000,0.000000,0.000000,0.000000,Speed,Speed,17.410000,1.270000,2.710000,0.000000,101.000000,1,0,-0.000000,0.000000,1,0.000000,0.000000,0.000000,0.314484,-0.646393,0.000000,0.000000,0.000000,0.009000,FlatInitial
02:58:22.463 PM 02/13/2016,Teleop Disabled,0,FALSE,0,NO ERROR,0.000000,0.000000,0.000000,0.000000,Speed,Speed,17.410000,1.270000,2.710000,0.000000,101.000000,1,0,-0.000000,0.000000,1,0.000000,0.000000,0.000000,0.314484,-0.646393,0.000000,0.000000,0.000000,0.009000,FlatInitial
02:58:22.565 PM 02/13/2016,Teleop Disabled,0,FALSE,0,NO ERROR,0.000000,0.000000,0.000000,0.000000,Speed,Speed,17.410000,1.270000,2.710000,0.000000,103.000000,1,0,-0.000000,0.000000,1,0.000000,0.000000,0.000000,0.314484,-0.646393,0.000000,0.000000,0.000000,0.009000,FlatInitial
02:58:22.664 PM 02/13/2016,Teleop Disabled,0,FALSE,0,NO ERROR,0.000000,0.000000,0.000000,0.000000,Speed,Speed,17.410000,1.270000,2.710000,0.000000,102.000000,1,0,-0.000000,0.000000,1,0.000000,0.000000,0.000000,0.314484,-0.646393,0.000000,0.000000,0.000000,0.009000,FlatInitial
02:58:22.765 PM 02/13/2016,Teleop Disabled,0,FALSE,0,NO ERROR,0.000000,0.000000,0.000000,0.000000,Speed,Speed,17.410000,1.270000,2.710000,0.000000,100.000000,1,0,-0.000000,0.000000,1,0.000000,0.000000,0.000000,0.314484,-0.646393,0.000000,0.000000,0.000000,0.009000,FlatInitial
02:58:22.866 PM 02/13/2016,Teleop Disabled,0,FALSE,0,NO ERROR,0.000000,0.000000,0.000000,0.000000,Speed,Speed,17.410000,1.270000,2.710000,0.000000,101.000000,1,0,-0.000000,0.000000,1,0.000000,0.000000,0.000000,0.314484,-0.646393,0.000000,0.000000,0.000000,0.009000,FlatInitial
02:58:22.965 PM 02/13/2016,Teleop Disabled,0,FALSE,0,NO ERROR,0.000000,0.000000,0.000000,0.000000,Speed,Speed,17.410000,1.270000,2.710000,0.000000,101.000000,1,0,-0.000000,0.000000,1,0.000000,0.000000,0.000000,0.314484,-0.646393,0.000000,0.000000,0.000000,0.009000,FlatInitial
02:58:23.065 PM 02/13/2016,Teleop Disabled,0,FALSE,0,NO ERROR,0.000000,0.000000,0.000000,0.000000,Speed,Speed,17.410000,1.270000,2.710000,0.000000,101.000000,1,0,-0.000000,0.000000,1,0.000000,0.000000,0.000000,0.314484,-0.646393,0.000000,0.000000,0.000000,0.009000,FlatInitial
02:58:23.166 PM 02/13/2016,Teleop Disabled,0,FALSE,0,NO ERROR,0.000000,0.000000,0.000000,0.000000,Speed,Speed,17.410000,1.270000,2.710000,0.000000,101.000000,1,0,-0.000000,0.000000,1,0.000000,0.000000,0.000000,0.314484,-0.646393,0.000000,0.000000,0.000000,0.009000,FlatInitial
02:58:23.266 PM 02/13/2016,Teleop Disabled,0,FALSE,0,NO ERROR,0.000000,0.000000,0.000000,0.000000,Speed,Speed,17.410000,1.270000,2.710000,0.000000,101.000000,1,0,-0.000000,0.000000,1,0.000000,0.000000,0.000000,0.314484,-0.646393,0.000000,0.000000,0.000000,0.009000,FlatInitial
02:58:23.367 PM 02/13/2016,Teleop Disabled,0,FALSE,0,NO ERROR,0.000000,0.000000,0.000000,0.000000,Speed,Speed,17.410000,1.270000,2.710000,0.000000,101.000000,1,0,-0.000000,0.000000,1,0.000000,0.000000,0.000000,0.314484,-0.646393,0.000000,0.000000,0.000000,0.009000,FlatInitial
02:58:23.467 PM 02/13/2016,Teleop Disabled,0,FALSE,0,NO ERROR,0.000000,0.000000,0.000000,0.000000,Speed,Speed,17.410000,1.270000,2.710000,0.000000,101.000000,1,0,-0.000000,0.000000,1,0.000000,0.000000,0.000000,0.314484,-0.646393,0.000000,0.000000,0.000000,0.009000,FlatInitial
02:58:23.567 PM 02/13/2016,Teleop Disabled,0,FALSE,0,NO ERROR,0.000000,0.000000,0.000000,0.000000,Speed,Speed,17.410000,1.270000,2.710000,0.000000,101.000000,1,0,-0.000000,0.000000,1,0.000000,0.000000,0.000000,0.314484,-0.646393,0.000000,0.000000,0.000000,0.009000,FlatInitial
02:58:23.666 PM 02/13/2016,Teleop Disabled,0,FALSE,0,NO ERROR,0.000000,0.000000,0.000000,0.000000,Speed,Speed,17.410000,1.270000,2.710000,0.000000,101.000000,1,0,-0.000000,0.000000,1,0.000000,0.000000,0.000000,0.314484,-0.646393,0.000000,0.000000,0.000000,0.009000,FlatInitial
02:58:23.768 PM 02/13/2016,Teleop Disabled,0,FALSE,0,NO ERROR,0.000000,0.000000,0.000000,0.000000,Speed,Speed,17.410000,1.270000,2.710000,0.000000,101.000000,1,0,-0.000000,0.000000,1,0.000000,0.000000,0.000000,0.314484,-0.646393,0.000000,0.000000,0.000000,0.009000,FlatInitial
02:58:23.868 PM 02/13/2016,Teleop Disabled,0,FALSE,0,NO ERROR,0.000000,0.000000,0.000000,0.000000,Speed,Speed,17.410000,1.270000,2.710000,0.000000,103.000000,1,0,-0.000000,0.000000,1,0.000000,0.000000,0.000000,0.314484,-0.646393,0.000000,0.000000,0.000000,0.009000,FlatInitial
02:58:23.968 PM 02/13/2016,Teleop Disabled,0,FALSE,0,NO ERROR,0.000000,0.000000,0.000000,0.000000,Speed,Speed,17.410000,1.270000,2.710000,0.000000,104.000000,1,0,-0.000000,0.000000,1,0.000000,0.000000,0.000000,0.314484,-0.646393,0.000000,0.000000,0.000000,0.009000,FlatInitial
02:58:24.068 PM 02/13/2016,Teleop Disabled,0,FALSE,0,NO ERROR,0.000000,0.000000,0.000000,0.000000,Speed,Speed,17.410000,1.270000,2.710000,0.000000,101.000000,1,0,-0.000000,0.000000,1,0.000000,0.000000,0.000000,0.314484,-0.646393,0.000000,0.000000,0.000000,0.009000,FlatInitial
02:58:24.168 PM 02/13/2016,Teleop Disabled,0,FALSE,0,NO ERROR,0.000000,0.000000,-6000.000000,-6000.000000,Speed,Speed,17.410000,1.270000,2.710000,1.000000,101.000000,1,0,-0.000000,0.000000,1,0.000000,0.000000,0.000000,0.314484,-0.646393,0.000000,0.000000,0.000000,0.009000,FlatInitial
02:58:24.269 PM 02/13/2016,Teleop Disabled,0,FALSE,0,NO ERROR,0.000000,0.000000,0.000000,0.000000,Speed,Speed,17.410000,1.270000,2.710000,2.000000,102.000000,1,0,-0.000000,0.000000,1,0.000000,0.000000,0.000000,0.314484,-0.646393,0.000000,0.000000,0.000000,0.009000,FlatInitial
02:58:24.369 PM 02/13/2016,Teleop Disabled,0,FALSE,0,NO ERROR,0.000000,0.000000,0.000000,0.000000,Speed,Speed,17.410000,1.270000,2.710000,2.000000,100.000000,1,0,-0.000000,0.000000,1,0.000000,0.000000,0.000000,0.314484,-0.646393,0.000000,0.000000,0.000000,0.009000,FlatInitial
02:58:24.469 PM 02/13/2016,Teleop Disabled,0,FALSE,0,NO ERROR,0.000000,0.000000,0.000000,0.000000,Speed,Speed,17.410000,1.270000,2.710000,2.000000,101.000000,1,0,-0.000000,0.000000,1,0.000000,0.000000,0.000000,0.314484,-0.646393,0.000000,0.000000,0.000000,0.009000,FlatInitial
02:58:24.569 PM 02/13/2016,Teleop Disabled,0,FALSE,0,NO ERROR,0.000000,0.000000,0.000000,0.000000,Speed,Speed,17.410000,1.270000,2.710000,2.000000,100.000000,1,0,-0.000000,0.000000,1,0.000000,0.000000,0.000000,0.314484,-0.646393,0.000000,0.000000,0.000000,0.009000,FlatInitial
02:58:24.669 PM 02/13/2016,Teleop Disabled,0,FALSE,0,NO ERROR,0.000000,0.000000,0.000000,0.000000,Speed,Speed,17.410000,1.270000,2.710000,2.000000,101.000000,1,0,-0.000000,0.000000,1,0.000000,0.000000,0.000000,0.314484,-0.646393,0.000000,0.000000,0.000000,0.009000,FlatInitial
02:58:24.769 PM 02/13/2016,Teleop Disabled,0,FALSE,0,NO ERROR,0.000000,0.000000,0.000000,0.000000,Speed,Speed,17.410000,1.270000,2.710000,2.000000,100.000000,1,0,-0.000000,0.000000,1,0.000000,0.000000,0.000000,0.314484,-0.646393,0.000000,0.000000,0.000000,0.009000,FlatInitial
02:58:24.869 PM 02/13/2016,Teleop Disabled,0,FALSE,0,NO ERROR,0.000000,0.000000,0.000000,0.000000,Speed,Speed,17.410000,1.270000,2.710000,2.000000,101.000000,1,0,-0.000000,0.000000,1,0.000000,0.000000,0.000000,0.314484,-0.646393,0.000000,0.000000,0.000000,0.009000,FlatInitial
02:58:24.969 PM 02/13/2016,Teleop Disabled,0,FALSE,0,NO ERROR,0.000000,0.000000,0.000000,0.000000,Speed,Speed,17.410000,1.270000,2.710000,2.000000,100.000000,1,0,-0.000000,0.000000,1,0.000000,0.000000,0.000000,0.314484,-0.646393,0.000000,0.000000,0.000000,0.009000,FlatInitial
02:58:25.069 PM 02/13/2016,Teleop Disabled,0,FALSE,0,NO ERROR,0.000000,0.000000,0.000000,0.000000,Speed,Speed,17.410000,1.270000,2.710000,2.000000,101.000000,1,0,-0.000000,0.000000,1,0.000000,0.000000,0.000000,0.314484,-0.646393,0.000000,0.000000,0.000000,0.009000,FlatInitial
02:58:25.169 PM 02/13/2016,Teleop Disabled,0,FALSE,0,NO ERROR,0.000000,0.000000,0.000000,0.000000,Speed,Speed,17.410000,1.270000,2.710000,2.000000,101.000000,1,0,-0.000000,0.000000,1,0.000000,0.000000,0.000000,0.314484,-0.646393,0.000000,0.000000,0.000000,0.009000,FlatInitial
02:58:25.269 PM 02/13/2016,Teleop Disabled,0,FALSE,0,NO ERROR,0.000000,0.000000,0.000000,0.000000,Speed,Speed,17.410000,1.270000,2.710000,2.000000,101.000000,1,0,-0.000000,0.000000,1,0.000000,0.000000,0.000000,0.314484,-0.646393,0.000000,0.000000,0.000000,0.009000,FlatInitial
02:58:25.370 PM 02/13/2016,Teleop Disabled,0,FALSE,0,NO ERROR,0.000000,0.000000,0.000000,0.000000,Speed,Speed,17.410000,1.270000,2.710000,2.000000,100.000000,1,0,-0.000000,0.000000,1,0.000000,0.000000,0.000000,0.314484,-0.646393,0.000000,0.000000,0.000000,0.009000,FlatInitial
02:58:25.471 PM 02/13/2016,Teleop Disabled,0,FALSE,0,NO ERROR,0.000000,0.000000,4000.000000,4000.000000,Speed,Speed,17.410000,1.270000,2.710000,3.000000,101.000000,1,0,-0.000000,0.000000,1,0.000000,0.000000,0.000000,0.314484,-0.646393,0.000000,0.000000,0.000000,0.009000,FlatInitial
02:58:25.571 PM 02/13/2016,Teleop Disabled,0,FALSE,0,NO ERROR,0.000000,0.000000,4000.000000,4000.000000,Speed,Speed,17.410000,1.270000,2.710000,3.000000,101.000000,1,0,-0.000000,0.000000,1,0.000000,0.000000,0.000000,0.314484,-0.646393,0.000000,0.000000,0.000000,0.009000,FlatInitial
02:58:25.672 PM 02/13/2016,Teleop Disabled,0,FALSE,0,NO ERROR,0.000000,0.000000,4000.000000,4000.000000,Speed,Speed,17.410000,1.270000,2.710000,3.000000,102.000000,1,0,-0.000000,0.000000,1,0.000000,0.000000,0.000000,0.314484,-0.646393,0.000000,0.000000,0.000000,0.009000,FlatInitial
02:58:25.773 PM 02/13/2016,Teleop Disabled,0,FALSE,0,NO ERROR,0.000000,0.000000,4000.000000,4000.000000,Speed,Speed,17.410000,1.270000,2.710000,3.000000,102.000000,1,0,-0.000000,0.000000,1,0.000000,0.000000,0.000000,0.314484,-0.646393,0.000000,0.000000,0.000000,0.009000,FlatInitial
02:58:25.873 PM 02/13/2016,Teleop Disabled,0,FALSE,0,NO ERROR,0.000000,0.000000,4000.000000,4000.000000,Speed,Speed,17.410000,1.270000,2.710000,3.000000,100.000000,1,0,-0.000000,0.000000,1,0.000000,0.000000,0.000000,0.314484,-0.646393,0.000000,0.000000,0.000000,0.009000,FlatInitial
02:58:25.974 PM 02/13/2016,Teleop Disabled,0,TRUE,-44003,<LOCATION>WPI_CameraIssue HTTP Request with Authentication.vi<CALLSTACK>WPI_CameraIssue HTTP Request with Authentication.vi< <WPI_CameraIssue Get.vi< <WPI_CameraSet Image Appearance Property.vi< <WPI_CameraSet Image Size.vi< <Vision Processing.vi< <Robot Main.vi,0.000000,0.000000,4000.000000,4000.000000,Speed,Speed,0.010000,1.270000,2.690000,3.000000,101.000000,1,0,-0.000000,0.000000,1,0.000000,0.000000,0.000000,0.314484,-0.646393,0.000000,0.000000,0.000000,0.009000,FlatInitial
02:58:26.075 PM 02/13/2016,Teleop Disabled,0,FALSE,0,NO ERROR,0.000000,0.000000,4000.000000,4000.000000,Speed,Speed,0.010000,1.270000,2.690000,3.000000,103.000000,1,0,-0.000000,0.000000,1,0.000000,0.000000,0.000000,0.314484,-0.646393,0.000000,0.002000,0.000000,0.008000,FlatInitial
02:58:26.175 PM 02/13/2016,Teleop Disabled,0,FALSE,0,NO ERROR,0.000000,0.000000,4000.000000,4000.000000,Speed,Speed,0.010000,1.270000,2.690000,3.000000,101.000000,1,0,-0.000000,0.000000,1,0.000000,0.000000,0.000000,0.314484,-0.646393,0.000000,0.001000,0.000000,0.004000,FlatInitial
02:58:26.275 PM 02/13/2016,Teleop Disabled,0,FALSE,0,NO ERROR,0.000000,0.000000,4000.000000,4000.000000,Speed,Speed,0.010000,1.270000,2.690000,3.000000,101.000000,1,0,-0.000000,0.000000,1,0.000000,0.000000,0.000000,0.314484,-0.646393,0.000000,-0.001000,0.000000,0.008000,FlatInitial
02:58:26.375 PM 02/13/2016,Teleop Disabled,0,FALSE,0,NO ERROR,0.000000,0.000000,4000.000000,4000.000000,Speed,Speed,0.010000,1.270000,2.690000,3.000000,102.000000,1,0,-0.000000,0.000000,1,0.000000,0.000000,0.000000,0.314484,-0.646393,0.000000,0.000000,0.000000,0.006000,FlatInitial
02:58:26.476 PM 02/13/2016,Teleop Disabled,0,FALSE,0,NO ERROR,0.000000,0.000000,4000.000000,4000.000000,Speed,Speed,0.010000,1.270000,2.690000,3.000000,102.000000,1,0,-0.000000,0.000000,1,0.000000,0.000000,0.000000,0.314484,-0.646393,0.000000,0.000000,0.000000,0.009000,FlatInitial
02:58:26.577 PM 02/13/2016,Teleop Disabled,0,FALSE,0,NO ERROR,0.000000,0.000000,4000.000000,4000.000000,Speed,Speed,0.010000,1.270000,2.690000,3.000000,103.000000,1,0,-0.000000,0.000000,1,0.000000,0.000000,0.000000,0.314484,-0.646393,0.000000,0.000000,0.000000,0.008000,FlatInitial
02:58:26.678 PM 02/13/2016,Teleop Disabled,0,FALSE,0,NO ERROR,0.000000,0.000000,4000.000000,4000.000000,Speed,Speed,0.000000,1.270000,2.690000,3.000000,102.000000,1,0,-0.000000,0.000000,1,0.000000,0.000000,0.000000,0.314484,-0.646393,0.000000,-0.001000,0.000000,0.008000,FlatInitial
02:58:26.778 PM 02/13/2016,Teleop Disabled,0,FALSE,0,NO ERROR,0.000000,0.000000,4000.000000,4000.000000,Speed,Speed,0.000000,1.270000,2.690000,3.000000,101.000000,1,0,-0.000000,0.000000,1,0.000000,0.000000,0.000000,0.314484,-0.646393,0.000000,0.000000,0.001000,0.010000,FlatInitial
02:58:26.879 PM 02/13/2016,Teleop Disabled,0,FALSE,0,NO ERROR,0.000000,0.000000,4000.000000,4000.000000,Speed,Speed,0.010000,1.270000,2.690000,3.000000,101.000000,1,0,-0.000000,0.000000,1,0.000000,0.000000,0.000000,0.314484,-0.646393,0.000000,0.001000,-0.001000,0.007000,FlatInitial
02:58:26.979 PM 02/13/2016,Teleop Disabled,0,FALSE,0,NO ERROR,0.000000,0.000000,4000.000000,4000.000000,Speed,Speed,0.000000,1.270000,2.690000,3.000000,101.000000,1,0,-0.000000,0.000000,1,0.000000,0.000000,0.000000,0.314484,-0.646393,0.000000,-0.003000,-0.001000,0.007000,FlatInitial
02:58:27.080 PM 02/13/2016,Teleop Disabled,0,FALSE,0,NO ERROR,0.000000,0.000000,4000.000000,4000.000000,Speed,Speed,0.000000,1.270000,2.690000,3.000000,102.000000,1,0,-0.000000,0.000000,1,0.000000,0.000000,0.000000,0.314484,-0.646393,0.000000,0.000000,0.000000,0.009000,FlatInitial
02:58:27.180 PM 02/13/2016,Teleop Disabled,0,FALSE,0,NO ERROR,0.000000,0.000000,4000.000000,4000.000000,Speed,Speed,0.000000,1.270000,2.690000,3.000000,101.000000,1,0,-0.000000,0.000000,1,0.000000,0.000000,0.000000,0.314484,-0.646393,0.000000,0.001000,0.000000,0.005000,FlatInitial
02:58:27.281 PM 02/13/2016,Teleop Disabled,0,FALSE,0,NO ERROR,0.000000,0.000000,4000.000000,4000.000000,Speed,Speed,0.000000,1.270000,2.690000,3.000000,103.000000,1,0,-0.000000,0.000000,1,0.000000,0.000000,0.000000,0.314484,-0.646393,0.000000,-0.001000,0.000000,0.006000,FlatInitial
02:58:27.381 PM 02/13/2016,Teleop Enabled,0,FALSE,0,NO ERROR,0.000000,0.000000,4000.000000,4000.000000,Speed,Speed,0.010000,1.270000,2.690000,3.000000,101.000000,1,0,-0.000000,0.000000,1,0.000000,0.000000,0.000000,0.314484,-0.646393,0.000000,-0.001000,0.000000,0.006000,FlatInitial
02:58:27.481 PM 02/13/2016,Teleop Enabled,0,FALSE,0,NO ERROR,0.000000,0.000000,4000.000000,4000.000000,Speed,Speed,0.010000,1.270000,2.690000,3.000000,101.000000,1,0,-0.000000,0.000000,1,0.000000,0.000000,0.000000,0.314484,-0.646393,0.000000,0.001000,0.002000,0.007000,FlatInitial
02:58:27.581 PM 02/13/2016,Teleop Enabled,0,FALSE,0,NO ERROR,0.000000,0.000000,4000.000000,4000.000000,Speed,Speed,0.010000,1.260000,2.700000,3.000000,103.000000,1,0,-0.000000,0.000000,1,0.000000,0.000000,0.000000,0.314484,-0.646393,0.000000,-0.003000,0.009000,-0.017000,FlatInitial
02:58:27.681 PM 02/13/2016,Teleop Enabled,0,FALSE,0,NO ERROR,0.000000,0.000000,4000.000000,4000.000000,Speed,Speed,0.000000,1.260000,2.700000,3.000000,103.000000,1,0,-0.000000,0.000000,1,0.000000,0.000000,0.000000,0.314484,-0.646393,0.000000,-0.006000,-0.001000,0.021000,FlatInitial
02:58:27.781 PM 02/13/2016,Teleop Enabled,0,FALSE,0,NO ERROR,0.000000,0.000000,4000.000000,4000.000000,Speed,Speed,0.010000,1.260000,2.710000,3.000000,102.000000,1,0,-0.000000,0.000000,1,0.000000,0.000000,0.000000,0.314484,-0.646393,0.000000,-0.005000,-0.004000,0.010000,FlatInitial
02:58:27.881 PM 02/13/2016,Teleop Enabled,0,FALSE,0,NO ERROR,0.000000,0.000000,4000.000000,4000.000000,Speed,Speed,0.000000,1.260000,2.700000,3.000000,100.000000,1,0,-0.000000,0.000000,1,0.000000,0.000000,0.000000,0.314484,-0.646393,0.000000,-0.002000,-0.002000,0.014000,FlatInitial
02:58:27.982 PM 02/13/2016,Teleop Enabled,0,FALSE,0,NO ERROR,0.000000,0.000000,4000.000000,4000.000000,Speed,Speed,0.010000,1.260000,2.700000,3.000000,102.000000,1,0,-0.000000,0.000000,1,0.000000,0.000000,0.000000,0.314484,-0.646393,0.000000,0.000000,0.002000,0.012000,FlatInitial
02:58:28.083 PM 02/13/2016,Teleop Enabled,0,FALSE,0,NO ERROR,0.000000,0.000000,4000.000000,4000.000000,Speed,Speed,0.000000,1.260000,2.700000,3.000000,102.000000,1,0,-0.000000,0.000000,1,0.000000,0.000000,0.000000,0.314484,-0.646393,0.000000,0.003000,0.004000,0.006000,FlatInitial
02:58:28.184 PM 02/13/2016,Teleop Enabled,0,FALSE,0,NO ERROR,0.000000,0.000000,4000.000000,4000.000000,Speed,Speed,0.000000,1.260000,2.700000,3.000000,102.000000,1,0,-0.000000,0.000000,1,0.000000,0.000000,0.000000,0.314484,-0.646393,0.000000,0.000000,0.003000,0.000000,FlatInitial
02:58:28.284 PM 02/13/2016,Teleop Enabled,0,FALSE,0,NO ERROR,0.000000,0.000000,4000.000000,4000.000000,Speed,Speed,0.000000,1.270000,2.700000,3.000000,101.000000,1,0,-0.000000,0.000000,1,0.000000,0.000000,0.000000,0.314484,-0.646393,0.000000,0.000000,-0.001000,0.007000,FlatInitial
02:58:28.384 PM 02/13/2016,Teleop Enabled,0,FALSE,0,NO ERROR,0.000000,0.000000,4000.000000,4000.000000,Speed,Speed,0.000000,1.260000,2.700000,3.000000,101.000000,1,0,-0.000000,0.000000,1,0.000000,0.000000,0.000000,0.314484,-0.646393,0.000000,0.000000,0.000000,0.008000,FlatInitial
02:58:28.484 PM 02/13/2016,Teleop Enabled,0,FALSE,0,NO ERROR,0.000000,0.000000,4000.000000,4000.000000,Speed,Speed,0.000000,1.270000,2.710000,3.000000,101.000000,1,0,-0.000000,0.000000,1,0.000000,0.000000,0.000000,0.314484,-0.646393,0.000000,0.000000,-0.003000,0.006000,FlatInitial
02:58:28.584 PM 02/13/2016,Teleop Enabled,0,FALSE,0,NO ERROR,0.000000,0.000000,4000.000000,4000.000000,Speed,Speed,0.000000,1.270000,2.700000,3.000000,101.000000,1,0,-0.000000,0.000000,1,0.000000,0.000000,0.000000,0.314484,-0.646393,0.000000,0.000000,-0.002000,0.009000,FlatInitial
02:58:28.685 PM 02/13/2016,Teleop Enabled,0,FALSE,0,NO ERROR,0.000000,0.000000,4000.000000,4000.000000,Speed,Speed,0.000000,1.270000,2.700000,3.000000,105.000000,1,0,-0.000000,0.000000,1,0.000000,0.000000,0.000000,0.314484,-0.646393,0.000000,-0.001000,0.000000,0.007000,FlatInitial
02:58:28.785 PM 02/13/2016,Teleop Enabled,0,FALSE,0,NO ERROR,0.000000,0.000000,4000.000000,4000.000000,Speed,Speed,0.000000,1.260000,2.700000,3.000000,102.000000,1,0,-0.000000,0.000000,1,0.000000,0.000000,0.000000,0.314484,-0.646393,0.000000,0.015000,-0.010000,0.016000,FlatInitial
02:58:28.885 PM 02/13/2016,Teleop Enabled,0,FALSE,0,NO ERROR,0.000000,0.000000,4000.000000,4000.000000,Speed,Speed,0.000000,1.250000,2.700000,3.000000,100.000000,1,0,-0.000000,0.000000,1,0.000000,0.000000,0.000000,0.314484,-0.646393,0.000000,0.000000,-0.013000,0.016000,FlatInitial
02:58:28.986 PM 02/13/2016,Teleop Enabled,0,FALSE,0,NO ERROR,0.000000,0.000000,4000.000000,4000.000000,Speed,Speed,0.000000,1.250000,2.690000,3.000000,101.000000,1,0,-0.000000,0.000000,1,0.000000,0.000000,0.000000,0.314484,-0.646393,0.000000,-0.004000,0.001000,0.016000,FlatInitial
02:58:29.086 PM 02/13/2016,Teleop Enabled,0,FALSE,0,NO ERROR,0.000000,0.000000,4000.000000,4000.000000,Speed,Speed,0.000000,1.250000,2.690000,3.000000,101.000000,1,0,-0.000000,0.000000,1,0.000000,0.000000,0.000000,0.314484,-0.646393,0.000000,-0.009000,0.000000,0.002000,FlatInitial
02:58:29.187 PM 02/13/2016,Teleop Enabled,0,FALSE,0,NO ERROR,0.000000,0.000000,4000.000000,4000.000000,Speed,Speed,0.000000,1.260000,2.690000,3.000000,101.000000,1,0,-0.000000,0.000000,1,0.000000,0.000000,0.000000,0.314484,-0.646393,0.000000,-0.001000,0.002000,0.009000,FlatInitial
02:58:29.288 PM 02/13/2016,Teleop Enabled,0,FALSE,0,NO ERROR,0.000000,0.000000,4000.000000,4000.000000,Speed,Speed,0.000000,1.250000,2.700000,3.000000,101.000000,1,0,-0.000000,0.000000,1,0.000000,0.000000,0.000000,0.314484,-0.646393,0.000000,0.000000,0.000000,0.004000,FlatInitial
02:58:29.388 PM 02/13/2016,Teleop Enabled,0,FALSE,0,NO ERROR,0.000000,0.000000,4000.000000,4000.000000,Speed,Speed,0.000000,1.260000,2.690000,3.000000,101.000000,1,0,-0.000000,0.000000,1,0.000000,0.000000,0.000000,0.314484,-0.646393,0.000000,-0.001000,0.004000,0.011000,FlatInitial
02:58:29.489 PM 02/13/2016,Teleop Enabled,0,FALSE,0,NO ERROR,0.000000,0.000000,4000.000000,4000.000000,Speed,Speed,0.000000,1.260000,2.690000,3.000000,102.000000,1,0,-0.000000,0.000000,1,0.000000,0.000000,0.000000,0.314484,-0.646393,0.000000,0.000000,0.002000,0.000000,FlatInitial
02:58:29.589 PM 02/13/2016,Teleop Enabled,0,FALSE,0,NO ERROR,0.000000,0.000000,4000.000000,4000.000000,Speed,Speed,0.000000,1.250000,2.690000,3.000000,101.000000,1,0,-0.000000,0.000000,1,0.005417,0.000000,0.000000,0.314529,-0.646393,0.000000,-0.026000,-0.023000,0.120000,FlatInitial
02:58:29.689 PM 02/13/2016,Teleop Enabled,0,FALSE,0,NO ERROR,0.000000,0.000000,4000.000000,4000.000000,Speed,Speed,0.020000,1.220000,2.700000,3.000000,102.000000,1,0,-0.000000,0.000000,1,0.009567,0.007935,0.000000,0.315186,-0.646362,0.000000,0.036000,0.036000,-0.048000,FlatInitial
02:58:29.790 PM 02/13/2016,Teleop Enabled,0,FALSE,0,NO ERROR,0.000000,0.000000,4000.000000,4000.000000,Speed,Speed,0.000000,1.260000,2.730000,3.000000,101.000000,1,0,-0.000000,0.000000,1,-0.005539,0.000000,0.000000,0.315598,-0.646133,0.000000,-0.050000,0.000000,0.022000,FlatInitial
02:58:29.891 PM 02/13/2016,Teleop Enabled,0,FALSE,0,NO ERROR,0.000000,0.000000,4000.000000,4000.000000,Speed,Speed,0.000000,1.260000,2.720000,3.000000,102.000000,1,0,-0.000000,0.000000,1,-0.004089,0.000000,0.000000,0.315353,-0.646133,0.000000,0.021000,-0.002000,-0.003000,FlatInitial
02:58:29.991 PM 02/13/2016,Teleop Enabled,0,FALSE,0,NO ERROR,0.000000,0.000000,4000.000000,4000.000000,Speed,Speed,0.000000,1.290000,2.690000,3.000000,102.000000,1,0,-0.000000,0.000000,1,0.000000,0.000000,0.000000,0.315323,-0.646133,0.000000,-0.014000,-0.006000,0.013000,FlatInitial
02:58:30.091 PM 02/13/2016,Teleop Enabled,0,FALSE,0,NO ERROR,0.000000,0.000000,4000.000000,4000.000000,Speed,Speed,0.000000,1.290000,2.680000,3.000000,103.000000,1,0,-0.000000,0.000000,1,0.000000,0.000000,0.000000,0.315323,-0.646133,0.000000,0.000000,0.012000,0.023000,FlatInitial
02:58:30.191 PM 02/13/2016,Teleop Enabled,0,FALSE,0,NO ERROR,0.000000,0.000000,4000.000000,4000.000000,Speed,Speed,0.000000,1.320000,2.690000,3.000000,101.000000,1,0,-0.000000,0.000000,1,0.000000,0.000000,0.000000,0.315323,-0.646133,0.000000,-0.007000,0.007000,-0.016000,FlatInitial
02:58:30.292 PM 02/13/2016,Teleop Enabled,0,FALSE,0,NO ERROR,0.000000,0.000000,4000.000000,4000.000000,Speed,Speed,0.000000,1.320000,2.680000,3.000000,101.000000,1,0,-0.000000,0.000000,1,0.000000,0.000000,0.000000,0.315323,-0.646133,0.000000,-0.011000,0.011000,0.012000,FlatInitial
02:58:30.392 PM 02/13/2016,Teleop Enabled,0,FALSE,0,NO ERROR,0.000000,0.000000,4000.000000,4000.000000,Speed,Speed,0.000000,1.300000,2.650000,3.000000,102.000000,1,0,-0.000000,0.000000,1,0.000000,0.000000,0.000000,0.315323,-0.645935,0.000000,-0.007000,-0.016000,0.050000,FlatInitial
02:58:30.493 PM 02/13/2016,Teleop Enabled,0,FALSE,0,NO ERROR,0.000000,0.000000,4000.000000,4000.000000,Speed,Speed,-0.010000,1.290000,2.580000,3.000000,101.000000,1,0,-0.000000,0.000000,1,0.000000,-0.013641,0.000000,0.315170,-0.646317,0.000000,0.001000,-0.015000,-0.003000,FlatInitial
02:58:30.594 PM 02/13/2016,Teleop Enabled,0,FALSE,0,NO ERROR,0.000000,0.000000,4000.000000,4000.000000,Speed,Speed,0.000000,1.290000,2.540000,3.000000,101.000000,1,0,-0.000000,0.000000,1,0.000000,0.005692,0.000000,0.315170,-0.646317,0.000000,-0.005000,-0.002000,0.027000,FlatInitial
02:58:30.695 PM 02/13/2016,Teleop Enabled,0,FALSE,0,NO ERROR,0.000000,0.000000,4000.000000,4000.000000,Speed,Speed,0.000000,1.280000,2.220000,3.000000,100.000000,1,0,-0.000000,0.000000,1,-0.000015,0.009476,0.000000,0.315231,-0.646225,0.000000,-0.016000,0.078000,-0.157000,FlatInitial
02:58:30.796 PM 02/13/2016,Teleop Enabled,0,FALSE,0,NO ERROR,0.000000,0.000000,4000.000000,4000.000000,Speed,Speed,0.000000,1.260000,2.080000,3.000000,101.000000,1,0,-0.000000,0.000000,1,-0.002609,0.004395,0.000000,0.314835,-0.646164,0.000000,0.016000,0.026000,-0.121000,FlatInitial
02:58:30.897 PM 02/13/2016,Teleop Enabled,0,FALSE,0,NO ERROR,0.000000,0.000000,4000.000000,4000.000000,Speed,Speed,0.020000,1.290000,2.670000,3.000000,101.000000,1,0,-0.000000,0.000000,1,-0.019608,0.011017,0.000000,0.314316,-0.645218,0.000000,-0.041000,-0.028000,-0.097000,FlatInitial
02:58:30.997 PM 02/13/2016,Teleop Enabled,0,FALSE,0,NO ERROR,0.000000,0.000000,4000.000000,4000.000000,Speed,Speed,0.050000,1.280000,2.480000,3.000000,101.000000,1,0,-0.000000,0.000000,1,-0.059723,0.004166,0.000000,0.311951,-0.644974,0.000000,0.013000,-0.072000,-0.059000,FlatInitial
02:58:31.097 PM 02/13/2016,Teleop Enabled,0,FALSE,0,NO ERROR,0.000000,0.000000,4000.000000,4000.000000,Speed,Speed,0.040000,1.260000,2.530000,3.000000,102.000000,1,0,-0.000000,0.000000,1,-0.072235,-0.026505,0.000000,0.308838,-0.645660,0.000000,-0.018000,0.011000,0.020000,FlatInitial
02:58:31.198 PM 02/13/2016,Teleop Enabled,0,FALSE,0,NO ERROR,0.000000,0.000000,4000.000000,4000.000000,Speed,Speed,0.030000,1.240000,2.460000,3.000000,102.000000,1,0,-0.000000,0.000000,1,-0.004074,-0.028748,0.000000,0.307953,-0.646957,0.000000,0.044000,0.022000,-0.032000,FlatInitial
02:58:31.298 PM 02/13/2016,Teleop Enabled,0,FALSE,0,NO ERROR,0.000000,0.000000,4000.000000,4000.000000,Speed,Speed,0.050000,1.240000,2.450000,3.000000,103.000000,1,0,-0.000000,0.000000,1,0.018967,-0.026077,0.000000,0.308334,-0.647827,0.000000,-0.034000,-0.017000,-0.086000,FlatInitial
02:58:31.398 PM 02/13/2016,Teleop Enabled,0,FALSE,0,NO ERROR,0.000000,0.000000,4000.000000,4000.000000,Speed,Speed,0.050000,1.250000,2.380000,3.000000,101.000000,1,0,-0.000000,0.000000,1,0.027710,0.000000,0.000000,0.309677,-0.648560,0.000000,-0.035000,-0.002000,-0.106000,FlatInitial
02:58:31.498 PM 02/13/2016,Teleop Enabled,0,FALSE,0,NO ERROR,0.000000,0.000000,4000.000000,4000.000000,Speed,Speed,0.050000,1.270000,2.420000,3.000000,104.000000,1,0,-0.000000,0.000000,1,0.035019,0.038300,0.000000,0.310944,-0.647888,0.000000,0.011000,0.057000,0.102000,FlatInitial
02:58:31.599 PM 02/13/2016,Teleop Enabled,0,FALSE,0,NO ERROR,0.000000,0.000000,4000.000000,4000.000000,Speed,Speed,0.050000,1.250000,2.410000,3.000000,100.000000,1,0,-0.000000,0.000000,1,0.000000,0.041122,0.000000,0.312668,-0.645874,0.000000,0.010000,0.043000,-0.078000,FlatInitial
02:58:31.701 PM 02/13/2016,Teleop Enabled,0,FALSE,0,NO ERROR,0.000000,0.000000,4000.000000,4000.000000,Speed,Speed,0.040000,1.250000,2.480000,3.000000,102.000000,1,0,-0.000000,0.000000,1,-0.031052,0.043716,0.000000,0.311722,-0.643539,0.000000,0.036000,0.042000,0.010000,FlatInitial
02:58:31.801 PM 02/13/2016,Teleop Enabled,0,FALSE,0,NO ERROR,0.000000,0.000000,4000.000000,4000.000000,Speed,Speed,0.030000,1.250000,2.480000,3.000000,104.000000,1,0,-0.000000,0.000000,1,0.000000,0.003677,0.000000,0.310074,-0.641800,0.000000,0.012000,-0.016000,0.100000,FlatInitial
02:58:31.901 PM 02/13/2016,Teleop Enabled,0,FALSE,0,NO ERROR,0.000000,0.000000,4000.000000,4000.000000,Speed,Speed,0.030000,1.250000,2.520000,3.000000,103.000000,1,0,-0.000000,0.000000,1,-0.005920,0.020401,0.000000,0.309982,-0.641098,0.000000,0.001000,-0.019000,0.007000,FlatInitial
02:58:32.001 PM 02/13/2016,Teleop Enabled,0,FALSE,0,NO ERROR,0.000000,0.000000,4000.000000,4000.000000,Speed,Speed,0.030000,1.240000,2.460000,3.000000,102.000000,1,0,-0.000000,0.000000,1,0.018143,0.038757,0.000000,0.310440,-0.640015,0.000000,0.024000,-0.016000,0.084000,FlatInitial
02:58:32.101 PM 02/13/2016,Teleop Enabled,0,FALSE,0,NO ERROR,0.000000,0.000000,4000.000000,4000.000000,Speed,Speed,0.040000,1.270000,2.450000,3.000000,105.000000,1,0,-0.000000,0.000000,1,-0.004684,0.004578,0.000000,0.311203,-0.639114,0.000000,0.024000,-0.016000,0.084000,FlatInitial
02:58:32.201 PM 02/13/2016,Teleop Enabled,0,FALSE,0,NO ERROR,0.000000,0.000000,4000.000000,4000.000000,Speed,Speed,0.030000,1.250000,2.480000,3.000000,101.000000,1,0,-0.000000,0.000000,1,0.005249,0.002319,0.000000,0.310898,-0.639450,0.000000,-0.007000,0.048000,0.115000,FlatInitial
02:58:32.301 PM 02/13/2016,Teleop Enabled,0,FALSE,0,NO ERROR,0.000000,0.000000,4000.000000,4000.000000,Speed,Speed,0.040000,1.270000,2.460000,3.000000,102.000000,1,0,-0.000000,0.000000,1,0.005280,-0.023315,0.000000,0.311111,-0.639847,0.000000,-0.011000,0.023000,-0.062000,FlatInitial
02:58:32.401 PM 02/13/2016,Teleop Enabled,0,FALSE,0,NO ERROR,0.000000,0.000000,4000.000000,4000.000000,Speed,Speed,0.050000,1.250000,2.440000,3.000000,100.000000,1,0,-0.000000,0.000000,1,-0.019913,-0.003998,0.000000,0.310745,-0.640244,0.000000,0.038000,0.000000,-0.062000,FlatInitial
02:58:32.501 PM 02/13/2016,Teleop Enabled,0,FALSE,0,NO ERROR,0.000000,0.000000,4000.000000,4000.000000,Speed,Speed,0.050000,1.260000,2.410000,3.000000,101.000000,1,0,-0.000000,0.000000,1,-0.019913,-0.003998,0.000000,0.310745,-0.640244,0.000000,0.038000,0.000000,-0.062000,FlatInitial
02:58:32.602 PM 02/13/2016,Teleop Enabled,0,FALSE,0,NO ERROR,0.000000,0.000000,4000.000000,4000.000000,Speed,Speed,0.050000,1.250000,2.420000,3.000000,103.000000,1,0,-0.000000,0.000000,1,-0.013077,-0.030838,0.000000,0.309631,-0.642319,0.000000,0.038000,-0.062000,0.034000,FlatInitial
02:58:32.704 PM 02/13/2016,Teleop Enabled,0,FALSE,0,NO ERROR,0.000000,0.000000,4000.000000,4000.000000,Speed,Speed,0.050000,1.270000,2.450000,3.000000,101.000000,1,0,-0.000000,0.000000,1,0.003510,0.008026,0.000000,0.309219,-0.643143,0.000000,-0.011000,0.054000,-0.092000,FlatInitial
02:58:32.804 PM 02/13/2016,Teleop Enabled,0,FALSE,0,NO ERROR,0.000000,0.000000,4000.000000,4000.000000,Speed,Speed,0.050000,1.270000,2.430000,3.000000,100.000000,1,0,-0.000000,0.000000,1,0.011002,-0.006897,0.000000,0.309601,-0.643143,0.000000,0.002000,-0.007000,-0.027000,FlatInitial
02:58:32.907 PM 02/13/2016,Teleop Enabled,0,FALSE,0,NO ERROR,0.000000,0.000000,4000.000000,4000.000000,Speed,Speed,0.040000,1.260000,2.500000,3.000000,101.000000,1,0,-0.000000,0.000000,1,0.011002,-0.006897,0.000000,0.309601,-0.643143,0.000000,0.002000,-0.007000,-0.027000,FlatInitial
02:58:33.007 PM 02/13/2016,Teleop Enabled,0,FALSE,0,NO ERROR,0.000000,0.000000,4000.000000,4000.000000,Speed,Speed,0.040000,1.250000,2.550000,3.000000,102.000000,1,0,-0.000000,0.000000,1,0.004929,-0.033554,0.000000,0.309860,-0.645462,0.000000,0.020000,0.080000,0.101000,FlatInitial
02:58:33.108 PM 02/13/2016,Teleop Enabled,0,FALSE,0,NO ERROR,0.000000,0.000000,4000.000000,4000.000000,Speed,Speed,0.030000,1.270000,2.500000,3.000000,100.000000,1,0,-0.000000,0.000000,1,-0.013870,-0.039688,0.000000,0.309845,-0.647675,0.000000,-0.042000,0.041000,0.014000,FlatInitial
02:58:33.209 PM 02/13/2016,Teleop Enabled,0,FALSE,0,NO ERROR,0.000000,0.000000,4000.000000,4000.000000,Speed,Speed,0.040000,1.270000,2.520000,3.000000,104.000000,1,0,-0.000000,0.000000,1,-0.003357,-0.013290,0.000000,0.309158,-0.648773,0.000000,0.056000,-0.072000,0.140000,FlatInitial
02:58:33.309 PM 02/13/2016,Teleop Enabled,0,FALSE,0,NO ERROR,0.000000,0.000000,4000.000000,4000.000000,Speed,Speed,0.040000,1.270000,2.480000,3.000000,103.000000,1,0,-0.000000,0.000000,1,-0.003357,-0.013290,0.000000,0.309158,-0.648773,0.000000,0.056000,-0.072000,0.140000,FlatInitial
02:58:33.409 PM 02/13/2016,Teleop Enabled,0,FALSE,0,NO ERROR,0.000000,0.000000,4000.000000,4000.000000,Speed,Speed,0.040000,1.270000,2.480000,3.000000,104.000000,1,0,-0.000000,0.000000,1,-0.007751,-0.066757,0.000000,0.309052,-0.652054,0.000000,-0.062000,0.036000,-0.136000,FlatInitial
02:58:33.509 PM 02/13/2016,Teleop Enabled,0,FALSE,0,NO ERROR,0.000000,0.000000,4000.000000,4000.000000,Speed,Speed,0.050000,1.260000,2.450000,3.000000,102.000000,1,0,-0.000000,0.000000,1,-0.003357,-0.027222,0.000000,0.308319,-0.654343,0.000000,0.027000,0.101000,0.099000,FlatInitial
02:58:33.609 PM 02/13/2016,Teleop Enabled,0,FALSE,0,NO ERROR,0.000000,0.000000,4000.000000,4000.000000,Speed,Speed,0.050000,1.270000,2.430000,3.000000,101.000000,1,0,-0.000000,0.000000,1,0.012329,0.000000,0.000000,0.308670,-0.654556,0.000000,-0.030000,0.009000,-0.109000,FlatInitial
02:58:33.710 PM 02/13/2016,Teleop Enabled,0,FALSE,0,NO ERROR,0.000000,0.000000,4000.000000,4000.000000,Speed,Speed,0.050000,1.270000,2.430000,3.000000,102.000000,1,0,-0.000000,0.000000,1,-0.003540,-0.017471,0.000000,0.308365,-0.655350,0.000000,0.008000,0.012000,-0.069000,FlatInitial
02:58:33.810 PM 02/13/2016,Teleop Enabled,0,FALSE,0,NO ERROR,0.000000,0.000000,4000.000000,4000.000000,Speed,Speed,0.050000,1.250000,2.490000,3.000000,101.000000,1,0,-0.000000,0.000000,1,-0.003540,-0.017471,0.000000,0.308365,-0.655350,0.000000,0.045000,-0.112000,0.051000,FlatInitial
02:58:33.910 PM 02/13/2016,Teleop Enabled,0,FALSE,0,NO ERROR,0.000000,0.000000,4000.000000,4000.000000,Speed,Speed,0.050000,1.250000,2.470000,3.000000,101.000000,1,0,-0.000000,0.000000,1,-0.013718,-0.039246,0.000000,0.308380,-0.658081,0.000000,-0.041000,0.028000,0.046000,FlatInitial
02:58:34.010 PM 02/13/2016,Teleop Enabled,0,FALSE,0,NO ERROR,0.000000,0.000000,4000.000000,4000.000000,Speed,Speed,0.050000,1.250000,2.470000,3.000000,102.000000,1,0,-0.000000,0.000000,1,-0.006424,-0.007401,0.000000,0.307938,-0.658951,0.000000,0.047000,0.094000,0.107000,FlatInitial
02:58:34.110 PM 02/13/2016,Teleop Enabled,0,FALSE,0,NO ERROR,0.000000,0.000000,4000.000000,4000.000000,Speed,Speed,0.040000,1.270000,2.500000,3.000000,101.000000,1,0,-0.000000,0.000000,1,0.010880,-0.051910,0.000000,0.308319,-0.660553,0.000000,-0.003000,-0.002000,0.098000,FlatInitial
02:58:34.212 PM 02/13/2016,Teleop Enabled,0,FALSE,0,NO ERROR,0.000000,0.000000,4000.000000,4000.000000,Speed,Speed,0.050000,1.250000,2.530000,3.000000,108.000000,1,0,-0.000000,0.000000,1,0.010818,-0.010147,0.000000,0.308258,-0.663895,0.000000,0.051000,0.096000,0.041000,FlatInitial
02:58:34.313 PM 02/13/2016,Teleop Enabled,0,FALSE,0,NO ERROR,0.000000,0.000000,4000.000000,4000.000000,Speed,Speed,0.050000,1.270000,2.500000,3.000000,101.000000,1,0,-0.000000,0.000000,1,0.010818,-0.010147,0.000000,0.308258,-0.663895,0.000000,0.033000,0.000000,0.000000,FlatInitial
02:58:34.413 PM 02/13/2016,Teleop Enabled,0,FALSE,0,NO ERROR,0.000000,0.000000,4000.000000,4000.000000,Speed,Speed,0.050000,1.280000,2.480000,3.000000,102.000000,1,0,-0.000000,0.000000,1,-0.013626,-0.005081,0.000000,0.308502,-0.663940,0.000000,0.002000,0.028000,-0.056000,FlatInitial
02:58:34.513 PM 02/13/2016,Teleop Enabled,0,FALSE,0,NO ERROR,0.000000,0.000000,4000.000000,4000.000000,Speed,Speed,0.060000,1.270000,2.670000,3.000000,101.000000,1,0,-0.000000,0.000000,1,0.014923,-0.006683,0.000000,0.308533,-0.664352,0.000000,0.035000,-0.038000,0.047000,FlatInitial
02:58:34.614 PM 02/13/2016,Teleop Enabled,0,FALSE,0,NO ERROR,0.000000,0.000000,4000.000000,4000.000000,Speed,Speed,0.040000,1.270000,2.550000,3.000000,102.000000,1,0,-0.000000,0.000000,1,0.023987,0.006134,0.000000,0.310120,-0.664993,0.000000,0.001000,0.107000,-0.104000,FlatInitial
02:58:34.714 PM 02/13/2016,Teleop Enabled,0,FALSE,0,NO ERROR,0.000000,0.000000,4000.000000,4000.000000,Speed,Speed,0.090000,1.260000,2.080000,3.000000,102.000000,1,0,-0.000000,0.000000,1,0.010666,0.058914,0.000000,0.310318,-0.663345,0.000000,0.047000,0.024000,-0.138000,FlatInitial
02:58:34.814 PM 02/13/2016,Teleop Enabled,0,FALSE,0,NO ERROR,0.000000,0.000000,4000.000000,4000.000000,Speed,Speed,0.110000,1.230000,2.150000,3.000000,102.000000,1,0,-0.000000,0.000000,1,-0.009796,0.021484,0.000000,0.310562,-0.661514,0.000000,-0.019000,0.037000,-0.081000,FlatInitial
02:58:34.915 PM 02/13/2016,Teleop Enabled,0,FALSE,0,NO ERROR,0.000000,0.000000,4000.000000,4000.000000,Speed,Speed,0.090000,1.220000,2.540000,3.000000,101.000000,1,0,-0.000000,0.000000,1,0.009964,0.059250,0.000000,0.310699,-0.658676,0.000000,-0.006000,0.011000,0.111000,FlatInitial
02:58:35.016 PM 02/13/2016,Teleop Enabled,0,FALSE,0,NO ERROR,0.000000,0.000000,4000.000000,4000.000000,Speed,Speed,0.080000,1.260000,2.520000,3.000000,100.000000,1,0,-0.000000,0.000000,1,0.018204,0.060486,0.000000,0.311447,-0.655380,0.000000,0.003000,-0.045000,0.088000,FlatInitial
02:58:35.117 PM 02/13/2016,Teleop Enabled,0,FALSE,0,NO ERROR,0.000000,0.000000,4000.000000,4000.000000,Speed,Speed,0.070000,1.260000,2.570000,3.000000,104.000000,1,0,-0.000000,0.000000,1,0.000000,0.050964,0.000000,0.311447,-0.652069,0.000000,-0.003000,-0.019000,-0.018000,FlatInitial
02:58:35.217 PM 02/13/2016,Teleop Enabled,0,FALSE,0,NO ERROR,0.000000,0.000000,4000.000000,4000.000000,Speed,Speed,0.080000,1.250000,2.480000,3.000000,110.000000,1,0,-0.000000,0.000000,1,0.000000,0.000000,0.000000,0.311447,-0.652069,0.000000,0.004000,-0.017000,-0.017000,FlatInitial
02:58:35.318 PM 02/13/2016,Teleop Enabled,0,FALSE,0,NO ERROR,0.000000,0.000000,4000.000000,4000.000000,Speed,Speed,0.070000,1.270000,2.520000,3.000000,101.000000,1,0,-0.000000,0.000000,1,0.000000,0.000000,0.000000,0.311447,-0.652069,0.000000,0.000000,0.001000,0.016000,FlatInitial
02:58:35.419 PM 02/13/2016,Teleop Enabled,0,FALSE,0,NO ERROR,0.000000,0.000000,4000.000000,4000.000000,Speed,Speed,0.070000,1.260000,2.530000,3.000000,101.000000,1,0,-0.000000,0.000000,1,0.000000,0.000000,0.000000,0.311447,-0.652069,0.000000,-0.004000,-0.008000,0.010000,FlatInitial
02:58:35.519 PM 02/13/2016,Teleop Enabled,0,FALSE,0,NO ERROR,0.000000,0.000000,4000.000000,4000.000000,Speed,Speed,0.070000,1.260000,2.500000,3.000000,104.000000,1,0,-0.000000,0.000000,1,0.000000,0.000000,0.000000,0.311447,-0.652069,0.000000,0.001000,0.000000,0.008000,FlatInitial
02:58:35.621 PM 02/13/2016,Teleop Enabled,0,FALSE,0,NO ERROR,0.000000,0.000000,4000.000000,4000.000000,Speed,Speed,0.070000,1.270000,2.530000,3.000000,101.000000,1,0,-0.000000,0.000000,1,0.000000,0.000000,0.000000,0.311447,-0.652069,0.000000,-0.001000,0.004000,0.007000,FlatInitial
02:58:35.721 PM 02/13/2016,Teleop Enabled,0,FALSE,0,NO ERROR,0.000000,0.000000,4000.000000,4000.000000,Speed,Speed,0.070000,1.260000,2.510000,3.000000,103.000000,1,0,-0.000000,0.000000,1,0.000000,0.000000,0.000000,0.311447,-0.652069,0.000000,0.000000,0.003000,0.004000,FlatInitial
02:58:35.822 PM 02/13/2016,Teleop Enabled,0,FALSE,0,NO ERROR,0.000000,0.000000,4000.000000,4000.000000,Speed,Speed,0.070000,1.260000,2.530000,3.000000,102.000000,1,0,-0.000000,0.000000,1,0.000000,0.000000,0.000000,0.311447,-0.652069,0.000000,0.004000,0.002000,0.003000,FlatInitial
02:58:35.921 PM 02/13/2016,Teleop Enabled,0,FALSE,0,NO ERROR,0.000000,0.000000,4000.000000,4000.000000,Speed,Speed,0.070000,1.260000,2.520000,3.000000,101.000000,1,0,-0.000000,0.000000,1,0.000000,0.000000,0.000000,0.311447,-0.652069,0.000000,0.000000,0.001000,0.004000,FlatInitial
02:58:36.022 PM 02/13/2016,Teleop Enabled,0,FALSE,0,NO ERROR,0.000000,0.000000,4000.000000,4000.000000,Speed,Speed,0.070000,1.270000,2.520000,3.000000,103.000000,1,0,-0.000000,0.000000,1,0.000000,0.000000,0.000000,0.311447,-0.652069,0.000000,0.000000,0.001000,0.008000,FlatInitial
02:58:36.123 PM 02/13/2016,Teleop Enabled,0,FALSE,0,NO ERROR,0.000000,0.000000,4000.000000,4000.000000,Speed,Speed,0.070000,1.270000,2.530000,3.000000,101.000000,1,0,-0.000000,0.000000,1,0.000000,0.000000,0.000000,0.311447,-0.652069,0.000000,0.000000,0.000000,0.005000,FlatInitial
02:58:36.223 PM 02/13/2016,Teleop Enabled,0,FALSE,0,NO ERROR,0.000000,0.000000,4000.000000,4000.000000,Speed,Speed,0.070000,1.270000,2.520000,3.000000,101.000000,1,0,-0.000000,0.000000,1,0.000000,0.000000,0.000000,0.311447,-0.652069,0.000000,0.000000,0.000000,0.008000,FlatInitial
02:58:36.323 PM 02/13/2016,Teleop Enabled,0,FALSE,0,NO ERROR,0.000000,0.000000,4000.000000,4000.000000,Speed,Speed,0.070000,1.270000,2.520000,3.000000,102.000000,1,0,-0.000000,0.000000,1,0.000000,0.000000,0.000000,0.311447,-0.652069,0.000000,0.000000,0.000000,0.008000,FlatInitial
02:58:36.423 PM 02/13/2016,Teleop Enabled,0,FALSE,0,NO ERROR,0.000000,0.000000,4000.000000,4000.000000,Speed,Speed,0.070000,1.270000,2.530000,3.000000,101.000000,1,0,-0.000000,0.000000,1,0.000000,0.000000,0.000000,0.311447,-0.652069,0.000000,0.000000,0.001000,0.005000,FlatInitial
02:58:36.524 PM 02/13/2016,Teleop Enabled,0,FALSE,0,NO ERROR,0.000000,0.000000,4000.000000,4000.000000,Speed,Speed,0.070000,1.270000,2.530000,3.000000,101.000000,1,0,-0.000000,0.000000,1,0.000000,0.000000,0.000000,0.311447,-0.652069,0.000000,-0.001000,0.000000,0.005000,FlatInitial
02:58:36.624 PM 02/13/2016,Teleop Enabled,0,FALSE,0,NO ERROR,0.000000,0.000000,4000.000000,4000.000000,Speed,Speed,0.070000,1.270000,2.530000,3.000000,100.000000,1,0,-0.000000,0.000000,1,0.000000,0.000000,0.000000,0.311447,-0.652069,0.000000,-0.001000,0.000000,0.005000,FlatInitial
02:58:36.725 PM 02/13/2016,Teleop Enabled,0,FALSE,0,NO ERROR,0.000000,0.000000,4000.000000,4000.000000,Speed,Speed,0.070000,1.270000,2.530000,3.000000,102.000000,1,0,-0.000000,0.000000,1,0.000000,0.000000,0.000000,0.311447,-0.652069,0.000000,0.001000,-0.002000,0.006000,FlatInitial
02:58:36.825 PM 02/13/2016,Teleop Enabled,0,FALSE,0,NO ERROR,0.000000,0.000000,4000.000000,4000.000000,Speed,Speed,0.070000,1.270000,2.530000,3.000000,101.000000,1,0,-0.204724,-0.204724,1,0.000000,0.000000,0.000000,0.311447,-0.652069,0.000000,0.000000,0.000000,0.007000,FlatInitial
02:58:36.925 PM 02/13/2016,Teleop Enabled,0,FALSE,0,NO ERROR,0.000000,0.000000,4000.000000,4000.000000,Speed,Speed,0.010000,1.330000,2.840000,3.000000,101.000000,1,0,-0.291339,-0.291339,1,0.010345,0.057861,0.000000,0.311554,-0.651443,0.000000,0.109000,0.515000,-0.120000,FlatInitial
02:58:37.026 PM 02/13/2016,Teleop Enabled,0,FALSE,0,NO ERROR,0.000000,0.000000,4000.000000,4000.000000,Speed,Speed,-0.340000,1.290000,4.920000,3.000000,101.000000,1,0,-0.322835,-0.322835,1,0.007202,0.396683,0.000000,0.311737,-0.637238,0.000000,0.030000,0.219000,0.115000,FlatInitial
02:58:37.126 PM 02/13/2016,Teleop Enabled,0,FALSE,0,NO ERROR,0.000000,0.000000,4000.000000,4000.000000,Speed,Speed,-1.330000,1.410000,5.040000,3.000000,101.000000,1,0,-0.322835,-0.322835,1,0.031052,0.512909,0.000000,0.312561,-0.613373,0.000000,0.029000,0.103000,0.003000,FlatInitial
02:58:37.226 PM 02/13/2016,Teleop Enabled,0,FALSE,0,NO ERROR,0.000000,0.000000,4000.000000,4000.000000,Speed,Speed,-3.280000,1.470000,5.650000,3.000000,102.000000,1,0,-0.212598,-0.212598,1,0.006577,0.607773,0.000000,0.314224,-0.579178,0.000000,-0.025000,0.064000,-0.005000,FlatInitial
02:58:37.326 PM 02/13/2016,Teleop Enabled,0,FALSE,0,NO ERROR,0.000000,0.000000,4000.000000,4000.000000,Speed,Speed,-5.380000,1.490000,5.570000,3.000000,102.000000,1,0,-0.000000,0.000000,1,-0.020248,0.617249,0.000000,0.313828,-0.554214,0.000000,0.099000,-0.241000,0.036000,FlatInitial
02:58:37.426 PM 02/13/2016,Teleop Enabled,0,FALSE,0,NO ERROR,0.000000,0.000000,4000.000000,4000.000000,Speed,Speed,-7.920000,1.660000,4.070000,3.000000,104.000000,1,0,-0.000000,0.000000,1,0.015244,0.449142,0.000000,0.314255,-0.529190,0.000000,-0.048000,-0.034000,-0.094000,FlatInitial
02:58:37.526 PM 02/13/2016,Teleop Enabled,0,FALSE,0,NO ERROR,0.000000,0.000000,4000.000000,4000.000000,Speed,Speed,-10.520000,1.400000,3.710000,3.000000,102.000000,1,0,-0.000000,0.000000,1,-0.038803,0.330444,0.000000,0.313080,-0.510284,0.000000,0.014000,-0.110000,-0.046000,FlatInitial
02:58:37.626 PM 02/13/2016,Teleop Enabled,0,FALSE,0,NO ERROR,0.000000,0.000000,4000.000000,4000.000000,Speed,Speed,-12.430000,1.280000,3.060000,3.000000,101.000000,1,0,-0.000000,0.000000,1,-0.064545,0.238159,0.000000,0.310669,-0.496780,0.000000,-0.048000,-0.092000,0.033000,FlatInitial
02:58:37.726 PM 02/13/2016,Teleop Enabled,0,FALSE,0,NO ERROR,0.000000,0.000000,4000.000000,4000.000000,Speed,Speed,-13.350000,1.350000,2.040000,3.000000,101.000000,1,0,-0.000000,0.000000,1,0.005096,0.164917,0.000000,0.308350,-0.487259,0.000000,0.069000,-0.102000,0.045000,FlatInitial
02:58:37.826 PM 02/13/2016,Teleop Enabled,0,FALSE,0,NO ERROR,0.000000,0.000000,4000.000000,4000.000000,Speed,Speed,-14.060000,1.230000,1.730000,3.000000,102.000000,1,0,-0.000000,0.000000,1,0.016785,0.074402,0.000000,0.309479,-0.481583,0.000000,-0.012000,-0.078000,-0.008000,FlatInitial
02:58:37.926 PM 02/13/2016,Teleop Enabled,0,FALSE,0,NO ERROR,0.000000,0.000000,4000.000000,4000.000000,Speed,Speed,-14.590000,1.210000,1.650000,3.000000,104.000000,1,0,-0.000000,0.000000,1,0.029053,-0.008316,0.000000,0.310638,-0.480164,0.000000,0.015000,-0.091000,0.005000,FlatInitial
02:58:38.028 PM 02/13/2016,Teleop Enabled,0,FALSE,0,NO ERROR,0.000000,0.000000,4000.000000,4000.000000,Speed,Speed,-14.730000,1.150000,1.120000,3.000000,102.000000,1,0,-0.000000,0.000000,1,0.000000,-0.080734,0.000000,0.310638,-0.482742,0.000000,0.016000,-0.082000,-0.016000,FlatInitial
02:58:38.128 PM 02/13/2016,Teleop Enabled,0,FALSE,0,NO ERROR,0.000000,0.000000,4000.000000,4000.000000,Speed,Speed,-14.860000,1.130000,1.020000,3.000000,102.000000,1,0,-0.000000,0.000000,1,0.000000,-0.136292,0.000000,0.310974,-0.488495,0.000000,0.000000,-0.068000,0.041000,FlatInitial
02:58:38.228 PM 02/13/2016,Teleop Enabled,0,FALSE,0,NO ERROR,0.000000,0.000000,4000.000000,4000.000000,Speed,Speed,-14.890000,1.130000,0.690000,3.000000,101.000000,1,0,-0.000000,0.000000,1,0.016342,-0.193008,0.000000,0.311447,-0.497116,0.000000,0.021000,-0.055000,0.027000,FlatInitial
02:58:38.329 PM 02/13/2016,Teleop Enabled,0,FALSE,0,NO ERROR,0.000000,0.000000,4000.000000,4000.000000,Speed,Speed,-14.950000,1.140000,0.440000,3.000000,115.000000,1,0,-0.000000,0.000000,1,0.029083,-0.242493,0.000000,0.312698,-0.508301,0.000000,0.027000,-0.065000,0.000000,FlatInitial
02:58:38.430 PM 02/13/2016,Teleop Enabled,0,FALSE,0,NO ERROR,0.000000,0.000000,4000.000000,4000.000000,Speed,Speed,-14.900000,1.110000,0.510000,3.000000,102.000000,1,0,-0.000000,0.000000,1,0.000000,0.000000,0.000000,0.313324,-0.513351,0.000000,-0.001000,0.011000,0.021000,FlatInitial
02:58:38.529 PM 02/13/2016,Teleop Enabled,0,FALSE,0,NO ERROR,0.000000,0.000000,4000.000000,4000.000000,Speed,Speed,-14.800000,1.120000,0.630000,3.000000,101.000000,1,0,-0.000000,0.000000,1,0.000000,0.021896,0.000000,0.313324,-0.512695,0.000000,0.000000,0.016000,0.006000,FlatInitial
02:58:38.630 PM 02/13/2016,Teleop Enabled,0,FALSE,0,NO ERROR,0.000000,0.000000,4000.000000,4000.000000,Speed,Speed,-14.860000,1.130000,0.770000,3.000000,101.000000,1,0,-0.000000,0.000000,1,0.000000,0.049744,0.000000,0.313324,-0.510834,0.000000,-0.009000,0.030000,0.007000,FlatInitial
02:58:38.730 PM 02/13/2016,Teleop Enabled,0,FALSE,0,NO ERROR,0.000000,0.000000,4000.000000,4000.000000,Speed,Speed,-14.850000,1.130000,0.860000,3.000000,107.000000,1,0,-0.000000,0.000000,1,0.000000,0.073547,0.000000,0.313324,-0.507584,0.000000,-0.002000,0.010000,0.009000,FlatInitial
02:58:38.831 PM 02/13/2016,Teleop Enabled,0,FALSE,0,NO ERROR,0.000000,0.000000,4000.000000,4000.000000,Speed,Speed,-14.830000,1.130000,0.900000,3.000000,100.000000,1,0,-0.000000,0.000000,1,0.000000,0.000000,0.000000,0.313324,-0.507584,0.000000,0.000000,0.013000,0.006000,FlatInitial
02:58:38.931 PM 02/13/2016,Teleop Enabled,0,FALSE,0,NO ERROR,0.000000,0.000000,4000.000000,4000.000000,Speed,Speed,-14.870000,1.140000,0.930000,3.000000,103.000000,1,0,-0.377953,0.377953,1,0.000000,0.000000,0.000000,0.313324,-0.507584,0.000000,-0.012000,-0.257000,0.105000,FlatInitial
02:58:39.033 PM 02/13/2016,Teleop Enabled,0,FALSE,0,NO ERROR,0.000000,0.000000,4000.000000,4000.000000,Speed,Speed,-12.050000,0.590000,1.240000,3.000000,101.000000,1,0,-0.598425,0.598425,1,-0.164200,0.101105,0.000000,0.309174,-0.506073,0.000000,-0.147000,0.073000,0.167000,FlatInitial
02:58:39.133 PM 02/13/2016,Teleop Enabled,0,FALSE,0,NO ERROR,0.000000,0.000000,4000.000000,4000.000000,Speed,Speed,-2.470000,-0.160000,1.630000,3.000000,101.000000,1,0,-0.858268,0.858268,1,-0.304840,0.209229,0.000000,0.296829,-0.497360,0.000000,-0.128000,0.125000,-0.525000,FlatInitial
02:58:39.234 PM 02/13/2016,Teleop Enabled,0,FALSE,0,NO ERROR,0.000000,0.000000,4000.000000,4000.000000,Speed,Speed,13.100000,-0.410000,2.780000,3.000000,104.000000,1,0,-0.000000,0.000000,1,-0.014465,0.394745,0.000000,0.289856,-0.483170,0.000000,0.000000,0.408000,0.097000,FlatInitial
02:58:39.335 PM 02/13/2016,Teleop Enabled,0,FALSE,0,NO ERROR,0.000000,0.000000,4000.000000,4000.000000,Speed,Speed,36.060000,0.500000,3.030000,3.000000,101.000000,1,0,-0.000000,0.000000,1,0.253036,0.261612,0.000000,0.294479,-0.462204,0.000000,0.180000,-0.201000,0.174000,FlatInitial
02:58:39.436 PM 02/13/2016,Teleop Enabled,0,FALSE,0,NO ERROR,0.000000,0.000000,4000.000000,4000.000000,Speed,Speed,47.080000,-0.120000,1.740000,3.000000,100.000000,1,0,-0.000000,0.000000,1,0.228928,0.163712,0.000000,0.307404,-0.454681,0.000000,-0.006000,-0.019000,0.380000,FlatInitial
02:58:39.536 PM 02/13/2016,Teleop Enabled,0,FALSE,0,NO ERROR,0.000000,0.000000,4000.000000,4000.000000,Speed,Speed,58.300000,0.510000,2.330000,3.000000,101.000000,1,0,-0.000000,0.000000,1,0.362701,-0.043808,0.000000,0.325180,-0.450531,0.000000,0.134000,-0.252000,0.051000,FlatInitial
02:58:39.636 PM 02/13/2016,Teleop Enabled,0,FALSE,0,NO ERROR,0.000000,0.000000,4000.000000,4000.000000,Speed,Speed,66.310000,0.750000,1.800000,3.000000,101.000000,1,0,-0.000000,0.000000,1,0.331451,-0.066559,0.000000,0.339066,-0.453613,0.000000,-0.015000,0.038000,0.025000,FlatInitial
02:58:39.737 PM 02/13/2016,Teleop Enabled,0,FALSE,0,NO ERROR,0.000000,0.000000,4000.000000,4000.000000,Speed,Speed,71.270000,1.190000,1.590000,3.000000,101.000000,1,0,0.188976,-0.188976,1,0.346893,-0.146530,0.000000,0.355652,-0.458435,0.000000,0.010000,-0.223000,0.155000,FlatInitial
02:58:39.838 PM 02/13/2016,Teleop Enabled,0,FALSE,0,NO ERROR,0.000000,0.000000,4000.000000,4000.000000,Speed,Speed,73.130000,1.720000,2.020000,3.000000,103.000000,1,0,0.196850,-0.196850,1,0.025742,-0.295395,0.000000,0.363571,-0.473358,0.000000,-0.152000,0.023000,0.156000,FlatInitial
02:58:39.938 PM 02/13/2016,Teleop Enabled,0,FALSE,0,NO ERROR,0.000000,0.000000,4000.000000,4000.000000,Speed,Speed,69.520000,2.230000,1.380000,3.000000,104.000000,1,0,0.330709,-0.330709,1,0.087418,-0.413452,0.000000,0.365753,-0.490860,0.000000,0.078000,-0.181000,0.033000,FlatInitial
02:58:40.039 PM 02/13/2016,Teleop Enabled,0,FALSE,0,NO ERROR,0.000000,0.000000,4000.000000,4000.000000,Speed,Speed,61.000000,2.600000,1.200000,3.000000,103.000000,1,0,-0.000000,0.000000,1,0.000000,-0.492920,0.000000,0.369110,-0.514954,0.000000,0.110000,0.065000,0.045000,FlatInitial
02:58:40.139 PM 02/13/2016,Teleop Enabled,0,FALSE,0,NO ERROR,0.000000,0.000000,4000.000000,4000.000000,Speed,Speed,53.060000,2.730000,1.110000,3.000000,100.000000,1,0,-0.000000,0.000000,1,0.106796,-0.416672,0.000000,0.371887,-0.537796,0.000000,0.151000,0.262000,0.123000,FlatInitial
02:58:40.239 PM 02/13/2016,Teleop Enabled,0,FALSE,0,NO ERROR,0.000000,0.000000,4000.000000,4000.000000,Speed,Speed,49.080000,1.990000,1.820000,3.000000,103.000000,1,0,-0.000000,0.000000,1,0.086609,-0.231140,0.000000,0.376221,-0.549332,0.000000,-0.037000,0.142000,0.154000,FlatInitial
02:58:40.339 PM 02/13/2016,Teleop Enabled,0,FALSE,0,NO ERROR,0.000000,0.000000,4000.000000,4000.000000,Speed,Speed,46.480000,1.900000,1.940000,3.000000,101.000000,1,0,-0.000000,0.000000,1,0.118515,-0.156555,0.000000,0.383118,-0.560837,0.000000,-0.084000,0.141000,-0.042000,FlatInitial
02:58:40.439 PM 02/13/2016,Teleop Enabled,0,FALSE,0,NO ERROR,0.000000,0.000000,4000.000000,4000.000000,Speed,Speed,46.490000,1.720000,2.140000,3.000000,101.000000,1,0,-0.000000,0.000000,1,0.101974,-0.114075,0.000000,0.387787,-0.566269,0.000000,-0.016000,-0.013000,0.036000,FlatInitial
02:58:40.541 PM 02/13/2016,Teleop Enabled,0,FALSE,0,NO ERROR,0.000000,0.000000,4000.000000,4000.000000,Speed,Speed,46.840000,1.570000,2.010000,3.000000,101.000000,1,0,-0.000000,0.000000,1,0.072342,-0.107010,0.000000,0.392197,-0.571945,0.000000,0.003000,-0.024000,0.005000,FlatInitial
02:58:40.641 PM 02/13/2016,Teleop Enabled,0,FALSE,0,NO ERROR,0.000000,0.000000,4000.000000,4000.000000,Speed,Speed,46.820000,1.650000,2.070000,3.000000,102.000000,1,0,-0.000000,0.000000,1,-0.003845,-0.120148,0.000000,0.394638,-0.578094,0.000000,-0.032000,0.043000,0.007000,FlatInitial
02:58:40.742 PM 02/13/2016,Teleop Enabled,0,FALSE,0,NO ERROR,0.000000,0.000000,4000.000000,4000.000000,Speed,Speed,46.760000,1.650000,2.120000,3.000000,100.000000,1,0,-0.000000,0.000000,1,0.001266,0.000000,0.000000,0.394440,-0.581406,0.000000,-0.004000,0.036000,0.005000,FlatInitial
02:58:40.843 PM 02/13/2016,Teleop Enabled,0,FALSE,0,NO ERROR,0.000000,0.000000,4000.000000,4000.000000,Speed,Speed,46.780000,1.600000,2.190000,3.000000,102.000000,1,0,-0.000000,0.000000,1,0.000000,0.018219,0.000000,0.394485,-0.580811,0.000000,-0.001000,0.004000,0.011000,FlatInitial
02:58:40.943 PM 02/13/2016,Teleop Enabled,0,FALSE,0,NO ERROR,0.000000,0.000000,4000.000000,4000.000000,Speed,Speed,46.810000,1.580000,2.190000,3.000000,102.000000,1,0,-0.000000,0.000000,1,0.000000,0.000000,0.000000,0.394485,-0.580811,0.000000,0.011000,-0.008000,0.003000,FlatInitial
