Time,RobotMode,AutoToRun,ErrorStatus, ErrorCode,ErrorSource,ActualRPM1,ActualRPM2,DesiredRPM1,DesiredRPM2,ControlMode1,ControlMode2,NavXYaw,NavXRoll,NavXPitch,ShooterState,LoopTime,IsLevel,IsAutoTargeting,LeftMotorOutput,RightMotorOutput,IsHaloDrive,NavXVelocityX,NavXVelocityY,NavXVelocityZ,NavXDisplacementX,NavXDisplacementY,NavXDisplacementZ,NavXAccelerationX,NavXAccelerationY,NavXAccelerationZ,AutoDefendState
05:01:35.139 PM 02/13/2016,Autonomous Enabled,0,TRUE,-44087,NetComm_CAN_Receive.vi:5470006<APPEND>  <b>Complete call chain:</b>      NetComm_CAN_Receive.vi:5470006      WPI_CANTalonSRX_Receive.vi      WPI_MotorControlOpenCANTalonSRX.vi      Begin.vi      Robot Main.vi,0.000000,0.000000,4000.000000,4000.000000,Speed,Speed,-0.140000,1.150000,2.840000,3.000000,101.000000,1,0,-0.000000,0.000000,1,0.000000,0.000000,0.000000,0.299026,4.510834,0.000000,0.000000,0.002000,0.004000,FlatFinal
05:01:35.241 PM 02/13/2016,Autonomous Enabled,0,TRUE,-44087,NetComm_CAN_Receive.vi:5470006<APPEND>  <b>Complete call chain:</b>      NetComm_CAN_Receive.vi:5470006      WPI_CANTalonSRX_Receive.vi      WPI_MotorControlOpenCANTalonSRX.vi      Begin.vi      Robot Main.vi,0.000000,0.000000,4000.000000,4000.000000,Speed,Speed,-0.140000,1.150000,2.850000,3.000000,101.000000,1,0,-0.000000,0.000000,1,0.000000,0.000000,0.000000,0.299026,4.510834,0.000000,0.000000,0.002000,0.003000,FlatFinal
05:01:35.342 PM 02/13/2016,Autonomous Enabled,0,TRUE,-44087,NetComm_CAN_Receive.vi:5470006<APPEND>  <b>Complete call chain:</b>      NetComm_CAN_Receive.vi:5470006      WPI_CANTalonSRX_Receive.vi      WPI_MotorControlOpenCANTalonSRX.vi      Begin.vi      Robot Main.vi,0.000000,0.000000,4000.000000,4000.000000,Speed,Speed,-0.140000,1.170000,2.860000,3.000000,104.000000,1,0,-0.000000,0.000000,1,0.006851,0.000000,0.000000,0.299225,4.510834,0.000000,0.005000,0.003000,0.047000,FlatFinal
05:01:35.441 PM 02/13/2016,Autonomous Enabled,0,TRUE,-44087,NetComm_CAN_Receive.vi:5470006<APPEND>  <b>Complete call chain:</b>      NetComm_CAN_Receive.vi:5470006      WPI_CANTalonSRX_Receive.vi      WPI_MotorControlOpenCANTalonSRX.vi      Begin.vi      Robot Main.vi,0.000000,0.000000,4000.000000,4000.000000,Speed,Speed,-0.140000,1.160000,2.850000,3.000000,102.000000,1,0,-0.000000,0.000000,1,0.000000,0.000000,0.000000,0.299225,4.510834,0.000000,0.002000,0.006000,0.011000,FlatFinal
05:01:35.543 PM 02/13/2016,Autonomous Enabled,0,TRUE,-44087,NetComm_CAN_Receive.vi:5470006<APPEND>  <b>Complete call chain:</b>      NetComm_CAN_Receive.vi:5470006      WPI_CANTalonSRX_Receive.vi      WPI_MotorControlOpenCANTalonSRX.vi      Begin.vi      Robot Main.vi,0.000000,0.000000,4000.000000,4000.000000,Speed,Speed,-0.140000,1.160000,2.860000,3.000000,103.000000,1,0,-0.000000,0.000000,1,0.000000,0.000000,0.000000,0.299225,4.510834,0.000000,0.009000,0.002000,0.006000,FlatFinal
05:01:35.643 PM 02/13/2016,Autonomous Enabled,0,TRUE,-44087,NetComm_CAN_Receive.vi:5470006<APPEND>  <b>Complete call chain:</b>      NetComm_CAN_Receive.vi:5470006      WPI_CANTalonSRX_Receive.vi      WPI_MotorControlOpenCANTalonSRX.vi      Begin.vi      Robot Main.vi,0.000000,0.000000,4000.000000,4000.000000,Speed,Speed,-0.140000,1.150000,2.850000,3.000000,102.000000,1,0,-0.000000,0.000000,1,0.000000,0.000000,0.000000,0.299225,4.510834,0.000000,0.003000,0.002000,0.005000,FlatFinal
05:01:35.744 PM 02/13/2016,Autonomous Enabled,0,TRUE,-44087,NetComm_CAN_Receive.vi:5470006<APPEND>  <b>Complete call chain:</b>      NetComm_CAN_Receive.vi:5470006      WPI_CANTalonSRX_Receive.vi      WPI_MotorControlOpenCANTalonSRX.vi      Begin.vi      Robot Main.vi,0.000000,0.000000,4000.000000,4000.000000,Speed,Speed,-0.150000,1.150000,2.860000,3.000000,101.000000,1,0,-0.000000,0.000000,1,0.000000,0.000000,0.000000,0.299225,4.510834,0.000000,0.003000,-0.002000,0.003000,FlatFinal
05:01:35.843 PM 02/13/2016,Autonomous Enabled,0,TRUE,-44087,NetComm_CAN_Receive.vi:5470006<APPEND>  <b>Complete call chain:</b>      NetComm_CAN_Receive.vi:5470006      WPI_CANTalonSRX_Receive.vi      WPI_MotorControlOpenCANTalonSRX.vi      Begin.vi      Robot Main.vi,0.000000,0.000000,4000.000000,4000.000000,Speed,Speed,-0.150000,1.150000,2.860000,3.000000,103.000000,1,0,-0.000000,0.000000,1,0.000000,0.000000,0.000000,0.299225,4.510834,0.000000,0.000000,0.000000,0.007000,FlatFinal
05:01:35.944 PM 02/13/2016,Autonomous Enabled,0,TRUE,-44087,NetComm_CAN_Receive.vi:5470006<APPEND>  <b>Complete call chain:</b>      NetComm_CAN_Receive.vi:5470006      WPI_CANTalonSRX_Receive.vi      WPI_MotorControlOpenCANTalonSRX.vi      Begin.vi      Robot Main.vi,0.000000,0.000000,4000.000000,4000.000000,Speed,Speed,-0.150000,1.150000,2.860000,3.000000,104.000000,1,0,-0.000000,0.000000,1,0.000000,0.000000,0.000000,0.299225,4.510834,0.000000,0.000000,-0.003000,0.010000,FlatFinal
05:01:36.044 PM 02/13/2016,Autonomous Enabled,0,TRUE,-44087,NetComm_CAN_Receive.vi:5470006<APPEND>  <b>Complete call chain:</b>      NetComm_CAN_Receive.vi:5470006      WPI_CANTalonSRX_Receive.vi      WPI_MotorControlOpenCANTalonSRX.vi      Begin.vi      Robot Main.vi,0.000000,0.000000,4000.000000,4000.000000,Speed,Speed,-0.150000,1.150000,2.860000,3.000000,105.000000,1,0,-0.000000,0.000000,1,0.000000,0.000000,0.000000,0.299225,4.510834,0.000000,-0.002000,-0.003000,0.006000,FlatFinal
05:01:36.146 PM 02/13/2016,Autonomous Enabled,0,TRUE,-44087,NetComm_CAN_Receive.vi:5470006<APPEND>  <b>Complete call chain:</b>      NetComm_CAN_Receive.vi:5470006      WPI_CANTalonSRX_Receive.vi      WPI_MotorControlOpenCANTalonSRX.vi      Begin.vi      Robot Main.vi,0.000000,0.000000,4000.000000,4000.000000,Speed,Speed,-0.150000,1.150000,2.860000,3.000000,103.000000,1,0,-0.000000,0.000000,1,0.000000,0.000000,0.000000,0.299225,4.510834,0.000000,-0.002000,-0.004000,0.010000,FlatFinal
05:01:36.246 PM 02/13/2016,Autonomous Enabled,0,TRUE,-44087,NetComm_CAN_Receive.vi:5470006<APPEND>  <b>Complete call chain:</b>      NetComm_CAN_Receive.vi:5470006      WPI_CANTalonSRX_Receive.vi      WPI_MotorControlOpenCANTalonSRX.vi      Begin.vi      Robot Main.vi,0.000000,0.000000,4000.000000,4000.000000,Speed,Speed,-0.150000,1.150000,2.850000,3.000000,101.000000,1,0,-0.000000,0.000000,1,0.000000,0.000000,0.000000,0.299225,4.510834,0.000000,0.000000,0.002000,0.001000,FlatFinal
05:01:36.346 PM 02/13/2016,Autonomous Enabled,0,TRUE,-44087,NetComm_CAN_Receive.vi:5470006<APPEND>  <b>Complete call chain:</b>      NetComm_CAN_Receive.vi:5470006      WPI_CANTalonSRX_Receive.vi      WPI_CANTalonSRX_GetStatus.vi      ShooterVI.vi      Periodic Tasks.vi      Robot Main.vi,0.000000,0.000000,4000.000000,4000.000000,Speed,Speed,-0.150000,1.150000,2.850000,3.000000,102.000000,1,0,-0.000000,0.000000,1,0.000000,0.000000,0.000000,0.299225,4.510834,0.000000,-0.005000,-0.002000,0.007000,FlatFinal
05:01:36.446 PM 02/13/2016,Autonomous Enabled,0,TRUE,-44087,NetComm_CAN_Receive.vi:5470006<APPEND>  <b>Complete call chain:</b>      NetComm_CAN_Receive.vi:5470006      WPI_CANTalonSRX_Receive.vi      WPI_CANTalonSRX_GetStatus.vi      ShooterVI.vi      Periodic Tasks.vi      Robot Main.vi,0.000000,0.000000,4000.000000,4000.000000,Speed,Speed,-0.150000,1.140000,2.850000,3.000000,103.000000,1,0,-0.000000,0.000000,1,0.000000,0.000000,0.000000,0.299225,4.510834,0.000000,0.001000,0.000000,0.003000,FlatFinal
05:01:36.547 PM 02/13/2016,Autonomous Enabled,0,TRUE,-44003,<LOCATION>WPI_CameraIssue HTTP Request with Authentication.vi<CALLSTACK>WPI_CameraIssue HTTP Request with Authentication.vi< <WPI_CameraIssue Get.vi< <WPI_CameraSet Image Appearance Property.vi< <WPI_CameraSet Image Size.vi< <Vision Processing.vi< <Robot Main.vi,0.000000,0.000000,4000.000000,4000.000000,Speed,Speed,-0.140000,1.150000,2.840000,3.000000,103.000000,1,0,-0.000000,0.000000,1,0.000000,0.000000,0.000000,0.299225,4.510834,0.000000,-0.006000,-0.005000,-0.029000,FlatFinal
05:01:36.647 PM 02/13/2016,Autonomous Enabled,0,FALSE,0,NO ERROR,0.000000,0.000000,4000.000000,4000.000000,Speed,Speed,-0.160000,1.140000,2.840000,3.000000,102.000000,1,0,-0.000000,0.000000,1,0.000000,0.000000,0.000000,0.299225,4.510834,0.000000,-0.007000,0.006000,0.011000,FlatFinal
05:01:36.748 PM 02/13/2016,Autonomous Enabled,0,FALSE,0,NO ERROR,0.000000,0.000000,4000.000000,4000.000000,Speed,Speed,-0.140000,1.150000,2.840000,3.000000,102.000000,1,0,-0.000000,0.000000,1,0.000000,0.000000,0.000000,0.299225,4.510834,0.000000,-0.010000,-0.001000,-0.001000,FlatFinal
05:01:36.848 PM 02/13/2016,Autonomous Enabled,0,FALSE,0,NO ERROR,0.000000,0.000000,4000.000000,4000.000000,Speed,Speed,-0.150000,1.160000,2.840000,3.000000,101.000000,1,0,-0.000000,0.000000,1,0.000000,0.000000,0.000000,0.299225,4.510834,0.000000,-0.018000,-0.001000,0.008000,FlatFinal
05:01:36.949 PM 02/13/2016,Autonomous Enabled,0,FALSE,0,NO ERROR,0.000000,0.000000,4000.000000,4000.000000,Speed,Speed,-0.140000,1.150000,2.840000,3.000000,101.000000,1,0,-0.000000,0.000000,1,0.000000,0.000000,0.000000,0.299225,4.510834,0.000000,-0.009000,0.000000,0.009000,FlatFinal
05:01:37.049 PM 02/13/2016,Autonomous Enabled,0,FALSE,0,NO ERROR,0.000000,0.000000,4000.000000,4000.000000,Speed,Speed,-0.150000,1.150000,2.830000,3.000000,102.000000,1,0,-0.000000,0.000000,1,0.000000,0.000000,0.000000,0.299225,4.510834,0.000000,0.000000,-0.001000,0.001000,FlatFinal
05:01:37.151 PM 02/13/2016,Autonomous Enabled,0,FALSE,0,NO ERROR,0.000000,0.000000,4000.000000,4000.000000,Speed,Speed,-0.140000,1.150000,2.830000,3.000000,102.000000,1,0,-0.000000,0.000000,1,0.000000,0.000000,0.000000,0.299225,4.510834,0.000000,0.000000,0.000000,0.008000,FlatFinal
05:01:37.255 PM 02/13/2016,Autonomous Enabled,0,FALSE,0,NO ERROR,0.000000,0.000000,4000.000000,4000.000000,Speed,Speed,-0.150000,1.140000,2.840000,3.000000,101.000000,1,0,-0.000000,0.000000,1,0.000000,0.000000,0.000000,0.299225,4.510834,0.000000,0.000000,0.000000,0.004000,FlatFinal
05:01:37.355 PM 02/13/2016,Autonomous Enabled,0,FALSE,0,NO ERROR,0.000000,0.000000,4000.000000,4000.000000,Speed,Speed,-0.140000,1.120000,2.850000,3.000000,103.000000,1,0,-0.000000,0.000000,1,-0.001038,0.000000,0.000000,0.299210,4.510834,0.000000,-0.044000,-0.002000,-0.101000,FlatFinal
05:01:37.456 PM 02/13/2016,Autonomous Enabled,0,FALSE,0,NO ERROR,0.000000,0.000000,4000.000000,4000.000000,Speed,Speed,-0.140000,1.120000,2.920000,3.000000,101.000000,1,0,-0.000000,0.000000,1,0.001907,0.016388,0.000000,0.299545,4.511093,0.000000,-0.022000,0.003000,0.031000,FlatFinal
05:01:37.556 PM 02/13/2016,Autonomous Enabled,0,FALSE,0,NO ERROR,0.000000,0.000000,4000.000000,4000.000000,Speed,Speed,-0.150000,1.170000,2.870000,3.000000,105.000000,1,0,-0.000000,0.000000,1,-0.002869,0.000000,0.000000,0.299805,4.511093,0.000000,-0.031000,-0.017000,-0.025000,FlatFinal
05:01:37.657 PM 02/13/2016,Autonomous Enabled,0,FALSE,0,NO ERROR,0.000000,0.000000,4000.000000,4000.000000,Speed,Speed,-0.140000,1.160000,2.830000,3.000000,101.000000,1,0,-0.000000,0.000000,1,-0.002869,0.000000,0.000000,0.299805,4.511093,0.000000,-0.031000,-0.017000,-0.025000,FlatFinal
05:01:37.758 PM 02/13/2016,Autonomous Enabled,0,FALSE,0,NO ERROR,0.000000,0.000000,4000.000000,4000.000000,Speed,Speed,-0.160000,1.160000,2.830000,3.000000,101.000000,1,0,-0.000000,0.000000,1,0.000000,0.000000,0.000000,0.299545,4.510895,0.000000,0.007000,0.011000,0.007000,FlatFinal
05:01:37.858 PM 02/13/2016,Autonomous Enabled,0,FALSE,0,NO ERROR,0.000000,0.000000,4000.000000,4000.000000,Speed,Speed,-0.160000,1.160000,2.830000,3.000000,103.000000,1,0,-0.000000,0.000000,1,0.000000,0.000000,0.000000,0.299545,4.510895,0.000000,0.007000,0.011000,0.007000,FlatFinal
05:01:37.959 PM 02/13/2016,Autonomous Enabled,0,FALSE,0,NO ERROR,0.000000,0.000000,4000.000000,4000.000000,Speed,Speed,-0.150000,1.150000,2.810000,3.000000,111.000000,1,0,-0.000000,0.000000,1,0.000000,0.000000,0.000000,0.299545,4.510895,0.000000,-0.001000,-0.006000,-0.010000,FlatFinal
05:01:38.059 PM 02/13/2016,Autonomous Enabled,0,FALSE,0,NO ERROR,0.000000,0.000000,4000.000000,4000.000000,Speed,Speed,-0.150000,1.150000,2.810000,3.000000,101.000000,1,0,-0.000000,0.000000,1,0.000000,0.000000,0.000000,0.299545,4.510895,0.000000,0.004000,-0.013000,0.007000,FlatFinal
05:01:38.159 PM 02/13/2016,Autonomous Enabled,0,FALSE,0,NO ERROR,0.000000,0.000000,4000.000000,4000.000000,Speed,Speed,-0.150000,1.160000,2.820000,3.000000,101.000000,1,0,-0.000000,0.000000,1,0.000000,0.000000,0.000000,0.299545,4.510895,0.000000,0.003000,-0.008000,0.004000,FlatFinal
05:01:38.261 PM 02/13/2016,Autonomous Enabled,0,FALSE,0,NO ERROR,0.000000,0.000000,4000.000000,4000.000000,Speed,Speed,-0.160000,1.170000,2.800000,3.000000,101.000000,1,0,-0.000000,0.000000,1,0.000000,0.000000,0.000000,0.299545,4.510895,0.000000,0.016000,0.016000,0.029000,FlatFinal
05:01:38.363 PM 02/13/2016,Autonomous Enabled,0,FALSE,0,NO ERROR,0.000000,0.000000,4000.000000,4000.000000,Speed,Speed,-0.150000,1.190000,2.540000,3.000000,108.000000,1,0,-0.000000,0.000000,1,-0.002548,0.005966,0.000000,0.299515,4.511002,0.000000,-0.031000,0.001000,-0.013000,FlatFinal
05:01:38.464 PM 02/13/2016,Autonomous Enabled,0,FALSE,0,NO ERROR,0.000000,0.000000,4000.000000,4000.000000,Speed,Speed,-0.150000,1.190000,2.540000,3.000000,104.000000,1,0,-0.000000,0.000000,1,-0.002548,0.005966,0.000000,0.299515,4.511002,0.000000,-0.031000,0.001000,-0.013000,FlatFinal
05:01:38.565 PM 02/13/2016,Autonomous Enabled,0,FALSE,0,NO ERROR,0.000000,0.000000,4000.000000,4000.000000,Speed,Speed,-0.100000,1.230000,2.800000,3.000000,104.000000,1,0,-0.000000,0.000000,1,0.000031,-0.012527,0.000000,0.299133,4.511047,0.000000,-0.051000,-0.078000,0.073000,FlatFinal
05:01:38.666 PM 02/13/2016,Autonomous Enabled,0,FALSE,0,NO ERROR,0.000000,0.000000,4000.000000,4000.000000,Speed,Speed,-0.080000,1.200000,2.440000,3.000000,101.000000,1,0,-0.000000,0.000000,1,0.002380,-0.030426,0.000000,0.299103,4.509552,0.000000,-0.051000,-0.078000,0.073000,FlatFinal
05:01:38.766 PM 02/13/2016,Autonomous Enabled,0,FALSE,0,NO ERROR,0.000000,0.000000,4000.000000,4000.000000,Speed,Speed,-0.190000,1.200000,2.780000,3.000000,103.000000,1,0,-0.000000,0.000000,1,0.000000,0.000000,0.000000,0.299225,4.509171,0.000000,-0.003000,-0.007000,0.032000,FlatFinal
05:01:38.867 PM 02/13/2016,Autonomous Enabled,0,FALSE,0,NO ERROR,0.000000,0.000000,4000.000000,4000.000000,Speed,Speed,-0.110000,1.180000,2.570000,3.000000,103.000000,1,0,-0.000000,0.000000,1,0.000000,0.000000,0.000000,0.299225,4.509171,0.000000,0.012000,0.018000,-0.014000,FlatFinal
05:01:38.968 PM 02/13/2016,Autonomous Enabled,0,FALSE,0,NO ERROR,0.000000,0.000000,4000.000000,4000.000000,Speed,Speed,-0.170000,1.200000,2.710000,3.000000,102.000000,1,0,-0.000000,0.000000,1,0.000000,0.000000,0.000000,0.299225,4.509171,0.000000,-0.009000,-0.017000,0.017000,FlatFinal
05:01:39.069 PM 02/13/2016,Autonomous Enabled,0,FALSE,0,NO ERROR,0.000000,0.000000,4000.000000,4000.000000,Speed,Speed,-0.130000,1.200000,2.580000,3.000000,104.000000,1,0,-0.000000,0.000000,1,0.000000,0.000000,0.000000,0.299225,4.509171,0.000000,0.003000,0.002000,-0.017000,FlatFinal
05:01:39.169 PM 02/13/2016,Autonomous Enabled,0,FALSE,0,NO ERROR,0.000000,0.000000,4000.000000,4000.000000,Speed,Speed,-0.150000,1.200000,2.680000,3.000000,102.000000,1,0,-0.000000,0.000000,1,0.000000,0.000000,0.000000,0.299225,4.509171,0.000000,0.001000,-0.008000,0.018000,FlatFinal
05:01:39.270 PM 02/13/2016,Autonomous Enabled,0,FALSE,0,NO ERROR,0.000000,0.000000,4000.000000,4000.000000,Speed,Speed,-0.160000,1.190000,2.640000,3.000000,102.000000,1,0,-0.000000,0.000000,1,0.000000,0.000000,0.000000,0.299225,4.509171,0.000000,0.002000,0.007000,0.008000,FlatFinal
05:01:39.370 PM 02/13/2016,Autonomous Enabled,0,FALSE,0,NO ERROR,0.000000,0.000000,4000.000000,4000.000000,Speed,Speed,-0.150000,1.190000,2.670000,3.000000,105.000000,1,0,-0.000000,0.000000,1,0.000000,0.000000,0.000000,0.299225,4.509171,0.000000,0.001000,-0.006000,0.004000,FlatFinal
05:01:39.471 PM 02/13/2016,Autonomous Enabled,0,FALSE,0,NO ERROR,0.000000,0.000000,4000.000000,4000.000000,Speed,Speed,-0.160000,1.190000,2.640000,3.000000,106.000000,1,0,-0.000000,0.000000,1,0.000000,0.000000,0.000000,0.299225,4.509171,0.000000,-0.001000,-0.002000,0.010000,FlatFinal
05:01:39.572 PM 02/13/2016,Autonomous Enabled,0,FALSE,0,NO ERROR,0.000000,0.000000,4000.000000,4000.000000,Speed,Speed,-0.160000,1.190000,2.640000,3.000000,103.000000,1,0,-0.000000,0.000000,1,0.000000,0.000000,0.000000,0.299225,4.509171,0.000000,0.001000,0.005000,0.002000,FlatFinal
05:01:39.673 PM 02/13/2016,Autonomous Enabled,0,FALSE,0,NO ERROR,0.000000,0.000000,4000.000000,4000.000000,Speed,Speed,-0.160000,1.190000,2.670000,3.000000,101.000000,1,0,-0.000000,0.000000,1,0.000000,0.000000,0.000000,0.299225,4.509171,0.000000,0.003000,-0.005000,0.005000,FlatFinal
05:01:39.775 PM 02/13/2016,Autonomous Enabled,0,FALSE,0,NO ERROR,0.000000,0.000000,4000.000000,4000.000000,Speed,Speed,-0.160000,1.190000,2.640000,3.000000,111.000000,1,0,-0.000000,0.000000,1,0.000000,0.000000,0.000000,0.299225,4.509171,0.000000,0.000000,-0.002000,0.001000,FlatFinal
05:01:39.875 PM 02/13/2016,Autonomous Enabled,0,FALSE,0,NO ERROR,0.000000,0.000000,4000.000000,4000.000000,Speed,Speed,-0.160000,1.190000,2.650000,3.000000,101.000000,1,0,-0.000000,0.000000,1,0.000000,0.000000,0.000000,0.299225,4.509171,0.000000,0.000000,-0.002000,0.001000,FlatFinal
05:01:39.976 PM 02/13/2016,Autonomous Enabled,0,FALSE,0,NO ERROR,0.000000,0.000000,4000.000000,4000.000000,Speed,Speed,-0.160000,1.180000,2.650000,3.000000,102.000000,1,0,-0.000000,0.000000,1,0.000000,0.000000,0.000000,0.299225,4.509171,0.000000,-0.001000,0.001000,0.004000,FlatFinal
05:01:40.076 PM 02/13/2016,Autonomous Enabled,0,FALSE,0,NO ERROR,0.000000,0.000000,4000.000000,4000.000000,Speed,Speed,-0.160000,1.180000,2.640000,3.000000,103.000000,1,0,-0.000000,0.000000,1,0.000000,0.000000,0.000000,0.299225,4.509171,0.000000,-0.001000,-0.002000,0.002000,FlatFinal
05:01:40.176 PM 02/13/2016,Autonomous Enabled,0,FALSE,0,NO ERROR,0.000000,0.000000,4000.000000,4000.000000,Speed,Speed,-0.160000,1.180000,2.640000,3.000000,101.000000,1,0,-0.000000,0.000000,1,0.000000,0.000000,0.000000,0.299225,4.509171,0.000000,0.000000,0.000000,0.002000,FlatFinal
05:01:40.277 PM 02/13/2016,Autonomous Enabled,0,FALSE,0,NO ERROR,0.000000,0.000000,4000.000000,4000.000000,Speed,Speed,-0.160000,1.180000,2.640000,3.000000,101.000000,1,0,-0.000000,0.000000,1,0.000000,0.000000,0.000000,0.299225,4.509171,0.000000,0.000000,0.000000,0.002000,FlatFinal
05:01:40.379 PM 02/13/2016,Autonomous Enabled,0,FALSE,0,NO ERROR,0.000000,0.000000,4000.000000,4000.000000,Speed,Speed,-0.160000,1.170000,2.640000,3.000000,102.000000,1,0,-0.000000,0.000000,1,0.000000,0.000000,0.000000,0.299225,4.509171,0.000000,-0.002000,0.000000,0.005000,FlatFinal
05:01:40.480 PM 02/13/2016,Autonomous Enabled,0,FALSE,0,NO ERROR,0.000000,0.000000,4000.000000,4000.000000,Speed,Speed,-0.160000,1.170000,2.640000,3.000000,102.000000,1,0,-0.000000,0.000000,1,0.000000,0.000000,0.000000,0.299225,4.509171,0.000000,0.001000,0.000000,0.005000,FlatFinal
05:01:40.579 PM 02/13/2016,Autonomous Enabled,0,FALSE,0,NO ERROR,0.000000,0.000000,4000.000000,4000.000000,Speed,Speed,-0.160000,1.180000,2.640000,3.000000,104.000000,1,0,-0.000000,0.000000,1,0.000000,0.000000,0.000000,0.299225,4.509171,0.000000,0.003000,0.002000,0.005000,FlatFinal
05:01:40.680 PM 02/13/2016,Autonomous Enabled,0,FALSE,0,NO ERROR,0.000000,0.000000,4000.000000,4000.000000,Speed,Speed,-0.160000,1.180000,2.640000,3.000000,102.000000,1,0,-0.000000,0.000000,1,0.000000,0.000000,0.000000,0.299225,4.509171,0.000000,0.003000,0.002000,0.005000,FlatFinal
05:01:40.780 PM 02/13/2016,Autonomous Enabled,0,FALSE,0,NO ERROR,0.000000,0.000000,4000.000000,4000.000000,Speed,Speed,-0.160000,1.180000,2.640000,3.000000,102.000000,1,0,-0.000000,0.000000,1,0.000000,0.000000,0.000000,0.299225,4.509171,0.000000,0.001000,-0.001000,0.006000,FlatFinal
05:01:40.881 PM 02/13/2016,Autonomous Enabled,0,FALSE,0,NO ERROR,0.000000,0.000000,4000.000000,4000.000000,Speed,Speed,-0.160000,1.170000,2.640000,3.000000,102.000000,1,0,-0.000000,0.000000,1,0.000000,0.000000,0.000000,0.299225,4.509171,0.000000,0.000000,-0.001000,0.010000,FlatFinal
05:01:40.981 PM 02/13/2016,Autonomous Enabled,0,FALSE,0,NO ERROR,0.000000,0.000000,4000.000000,4000.000000,Speed,Speed,-0.160000,1.170000,2.640000,3.000000,103.000000,1,0,-0.000000,0.000000,1,0.000000,0.000000,0.000000,0.299225,4.509171,0.000000,0.000000,0.000000,0.001000,FlatFinal
05:01:41.081 PM 02/13/2016,Autonomous Enabled,0,FALSE,0,NO ERROR,0.000000,0.000000,4000.000000,4000.000000,Speed,Speed,-0.160000,1.170000,2.640000,3.000000,102.000000,1,0,-0.000000,0.000000,1,0.000000,0.000000,0.000000,0.299225,4.509171,0.000000,0.001000,-0.001000,0.007000,FlatFinal
05:01:41.181 PM 02/13/2016,Autonomous Enabled,0,FALSE,0,NO ERROR,0.000000,0.000000,4000.000000,4000.000000,Speed,Speed,-0.160000,1.170000,2.640000,3.000000,102.000000,1,0,-0.000000,0.000000,1,0.000000,0.000000,0.000000,0.299225,4.509171,0.000000,0.000000,-0.001000,0.005000,FlatFinal
05:01:41.281 PM 02/13/2016,Autonomous Enabled,0,FALSE,0,NO ERROR,0.000000,0.000000,4000.000000,4000.000000,Speed,Speed,-0.160000,1.170000,2.640000,3.000000,101.000000,1,0,-0.000000,0.000000,1,0.000000,0.000000,0.000000,0.299225,4.509171,0.000000,0.001000,-0.003000,0.004000,FlatFinal
05:01:41.381 PM 02/13/2016,Autonomous Enabled,0,FALSE,0,NO ERROR,0.000000,0.000000,4000.000000,4000.000000,Speed,Speed,-0.160000,1.170000,2.640000,3.000000,102.000000,1,0,-0.000000,0.000000,1,0.000000,0.000000,0.000000,0.299225,4.509171,0.000000,-0.002000,-0.001000,0.004000,FlatFinal
05:01:41.483 PM 02/13/2016,Autonomous Enabled,0,FALSE,0,NO ERROR,0.000000,0.000000,4000.000000,4000.000000,Speed,Speed,-0.160000,1.170000,2.640000,3.000000,102.000000,1,0,-0.000000,0.000000,1,0.000000,0.000000,0.000000,0.299225,4.509171,0.000000,-0.001000,0.000000,0.008000,FlatFinal
05:01:41.583 PM 02/13/2016,Autonomous Enabled,0,FALSE,0,NO ERROR,0.000000,0.000000,4000.000000,4000.000000,Speed,Speed,-0.160000,1.170000,2.640000,3.000000,102.000000,1,0,-0.000000,0.000000,1,0.000000,0.000000,0.000000,0.299225,4.509171,0.000000,0.000000,0.000000,0.003000,FlatFinal
05:01:41.684 PM 02/13/2016,Autonomous Enabled,0,FALSE,0,NO ERROR,0.000000,0.000000,4000.000000,4000.000000,Speed,Speed,-0.160000,1.170000,2.640000,3.000000,105.000000,1,0,-0.000000,0.000000,1,0.000000,0.000000,0.000000,0.299225,4.509171,0.000000,-0.001000,0.002000,0.011000,FlatFinal
05:01:41.784 PM 02/13/2016,Autonomous Enabled,0,FALSE,0,NO ERROR,0.000000,0.000000,4000.000000,4000.000000,Speed,Speed,-0.160000,1.170000,2.640000,3.000000,102.000000,1,0,-0.000000,0.000000,1,0.000000,0.000000,0.000000,0.299225,4.509171,0.000000,-0.001000,0.001000,0.007000,FlatFinal
05:01:41.883 PM 02/13/2016,Autonomous Enabled,0,FALSE,0,NO ERROR,0.000000,0.000000,4000.000000,4000.000000,Speed,Speed,-0.160000,1.170000,2.640000,3.000000,103.000000,1,0,-0.000000,0.000000,1,0.000000,0.000000,0.000000,0.299225,4.509171,0.000000,0.000000,-0.003000,0.004000,FlatFinal
05:01:41.984 PM 02/13/2016,Autonomous Enabled,0,FALSE,0,NO ERROR,0.000000,0.000000,4000.000000,4000.000000,Speed,Speed,-0.160000,1.170000,2.640000,3.000000,103.000000,1,0,-0.000000,0.000000,1,0.000000,0.000000,0.000000,0.299225,4.509171,0.000000,0.000000,-0.002000,0.000000,FlatFinal
05:01:42.083 PM 02/13/2016,Autonomous Enabled,0,FALSE,0,NO ERROR,0.000000,0.000000,4000.000000,4000.000000,Speed,Speed,-0.160000,1.170000,2.640000,3.000000,101.000000,1,0,-0.000000,0.000000,1,0.000000,0.000000,0.000000,0.299225,4.509171,0.000000,-0.001000,-0.003000,0.011000,FlatFinal
05:01:42.184 PM 02/13/2016,Autonomous Enabled,0,FALSE,0,NO ERROR,0.000000,0.000000,4000.000000,4000.000000,Speed,Speed,-0.160000,1.160000,2.630000,3.000000,104.000000,1,0,-0.000000,0.000000,1,0.000000,0.000000,0.000000,0.299225,4.509171,0.000000,0.000000,0.001000,0.007000,FlatFinal
05:01:42.286 PM 02/13/2016,Autonomous Enabled,0,FALSE,0,NO ERROR,0.000000,0.000000,4000.000000,4000.000000,Speed,Speed,-0.160000,1.160000,2.630000,3.000000,103.000000,1,0,-0.000000,0.000000,1,0.000000,0.000000,0.000000,0.299225,4.509171,0.000000,0.001000,0.001000,0.002000,FlatFinal
05:01:42.386 PM 02/13/2016,Autonomous Enabled,0,FALSE,0,NO ERROR,0.000000,0.000000,4000.000000,4000.000000,Speed,Speed,-0.160000,1.160000,2.630000,3.000000,102.000000,1,0,-0.000000,0.000000,1,0.000000,0.000000,0.000000,0.299225,4.509171,0.000000,0.001000,0.003000,0.004000,FlatFinal
05:01:42.487 PM 02/13/2016,Autonomous Enabled,0,FALSE,0,NO ERROR,0.000000,0.000000,4000.000000,4000.000000,Speed,Speed,-0.160000,1.160000,2.630000,3.000000,101.000000,1,0,-0.000000,0.000000,1,0.000000,0.000000,0.000000,0.299225,4.509171,0.000000,0.000000,0.000000,0.006000,FlatFinal
05:01:42.587 PM 02/13/2016,Autonomous Enabled,0,FALSE,0,NO ERROR,0.000000,0.000000,4000.000000,4000.000000,Speed,Speed,-0.160000,1.160000,2.630000,3.000000,103.000000,1,0,-0.000000,0.000000,1,0.000000,0.000000,0.000000,0.299225,4.509171,0.000000,0.000000,0.002000,0.002000,FlatFinal
05:01:42.688 PM 02/13/2016,Autonomous Enabled,0,FALSE,0,NO ERROR,0.000000,0.000000,4000.000000,4000.000000,Speed,Speed,-0.160000,1.170000,2.620000,3.000000,103.000000,1,0,-0.000000,0.000000,1,0.000000,0.000000,0.000000,0.299225,4.509171,0.000000,0.000000,0.000000,0.004000,FlatFinal
05:01:42.790 PM 02/13/2016,Autonomous Enabled,0,FALSE,0,NO ERROR,0.000000,0.000000,4000.000000,4000.000000,Speed,Speed,-0.170000,1.170000,2.620000,3.000000,102.000000,1,0,-0.000000,0.000000,1,0.000000,0.000000,0.000000,0.299225,4.509171,0.000000,0.000000,-0.001000,0.007000,FlatFinal
05:01:42.891 PM 02/13/2016,Autonomous Enabled,0,FALSE,0,NO ERROR,0.000000,0.000000,4000.000000,4000.000000,Speed,Speed,-0.170000,1.170000,2.620000,3.000000,102.000000,1,0,-0.000000,0.000000,1,0.000000,0.000000,0.000000,0.299225,4.509171,0.000000,0.000000,-0.003000,0.003000,FlatFinal
05:01:42.991 PM 02/13/2016,Autonomous Enabled,0,FALSE,0,NO ERROR,0.000000,0.000000,4000.000000,4000.000000,Speed,Speed,-0.160000,1.170000,2.620000,3.000000,104.000000,1,0,-0.000000,0.000000,1,0.000000,0.000000,0.000000,0.299225,4.509171,0.000000,0.002000,0.000000,0.002000,FlatFinal
05:01:43.092 PM 02/13/2016,Autonomous Enabled,0,FALSE,0,NO ERROR,0.000000,0.000000,4000.000000,4000.000000,Speed,Speed,-0.160000,1.160000,2.630000,3.000000,104.000000,1,0,-0.000000,0.000000,1,0.000000,0.000000,0.000000,0.299225,4.509171,0.000000,0.000000,-0.001000,0.002000,FlatFinal
05:01:43.194 PM 02/13/2016,Autonomous Enabled,0,FALSE,0,NO ERROR,0.000000,0.000000,4000.000000,4000.000000,Speed,Speed,-0.160000,1.160000,2.620000,3.000000,104.000000,1,0,-0.000000,0.000000,1,0.000000,0.000000,0.000000,0.299225,4.509171,0.000000,-0.001000,0.002000,0.003000,FlatFinal
05:01:43.294 PM 02/13/2016,Autonomous Enabled,0,FALSE,0,NO ERROR,0.000000,0.000000,4000.000000,4000.000000,Speed,Speed,-0.160000,1.160000,2.630000,3.000000,101.000000,1,0,-0.000000,0.000000,1,0.000000,0.000000,0.000000,0.299225,4.509171,0.000000,0.000000,-0.002000,0.002000,FlatFinal
05:01:43.395 PM 02/13/2016,Autonomous Enabled,0,FALSE,0,NO ERROR,0.000000,0.000000,4000.000000,4000.000000,Speed,Speed,-0.160000,1.160000,2.630000,3.000000,100.000000,1,0,-0.000000,0.000000,1,0.000000,0.000000,0.000000,0.299225,4.509171,0.000000,0.001000,-0.002000,0.010000,FlatFinal
05:01:43.497 PM 02/13/2016,Autonomous Enabled,0,FALSE,0,NO ERROR,0.000000,0.000000,4000.000000,4000.000000,Speed,Speed,-0.160000,1.160000,2.630000,3.000000,102.000000,1,0,-0.000000,0.000000,1,0.000000,0.000000,0.000000,0.299225,4.509171,0.000000,0.001000,0.000000,0.005000,FlatFinal
05:01:43.599 PM 02/13/2016,Autonomous Enabled,0,FALSE,0,NO ERROR,0.000000,0.000000,4000.000000,4000.000000,Speed,Speed,-0.160000,1.170000,2.620000,3.000000,101.000000,1,0,-0.000000,0.000000,1,0.000000,0.000000,0.000000,0.299225,4.509171,0.000000,0.001000,0.000000,0.011000,FlatFinal
05:01:43.699 PM 02/13/2016,Autonomous Enabled,0,FALSE,0,NO ERROR,0.000000,0.000000,4000.000000,4000.000000,Speed,Speed,-0.160000,1.160000,2.630000,3.000000,102.000000,1,0,-0.000000,0.000000,1,0.000000,0.000000,0.000000,0.299225,4.509171,0.000000,0.001000,0.000000,0.005000,FlatFinal
05:01:43.800 PM 02/13/2016,Autonomous Enabled,0,FALSE,0,NO ERROR,0.000000,0.000000,4000.000000,4000.000000,Speed,Speed,-0.160000,1.160000,2.630000,3.000000,101.000000,1,0,-0.000000,0.000000,1,0.000000,0.000000,0.000000,0.299225,4.509171,0.000000,0.002000,-0.001000,0.010000,FlatFinal
05:01:43.901 PM 02/13/2016,Autonomous Enabled,0,FALSE,0,NO ERROR,0.000000,0.000000,4000.000000,4000.000000,Speed,Speed,-0.160000,1.170000,2.620000,3.000000,102.000000,1,0,-0.000000,0.000000,1,0.000000,0.000000,0.000000,0.299225,4.509171,0.000000,0.000000,0.003000,0.003000,FlatFinal
05:01:44.001 PM 02/13/2016,Autonomous Enabled,0,FALSE,0,NO ERROR,0.000000,0.000000,4000.000000,4000.000000,Speed,Speed,-0.160000,1.160000,2.620000,3.000000,101.000000,1,0,-0.000000,0.000000,1,0.000000,0.000000,0.000000,0.299225,4.509171,0.000000,0.000000,0.001000,0.002000,FlatFinal
05:01:44.102 PM 02/13/2016,Autonomous Enabled,0,FALSE,0,NO ERROR,0.000000,0.000000,4000.000000,4000.000000,Speed,Speed,-0.160000,1.160000,2.610000,3.000000,103.000000,1,0,-0.000000,0.000000,1,0.000000,0.000000,0.000000,0.299225,4.509171,0.000000,-0.003000,0.000000,0.005000,FlatFinal
05:01:44.202 PM 02/13/2016,Autonomous Enabled,0,FALSE,0,NO ERROR,0.000000,0.000000,4000.000000,4000.000000,Speed,Speed,-0.170000,1.160000,2.620000,3.000000,102.000000,1,0,-0.000000,0.000000,1,0.000000,0.000000,0.000000,0.299225,4.509171,0.000000,0.000000,0.001000,0.000000,FlatFinal
05:01:44.304 PM 02/13/2016,Autonomous Enabled,0,FALSE,0,NO ERROR,0.000000,0.000000,4000.000000,4000.000000,Speed,Speed,-0.170000,1.160000,2.620000,3.000000,105.000000,1,0,-0.000000,0.000000,1,0.000000,0.000000,0.000000,0.299225,4.509171,0.000000,0.002000,-0.002000,0.000000,FlatFinal
05:01:44.404 PM 02/13/2016,Autonomous Enabled,0,FALSE,0,NO ERROR,0.000000,0.000000,4000.000000,4000.000000,Speed,Speed,-0.170000,1.170000,2.620000,3.000000,103.000000,1,0,-0.000000,0.000000,1,0.000000,0.000000,0.000000,0.299225,4.509171,0.000000,0.002000,-0.001000,0.002000,FlatFinal
05:01:44.504 PM 02/13/2016,Autonomous Enabled,0,FALSE,0,NO ERROR,0.000000,0.000000,4000.000000,4000.000000,Speed,Speed,-0.170000,1.160000,2.620000,3.000000,101.000000,1,0,-0.000000,0.000000,1,0.000000,0.000000,0.000000,0.299225,4.509171,0.000000,0.000000,0.001000,0.007000,FlatFinal
05:01:44.604 PM 02/13/2016,Autonomous Enabled,0,FALSE,0,NO ERROR,0.000000,0.000000,4000.000000,4000.000000,Speed,Speed,-0.170000,1.160000,2.620000,3.000000,103.000000,1,0,-0.000000,0.000000,1,0.000000,0.000000,0.000000,0.299225,4.509171,0.000000,0.000000,0.001000,0.003000,FlatFinal
05:01:44.705 PM 02/13/2016,Autonomous Enabled,0,FALSE,0,NO ERROR,0.000000,0.000000,4000.000000,4000.000000,Speed,Speed,-0.170000,1.160000,2.620000,3.000000,101.000000,1,0,-0.000000,0.000000,1,0.000000,0.000000,0.000000,0.299225,4.509171,0.000000,0.003000,0.000000,0.006000,FlatFinal
05:01:44.806 PM 02/13/2016,Autonomous Enabled,0,FALSE,0,NO ERROR,0.000000,0.000000,4000.000000,4000.000000,Speed,Speed,-0.170000,1.170000,2.620000,3.000000,102.000000,1,0,-0.000000,0.000000,1,0.000000,0.000000,0.000000,0.299225,4.509171,0.000000,0.000000,0.000000,0.004000,FlatFinal
05:01:44.906 PM 02/13/2016,Autonomous Enabled,0,FALSE,0,NO ERROR,0.000000,0.000000,4000.000000,4000.000000,Speed,Speed,-0.160000,1.160000,2.610000,3.000000,101.000000,1,0,-0.000000,0.000000,1,0.000000,0.000000,0.000000,0.299225,4.509171,0.000000,0.001000,0.002000,0.002000,FlatFinal
05:01:45.007 PM 02/13/2016,Autonomous Enabled,0,FALSE,0,NO ERROR,0.000000,0.000000,4000.000000,4000.000000,Speed,Speed,-0.160000,1.160000,2.620000,3.000000,101.000000,1,0,-0.000000,0.000000,1,0.000000,0.000000,0.000000,0.299225,4.509171,0.000000,0.000000,0.003000,0.001000,FlatFinal
05:01:45.106 PM 02/13/2016,Autonomous Enabled,0,FALSE,0,NO ERROR,0.000000,0.000000,4000.000000,4000.000000,Speed,Speed,-0.160000,1.160000,2.620000,3.000000,105.000000,1,0,-0.000000,0.000000,1,0.000000,0.000000,0.000000,0.299225,4.509171,0.000000,0.000000,0.001000,0.004000,FlatFinal
05:01:45.207 PM 02/13/2016,Autonomous Enabled,0,FALSE,0,NO ERROR,0.000000,0.000000,4000.000000,4000.000000,Speed,Speed,-0.160000,1.160000,2.610000,3.000000,101.000000,1,0,-0.000000,0.000000,1,0.000000,0.000000,0.000000,0.299225,4.509171,0.000000,0.000000,0.000000,0.006000,FlatFinal
05:01:45.307 PM 02/13/2016,Autonomous Enabled,0,FALSE,0,NO ERROR,0.000000,0.000000,4000.000000,4000.000000,Speed,Speed,-0.160000,1.160000,2.610000,3.000000,103.000000,1,0,-0.000000,0.000000,1,0.000000,0.000000,0.000000,0.299225,4.509171,0.000000,0.001000,0.000000,0.003000,FlatFinal
05:01:45.408 PM 02/13/2016,Autonomous Enabled,0,FALSE,0,NO ERROR,0.000000,0.000000,4000.000000,4000.000000,Speed,Speed,-0.160000,1.160000,2.610000,3.000000,102.000000,1,0,-0.000000,0.000000,1,0.000000,0.000000,0.000000,0.299225,4.509171,0.000000,0.000000,0.000000,0.003000,FlatFinal
05:01:45.509 PM 02/13/2016,Autonomous Enabled,0,FALSE,0,NO ERROR,0.000000,0.000000,4000.000000,4000.000000,Speed,Speed,-0.160000,1.160000,2.610000,3.000000,101.000000,1,0,-0.000000,0.000000,1,0.000000,0.000000,0.000000,0.299225,4.509171,0.000000,-0.004000,0.000000,0.004000,FlatFinal
05:01:45.610 PM 02/13/2016,Autonomous Enabled,0,FALSE,0,NO ERROR,0.000000,0.000000,4000.000000,4000.000000,Speed,Speed,-0.160000,1.160000,2.610000,3.000000,102.000000,1,0,-0.000000,0.000000,1,0.000000,0.000000,0.000000,0.299225,4.509171,0.000000,0.001000,0.000000,0.003000,FlatFinal
05:01:45.710 PM 02/13/2016,Autonomous Enabled,0,FALSE,0,NO ERROR,0.000000,0.000000,4000.000000,4000.000000,Speed,Speed,-0.160000,1.160000,2.610000,3.000000,101.000000,1,0,-0.000000,0.000000,1,0.000000,0.000000,0.000000,0.299225,4.509171,0.000000,0.000000,0.001000,0.009000,FlatFinal
05:01:45.810 PM 02/13/2016,Autonomous Enabled,0,FALSE,0,NO ERROR,0.000000,0.000000,4000.000000,4000.000000,Speed,Speed,-0.160000,1.170000,2.610000,3.000000,102.000000,1,0,-0.000000,0.000000,1,0.000000,0.000000,0.000000,0.299225,4.509171,0.000000,0.000000,0.000000,0.008000,FlatFinal
05:01:45.911 PM 02/13/2016,Autonomous Enabled,0,FALSE,0,NO ERROR,0.000000,0.000000,4000.000000,4000.000000,Speed,Speed,-0.170000,1.170000,2.610000,3.000000,101.000000,1,0,-0.000000,0.000000,1,0.000000,0.000000,0.000000,0.299225,4.509171,0.000000,-0.001000,0.000000,0.005000,FlatFinal
05:01:46.011 PM 02/13/2016,Autonomous Enabled,0,FALSE,0,NO ERROR,0.000000,0.000000,4000.000000,4000.000000,Speed,Speed,-0.160000,1.170000,2.610000,3.000000,102.000000,1,0,-0.000000,0.000000,1,0.000000,0.000000,0.000000,0.299225,4.509171,0.000000,0.000000,0.000000,0.004000,FlatFinal
05:01:46.112 PM 02/13/2016,Autonomous Enabled,0,FALSE,0,NO ERROR,0.000000,0.000000,4000.000000,4000.000000,Speed,Speed,-0.160000,1.170000,2.610000,3.000000,102.000000,1,0,-0.000000,0.000000,1,0.000000,0.000000,0.000000,0.299225,4.509171,0.000000,0.001000,0.000000,0.001000,FlatFinal
05:01:46.212 PM 02/13/2016,Autonomous Enabled,0,FALSE,0,NO ERROR,0.000000,0.000000,4000.000000,4000.000000,Speed,Speed,-0.160000,1.170000,2.620000,3.000000,102.000000,1,0,-0.000000,0.000000,1,0.000000,0.000000,0.000000,0.299225,4.509171,0.000000,0.000000,-0.002000,0.000000,FlatFinal
05:01:46.313 PM 02/13/2016,Autonomous Enabled,0,FALSE,0,NO ERROR,0.000000,0.000000,4000.000000,4000.000000,Speed,Speed,-0.170000,1.160000,2.610000,3.000000,101.000000,1,0,-0.000000,0.000000,1,0.000000,0.000000,0.000000,0.299225,4.509171,0.000000,0.001000,-0.001000,0.002000,FlatFinal
05:01:46.413 PM 02/13/2016,Autonomous Enabled,0,FALSE,0,NO ERROR,0.000000,0.000000,4000.000000,4000.000000,Speed,Speed,-0.160000,1.170000,2.620000,3.000000,102.000000,1,0,-0.000000,0.000000,1,0.000000,0.000000,0.000000,0.299225,4.509171,0.000000,0.001000,-0.002000,0.006000,FlatFinal
05:01:46.513 PM 02/13/2016,Autonomous Enabled,0,FALSE,0,NO ERROR,0.000000,0.000000,4000.000000,4000.000000,Speed,Speed,-0.160000,1.160000,2.610000,3.000000,102.000000,1,0,-0.000000,0.000000,1,0.000000,0.000000,0.000000,0.299225,4.509171,0.000000,0.000000,-0.002000,0.003000,FlatFinal
05:01:46.614 PM 02/13/2016,Autonomous Enabled,0,FALSE,0,NO ERROR,0.000000,0.000000,4000.000000,4000.000000,Speed,Speed,-0.160000,1.160000,2.610000,3.000000,103.000000,1,0,-0.000000,0.000000,1,0.000000,0.000000,0.000000,0.299225,4.509171,0.000000,0.000000,0.001000,0.003000,FlatFinal
05:01:46.715 PM 02/13/2016,Autonomous Enabled,0,FALSE,0,NO ERROR,0.000000,0.000000,4000.000000,4000.000000,Speed,Speed,-0.160000,1.160000,2.620000,3.000000,102.000000,1,0,-0.000000,0.000000,1,0.000000,0.000000,0.000000,0.299225,4.509171,0.000000,0.002000,-0.001000,0.001000,FlatFinal
05:01:46.815 PM 02/13/2016,Autonomous Enabled,0,FALSE,0,NO ERROR,0.000000,0.000000,4000.000000,4000.000000,Speed,Speed,-0.160000,1.170000,2.620000,3.000000,101.000000,1,0,-0.000000,0.000000,1,0.000000,0.000000,0.000000,0.299225,4.509171,0.000000,-0.001000,0.000000,0.002000,FlatFinal
05:01:46.916 PM 02/13/2016,Autonomous Enabled,0,FALSE,0,NO ERROR,0.000000,0.000000,4000.000000,4000.000000,Speed,Speed,-0.160000,1.170000,2.620000,3.000000,102.000000,1,0,-0.000000,0.000000,1,0.000000,0.000000,0.000000,0.299225,4.509171,0.000000,0.000000,0.000000,0.004000,FlatFinal
05:01:47.017 PM 02/13/2016,Autonomous Enabled,0,FALSE,0,NO ERROR,0.000000,0.000000,4000.000000,4000.000000,Speed,Speed,-0.160000,1.170000,2.620000,3.000000,102.000000,1,0,-0.000000,0.000000,1,0.000000,0.000000,0.000000,0.299225,4.509171,0.000000,-0.001000,0.002000,0.008000,FlatFinal
05:01:47.118 PM 02/13/2016,Autonomous Enabled,0,FALSE,0,NO ERROR,0.000000,0.000000,4000.000000,4000.000000,Speed,Speed,-0.160000,1.160000,2.620000,3.000000,105.000000,1,0,-0.000000,0.000000,1,0.000000,0.000000,0.000000,0.299225,4.509171,0.000000,0.000000,0.000000,0.004000,FlatFinal
05:01:47.219 PM 02/13/2016,Autonomous Enabled,0,FALSE,0,NO ERROR,0.000000,0.000000,4000.000000,4000.000000,Speed,Speed,-0.160000,1.160000,2.620000,3.000000,101.000000,1,0,-0.000000,0.000000,1,0.000000,0.000000,0.000000,0.299225,4.509171,0.000000,0.000000,0.002000,0.003000,FlatFinal
05:01:47.320 PM 02/13/2016,Autonomous Enabled,0,FALSE,0,NO ERROR,0.000000,0.000000,4000.000000,4000.000000,Speed,Speed,-0.160000,1.160000,2.620000,3.000000,102.000000,1,0,-0.000000,0.000000,1,0.000000,0.000000,0.000000,0.299225,4.509171,0.000000,0.000000,0.000000,0.001000,FlatFinal
05:01:47.420 PM 02/13/2016,Autonomous Enabled,0,FALSE,0,NO ERROR,0.000000,0.000000,4000.000000,4000.000000,Speed,Speed,-0.160000,1.160000,2.620000,3.000000,103.000000,1,0,-0.000000,0.000000,1,0.000000,0.000000,0.000000,0.299225,4.509171,0.000000,0.000000,0.001000,0.004000,FlatFinal
05:01:47.521 PM 02/13/2016,Autonomous Enabled,0,FALSE,0,NO ERROR,0.000000,0.000000,4000.000000,4000.000000,Speed,Speed,-0.160000,1.160000,2.620000,3.000000,102.000000,1,0,-0.000000,0.000000,1,0.000000,0.000000,0.000000,0.299225,4.509171,0.000000,0.000000,0.001000,0.006000,FlatFinal
05:01:47.620 PM 02/13/2016,Autonomous Enabled,0,FALSE,0,NO ERROR,0.000000,0.000000,4000.000000,4000.000000,Speed,Speed,-0.160000,1.160000,2.620000,3.000000,101.000000,1,0,-0.000000,0.000000,1,0.000000,0.000000,0.000000,0.299225,4.509171,0.000000,0.000000,-0.002000,0.010000,FlatFinal
05:01:47.720 PM 02/13/2016,Autonomous Enabled,0,FALSE,0,NO ERROR,0.000000,0.000000,4000.000000,4000.000000,Speed,Speed,-0.160000,1.160000,2.620000,3.000000,102.000000,1,0,-0.000000,0.000000,1,0.000000,0.000000,0.000000,0.299225,4.509171,0.000000,-0.003000,0.001000,0.001000,FlatFinal
05:01:47.821 PM 02/13/2016,Autonomous Enabled,0,FALSE,0,NO ERROR,0.000000,0.000000,4000.000000,4000.000000,Speed,Speed,-0.160000,1.160000,2.620000,3.000000,103.000000,1,0,-0.000000,0.000000,1,0.000000,0.000000,0.000000,0.299225,4.509171,0.000000,-0.001000,0.000000,0.002000,FlatFinal
05:01:47.922 PM 02/13/2016,Autonomous Enabled,0,FALSE,0,NO ERROR,0.000000,0.000000,4000.000000,4000.000000,Speed,Speed,-0.170000,1.150000,2.620000,3.000000,101.000000,1,0,-0.000000,0.000000,1,0.000000,0.000000,0.000000,0.299225,4.509171,0.000000,0.002000,0.000000,0.003000,FlatFinal
05:01:48.021 PM 02/13/2016,Autonomous Enabled,0,FALSE,0,NO ERROR,0.000000,0.000000,4000.000000,4000.000000,Speed,Speed,-0.170000,1.160000,2.610000,3.000000,107.000000,1,0,-0.000000,0.000000,1,0.000000,0.000000,0.000000,0.299225,4.509171,0.000000,0.001000,0.001000,0.007000,FlatFinal
05:01:48.123 PM 02/13/2016,Autonomous Enabled,0,FALSE,0,NO ERROR,0.000000,0.000000,4000.000000,4000.000000,Speed,Speed,-0.170000,1.160000,2.610000,3.000000,105.000000,1,0,-0.000000,0.000000,1,0.000000,0.000000,0.000000,0.299225,4.509171,0.000000,0.000000,0.002000,0.006000,FlatFinal
05:01:48.223 PM 02/13/2016,Autonomous Enabled,0,FALSE,0,NO ERROR,0.000000,0.000000,4000.000000,4000.000000,Speed,Speed,-0.170000,1.160000,2.610000,3.000000,101.000000,1,0,-0.000000,0.000000,1,0.000000,0.000000,0.000000,0.299225,4.509171,0.000000,0.001000,0.002000,0.004000,FlatFinal
05:01:48.324 PM 02/13/2016,Autonomous Enabled,0,FALSE,0,NO ERROR,0.000000,0.000000,4000.000000,4000.000000,Speed,Speed,-0.170000,1.160000,2.620000,3.000000,101.000000,1,0,-0.000000,0.000000,1,0.000000,0.000000,0.000000,0.299225,4.509171,0.000000,0.000000,0.000000,0.009000,FlatFinal
05:01:48.424 PM 02/13/2016,Autonomous Enabled,0,FALSE,0,NO ERROR,0.000000,0.000000,4000.000000,4000.000000,Speed,Speed,-0.170000,1.160000,2.620000,3.000000,102.000000,1,0,-0.000000,0.000000,1,0.000000,0.000000,0.000000,0.299225,4.509171,0.000000,0.000000,0.001000,0.001000,FlatFinal
05:01:48.523 PM 02/13/2016,Autonomous Enabled,0,FALSE,0,NO ERROR,0.000000,0.000000,4000.000000,4000.000000,Speed,Speed,-0.180000,1.160000,2.620000,3.000000,104.000000,1,0,-0.000000,0.000000,1,0.000000,0.000000,0.000000,0.299225,4.509171,0.000000,0.000000,0.001000,0.005000,FlatFinal
05:01:48.624 PM 02/13/2016,Autonomous Enabled,0,FALSE,0,NO ERROR,0.000000,0.000000,4000.000000,4000.000000,Speed,Speed,-0.180000,1.170000,2.620000,3.000000,103.000000,1,0,-0.000000,0.000000,1,0.000000,0.000000,0.000000,0.299225,4.509171,0.000000,0.001000,0.000000,0.006000,FlatFinal
05:01:48.724 PM 02/13/2016,Autonomous Enabled,0,FALSE,0,NO ERROR,0.000000,0.000000,4000.000000,4000.000000,Speed,Speed,-0.180000,1.170000,2.620000,3.000000,104.000000,1,0,-0.000000,0.000000,1,0.000000,0.000000,0.000000,0.299225,4.509171,0.000000,0.000000,-0.002000,0.001000,FlatFinal
05:01:48.825 PM 02/13/2016,Autonomous Enabled,0,FALSE,0,NO ERROR,0.000000,0.000000,4000.000000,4000.000000,Speed,Speed,-0.180000,1.170000,2.620000,3.000000,106.000000,1,0,-0.000000,0.000000,1,0.000000,0.000000,0.000000,0.299225,4.509171,0.000000,0.000000,-0.001000,0.009000,FlatFinal
05:01:48.926 PM 02/13/2016,Autonomous Enabled,0,FALSE,0,NO ERROR,0.000000,0.000000,4000.000000,4000.000000,Speed,Speed,-0.180000,1.170000,2.620000,3.000000,101.000000,1,0,-0.000000,0.000000,1,0.000000,0.000000,0.000000,0.299225,4.509171,0.000000,0.000000,0.001000,0.000000,FlatFinal
05:01:49.027 PM 02/13/2016,Autonomous Enabled,0,FALSE,0,NO ERROR,0.000000,0.000000,4000.000000,4000.000000,Speed,Speed,-0.180000,1.160000,2.620000,3.000000,101.000000,1,0,-0.000000,0.000000,1,0.000000,0.000000,0.000000,0.299225,4.509171,0.000000,0.001000,-0.002000,0.005000,FlatFinal
05:01:49.127 PM 02/13/2016,Autonomous Enabled,0,FALSE,0,NO ERROR,0.000000,0.000000,4000.000000,4000.000000,Speed,Speed,-0.180000,1.160000,2.620000,3.000000,101.000000,1,0,-0.000000,0.000000,1,0.000000,0.000000,0.000000,0.299225,4.509171,0.000000,0.000000,-0.001000,0.005000,FlatFinal
05:01:49.228 PM 02/13/2016,Autonomous Enabled,0,FALSE,0,NO ERROR,0.000000,0.000000,4000.000000,4000.000000,Speed,Speed,-0.180000,1.160000,2.620000,3.000000,101.000000,1,0,-0.000000,0.000000,1,0.000000,0.000000,0.000000,0.299225,4.509171,0.000000,0.002000,0.001000,0.006000,FlatFinal
05:01:49.328 PM 02/13/2016,Autonomous Enabled,0,FALSE,0,NO ERROR,0.000000,0.000000,4000.000000,4000.000000,Speed,Speed,-0.180000,1.160000,2.630000,3.000000,103.000000,1,0,-0.000000,0.000000,1,0.000000,0.000000,0.000000,0.299225,4.509171,0.000000,0.000000,-0.001000,0.006000,FlatFinal
05:01:49.429 PM 02/13/2016,Autonomous Enabled,0,FALSE,0,NO ERROR,0.000000,0.000000,4000.000000,4000.000000,Speed,Speed,-0.190000,1.160000,2.630000,3.000000,109.000000,1,0,-0.000000,0.000000,1,0.000000,0.000000,0.000000,0.299225,4.509171,0.000000,0.001000,-0.002000,0.003000,FlatFinal
05:01:49.529 PM 02/13/2016,Autonomous Enabled,0,FALSE,0,NO ERROR,0.000000,0.000000,4000.000000,4000.000000,Speed,Speed,-0.190000,1.170000,2.620000,3.000000,102.000000,1,0,-0.000000,0.000000,1,0.000000,0.000000,0.000000,0.299225,4.509171,0.000000,0.000000,0.000000,0.009000,FlatFinal
05:01:49.629 PM 02/13/2016,Autonomous Enabled,0,FALSE,0,NO ERROR,0.000000,0.000000,4000.000000,4000.000000,Speed,Speed,-0.190000,1.160000,2.630000,3.000000,102.000000,1,0,-0.000000,0.000000,1,0.000000,0.000000,0.000000,0.299225,4.509171,0.000000,0.000000,0.000000,0.013000,FlatFinal
05:01:49.730 PM 02/13/2016,Autonomous Enabled,0,FALSE,0,NO ERROR,0.000000,0.000000,4000.000000,4000.000000,Speed,Speed,-0.190000,1.160000,2.630000,3.000000,101.000000,1,0,-0.000000,0.000000,1,0.000000,0.000000,0.000000,0.299225,4.509171,0.000000,0.000000,-0.002000,0.005000,FlatFinal
05:01:49.831 PM 02/13/2016,Autonomous Enabled,0,FALSE,0,NO ERROR,0.000000,0.000000,4000.000000,4000.000000,Speed,Speed,-0.190000,1.160000,2.630000,3.000000,101.000000,1,0,-0.000000,0.000000,1,0.000000,0.000000,0.000000,0.299225,4.509171,0.000000,0.000000,0.000000,0.007000,FlatFinal
05:01:49.931 PM 02/13/2016,Autonomous Enabled,0,FALSE,0,NO ERROR,0.000000,0.000000,4000.000000,4000.000000,Speed,Speed,-0.190000,1.170000,2.620000,3.000000,102.000000,1,0,-0.000000,0.000000,1,0.000000,0.000000,0.000000,0.299225,4.509171,0.000000,-0.001000,0.000000,0.005000,FlatFinal
05:01:50.031 PM 02/13/2016,Autonomous Enabled,0,FALSE,0,NO ERROR,0.000000,0.000000,4000.000000,4000.000000,Speed,Speed,-0.200000,1.160000,2.620000,3.000000,102.000000,1,0,-0.000000,0.000000,1,0.000000,0.000000,0.000000,0.299225,4.509171,0.000000,-0.001000,0.000000,-0.001000,FlatFinal
05:01:50.131 PM 02/13/2016,Autonomous Enabled,0,FALSE,0,NO ERROR,0.000000,0.000000,4000.000000,4000.000000,Speed,Speed,-0.200000,1.170000,2.620000,3.000000,102.000000,1,0,-0.000000,0.000000,1,0.000000,0.000000,0.000000,0.299225,4.509171,0.000000,0.000000,0.000000,-0.001000,FlatFinal
05:01:50.232 PM 02/13/2016,Autonomous Enabled,0,FALSE,0,NO ERROR,0.000000,0.000000,4000.000000,4000.000000,Speed,Speed,-0.200000,1.170000,2.620000,3.000000,102.000000,1,0,-0.000000,0.000000,1,0.000000,0.000000,0.000000,0.299225,4.509171,0.000000,-0.002000,0.000000,0.002000,FlatFinal
05:01:50.334 PM 02/13/2016,Autonomous Enabled,0,FALSE,0,NO ERROR,0.000000,0.000000,4000.000000,4000.000000,Speed,Speed,-0.200000,1.170000,2.630000,3.000000,104.000000,1,0,-0.000000,0.000000,1,0.000000,0.000000,0.000000,0.299225,4.509171,0.000000,0.000000,0.000000,0.007000,FlatFinal
05:01:50.434 PM 02/13/2016,Autonomous Enabled,0,FALSE,0,NO ERROR,0.000000,0.000000,4000.000000,4000.000000,Speed,Speed,-0.200000,1.170000,2.620000,3.000000,101.000000,1,0,-0.000000,0.000000,1,0.000000,0.000000,0.000000,0.299225,4.509171,0.000000,-0.001000,0.000000,0.004000,FlatFinal
05:01:50.535 PM 02/13/2016,Autonomous Enabled,0,FALSE,0,NO ERROR,0.000000,0.000000,4000.000000,4000.000000,Speed,Speed,-0.200000,1.170000,2.620000,3.000000,102.000000,1,0,-0.000000,0.000000,1,0.000000,0.000000,0.000000,0.299225,4.509171,0.000000,-0.001000,0.000000,0.005000,FlatFinal
05:01:50.637 PM 02/13/2016,Autonomous Enabled,0,FALSE,0,NO ERROR,0.000000,0.000000,4000.000000,4000.000000,Speed,Speed,-0.200000,1.170000,2.630000,3.000000,102.000000,1,0,-0.000000,0.000000,1,0.000000,0.000000,0.000000,0.299225,4.509171,0.000000,0.000000,0.001000,0.004000,FlatFinal
05:01:50.736 PM 02/13/2016,Autonomous Enabled,0,FALSE,0,NO ERROR,0.000000,0.000000,4000.000000,4000.000000,Speed,Speed,-0.190000,1.170000,2.620000,3.000000,102.000000,1,0,-0.000000,0.000000,1,0.000000,0.000000,0.000000,0.299225,4.509171,0.000000,0.000000,0.000000,0.003000,FlatFinal
05:01:50.836 PM 02/13/2016,Autonomous Enabled,0,FALSE,0,NO ERROR,0.000000,0.000000,4000.000000,4000.000000,Speed,Speed,-0.200000,1.170000,2.620000,3.000000,101.000000,1,0,-0.000000,0.000000,1,0.000000,0.000000,0.000000,0.299225,4.509171,0.000000,0.000000,0.001000,0.002000,FlatFinal
05:01:50.938 PM 02/13/2016,Autonomous Enabled,0,FALSE,0,NO ERROR,0.000000,0.000000,4000.000000,4000.000000,Speed,Speed,-0.200000,1.170000,2.620000,3.000000,101.000000,1,0,-0.000000,0.000000,1,0.000000,0.000000,0.000000,0.299225,4.509171,0.000000,0.002000,0.000000,0.000000,FlatFinal
05:01:51.039 PM 02/13/2016,Autonomous Enabled,0,FALSE,0,NO ERROR,0.000000,0.000000,4000.000000,4000.000000,Speed,Speed,-0.200000,1.170000,2.620000,3.000000,106.000000,1,0,-0.000000,0.000000,1,0.000000,0.000000,0.000000,0.299225,4.509171,0.000000,0.000000,-0.001000,0.005000,FlatFinal
05:01:51.139 PM 02/13/2016,Autonomous Enabled,0,FALSE,0,NO ERROR,0.000000,0.000000,4000.000000,4000.000000,Speed,Speed,-0.200000,1.170000,2.620000,3.000000,102.000000,1,0,-0.000000,0.000000,1,0.000000,0.000000,0.000000,0.299225,4.509171,0.000000,0.001000,-0.001000,0.002000,FlatFinal
05:01:51.239 PM 02/13/2016,Autonomous Enabled,0,FALSE,0,NO ERROR,0.000000,0.000000,4000.000000,4000.000000,Speed,Speed,-0.200000,1.170000,2.630000,3.000000,103.000000,1,0,-0.000000,0.000000,1,0.000000,0.000000,0.000000,0.299225,4.509171,0.000000,-0.001000,0.000000,0.004000,FlatFinal
05:01:51.342 PM 02/13/2016,Autonomous Enabled,0,FALSE,0,NO ERROR,0.000000,0.000000,4000.000000,4000.000000,Speed,Speed,-0.200000,1.180000,2.620000,3.000000,101.000000,1,0,-0.000000,0.000000,1,0.000000,0.000000,0.000000,0.299225,4.509171,0.000000,-0.001000,0.000000,0.003000,FlatFinal
05:01:51.442 PM 02/13/2016,Autonomous Enabled,0,FALSE,0,NO ERROR,0.000000,0.000000,4000.000000,4000.000000,Speed,Speed,-0.200000,1.180000,2.620000,3.000000,101.000000,1,0,-0.000000,0.000000,1,0.000000,0.000000,0.000000,0.299225,4.509171,0.000000,0.001000,0.002000,0.006000,FlatFinal
05:01:51.543 PM 02/13/2016,Autonomous Enabled,0,FALSE,0,NO ERROR,0.000000,0.000000,4000.000000,4000.000000,Speed,Speed,-0.200000,1.170000,2.630000,3.000000,103.000000,1,0,-0.000000,0.000000,1,0.000000,0.000000,0.000000,0.299225,4.509171,0.000000,0.000000,0.000000,0.007000,FlatFinal
05:01:51.642 PM 02/13/2016,Autonomous Enabled,0,FALSE,0,NO ERROR,0.000000,0.000000,4000.000000,4000.000000,Speed,Speed,-0.200000,1.170000,2.630000,3.000000,101.000000,1,0,-0.000000,0.000000,1,0.000000,0.000000,0.000000,0.299225,4.509171,0.000000,0.003000,-0.002000,0.008000,FlatFinal
05:01:51.743 PM 02/13/2016,Autonomous Enabled,0,FALSE,0,NO ERROR,0.000000,0.000000,4000.000000,4000.000000,Speed,Speed,-0.200000,1.170000,2.630000,3.000000,101.000000,1,0,-0.000000,0.000000,1,0.000000,0.000000,0.000000,0.299225,4.509171,0.000000,0.000000,0.001000,0.004000,FlatFinal
05:01:51.844 PM 02/13/2016,Autonomous Enabled,0,FALSE,0,NO ERROR,0.000000,0.000000,4000.000000,4000.000000,Speed,Speed,-0.200000,1.170000,2.630000,3.000000,105.000000,1,0,-0.000000,0.000000,1,0.000000,0.000000,0.000000,0.299225,4.509171,0.000000,0.001000,0.000000,0.005000,FlatFinal
05:01:51.944 PM 02/13/2016,Autonomous Enabled,0,FALSE,0,NO ERROR,0.000000,0.000000,4000.000000,4000.000000,Speed,Speed,-0.200000,1.170000,2.630000,3.000000,103.000000,1,0,-0.000000,0.000000,1,0.000000,0.000000,0.000000,0.299225,4.509171,0.000000,0.001000,-0.001000,0.006000,FlatFinal
05:01:52.044 PM 02/13/2016,Autonomous Enabled,0,FALSE,0,NO ERROR,0.000000,0.000000,4000.000000,4000.000000,Speed,Speed,-0.200000,1.170000,2.630000,3.000000,104.000000,1,0,-0.000000,0.000000,1,0.000000,0.000000,0.000000,0.299225,4.509171,0.000000,0.001000,0.000000,0.007000,FlatFinal
05:01:52.146 PM 02/13/2016,Autonomous Enabled,0,FALSE,0,NO ERROR,0.000000,0.000000,4000.000000,4000.000000,Speed,Speed,-0.200000,1.170000,2.630000,3.000000,102.000000,1,0,-0.000000,0.000000,1,0.000000,0.000000,0.000000,0.299225,4.509171,0.000000,0.000000,0.000000,0.001000,FlatFinal
05:01:52.246 PM 02/13/2016,Autonomous Enabled,0,FALSE,0,NO ERROR,0.000000,0.000000,4000.000000,4000.000000,Speed,Speed,-0.210000,1.170000,2.620000,3.000000,103.000000,1,0,-0.000000,0.000000,1,0.000000,0.000000,0.000000,0.299225,4.509171,0.000000,0.002000,-0.001000,0.008000,FlatFinal
05:01:52.347 PM 02/13/2016,Autonomous Enabled,0,FALSE,0,NO ERROR,0.000000,0.000000,4000.000000,4000.000000,Speed,Speed,-0.210000,1.170000,2.630000,3.000000,102.000000,1,0,-0.000000,0.000000,1,0.000000,0.000000,0.000000,0.299225,4.509171,0.000000,0.000000,-0.002000,0.005000,FlatFinal
05:01:52.447 PM 02/13/2016,Autonomous Enabled,0,FALSE,0,NO ERROR,0.000000,0.000000,4000.000000,4000.000000,Speed,Speed,-0.210000,1.170000,2.620000,3.000000,101.000000,1,0,-0.000000,0.000000,1,0.000000,0.000000,0.000000,0.299225,4.509171,0.000000,-0.002000,0.000000,0.004000,FlatFinal
05:01:52.547 PM 02/13/2016,Autonomous Enabled,0,FALSE,0,NO ERROR,0.000000,0.000000,4000.000000,4000.000000,Speed,Speed,-0.210000,1.170000,2.620000,3.000000,104.000000,1,0,-0.000000,0.000000,1,0.000000,0.000000,0.000000,0.299225,4.509171,0.000000,0.000000,0.000000,0.003000,FlatFinal
05:01:52.648 PM 02/13/2016,Autonomous Enabled,0,FALSE,0,NO ERROR,0.000000,0.000000,4000.000000,4000.000000,Speed,Speed,-0.210000,1.160000,2.630000,3.000000,100.000000,1,0,-0.000000,0.000000,1,0.000000,0.000000,0.000000,0.299225,4.509171,0.000000,-0.001000,0.001000,0.004000,FlatFinal
05:01:52.748 PM 02/13/2016,Autonomous Enabled,0,FALSE,0,NO ERROR,0.000000,0.000000,4000.000000,4000.000000,Speed,Speed,-0.200000,1.170000,2.620000,3.000000,102.000000,1,0,-0.000000,0.000000,1,0.000000,0.000000,0.000000,0.299225,4.509171,0.000000,-0.001000,0.001000,0.004000,FlatFinal
05:01:52.849 PM 02/13/2016,Autonomous Enabled,0,FALSE,0,NO ERROR,0.000000,0.000000,4000.000000,4000.000000,Speed,Speed,-0.210000,1.170000,2.620000,3.000000,101.000000,1,0,-0.000000,0.000000,1,0.000000,0.000000,0.000000,0.299225,4.509171,0.000000,0.000000,-0.004000,0.006000,FlatFinal
05:01:52.950 PM 02/13/2016,Autonomous Enabled,0,FALSE,0,NO ERROR,0.000000,0.000000,4000.000000,4000.000000,Speed,Speed,-0.210000,1.170000,2.630000,3.000000,101.000000,1,0,-0.000000,0.000000,1,0.000000,0.000000,0.000000,0.299225,4.509171,0.000000,-0.001000,0.000000,0.007000,FlatFinal
05:01:53.050 PM 02/13/2016,Autonomous Enabled,0,FALSE,0,NO ERROR,0.000000,0.000000,4000.000000,4000.000000,Speed,Speed,-0.210000,1.160000,2.630000,3.000000,102.000000,1,0,-0.000000,0.000000,1,0.000000,0.000000,0.000000,0.299225,4.509171,0.000000,-0.001000,0.000000,0.004000,FlatFinal
05:01:53.151 PM 02/13/2016,Autonomous Enabled,0,FALSE,0,NO ERROR,0.000000,0.000000,4000.000000,4000.000000,Speed,Speed,-0.210000,1.160000,2.630000,3.000000,101.000000,1,0,-0.000000,0.000000,1,0.000000,0.000000,0.000000,0.299225,4.509171,0.000000,0.000000,0.001000,0.003000,FlatFinal
05:01:53.252 PM 02/13/2016,Autonomous Enabled,0,FALSE,0,NO ERROR,0.000000,0.000000,4000.000000,4000.000000,Speed,Speed,-0.210000,1.170000,2.640000,3.000000,105.000000,1,0,-0.000000,0.000000,1,0.000000,0.000000,0.000000,0.299225,4.509171,0.000000,0.001000,-0.001000,0.005000,FlatFinal
05:01:53.352 PM 02/13/2016,Autonomous Enabled,0,FALSE,0,NO ERROR,0.000000,0.000000,4000.000000,4000.000000,Speed,Speed,-0.210000,1.170000,2.630000,3.000000,104.000000,1,0,-0.000000,0.000000,1,0.000000,0.000000,0.000000,0.299225,4.509171,0.000000,-0.001000,0.000000,0.004000,FlatFinal
05:01:53.452 PM 02/13/2016,Autonomous Enabled,0,FALSE,0,NO ERROR,0.000000,0.000000,4000.000000,4000.000000,Speed,Speed,-0.210000,1.170000,2.630000,3.000000,104.000000,1,0,-0.000000,0.000000,1,0.000000,0.000000,0.000000,0.299225,4.509171,0.000000,0.002000,0.000000,0.006000,FlatFinal
05:01:53.552 PM 02/13/2016,Autonomous Enabled,0,FALSE,0,NO ERROR,0.000000,0.000000,4000.000000,4000.000000,Speed,Speed,-0.210000,1.170000,2.630000,3.000000,101.000000,1,0,-0.000000,0.000000,1,0.000000,0.000000,0.000000,0.299225,4.509171,0.000000,0.000000,0.002000,0.001000,FlatFinal
05:01:53.652 PM 02/13/2016,Autonomous Enabled,0,FALSE,0,NO ERROR,0.000000,0.000000,4000.000000,4000.000000,Speed,Speed,-0.210000,1.170000,2.630000,3.000000,105.000000,1,0,-0.000000,0.000000,1,0.000000,0.000000,0.000000,0.299225,4.509171,0.000000,-0.001000,0.000000,0.007000,FlatFinal
05:01:53.752 PM 02/13/2016,Autonomous Enabled,0,FALSE,0,NO ERROR,0.000000,0.000000,4000.000000,4000.000000,Speed,Speed,-0.210000,1.180000,2.630000,3.000000,106.000000,1,0,-0.000000,0.000000,1,0.000000,0.000000,0.000000,0.299225,4.509171,0.000000,-0.002000,0.000000,0.000000,FlatFinal
05:01:53.853 PM 02/13/2016,Autonomous Enabled,0,FALSE,0,NO ERROR,0.000000,0.000000,4000.000000,4000.000000,Speed,Speed,-0.210000,1.180000,2.630000,3.000000,102.000000,1,0,-0.000000,0.000000,1,0.000000,0.000000,0.000000,0.299225,4.509171,0.000000,0.000000,0.001000,0.001000,FlatFinal
05:01:53.952 PM 02/13/2016,Autonomous Enabled,0,FALSE,0,NO ERROR,0.000000,0.000000,4000.000000,4000.000000,Speed,Speed,-0.210000,1.180000,2.640000,3.000000,103.000000,1,0,-0.000000,0.000000,1,0.000000,0.000000,0.000000,0.299225,4.509171,0.000000,0.000000,-0.002000,0.009000,FlatFinal
05:01:54.052 PM 02/13/2016,Autonomous Enabled,0,FALSE,0,NO ERROR,0.000000,0.000000,4000.000000,4000.000000,Speed,Speed,-0.210000,1.180000,2.640000,3.000000,101.000000,1,0,-0.000000,0.000000,1,0.000000,0.000000,0.000000,0.299225,4.509171,0.000000,0.000000,0.001000,0.003000,FlatFinal
05:01:54.153 PM 02/13/2016,Autonomous Enabled,0,FALSE,0,NO ERROR,0.000000,0.000000,4000.000000,4000.000000,Speed,Speed,-0.210000,1.170000,2.630000,3.000000,102.000000,1,0,-0.000000,0.000000,1,0.000000,0.000000,0.000000,0.299225,4.509171,0.000000,0.002000,-0.002000,0.006000,FlatFinal
05:01:54.254 PM 02/13/2016,Autonomous Enabled,0,FALSE,0,NO ERROR,0.000000,0.000000,4000.000000,4000.000000,Speed,Speed,-0.210000,1.170000,2.640000,3.000000,102.000000,1,0,-0.000000,0.000000,1,0.000000,0.000000,0.000000,0.299225,4.509171,0.000000,0.001000,-0.001000,0.007000,FlatFinal
05:01:54.354 PM 02/13/2016,Autonomous Enabled,0,FALSE,0,NO ERROR,0.000000,0.000000,4000.000000,4000.000000,Speed,Speed,-0.210000,1.170000,2.630000,3.000000,104.000000,1,0,-0.000000,0.000000,1,0.000000,0.000000,0.000000,0.299225,4.509171,0.000000,-0.002000,0.000000,0.006000,FlatFinal
05:01:54.456 PM 02/13/2016,Autonomous Enabled,0,FALSE,0,NO ERROR,0.000000,0.000000,4000.000000,4000.000000,Speed,Speed,-0.210000,1.170000,2.630000,3.000000,102.000000,1,0,-0.000000,0.000000,1,0.000000,0.000000,0.000000,0.299225,4.509171,0.000000,0.000000,-0.003000,0.006000,FlatFinal
05:01:54.556 PM 02/13/2016,Autonomous Enabled,0,FALSE,0,NO ERROR,0.000000,0.000000,4000.000000,4000.000000,Speed,Speed,-0.210000,1.170000,2.630000,3.000000,102.000000,1,0,-0.000000,0.000000,1,0.000000,0.000000,0.000000,0.299225,4.509171,0.000000,-0.001000,-0.002000,0.004000,FlatFinal
05:01:54.656 PM 02/13/2016,Autonomous Enabled,0,FALSE,0,NO ERROR,0.000000,0.000000,4000.000000,4000.000000,Speed,Speed,-0.210000,1.160000,2.630000,3.000000,102.000000,1,0,-0.000000,0.000000,1,0.000000,0.000000,0.000000,0.299225,4.509171,0.000000,0.002000,0.000000,0.009000,FlatFinal
05:01:54.758 PM 02/13/2016,Autonomous Enabled,0,FALSE,0,NO ERROR,0.000000,0.000000,4000.000000,4000.000000,Speed,Speed,-0.210000,1.170000,2.630000,3.000000,103.000000,1,0,-0.000000,0.000000,1,0.000000,0.000000,0.000000,0.299225,4.509171,0.000000,0.003000,-0.003000,0.003000,FlatFinal
05:01:54.859 PM 02/13/2016,Autonomous Enabled,0,FALSE,0,NO ERROR,0.000000,0.000000,4000.000000,4000.000000,Speed,Speed,-0.220000,1.170000,2.620000,3.000000,101.000000,1,0,-0.000000,0.000000,1,0.000000,0.000000,0.000000,0.299225,4.509171,0.000000,-0.004000,0.000000,0.007000,FlatFinal
05:01:54.958 PM 02/13/2016,Autonomous Enabled,0,FALSE,0,NO ERROR,0.000000,0.000000,4000.000000,4000.000000,Speed,Speed,-0.220000,1.160000,2.630000,3.000000,101.000000,1,0,-0.000000,0.000000,1,0.000000,0.000000,0.000000,0.299225,4.509171,0.000000,0.002000,0.000000,0.003000,FlatFinal
