Time,RobotMode,AutoToRun,ErrorStatus, ErrorCode,ErrorSource,ActualRPM1,ActualRPM2,DesiredRPM1,DesiredRPM2,ControlMode1,ControlMode2,NavXYaw,NavXRoll,NavXPitch,ShooterState,LoopTime,IsLevel,IsAutoTargeting,LeftMotorOutput,RightMotorOutput,IsHaloDrive,NavXVelocityX,NavXVelocityY,NavXVelocityZ,NavXDisplacementX,NavXDisplacementY,NavXDisplacementZ,NavXAccelerationX,NavXAccelerationY,NavXAccelerationZ,AutoDefendState
10:59:32.240 AM 02/13/2016,Autonomous Disabled,0,TRUE,-44087,NetComm_CAN_Receive.vi:5470006<APPEND>  <b>Complete call chain:</b>      NetComm_CAN_Receive.vi:5470006      WPI_CANTalonSRX_Receive.vi      WPI_MotorControlOpenCANTalonSRX.vi      Begin.vi      Robot Main.vi,0.000000,0.000000,9000.000000,9000.000000,Speed,Speed,-0.790000,1.130000,3.030000,4.000000,101.000000,1,0,-0.003038,-0.005022,0,0.000000,0.000000,0.000000,-1.462784,-0.791504,0.000000,0.000000,-0.003000,0.001000,FlatInitial
10:59:32.339 AM 02/13/2016,Teleop Disabled,0,TRUE,-44087,NetComm_CAN_Receive.vi:5470006<APPEND>  <b>Complete call chain:</b>      NetComm_CAN_Receive.vi:5470006      WPI_CANTalonSRX_Receive.vi      WPI_MotorControlOpenCANTalonSRX.vi      Begin.vi      Robot Main.vi,0.000000,0.000000,0.000000,0.000000,Speed,Speed,-0.790000,1.130000,3.030000,0.000000,4516745.000000,1,0,-0.003038,-0.005022,0,0.000000,0.000000,0.000000,-1.462784,-0.791504,0.000000,0.000000,-0.003000,0.001000,FlatInitial
10:59:32.439 AM 02/13/2016,Teleop Enabled,0,TRUE,-44087,NetComm_CAN_Receive.vi:5470006<APPEND>  <b>Complete call chain:</b>      NetComm_CAN_Receive.vi:5470006      WPI_CANTalonSRX_Receive.vi      WPI_MotorControlOpenCANTalonSRX.vi      Begin.vi      Robot Main.vi,0.000000,0.000000,0.000000,0.000000,Speed,Speed,-0.790000,1.130000,3.030000,0.000000,101.000000,1,0,-0.003038,-0.005022,0,0.000000,0.000000,0.000000,-1.462784,-0.791504,0.000000,0.000000,-0.003000,0.001000,FlatInitial
10:59:32.540 AM 02/13/2016,Teleop Enabled,0,TRUE,-44087,NetComm_CAN_Receive.vi:5470006<APPEND>  <b>Complete call chain:</b>      NetComm_CAN_Receive.vi:5470006      WPI_CANTalonSRX_Receive.vi      WPI_MotorControlOpenCANTalonSRX.vi      Begin.vi      Robot Main.vi,0.000000,0.000000,0.000000,0.000000,Speed,Speed,-0.790000,1.130000,3.030000,0.000000,102.000000,1,0,-0.003038,-0.005022,0,0.000000,0.000000,0.000000,-1.462784,-0.791504,0.000000,0.000000,-0.003000,0.001000,FlatInitial
10:59:32.640 AM 02/13/2016,Teleop Enabled,0,TRUE,-44087,NetComm_CAN_Receive.vi:5470006<APPEND>  <b>Complete call chain:</b>      NetComm_CAN_Receive.vi:5470006      WPI_CANTalonSRX_Receive.vi      WPI_MotorControlOpenCANTalonSRX.vi      Begin.vi      Robot Main.vi,0.000000,0.000000,0.000000,0.000000,Speed,Speed,-0.790000,1.130000,3.030000,0.000000,101.000000,1,0,-0.003038,-0.005022,0,0.000000,0.000000,0.000000,-1.462784,-0.791504,0.000000,0.000000,-0.003000,0.001000,FlatInitial
10:59:32.741 AM 02/13/2016,Teleop Enabled,0,TRUE,-44087,NetComm_CAN_Receive.vi:5470006<APPEND>  <b>Complete call chain:</b>      NetComm_CAN_Receive.vi:5470006      WPI_CANTalonSRX_Receive.vi      WPI_MotorControlOpenCANTalonSRX.vi      Begin.vi      Robot Main.vi,0.000000,0.000000,0.000000,0.000000,Speed,Speed,-0.790000,1.130000,3.030000,0.000000,101.000000,1,0,-0.003038,-0.005022,0,0.000000,0.000000,0.000000,-1.462784,-0.791504,0.000000,0.000000,-0.003000,0.001000,FlatInitial
10:59:32.841 AM 02/13/2016,Teleop Enabled,0,TRUE,-44087,NetComm_CAN_Receive.vi:5470006<APPEND>  <b>Complete call chain:</b>      NetComm_CAN_Receive.vi:5470006      WPI_CANTalonSRX_Receive.vi      WPI_MotorControlOpenCANTalonSRX.vi      Begin.vi      Robot Main.vi,0.000000,0.000000,0.000000,0.000000,Speed,Speed,-0.790000,1.130000,3.030000,0.000000,102.000000,1,0,-0.003038,-0.005022,0,0.000000,0.000000,0.000000,-1.462784,-0.791504,0.000000,0.000000,-0.003000,0.001000,FlatInitial
10:59:32.942 AM 02/13/2016,Teleop Enabled,0,TRUE,-44087,NetComm_CAN_Receive.vi:5470006<APPEND>  <b>Complete call chain:</b>      NetComm_CAN_Receive.vi:5470006      WPI_CANTalonSRX_Receive.vi      WPI_MotorControlOpenCANTalonSRX.vi      Begin.vi      Robot Main.vi,0.000000,0.000000,0.000000,0.000000,Speed,Speed,-0.790000,1.130000,3.030000,0.000000,101.000000,1,0,-0.003038,-0.005022,0,0.000000,0.000000,0.000000,-1.462784,-0.791504,0.000000,0.000000,-0.003000,0.001000,FlatInitial
10:59:33.043 AM 02/13/2016,Teleop Enabled,0,TRUE,-44087,NetComm_CAN_Receive.vi:5470006<APPEND>  <b>Complete call chain:</b>      NetComm_CAN_Receive.vi:5470006      WPI_CANTalonSRX_Receive.vi      WPI_MotorControlOpenCANTalonSRX.vi      Begin.vi      Robot Main.vi,0.000000,0.000000,0.000000,0.000000,Speed,Speed,-0.790000,1.130000,3.030000,0.000000,101.000000,1,0,-0.003038,-0.005022,0,0.000000,0.000000,0.000000,-1.462784,-0.791504,0.000000,0.000000,-0.003000,0.001000,FlatInitial
10:59:33.144 AM 02/13/2016,Teleop Enabled,0,TRUE,-44087,NetComm_CAN_Receive.vi:5470006<APPEND>  <b>Complete call chain:</b>      NetComm_CAN_Receive.vi:5470006      WPI_CANTalonSRX_Receive.vi      WPI_MotorControlOpenCANTalonSRX.vi      Begin.vi      Robot Main.vi,0.000000,0.000000,0.000000,0.000000,Speed,Speed,-0.790000,1.130000,3.030000,0.000000,101.000000,1,0,-0.003038,-0.005022,0,0.000000,0.000000,0.000000,-1.462784,-0.791504,0.000000,0.000000,-0.003000,0.001000,FlatInitial
10:59:33.244 AM 02/13/2016,Teleop Enabled,0,TRUE,-44087,NetComm_CAN_Receive.vi:5470006<APPEND>  <b>Complete call chain:</b>      NetComm_CAN_Receive.vi:5470006      WPI_CANTalonSRX_Receive.vi      WPI_MotorControlOpenCANTalonSRX.vi      Begin.vi      Robot Main.vi,0.000000,0.000000,0.000000,0.000000,Speed,Speed,-0.790000,1.130000,3.030000,0.000000,101.000000,1,0,-0.003038,-0.005022,0,0.000000,0.000000,0.000000,-1.462784,-0.791504,0.000000,0.000000,-0.003000,0.001000,FlatInitial
10:59:33.344 AM 02/13/2016,Teleop Enabled,0,TRUE,-44087,NetComm_CAN_Receive.vi:5470006<APPEND>  <b>Complete call chain:</b>      NetComm_CAN_Receive.vi:5470006      WPI_CANTalonSRX_Receive.vi      WPI_MotorControlOpenCANTalonSRX.vi      Begin.vi      Robot Main.vi,0.000000,0.000000,0.000000,0.000000,Speed,Speed,-0.790000,1.130000,3.030000,0.000000,103.000000,1,0,-0.003038,-0.005022,0,0.000000,0.000000,0.000000,-1.462784,-0.791504,0.000000,0.000000,-0.003000,0.001000,FlatInitial
10:59:33.445 AM 02/13/2016,Teleop Enabled,0,TRUE,-44087,NetComm_CAN_Receive.vi:5470006<APPEND>  <b>Complete call chain:</b>      NetComm_CAN_Receive.vi:5470006      WPI_CANTalonSRX_Receive.vi      WPI_CANTalonSRX_GetStatus.vi      ShooterVI.vi      Periodic Tasks.vi      Robot Main.vi,0.000000,0.000000,0.000000,0.000000,Speed,Speed,-0.790000,1.130000,3.030000,0.000000,100.000000,1,0,-0.003038,-0.005022,0,0.000000,0.000000,0.000000,-1.462784,-0.791504,0.000000,0.000000,-0.003000,0.001000,FlatInitial
10:59:33.545 AM 02/13/2016,Teleop Enabled,0,TRUE,-44087,NetComm_CAN_Receive.vi:5470006<APPEND>  <b>Complete call chain:</b>      NetComm_CAN_Receive.vi:5470006      WPI_CANTalonSRX_Receive.vi      WPI_CANTalonSRX_GetStatus.vi      ShooterVI.vi      Periodic Tasks.vi      Robot Main.vi,0.000000,0.000000,0.000000,0.000000,Speed,Speed,-0.790000,1.130000,3.030000,0.000000,102.000000,1,0,-0.003038,-0.005022,0,0.000000,0.000000,0.000000,-1.462784,-0.791504,0.000000,0.000000,-0.003000,0.001000,FlatInitial
10:59:33.645 AM 02/13/2016,Teleop Enabled,0,FALSE,0,NO ERROR,0.000000,0.000000,0.000000,0.000000,Speed,Speed,-0.790000,1.130000,3.030000,0.000000,101.000000,1,0,-0.003038,-0.005022,0,0.000000,0.000000,0.000000,-1.462784,-0.791504,0.000000,0.000000,-0.003000,0.001000,FlatInitial
10:59:33.745 AM 02/13/2016,Teleop Enabled,0,FALSE,0,NO ERROR,0.000000,0.000000,0.000000,0.000000,Speed,Speed,-0.790000,1.130000,3.030000,0.000000,102.000000,1,0,-0.003038,-0.005022,0,0.000000,0.000000,0.000000,-1.462784,-0.791504,0.000000,0.000000,-0.003000,0.001000,FlatInitial
10:59:33.846 AM 02/13/2016,Teleop Enabled,0,FALSE,0,NO ERROR,0.000000,0.000000,0.000000,0.000000,Speed,Speed,-0.790000,1.130000,3.030000,0.000000,101.000000,1,0,-0.003038,-0.005022,0,0.000000,0.000000,0.000000,-1.462784,-0.791504,0.000000,0.000000,-0.003000,0.001000,FlatInitial
10:59:33.946 AM 02/13/2016,Teleop Enabled,0,FALSE,0,NO ERROR,0.000000,0.000000,0.000000,0.000000,Speed,Speed,-0.790000,1.130000,3.030000,0.000000,101.000000,1,0,-0.003038,-0.005022,0,0.000000,0.000000,0.000000,-1.462784,-0.791504,0.000000,0.000000,-0.003000,0.001000,FlatInitial
10:59:34.046 AM 02/13/2016,Teleop Enabled,0,FALSE,0,NO ERROR,0.000000,0.000000,0.000000,0.000000,Speed,Speed,-0.790000,1.130000,3.030000,0.000000,101.000000,1,0,-0.003038,-0.005022,0,0.000000,0.000000,0.000000,-1.462784,-0.791504,0.000000,0.000000,-0.003000,0.001000,FlatInitial
10:59:34.145 AM 02/13/2016,Teleop Enabled,0,FALSE,0,NO ERROR,0.000000,0.000000,0.000000,0.000000,Speed,Speed,-0.790000,1.130000,3.030000,0.000000,101.000000,1,0,-0.003038,-0.005022,0,0.000000,0.000000,0.000000,-1.462784,-0.791504,0.000000,0.000000,-0.003000,0.001000,FlatInitial
10:59:34.246 AM 02/13/2016,Teleop Enabled,0,FALSE,0,NO ERROR,0.000000,0.000000,0.000000,0.000000,Speed,Speed,-0.790000,1.130000,3.030000,0.000000,101.000000,1,0,-0.003038,-0.005022,0,0.000000,0.000000,0.000000,-1.462784,-0.791504,0.000000,0.000000,-0.003000,0.001000,FlatInitial
10:59:34.345 AM 02/13/2016,Teleop Enabled,0,FALSE,0,NO ERROR,0.000000,0.000000,0.000000,0.000000,Speed,Speed,-0.790000,1.130000,3.030000,0.000000,102.000000,1,0,-0.003038,-0.005022,0,0.000000,0.000000,0.000000,-1.462784,-0.791504,0.000000,0.000000,-0.003000,0.001000,FlatInitial
10:59:34.446 AM 02/13/2016,Teleop Enabled,0,FALSE,0,NO ERROR,0.000000,0.000000,0.000000,0.000000,Speed,Speed,-0.790000,1.130000,3.030000,0.000000,102.000000,1,0,-0.003038,-0.005022,0,0.000000,0.000000,0.000000,-1.462784,-0.791504,0.000000,0.000000,-0.003000,0.001000,FlatInitial
10:59:34.546 AM 02/13/2016,Teleop Enabled,0,FALSE,0,NO ERROR,0.000000,0.000000,0.000000,0.000000,Speed,Speed,-0.790000,1.130000,3.030000,0.000000,101.000000,1,0,-0.003038,-0.005022,0,0.000000,0.000000,0.000000,-1.462784,-0.791504,0.000000,0.000000,-0.003000,0.001000,FlatInitial
10:59:34.646 AM 02/13/2016,Teleop Enabled,0,FALSE,0,NO ERROR,0.000000,0.000000,0.000000,0.000000,Speed,Speed,-0.790000,1.130000,3.030000,0.000000,101.000000,1,0,-0.003038,-0.005022,0,0.000000,0.000000,0.000000,-1.462784,-0.791504,0.000000,0.000000,-0.003000,0.001000,FlatInitial
10:59:34.745 AM 02/13/2016,Teleop Enabled,0,FALSE,0,NO ERROR,0.000000,0.000000,0.000000,0.000000,Speed,Speed,-0.790000,1.130000,3.030000,0.000000,108.000000,1,0,-0.003038,-0.005022,0,0.000000,0.000000,0.000000,-1.462784,-0.791504,0.000000,0.000000,-0.003000,0.001000,FlatInitial
10:59:34.846 AM 02/13/2016,Teleop Enabled,0,FALSE,0,NO ERROR,0.000000,0.000000,0.000000,0.000000,Speed,Speed,-0.790000,1.130000,3.030000,0.000000,100.000000,1,0,-0.003038,-0.005022,0,0.000000,0.000000,0.000000,-1.462784,-0.791504,0.000000,0.000000,-0.003000,0.001000,FlatInitial
10:59:34.946 AM 02/13/2016,Teleop Enabled,0,FALSE,0,NO ERROR,0.000000,0.000000,0.000000,0.000000,Speed,Speed,-0.790000,1.130000,3.030000,0.000000,100.000000,1,0,-0.003038,-0.005022,0,0.000000,0.000000,0.000000,-1.462784,-0.791504,0.000000,0.000000,-0.003000,0.001000,FlatInitial
10:59:35.046 AM 02/13/2016,Teleop Enabled,0,FALSE,0,NO ERROR,0.000000,0.000000,0.000000,0.000000,Speed,Speed,-0.790000,1.130000,3.030000,0.000000,101.000000,1,0,-0.003038,-0.005022,0,0.000000,0.000000,0.000000,-1.462784,-0.791504,0.000000,0.000000,-0.003000,0.001000,FlatInitial
10:59:35.146 AM 02/13/2016,Teleop Enabled,0,FALSE,0,NO ERROR,0.000000,0.000000,0.000000,0.000000,Speed,Speed,-0.790000,1.130000,3.030000,0.000000,101.000000,1,0,-0.003038,-0.005022,0,0.000000,0.000000,0.000000,-1.462784,-0.791504,0.000000,0.000000,-0.003000,0.001000,FlatInitial
10:59:35.245 AM 02/13/2016,Teleop Enabled,0,FALSE,0,NO ERROR,0.000000,0.000000,0.000000,0.000000,Speed,Speed,-0.790000,1.130000,3.030000,0.000000,101.000000,1,0,-0.003038,-0.005022,0,0.000000,0.000000,0.000000,-1.462784,-0.791504,0.000000,0.000000,-0.003000,0.001000,FlatInitial
10:59:35.346 AM 02/13/2016,Teleop Enabled,0,FALSE,0,NO ERROR,0.000000,0.000000,0.000000,0.000000,Speed,Speed,-0.790000,1.130000,3.030000,0.000000,101.000000,1,0,-0.003038,-0.005022,0,0.000000,0.000000,0.000000,-1.462784,-0.791504,0.000000,0.000000,-0.003000,0.001000,FlatInitial
10:59:35.446 AM 02/13/2016,Teleop Enabled,0,FALSE,0,NO ERROR,0.000000,0.000000,0.000000,0.000000,Speed,Speed,-0.790000,1.130000,3.030000,0.000000,101.000000,1,0,-0.003038,-0.005022,0,0.000000,0.000000,0.000000,-1.462784,-0.791504,0.000000,0.000000,-0.003000,0.001000,FlatInitial
10:59:35.546 AM 02/13/2016,Teleop Enabled,0,FALSE,0,NO ERROR,0.000000,0.000000,-6000.000000,-6000.000000,Speed,Speed,-0.790000,1.130000,3.030000,1.000000,101.000000,1,0,-0.003038,-0.005022,0,0.000000,0.000000,0.000000,-1.462784,-0.791504,0.000000,0.000000,-0.003000,0.001000,FlatInitial
10:59:35.647 AM 02/13/2016,Teleop Enabled,0,FALSE,0,NO ERROR,0.000000,0.000000,0.000000,0.000000,Speed,Speed,-0.790000,1.130000,3.030000,2.000000,101.000000,1,0,-0.003038,-0.005022,0,0.000000,0.000000,0.000000,-1.462784,-0.791504,0.000000,0.000000,-0.003000,0.001000,FlatInitial
10:59:35.747 AM 02/13/2016,Teleop Enabled,0,FALSE,0,NO ERROR,0.000000,0.000000,0.000000,0.000000,Speed,Speed,-0.790000,1.130000,3.030000,2.000000,101.000000,1,0,-0.003038,-0.005022,0,0.000000,0.000000,0.000000,-1.462784,-0.791504,0.000000,0.000000,-0.003000,0.001000,FlatInitial
10:59:35.847 AM 02/13/2016,Teleop Enabled,0,FALSE,0,NO ERROR,0.000000,0.000000,0.000000,0.000000,Speed,Speed,-0.790000,1.130000,3.030000,2.000000,101.000000,1,0,-0.003038,-0.005022,0,0.000000,0.000000,0.000000,-1.462784,-0.791504,0.000000,0.000000,-0.003000,0.001000,FlatInitial
10:59:35.948 AM 02/13/2016,Teleop Enabled,0,FALSE,0,NO ERROR,0.000000,0.000000,0.000000,0.000000,Speed,Speed,-0.790000,1.130000,3.030000,2.000000,101.000000,1,0,-0.003038,-0.005022,0,0.000000,0.000000,0.000000,-1.462784,-0.791504,0.000000,0.000000,-0.003000,0.001000,FlatInitial
10:59:36.049 AM 02/13/2016,Teleop Enabled,0,FALSE,0,NO ERROR,0.000000,0.000000,0.000000,0.000000,Speed,Speed,-0.790000,1.130000,3.030000,2.000000,101.000000,1,0,-0.003038,-0.005022,0,0.000000,0.000000,0.000000,-1.462784,-0.791504,0.000000,0.000000,-0.003000,0.001000,FlatInitial
10:59:36.150 AM 02/13/2016,Teleop Enabled,0,FALSE,0,NO ERROR,0.000000,0.000000,0.000000,0.000000,Speed,Speed,-0.790000,1.130000,3.030000,2.000000,106.000000,1,0,-0.003038,-0.005022,0,0.000000,0.000000,0.000000,-1.462784,-0.791504,0.000000,0.000000,-0.003000,0.001000,FlatInitial
10:59:36.250 AM 02/13/2016,Teleop Enabled,0,FALSE,0,NO ERROR,0.000000,0.000000,0.000000,0.000000,Speed,Speed,-0.790000,1.130000,3.030000,2.000000,100.000000,1,0,-0.003038,-0.005022,0,0.000000,0.000000,0.000000,-1.462784,-0.791504,0.000000,0.000000,-0.003000,0.001000,FlatInitial
10:59:36.351 AM 02/13/2016,Teleop Enabled,0,FALSE,0,NO ERROR,0.000000,0.000000,0.000000,0.000000,Speed,Speed,-0.790000,1.130000,3.030000,2.000000,100.000000,1,0,-0.003038,-0.005022,0,0.000000,0.000000,0.000000,-1.462784,-0.791504,0.000000,0.000000,-0.003000,0.001000,FlatInitial
10:59:36.452 AM 02/13/2016,Teleop Enabled,0,FALSE,0,NO ERROR,0.000000,0.000000,0.000000,0.000000,Speed,Speed,-0.790000,1.130000,3.030000,2.000000,101.000000,1,0,-0.003038,-0.005022,0,0.000000,0.000000,0.000000,-1.462784,-0.791504,0.000000,0.000000,-0.003000,0.001000,FlatInitial
10:59:36.552 AM 02/13/2016,Teleop Enabled,0,FALSE,0,NO ERROR,0.000000,0.000000,0.000000,0.000000,Speed,Speed,-0.790000,1.130000,3.030000,2.000000,102.000000,1,0,-0.003038,-0.005022,0,0.000000,0.000000,0.000000,-1.462784,-0.791504,0.000000,0.000000,-0.003000,0.001000,FlatInitial
10:59:36.653 AM 02/13/2016,Teleop Enabled,0,FALSE,0,NO ERROR,0.000000,0.000000,0.000000,0.000000,Speed,Speed,-0.790000,1.130000,3.030000,2.000000,101.000000,1,0,-0.003038,-0.005022,0,0.000000,0.000000,0.000000,-1.462784,-0.791504,0.000000,0.000000,-0.003000,0.001000,FlatInitial
10:59:36.754 AM 02/13/2016,Teleop Enabled,0,FALSE,0,NO ERROR,0.000000,0.000000,0.000000,0.000000,Speed,Speed,-0.790000,1.130000,3.030000,2.000000,100.000000,1,0,-0.003038,-0.005022,0,0.000000,0.000000,0.000000,-1.462784,-0.791504,0.000000,0.000000,-0.003000,0.001000,FlatInitial
10:59:36.856 AM 02/13/2016,Teleop Enabled,0,FALSE,0,NO ERROR,0.000000,0.000000,4000.000000,4000.000000,Speed,Speed,-0.790000,1.130000,3.030000,3.000000,101.000000,1,0,-0.003038,-0.005022,0,0.000000,0.000000,0.000000,-1.462784,-0.791504,0.000000,0.000000,-0.003000,0.001000,FlatInitial
10:59:36.954 AM 02/13/2016,Teleop Enabled,0,FALSE,0,NO ERROR,0.000000,0.000000,4000.000000,4000.000000,Speed,Speed,-0.790000,1.130000,3.030000,3.000000,101.000000,1,0,-0.003038,-0.005022,0,0.000000,0.000000,0.000000,-1.462784,-0.791504,0.000000,0.000000,-0.003000,0.001000,FlatInitial
10:59:37.055 AM 02/13/2016,Teleop Enabled,0,FALSE,0,NO ERROR,0.000000,0.000000,4000.000000,4000.000000,Speed,Speed,-0.790000,1.130000,3.030000,3.000000,101.000000,1,0,-0.003038,-0.005022,0,0.000000,0.000000,0.000000,-1.462784,-0.791504,0.000000,0.000000,-0.003000,0.001000,FlatInitial
10:59:37.154 AM 02/13/2016,Teleop Enabled,0,FALSE,0,NO ERROR,0.000000,0.000000,4000.000000,4000.000000,Speed,Speed,-0.790000,1.130000,3.030000,3.000000,103.000000,1,0,-0.003038,-0.005022,0,0.000000,0.000000,0.000000,-1.462784,-0.791504,0.000000,0.000000,-0.003000,0.001000,FlatInitial
10:59:37.257 AM 02/13/2016,Teleop Enabled,0,TRUE,-44003,<LOCATION>WPI_CameraIssue HTTP Request with Authentication.vi<CALLSTACK>WPI_CameraIssue HTTP Request with Authentication.vi< <WPI_CameraIssue Get.vi< <WPI_CameraSet Image Appearance Property.vi< <WPI_CameraSet Image Size.vi< <Vision Processing.vi< <Robot Main.vi,0.000000,0.000000,4000.000000,4000.000000,Speed,Speed,-0.790000,1.130000,3.030000,3.000000,103.000000,1,0,-0.003038,-0.005022,0,0.000000,0.000000,0.000000,-1.462784,-0.791504,0.000000,0.000000,-0.003000,0.001000,FlatInitial
10:59:37.356 AM 02/13/2016,Teleop Enabled,0,FALSE,0,NO ERROR,0.000000,0.000000,4000.000000,4000.000000,Speed,Speed,-0.010000,1.120000,2.930000,3.000000,101.000000,1,0,-0.003038,-0.005022,0,0.000000,0.000000,0.000000,-1.473541,-0.739975,0.000000,-0.003000,-0.001000,-0.003000,FlatInitial
10:59:37.457 AM 02/13/2016,Teleop Enabled,0,FALSE,0,NO ERROR,0.000000,0.000000,4000.000000,4000.000000,Speed,Speed,-0.010000,1.130000,2.940000,3.000000,103.000000,1,0,-0.003038,-0.005022,0,0.000000,0.000000,0.000000,-1.473541,-0.739975,0.000000,-0.002000,0.000000,0.003000,FlatInitial
10:59:37.557 AM 02/13/2016,Teleop Enabled,0,FALSE,0,NO ERROR,0.000000,0.000000,4000.000000,4000.000000,Speed,Speed,-0.020000,1.120000,2.930000,3.000000,104.000000,1,0,-0.003038,-0.005022,0,0.000000,0.000000,0.000000,-1.473541,-0.739975,0.000000,0.001000,0.000000,0.000000,FlatInitial
10:59:37.658 AM 02/13/2016,Teleop Enabled,0,FALSE,0,NO ERROR,0.000000,0.000000,4000.000000,4000.000000,Speed,Speed,-0.020000,1.120000,2.930000,3.000000,101.000000,1,0,-0.003038,-0.005022,0,0.000000,0.000000,0.000000,-1.473541,-0.739975,0.000000,0.003000,-0.004000,0.000000,FlatInitial
10:59:37.759 AM 02/13/2016,Teleop Enabled,0,FALSE,0,NO ERROR,0.000000,0.000000,4000.000000,4000.000000,Speed,Speed,-0.020000,1.120000,2.930000,3.000000,100.000000,1,0,-0.003038,-0.005022,0,0.000000,0.000000,0.000000,-1.473541,-0.739975,0.000000,0.000000,0.000000,0.000000,FlatInitial
10:59:37.860 AM 02/13/2016,Teleop Enabled,0,FALSE,0,NO ERROR,0.000000,0.000000,4000.000000,4000.000000,Speed,Speed,-0.020000,1.120000,2.930000,3.000000,103.000000,1,0,-0.003038,-0.005022,0,0.000000,0.000000,0.000000,-1.473541,-0.739975,0.000000,0.000000,-0.002000,0.000000,FlatInitial
10:59:37.962 AM 02/13/2016,Teleop Enabled,0,FALSE,0,NO ERROR,0.000000,0.000000,4000.000000,4000.000000,Speed,Speed,-0.030000,1.120000,2.930000,3.000000,103.000000,1,0,-0.003038,-0.005022,0,0.000000,0.000000,0.000000,-1.473541,-0.739975,0.000000,0.002000,0.000000,-0.002000,FlatInitial
10:59:38.063 AM 02/13/2016,Teleop Enabled,0,FALSE,0,NO ERROR,0.000000,0.000000,4000.000000,4000.000000,Speed,Speed,-0.030000,1.120000,2.930000,3.000000,102.000000,1,0,-0.003038,-0.005022,0,0.000000,0.000000,0.000000,-1.473541,-0.739975,0.000000,-0.003000,0.000000,-0.001000,FlatInitial
10:59:38.165 AM 02/13/2016,Teleop Enabled,0,FALSE,0,NO ERROR,0.000000,0.000000,4000.000000,4000.000000,Speed,Speed,-0.020000,1.110000,2.930000,3.000000,102.000000,1,0,-0.003038,-0.005022,0,0.000000,0.000000,0.000000,-1.473541,-0.739975,0.000000,0.001000,0.000000,0.000000,FlatInitial
10:59:38.266 AM 02/13/2016,Teleop Enabled,0,FALSE,0,NO ERROR,0.000000,0.000000,4000.000000,4000.000000,Speed,Speed,-0.020000,1.110000,2.930000,3.000000,102.000000,1,0,-0.003038,-0.005022,0,0.000000,0.000000,0.000000,-1.473541,-0.739975,0.000000,-0.002000,-0.002000,0.001000,FlatInitial
10:59:38.367 AM 02/13/2016,Teleop Enabled,0,FALSE,0,NO ERROR,0.000000,0.000000,4000.000000,4000.000000,Speed,Speed,-0.030000,1.110000,2.930000,3.000000,101.000000,1,0,-0.003038,-0.005022,0,0.000000,0.000000,0.000000,-1.473541,-0.739975,0.000000,0.002000,0.000000,0.000000,FlatInitial
10:59:38.467 AM 02/13/2016,Teleop Enabled,0,FALSE,0,NO ERROR,0.000000,0.000000,4000.000000,4000.000000,Speed,Speed,-0.030000,1.110000,2.930000,3.000000,102.000000,1,0,-0.003038,-0.005022,0,0.000000,0.000000,0.000000,-1.473541,-0.739975,0.000000,0.000000,0.000000,0.000000,FlatInitial
10:59:38.568 AM 02/13/2016,Teleop Enabled,0,FALSE,0,NO ERROR,0.000000,0.000000,4000.000000,4000.000000,Speed,Speed,-0.030000,1.110000,2.930000,3.000000,101.000000,1,0,-0.003038,-0.005022,0,0.000000,0.000000,0.000000,-1.473541,-0.739975,0.000000,0.002000,0.001000,-0.002000,FlatInitial
10:59:38.668 AM 02/13/2016,Teleop Enabled,0,FALSE,0,NO ERROR,0.000000,0.000000,4000.000000,4000.000000,Speed,Speed,-0.030000,1.110000,2.930000,3.000000,104.000000,1,0,-0.003038,-0.005022,0,0.000000,0.000000,0.000000,-1.473541,-0.739975,0.000000,0.000000,0.001000,0.000000,FlatInitial
10:59:38.768 AM 02/13/2016,Teleop Enabled,0,FALSE,0,NO ERROR,0.000000,0.000000,4000.000000,4000.000000,Speed,Speed,-0.030000,1.110000,2.940000,3.000000,101.000000,1,0,-0.003038,-0.005022,0,0.000000,0.000000,0.000000,-1.473541,-0.739975,0.000000,-0.004000,0.002000,0.001000,FlatInitial
10:59:38.882 AM 02/13/2016,Teleop Enabled,0,FALSE,0,NO ERROR,0.000000,0.000000,4000.000000,4000.000000,Speed,Speed,-0.030000,1.110000,2.940000,3.000000,102.000000,1,0,-0.003038,-0.005022,0,0.000000,0.000000,0.000000,-1.473541,-0.739975,0.000000,0.000000,0.000000,-0.008000,FlatInitial
10:59:38.982 AM 02/13/2016,Teleop Enabled,0,FALSE,0,NO ERROR,0.000000,0.000000,4000.000000,4000.000000,Speed,Speed,-0.040000,1.110000,2.940000,3.000000,101.000000,1,0,-0.003038,-0.005022,0,0.000000,0.000000,0.000000,-1.473541,-0.739975,0.000000,-0.001000,0.000000,0.001000,FlatInitial
10:59:39.083 AM 02/13/2016,Teleop Enabled,0,FALSE,0,NO ERROR,0.000000,0.000000,4000.000000,4000.000000,Speed,Speed,-0.040000,1.110000,2.940000,3.000000,102.000000,1,0,-0.003038,-0.005022,0,0.000000,0.000000,0.000000,-1.473541,-0.739975,0.000000,0.000000,-0.002000,0.000000,FlatInitial
10:59:39.183 AM 02/13/2016,Teleop Enabled,0,FALSE,0,NO ERROR,0.000000,0.000000,4000.000000,4000.000000,Speed,Speed,-0.040000,1.110000,2.940000,3.000000,105.000000,1,0,-0.003038,-0.005022,0,0.000000,0.000000,0.000000,-1.473541,-0.739975,0.000000,0.000000,0.004000,-0.001000,FlatInitial
10:59:39.283 AM 02/13/2016,Teleop Enabled,0,FALSE,0,NO ERROR,0.000000,0.000000,4000.000000,4000.000000,Speed,Speed,-0.040000,1.110000,2.940000,3.000000,101.000000,1,0,-0.003038,-0.005022,0,0.000000,0.000000,0.000000,-1.473541,-0.739975,0.000000,0.000000,-0.001000,0.000000,FlatInitial
10:59:39.384 AM 02/13/2016,Teleop Enabled,0,FALSE,0,NO ERROR,0.000000,0.000000,4000.000000,4000.000000,Speed,Speed,-0.040000,1.120000,2.940000,3.000000,104.000000,1,0,-0.003038,-0.005022,0,0.000000,0.000000,0.000000,-1.473541,-0.739975,0.000000,0.000000,0.001000,-0.001000,FlatInitial
10:59:39.485 AM 02/13/2016,Teleop Enabled,0,FALSE,0,NO ERROR,0.000000,0.000000,4000.000000,4000.000000,Speed,Speed,-0.040000,1.120000,2.940000,3.000000,106.000000,1,0,-0.003038,-0.005022,0,0.000000,0.000000,0.000000,-1.473541,-0.739975,0.000000,0.000000,-0.003000,0.000000,FlatInitial
10:59:39.585 AM 02/13/2016,Teleop Enabled,0,FALSE,0,NO ERROR,0.000000,0.000000,4000.000000,4000.000000,Speed,Speed,-0.040000,1.120000,2.940000,3.000000,103.000000,1,0,-0.003038,-0.005022,0,0.000000,0.000000,0.000000,-1.473541,-0.739975,0.000000,0.000000,-0.001000,-0.004000,FlatInitial
10:59:39.686 AM 02/13/2016,Teleop Enabled,0,FALSE,0,NO ERROR,0.000000,0.000000,4000.000000,4000.000000,Speed,Speed,-0.040000,1.110000,2.940000,3.000000,103.000000,1,0,-0.003038,-0.005022,0,0.000000,0.000000,0.000000,-1.473541,-0.739975,0.000000,0.000000,0.000000,0.001000,FlatInitial
10:59:39.787 AM 02/13/2016,Teleop Enabled,0,FALSE,0,NO ERROR,0.000000,0.000000,4000.000000,4000.000000,Speed,Speed,-0.040000,1.110000,2.940000,3.000000,103.000000,1,0,-0.003038,-0.005022,0,0.000000,0.000000,0.000000,-1.473541,-0.739975,0.000000,0.000000,-0.001000,0.000000,FlatInitial
10:59:39.887 AM 02/13/2016,Teleop Enabled,0,FALSE,0,NO ERROR,0.000000,0.000000,4000.000000,4000.000000,Speed,Speed,-0.040000,1.120000,2.930000,3.000000,101.000000,1,0,-0.003038,-0.005022,0,0.000000,0.000000,0.000000,-1.473541,-0.739975,0.000000,0.001000,-0.001000,-0.002000,FlatInitial
10:59:39.987 AM 02/13/2016,Teleop Enabled,0,FALSE,0,NO ERROR,0.000000,0.000000,4000.000000,4000.000000,Speed,Speed,-0.050000,1.120000,2.930000,3.000000,101.000000,1,0,-0.003038,-0.005022,0,0.000000,0.000000,0.000000,-1.473541,-0.739975,0.000000,-0.001000,0.000000,0.001000,FlatInitial
10:59:40.088 AM 02/13/2016,Teleop Enabled,0,FALSE,0,NO ERROR,0.000000,0.000000,4000.000000,4000.000000,Speed,Speed,-0.050000,1.130000,2.930000,3.000000,101.000000,1,0,-0.003038,-0.005022,0,0.000000,0.000000,0.000000,-1.473541,-0.739975,0.000000,0.000000,-0.002000,0.000000,FlatInitial
10:59:40.188 AM 02/13/2016,Teleop Enabled,0,FALSE,0,NO ERROR,0.000000,0.000000,4000.000000,4000.000000,Speed,Speed,-0.050000,1.120000,2.930000,3.000000,101.000000,1,0,-0.003038,-0.005022,0,0.000000,0.000000,0.000000,-1.473541,-0.739975,0.000000,0.000000,0.001000,-0.002000,FlatInitial
10:59:40.288 AM 02/13/2016,Teleop Enabled,0,FALSE,0,NO ERROR,0.000000,0.000000,4000.000000,4000.000000,Speed,Speed,-0.050000,1.120000,2.930000,3.000000,101.000000,1,0,-0.003038,-0.005022,0,0.000000,0.000000,0.000000,-1.473541,-0.739975,0.000000,0.001000,0.001000,0.002000,FlatInitial
10:59:40.388 AM 02/13/2016,Teleop Enabled,0,FALSE,0,NO ERROR,0.000000,0.000000,4000.000000,4000.000000,Speed,Speed,-0.050000,1.120000,2.930000,3.000000,107.000000,1,0,-0.003038,-0.005022,0,0.000000,0.000000,0.000000,-1.473541,-0.739975,0.000000,0.000000,0.002000,0.000000,FlatInitial
10:59:40.489 AM 02/13/2016,Teleop Enabled,0,FALSE,0,NO ERROR,0.000000,0.000000,4000.000000,4000.000000,Speed,Speed,-0.050000,1.120000,2.930000,3.000000,102.000000,1,0,-0.003038,-0.005022,0,0.000000,0.000000,0.000000,-1.473541,-0.739975,0.000000,-0.002000,-0.001000,0.003000,FlatInitial
10:59:40.590 AM 02/13/2016,Teleop Enabled,0,FALSE,0,NO ERROR,0.000000,0.000000,4000.000000,4000.000000,Speed,Speed,-0.050000,1.120000,2.930000,3.000000,101.000000,1,0,-0.003038,-0.005022,0,0.000000,0.000000,0.000000,-1.473541,-0.739975,0.000000,0.000000,0.000000,0.003000,FlatInitial
10:59:40.690 AM 02/13/2016,Teleop Enabled,0,FALSE,0,NO ERROR,0.000000,0.000000,4000.000000,4000.000000,Speed,Speed,-0.050000,1.120000,2.930000,3.000000,102.000000,1,0,-0.003038,-0.005022,0,0.000000,0.000000,0.000000,-1.473541,-0.739975,0.000000,0.000000,-0.001000,0.000000,FlatInitial
10:59:40.789 AM 02/13/2016,Teleop Enabled,0,FALSE,0,NO ERROR,0.000000,0.000000,4000.000000,4000.000000,Speed,Speed,-0.050000,1.120000,2.930000,3.000000,102.000000,1,0,-0.003038,-0.005022,0,0.000000,0.000000,0.000000,-1.473541,-0.739975,0.000000,0.001000,0.000000,0.000000,FlatInitial
10:59:40.890 AM 02/13/2016,Teleop Enabled,0,FALSE,0,NO ERROR,0.000000,0.000000,4000.000000,4000.000000,Speed,Speed,-0.040000,1.120000,2.930000,3.000000,102.000000,1,0,-0.003038,-0.005022,0,0.000000,0.000000,0.000000,-1.473541,-0.739975,0.000000,0.000000,-0.001000,0.000000,FlatInitial
10:59:40.990 AM 02/13/2016,Teleop Enabled,0,FALSE,0,NO ERROR,0.000000,0.000000,4000.000000,4000.000000,Speed,Speed,-0.040000,1.120000,2.930000,3.000000,102.000000,1,0,-0.003038,-0.005022,0,0.000000,0.000000,0.000000,-1.473541,-0.739975,0.000000,0.002000,0.000000,0.001000,FlatInitial
10:59:41.089 AM 02/13/2016,Teleop Enabled,0,FALSE,0,NO ERROR,0.000000,0.000000,4000.000000,4000.000000,Speed,Speed,-0.040000,1.120000,2.930000,3.000000,102.000000,1,0,-0.003038,-0.005022,0,0.000000,0.000000,0.000000,-1.473541,-0.739975,0.000000,-0.003000,0.001000,0.000000,FlatInitial
10:59:41.190 AM 02/13/2016,Teleop Enabled,0,FALSE,0,NO ERROR,0.000000,0.000000,9000.000000,9000.000000,Speed,Speed,-0.020000,1.040000,3.030000,4.000000,103.000000,1,0,-0.003038,-0.005022,0,-0.000687,0.011597,0.000000,-1.474274,-0.739990,0.000000,0.286000,0.137000,0.216000,FlatInitial
10:59:41.290 AM 02/13/2016,Teleop Enabled,0,FALSE,0,NO ERROR,0.000000,0.000000,9000.000000,9000.000000,Speed,Speed,0.000000,1.230000,3.090000,4.000000,106.000000,1,0,-0.003038,-0.005022,0,0.025253,-0.048584,0.000000,-1.472733,-0.741043,0.000000,-0.063000,0.101000,-0.181000,FlatInitial
10:59:41.391 AM 02/13/2016,Teleop Enabled,0,FALSE,0,NO ERROR,0.000000,0.000000,9000.000000,9000.000000,Speed,Speed,-0.090000,1.130000,3.120000,4.000000,102.000000,1,0,-0.003038,-0.005022,0,-0.001984,-0.020935,0.000000,-1.472824,-0.742538,0.000000,0.010000,0.076000,-0.146000,FlatInitial
10:59:41.492 AM 02/13/2016,Teleop Enabled,0,FALSE,0,NO ERROR,0.000000,0.000000,9000.000000,9000.000000,Speed,Speed,-0.140000,1.230000,2.980000,4.000000,102.000000,1,0,-0.003038,-0.005022,0,0.001587,0.046005,0.000000,-1.472687,-0.741638,0.000000,-0.064000,0.036000,0.211000,FlatInitial
10:59:41.591 AM 02/13/2016,Teleop Enabled,0,FALSE,0,NO ERROR,0.000000,0.000000,9000.000000,9000.000000,Speed,Speed,-0.180000,1.160000,2.590000,4.000000,104.000000,1,0,-0.003038,-0.005022,0,-0.014084,0.090912,0.000000,-1.473083,-0.737747,0.000000,-0.054000,-0.051000,-0.088000,FlatInitial
10:59:41.691 AM 02/13/2016,Teleop Enabled,0,FALSE,0,NO ERROR,0.000000,0.000000,9000.000000,9000.000000,Speed,Speed,-0.240000,1.110000,1.630000,4.000000,101.000000,1,0,-0.003038,-0.005022,0,-0.013931,0.033646,0.000000,-1.473618,-0.734619,0.000000,0.002000,-0.096000,-0.323000,FlatInitial
10:59:41.792 AM 02/13/2016,Teleop Enabled,0,FALSE,0,NO ERROR,0.000000,0.000000,9000.000000,9000.000000,Speed,Speed,-0.310000,1.180000,2.920000,4.000000,103.000000,1,0,-0.003038,-0.005022,0,-0.000305,0.000000,0.000000,-1.474167,-0.733917,0.000000,-0.130000,-0.074000,0.556000,FlatInitial
10:59:41.891 AM 02/13/2016,Teleop Enabled,0,FALSE,0,NO ERROR,0.000000,0.000000,9000.000000,9000.000000,Speed,Speed,-0.300000,1.140000,2.820000,4.000000,104.000000,1,0,-0.003038,-0.005022,0,-0.005554,-0.070801,0.000000,-1.474457,-0.736237,0.000000,0.031000,-0.004000,0.160000,FlatInitial
10:59:41.992 AM 02/13/2016,Teleop Enabled,0,FALSE,0,NO ERROR,0.000000,0.000000,9000.000000,9000.000000,Speed,Speed,-0.330000,1.160000,2.840000,4.000000,102.000000,1,0,-0.003038,-0.005022,0,0.000000,0.017883,0.000000,-1.474808,-0.735733,0.000000,-0.046000,-0.050000,0.293000,FlatInitial
10:59:42.092 AM 02/13/2016,Teleop Enabled,0,FALSE,0,NO ERROR,0.000000,0.000000,9000.000000,9000.000000,Speed,Speed,-0.300000,1.110000,2.570000,4.000000,101.000000,1,0,-0.003038,-0.005022,0,-0.014694,0.001068,0.000000,-1.475342,-0.735748,0.000000,0.041000,0.011000,-0.121000,FlatInitial
10:59:42.192 AM 02/13/2016,Teleop Enabled,0,FALSE,0,NO ERROR,0.000000,0.000000,9000.000000,9000.000000,Speed,Speed,-0.320000,1.150000,2.630000,4.000000,101.000000,1,0,-0.003038,-0.005022,0,0.005600,-0.004593,0.000000,-1.475449,-0.735657,0.000000,0.041000,0.011000,-0.121000,FlatInitial
10:59:42.293 AM 02/13/2016,Teleop Enabled,0,FALSE,0,NO ERROR,0.000000,0.000000,9000.000000,9000.000000,Speed,Speed,-0.340000,1.140000,2.830000,4.000000,103.000000,1,0,-0.003038,-0.005022,0,0.000000,0.006714,0.000000,-1.475388,-0.735519,0.000000,0.018000,-0.013000,0.051000,FlatInitial
10:59:42.393 AM 02/13/2016,Teleop Enabled,0,FALSE,0,NO ERROR,0.000000,0.000000,9000.000000,9000.000000,Speed,Speed,-0.320000,1.150000,2.690000,4.000000,101.000000,1,0,-0.003038,-0.005022,0,0.002365,0.000000,0.000000,-1.475433,-0.735519,0.000000,-0.007000,0.005000,0.007000,FlatInitial
10:59:42.494 AM 02/13/2016,Teleop Enabled,0,FALSE,0,NO ERROR,0.000000,0.000000,9000.000000,9000.000000,Speed,Speed,-0.310000,1.140000,2.710000,4.000000,103.000000,1,0,-0.003038,-0.005022,0,0.000000,0.000000,0.000000,-1.475433,-0.735519,0.000000,-0.009000,0.006000,-0.001000,FlatInitial
10:59:42.594 AM 02/13/2016,Teleop Enabled,0,FALSE,0,NO ERROR,0.000000,0.000000,9000.000000,9000.000000,Speed,Speed,-0.320000,1.140000,2.780000,4.000000,101.000000,1,0,-0.003038,-0.005022,0,0.000000,0.000000,0.000000,-1.475433,-0.735519,0.000000,-0.013000,-0.005000,0.000000,FlatInitial
10:59:42.697 AM 02/13/2016,Teleop Enabled,0,FALSE,0,NO ERROR,0.000000,0.000000,9000.000000,9000.000000,Speed,Speed,-0.310000,1.130000,2.720000,4.000000,102.000000,1,0,-0.003038,-0.005022,0,0.000000,0.000000,0.000000,-1.475433,-0.735519,0.000000,-0.003000,0.001000,-0.005000,FlatInitial
10:59:42.797 AM 02/13/2016,Teleop Enabled,0,FALSE,0,NO ERROR,0.000000,0.000000,9000.000000,9000.000000,Speed,Speed,-0.320000,1.130000,2.730000,4.000000,102.000000,1,0,-0.003038,-0.005022,0,0.000000,0.000000,0.000000,-1.475433,-0.735519,0.000000,-0.003000,0.001000,-0.005000,FlatInitial
10:59:42.898 AM 02/13/2016,Teleop Enabled,0,FALSE,0,NO ERROR,0.000000,0.000000,9000.000000,9000.000000,Speed,Speed,-0.320000,1.120000,2.730000,4.000000,105.000000,1,0,-0.003038,-0.005022,0,0.000000,0.000000,0.000000,-1.475433,-0.735519,0.000000,0.000000,0.004000,0.000000,FlatInitial
10:59:42.999 AM 02/13/2016,Teleop Enabled,0,FALSE,0,NO ERROR,0.000000,0.000000,9000.000000,9000.000000,Speed,Speed,-0.320000,1.130000,2.710000,4.000000,100.000000,1,0,-0.003038,-0.005022,0,0.000000,0.000000,0.000000,-1.475433,-0.735519,0.000000,0.000000,0.004000,0.000000,FlatInitial
10:59:43.099 AM 02/13/2016,Teleop Enabled,0,FALSE,0,NO ERROR,0.000000,0.000000,9000.000000,9000.000000,Speed,Speed,-0.320000,1.120000,2.730000,4.000000,102.000000,1,0,-0.003038,-0.005022,0,0.000000,0.000000,0.000000,-1.475433,-0.735519,0.000000,0.000000,0.000000,0.002000,FlatInitial
10:59:43.200 AM 02/13/2016,Teleop Enabled,0,FALSE,0,NO ERROR,0.000000,0.000000,9000.000000,9000.000000,Speed,Speed,-0.320000,1.130000,2.720000,4.000000,101.000000,1,0,-0.003038,-0.005022,0,0.000000,0.000000,0.000000,-1.475433,-0.735519,0.000000,0.001000,0.003000,0.000000,FlatInitial
10:59:43.301 AM 02/13/2016,Teleop Enabled,0,FALSE,0,NO ERROR,0.000000,0.000000,9000.000000,9000.000000,Speed,Speed,-0.330000,1.120000,2.710000,4.000000,101.000000,1,0,-0.003038,-0.005022,0,0.000000,0.000000,0.000000,-1.475433,-0.735519,0.000000,0.002000,-0.008000,0.000000,FlatInitial
10:59:43.402 AM 02/13/2016,Teleop Enabled,0,FALSE,0,NO ERROR,0.000000,0.000000,9000.000000,9000.000000,Speed,Speed,-0.330000,1.130000,2.710000,4.000000,102.000000,1,0,-0.003038,-0.005022,0,0.000000,0.000000,0.000000,-1.475433,-0.735519,0.000000,-0.002000,0.008000,-0.002000,FlatInitial
10:59:43.503 AM 02/13/2016,Teleop Enabled,0,FALSE,0,NO ERROR,0.000000,0.000000,9000.000000,9000.000000,Speed,Speed,-0.330000,1.120000,2.700000,4.000000,104.000000,1,0,-0.003038,-0.005022,0,0.000000,0.000000,0.000000,-1.475433,-0.735519,0.000000,0.000000,-0.004000,-0.003000,FlatInitial
10:59:43.604 AM 02/13/2016,Teleop Enabled,0,FALSE,0,NO ERROR,0.000000,0.000000,9000.000000,9000.000000,Speed,Speed,-0.330000,1.120000,2.700000,4.000000,100.000000,1,0,-0.003038,-0.005022,0,0.000000,0.000000,0.000000,-1.475433,-0.735519,0.000000,0.000000,0.001000,-0.001000,FlatInitial
10:59:43.704 AM 02/13/2016,Teleop Enabled,0,FALSE,0,NO ERROR,0.000000,0.000000,9000.000000,9000.000000,Speed,Speed,-0.320000,1.120000,2.710000,4.000000,103.000000,1,0,-0.003038,-0.005022,0,0.000000,0.000000,0.000000,-1.475433,-0.735519,0.000000,0.000000,0.001000,-0.002000,FlatInitial
10:59:43.805 AM 02/13/2016,Teleop Enabled,0,FALSE,0,NO ERROR,0.000000,0.000000,9000.000000,9000.000000,Speed,Speed,-0.330000,1.120000,2.690000,4.000000,101.000000,1,0,-0.003038,-0.005022,0,0.000000,0.000000,0.000000,-1.475433,-0.735519,0.000000,0.000000,-0.002000,0.001000,FlatInitial
10:59:43.905 AM 02/13/2016,Teleop Enabled,0,FALSE,0,NO ERROR,0.000000,0.000000,9000.000000,9000.000000,Speed,Speed,-0.320000,1.120000,2.700000,4.000000,102.000000,1,0,-0.003038,-0.005022,0,0.000000,0.000000,0.000000,-1.475433,-0.735519,0.000000,0.001000,0.000000,-0.002000,FlatInitial
10:59:44.005 AM 02/13/2016,Teleop Enabled,0,FALSE,0,NO ERROR,0.000000,0.000000,9000.000000,9000.000000,Speed,Speed,-0.320000,1.120000,2.700000,4.000000,103.000000,1,0,-0.003038,-0.005022,0,0.000000,0.000000,0.000000,-1.475433,-0.735519,0.000000,0.001000,0.000000,-0.002000,FlatInitial
10:59:44.106 AM 02/13/2016,Teleop Enabled,0,FALSE,0,NO ERROR,0.000000,0.000000,9000.000000,9000.000000,Speed,Speed,-0.320000,1.120000,2.690000,4.000000,104.000000,1,0,-0.003038,-0.005022,0,0.000000,0.000000,0.000000,-1.475433,-0.735519,0.000000,0.000000,-0.001000,-0.004000,FlatInitial
10:59:44.206 AM 02/13/2016,Teleop Enabled,0,FALSE,0,NO ERROR,0.000000,0.000000,9000.000000,9000.000000,Speed,Speed,-0.320000,1.130000,2.700000,4.000000,102.000000,1,0,-0.003038,-0.005022,0,0.000000,0.000000,0.000000,-1.475433,-0.735519,0.000000,0.000000,0.000000,-0.002000,FlatInitial
10:59:44.306 AM 02/13/2016,Teleop Enabled,0,FALSE,0,NO ERROR,0.000000,0.000000,9000.000000,9000.000000,Speed,Speed,-0.320000,1.130000,2.690000,4.000000,103.000000,1,0,-0.003038,-0.005022,0,0.000000,0.000000,0.000000,-1.475433,-0.735519,0.000000,0.000000,0.000000,-0.002000,FlatInitial
10:59:44.407 AM 02/13/2016,Teleop Enabled,0,FALSE,0,NO ERROR,0.000000,0.000000,9000.000000,9000.000000,Speed,Speed,-0.330000,1.120000,2.690000,4.000000,103.000000,1,0,-0.003038,-0.005022,0,0.000000,0.000000,0.000000,-1.475433,-0.735519,0.000000,-0.001000,0.000000,0.000000,FlatInitial
10:59:44.508 AM 02/13/2016,Teleop Enabled,0,FALSE,0,NO ERROR,0.000000,0.000000,9000.000000,9000.000000,Speed,Speed,-0.330000,1.130000,2.690000,4.000000,103.000000,1,0,-0.003038,-0.005022,0,0.000000,0.000000,0.000000,-1.475433,-0.735519,0.000000,-0.001000,-0.002000,-0.001000,FlatInitial
10:59:44.608 AM 02/13/2016,Teleop Enabled,0,FALSE,0,NO ERROR,0.000000,0.000000,9000.000000,9000.000000,Speed,Speed,-0.320000,1.120000,2.690000,4.000000,102.000000,1,0,-0.003038,-0.005022,0,0.000000,0.000000,0.000000,-1.475433,-0.735519,0.000000,-0.001000,-0.002000,-0.001000,FlatInitial
10:59:44.709 AM 02/13/2016,Teleop Enabled,0,FALSE,0,NO ERROR,0.000000,0.000000,9000.000000,9000.000000,Speed,Speed,-0.320000,1.120000,2.700000,4.000000,103.000000,1,0,-0.003038,-0.005022,0,0.000000,0.000000,0.000000,-1.475433,-0.735519,0.000000,0.000000,0.000000,-0.003000,FlatInitial
10:59:44.810 AM 02/13/2016,Teleop Enabled,0,FALSE,0,NO ERROR,0.000000,0.000000,9000.000000,9000.000000,Speed,Speed,-0.320000,1.130000,2.680000,4.000000,102.000000,1,0,-0.003038,-0.005022,0,0.000000,0.000000,0.000000,-1.475433,-0.735519,0.000000,0.000000,0.000000,0.000000,FlatInitial
10:59:44.910 AM 02/13/2016,Teleop Enabled,0,FALSE,0,NO ERROR,0.000000,0.000000,9000.000000,9000.000000,Speed,Speed,-0.320000,1.120000,2.690000,4.000000,104.000000,1,0,-0.003038,-0.005022,0,0.000000,0.000000,0.000000,-1.475433,-0.735519,0.000000,0.000000,-0.002000,0.000000,FlatInitial
10:59:45.011 AM 02/13/2016,Teleop Enabled,0,FALSE,0,NO ERROR,0.000000,0.000000,9000.000000,9000.000000,Speed,Speed,-0.320000,1.120000,2.690000,4.000000,101.000000,1,0,-0.003038,-0.005022,0,0.000000,0.000000,0.000000,-1.475433,-0.735519,0.000000,0.000000,-0.002000,0.000000,FlatInitial
10:59:45.110 AM 02/13/2016,Teleop Enabled,0,FALSE,0,NO ERROR,0.000000,0.000000,9000.000000,9000.000000,Speed,Speed,-0.330000,1.130000,2.700000,4.000000,102.000000,1,0,-0.003038,-0.005022,0,0.000000,0.000000,0.000000,-1.475433,-0.735519,0.000000,0.000000,0.000000,0.000000,FlatInitial
10:59:45.211 AM 02/13/2016,Teleop Enabled,0,FALSE,0,NO ERROR,0.000000,0.000000,9000.000000,9000.000000,Speed,Speed,-0.330000,1.130000,2.700000,4.000000,100.000000,1,0,-0.003038,-0.005022,0,0.000000,0.000000,0.000000,-1.475433,-0.735519,0.000000,0.003000,0.006000,-0.001000,FlatInitial
10:59:45.311 AM 02/13/2016,Teleop Enabled,0,FALSE,0,NO ERROR,0.000000,0.000000,9000.000000,9000.000000,Speed,Speed,-0.300000,1.120000,2.690000,4.000000,103.000000,1,0,-0.003038,-0.005022,0,0.000000,0.000000,0.000000,-1.475433,-0.735519,0.000000,-0.006000,-0.007000,0.002000,FlatInitial
10:59:45.412 AM 02/13/2016,Teleop Enabled,0,FALSE,0,NO ERROR,0.000000,0.000000,9000.000000,9000.000000,Speed,Speed,-0.320000,1.120000,2.750000,4.000000,103.000000,1,0,-0.003038,-0.005022,0,0.000000,0.000000,0.000000,-1.475433,-0.735519,0.000000,0.000000,-0.002000,-0.005000,FlatInitial
10:59:45.511 AM 02/13/2016,Teleop Enabled,0,FALSE,0,NO ERROR,0.000000,0.000000,9000.000000,9000.000000,Speed,Speed,-0.330000,1.130000,2.800000,4.000000,104.000000,1,0,-0.003038,-0.005022,0,0.000000,0.000000,0.000000,-1.475433,-0.735519,0.000000,-0.010000,0.009000,-0.015000,FlatInitial
10:59:45.612 AM 02/13/2016,Teleop Enabled,0,FALSE,0,NO ERROR,0.000000,0.000000,9000.000000,9000.000000,Speed,Speed,-0.330000,1.130000,2.800000,4.000000,101.000000,1,0,-0.003038,-0.005022,0,0.000000,0.000000,0.000000,-1.475433,-0.735519,0.000000,0.003000,-0.003000,0.002000,FlatInitial
10:59:45.715 AM 02/13/2016,Teleop Enabled,0,FALSE,0,NO ERROR,0.000000,0.000000,9000.000000,9000.000000,Speed,Speed,-0.350000,1.120000,2.810000,4.000000,104.000000,1,0,-0.003038,-0.005022,0,0.000000,0.000000,0.000000,-1.475433,-0.735519,0.000000,-0.003000,0.000000,0.000000,FlatInitial
10:59:45.817 AM 02/13/2016,Teleop Enabled,0,FALSE,0,NO ERROR,0.000000,0.000000,9000.000000,9000.000000,Speed,Speed,-0.350000,1.110000,2.840000,4.000000,101.000000,1,0,-0.003038,-0.005022,0,0.000000,0.000000,0.000000,-1.475433,-0.735519,0.000000,0.000000,-0.002000,0.001000,FlatInitial
10:59:45.917 AM 02/13/2016,Teleop Enabled,0,FALSE,0,NO ERROR,0.000000,0.000000,9000.000000,9000.000000,Speed,Speed,-0.350000,1.110000,2.840000,4.000000,101.000000,1,0,-0.003038,-0.005022,0,0.000000,0.000000,0.000000,-1.475433,-0.735519,0.000000,0.003000,-0.001000,0.000000,FlatInitial
10:59:46.018 AM 02/13/2016,Teleop Enabled,0,FALSE,0,NO ERROR,0.000000,0.000000,9000.000000,9000.000000,Speed,Speed,-0.340000,1.120000,2.850000,4.000000,101.000000,1,0,-0.003038,-0.005022,0,0.000000,0.000000,0.000000,-1.475433,-0.735519,0.000000,0.001000,0.002000,0.001000,FlatInitial
10:59:46.119 AM 02/13/2016,Teleop Enabled,0,FALSE,0,NO ERROR,0.000000,0.000000,9000.000000,9000.000000,Speed,Speed,-0.340000,1.120000,2.860000,4.000000,101.000000,1,0,-0.003038,-0.005022,0,0.000000,0.000000,0.000000,-1.475433,-0.735519,0.000000,0.001000,0.003000,-0.002000,FlatInitial
10:59:46.219 AM 02/13/2016,Teleop Enabled,0,FALSE,0,NO ERROR,0.000000,0.000000,9000.000000,9000.000000,Speed,Speed,-0.340000,1.130000,2.860000,4.000000,101.000000,1,0,-0.003038,-0.005022,0,0.000000,0.000000,0.000000,-1.475433,-0.735519,0.000000,0.000000,0.003000,0.002000,FlatInitial
10:59:46.320 AM 02/13/2016,Teleop Enabled,0,FALSE,0,NO ERROR,0.000000,0.000000,9000.000000,9000.000000,Speed,Speed,-0.340000,1.130000,2.880000,4.000000,101.000000,1,0,-0.003038,-0.005022,0,0.005020,0.008362,0.000000,-1.475388,-0.735443,0.000000,0.048000,-0.003000,0.047000,FlatInitial
10:59:46.421 AM 02/13/2016,Teleop Enabled,0,FALSE,0,NO ERROR,0.000000,0.000000,9000.000000,9000.000000,Speed,Speed,-0.350000,1.100000,2.880000,4.000000,102.000000,1,0,-0.003038,-0.005022,0,0.008942,-0.023041,0.000000,-1.474609,-0.735687,0.000000,-0.025000,-0.079000,-0.070000,FlatInitial
10:59:46.522 AM 02/13/2016,Teleop Enabled,0,FALSE,0,NO ERROR,0.000000,0.000000,9000.000000,9000.000000,Speed,Speed,-0.370000,1.090000,2.900000,4.000000,102.000000,1,0,-0.003038,-0.005022,0,0.031311,-0.032013,0.000000,-1.473831,-0.737167,0.000000,0.061000,0.040000,-0.111000,FlatInitial
10:59:46.623 AM 02/13/2016,Teleop Enabled,0,FALSE,0,NO ERROR,0.000000,0.000000,9000.000000,9000.000000,Speed,Speed,-0.360000,1.130000,2.930000,4.000000,101.000000,1,0,-0.003038,-0.005022,0,0.021240,-0.047638,0.000000,-1.472549,-0.739243,0.000000,0.032000,0.036000,0.010000,FlatInitial
10:59:46.723 AM 02/13/2016,Teleop Enabled,0,FALSE,0,NO ERROR,0.000000,0.000000,9000.000000,9000.000000,Speed,Speed,-0.380000,1.140000,2.870000,4.000000,101.000000,1,0,-0.003038,-0.005022,0,0.025894,-0.065979,0.000000,-1.471771,-0.742157,0.000000,-0.085000,-0.028000,-0.042000,FlatInitial
10:59:46.824 AM 02/13/2016,Teleop Enabled,0,FALSE,0,NO ERROR,0.000000,0.000000,9000.000000,9000.000000,Speed,Speed,-0.350000,1.100000,2.880000,4.000000,105.000000,1,0,-0.003038,-0.005022,0,0.011200,-0.064667,0.000000,-1.471054,-0.745438,0.000000,-0.053000,-0.030000,-0.098000,FlatInitial
10:59:46.924 AM 02/13/2016,Teleop Enabled,0,FALSE,0,NO ERROR,0.000000,0.000000,9000.000000,9000.000000,Speed,Speed,-0.350000,1.120000,2.900000,4.000000,107.000000,1,0,-0.003038,-0.005022,0,-0.001419,-0.065002,0.000000,-1.471039,-0.748352,0.000000,-0.040000,-0.035000,0.005000,FlatInitial
10:59:47.025 AM 02/13/2016,Teleop Enabled,0,FALSE,0,NO ERROR,0.000000,0.000000,9000.000000,9000.000000,Speed,Speed,-0.360000,1.120000,2.910000,4.000000,101.000000,1,0,-0.003038,-0.005022,0,-0.001083,-0.084320,0.000000,-1.471161,-0.752258,0.000000,-0.092000,0.000000,-0.037000,FlatInitial
10:59:47.126 AM 02/13/2016,Teleop Enabled,0,FALSE,0,NO ERROR,0.000000,0.000000,9000.000000,9000.000000,Speed,Speed,-0.350000,1.100000,2.890000,4.000000,100.000000,1,0,-0.003038,-0.005022,0,-0.007950,-0.089005,0.000000,-1.471451,-0.756454,0.000000,-0.034000,-0.071000,0.049000,FlatInitial
10:59:47.227 AM 02/13/2016,Teleop Enabled,0,FALSE,0,NO ERROR,0.000000,0.000000,9000.000000,9000.000000,Speed,Speed,-0.340000,1.120000,2.910000,4.000000,102.000000,1,0,-0.003038,-0.005022,0,-0.012192,-0.096313,0.000000,-1.472229,-0.761093,0.000000,-0.038000,-0.053000,0.018000,FlatInitial
10:59:47.327 AM 02/13/2016,Teleop Enabled,0,FALSE,0,NO ERROR,0.000000,0.000000,9000.000000,9000.000000,Speed,Speed,-0.330000,1.110000,2.920000,4.000000,101.000000,1,0,-0.003038,-0.005022,0,-0.023270,0.000000,0.000000,-1.473740,-0.764526,0.000000,0.125000,-0.012000,0.073000,FlatInitial
10:59:47.428 AM 02/13/2016,Teleop Enabled,0,FALSE,0,NO ERROR,0.000000,0.000000,9000.000000,9000.000000,Speed,Speed,-0.330000,1.140000,2.900000,4.000000,102.000000,1,0,-0.003038,-0.005022,0,-0.029739,0.003006,0.000000,-1.474380,-0.764511,0.000000,-0.022000,0.039000,-0.024000,FlatInitial
10:59:47.529 AM 02/13/2016,Teleop Enabled,0,FALSE,0,NO ERROR,0.000000,0.000000,9000.000000,9000.000000,Speed,Speed,-0.330000,1.120000,2.870000,4.000000,101.000000,1,0,-0.003038,-0.005022,0,-0.042191,0.006195,0.000000,-1.476669,-0.764252,0.000000,0.035000,-0.065000,0.010000,FlatInitial
10:59:47.629 AM 02/13/2016,Teleop Enabled,0,FALSE,0,NO ERROR,0.000000,0.000000,9000.000000,9000.000000,Speed,Speed,-0.330000,1.140000,2.800000,4.000000,101.000000,1,0,-0.003038,-0.005022,0,-0.031845,0.001724,0.000000,-1.478607,-0.764404,0.000000,0.027000,0.062000,-0.044000,FlatInitial
10:59:47.730 AM 02/13/2016,Teleop Enabled,0,FALSE,0,NO ERROR,0.000000,0.000000,9000.000000,9000.000000,Speed,Speed,-0.320000,1.100000,2.790000,4.000000,101.000000,1,0,-0.003038,-0.005022,0,0.000000,0.020767,0.000000,-1.480026,-0.763794,0.000000,-0.074000,-0.029000,-0.068000,FlatInitial
10:59:47.830 AM 02/13/2016,Teleop Enabled,0,FALSE,0,NO ERROR,0.000000,0.000000,9000.000000,9000.000000,Speed,Speed,-0.340000,1.130000,2.780000,4.000000,102.000000,1,0,-0.003038,-0.005022,0,0.008621,0.006531,0.000000,-1.480392,-0.762604,0.000000,0.019000,-0.081000,0.071000,FlatInitial
10:59:47.930 AM 02/13/2016,Teleop Enabled,0,FALSE,0,NO ERROR,0.000000,0.000000,9000.000000,9000.000000,Speed,Speed,-0.370000,1.160000,2.710000,4.000000,106.000000,1,0,-0.003038,-0.005022,0,0.012024,-0.007019,0.000000,-1.479492,-0.762634,0.000000,-0.051000,-0.021000,-0.047000,FlatInitial
10:59:48.030 AM 02/13/2016,Teleop Enabled,0,FALSE,0,NO ERROR,0.000000,0.000000,9000.000000,9000.000000,Speed,Speed,-0.310000,1.090000,2.650000,4.000000,101.000000,1,0,-0.003038,-0.005022,0,0.004761,0.000000,0.000000,-1.479477,-0.762756,0.000000,-0.028000,-0.034000,0.007000,FlatInitial
10:59:48.131 AM 02/13/2016,Teleop Enabled,0,FALSE,0,NO ERROR,0.000000,0.000000,9000.000000,9000.000000,Speed,Speed,-0.330000,1.060000,2.560000,4.000000,101.000000,1,0,-0.003038,-0.005022,0,0.000000,-0.004532,0.000000,-1.478760,-0.763245,0.000000,0.001000,0.048000,-0.085000,FlatInitial
10:59:48.232 AM 02/13/2016,Teleop Enabled,0,FALSE,0,NO ERROR,0.000000,0.000000,9000.000000,9000.000000,Speed,Speed,-0.330000,1.080000,2.610000,4.000000,101.000000,1,0,-0.003038,-0.005022,0,0.000000,0.000000,0.000000,-1.478760,-0.763519,0.000000,-0.013000,0.011000,0.015000,FlatInitial
10:59:48.332 AM 02/13/2016,Teleop Enabled,0,FALSE,0,NO ERROR,0.000000,0.000000,9000.000000,9000.000000,Speed,Speed,-0.330000,1.080000,2.660000,4.000000,102.000000,1,0,-0.003038,-0.005022,0,0.000000,-0.000122,0.000000,-1.478714,-0.763580,0.000000,-0.008000,-0.015000,-0.062000,FlatInitial
10:59:48.434 AM 02/13/2016,Teleop Enabled,0,FALSE,0,NO ERROR,0.000000,0.000000,9000.000000,9000.000000,Speed,Speed,-0.340000,1.100000,2.670000,4.000000,101.000000,1,0,-0.003038,-0.005022,0,0.000000,-0.000748,0.000000,-1.478714,-0.763596,0.000000,0.004000,0.019000,0.017000,FlatInitial
10:59:48.534 AM 02/13/2016,Teleop Enabled,0,FALSE,0,NO ERROR,0.000000,0.000000,9000.000000,9000.000000,Speed,Speed,-0.340000,1.090000,2.640000,4.000000,102.000000,1,0,-0.003038,-0.005022,0,0.000000,0.000000,0.000000,-1.478714,-0.763626,0.000000,0.014000,0.009000,-0.016000,FlatInitial
10:59:48.634 AM 02/13/2016,Teleop Enabled,0,FALSE,0,NO ERROR,0.000000,0.000000,9000.000000,9000.000000,Speed,Speed,-0.340000,1.090000,2.660000,4.000000,101.000000,1,0,-0.003038,-0.005022,0,0.000000,-0.002563,0.000000,-1.478714,-0.763657,0.000000,-0.002000,-0.003000,0.000000,FlatInitial
10:59:48.734 AM 02/13/2016,Teleop Enabled,0,FALSE,0,NO ERROR,0.000000,0.000000,9000.000000,9000.000000,Speed,Speed,-0.340000,1.090000,2.660000,4.000000,102.000000,1,0,-0.003038,-0.005022,0,0.000000,0.000000,0.000000,-1.478714,-0.763672,0.000000,0.006000,0.012000,0.005000,FlatInitial
10:59:48.834 AM 02/13/2016,Teleop Enabled,0,FALSE,0,NO ERROR,0.000000,0.000000,9000.000000,9000.000000,Speed,Speed,-0.340000,1.090000,2.660000,4.000000,102.000000,1,0,-0.003038,-0.005022,0,0.000000,0.000000,0.000000,-1.478714,-0.763672,0.000000,0.006000,0.000000,0.000000,FlatInitial
10:59:48.934 AM 02/13/2016,Teleop Enabled,0,FALSE,0,NO ERROR,0.000000,0.000000,9000.000000,9000.000000,Speed,Speed,-0.340000,1.100000,2.680000,4.000000,103.000000,1,0,-0.003038,-0.005022,0,0.000000,0.000000,0.000000,-1.478714,-0.763672,0.000000,0.002000,-0.002000,-0.001000,FlatInitial
10:59:49.035 AM 02/13/2016,Teleop Enabled,0,FALSE,0,NO ERROR,0.000000,0.000000,9000.000000,9000.000000,Speed,Speed,-0.370000,1.110000,2.710000,4.000000,102.000000,1,0,-0.003038,-0.005022,0,0.000000,0.000000,0.000000,-1.478714,-0.763672,0.000000,0.001000,0.016000,0.000000,FlatInitial
10:59:49.135 AM 02/13/2016,Teleop Enabled,0,FALSE,0,NO ERROR,0.000000,0.000000,9000.000000,9000.000000,Speed,Speed,-0.360000,1.110000,2.820000,4.000000,102.000000,1,0,-0.003038,-0.005022,0,0.000000,0.000000,0.000000,-1.478714,-0.763672,0.000000,0.002000,-0.005000,0.000000,FlatInitial
10:59:49.235 AM 02/13/2016,Teleop Enabled,0,FALSE,0,NO ERROR,0.000000,0.000000,9000.000000,9000.000000,Speed,Speed,-0.370000,1.120000,2.850000,4.000000,101.000000,1,0,-0.003038,-0.005022,0,0.000000,0.000000,0.000000,-1.478714,-0.763672,0.000000,0.000000,0.000000,-0.003000,FlatInitial
10:59:49.335 AM 02/13/2016,Teleop Enabled,0,FALSE,0,NO ERROR,0.000000,0.000000,9000.000000,9000.000000,Speed,Speed,-0.370000,1.120000,2.880000,4.000000,101.000000,1,0,-0.003038,-0.005022,0,0.000000,0.000000,0.000000,-1.478714,-0.763672,0.000000,0.000000,-0.005000,0.008000,FlatInitial
10:59:49.435 AM 02/13/2016,Teleop Enabled,0,FALSE,0,NO ERROR,0.000000,0.000000,9000.000000,9000.000000,Speed,Speed,-0.380000,1.140000,2.910000,4.000000,101.000000,1,0,-0.003038,-0.005022,0,0.009979,0.000000,0.000000,-1.478485,-0.763672,0.000000,0.016000,-0.012000,0.003000,FlatInitial
10:59:49.535 AM 02/13/2016,Teleop Enabled,0,FALSE,0,NO ERROR,0.000000,0.000000,9000.000000,9000.000000,Speed,Speed,-0.360000,1.110000,2.920000,4.000000,101.000000,1,0,-0.003038,-0.005022,0,0.015701,0.005203,0.000000,-1.478165,-0.764114,0.000000,0.117000,0.031000,0.138000,FlatInitial
10:59:49.636 AM 02/13/2016,Teleop Enabled,0,FALSE,0,NO ERROR,0.000000,0.000000,9000.000000,9000.000000,Speed,Speed,-0.380000,1.150000,2.930000,4.000000,104.000000,1,0,-0.003038,-0.005022,0,0.016357,-0.005371,0.000000,-1.477631,-0.764038,0.000000,-0.094000,-0.007000,-0.047000,FlatInitial
10:59:49.737 AM 02/13/2016,Teleop Enabled,0,FALSE,0,NO ERROR,0.000000,0.000000,9000.000000,9000.000000,Speed,Speed,-0.380000,1.110000,2.940000,4.000000,103.000000,1,0,-0.003038,-0.005022,0,-0.023819,-0.006546,0.000000,-1.478210,-0.764435,0.000000,-0.010000,0.070000,0.070000,FlatInitial
10:59:49.838 AM 02/13/2016,Teleop Enabled,0,FALSE,0,NO ERROR,0.000000,0.000000,9000.000000,9000.000000,Speed,Speed,-0.330000,1.100000,2.940000,4.000000,102.000000,1,0,-0.003038,-0.005022,0,0.000000,-0.007629,0.000000,-1.478485,-0.764816,0.000000,-0.001000,0.007000,0.025000,FlatInitial
10:59:49.938 AM 02/13/2016,Teleop Enabled,0,FALSE,0,NO ERROR,0.000000,0.000000,9000.000000,9000.000000,Speed,Speed,-0.370000,1.140000,2.930000,4.000000,102.000000,1,0,-0.003038,-0.005022,0,0.000000,-0.009705,0.000000,-1.478180,-0.765121,0.000000,0.007000,-0.053000,-0.077000,FlatInitial
10:59:50.038 AM 02/13/2016,Teleop Enabled,0,FALSE,0,NO ERROR,0.000000,0.000000,9000.000000,9000.000000,Speed,Speed,-0.380000,1.110000,2.920000,4.000000,104.000000,1,0,-0.003038,-0.005022,0,0.002670,-0.010376,0.000000,-1.477768,-0.765671,0.000000,0.030000,0.025000,0.096000,FlatInitial
10:59:50.137 AM 02/13/2016,Teleop Enabled,0,FALSE,0,NO ERROR,0.000000,0.000000,9000.000000,9000.000000,Speed,Speed,-0.370000,1.120000,2.870000,4.000000,102.000000,1,0,-0.003038,-0.005022,0,0.010986,-0.004150,0.000000,-1.477509,-0.765930,0.000000,0.022000,-0.064000,0.010000,FlatInitial
10:59:50.237 AM 02/13/2016,Teleop Enabled,0,FALSE,0,NO ERROR,0.000000,0.000000,9000.000000,9000.000000,Speed,Speed,-0.340000,1.110000,2.870000,4.000000,102.000000,1,0,-0.003038,-0.005022,0,-0.000397,-0.021652,0.000000,-1.477142,-0.766785,0.000000,0.014000,0.032000,-0.046000,FlatInitial
10:59:50.337 AM 02/13/2016,Teleop Enabled,0,FALSE,0,NO ERROR,0.000000,0.000000,9000.000000,9000.000000,Speed,Speed,-0.340000,1.110000,2.810000,4.000000,103.000000,1,0,-0.003038,-0.005022,0,-0.014908,-0.007812,0.000000,-1.477554,-0.767410,0.000000,-0.054000,-0.043000,-0.055000,FlatInitial
10:59:50.438 AM 02/13/2016,Teleop Enabled,0,FALSE,0,NO ERROR,0.000000,0.000000,9000.000000,9000.000000,Speed,Speed,-0.360000,1.100000,2.720000,4.000000,100.000000,1,0,-0.003038,-0.005022,0,-0.055862,-0.004211,0.000000,-1.479630,-0.767776,0.000000,0.044000,0.072000,0.089000,FlatInitial
10:59:50.538 AM 02/13/2016,Teleop Enabled,0,FALSE,0,NO ERROR,0.000000,0.000000,9000.000000,9000.000000,Speed,Speed,-0.340000,1.090000,2.610000,4.000000,101.000000,1,0,-0.003038,-0.005022,0,-0.004318,-0.035538,0.000000,-1.480988,-0.768600,0.000000,-0.086000,0.036000,0.041000,FlatInitial
10:59:50.639 AM 02/13/2016,Teleop Enabled,0,FALSE,0,NO ERROR,0.000000,0.000000,9000.000000,9000.000000,Speed,Speed,-0.340000,1.080000,2.590000,4.000000,101.000000,1,0,-0.003038,-0.005022,0,-0.022827,-0.020081,0.000000,-1.482193,-0.769913,0.000000,-0.024000,0.061000,0.125000,FlatInitial
10:59:50.738 AM 02/13/2016,Teleop Enabled,0,FALSE,0,NO ERROR,0.000000,0.000000,9000.000000,9000.000000,Speed,Speed,-0.340000,1.090000,2.610000,4.000000,102.000000,1,0,-0.003038,-0.005022,0,-0.020660,-0.014725,0.000000,-1.483383,-0.771088,0.000000,0.012000,-0.009000,0.038000,FlatInitial
10:59:50.839 AM 02/13/2016,Teleop Enabled,0,FALSE,0,NO ERROR,0.000000,0.000000,9000.000000,9000.000000,Speed,Speed,-0.340000,1.100000,2.720000,4.000000,103.000000,1,0,-0.003038,-0.005022,0,-0.006500,0.000000,0.000000,-1.483734,-0.771591,0.000000,-0.022000,0.000000,0.021000,FlatInitial
10:59:50.938 AM 02/13/2016,Teleop Enabled,0,FALSE,0,NO ERROR,0.000000,0.000000,9000.000000,9000.000000,Speed,Speed,-0.350000,1.090000,2.650000,4.000000,105.000000,1,0,-0.003038,-0.005022,0,-0.014053,0.006760,0.000000,-1.484421,-0.771469,0.000000,0.025000,0.019000,-0.029000,FlatInitial
10:59:51.040 AM 02/13/2016,Teleop Enabled,0,FALSE,0,NO ERROR,0.000000,0.000000,9000.000000,9000.000000,Speed,Speed,-0.340000,1.100000,2.630000,4.000000,101.000000,1,0,-0.003038,-0.005022,0,0.000000,0.000000,0.000000,-1.484970,-0.771469,0.000000,-0.016000,0.009000,0.016000,FlatInitial
10:59:51.140 AM 02/13/2016,Teleop Enabled,0,FALSE,0,NO ERROR,0.000000,0.000000,9000.000000,9000.000000,Speed,Speed,-0.340000,1.090000,2.700000,4.000000,101.000000,1,0,-0.003038,-0.005022,0,0.000000,0.000000,0.000000,-1.484970,-0.771469,0.000000,0.008000,0.002000,-0.015000,FlatInitial
10:59:51.239 AM 02/13/2016,Teleop Enabled,0,FALSE,0,NO ERROR,0.000000,0.000000,9000.000000,9000.000000,Speed,Speed,-0.340000,1.100000,2.640000,4.000000,101.000000,1,0,-0.003038,-0.005022,0,0.000000,0.000000,0.000000,-1.484970,-0.771469,0.000000,-0.013000,-0.003000,0.017000,FlatInitial
10:59:51.340 AM 02/13/2016,Teleop Enabled,0,FALSE,0,NO ERROR,0.000000,0.000000,9000.000000,9000.000000,Speed,Speed,-0.340000,1.100000,2.670000,4.000000,101.000000,1,0,-0.003038,-0.005022,0,0.000000,0.000000,0.000000,-1.484970,-0.771469,0.000000,0.008000,-0.003000,-0.012000,FlatInitial
10:59:51.439 AM 02/13/2016,Teleop Enabled,0,FALSE,0,NO ERROR,0.000000,0.000000,9000.000000,9000.000000,Speed,Speed,-0.350000,1.100000,2.670000,4.000000,101.000000,1,0,-0.003038,-0.005022,0,0.000000,0.000000,0.000000,-1.484970,-0.771469,0.000000,-0.003000,-0.001000,0.008000,FlatInitial
10:59:51.539 AM 02/13/2016,Teleop Enabled,0,FALSE,0,NO ERROR,0.000000,0.000000,9000.000000,9000.000000,Speed,Speed,-0.350000,1.100000,2.650000,4.000000,101.000000,1,0,-0.003038,-0.005022,0,0.000000,0.000000,0.000000,-1.484970,-0.771469,0.000000,0.000000,0.000000,-0.004000,FlatInitial
10:59:51.640 AM 02/13/2016,Teleop Enabled,0,FALSE,0,NO ERROR,0.000000,0.000000,9000.000000,9000.000000,Speed,Speed,-0.370000,1.110000,2.690000,4.000000,103.000000,1,0,-0.003038,-0.005022,0,0.000000,0.000000,0.000000,-1.484970,-0.771469,0.000000,0.001000,-0.003000,-0.006000,FlatInitial
10:59:51.740 AM 02/13/2016,Teleop Enabled,0,FALSE,0,NO ERROR,0.000000,0.000000,9000.000000,9000.000000,Speed,Speed,-0.350000,1.110000,2.720000,4.000000,101.000000,1,0,-0.003038,-0.005022,0,0.000000,0.000000,0.000000,-1.484970,-0.771469,0.000000,0.001000,-0.005000,-0.007000,FlatInitial
10:59:51.840 AM 02/13/2016,Teleop Enabled,0,FALSE,0,NO ERROR,0.000000,0.000000,9000.000000,9000.000000,Speed,Speed,-0.370000,1.120000,2.840000,4.000000,101.000000,1,0,-0.003038,-0.005022,0,0.000000,0.000000,0.000000,-1.484970,-0.771469,0.000000,-0.006000,-0.005000,0.001000,FlatInitial
10:59:51.941 AM 02/13/2016,Teleop Enabled,0,FALSE,0,NO ERROR,0.000000,0.000000,9000.000000,9000.000000,Speed,Speed,-0.430000,1.130000,2.880000,4.000000,101.000000,1,0,-0.003038,-0.005022,0,0.000000,0.000000,0.000000,-1.484970,-0.771469,0.000000,0.005000,0.006000,0.000000,FlatInitial
10:59:52.040 AM 02/13/2016,Teleop Enabled,0,FALSE,0,NO ERROR,0.000000,0.000000,9000.000000,9000.000000,Speed,Speed,-0.390000,1.120000,2.940000,4.000000,103.000000,1,0,-0.003038,-0.005022,0,0.000000,0.000000,0.000000,-1.484970,-0.771469,0.000000,-0.012000,0.016000,0.006000,FlatInitial
