Time,RobotMode,AutoToRun,ErrorStatus, ErrorCode,ErrorSource,ActualRPM1,ActualRPM2,DesiredRPM1,DesiredRPM2,ControlMode1,ControlMode2,NavXYaw,NavXRoll,NavXPitch,ShooterState,LoopTime,IsLevel,IsAutoTargeting,LeftMotorOutput,RightMotorOutput,IsHaloDrive,NavXVelocityX,NavXVelocityY,NavXVelocityZ,NavXDisplacementX,NavXDisplacementY,NavXDisplacementZ,NavXAccelerationX,NavXAccelerationY,NavXAccelerationZ,AutoDefendState
03:13:22.687 PM 02/13/2016,Teleop Enabled,0,TRUE,-44087,NetComm_CAN_Receive.vi:5470006<APPEND>  <b>Complete call chain:</b>      NetComm_CAN_Receive.vi:5470006      WPI_CANTalonSRX_Receive.vi      WPI_MotorControlOpenCANTalonSRX.vi      Begin.vi      Robot Main.vi,0.000000,0.000000,4000.000000,4000.000000,Speed,Speed,-0.130000,0.390000,2.410000,3.000000,101.000000,1,0,-0.003968,-0.000248,0,0.000000,0.000000,0.000000,0.012619,-0.039871,0.000000,-0.002000,0.000000,0.005000,FlatInitial
03:13:22.787 PM 02/13/2016,Teleop Enabled,0,TRUE,-44087,NetComm_CAN_Receive.vi:5470006<APPEND>  <b>Complete call chain:</b>      NetComm_CAN_Receive.vi:5470006      WPI_CANTalonSRX_Receive.vi      WPI_MotorControlOpenCANTalonSRX.vi      Begin.vi      Robot Main.vi,0.000000,0.000000,4000.000000,4000.000000,Speed,Speed,-0.130000,0.380000,2.300000,3.000000,101.000000,1,0,-0.003968,-0.000248,0,0.003784,-0.003326,0.000000,0.012680,-0.039978,0.000000,-0.020000,0.011000,-0.025000,FlatInitial
03:13:22.887 PM 02/13/2016,Teleop Enabled,0,TRUE,-44087,NetComm_CAN_Receive.vi:5470006<APPEND>  <b>Complete call chain:</b>      NetComm_CAN_Receive.vi:5470006      WPI_CANTalonSRX_Receive.vi      WPI_MotorControlOpenCANTalonSRX.vi      Begin.vi      Robot Main.vi,0.000000,0.000000,4000.000000,4000.000000,Speed,Speed,-0.130000,0.400000,2.460000,3.000000,102.000000,1,0,-0.003968,-0.000248,0,0.000000,0.000000,0.000000,0.012726,-0.039978,0.000000,-0.004000,0.013000,0.004000,FlatInitial
03:13:22.987 PM 02/13/2016,Teleop Enabled,0,TRUE,-44087,NetComm_CAN_Receive.vi:5470006<APPEND>  <b>Complete call chain:</b>      NetComm_CAN_Receive.vi:5470006      WPI_CANTalonSRX_Receive.vi      WPI_MotorControlOpenCANTalonSRX.vi      Begin.vi      Robot Main.vi,0.000000,0.000000,4000.000000,4000.000000,Speed,Speed,-0.150000,0.420000,2.420000,3.000000,101.000000,1,0,-0.003968,-0.000248,0,0.000000,0.000000,0.000000,0.012726,-0.039978,0.000000,0.002000,-0.014000,0.028000,FlatInitial
03:13:23.088 PM 02/13/2016,Teleop Enabled,0,TRUE,-44087,NetComm_CAN_Receive.vi:5470006<APPEND>  <b>Complete call chain:</b>      NetComm_CAN_Receive.vi:5470006      WPI_CANTalonSRX_Receive.vi      WPI_MotorControlOpenCANTalonSRX.vi      Begin.vi      Robot Main.vi,0.000000,0.000000,4000.000000,4000.000000,Speed,Speed,-0.140000,0.410000,2.390000,3.000000,101.000000,1,0,-0.003968,-0.000248,0,-0.001785,-0.025345,0.000000,0.012741,-0.040512,0.000000,0.000000,-0.015000,-0.014000,FlatInitial
03:13:23.189 PM 02/13/2016,Teleop Enabled,0,TRUE,-44087,NetComm_CAN_Receive.vi:5470006<APPEND>  <b>Complete call chain:</b>      NetComm_CAN_Receive.vi:5470006      WPI_CANTalonSRX_Receive.vi      WPI_MotorControlOpenCANTalonSRX.vi      Begin.vi      Robot Main.vi,0.000000,0.000000,4000.000000,4000.000000,Speed,Speed,-0.160000,0.380000,2.330000,3.000000,102.000000,1,0,-0.003968,-0.000248,0,-0.020676,-0.039108,0.000000,0.012253,-0.042007,0.000000,0.001000,0.009000,0.008000,FlatInitial
03:13:23.290 PM 02/13/2016,Teleop Enabled,0,TRUE,-44087,NetComm_CAN_Receive.vi:5470006<APPEND>  <b>Complete call chain:</b>      NetComm_CAN_Receive.vi:5470006      WPI_CANTalonSRX_Receive.vi      WPI_MotorControlOpenCANTalonSRX.vi      Begin.vi      Robot Main.vi,0.000000,0.000000,4000.000000,4000.000000,Speed,Speed,-0.140000,0.380000,2.350000,3.000000,101.000000,1,0,-0.003968,-0.000248,0,0.003784,-0.014069,0.000000,0.012100,-0.043350,0.000000,0.002000,0.049000,-0.079000,FlatInitial
03:13:23.391 PM 02/13/2016,Teleop Enabled,0,TRUE,-44087,NetComm_CAN_Receive.vi:5470006<APPEND>  <b>Complete call chain:</b>      NetComm_CAN_Receive.vi:5470006      WPI_CANTalonSRX_Receive.vi      WPI_MotorControlOpenCANTalonSRX.vi      Begin.vi      Robot Main.vi,0.000000,0.000000,4000.000000,4000.000000,Speed,Speed,-0.150000,0.380000,2.370000,3.000000,108.000000,1,0,-0.003968,-0.000248,0,0.013794,-0.002396,0.000000,0.012390,-0.043732,0.000000,0.050000,0.031000,0.061000,FlatInitial
03:13:23.491 PM 02/13/2016,Teleop Enabled,0,TRUE,-44087,NetComm_CAN_Receive.vi:5470006<APPEND>  <b>Complete call chain:</b>      NetComm_CAN_Receive.vi:5470006      WPI_CANTalonSRX_Receive.vi      WPI_MotorControlOpenCANTalonSRX.vi      Begin.vi      Robot Main.vi,0.000000,0.000000,4000.000000,4000.000000,Speed,Speed,-0.150000,0.380000,2.340000,3.000000,100.000000,1,0,-0.003968,-0.000248,0,0.015884,-0.026520,0.000000,0.013184,-0.044815,0.000000,-0.042000,0.064000,0.002000,FlatInitial
03:13:23.592 PM 02/13/2016,Teleop Enabled,0,TRUE,-44087,NetComm_CAN_Receive.vi:5470006<APPEND>  <b>Complete call chain:</b>      NetComm_CAN_Receive.vi:5470006      WPI_CANTalonSRX_Receive.vi      WPI_MotorControlOpenCANTalonSRX.vi      Begin.vi      Robot Main.vi,0.000000,0.000000,4000.000000,4000.000000,Speed,Speed,-0.150000,0.330000,2.300000,3.000000,103.000000,1,0,-0.003968,-0.000248,0,-0.009521,-0.014999,0.000000,0.013199,-0.045410,0.000000,-0.014000,0.026000,-0.132000,FlatInitial
03:13:23.693 PM 02/13/2016,Teleop Enabled,0,TRUE,-44087,NetComm_CAN_Receive.vi:5470006<APPEND>  <b>Complete call chain:</b>      NetComm_CAN_Receive.vi:5470006      WPI_CANTalonSRX_Receive.vi      WPI_MotorControlOpenCANTalonSRX.vi      Begin.vi      Robot Main.vi,0.000000,0.000000,4000.000000,4000.000000,Speed,Speed,-0.160000,0.370000,2.360000,3.000000,102.000000,1,0,-0.003968,-0.000248,0,-0.007339,-0.021164,0.000000,0.012451,-0.046738,0.000000,0.011000,-0.020000,0.050000,FlatInitial
03:13:23.793 PM 02/13/2016,Teleop Enabled,0,TRUE,-44087,NetComm_CAN_Receive.vi:5470006<APPEND>  <b>Complete call chain:</b>      NetComm_CAN_Receive.vi:5470006      WPI_CANTalonSRX_Receive.vi      WPI_MotorControlOpenCANTalonSRX.vi      Begin.vi      Robot Main.vi,0.000000,0.000000,4000.000000,4000.000000,Speed,Speed,-0.160000,0.370000,2.410000,3.000000,101.000000,1,0,-0.003968,-0.000248,0,0.000763,0.012482,0.000000,0.012314,-0.046951,0.000000,0.036000,-0.016000,0.064000,FlatInitial
03:13:23.893 PM 02/13/2016,Teleop Enabled,0,TRUE,-44087,NetComm_CAN_Receive.vi:5470006<APPEND>  <b>Complete call chain:</b>      NetComm_CAN_Receive.vi:5470006      WPI_CANTalonSRX_Receive.vi      WPI_CANTalonSRX_GetStatus.vi      ShooterVI.vi      Periodic Tasks.vi      Robot Main.vi,0.000000,0.000000,4000.000000,4000.000000,Speed,Speed,-0.150000,0.340000,2.370000,3.000000,101.000000,1,0,-0.003968,-0.000248,0,-0.010757,-0.018158,0.000000,0.012070,-0.046494,0.000000,-0.024000,-0.018000,-0.019000,FlatInitial
03:13:23.994 PM 02/13/2016,Teleop Enabled,0,TRUE,-44087,NetComm_CAN_Receive.vi:5470006<APPEND>  <b>Complete call chain:</b>      NetComm_CAN_Receive.vi:5470006      WPI_CANTalonSRX_Receive.vi      WPI_CANTalonSRX_GetStatus.vi      ShooterVI.vi      Periodic Tasks.vi      Robot Main.vi,0.000000,0.000000,4000.000000,4000.000000,Speed,Speed,-0.160000,0.360000,2.340000,3.000000,102.000000,1,0,-0.003968,-0.000248,0,-0.027481,0.020386,0.000000,0.011475,-0.046295,0.000000,-0.074000,0.020000,-0.002000,FlatInitial
03:13:24.094 PM 02/13/2016,Teleop Enabled,0,TRUE,-44003,<LOCATION>WPI_CameraIssue HTTP Request with Authentication.vi<CALLSTACK>WPI_CameraIssue HTTP Request with Authentication.vi< <WPI_CameraIssue Get.vi< <WPI_CameraSet Image Appearance Property.vi< <WPI_CameraSet Image Size.vi< <Vision Processing.vi< <Robot Main.vi,0.000000,0.000000,4000.000000,4000.000000,Speed,Speed,-0.160000,0.340000,2.500000,3.000000,101.000000,1,0,-0.003968,-0.000248,0,0.000000,-0.016037,0.000000,0.009521,-0.045883,0.000000,-0.004000,0.002000,0.076000,FlatInitial
03:13:24.195 PM 02/13/2016,Teleop Enabled,0,FALSE,0,NO ERROR,0.000000,0.000000,4000.000000,4000.000000,Speed,Speed,-0.160000,0.350000,2.330000,3.000000,103.000000,1,0,-0.003968,-0.000248,0,0.003433,-0.011810,0.000000,0.009659,-0.046570,0.000000,0.020000,0.055000,-0.027000,FlatInitial
03:13:24.296 PM 02/13/2016,Teleop Enabled,0,FALSE,0,NO ERROR,0.000000,0.000000,4000.000000,4000.000000,Speed,Speed,-0.170000,0.340000,2.410000,3.000000,102.000000,1,0,-0.003968,-0.000248,0,0.000000,-0.007721,0.000000,0.009720,-0.046844,0.000000,-0.001000,-0.041000,0.112000,FlatInitial
03:13:24.396 PM 02/13/2016,Teleop Enabled,0,FALSE,0,NO ERROR,0.000000,0.000000,4000.000000,4000.000000,Speed,Speed,-0.160000,0.340000,2.370000,3.000000,103.000000,1,0,-0.003968,-0.000248,0,0.000000,0.000000,0.000000,0.009720,-0.047440,0.000000,0.011000,0.000000,-0.007000,FlatInitial
03:13:24.497 PM 02/13/2016,Teleop Enabled,0,FALSE,0,NO ERROR,0.000000,0.000000,4000.000000,4000.000000,Speed,Speed,-0.180000,0.350000,2.290000,3.000000,103.000000,1,0,-0.003968,-0.000248,0,0.000000,0.000000,0.000000,0.009720,-0.047440,0.000000,0.001000,-0.011000,-0.012000,FlatInitial
03:13:24.597 PM 02/13/2016,Teleop Enabled,0,FALSE,0,NO ERROR,0.000000,0.000000,4000.000000,4000.000000,Speed,Speed,-0.170000,0.360000,2.350000,3.000000,103.000000,1,0,-0.003968,-0.000248,0,0.000000,0.000000,0.000000,0.009720,-0.047440,0.000000,-0.004000,0.016000,0.008000,FlatInitial
03:13:24.698 PM 02/13/2016,Teleop Enabled,0,FALSE,0,NO ERROR,0.000000,0.000000,4000.000000,4000.000000,Speed,Speed,-0.180000,0.360000,2.360000,3.000000,101.000000,1,0,-0.003968,-0.000248,0,0.000000,0.000000,0.000000,0.009720,-0.047440,0.000000,-0.001000,-0.003000,-0.004000,FlatInitial
03:13:24.798 PM 02/13/2016,Teleop Enabled,0,FALSE,0,NO ERROR,0.000000,0.000000,4000.000000,4000.000000,Speed,Speed,-0.180000,0.370000,2.330000,3.000000,104.000000,1,0,-0.003968,-0.000248,0,0.000000,0.000000,0.000000,0.009720,-0.047440,0.000000,0.002000,0.006000,0.000000,FlatInitial
03:13:24.898 PM 02/13/2016,Teleop Enabled,0,FALSE,0,NO ERROR,0.000000,0.000000,4000.000000,4000.000000,Speed,Speed,-0.180000,0.370000,2.360000,3.000000,120.000000,1,0,-0.003968,-0.000248,0,0.000000,0.000000,0.000000,0.009720,-0.047440,0.000000,-0.002000,-0.001000,0.008000,FlatInitial
03:13:25.000 PM 02/13/2016,Teleop Enabled,0,FALSE,0,NO ERROR,0.000000,0.000000,4000.000000,4000.000000,Speed,Speed,-0.180000,0.370000,2.360000,3.000000,102.000000,1,0,-0.003968,-0.000248,0,0.000000,0.000000,0.000000,0.009720,-0.047440,0.000000,0.000000,-0.002000,0.010000,FlatInitial
03:13:25.101 PM 02/13/2016,Teleop Enabled,0,FALSE,0,NO ERROR,0.000000,0.000000,4000.000000,4000.000000,Speed,Speed,-0.180000,0.370000,2.360000,3.000000,101.000000,1,0,-0.003968,-0.000248,0,0.000000,0.000000,0.000000,0.009720,-0.047440,0.000000,0.000000,0.000000,0.009000,FlatInitial
03:13:25.201 PM 02/13/2016,Teleop Enabled,0,FALSE,0,NO ERROR,0.000000,0.000000,4000.000000,4000.000000,Speed,Speed,-0.190000,0.380000,2.360000,3.000000,132.000000,1,0,-0.003968,-0.000248,0,0.000000,0.000000,0.000000,0.009720,-0.047440,0.000000,0.001000,-0.001000,0.008000,FlatInitial
03:13:25.302 PM 02/13/2016,Teleop Enabled,0,FALSE,0,NO ERROR,0.000000,0.000000,4000.000000,4000.000000,Speed,Speed,-0.190000,0.380000,2.350000,3.000000,101.000000,1,0,-0.003968,-0.000248,0,0.000000,0.000000,0.000000,0.009720,-0.047440,0.000000,0.000000,0.002000,0.007000,FlatInitial
03:13:25.403 PM 02/13/2016,Teleop Enabled,0,FALSE,0,NO ERROR,0.000000,0.000000,4000.000000,4000.000000,Speed,Speed,-0.200000,0.380000,2.350000,3.000000,105.000000,1,0,-0.003968,-0.000248,0,0.000000,0.000000,0.000000,0.009720,-0.047440,0.000000,0.000000,0.002000,0.007000,FlatInitial
03:13:25.503 PM 02/13/2016,Teleop Enabled,0,FALSE,0,NO ERROR,0.000000,0.000000,4000.000000,4000.000000,Speed,Speed,-0.200000,0.380000,2.350000,3.000000,101.000000,1,0,-0.003968,-0.000248,0,0.000000,0.000000,0.000000,0.009720,-0.047440,0.000000,0.000000,-0.001000,0.004000,FlatInitial
03:13:25.604 PM 02/13/2016,Teleop Enabled,0,FALSE,0,NO ERROR,0.000000,0.000000,4000.000000,4000.000000,Speed,Speed,-0.200000,0.390000,2.350000,3.000000,102.000000,1,0,-0.003968,-0.000248,0,0.000000,0.000000,0.000000,0.009720,-0.047440,0.000000,0.000000,0.000000,0.006000,FlatInitial
03:13:25.707 PM 02/13/2016,Teleop Disabled,0,FALSE,0,NO ERROR,0.000000,0.000000,4000.000000,4000.000000,Speed,Speed,-0.200000,0.390000,2.360000,3.000000,102.000000,1,0,-0.003968,-0.000248,0,0.000000,0.000000,0.000000,0.009720,-0.047440,0.000000,0.003000,0.001000,0.011000,FlatInitial
03:13:25.808 PM 02/13/2016,Teleop Disabled,0,FALSE,0,NO ERROR,0.000000,0.000000,4000.000000,4000.000000,Speed,Speed,-0.210000,0.390000,2.490000,3.000000,101.000000,1,0,-0.003968,-0.000248,0,0.000000,0.000000,0.000000,0.009720,-0.047440,0.000000,0.000000,-0.010000,0.014000,FlatInitial
03:13:25.909 PM 02/13/2016,Teleop Disabled,0,FALSE,0,NO ERROR,0.000000,0.000000,4000.000000,4000.000000,Speed,Speed,-0.210000,0.380000,2.420000,3.000000,104.000000,1,0,-0.003968,-0.000248,0,0.000000,0.000000,0.000000,0.009720,-0.047440,0.000000,0.006000,-0.001000,-0.009000,FlatInitial
03:13:26.010 PM 02/13/2016,Teleop Disabled,0,FALSE,0,NO ERROR,0.000000,0.000000,4000.000000,4000.000000,Speed,Speed,-0.230000,0.380000,2.370000,3.000000,104.000000,1,0,-0.003968,-0.000248,0,0.000000,0.007355,0.000000,0.009720,-0.047318,0.000000,0.008000,0.015000,-0.011000,FlatInitial
03:13:26.111 PM 02/13/2016,Teleop Disabled,0,FALSE,0,NO ERROR,0.000000,0.000000,4000.000000,4000.000000,Speed,Speed,-0.230000,0.380000,2.370000,3.000000,101.000000,1,0,-0.003968,-0.000248,0,0.000000,0.000000,0.000000,0.009720,-0.047318,0.000000,0.771000,-0.266000,0.174000,FlatInitial
03:13:26.212 PM 02/13/2016,Teleop Disabled,0,FALSE,0,NO ERROR,0.000000,0.000000,4000.000000,4000.000000,Speed,Speed,-0.170000,0.490000,2.370000,3.000000,104.000000,1,0,-0.003968,-0.000248,0,0.394150,-0.268860,0.000000,0.022629,-0.053833,0.000000,0.055000,0.068000,0.124000,FlatInitial
03:13:26.313 PM 02/13/2016,Teleop Disabled,0,FALSE,0,NO ERROR,0.000000,0.000000,4000.000000,4000.000000,Speed,Speed,-0.180000,0.390000,2.370000,3.000000,104.000000,1,0,-0.003968,-0.000248,0,0.375443,-0.326569,0.000000,0.044739,-0.072495,0.000000,-0.043000,-0.026000,0.169000,FlatInitial
03:13:26.413 PM 02/13/2016,Teleop Disabled,0,FALSE,0,NO ERROR,0.000000,0.000000,4000.000000,4000.000000,Speed,Speed,-0.230000,0.420000,2.390000,3.000000,102.000000,1,0,-0.003968,-0.000248,0,0.000000,0.000000,0.000000,0.059021,-0.085785,0.000000,0.009000,0.006000,-0.031000,FlatInitial
03:13:26.513 PM 02/13/2016,Teleop Disabled,0,FALSE,0,NO ERROR,0.000000,0.000000,4000.000000,4000.000000,Speed,Speed,-0.180000,0.410000,2.280000,3.000000,102.000000,1,0,-0.003968,-0.000248,0,0.000000,-0.025894,0.000000,0.058823,-0.086624,0.000000,0.013000,-0.026000,0.009000,FlatInitial
03:13:26.614 PM 02/13/2016,Teleop Disabled,0,FALSE,0,NO ERROR,0.000000,0.000000,4000.000000,4000.000000,Speed,Speed,-0.220000,0.410000,2.300000,3.000000,102.000000,1,0,-0.003968,-0.000248,0,-0.004395,-0.003876,0.000000,0.058777,-0.087250,0.000000,0.005000,0.018000,-0.028000,FlatInitial
03:13:26.714 PM 02/13/2016,Teleop Disabled,0,FALSE,0,NO ERROR,0.000000,0.000000,4000.000000,4000.000000,Speed,Speed,-0.210000,0.420000,2.300000,3.000000,100.000000,1,0,-0.003968,-0.000248,0,0.000000,0.004349,0.000000,0.058640,-0.087265,0.000000,0.001000,0.029000,-0.039000,FlatInitial
03:13:26.813 PM 02/13/2016,Teleop Disabled,0,FALSE,0,NO ERROR,0.000000,0.000000,4000.000000,4000.000000,Speed,Speed,-0.210000,0.420000,2.320000,3.000000,102.000000,1,0,-0.003968,-0.000248,0,0.000000,0.005371,0.000000,0.058640,-0.087067,0.000000,-0.003000,0.012000,-0.007000,FlatInitial
03:13:26.913 PM 02/13/2016,Teleop Disabled,0,FALSE,0,NO ERROR,0.000000,0.000000,4000.000000,4000.000000,Speed,Speed,-0.210000,0.430000,2.370000,3.000000,105.000000,1,0,-0.003968,-0.000248,0,0.000000,0.000000,0.000000,0.058640,-0.087021,0.000000,-0.004000,-0.010000,0.015000,FlatInitial
03:13:27.013 PM 02/13/2016,Teleop Disabled,0,FALSE,0,NO ERROR,0.000000,0.000000,4000.000000,4000.000000,Speed,Speed,-0.210000,0.420000,2.320000,3.000000,102.000000,1,0,-0.003968,-0.000248,0,0.000000,0.000000,0.000000,0.058640,-0.087021,0.000000,0.003000,0.002000,0.004000,FlatInitial
03:13:27.114 PM 02/13/2016,Teleop Disabled,0,FALSE,0,NO ERROR,0.000000,0.000000,4000.000000,4000.000000,Speed,Speed,-0.220000,0.420000,2.320000,3.000000,101.000000,1,0,-0.003968,-0.000248,0,0.000000,0.000000,0.000000,0.058640,-0.087021,0.000000,-0.002000,-0.001000,0.015000,FlatInitial
03:13:27.215 PM 02/13/2016,Teleop Disabled,0,FALSE,0,NO ERROR,0.000000,0.000000,4000.000000,4000.000000,Speed,Speed,-0.220000,0.410000,2.360000,3.000000,102.000000,1,0,-0.003968,-0.000248,0,0.000000,0.000000,0.000000,0.058640,-0.087021,0.000000,0.000000,-0.002000,0.017000,FlatInitial
03:13:27.316 PM 02/13/2016,Teleop Disabled,0,FALSE,0,NO ERROR,0.000000,0.000000,4000.000000,4000.000000,Speed,Speed,-0.230000,0.420000,2.350000,3.000000,101.000000,1,0,-0.003968,-0.000248,0,0.000000,0.000000,0.000000,0.058640,-0.087021,0.000000,-0.001000,0.001000,0.005000,FlatInitial
03:13:27.416 PM 02/13/2016,Teleop Disabled,0,FALSE,0,NO ERROR,0.000000,0.000000,4000.000000,4000.000000,Speed,Speed,-0.230000,0.410000,2.340000,3.000000,104.000000,1,0,-0.003968,-0.000248,0,0.000000,0.000000,0.000000,0.058640,-0.087021,0.000000,-0.002000,0.006000,0.006000,FlatInitial
03:13:27.516 PM 02/13/2016,Teleop Disabled,0,FALSE,0,NO ERROR,0.000000,0.000000,4000.000000,4000.000000,Speed,Speed,-0.230000,0.420000,2.360000,3.000000,103.000000,1,0,-0.003968,-0.000248,0,0.000000,0.000000,0.000000,0.058640,-0.087021,0.000000,-0.001000,0.000000,0.010000,FlatInitial
03:13:27.617 PM 02/13/2016,Teleop Disabled,0,FALSE,0,NO ERROR,0.000000,0.000000,4000.000000,4000.000000,Speed,Speed,-0.230000,0.420000,2.360000,3.000000,100.000000,1,0,-0.003968,-0.000248,0,0.000000,0.000000,0.000000,0.058640,-0.087021,0.000000,-0.001000,-0.005000,0.012000,FlatInitial
03:13:27.716 PM 02/13/2016,Teleop Disabled,0,FALSE,0,NO ERROR,0.000000,0.000000,4000.000000,4000.000000,Speed,Speed,-0.230000,0.410000,2.350000,3.000000,102.000000,1,0,-0.003968,-0.000248,0,0.000000,0.000000,0.000000,0.058640,-0.087021,0.000000,0.000000,-0.002000,0.003000,FlatInitial
03:13:27.817 PM 02/13/2016,Teleop Disabled,0,FALSE,0,NO ERROR,0.000000,0.000000,4000.000000,4000.000000,Speed,Speed,-0.240000,0.410000,2.360000,3.000000,102.000000,1,0,-0.003968,-0.000248,0,0.000000,0.000000,0.000000,0.058640,-0.087021,0.000000,0.000000,-0.002000,0.010000,FlatInitial
03:13:27.918 PM 02/13/2016,Teleop Disabled,0,FALSE,0,NO ERROR,0.000000,0.000000,4000.000000,4000.000000,Speed,Speed,-0.240000,0.410000,2.360000,3.000000,101.000000,1,0,-0.003968,-0.000248,0,0.000000,0.000000,0.000000,0.058640,-0.087021,0.000000,0.002000,0.001000,0.005000,FlatInitial
03:13:28.018 PM 02/13/2016,Teleop Disabled,0,FALSE,0,NO ERROR,0.000000,0.000000,4000.000000,4000.000000,Speed,Speed,-0.250000,0.410000,2.370000,3.000000,103.000000,1,0,-0.003968,-0.000248,0,0.000000,0.000000,0.000000,0.058640,-0.087021,0.000000,0.000000,0.000000,0.009000,FlatInitial
03:13:28.119 PM 02/13/2016,Teleop Disabled,0,FALSE,0,NO ERROR,0.000000,0.000000,4000.000000,4000.000000,Speed,Speed,-0.250000,0.410000,2.370000,3.000000,103.000000,1,0,-0.003968,-0.000248,0,0.000000,0.000000,0.000000,0.058640,-0.087021,0.000000,0.001000,0.000000,0.008000,FlatInitial
03:13:28.219 PM 02/13/2016,Teleop Disabled,0,FALSE,0,NO ERROR,0.000000,0.000000,4000.000000,4000.000000,Speed,Speed,-0.250000,0.410000,2.370000,3.000000,101.000000,1,0,-0.003968,-0.000248,0,0.000000,0.000000,0.000000,0.058640,-0.087021,0.000000,0.000000,0.000000,0.012000,FlatInitial
03:13:28.319 PM 02/13/2016,Teleop Disabled,0,FALSE,0,NO ERROR,0.000000,0.000000,4000.000000,4000.000000,Speed,Speed,-0.090000,0.370000,2.430000,3.000000,103.000000,1,0,-0.003968,-0.000248,0,0.000000,0.014694,0.000000,0.058640,-0.086655,0.000000,0.013000,0.030000,-0.028000,FlatInitial
03:13:28.420 PM 02/13/2016,Teleop Disabled,0,FALSE,0,NO ERROR,0.000000,0.000000,4000.000000,4000.000000,Speed,Speed,0.070000,0.350000,2.640000,3.000000,101.000000,1,0,-0.003968,-0.000248,0,0.000000,0.008316,0.000000,0.058640,-0.085556,0.000000,-0.001000,-0.048000,0.039000,FlatInitial
03:13:28.520 PM 02/13/2016,Teleop Disabled,0,FALSE,0,NO ERROR,0.000000,0.000000,4000.000000,4000.000000,Speed,Speed,-0.100000,0.370000,2.870000,3.000000,103.000000,1,0,-0.003968,-0.000248,0,0.003250,-0.014114,0.000000,0.058990,-0.085770,0.000000,-0.021000,0.013000,0.004000,FlatInitial
03:13:28.621 PM 02/13/2016,Teleop Disabled,0,FALSE,0,NO ERROR,0.000000,0.000000,4000.000000,4000.000000,Speed,Speed,-0.030000,0.350000,2.750000,3.000000,102.000000,1,0,-0.003968,-0.000248,0,0.007065,-0.007812,0.000000,0.059174,-0.085983,0.000000,-0.001000,-0.040000,0.029000,FlatInitial
03:13:28.722 PM 02/13/2016,Teleop Disabled,0,FALSE,0,NO ERROR,0.000000,0.000000,4000.000000,4000.000000,Speed,Speed,-0.160000,0.380000,2.660000,3.000000,102.000000,1,0,-0.003968,-0.000248,0,0.003784,-0.029785,0.000000,0.059219,-0.087158,0.000000,0.000000,0.024000,0.065000,FlatInitial
03:13:28.823 PM 02/13/2016,Teleop Disabled,0,FALSE,0,NO ERROR,0.000000,0.000000,4000.000000,4000.000000,Speed,Speed,-0.220000,0.390000,2.740000,3.000000,101.000000,1,0,-0.003968,-0.000248,0,0.000000,0.000000,0.000000,0.059219,-0.087906,0.000000,0.014000,-0.003000,0.038000,FlatInitial
03:13:28.922 PM 02/13/2016,Teleop Disabled,0,FALSE,0,NO ERROR,0.000000,0.000000,4000.000000,4000.000000,Speed,Speed,-0.140000,0.390000,2.620000,3.000000,102.000000,1,0,-0.003968,-0.000248,0,0.000000,-0.012878,0.000000,0.059219,-0.088150,0.000000,0.011000,-0.015000,0.013000,FlatInitial
03:13:29.023 PM 02/13/2016,Teleop Disabled,0,FALSE,0,NO ERROR,0.000000,0.000000,4000.000000,4000.000000,Speed,Speed,-0.260000,0.420000,2.590000,3.000000,105.000000,1,0,-0.003968,-0.000248,0,0.000000,0.000000,0.000000,0.059219,-0.088150,0.000000,0.016000,0.009000,0.012000,FlatInitial
03:13:29.123 PM 02/13/2016,Teleop Disabled,0,FALSE,0,NO ERROR,0.000000,0.000000,4000.000000,4000.000000,Speed,Speed,-0.240000,0.420000,2.670000,3.000000,101.000000,1,0,-0.003968,-0.000248,0,0.000000,0.003418,0.000000,0.059219,-0.088120,0.000000,-0.005000,0.021000,0.009000,FlatInitial
03:13:29.223 PM 02/13/2016,Teleop Disabled,0,FALSE,0,NO ERROR,0.000000,0.000000,4000.000000,4000.000000,Speed,Speed,-0.300000,0.420000,2.720000,3.000000,104.000000,1,0,-0.003968,-0.000248,0,0.000000,0.000000,0.000000,0.059219,-0.087585,0.000000,0.004000,-0.009000,0.007000,FlatInitial
03:13:29.323 PM 02/13/2016,Teleop Disabled,0,FALSE,0,NO ERROR,0.000000,0.000000,4000.000000,4000.000000,Speed,Speed,-0.310000,0.430000,2.610000,3.000000,103.000000,1,0,-0.003968,-0.000248,0,0.000000,-0.006958,0.000000,0.059219,-0.088196,0.000000,-0.001000,0.026000,0.006000,FlatInitial
03:13:29.423 PM 02/13/2016,Teleop Disabled,0,FALSE,0,NO ERROR,0.000000,0.000000,4000.000000,4000.000000,Speed,Speed,-0.280000,0.450000,2.670000,3.000000,101.000000,1,0,-0.003968,-0.000248,0,0.000000,0.000000,0.000000,0.059219,-0.088226,0.000000,0.018000,0.007000,0.018000,FlatInitial
03:13:29.524 PM 02/13/2016,Teleop Disabled,0,FALSE,0,NO ERROR,0.000000,0.000000,4000.000000,4000.000000,Speed,Speed,-0.280000,0.450000,2.670000,3.000000,102.000000,1,0,-0.003968,-0.000248,0,0.000000,0.000000,0.000000,0.059219,-0.088226,0.000000,-0.016000,-0.010000,0.034000,FlatInitial
03:13:29.625 PM 02/13/2016,Teleop Disabled,0,FALSE,0,NO ERROR,0.000000,0.000000,4000.000000,4000.000000,Speed,Speed,-0.210000,0.440000,2.630000,3.000000,102.000000,1,0,-0.003968,-0.000248,0,0.000000,0.000000,0.000000,0.059219,-0.088226,0.000000,0.006000,0.003000,0.022000,FlatInitial
03:13:29.726 PM 02/13/2016,Teleop Disabled,0,FALSE,0,NO ERROR,0.000000,0.000000,4000.000000,4000.000000,Speed,Speed,-0.190000,0.420000,2.600000,3.000000,102.000000,1,0,-0.003968,-0.000248,0,0.000000,0.000000,0.000000,0.059219,-0.088226,0.000000,-0.010000,-0.008000,0.019000,FlatInitial
03:13:29.825 PM 02/13/2016,Teleop Disabled,0,FALSE,0,NO ERROR,0.000000,0.000000,4000.000000,4000.000000,Speed,Speed,-0.280000,0.430000,2.550000,3.000000,103.000000,1,0,-0.003968,-0.000248,0,0.000000,-0.012299,0.000000,0.059219,-0.088455,0.000000,-0.007000,-0.039000,-0.017000,FlatInitial
03:13:29.926 PM 02/13/2016,Teleop Disabled,0,FALSE,0,NO ERROR,0.000000,0.000000,4000.000000,4000.000000,Speed,Speed,-0.280000,0.520000,2.560000,3.000000,102.000000,1,0,-0.003968,-0.000248,0,-0.023361,-0.019394,0.000000,0.059097,-0.089859,0.000000,-0.162000,0.021000,0.208000,FlatInitial
03:13:30.026 PM 02/13/2016,Teleop Disabled,0,FALSE,0,NO ERROR,0.000000,0.000000,4000.000000,4000.000000,Speed,Speed,-0.240000,0.430000,2.610000,3.000000,101.000000,1,0,-0.003968,-0.000248,0,-0.013245,-0.012604,0.000000,0.057739,-0.090088,0.000000,0.151000,0.030000,-0.144000,FlatInitial
03:13:30.126 PM 02/13/2016,Teleop Disabled,0,FALSE,0,NO ERROR,0.000000,0.000000,4000.000000,4000.000000,Speed,Speed,-0.280000,0.430000,2.580000,3.000000,101.000000,1,0,-0.003968,-0.000248,0,0.004532,0.000000,0.000000,0.057404,-0.090210,0.000000,0.027000,0.007000,-0.058000,FlatInitial
03:13:30.226 PM 02/13/2016,Teleop Disabled,0,FALSE,0,NO ERROR,0.000000,0.000000,4000.000000,4000.000000,Speed,Speed,-0.250000,0.390000,2.590000,3.000000,101.000000,1,0,-0.003968,-0.000248,0,0.001709,0.000000,0.000000,0.057556,-0.090393,0.000000,0.027000,-0.001000,0.021000,FlatInitial
03:13:30.326 PM 02/13/2016,Teleop Disabled,0,FALSE,0,NO ERROR,0.000000,0.000000,4000.000000,4000.000000,Speed,Speed,-0.280000,0.410000,2.580000,3.000000,101.000000,1,0,-0.003968,-0.000248,0,-0.007355,0.000000,0.000000,0.057373,-0.090393,0.000000,0.024000,0.004000,0.000000,FlatInitial
03:13:30.427 PM 02/13/2016,Teleop Disabled,0,FALSE,0,NO ERROR,0.000000,0.000000,4000.000000,4000.000000,Speed,Speed,-0.260000,0.410000,2.590000,3.000000,102.000000,1,0,-0.003968,-0.000248,0,0.000000,0.000000,0.000000,0.057297,-0.090393,0.000000,0.013000,0.003000,-0.009000,FlatInitial
03:13:30.527 PM 02/13/2016,Teleop Disabled,0,FALSE,0,NO ERROR,0.000000,0.000000,4000.000000,4000.000000,Speed,Speed,-0.280000,0.410000,2.600000,3.000000,102.000000,1,0,-0.003968,-0.000248,0,0.000000,0.000000,0.000000,0.057297,-0.090393,0.000000,-0.001000,0.011000,0.000000,FlatInitial
03:13:30.627 PM 02/13/2016,Teleop Disabled,0,FALSE,0,NO ERROR,0.000000,0.000000,4000.000000,4000.000000,Speed,Speed,-0.280000,0.410000,2.590000,3.000000,101.000000,1,0,-0.003968,-0.000248,0,0.000000,0.000000,0.000000,0.057297,-0.090393,0.000000,-0.008000,-0.001000,0.009000,FlatInitial
03:13:30.727 PM 02/13/2016,Teleop Disabled,0,FALSE,0,NO ERROR,0.000000,0.000000,4000.000000,4000.000000,Speed,Speed,-0.290000,0.410000,2.580000,3.000000,102.000000,1,0,-0.003968,-0.000248,0,0.000000,0.000000,0.000000,0.057297,-0.090393,0.000000,-0.010000,0.002000,0.010000,FlatInitial
03:13:30.828 PM 02/13/2016,Teleop Disabled,0,FALSE,0,NO ERROR,0.000000,0.000000,4000.000000,4000.000000,Speed,Speed,-0.280000,0.410000,2.580000,3.000000,100.000000,1,0,-0.003968,-0.000248,0,0.000000,0.000000,0.000000,0.057297,-0.090393,0.000000,-0.008000,-0.003000,0.007000,FlatInitial
03:13:30.929 PM 02/13/2016,Teleop Disabled,0,FALSE,0,NO ERROR,0.000000,0.000000,4000.000000,4000.000000,Speed,Speed,-0.290000,0.410000,2.590000,3.000000,101.000000,1,0,-0.003968,-0.000248,0,0.000000,0.000000,0.000000,0.057297,-0.090393,0.000000,-0.004000,0.000000,0.013000,FlatInitial
03:13:31.029 PM 02/13/2016,Teleop Disabled,0,FALSE,0,NO ERROR,0.000000,0.000000,4000.000000,4000.000000,Speed,Speed,-0.290000,0.410000,2.580000,3.000000,105.000000,1,0,-0.003968,-0.000248,0,0.000000,0.000000,0.000000,0.057297,-0.090393,0.000000,-0.002000,0.000000,0.006000,FlatInitial
03:13:31.129 PM 02/13/2016,Teleop Disabled,0,FALSE,0,NO ERROR,0.000000,0.000000,4000.000000,4000.000000,Speed,Speed,-0.290000,0.410000,2.580000,3.000000,101.000000,1,0,-0.003968,-0.000248,0,0.000000,0.000000,0.000000,0.057297,-0.090393,0.000000,0.000000,0.002000,0.004000,FlatInitial
03:13:31.229 PM 02/13/2016,Teleop Disabled,0,FALSE,0,NO ERROR,0.000000,0.000000,4000.000000,4000.000000,Speed,Speed,-0.290000,0.400000,2.580000,3.000000,101.000000,1,0,-0.003968,-0.000248,0,0.000000,0.000000,0.000000,0.057297,-0.090393,0.000000,0.000000,0.001000,0.009000,FlatInitial
03:13:31.330 PM 02/13/2016,Teleop Disabled,0,FALSE,0,NO ERROR,0.000000,0.000000,4000.000000,4000.000000,Speed,Speed,-0.300000,0.400000,2.590000,3.000000,104.000000,1,0,-0.003968,-0.000248,0,0.000000,0.000000,0.000000,0.057297,-0.090393,0.000000,-0.002000,0.001000,0.013000,FlatInitial
03:13:31.429 PM 02/13/2016,Teleop Disabled,0,FALSE,0,NO ERROR,0.000000,0.000000,4000.000000,4000.000000,Speed,Speed,-0.300000,0.400000,2.580000,3.000000,102.000000,1,0,-0.003968,-0.000248,0,0.000000,0.000000,0.000000,0.057297,-0.090393,0.000000,0.000000,0.003000,0.005000,FlatInitial
03:13:31.530 PM 02/13/2016,Teleop Disabled,0,FALSE,0,NO ERROR,0.000000,0.000000,4000.000000,4000.000000,Speed,Speed,-0.300000,0.390000,2.590000,3.000000,101.000000,1,0,-0.003968,-0.000248,0,0.000000,0.000000,0.000000,0.057297,-0.090393,0.000000,0.000000,0.001000,0.011000,FlatInitial
03:13:31.629 PM 02/13/2016,Teleop Disabled,0,FALSE,0,NO ERROR,0.000000,0.000000,4000.000000,4000.000000,Speed,Speed,-0.300000,0.390000,2.590000,3.000000,102.000000,1,0,-0.003968,-0.000248,0,0.000000,0.000000,0.000000,0.057297,-0.090393,0.000000,0.003000,0.002000,0.009000,FlatInitial
03:13:31.730 PM 02/13/2016,Teleop Disabled,0,FALSE,0,NO ERROR,0.000000,0.000000,4000.000000,4000.000000,Speed,Speed,-0.300000,0.390000,2.590000,3.000000,102.000000,1,0,-0.003968,-0.000248,0,0.000000,0.000000,0.000000,0.057297,-0.090393,0.000000,0.002000,0.001000,0.006000,FlatInitial
03:13:31.831 PM 02/13/2016,Teleop Disabled,0,FALSE,0,NO ERROR,0.000000,0.000000,4000.000000,4000.000000,Speed,Speed,-0.300000,0.390000,2.590000,3.000000,102.000000,1,0,-0.003968,-0.000248,0,0.000000,0.000000,0.000000,0.057297,-0.090393,0.000000,0.000000,0.003000,0.005000,FlatInitial
03:13:31.931 PM 02/13/2016,Teleop Disabled,0,FALSE,0,NO ERROR,0.000000,0.000000,4000.000000,4000.000000,Speed,Speed,-0.300000,0.390000,2.590000,3.000000,101.000000,1,0,-0.003968,-0.000248,0,0.000000,0.000000,0.000000,0.057297,-0.090393,0.000000,0.002000,0.000000,0.007000,FlatInitial
03:13:32.032 PM 02/13/2016,Teleop Disabled,0,FALSE,0,NO ERROR,0.000000,0.000000,4000.000000,4000.000000,Speed,Speed,-0.310000,0.390000,2.580000,3.000000,104.000000,1,0,-0.003968,-0.000248,0,0.000000,0.000000,0.000000,0.057297,-0.090393,0.000000,0.000000,-0.001000,0.004000,FlatInitial
03:13:32.131 PM 02/13/2016,Teleop Disabled,0,FALSE,0,NO ERROR,0.000000,0.000000,4000.000000,4000.000000,Speed,Speed,-0.310000,0.390000,2.570000,3.000000,101.000000,1,0,-0.003968,-0.000248,0,0.000000,0.000000,0.000000,0.057297,-0.090393,0.000000,-0.002000,0.000000,0.005000,FlatInitial
03:13:32.233 PM 02/13/2016,Teleop Disabled,0,FALSE,0,NO ERROR,0.000000,0.000000,4000.000000,4000.000000,Speed,Speed,-0.310000,0.390000,2.580000,3.000000,101.000000,1,0,-0.003968,-0.000248,0,0.000000,0.000000,0.000000,0.057297,-0.090393,0.000000,0.000000,0.002000,0.007000,FlatInitial
03:13:32.335 PM 02/13/2016,Teleop Disabled,0,FALSE,0,NO ERROR,0.000000,0.000000,4000.000000,4000.000000,Speed,Speed,-0.320000,0.390000,2.580000,3.000000,102.000000,1,0,-0.003968,-0.000248,0,0.000000,0.000000,0.000000,0.057297,-0.090393,0.000000,0.000000,0.000000,0.006000,FlatInitial
03:13:32.434 PM 02/13/2016,Teleop Enabled,0,FALSE,0,NO ERROR,0.000000,0.000000,4000.000000,4000.000000,Speed,Speed,-0.320000,0.390000,2.580000,3.000000,101.000000,1,0,-0.003968,-0.000248,0,0.000000,0.000000,0.000000,0.057297,-0.090393,0.000000,0.001000,0.001000,0.007000,FlatInitial
03:13:32.537 PM 02/13/2016,Teleop Enabled,0,FALSE,0,NO ERROR,0.000000,0.000000,4000.000000,4000.000000,Speed,Speed,-0.320000,0.390000,2.580000,3.000000,101.000000,1,0,-0.003968,-0.000248,0,0.000000,0.000000,0.000000,0.057297,-0.090393,0.000000,0.002000,-0.001000,0.011000,FlatInitial
03:13:32.639 PM 02/13/2016,Teleop Enabled,0,FALSE,0,NO ERROR,0.000000,0.000000,4000.000000,4000.000000,Speed,Speed,-0.330000,0.390000,2.570000,3.000000,103.000000,1,0,-0.003968,-0.000248,0,0.000000,0.000000,0.000000,0.057297,-0.090393,0.000000,0.000000,0.000000,0.002000,FlatInitial
03:13:32.740 PM 02/13/2016,Teleop Enabled,0,FALSE,0,NO ERROR,0.000000,0.000000,4000.000000,4000.000000,Speed,Speed,-0.330000,0.390000,2.580000,3.000000,103.000000,1,0,-0.003968,-0.000248,0,0.000000,0.000000,0.000000,0.057297,-0.090393,0.000000,0.000000,0.000000,0.003000,FlatInitial
03:13:32.840 PM 02/13/2016,Teleop Enabled,0,FALSE,0,NO ERROR,0.000000,0.000000,4000.000000,4000.000000,Speed,Speed,-0.330000,0.390000,2.580000,3.000000,102.000000,1,0,-0.003968,-0.000248,0,0.000000,0.000000,0.000000,0.057297,-0.090393,0.000000,-0.001000,0.001000,0.008000,FlatInitial
03:13:32.940 PM 02/13/2016,Teleop Enabled,0,FALSE,0,NO ERROR,0.000000,0.000000,4000.000000,4000.000000,Speed,Speed,-0.340000,0.390000,2.570000,3.000000,103.000000,1,0,-0.003968,-0.000248,0,0.000000,0.000000,0.000000,0.057297,-0.090393,0.000000,0.000000,0.002000,0.005000,FlatInitial
03:13:33.040 PM 02/13/2016,Teleop Enabled,0,FALSE,0,NO ERROR,0.000000,0.000000,4000.000000,4000.000000,Speed,Speed,-0.350000,0.380000,2.580000,3.000000,103.000000,1,0,-0.003968,-0.000248,0,0.000000,0.000000,0.000000,0.057297,-0.090393,0.000000,0.001000,0.000000,0.007000,FlatInitial
03:13:33.141 PM 02/13/2016,Teleop Enabled,0,FALSE,0,NO ERROR,0.000000,0.000000,4000.000000,4000.000000,Speed,Speed,-0.350000,0.390000,2.570000,3.000000,100.000000,1,0,-0.003968,-0.000248,0,0.000000,0.000000,0.000000,0.057297,-0.090393,0.000000,0.000000,0.001000,0.007000,FlatInitial
03:13:33.242 PM 02/13/2016,Teleop Enabled,0,FALSE,0,NO ERROR,0.000000,0.000000,4000.000000,4000.000000,Speed,Speed,-0.350000,0.390000,2.570000,3.000000,101.000000,1,0,-0.003968,-0.000248,0,0.000000,0.000000,0.000000,0.057297,-0.090393,0.000000,0.000000,0.003000,0.005000,FlatInitial
03:13:33.342 PM 02/13/2016,Teleop Enabled,0,FALSE,0,NO ERROR,0.000000,0.000000,4000.000000,4000.000000,Speed,Speed,-0.350000,0.390000,2.570000,3.000000,101.000000,1,0,-0.003968,-0.000248,0,0.000000,0.000000,0.000000,0.057297,-0.090393,0.000000,0.000000,0.003000,0.005000,FlatInitial
03:13:33.443 PM 02/13/2016,Teleop Enabled,0,FALSE,0,NO ERROR,0.000000,0.000000,4000.000000,4000.000000,Speed,Speed,-0.350000,0.390000,2.570000,3.000000,103.000000,1,0,-0.003968,-0.000248,0,0.000000,0.000000,0.000000,0.057297,-0.090393,0.000000,0.000000,-0.001000,0.007000,FlatInitial
03:13:33.544 PM 02/13/2016,Teleop Enabled,0,FALSE,0,NO ERROR,0.000000,0.000000,4000.000000,4000.000000,Speed,Speed,-0.350000,0.390000,2.570000,3.000000,101.000000,1,0,-0.003968,-0.000248,0,0.000000,0.000000,0.000000,0.057297,-0.090393,0.000000,0.000000,0.001000,0.009000,FlatInitial
03:13:33.645 PM 02/13/2016,Teleop Enabled,0,FALSE,0,NO ERROR,0.000000,0.000000,4000.000000,4000.000000,Speed,Speed,-0.350000,0.390000,2.570000,3.000000,102.000000,1,0,-0.003968,-0.000248,0,0.000000,0.000000,0.000000,0.057297,-0.090393,0.000000,0.001000,-0.002000,0.009000,FlatInitial
03:13:33.745 PM 02/13/2016,Teleop Enabled,0,FALSE,0,NO ERROR,0.000000,0.000000,4000.000000,4000.000000,Speed,Speed,-0.350000,0.390000,2.570000,3.000000,112.000000,1,0,-0.003968,-0.000248,0,0.000000,0.000000,0.000000,0.057297,-0.090393,0.000000,0.001000,0.000000,0.011000,FlatInitial
03:13:33.845 PM 02/13/2016,Teleop Enabled,0,FALSE,0,NO ERROR,0.000000,0.000000,4000.000000,4000.000000,Speed,Speed,-0.360000,0.390000,2.570000,3.000000,102.000000,1,0,-0.003968,-0.000248,0,0.000000,0.000000,0.000000,0.057297,-0.090393,0.000000,0.000000,0.000000,0.007000,FlatInitial
03:13:33.944 PM 02/13/2016,Teleop Enabled,0,FALSE,0,NO ERROR,0.000000,0.000000,4000.000000,4000.000000,Speed,Speed,-0.360000,0.390000,2.580000,3.000000,102.000000,1,0,-0.003968,-0.000248,0,0.000000,0.000000,0.000000,0.057297,-0.090393,0.000000,0.000000,0.000000,0.008000,FlatInitial
03:13:34.045 PM 02/13/2016,Teleop Enabled,0,FALSE,0,NO ERROR,0.000000,0.000000,4000.000000,4000.000000,Speed,Speed,-0.360000,0.390000,2.580000,3.000000,102.000000,1,0,-0.003968,-0.000248,0,0.000000,0.000000,0.000000,0.057297,-0.090393,0.000000,-0.001000,0.000000,0.007000,FlatInitial
03:13:34.147 PM 02/13/2016,Teleop Enabled,0,FALSE,0,NO ERROR,0.000000,0.000000,4000.000000,4000.000000,Speed,Speed,-0.370000,0.390000,2.580000,3.000000,107.000000,1,0,-0.003968,-0.000248,0,0.000000,0.000000,0.000000,0.057297,-0.090393,0.000000,-0.001000,0.000000,0.007000,FlatInitial
03:13:34.247 PM 02/13/2016,Teleop Enabled,0,FALSE,0,NO ERROR,0.000000,0.000000,4000.000000,4000.000000,Speed,Speed,-0.370000,0.390000,2.580000,3.000000,102.000000,1,0,-0.003968,-0.000248,0,0.000000,0.000000,0.000000,0.057297,-0.090393,0.000000,0.000000,0.001000,0.005000,FlatInitial
03:13:34.347 PM 02/13/2016,Teleop Enabled,0,FALSE,0,NO ERROR,0.000000,0.000000,4000.000000,4000.000000,Speed,Speed,-0.370000,0.390000,2.580000,3.000000,102.000000,1,0,-0.003968,-0.000248,0,0.000000,0.000000,0.000000,0.057297,-0.090393,0.000000,0.000000,0.001000,0.005000,FlatInitial
03:13:34.447 PM 02/13/2016,Teleop Enabled,0,FALSE,0,NO ERROR,0.000000,0.000000,4000.000000,4000.000000,Speed,Speed,-0.370000,0.380000,2.580000,3.000000,103.000000,1,0,-0.003968,-0.000248,0,0.000000,0.000000,0.000000,0.057297,-0.090393,0.000000,0.000000,0.000000,0.004000,FlatInitial
03:13:34.548 PM 02/13/2016,Teleop Enabled,0,FALSE,0,NO ERROR,0.000000,0.000000,4000.000000,4000.000000,Speed,Speed,-0.370000,0.390000,2.580000,3.000000,103.000000,1,0,-0.003968,-0.000248,0,0.000000,0.000000,0.000000,0.057297,-0.090393,0.000000,0.000000,0.000000,0.004000,FlatInitial
03:13:34.649 PM 02/13/2016,Teleop Enabled,0,FALSE,0,NO ERROR,0.000000,0.000000,4000.000000,4000.000000,Speed,Speed,-0.370000,0.390000,2.580000,3.000000,101.000000,1,0,-0.003968,-0.000248,0,0.000000,0.000000,0.000000,0.057297,-0.090393,0.000000,0.000000,0.003000,0.007000,FlatInitial
03:13:34.749 PM 02/13/2016,Teleop Enabled,0,FALSE,0,NO ERROR,0.000000,0.000000,4000.000000,4000.000000,Speed,Speed,-0.370000,0.390000,2.580000,3.000000,102.000000,1,0,-0.003968,-0.000248,0,0.000000,0.000000,0.000000,0.057297,-0.090393,0.000000,0.000000,0.000000,0.004000,FlatInitial
03:13:34.850 PM 02/13/2016,Teleop Enabled,0,FALSE,0,NO ERROR,0.000000,0.000000,4000.000000,4000.000000,Speed,Speed,-0.370000,0.390000,2.580000,3.000000,102.000000,1,0,-0.003968,-0.000248,0,0.000000,0.000000,0.000000,0.057297,-0.090393,0.000000,-0.001000,-0.001000,0.006000,FlatInitial
03:13:34.951 PM 02/13/2016,Teleop Enabled,0,FALSE,0,NO ERROR,0.000000,0.000000,4000.000000,4000.000000,Speed,Speed,-0.370000,0.390000,2.580000,3.000000,101.000000,1,0,-0.003968,-0.000248,0,0.000000,0.000000,0.000000,0.057297,-0.090393,0.000000,-0.001000,0.000000,0.001000,FlatInitial
03:13:35.053 PM 02/13/2016,Teleop Enabled,0,FALSE,0,NO ERROR,0.000000,0.000000,4000.000000,4000.000000,Speed,Speed,-0.370000,0.390000,2.580000,3.000000,102.000000,1,0,-0.003968,-0.000248,0,0.000000,0.000000,0.000000,0.057297,-0.090393,0.000000,-0.001000,0.000000,0.001000,FlatInitial
03:13:35.154 PM 02/13/2016,Teleop Enabled,0,FALSE,0,NO ERROR,0.000000,0.000000,4000.000000,4000.000000,Speed,Speed,-0.370000,0.390000,2.580000,3.000000,102.000000,1,0,-0.003968,-0.000248,0,0.000000,0.000000,0.000000,0.057297,-0.090393,0.000000,0.002000,0.000000,0.010000,FlatInitial
03:13:35.254 PM 02/13/2016,Teleop Enabled,0,FALSE,0,NO ERROR,0.000000,0.000000,4000.000000,4000.000000,Speed,Speed,-0.370000,0.390000,2.580000,3.000000,101.000000,1,0,-0.003968,-0.000248,0,0.000000,0.000000,0.000000,0.057297,-0.090393,0.000000,0.002000,0.000000,0.010000,FlatInitial
03:13:35.355 PM 02/13/2016,Teleop Enabled,0,FALSE,0,NO ERROR,0.000000,0.000000,4000.000000,4000.000000,Speed,Speed,-0.370000,0.400000,2.580000,3.000000,109.000000,1,0,-0.003968,-0.000248,0,0.000000,0.000000,0.000000,0.057297,-0.090393,0.000000,0.000000,0.001000,0.002000,FlatInitial
03:13:35.455 PM 02/13/2016,Teleop Enabled,0,FALSE,0,NO ERROR,0.000000,0.000000,4000.000000,4000.000000,Speed,Speed,-0.380000,0.400000,2.580000,3.000000,102.000000,1,0,-0.003968,-0.000248,0,0.000000,0.000000,0.000000,0.057297,-0.090393,0.000000,0.000000,0.000000,0.009000,FlatInitial
03:13:35.556 PM 02/13/2016,Teleop Enabled,0,FALSE,0,NO ERROR,0.000000,0.000000,4000.000000,4000.000000,Speed,Speed,-0.380000,0.400000,2.580000,3.000000,101.000000,1,0,-0.003968,-0.000248,0,0.000000,0.000000,0.000000,0.057297,-0.090393,0.000000,-0.001000,0.000000,0.010000,FlatInitial
03:13:35.655 PM 02/13/2016,Teleop Enabled,0,FALSE,0,NO ERROR,0.000000,0.000000,4000.000000,4000.000000,Speed,Speed,-0.380000,0.400000,2.580000,3.000000,103.000000,1,0,-0.003968,-0.000248,0,0.000000,0.000000,0.000000,0.057297,-0.090393,0.000000,0.000000,0.000000,0.009000,FlatInitial
03:13:35.755 PM 02/13/2016,Teleop Enabled,0,FALSE,0,NO ERROR,0.000000,0.000000,4000.000000,4000.000000,Speed,Speed,-0.390000,0.400000,2.580000,3.000000,118.000000,1,0,-0.003968,-0.000248,0,0.000000,0.000000,0.000000,0.057297,-0.090393,0.000000,-0.001000,-0.001000,0.005000,FlatInitial
03:13:35.856 PM 02/13/2016,Teleop Enabled,0,FALSE,0,NO ERROR,0.000000,0.000000,4000.000000,4000.000000,Speed,Speed,-0.390000,0.400000,2.580000,3.000000,102.000000,1,0,-0.003968,-0.000248,0,0.000000,0.000000,0.000000,0.057297,-0.090393,0.000000,0.001000,0.000000,0.010000,FlatInitial
03:13:35.958 PM 02/13/2016,Teleop Enabled,0,FALSE,0,NO ERROR,0.000000,0.000000,4000.000000,4000.000000,Speed,Speed,-0.390000,0.400000,2.580000,3.000000,110.000000,1,0,-0.003968,-0.000248,0,0.000000,0.000000,0.000000,0.057297,-0.090393,0.000000,0.000000,-0.001000,0.008000,FlatInitial
03:13:36.058 PM 02/13/2016,Teleop Enabled,0,FALSE,0,NO ERROR,0.000000,0.000000,4000.000000,4000.000000,Speed,Speed,-0.390000,0.400000,2.580000,3.000000,103.000000,1,0,-0.003968,-0.000248,0,0.000000,0.000000,0.000000,0.057297,-0.090393,0.000000,0.001000,-0.001000,0.006000,FlatInitial
03:13:36.160 PM 02/13/2016,Teleop Enabled,0,FALSE,0,NO ERROR,0.000000,0.000000,4000.000000,4000.000000,Speed,Speed,-0.390000,0.400000,2.580000,3.000000,104.000000,1,0,-0.003968,-0.000248,0,0.000000,0.000000,0.000000,0.057297,-0.090393,0.000000,0.001000,0.000000,0.006000,FlatInitial
03:13:36.259 PM 02/13/2016,Teleop Enabled,0,FALSE,0,NO ERROR,0.000000,0.000000,4000.000000,4000.000000,Speed,Speed,-0.390000,0.400000,2.580000,3.000000,104.000000,1,0,-0.003968,-0.000248,0,0.000000,0.000000,0.000000,0.057297,-0.090393,0.000000,0.000000,0.000000,0.007000,FlatInitial
03:13:36.363 PM 02/13/2016,Teleop Enabled,0,FALSE,0,NO ERROR,0.000000,0.000000,4000.000000,4000.000000,Speed,Speed,-0.400000,0.400000,2.580000,3.000000,101.000000,1,0,-0.003968,-0.000248,0,0.000000,0.000000,0.000000,0.057297,-0.090393,0.000000,0.000000,-0.001000,0.008000,FlatInitial
03:13:36.462 PM 02/13/2016,Teleop Enabled,0,FALSE,0,NO ERROR,0.000000,0.000000,4000.000000,4000.000000,Speed,Speed,-0.400000,0.400000,2.580000,3.000000,101.000000,1,0,-0.003968,-0.000248,0,0.000000,0.000000,0.000000,0.057297,-0.090393,0.000000,-0.002000,0.000000,0.004000,FlatInitial
03:13:36.562 PM 02/13/2016,Teleop Enabled,0,FALSE,0,NO ERROR,0.000000,0.000000,4000.000000,4000.000000,Speed,Speed,-0.390000,0.400000,2.580000,3.000000,101.000000,1,0,-0.003968,-0.000248,0,0.000000,0.000000,0.000000,0.057297,-0.090393,0.000000,0.001000,0.000000,0.004000,FlatInitial
03:13:36.662 PM 02/13/2016,Teleop Enabled,0,FALSE,0,NO ERROR,0.000000,0.000000,4000.000000,4000.000000,Speed,Speed,-0.400000,0.400000,2.580000,3.000000,107.000000,1,0,-0.003968,-0.000248,0,0.000000,0.000000,0.000000,0.057297,-0.090393,0.000000,0.001000,0.001000,0.008000,FlatInitial
03:13:36.763 PM 02/13/2016,Teleop Enabled,0,FALSE,0,NO ERROR,0.000000,0.000000,4000.000000,4000.000000,Speed,Speed,-0.400000,0.400000,2.580000,3.000000,101.000000,1,0,-0.003968,-0.000248,0,0.000000,0.000000,0.000000,0.057297,-0.090393,0.000000,-0.003000,0.001000,0.005000,FlatInitial
03:13:36.863 PM 02/13/2016,Teleop Enabled,0,FALSE,0,NO ERROR,0.000000,0.000000,4000.000000,4000.000000,Speed,Speed,-0.410000,0.400000,2.580000,3.000000,102.000000,1,0,-0.003968,-0.000248,0,0.000000,0.000000,0.000000,0.057297,-0.090393,0.000000,0.000000,-0.001000,0.007000,FlatInitial
03:13:36.964 PM 02/13/2016,Teleop Enabled,0,FALSE,0,NO ERROR,0.000000,0.000000,4000.000000,4000.000000,Speed,Speed,-0.410000,0.400000,2.580000,3.000000,101.000000,1,0,-0.003968,-0.000248,0,0.000000,0.000000,0.000000,0.057297,-0.090393,0.000000,0.000000,0.000000,0.009000,FlatInitial
03:13:37.064 PM 02/13/2016,Teleop Enabled,0,FALSE,0,NO ERROR,0.000000,0.000000,4000.000000,4000.000000,Speed,Speed,-0.410000,0.400000,2.580000,3.000000,100.000000,1,0,-0.003968,-0.000248,0,0.000000,0.000000,0.000000,0.057297,-0.090393,0.000000,0.002000,0.001000,0.004000,FlatInitial
03:13:37.164 PM 02/13/2016,Teleop Enabled,0,FALSE,0,NO ERROR,0.000000,0.000000,4000.000000,4000.000000,Speed,Speed,-0.410000,0.390000,2.590000,3.000000,102.000000,1,0,-0.003968,-0.000248,0,0.000000,0.000000,0.000000,0.057297,-0.090393,0.000000,0.000000,-0.001000,0.007000,FlatInitial
03:13:37.263 PM 02/13/2016,Teleop Enabled,0,FALSE,0,NO ERROR,0.000000,0.000000,4000.000000,4000.000000,Speed,Speed,-0.420000,0.380000,2.590000,3.000000,103.000000,1,0,-0.003968,-0.000248,0,0.000000,0.000000,0.000000,0.057297,-0.090393,0.000000,0.001000,0.002000,0.006000,FlatInitial
03:13:37.363 PM 02/13/2016,Teleop Enabled,0,FALSE,0,NO ERROR,0.000000,0.000000,4000.000000,4000.000000,Speed,Speed,-0.420000,0.390000,2.590000,3.000000,101.000000,1,0,-0.003968,-0.000248,0,0.000000,0.000000,0.000000,0.057297,-0.090393,0.000000,0.001000,0.001000,0.010000,FlatInitial
03:13:37.464 PM 02/13/2016,Teleop Enabled,0,FALSE,0,NO ERROR,0.000000,0.000000,4000.000000,4000.000000,Speed,Speed,-0.420000,0.390000,2.590000,3.000000,101.000000,1,0,-0.003968,-0.000248,0,0.000000,0.000000,0.000000,0.057297,-0.090393,0.000000,0.000000,-0.003000,0.007000,FlatInitial
03:13:37.565 PM 02/13/2016,Teleop Enabled,0,FALSE,0,NO ERROR,0.000000,0.000000,4000.000000,4000.000000,Speed,Speed,-0.420000,0.390000,2.590000,3.000000,101.000000,1,0,-0.003968,-0.000248,0,0.000000,0.000000,0.000000,0.057297,-0.090393,0.000000,0.000000,0.000000,0.007000,FlatInitial
03:13:37.666 PM 02/13/2016,Teleop Enabled,0,FALSE,0,NO ERROR,0.000000,0.000000,4000.000000,4000.000000,Speed,Speed,-0.420000,0.390000,2.590000,3.000000,100.000000,1,0,-0.003968,-0.000248,0,0.000000,0.000000,0.000000,0.057297,-0.090393,0.000000,0.000000,0.000000,0.008000,FlatInitial
03:13:37.767 PM 02/13/2016,Teleop Enabled,0,FALSE,0,NO ERROR,0.000000,0.000000,4000.000000,4000.000000,Speed,Speed,-0.420000,0.390000,2.590000,3.000000,103.000000,1,0,-0.003968,-0.000248,0,0.000000,0.000000,0.000000,0.057297,-0.090393,0.000000,0.001000,-0.001000,0.009000,FlatInitial
03:13:37.866 PM 02/13/2016,Teleop Enabled,0,FALSE,0,NO ERROR,0.000000,0.000000,4000.000000,4000.000000,Speed,Speed,-0.430000,0.390000,2.590000,3.000000,103.000000,1,0,-0.003968,-0.000248,0,0.000000,0.000000,0.000000,0.057297,-0.090393,0.000000,0.000000,0.001000,0.007000,FlatInitial
03:13:37.967 PM 02/13/2016,Teleop Enabled,0,FALSE,0,NO ERROR,0.000000,0.000000,4000.000000,4000.000000,Speed,Speed,-0.430000,0.390000,2.590000,3.000000,105.000000,1,0,-0.003968,-0.000248,0,0.000000,0.000000,0.000000,0.057297,-0.090393,0.000000,0.000000,0.000000,0.010000,FlatInitial
03:13:38.068 PM 02/13/2016,Teleop Enabled,0,FALSE,0,NO ERROR,0.000000,0.000000,4000.000000,4000.000000,Speed,Speed,-0.430000,0.390000,2.600000,3.000000,100.000000,1,0,-0.003968,-0.000248,0,0.000000,0.000000,0.000000,0.057297,-0.090393,0.000000,0.000000,0.003000,0.004000,FlatInitial
03:13:38.168 PM 02/13/2016,Teleop Enabled,0,FALSE,0,NO ERROR,0.000000,0.000000,4000.000000,4000.000000,Speed,Speed,-0.430000,0.390000,2.600000,3.000000,101.000000,1,0,-0.003968,-0.000248,0,0.000000,0.000000,0.000000,0.057297,-0.090393,0.000000,0.000000,0.001000,0.009000,FlatInitial
03:13:38.268 PM 02/13/2016,Teleop Enabled,0,FALSE,0,NO ERROR,0.000000,0.000000,4000.000000,4000.000000,Speed,Speed,-0.430000,0.390000,2.590000,3.000000,101.000000,1,0,-0.003968,-0.000248,0,0.000000,0.000000,0.000000,0.057297,-0.090393,0.000000,-0.002000,0.003000,0.010000,FlatInitial
03:13:38.370 PM 02/13/2016,Teleop Enabled,0,FALSE,0,NO ERROR,0.000000,0.000000,4000.000000,4000.000000,Speed,Speed,-0.430000,0.390000,2.590000,3.000000,101.000000,1,0,-0.003968,-0.000248,0,0.000000,0.000000,0.000000,0.057297,-0.090393,0.000000,0.001000,0.001000,0.007000,FlatInitial
03:13:38.470 PM 02/13/2016,Teleop Enabled,0,FALSE,0,NO ERROR,0.000000,0.000000,4000.000000,4000.000000,Speed,Speed,-0.430000,0.390000,2.590000,3.000000,103.000000,1,0,-0.003968,-0.000248,0,0.000000,0.000000,0.000000,0.057297,-0.090393,0.000000,-0.001000,0.002000,0.009000,FlatInitial
03:13:38.570 PM 02/13/2016,Teleop Enabled,0,FALSE,0,NO ERROR,0.000000,0.000000,4000.000000,4000.000000,Speed,Speed,-0.430000,0.390000,2.590000,3.000000,100.000000,1,0,-0.003968,-0.000248,0,0.000000,0.000000,0.000000,0.057297,-0.090393,0.000000,0.000000,0.002000,0.010000,FlatInitial
03:13:38.670 PM 02/13/2016,Teleop Enabled,0,FALSE,0,NO ERROR,0.000000,0.000000,4000.000000,4000.000000,Speed,Speed,-0.440000,0.390000,2.590000,3.000000,102.000000,1,0,-0.003968,-0.000248,0,0.000000,0.000000,0.000000,0.057297,-0.090393,0.000000,-0.002000,-0.001000,0.004000,FlatInitial
03:13:38.771 PM 02/13/2016,Teleop Enabled,0,FALSE,0,NO ERROR,0.000000,0.000000,4000.000000,4000.000000,Speed,Speed,-0.440000,0.380000,2.590000,3.000000,101.000000,1,0,-0.003968,-0.000248,0,0.000000,0.000000,0.000000,0.057297,-0.090393,0.000000,-0.002000,0.000000,0.003000,FlatInitial
03:13:38.871 PM 02/13/2016,Teleop Enabled,0,FALSE,0,NO ERROR,0.000000,0.000000,4000.000000,4000.000000,Speed,Speed,-0.440000,0.380000,2.590000,3.000000,111.000000,1,0,-0.003968,-0.000248,0,0.000000,0.000000,0.000000,0.057297,-0.090393,0.000000,0.001000,-0.003000,0.008000,FlatInitial
03:13:38.972 PM 02/13/2016,Teleop Enabled,0,FALSE,0,NO ERROR,0.000000,0.000000,4000.000000,4000.000000,Speed,Speed,-0.440000,0.390000,2.590000,3.000000,103.000000,1,0,-0.003968,-0.000248,0,0.000000,0.000000,0.000000,0.057297,-0.090393,0.000000,0.000000,0.001000,0.009000,FlatInitial
03:13:39.073 PM 02/13/2016,Teleop Enabled,0,FALSE,0,NO ERROR,0.000000,0.000000,4000.000000,4000.000000,Speed,Speed,-0.440000,0.390000,2.590000,3.000000,101.000000,1,0,-0.003968,-0.000248,0,0.000000,0.000000,0.000000,0.057297,-0.090393,0.000000,0.001000,0.000000,0.007000,FlatInitial
03:13:39.173 PM 02/13/2016,Teleop Enabled,0,FALSE,0,NO ERROR,0.000000,0.000000,4000.000000,4000.000000,Speed,Speed,-0.440000,0.390000,2.580000,3.000000,101.000000,1,0,-0.003968,-0.000248,0,0.000000,0.000000,0.000000,0.057297,-0.090393,0.000000,0.000000,0.000000,0.004000,FlatInitial
03:13:39.275 PM 02/13/2016,Teleop Enabled,0,FALSE,0,NO ERROR,0.000000,0.000000,4000.000000,4000.000000,Speed,Speed,-0.440000,0.380000,2.590000,3.000000,102.000000,1,0,-0.003968,-0.000248,0,0.000000,0.000000,0.000000,0.057297,-0.090393,0.000000,0.001000,-0.001000,0.014000,FlatInitial
03:13:39.376 PM 02/13/2016,Teleop Enabled,0,FALSE,0,NO ERROR,0.000000,0.000000,4000.000000,4000.000000,Speed,Speed,-0.440000,0.380000,2.590000,3.000000,101.000000,1,0,-0.003968,-0.000248,0,0.000000,0.000000,0.000000,0.057297,-0.090393,0.000000,0.002000,0.000000,0.004000,FlatInitial
03:13:39.476 PM 02/13/2016,Teleop Enabled,0,FALSE,0,NO ERROR,0.000000,0.000000,4000.000000,4000.000000,Speed,Speed,-0.440000,0.380000,2.590000,3.000000,105.000000,1,0,-0.003968,-0.000248,0,0.000000,0.000000,0.000000,0.057297,-0.090393,0.000000,0.000000,0.001000,0.006000,FlatInitial
03:13:39.576 PM 02/13/2016,Teleop Enabled,0,FALSE,0,NO ERROR,0.000000,0.000000,4000.000000,4000.000000,Speed,Speed,-0.440000,0.380000,2.590000,3.000000,103.000000,1,0,-0.003968,-0.000248,0,0.000000,0.000000,0.000000,0.057297,-0.090393,0.000000,-0.001000,-0.001000,0.007000,FlatInitial
03:13:39.677 PM 02/13/2016,Teleop Enabled,0,FALSE,0,NO ERROR,0.000000,0.000000,4000.000000,4000.000000,Speed,Speed,-0.440000,0.380000,2.590000,3.000000,107.000000,1,0,-0.003968,-0.000248,0,0.000000,0.000000,0.000000,0.057297,-0.090393,0.000000,0.000000,-0.001000,0.007000,FlatInitial
03:13:39.777 PM 02/13/2016,Teleop Enabled,0,FALSE,0,NO ERROR,0.000000,0.000000,4000.000000,4000.000000,Speed,Speed,-0.440000,0.380000,2.590000,3.000000,102.000000,1,0,-0.003968,-0.000248,0,0.000000,0.000000,0.000000,0.057297,-0.090393,0.000000,-0.001000,-0.002000,0.005000,FlatInitial
03:13:39.876 PM 02/13/2016,Teleop Enabled,0,FALSE,0,NO ERROR,0.000000,0.000000,4000.000000,4000.000000,Speed,Speed,-0.440000,0.380000,2.590000,3.000000,103.000000,1,0,-0.003968,-0.000248,0,0.000000,0.000000,0.000000,0.057297,-0.090393,0.000000,0.000000,0.004000,0.009000,FlatInitial
03:13:39.977 PM 02/13/2016,Teleop Enabled,0,FALSE,0,NO ERROR,0.000000,0.000000,4000.000000,4000.000000,Speed,Speed,-0.440000,0.380000,2.600000,3.000000,119.000000,1,0,-0.003968,-0.000248,0,0.000000,0.000000,0.000000,0.057297,-0.090393,0.000000,-0.002000,0.001000,0.009000,FlatInitial
03:13:40.078 PM 02/13/2016,Teleop Enabled,0,FALSE,0,NO ERROR,0.000000,0.000000,4000.000000,4000.000000,Speed,Speed,-0.440000,0.380000,2.600000,3.000000,102.000000,1,0,-0.003968,-0.000248,0,0.000000,0.000000,0.000000,0.057297,-0.090393,0.000000,-0.001000,0.000000,0.003000,FlatInitial
03:13:40.178 PM 02/13/2016,Teleop Enabled,0,FALSE,0,NO ERROR,0.000000,0.000000,4000.000000,4000.000000,Speed,Speed,-0.440000,0.380000,2.600000,3.000000,107.000000,1,0,-0.003968,-0.000248,0,0.000000,0.000000,0.000000,0.057297,-0.090393,0.000000,0.001000,0.003000,0.007000,FlatInitial
03:13:40.279 PM 02/13/2016,Teleop Enabled,0,FALSE,0,NO ERROR,0.000000,0.000000,4000.000000,4000.000000,Speed,Speed,-0.440000,0.380000,2.610000,3.000000,102.000000,1,0,-0.003968,-0.000248,0,0.000000,0.000000,0.000000,0.057297,-0.090393,0.000000,0.002000,0.000000,0.008000,FlatInitial
03:13:40.379 PM 02/13/2016,Teleop Enabled,0,FALSE,0,NO ERROR,0.000000,0.000000,4000.000000,4000.000000,Speed,Speed,-0.440000,0.380000,2.600000,3.000000,100.000000,1,0,-0.003968,-0.000248,0,0.000000,0.000000,0.000000,0.057297,-0.090393,0.000000,-0.001000,-0.001000,0.007000,FlatInitial
03:13:40.479 PM 02/13/2016,Teleop Enabled,0,FALSE,0,NO ERROR,0.000000,0.000000,4000.000000,4000.000000,Speed,Speed,-0.440000,0.380000,2.600000,3.000000,102.000000,1,0,-0.003968,-0.000248,0,0.000000,0.000000,0.000000,0.057297,-0.090393,0.000000,-0.002000,-0.001000,0.010000,FlatInitial
03:13:40.583 PM 02/13/2016,Teleop Enabled,0,FALSE,0,NO ERROR,0.000000,0.000000,4000.000000,4000.000000,Speed,Speed,-0.440000,0.380000,2.600000,3.000000,101.000000,1,0,-0.003968,-0.000248,0,0.000000,0.000000,0.000000,0.057297,-0.090393,0.000000,0.001000,0.000000,0.004000,FlatInitial
03:13:40.684 PM 02/13/2016,Teleop Enabled,0,FALSE,0,NO ERROR,0.000000,0.000000,4000.000000,4000.000000,Speed,Speed,-0.440000,0.380000,2.600000,3.000000,102.000000,1,0,-0.003968,-0.000248,0,0.000000,0.000000,0.000000,0.057297,-0.090393,0.000000,0.001000,-0.003000,0.009000,FlatInitial
03:13:40.784 PM 02/13/2016,Teleop Enabled,0,FALSE,0,NO ERROR,0.000000,0.000000,4000.000000,4000.000000,Speed,Speed,-0.440000,0.380000,2.600000,3.000000,103.000000,1,0,-0.003968,-0.000248,0,0.000000,0.000000,0.000000,0.057297,-0.090393,0.000000,0.000000,0.000000,0.003000,FlatInitial
03:13:40.885 PM 02/13/2016,Teleop Enabled,0,FALSE,0,NO ERROR,0.000000,0.000000,4000.000000,4000.000000,Speed,Speed,-0.440000,0.380000,2.600000,3.000000,102.000000,1,0,-0.003968,-0.000248,0,0.000000,0.000000,0.000000,0.057297,-0.090393,0.000000,0.003000,0.000000,0.005000,FlatInitial
03:13:40.985 PM 02/13/2016,Teleop Enabled,0,FALSE,0,NO ERROR,0.000000,0.000000,4000.000000,4000.000000,Speed,Speed,-0.440000,0.380000,2.610000,3.000000,102.000000,1,0,-0.003968,-0.000248,0,0.000000,0.000000,0.000000,0.057297,-0.090393,0.000000,0.000000,0.001000,0.005000,FlatInitial
03:13:41.084 PM 02/13/2016,Teleop Enabled,0,FALSE,0,NO ERROR,0.000000,0.000000,4000.000000,4000.000000,Speed,Speed,-0.440000,0.380000,2.610000,3.000000,101.000000,1,0,-0.003968,-0.000248,0,0.000000,0.000000,0.000000,0.057297,-0.090393,0.000000,-0.004000,0.001000,0.005000,FlatInitial
03:13:41.184 PM 02/13/2016,Teleop Enabled,0,FALSE,0,NO ERROR,0.000000,0.000000,4000.000000,4000.000000,Speed,Speed,-0.440000,0.380000,2.610000,3.000000,102.000000,1,0,-0.003968,-0.000248,0,0.000000,0.000000,0.000000,0.057297,-0.090393,0.000000,0.003000,-0.001000,0.008000,FlatInitial
03:13:41.285 PM 02/13/2016,Teleop Enabled,0,FALSE,0,NO ERROR,0.000000,0.000000,4000.000000,4000.000000,Speed,Speed,-0.440000,0.380000,2.610000,3.000000,101.000000,1,0,-0.003968,-0.000248,0,0.000000,0.000000,0.000000,0.057297,-0.090393,0.000000,0.000000,0.000000,0.005000,FlatInitial
03:13:41.385 PM 02/13/2016,Teleop Enabled,0,FALSE,0,NO ERROR,0.000000,0.000000,4000.000000,4000.000000,Speed,Speed,-0.440000,0.380000,2.610000,3.000000,101.000000,1,0,-0.003968,-0.000248,0,0.000000,0.000000,0.000000,0.057297,-0.090393,0.000000,0.001000,0.000000,0.005000,FlatInitial
03:13:41.486 PM 02/13/2016,Teleop Enabled,0,FALSE,0,NO ERROR,0.000000,0.000000,4000.000000,4000.000000,Speed,Speed,-0.440000,0.380000,2.610000,3.000000,105.000000,1,0,-0.003968,-0.000248,0,0.000000,0.000000,0.000000,0.057297,-0.090393,0.000000,0.002000,-0.002000,0.008000,FlatInitial
03:13:41.586 PM 02/13/2016,Teleop Enabled,0,FALSE,0,NO ERROR,0.000000,0.000000,4000.000000,4000.000000,Speed,Speed,-0.440000,0.380000,2.610000,3.000000,102.000000,1,0,-0.003968,-0.000248,0,0.000000,0.000000,0.000000,0.057297,-0.090393,0.000000,0.002000,0.000000,0.009000,FlatInitial
03:13:41.688 PM 02/13/2016,Teleop Enabled,0,FALSE,0,NO ERROR,0.000000,0.000000,9000.000000,9000.000000,Speed,Speed,-0.440000,0.380000,2.610000,4.000000,101.000000,1,0,-0.003968,-0.000248,0,0.000000,0.000000,0.000000,0.057297,-0.090393,0.000000,0.000000,0.001000,0.011000,FlatInitial
03:13:41.788 PM 02/13/2016,Teleop Enabled,0,FALSE,0,NO ERROR,0.000000,0.000000,9000.000000,9000.000000,Speed,Speed,-0.450000,0.380000,2.610000,4.000000,103.000000,1,0,-0.003968,-0.000248,0,0.000000,0.000000,0.000000,0.057297,-0.090393,0.000000,0.000000,0.001000,0.005000,FlatInitial
03:13:41.888 PM 02/13/2016,Teleop Enabled,0,FALSE,0,NO ERROR,0.000000,0.000000,9000.000000,9000.000000,Speed,Speed,-0.450000,0.380000,2.610000,4.000000,102.000000,1,0,-0.003968,-0.000248,0,0.000000,0.000000,0.000000,0.057297,-0.090393,0.000000,0.001000,0.000000,0.006000,FlatInitial
03:13:41.988 PM 02/13/2016,Teleop Enabled,0,FALSE,0,NO ERROR,0.000000,0.000000,9000.000000,9000.000000,Speed,Speed,-0.450000,0.390000,2.610000,4.000000,102.000000,1,0,-0.003968,-0.000248,0,0.000000,0.000000,0.000000,0.057297,-0.090393,0.000000,0.000000,0.000000,0.007000,FlatInitial
03:13:42.088 PM 02/13/2016,Teleop Enabled,0,FALSE,0,NO ERROR,0.000000,0.000000,2000.000000,2000.000000,Speed,Speed,-0.450000,0.390000,2.610000,5.000000,102.000000,1,0,-0.003968,-0.000248,0,0.000000,0.000000,0.000000,0.057297,-0.090393,0.000000,0.000000,-0.001000,0.000000,FlatInitial
03:13:42.190 PM 02/13/2016,Teleop Enabled,0,FALSE,0,NO ERROR,0.000000,0.000000,2000.000000,2000.000000,Speed,Speed,-0.450000,0.390000,2.610000,5.000000,101.000000,1,0,-0.003968,-0.000248,0,0.000000,0.000000,0.000000,0.057297,-0.090393,0.000000,-0.001000,0.000000,0.006000,FlatInitial
03:13:42.291 PM 02/13/2016,Teleop Enabled,0,FALSE,0,NO ERROR,0.000000,0.000000,2000.000000,2000.000000,Speed,Speed,-0.450000,0.380000,2.610000,5.000000,102.000000,1,0,-0.003968,-0.000248,0,0.000000,0.000000,0.000000,0.057297,-0.090393,0.000000,0.000000,0.001000,0.003000,FlatInitial
03:13:42.392 PM 02/13/2016,Teleop Enabled,0,FALSE,0,NO ERROR,0.000000,0.000000,2000.000000,2000.000000,Speed,Speed,-0.450000,0.380000,2.610000,5.000000,104.000000,1,0,-0.003968,-0.000248,0,0.000000,0.000000,0.000000,0.057297,-0.090393,0.000000,0.001000,0.002000,0.004000,FlatInitial
03:13:42.493 PM 02/13/2016,Teleop Enabled,0,FALSE,0,NO ERROR,0.000000,0.000000,2000.000000,2000.000000,Speed,Speed,-0.460000,0.380000,2.610000,5.000000,101.000000,1,0,-0.003968,-0.000248,0,0.000000,0.000000,0.000000,0.057297,-0.090393,0.000000,0.001000,0.001000,0.006000,FlatInitial
