Time,RobotMode,AutoToRun,ErrorStatus, ErrorCode,ErrorSource,ActualRPM1,ActualRPM2,DesiredRPM1,DesiredRPM2,ControlMode1,ControlMode2,NavXYaw,NavXRoll,NavXPitch,ShooterState,LoopTime,IsLevel,IsAutoTargeting,LeftMotorOutput,RightMotorOutput,IsHaloDrive,NavXVelocityX,NavXVelocityY,NavXVelocityZ,NavXDisplacementX,NavXDisplacementY,NavXDisplacementZ,NavXAccelerationX,NavXAccelerationY,NavXAccelerationZ,AutoDefendState
02:47:04.603 PM 02/13/2016,Teleop Enabled,0,TRUE,-44087,NetComm_CAN_Receive.vi:5470006<APPEND>  <b>Complete call chain:</b>      NetComm_CAN_Receive.vi:5470006      WPI_CANTalonSRX_Receive.vi      WPI_MotorControlOpenCANTalonSRX.vi      Begin.vi      Robot Main.vi,0.000000,0.000000,4000.000000,4000.000000,Speed,Speed,-0.020000,0.820000,1.940000,3.000000,101.000000,1,0,-0.006200,-0.000992,0,0.000000,0.000000,0.000000,0.000336,0.000061,0.000000,0.000000,-0.001000,0.009000,FlatInitial
02:47:04.704 PM 02/13/2016,Teleop Enabled,0,TRUE,-44087,NetComm_CAN_Receive.vi:5470006<APPEND>  <b>Complete call chain:</b>      NetComm_CAN_Receive.vi:5470006      WPI_CANTalonSRX_Receive.vi      WPI_MotorControlOpenCANTalonSRX.vi      Begin.vi      Robot Main.vi,0.000000,0.000000,4000.000000,4000.000000,Speed,Speed,-0.020000,0.830000,1.940000,3.000000,102.000000,1,0,-0.006200,-0.000992,0,0.000000,0.000000,0.000000,0.000336,0.000061,0.000000,-0.002000,0.002000,0.046000,FlatInitial
02:47:04.805 PM 02/13/2016,Teleop Enabled,0,TRUE,-44087,NetComm_CAN_Receive.vi:5470006<APPEND>  <b>Complete call chain:</b>      NetComm_CAN_Receive.vi:5470006      WPI_CANTalonSRX_Receive.vi      WPI_MotorControlOpenCANTalonSRX.vi      Begin.vi      Robot Main.vi,0.000000,0.000000,4000.000000,4000.000000,Speed,Speed,-0.020000,0.820000,1.930000,3.000000,113.000000,1,0,-0.006200,-0.000992,0,0.000000,0.000000,0.000000,0.000336,0.000061,0.000000,0.004000,0.011000,-0.012000,FlatInitial
02:47:04.905 PM 02/13/2016,Teleop Enabled,0,TRUE,-44087,NetComm_CAN_Receive.vi:5470006<APPEND>  <b>Complete call chain:</b>      NetComm_CAN_Receive.vi:5470006      WPI_CANTalonSRX_Receive.vi      WPI_MotorControlOpenCANTalonSRX.vi      Begin.vi      Robot Main.vi,0.000000,0.000000,4000.000000,4000.000000,Speed,Speed,-0.020000,0.820000,1.930000,3.000000,101.000000,1,0,-0.006200,-0.000992,0,0.000000,0.000000,0.000000,0.000336,0.000061,0.000000,0.003000,0.010000,-0.007000,FlatInitial
02:47:05.007 PM 02/13/2016,Teleop Enabled,0,TRUE,-44087,NetComm_CAN_Receive.vi:5470006<APPEND>  <b>Complete call chain:</b>      NetComm_CAN_Receive.vi:5470006      WPI_CANTalonSRX_Receive.vi      WPI_MotorControlOpenCANTalonSRX.vi      Begin.vi      Robot Main.vi,0.000000,0.000000,4000.000000,4000.000000,Speed,Speed,-0.020000,0.820000,1.940000,3.000000,102.000000,1,0,-0.006200,-0.000992,0,0.000000,0.000000,0.000000,0.000336,0.000061,0.000000,0.000000,0.001000,0.012000,FlatInitial
02:47:05.108 PM 02/13/2016,Teleop Enabled,0,TRUE,-44087,NetComm_CAN_Receive.vi:5470006<APPEND>  <b>Complete call chain:</b>      NetComm_CAN_Receive.vi:5470006      WPI_CANTalonSRX_Receive.vi      WPI_MotorControlOpenCANTalonSRX.vi      Begin.vi      Robot Main.vi,0.000000,0.000000,4000.000000,4000.000000,Speed,Speed,-0.020000,0.830000,1.940000,3.000000,103.000000,1,0,-0.006200,-0.000992,0,0.000000,0.000000,0.000000,0.000336,0.000061,0.000000,-0.004000,-0.004000,0.013000,FlatInitial
02:47:05.209 PM 02/13/2016,Teleop Enabled,0,TRUE,-44087,NetComm_CAN_Receive.vi:5470006<APPEND>  <b>Complete call chain:</b>      NetComm_CAN_Receive.vi:5470006      WPI_CANTalonSRX_Receive.vi      WPI_MotorControlOpenCANTalonSRX.vi      Begin.vi      Robot Main.vi,0.000000,0.000000,4000.000000,4000.000000,Speed,Speed,-0.020000,0.830000,1.940000,3.000000,103.000000,1,0,-0.006200,-0.000992,0,0.000000,0.000000,0.000000,0.000336,0.000061,0.000000,-0.002000,-0.006000,0.012000,FlatInitial
02:47:05.310 PM 02/13/2016,Teleop Enabled,0,TRUE,-44087,NetComm_CAN_Receive.vi:5470006<APPEND>  <b>Complete call chain:</b>      NetComm_CAN_Receive.vi:5470006      WPI_CANTalonSRX_Receive.vi      WPI_MotorControlOpenCANTalonSRX.vi      Begin.vi      Robot Main.vi,0.000000,0.000000,4000.000000,4000.000000,Speed,Speed,-0.020000,0.820000,1.940000,3.000000,100.000000,1,0,-0.006200,-0.000992,0,0.000000,0.000000,0.000000,0.000336,0.000061,0.000000,0.001000,-0.002000,0.010000,FlatInitial
02:47:05.411 PM 02/13/2016,Teleop Enabled,0,TRUE,-44087,NetComm_CAN_Receive.vi:5470006<APPEND>  <b>Complete call chain:</b>      NetComm_CAN_Receive.vi:5470006      WPI_CANTalonSRX_Receive.vi      WPI_MotorControlOpenCANTalonSRX.vi      Begin.vi      Robot Main.vi,0.000000,0.000000,4000.000000,4000.000000,Speed,Speed,-0.020000,0.820000,1.930000,3.000000,102.000000,1,0,-0.006200,-0.000992,0,0.000000,0.000000,0.000000,0.000336,0.000061,0.000000,0.001000,0.001000,0.015000,FlatInitial
02:47:05.512 PM 02/13/2016,Teleop Enabled,0,TRUE,-44087,NetComm_CAN_Receive.vi:5470006<APPEND>  <b>Complete call chain:</b>      NetComm_CAN_Receive.vi:5470006      WPI_CANTalonSRX_Receive.vi      WPI_MotorControlOpenCANTalonSRX.vi      Begin.vi      Robot Main.vi,0.000000,0.000000,4000.000000,4000.000000,Speed,Speed,-0.020000,0.820000,1.940000,3.000000,102.000000,1,0,-0.006200,-0.000992,0,0.000000,0.000000,0.000000,0.000336,0.000061,0.000000,-0.001000,0.005000,0.006000,FlatInitial
02:47:05.613 PM 02/13/2016,Teleop Enabled,0,TRUE,-44087,NetComm_CAN_Receive.vi:5470006<APPEND>  <b>Complete call chain:</b>      NetComm_CAN_Receive.vi:5470006      WPI_CANTalonSRX_Receive.vi      WPI_MotorControlOpenCANTalonSRX.vi      Begin.vi      Robot Main.vi,0.000000,0.000000,4000.000000,4000.000000,Speed,Speed,-0.020000,0.820000,1.940000,3.000000,102.000000,1,0,-0.006200,-0.000992,0,0.000000,0.000000,0.000000,0.000336,0.000061,0.000000,0.000000,0.005000,0.005000,FlatInitial
02:47:05.714 PM 02/13/2016,Teleop Enabled,0,TRUE,-44087,NetComm_CAN_Receive.vi:5470006<APPEND>  <b>Complete call chain:</b>      NetComm_CAN_Receive.vi:5470006      WPI_CANTalonSRX_Receive.vi      WPI_MotorControlOpenCANTalonSRX.vi      Begin.vi      Robot Main.vi,0.000000,0.000000,4000.000000,4000.000000,Speed,Speed,-0.020000,0.820000,1.950000,3.000000,104.000000,1,0,-0.006200,-0.000992,0,0.000000,0.000000,0.000000,0.000336,0.000061,0.000000,0.000000,0.002000,0.005000,FlatInitial
02:47:05.815 PM 02/13/2016,Teleop Enabled,0,TRUE,-44087,NetComm_CAN_Receive.vi:5470006<APPEND>  <b>Complete call chain:</b>      NetComm_CAN_Receive.vi:5470006      WPI_CANTalonSRX_Receive.vi      WPI_CANTalonSRX_GetStatus.vi      ShooterVI.vi      Periodic Tasks.vi      Robot Main.vi,0.000000,0.000000,4000.000000,4000.000000,Speed,Speed,-0.020000,0.820000,1.950000,3.000000,100.000000,1,0,-0.006200,-0.000992,0,0.000000,0.000000,0.000000,0.000336,0.000061,0.000000,-0.001000,-0.001000,0.010000,FlatInitial
02:47:05.915 PM 02/13/2016,Teleop Enabled,0,TRUE,-44087,NetComm_CAN_Receive.vi:5470006<APPEND>  <b>Complete call chain:</b>      NetComm_CAN_Receive.vi:5470006      WPI_CANTalonSRX_Receive.vi      WPI_CANTalonSRX_GetStatus.vi      ShooterVI.vi      Periodic Tasks.vi      Robot Main.vi,0.000000,0.000000,4000.000000,4000.000000,Speed,Speed,-0.020000,0.820000,1.950000,3.000000,103.000000,1,0,-0.006200,-0.000992,0,0.000000,0.000000,0.000000,0.000336,0.000061,0.000000,0.000000,-0.003000,0.007000,FlatInitial
02:47:06.015 PM 02/13/2016,Teleop Enabled,0,TRUE,-44003,<LOCATION>WPI_CameraIssue HTTP Request with Authentication.vi<CALLSTACK>WPI_CameraIssue HTTP Request with Authentication.vi< <WPI_CameraIssue Get.vi< <WPI_CameraSet Image Appearance Property.vi< <WPI_CameraSet Image Size.vi< <Vision Processing.vi< <Robot Main.vi,0.000000,0.000000,4000.000000,4000.000000,Speed,Speed,-0.010000,0.830000,1.940000,3.000000,104.000000,1,0,-0.006200,-0.000992,0,0.000000,0.000000,0.000000,0.000336,0.000061,0.000000,-0.011000,-0.010000,0.021000,FlatInitial
02:47:06.115 PM 02/13/2016,Teleop Enabled,0,FALSE,0,NO ERROR,0.000000,0.000000,4000.000000,4000.000000,Speed,Speed,-0.010000,0.820000,1.960000,3.000000,102.000000,1,0,-0.006200,-0.000992,0,0.000000,0.000000,0.000000,0.000336,0.000061,0.000000,-0.005000,0.003000,0.009000,FlatInitial
02:47:06.215 PM 02/13/2016,Teleop Enabled,0,FALSE,0,NO ERROR,0.000000,0.000000,4000.000000,4000.000000,Speed,Speed,-0.020000,0.820000,1.950000,3.000000,101.000000,1,0,-0.006200,-0.000992,0,0.000000,0.000000,0.000000,0.000336,0.000061,0.000000,-0.007000,-0.007000,-0.005000,FlatInitial
02:47:06.315 PM 02/13/2016,Teleop Enabled,0,FALSE,0,NO ERROR,0.000000,0.000000,4000.000000,4000.000000,Speed,Speed,-0.020000,0.810000,1.950000,3.000000,102.000000,1,0,-0.006200,-0.000992,0,0.000000,0.000000,0.000000,0.000336,0.000061,0.000000,0.002000,0.001000,-0.001000,FlatInitial
02:47:06.415 PM 02/13/2016,Teleop Enabled,0,FALSE,0,NO ERROR,0.000000,0.000000,4000.000000,4000.000000,Speed,Speed,-0.020000,0.800000,1.940000,3.000000,101.000000,1,0,-0.006200,-0.000992,0,0.000000,0.000000,0.000000,0.000336,0.000061,0.000000,0.000000,-0.001000,0.016000,FlatInitial
02:47:06.516 PM 02/13/2016,Teleop Enabled,0,FALSE,0,NO ERROR,0.000000,0.000000,4000.000000,4000.000000,Speed,Speed,-0.010000,0.800000,1.950000,3.000000,102.000000,1,0,-0.006200,-0.000992,0,0.000000,0.000000,0.000000,0.000336,0.000061,0.000000,-0.003000,-0.003000,0.008000,FlatInitial
02:47:06.616 PM 02/13/2016,Teleop Enabled,0,FALSE,0,NO ERROR,0.000000,0.000000,4000.000000,4000.000000,Speed,Speed,-0.010000,0.810000,1.950000,3.000000,101.000000,1,0,-0.006200,-0.000992,0,0.000000,0.000000,0.000000,0.000336,0.000061,0.000000,-0.002000,0.000000,0.009000,FlatInitial
02:47:06.715 PM 02/13/2016,Teleop Enabled,0,FALSE,0,NO ERROR,0.000000,0.000000,4000.000000,4000.000000,Speed,Speed,-0.020000,0.810000,1.950000,3.000000,101.000000,1,0,-0.006200,-0.000992,0,0.000000,0.000000,0.000000,0.000336,0.000061,0.000000,0.003000,0.004000,0.005000,FlatInitial
02:47:06.816 PM 02/13/2016,Teleop Enabled,0,FALSE,0,NO ERROR,0.000000,0.000000,4000.000000,4000.000000,Speed,Speed,-0.020000,0.810000,1.950000,3.000000,102.000000,1,0,-0.006200,-0.000992,0,0.000000,0.000000,0.000000,0.000336,0.000061,0.000000,0.004000,0.003000,0.003000,FlatInitial
02:47:06.917 PM 02/13/2016,Teleop Enabled,0,FALSE,0,NO ERROR,0.000000,0.000000,4000.000000,4000.000000,Speed,Speed,-0.010000,0.810000,1.950000,3.000000,102.000000,1,0,-0.006200,-0.000992,0,0.000000,0.000000,0.000000,0.000336,0.000061,0.000000,0.000000,0.000000,0.007000,FlatInitial
02:47:07.017 PM 02/13/2016,Teleop Enabled,0,FALSE,0,NO ERROR,0.000000,0.000000,4000.000000,4000.000000,Speed,Speed,-0.010000,0.810000,1.960000,3.000000,100.000000,1,0,-0.006200,-0.000992,0,0.000000,0.000000,0.000000,0.000336,0.000061,0.000000,-0.003000,0.000000,0.010000,FlatInitial
02:47:07.118 PM 02/13/2016,Teleop Enabled,0,FALSE,0,NO ERROR,0.000000,0.000000,4000.000000,4000.000000,Speed,Speed,-0.010000,0.810000,1.960000,3.000000,101.000000,1,0,-0.006200,-0.000992,0,0.000000,0.000000,0.000000,0.000336,0.000061,0.000000,-0.002000,-0.003000,0.012000,FlatInitial
02:47:07.218 PM 02/13/2016,Teleop Enabled,0,FALSE,0,NO ERROR,0.000000,0.000000,4000.000000,4000.000000,Speed,Speed,-0.010000,0.810000,1.950000,3.000000,103.000000,1,0,-0.006200,-0.000992,0,0.000000,0.000000,0.000000,0.000336,0.000061,0.000000,-0.002000,-0.004000,0.009000,FlatInitial
02:47:07.318 PM 02/13/2016,Teleop Enabled,0,FALSE,0,NO ERROR,0.000000,0.000000,4000.000000,4000.000000,Speed,Speed,-0.020000,0.810000,1.950000,3.000000,102.000000,1,0,-0.006200,-0.000992,0,0.000000,0.000000,0.000000,0.000336,0.000061,0.000000,0.002000,-0.002000,0.009000,FlatInitial
02:47:07.419 PM 02/13/2016,Teleop Enabled,0,FALSE,0,NO ERROR,0.000000,0.000000,4000.000000,4000.000000,Speed,Speed,-0.020000,0.810000,1.950000,3.000000,104.000000,1,0,-0.006200,-0.000992,0,0.000000,0.000000,0.000000,0.000336,0.000061,0.000000,0.000000,-0.001000,0.010000,FlatInitial
02:47:07.519 PM 02/13/2016,Teleop Enabled,0,FALSE,0,NO ERROR,0.000000,0.000000,4000.000000,4000.000000,Speed,Speed,-0.020000,0.810000,1.950000,3.000000,101.000000,1,0,-0.006200,-0.000992,0,0.000000,0.000000,0.000000,0.000336,0.000061,0.000000,0.000000,-0.002000,0.008000,FlatInitial
02:47:07.619 PM 02/13/2016,Teleop Enabled,0,FALSE,0,NO ERROR,0.000000,0.000000,4000.000000,4000.000000,Speed,Speed,-0.020000,0.810000,1.950000,3.000000,103.000000,1,0,-0.006200,-0.000992,0,0.000000,0.000000,0.000000,0.000336,0.000061,0.000000,-0.001000,0.000000,0.008000,FlatInitial
02:47:07.719 PM 02/13/2016,Teleop Enabled,0,FALSE,0,NO ERROR,0.000000,0.000000,4000.000000,4000.000000,Speed,Speed,-0.020000,0.810000,1.950000,3.000000,102.000000,1,0,-0.006200,-0.000992,0,0.000000,0.000000,0.000000,0.000336,0.000061,0.000000,-0.002000,0.003000,0.007000,FlatInitial
02:47:07.820 PM 02/13/2016,Teleop Enabled,0,FALSE,0,NO ERROR,0.000000,0.000000,4000.000000,4000.000000,Speed,Speed,-0.020000,0.810000,1.950000,3.000000,102.000000,1,0,-0.007502,-0.000992,0,0.000000,0.000000,0.000000,0.000336,0.000061,0.000000,-0.001000,-0.002000,0.009000,FlatInitial
02:47:07.920 PM 02/13/2016,Teleop Enabled,0,FALSE,0,NO ERROR,0.000000,0.000000,4000.000000,4000.000000,Speed,Speed,-0.020000,0.810000,1.950000,3.000000,102.000000,1,0,-0.007502,-0.000992,0,0.000000,0.000000,0.000000,0.000336,0.000061,0.000000,0.000000,0.000000,0.010000,FlatInitial
02:47:08.020 PM 02/13/2016,Teleop Enabled,0,FALSE,0,NO ERROR,0.000000,0.000000,9000.000000,9000.000000,Speed,Speed,-0.020000,0.810000,1.950000,4.000000,101.000000,1,0,-0.007502,-0.000992,0,0.000000,0.000000,0.000000,0.000336,0.000061,0.000000,0.001000,0.000000,0.010000,FlatInitial
02:47:08.121 PM 02/13/2016,Teleop Enabled,0,FALSE,0,NO ERROR,0.000000,0.000000,9000.000000,9000.000000,Speed,Speed,-0.020000,0.810000,1.950000,4.000000,104.000000,1,0,-0.007502,-0.000992,0,0.000000,0.000000,0.000000,0.000336,0.000061,0.000000,-0.003000,-0.002000,0.009000,FlatInitial
02:47:08.223 PM 02/13/2016,Teleop Enabled,0,FALSE,0,NO ERROR,0.000000,0.000000,9000.000000,9000.000000,Speed,Speed,-0.020000,0.810000,1.950000,4.000000,103.000000,1,0,-0.007502,-0.000992,0,0.000000,0.000000,0.000000,0.000336,0.000061,0.000000,0.000000,0.001000,0.005000,FlatInitial
02:47:08.323 PM 02/13/2016,Teleop Enabled,0,FALSE,0,NO ERROR,0.000000,0.000000,9000.000000,9000.000000,Speed,Speed,-0.020000,0.800000,1.950000,4.000000,101.000000,1,0,-0.007502,-0.000992,0,0.000000,0.000000,0.000000,0.000336,0.000061,0.000000,0.000000,-0.001000,0.010000,FlatInitial
02:47:08.424 PM 02/13/2016,Teleop Enabled,0,FALSE,0,NO ERROR,0.000000,0.000000,9000.000000,9000.000000,Speed,Speed,-0.020000,0.800000,1.940000,4.000000,103.000000,1,0,-0.094302,-0.000992,0,0.000000,0.000000,0.000000,0.000336,0.000061,0.000000,0.000000,-0.001000,0.008000,FlatInitial
02:47:08.525 PM 02/13/2016,Teleop Enabled,0,FALSE,0,NO ERROR,0.000000,0.000000,9000.000000,9000.000000,Speed,Speed,0.020000,0.800000,2.000000,4.000000,101.000000,1,0,-0.187550,-0.000992,0,0.000000,0.009628,0.000000,0.000336,0.000198,0.000000,0.006000,0.007000,0.010000,FlatInitial
02:47:08.624 PM 02/13/2016,Teleop Enabled,0,FALSE,0,NO ERROR,0.000000,0.000000,9000.000000,9000.000000,Speed,Speed,0.610000,0.720000,2.750000,4.000000,113.000000,1,0,-0.008928,-0.000992,0,-0.010315,0.114822,0.000000,-0.000229,0.004715,0.000000,0.064000,-0.195000,0.050000,FlatInitial
02:47:08.726 PM 02/13/2016,Teleop Enabled,0,FALSE,0,NO ERROR,0.000000,0.000000,9000.000000,9000.000000,Speed,Speed,1.040000,0.760000,1.570000,4.000000,102.000000,1,0,-0.041912,-0.000992,0,-0.011734,0.031494,0.000000,-0.000519,0.006775,0.000000,0.059000,-0.016000,-0.045000,FlatInitial
02:47:08.825 PM 02/13/2016,Teleop Enabled,0,FALSE,0,NO ERROR,0.000000,0.000000,9000.000000,9000.000000,Speed,Speed,0.450000,0.920000,1.840000,4.000000,104.000000,1,0,0.001550,-0.000558,0,-0.006241,0.000000,0.000000,-0.000137,0.007492,0.000000,-0.047000,0.016000,-0.011000,FlatInitial
02:47:08.926 PM 02/13/2016,Teleop Enabled,0,FALSE,0,NO ERROR,0.000000,0.000000,9000.000000,9000.000000,Speed,Speed,0.620000,0.910000,1.570000,4.000000,100.000000,1,0,0.005022,-0.000992,0,0.000000,-0.015793,0.000000,-0.000290,0.007507,0.000000,-0.017000,-0.081000,0.021000,FlatInitial
02:47:09.027 PM 02/13/2016,Teleop Enabled,0,FALSE,0,NO ERROR,0.000000,0.000000,9000.000000,9000.000000,Speed,Speed,0.590000,0.880000,1.510000,4.000000,101.000000,1,0,-0.006200,-0.000992,0,0.007721,0.000000,0.000000,-0.000168,0.006836,0.000000,0.020000,0.019000,0.019000,FlatInitial
02:47:09.128 PM 02/13/2016,Teleop Enabled,0,FALSE,0,NO ERROR,0.000000,0.000000,9000.000000,9000.000000,Speed,Speed,0.620000,0.860000,1.630000,4.000000,102.000000,1,0,-0.012152,-0.000992,0,0.000000,0.000000,0.000000,-0.000015,0.007080,0.000000,0.017000,0.005000,0.004000,FlatInitial
02:47:09.228 PM 02/13/2016,Teleop Enabled,0,FALSE,0,NO ERROR,0.000000,0.000000,9000.000000,9000.000000,Speed,Speed,0.640000,0.870000,1.640000,4.000000,102.000000,1,0,-0.013950,-0.000992,0,0.000000,0.000000,0.000000,-0.000015,0.007080,0.000000,0.003000,0.003000,0.004000,FlatInitial
02:47:09.332 PM 02/13/2016,Teleop Enabled,0,FALSE,0,NO ERROR,0.000000,0.000000,9000.000000,9000.000000,Speed,Speed,0.600000,0.890000,1.660000,4.000000,103.000000,1,0,-0.010478,-0.000992,0,0.000000,0.000000,0.000000,-0.000015,0.007080,0.000000,-0.006000,0.006000,0.003000,FlatInitial
02:47:09.433 PM 02/13/2016,Teleop Enabled,0,FALSE,0,NO ERROR,0.000000,0.000000,9000.000000,9000.000000,Speed,Speed,0.630000,0.900000,1.590000,4.000000,100.000000,1,0,-0.006200,-0.000992,0,0.000000,-0.006958,0.000000,-0.000015,0.006973,0.000000,-0.002000,-0.013000,0.000000,FlatInitial
02:47:09.533 PM 02/13/2016,Teleop Enabled,0,FALSE,0,NO ERROR,0.000000,0.000000,9000.000000,9000.000000,Speed,Speed,0.620000,0.910000,1.620000,4.000000,102.000000,1,0,-0.002232,-0.000992,0,0.000000,0.000000,0.000000,-0.000015,0.006882,0.000000,0.002000,0.000000,0.009000,FlatInitial
02:47:09.635 PM 02/13/2016,Teleop Enabled,0,FALSE,0,NO ERROR,0.000000,0.000000,9000.000000,9000.000000,Speed,Speed,0.610000,0.890000,1.640000,4.000000,101.000000,1,0,-0.002232,-0.000992,0,0.000000,0.000000,0.000000,-0.000015,0.006882,0.000000,0.008000,0.005000,0.008000,FlatInitial
02:47:09.735 PM 02/13/2016,Teleop Enabled,0,FALSE,0,NO ERROR,0.000000,0.000000,9000.000000,9000.000000,Speed,Speed,0.630000,0.890000,1.620000,4.000000,102.000000,1,0,-0.002232,-0.000992,0,0.000000,0.000000,0.000000,-0.000015,0.006882,0.000000,0.004000,-0.001000,0.006000,FlatInitial
02:47:09.835 PM 02/13/2016,Teleop Enabled,0,FALSE,0,NO ERROR,0.000000,0.000000,9000.000000,9000.000000,Speed,Speed,0.620000,0.900000,1.610000,4.000000,102.000000,1,0,-0.002232,-0.000992,0,0.000000,0.000000,0.000000,-0.000015,0.006882,0.000000,0.002000,0.002000,0.008000,FlatInitial
02:47:09.936 PM 02/13/2016,Teleop Enabled,0,FALSE,0,NO ERROR,0.000000,0.000000,9000.000000,9000.000000,Speed,Speed,0.610000,0.890000,1.640000,4.000000,102.000000,1,0,-0.002232,-0.000992,0,0.000000,0.000000,0.000000,-0.000015,0.006882,0.000000,0.003000,0.003000,0.008000,FlatInitial
02:47:10.036 PM 02/13/2016,Teleop Enabled,0,FALSE,0,NO ERROR,0.000000,0.000000,9000.000000,9000.000000,Speed,Speed,0.620000,0.900000,1.630000,4.000000,102.000000,1,0,-0.002232,-0.000992,0,0.000000,0.000000,0.000000,-0.000015,0.006882,0.000000,0.002000,-0.001000,0.009000,FlatInitial
02:47:10.136 PM 02/13/2016,Teleop Enabled,0,FALSE,0,NO ERROR,0.000000,0.000000,9000.000000,9000.000000,Speed,Speed,0.610000,0.900000,1.630000,4.000000,103.000000,1,0,-0.002232,-0.000992,0,0.000000,0.000000,0.000000,-0.000015,0.006882,0.000000,0.000000,0.002000,0.008000,FlatInitial
02:47:10.237 PM 02/13/2016,Teleop Enabled,0,FALSE,0,NO ERROR,0.000000,0.000000,9000.000000,9000.000000,Speed,Speed,0.610000,0.900000,1.630000,4.000000,102.000000,1,0,-0.002232,-0.000992,0,0.000000,0.000000,0.000000,-0.000015,0.006882,0.000000,0.004000,0.001000,0.004000,FlatInitial
02:47:10.337 PM 02/13/2016,Teleop Enabled,0,FALSE,0,NO ERROR,0.000000,0.000000,9000.000000,9000.000000,Speed,Speed,0.620000,0.910000,1.630000,4.000000,102.000000,1,0,-0.002232,-0.000992,0,0.000000,0.000000,0.000000,-0.000015,0.006882,0.000000,-0.003000,-0.002000,0.011000,FlatInitial
02:47:10.438 PM 02/13/2016,Teleop Enabled,0,FALSE,0,NO ERROR,0.000000,0.000000,9000.000000,9000.000000,Speed,Speed,0.610000,0.900000,1.630000,4.000000,101.000000,1,0,-0.002232,-0.000992,0,0.000000,0.000000,0.000000,-0.000015,0.006882,0.000000,0.000000,0.000000,0.004000,FlatInitial
02:47:10.539 PM 02/13/2016,Teleop Enabled,0,FALSE,0,NO ERROR,0.000000,0.000000,9000.000000,9000.000000,Speed,Speed,0.610000,0.910000,1.630000,4.000000,103.000000,1,0,-0.002232,-0.000992,0,0.000000,0.000000,0.000000,-0.000015,0.006882,0.000000,-0.003000,0.000000,0.010000,FlatInitial
02:47:10.639 PM 02/13/2016,Teleop Enabled,0,FALSE,0,NO ERROR,0.000000,0.000000,9000.000000,9000.000000,Speed,Speed,0.610000,0.910000,1.640000,4.000000,102.000000,1,0,-0.002232,-0.000992,0,0.000000,0.000000,0.000000,-0.000015,0.006882,0.000000,0.000000,0.001000,0.007000,FlatInitial
02:47:10.739 PM 02/13/2016,Teleop Enabled,0,FALSE,0,NO ERROR,0.000000,0.000000,9000.000000,9000.000000,Speed,Speed,0.610000,0.910000,1.640000,4.000000,103.000000,1,0,-0.002232,-0.000992,0,0.000000,0.000000,0.000000,-0.000015,0.006882,0.000000,0.000000,0.000000,0.012000,FlatInitial
02:47:10.839 PM 02/13/2016,Teleop Enabled,0,FALSE,0,NO ERROR,0.000000,0.000000,9000.000000,9000.000000,Speed,Speed,0.610000,0.910000,1.640000,4.000000,102.000000,1,0,-0.002232,-0.000992,0,0.000000,0.000000,0.000000,-0.000015,0.006882,0.000000,0.001000,0.000000,0.009000,FlatInitial
02:47:10.939 PM 02/13/2016,Teleop Enabled,0,FALSE,0,NO ERROR,0.000000,0.000000,9000.000000,9000.000000,Speed,Speed,0.610000,0.910000,1.630000,4.000000,102.000000,1,0,-0.002232,-0.000992,0,0.000000,0.000000,0.000000,-0.000015,0.006882,0.000000,0.000000,0.000000,0.006000,FlatInitial
02:47:11.039 PM 02/13/2016,Teleop Enabled,0,FALSE,0,NO ERROR,0.000000,0.000000,9000.000000,9000.000000,Speed,Speed,0.610000,0.900000,1.640000,4.000000,103.000000,1,0,-0.002232,-0.000992,0,0.000000,0.000000,0.000000,-0.000015,0.006882,0.000000,-0.001000,0.000000,0.007000,FlatInitial
02:47:11.139 PM 02/13/2016,Teleop Enabled,0,FALSE,0,NO ERROR,0.000000,0.000000,9000.000000,9000.000000,Speed,Speed,0.610000,0.910000,1.640000,4.000000,102.000000,1,0,-0.002232,-0.000992,0,0.000000,0.000000,0.000000,-0.000015,0.006882,0.000000,0.000000,0.000000,0.005000,FlatInitial
02:47:11.239 PM 02/13/2016,Teleop Enabled,0,FALSE,0,NO ERROR,0.000000,0.000000,9000.000000,9000.000000,Speed,Speed,0.610000,0.910000,1.630000,4.000000,102.000000,1,0,-0.002232,-0.000992,0,0.000000,0.000000,0.000000,-0.000015,0.006882,0.000000,-0.002000,0.002000,0.011000,FlatInitial
02:47:11.340 PM 02/13/2016,Teleop Enabled,0,FALSE,0,NO ERROR,0.000000,0.000000,9000.000000,9000.000000,Speed,Speed,0.610000,0.910000,1.640000,4.000000,103.000000,1,0,-0.002232,-0.000992,0,0.000000,0.000000,0.000000,-0.000015,0.006882,0.000000,0.001000,-0.003000,0.010000,FlatInitial
02:47:11.441 PM 02/13/2016,Teleop Enabled,0,FALSE,0,NO ERROR,0.000000,0.000000,9000.000000,9000.000000,Speed,Speed,0.610000,0.910000,1.640000,4.000000,100.000000,1,0,-0.002232,-0.000992,0,0.000000,0.000000,0.000000,-0.000015,0.006882,0.000000,0.002000,0.001000,0.011000,FlatInitial
02:47:11.541 PM 02/13/2016,Teleop Enabled,0,FALSE,0,NO ERROR,0.000000,0.000000,9000.000000,9000.000000,Speed,Speed,0.610000,0.910000,1.640000,4.000000,102.000000,1,0,-0.002232,-0.000992,0,0.000000,0.000000,0.000000,-0.000015,0.006882,0.000000,-0.001000,0.000000,0.009000,FlatInitial
02:47:11.641 PM 02/13/2016,Teleop Enabled,0,FALSE,0,NO ERROR,0.000000,0.000000,9000.000000,9000.000000,Speed,Speed,0.610000,0.910000,1.640000,4.000000,104.000000,1,0,-0.002232,-0.000992,0,0.000000,0.000000,0.000000,-0.000015,0.006882,0.000000,-0.004000,0.000000,0.009000,FlatInitial
02:47:11.742 PM 02/13/2016,Teleop Enabled,0,FALSE,0,NO ERROR,0.000000,0.000000,9000.000000,9000.000000,Speed,Speed,0.610000,0.900000,1.640000,4.000000,102.000000,1,0,-0.002232,-0.000992,0,0.000000,0.000000,0.000000,-0.000015,0.006882,0.000000,0.001000,0.001000,0.005000,FlatInitial
02:47:11.842 PM 02/13/2016,Teleop Enabled,0,FALSE,0,NO ERROR,0.000000,0.000000,9000.000000,9000.000000,Speed,Speed,0.610000,0.900000,1.640000,4.000000,101.000000,1,0,-0.002232,-0.000992,0,0.000000,0.000000,0.000000,-0.000015,0.006882,0.000000,0.000000,-0.003000,0.007000,FlatInitial
02:47:11.943 PM 02/13/2016,Teleop Enabled,0,FALSE,0,NO ERROR,0.000000,0.000000,9000.000000,9000.000000,Speed,Speed,0.600000,0.910000,1.640000,4.000000,102.000000,1,0,-0.002232,-0.000992,0,0.000000,0.000000,0.000000,-0.000015,0.006882,0.000000,0.001000,-0.001000,0.009000,FlatInitial
02:47:12.043 PM 02/13/2016,Teleop Enabled,0,FALSE,0,NO ERROR,0.000000,0.000000,9000.000000,9000.000000,Speed,Speed,0.600000,0.910000,1.640000,4.000000,103.000000,1,0,-0.002232,-0.000992,0,0.000000,0.000000,0.000000,-0.000015,0.006882,0.000000,0.001000,0.002000,0.008000,FlatInitial
02:47:12.144 PM 02/13/2016,Teleop Enabled,0,FALSE,0,NO ERROR,0.000000,0.000000,9000.000000,9000.000000,Speed,Speed,0.600000,0.900000,1.640000,4.000000,102.000000,1,0,-0.002232,-0.000992,0,0.000000,0.000000,0.000000,-0.000015,0.006882,0.000000,-0.001000,0.000000,0.011000,FlatInitial
02:47:12.244 PM 02/13/2016,Teleop Enabled,0,FALSE,0,NO ERROR,0.000000,0.000000,9000.000000,9000.000000,Speed,Speed,0.600000,0.900000,1.640000,4.000000,102.000000,1,0,-0.002232,-0.000992,0,0.000000,0.000000,0.000000,-0.000015,0.006882,0.000000,0.000000,-0.001000,0.008000,FlatInitial
02:47:12.345 PM 02/13/2016,Teleop Enabled,0,FALSE,0,NO ERROR,0.000000,0.000000,9000.000000,9000.000000,Speed,Speed,0.600000,0.900000,1.640000,4.000000,103.000000,1,0,-0.002232,-0.000992,0,0.000000,0.000000,0.000000,-0.000015,0.006882,0.000000,-0.002000,-0.001000,0.009000,FlatInitial
02:47:12.446 PM 02/13/2016,Teleop Enabled,0,FALSE,0,NO ERROR,0.000000,0.000000,9000.000000,9000.000000,Speed,Speed,0.600000,0.900000,1.640000,4.000000,101.000000,1,0,-0.002232,-0.000992,0,0.000000,0.000000,0.000000,-0.000015,0.006882,0.000000,0.000000,0.002000,0.015000,FlatInitial
02:47:12.546 PM 02/13/2016,Teleop Enabled,0,FALSE,0,NO ERROR,0.000000,0.000000,9000.000000,9000.000000,Speed,Speed,0.600000,0.900000,1.640000,4.000000,103.000000,1,0,-0.002232,-0.000992,0,0.000000,0.000000,0.000000,-0.000015,0.006882,0.000000,0.001000,-0.001000,0.010000,FlatInitial
02:47:12.647 PM 02/13/2016,Teleop Enabled,0,FALSE,0,NO ERROR,0.000000,0.000000,9000.000000,9000.000000,Speed,Speed,0.590000,0.900000,1.640000,4.000000,102.000000,1,0,-0.002232,-0.000992,0,0.000000,0.000000,0.000000,-0.000015,0.006882,0.000000,0.001000,-0.001000,0.010000,FlatInitial
02:47:12.747 PM 02/13/2016,Teleop Enabled,0,FALSE,0,NO ERROR,0.000000,0.000000,9000.000000,9000.000000,Speed,Speed,0.590000,0.900000,1.640000,4.000000,105.000000,1,0,-0.002232,-0.000992,0,0.000000,0.000000,0.000000,-0.000015,0.006882,0.000000,-0.001000,0.000000,0.004000,FlatInitial
02:47:12.848 PM 02/13/2016,Teleop Enabled,0,FALSE,0,NO ERROR,0.000000,0.000000,9000.000000,9000.000000,Speed,Speed,0.590000,0.900000,1.650000,4.000000,103.000000,1,0,-0.002232,-0.000992,0,0.000000,0.000000,0.000000,-0.000015,0.006882,0.000000,-0.001000,0.000000,0.004000,FlatInitial
02:47:12.949 PM 02/13/2016,Teleop Enabled,0,FALSE,0,NO ERROR,0.000000,0.000000,9000.000000,9000.000000,Speed,Speed,0.590000,0.900000,1.640000,4.000000,102.000000,1,0,-0.002232,-0.000992,0,0.000000,0.000000,0.000000,-0.000015,0.006882,0.000000,0.001000,0.000000,0.008000,FlatInitial
02:47:13.050 PM 02/13/2016,Teleop Enabled,0,FALSE,0,NO ERROR,0.000000,0.000000,9000.000000,9000.000000,Speed,Speed,0.590000,0.890000,1.640000,4.000000,103.000000,1,0,-0.002232,-0.000992,0,0.000000,0.000000,0.000000,-0.000015,0.006882,0.000000,0.000000,0.000000,0.005000,FlatInitial
02:47:13.151 PM 02/13/2016,Teleop Enabled,0,FALSE,0,NO ERROR,0.000000,0.000000,9000.000000,9000.000000,Speed,Speed,0.590000,0.900000,1.650000,4.000000,101.000000,1,0,-0.002232,-0.000992,0,0.000000,0.000000,0.000000,-0.000015,0.006882,0.000000,0.000000,0.000000,0.007000,FlatInitial
02:47:13.252 PM 02/13/2016,Teleop Enabled,0,FALSE,0,NO ERROR,0.000000,0.000000,9000.000000,9000.000000,Speed,Speed,0.580000,0.910000,1.650000,4.000000,102.000000,1,0,-0.002232,-0.000992,0,0.000000,0.000000,0.000000,-0.000015,0.006882,0.000000,0.000000,0.002000,0.007000,FlatInitial
02:47:13.353 PM 02/13/2016,Teleop Enabled,0,FALSE,0,NO ERROR,0.000000,0.000000,9000.000000,9000.000000,Speed,Speed,0.580000,0.910000,1.650000,4.000000,102.000000,1,0,-0.002232,-0.000992,0,0.000000,0.000000,0.000000,-0.000015,0.006882,0.000000,0.000000,0.002000,0.007000,FlatInitial
02:47:13.455 PM 02/13/2016,Teleop Enabled,0,FALSE,0,NO ERROR,0.000000,0.000000,9000.000000,9000.000000,Speed,Speed,0.580000,0.910000,1.650000,4.000000,104.000000,1,0,-0.002232,-0.000992,0,0.000000,0.000000,0.000000,-0.000015,0.006882,0.000000,-0.001000,0.001000,0.007000,FlatInitial
02:47:13.555 PM 02/13/2016,Teleop Enabled,0,FALSE,0,NO ERROR,0.000000,0.000000,9000.000000,9000.000000,Speed,Speed,0.580000,0.910000,1.650000,4.000000,101.000000,1,0,-0.002232,-0.000992,0,0.000000,0.000000,0.000000,-0.000015,0.006882,0.000000,-0.002000,0.000000,0.010000,FlatInitial
02:47:13.655 PM 02/13/2016,Teleop Enabled,0,FALSE,0,NO ERROR,0.000000,0.000000,9000.000000,9000.000000,Speed,Speed,0.580000,0.910000,1.660000,4.000000,102.000000,1,0,-0.002232,-0.000992,0,0.000000,0.000000,0.000000,-0.000015,0.006882,0.000000,-0.001000,0.001000,0.009000,FlatInitial
02:47:13.755 PM 02/13/2016,Teleop Enabled,0,FALSE,0,NO ERROR,0.000000,0.000000,9000.000000,9000.000000,Speed,Speed,0.580000,0.910000,1.660000,4.000000,101.000000,1,0,-0.002232,-0.000992,0,0.000000,0.000000,0.000000,-0.000015,0.006882,0.000000,-0.001000,0.000000,0.008000,FlatInitial
02:47:13.855 PM 02/13/2016,Teleop Enabled,0,FALSE,0,NO ERROR,0.000000,0.000000,9000.000000,9000.000000,Speed,Speed,0.580000,0.900000,1.660000,4.000000,106.000000,1,0,-0.002232,-0.000992,0,0.000000,0.000000,0.000000,-0.000015,0.006882,0.000000,0.000000,0.003000,0.010000,FlatInitial
02:47:13.955 PM 02/13/2016,Teleop Enabled,0,FALSE,0,NO ERROR,0.000000,0.000000,9000.000000,9000.000000,Speed,Speed,0.580000,0.910000,1.660000,4.000000,101.000000,1,0,-0.002232,-0.000992,0,0.000000,0.000000,0.000000,-0.000015,0.006882,0.000000,0.000000,0.000000,0.013000,FlatInitial
02:47:14.055 PM 02/13/2016,Teleop Enabled,0,FALSE,0,NO ERROR,0.000000,0.000000,9000.000000,9000.000000,Speed,Speed,0.580000,0.910000,1.650000,4.000000,102.000000,1,0,-0.002232,-0.000992,0,0.000000,0.000000,0.000000,-0.000015,0.006882,0.000000,0.000000,0.000000,0.010000,FlatInitial
02:47:14.155 PM 02/13/2016,Teleop Enabled,0,FALSE,0,NO ERROR,0.000000,0.000000,9000.000000,9000.000000,Speed,Speed,0.580000,0.910000,1.650000,4.000000,101.000000,1,0,-0.002232,-0.000992,0,0.000000,0.000000,0.000000,-0.000015,0.006882,0.000000,0.000000,-0.001000,0.008000,FlatInitial
02:47:14.255 PM 02/13/2016,Teleop Enabled,0,FALSE,0,NO ERROR,0.000000,0.000000,9000.000000,9000.000000,Speed,Speed,0.580000,0.910000,1.650000,4.000000,102.000000,1,0,-0.002232,-0.000992,0,0.000000,0.000000,0.000000,-0.000015,0.006882,0.000000,-0.001000,-0.001000,0.006000,FlatInitial
02:47:14.355 PM 02/13/2016,Teleop Enabled,0,FALSE,0,NO ERROR,0.000000,0.000000,9000.000000,9000.000000,Speed,Speed,0.570000,0.910000,1.660000,4.000000,104.000000,1,0,-0.002232,-0.000992,0,0.000000,0.000000,0.000000,-0.000015,0.006882,0.000000,-0.001000,0.000000,0.009000,FlatInitial
02:47:14.456 PM 02/13/2016,Teleop Enabled,0,FALSE,0,NO ERROR,0.000000,0.000000,9000.000000,9000.000000,Speed,Speed,0.580000,0.900000,1.660000,4.000000,101.000000,1,0,-0.002232,-0.000992,0,0.004486,-0.003754,0.000000,0.000061,0.006851,0.000000,-0.051000,-0.028000,-0.164000,FlatInitial
02:47:14.556 PM 02/13/2016,Teleop Enabled,0,FALSE,0,NO ERROR,0.000000,0.000000,9000.000000,9000.000000,Speed,Speed,0.570000,0.870000,1.670000,4.000000,102.000000,1,0,-0.002232,-0.000992,0,-0.007706,0.006836,0.000000,-0.000122,0.006851,0.000000,0.011000,0.013000,0.000000,FlatInitial
02:47:14.657 PM 02/13/2016,Teleop Enabled,0,FALSE,0,NO ERROR,0.000000,0.000000,9000.000000,9000.000000,Speed,Speed,0.570000,0.920000,1.700000,4.000000,104.000000,1,0,-0.002232,-0.000992,0,0.001846,0.000000,0.000000,-0.000092,0.006851,0.000000,-0.046000,0.004000,0.018000,FlatInitial
02:47:14.758 PM 02/13/2016,Teleop Enabled,0,FALSE,0,NO ERROR,0.000000,0.000000,9000.000000,9000.000000,Speed,Speed,0.560000,0.920000,1.610000,4.000000,102.000000,1,0,-0.002232,-0.000992,0,0.000000,-0.013626,0.000000,-0.000076,0.006592,0.000000,-0.016000,-0.015000,0.012000,FlatInitial
02:47:14.859 PM 02/13/2016,Teleop Enabled,0,FALSE,0,NO ERROR,0.000000,0.000000,9000.000000,9000.000000,Speed,Speed,0.580000,0.940000,1.620000,4.000000,102.000000,1,0,-0.002232,-0.000992,0,0.000000,0.000000,0.000000,-0.000198,0.006592,0.000000,0.001000,0.001000,0.002000,FlatInitial
02:47:14.959 PM 02/13/2016,Teleop Enabled,0,FALSE,0,NO ERROR,0.000000,0.000000,9000.000000,9000.000000,Speed,Speed,0.580000,0.920000,1.630000,4.000000,101.000000,1,0,-0.002232,-0.000992,0,0.000000,0.000000,0.000000,-0.000198,0.006592,0.000000,0.008000,0.002000,-0.010000,FlatInitial
02:47:15.059 PM 02/13/2016,Teleop Enabled,0,FALSE,0,NO ERROR,0.000000,0.000000,9000.000000,9000.000000,Speed,Speed,0.570000,0.920000,1.580000,4.000000,100.000000,1,0,-0.002232,-0.000992,0,0.000000,0.000000,0.000000,-0.000198,0.006592,0.000000,0.001000,0.000000,0.009000,FlatInitial
02:47:15.160 PM 02/13/2016,Teleop Enabled,0,FALSE,0,NO ERROR,0.000000,0.000000,9000.000000,9000.000000,Speed,Speed,0.570000,0.920000,1.610000,4.000000,101.000000,1,0,-0.002232,-0.000992,0,0.000000,0.000000,0.000000,-0.000198,0.006592,0.000000,0.000000,0.011000,0.008000,FlatInitial
02:47:15.260 PM 02/13/2016,Teleop Enabled,0,FALSE,0,NO ERROR,0.000000,0.000000,9000.000000,9000.000000,Speed,Speed,0.560000,0.940000,1.490000,4.000000,101.000000,1,0,-0.002232,-0.000992,0,0.000000,0.000000,0.000000,-0.000198,0.006805,0.000000,0.002000,-0.040000,-0.006000,FlatInitial
02:47:15.361 PM 02/13/2016,Teleop Enabled,0,FALSE,0,NO ERROR,0.000000,0.000000,9000.000000,9000.000000,Speed,Speed,0.550000,0.940000,1.500000,4.000000,101.000000,1,0,-0.002232,-0.000992,0,0.009567,0.008728,0.000000,-0.000061,0.006607,0.000000,0.026000,0.024000,0.002000,FlatInitial
02:47:15.461 PM 02/13/2016,Teleop Enabled,0,FALSE,0,NO ERROR,0.000000,0.000000,9000.000000,9000.000000,Speed,Speed,0.550000,0.950000,1.440000,4.000000,102.000000,1,0,-0.002232,-0.000992,0,-0.008789,0.000000,0.000000,-0.000122,0.006714,0.000000,-0.005000,0.020000,-0.015000,FlatInitial
02:47:15.561 PM 02/13/2016,Teleop Enabled,0,FALSE,0,NO ERROR,0.000000,0.000000,9000.000000,9000.000000,Speed,Speed,0.560000,0.910000,1.190000,4.000000,102.000000,1,0,-0.002232,-0.000992,0,-0.018204,0.010361,0.000000,-0.000900,0.006973,0.000000,-0.009000,0.013000,0.044000,FlatInitial
02:47:15.661 PM 02/13/2016,Teleop Enabled,0,FALSE,0,NO ERROR,0.000000,0.000000,9000.000000,9000.000000,Speed,Speed,0.620000,0.950000,0.960000,4.000000,109.000000,1,0,-0.002232,-0.000992,0,-0.004456,-0.034805,0.000000,-0.000854,0.006516,0.000000,-0.051000,0.043000,0.130000,FlatInitial
02:47:15.761 PM 02/13/2016,Teleop Enabled,0,FALSE,0,NO ERROR,0.000000,0.000000,9000.000000,9000.000000,Speed,Speed,0.770000,0.960000,1.540000,4.000000,101.000000,1,0,-0.002232,-0.000992,0,-0.015533,-0.033508,0.000000,-0.001953,0.005798,0.000000,-0.078000,-0.067000,-0.048000,FlatInitial
02:47:15.861 PM 02/13/2016,Teleop Enabled,0,FALSE,0,NO ERROR,0.000000,0.000000,9000.000000,9000.000000,Speed,Speed,0.730000,0.930000,1.390000,4.000000,102.000000,1,0,-0.002232,-0.000992,0,-0.004761,0.000381,0.000000,-0.002960,0.004211,0.000000,0.078000,0.016000,0.219000,FlatInitial
02:47:15.962 PM 02/13/2016,Teleop Enabled,0,FALSE,0,NO ERROR,0.000000,0.000000,9000.000000,9000.000000,Speed,Speed,0.910000,0.920000,1.520000,4.000000,101.000000,1,0,-0.002232,-0.000992,0,0.010635,-0.012543,0.000000,-0.002365,0.004684,0.000000,0.013000,-0.061000,-0.083000,FlatInitial
02:47:16.063 PM 02/13/2016,Teleop Enabled,0,FALSE,0,NO ERROR,0.000000,0.000000,9000.000000,9000.000000,Speed,Speed,0.700000,0.930000,1.450000,4.000000,101.000000,1,0,-0.002232,-0.000992,0,0.000000,-0.008621,0.000000,-0.002365,0.004074,0.000000,0.016000,0.064000,-0.012000,FlatInitial
02:47:16.163 PM 02/13/2016,Teleop Enabled,0,FALSE,0,NO ERROR,0.000000,0.000000,9000.000000,9000.000000,Speed,Speed,0.710000,0.950000,1.370000,4.000000,103.000000,1,0,-0.002232,-0.000992,0,0.022873,-0.012314,0.000000,-0.001862,0.004349,0.000000,-0.020000,-0.048000,0.072000,FlatInitial
02:47:16.263 PM 02/13/2016,Teleop Enabled,0,FALSE,0,NO ERROR,0.000000,0.000000,9000.000000,9000.000000,Speed,Speed,0.730000,0.910000,1.360000,4.000000,104.000000,1,0,-0.002232,-0.000992,0,0.006378,0.001007,0.000000,-0.000992,0.004089,0.000000,-0.041000,-0.025000,-0.037000,FlatInitial
02:47:16.363 PM 02/13/2016,Teleop Enabled,0,FALSE,0,NO ERROR,0.000000,0.000000,9000.000000,9000.000000,Speed,Speed,0.780000,0.940000,1.340000,4.000000,102.000000,1,0,-0.002232,-0.000992,0,-0.008774,-0.021973,0.000000,-0.001389,0.003876,0.000000,-0.083000,0.021000,0.006000,FlatInitial
02:47:16.463 PM 02/13/2016,Teleop Enabled,0,FALSE,0,NO ERROR,0.000000,0.000000,9000.000000,9000.000000,Speed,Speed,0.770000,0.920000,1.380000,4.000000,102.000000,1,0,-0.002232,-0.000992,0,-0.000992,-0.041046,0.000000,-0.001724,0.002457,0.000000,0.051000,0.075000,0.033000,FlatInitial
02:47:16.563 PM 02/13/2016,Teleop Enabled,0,FALSE,0,NO ERROR,0.000000,0.000000,9000.000000,9000.000000,Speed,Speed,0.730000,0.910000,1.300000,4.000000,101.000000,1,0,-0.002232,-0.000992,0,0.011597,-0.007935,0.000000,-0.001450,0.001129,0.000000,-0.017000,-0.002000,0.095000,FlatInitial
02:47:16.663 PM 02/13/2016,Teleop Enabled,0,FALSE,0,NO ERROR,0.000000,0.000000,9000.000000,9000.000000,Speed,Speed,0.730000,0.920000,1.460000,4.000000,102.000000,1,0,-0.002232,-0.000992,0,0.010391,-0.026367,0.000000,-0.000763,0.000381,0.000000,-0.009000,-0.092000,-0.080000,FlatInitial
02:47:16.763 PM 02/13/2016,Teleop Enabled,0,FALSE,0,NO ERROR,0.000000,0.000000,9000.000000,9000.000000,Speed,Speed,0.770000,0.890000,1.410000,4.000000,101.000000,1,0,-0.002232,-0.000992,0,-0.018311,-0.052963,0.000000,-0.001068,-0.002045,0.000000,-0.008000,-0.052000,-0.044000,FlatInitial
02:47:16.863 PM 02/13/2016,Teleop Enabled,0,FALSE,0,NO ERROR,0.000000,0.000000,9000.000000,9000.000000,Speed,Speed,0.740000,0.920000,1.450000,4.000000,102.000000,1,0,-0.002232,-0.000992,0,0.013367,-0.011230,0.000000,-0.001129,-0.003494,0.000000,-0.026000,-0.006000,0.112000,FlatInitial
02:47:16.965 PM 02/13/2016,Teleop Enabled,0,FALSE,0,NO ERROR,0.000000,0.000000,9000.000000,9000.000000,Speed,Speed,0.730000,0.910000,1.440000,4.000000,103.000000,1,0,-0.002232,-0.000992,0,0.006775,-0.020203,0.000000,-0.000504,-0.004303,0.000000,-0.016000,0.003000,-0.018000,FlatInitial
02:47:17.065 PM 02/13/2016,Teleop Enabled,0,FALSE,0,NO ERROR,0.000000,0.000000,9000.000000,9000.000000,Speed,Speed,0.720000,0.900000,1.380000,4.000000,103.000000,1,0,-0.002232,-0.000992,0,-0.023224,-0.038681,0.000000,-0.001251,-0.006241,0.000000,0.000000,0.018000,0.090000,FlatInitial
02:47:17.165 PM 02/13/2016,Teleop Enabled,0,FALSE,0,NO ERROR,0.000000,0.000000,9000.000000,9000.000000,Speed,Speed,0.740000,0.940000,1.390000,4.000000,102.000000,1,0,-0.002232,-0.000992,0,-0.008286,-0.053574,0.000000,-0.001984,-0.007843,0.000000,-0.009000,-0.070000,0.052000,FlatInitial
02:47:17.265 PM 02/13/2016,Teleop Enabled,0,FALSE,0,NO ERROR,0.000000,0.000000,9000.000000,9000.000000,Speed,Speed,0.740000,0.900000,1.340000,4.000000,102.000000,1,0,-0.002232,-0.000992,0,-0.013351,-0.040451,0.000000,-0.002533,-0.010010,0.000000,0.041000,0.092000,-0.002000,FlatInitial
02:47:17.365 PM 02/13/2016,Teleop Enabled,0,FALSE,0,NO ERROR,0.000000,0.000000,9000.000000,9000.000000,Speed,Speed,0.730000,0.920000,1.340000,4.000000,101.000000,1,0,-0.002232,-0.000992,0,-0.000397,-0.023270,0.000000,-0.002991,-0.010757,0.000000,-0.094000,0.012000,-0.052000,FlatInitial
02:47:17.465 PM 02/13/2016,Teleop Enabled,0,FALSE,0,NO ERROR,0.000000,0.000000,9000.000000,9000.000000,Speed,Speed,0.730000,0.890000,1.330000,4.000000,102.000000,1,0,-0.002232,-0.000992,0,-0.003143,-0.056870,0.000000,-0.003403,-0.013031,0.000000,0.016000,0.091000,-0.009000,FlatInitial
02:47:17.565 PM 02/13/2016,Teleop Enabled,0,FALSE,0,NO ERROR,0.000000,0.000000,9000.000000,9000.000000,Speed,Speed,0.730000,0.910000,1.320000,4.000000,101.000000,1,0,-0.002232,-0.000992,0,0.016815,-0.015900,0.000000,-0.003143,-0.014709,0.000000,0.022000,0.053000,0.122000,FlatInitial
02:47:17.665 PM 02/13/2016,Teleop Enabled,0,FALSE,0,NO ERROR,0.000000,0.000000,9000.000000,9000.000000,Speed,Speed,0.730000,0.910000,1.380000,4.000000,102.000000,1,0,-0.002232,-0.000992,0,0.041718,0.008392,0.000000,-0.001450,-0.014603,0.000000,-0.046000,-0.020000,-0.063000,FlatInitial
02:47:17.765 PM 02/13/2016,Teleop Enabled,0,FALSE,0,NO ERROR,0.000000,0.000000,9000.000000,9000.000000,Speed,Speed,0.720000,0.930000,1.400000,4.000000,103.000000,1,0,-0.002232,-0.000992,0,0.004639,-0.019104,0.000000,-0.000290,-0.015030,0.000000,-0.025000,-0.103000,-0.013000,FlatInitial
02:47:17.865 PM 02/13/2016,Teleop Enabled,0,FALSE,0,NO ERROR,0.000000,0.000000,9000.000000,9000.000000,Speed,Speed,0.730000,0.910000,1.430000,4.000000,104.000000,1,0,-0.002232,-0.000992,0,0.020721,-0.021942,0.000000,-0.000107,-0.016617,0.000000,0.073000,-0.098000,0.037000,FlatInitial
02:47:17.965 PM 02/13/2016,Teleop Enabled,0,FALSE,0,NO ERROR,0.000000,0.000000,9000.000000,9000.000000,Speed,Speed,0.730000,0.920000,1.450000,4.000000,102.000000,1,0,-0.002232,-0.000992,0,0.026489,-0.021271,0.000000,0.000870,-0.017792,0.000000,-0.028000,-0.003000,0.008000,FlatInitial
02:47:18.065 PM 02/13/2016,Teleop Enabled,0,FALSE,0,NO ERROR,0.000000,0.000000,9000.000000,9000.000000,Speed,Speed,0.730000,0.910000,1.470000,4.000000,102.000000,1,0,-0.002232,-0.000992,0,0.006073,0.004776,0.000000,0.001587,-0.018295,0.000000,0.034000,-0.074000,0.054000,FlatInitial
02:47:18.165 PM 02/13/2016,Teleop Enabled,0,FALSE,0,NO ERROR,0.000000,0.000000,9000.000000,9000.000000,Speed,Speed,0.710000,0.910000,1.400000,4.000000,102.000000,1,0,-0.002232,-0.000992,0,0.000000,-0.055054,0.000000,0.001785,-0.020020,0.000000,0.000000,-0.053000,0.003000,FlatInitial
02:47:18.265 PM 02/13/2016,Teleop Enabled,0,FALSE,0,NO ERROR,0.000000,0.000000,9000.000000,9000.000000,Speed,Speed,0.710000,0.930000,1.450000,4.000000,102.000000,1,0,-0.002232,-0.000992,0,0.012848,-0.032013,0.000000,0.001953,-0.022003,0.000000,0.018000,0.044000,0.005000,FlatInitial
02:47:18.365 PM 02/13/2016,Teleop Enabled,0,FALSE,0,NO ERROR,0.000000,0.000000,9000.000000,9000.000000,Speed,Speed,0.690000,0.900000,1.200000,4.000000,101.000000,1,0,-0.002232,-0.000992,0,0.029083,-0.020081,0.000000,0.003143,-0.022522,0.000000,0.110000,0.155000,0.186000,FlatInitial
02:47:18.464 PM 02/13/2016,Teleop Enabled,0,FALSE,0,NO ERROR,0.000000,0.000000,9000.000000,9000.000000,Speed,Speed,0.870000,0.960000,0.660000,4.000000,103.000000,1,0,-0.002232,-0.000992,0,0.061142,0.069702,0.000000,0.005936,-0.020386,0.000000,0.013000,-0.040000,0.022000,FlatInitial
02:47:18.565 PM 02/13/2016,Teleop Enabled,0,FALSE,0,NO ERROR,0.000000,0.000000,9000.000000,9000.000000,Speed,Speed,0.720000,0.860000,1.660000,4.000000,101.000000,1,0,-0.002232,-0.000992,0,0.031738,0.011795,0.000000,0.008240,-0.019623,0.000000,0.033000,0.035000,0.058000,FlatInitial
02:47:18.665 PM 02/13/2016,Teleop Enabled,0,FALSE,0,NO ERROR,0.000000,0.000000,9000.000000,9000.000000,Speed,Speed,0.870000,0.900000,1.390000,4.000000,101.000000,1,0,-0.002232,-0.000992,0,0.038071,-0.015305,0.000000,0.010849,-0.019272,0.000000,-0.053000,-0.063000,0.017000,FlatInitial
02:47:18.765 PM 02/13/2016,Teleop Enabled,0,FALSE,0,NO ERROR,0.000000,0.000000,9000.000000,9000.000000,Speed,Speed,0.820000,0.930000,1.650000,4.000000,101.000000,1,0,-0.002232,-0.000992,0,0.065674,-0.060684,0.000000,0.013489,-0.021423,0.000000,-0.095000,-0.153000,0.090000,FlatInitial
02:47:18.866 PM 02/13/2016,Teleop Enabled,0,FALSE,0,NO ERROR,0.000000,0.000000,9000.000000,9000.000000,Speed,Speed,1.150000,0.720000,1.380000,4.000000,102.000000,1,0,-0.002232,-0.000992,0,-0.025421,-0.152130,0.000000,0.014297,-0.028625,0.000000,0.022000,0.266000,-0.855000,FlatInitial
02:47:18.966 PM 02/13/2016,Teleop Enabled,0,FALSE,0,NO ERROR,0.000000,0.000000,9000.000000,9000.000000,Speed,Speed,1.320000,1.010000,1.770000,4.000000,101.000000,1,0,-0.002232,-0.000992,0,-0.037491,-0.127838,0.000000,0.011688,-0.033524,0.000000,-0.081000,-0.048000,0.282000,FlatInitial
02:47:19.066 PM 02/13/2016,Teleop Enabled,0,FALSE,0,NO ERROR,0.000000,0.000000,9000.000000,9000.000000,Speed,Speed,1.120000,0.860000,1.800000,4.000000,103.000000,1,0,-0.002232,-0.000992,0,-0.048203,-0.068314,0.000000,0.009445,-0.038086,0.000000,-0.005000,-0.008000,0.204000,FlatInitial
02:47:19.167 PM 02/13/2016,Teleop Enabled,0,FALSE,0,NO ERROR,0.000000,0.000000,9000.000000,9000.000000,Speed,Speed,1.110000,0.900000,1.790000,4.000000,101.000000,1,0,-0.002232,-0.000992,0,-0.047104,-0.004486,0.000000,0.007553,-0.039459,0.000000,-0.007000,-0.026000,-0.002000,FlatInitial
02:47:19.267 PM 02/13/2016,Teleop Enabled,0,FALSE,0,NO ERROR,0.000000,0.000000,9000.000000,9000.000000,Speed,Speed,1.220000,0.980000,1.500000,4.000000,101.000000,1,0,-0.002232,-0.000992,0,-0.039261,-0.053955,0.000000,0.005341,-0.040970,0.000000,-0.047000,-0.036000,-0.006000,FlatInitial
02:47:19.368 PM 02/13/2016,Teleop Enabled,0,FALSE,0,NO ERROR,0.000000,0.000000,9000.000000,9000.000000,Speed,Speed,1.100000,0.990000,1.550000,4.000000,103.000000,1,0,-0.002232,-0.000992,0,-0.039032,0.000000,0.000000,0.003036,-0.043045,0.000000,-0.013000,0.010000,0.018000,FlatInitial
02:47:19.468 PM 02/13/2016,Teleop Enabled,0,FALSE,0,NO ERROR,0.000000,0.000000,9000.000000,9000.000000,Speed,Speed,1.160000,0.970000,1.640000,4.000000,111.000000,1,0,-0.002232,-0.000992,0,-0.044479,0.000000,0.000000,0.000595,-0.042801,0.000000,-0.014000,0.000000,0.011000,FlatInitial
02:47:19.569 PM 02/13/2016,Teleop Enabled,0,FALSE,0,NO ERROR,0.000000,0.000000,9000.000000,9000.000000,Speed,Speed,1.120000,0.960000,1.660000,4.000000,101.000000,1,0,-0.002232,-0.000992,0,0.000000,0.000000,0.000000,-0.001312,-0.042801,0.000000,-0.002000,-0.002000,0.019000,FlatInitial
02:47:19.671 PM 02/13/2016,Teleop Enabled,0,FALSE,0,NO ERROR,0.000000,0.000000,9000.000000,9000.000000,Speed,Speed,1.170000,0.940000,1.620000,4.000000,101.000000,1,0,-0.002232,-0.000992,0,0.000000,-0.002945,0.000000,-0.001312,-0.042831,0.000000,0.004000,-0.021000,0.017000,FlatInitial
02:47:19.773 PM 02/13/2016,Teleop Enabled,0,FALSE,0,NO ERROR,0.000000,0.000000,9000.000000,9000.000000,Speed,Speed,1.150000,0.950000,1.580000,4.000000,101.000000,1,0,-0.002232,-0.000992,0,0.000000,0.000000,0.000000,-0.001312,-0.042999,0.000000,0.001000,0.001000,0.017000,FlatInitial
02:47:19.874 PM 02/13/2016,Teleop Enabled,0,FALSE,0,NO ERROR,0.000000,0.000000,9000.000000,9000.000000,Speed,Speed,1.140000,0.930000,1.630000,4.000000,101.000000,1,0,-0.002232,-0.000992,0,0.000000,0.000000,0.000000,-0.001312,-0.042999,0.000000,0.000000,0.003000,0.012000,FlatInitial
02:47:19.975 PM 02/13/2016,Teleop Enabled,0,FALSE,0,NO ERROR,0.000000,0.000000,9000.000000,9000.000000,Speed,Speed,1.140000,0.940000,1.630000,4.000000,101.000000,1,0,-0.002232,-0.000992,0,0.000000,0.000000,0.000000,-0.001312,-0.042999,0.000000,-0.001000,-0.005000,0.007000,FlatInitial
02:47:20.076 PM 02/13/2016,Teleop Enabled,0,FALSE,0,NO ERROR,0.000000,0.000000,9000.000000,9000.000000,Speed,Speed,1.140000,0.930000,1.620000,4.000000,101.000000,1,0,-0.002232,-0.000992,0,0.000000,0.000000,0.000000,-0.001312,-0.042999,0.000000,-0.001000,0.000000,0.010000,FlatInitial
02:47:20.176 PM 02/13/2016,Teleop Enabled,0,FALSE,0,NO ERROR,0.000000,0.000000,9000.000000,9000.000000,Speed,Speed,1.130000,0.930000,1.630000,4.000000,102.000000,1,0,-0.002232,-0.000992,0,0.000000,0.000000,0.000000,-0.001312,-0.042999,0.000000,-0.002000,0.004000,0.006000,FlatInitial
02:47:20.277 PM 02/13/2016,Teleop Enabled,0,FALSE,0,NO ERROR,0.000000,0.000000,9000.000000,9000.000000,Speed,Speed,1.140000,0.930000,1.630000,4.000000,101.000000,1,0,-0.002232,-0.000992,0,0.000000,0.000000,0.000000,-0.001312,-0.042999,0.000000,-0.004000,-0.002000,0.009000,FlatInitial
02:47:20.378 PM 02/13/2016,Teleop Enabled,0,FALSE,0,NO ERROR,0.000000,0.000000,9000.000000,9000.000000,Speed,Speed,1.140000,0.930000,1.620000,4.000000,103.000000,1,0,-0.002232,-0.000992,0,0.000000,0.000000,0.000000,-0.001312,-0.042999,0.000000,0.004000,0.001000,0.008000,FlatInitial
02:47:20.479 PM 02/13/2016,Teleop Enabled,0,FALSE,0,NO ERROR,0.000000,0.000000,9000.000000,9000.000000,Speed,Speed,1.130000,0.930000,1.630000,4.000000,101.000000,1,0,-0.002232,-0.000992,0,0.000000,0.000000,0.000000,-0.001312,-0.042999,0.000000,0.001000,0.001000,0.006000,FlatInitial
02:47:20.580 PM 02/13/2016,Teleop Enabled,0,FALSE,0,NO ERROR,0.000000,0.000000,9000.000000,9000.000000,Speed,Speed,1.140000,0.930000,1.630000,4.000000,104.000000,1,0,-0.002232,-0.000992,0,0.000000,0.000000,0.000000,-0.001312,-0.042999,0.000000,0.000000,-0.001000,0.007000,FlatInitial
02:47:20.681 PM 02/13/2016,Teleop Enabled,0,FALSE,0,NO ERROR,0.000000,0.000000,9000.000000,9000.000000,Speed,Speed,1.140000,0.930000,1.630000,4.000000,100.000000,1,0,-0.002232,-0.000992,0,0.000000,0.000000,0.000000,-0.001312,-0.042999,0.000000,-0.001000,0.000000,0.008000,FlatInitial
02:47:20.782 PM 02/13/2016,Teleop Enabled,0,FALSE,0,NO ERROR,0.000000,0.000000,9000.000000,9000.000000,Speed,Speed,1.140000,0.930000,1.630000,4.000000,102.000000,1,0,-0.002232,-0.000992,0,0.000000,0.000000,0.000000,-0.001312,-0.042999,0.000000,-0.001000,0.000000,0.008000,FlatInitial
02:47:20.883 PM 02/13/2016,Teleop Enabled,0,FALSE,0,NO ERROR,0.000000,0.000000,9000.000000,9000.000000,Speed,Speed,1.140000,0.930000,1.630000,4.000000,101.000000,1,0,-0.002232,-0.000992,0,0.000000,0.000000,0.000000,-0.001312,-0.042999,0.000000,-0.003000,0.000000,0.010000,FlatInitial
02:47:20.983 PM 02/13/2016,Teleop Enabled,0,FALSE,0,NO ERROR,0.000000,0.000000,9000.000000,9000.000000,Speed,Speed,1.140000,0.930000,1.640000,4.000000,101.000000,1,0,-0.002232,-0.000992,0,0.000000,0.000000,0.000000,-0.001312,-0.042999,0.000000,-0.001000,-0.001000,0.009000,FlatInitial
02:47:21.084 PM 02/13/2016,Teleop Enabled,0,FALSE,0,NO ERROR,0.000000,0.000000,9000.000000,9000.000000,Speed,Speed,1.140000,0.930000,1.640000,4.000000,102.000000,1,0,-0.002232,-0.000992,0,0.000000,0.000000,0.000000,-0.001312,-0.042999,0.000000,-0.001000,-0.002000,0.003000,FlatInitial
02:47:21.184 PM 02/13/2016,Teleop Enabled,0,FALSE,0,NO ERROR,0.000000,0.000000,9000.000000,9000.000000,Speed,Speed,1.140000,0.930000,1.640000,4.000000,101.000000,1,0,-0.002232,-0.000992,0,0.000000,0.000000,0.000000,-0.001312,-0.042999,0.000000,0.000000,0.003000,0.011000,FlatInitial
02:47:21.285 PM 02/13/2016,Teleop Enabled,0,FALSE,0,NO ERROR,0.000000,0.000000,9000.000000,9000.000000,Speed,Speed,1.130000,0.930000,1.640000,4.000000,102.000000,1,0,-0.002232,-0.000992,0,0.000000,0.000000,0.000000,-0.001312,-0.042999,0.000000,0.001000,0.000000,0.010000,FlatInitial
02:47:21.386 PM 02/13/2016,Teleop Enabled,0,FALSE,0,NO ERROR,0.000000,0.000000,9000.000000,9000.000000,Speed,Speed,1.130000,0.940000,1.640000,4.000000,103.000000,1,0,-0.002232,-0.000992,0,0.000000,0.000000,0.000000,-0.001312,-0.042999,0.000000,0.000000,0.000000,0.006000,FlatInitial
02:47:21.487 PM 02/13/2016,Teleop Enabled,0,FALSE,0,NO ERROR,0.000000,0.000000,9000.000000,9000.000000,Speed,Speed,1.130000,0.930000,1.640000,4.000000,101.000000,1,0,-0.002232,-0.000992,0,0.000000,0.000000,0.000000,-0.001312,-0.042999,0.000000,-0.002000,0.004000,0.009000,FlatInitial
02:47:21.587 PM 02/13/2016,Teleop Enabled,0,FALSE,0,NO ERROR,0.000000,0.000000,9000.000000,9000.000000,Speed,Speed,1.130000,0.930000,1.640000,4.000000,104.000000,1,0,-0.002232,-0.000992,0,0.000000,0.000000,0.000000,-0.001312,-0.042999,0.000000,0.008000,-0.004000,-0.003000,FlatInitial
02:47:21.688 PM 02/13/2016,Teleop Enabled,0,FALSE,0,NO ERROR,0.000000,0.000000,9000.000000,9000.000000,Speed,Speed,1.140000,0.880000,1.650000,4.000000,102.000000,1,0,-0.002232,-0.000992,0,0.006760,0.000000,0.000000,-0.001404,-0.043121,0.000000,0.062000,0.000000,-0.162000,FlatInitial
02:47:21.789 PM 02/13/2016,Teleop Enabled,0,FALSE,0,NO ERROR,0.000000,0.000000,9000.000000,9000.000000,Speed,Speed,1.120000,0.900000,1.710000,4.000000,102.000000,1,0,-0.002232,-0.000992,0,0.000000,0.000000,0.000000,-0.001434,-0.042786,0.000000,0.017000,0.008000,0.017000,FlatInitial
02:47:21.891 PM 02/13/2016,Teleop Enabled,0,FALSE,0,NO ERROR,0.000000,0.000000,9000.000000,9000.000000,Speed,Speed,1.120000,0.880000,1.700000,4.000000,102.000000,1,0,-0.002232,-0.000992,0,-0.005112,-0.003540,0.000000,-0.001465,-0.042847,0.000000,0.019000,-0.011000,0.003000,FlatInitial
02:47:21.990 PM 02/13/2016,Teleop Enabled,0,FALSE,0,NO ERROR,0.000000,0.000000,9000.000000,9000.000000,Speed,Speed,1.140000,0.910000,1.650000,4.000000,102.000000,1,0,-0.002232,-0.000992,0,0.000000,0.000000,0.000000,-0.001465,-0.042892,0.000000,-0.003000,-0.007000,0.022000,FlatInitial
02:47:22.092 PM 02/13/2016,Teleop Enabled,0,FALSE,0,NO ERROR,0.000000,0.000000,9000.000000,9000.000000,Speed,Speed,1.120000,0.910000,1.640000,4.000000,103.000000,1,0,-0.002232,-0.000992,0,0.000000,0.000000,0.000000,-0.001465,-0.042892,0.000000,-0.003000,0.013000,0.019000,FlatInitial
02:47:22.192 PM 02/13/2016,Teleop Enabled,0,FALSE,0,NO ERROR,0.000000,0.000000,9000.000000,9000.000000,Speed,Speed,1.140000,0.920000,1.660000,4.000000,100.000000,1,0,-0.002232,-0.000992,0,0.000000,0.000000,0.000000,-0.001465,-0.042892,0.000000,-0.009000,-0.007000,0.043000,FlatInitial
02:47:22.294 PM 02/13/2016,Teleop Enabled,0,FALSE,0,NO ERROR,0.000000,0.000000,9000.000000,9000.000000,Speed,Speed,1.130000,0.920000,1.620000,4.000000,101.000000,1,0,-0.002232,-0.000992,0,0.000000,0.000000,0.000000,-0.001465,-0.042892,0.000000,0.002000,-0.008000,0.017000,FlatInitial
02:47:22.395 PM 02/13/2016,Teleop Enabled,0,FALSE,0,NO ERROR,0.000000,0.000000,9000.000000,9000.000000,Speed,Speed,1.130000,0.900000,1.570000,4.000000,101.000000,1,0,-0.002232,-0.000992,0,0.000000,0.000000,0.000000,-0.001465,-0.042892,0.000000,-0.003000,0.013000,0.028000,FlatInitial
02:47:22.497 PM 02/13/2016,Teleop Enabled,0,FALSE,0,NO ERROR,0.000000,0.000000,9000.000000,9000.000000,Speed,Speed,1.170000,0.900000,1.550000,4.000000,101.000000,1,0,-0.002232,-0.000992,0,0.000000,-0.009811,0.000000,-0.001465,-0.043045,0.000000,0.000000,-0.030000,0.012000,FlatInitial
02:47:22.597 PM 02/13/2016,Teleop Enabled,0,FALSE,0,NO ERROR,0.000000,0.000000,9000.000000,9000.000000,Speed,Speed,1.170000,0.920000,1.470000,4.000000,102.000000,1,0,-0.002232,-0.000992,0,0.000000,0.000000,0.000000,-0.001465,-0.043320,0.000000,-0.009000,-0.007000,0.025000,FlatInitial
02:47:22.697 PM 02/13/2016,Teleop Enabled,0,FALSE,0,NO ERROR,0.000000,0.000000,9000.000000,9000.000000,Speed,Speed,1.170000,0.910000,1.440000,4.000000,102.000000,1,0,-0.002232,-0.000992,0,-0.003922,0.001755,0.000000,-0.001511,-0.043243,0.000000,-0.022000,-0.016000,0.010000,FlatInitial
02:47:22.797 PM 02/13/2016,Teleop Enabled,0,FALSE,0,NO ERROR,0.000000,0.000000,9000.000000,9000.000000,Speed,Speed,1.170000,0.920000,1.360000,4.000000,104.000000,1,0,-0.002232,-0.000992,0,-0.003525,0.000000,0.000000,-0.001938,-0.043243,0.000000,0.007000,-0.036000,0.081000,FlatInitial
02:47:22.897 PM 02/13/2016,Teleop Enabled,0,FALSE,0,NO ERROR,0.000000,0.000000,9000.000000,9000.000000,Speed,Speed,1.180000,0.940000,1.290000,4.000000,103.000000,1,0,-0.002232,-0.000992,0,-0.016190,-0.008255,0.000000,-0.002258,-0.043777,0.000000,-0.019000,0.082000,-0.051000,FlatInitial
02:47:22.998 PM 02/13/2016,Teleop Enabled,0,FALSE,0,NO ERROR,0.000000,0.000000,9000.000000,9000.000000,Speed,Speed,1.180000,1.010000,1.400000,4.000000,103.000000,1,0,-0.002232,-0.000992,0,-0.006149,-0.025574,0.000000,-0.002502,-0.043793,0.000000,-0.050000,-0.052000,0.165000,FlatInitial
02:47:23.099 PM 02/13/2016,Teleop Enabled,0,FALSE,0,NO ERROR,0.000000,0.000000,9000.000000,9000.000000,Speed,Speed,1.220000,0.990000,1.540000,4.000000,101.000000,1,0,-0.002232,-0.000992,0,-0.008896,-0.004990,0.000000,-0.003036,-0.044281,0.000000,0.037000,-0.001000,0.143000,FlatInitial
02:47:23.200 PM 02/13/2016,Teleop Enabled,0,FALSE,0,NO ERROR,0.000000,0.000000,9000.000000,9000.000000,Speed,Speed,1.210000,0.950000,1.460000,4.000000,104.000000,1,0,-0.002232,-0.000992,0,-0.007416,0.025818,0.000000,-0.003250,-0.043716,0.000000,0.021000,0.030000,0.087000,FlatInitial
02:47:23.301 PM 02/13/2016,Teleop Enabled,0,FALSE,0,NO ERROR,0.000000,0.000000,9000.000000,9000.000000,Speed,Speed,1.210000,0.990000,1.510000,4.000000,102.000000,1,0,-0.002232,-0.000992,0,0.000000,0.014084,0.000000,-0.003128,-0.041977,0.000000,-0.006000,-0.027000,-0.043000,FlatInitial
02:47:23.401 PM 02/13/2016,Teleop Enabled,0,FALSE,0,NO ERROR,0.000000,0.000000,9000.000000,9000.000000,Speed,Speed,1.190000,0.990000,1.420000,4.000000,102.000000,1,0,-0.002232,-0.000992,0,-0.001938,0.003250,0.000000,-0.003159,-0.041794,0.000000,-0.020000,-0.004000,-0.009000,FlatInitial
02:47:23.502 PM 02/13/2016,Teleop Enabled,0,FALSE,0,NO ERROR,0.000000,0.000000,9000.000000,9000.000000,Speed,Speed,1.220000,1.000000,1.520000,4.000000,106.000000,1,0,-0.002232,-0.000992,0,0.000000,0.000000,0.000000,-0.003204,-0.041565,0.000000,-0.007000,0.002000,0.013000,FlatInitial
02:47:23.602 PM 02/13/2016,Teleop Enabled,0,FALSE,0,NO ERROR,0.000000,0.000000,9000.000000,9000.000000,Speed,Speed,1.220000,0.990000,1.460000,4.000000,103.000000,1,0,-0.002232,-0.000992,0,0.000000,0.000000,0.000000,-0.003204,-0.041565,0.000000,0.005000,0.001000,0.003000,FlatInitial
02:47:23.702 PM 02/13/2016,Teleop Enabled,0,FALSE,0,NO ERROR,0.000000,0.000000,9000.000000,9000.000000,Speed,Speed,1.220000,0.980000,1.450000,4.000000,101.000000,1,0,-0.002232,-0.000992,0,0.000000,0.000000,0.000000,-0.003204,-0.041763,0.000000,-0.004000,-0.003000,0.018000,FlatInitial
02:47:23.802 PM 02/13/2016,Teleop Enabled,0,FALSE,0,NO ERROR,0.000000,0.000000,9000.000000,9000.000000,Speed,Speed,1.220000,0.970000,1.450000,4.000000,103.000000,1,0,-0.002232,-0.000992,0,0.000000,0.000000,0.000000,-0.003204,-0.041763,0.000000,0.005000,0.001000,0.000000,FlatInitial
02:47:23.902 PM 02/13/2016,Teleop Enabled,0,FALSE,0,NO ERROR,0.000000,0.000000,9000.000000,9000.000000,Speed,Speed,1.220000,0.970000,1.450000,4.000000,102.000000,1,0,-0.002232,-0.000992,0,0.000000,0.000000,0.000000,-0.003204,-0.041763,0.000000,-0.003000,-0.002000,0.011000,FlatInitial
02:47:24.002 PM 02/13/2016,Teleop Enabled,0,FALSE,0,NO ERROR,0.000000,0.000000,9000.000000,9000.000000,Speed,Speed,1.220000,0.970000,1.450000,4.000000,103.000000,1,0,-0.002232,-0.000992,0,0.000000,0.000000,0.000000,-0.003204,-0.041763,0.000000,-0.007000,-0.005000,0.012000,FlatInitial
02:47:24.102 PM 02/13/2016,Teleop Enabled,0,FALSE,0,NO ERROR,0.000000,0.000000,9000.000000,9000.000000,Speed,Speed,1.220000,0.970000,1.450000,4.000000,101.000000,1,0,-0.002232,-0.000992,0,0.000000,0.000000,0.000000,-0.003204,-0.041763,0.000000,-0.001000,-0.002000,0.007000,FlatInitial
02:47:24.203 PM 02/13/2016,Teleop Enabled,0,FALSE,0,NO ERROR,0.000000,0.000000,9000.000000,9000.000000,Speed,Speed,1.220000,0.970000,1.450000,4.000000,102.000000,1,0,-0.002232,-0.000992,0,0.000000,0.000000,0.000000,-0.003204,-0.041763,0.000000,0.000000,0.001000,0.006000,FlatInitial
02:47:24.303 PM 02/13/2016,Teleop Enabled,0,FALSE,0,NO ERROR,0.000000,0.000000,9000.000000,9000.000000,Speed,Speed,1.220000,0.970000,1.450000,4.000000,101.000000,1,0,-0.002232,-0.000992,0,0.000000,0.000000,0.000000,-0.003204,-0.041763,0.000000,-0.007000,0.000000,0.007000,FlatInitial
02:47:24.403 PM 02/13/2016,Teleop Enabled,0,FALSE,0,NO ERROR,0.000000,0.000000,9000.000000,9000.000000,Speed,Speed,1.220000,0.970000,1.450000,4.000000,101.000000,1,0,-0.002232,-0.000992,0,0.000000,0.000000,0.000000,-0.003204,-0.041763,0.000000,-0.002000,-0.001000,0.007000,FlatInitial
