Time,RobotMode,AutoToRun,ErrorStatus, ErrorCode,ErrorSource,ActualRPM1,ActualRPM2,DesiredRPM1,DesiredRPM2,ControlMode1,ControlMode2,NavXYaw,NavXRoll,NavXPitch,ShooterState,LoopTime,IsLevel,IsAutoTargeting,LeftMotorOutput,RightMotorOutput,IsHaloDrive,NavXVelocityX,NavXVelocityY,NavXVelocityZ,NavXDisplacementX,NavXDisplacementY,NavXDisplacementZ,NavXAccelerationX,NavXAccelerationY,NavXAccelerationZ,AutoDefendState
11:02:49.830 AM 02/13/2016,Autonomous Disabled,0,TRUE,-44087,NetComm_CAN_Receive.vi:5470006<APPEND>  <b>Complete call chain:</b>      NetComm_CAN_Receive.vi:5470006      WPI_CANTalonSRX_Receive.vi      WPI_MotorControlOpenCANTalonSRX.vi      Begin.vi      Robot Main.vi,0.000000,0.000000,9000.000000,9000.000000,Speed,Speed,-0.420000,1.080000,2.630000,4.000000,101.000000,1,0,-0.003038,-0.003968,0,-0.016571,0.028229,0.000000,-1.457825,-0.731827,0.000000,-0.064000,0.076000,0.071000,FlatInitial
11:02:49.929 AM 02/13/2016,Teleop Disabled,0,TRUE,-44087,NetComm_CAN_Receive.vi:5470006<APPEND>  <b>Complete call chain:</b>      NetComm_CAN_Receive.vi:5470006      WPI_CANTalonSRX_Receive.vi      WPI_MotorControlOpenCANTalonSRX.vi      Begin.vi      Robot Main.vi,0.000000,0.000000,0.000000,0.000000,Speed,Speed,-0.420000,1.080000,2.630000,0.000000,4714331.000000,1,0,-0.003038,-0.003968,0,-0.016571,0.028229,0.000000,-1.457825,-0.731827,0.000000,-0.064000,0.076000,0.071000,FlatInitial
11:02:50.031 AM 02/13/2016,Teleop Disabled,0,TRUE,-44087,NetComm_CAN_Receive.vi:5470006<APPEND>  <b>Complete call chain:</b>      NetComm_CAN_Receive.vi:5470006      WPI_CANTalonSRX_Receive.vi      WPI_MotorControlOpenCANTalonSRX.vi      Begin.vi      Robot Main.vi,0.000000,0.000000,0.000000,0.000000,Speed,Speed,-0.420000,1.080000,2.630000,0.000000,102.000000,1,0,-0.003038,-0.003968,0,-0.016571,0.028229,0.000000,-1.457825,-0.731827,0.000000,-0.064000,0.076000,0.071000,FlatInitial
11:02:50.130 AM 02/13/2016,Teleop Disabled,0,TRUE,-44087,NetComm_CAN_Receive.vi:5470006<APPEND>  <b>Complete call chain:</b>      NetComm_CAN_Receive.vi:5470006      WPI_CANTalonSRX_Receive.vi      WPI_MotorControlOpenCANTalonSRX.vi      Begin.vi      Robot Main.vi,0.000000,0.000000,0.000000,0.000000,Speed,Speed,-0.420000,1.080000,2.630000,0.000000,102.000000,1,0,-0.003038,-0.003968,0,-0.016571,0.028229,0.000000,-1.457825,-0.731827,0.000000,-0.064000,0.076000,0.071000,FlatInitial
11:02:50.230 AM 02/13/2016,Teleop Disabled,0,TRUE,-44087,NetComm_CAN_Receive.vi:5470006<APPEND>  <b>Complete call chain:</b>      NetComm_CAN_Receive.vi:5470006      WPI_CANTalonSRX_Receive.vi      WPI_MotorControlOpenCANTalonSRX.vi      Begin.vi      Robot Main.vi,0.000000,0.000000,0.000000,0.000000,Speed,Speed,-0.420000,1.080000,2.630000,0.000000,101.000000,1,0,-0.003038,-0.003968,0,-0.016571,0.028229,0.000000,-1.457825,-0.731827,0.000000,-0.064000,0.076000,0.071000,FlatInitial
11:02:50.330 AM 02/13/2016,Teleop Disabled,0,TRUE,-44087,NetComm_CAN_Receive.vi:5470006<APPEND>  <b>Complete call chain:</b>      NetComm_CAN_Receive.vi:5470006      WPI_CANTalonSRX_Receive.vi      WPI_MotorControlOpenCANTalonSRX.vi      Begin.vi      Robot Main.vi,0.000000,0.000000,0.000000,0.000000,Speed,Speed,-0.420000,1.080000,2.630000,0.000000,101.000000,1,0,-0.003038,-0.003968,0,-0.016571,0.028229,0.000000,-1.457825,-0.731827,0.000000,-0.064000,0.076000,0.071000,FlatInitial
11:02:50.431 AM 02/13/2016,Teleop Disabled,0,TRUE,-44087,NetComm_CAN_Receive.vi:5470006<APPEND>  <b>Complete call chain:</b>      NetComm_CAN_Receive.vi:5470006      WPI_CANTalonSRX_Receive.vi      WPI_MotorControlOpenCANTalonSRX.vi      Begin.vi      Robot Main.vi,0.000000,0.000000,0.000000,0.000000,Speed,Speed,-0.420000,1.080000,2.630000,0.000000,102.000000,1,0,-0.003038,-0.003968,0,-0.016571,0.028229,0.000000,-1.457825,-0.731827,0.000000,-0.064000,0.076000,0.071000,FlatInitial
11:02:50.530 AM 02/13/2016,Teleop Disabled,0,TRUE,-44087,NetComm_CAN_Receive.vi:5470006<APPEND>  <b>Complete call chain:</b>      NetComm_CAN_Receive.vi:5470006      WPI_CANTalonSRX_Receive.vi      WPI_MotorControlOpenCANTalonSRX.vi      Begin.vi      Robot Main.vi,0.000000,0.000000,0.000000,0.000000,Speed,Speed,-0.420000,1.080000,2.630000,0.000000,102.000000,1,0,-0.003038,-0.003968,0,-0.016571,0.028229,0.000000,-1.457825,-0.731827,0.000000,-0.064000,0.076000,0.071000,FlatInitial
11:02:50.630 AM 02/13/2016,Teleop Disabled,0,TRUE,-44087,NetComm_CAN_Receive.vi:5470006<APPEND>  <b>Complete call chain:</b>      NetComm_CAN_Receive.vi:5470006      WPI_CANTalonSRX_Receive.vi      WPI_MotorControlOpenCANTalonSRX.vi      Begin.vi      Robot Main.vi,0.000000,0.000000,0.000000,0.000000,Speed,Speed,-0.420000,1.080000,2.630000,0.000000,101.000000,1,0,-0.003038,-0.003968,0,-0.016571,0.028229,0.000000,-1.457825,-0.731827,0.000000,-0.064000,0.076000,0.071000,FlatInitial
11:02:50.731 AM 02/13/2016,Teleop Disabled,0,TRUE,-44087,NetComm_CAN_Receive.vi:5470006<APPEND>  <b>Complete call chain:</b>      NetComm_CAN_Receive.vi:5470006      WPI_CANTalonSRX_Receive.vi      WPI_MotorControlOpenCANTalonSRX.vi      Begin.vi      Robot Main.vi,0.000000,0.000000,0.000000,0.000000,Speed,Speed,-0.420000,1.080000,2.630000,0.000000,102.000000,1,0,-0.003038,-0.003968,0,-0.016571,0.028229,0.000000,-1.457825,-0.731827,0.000000,-0.064000,0.076000,0.071000,FlatInitial
11:02:50.830 AM 02/13/2016,Teleop Disabled,0,TRUE,-44087,NetComm_CAN_Receive.vi:5470006<APPEND>  <b>Complete call chain:</b>      NetComm_CAN_Receive.vi:5470006      WPI_CANTalonSRX_Receive.vi      WPI_MotorControlOpenCANTalonSRX.vi      Begin.vi      Robot Main.vi,0.000000,0.000000,0.000000,0.000000,Speed,Speed,-0.420000,1.080000,2.630000,0.000000,102.000000,1,0,-0.003038,-0.003968,0,-0.016571,0.028229,0.000000,-1.457825,-0.731827,0.000000,-0.064000,0.076000,0.071000,FlatInitial
11:02:50.930 AM 02/13/2016,Teleop Disabled,0,TRUE,-44087,NetComm_CAN_Receive.vi:5470006<APPEND>  <b>Complete call chain:</b>      NetComm_CAN_Receive.vi:5470006      WPI_CANTalonSRX_Receive.vi      WPI_MotorControlOpenCANTalonSRX.vi      Begin.vi      Robot Main.vi,0.000000,0.000000,0.000000,0.000000,Speed,Speed,-0.420000,1.080000,2.630000,0.000000,101.000000,1,0,-0.003038,-0.003968,0,-0.016571,0.028229,0.000000,-1.457825,-0.731827,0.000000,-0.064000,0.076000,0.071000,FlatInitial
11:02:51.031 AM 02/13/2016,Teleop Disabled,0,TRUE,-44087,NetComm_CAN_Receive.vi:5470006<APPEND>  <b>Complete call chain:</b>      NetComm_CAN_Receive.vi:5470006      WPI_CANTalonSRX_Receive.vi      WPI_CANTalonSRX_GetStatus.vi      ShooterVI.vi      Periodic Tasks.vi      Robot Main.vi,0.000000,0.000000,0.000000,0.000000,Speed,Speed,-0.420000,1.080000,2.630000,0.000000,103.000000,1,0,-0.003038,-0.003968,0,-0.016571,0.028229,0.000000,-1.457825,-0.731827,0.000000,-0.064000,0.076000,0.071000,FlatInitial
11:02:51.131 AM 02/13/2016,Teleop Disabled,0,TRUE,-44087,NetComm_CAN_Receive.vi:5470006<APPEND>  <b>Complete call chain:</b>      NetComm_CAN_Receive.vi:5470006      WPI_CANTalonSRX_Receive.vi      WPI_CANTalonSRX_GetStatus.vi      ShooterVI.vi      Periodic Tasks.vi      Robot Main.vi,0.000000,0.000000,0.000000,0.000000,Speed,Speed,-0.420000,1.080000,2.630000,0.000000,103.000000,1,0,-0.003038,-0.003968,0,-0.016571,0.028229,0.000000,-1.457825,-0.731827,0.000000,-0.064000,0.076000,0.071000,FlatInitial
11:02:51.231 AM 02/13/2016,Teleop Disabled,0,FALSE,0,NO ERROR,0.000000,0.000000,0.000000,0.000000,Speed,Speed,-0.420000,1.080000,2.630000,0.000000,101.000000,1,0,-0.003038,-0.003968,0,-0.016571,0.028229,0.000000,-1.457825,-0.731827,0.000000,-0.064000,0.076000,0.071000,FlatInitial
11:02:51.331 AM 02/13/2016,Teleop Disabled,0,FALSE,0,NO ERROR,0.000000,0.000000,0.000000,0.000000,Speed,Speed,-0.420000,1.080000,2.630000,0.000000,101.000000,1,0,-0.003038,-0.003968,0,-0.016571,0.028229,0.000000,-1.457825,-0.731827,0.000000,-0.064000,0.076000,0.071000,FlatInitial
11:02:51.434 AM 02/13/2016,Teleop Disabled,0,FALSE,0,NO ERROR,0.000000,0.000000,0.000000,0.000000,Speed,Speed,-0.420000,1.080000,2.630000,0.000000,102.000000,1,0,-0.003038,-0.003968,0,-0.016571,0.028229,0.000000,-1.457825,-0.731827,0.000000,-0.064000,0.076000,0.071000,FlatInitial
11:02:51.534 AM 02/13/2016,Teleop Disabled,0,FALSE,0,NO ERROR,0.000000,0.000000,0.000000,0.000000,Speed,Speed,-0.420000,1.080000,2.630000,0.000000,102.000000,1,0,-0.003038,-0.003968,0,-0.016571,0.028229,0.000000,-1.457825,-0.731827,0.000000,-0.064000,0.076000,0.071000,FlatInitial
11:02:51.634 AM 02/13/2016,Teleop Disabled,0,FALSE,0,NO ERROR,0.000000,0.000000,0.000000,0.000000,Speed,Speed,-0.420000,1.080000,2.630000,0.000000,101.000000,1,0,-0.003038,-0.003968,0,-0.016571,0.028229,0.000000,-1.457825,-0.731827,0.000000,-0.064000,0.076000,0.071000,FlatInitial
11:02:51.735 AM 02/13/2016,Teleop Disabled,0,FALSE,0,NO ERROR,0.000000,0.000000,0.000000,0.000000,Speed,Speed,-0.420000,1.080000,2.630000,0.000000,102.000000,1,0,-0.003038,-0.003968,0,-0.016571,0.028229,0.000000,-1.457825,-0.731827,0.000000,-0.064000,0.076000,0.071000,FlatInitial
11:02:51.834 AM 02/13/2016,Teleop Disabled,0,FALSE,0,NO ERROR,0.000000,0.000000,0.000000,0.000000,Speed,Speed,-0.420000,1.080000,2.630000,0.000000,101.000000,1,0,-0.003038,-0.003968,0,-0.016571,0.028229,0.000000,-1.457825,-0.731827,0.000000,-0.064000,0.076000,0.071000,FlatInitial
11:02:51.935 AM 02/13/2016,Teleop Disabled,0,FALSE,0,NO ERROR,0.000000,0.000000,0.000000,0.000000,Speed,Speed,-0.420000,1.080000,2.630000,0.000000,102.000000,1,0,-0.003038,-0.003968,0,-0.016571,0.028229,0.000000,-1.457825,-0.731827,0.000000,-0.064000,0.076000,0.071000,FlatInitial
11:02:52.035 AM 02/13/2016,Teleop Disabled,0,FALSE,0,NO ERROR,0.000000,0.000000,0.000000,0.000000,Speed,Speed,-0.420000,1.080000,2.630000,0.000000,102.000000,1,0,-0.003038,-0.003968,0,-0.016571,0.028229,0.000000,-1.457825,-0.731827,0.000000,-0.064000,0.076000,0.071000,FlatInitial
11:02:52.135 AM 02/13/2016,Teleop Disabled,0,FALSE,0,NO ERROR,0.000000,0.000000,0.000000,0.000000,Speed,Speed,-0.420000,1.080000,2.630000,0.000000,102.000000,1,0,-0.003038,-0.003968,0,-0.016571,0.028229,0.000000,-1.457825,-0.731827,0.000000,-0.064000,0.076000,0.071000,FlatInitial
11:02:52.235 AM 02/13/2016,Teleop Disabled,0,FALSE,0,NO ERROR,0.000000,0.000000,0.000000,0.000000,Speed,Speed,-0.420000,1.080000,2.630000,0.000000,101.000000,1,0,-0.003038,-0.003968,0,-0.016571,0.028229,0.000000,-1.457825,-0.731827,0.000000,-0.064000,0.076000,0.071000,FlatInitial
11:02:52.334 AM 02/13/2016,Teleop Disabled,0,FALSE,0,NO ERROR,0.000000,0.000000,0.000000,0.000000,Speed,Speed,-0.420000,1.080000,2.630000,0.000000,101.000000,1,0,-0.003038,-0.003968,0,-0.016571,0.028229,0.000000,-1.457825,-0.731827,0.000000,-0.064000,0.076000,0.071000,FlatInitial
11:02:52.435 AM 02/13/2016,Teleop Disabled,0,FALSE,0,NO ERROR,0.000000,0.000000,0.000000,0.000000,Speed,Speed,-0.420000,1.080000,2.630000,0.000000,103.000000,1,0,-0.003038,-0.003968,0,-0.016571,0.028229,0.000000,-1.457825,-0.731827,0.000000,-0.064000,0.076000,0.071000,FlatInitial
11:02:52.535 AM 02/13/2016,Teleop Disabled,0,FALSE,0,NO ERROR,0.000000,0.000000,0.000000,0.000000,Speed,Speed,-0.420000,1.080000,2.630000,0.000000,102.000000,1,0,-0.003038,-0.003968,0,-0.016571,0.028229,0.000000,-1.457825,-0.731827,0.000000,-0.064000,0.076000,0.071000,FlatInitial
11:02:52.634 AM 02/13/2016,Teleop Disabled,0,FALSE,0,NO ERROR,0.000000,0.000000,0.000000,0.000000,Speed,Speed,-0.420000,1.080000,2.630000,0.000000,101.000000,1,0,-0.003038,-0.003968,0,-0.016571,0.028229,0.000000,-1.457825,-0.731827,0.000000,-0.064000,0.076000,0.071000,FlatInitial
11:02:52.734 AM 02/13/2016,Teleop Disabled,0,FALSE,0,NO ERROR,0.000000,0.000000,0.000000,0.000000,Speed,Speed,-0.420000,1.080000,2.630000,0.000000,102.000000,1,0,-0.003038,-0.003968,0,-0.016571,0.028229,0.000000,-1.457825,-0.731827,0.000000,-0.064000,0.076000,0.071000,FlatInitial
11:02:52.835 AM 02/13/2016,Teleop Disabled,0,FALSE,0,NO ERROR,0.000000,0.000000,0.000000,0.000000,Speed,Speed,-0.420000,1.080000,2.630000,0.000000,101.000000,1,0,-0.003038,-0.003968,0,-0.016571,0.028229,0.000000,-1.457825,-0.731827,0.000000,-0.064000,0.076000,0.071000,FlatInitial
11:02:52.935 AM 02/13/2016,Teleop Disabled,0,FALSE,0,NO ERROR,0.000000,0.000000,0.000000,0.000000,Speed,Speed,-0.420000,1.080000,2.630000,0.000000,101.000000,1,0,-0.003038,-0.003968,0,-0.016571,0.028229,0.000000,-1.457825,-0.731827,0.000000,-0.064000,0.076000,0.071000,FlatInitial
11:02:53.035 AM 02/13/2016,Teleop Disabled,0,FALSE,0,NO ERROR,0.000000,0.000000,0.000000,0.000000,Speed,Speed,-0.420000,1.080000,2.630000,0.000000,101.000000,1,0,-0.003038,-0.003968,0,-0.016571,0.028229,0.000000,-1.457825,-0.731827,0.000000,-0.064000,0.076000,0.071000,FlatInitial
11:02:53.135 AM 02/13/2016,Teleop Disabled,0,FALSE,0,NO ERROR,0.000000,0.000000,-6000.000000,-6000.000000,Speed,Speed,-0.420000,1.080000,2.630000,1.000000,101.000000,1,0,-0.003038,-0.003968,0,-0.016571,0.028229,0.000000,-1.457825,-0.731827,0.000000,-0.064000,0.076000,0.071000,FlatInitial
11:02:53.235 AM 02/13/2016,Teleop Disabled,0,FALSE,0,NO ERROR,0.000000,0.000000,0.000000,0.000000,Speed,Speed,-0.420000,1.080000,2.630000,2.000000,101.000000,1,0,-0.003038,-0.003968,0,-0.016571,0.028229,0.000000,-1.457825,-0.731827,0.000000,-0.064000,0.076000,0.071000,FlatInitial
11:02:53.335 AM 02/13/2016,Teleop Disabled,0,FALSE,0,NO ERROR,0.000000,0.000000,0.000000,0.000000,Speed,Speed,-0.420000,1.080000,2.630000,2.000000,101.000000,1,0,-0.003038,-0.003968,0,-0.016571,0.028229,0.000000,-1.457825,-0.731827,0.000000,-0.064000,0.076000,0.071000,FlatInitial
11:02:53.435 AM 02/13/2016,Teleop Disabled,0,FALSE,0,NO ERROR,0.000000,0.000000,0.000000,0.000000,Speed,Speed,-0.420000,1.080000,2.630000,2.000000,103.000000,1,0,-0.003038,-0.003968,0,-0.016571,0.028229,0.000000,-1.457825,-0.731827,0.000000,-0.064000,0.076000,0.071000,FlatInitial
11:02:53.535 AM 02/13/2016,Teleop Disabled,0,FALSE,0,NO ERROR,0.000000,0.000000,0.000000,0.000000,Speed,Speed,-0.420000,1.080000,2.630000,2.000000,103.000000,1,0,-0.003038,-0.003968,0,-0.016571,0.028229,0.000000,-1.457825,-0.731827,0.000000,-0.064000,0.076000,0.071000,FlatInitial
11:02:53.634 AM 02/13/2016,Teleop Disabled,0,FALSE,0,NO ERROR,0.000000,0.000000,0.000000,0.000000,Speed,Speed,-0.420000,1.080000,2.630000,2.000000,102.000000,1,0,-0.003038,-0.003968,0,-0.016571,0.028229,0.000000,-1.457825,-0.731827,0.000000,-0.064000,0.076000,0.071000,FlatInitial
11:02:53.734 AM 02/13/2016,Teleop Disabled,0,FALSE,0,NO ERROR,0.000000,0.000000,0.000000,0.000000,Speed,Speed,-0.420000,1.080000,2.630000,2.000000,102.000000,1,0,-0.003038,-0.003968,0,-0.016571,0.028229,0.000000,-1.457825,-0.731827,0.000000,-0.064000,0.076000,0.071000,FlatInitial
11:02:53.836 AM 02/13/2016,Teleop Disabled,0,FALSE,0,NO ERROR,0.000000,0.000000,0.000000,0.000000,Speed,Speed,-0.420000,1.080000,2.630000,2.000000,103.000000,1,0,-0.003038,-0.003968,0,-0.016571,0.028229,0.000000,-1.457825,-0.731827,0.000000,-0.064000,0.076000,0.071000,FlatInitial
11:02:53.936 AM 02/13/2016,Teleop Disabled,0,FALSE,0,NO ERROR,0.000000,0.000000,0.000000,0.000000,Speed,Speed,-0.420000,1.080000,2.630000,2.000000,103.000000,1,0,-0.003038,-0.003968,0,-0.016571,0.028229,0.000000,-1.457825,-0.731827,0.000000,-0.064000,0.076000,0.071000,FlatInitial
11:02:54.036 AM 02/13/2016,Teleop Disabled,0,FALSE,0,NO ERROR,0.000000,0.000000,0.000000,0.000000,Speed,Speed,-0.420000,1.080000,2.630000,2.000000,101.000000,1,0,-0.003038,-0.003968,0,-0.016571,0.028229,0.000000,-1.457825,-0.731827,0.000000,-0.064000,0.076000,0.071000,FlatInitial
11:02:54.137 AM 02/13/2016,Teleop Disabled,0,FALSE,0,NO ERROR,0.000000,0.000000,0.000000,0.000000,Speed,Speed,-0.420000,1.080000,2.630000,2.000000,101.000000,1,0,-0.003038,-0.003968,0,-0.016571,0.028229,0.000000,-1.457825,-0.731827,0.000000,-0.064000,0.076000,0.071000,FlatInitial
11:02:54.237 AM 02/13/2016,Teleop Disabled,0,FALSE,0,NO ERROR,0.000000,0.000000,0.000000,0.000000,Speed,Speed,-0.420000,1.080000,2.630000,2.000000,101.000000,1,0,-0.003038,-0.003968,0,-0.016571,0.028229,0.000000,-1.457825,-0.731827,0.000000,-0.064000,0.076000,0.071000,FlatInitial
11:02:54.336 AM 02/13/2016,Teleop Disabled,0,FALSE,0,NO ERROR,0.000000,0.000000,0.000000,0.000000,Speed,Speed,-0.420000,1.080000,2.630000,2.000000,102.000000,1,0,-0.003038,-0.003968,0,-0.016571,0.028229,0.000000,-1.457825,-0.731827,0.000000,-0.064000,0.076000,0.071000,FlatInitial
11:02:54.437 AM 02/13/2016,Teleop Disabled,0,FALSE,0,NO ERROR,0.000000,0.000000,4000.000000,4000.000000,Speed,Speed,-0.420000,1.080000,2.630000,3.000000,102.000000,1,0,-0.003038,-0.003968,0,-0.016571,0.028229,0.000000,-1.457825,-0.731827,0.000000,-0.064000,0.076000,0.071000,FlatInitial
11:02:54.537 AM 02/13/2016,Teleop Disabled,0,FALSE,0,NO ERROR,0.000000,0.000000,4000.000000,4000.000000,Speed,Speed,-0.420000,1.080000,2.630000,3.000000,102.000000,1,0,-0.003038,-0.003968,0,-0.016571,0.028229,0.000000,-1.457825,-0.731827,0.000000,-0.064000,0.076000,0.071000,FlatInitial
11:02:54.637 AM 02/13/2016,Teleop Disabled,0,FALSE,0,NO ERROR,0.000000,0.000000,4000.000000,4000.000000,Speed,Speed,-0.420000,1.080000,2.630000,3.000000,102.000000,1,0,-0.003038,-0.003968,0,-0.016571,0.028229,0.000000,-1.457825,-0.731827,0.000000,-0.064000,0.076000,0.071000,FlatInitial
11:02:54.738 AM 02/13/2016,Teleop Disabled,0,FALSE,0,NO ERROR,0.000000,0.000000,4000.000000,4000.000000,Speed,Speed,-0.420000,1.080000,2.630000,3.000000,102.000000,1,0,-0.003038,-0.003968,0,-0.016571,0.028229,0.000000,-1.457825,-0.731827,0.000000,-0.064000,0.076000,0.071000,FlatInitial
11:02:54.839 AM 02/13/2016,Teleop Disabled,0,TRUE,-44003,<LOCATION>WPI_CameraIssue HTTP Request with Authentication.vi<CALLSTACK>WPI_CameraIssue HTTP Request with Authentication.vi< <WPI_CameraIssue Get.vi< <WPI_CameraSet Image Appearance Property.vi< <WPI_CameraSet Image Size.vi< <Vision Processing.vi< <Robot Main.vi,0.000000,0.000000,4000.000000,4000.000000,Speed,Speed,-0.420000,1.080000,2.630000,3.000000,104.000000,1,0,-0.003038,-0.003968,0,-0.016571,0.028229,0.000000,-1.457825,-0.731827,0.000000,-0.064000,0.076000,0.071000,FlatInitial
11:02:54.940 AM 02/13/2016,Teleop Disabled,0,FALSE,0,NO ERROR,0.000000,0.000000,4000.000000,4000.000000,Speed,Speed,-0.020000,1.110000,2.890000,3.000000,103.000000,1,0,-0.003038,-0.003968,0,0.000000,0.000000,0.000000,-1.466476,-0.701859,0.000000,-0.003000,0.000000,0.000000,FlatInitial
11:02:55.039 AM 02/13/2016,Teleop Disabled,0,FALSE,0,NO ERROR,0.000000,0.000000,4000.000000,4000.000000,Speed,Speed,-0.020000,1.110000,2.890000,3.000000,101.000000,1,0,-0.003038,-0.003968,0,0.000000,0.000000,0.000000,-1.466476,-0.701859,0.000000,0.001000,0.001000,0.000000,FlatInitial
11:02:55.139 AM 02/13/2016,Teleop Disabled,0,FALSE,0,NO ERROR,0.000000,0.000000,4000.000000,4000.000000,Speed,Speed,-0.020000,1.110000,2.890000,3.000000,101.000000,1,0,-0.003038,-0.003968,0,0.000000,0.000000,0.000000,-1.466476,-0.701859,0.000000,-0.002000,-0.001000,-0.001000,FlatInitial
11:02:55.239 AM 02/13/2016,Teleop Disabled,0,FALSE,0,NO ERROR,0.000000,0.000000,4000.000000,4000.000000,Speed,Speed,-0.020000,1.110000,2.890000,3.000000,103.000000,1,0,-0.003038,-0.003968,0,0.000000,0.000000,0.000000,-1.466476,-0.701859,0.000000,0.000000,0.003000,0.000000,FlatInitial
11:02:55.339 AM 02/13/2016,Teleop Disabled,0,FALSE,0,NO ERROR,0.000000,0.000000,4000.000000,4000.000000,Speed,Speed,-0.020000,1.110000,2.890000,3.000000,101.000000,1,0,-0.003038,-0.003968,0,0.000000,0.000000,0.000000,-1.466476,-0.701859,0.000000,0.000000,0.003000,0.000000,FlatInitial
11:02:55.439 AM 02/13/2016,Teleop Disabled,0,FALSE,0,NO ERROR,0.000000,0.000000,4000.000000,4000.000000,Speed,Speed,-0.020000,1.110000,2.900000,3.000000,104.000000,1,0,-0.003038,-0.003968,0,0.000000,0.000000,0.000000,-1.466476,-0.701859,0.000000,-0.001000,0.000000,-0.004000,FlatInitial
11:02:55.540 AM 02/13/2016,Teleop Disabled,0,FALSE,0,NO ERROR,0.000000,0.000000,4000.000000,4000.000000,Speed,Speed,-0.030000,1.110000,2.890000,3.000000,102.000000,1,0,-0.003038,-0.003968,0,0.000000,0.000000,0.000000,-1.466476,-0.701859,0.000000,0.001000,0.001000,-0.004000,FlatInitial
11:02:55.639 AM 02/13/2016,Teleop Disabled,0,FALSE,0,NO ERROR,0.000000,0.000000,4000.000000,4000.000000,Speed,Speed,-0.020000,1.110000,2.890000,3.000000,102.000000,1,0,-0.003038,-0.003968,0,0.000000,0.000000,0.000000,-1.466476,-0.701859,0.000000,0.000000,-0.001000,0.000000,FlatInitial
11:02:55.739 AM 02/13/2016,Teleop Disabled,0,FALSE,0,NO ERROR,0.000000,0.000000,4000.000000,4000.000000,Speed,Speed,-0.020000,1.110000,2.900000,3.000000,102.000000,1,0,-0.003038,-0.003968,0,0.000000,0.000000,0.000000,-1.466476,-0.701859,0.000000,0.001000,0.000000,0.000000,FlatInitial
11:02:55.839 AM 02/13/2016,Teleop Disabled,0,FALSE,0,NO ERROR,0.000000,0.000000,4000.000000,4000.000000,Speed,Speed,-0.030000,1.110000,2.900000,3.000000,102.000000,1,0,-0.003038,-0.003968,0,0.000000,0.000000,0.000000,-1.466476,-0.701859,0.000000,0.000000,-0.001000,-0.001000,FlatInitial
11:02:55.940 AM 02/13/2016,Teleop Disabled,0,FALSE,0,NO ERROR,0.000000,0.000000,4000.000000,4000.000000,Speed,Speed,-0.020000,1.110000,2.900000,3.000000,102.000000,1,0,-0.003038,-0.003968,0,0.000000,0.000000,0.000000,-1.466476,-0.701859,0.000000,0.000000,0.000000,0.000000,FlatInitial
11:02:56.040 AM 02/13/2016,Teleop Disabled,0,FALSE,0,NO ERROR,0.000000,0.000000,4000.000000,4000.000000,Speed,Speed,-0.030000,1.110000,2.890000,3.000000,101.000000,1,0,-0.003038,-0.003968,0,0.000000,0.000000,0.000000,-1.466476,-0.701859,0.000000,0.001000,-0.002000,0.001000,FlatInitial
11:02:56.139 AM 02/13/2016,Teleop Disabled,0,FALSE,0,NO ERROR,0.000000,0.000000,4000.000000,4000.000000,Speed,Speed,-0.030000,1.110000,2.890000,3.000000,102.000000,1,0,-0.003038,-0.003968,0,0.000000,0.000000,0.000000,-1.466476,-0.701859,0.000000,0.002000,-0.001000,-0.003000,FlatInitial
11:02:56.240 AM 02/13/2016,Teleop Disabled,0,FALSE,0,NO ERROR,0.000000,0.000000,4000.000000,4000.000000,Speed,Speed,-0.030000,1.110000,2.890000,3.000000,102.000000,1,0,-0.003038,-0.003968,0,0.000000,0.000000,0.000000,-1.466476,-0.701859,0.000000,0.001000,0.001000,-0.005000,FlatInitial
11:02:56.339 AM 02/13/2016,Teleop Disabled,0,FALSE,0,NO ERROR,0.000000,0.000000,4000.000000,4000.000000,Speed,Speed,-0.030000,1.110000,2.890000,3.000000,102.000000,1,0,-0.003038,-0.003968,0,0.000000,0.000000,0.000000,-1.466476,-0.701859,0.000000,0.001000,-0.004000,-0.001000,FlatInitial
11:02:56.440 AM 02/13/2016,Teleop Disabled,0,FALSE,0,NO ERROR,0.000000,0.000000,4000.000000,4000.000000,Speed,Speed,-0.030000,1.110000,2.890000,3.000000,103.000000,1,0,-0.003038,-0.003968,0,0.000000,0.000000,0.000000,-1.466476,-0.701859,0.000000,0.001000,0.001000,0.001000,FlatInitial
11:02:56.540 AM 02/13/2016,Teleop Disabled,0,FALSE,0,NO ERROR,0.000000,0.000000,4000.000000,4000.000000,Speed,Speed,-0.030000,1.110000,2.890000,3.000000,101.000000,1,0,-0.003038,-0.003968,0,0.000000,0.000000,0.000000,-1.466476,-0.701859,0.000000,-0.001000,0.002000,0.000000,FlatInitial
11:02:56.639 AM 02/13/2016,Teleop Disabled,0,FALSE,0,NO ERROR,0.000000,0.000000,4000.000000,4000.000000,Speed,Speed,-0.030000,1.100000,2.900000,3.000000,103.000000,1,0,-0.003038,-0.003968,0,0.000000,0.000000,0.000000,-1.466476,-0.701859,0.000000,0.001000,0.001000,0.001000,FlatInitial
11:02:56.740 AM 02/13/2016,Teleop Disabled,0,FALSE,0,NO ERROR,0.000000,0.000000,4000.000000,4000.000000,Speed,Speed,-0.030000,1.110000,2.890000,3.000000,102.000000,1,0,-0.003038,-0.003968,0,0.000000,0.000000,0.000000,-1.466476,-0.701859,0.000000,-0.001000,0.000000,0.001000,FlatInitial
11:02:56.840 AM 02/13/2016,Teleop Disabled,0,FALSE,0,NO ERROR,0.000000,0.000000,4000.000000,4000.000000,Speed,Speed,-0.020000,1.100000,2.890000,3.000000,102.000000,1,0,-0.003038,-0.003968,0,0.000000,0.000000,0.000000,-1.466476,-0.701859,0.000000,0.001000,0.000000,0.000000,FlatInitial
11:02:56.940 AM 02/13/2016,Teleop Disabled,0,FALSE,0,NO ERROR,0.000000,0.000000,4000.000000,4000.000000,Speed,Speed,-0.020000,1.110000,2.890000,3.000000,103.000000,1,0,-0.003038,-0.003968,0,0.000000,0.000000,0.000000,-1.466476,-0.701859,0.000000,0.001000,-0.001000,-0.002000,FlatInitial
11:02:57.040 AM 02/13/2016,Teleop Disabled,0,FALSE,0,NO ERROR,0.000000,0.000000,4000.000000,4000.000000,Speed,Speed,-0.030000,1.110000,2.890000,3.000000,101.000000,1,0,-0.003038,-0.003968,0,0.000000,0.000000,0.000000,-1.466476,-0.701859,0.000000,0.001000,-0.001000,0.000000,FlatInitial
11:02:57.140 AM 02/13/2016,Teleop Disabled,0,FALSE,0,NO ERROR,0.000000,0.000000,4000.000000,4000.000000,Speed,Speed,-0.030000,1.110000,2.890000,3.000000,102.000000,1,0,-0.003038,-0.003968,0,0.000000,0.000000,0.000000,-1.466476,-0.701859,0.000000,0.002000,-0.001000,0.002000,FlatInitial
11:02:57.239 AM 02/13/2016,Teleop Disabled,0,FALSE,0,NO ERROR,0.000000,0.000000,4000.000000,4000.000000,Speed,Speed,-0.020000,1.120000,2.900000,3.000000,101.000000,1,0,-0.003038,-0.003968,0,0.000000,0.000000,0.000000,-1.466476,-0.701859,0.000000,0.000000,0.000000,-0.003000,FlatInitial
11:02:57.340 AM 02/13/2016,Teleop Disabled,0,FALSE,0,NO ERROR,0.000000,0.000000,4000.000000,4000.000000,Speed,Speed,-0.030000,1.120000,2.900000,3.000000,102.000000,1,0,-0.003038,-0.003968,0,0.000000,0.000000,0.000000,-1.466476,-0.701859,0.000000,0.000000,0.000000,-0.003000,FlatInitial
11:02:57.440 AM 02/13/2016,Teleop Disabled,0,FALSE,0,NO ERROR,0.000000,0.000000,4000.000000,4000.000000,Speed,Speed,-0.030000,1.120000,2.900000,3.000000,101.000000,1,0,-0.003038,-0.003968,0,0.000000,0.000000,0.000000,-1.466476,-0.701859,0.000000,0.000000,-0.003000,-0.001000,FlatInitial
11:02:57.539 AM 02/13/2016,Teleop Disabled,0,FALSE,0,NO ERROR,0.000000,0.000000,4000.000000,4000.000000,Speed,Speed,-0.030000,1.120000,2.900000,3.000000,102.000000,1,0,-0.003038,-0.003968,0,0.000000,0.000000,0.000000,-1.466476,-0.701859,0.000000,0.001000,0.000000,0.000000,FlatInitial
11:02:57.639 AM 02/13/2016,Teleop Disabled,0,FALSE,0,NO ERROR,0.000000,0.000000,4000.000000,4000.000000,Speed,Speed,-0.030000,1.110000,2.890000,3.000000,104.000000,1,0,-0.003038,-0.003968,0,0.000000,0.000000,0.000000,-1.466476,-0.701859,0.000000,0.000000,0.002000,-0.005000,FlatInitial
11:02:57.740 AM 02/13/2016,Teleop Disabled,0,FALSE,0,NO ERROR,0.000000,0.000000,4000.000000,4000.000000,Speed,Speed,-0.030000,1.110000,2.890000,3.000000,101.000000,1,0,-0.003038,-0.003968,0,0.000000,0.000000,0.000000,-1.466476,-0.701859,0.000000,-0.001000,0.000000,0.000000,FlatInitial
11:02:57.840 AM 02/13/2016,Teleop Disabled,0,FALSE,0,NO ERROR,0.000000,0.000000,4000.000000,4000.000000,Speed,Speed,-0.030000,1.110000,2.890000,3.000000,102.000000,1,0,-0.003038,-0.003968,0,0.000000,0.000000,0.000000,-1.466476,-0.701859,0.000000,-0.002000,0.002000,0.005000,FlatInitial
11:02:57.940 AM 02/13/2016,Teleop Enabled,0,FALSE,0,NO ERROR,0.000000,0.000000,4000.000000,4000.000000,Speed,Speed,-0.030000,1.140000,2.900000,3.000000,102.000000,1,0,-0.000558,-0.003968,0,0.000000,0.001648,0.000000,-1.466476,-0.701843,0.000000,-0.020000,-0.043000,-0.006000,FlatInitial
11:02:58.041 AM 02/13/2016,Teleop Enabled,0,FALSE,0,NO ERROR,0.000000,0.000000,4000.000000,4000.000000,Speed,Speed,-0.030000,1.140000,2.890000,3.000000,102.000000,1,0,-0.000558,-0.003968,0,-0.002029,0.000000,0.000000,-1.466537,-0.702209,0.000000,-0.024000,-0.006000,0.004000,FlatInitial
11:02:58.142 AM 02/13/2016,Teleop Enabled,0,FALSE,0,NO ERROR,0.000000,0.000000,4000.000000,4000.000000,Speed,Speed,-0.030000,1.140000,2.890000,3.000000,101.000000,1,0,-0.000558,-0.003968,0,0.000000,0.000000,0.000000,-1.466629,-0.702209,0.000000,-0.024000,-0.006000,0.004000,FlatInitial
11:02:58.242 AM 02/13/2016,Teleop Enabled,0,FALSE,0,NO ERROR,0.000000,0.000000,4000.000000,4000.000000,Speed,Speed,-0.020000,1.140000,2.890000,3.000000,104.000000,1,0,-0.000558,-0.003968,0,0.000000,0.000000,0.000000,-1.466629,-0.702209,0.000000,0.007000,-0.002000,0.019000,FlatInitial
11:02:58.341 AM 02/13/2016,Teleop Enabled,0,FALSE,0,NO ERROR,0.000000,0.000000,4000.000000,4000.000000,Speed,Speed,-0.030000,1.150000,2.880000,3.000000,103.000000,1,0,-0.000558,-0.003968,0,0.000000,0.000000,0.000000,-1.466629,-0.702209,0.000000,0.000000,-0.011000,0.026000,FlatInitial
11:02:58.441 AM 02/13/2016,Teleop Enabled,0,FALSE,0,NO ERROR,0.000000,0.000000,4000.000000,4000.000000,Speed,Speed,-0.020000,1.140000,2.880000,3.000000,102.000000,1,0,-0.000558,-0.003968,0,0.000000,0.000000,0.000000,-1.466629,-0.702209,0.000000,0.000000,-0.002000,0.007000,FlatInitial
11:02:58.542 AM 02/13/2016,Teleop Enabled,0,FALSE,0,NO ERROR,0.000000,0.000000,4000.000000,4000.000000,Speed,Speed,-0.020000,1.140000,2.880000,3.000000,102.000000,1,0,-0.000558,-0.003968,0,0.000000,0.000000,0.000000,-1.466629,-0.702209,0.000000,0.000000,-0.002000,0.007000,FlatInitial
11:02:58.642 AM 02/13/2016,Teleop Enabled,0,FALSE,0,NO ERROR,0.000000,0.000000,4000.000000,4000.000000,Speed,Speed,-0.020000,1.130000,2.890000,3.000000,102.000000,1,0,-0.000558,-0.003968,0,0.000000,0.000000,0.000000,-1.466629,-0.702209,0.000000,0.001000,0.004000,-0.010000,FlatInitial
11:02:58.742 AM 02/13/2016,Teleop Enabled,0,FALSE,0,NO ERROR,0.000000,0.000000,4000.000000,4000.000000,Speed,Speed,-0.020000,1.130000,2.890000,3.000000,105.000000,1,0,-0.000558,-0.003968,0,0.000000,0.000000,0.000000,-1.466629,-0.702209,0.000000,0.003000,-0.002000,0.002000,FlatInitial
11:02:58.843 AM 02/13/2016,Teleop Enabled,0,FALSE,0,NO ERROR,0.000000,0.000000,4000.000000,4000.000000,Speed,Speed,-0.020000,1.130000,2.890000,3.000000,102.000000,1,0,-0.000558,-0.003968,0,0.000000,0.000000,0.000000,-1.466629,-0.702209,0.000000,-0.001000,0.000000,-0.006000,FlatInitial
11:02:58.943 AM 02/13/2016,Teleop Enabled,0,FALSE,0,NO ERROR,0.000000,0.000000,4000.000000,4000.000000,Speed,Speed,-0.020000,1.130000,2.880000,3.000000,101.000000,1,0,-0.000558,-0.003968,0,0.000000,0.000000,0.000000,-1.466629,-0.702209,0.000000,-0.004000,0.003000,-0.004000,FlatInitial
11:02:59.044 AM 02/13/2016,Teleop Enabled,0,FALSE,0,NO ERROR,0.000000,0.000000,4000.000000,4000.000000,Speed,Speed,-0.020000,1.130000,2.880000,3.000000,102.000000,1,0,-0.000558,-0.003968,0,0.000000,0.000000,0.000000,-1.466629,-0.702209,0.000000,0.000000,0.000000,-0.001000,FlatInitial
11:02:59.146 AM 02/13/2016,Teleop Enabled,0,FALSE,0,NO ERROR,0.000000,0.000000,4000.000000,4000.000000,Speed,Speed,-0.020000,1.130000,2.890000,3.000000,101.000000,1,0,-0.000558,-0.003968,0,0.000000,0.000000,0.000000,-1.466629,-0.702209,0.000000,-0.003000,-0.001000,0.000000,FlatInitial
11:02:59.246 AM 02/13/2016,Teleop Enabled,0,FALSE,0,NO ERROR,0.000000,0.000000,4000.000000,4000.000000,Speed,Speed,-0.010000,1.130000,2.900000,3.000000,102.000000,1,0,-0.000558,-0.003968,0,0.000000,0.000000,0.000000,-1.466629,-0.702209,0.000000,-0.018000,-0.004000,0.008000,FlatInitial
11:02:59.347 AM 02/13/2016,Teleop Enabled,0,FALSE,0,NO ERROR,0.000000,0.000000,4000.000000,4000.000000,Speed,Speed,-0.010000,1.130000,2.900000,3.000000,101.000000,1,0,-0.000558,-0.003968,0,0.000000,0.000000,0.000000,-1.466629,-0.702209,0.000000,-0.018000,-0.004000,0.008000,FlatInitial
11:02:59.447 AM 02/13/2016,Teleop Enabled,0,FALSE,0,NO ERROR,0.000000,0.000000,4000.000000,4000.000000,Speed,Speed,-0.020000,1.130000,2.900000,3.000000,104.000000,1,0,-0.000558,-0.003968,0,0.000000,0.000000,0.000000,-1.466629,-0.702209,0.000000,-0.005000,-0.008000,0.000000,FlatInitial
11:02:59.548 AM 02/13/2016,Teleop Enabled,0,FALSE,0,NO ERROR,0.000000,0.000000,4000.000000,4000.000000,Speed,Speed,-0.020000,1.140000,2.900000,3.000000,102.000000,1,0,-0.000558,-0.003968,0,0.000000,0.000000,0.000000,-1.466629,-0.702209,0.000000,-0.004000,0.008000,-0.010000,FlatInitial
11:02:59.650 AM 02/13/2016,Teleop Enabled,0,FALSE,0,NO ERROR,0.000000,0.000000,4000.000000,4000.000000,Speed,Speed,-0.020000,1.130000,2.890000,3.000000,101.000000,1,0,-0.000558,-0.003968,0,0.000000,0.000000,0.000000,-1.466629,-0.702209,0.000000,-0.002000,-0.001000,0.003000,FlatInitial
11:02:59.750 AM 02/13/2016,Teleop Enabled,0,FALSE,0,NO ERROR,0.000000,0.000000,4000.000000,4000.000000,Speed,Speed,-0.020000,1.130000,2.900000,3.000000,101.000000,1,0,-0.000558,-0.003968,0,0.000000,0.000000,0.000000,-1.466629,-0.702209,0.000000,0.000000,0.004000,-0.007000,FlatInitial
11:02:59.850 AM 02/13/2016,Teleop Enabled,0,FALSE,0,NO ERROR,0.000000,0.000000,4000.000000,4000.000000,Speed,Speed,-0.020000,1.130000,2.900000,3.000000,103.000000,1,0,-0.000558,-0.003968,0,0.000000,0.000000,0.000000,-1.466629,-0.702209,0.000000,0.001000,0.000000,0.000000,FlatInitial
11:02:59.952 AM 02/13/2016,Teleop Enabled,0,FALSE,0,NO ERROR,0.000000,0.000000,4000.000000,4000.000000,Speed,Speed,-0.020000,1.120000,2.890000,3.000000,101.000000,1,0,-0.000558,-0.003968,0,0.000000,0.000000,0.000000,-1.466629,-0.702209,0.000000,0.000000,0.002000,-0.015000,FlatInitial
11:03:00.052 AM 02/13/2016,Teleop Enabled,0,FALSE,0,NO ERROR,0.000000,0.000000,4000.000000,4000.000000,Speed,Speed,-0.020000,1.130000,2.900000,3.000000,101.000000,1,0,-0.000558,-0.003968,0,0.000000,0.000000,0.000000,-1.466629,-0.702209,0.000000,-0.001000,0.002000,-0.011000,FlatInitial
11:03:00.152 AM 02/13/2016,Teleop Enabled,0,FALSE,0,NO ERROR,0.000000,0.000000,4000.000000,4000.000000,Speed,Speed,-0.020000,1.130000,2.900000,3.000000,101.000000,1,0,-0.000558,-0.003968,0,0.000000,0.000000,0.000000,-1.466629,-0.702209,0.000000,0.002000,0.004000,-0.008000,FlatInitial
11:03:00.252 AM 02/13/2016,Teleop Enabled,0,FALSE,0,NO ERROR,0.000000,0.000000,4000.000000,4000.000000,Speed,Speed,-0.020000,1.120000,2.900000,3.000000,101.000000,1,0,-0.000558,-0.003968,0,0.000000,0.000000,0.000000,-1.466629,-0.702209,0.000000,0.000000,-0.001000,0.005000,FlatInitial
11:03:00.353 AM 02/13/2016,Teleop Enabled,0,FALSE,0,NO ERROR,0.000000,0.000000,4000.000000,4000.000000,Speed,Speed,-0.020000,1.120000,2.900000,3.000000,101.000000,1,0,-0.000558,-0.003968,0,0.000000,0.000000,0.000000,-1.466629,-0.702209,0.000000,0.000000,-0.001000,-0.001000,FlatInitial
11:03:00.453 AM 02/13/2016,Teleop Enabled,0,FALSE,0,NO ERROR,0.000000,0.000000,4000.000000,4000.000000,Speed,Speed,-0.020000,1.120000,2.900000,3.000000,101.000000,1,0,-0.000558,-0.003038,0,0.000000,0.000000,0.000000,-1.466629,-0.702209,0.000000,0.000000,0.001000,-0.005000,FlatInitial
11:03:00.553 AM 02/13/2016,Teleop Enabled,0,FALSE,0,NO ERROR,0.000000,0.000000,4000.000000,4000.000000,Speed,Speed,-0.020000,1.120000,2.900000,3.000000,101.000000,1,0,-0.000558,-0.003038,0,0.000000,0.000000,0.000000,-1.466629,-0.702209,0.000000,0.000000,0.000000,-0.001000,FlatInitial
11:03:00.655 AM 02/13/2016,Teleop Enabled,0,FALSE,0,NO ERROR,0.000000,0.000000,4000.000000,4000.000000,Speed,Speed,-0.020000,1.120000,2.900000,4.000000,101.000000,1,0,-0.000558,-0.003038,0,0.000000,0.000000,0.000000,-1.466629,-0.702209,0.000000,-0.001000,0.001000,-0.004000,FlatInitial
11:03:00.756 AM 02/13/2016,Teleop Enabled,0,FALSE,0,NO ERROR,0.000000,0.000000,9000.000000,9000.000000,Speed,Speed,-0.020000,1.180000,2.850000,4.000000,102.000000,1,0,-0.000992,-0.003968,0,-0.012787,-0.053787,0.000000,-1.466705,-0.702927,0.000000,0.043000,-0.178000,0.466000,FlatInitial
11:03:00.856 AM 02/13/2016,Teleop Enabled,0,FALSE,0,NO ERROR,0.000000,0.000000,9000.000000,9000.000000,Speed,Speed,0.040000,1.030000,2.770000,4.000000,103.000000,1,0,-0.000992,-0.003968,0,0.025391,-0.133850,0.000000,-1.465363,-0.708221,0.000000,0.033000,-0.061000,0.059000,FlatInitial
11:03:00.957 AM 02/13/2016,Teleop Enabled,0,FALSE,0,NO ERROR,0.000000,0.000000,9000.000000,9000.000000,Speed,Speed,-0.020000,1.170000,2.770000,4.000000,103.000000,1,0,-0.000992,-0.003968,0,0.022263,-0.085007,0.000000,-1.464661,-0.713455,0.000000,-0.012000,0.015000,0.221000,FlatInitial
11:03:01.057 AM 02/13/2016,Teleop Enabled,0,FALSE,0,NO ERROR,0.000000,0.000000,9000.000000,9000.000000,Speed,Speed,-0.110000,1.180000,2.850000,4.000000,101.000000,1,0,-0.000992,-0.003968,0,0.012604,-0.034409,0.000000,-1.464401,-0.716293,0.000000,0.044000,0.275000,-0.169000,FlatInitial
11:03:01.157 AM 02/13/2016,Teleop Enabled,0,FALSE,0,NO ERROR,0.000000,0.000000,9000.000000,9000.000000,Speed,Speed,-0.100000,1.080000,2.300000,4.000000,100.000000,1,0,-0.000992,-0.003968,0,0.023422,0.044922,0.000000,-1.463593,-0.715424,0.000000,-0.036000,0.067000,-0.069000,FlatInitial
11:03:01.257 AM 02/13/2016,Teleop Enabled,0,FALSE,0,NO ERROR,0.000000,0.000000,9000.000000,9000.000000,Speed,Speed,-0.200000,1.160000,1.740000,4.000000,102.000000,1,0,-0.000992,-0.003968,0,0.022064,-0.030197,0.000000,-1.462982,-0.715469,0.000000,0.006000,-0.128000,0.004000,FlatInitial
11:03:01.358 AM 02/13/2016,Teleop Enabled,0,FALSE,0,NO ERROR,0.000000,0.000000,9000.000000,9000.000000,Speed,Speed,-0.230000,1.140000,1.420000,4.000000,102.000000,1,0,-0.000992,-0.003968,0,0.000000,-0.005585,0.000000,-1.462234,-0.716507,0.000000,0.036000,-0.067000,-0.122000,FlatInitial
11:03:01.459 AM 02/13/2016,Teleop Enabled,0,FALSE,0,NO ERROR,0.000000,0.000000,9000.000000,9000.000000,Speed,Speed,-0.280000,1.110000,2.880000,4.000000,102.000000,1,0,-0.000992,-0.003968,0,-0.005447,-0.075272,0.000000,-1.462296,-0.719391,0.000000,-0.063000,-0.014000,-0.532000,FlatInitial
11:03:01.559 AM 02/13/2016,Teleop Enabled,0,FALSE,0,NO ERROR,0.000000,0.000000,9000.000000,9000.000000,Speed,Speed,-0.280000,1.090000,2.150000,4.000000,102.000000,1,0,-0.000992,-0.003968,0,-0.007935,0.016068,0.000000,-1.462677,-0.719070,0.000000,0.031000,0.014000,-0.299000,FlatInitial
11:03:01.659 AM 02/13/2016,Teleop Enabled,0,FALSE,0,NO ERROR,0.000000,0.000000,9000.000000,9000.000000,Speed,Speed,-0.320000,1.080000,2.570000,4.000000,102.000000,1,0,-0.000992,-0.003968,0,-0.019394,-0.008591,0.000000,-1.463150,-0.719208,0.000000,-0.041000,-0.002000,-0.080000,FlatInitial
11:03:01.761 AM 02/13/2016,Teleop Enabled,0,FALSE,0,NO ERROR,0.000000,0.000000,9000.000000,9000.000000,Speed,Speed,-0.280000,1.110000,2.550000,4.000000,102.000000,1,0,-0.000992,-0.003968,0,-0.028412,0.013062,0.000000,-1.464218,-0.719193,0.000000,-0.004000,0.002000,-0.078000,FlatInitial
11:03:01.861 AM 02/13/2016,Teleop Enabled,0,FALSE,0,NO ERROR,0.000000,0.000000,9000.000000,9000.000000,Speed,Speed,-0.290000,1.120000,2.380000,4.000000,101.000000,1,0,-0.000992,-0.003968,0,-0.007156,0.023499,0.000000,-1.465668,-0.718506,0.000000,0.041000,0.003000,-0.065000,FlatInitial
11:03:01.961 AM 02/13/2016,Teleop Enabled,0,FALSE,0,NO ERROR,0.000000,0.000000,9000.000000,9000.000000,Speed,Speed,-0.290000,1.110000,2.530000,4.000000,102.000000,1,0,-0.000992,-0.003968,0,0.006805,0.036575,0.000000,-1.465714,-0.717010,0.000000,0.046000,0.055000,-0.051000,FlatInitial
11:03:02.061 AM 02/13/2016,Teleop Enabled,0,FALSE,0,NO ERROR,0.000000,0.000000,9000.000000,9000.000000,Speed,Speed,-0.270000,1.140000,2.660000,4.000000,105.000000,1,0,-0.000992,-0.003968,0,0.000000,0.055664,0.000000,-1.465012,-0.714920,0.000000,0.056000,0.067000,0.168000,FlatInitial
11:03:02.161 AM 02/13/2016,Teleop Enabled,0,FALSE,0,NO ERROR,0.000000,0.000000,9000.000000,9000.000000,Speed,Speed,-0.280000,1.130000,2.590000,4.000000,101.000000,1,0,-0.000992,-0.003968,0,0.008667,0.048019,0.000000,-1.464188,-0.711548,0.000000,-0.045000,0.022000,-0.034000,FlatInitial
11:03:02.261 AM 02/13/2016,Teleop Enabled,0,FALSE,0,NO ERROR,0.000000,0.000000,9000.000000,9000.000000,Speed,Speed,-0.290000,1.110000,2.590000,4.000000,103.000000,1,0,-0.000992,-0.003968,0,-0.010239,0.053146,0.000000,-1.464310,-0.709503,0.000000,0.012000,0.003000,0.059000,FlatInitial
11:03:02.362 AM 02/13/2016,Teleop Enabled,0,FALSE,0,NO ERROR,0.000000,0.000000,9000.000000,9000.000000,Speed,Speed,-0.260000,1.140000,2.630000,4.000000,103.000000,1,0,-0.000992,-0.003968,0,-0.006393,0.051041,0.000000,-1.464371,-0.707230,0.000000,-0.013000,-0.042000,0.052000,FlatInitial
11:03:02.463 AM 02/13/2016,Teleop Enabled,0,FALSE,0,NO ERROR,0.000000,0.000000,9000.000000,9000.000000,Speed,Speed,-0.280000,1.130000,2.620000,4.000000,101.000000,1,0,-0.000992,-0.003968,0,-0.034134,-0.006271,0.000000,-1.465759,-0.705383,0.000000,0.016000,0.037000,-0.058000,FlatInitial
11:03:02.562 AM 02/13/2016,Teleop Enabled,0,FALSE,0,NO ERROR,0.000000,0.000000,9000.000000,9000.000000,Speed,Speed,-0.260000,1.110000,2.600000,4.000000,101.000000,1,0,-0.000992,-0.003968,0,0.000000,-0.008987,0.000000,-1.466080,-0.705505,0.000000,-0.017000,-0.074000,0.045000,FlatInitial
11:03:02.662 AM 02/13/2016,Teleop Enabled,0,FALSE,0,NO ERROR,0.000000,0.000000,9000.000000,9000.000000,Speed,Speed,-0.280000,1.120000,2.620000,4.000000,101.000000,1,0,-0.000992,-0.003968,0,0.023392,-0.002731,0.000000,-1.465500,-0.706268,0.000000,0.019000,0.058000,-0.035000,FlatInitial
11:03:02.763 AM 02/13/2016,Teleop Enabled,0,FALSE,0,NO ERROR,0.000000,0.000000,9000.000000,9000.000000,Speed,Speed,-0.270000,1.140000,2.630000,4.000000,102.000000,1,0,-0.000992,-0.003968,0,0.016556,0.014267,0.000000,-1.465271,-0.706024,0.000000,-0.019000,-0.109000,0.049000,FlatInitial
11:03:02.862 AM 02/13/2016,Teleop Enabled,0,FALSE,0,NO ERROR,0.000000,0.000000,9000.000000,9000.000000,Speed,Speed,-0.270000,1.110000,2.600000,4.000000,102.000000,1,0,-0.000992,-0.003968,0,0.015427,0.005814,0.000000,-1.464111,-0.705856,0.000000,0.031000,0.023000,-0.062000,FlatInitial
11:03:02.962 AM 02/13/2016,Teleop Enabled,0,FALSE,0,NO ERROR,0.000000,0.000000,9000.000000,9000.000000,Speed,Speed,-0.270000,1.130000,2.630000,4.000000,105.000000,1,0,-0.000992,-0.003968,0,0.019928,0.007034,0.000000,-1.463348,-0.705673,0.000000,0.023000,0.005000,-0.026000,FlatInitial
11:03:03.063 AM 02/13/2016,Teleop Enabled,0,FALSE,0,NO ERROR,0.000000,0.000000,9000.000000,9000.000000,Speed,Speed,-0.270000,1.150000,2.670000,4.000000,101.000000,1,0,-0.000992,-0.003968,0,-0.000214,-0.001541,0.000000,-1.462952,-0.705673,0.000000,-0.016000,-0.035000,-0.066000,FlatInitial
11:03:03.164 AM 02/13/2016,Teleop Enabled,0,FALSE,0,NO ERROR,0.000000,0.000000,9000.000000,9000.000000,Speed,Speed,-0.270000,1.130000,2.630000,4.000000,102.000000,1,0,-0.000992,-0.003968,0,-0.021652,-0.000854,0.000000,-1.463806,-0.705765,0.000000,0.001000,-0.007000,0.144000,FlatInitial
11:03:03.264 AM 02/13/2016,Teleop Enabled,0,FALSE,0,NO ERROR,0.000000,0.000000,9000.000000,9000.000000,Speed,Speed,-0.270000,1.120000,2.630000,4.000000,102.000000,1,0,-0.000992,-0.003968,0,0.000000,-0.009293,0.000000,-1.463806,-0.706467,0.000000,0.023000,0.025000,-0.002000,FlatInitial
11:03:03.363 AM 02/13/2016,Teleop Enabled,0,FALSE,0,NO ERROR,0.000000,0.000000,9000.000000,9000.000000,Speed,Speed,-0.270000,1.140000,2.660000,4.000000,106.000000,1,0,-0.000992,-0.003968,0,0.000000,0.002350,0.000000,-1.463593,-0.706573,0.000000,-0.016000,-0.028000,0.064000,FlatInitial
11:03:03.464 AM 02/13/2016,Teleop Enabled,0,FALSE,0,NO ERROR,0.000000,0.000000,9000.000000,9000.000000,Speed,Speed,-0.260000,1.140000,2.600000,4.000000,102.000000,1,0,-0.000992,-0.003968,0,0.013199,0.000259,0.000000,-1.462494,-0.706497,0.000000,-0.010000,-0.037000,-0.067000,FlatInitial
11:03:03.564 AM 02/13/2016,Teleop Enabled,0,FALSE,0,NO ERROR,0.000000,0.000000,9000.000000,9000.000000,Speed,Speed,-0.270000,1.130000,2.630000,4.000000,103.000000,1,0,-0.000992,-0.003968,0,0.007751,-0.001297,0.000000,-1.462097,-0.706589,0.000000,0.039000,0.037000,0.048000,FlatInitial
11:03:03.665 AM 02/13/2016,Teleop Enabled,0,FALSE,0,NO ERROR,0.000000,0.000000,9000.000000,9000.000000,Speed,Speed,-0.270000,1.150000,2.640000,4.000000,102.000000,1,0,-0.000992,-0.003968,0,0.009293,-0.002014,0.000000,-1.461624,-0.706573,0.000000,-0.050000,0.023000,-0.043000,FlatInitial
11:03:03.765 AM 02/13/2016,Teleop Enabled,0,FALSE,0,NO ERROR,0.000000,0.000000,9000.000000,9000.000000,Speed,Speed,-0.270000,1.150000,2.630000,4.000000,102.000000,1,0,-0.000992,-0.003968,0,-0.015228,-0.000229,0.000000,-1.462021,-0.706451,0.000000,0.012000,0.035000,-0.030000,FlatInitial
11:03:03.865 AM 02/13/2016,Teleop Enabled,0,FALSE,0,NO ERROR,0.000000,0.000000,9000.000000,9000.000000,Speed,Speed,-0.280000,1.140000,2.600000,4.000000,102.000000,1,0,-0.000992,-0.003968,0,0.000000,-0.017136,0.000000,-1.462158,-0.707077,0.000000,0.014000,0.052000,0.057000,FlatInitial
11:03:03.965 AM 02/13/2016,Teleop Enabled,0,FALSE,0,NO ERROR,0.000000,0.000000,9000.000000,9000.000000,Speed,Speed,-0.270000,1.130000,2.640000,4.000000,106.000000,1,0,-0.000992,-0.003968,0,0.018494,0.000397,0.000000,-1.461731,-0.707352,0.000000,-0.004000,-0.028000,0.064000,FlatInitial
11:03:04.066 AM 02/13/2016,Teleop Enabled,0,FALSE,0,NO ERROR,0.000000,0.000000,9000.000000,9000.000000,Speed,Speed,-0.280000,1.160000,2.650000,4.000000,101.000000,1,0,-0.000992,-0.003968,0,0.038940,0.000000,0.000000,-1.460846,-0.707169,0.000000,-0.005000,-0.101000,0.032000,FlatInitial
11:03:04.166 AM 02/13/2016,Teleop Enabled,0,FALSE,0,NO ERROR,0.000000,0.000000,9000.000000,9000.000000,Speed,Speed,-0.260000,1.120000,2.600000,4.000000,101.000000,1,0,-0.000992,-0.003968,0,0.028259,-0.012161,0.000000,-1.458694,-0.708023,0.000000,-0.029000,0.030000,-0.005000,FlatInitial
11:03:04.266 AM 02/13/2016,Teleop Enabled,0,FALSE,0,NO ERROR,0.000000,0.000000,9000.000000,9000.000000,Speed,Speed,-0.280000,1.150000,2.620000,4.000000,101.000000,1,0,-0.000992,-0.003968,0,0.023804,-0.014038,0.000000,-1.457291,-0.708527,0.000000,-0.049000,-0.034000,0.046000,FlatInitial
11:03:04.367 AM 02/13/2016,Teleop Enabled,0,FALSE,0,NO ERROR,0.000000,0.000000,9000.000000,9000.000000,Speed,Speed,-0.270000,1.140000,2.630000,4.000000,102.000000,1,0,-0.000992,-0.003968,0,-0.003235,0.000092,0.000000,-1.456818,-0.708725,0.000000,-0.007000,-0.001000,-0.006000,FlatInitial
11:03:04.467 AM 02/13/2016,Teleop Enabled,0,FALSE,0,NO ERROR,0.000000,0.000000,9000.000000,9000.000000,Speed,Speed,-0.280000,1.110000,2.620000,4.000000,106.000000,1,0,-0.000992,-0.003968,0,0.000000,-0.008820,0.000000,-1.457016,-0.708862,0.000000,0.018000,-0.014000,0.009000,FlatInitial
11:03:04.567 AM 02/13/2016,Teleop Enabled,0,FALSE,0,NO ERROR,0.000000,0.000000,9000.000000,9000.000000,Speed,Speed,-0.260000,1.130000,2.630000,4.000000,102.000000,1,0,-0.000992,-0.003968,0,0.012512,-0.002167,0.000000,-1.456604,-0.709152,0.000000,0.071000,-0.028000,-0.090000,FlatInitial
11:03:04.668 AM 02/13/2016,Teleop Enabled,0,FALSE,0,NO ERROR,0.000000,0.000000,9000.000000,9000.000000,Speed,Speed,-0.280000,1.120000,2.600000,4.000000,106.000000,1,0,-0.000992,-0.003968,0,0.032257,0.001511,0.000000,-1.455246,-0.709351,0.000000,0.065000,0.044000,0.028000,FlatInitial
11:03:04.768 AM 02/13/2016,Teleop Enabled,0,FALSE,0,NO ERROR,0.000000,0.000000,9000.000000,9000.000000,Speed,Speed,-0.280000,1.130000,2.620000,4.000000,104.000000,1,0,-0.000992,-0.003968,0,0.027969,0.002045,0.000000,-1.453430,-0.709534,0.000000,-0.018000,0.030000,-0.042000,FlatInitial
11:03:04.870 AM 02/13/2016,Teleop Enabled,0,FALSE,0,NO ERROR,0.000000,0.000000,9000.000000,9000.000000,Speed,Speed,-0.280000,1.130000,2.660000,4.000000,102.000000,1,0,-0.000992,-0.003968,0,0.000000,0.006577,0.000000,-1.452774,-0.709213,0.000000,0.004000,0.026000,-0.032000,FlatInitial
11:03:04.971 AM 02/13/2016,Teleop Enabled,0,FALSE,0,NO ERROR,0.000000,0.000000,9000.000000,9000.000000,Speed,Speed,-0.270000,1.150000,2.620000,4.000000,103.000000,1,0,-0.000992,-0.003968,0,0.000000,-0.027863,0.000000,-1.452896,-0.709763,0.000000,-0.016000,-0.014000,-0.026000,FlatInitial
11:03:05.071 AM 02/13/2016,Teleop Enabled,0,FALSE,0,NO ERROR,0.000000,0.000000,9000.000000,9000.000000,Speed,Speed,-0.220000,1.100000,2.850000,4.000000,102.000000,1,0,-0.000992,-0.003968,0,0.003479,-0.030991,0.000000,-1.453125,-0.710983,0.000000,-0.040000,-0.045000,0.075000,FlatInitial
11:03:05.171 AM 02/13/2016,Teleop Enabled,0,FALSE,0,NO ERROR,0.000000,0.000000,9000.000000,9000.000000,Speed,Speed,-0.140000,1.100000,2.660000,4.000000,102.000000,1,0,-0.000992,-0.003968,0,-0.013840,0.005371,0.000000,-1.453415,-0.712341,0.000000,-0.051000,0.056000,-0.057000,FlatInitial
11:03:05.271 AM 02/13/2016,Teleop Enabled,0,FALSE,0,NO ERROR,0.000000,0.000000,9000.000000,9000.000000,Speed,Speed,-0.360000,1.130000,2.830000,4.000000,101.000000,1,0,-0.000992,-0.003968,0,0.001404,0.016998,0.000000,-1.453812,-0.711563,0.000000,-0.030000,0.026000,0.116000,FlatInitial
11:03:05.370 AM 02/13/2016,Teleop Enabled,0,FALSE,0,NO ERROR,0.000000,0.000000,9000.000000,9000.000000,Speed,Speed,-0.230000,1.090000,2.870000,4.000000,102.000000,1,0,-0.000992,-0.003968,0,-0.002686,0.000000,0.000000,-1.453842,-0.708420,0.000000,0.042000,-0.018000,-0.023000,FlatInitial
11:03:05.471 AM 02/13/2016,Teleop Enabled,0,FALSE,0,NO ERROR,0.000000,0.000000,9000.000000,9000.000000,Speed,Speed,-0.210000,1.080000,2.570000,4.000000,101.000000,1,0,-0.000992,-0.003968,0,0.018356,-0.012756,0.000000,-1.453552,-0.708801,0.000000,-0.048000,-0.036000,-0.001000,FlatInitial
11:03:05.571 AM 02/13/2016,Teleop Enabled,0,FALSE,0,NO ERROR,0.000000,0.000000,9000.000000,9000.000000,Speed,Speed,-0.280000,1.170000,2.760000,4.000000,103.000000,1,0,-0.000992,-0.003968,0,0.026199,-0.008636,0.000000,-1.452454,-0.709290,0.000000,-0.069000,-0.017000,-0.087000,FlatInitial
11:03:05.672 AM 02/13/2016,Teleop Enabled,0,FALSE,0,NO ERROR,0.000000,0.000000,9000.000000,9000.000000,Speed,Speed,-0.180000,1.120000,2.540000,4.000000,102.000000,1,0,-0.000992,-0.003968,0,0.014236,0.013016,0.000000,-1.451843,-0.708923,0.000000,-0.081000,-0.048000,0.185000,FlatInitial
11:03:05.772 AM 02/13/2016,Teleop Enabled,0,FALSE,0,NO ERROR,0.000000,0.000000,9000.000000,9000.000000,Speed,Speed,-0.210000,1.170000,2.610000,4.000000,103.000000,1,0,-0.000992,-0.003968,0,0.006927,0.026550,0.000000,-1.451462,-0.708176,0.000000,-0.042000,0.091000,-0.106000,FlatInitial
11:03:05.872 AM 02/13/2016,Teleop Enabled,0,FALSE,0,NO ERROR,0.000000,0.000000,9000.000000,9000.000000,Speed,Speed,-0.250000,1.150000,2.820000,4.000000,101.000000,1,0,-0.000992,-0.003968,0,0.025696,0.052246,0.000000,-1.450592,-0.705856,0.000000,0.010000,0.035000,0.130000,FlatInitial
11:03:05.972 AM 02/13/2016,Teleop Enabled,0,FALSE,0,NO ERROR,0.000000,0.000000,9000.000000,9000.000000,Speed,Speed,-0.210000,1.170000,2.740000,4.000000,101.000000,1,0,-0.000992,-0.003968,0,0.036942,0.072495,0.000000,-1.448822,-0.702774,0.000000,0.025000,0.010000,-0.031000,FlatInitial
11:03:06.072 AM 02/13/2016,Teleop Enabled,0,FALSE,0,NO ERROR,0.000000,0.000000,9000.000000,9000.000000,Speed,Speed,-0.220000,1.160000,2.710000,4.000000,104.000000,1,0,-0.000992,-0.003968,0,0.043640,0.051834,0.000000,-1.447144,-0.700424,0.000000,0.029000,-0.006000,0.151000,FlatInitial
11:03:06.172 AM 02/13/2016,Teleop Enabled,0,FALSE,0,NO ERROR,0.000000,0.000000,9000.000000,9000.000000,Speed,Speed,-0.250000,1.200000,2.750000,4.000000,102.000000,1,0,-0.000992,-0.003968,0,0.059937,0.052277,0.000000,-1.443436,-0.697159,0.000000,-0.031000,0.012000,-0.064000,FlatInitial
11:03:06.272 AM 02/13/2016,Teleop Enabled,0,FALSE,0,NO ERROR,0.000000,0.000000,9000.000000,9000.000000,Speed,Speed,-0.230000,1.180000,2.730000,4.000000,100.000000,1,0,-0.000992,-0.003968,0,0.028992,0.053879,0.000000,-1.441406,-0.694229,0.000000,-0.011000,0.016000,-0.045000,FlatInitial
11:03:06.372 AM 02/13/2016,Teleop Enabled,0,FALSE,0,NO ERROR,0.000000,0.000000,9000.000000,9000.000000,Speed,Speed,-0.240000,1.180000,2.730000,4.000000,101.000000,1,0,-0.000992,-0.003968,0,0.030838,0.042435,0.000000,-1.440308,-0.691483,0.000000,0.001000,-0.121000,-0.050000,FlatInitial
11:03:06.472 AM 02/13/2016,Teleop Enabled,0,FALSE,0,NO ERROR,0.000000,0.000000,9000.000000,9000.000000,Speed,Speed,-0.220000,1.130000,2.700000,4.000000,101.000000,1,0,-0.000992,-0.003968,0,0.011719,0.048767,0.000000,-1.439896,-0.689270,0.000000,0.022000,0.012000,0.001000,FlatInitial
11:03:06.572 AM 02/13/2016,Teleop Enabled,0,FALSE,0,NO ERROR,0.000000,0.000000,9000.000000,9000.000000,Speed,Speed,-0.220000,1.150000,2.710000,4.000000,102.000000,1,0,-0.000992,-0.003968,0,0.000000,-0.003250,0.000000,-1.438889,-0.687943,0.000000,0.005000,-0.032000,-0.012000,FlatInitial
11:03:06.672 AM 02/13/2016,Teleop Enabled,0,FALSE,0,NO ERROR,0.000000,0.000000,9000.000000,9000.000000,Speed,Speed,-0.230000,1.120000,2.670000,4.000000,104.000000,1,0,-0.000992,-0.003968,0,-0.027618,-0.006027,0.000000,-1.439590,-0.688446,0.000000,-0.043000,0.051000,0.035000,FlatInitial
11:03:06.772 AM 02/13/2016,Teleop Enabled,0,FALSE,0,NO ERROR,0.000000,0.000000,9000.000000,9000.000000,Speed,Speed,-0.230000,1.120000,2.650000,4.000000,101.000000,1,0,-0.000992,-0.003968,0,-0.032425,-0.026779,0.000000,-1.441132,-0.688889,0.000000,-0.022000,-0.016000,-0.125000,FlatInitial
11:03:06.873 AM 02/13/2016,Teleop Enabled,0,FALSE,0,NO ERROR,0.000000,0.000000,9000.000000,9000.000000,Speed,Speed,-0.220000,1.100000,2.670000,4.000000,102.000000,1,0,-0.000992,-0.003968,0,0.000000,-0.013901,0.000000,-1.443054,-0.689926,0.000000,-0.018000,-0.030000,-0.041000,FlatInitial
11:03:06.973 AM 02/13/2016,Teleop Enabled,0,FALSE,0,NO ERROR,0.000000,0.000000,9000.000000,9000.000000,Speed,Speed,-0.230000,1.140000,2.660000,4.000000,101.000000,1,0,-0.000992,-0.003968,0,-0.000824,-0.020538,0.000000,-1.442856,-0.690811,0.000000,-0.014000,-0.072000,-0.019000,FlatInitial
11:03:07.073 AM 02/13/2016,Teleop Enabled,0,FALSE,0,NO ERROR,0.000000,0.000000,9000.000000,9000.000000,Speed,Speed,-0.220000,1.120000,2.640000,4.000000,102.000000,1,0,-0.000992,-0.003968,0,-0.003998,0.000000,0.000000,-1.442764,-0.691589,0.000000,0.041000,0.000000,-0.042000,FlatInitial
11:03:07.173 AM 02/13/2016,Teleop Enabled,0,FALSE,0,NO ERROR,0.000000,0.000000,9000.000000,9000.000000,Speed,Speed,-0.230000,1.140000,2.680000,4.000000,101.000000,1,0,-0.000992,-0.003968,0,0.033493,0.010101,0.000000,-1.441879,-0.691223,0.000000,0.036000,-0.067000,0.013000,FlatInitial
11:03:07.274 AM 02/13/2016,Teleop Enabled,0,FALSE,0,NO ERROR,0.000000,0.000000,9000.000000,9000.000000,Speed,Speed,-0.230000,1.110000,2.690000,4.000000,102.000000,1,0,-0.000992,-0.003968,0,0.030777,0.027771,0.000000,-1.440369,-0.690506,0.000000,-0.014000,-0.038000,-0.091000,FlatInitial
11:03:07.374 AM 02/13/2016,Teleop Enabled,0,FALSE,0,NO ERROR,0.000000,0.000000,9000.000000,9000.000000,Speed,Speed,-0.230000,1.140000,2.700000,4.000000,104.000000,1,0,-0.000992,-0.003968,0,0.053574,0.023087,0.000000,-1.437851,-0.689224,0.000000,0.014000,-0.052000,-0.002000,FlatInitial
11:03:07.474 AM 02/13/2016,Teleop Enabled,0,FALSE,0,NO ERROR,0.000000,0.000000,9000.000000,9000.000000,Speed,Speed,-0.230000,1.150000,2.670000,4.000000,103.000000,1,0,-0.000992,-0.003968,0,0.047485,0.014938,0.000000,-1.435760,-0.688644,0.000000,-0.053000,0.061000,0.018000,FlatInitial
11:03:07.574 AM 02/13/2016,Teleop Enabled,0,FALSE,0,NO ERROR,0.000000,0.000000,9000.000000,9000.000000,Speed,Speed,-0.220000,1.140000,2.680000,4.000000,103.000000,1,0,-0.000992,-0.003968,0,0.032837,-0.022324,0.000000,-1.433533,-0.688217,0.000000,-0.053000,-0.028000,0.045000,FlatInitial
11:03:07.675 AM 02/13/2016,Teleop Enabled,0,FALSE,0,NO ERROR,0.000000,0.000000,9000.000000,9000.000000,Speed,Speed,-0.230000,1.120000,2.680000,4.000000,101.000000,1,0,-0.000992,-0.003968,0,0.017471,-0.015717,0.000000,-1.432526,-0.689224,0.000000,-0.025000,-0.042000,-0.055000,FlatInitial
11:03:07.774 AM 02/13/2016,Teleop Enabled,0,FALSE,0,NO ERROR,0.000000,0.000000,9000.000000,9000.000000,Speed,Speed,-0.230000,1.140000,2.680000,4.000000,101.000000,1,0,-0.000992,-0.003968,0,0.005890,-0.016510,0.000000,-1.431870,-0.690002,0.000000,-0.012000,-0.072000,0.016000,FlatInitial
11:03:07.875 AM 02/13/2016,Teleop Enabled,0,FALSE,0,NO ERROR,0.000000,0.000000,9000.000000,9000.000000,Speed,Speed,-0.240000,1.140000,2.660000,4.000000,105.000000,1,0,-0.000992,-0.003968,0,0.000778,-0.024841,0.000000,-1.431488,-0.691391,0.000000,0.061000,0.012000,-0.002000,FlatInitial
11:03:07.975 AM 02/13/2016,Teleop Enabled,0,FALSE,0,NO ERROR,0.000000,0.000000,9000.000000,9000.000000,Speed,Speed,-0.230000,1.120000,2.670000,4.000000,101.000000,1,0,-0.000992,-0.003968,0,0.040787,-0.011734,0.000000,-1.430206,-0.692230,0.000000,0.024000,-0.053000,0.033000,FlatInitial
11:03:08.074 AM 02/13/2016,Teleop Enabled,0,FALSE,0,NO ERROR,0.000000,0.000000,9000.000000,9000.000000,Speed,Speed,-0.240000,1.130000,2.690000,4.000000,102.000000,1,0,-0.000992,-0.003968,0,0.044449,0.003784,0.000000,-1.428162,-0.692581,0.000000,0.070000,-0.023000,-0.102000,FlatInitial
11:03:08.174 AM 02/13/2016,Teleop Enabled,0,FALSE,0,NO ERROR,0.000000,0.000000,9000.000000,9000.000000,Speed,Speed,-0.240000,1.140000,2.700000,4.000000,103.000000,1,0,-0.000992,-0.003968,0,0.012207,0.006195,0.000000,-1.427032,-0.692657,0.000000,0.033000,-0.087000,0.015000,FlatInitial
11:03:08.274 AM 02/13/2016,Teleop Enabled,0,FALSE,0,NO ERROR,0.000000,0.000000,9000.000000,9000.000000,Speed,Speed,-0.230000,1.150000,2.660000,4.000000,102.000000,1,0,-0.000992,-0.003968,0,0.005966,-0.009872,0.000000,-1.426178,-0.693283,0.000000,-0.014000,0.043000,-0.020000,FlatInitial
11:03:08.375 AM 02/13/2016,Teleop Enabled,0,FALSE,0,NO ERROR,0.000000,0.000000,9000.000000,9000.000000,Speed,Speed,-0.240000,1.140000,2.690000,4.000000,106.000000,1,0,-0.000992,-0.003968,0,-0.017349,-0.009842,0.000000,-1.426651,-0.693344,0.000000,-0.014000,0.043000,-0.020000,FlatInitial
11:03:08.475 AM 02/13/2016,Teleop Enabled,0,FALSE,0,NO ERROR,0.000000,0.000000,9000.000000,9000.000000,Speed,Speed,-0.230000,1.140000,2.700000,4.000000,102.000000,1,0,-0.000992,-0.003968,0,-0.023346,-0.013092,0.000000,-1.427689,-0.694031,0.000000,-0.001000,-0.014000,-0.076000,FlatInitial
11:03:08.575 AM 02/13/2016,Teleop Enabled,0,FALSE,0,NO ERROR,0.000000,0.000000,9000.000000,9000.000000,Speed,Speed,-0.240000,1.150000,2.670000,4.000000,101.000000,1,0,-0.000992,-0.003968,0,-0.030212,0.000000,0.000000,-1.429337,-0.694824,0.000000,0.017000,-0.012000,0.066000,FlatInitial
11:03:08.676 AM 02/13/2016,Teleop Enabled,0,FALSE,0,NO ERROR,0.000000,0.000000,9000.000000,9000.000000,Speed,Speed,-0.230000,1.100000,2.650000,4.000000,101.000000,1,0,-0.000992,-0.003968,0,-0.041122,-0.014465,0.000000,-1.430374,-0.695435,0.000000,0.057000,0.006000,-0.047000,FlatInitial
11:03:08.776 AM 02/13/2016,Teleop Enabled,0,FALSE,0,NO ERROR,0.000000,0.000000,9000.000000,9000.000000,Speed,Speed,-0.240000,1.110000,2.680000,4.000000,101.000000,1,0,-0.000992,-0.003968,0,-0.006668,-0.013855,0.000000,-1.431442,-0.695831,0.000000,0.060000,0.052000,0.010000,FlatInitial
11:03:08.877 AM 02/13/2016,Teleop Enabled,0,FALSE,0,NO ERROR,0.000000,0.000000,9000.000000,9000.000000,Speed,Speed,-0.190000,1.080000,2.500000,4.000000,109.000000,1,0,-0.000992,-0.003968,0,0.020996,-0.015182,0.000000,-1.430725,-0.696960,0.000000,0.060000,0.052000,0.010000,FlatInitial
11:03:08.976 AM 02/13/2016,Teleop Enabled,0,FALSE,0,NO ERROR,0.000000,0.000000,9000.000000,9000.000000,Speed,Speed,-0.240000,1.060000,2.570000,4.000000,101.000000,1,0,-0.000992,-0.003968,0,-0.008270,-0.008102,0.000000,-1.430969,-0.698029,0.000000,0.014000,-0.038000,-0.079000,FlatInitial
11:03:09.077 AM 02/13/2016,Teleop Enabled,0,FALSE,0,NO ERROR,0.000000,0.000000,9000.000000,9000.000000,Speed,Speed,-0.240000,1.050000,2.680000,4.000000,101.000000,1,0,-0.000992,-0.003968,0,0.004333,-0.006943,0.000000,-1.431244,-0.698456,0.000000,0.036000,0.011000,-0.094000,FlatInitial
11:03:09.178 AM 02/13/2016,Teleop Enabled,0,FALSE,0,NO ERROR,0.000000,0.000000,9000.000000,9000.000000,Speed,Speed,-0.240000,1.050000,2.680000,4.000000,104.000000,1,0,-0.000992,-0.003968,0,0.000000,0.006088,0.000000,-1.431488,-0.698883,0.000000,0.006000,-0.006000,-0.013000,FlatInitial
11:03:09.277 AM 02/13/2016,Teleop Enabled,0,FALSE,0,NO ERROR,0.000000,0.000000,9000.000000,9000.000000,Speed,Speed,-0.240000,1.100000,2.670000,4.000000,101.000000,1,0,-0.000992,-0.003968,0,-0.012787,-0.000427,0.000000,-1.431839,-0.698700,0.000000,0.016000,0.054000,0.052000,FlatInitial
11:03:09.378 AM 02/13/2016,Teleop Enabled,0,FALSE,0,NO ERROR,0.000000,0.000000,9000.000000,9000.000000,Speed,Speed,-0.240000,1.100000,2.670000,4.000000,104.000000,1,0,-0.000992,-0.003968,0,-0.012787,-0.000427,0.000000,-1.431839,-0.698700,0.000000,0.016000,0.054000,0.052000,FlatInitial
11:03:09.478 AM 02/13/2016,Teleop Enabled,0,FALSE,0,NO ERROR,0.000000,0.000000,9000.000000,9000.000000,Speed,Speed,-0.240000,1.110000,2.600000,4.000000,101.000000,1,0,-0.000992,-0.003968,0,-0.004547,-0.019836,0.000000,-1.432037,-0.699020,0.000000,-0.064000,0.037000,-0.080000,FlatInitial
