Time,RobotMode,AutoToRun,ErrorStatus, ErrorCode,ErrorSource,ActualRPM1,ActualRPM2,DesiredRPM1,DesiredRPM2,ControlMode1,ControlMode2,NavXYaw,NavXRoll,NavXPitch,ShooterState,LoopTime,IsLevel,IsAutoTargeting,LeftMotorOutput,RightMotorOutput,IsHaloDrive,NavXVelocityX,NavXVelocityY,NavXVelocityZ,NavXDisplacementX,NavXDisplacementY,NavXDisplacementZ,NavXAccelerationX,NavXAccelerationY,NavXAccelerationZ,AutoDefendState
03:15:28.258 PM 02/13/2016,Autonomous Disabled,0,TRUE,-44087,NetComm_CAN_Receive.vi:5470006<APPEND>  <b>Complete call chain:</b>      NetComm_CAN_Receive.vi:5470006      WPI_CANTalonSRX_Receive.vi      WPI_MotorControlOpenCANTalonSRX.vi      Begin.vi      Robot Main.vi,0.000000,0.000000,4000.000000,4000.000000,Speed,Speed,0.080000,0.390000,2.650000,3.000000,102.000000,1,0,-0.003968,-0.000248,0,0.000000,0.000000,0.000000,0.183350,-0.071320,0.000000,0.000000,0.000000,0.007000,FlatInitial
03:15:28.364 PM 02/13/2016,Teleop Disabled,0,TRUE,-44087,NetComm_CAN_Receive.vi:5470006<APPEND>  <b>Complete call chain:</b>      NetComm_CAN_Receive.vi:5470006      WPI_CANTalonSRX_Receive.vi      WPI_MotorControlOpenCANTalonSRX.vi      Begin.vi      Robot Main.vi,0.000000,0.000000,0.000000,0.000000,Speed,Speed,0.080000,0.390000,2.650000,0.000000,13395.000000,1,0,-0.003968,-0.000248,0,0.000000,0.000000,0.000000,0.183350,-0.071320,0.000000,0.000000,0.000000,0.007000,FlatInitial
03:15:28.464 PM 02/13/2016,Teleop Disabled,0,TRUE,-44087,NetComm_CAN_Receive.vi:5470006<APPEND>  <b>Complete call chain:</b>      NetComm_CAN_Receive.vi:5470006      WPI_CANTalonSRX_Receive.vi      WPI_MotorControlOpenCANTalonSRX.vi      Begin.vi      Robot Main.vi,0.000000,0.000000,0.000000,0.000000,Speed,Speed,0.080000,0.390000,2.650000,0.000000,101.000000,1,0,-0.003968,-0.000248,0,0.000000,0.000000,0.000000,0.183350,-0.071320,0.000000,0.000000,0.000000,0.007000,FlatInitial
03:15:28.564 PM 02/13/2016,Teleop Disabled,0,TRUE,-44087,NetComm_CAN_Receive.vi:5470006<APPEND>  <b>Complete call chain:</b>      NetComm_CAN_Receive.vi:5470006      WPI_CANTalonSRX_Receive.vi      WPI_MotorControlOpenCANTalonSRX.vi      Begin.vi      Robot Main.vi,0.000000,0.000000,0.000000,0.000000,Speed,Speed,0.080000,0.390000,2.650000,0.000000,101.000000,1,0,-0.003968,-0.000248,0,0.000000,0.000000,0.000000,0.183350,-0.071320,0.000000,0.000000,0.000000,0.007000,FlatInitial
03:15:28.664 PM 02/13/2016,Teleop Disabled,0,TRUE,-44087,NetComm_CAN_Receive.vi:5470006<APPEND>  <b>Complete call chain:</b>      NetComm_CAN_Receive.vi:5470006      WPI_CANTalonSRX_Receive.vi      WPI_MotorControlOpenCANTalonSRX.vi      Begin.vi      Robot Main.vi,0.000000,0.000000,0.000000,0.000000,Speed,Speed,0.080000,0.390000,2.650000,0.000000,101.000000,1,0,-0.003968,-0.000248,0,0.000000,0.000000,0.000000,0.183350,-0.071320,0.000000,0.000000,0.000000,0.007000,FlatInitial
03:15:28.765 PM 02/13/2016,Teleop Disabled,0,TRUE,-44087,NetComm_CAN_Receive.vi:5470006<APPEND>  <b>Complete call chain:</b>      NetComm_CAN_Receive.vi:5470006      WPI_CANTalonSRX_Receive.vi      WPI_MotorControlOpenCANTalonSRX.vi      Begin.vi      Robot Main.vi,0.000000,0.000000,0.000000,0.000000,Speed,Speed,0.080000,0.390000,2.650000,0.000000,101.000000,1,0,-0.003968,-0.000248,0,0.000000,0.000000,0.000000,0.183350,-0.071320,0.000000,0.000000,0.000000,0.007000,FlatInitial
03:15:28.865 PM 02/13/2016,Teleop Disabled,0,TRUE,-44087,NetComm_CAN_Receive.vi:5470006<APPEND>  <b>Complete call chain:</b>      NetComm_CAN_Receive.vi:5470006      WPI_CANTalonSRX_Receive.vi      WPI_MotorControlOpenCANTalonSRX.vi      Begin.vi      Robot Main.vi,0.000000,0.000000,0.000000,0.000000,Speed,Speed,0.080000,0.390000,2.650000,0.000000,101.000000,1,0,-0.003968,-0.000248,0,0.000000,0.000000,0.000000,0.183350,-0.071320,0.000000,0.000000,0.000000,0.007000,FlatInitial
03:15:28.966 PM 02/13/2016,Teleop Disabled,0,TRUE,-44087,NetComm_CAN_Receive.vi:5470006<APPEND>  <b>Complete call chain:</b>      NetComm_CAN_Receive.vi:5470006      WPI_CANTalonSRX_Receive.vi      WPI_MotorControlOpenCANTalonSRX.vi      Begin.vi      Robot Main.vi,0.000000,0.000000,0.000000,0.000000,Speed,Speed,0.080000,0.390000,2.650000,0.000000,101.000000,1,0,-0.003968,-0.000248,0,0.000000,0.000000,0.000000,0.183350,-0.071320,0.000000,0.000000,0.000000,0.007000,FlatInitial
03:15:29.066 PM 02/13/2016,Teleop Disabled,0,TRUE,-44087,NetComm_CAN_Receive.vi:5470006<APPEND>  <b>Complete call chain:</b>      NetComm_CAN_Receive.vi:5470006      WPI_CANTalonSRX_Receive.vi      WPI_MotorControlOpenCANTalonSRX.vi      Begin.vi      Robot Main.vi,0.000000,0.000000,0.000000,0.000000,Speed,Speed,0.080000,0.390000,2.650000,0.000000,101.000000,1,0,-0.003968,-0.000248,0,0.000000,0.000000,0.000000,0.183350,-0.071320,0.000000,0.000000,0.000000,0.007000,FlatInitial
03:15:29.166 PM 02/13/2016,Teleop Disabled,0,TRUE,-44087,NetComm_CAN_Receive.vi:5470006<APPEND>  <b>Complete call chain:</b>      NetComm_CAN_Receive.vi:5470006      WPI_CANTalonSRX_Receive.vi      WPI_MotorControlOpenCANTalonSRX.vi      Begin.vi      Robot Main.vi,0.000000,0.000000,0.000000,0.000000,Speed,Speed,0.080000,0.390000,2.650000,0.000000,102.000000,1,0,-0.003968,-0.000248,0,0.000000,0.000000,0.000000,0.183350,-0.071320,0.000000,0.000000,0.000000,0.007000,FlatInitial
03:15:29.265 PM 02/13/2016,Teleop Disabled,0,TRUE,-44087,NetComm_CAN_Receive.vi:5470006<APPEND>  <b>Complete call chain:</b>      NetComm_CAN_Receive.vi:5470006      WPI_CANTalonSRX_Receive.vi      WPI_MotorControlOpenCANTalonSRX.vi      Begin.vi      Robot Main.vi,0.000000,0.000000,0.000000,0.000000,Speed,Speed,0.080000,0.390000,2.650000,0.000000,103.000000,1,0,-0.003968,-0.000248,0,0.000000,0.000000,0.000000,0.183350,-0.071320,0.000000,0.000000,0.000000,0.007000,FlatInitial
03:15:29.366 PM 02/13/2016,Teleop Disabled,0,TRUE,-44087,NetComm_CAN_Receive.vi:5470006<APPEND>  <b>Complete call chain:</b>      NetComm_CAN_Receive.vi:5470006      WPI_CANTalonSRX_Receive.vi      WPI_MotorControlOpenCANTalonSRX.vi      Begin.vi      Robot Main.vi,0.000000,0.000000,0.000000,0.000000,Speed,Speed,0.080000,0.390000,2.650000,0.000000,101.000000,1,0,-0.003968,-0.000248,0,0.000000,0.000000,0.000000,0.183350,-0.071320,0.000000,0.000000,0.000000,0.007000,FlatInitial
03:15:29.466 PM 02/13/2016,Teleop Disabled,0,TRUE,-44087,NetComm_CAN_Receive.vi:5470006<APPEND>  <b>Complete call chain:</b>      NetComm_CAN_Receive.vi:5470006      WPI_CANTalonSRX_Receive.vi      WPI_CANTalonSRX_GetStatus.vi      ShooterVI.vi      Periodic Tasks.vi      Robot Main.vi,0.000000,0.000000,0.000000,0.000000,Speed,Speed,0.080000,0.390000,2.650000,0.000000,102.000000,1,0,-0.003968,-0.000248,0,0.000000,0.000000,0.000000,0.183350,-0.071320,0.000000,0.000000,0.000000,0.007000,FlatInitial
03:15:29.566 PM 02/13/2016,Teleop Disabled,0,TRUE,-44087,NetComm_CAN_Receive.vi:5470006<APPEND>  <b>Complete call chain:</b>      NetComm_CAN_Receive.vi:5470006      WPI_CANTalonSRX_Receive.vi      WPI_CANTalonSRX_GetStatus.vi      ShooterVI.vi      Periodic Tasks.vi      Robot Main.vi,0.000000,0.000000,0.000000,0.000000,Speed,Speed,0.080000,0.390000,2.650000,0.000000,105.000000,1,0,-0.003968,-0.000248,0,0.000000,0.000000,0.000000,0.183350,-0.071320,0.000000,0.000000,0.000000,0.007000,FlatInitial
03:15:29.666 PM 02/13/2016,Teleop Disabled,0,FALSE,0,NO ERROR,0.000000,0.000000,0.000000,0.000000,Speed,Speed,0.080000,0.390000,2.650000,0.000000,101.000000,1,0,-0.003968,-0.000248,0,0.000000,0.000000,0.000000,0.183350,-0.071320,0.000000,0.000000,0.000000,0.007000,FlatInitial
03:15:29.766 PM 02/13/2016,Teleop Disabled,0,FALSE,0,NO ERROR,0.000000,0.000000,0.000000,0.000000,Speed,Speed,0.080000,0.390000,2.650000,0.000000,102.000000,1,0,-0.003968,-0.000248,0,0.000000,0.000000,0.000000,0.183350,-0.071320,0.000000,0.000000,0.000000,0.007000,FlatInitial
03:15:29.865 PM 02/13/2016,Teleop Disabled,0,FALSE,0,NO ERROR,0.000000,0.000000,0.000000,0.000000,Speed,Speed,0.080000,0.390000,2.650000,0.000000,102.000000,1,0,-0.003968,-0.000248,0,0.000000,0.000000,0.000000,0.183350,-0.071320,0.000000,0.000000,0.000000,0.007000,FlatInitial
03:15:29.966 PM 02/13/2016,Teleop Disabled,0,FALSE,0,NO ERROR,0.000000,0.000000,0.000000,0.000000,Speed,Speed,0.080000,0.390000,2.650000,0.000000,101.000000,1,0,-0.003968,-0.000248,0,0.000000,0.000000,0.000000,0.183350,-0.071320,0.000000,0.000000,0.000000,0.007000,FlatInitial
03:15:30.067 PM 02/13/2016,Teleop Disabled,0,FALSE,0,NO ERROR,0.000000,0.000000,0.000000,0.000000,Speed,Speed,0.080000,0.390000,2.650000,0.000000,102.000000,1,0,-0.003968,-0.000248,0,0.000000,0.000000,0.000000,0.183350,-0.071320,0.000000,0.000000,0.000000,0.007000,FlatInitial
03:15:30.167 PM 02/13/2016,Teleop Disabled,0,FALSE,0,NO ERROR,0.000000,0.000000,0.000000,0.000000,Speed,Speed,0.080000,0.390000,2.650000,0.000000,102.000000,1,0,-0.003968,-0.000248,0,0.000000,0.000000,0.000000,0.183350,-0.071320,0.000000,0.000000,0.000000,0.007000,FlatInitial
03:15:30.268 PM 02/13/2016,Teleop Disabled,0,FALSE,0,NO ERROR,0.000000,0.000000,0.000000,0.000000,Speed,Speed,0.080000,0.390000,2.650000,0.000000,101.000000,1,0,-0.003968,-0.000248,0,0.000000,0.000000,0.000000,0.183350,-0.071320,0.000000,0.000000,0.000000,0.007000,FlatInitial
03:15:30.368 PM 02/13/2016,Teleop Disabled,0,FALSE,0,NO ERROR,0.000000,0.000000,0.000000,0.000000,Speed,Speed,0.080000,0.390000,2.650000,0.000000,101.000000,1,0,-0.003968,-0.000248,0,0.000000,0.000000,0.000000,0.183350,-0.071320,0.000000,0.000000,0.000000,0.007000,FlatInitial
03:15:30.468 PM 02/13/2016,Teleop Disabled,0,FALSE,0,NO ERROR,0.000000,0.000000,0.000000,0.000000,Speed,Speed,0.080000,0.390000,2.650000,0.000000,103.000000,1,0,-0.003968,-0.000248,0,0.000000,0.000000,0.000000,0.183350,-0.071320,0.000000,0.000000,0.000000,0.007000,FlatInitial
03:15:30.568 PM 02/13/2016,Teleop Disabled,0,FALSE,0,NO ERROR,0.000000,0.000000,0.000000,0.000000,Speed,Speed,0.080000,0.390000,2.650000,0.000000,101.000000,1,0,-0.003968,-0.000248,0,0.000000,0.000000,0.000000,0.183350,-0.071320,0.000000,0.000000,0.000000,0.007000,FlatInitial
03:15:30.668 PM 02/13/2016,Teleop Disabled,0,FALSE,0,NO ERROR,0.000000,0.000000,0.000000,0.000000,Speed,Speed,0.080000,0.390000,2.650000,0.000000,102.000000,1,0,-0.003968,-0.000248,0,0.000000,0.000000,0.000000,0.183350,-0.071320,0.000000,0.000000,0.000000,0.007000,FlatInitial
03:15:30.767 PM 02/13/2016,Teleop Disabled,0,FALSE,0,NO ERROR,0.000000,0.000000,0.000000,0.000000,Speed,Speed,0.080000,0.390000,2.650000,0.000000,101.000000,1,0,-0.003968,-0.000248,0,0.000000,0.000000,0.000000,0.183350,-0.071320,0.000000,0.000000,0.000000,0.007000,FlatInitial
03:15:30.868 PM 02/13/2016,Teleop Disabled,0,FALSE,0,NO ERROR,0.000000,0.000000,0.000000,0.000000,Speed,Speed,0.080000,0.390000,2.650000,0.000000,102.000000,1,0,-0.003968,-0.000248,0,0.000000,0.000000,0.000000,0.183350,-0.071320,0.000000,0.000000,0.000000,0.007000,FlatInitial
03:15:30.968 PM 02/13/2016,Teleop Disabled,0,FALSE,0,NO ERROR,0.000000,0.000000,0.000000,0.000000,Speed,Speed,0.080000,0.390000,2.650000,0.000000,102.000000,1,0,-0.003968,-0.000248,0,0.000000,0.000000,0.000000,0.183350,-0.071320,0.000000,0.000000,0.000000,0.007000,FlatInitial
03:15:31.068 PM 02/13/2016,Teleop Disabled,0,FALSE,0,NO ERROR,0.000000,0.000000,0.000000,0.000000,Speed,Speed,0.080000,0.390000,2.650000,0.000000,100.000000,1,0,-0.003968,-0.000248,0,0.000000,0.000000,0.000000,0.183350,-0.071320,0.000000,0.000000,0.000000,0.007000,FlatInitial
03:15:31.168 PM 02/13/2016,Teleop Disabled,0,FALSE,0,NO ERROR,0.000000,0.000000,0.000000,0.000000,Speed,Speed,0.080000,0.390000,2.650000,0.000000,102.000000,1,0,-0.003968,-0.000248,0,0.000000,0.000000,0.000000,0.183350,-0.071320,0.000000,0.000000,0.000000,0.007000,FlatInitial
03:15:31.268 PM 02/13/2016,Teleop Disabled,0,FALSE,0,NO ERROR,0.000000,0.000000,0.000000,0.000000,Speed,Speed,0.080000,0.390000,2.650000,0.000000,101.000000,1,0,-0.003968,-0.000248,0,0.000000,0.000000,0.000000,0.183350,-0.071320,0.000000,0.000000,0.000000,0.007000,FlatInitial
03:15:31.368 PM 02/13/2016,Teleop Disabled,0,FALSE,0,NO ERROR,0.000000,0.000000,0.000000,0.000000,Speed,Speed,0.080000,0.390000,2.650000,0.000000,104.000000,1,0,-0.003968,-0.000248,0,0.000000,0.000000,0.000000,0.183350,-0.071320,0.000000,0.000000,0.000000,0.007000,FlatInitial
03:15:31.468 PM 02/13/2016,Teleop Disabled,0,FALSE,0,NO ERROR,0.000000,0.000000,0.000000,0.000000,Speed,Speed,0.080000,0.390000,2.650000,0.000000,102.000000,1,0,-0.003968,-0.000248,0,0.000000,0.000000,0.000000,0.183350,-0.071320,0.000000,0.000000,0.000000,0.007000,FlatInitial
03:15:31.568 PM 02/13/2016,Teleop Disabled,0,FALSE,0,NO ERROR,0.000000,0.000000,-6000.000000,-6000.000000,Speed,Speed,0.080000,0.390000,2.650000,1.000000,101.000000,1,0,-0.003968,-0.000248,0,0.000000,0.000000,0.000000,0.183350,-0.071320,0.000000,0.000000,0.000000,0.007000,FlatInitial
03:15:31.667 PM 02/13/2016,Teleop Disabled,0,FALSE,0,NO ERROR,0.000000,0.000000,0.000000,0.000000,Speed,Speed,0.080000,0.390000,2.650000,2.000000,100.000000,1,0,-0.003968,-0.000248,0,0.000000,0.000000,0.000000,0.183350,-0.071320,0.000000,0.000000,0.000000,0.007000,FlatInitial
03:15:31.768 PM 02/13/2016,Teleop Disabled,0,FALSE,0,NO ERROR,0.000000,0.000000,0.000000,0.000000,Speed,Speed,0.080000,0.390000,2.650000,2.000000,103.000000,1,0,-0.003968,-0.000248,0,0.000000,0.000000,0.000000,0.183350,-0.071320,0.000000,0.000000,0.000000,0.007000,FlatInitial
03:15:31.869 PM 02/13/2016,Teleop Disabled,0,FALSE,0,NO ERROR,0.000000,0.000000,0.000000,0.000000,Speed,Speed,0.080000,0.390000,2.650000,2.000000,101.000000,1,0,-0.003968,-0.000248,0,0.000000,0.000000,0.000000,0.183350,-0.071320,0.000000,0.000000,0.000000,0.007000,FlatInitial
03:15:31.970 PM 02/13/2016,Teleop Disabled,0,FALSE,0,NO ERROR,0.000000,0.000000,0.000000,0.000000,Speed,Speed,0.080000,0.390000,2.650000,2.000000,101.000000,1,0,-0.003968,-0.000248,0,0.000000,0.000000,0.000000,0.183350,-0.071320,0.000000,0.000000,0.000000,0.007000,FlatInitial
03:15:32.069 PM 02/13/2016,Teleop Disabled,0,FALSE,0,NO ERROR,0.000000,0.000000,0.000000,0.000000,Speed,Speed,0.080000,0.390000,2.650000,2.000000,102.000000,1,0,-0.003968,-0.000248,0,0.000000,0.000000,0.000000,0.183350,-0.071320,0.000000,0.000000,0.000000,0.007000,FlatInitial
03:15:32.170 PM 02/13/2016,Teleop Disabled,0,FALSE,0,NO ERROR,0.000000,0.000000,0.000000,0.000000,Speed,Speed,0.080000,0.390000,2.650000,2.000000,102.000000,1,0,-0.003968,-0.000248,0,0.000000,0.000000,0.000000,0.183350,-0.071320,0.000000,0.000000,0.000000,0.007000,FlatInitial
03:15:32.270 PM 02/13/2016,Teleop Disabled,0,FALSE,0,NO ERROR,0.000000,0.000000,0.000000,0.000000,Speed,Speed,0.080000,0.390000,2.650000,2.000000,101.000000,1,0,-0.003968,-0.000248,0,0.000000,0.000000,0.000000,0.183350,-0.071320,0.000000,0.000000,0.000000,0.007000,FlatInitial
03:15:32.370 PM 02/13/2016,Teleop Disabled,0,FALSE,0,NO ERROR,0.000000,0.000000,0.000000,0.000000,Speed,Speed,0.080000,0.390000,2.650000,2.000000,102.000000,1,0,-0.003968,-0.000248,0,0.000000,0.000000,0.000000,0.183350,-0.071320,0.000000,0.000000,0.000000,0.007000,FlatInitial
03:15:32.470 PM 02/13/2016,Teleop Disabled,0,FALSE,0,NO ERROR,0.000000,0.000000,0.000000,0.000000,Speed,Speed,0.080000,0.390000,2.650000,2.000000,103.000000,1,0,-0.003968,-0.000248,0,0.000000,0.000000,0.000000,0.183350,-0.071320,0.000000,0.000000,0.000000,0.007000,FlatInitial
03:15:32.570 PM 02/13/2016,Teleop Disabled,0,FALSE,0,NO ERROR,0.000000,0.000000,0.000000,0.000000,Speed,Speed,0.080000,0.390000,2.650000,2.000000,102.000000,1,0,-0.003968,-0.000248,0,0.000000,0.000000,0.000000,0.183350,-0.071320,0.000000,0.000000,0.000000,0.007000,FlatInitial
03:15:32.670 PM 02/13/2016,Teleop Disabled,0,FALSE,0,NO ERROR,0.000000,0.000000,0.000000,0.000000,Speed,Speed,0.080000,0.390000,2.650000,2.000000,102.000000,1,0,-0.003968,-0.000248,0,0.000000,0.000000,0.000000,0.183350,-0.071320,0.000000,0.000000,0.000000,0.007000,FlatInitial
03:15:32.770 PM 02/13/2016,Teleop Disabled,0,FALSE,0,NO ERROR,0.000000,0.000000,0.000000,0.000000,Speed,Speed,0.080000,0.390000,2.650000,2.000000,101.000000,1,0,-0.003968,-0.000248,0,0.000000,0.000000,0.000000,0.183350,-0.071320,0.000000,0.000000,0.000000,0.007000,FlatInitial
03:15:32.870 PM 02/13/2016,Teleop Disabled,0,FALSE,0,NO ERROR,0.000000,0.000000,4000.000000,4000.000000,Speed,Speed,0.080000,0.390000,2.650000,3.000000,103.000000,1,0,-0.003968,-0.000248,0,0.000000,0.000000,0.000000,0.183350,-0.071320,0.000000,0.000000,0.000000,0.007000,FlatInitial
03:15:32.971 PM 02/13/2016,Teleop Disabled,0,FALSE,0,NO ERROR,0.000000,0.000000,4000.000000,4000.000000,Speed,Speed,0.080000,0.390000,2.650000,3.000000,104.000000,1,0,-0.003968,-0.000248,0,0.000000,0.000000,0.000000,0.183350,-0.071320,0.000000,0.000000,0.000000,0.007000,FlatInitial
03:15:33.072 PM 02/13/2016,Teleop Disabled,0,FALSE,0,NO ERROR,0.000000,0.000000,4000.000000,4000.000000,Speed,Speed,0.080000,0.390000,2.650000,3.000000,101.000000,1,0,-0.003968,-0.000248,0,0.000000,0.000000,0.000000,0.183350,-0.071320,0.000000,0.000000,0.000000,0.007000,FlatInitial
03:15:33.173 PM 02/13/2016,Teleop Disabled,0,FALSE,0,NO ERROR,0.000000,0.000000,4000.000000,4000.000000,Speed,Speed,0.080000,0.390000,2.650000,3.000000,103.000000,1,0,-0.003968,-0.000248,0,0.000000,0.000000,0.000000,0.183350,-0.071320,0.000000,0.000000,0.000000,0.007000,FlatInitial
03:15:33.277 PM 02/13/2016,Teleop Disabled,0,TRUE,-44003,<LOCATION>WPI_CameraIssue HTTP Request with Authentication.vi<CALLSTACK>WPI_CameraIssue HTTP Request with Authentication.vi< <WPI_CameraIssue Get.vi< <WPI_CameraSet Image Appearance Property.vi< <WPI_CameraSet Image Size.vi< <Vision Processing.vi< <Robot Main.vi,0.000000,0.000000,4000.000000,4000.000000,Speed,Speed,0.080000,0.390000,2.650000,3.000000,104.000000,1,0,-0.003968,-0.000248,0,0.000000,0.000000,0.000000,0.183350,-0.071320,0.000000,0.000000,0.000000,0.007000,FlatInitial
03:15:33.379 PM 02/13/2016,Teleop Disabled,0,FALSE,0,NO ERROR,0.000000,0.000000,4000.000000,4000.000000,Speed,Speed,0.000000,0.400000,2.630000,3.000000,101.000000,1,0,-0.003968,-0.000248,0,0.000000,0.000000,0.000000,0.183350,-0.071320,0.000000,0.001000,0.001000,0.008000,FlatInitial
03:15:33.481 PM 02/13/2016,Teleop Disabled,0,FALSE,0,NO ERROR,0.000000,0.000000,4000.000000,4000.000000,Speed,Speed,0.000000,0.400000,2.630000,3.000000,102.000000,1,0,-0.003968,-0.000248,0,0.000000,0.000000,0.000000,0.183350,-0.071320,0.000000,0.001000,0.000000,0.009000,FlatInitial
03:15:33.582 PM 02/13/2016,Teleop Disabled,0,FALSE,0,NO ERROR,0.000000,0.000000,4000.000000,4000.000000,Speed,Speed,0.000000,0.400000,2.630000,3.000000,102.000000,1,0,-0.003968,-0.000248,0,0.000000,0.000000,0.000000,0.183350,-0.071320,0.000000,-0.001000,0.000000,0.005000,FlatInitial
03:15:33.683 PM 02/13/2016,Teleop Disabled,0,FALSE,0,NO ERROR,0.000000,0.000000,4000.000000,4000.000000,Speed,Speed,0.000000,0.390000,2.630000,3.000000,102.000000,1,0,-0.003968,-0.000248,0,0.000000,0.000000,0.000000,0.183350,-0.071320,0.000000,-0.001000,-0.003000,0.006000,FlatInitial
03:15:33.783 PM 02/13/2016,Teleop Disabled,0,FALSE,0,NO ERROR,0.000000,0.000000,4000.000000,4000.000000,Speed,Speed,0.000000,0.400000,2.630000,3.000000,101.000000,1,0,-0.003968,-0.000248,0,0.000000,0.000000,0.000000,0.183350,-0.071320,0.000000,0.002000,0.001000,0.008000,FlatInitial
03:15:33.883 PM 02/13/2016,Teleop Disabled,0,FALSE,0,NO ERROR,0.000000,0.000000,4000.000000,4000.000000,Speed,Speed,0.000000,0.390000,2.630000,3.000000,101.000000,1,0,-0.003968,-0.000248,0,0.000000,0.000000,0.000000,0.183350,-0.071320,0.000000,0.000000,0.000000,0.005000,FlatInitial
03:15:33.985 PM 02/13/2016,Teleop Disabled,0,FALSE,0,NO ERROR,0.000000,0.000000,4000.000000,4000.000000,Speed,Speed,0.000000,0.390000,2.630000,3.000000,101.000000,1,0,-0.003968,-0.000248,0,0.000000,0.000000,0.000000,0.183350,-0.071320,0.000000,0.000000,-0.001000,0.005000,FlatInitial
03:15:34.085 PM 02/13/2016,Teleop Disabled,0,FALSE,0,NO ERROR,0.000000,0.000000,4000.000000,4000.000000,Speed,Speed,0.000000,0.400000,2.630000,3.000000,102.000000,1,0,-0.003968,-0.000248,0,0.000000,0.000000,0.000000,0.183350,-0.071320,0.000000,0.000000,-0.002000,0.009000,FlatInitial
03:15:34.186 PM 02/13/2016,Teleop Disabled,0,FALSE,0,NO ERROR,0.000000,0.000000,4000.000000,4000.000000,Speed,Speed,0.000000,0.400000,2.630000,3.000000,101.000000,1,0,-0.003968,-0.000248,0,0.000000,0.000000,0.000000,0.183350,-0.071320,0.000000,-0.001000,0.000000,0.005000,FlatInitial
03:15:34.287 PM 02/13/2016,Teleop Disabled,0,FALSE,0,NO ERROR,0.000000,0.000000,4000.000000,4000.000000,Speed,Speed,0.000000,0.400000,2.630000,3.000000,102.000000,1,0,-0.003968,-0.000248,0,0.000000,0.000000,0.000000,0.183350,-0.071320,0.000000,-0.001000,0.000000,0.009000,FlatInitial
03:15:34.387 PM 02/13/2016,Teleop Disabled,0,FALSE,0,NO ERROR,0.000000,0.000000,4000.000000,4000.000000,Speed,Speed,0.000000,0.390000,2.630000,3.000000,101.000000,1,0,-0.003968,-0.000248,0,0.000000,0.000000,0.000000,0.183350,-0.071320,0.000000,0.002000,0.001000,0.007000,FlatInitial
03:15:34.487 PM 02/13/2016,Teleop Disabled,0,FALSE,0,NO ERROR,0.000000,0.000000,4000.000000,4000.000000,Speed,Speed,0.000000,0.390000,2.630000,3.000000,101.000000,1,0,-0.003968,-0.000248,0,0.000000,0.000000,0.000000,0.183350,-0.071320,0.000000,0.000000,0.001000,0.006000,FlatInitial
03:15:34.588 PM 02/13/2016,Teleop Disabled,0,FALSE,0,NO ERROR,0.000000,0.000000,4000.000000,4000.000000,Speed,Speed,0.000000,0.390000,2.630000,3.000000,102.000000,1,0,-0.003968,-0.000248,0,0.000000,0.000000,0.000000,0.183350,-0.071320,0.000000,0.000000,0.001000,0.005000,FlatInitial
03:15:34.689 PM 02/13/2016,Teleop Disabled,0,FALSE,0,NO ERROR,0.000000,0.000000,4000.000000,4000.000000,Speed,Speed,0.000000,0.390000,2.630000,3.000000,101.000000,1,0,-0.003968,-0.000248,0,0.000000,0.000000,0.000000,0.183350,-0.071320,0.000000,0.001000,0.000000,0.006000,FlatInitial
03:15:34.788 PM 02/13/2016,Teleop Disabled,0,FALSE,0,NO ERROR,0.000000,0.000000,4000.000000,4000.000000,Speed,Speed,0.000000,0.390000,2.630000,3.000000,101.000000,1,0,-0.003968,-0.000248,0,0.000000,0.000000,0.000000,0.183350,-0.071320,0.000000,-0.001000,0.000000,0.005000,FlatInitial
03:15:34.889 PM 02/13/2016,Teleop Disabled,0,FALSE,0,NO ERROR,0.000000,0.000000,4000.000000,4000.000000,Speed,Speed,0.000000,0.390000,2.630000,3.000000,107.000000,1,0,-0.003968,-0.000248,0,0.000000,0.000000,0.000000,0.183350,-0.071320,0.000000,0.000000,-0.001000,0.005000,FlatInitial
03:15:34.989 PM 02/13/2016,Teleop Disabled,0,FALSE,0,NO ERROR,0.000000,0.000000,4000.000000,4000.000000,Speed,Speed,0.000000,0.390000,2.630000,3.000000,101.000000,1,0,-0.003968,-0.000248,0,0.000000,0.000000,0.000000,0.183350,-0.071320,0.000000,0.000000,0.000000,0.009000,FlatInitial
03:15:35.089 PM 02/13/2016,Teleop Disabled,0,FALSE,0,NO ERROR,0.000000,0.000000,4000.000000,4000.000000,Speed,Speed,0.000000,0.390000,2.630000,3.000000,102.000000,1,0,-0.003968,-0.000248,0,0.000000,0.000000,0.000000,0.183350,-0.071320,0.000000,0.000000,-0.001000,0.006000,FlatInitial
03:15:35.189 PM 02/13/2016,Teleop Disabled,0,FALSE,0,NO ERROR,0.000000,0.000000,4000.000000,4000.000000,Speed,Speed,0.000000,0.390000,2.630000,3.000000,105.000000,1,0,-0.003968,-0.000248,0,0.000000,0.000000,0.000000,0.183350,-0.071320,0.000000,-0.002000,-0.001000,0.007000,FlatInitial
03:15:35.289 PM 02/13/2016,Teleop Disabled,0,FALSE,0,NO ERROR,0.000000,0.000000,4000.000000,4000.000000,Speed,Speed,0.000000,0.390000,2.630000,3.000000,102.000000,1,0,-0.003968,-0.000248,0,0.000000,0.000000,0.000000,0.183350,-0.071320,0.000000,0.000000,0.000000,0.007000,FlatInitial
03:15:35.389 PM 02/13/2016,Teleop Disabled,0,FALSE,0,NO ERROR,0.000000,0.000000,4000.000000,4000.000000,Speed,Speed,0.000000,0.390000,2.630000,3.000000,102.000000,1,0,-0.003968,-0.000248,0,0.000000,0.000000,0.000000,0.183350,-0.071320,0.000000,0.000000,0.000000,0.002000,FlatInitial
03:15:35.489 PM 02/13/2016,Teleop Disabled,0,FALSE,0,NO ERROR,0.000000,0.000000,4000.000000,4000.000000,Speed,Speed,0.000000,0.390000,2.630000,3.000000,101.000000,1,0,-0.003968,-0.000248,0,0.000000,0.000000,0.000000,0.183350,-0.071320,0.000000,0.000000,0.002000,0.003000,FlatInitial
03:15:35.589 PM 02/13/2016,Teleop Disabled,0,FALSE,0,NO ERROR,0.000000,0.000000,4000.000000,4000.000000,Speed,Speed,0.000000,0.390000,2.630000,3.000000,102.000000,1,0,-0.003968,-0.000248,0,0.000000,0.000000,0.000000,0.183350,-0.071320,0.000000,-0.001000,0.001000,0.002000,FlatInitial
03:15:35.689 PM 02/13/2016,Teleop Disabled,0,FALSE,0,NO ERROR,0.000000,0.000000,4000.000000,4000.000000,Speed,Speed,0.000000,0.390000,2.630000,3.000000,101.000000,1,0,-0.003968,-0.000248,0,0.000000,0.000000,0.000000,0.183350,-0.071320,0.000000,0.000000,0.000000,0.010000,FlatInitial
03:15:35.789 PM 02/13/2016,Teleop Disabled,0,FALSE,0,NO ERROR,0.000000,0.000000,4000.000000,4000.000000,Speed,Speed,0.000000,0.390000,2.630000,3.000000,103.000000,1,0,-0.003968,-0.000248,0,0.000000,0.000000,0.000000,0.183350,-0.071320,0.000000,0.001000,0.002000,0.005000,FlatInitial
03:15:35.888 PM 02/13/2016,Teleop Disabled,0,FALSE,0,NO ERROR,0.000000,0.000000,4000.000000,4000.000000,Speed,Speed,0.000000,0.390000,2.630000,3.000000,103.000000,1,0,-0.003968,-0.000248,0,0.000000,0.000000,0.000000,0.183350,-0.071320,0.000000,0.000000,0.000000,0.010000,FlatInitial
03:15:35.989 PM 02/13/2016,Teleop Disabled,0,FALSE,0,NO ERROR,0.000000,0.000000,4000.000000,4000.000000,Speed,Speed,0.000000,0.390000,2.630000,3.000000,101.000000,1,0,-0.003968,-0.000248,0,0.000000,0.000000,0.000000,0.183350,-0.071320,0.000000,0.000000,0.001000,0.007000,FlatInitial
03:15:36.090 PM 02/13/2016,Teleop Disabled,0,FALSE,0,NO ERROR,0.000000,0.000000,4000.000000,4000.000000,Speed,Speed,0.000000,0.390000,2.630000,3.000000,102.000000,1,0,-0.003968,-0.000248,0,0.000000,0.000000,0.000000,0.183350,-0.071320,0.000000,-0.001000,0.002000,0.000000,FlatInitial
03:15:36.190 PM 02/13/2016,Teleop Disabled,0,FALSE,0,NO ERROR,0.000000,0.000000,4000.000000,4000.000000,Speed,Speed,0.000000,0.390000,2.630000,3.000000,101.000000,1,0,-0.003968,-0.000248,0,0.000000,0.000000,0.000000,0.183350,-0.071320,0.000000,0.000000,0.000000,0.007000,FlatInitial
03:15:36.290 PM 02/13/2016,Teleop Disabled,0,FALSE,0,NO ERROR,0.000000,0.000000,4000.000000,4000.000000,Speed,Speed,0.000000,0.390000,2.630000,3.000000,102.000000,1,0,-0.003968,-0.000248,0,0.000000,0.000000,0.000000,0.183350,-0.071320,0.000000,0.000000,0.001000,0.008000,FlatInitial
03:15:36.390 PM 02/13/2016,Teleop Disabled,0,FALSE,0,NO ERROR,0.000000,0.000000,4000.000000,4000.000000,Speed,Speed,0.000000,0.390000,2.630000,3.000000,101.000000,1,0,-0.003968,-0.000248,0,0.000000,0.000000,0.000000,0.183350,-0.071320,0.000000,0.000000,0.000000,0.004000,FlatInitial
03:15:36.490 PM 02/13/2016,Teleop Disabled,0,FALSE,0,NO ERROR,0.000000,0.000000,4000.000000,4000.000000,Speed,Speed,0.000000,0.390000,2.630000,3.000000,101.000000,1,0,-0.003968,-0.000248,0,0.000000,0.000000,0.000000,0.183350,-0.071320,0.000000,0.001000,-0.001000,0.008000,FlatInitial
03:15:36.591 PM 02/13/2016,Teleop Disabled,0,FALSE,0,NO ERROR,0.000000,0.000000,4000.000000,4000.000000,Speed,Speed,0.000000,0.390000,2.630000,3.000000,104.000000,1,0,-0.003968,-0.000248,0,0.000000,0.000000,0.000000,0.183350,-0.071320,0.000000,0.000000,-0.002000,0.009000,FlatInitial
03:15:36.690 PM 02/13/2016,Teleop Disabled,0,FALSE,0,NO ERROR,0.000000,0.000000,4000.000000,4000.000000,Speed,Speed,0.000000,0.390000,2.630000,3.000000,100.000000,1,0,-0.003968,-0.000248,0,0.000000,0.000000,0.000000,0.183350,-0.071320,0.000000,0.000000,0.001000,0.008000,FlatInitial
03:15:36.791 PM 02/13/2016,Teleop Disabled,0,FALSE,0,NO ERROR,0.000000,0.000000,4000.000000,4000.000000,Speed,Speed,0.000000,0.390000,2.630000,3.000000,102.000000,1,0,-0.003968,-0.000248,0,0.000000,0.000000,0.000000,0.183350,-0.071320,0.000000,0.000000,0.003000,0.007000,FlatInitial
03:15:36.891 PM 02/13/2016,Teleop Disabled,0,FALSE,0,NO ERROR,0.000000,0.000000,4000.000000,4000.000000,Speed,Speed,0.000000,0.390000,2.630000,3.000000,101.000000,1,0,-0.003968,-0.000248,0,0.000000,0.000000,0.000000,0.183350,-0.071320,0.000000,0.000000,-0.001000,0.008000,FlatInitial
03:15:36.992 PM 02/13/2016,Teleop Disabled,0,FALSE,0,NO ERROR,0.000000,0.000000,4000.000000,4000.000000,Speed,Speed,0.000000,0.390000,2.630000,3.000000,102.000000,1,0,-0.003968,-0.000248,0,0.000000,0.000000,0.000000,0.183350,-0.071320,0.000000,0.002000,-0.001000,0.009000,FlatInitial
03:15:37.093 PM 02/13/2016,Teleop Disabled,0,FALSE,0,NO ERROR,0.000000,0.000000,4000.000000,4000.000000,Speed,Speed,0.000000,0.390000,2.630000,3.000000,102.000000,1,0,-0.003968,-0.000248,0,0.000000,0.000000,0.000000,0.183350,-0.071320,0.000000,-0.001000,-0.001000,0.009000,FlatInitial
03:15:37.192 PM 02/13/2016,Teleop Disabled,0,FALSE,0,NO ERROR,0.000000,0.000000,4000.000000,4000.000000,Speed,Speed,0.000000,0.390000,2.630000,3.000000,102.000000,1,0,-0.003968,-0.000248,0,0.000000,0.000000,0.000000,0.183350,-0.071320,0.000000,0.000000,-0.001000,0.007000,FlatInitial
03:15:37.294 PM 02/13/2016,Teleop Disabled,0,FALSE,0,NO ERROR,0.000000,0.000000,4000.000000,4000.000000,Speed,Speed,0.000000,0.390000,2.630000,3.000000,104.000000,1,0,-0.003968,-0.000248,0,0.000000,0.000000,0.000000,0.183350,-0.071320,0.000000,0.000000,0.002000,0.002000,FlatInitial
03:15:37.395 PM 02/13/2016,Teleop Disabled,0,FALSE,0,NO ERROR,0.000000,0.000000,4000.000000,4000.000000,Speed,Speed,0.000000,0.380000,2.620000,3.000000,103.000000,1,0,-0.003968,-0.000248,0,0.000000,0.000000,0.000000,0.183350,-0.071320,0.000000,0.000000,0.000000,0.011000,FlatInitial
03:15:37.494 PM 02/13/2016,Teleop Disabled,0,FALSE,0,NO ERROR,0.000000,0.000000,4000.000000,4000.000000,Speed,Speed,0.000000,0.380000,2.620000,3.000000,101.000000,1,0,-0.003968,-0.000248,0,0.000000,0.000000,0.000000,0.183350,-0.071320,0.000000,-0.001000,0.000000,0.003000,FlatInitial
03:15:37.595 PM 02/13/2016,Teleop Enabled,0,FALSE,0,NO ERROR,0.000000,0.000000,4000.000000,4000.000000,Speed,Speed,-0.010000,0.380000,2.610000,3.000000,102.000000,1,0,-0.003968,-0.000248,0,0.000000,0.000000,0.000000,0.183350,-0.071320,0.000000,0.002000,0.004000,0.000000,FlatInitial
03:15:37.695 PM 02/13/2016,Teleop Enabled,0,FALSE,0,NO ERROR,0.000000,0.000000,4000.000000,4000.000000,Speed,Speed,0.000000,0.390000,2.630000,3.000000,102.000000,1,0,-0.003968,-0.000248,0,0.000000,0.000000,0.000000,0.183350,-0.071320,0.000000,0.000000,-0.009000,0.033000,FlatInitial
03:15:37.795 PM 02/13/2016,Teleop Enabled,0,FALSE,0,NO ERROR,0.000000,0.000000,4000.000000,4000.000000,Speed,Speed,-0.010000,0.380000,2.620000,3.000000,103.000000,1,0,-0.003968,-0.000248,0,0.000000,0.000000,0.000000,0.183350,-0.071320,0.000000,-0.007000,0.001000,0.022000,FlatInitial
03:15:37.895 PM 02/13/2016,Teleop Enabled,0,FALSE,0,NO ERROR,0.000000,0.000000,4000.000000,4000.000000,Speed,Speed,-0.010000,0.380000,2.630000,3.000000,101.000000,1,0,-0.003968,-0.000248,0,0.000000,0.000000,0.000000,0.183350,-0.071320,0.000000,-0.002000,0.002000,0.010000,FlatInitial
03:15:37.996 PM 02/13/2016,Teleop Enabled,0,FALSE,0,NO ERROR,0.000000,0.000000,4000.000000,4000.000000,Speed,Speed,-0.010000,0.380000,2.630000,3.000000,102.000000,1,0,-0.003968,-0.000248,0,0.000000,0.000000,0.000000,0.183350,-0.071320,0.000000,-0.002000,0.002000,0.010000,FlatInitial
03:15:38.097 PM 02/13/2016,Teleop Enabled,0,FALSE,0,NO ERROR,0.000000,0.000000,4000.000000,4000.000000,Speed,Speed,-0.010000,0.380000,2.630000,3.000000,100.000000,1,0,-0.003968,-0.000248,0,0.000000,0.000000,0.000000,0.183350,-0.071320,0.000000,0.002000,0.005000,0.007000,FlatInitial
03:15:38.196 PM 02/13/2016,Teleop Enabled,0,FALSE,0,NO ERROR,0.000000,0.000000,4000.000000,4000.000000,Speed,Speed,-0.010000,0.390000,2.630000,3.000000,101.000000,1,0,-0.003968,-0.000248,0,0.000000,0.000000,0.000000,0.183350,-0.071320,0.000000,0.002000,0.005000,0.007000,FlatInitial
03:15:38.298 PM 02/13/2016,Teleop Enabled,0,FALSE,0,NO ERROR,0.000000,0.000000,4000.000000,4000.000000,Speed,Speed,-0.010000,0.390000,2.630000,3.000000,105.000000,1,0,-0.003968,-0.000248,0,0.000000,0.000000,0.000000,0.183350,-0.071320,0.000000,-0.004000,-0.001000,0.009000,FlatInitial
03:15:38.398 PM 02/13/2016,Teleop Enabled,0,FALSE,0,NO ERROR,0.000000,0.000000,4000.000000,4000.000000,Speed,Speed,-0.010000,0.390000,2.630000,3.000000,101.000000,1,0,-0.003968,-0.000248,0,0.000000,0.000000,0.000000,0.183350,-0.071320,0.000000,-0.003000,-0.001000,0.009000,FlatInitial
03:15:38.498 PM 02/13/2016,Teleop Enabled,0,FALSE,0,NO ERROR,0.000000,0.000000,4000.000000,4000.000000,Speed,Speed,0.000000,0.380000,2.620000,3.000000,103.000000,1,0,-0.003968,-0.000248,0,0.000000,0.000000,0.000000,0.183350,-0.071320,0.000000,0.000000,0.000000,0.004000,FlatInitial
03:15:38.600 PM 02/13/2016,Teleop Enabled,0,FALSE,0,NO ERROR,0.000000,0.000000,4000.000000,4000.000000,Speed,Speed,-0.010000,0.370000,2.620000,3.000000,103.000000,1,0,-0.003968,-0.000248,0,0.000000,0.000000,0.000000,0.183350,-0.071320,0.000000,0.002000,-0.002000,0.005000,FlatInitial
03:15:38.700 PM 02/13/2016,Teleop Enabled,0,FALSE,0,NO ERROR,0.000000,0.000000,4000.000000,4000.000000,Speed,Speed,-0.010000,0.370000,2.620000,3.000000,103.000000,1,0,-0.003968,-0.000248,0,0.000000,0.000000,0.000000,0.183350,-0.071320,0.000000,0.000000,0.000000,0.007000,FlatInitial
03:15:38.800 PM 02/13/2016,Teleop Enabled,0,FALSE,0,NO ERROR,0.000000,0.000000,4000.000000,4000.000000,Speed,Speed,-0.010000,0.380000,2.620000,3.000000,103.000000,1,0,-0.003968,-0.000248,0,0.000000,0.000000,0.000000,0.183350,-0.071320,0.000000,0.003000,0.000000,0.011000,FlatInitial
03:15:38.902 PM 02/13/2016,Teleop Enabled,0,FALSE,0,NO ERROR,0.000000,0.000000,4000.000000,4000.000000,Speed,Speed,0.000000,0.370000,2.610000,3.000000,102.000000,1,0,-0.003968,-0.000248,0,0.000000,0.000000,0.000000,0.183350,-0.071320,0.000000,0.000000,-0.001000,0.004000,FlatInitial
03:15:39.002 PM 02/13/2016,Teleop Enabled,0,FALSE,0,NO ERROR,0.000000,0.000000,4000.000000,4000.000000,Speed,Speed,0.000000,0.370000,2.610000,3.000000,101.000000,1,0,-0.003968,-0.000248,0,0.000000,0.000000,0.000000,0.183350,-0.071320,0.000000,0.007000,-0.014000,0.087000,FlatInitial
03:15:39.102 PM 02/13/2016,Teleop Enabled,0,FALSE,0,NO ERROR,0.000000,0.000000,4000.000000,4000.000000,Speed,Speed,-0.010000,0.380000,2.610000,3.000000,102.000000,1,0,-0.003968,-0.000248,0,0.000000,0.000000,0.000000,0.183487,-0.071320,0.000000,-0.011000,-0.006000,0.019000,FlatInitial
03:15:39.204 PM 02/13/2016,Teleop Enabled,0,FALSE,0,NO ERROR,0.000000,0.000000,4000.000000,4000.000000,Speed,Speed,-0.010000,0.380000,2.610000,3.000000,101.000000,1,0,-0.003968,-0.000248,0,0.000000,0.000000,0.000000,0.183487,-0.071320,0.000000,0.012000,0.000000,0.006000,FlatInitial
03:15:39.304 PM 02/13/2016,Teleop Enabled,0,FALSE,0,NO ERROR,0.000000,0.000000,4000.000000,4000.000000,Speed,Speed,-0.010000,0.380000,2.610000,3.000000,103.000000,1,0,-0.003968,-0.000248,0,0.000000,0.000000,0.000000,0.183487,-0.071320,0.000000,0.002000,0.004000,0.011000,FlatInitial
03:15:39.405 PM 02/13/2016,Teleop Enabled,0,FALSE,0,NO ERROR,0.000000,0.000000,4000.000000,4000.000000,Speed,Speed,-0.010000,0.380000,2.620000,3.000000,103.000000,1,0,-0.003968,-0.000248,0,0.000000,0.000000,0.000000,0.183487,-0.071320,0.000000,0.000000,0.006000,-0.004000,FlatInitial
03:15:39.506 PM 02/13/2016,Teleop Enabled,0,FALSE,0,NO ERROR,0.000000,0.000000,4000.000000,4000.000000,Speed,Speed,-0.010000,0.380000,2.610000,3.000000,108.000000,1,0,-0.003968,-0.000248,0,0.000000,0.000000,0.000000,0.183487,-0.071320,0.000000,-0.003000,0.001000,0.008000,FlatInitial
03:15:39.607 PM 02/13/2016,Teleop Enabled,0,FALSE,0,NO ERROR,0.000000,0.000000,4000.000000,4000.000000,Speed,Speed,-0.010000,0.380000,2.620000,3.000000,102.000000,1,0,-0.003968,-0.000248,0,0.000000,0.000000,0.000000,0.183487,-0.071320,0.000000,-0.004000,0.002000,0.007000,FlatInitial
03:15:39.706 PM 02/13/2016,Teleop Enabled,0,FALSE,0,NO ERROR,0.000000,0.000000,4000.000000,4000.000000,Speed,Speed,-0.010000,0.380000,2.620000,3.000000,102.000000,1,0,-0.003968,-0.000248,0,0.000000,0.000000,0.000000,0.183487,-0.071320,0.000000,-0.001000,-0.001000,0.013000,FlatInitial
03:15:39.807 PM 02/13/2016,Teleop Enabled,0,FALSE,0,NO ERROR,0.000000,0.000000,4000.000000,4000.000000,Speed,Speed,-0.010000,0.380000,2.620000,3.000000,104.000000,1,0,-0.003968,-0.000248,0,0.000000,0.000000,0.000000,0.183487,-0.071320,0.000000,-0.001000,-0.001000,0.008000,FlatInitial
03:15:39.907 PM 02/13/2016,Teleop Enabled,0,FALSE,0,NO ERROR,0.000000,0.000000,4000.000000,4000.000000,Speed,Speed,-0.010000,0.380000,2.610000,3.000000,104.000000,1,0,-0.003968,-0.000248,0,0.000000,0.000000,0.000000,0.183487,-0.071320,0.000000,0.000000,0.002000,0.008000,FlatInitial
03:15:40.008 PM 02/13/2016,Teleop Enabled,0,FALSE,0,NO ERROR,0.000000,0.000000,4000.000000,4000.000000,Speed,Speed,-0.010000,0.380000,2.620000,3.000000,102.000000,1,0,-0.003968,-0.000248,0,0.000000,0.000000,0.000000,0.183487,-0.071320,0.000000,0.000000,0.001000,0.010000,FlatInitial
03:15:40.108 PM 02/13/2016,Teleop Enabled,0,FALSE,0,NO ERROR,0.000000,0.000000,4000.000000,4000.000000,Speed,Speed,-0.010000,0.380000,2.620000,3.000000,102.000000,1,0,-0.003968,-0.000248,0,0.000000,0.000000,0.000000,0.183487,-0.071320,0.000000,0.002000,0.001000,0.006000,FlatInitial
03:15:40.208 PM 02/13/2016,Teleop Enabled,0,FALSE,0,NO ERROR,0.000000,0.000000,4000.000000,4000.000000,Speed,Speed,-0.010000,0.380000,2.620000,3.000000,103.000000,1,0,-0.003968,-0.000248,0,0.000000,0.000000,0.000000,0.183487,-0.071320,0.000000,0.001000,0.001000,0.005000,FlatInitial
03:15:40.309 PM 02/13/2016,Teleop Enabled,0,FALSE,0,NO ERROR,0.000000,0.000000,4000.000000,4000.000000,Speed,Speed,-0.010000,0.380000,2.610000,3.000000,105.000000,1,0,-0.003968,-0.000248,0,0.000000,0.000000,0.000000,0.183487,-0.071320,0.000000,0.000000,-0.002000,0.005000,FlatInitial
03:15:40.409 PM 02/13/2016,Teleop Enabled,0,FALSE,0,NO ERROR,0.000000,0.000000,4000.000000,4000.000000,Speed,Speed,0.000000,0.380000,2.610000,3.000000,100.000000,1,0,-0.003968,-0.000248,0,0.000000,0.000000,0.000000,0.183487,-0.071320,0.000000,0.001000,0.000000,0.004000,FlatInitial
03:15:40.510 PM 02/13/2016,Teleop Enabled,0,FALSE,0,NO ERROR,0.000000,0.000000,4000.000000,4000.000000,Speed,Speed,0.000000,0.380000,2.620000,3.000000,102.000000,1,0,-0.003968,-0.000248,0,0.000000,0.000000,0.000000,0.183487,-0.071320,0.000000,-0.002000,0.000000,0.010000,FlatInitial
03:15:40.611 PM 02/13/2016,Teleop Enabled,0,FALSE,0,NO ERROR,0.000000,0.000000,4000.000000,4000.000000,Speed,Speed,0.000000,0.380000,2.610000,3.000000,100.000000,1,0,-0.003968,-0.000248,0,0.000000,0.000000,0.000000,0.183487,-0.071320,0.000000,0.002000,0.001000,0.010000,FlatInitial
03:15:40.712 PM 02/13/2016,Teleop Enabled,0,FALSE,0,NO ERROR,0.000000,0.000000,4000.000000,4000.000000,Speed,Speed,-0.010000,0.380000,2.610000,3.000000,102.000000,1,0,-0.003968,-0.000248,0,0.000000,0.000000,0.000000,0.183487,-0.071320,0.000000,0.003000,-0.002000,0.005000,FlatInitial
03:15:40.813 PM 02/13/2016,Teleop Enabled,0,FALSE,0,NO ERROR,0.000000,0.000000,4000.000000,4000.000000,Speed,Speed,-0.010000,0.380000,2.610000,3.000000,101.000000,1,0,-0.003968,-0.000248,0,0.000000,0.000000,0.000000,0.183487,-0.071320,0.000000,-0.001000,0.000000,0.005000,FlatInitial
03:15:40.913 PM 02/13/2016,Teleop Enabled,0,FALSE,0,NO ERROR,0.000000,0.000000,4000.000000,4000.000000,Speed,Speed,0.000000,0.380000,2.620000,3.000000,104.000000,1,0,-0.003968,-0.000248,0,0.000000,0.000000,0.000000,0.183487,-0.071320,0.000000,-0.001000,-0.001000,0.013000,FlatInitial
03:15:41.012 PM 02/13/2016,Teleop Enabled,0,FALSE,0,NO ERROR,0.000000,0.000000,4000.000000,4000.000000,Speed,Speed,0.000000,0.380000,2.620000,3.000000,101.000000,1,0,-0.003968,-0.000248,0,0.000000,0.000000,0.000000,0.183487,-0.071320,0.000000,-0.001000,0.001000,0.011000,FlatInitial
03:15:41.112 PM 02/13/2016,Teleop Enabled,0,FALSE,0,NO ERROR,0.000000,0.000000,4000.000000,4000.000000,Speed,Speed,0.000000,0.380000,2.610000,3.000000,101.000000,1,0,-0.003968,-0.000248,0,0.000000,0.000000,0.000000,0.183487,-0.071320,0.000000,0.001000,-0.002000,0.008000,FlatInitial
03:15:41.215 PM 02/13/2016,Teleop Enabled,0,FALSE,0,NO ERROR,0.000000,0.000000,4000.000000,4000.000000,Speed,Speed,0.000000,0.380000,2.610000,3.000000,103.000000,1,0,-0.003968,-0.000248,0,0.000000,0.000000,0.000000,0.183487,-0.071320,0.000000,0.001000,0.001000,0.008000,FlatInitial
03:15:41.315 PM 02/13/2016,Teleop Enabled,0,FALSE,0,NO ERROR,0.000000,0.000000,4000.000000,4000.000000,Speed,Speed,0.000000,0.380000,2.610000,3.000000,103.000000,1,0,-0.003968,-0.000248,0,0.000000,0.000000,0.000000,0.183487,-0.071320,0.000000,0.000000,-0.001000,0.007000,FlatInitial
03:15:41.417 PM 02/13/2016,Teleop Enabled,0,FALSE,0,NO ERROR,0.000000,0.000000,4000.000000,4000.000000,Speed,Speed,0.000000,0.380000,2.610000,3.000000,102.000000,1,0,-0.003968,-0.000248,0,0.000000,0.000000,0.000000,0.183487,-0.071320,0.000000,0.002000,0.001000,0.004000,FlatInitial
03:15:41.518 PM 02/13/2016,Teleop Enabled,0,FALSE,0,NO ERROR,0.000000,0.000000,4000.000000,4000.000000,Speed,Speed,0.000000,0.380000,2.610000,3.000000,100.000000,1,0,-0.003968,-0.000248,0,0.000000,0.000000,0.000000,0.183487,-0.071320,0.000000,0.000000,0.001000,0.006000,FlatInitial
03:15:41.618 PM 02/13/2016,Teleop Enabled,0,FALSE,0,NO ERROR,0.000000,0.000000,4000.000000,4000.000000,Speed,Speed,0.000000,0.380000,2.610000,3.000000,101.000000,1,0,-0.003968,-0.000248,0,0.000000,0.000000,0.000000,0.183487,-0.071320,0.000000,0.001000,-0.001000,0.003000,FlatInitial
03:15:41.718 PM 02/13/2016,Teleop Enabled,0,FALSE,0,NO ERROR,0.000000,0.000000,4000.000000,4000.000000,Speed,Speed,0.000000,0.380000,2.610000,3.000000,101.000000,1,0,-0.003968,-0.000248,0,0.000000,0.000000,0.000000,0.183487,-0.071320,0.000000,-0.004000,0.001000,0.009000,FlatInitial
03:15:41.818 PM 02/13/2016,Teleop Enabled,0,FALSE,0,NO ERROR,0.000000,0.000000,4000.000000,4000.000000,Speed,Speed,0.000000,0.380000,2.610000,3.000000,101.000000,1,0,-0.003968,-0.000248,0,0.000000,0.000000,0.000000,0.183487,-0.071320,0.000000,0.000000,0.000000,0.009000,FlatInitial
03:15:41.918 PM 02/13/2016,Teleop Enabled,0,FALSE,0,NO ERROR,0.000000,0.000000,4000.000000,4000.000000,Speed,Speed,-0.010000,0.380000,2.610000,3.000000,104.000000,1,0,-0.003968,-0.000248,0,0.000000,0.000000,0.000000,0.183487,-0.071320,0.000000,0.001000,0.001000,0.004000,FlatInitial
03:15:42.019 PM 02/13/2016,Teleop Enabled,0,FALSE,0,NO ERROR,0.000000,0.000000,4000.000000,4000.000000,Speed,Speed,-0.010000,0.380000,2.610000,3.000000,103.000000,1,0,-0.003968,-0.000248,0,0.000000,0.000000,0.000000,0.183487,-0.071320,0.000000,0.000000,0.000000,0.010000,FlatInitial
03:15:42.118 PM 02/13/2016,Teleop Enabled,0,FALSE,0,NO ERROR,0.000000,0.000000,4000.000000,4000.000000,Speed,Speed,-0.010000,0.380000,2.610000,3.000000,102.000000,1,0,-0.003968,-0.000248,0,0.000000,0.000000,0.000000,0.183487,-0.071320,0.000000,0.000000,0.000000,0.006000,FlatInitial
03:15:42.219 PM 02/13/2016,Teleop Enabled,0,FALSE,0,NO ERROR,0.000000,0.000000,4000.000000,4000.000000,Speed,Speed,-0.010000,0.380000,2.610000,3.000000,103.000000,1,0,-0.003968,-0.000248,0,0.000000,0.000000,0.000000,0.183487,-0.071320,0.000000,0.000000,0.000000,0.008000,FlatInitial
03:15:42.321 PM 02/13/2016,Teleop Enabled,0,FALSE,0,NO ERROR,0.000000,0.000000,4000.000000,4000.000000,Speed,Speed,-0.010000,0.380000,2.620000,3.000000,102.000000,1,0,-0.003968,-0.000248,0,0.000000,0.000000,0.000000,0.183487,-0.071320,0.000000,0.002000,0.002000,0.004000,FlatInitial
03:15:42.421 PM 02/13/2016,Teleop Enabled,0,FALSE,0,NO ERROR,0.000000,0.000000,4000.000000,4000.000000,Speed,Speed,-0.010000,0.380000,2.620000,3.000000,104.000000,1,0,-0.003968,-0.000248,0,0.000000,0.000000,0.000000,0.183487,-0.071320,0.000000,0.000000,0.003000,0.011000,FlatInitial
03:15:42.522 PM 02/13/2016,Teleop Enabled,0,FALSE,0,NO ERROR,0.000000,0.000000,4000.000000,4000.000000,Speed,Speed,-0.010000,0.380000,2.620000,3.000000,101.000000,1,0,-0.003968,-0.000248,0,0.000000,0.000000,0.000000,0.183487,-0.071320,0.000000,0.000000,-0.001000,0.010000,FlatInitial
03:15:42.623 PM 02/13/2016,Teleop Enabled,0,FALSE,0,NO ERROR,0.000000,0.000000,4000.000000,4000.000000,Speed,Speed,-0.010000,0.380000,2.620000,3.000000,101.000000,1,0,-0.003968,-0.000248,0,0.000000,0.000000,0.000000,0.183487,-0.071320,0.000000,0.002000,0.001000,0.005000,FlatInitial
03:15:42.724 PM 02/13/2016,Teleop Enabled,0,FALSE,0,NO ERROR,0.000000,0.000000,4000.000000,4000.000000,Speed,Speed,-0.010000,0.390000,2.630000,3.000000,103.000000,1,0,-0.003968,-0.000248,0,0.000000,0.000000,0.000000,0.183487,-0.071320,0.000000,0.000000,0.001000,0.005000,FlatInitial
03:15:42.823 PM 02/13/2016,Teleop Enabled,0,FALSE,0,NO ERROR,0.000000,0.000000,4000.000000,4000.000000,Speed,Speed,-0.010000,0.390000,2.630000,3.000000,103.000000,1,0,-0.003968,-0.000248,0,0.000000,0.000000,0.000000,0.183487,-0.071320,0.000000,0.000000,0.000000,0.007000,FlatInitial
03:15:42.924 PM 02/13/2016,Teleop Disabled,0,FALSE,0,NO ERROR,0.000000,0.000000,4000.000000,4000.000000,Speed,Speed,-0.010000,0.390000,2.630000,3.000000,102.000000,1,0,-0.003968,-0.000248,0,0.000000,0.000000,0.000000,0.183487,-0.071320,0.000000,0.000000,0.002000,0.004000,FlatInitial
03:15:43.024 PM 02/13/2016,Teleop Disabled,0,FALSE,0,NO ERROR,0.000000,0.000000,4000.000000,4000.000000,Speed,Speed,-0.010000,0.390000,2.630000,3.000000,101.000000,1,0,-0.003968,-0.000248,0,0.000000,0.000000,0.000000,0.183487,-0.071320,0.000000,0.001000,-0.001000,0.001000,FlatInitial
03:15:43.124 PM 02/13/2016,Teleop Disabled,0,FALSE,0,NO ERROR,0.000000,0.000000,4000.000000,4000.000000,Speed,Speed,-0.020000,0.390000,2.630000,3.000000,102.000000,1,0,-0.003968,-0.000248,0,0.000000,0.000000,0.000000,0.183487,-0.071320,0.000000,0.000000,-0.002000,0.008000,FlatInitial
03:15:43.225 PM 02/13/2016,Teleop Disabled,0,FALSE,0,NO ERROR,0.000000,0.000000,4000.000000,4000.000000,Speed,Speed,-0.020000,0.380000,2.620000,3.000000,104.000000,1,0,-0.003968,-0.000248,0,0.000000,0.000000,0.000000,0.183487,-0.071320,0.000000,0.000000,0.001000,0.006000,FlatInitial
03:15:43.325 PM 02/13/2016,Teleop Disabled,0,FALSE,0,NO ERROR,0.000000,0.000000,4000.000000,4000.000000,Speed,Speed,-0.020000,0.380000,2.630000,3.000000,103.000000,1,0,-0.003968,-0.000248,0,0.000000,0.000000,0.000000,0.183487,-0.071320,0.000000,0.004000,-0.001000,0.008000,FlatInitial
03:15:43.426 PM 02/13/2016,Teleop Disabled,0,FALSE,0,NO ERROR,0.000000,0.000000,4000.000000,4000.000000,Speed,Speed,-0.010000,0.390000,2.630000,3.000000,107.000000,1,0,-0.003968,-0.000248,0,0.000000,0.000000,0.000000,0.183487,-0.071320,0.000000,-0.002000,0.000000,0.007000,FlatInitial
03:15:43.526 PM 02/13/2016,Teleop Disabled,0,FALSE,0,NO ERROR,0.000000,0.000000,4000.000000,4000.000000,Speed,Speed,-0.020000,0.390000,2.630000,3.000000,101.000000,1,0,-0.003968,-0.000248,0,0.000000,0.000000,0.000000,0.183487,-0.071320,0.000000,0.000000,0.001000,0.007000,FlatInitial
03:15:43.627 PM 02/13/2016,Teleop Disabled,0,FALSE,0,NO ERROR,0.000000,0.000000,4000.000000,4000.000000,Speed,Speed,-0.020000,0.390000,2.630000,3.000000,104.000000,1,0,-0.003968,-0.000248,0,0.000000,0.000000,0.000000,0.183487,-0.071320,0.000000,0.000000,0.000000,0.006000,FlatInitial
03:15:43.727 PM 02/13/2016,Teleop Disabled,0,FALSE,0,NO ERROR,0.000000,0.000000,4000.000000,4000.000000,Speed,Speed,-0.010000,0.380000,2.620000,3.000000,101.000000,1,0,-0.003968,-0.000248,0,0.000000,0.000000,0.000000,0.183487,-0.071320,0.000000,0.000000,-0.001000,0.008000,FlatInitial
03:15:43.826 PM 02/13/2016,Teleop Disabled,0,FALSE,0,NO ERROR,0.000000,0.000000,4000.000000,4000.000000,Speed,Speed,-0.010000,0.380000,2.620000,3.000000,103.000000,1,0,-0.003968,-0.000248,0,0.000000,0.000000,0.000000,0.183487,-0.071320,0.000000,0.000000,0.000000,0.009000,FlatInitial
03:15:43.926 PM 02/13/2016,Teleop Disabled,0,FALSE,0,NO ERROR,0.000000,0.000000,4000.000000,4000.000000,Speed,Speed,-0.010000,0.390000,2.630000,3.000000,101.000000,1,0,-0.003968,-0.000248,0,0.000000,0.000000,0.000000,0.183487,-0.071320,0.000000,-0.001000,0.000000,0.010000,FlatInitial
03:15:44.027 PM 02/13/2016,Teleop Disabled,0,FALSE,0,NO ERROR,0.000000,0.000000,4000.000000,4000.000000,Speed,Speed,-0.010000,0.390000,2.630000,3.000000,103.000000,1,0,-0.003968,-0.000248,0,0.000000,0.000000,0.000000,0.183487,-0.071320,0.000000,-0.001000,-0.001000,0.010000,FlatInitial
03:15:44.127 PM 02/13/2016,Teleop Disabled,0,FALSE,0,NO ERROR,0.000000,0.000000,4000.000000,4000.000000,Speed,Speed,-0.010000,0.390000,2.630000,3.000000,101.000000,1,0,-0.003968,-0.000248,0,0.000000,0.000000,0.000000,0.183487,-0.071320,0.000000,0.002000,0.000000,0.008000,FlatInitial
03:15:44.228 PM 02/13/2016,Teleop Disabled,0,FALSE,0,NO ERROR,0.000000,0.000000,4000.000000,4000.000000,Speed,Speed,-0.010000,0.390000,2.630000,3.000000,104.000000,1,0,-0.003968,-0.000248,0,0.000000,0.000000,0.000000,0.183487,-0.071320,0.000000,-0.002000,0.001000,0.007000,FlatInitial
03:15:44.328 PM 02/13/2016,Teleop Enabled,0,FALSE,0,NO ERROR,0.000000,0.000000,4000.000000,4000.000000,Speed,Speed,-0.010000,0.390000,2.630000,3.000000,101.000000,1,0,-0.003968,-0.000248,0,0.000000,0.000000,0.000000,0.183487,-0.071320,0.000000,-0.001000,-0.001000,0.011000,FlatInitial
03:15:44.429 PM 02/13/2016,Teleop Enabled,0,FALSE,0,NO ERROR,0.000000,0.000000,4000.000000,4000.000000,Speed,Speed,-0.010000,0.390000,2.630000,3.000000,101.000000,1,0,-0.003968,-0.000248,0,0.000000,0.000000,0.000000,0.183487,-0.071320,0.000000,0.000000,0.002000,0.008000,FlatInitial
03:15:44.529 PM 02/13/2016,Teleop Enabled,0,FALSE,0,NO ERROR,0.000000,0.000000,4000.000000,4000.000000,Speed,Speed,-0.010000,0.380000,2.630000,3.000000,102.000000,1,0,-0.003968,-0.000248,0,0.000000,0.000000,0.000000,0.183487,-0.071320,0.000000,0.000000,0.001000,0.006000,FlatInitial
03:15:44.629 PM 02/13/2016,Teleop Enabled,0,FALSE,0,NO ERROR,0.000000,0.000000,4000.000000,4000.000000,Speed,Speed,-0.010000,0.380000,2.630000,3.000000,101.000000,1,0,-0.003968,-0.000248,0,0.000000,0.000000,0.000000,0.183487,-0.071320,0.000000,0.000000,-0.001000,0.003000,FlatInitial
03:15:44.729 PM 02/13/2016,Teleop Enabled,0,FALSE,0,NO ERROR,0.000000,0.000000,4000.000000,4000.000000,Speed,Speed,-0.010000,0.380000,2.630000,3.000000,102.000000,1,0,-0.003968,-0.000248,0,0.000000,0.000000,0.000000,0.183487,-0.071320,0.000000,0.000000,0.000000,0.004000,FlatInitial
03:15:44.830 PM 02/13/2016,Teleop Enabled,0,FALSE,0,NO ERROR,0.000000,0.000000,4000.000000,4000.000000,Speed,Speed,-0.020000,0.380000,2.630000,3.000000,101.000000,1,0,-0.003968,-0.000248,0,0.000000,0.000000,0.000000,0.183487,-0.071320,0.000000,-0.001000,0.000000,0.006000,FlatInitial
03:15:44.931 PM 02/13/2016,Teleop Enabled,0,FALSE,0,NO ERROR,0.000000,0.000000,4000.000000,4000.000000,Speed,Speed,-0.020000,0.380000,2.630000,3.000000,101.000000,1,0,-0.003968,-0.000248,0,0.000000,0.000000,0.000000,0.183487,-0.071320,0.000000,-0.001000,0.000000,0.009000,FlatInitial
03:15:45.032 PM 02/13/2016,Teleop Enabled,0,FALSE,0,NO ERROR,0.000000,0.000000,4000.000000,4000.000000,Speed,Speed,-0.020000,0.380000,2.630000,3.000000,103.000000,1,0,-0.003968,-0.000248,0,0.000000,0.000000,0.000000,0.183487,-0.071320,0.000000,0.001000,0.000000,0.009000,FlatInitial
03:15:45.132 PM 02/13/2016,Teleop Enabled,0,FALSE,0,NO ERROR,0.000000,0.000000,4000.000000,4000.000000,Speed,Speed,-0.020000,0.380000,2.630000,3.000000,103.000000,1,0,-0.003968,-0.000248,0,0.000000,0.000000,0.000000,0.183487,-0.071320,0.000000,-0.002000,0.000000,0.009000,FlatInitial
03:15:45.233 PM 02/13/2016,Teleop Enabled,0,FALSE,0,NO ERROR,0.000000,0.000000,4000.000000,4000.000000,Speed,Speed,-0.020000,0.380000,2.630000,3.000000,100.000000,1,0,-0.003968,-0.000248,0,0.000000,0.000000,0.000000,0.183487,-0.071320,0.000000,-0.001000,0.000000,0.008000,FlatInitial
03:15:45.332 PM 02/13/2016,Teleop Enabled,0,FALSE,0,NO ERROR,0.000000,0.000000,4000.000000,4000.000000,Speed,Speed,-0.020000,0.380000,2.630000,3.000000,102.000000,1,0,-0.003968,-0.000248,0,0.000000,0.000000,0.000000,0.183487,-0.071320,0.000000,0.004000,-0.001000,0.004000,FlatInitial
03:15:45.433 PM 02/13/2016,Teleop Enabled,0,FALSE,0,NO ERROR,0.000000,0.000000,4000.000000,4000.000000,Speed,Speed,-0.020000,0.380000,2.620000,3.000000,103.000000,1,0,-0.003968,-0.000248,0,0.000000,0.000000,0.000000,0.183487,-0.071320,0.000000,0.003000,-0.001000,0.008000,FlatInitial
03:15:45.533 PM 02/13/2016,Teleop Enabled,0,FALSE,0,NO ERROR,0.000000,0.000000,4000.000000,4000.000000,Speed,Speed,-0.020000,0.390000,2.620000,3.000000,101.000000,1,0,-0.003968,-0.000248,0,0.000000,0.000000,0.000000,0.183487,-0.071320,0.000000,0.001000,0.000000,0.008000,FlatInitial
03:15:45.635 PM 02/13/2016,Teleop Enabled,0,FALSE,0,NO ERROR,0.000000,0.000000,4000.000000,4000.000000,Speed,Speed,-0.020000,0.390000,2.620000,3.000000,102.000000,1,0,-0.003968,-0.000248,0,0.000000,0.000000,0.000000,0.183487,-0.071320,0.000000,0.003000,-0.002000,0.006000,FlatInitial
03:15:45.735 PM 02/13/2016,Teleop Enabled,0,FALSE,0,NO ERROR,0.000000,0.000000,4000.000000,4000.000000,Speed,Speed,-0.020000,0.390000,2.630000,3.000000,102.000000,1,0,-0.003968,-0.000248,0,0.000000,0.000000,0.000000,0.183487,-0.071320,0.000000,-0.001000,-0.002000,0.007000,FlatInitial
03:15:45.837 PM 02/13/2016,Teleop Enabled,0,FALSE,0,NO ERROR,0.000000,0.000000,4000.000000,4000.000000,Speed,Speed,-0.020000,0.390000,2.620000,3.000000,102.000000,1,0,-0.003968,-0.000248,0,0.000000,0.000000,0.000000,0.183487,-0.071320,0.000000,-0.001000,0.000000,0.010000,FlatInitial
03:15:45.938 PM 02/13/2016,Teleop Enabled,0,FALSE,0,NO ERROR,0.000000,0.000000,4000.000000,4000.000000,Speed,Speed,-0.020000,0.390000,2.620000,3.000000,101.000000,1,0,-0.003968,-0.000248,0,0.000000,0.000000,0.000000,0.183487,-0.071320,0.000000,-0.001000,-0.002000,0.010000,FlatInitial
03:15:46.040 PM 02/13/2016,Teleop Enabled,0,FALSE,0,NO ERROR,0.000000,0.000000,4000.000000,4000.000000,Speed,Speed,-0.020000,0.390000,2.620000,3.000000,101.000000,1,0,-0.003968,-0.000248,0,0.000000,0.000000,0.000000,0.183487,-0.071320,0.000000,0.000000,0.001000,0.008000,FlatInitial
03:15:46.141 PM 02/13/2016,Teleop Disabled,0,FALSE,0,NO ERROR,0.000000,0.000000,4000.000000,4000.000000,Speed,Speed,-0.020000,0.390000,2.620000,3.000000,101.000000,1,0,-0.003968,-0.000248,0,0.000000,0.000000,0.000000,0.183487,-0.071320,0.000000,0.001000,0.000000,0.011000,FlatInitial
03:15:46.241 PM 02/13/2016,Teleop Disabled,0,FALSE,0,NO ERROR,0.000000,0.000000,4000.000000,4000.000000,Speed,Speed,-0.020000,0.390000,2.610000,3.000000,105.000000,1,0,-0.003968,-0.000248,0,0.000000,0.000000,0.000000,0.183487,-0.071320,0.000000,0.002000,-0.002000,0.007000,FlatInitial
03:15:46.341 PM 02/13/2016,Teleop Disabled,0,FALSE,0,NO ERROR,0.000000,0.000000,4000.000000,4000.000000,Speed,Speed,-0.020000,0.390000,2.610000,3.000000,102.000000,1,0,-0.003968,-0.000248,0,0.000000,0.000000,0.000000,0.183487,-0.071320,0.000000,0.001000,0.001000,0.004000,FlatInitial
03:15:46.442 PM 02/13/2016,Teleop Disabled,0,FALSE,0,NO ERROR,0.000000,0.000000,4000.000000,4000.000000,Speed,Speed,-0.020000,0.390000,2.610000,3.000000,102.000000,1,0,-0.003968,-0.000248,0,0.000000,0.000000,0.000000,0.183487,-0.071320,0.000000,0.003000,0.003000,0.004000,FlatInitial
03:15:46.541 PM 02/13/2016,Teleop Disabled,0,FALSE,0,NO ERROR,0.000000,0.000000,4000.000000,4000.000000,Speed,Speed,-0.020000,0.390000,2.610000,3.000000,102.000000,1,0,-0.003968,-0.000248,0,0.000000,0.000000,0.000000,0.183487,-0.071320,0.000000,0.002000,0.001000,0.007000,FlatInitial
03:15:46.642 PM 02/13/2016,Teleop Disabled,0,FALSE,0,NO ERROR,0.000000,0.000000,4000.000000,4000.000000,Speed,Speed,-0.020000,0.400000,2.620000,3.000000,102.000000,1,0,-0.003968,-0.000248,0,0.000000,0.000000,0.000000,0.183487,-0.071320,0.000000,0.003000,-0.001000,0.008000,FlatInitial
03:15:46.742 PM 02/13/2016,Teleop Disabled,0,FALSE,0,NO ERROR,0.000000,0.000000,4000.000000,4000.000000,Speed,Speed,-0.020000,0.390000,2.610000,3.000000,101.000000,1,0,-0.003968,-0.000248,0,0.000000,0.000000,0.000000,0.183487,-0.071320,0.000000,0.000000,0.002000,0.006000,FlatInitial
03:15:46.841 PM 02/13/2016,Teleop Disabled,0,FALSE,0,NO ERROR,0.000000,0.000000,4000.000000,4000.000000,Speed,Speed,-0.020000,0.390000,2.620000,3.000000,103.000000,1,0,-0.003968,-0.000248,0,0.000000,0.000000,0.000000,0.183487,-0.071320,0.000000,-0.002000,0.000000,0.002000,FlatInitial
03:15:46.942 PM 02/13/2016,Teleop Disabled,0,FALSE,0,NO ERROR,0.000000,0.000000,4000.000000,4000.000000,Speed,Speed,-0.020000,0.390000,2.610000,3.000000,103.000000,1,0,-0.003968,-0.000248,0,0.000000,0.000000,0.000000,0.183487,-0.071320,0.000000,0.000000,0.000000,0.006000,FlatInitial
03:15:47.042 PM 02/13/2016,Teleop Disabled,0,FALSE,0,NO ERROR,0.000000,0.000000,4000.000000,4000.000000,Speed,Speed,-0.020000,0.380000,2.610000,3.000000,103.000000,1,0,-0.003968,-0.000248,0,0.000000,0.000000,0.000000,0.183487,-0.071320,0.000000,0.000000,-0.001000,0.012000,FlatInitial
03:15:47.142 PM 02/13/2016,Teleop Disabled,0,FALSE,0,NO ERROR,0.000000,0.000000,4000.000000,4000.000000,Speed,Speed,-0.020000,0.380000,2.610000,3.000000,101.000000,1,0,-0.003968,-0.000248,0,0.000000,0.000000,0.000000,0.183487,-0.071320,0.000000,0.001000,0.000000,0.004000,FlatInitial
03:15:47.242 PM 02/13/2016,Teleop Disabled,0,FALSE,0,NO ERROR,0.000000,0.000000,4000.000000,4000.000000,Speed,Speed,-0.020000,0.380000,2.610000,3.000000,102.000000,1,0,-0.003968,-0.000248,0,0.000000,0.000000,0.000000,0.183487,-0.071320,0.000000,0.001000,-0.004000,0.005000,FlatInitial
03:15:47.342 PM 02/13/2016,Teleop Disabled,0,FALSE,0,NO ERROR,0.000000,0.000000,4000.000000,4000.000000,Speed,Speed,-0.020000,0.390000,2.610000,3.000000,102.000000,1,0,-0.003968,-0.000248,0,0.000000,0.000000,0.000000,0.183487,-0.071320,0.000000,0.000000,0.000000,0.010000,FlatInitial
03:15:47.441 PM 02/13/2016,Teleop Disabled,0,FALSE,0,NO ERROR,0.000000,0.000000,4000.000000,4000.000000,Speed,Speed,-0.020000,0.390000,2.610000,3.000000,105.000000,1,0,-0.003968,-0.000248,0,0.000000,0.000000,0.000000,0.183487,-0.071320,0.000000,0.000000,0.000000,0.009000,FlatInitial