Time,RobotMode,AutoToRun,ErrorStatus, ErrorCode,ErrorSource,ActualRPM1,ActualRPM2,DesiredRPM1,DesiredRPM2,ControlMode1,ControlMode2,NavXYaw,NavXRoll,NavXPitch,ShooterState,LoopTime,IsLevel,IsAutoTargeting,LeftMotorOutput,RightMotorOutput,IsHaloDrive,NavXVelocityX,NavXVelocityY,NavXVelocityZ,NavXDisplacementX,NavXDisplacementY,NavXDisplacementZ,NavXAccelerationX,NavXAccelerationY,NavXAccelerationZ,AutoDefendState
04:55:08.530 PM 02/14/2016,Teleop Disabled,0,TRUE,91,Variant To Data in WPI_DigitalInputRefNum Registry Get.vi->Periodic Tasks.vi->Robot Main.vi,0.000000,0.000000,-6000.000000,-6000.000000,Speed,Speed,-13.450000,1.010000,2.360000,1.000000,100.000000,1,0,0.000248,0.000062,0,0.000000,0.000000,0.000000,0.578827,-0.623199,0.000000,0.000000,0.000000,0.003000,FlatInitial
04:55:08.630 PM 02/14/2016,Teleop Disabled,0,TRUE,-44007,<LOCATION>WPI_DigitalInputRefNum Registry Get.vi<CALLSTACK>WPI_DigitalInputRefNum Registry Get.vi< <Periodic Tasks.vi< <Robot Main.vi,0.000000,0.000000,0.000000,0.000000,Speed,Speed,-13.180000,1.010000,2.360000,0.000000,24561.000000,1,0,0.000248,0.000062,0,0.000000,0.000000,0.000000,0.578827,-0.623047,0.000000,0.000000,-0.001000,0.002000,FlatInitial
04:55:08.730 PM 02/14/2016,Teleop Disabled,0,FALSE,0,NO ERROR,0.000000,0.000000,0.000000,0.000000,Speed,Speed,-0.010000,1.010000,2.360000,0.000000,104.000000,1,0,0.000248,0.000062,0,0.000000,0.000000,0.000000,0.578827,-0.623047,0.000000,-0.001000,-0.001000,0.002000,FlatInitial
04:55:08.830 PM 02/14/2016,Teleop Disabled,0,FALSE,0,NO ERROR,0.000000,0.000000,0.000000,0.000000,Speed,Speed,-0.010000,1.010000,2.360000,0.000000,102.000000,1,0,0.000248,0.000062,0,0.000000,0.000000,0.000000,0.578827,-0.623047,0.000000,0.000000,0.000000,-0.001000,FlatInitial
04:55:08.930 PM 02/14/2016,Teleop Disabled,0,FALSE,0,NO ERROR,0.000000,0.000000,0.000000,0.000000,Speed,Speed,-0.010000,1.010000,2.360000,0.000000,101.000000,1,0,0.000248,0.000062,0,0.000000,0.000000,0.000000,0.578827,-0.623047,0.000000,-0.001000,0.000000,0.003000,FlatInitial
04:55:09.031 PM 02/14/2016,Teleop Disabled,0,FALSE,0,NO ERROR,0.000000,0.000000,0.000000,0.000000,Speed,Speed,-0.010000,1.010000,2.360000,0.000000,103.000000,1,0,0.000248,0.000062,0,0.000000,0.000000,0.000000,0.578827,-0.623047,0.000000,0.000000,0.001000,0.001000,FlatInitial
04:55:09.131 PM 02/14/2016,Teleop Disabled,0,FALSE,0,NO ERROR,0.000000,0.000000,0.000000,0.000000,Speed,Speed,-0.010000,1.010000,2.360000,0.000000,103.000000,1,0,0.000248,0.000062,0,0.000000,0.000000,0.000000,0.578827,-0.623047,0.000000,0.000000,0.000000,0.002000,FlatInitial
04:55:09.231 PM 02/14/2016,Teleop Disabled,0,FALSE,0,NO ERROR,0.000000,0.000000,0.000000,0.000000,Speed,Speed,-0.010000,1.010000,2.360000,0.000000,101.000000,1,0,0.000248,0.000062,0,0.000000,0.000000,0.000000,0.578827,-0.623047,0.000000,-0.001000,-0.001000,0.004000,FlatInitial
04:55:09.332 PM 02/14/2016,Teleop Disabled,0,FALSE,0,NO ERROR,0.000000,0.000000,0.000000,0.000000,Speed,Speed,-0.010000,1.010000,2.370000,0.000000,101.000000,1,0,0.000248,0.000062,0,0.000000,0.000000,0.000000,0.578827,-0.623047,0.000000,0.000000,0.000000,0.000000,FlatInitial
04:55:09.431 PM 02/14/2016,Teleop Disabled,0,FALSE,0,NO ERROR,0.000000,0.000000,0.000000,0.000000,Speed,Speed,-0.010000,1.010000,2.370000,0.000000,102.000000,1,0,0.000248,0.000062,0,0.000000,0.000000,0.000000,0.578827,-0.623047,0.000000,0.001000,-0.001000,0.002000,FlatInitial
04:55:09.532 PM 02/14/2016,Teleop Disabled,0,FALSE,0,NO ERROR,0.000000,0.000000,0.000000,0.000000,Speed,Speed,-0.010000,1.010000,2.370000,0.000000,101.000000,1,0,0.000248,0.000062,0,0.000000,0.000000,0.000000,0.578827,-0.623047,0.000000,0.000000,0.000000,0.002000,FlatInitial
04:55:09.631 PM 02/14/2016,Teleop Disabled,0,FALSE,0,NO ERROR,0.000000,0.000000,0.000000,0.000000,Speed,Speed,-0.010000,1.010000,2.360000,0.000000,101.000000,1,0,0.000248,0.000062,0,0.000000,0.000000,0.000000,0.578827,-0.623047,0.000000,0.002000,0.000000,0.002000,FlatInitial
04:55:09.731 PM 02/14/2016,Teleop Disabled,0,FALSE,0,NO ERROR,0.000000,0.000000,0.000000,0.000000,Speed,Speed,-0.010000,1.010000,2.360000,0.000000,102.000000,1,0,0.000248,0.000062,0,0.000000,0.000000,0.000000,0.578827,-0.623047,0.000000,0.001000,0.001000,0.002000,FlatInitial
04:55:09.831 PM 02/14/2016,Teleop Disabled,0,FALSE,0,NO ERROR,0.000000,0.000000,0.000000,0.000000,Speed,Speed,-0.010000,1.010000,2.360000,0.000000,101.000000,1,0,0.000248,0.000062,0,0.000000,0.000000,0.000000,0.578827,-0.623047,0.000000,0.000000,0.000000,0.001000,FlatInitial
04:55:09.932 PM 02/14/2016,Teleop Enabled,0,FALSE,0,NO ERROR,0.000000,0.000000,0.000000,0.000000,Speed,Speed,-0.010000,1.010000,2.360000,0.000000,101.000000,1,0,0.000248,0.000062,0,0.000000,0.000000,0.000000,0.578827,-0.623047,0.000000,0.000000,0.002000,0.001000,FlatInitial
04:55:10.032 PM 02/14/2016,Teleop Enabled,0,FALSE,0,NO ERROR,0.000000,0.000000,0.000000,0.000000,Speed,Speed,-0.010000,1.020000,2.360000,0.000000,102.000000,1,0,0.000248,0.000062,0,0.000000,0.000000,0.000000,0.578827,-0.623047,0.000000,0.017000,-0.011000,-0.002000,FlatInitial
04:55:10.132 PM 02/14/2016,Teleop Enabled,0,FALSE,0,NO ERROR,0.000000,0.000000,0.000000,0.000000,Speed,Speed,-0.010000,1.030000,2.360000,0.000000,101.000000,1,0,0.000248,0.000062,0,0.000000,0.006683,0.000000,0.578735,-0.622803,0.000000,-0.008000,0.002000,-0.014000,FlatInitial
04:55:10.233 PM 02/14/2016,Teleop Enabled,0,FALSE,0,NO ERROR,0.000000,0.000000,0.000000,0.000000,Speed,Speed,-0.010000,1.040000,2.390000,0.000000,102.000000,1,0,0.000248,0.000062,0,0.000000,0.000000,0.000000,0.578735,-0.622803,0.000000,0.011000,-0.003000,0.015000,FlatInitial
04:55:10.333 PM 02/14/2016,Teleop Enabled,0,FALSE,0,NO ERROR,0.000000,0.000000,0.000000,0.000000,Speed,Speed,-0.010000,1.010000,2.390000,0.000000,105.000000,1,0,0.000248,0.000062,0,0.000000,0.000000,0.000000,0.578735,-0.622803,0.000000,0.015000,-0.001000,-0.008000,FlatInitial
04:55:10.433 PM 02/14/2016,Teleop Enabled,0,FALSE,0,NO ERROR,0.000000,0.000000,0.000000,0.000000,Speed,Speed,-0.010000,1.010000,2.350000,0.000000,102.000000,1,0,0.000248,0.000062,0,-0.003983,0.000000,0.000000,0.578873,-0.622803,0.000000,-0.023000,-0.006000,0.009000,FlatInitial
04:55:10.533 PM 02/14/2016,Teleop Enabled,0,FALSE,0,NO ERROR,0.000000,0.000000,0.000000,0.000000,Speed,Speed,-0.010000,1.030000,2.360000,0.000000,102.000000,1,0,0.000248,0.000062,0,0.000000,0.000000,0.000000,0.578766,-0.622803,0.000000,-0.017000,0.010000,0.006000,FlatInitial
04:55:10.634 PM 02/14/2016,Teleop Enabled,0,FALSE,0,NO ERROR,0.000000,0.000000,0.000000,0.000000,Speed,Speed,-0.010000,1.020000,2.390000,0.000000,100.000000,1,0,0.000248,0.000062,0,0.000000,0.000000,0.000000,0.578766,-0.622803,0.000000,0.011000,-0.005000,0.010000,FlatInitial
04:55:10.735 PM 02/14/2016,Teleop Enabled,0,FALSE,0,NO ERROR,0.000000,0.000000,0.000000,0.000000,Speed,Speed,-0.010000,1.010000,2.380000,0.000000,101.000000,1,0,0.000248,0.000062,0,0.000000,0.000000,0.000000,0.578766,-0.622803,0.000000,0.011000,-0.005000,0.005000,FlatInitial
04:55:10.836 PM 02/14/2016,Teleop Enabled,0,FALSE,0,NO ERROR,0.000000,0.000000,0.000000,0.000000,Speed,Speed,-0.010000,1.010000,2.360000,0.000000,101.000000,1,0,0.000248,0.000062,0,0.000000,0.000000,0.000000,0.578766,-0.622803,0.000000,-0.003000,-0.001000,0.000000,FlatInitial
04:55:10.937 PM 02/14/2016,Teleop Enabled,0,FALSE,0,NO ERROR,0.000000,0.000000,0.000000,0.000000,Speed,Speed,-0.010000,1.010000,2.370000,0.000000,102.000000,1,0,0.000248,0.000062,0,0.000000,0.000000,0.000000,0.578766,-0.622803,0.000000,-0.003000,0.000000,0.001000,FlatInitial
04:55:11.037 PM 02/14/2016,Teleop Enabled,0,FALSE,0,NO ERROR,0.000000,0.000000,0.000000,0.000000,Speed,Speed,-0.010000,1.010000,2.380000,0.000000,100.000000,1,0,0.000248,0.000062,0,0.000000,0.000000,0.000000,0.578766,-0.622803,0.000000,0.000000,-0.001000,-0.001000,FlatInitial
04:55:11.138 PM 02/14/2016,Teleop Enabled,0,FALSE,0,NO ERROR,0.000000,0.000000,0.000000,0.000000,Speed,Speed,-0.010000,1.010000,2.390000,0.000000,102.000000,1,0,0.000248,0.000062,0,0.000000,0.000000,0.000000,0.578766,-0.622803,0.000000,0.002000,0.000000,0.000000,FlatInitial
04:55:11.238 PM 02/14/2016,Teleop Enabled,0,FALSE,0,NO ERROR,0.000000,0.000000,0.000000,0.000000,Speed,Speed,-0.010000,1.010000,2.390000,0.000000,102.000000,1,0,0.000248,0.000062,0,0.000000,0.000000,0.000000,0.578766,-0.622803,0.000000,0.003000,0.000000,0.002000,FlatInitial
04:55:11.339 PM 02/14/2016,Teleop Enabled,0,FALSE,0,NO ERROR,0.000000,0.000000,0.000000,0.000000,Speed,Speed,-0.010000,1.010000,2.390000,0.000000,101.000000,1,0,0.000248,0.000062,0,0.000000,0.000000,0.000000,0.578766,-0.622803,0.000000,-0.005000,-0.006000,0.006000,FlatInitial
04:55:11.441 PM 02/14/2016,Teleop Enabled,0,FALSE,0,NO ERROR,0.000000,0.000000,0.000000,0.000000,Speed,Speed,-0.010000,0.990000,2.390000,0.000000,101.000000,1,0,0.000248,0.000062,0,0.000046,0.000000,0.000000,0.578842,-0.622803,0.000000,0.008000,0.005000,-0.001000,FlatInitial
04:55:11.541 PM 02/14/2016,Teleop Enabled,0,FALSE,0,NO ERROR,0.000000,0.000000,0.000000,0.000000,Speed,Speed,-0.010000,1.000000,2.370000,0.000000,103.000000,1,0,0.000248,0.000062,0,0.000000,0.000000,0.000000,0.578842,-0.622803,0.000000,-0.003000,0.000000,-0.005000,FlatInitial
04:55:11.644 PM 02/14/2016,Teleop Enabled,0,FALSE,0,NO ERROR,0.000000,0.000000,0.000000,0.000000,Speed,Speed,-0.010000,1.010000,2.360000,0.000000,107.000000,1,0,0.000248,0.000062,0,0.000000,0.000000,0.000000,0.578842,-0.622803,0.000000,-0.015000,0.001000,0.011000,FlatInitial
04:55:11.746 PM 02/14/2016,Teleop Enabled,0,FALSE,0,NO ERROR,0.000000,0.000000,0.000000,0.000000,Speed,Speed,-0.010000,1.010000,2.380000,0.000000,101.000000,1,0,0.000248,0.000062,0,0.000000,0.000000,0.000000,0.578842,-0.622803,0.000000,0.003000,0.000000,0.002000,FlatInitial
04:55:11.846 PM 02/14/2016,Teleop Enabled,0,FALSE,0,NO ERROR,0.000000,0.000000,-6000.000000,-6000.000000,Speed,Speed,-0.010000,1.000000,2.380000,1.000000,102.000000,1,1,-0.000000,-0.000000,0,0.000000,0.000000,0.000000,0.578842,-0.622803,0.000000,0.002000,-0.001000,0.004000,FlatInitial
04:55:11.947 PM 02/14/2016,Teleop Enabled,0,FALSE,0,NO ERROR,0.000000,0.000000,-6000.000000,-6000.000000,Speed,Speed,-0.020000,1.000000,2.370000,1.000000,101.000000,1,1,-0.000000,-0.000000,0,0.000000,0.000000,0.000000,0.578842,-0.622803,0.000000,0.000000,0.000000,0.003000,FlatInitial
04:55:12.048 PM 02/14/2016,Teleop Enabled,0,FALSE,0,NO ERROR,0.000000,0.000000,-6000.000000,-6000.000000,Speed,Speed,-0.010000,1.010000,2.370000,1.000000,102.000000,1,1,-0.000000,-0.000000,0,0.000000,0.000000,0.000000,0.578842,-0.622803,0.000000,-0.002000,0.002000,0.007000,FlatInitial
04:55:12.149 PM 02/14/2016,Teleop Enabled,0,FALSE,0,NO ERROR,0.000000,0.000000,-6000.000000,-6000.000000,Speed,Speed,-0.010000,1.000000,2.380000,1.000000,103.000000,1,1,-0.000015,-0.000015,0,0.000000,0.000000,0.000000,0.578842,-0.622803,0.000000,-0.001000,0.000000,0.004000,FlatInitial
04:55:12.250 PM 02/14/2016,Teleop Enabled,0,FALSE,0,NO ERROR,0.000000,0.000000,-6000.000000,-6000.000000,Speed,Speed,-0.010000,1.000000,2.370000,1.000000,100.000000,1,1,-0.000015,-0.000015,0,0.000000,0.000000,0.000000,0.578842,-0.622803,0.000000,0.001000,0.000000,0.003000,FlatInitial
04:55:12.350 PM 02/14/2016,Teleop Enabled,0,FALSE,0,NO ERROR,0.000000,0.000000,-6000.000000,-6000.000000,Speed,Speed,-0.010000,1.000000,2.380000,1.000000,104.000000,1,1,-0.000000,-0.000000,0,0.000000,0.000000,0.000000,0.578842,-0.622803,0.000000,0.000000,-0.001000,0.004000,FlatInitial
04:55:12.451 PM 02/14/2016,Teleop Enabled,0,FALSE,0,NO ERROR,0.000000,0.000000,-6000.000000,-6000.000000,Speed,Speed,-0.010000,1.010000,2.380000,1.000000,103.000000,1,1,0.000015,0.000015,0,0.000000,0.000000,0.000000,0.578842,-0.622803,0.000000,0.000000,0.000000,0.001000,FlatInitial
04:55:12.551 PM 02/14/2016,Teleop Enabled,0,FALSE,0,NO ERROR,0.000000,0.000000,-6000.000000,-6000.000000,Speed,Speed,-0.010000,1.010000,2.390000,1.000000,101.000000,1,1,-0.000000,-0.000000,0,0.000000,0.000000,0.000000,0.578842,-0.622803,0.000000,0.000000,-0.002000,0.005000,FlatInitial
04:55:12.652 PM 02/14/2016,Teleop Enabled,0,FALSE,0,NO ERROR,0.000000,0.000000,-6000.000000,-6000.000000,Speed,Speed,-0.010000,1.010000,2.380000,1.000000,101.000000,1,0,0.000248,0.000062,0,0.000000,0.000000,0.000000,0.578842,-0.622803,0.000000,0.001000,0.000000,0.004000,FlatInitial
04:55:12.752 PM 02/14/2016,Teleop Enabled,0,FALSE,0,NO ERROR,0.000000,0.000000,-6000.000000,-6000.000000,Speed,Speed,-0.010000,1.010000,2.380000,1.000000,101.000000,1,0,0.000248,0.000062,0,0.000000,0.000000,0.000000,0.578842,-0.622803,0.000000,-0.001000,-0.001000,0.004000,FlatInitial
04:55:12.853 PM 02/14/2016,Teleop Enabled,0,FALSE,0,NO ERROR,0.000000,0.000000,-6000.000000,-6000.000000,Speed,Speed,-0.020000,1.010000,2.380000,1.000000,102.000000,1,0,0.000248,0.000062,0,0.000000,0.000000,0.000000,0.578842,-0.622803,0.000000,0.000000,-0.001000,0.004000,FlatInitial
04:55:12.954 PM 02/14/2016,Teleop Enabled,0,FALSE,0,NO ERROR,0.000000,0.000000,-6000.000000,-6000.000000,Speed,Speed,-0.020000,1.000000,2.380000,1.000000,102.000000,1,0,0.000248,0.000062,0,0.000000,0.000000,0.000000,0.578842,-0.622803,0.000000,0.000000,-0.002000,0.007000,FlatInitial
04:55:13.054 PM 02/14/2016,Teleop Enabled,0,FALSE,0,NO ERROR,0.000000,0.000000,-6000.000000,-6000.000000,Speed,Speed,-0.020000,1.000000,2.370000,1.000000,101.000000,1,0,0.000248,0.000062,0,0.000000,0.000000,0.000000,0.578842,-0.622803,0.000000,-0.001000,0.000000,0.000000,FlatInitial
04:55:13.155 PM 02/14/2016,Teleop Enabled,0,FALSE,0,NO ERROR,0.000000,0.000000,-6000.000000,-6000.000000,Speed,Speed,-0.020000,1.000000,2.370000,1.000000,102.000000,1,0,0.000248,0.000062,0,0.000000,0.000000,0.000000,0.578842,-0.622803,0.000000,0.000000,0.000000,0.002000,FlatInitial
04:55:13.255 PM 02/14/2016,Teleop Enabled,0,FALSE,0,NO ERROR,0.000000,0.000000,-6000.000000,-6000.000000,Speed,Speed,-0.020000,1.010000,2.370000,1.000000,102.000000,1,0,0.000248,0.000062,0,0.000000,0.000000,0.000000,0.578842,-0.622803,0.000000,0.000000,-0.001000,0.006000,FlatInitial
04:55:13.356 PM 02/14/2016,Teleop Enabled,0,FALSE,0,NO ERROR,0.000000,0.000000,-6000.000000,-6000.000000,Speed,Speed,-0.020000,1.010000,2.370000,1.000000,101.000000,1,0,0.000248,0.000062,0,0.000000,0.000000,0.000000,0.578842,-0.622803,0.000000,0.001000,0.000000,0.000000,FlatInitial
04:55:13.457 PM 02/14/2016,Teleop Enabled,0,FALSE,0,NO ERROR,0.000000,0.000000,-6000.000000,-6000.000000,Speed,Speed,-0.030000,1.010000,2.370000,1.000000,103.000000,1,0,0.000248,0.000062,0,0.000000,0.000000,0.000000,0.578842,-0.622803,0.000000,0.000000,0.003000,0.004000,FlatInitial
04:55:13.557 PM 02/14/2016,Teleop Enabled,0,FALSE,0,NO ERROR,0.000000,0.000000,-6000.000000,-6000.000000,Speed,Speed,-0.030000,1.010000,2.370000,1.000000,102.000000,1,0,0.000248,0.000062,0,0.000000,0.000000,0.000000,0.578842,-0.622803,0.000000,0.000000,-0.001000,0.006000,FlatInitial
04:55:13.657 PM 02/14/2016,Teleop Enabled,0,FALSE,0,NO ERROR,0.000000,0.000000,-6000.000000,-6000.000000,Speed,Speed,-0.030000,1.010000,2.370000,1.000000,102.000000,1,0,0.000248,0.000062,0,0.000000,0.000000,0.000000,0.578842,-0.622803,0.000000,0.000000,-0.001000,0.006000,FlatInitial
04:55:13.757 PM 02/14/2016,Teleop Enabled,0,FALSE,0,NO ERROR,0.000000,0.000000,-6000.000000,-6000.000000,Speed,Speed,-0.030000,1.010000,2.370000,1.000000,101.000000,1,0,0.000248,0.000062,0,0.000000,0.000000,0.000000,0.578842,-0.622803,0.000000,-0.002000,0.000000,0.005000,FlatInitial
04:55:13.857 PM 02/14/2016,Teleop Enabled,0,FALSE,0,NO ERROR,0.000000,0.000000,-6000.000000,-6000.000000,Speed,Speed,-0.030000,1.010000,2.370000,1.000000,102.000000,1,0,-0.006200,0.000062,0,0.000000,0.000000,0.000000,0.578842,-0.622803,0.000000,0.002000,0.000000,0.005000,FlatInitial
04:55:13.957 PM 02/14/2016,Teleop Enabled,0,FALSE,0,NO ERROR,0.000000,0.000000,-6000.000000,-6000.000000,Speed,Speed,-0.030000,1.010000,2.370000,1.000000,102.000000,1,0,-0.038750,-0.006200,0,0.000000,0.000000,0.000000,0.578842,-0.622803,0.000000,0.000000,0.000000,0.002000,FlatInitial
04:55:14.057 PM 02/14/2016,Teleop Enabled,0,FALSE,0,NO ERROR,0.000000,0.000000,-6000.000000,-6000.000000,Speed,Speed,-0.030000,1.010000,2.370000,1.000000,100.000000,1,0,-0.286689,-0.052142,0,0.000000,0.000000,0.000000,0.578842,-0.622803,0.000000,0.000000,0.001000,0.000000,FlatInitial
04:55:14.158 PM 02/14/2016,Teleop Enabled,0,FALSE,0,NO ERROR,0.000000,0.000000,-6000.000000,-6000.000000,Speed,Speed,-0.010000,0.990000,2.510000,1.000000,101.000000,1,0,-0.321409,-0.142848,0,-0.008240,0.014313,0.000000,0.578751,-0.622665,0.000000,0.043000,0.021000,0.021000,FlatInitial
04:55:14.258 PM 02/14/2016,Teleop Enabled,0,FALSE,0,NO ERROR,0.000000,0.000000,-6000.000000,-6000.000000,Speed,Speed,0.730000,0.850000,2.620000,1.000000,100.000000,1,0,-0.321409,-0.142848,0,-0.014481,0.019623,0.000000,0.578369,-0.621719,0.000000,-0.051000,0.026000,0.057000,FlatInitial
04:55:14.360 PM 02/14/2016,Teleop Enabled,0,FALSE,0,NO ERROR,0.000000,0.000000,-6000.000000,-6000.000000,Speed,Speed,2.530000,0.720000,2.780000,1.000000,102.000000,1,0,-0.321409,-0.142848,0,0.000000,0.000000,0.000000,0.577576,-0.620651,0.000000,-0.016000,-0.018000,0.069000,FlatInitial
04:55:14.461 PM 02/14/2016,Teleop Enabled,0,FALSE,0,NO ERROR,0.000000,0.000000,-6000.000000,-6000.000000,Speed,Speed,5.190000,0.510000,2.730000,1.000000,102.000000,1,0,-0.089528,-0.008928,0,-0.011322,0.024017,0.000000,0.577423,-0.620270,0.000000,-0.012000,0.031000,-0.024000,FlatInitial
04:55:14.561 PM 02/14/2016,Teleop Enabled,0,FALSE,0,NO ERROR,0.000000,0.000000,-6000.000000,-6000.000000,Speed,Speed,8.470000,0.510000,2.970000,1.000000,102.000000,1,0,-0.010478,-0.006200,0,0.033295,0.022095,0.000000,0.577560,-0.617950,0.000000,0.100000,-0.095000,0.005000,FlatInitial
04:55:14.662 PM 02/14/2016,Teleop Enabled,0,FALSE,0,NO ERROR,0.000000,0.000000,-6000.000000,-6000.000000,Speed,Speed,10.660000,0.660000,2.390000,1.000000,101.000000,1,0,-0.010478,-0.006200,0,0.082153,-0.070648,0.000000,0.580902,-0.619705,0.000000,0.062000,-0.085000,-0.051000,FlatInitial
04:55:14.765 PM 02/14/2016,Teleop Enabled,0,FALSE,0,NO ERROR,0.000000,0.000000,-6000.000000,-6000.000000,Speed,Speed,10.790000,0.900000,2.260000,1.000000,104.000000,1,0,-0.010478,-0.006200,0,0.000000,-0.129562,0.000000,0.585220,-0.625366,0.000000,-0.016000,-0.015000,-0.018000,FlatInitial
04:55:14.866 PM 02/14/2016,Teleop Enabled,0,FALSE,0,NO ERROR,0.000000,0.000000,-6000.000000,-6000.000000,Speed,Speed,10.390000,0.870000,2.210000,1.000000,101.000000,1,1,0.000015,0.000015,0,0.000000,0.000000,0.000000,0.585052,-0.629135,0.000000,0.004000,0.019000,0.001000,FlatInitial
04:55:14.966 PM 02/14/2016,Teleop Enabled,0,FALSE,0,NO ERROR,0.000000,0.000000,-6000.000000,-6000.000000,Speed,Speed,10.390000,0.860000,2.260000,1.000000,102.000000,1,1,-0.000000,-0.000000,0,0.000000,0.000000,0.000000,0.585052,-0.629135,0.000000,0.003000,0.006000,0.008000,FlatInitial
04:55:15.066 PM 02/14/2016,Teleop Enabled,0,FALSE,0,NO ERROR,0.000000,0.000000,-6000.000000,-6000.000000,Speed,Speed,10.380000,0.860000,2.290000,1.000000,102.000000,1,1,0.100113,0.100113,0,0.002151,0.000000,0.000000,0.585068,-0.629135,0.000000,0.032000,0.018000,-0.020000,FlatInitial
04:55:15.168 PM 02/14/2016,Teleop Enabled,0,FALSE,0,NO ERROR,0.000000,0.000000,-6000.000000,-6000.000000,Speed,Speed,10.070000,0.940000,2.370000,1.000000,102.000000,1,1,0.100113,0.100113,0,0.000000,0.007858,0.000000,0.585281,-0.629028,0.000000,-0.008000,0.029000,-0.028000,FlatInitial
04:55:15.268 PM 02/14/2016,Teleop Enabled,0,FALSE,0,NO ERROR,0.000000,0.000000,-6000.000000,-6000.000000,Speed,Speed,9.470000,0.950000,2.320000,1.000000,102.000000,1,1,0.097656,0.097656,0,0.000000,0.030777,0.000000,0.585281,-0.627975,0.000000,0.002000,0.018000,-0.051000,FlatInitial
04:55:15.368 PM 02/14/2016,Teleop Enabled,0,FALSE,0,NO ERROR,0.000000,0.000000,-6000.000000,-6000.000000,Speed,Speed,8.900000,0.960000,2.340000,1.000000,102.000000,1,1,0.088135,0.088135,0,0.000000,0.000000,0.000000,0.585281,-0.627655,0.000000,0.001000,0.016000,0.010000,FlatInitial
04:55:15.469 PM 02/14/2016,Teleop Enabled,0,FALSE,0,NO ERROR,0.000000,0.000000,-6000.000000,-6000.000000,Speed,Speed,8.310000,0.950000,2.310000,1.000000,101.000000,1,1,0.076920,0.076920,0,0.000000,0.000000,0.000000,0.585281,-0.627655,0.000000,-0.011000,-0.009000,0.003000,FlatInitial
04:55:15.569 PM 02/14/2016,Teleop Enabled,0,FALSE,0,NO ERROR,0.000000,0.000000,-6000.000000,-6000.000000,Speed,Speed,7.980000,0.940000,2.310000,1.000000,103.000000,1,1,0.076920,0.076920,0,0.000000,0.000000,0.000000,0.585281,-0.627655,0.000000,-0.009000,-0.002000,0.026000,FlatInitial
04:55:15.669 PM 02/14/2016,Teleop Enabled,0,FALSE,0,NO ERROR,0.000000,0.000000,-6000.000000,-6000.000000,Speed,Speed,7.910000,0.910000,2.240000,1.000000,102.000000,1,1,0.066467,0.066467,0,0.000000,0.000000,0.000000,0.585281,-0.627655,0.000000,-0.003000,0.008000,-0.021000,FlatInitial
04:55:15.770 PM 02/14/2016,Teleop Enabled,0,FALSE,0,NO ERROR,0.000000,0.000000,-6000.000000,-6000.000000,Speed,Speed,7.910000,0.920000,2.280000,1.000000,101.000000,1,1,0.060562,0.060562,0,0.000000,0.000000,0.000000,0.585281,-0.627655,0.000000,0.005000,0.006000,0.000000,FlatInitial
04:55:15.870 PM 02/14/2016,Teleop Enabled,0,FALSE,0,NO ERROR,0.000000,0.000000,-6000.000000,-6000.000000,Speed,Speed,7.910000,0.900000,2.290000,1.000000,111.000000,1,1,0.060562,0.060562,0,0.000000,0.000000,0.000000,0.585281,-0.627655,0.000000,0.005000,0.007000,0.000000,FlatInitial
04:55:15.971 PM 02/14/2016,Teleop Enabled,0,FALSE,0,NO ERROR,0.000000,0.000000,-6000.000000,-6000.000000,Speed,Speed,7.910000,0.910000,2.300000,1.000000,102.000000,1,1,0.060562,0.060562,0,0.000000,0.000000,0.000000,0.585281,-0.627655,0.000000,0.004000,0.003000,0.005000,FlatInitial
04:55:16.071 PM 02/14/2016,Teleop Enabled,0,FALSE,0,NO ERROR,0.000000,0.000000,-6000.000000,-6000.000000,Speed,Speed,7.910000,0.920000,2.310000,1.000000,101.000000,1,0,-0.010478,-0.006200,0,0.000000,0.000000,0.000000,0.585281,-0.627655,0.000000,0.004000,0.003000,0.005000,FlatInitial
04:55:16.172 PM 02/14/2016,Teleop Enabled,0,FALSE,0,NO ERROR,0.000000,0.000000,-6000.000000,-6000.000000,Speed,Speed,7.900000,0.930000,2.300000,1.000000,105.000000,1,0,-0.012152,-0.006200,0,0.000000,0.000000,0.000000,0.585281,-0.627655,0.000000,-0.002000,0.002000,0.001000,FlatInitial
04:55:16.273 PM 02/14/2016,Teleop Enabled,0,FALSE,0,NO ERROR,0.000000,0.000000,-6000.000000,-6000.000000,Speed,Speed,7.900000,0.930000,2.310000,1.000000,102.000000,1,0,-0.155000,-0.174158,0,0.000000,0.000000,0.000000,0.585281,-0.627655,0.000000,-0.002000,-0.001000,0.010000,FlatInitial
04:55:16.373 PM 02/14/2016,Teleop Enabled,0,FALSE,0,NO ERROR,0.000000,0.000000,-6000.000000,-6000.000000,Speed,Speed,8.070000,0.790000,2.180000,1.000000,101.000000,1,0,-0.167648,-0.208568,0,-0.032455,-0.008148,0.000000,0.584854,-0.627808,0.000000,-0.137000,0.048000,0.083000,FlatInitial
04:55:16.474 PM 02/14/2016,Teleop Enabled,0,FALSE,0,NO ERROR,0.000000,0.000000,-6000.000000,-6000.000000,Speed,Speed,9.850000,0.610000,1.940000,1.000000,101.000000,1,0,-0.208568,-0.223200,0,-0.105118,-0.022461,0.000000,0.580566,-0.628647,0.000000,-0.070000,-0.015000,-0.025000,FlatInitial
04:55:16.575 PM 02/14/2016,Teleop Enabled,0,FALSE,0,NO ERROR,0.000000,0.000000,-6000.000000,-6000.000000,Speed,Speed,12.700000,0.510000,2.130000,1.000000,102.000000,1,0,-0.201438,-0.020088,0,-0.137131,-0.003311,0.000000,0.575363,-0.628922,0.000000,-0.007000,-0.015000,0.029000,FlatInitial
04:55:16.675 PM 02/14/2016,Teleop Enabled,0,FALSE,0,NO ERROR,0.000000,0.000000,-6000.000000,-6000.000000,Speed,Speed,16.250000,0.480000,2.090000,1.000000,103.000000,1,0,-0.000062,-0.006200,0,0.036621,-0.000259,0.000000,0.576050,-0.629227,0.000000,0.089000,-0.001000,-0.117000,FlatInitial
04:55:16.775 PM 02/14/2016,Teleop Enabled,0,FALSE,0,NO ERROR,0.000000,0.000000,-6000.000000,-6000.000000,Speed,Speed,18.210000,0.790000,2.370000,1.000000,100.000000,1,0,-0.000062,-0.006200,0,0.077393,-0.010696,0.000000,0.578568,-0.629425,0.000000,0.024000,0.058000,-0.016000,FlatInitial
04:55:16.875 PM 02/14/2016,Teleop Enabled,0,FALSE,0,NO ERROR,0.000000,0.000000,-6000.000000,-6000.000000,Speed,Speed,18.560000,0.940000,2.420000,1.000000,101.000000,1,0,-0.000062,-0.006200,0,0.123734,0.017166,0.000000,0.583694,-0.629059,0.000000,0.029000,0.018000,-0.064000,FlatInitial
04:55:16.976 PM 02/14/2016,Teleop Enabled,0,FALSE,0,NO ERROR,0.000000,0.000000,-6000.000000,-6000.000000,Speed,Speed,18.330000,0.910000,2.500000,1.000000,101.000000,1,0,-0.000062,-0.006200,0,0.123734,0.017166,0.000000,0.583694,-0.629059,0.000000,0.029000,0.018000,-0.064000,FlatInitial
04:55:17.078 PM 02/14/2016,Teleop Enabled,0,FALSE,0,NO ERROR,0.000000,0.000000,-6000.000000,-6000.000000,Speed,Speed,18.260000,0.900000,2.570000,1.000000,101.000000,1,1,0.062500,0.062500,0,0.000000,-0.002869,0.000000,0.586533,-0.625885,0.000000,-0.001000,-0.020000,0.030000,FlatInitial
04:55:17.184 PM 02/14/2016,Teleop Enabled,0,FALSE,0,NO ERROR,0.000000,0.000000,-6000.000000,-6000.000000,Speed,Speed,18.160000,0.940000,2.560000,1.000000,101.000000,1,1,0.250000,0.250000,0,0.000000,0.000000,0.000000,0.586700,-0.626022,0.000000,-0.009000,0.018000,-0.006000,FlatInitial
04:55:17.284 PM 02/14/2016,Teleop Enabled,0,FALSE,0,NO ERROR,0.000000,0.000000,-6000.000000,-6000.000000,Speed,Speed,17.610000,1.100000,2.590000,1.000000,102.000000,1,1,0.250000,0.250000,0,0.022949,-0.017731,0.000000,0.587173,-0.626175,0.000000,0.042000,-0.029000,0.148000,FlatInitial
04:55:17.385 PM 02/14/2016,Teleop Enabled,0,FALSE,0,NO ERROR,0.000000,0.000000,-6000.000000,-6000.000000,Speed,Speed,14.750000,1.440000,2.600000,1.000000,103.000000,1,1,0.250000,0.250000,0,0.089294,0.000000,0.000000,0.590454,-0.626724,0.000000,0.025000,0.056000,0.008000,FlatInitial
04:55:17.485 PM 02/14/2016,Teleop Enabled,0,FALSE,0,NO ERROR,0.000000,0.000000,-6000.000000,-6000.000000,Speed,Speed,10.510000,1.630000,2.540000,1.000000,101.000000,1,1,0.223404,0.223404,0,0.106369,0.000000,0.000000,0.595810,-0.626495,0.000000,0.013000,0.056000,0.015000,FlatInitial
04:55:17.589 PM 02/14/2016,Teleop Enabled,0,FALSE,0,NO ERROR,0.000000,0.000000,-6000.000000,-6000.000000,Speed,Speed,5.230000,1.800000,2.550000,1.000000,101.000000,1,1,0.137711,0.137711,0,0.009933,-0.000717,0.000000,0.597076,-0.626221,0.000000,0.000000,0.044000,-0.004000,FlatInitial
04:55:17.690 PM 02/14/2016,Teleop Enabled,0,FALSE,0,NO ERROR,0.000000,0.000000,-6000.000000,-6000.000000,Speed,Speed,-0.330000,1.790000,2.510000,1.000000,101.000000,1,1,0.047852,0.047852,0,-0.024643,0.000000,0.000000,0.596771,-0.625656,0.000000,-0.076000,0.025000,0.025000,FlatInitial
04:55:17.791 PM 02/14/2016,Teleop Enabled,0,FALSE,0,NO ERROR,0.000000,0.000000,-6000.000000,-6000.000000,Speed,Speed,-4.960000,1.730000,2.670000,1.000000,103.000000,1,1,0.000000,-0.000000,0,-0.073090,0.027451,0.000000,0.593933,-0.624939,0.000000,-0.084000,-0.025000,0.057000,FlatInitial
04:55:17.891 PM 02/14/2016,Teleop Enabled,0,FALSE,0,NO ERROR,0.000000,0.000000,-6000.000000,-6000.000000,Speed,Speed,-8.200000,1.440000,2.510000,1.000000,102.000000,1,1,-0.011124,-0.011124,0,-0.141571,0.022751,0.000000,0.588211,-0.623703,0.000000,-0.073000,0.003000,-0.038000,FlatInitial
04:55:17.991 PM 02/14/2016,Teleop Enabled,0,FALSE,0,NO ERROR,0.000000,0.000000,-6000.000000,-6000.000000,Speed,Speed,-8.960000,1.250000,2.520000,1.000000,106.000000,1,1,0.000000,-0.000000,0,-0.197861,-0.011795,0.000000,0.579300,-0.623215,0.000000,-0.024000,-0.040000,0.006000,FlatInitial
04:55:18.092 PM 02/14/2016,Teleop Enabled,0,FALSE,0,NO ERROR,0.000000,0.000000,-6000.000000,-6000.000000,Speed,Speed,-9.030000,1.210000,2.200000,1.000000,100.000000,1,1,-0.072647,-0.072647,0,0.000000,-0.063980,0.000000,0.571289,-0.625443,0.000000,-0.004000,-0.015000,-0.021000,FlatInitial
04:55:18.192 PM 02/14/2016,Teleop Enabled,0,FALSE,0,NO ERROR,0.000000,0.000000,-6000.000000,-6000.000000,Speed,Speed,-8.810000,1.150000,2.240000,1.000000,102.000000,1,1,-0.072647,-0.072647,0,0.001801,-0.013672,0.000000,0.571304,-0.625717,0.000000,0.000000,-0.007000,-0.020000,FlatInitial
04:55:18.293 PM 02/14/2016,Teleop Enabled,0,FALSE,0,NO ERROR,0.000000,0.000000,-6000.000000,-6000.000000,Speed,Speed,-8.360000,1.100000,2.270000,1.000000,100.000000,1,1,0.000000,-0.000000,0,-0.007706,0.000000,0.000000,0.571274,-0.625717,0.000000,-0.020000,-0.009000,0.000000,FlatInitial
04:55:18.394 PM 02/14/2016,Teleop Enabled,0,FALSE,0,NO ERROR,0.000000,0.000000,-6000.000000,-6000.000000,Speed,Speed,-8.140000,1.160000,2.300000,1.000000,102.000000,1,1,0.000000,-0.000000,0,0.006195,0.017853,0.000000,0.571182,-0.625366,0.000000,-0.002000,0.026000,0.009000,FlatInitial
04:55:18.494 PM 02/14/2016,Teleop Enabled,0,FALSE,0,NO ERROR,0.000000,0.000000,-6000.000000,-6000.000000,Speed,Speed,-8.120000,1.120000,2.460000,1.000000,100.000000,1,1,-0.062500,-0.062500,0,0.000000,0.042877,0.000000,0.571121,-0.623688,0.000000,0.011000,0.013000,-0.022000,FlatInitial
04:55:18.595 PM 02/14/2016,Teleop Enabled,0,FALSE,0,NO ERROR,0.000000,0.000000,-6000.000000,-6000.000000,Speed,Speed,-8.160000,1.110000,2.390000,1.000000,101.000000,1,1,0.000000,-0.000000,0,-0.008224,-0.009613,0.000000,0.571014,-0.623383,0.000000,-0.021000,0.000000,-0.021000,FlatInitial
04:55:18.695 PM 02/14/2016,Teleop Enabled,0,FALSE,0,NO ERROR,0.000000,0.000000,-6000.000000,-6000.000000,Speed,Speed,-8.160000,1.130000,2.430000,1.000000,102.000000,1,1,0.000000,-0.000000,0,0.000000,0.000000,0.000000,0.570923,-0.623474,0.000000,-0.011000,0.000000,-0.018000,FlatInitial
04:55:18.796 PM 02/14/2016,Teleop Enabled,0,FALSE,0,NO ERROR,0.000000,0.000000,-6000.000000,-6000.000000,Speed,Speed,-8.150000,1.120000,2.400000,1.000000,102.000000,1,1,-0.060562,-0.060562,0,0.000000,0.000000,0.000000,0.570923,-0.623474,0.000000,0.005000,0.000000,0.011000,FlatInitial
04:55:18.896 PM 02/14/2016,Teleop Enabled,0,FALSE,0,NO ERROR,0.000000,0.000000,-6000.000000,-6000.000000,Speed,Speed,-8.140000,1.110000,2.430000,1.000000,104.000000,1,1,-0.060562,-0.060562,0,0.000000,0.000000,0.000000,0.570923,-0.623474,0.000000,-0.003000,-0.004000,0.011000,FlatInitial
04:55:18.996 PM 02/14/2016,Teleop Enabled,0,FALSE,0,NO ERROR,0.000000,0.000000,-6000.000000,-6000.000000,Speed,Speed,-8.130000,1.100000,2.420000,1.000000,101.000000,1,1,-0.060562,-0.060562,0,0.000000,0.000000,0.000000,0.570923,-0.623474,0.000000,-0.002000,-0.001000,0.004000,FlatInitial
04:55:19.096 PM 02/14/2016,Teleop Enabled,0,FALSE,0,NO ERROR,0.000000,0.000000,-6000.000000,-6000.000000,Speed,Speed,-8.120000,1.110000,2.420000,1.000000,103.000000,1,1,-0.060562,-0.060562,0,0.000000,0.000000,0.000000,0.570923,-0.623474,0.000000,-0.005000,-0.003000,0.000000,FlatInitial
04:55:19.196 PM 02/14/2016,Teleop Enabled,0,FALSE,0,NO ERROR,0.000000,0.000000,-6000.000000,-6000.000000,Speed,Speed,-8.130000,1.100000,2.420000,1.000000,101.000000,1,1,-0.060562,-0.060562,0,0.000000,0.000000,0.000000,0.570923,-0.623474,0.000000,-0.001000,0.000000,0.002000,FlatInitial
04:55:19.296 PM 02/14/2016,Teleop Enabled,0,FALSE,0,NO ERROR,0.000000,0.000000,-6000.000000,-6000.000000,Speed,Speed,-8.130000,1.090000,2.430000,1.000000,102.000000,1,1,-0.060562,-0.060562,0,0.000000,0.000000,0.000000,0.570923,-0.623474,0.000000,0.000000,0.000000,0.003000,FlatInitial
04:55:19.396 PM 02/14/2016,Teleop Enabled,0,FALSE,0,NO ERROR,0.000000,0.000000,-6000.000000,-6000.000000,Speed,Speed,-8.130000,1.080000,2.430000,1.000000,101.000000,1,1,-0.060562,-0.060562,0,0.000000,0.000000,0.000000,0.570923,-0.623474,0.000000,-0.001000,0.001000,0.004000,FlatInitial
04:55:19.496 PM 02/14/2016,Teleop Enabled,0,FALSE,0,NO ERROR,0.000000,0.000000,-6000.000000,-6000.000000,Speed,Speed,-8.130000,1.080000,2.430000,1.000000,103.000000,1,1,-0.060562,-0.060562,0,0.000000,0.000000,0.000000,0.570923,-0.623474,0.000000,-0.001000,-0.003000,0.005000,FlatInitial
04:55:19.596 PM 02/14/2016,Teleop Enabled,0,FALSE,0,NO ERROR,0.000000,0.000000,-6000.000000,-6000.000000,Speed,Speed,-8.130000,1.080000,2.430000,1.000000,101.000000,1,1,-0.060562,-0.060562,0,0.000000,0.000000,0.000000,0.570923,-0.623474,0.000000,-0.001000,-0.003000,0.005000,FlatInitial
04:55:19.696 PM 02/14/2016,Teleop Enabled,0,FALSE,0,NO ERROR,0.000000,0.000000,-6000.000000,-6000.000000,Speed,Speed,-8.130000,1.070000,2.430000,1.000000,102.000000,1,1,-0.060562,-0.060562,0,0.000000,0.000000,0.000000,0.570923,-0.623474,0.000000,0.000000,0.000000,0.005000,FlatInitial
04:55:19.797 PM 02/14/2016,Teleop Enabled,0,FALSE,0,NO ERROR,0.000000,0.000000,-6000.000000,-6000.000000,Speed,Speed,-8.140000,1.070000,2.440000,1.000000,102.000000,1,0,-0.000062,-0.006200,0,0.000000,0.000000,0.000000,0.570923,-0.623474,0.000000,-0.006000,0.000000,0.003000,FlatInitial
04:55:19.897 PM 02/14/2016,Teleop Enabled,0,FALSE,0,NO ERROR,0.000000,0.000000,-6000.000000,-6000.000000,Speed,Speed,-8.140000,1.060000,2.440000,1.000000,101.000000,1,0,-0.000062,-0.006200,0,0.000000,0.000000,0.000000,0.570923,-0.623474,0.000000,-0.006000,0.000000,0.003000,FlatInitial
04:55:19.997 PM 02/14/2016,Teleop Enabled,0,FALSE,0,NO ERROR,0.000000,0.000000,-6000.000000,-6000.000000,Speed,Speed,-8.140000,1.060000,2.430000,1.000000,101.000000,1,0,-0.000062,-0.006200,0,0.000000,0.000000,0.000000,0.570923,-0.623474,0.000000,-0.004000,0.000000,0.005000,FlatInitial
04:55:20.097 PM 02/14/2016,Teleop Enabled,0,FALSE,0,NO ERROR,0.000000,0.000000,-6000.000000,-6000.000000,Speed,Speed,-8.140000,1.060000,2.440000,1.000000,103.000000,1,0,-0.000062,-0.006200,0,0.000000,0.000000,0.000000,0.570923,-0.623474,0.000000,-0.004000,0.000000,0.005000,FlatInitial
04:55:20.197 PM 02/14/2016,Teleop Enabled,0,FALSE,0,NO ERROR,0.000000,0.000000,-6000.000000,-6000.000000,Speed,Speed,-8.140000,1.060000,2.440000,1.000000,101.000000,1,0,-0.000062,-0.006200,0,0.000000,0.000000,0.000000,0.570923,-0.623474,0.000000,0.000000,0.000000,0.005000,FlatInitial
04:55:20.297 PM 02/14/2016,Teleop Enabled,0,FALSE,0,NO ERROR,0.000000,0.000000,-6000.000000,-6000.000000,Speed,Speed,-8.140000,1.060000,2.440000,1.000000,100.000000,1,0,-0.000062,-0.006200,0,0.000000,0.000000,0.000000,0.570923,-0.623474,0.000000,0.000000,-0.001000,0.003000,FlatInitial
04:55:20.398 PM 02/14/2016,Teleop Enabled,0,FALSE,0,NO ERROR,0.000000,0.000000,-6000.000000,-6000.000000,Speed,Speed,-8.140000,1.060000,2.440000,1.000000,101.000000,1,0,-0.000062,-0.006200,0,0.000000,0.000000,0.000000,0.570923,-0.623474,0.000000,0.000000,0.000000,0.002000,FlatInitial
04:55:20.498 PM 02/14/2016,Teleop Enabled,0,FALSE,0,NO ERROR,0.000000,0.000000,-6000.000000,-6000.000000,Speed,Speed,-8.140000,1.060000,2.440000,1.000000,102.000000,1,0,-0.000062,-0.006200,0,0.000000,0.000000,0.000000,0.570923,-0.623474,0.000000,0.000000,0.000000,0.000000,FlatInitial
04:55:20.599 PM 02/14/2016,Teleop Enabled,0,FALSE,0,NO ERROR,0.000000,0.000000,-6000.000000,-6000.000000,Speed,Speed,-8.140000,1.060000,2.440000,1.000000,102.000000,1,0,-0.000062,-0.006200,0,0.000000,0.000000,0.000000,0.570923,-0.623474,0.000000,-0.001000,-0.001000,0.002000,FlatInitial
04:55:20.700 PM 02/14/2016,Teleop Enabled,0,FALSE,0,NO ERROR,0.000000,0.000000,-6000.000000,-6000.000000,Speed,Speed,-8.140000,1.060000,2.440000,1.000000,100.000000,1,0,-0.000062,-0.006200,0,0.000000,0.000000,0.000000,0.570923,-0.623474,0.000000,0.001000,0.000000,0.001000,FlatInitial
04:55:20.801 PM 02/14/2016,Teleop Enabled,0,FALSE,0,NO ERROR,0.000000,0.000000,-6000.000000,-6000.000000,Speed,Speed,-8.140000,1.060000,2.440000,1.000000,101.000000,1,0,-0.000062,-0.006200,0,0.000000,0.000000,0.000000,0.570923,-0.623474,0.000000,-0.001000,0.000000,0.005000,FlatInitial
04:55:20.903 PM 02/14/2016,Teleop Enabled,0,FALSE,0,NO ERROR,0.000000,0.000000,-6000.000000,-6000.000000,Speed,Speed,-8.140000,1.060000,2.440000,1.000000,101.000000,1,0,-0.000062,-0.006200,0,0.000000,0.000000,0.000000,0.570923,-0.623474,0.000000,0.000000,0.000000,0.006000,FlatInitial
04:55:21.003 PM 02/14/2016,Teleop Enabled,0,FALSE,0,NO ERROR,0.000000,0.000000,-6000.000000,-6000.000000,Speed,Speed,-8.140000,1.050000,2.450000,1.000000,101.000000,1,0,-0.000062,-0.006200,0,0.000000,0.000000,0.000000,0.570923,-0.623474,0.000000,0.000000,0.002000,0.003000,FlatInitial
04:55:21.103 PM 02/14/2016,Teleop Enabled,0,FALSE,0,NO ERROR,0.000000,0.000000,-6000.000000,-6000.000000,Speed,Speed,-8.140000,1.050000,2.450000,1.000000,102.000000,1,0,-0.000062,-0.006200,0,0.000000,0.000000,0.000000,0.570923,-0.623474,0.000000,0.000000,-0.001000,0.005000,FlatInitial
04:55:21.204 PM 02/14/2016,Teleop Enabled,0,FALSE,0,NO ERROR,0.000000,0.000000,-6000.000000,-6000.000000,Speed,Speed,-8.150000,1.050000,2.450000,1.000000,101.000000,1,0,-0.000062,-0.006200,0,0.000000,0.000000,0.000000,0.570923,-0.623474,0.000000,0.001000,0.000000,0.003000,FlatInitial
04:55:21.306 PM 02/14/2016,Teleop Enabled,0,FALSE,0,NO ERROR,0.000000,0.000000,-6000.000000,-6000.000000,Speed,Speed,-8.150000,1.040000,2.450000,1.000000,101.000000,1,0,-0.000062,-0.006200,0,0.000000,0.000000,0.000000,0.570923,-0.623474,0.000000,-0.001000,0.000000,0.003000,FlatInitial
04:55:21.406 PM 02/14/2016,Teleop Enabled,0,FALSE,0,NO ERROR,0.000000,0.000000,-6000.000000,-6000.000000,Speed,Speed,-8.150000,1.040000,2.440000,1.000000,100.000000,1,0,-0.000062,-0.006200,0,0.000000,0.000000,0.000000,0.570923,-0.623474,0.000000,0.001000,0.000000,0.003000,FlatInitial
04:55:21.506 PM 02/14/2016,Teleop Enabled,0,FALSE,0,NO ERROR,0.000000,0.000000,-6000.000000,-6000.000000,Speed,Speed,-8.150000,1.030000,2.440000,1.000000,101.000000,1,0,-0.000062,-0.006200,0,0.000000,0.000000,0.000000,0.570923,-0.623474,0.000000,0.001000,0.003000,0.000000,FlatInitial
04:55:21.607 PM 02/14/2016,Teleop Enabled,0,FALSE,0,NO ERROR,0.000000,0.000000,-6000.000000,-6000.000000,Speed,Speed,-8.140000,1.040000,2.450000,1.000000,110.000000,1,0,-0.000062,-0.006200,0,0.000000,0.000000,0.000000,0.570923,-0.623474,0.000000,0.000000,0.000000,0.002000,FlatInitial
04:55:21.707 PM 02/14/2016,Teleop Enabled,0,FALSE,0,NO ERROR,0.000000,0.000000,-6000.000000,-6000.000000,Speed,Speed,-8.140000,1.040000,2.450000,1.000000,100.000000,1,0,-0.000062,-0.006200,0,0.000000,0.000000,0.000000,0.570923,-0.623474,0.000000,-0.002000,0.001000,0.004000,FlatInitial
04:55:21.807 PM 02/14/2016,Teleop Enabled,0,FALSE,0,NO ERROR,0.000000,0.000000,-6000.000000,-6000.000000,Speed,Speed,-8.140000,1.040000,2.450000,1.000000,100.000000,1,0,-0.000062,-0.006200,0,0.000000,0.000000,0.000000,0.570923,-0.623474,0.000000,0.001000,0.000000,0.007000,FlatInitial
04:55:21.908 PM 02/14/2016,Teleop Enabled,0,FALSE,0,NO ERROR,0.000000,0.000000,-6000.000000,-6000.000000,Speed,Speed,-8.140000,1.040000,2.450000,1.000000,101.000000,1,0,-0.000062,-0.006200,0,0.000000,0.000000,0.000000,0.570923,-0.623474,0.000000,0.000000,0.000000,-0.001000,FlatInitial
04:55:22.008 PM 02/14/2016,Teleop Enabled,0,FALSE,0,NO ERROR,0.000000,0.000000,-6000.000000,-6000.000000,Speed,Speed,-8.140000,1.040000,2.460000,1.000000,101.000000,1,0,-0.000062,-0.006200,0,0.000000,0.000000,0.000000,0.570923,-0.623474,0.000000,0.001000,0.002000,0.006000,FlatInitial
04:55:22.108 PM 02/14/2016,Teleop Enabled,0,FALSE,0,NO ERROR,0.000000,0.000000,-6000.000000,-6000.000000,Speed,Speed,-8.140000,1.040000,2.460000,1.000000,101.000000,1,0,-0.000062,-0.006200,0,0.000000,0.000000,0.000000,0.570923,-0.623474,0.000000,0.001000,-0.001000,0.006000,FlatInitial
04:55:22.210 PM 02/14/2016,Teleop Enabled,0,FALSE,0,NO ERROR,0.000000,0.000000,-6000.000000,-6000.000000,Speed,Speed,-8.140000,1.040000,2.460000,1.000000,101.000000,1,0,-0.000062,-0.006200,0,0.000000,0.000000,0.000000,0.570923,-0.623474,0.000000,-0.002000,0.001000,0.003000,FlatInitial
04:55:22.311 PM 02/14/2016,Teleop Enabled,0,FALSE,0,NO ERROR,0.000000,0.000000,-6000.000000,-6000.000000,Speed,Speed,-8.140000,1.040000,2.460000,1.000000,101.000000,1,0,-0.000062,-0.006200,0,0.000000,0.000000,0.000000,0.570923,-0.623474,0.000000,0.000000,-0.002000,0.003000,FlatInitial
04:55:22.411 PM 02/14/2016,Teleop Enabled,0,FALSE,0,NO ERROR,0.000000,0.000000,-6000.000000,-6000.000000,Speed,Speed,-8.140000,1.040000,2.470000,1.000000,102.000000,1,0,-0.000062,-0.006200,0,0.000000,0.000000,0.000000,0.570923,-0.623474,0.000000,0.000000,0.000000,0.000000,FlatInitial
04:55:22.513 PM 02/14/2016,Teleop Enabled,0,FALSE,0,NO ERROR,0.000000,0.000000,-6000.000000,-6000.000000,Speed,Speed,-8.140000,1.050000,2.460000,1.000000,101.000000,1,0,-0.000062,-0.006200,0,0.000000,0.000000,0.000000,0.570923,-0.623474,0.000000,0.003000,0.000000,0.003000,FlatInitial
04:55:22.612 PM 02/14/2016,Teleop Enabled,0,FALSE,0,NO ERROR,0.000000,0.000000,-6000.000000,-6000.000000,Speed,Speed,-8.140000,1.050000,2.460000,1.000000,102.000000,1,0,-0.000062,-0.006200,0,0.000000,0.000000,0.000000,0.570923,-0.623474,0.000000,0.000000,0.001000,0.005000,FlatInitial
04:55:22.713 PM 02/14/2016,Teleop Enabled,0,FALSE,0,NO ERROR,0.000000,0.000000,-6000.000000,-6000.000000,Speed,Speed,-8.140000,1.050000,2.460000,1.000000,100.000000,1,0,-0.000062,-0.006200,0,0.000000,0.000000,0.000000,0.570923,-0.623474,0.000000,0.000000,-0.001000,0.010000,FlatInitial
04:55:22.814 PM 02/14/2016,Teleop Enabled,0,FALSE,0,NO ERROR,0.000000,0.000000,-6000.000000,-6000.000000,Speed,Speed,-8.140000,1.040000,2.470000,1.000000,100.000000,1,0,-0.000062,-0.006200,0,0.000000,0.000000,0.000000,0.570923,-0.623474,0.000000,-0.001000,0.000000,0.004000,FlatInitial
04:55:22.915 PM 02/14/2016,Teleop Enabled,0,FALSE,0,NO ERROR,0.000000,0.000000,-6000.000000,-6000.000000,Speed,Speed,-8.140000,1.040000,2.460000,1.000000,101.000000,1,0,-0.000062,-0.006200,0,0.000000,0.000000,0.000000,0.570923,-0.623474,0.000000,0.000000,0.000000,0.003000,FlatInitial
04:55:23.015 PM 02/14/2016,Teleop Enabled,0,FALSE,0,NO ERROR,0.000000,0.000000,-6000.000000,-6000.000000,Speed,Speed,-8.140000,1.040000,2.470000,1.000000,102.000000,1,0,-0.000062,-0.006200,0,0.000000,0.000000,0.000000,0.570923,-0.623474,0.000000,0.000000,0.000000,0.003000,FlatInitial
04:55:23.116 PM 02/14/2016,Teleop Enabled,0,FALSE,0,NO ERROR,0.000000,0.000000,-6000.000000,-6000.000000,Speed,Speed,-8.140000,1.040000,2.470000,1.000000,102.000000,1,0,-0.000062,-0.006200,0,0.000000,0.000000,0.000000,0.570923,-0.623474,0.000000,0.000000,-0.001000,0.003000,FlatInitial
04:55:23.216 PM 02/14/2016,Teleop Enabled,0,FALSE,0,NO ERROR,0.000000,0.000000,-6000.000000,-6000.000000,Speed,Speed,-8.140000,1.040000,2.470000,1.000000,104.000000,1,0,-0.000062,-0.006200,0,0.000000,0.000000,0.000000,0.570923,-0.623474,0.000000,-0.002000,-0.001000,0.000000,FlatInitial
04:55:23.316 PM 02/14/2016,Teleop Enabled,0,FALSE,0,NO ERROR,0.000000,0.000000,-6000.000000,-6000.000000,Speed,Speed,-8.140000,1.040000,2.470000,1.000000,101.000000,1,0,-0.000062,-0.006200,0,0.000000,0.000000,0.000000,0.570923,-0.623474,0.000000,0.000000,0.003000,0.003000,FlatInitial
04:55:23.417 PM 02/14/2016,Teleop Enabled,0,FALSE,0,NO ERROR,0.000000,0.000000,-6000.000000,-6000.000000,Speed,Speed,-8.140000,1.040000,2.470000,1.000000,102.000000,1,0,-0.000062,-0.006200,0,0.000000,0.000000,0.000000,0.570923,-0.623474,0.000000,0.000000,0.000000,0.002000,FlatInitial
04:55:23.518 PM 02/14/2016,Teleop Enabled,0,FALSE,0,NO ERROR,0.000000,0.000000,-6000.000000,-6000.000000,Speed,Speed,-8.140000,1.040000,2.470000,1.000000,101.000000,1,0,-0.000062,-0.006200,0,0.000000,0.000000,0.000000,0.570923,-0.623474,0.000000,0.002000,0.000000,0.003000,FlatInitial
04:55:23.618 PM 02/14/2016,Teleop Enabled,0,FALSE,0,NO ERROR,0.000000,0.000000,-6000.000000,-6000.000000,Speed,Speed,-8.130000,1.030000,2.470000,1.000000,102.000000,1,0,-0.000062,-0.006200,0,0.000000,0.000000,0.000000,0.570923,-0.623474,0.000000,0.001000,0.000000,0.001000,FlatInitial
04:55:23.721 PM 02/14/2016,Teleop Enabled,0,FALSE,0,NO ERROR,0.000000,0.000000,-6000.000000,-6000.000000,Speed,Speed,-8.140000,1.030000,2.470000,1.000000,102.000000,1,0,-0.000062,-0.006200,0,0.000000,0.000000,0.000000,0.570923,-0.623474,0.000000,0.000000,0.000000,0.002000,FlatInitial
04:55:23.821 PM 02/14/2016,Teleop Enabled,0,FALSE,0,NO ERROR,0.000000,0.000000,-6000.000000,-6000.000000,Speed,Speed,-8.140000,1.030000,2.470000,1.000000,101.000000,1,0,-0.000062,-0.006200,0,0.000000,0.000000,0.000000,0.570923,-0.623474,0.000000,-0.002000,0.001000,0.001000,FlatInitial
04:55:23.922 PM 02/14/2016,Teleop Enabled,0,FALSE,0,NO ERROR,0.000000,0.000000,-6000.000000,-6000.000000,Speed,Speed,-8.140000,1.030000,2.480000,1.000000,102.000000,1,0,-0.000062,-0.006200,0,0.000000,0.000000,0.000000,0.570923,-0.623474,0.000000,0.000000,0.000000,0.004000,FlatInitial
04:55:24.022 PM 02/14/2016,Teleop Enabled,0,FALSE,0,NO ERROR,0.000000,0.000000,-6000.000000,-6000.000000,Speed,Speed,-8.140000,1.030000,2.480000,1.000000,103.000000,1,0,-0.000062,-0.006200,0,0.000000,0.000000,0.000000,0.570923,-0.623474,0.000000,0.002000,0.001000,0.004000,FlatInitial
04:55:24.122 PM 02/14/2016,Teleop Enabled,0,FALSE,0,NO ERROR,0.000000,0.000000,-6000.000000,-6000.000000,Speed,Speed,-8.140000,1.030000,2.480000,1.000000,102.000000,1,0,-0.000062,-0.006200,0,0.000000,0.000000,0.000000,0.570923,-0.623474,0.000000,-0.001000,0.000000,-0.004000,FlatInitial
04:55:24.223 PM 02/14/2016,Teleop Enabled,0,FALSE,0,NO ERROR,0.000000,0.000000,-6000.000000,-6000.000000,Speed,Speed,-8.140000,1.030000,2.480000,1.000000,102.000000,1,0,-0.000062,-0.006200,0,0.000000,0.000000,0.000000,0.570923,-0.623474,0.000000,0.001000,-0.004000,0.005000,FlatInitial
04:55:24.323 PM 02/14/2016,Teleop Enabled,0,FALSE,0,NO ERROR,0.000000,0.000000,-6000.000000,-6000.000000,Speed,Speed,-8.140000,1.030000,2.480000,1.000000,103.000000,1,1,-0.060562,-0.060562,0,0.000000,0.000000,0.000000,0.570923,-0.623474,0.000000,0.001000,0.000000,0.005000,FlatInitial
04:55:24.425 PM 02/14/2016,Teleop Enabled,0,FALSE,0,NO ERROR,0.000000,0.000000,-6000.000000,-6000.000000,Speed,Speed,-8.140000,1.030000,2.470000,1.000000,100.000000,1,1,-0.060562,-0.060562,0,0.000000,0.000000,0.000000,0.570923,-0.623474,0.000000,-0.002000,-0.003000,-0.005000,FlatInitial
04:55:24.525 PM 02/14/2016,Teleop Enabled,0,FALSE,0,NO ERROR,0.000000,0.000000,-6000.000000,-6000.000000,Speed,Speed,-8.140000,1.030000,2.470000,1.000000,102.000000,1,1,0.000000,-0.000000,0,0.000000,0.000000,0.000000,0.570923,-0.623474,0.000000,0.001000,0.000000,0.003000,FlatInitial
04:55:24.625 PM 02/14/2016,Teleop Enabled,0,FALSE,0,NO ERROR,0.000000,0.000000,-6000.000000,-6000.000000,Speed,Speed,-8.150000,1.030000,2.480000,1.000000,100.000000,1,1,-0.060562,-0.060562,0,0.000000,0.000000,0.000000,0.570923,-0.623474,0.000000,-0.003000,0.001000,0.008000,FlatInitial
04:55:24.727 PM 02/14/2016,Teleop Enabled,0,FALSE,0,NO ERROR,0.000000,0.000000,-6000.000000,-6000.000000,Speed,Speed,-8.150000,1.030000,2.460000,1.000000,101.000000,1,1,-0.062500,-0.062500,0,0.000000,0.000000,0.000000,0.570923,-0.623474,0.000000,-0.001000,-0.002000,0.007000,FlatInitial
04:55:24.826 PM 02/14/2016,Teleop Enabled,0,FALSE,0,NO ERROR,0.000000,0.000000,-6000.000000,-6000.000000,Speed,Speed,-8.150000,1.030000,2.460000,1.000000,101.000000,1,1,-0.060562,-0.060562,0,0.000000,0.000000,0.000000,0.570923,-0.623474,0.000000,0.000000,0.002000,0.001000,FlatInitial
04:55:24.927 PM 02/14/2016,Teleop Enabled,0,FALSE,0,NO ERROR,0.000000,0.000000,-6000.000000,-6000.000000,Speed,Speed,-8.150000,1.030000,2.460000,1.000000,101.000000,1,1,-0.060562,-0.060562,0,0.000000,0.000000,0.000000,0.570923,-0.623474,0.000000,-0.002000,0.002000,0.005000,FlatInitial
04:55:25.028 PM 02/14/2016,Teleop Enabled,0,FALSE,0,NO ERROR,0.000000,0.000000,-6000.000000,-6000.000000,Speed,Speed,-8.150000,1.030000,2.460000,1.000000,101.000000,1,1,-0.060562,-0.060562,0,0.000000,0.000000,0.000000,0.570923,-0.623474,0.000000,0.000000,0.001000,0.003000,FlatInitial
04:55:25.128 PM 02/14/2016,Teleop Enabled,0,FALSE,0,NO ERROR,0.000000,0.000000,-6000.000000,-6000.000000,Speed,Speed,-8.150000,1.030000,2.470000,1.000000,101.000000,1,1,-0.060562,-0.060562,0,0.000000,0.000000,0.000000,0.570923,-0.623474,0.000000,0.003000,0.000000,0.001000,FlatInitial
04:55:25.228 PM 02/14/2016,Teleop Enabled,0,FALSE,0,NO ERROR,0.000000,0.000000,-6000.000000,-6000.000000,Speed,Speed,-8.160000,1.030000,2.470000,1.000000,100.000000,1,1,-0.060562,-0.060562,0,0.000000,0.000000,0.000000,0.570923,-0.623474,0.000000,0.001000,0.002000,0.005000,FlatInitial
04:55:25.329 PM 02/14/2016,Teleop Enabled,0,FALSE,0,NO ERROR,0.000000,0.000000,-6000.000000,-6000.000000,Speed,Speed,-8.150000,1.030000,2.470000,1.000000,102.000000,1,1,0.000000,-0.000000,0,0.000000,0.000000,0.000000,0.570923,-0.623474,0.000000,-0.002000,0.001000,0.000000,FlatInitial
04:55:25.429 PM 02/14/2016,Teleop Enabled,0,FALSE,0,NO ERROR,0.000000,0.000000,-6000.000000,-6000.000000,Speed,Speed,-8.150000,1.020000,2.480000,1.000000,103.000000,1,1,-0.060562,-0.060562,0,0.000000,0.000000,0.000000,0.570923,-0.623474,0.000000,0.001000,-0.002000,0.005000,FlatInitial
04:55:25.530 PM 02/14/2016,Teleop Enabled,0,FALSE,0,NO ERROR,0.000000,0.000000,-6000.000000,-6000.000000,Speed,Speed,-8.160000,1.020000,2.480000,1.000000,102.000000,1,1,-0.060562,-0.060562,0,0.000000,0.000000,0.000000,0.570923,-0.623474,0.000000,0.000000,0.000000,0.004000,FlatInitial
04:55:25.631 PM 02/14/2016,Teleop Enabled,0,FALSE,0,NO ERROR,0.000000,0.000000,-6000.000000,-6000.000000,Speed,Speed,-8.160000,1.020000,2.470000,1.000000,100.000000,1,1,-0.060562,-0.060562,0,0.000000,0.000000,0.000000,0.570923,-0.623474,0.000000,-0.001000,-0.003000,0.005000,FlatInitial
04:55:25.732 PM 02/14/2016,Teleop Enabled,0,FALSE,0,NO ERROR,0.000000,0.000000,-6000.000000,-6000.000000,Speed,Speed,-8.160000,1.020000,2.470000,1.000000,100.000000,1,1,-0.060562,-0.060562,0,0.000000,0.000000,0.000000,0.570923,-0.623474,0.000000,0.000000,0.001000,0.003000,FlatInitial
04:55:25.832 PM 02/14/2016,Teleop Enabled,0,FALSE,0,NO ERROR,0.000000,0.000000,-6000.000000,-6000.000000,Speed,Speed,-8.160000,1.030000,2.480000,1.000000,101.000000,1,1,-0.060562,-0.060562,0,0.000000,0.000000,0.000000,0.570923,-0.623474,0.000000,0.001000,0.001000,0.007000,FlatInitial
04:55:25.932 PM 02/14/2016,Teleop Enabled,0,FALSE,0,NO ERROR,0.000000,0.000000,-6000.000000,-6000.000000,Speed,Speed,-8.160000,1.030000,2.480000,1.000000,102.000000,1,1,0.000000,-0.000000,0,0.000000,0.000000,0.000000,0.570923,-0.623474,0.000000,-0.001000,-0.001000,0.008000,FlatInitial
04:55:26.033 PM 02/14/2016,Teleop Enabled,0,FALSE,0,NO ERROR,0.000000,0.000000,-6000.000000,-6000.000000,Speed,Speed,-8.160000,1.020000,2.480000,1.000000,103.000000,1,1,-0.060562,-0.060562,0,0.000000,0.000000,0.000000,0.570923,-0.623474,0.000000,-0.001000,0.002000,0.004000,FlatInitial
04:55:26.133 PM 02/14/2016,Teleop Enabled,0,FALSE,0,NO ERROR,0.000000,0.000000,-6000.000000,-6000.000000,Speed,Speed,-8.160000,1.030000,2.480000,1.000000,102.000000,1,1,-0.060562,-0.060562,0,0.000000,0.000000,0.000000,0.570923,-0.623474,0.000000,-0.001000,0.000000,0.001000,FlatInitial
04:55:26.235 PM 02/14/2016,Teleop Enabled,0,FALSE,0,NO ERROR,0.000000,0.000000,-6000.000000,-6000.000000,Speed,Speed,-8.160000,1.030000,2.480000,1.000000,102.000000,1,1,-0.060562,-0.060562,0,0.000000,0.000000,0.000000,0.570923,-0.623474,0.000000,0.001000,-0.004000,0.005000,FlatInitial
04:55:26.336 PM 02/14/2016,Teleop Enabled,0,FALSE,0,NO ERROR,0.000000,0.000000,-6000.000000,-6000.000000,Speed,Speed,-8.160000,1.030000,2.480000,1.000000,104.000000,1,1,-0.062500,-0.062500,0,0.000000,0.000000,0.000000,0.570923,-0.623474,0.000000,0.000000,-0.002000,0.000000,FlatInitial
04:55:26.437 PM 02/14/2016,Teleop Enabled,0,FALSE,0,NO ERROR,0.000000,0.000000,-6000.000000,-6000.000000,Speed,Speed,-8.160000,1.030000,2.480000,1.000000,102.000000,1,1,-0.060562,-0.060562,0,0.000000,0.000000,0.000000,0.570923,-0.623474,0.000000,0.000000,0.000000,0.001000,FlatInitial
04:55:26.537 PM 02/14/2016,Teleop Enabled,0,FALSE,0,NO ERROR,0.000000,0.000000,-6000.000000,-6000.000000,Speed,Speed,-8.160000,1.030000,2.470000,1.000000,101.000000,1,1,-0.060562,-0.060562,0,0.000000,0.000000,0.000000,0.570923,-0.623474,0.000000,-0.002000,-0.002000,0.003000,FlatInitial
04:55:26.638 PM 02/14/2016,Teleop Enabled,0,FALSE,0,NO ERROR,0.000000,0.000000,-6000.000000,-6000.000000,Speed,Speed,-8.170000,1.020000,2.470000,1.000000,102.000000,1,1,-0.060562,-0.060562,0,0.000000,0.000000,0.000000,0.570923,-0.623474,0.000000,0.001000,0.000000,0.002000,FlatInitial
04:55:26.738 PM 02/14/2016,Teleop Enabled,0,FALSE,0,NO ERROR,0.000000,0.000000,-6000.000000,-6000.000000,Speed,Speed,-8.170000,1.020000,2.480000,1.000000,101.000000,1,1,-0.060562,-0.060562,0,0.000000,0.000000,0.000000,0.570923,-0.623474,0.000000,0.000000,-0.001000,0.003000,FlatInitial
04:55:26.838 PM 02/14/2016,Teleop Enabled,0,FALSE,0,NO ERROR,0.000000,0.000000,-6000.000000,-6000.000000,Speed,Speed,-8.180000,1.030000,2.470000,1.000000,108.000000,1,1,-0.060562,-0.060562,0,0.000000,0.000000,0.000000,0.570923,-0.623474,0.000000,-0.001000,0.001000,0.009000,FlatInitial
04:55:26.939 PM 02/14/2016,Teleop Enabled,0,FALSE,0,NO ERROR,0.000000,0.000000,-6000.000000,-6000.000000,Speed,Speed,-8.180000,1.030000,2.480000,1.000000,102.000000,1,1,-0.060562,-0.060562,0,0.000000,0.000000,0.000000,0.570923,-0.623474,0.000000,0.000000,0.000000,0.000000,FlatInitial
04:55:27.042 PM 02/14/2016,Teleop Enabled,0,FALSE,0,NO ERROR,0.000000,0.000000,-6000.000000,-6000.000000,Speed,Speed,-8.180000,1.030000,2.480000,1.000000,102.000000,1,1,-0.060562,-0.060562,0,0.000000,0.000000,0.000000,0.570923,-0.623474,0.000000,0.000000,0.000000,0.000000,FlatInitial
04:55:27.141 PM 02/14/2016,Teleop Enabled,0,FALSE,0,NO ERROR,0.000000,0.000000,-6000.000000,-6000.000000,Speed,Speed,-8.180000,1.030000,2.480000,1.000000,102.000000,1,1,-0.060562,-0.060562,0,0.000000,0.000000,0.000000,0.570923,-0.623474,0.000000,0.000000,-0.002000,0.002000,FlatInitial
04:55:27.245 PM 02/14/2016,Teleop Enabled,0,FALSE,0,NO ERROR,0.000000,0.000000,-6000.000000,-6000.000000,Speed,Speed,-8.180000,1.030000,2.480000,1.000000,102.000000,1,1,-0.060562,-0.060562,0,0.000000,0.000000,0.000000,0.570923,-0.623474,0.000000,0.000000,0.000000,0.004000,FlatInitial
04:55:27.347 PM 02/14/2016,Teleop Enabled,0,FALSE,0,NO ERROR,0.000000,0.000000,-6000.000000,-6000.000000,Speed,Speed,-8.180000,1.030000,2.470000,1.000000,101.000000,1,1,-0.060562,-0.060562,0,0.000000,0.000000,0.000000,0.570923,-0.623474,0.000000,-0.003000,0.000000,0.005000,FlatInitial
04:55:27.448 PM 02/14/2016,Teleop Enabled,0,FALSE,0,NO ERROR,0.000000,0.000000,-6000.000000,-6000.000000,Speed,Speed,-8.180000,1.030000,2.470000,1.000000,100.000000,1,1,-0.060562,-0.060562,0,0.000000,0.000000,0.000000,0.570923,-0.623474,0.000000,0.000000,-0.002000,0.004000,FlatInitial
04:55:27.549 PM 02/14/2016,Teleop Enabled,0,FALSE,0,NO ERROR,0.000000,0.000000,-6000.000000,-6000.000000,Speed,Speed,-8.180000,1.030000,2.470000,1.000000,102.000000,1,1,-0.060562,-0.060562,0,0.000000,0.000000,0.000000,0.570923,-0.623474,0.000000,0.000000,0.002000,0.004000,FlatInitial
04:55:27.649 PM 02/14/2016,Teleop Enabled,0,FALSE,0,NO ERROR,0.000000,0.000000,-6000.000000,-6000.000000,Speed,Speed,-8.170000,1.030000,2.470000,1.000000,101.000000,1,1,-0.062500,-0.062500,0,0.000000,0.000000,0.000000,0.570923,-0.623474,0.000000,0.000000,0.002000,0.004000,FlatInitial
04:55:27.751 PM 02/14/2016,Teleop Enabled,0,FALSE,0,NO ERROR,0.000000,0.000000,-6000.000000,-6000.000000,Speed,Speed,-8.160000,1.030000,2.460000,1.000000,104.000000,1,1,-0.060562,-0.060562,0,0.000000,0.000000,0.000000,0.570923,-0.623474,0.000000,0.000000,0.002000,0.000000,FlatInitial
04:55:27.852 PM 02/14/2016,Teleop Enabled,0,FALSE,0,NO ERROR,0.000000,0.000000,-6000.000000,-6000.000000,Speed,Speed,-8.160000,1.030000,2.470000,1.000000,104.000000,1,1,-0.060562,-0.060562,0,0.000000,0.000000,0.000000,0.570923,-0.623474,0.000000,0.000000,0.001000,0.000000,FlatInitial
04:55:27.953 PM 02/14/2016,Teleop Enabled,0,FALSE,0,NO ERROR,0.000000,0.000000,-6000.000000,-6000.000000,Speed,Speed,-8.160000,1.020000,2.470000,1.000000,102.000000,1,1,-0.060562,-0.060562,0,0.000000,0.000000,0.000000,0.570923,-0.623474,0.000000,-0.003000,0.000000,0.003000,FlatInitial
04:55:28.054 PM 02/14/2016,Teleop Enabled,0,FALSE,0,NO ERROR,0.000000,0.000000,-6000.000000,-6000.000000,Speed,Speed,-8.140000,1.020000,2.470000,1.000000,100.000000,1,1,-0.060562,-0.060562,0,0.000000,0.000000,0.000000,0.570923,-0.623474,0.000000,-0.003000,0.000000,0.003000,FlatInitial
04:55:28.154 PM 02/14/2016,Teleop Enabled,0,FALSE,0,NO ERROR,0.000000,0.000000,-6000.000000,-6000.000000,Speed,Speed,-8.130000,1.030000,2.470000,1.000000,101.000000,1,1,-0.062500,-0.062500,0,0.000000,0.000000,0.000000,0.570923,-0.623474,0.000000,0.000000,0.000000,-0.001000,FlatInitial
04:55:28.254 PM 02/14/2016,Teleop Enabled,0,FALSE,0,NO ERROR,0.000000,0.000000,-6000.000000,-6000.000000,Speed,Speed,-8.130000,1.030000,2.460000,1.000000,100.000000,1,1,-0.062500,-0.062500,0,0.000000,0.000000,0.000000,0.570923,-0.623474,0.000000,0.000000,0.002000,0.004000,FlatInitial
04:55:28.355 PM 02/14/2016,Teleop Enabled,0,FALSE,0,NO ERROR,0.000000,0.000000,-6000.000000,-6000.000000,Speed,Speed,-8.120000,1.030000,2.460000,1.000000,102.000000,1,1,-0.060562,-0.060562,0,0.000000,0.000000,0.000000,0.570923,-0.623474,0.000000,0.001000,0.000000,0.000000,FlatInitial
04:55:28.456 PM 02/14/2016,Teleop Enabled,0,FALSE,0,NO ERROR,0.000000,0.000000,-6000.000000,-6000.000000,Speed,Speed,-8.110000,1.030000,2.460000,1.000000,102.000000,1,1,-0.062500,-0.062500,0,0.000000,0.000000,0.000000,0.570923,-0.623474,0.000000,0.003000,0.005000,-0.001000,FlatInitial
04:55:28.556 PM 02/14/2016,Teleop Enabled,0,FALSE,0,NO ERROR,0.000000,0.000000,-6000.000000,-6000.000000,Speed,Speed,-8.100000,1.030000,2.460000,1.000000,100.000000,1,1,-0.062500,-0.062500,0,0.000000,0.000000,0.000000,0.570923,-0.623474,0.000000,0.000000,0.003000,0.001000,FlatInitial
04:55:28.658 PM 02/14/2016,Teleop Enabled,0,FALSE,0,NO ERROR,0.000000,0.000000,-6000.000000,-6000.000000,Speed,Speed,-8.100000,1.030000,2.460000,1.000000,103.000000,1,1,-0.062500,-0.062500,0,0.000000,0.000000,0.000000,0.570923,-0.623474,0.000000,0.000000,0.003000,0.001000,FlatInitial
04:55:28.762 PM 02/14/2016,Teleop Enabled,0,FALSE,0,NO ERROR,0.000000,0.000000,-6000.000000,-6000.000000,Speed,Speed,-8.090000,1.020000,2.460000,1.000000,102.000000,1,1,-0.060562,-0.060562,0,0.000000,0.000000,0.000000,0.570923,-0.623474,0.000000,0.001000,0.000000,0.004000,FlatInitial
04:55:28.864 PM 02/14/2016,Teleop Enabled,0,FALSE,0,NO ERROR,0.000000,0.000000,-6000.000000,-6000.000000,Speed,Speed,-8.080000,1.020000,2.460000,1.000000,100.000000,1,1,-0.060562,-0.060562,0,0.000000,0.000000,0.000000,0.570923,-0.623474,0.000000,0.000000,0.002000,0.000000,FlatInitial
04:55:28.964 PM 02/14/2016,Teleop Enabled,0,FALSE,0,NO ERROR,0.000000,0.000000,-6000.000000,-6000.000000,Speed,Speed,-8.070000,1.020000,2.460000,1.000000,101.000000,1,1,-0.060562,-0.060562,0,0.000000,0.000000,0.000000,0.570923,-0.623474,0.000000,-0.003000,0.000000,0.003000,FlatInitial
04:55:29.065 PM 02/14/2016,Teleop Enabled,0,FALSE,0,NO ERROR,0.000000,0.000000,-6000.000000,-6000.000000,Speed,Speed,-8.070000,1.020000,2.460000,1.000000,102.000000,1,1,-0.062500,-0.062500,0,0.000000,0.000000,0.000000,0.570923,-0.623474,0.000000,-0.003000,0.000000,0.003000,FlatInitial
04:55:29.167 PM 02/14/2016,Teleop Enabled,0,FALSE,0,NO ERROR,0.000000,0.000000,-6000.000000,-6000.000000,Speed,Speed,-8.050000,1.020000,2.460000,1.000000,103.000000,1,1,-0.060562,-0.060562,0,0.000000,0.000000,0.000000,0.570923,-0.623474,0.000000,-0.001000,0.000000,0.001000,FlatInitial
04:55:29.267 PM 02/14/2016,Teleop Enabled,0,FALSE,0,NO ERROR,0.000000,0.000000,-6000.000000,-6000.000000,Speed,Speed,-8.050000,1.020000,2.460000,1.000000,102.000000,1,1,-0.062500,-0.062500,0,0.000000,0.000000,0.000000,0.570923,-0.623474,0.000000,-0.001000,0.000000,0.008000,FlatInitial
04:55:29.369 PM 02/14/2016,Teleop Enabled,0,FALSE,0,NO ERROR,0.000000,0.000000,-6000.000000,-6000.000000,Speed,Speed,-8.040000,1.020000,2.460000,1.000000,102.000000,1,1,-0.062500,-0.062500,0,0.000000,0.000000,0.000000,0.570923,-0.623474,0.000000,0.001000,0.000000,0.002000,FlatInitial
