Time,RobotMode,AutoToRun,ErrorStatus, ErrorCode,ErrorSource,ActualRPM1,ActualRPM2,DesiredRPM1,DesiredRPM2,ControlMode1,ControlMode2,NavXYaw,NavXRoll,NavXPitch,ShooterState,LoopTime,IsLevel,IsAutoTargeting,LeftMotorOutput,RightMotorOutput,IsHaloDrive,NavXVelocityX,NavXVelocityY,NavXVelocityZ,NavXDisplacementX,NavXDisplacementY,NavXDisplacementZ,NavXAccelerationX,NavXAccelerationY,NavXAccelerationZ,AutoDefendState
04:19:27.986 PM 02/14/2016,Autonomous Disabled,0,TRUE,91,Variant To Data in WPI_DigitalInputRefNum Registry Get.vi->Periodic Tasks.vi->Robot Main.vi,0.000000,0.000000,-6000.000000,-6000.000000,Speed,Speed,7.320000,1.020000,2.100000,1.000000,101.000000,1,0,-0.000248,0.000062,0,0.000000,0.000000,0.000000,-131.060577,9.394424,0.000000,0.000000,-0.002000,0.003000,FlatInitial
04:19:51.991 PM 02/14/2016,Teleop Enabled,0,TRUE,-44007,<LOCATION>WPI_DigitalInputRefNum Registry Get.vi<CALLSTACK>WPI_DigitalInputRefNum Registry Get.vi< <Periodic Tasks.vi< <Robot Main.vi,-79.248047,40.283203,-6000.000000,-6000.000000,Speed,Speed,-0.200000,1.030000,2.070000,1.000000,101.000000,1,0,-0.000248,0.000062,0,0.000000,0.000000,0.000000,-131.060577,9.394424,0.000000,0.001000,-0.002000,0.007000,FlatInitial
04:19:52.091 PM 02/14/2016,Teleop Enabled,0,FALSE,0,NO ERROR,-1120.019531,1320.996094,-6000.000000,-6000.000000,Speed,Speed,-0.200000,1.030000,2.110000,1.000000,102.000000,1,0,-0.000248,0.000062,0,-0.006760,0.013092,0.000000,-131.060730,9.394897,0.000000,-0.009000,0.021000,-0.076000,FlatInitial
04:19:52.191 PM 02/14/2016,Teleop Enabled,0,FALSE,0,NO ERROR,-3000.292969,1320.996094,-6000.000000,-6000.000000,Speed,Speed,-0.220000,1.020000,2.090000,1.000000,104.000000,1,0,-0.000248,0.000062,0,0.005432,0.002045,0.000000,-131.060669,9.395325,0.000000,0.050000,0.023000,-0.013000,FlatInitial
04:19:52.291 PM 02/14/2016,Teleop Enabled,0,FALSE,0,NO ERROR,-4541.748047,3248.583984,-6000.000000,-6000.000000,Speed,Speed,-0.220000,1.050000,1.970000,1.000000,101.000000,1,0,-0.000248,0.000062,0,0.023376,-0.004532,0.000000,-131.059784,9.395172,0.000000,0.042000,0.005000,-0.113000,FlatInitial
04:19:52.391 PM 02/14/2016,Teleop Enabled,0,FALSE,0,NO ERROR,-5569.921875,4540.869141,-6000.000000,-6000.000000,Speed,Speed,-0.200000,1.060000,2.070000,1.000000,101.000000,1,0,-0.000248,0.000062,0,0.061050,-0.009155,0.000000,-131.057419,9.394806,0.000000,0.029000,-0.035000,-0.042000,FlatInitial
04:19:52.491 PM 02/14/2016,Teleop Enabled,0,FALSE,0,NO ERROR,-5569.921875,5649.609375,-6000.000000,-6000.000000,Speed,Speed,-0.220000,1.080000,2.040000,1.000000,102.000000,1,0,-0.000248,0.000062,0,-0.040146,-0.032211,0.000000,-131.057510,9.393738,0.000000,-0.126000,-0.088000,0.153000,FlatInitial
04:19:52.592 PM 02/14/2016,Teleop Enabled,0,FALSE,0,NO ERROR,-6000.585938,6069.140625,-6000.000000,-6000.000000,Speed,Speed,-0.220000,1.070000,2.280000,1.000000,103.000000,1,0,-0.000248,0.000062,0,-0.129379,-0.035141,0.000000,-131.062210,9.391739,0.000000,-0.053000,0.042000,-0.007000,FlatInitial
04:19:52.693 PM 02/14/2016,Teleop Enabled,0,FALSE,0,NO ERROR,-6111.914062,6130.664062,-6000.000000,-6000.000000,Speed,Speed,-0.240000,1.090000,2.380000,1.000000,103.000000,1,0,-0.000248,0.000062,0,-0.184494,-0.056778,0.000000,-131.070572,9.389786,0.000000,-0.030000,-0.082000,0.052000,FlatInitial
04:19:52.793 PM 02/14/2016,Teleop Enabled,0,FALSE,0,NO ERROR,-6118.945312,6096.093750,-6000.000000,-6000.000000,Speed,Speed,-0.260000,1.040000,2.180000,1.000000,102.000000,1,0,-0.000248,0.000062,0,0.001923,-0.090073,0.000000,-131.074326,9.385345,0.000000,0.014000,0.041000,0.017000,FlatInitial
04:19:52.894 PM 02/14/2016,Teleop Enabled,0,FALSE,0,NO ERROR,-6100.781250,6060.351562,-6000.000000,-6000.000000,Speed,Speed,-0.260000,1.050000,2.370000,1.000000,101.000000,1,0,-0.000248,0.000062,0,0.066483,-0.032227,0.000000,-131.072235,9.382019,0.000000,0.059000,0.003000,0.036000,FlatInitial
04:19:52.995 PM 02/14/2016,Teleop Enabled,0,FALSE,0,NO ERROR,-6069.140625,6036.328125,-6000.000000,-6000.000000,Speed,Speed,-0.260000,1.070000,2.380000,1.000000,102.000000,1,0,-0.000248,0.000062,0,0.127640,-0.006500,0.000000,-131.068192,9.381653,0.000000,0.073000,-0.010000,0.058000,FlatInitial
04:19:53.096 PM 02/14/2016,Teleop Enabled,0,FALSE,0,NO ERROR,-6045.117188,6024.609375,-6000.000000,-6000.000000,Speed,Speed,-0.250000,1.090000,2.280000,1.000000,102.000000,1,0,-0.000248,0.000062,0,0.194733,-0.061417,0.000000,-131.059753,9.379898,0.000000,0.052000,-0.090000,0.007000,FlatInitial
04:19:53.196 PM 02/14/2016,Teleop Enabled,0,FALSE,0,NO ERROR,-6025.781250,6009.960938,-6000.000000,-6000.000000,Speed,Speed,-0.270000,1.080000,2.170000,1.000000,103.000000,1,1,-0.000248,0.000062,0,0.256104,-0.148651,0.000000,-131.045792,9.373016,0.000000,0.054000,-0.087000,-0.017000,FlatInitial
04:19:53.296 PM 02/14/2016,Teleop Enabled,0,FALSE,0,NO ERROR,-6016.992188,6004.687500,-6000.000000,-6000.000000,Speed,Speed,-0.270000,1.050000,2.020000,1.000000,103.000000,1,1,0.040000,0.040000,0,0.291489,-0.193497,0.000000,-131.034637,9.365952,0.000000,0.035000,-0.076000,0.001000,FlatInitial
04:19:53.396 PM 02/14/2016,Teleop Enabled,0,FALSE,0,NO ERROR,-6011.718750,6007.617188,-6000.000000,-6000.000000,Speed,Speed,-0.270000,1.030000,1.720000,1.000000,103.000000,1,1,0.040000,0.040000,0,0.003662,-0.200378,0.000000,-131.031570,9.353806,0.000000,0.014000,-0.051000,-0.142000,FlatInitial
04:19:53.496 PM 02/14/2016,Teleop Enabled,0,FALSE,0,NO ERROR,-6005.859375,6011.132812,-6000.000000,-6000.000000,Speed,Speed,-0.330000,0.970000,1.980000,1.000000,102.000000,1,1,0.040000,0.040000,0,0.005646,-0.281006,0.000000,-131.031662,9.341690,0.000000,0.028000,-0.021000,-0.101000,FlatInitial
04:19:53.596 PM 02/14/2016,Teleop Enabled,0,FALSE,0,NO ERROR,-6005.273438,6016.992188,-6000.000000,-6000.000000,Speed,Speed,-0.320000,0.970000,1.660000,1.000000,103.000000,1,1,0.040000,0.040000,0,0.000641,-0.328568,0.000000,-131.031097,9.326202,0.000000,-0.016000,-0.038000,-0.118000,FlatInitial
04:19:53.696 PM 02/14/2016,Teleop Enabled,0,FALSE,0,NO ERROR,-6007.617188,6019.921875,-6000.000000,-6000.000000,Speed,Speed,-0.270000,0.900000,1.800000,1.000000,102.000000,1,1,0.000000,-0.000000,0,0.025284,-0.391327,0.000000,-131.030411,9.300583,0.000000,0.006000,-0.033000,-0.107000,FlatInitial
04:19:53.797 PM 02/14/2016,Teleop Enabled,0,FALSE,0,NO ERROR,-6008.789062,6014.062500,-6000.000000,-6000.000000,Speed,Speed,-0.360000,0.870000,2.020000,1.000000,102.000000,1,1,0.000000,-0.000000,0,0.041000,-0.403275,0.000000,-131.029068,9.284622,0.000000,0.032000,-0.025000,-0.096000,FlatInitial
04:19:53.898 PM 02/14/2016,Teleop Enabled,0,FALSE,0,NO ERROR,-6009.960938,6005.273438,-6000.000000,-6000.000000,Speed,Speed,-0.350000,0.870000,2.140000,1.000000,103.000000,1,1,0.000000,-0.000000,0,0.081009,-0.004303,0.000000,-131.025742,9.272507,0.000000,0.032000,-0.033000,-0.128000,FlatInitial
04:19:53.999 PM 02/14/2016,Teleop Enabled,0,FALSE,0,NO ERROR,-6006.445312,6004.687500,-6000.000000,-6000.000000,Speed,Speed,-0.310000,0.870000,2.240000,1.000000,107.000000,1,1,0.000000,-0.000000,0,0.123825,-0.018723,0.000000,-131.020569,9.271896,0.000000,0.009000,0.004000,-0.082000,FlatInitial
04:19:54.100 PM 02/14/2016,Teleop Enabled,0,FALSE,0,NO ERROR,-6005.273438,6002.929688,-6000.000000,-6000.000000,Speed,Speed,-0.330000,0.850000,2.330000,1.000000,103.000000,1,1,0.000000,-0.000000,0,0.014648,-0.011261,0.000000,-131.019043,9.271301,0.000000,0.047000,0.015000,-0.097000,FlatInitial
04:19:54.202 PM 02/14/2016,Teleop Enabled,0,FALSE,0,NO ERROR,-6003.515625,6002.343750,-6000.000000,-6000.000000,Speed,Speed,-0.320000,0.880000,2.530000,1.000000,101.000000,1,1,0.000000,-0.000000,0,0.071625,-0.003372,0.000000,-131.016769,9.270706,0.000000,0.032000,0.029000,-0.100000,FlatInitial
04:19:54.302 PM 02/14/2016,Teleop Enabled,0,FALSE,0,NO ERROR,-6001.171875,6001.757812,-6000.000000,-6000.000000,Speed,Speed,-0.350000,0.890000,2.690000,1.000000,102.000000,1,1,0.000000,-0.000000,0,0.108139,0.008545,0.000000,-131.011078,9.270905,0.000000,0.020000,0.024000,-0.078000,FlatInitial
04:19:54.403 PM 02/14/2016,Teleop Enabled,0,FALSE,0,NO ERROR,-5997.656250,6003.515625,-6000.000000,-6000.000000,Speed,Speed,-0.330000,0.860000,2.820000,1.000000,102.000000,1,1,0.000000,-0.000000,0,0.134003,0.013870,0.000000,-131.006165,9.271362,0.000000,0.046000,-0.024000,-0.128000,FlatInitial
04:19:54.508 PM 02/14/2016,Teleop Enabled,0,FALSE,0,NO ERROR,-5996.484375,6004.101562,-6000.000000,-6000.000000,Speed,Speed,-0.330000,0.920000,2.940000,1.000000,103.000000,1,1,0.000000,-0.000000,0,0.188080,0.020477,0.000000,-130.996170,9.272354,0.000000,0.036000,0.072000,-0.102000,FlatInitial
04:19:54.608 PM 02/14/2016,Teleop Enabled,0,FALSE,0,NO ERROR,-5997.070312,6002.343750,-6000.000000,-6000.000000,Speed,Speed,-0.340000,0.930000,3.080000,1.000000,102.000000,1,1,0.000000,-0.000000,0,0.223434,0.029221,0.000000,-130.987823,9.273453,0.000000,0.027000,0.040000,-0.105000,FlatInitial
04:19:54.708 PM 02/14/2016,Teleop Enabled,0,FALSE,0,NO ERROR,-5997.656250,6000.000000,-6000.000000,-6000.000000,Speed,Speed,-0.350000,0.950000,3.220000,1.000000,103.000000,1,1,0.000000,-0.000000,0,0.270096,0.000000,0.000000,-130.972610,9.274872,0.000000,0.011000,-0.002000,-0.113000,FlatInitial
04:19:54.811 PM 02/14/2016,Teleop Enabled,0,FALSE,0,NO ERROR,-6004.101562,6000.000000,-6000.000000,-6000.000000,Speed,Speed,-0.350000,0.980000,3.360000,1.000000,103.000000,1,1,0.000000,-0.000000,0,0.295639,0.007950,0.000000,-130.961227,9.275085,0.000000,0.025000,-0.042000,-0.065000,FlatInitial
04:19:54.911 PM 02/14/2016,Teleop Enabled,0,FALSE,0,NO ERROR,-6009.375000,5999.414062,-6000.000000,-6000.000000,Speed,Speed,-0.350000,0.990000,3.490000,1.000000,103.000000,1,1,0.000000,-0.000000,0,0.354996,0.019379,0.000000,-130.937988,9.276260,0.000000,0.022000,-0.037000,-0.123000,FlatInitial
04:19:55.011 PM 02/14/2016,Teleop Enabled,0,FALSE,0,NO ERROR,-6008.789062,6000.585938,-6000.000000,-6000.000000,Speed,Speed,-0.350000,0.980000,3.560000,1.000000,101.000000,1,1,0.000000,-0.000000,0,0.000000,0.021698,0.000000,-130.930832,9.277344,0.000000,0.012000,-0.044000,-0.111000,FlatInitial
04:19:55.112 PM 02/14/2016,Teleop Enabled,0,FALSE,0,NO ERROR,-6005.859375,6005.859375,-6000.000000,-6000.000000,Speed,Speed,-0.360000,1.000000,3.620000,1.000000,102.000000,1,1,0.000000,-0.000000,0,0.000000,0.025726,0.000000,-130.930573,9.278534,0.000000,0.016000,0.010000,-0.133000,FlatInitial
04:19:55.212 PM 02/14/2016,Teleop Enabled,0,FALSE,0,NO ERROR,-6004.101562,6006.445312,-6000.000000,-6000.000000,Speed,Speed,-0.360000,1.040000,3.670000,1.000000,101.000000,1,1,0.000000,-0.000000,0,0.010117,0.040131,0.000000,-130.930313,9.280334,0.000000,0.010000,-0.014000,-0.085000,FlatInitial
04:19:55.312 PM 02/14/2016,Teleop Enabled,0,FALSE,0,NO ERROR,-6004.687500,6007.031250,-6000.000000,-6000.000000,Speed,Speed,-0.360000,1.080000,3.720000,1.000000,103.000000,1,1,0.000000,-0.000000,0,0.000000,0.050537,0.000000,-130.929688,9.282257,0.000000,0.017000,-0.021000,-0.109000,FlatInitial
04:19:55.413 PM 02/14/2016,Teleop Enabled,0,FALSE,0,NO ERROR,-6004.101562,6008.203125,-6000.000000,-6000.000000,Speed,Speed,-0.360000,1.130000,3.800000,1.000000,102.000000,1,1,0.000000,-0.000000,0,0.000000,0.053940,0.000000,-130.929504,9.285553,0.000000,-0.009000,-0.025000,-0.107000,FlatInitial
04:19:55.513 PM 02/14/2016,Teleop Enabled,0,FALSE,0,NO ERROR,-6005.273438,6008.203125,-6000.000000,-6000.000000,Speed,Speed,-0.370000,1.150000,3.770000,1.000000,102.000000,1,1,0.000000,-0.000000,0,0.013336,0.058517,0.000000,-130.929184,9.288345,0.000000,-0.004000,0.020000,-0.136000,FlatInitial
04:19:55.613 PM 02/14/2016,Teleop Enabled,0,FALSE,0,NO ERROR,-6004.687500,6004.101562,-6000.000000,-6000.000000,Speed,Speed,-0.360000,1.190000,3.750000,1.000000,101.000000,1,1,0.000000,-0.000000,0,0.000000,0.065872,0.000000,-130.928497,9.291443,0.000000,-0.012000,0.004000,-0.113000,FlatInitial
04:19:55.713 PM 02/14/2016,Teleop Enabled,0,FALSE,0,NO ERROR,-6004.101562,6001.171875,-6000.000000,-6000.000000,Speed,Speed,-0.370000,1.220000,3.750000,1.000000,104.000000,1,1,0.000000,-0.000000,0,0.000000,-0.011093,0.000000,-130.928696,9.291885,0.000000,-0.016000,-0.058000,-0.114000,FlatInitial
04:19:55.813 PM 02/14/2016,Teleop Enabled,0,FALSE,0,NO ERROR,-6004.687500,6000.000000,-6000.000000,-6000.000000,Speed,Speed,-0.370000,1.270000,3.650000,1.000000,103.000000,1,1,0.000000,-0.000000,0,-0.004257,-0.027222,0.000000,-130.928757,9.291031,0.000000,-0.004000,0.006000,-0.115000,FlatInitial
04:19:55.913 PM 02/14/2016,Teleop Enabled,0,FALSE,0,NO ERROR,-6002.343750,5995.898438,-6000.000000,-6000.000000,Speed,Speed,-0.380000,1.320000,3.590000,1.000000,102.000000,1,1,0.000000,-0.000000,0,-0.020508,-0.014816,0.000000,-130.929703,9.290726,0.000000,-0.024000,-0.018000,-0.115000,FlatInitial
04:19:56.013 PM 02/14/2016,Teleop Enabled,0,FALSE,0,NO ERROR,-5998.828125,5992.382812,-6000.000000,-6000.000000,Speed,Speed,-0.380000,1.350000,3.530000,1.000000,102.000000,1,1,0.000000,-0.000000,0,-0.006714,-0.013977,0.000000,-130.930237,9.290421,0.000000,-0.012000,-0.021000,-0.138000,FlatInitial
04:19:56.114 PM 02/14/2016,Teleop Enabled,0,FALSE,0,NO ERROR,-5995.312500,5992.382812,-6000.000000,-6000.000000,Speed,Speed,-0.390000,1.370000,3.470000,1.000000,102.000000,1,1,0.000000,-0.000000,0,-0.006714,-0.013977,0.000000,-130.930237,9.290421,0.000000,-0.012000,-0.021000,-0.138000,FlatInitial
04:19:56.214 PM 02/14/2016,Teleop Enabled,0,FALSE,0,NO ERROR,-5992.382812,5995.898438,-6000.000000,-6000.000000,Speed,Speed,-0.390000,1.380000,3.380000,1.000000,101.000000,1,1,0.000000,-0.000000,0,-0.005646,-0.092026,0.000000,-130.930695,9.284607,0.000000,-0.030000,-0.010000,-0.142000,FlatInitial
04:19:56.315 PM 02/14/2016,Teleop Enabled,0,FALSE,0,NO ERROR,-5991.210938,5997.070312,-6000.000000,-6000.000000,Speed,Speed,-0.390000,1.400000,3.360000,1.000000,101.000000,1,1,0.000000,-0.000000,0,0.000000,0.000000,0.000000,-130.930878,9.284592,0.000000,-0.013000,0.004000,-0.116000,FlatInitial
04:19:56.415 PM 02/14/2016,Teleop Enabled,0,FALSE,0,NO ERROR,-5990.625000,6002.929688,-6000.000000,-6000.000000,Speed,Speed,-0.390000,1.410000,3.340000,1.000000,101.000000,1,1,0.000000,-0.000000,0,0.000000,0.000000,0.000000,-130.930878,9.284592,0.000000,-0.013000,0.004000,-0.116000,FlatInitial
04:19:56.515 PM 02/14/2016,Teleop Enabled,0,FALSE,0,NO ERROR,-5994.140625,6008.203125,-6000.000000,-6000.000000,Speed,Speed,-0.390000,1.420000,3.360000,1.000000,104.000000,1,1,0.000000,-0.000000,0,-0.015503,-0.007507,0.000000,-130.931427,9.284409,0.000000,0.002000,0.008000,-0.127000,FlatInitial
04:19:56.615 PM 02/14/2016,Teleop Enabled,0,FALSE,0,NO ERROR,-5998.828125,6006.445312,-6000.000000,-6000.000000,Speed,Speed,-0.390000,1.430000,3.420000,1.000000,102.000000,1,1,0.000000,-0.000000,0,-0.036163,0.046936,0.000000,-130.933899,9.286240,0.000000,-0.008000,0.014000,-0.088000,FlatInitial
04:19:56.716 PM 02/14/2016,Teleop Enabled,0,FALSE,0,NO ERROR,-6006.445312,6005.273438,-6000.000000,-6000.000000,Speed,Speed,-0.390000,1.430000,3.420000,1.000000,103.000000,1,1,0.000000,-0.000000,0,-0.038559,0.049683,0.000000,-130.935364,9.288284,0.000000,0.016000,0.047000,-0.125000,FlatInitial
04:19:56.817 PM 02/14/2016,Teleop Enabled,0,FALSE,0,NO ERROR,-6014.062500,6004.687500,-6000.000000,-6000.000000,Speed,Speed,-0.400000,1.450000,3.450000,1.000000,104.000000,1,1,0.000000,-0.000000,0,-0.038559,0.049683,0.000000,-130.935364,9.288284,0.000000,-0.005000,-0.023000,-0.070000,FlatInitial
04:19:56.918 PM 02/14/2016,Teleop Enabled,0,FALSE,0,NO ERROR,-6014.062500,6000.585938,-6000.000000,-6000.000000,Speed,Speed,-0.390000,1.460000,3.240000,1.000000,104.000000,1,1,0.000000,-0.000000,0,-0.095078,-0.013168,0.000000,-130.942307,9.290619,0.000000,-0.017000,-0.045000,-0.104000,FlatInitial
04:19:57.018 PM 02/14/2016,Teleop Enabled,0,FALSE,0,NO ERROR,-6009.960938,5996.484375,-6000.000000,-6000.000000,Speed,Speed,-0.400000,1.470000,3.120000,1.000000,101.000000,1,1,0.000000,-0.000000,0,-0.133575,-0.050064,0.000000,-130.948212,9.288834,0.000000,-0.041000,-0.030000,-0.149000,FlatInitial
04:19:57.118 PM 02/14/2016,Teleop Enabled,0,FALSE,0,NO ERROR,-6004.101562,5995.312500,-6000.000000,-6000.000000,Speed,Speed,-0.390000,1.450000,2.910000,1.000000,106.000000,1,1,0.000000,-0.000000,0,-0.170456,-0.106888,0.000000,-130.955933,9.284653,0.000000,-0.021000,-0.057000,-0.134000,FlatInitial
04:19:57.218 PM 02/14/2016,Teleop Enabled,0,FALSE,0,NO ERROR,-6001.757812,5997.070312,-6000.000000,-6000.000000,Speed,Speed,-0.390000,1.450000,2.910000,1.000000,103.000000,1,1,0.000000,-0.000000,0,-0.170456,-0.106888,0.000000,-130.955933,9.284653,0.000000,-0.038000,-0.073000,-0.175000,FlatInitial
04:19:57.319 PM 02/14/2016,Teleop Enabled,0,FALSE,0,NO ERROR,-6000.585938,5997.070312,-6000.000000,-6000.000000,Speed,Speed,-0.390000,1.490000,2.550000,1.000000,105.000000,1,1,0.000000,-0.000000,0,-0.243958,-0.213608,0.000000,-130.977203,9.268112,0.000000,-0.022000,-0.058000,-0.155000,FlatInitial
04:19:57.419 PM 02/14/2016,Teleop Enabled,0,FALSE,0,NO ERROR,-6000.585938,5994.726562,-6000.000000,-6000.000000,Speed,Speed,-0.400000,1.500000,2.370000,1.000000,104.000000,1,1,0.000000,-0.000000,0,-0.243958,-0.213608,0.000000,-130.977203,9.268112,0.000000,-0.034000,-0.058000,-0.186000,FlatInitial
04:19:57.519 PM 02/14/2016,Teleop Enabled,0,FALSE,0,NO ERROR,-6000.585938,5994.140625,-6000.000000,-6000.000000,Speed,Speed,-0.400000,1.500000,2.370000,1.000000,100.000000,1,1,0.000000,-0.000000,0,-0.287384,-0.263245,0.000000,-130.990570,9.255875,0.000000,-0.036000,-0.018000,-0.167000,FlatInitial
04:19:57.619 PM 02/14/2016,Teleop Enabled,0,FALSE,0,NO ERROR,-6002.929688,5995.312500,-6000.000000,-6000.000000,Speed,Speed,-0.400000,1.520000,2.250000,1.000000,102.000000,1,1,0.000000,-0.000000,0,-0.349792,-0.385498,0.000000,-131.019653,9.226196,0.000000,-0.028000,-0.101000,-0.173000,FlatInitial
04:19:57.720 PM 02/14/2016,Teleop Enabled,0,FALSE,0,NO ERROR,-6007.031250,5995.898438,-6000.000000,-6000.000000,Speed,Speed,-0.390000,1.540000,2.040000,1.000000,102.000000,1,1,0.000000,-0.000000,0,-0.349792,-0.385498,0.000000,-131.019653,9.226196,0.000000,-0.076000,-0.074000,-0.166000,FlatInitial
04:19:57.820 PM 02/14/2016,Teleop Enabled,0,FALSE,0,NO ERROR,-6007.031250,5999.414062,-6000.000000,-6000.000000,Speed,Speed,-0.390000,1.540000,1.950000,1.000000,102.000000,1,1,0.000000,-0.000000,0,-0.399292,-0.437607,0.000000,-131.038635,9.205383,0.000000,-0.033000,-0.034000,-0.191000,FlatInitial
04:19:57.920 PM 02/14/2016,Teleop Enabled,0,FALSE,0,NO ERROR,-6006.445312,6005.273438,-6000.000000,-6000.000000,Speed,Speed,-0.390000,1.560000,1.810000,1.000000,102.000000,1,1,0.000000,-0.000000,0,-0.429581,-0.496445,0.000000,-131.059647,9.181656,0.000000,-0.021000,-0.027000,-0.192000,FlatInitial
04:19:58.020 PM 02/14/2016,Teleop Enabled,0,FALSE,0,NO ERROR,-6007.031250,6007.031250,-6000.000000,-6000.000000,Speed,Speed,-0.400000,1.560000,1.740000,1.000000,104.000000,1,1,0.000000,-0.000000,0,-0.484222,-0.565567,0.000000,-131.087311,9.149231,0.000000,-0.008000,-0.030000,-0.202000,FlatInitial
04:19:58.120 PM 02/14/2016,Teleop Enabled,0,FALSE,0,NO ERROR,-6009.960938,6005.859375,-6000.000000,-6000.000000,Speed,Speed,-0.400000,1.580000,1.630000,1.000000,106.000000,1,1,0.000000,-0.000000,0,-0.514740,-0.630768,0.000000,-131.117386,9.113037,0.000000,-0.039000,-0.049000,-0.179000,FlatInitial
04:19:58.221 PM 02/14/2016,Teleop Enabled,0,FALSE,0,NO ERROR,-6008.789062,6005.273438,-6000.000000,-6000.000000,Speed,Speed,-0.390000,1.600000,1.510000,1.000000,103.000000,1,1,0.000000,-0.000000,0,-0.567581,-0.654327,0.000000,-131.144821,9.080704,0.000000,-0.030000,-0.029000,-0.189000,FlatInitial
04:19:58.321 PM 02/14/2016,Teleop Enabled,0,FALSE,0,NO ERROR,-6007.031250,6005.273438,-6000.000000,-6000.000000,Speed,Speed,-0.390000,1.610000,1.530000,1.000000,102.000000,1,1,0.000000,-0.000000,0,-0.611771,-0.665955,0.000000,-131.174515,9.047638,0.000000,-0.064000,0.043000,-0.181000,FlatInitial
04:19:58.422 PM 02/14/2016,Teleop Enabled,0,FALSE,0,NO ERROR,-6004.687500,6004.101562,-6000.000000,-6000.000000,Speed,Speed,-0.390000,1.600000,1.480000,1.000000,102.000000,1,1,0.000000,-0.000000,0,-0.706345,-0.001160,0.000000,-131.220871,9.014740,0.000000,-0.060000,-0.027000,-0.154000,FlatInitial
04:19:58.523 PM 02/14/2016,Teleop Enabled,0,FALSE,0,NO ERROR,-6003.515625,6004.687500,-6000.000000,-6000.000000,Speed,Speed,-0.390000,1.590000,1.540000,1.000000,102.000000,1,1,0.000000,-0.000000,0,-0.736725,0.015549,0.000000,-131.242767,9.015030,0.000000,-0.006000,0.015000,-0.196000,FlatInitial
04:19:58.626 PM 02/14/2016,Teleop Enabled,0,FALSE,0,NO ERROR,-5998.242188,6005.859375,-6000.000000,-6000.000000,Speed,Speed,-0.390000,1.600000,1.550000,1.000000,102.000000,1,1,0.000000,-0.000000,0,-0.772079,0.021088,0.000000,-131.273026,9.015778,0.000000,-0.023000,0.020000,-0.161000,FlatInitial
04:19:58.726 PM 02/14/2016,Teleop Enabled,0,FALSE,0,NO ERROR,-5992.968750,6001.171875,-6000.000000,-6000.000000,Speed,Speed,-0.390000,1.580000,1.570000,1.000000,101.000000,1,1,0.000000,-0.000000,0,-0.826401,0.032867,0.000000,-131.321274,9.017700,0.000000,-0.020000,-0.029000,-0.187000,FlatInitial
04:19:58.826 PM 02/14/2016,Teleop Enabled,0,FALSE,0,NO ERROR,-5991.210938,5998.242188,-6000.000000,-6000.000000,Speed,Speed,-0.390000,1.560000,1.550000,1.000000,102.000000,1,1,0.000000,-0.000000,0,-0.864578,0.024048,0.000000,-131.355270,9.018860,0.000000,-0.095000,0.033000,-0.151000,FlatInitial
04:19:58.928 PM 02/14/2016,Teleop Enabled,0,FALSE,0,NO ERROR,-5990.625000,5994.726562,-6000.000000,-6000.000000,Speed,Speed,-0.400000,1.550000,1.470000,1.000000,105.000000,1,1,0.000000,-0.000000,0,-0.952789,0.000458,0.000000,-131.419495,9.019745,0.000000,-0.064000,0.005000,-0.170000,FlatInitial
04:19:59.028 PM 02/14/2016,Teleop Enabled,0,FALSE,0,NO ERROR,-5990.625000,5993.554688,-6000.000000,-6000.000000,Speed,Speed,-0.400000,1.550000,1.390000,1.000000,109.000000,1,1,0.000000,-0.000000,0,-0.989288,-0.021027,0.000000,-131.458496,9.019257,0.000000,-0.075000,0.005000,-0.180000,FlatInitial
04:19:59.128 PM 02/14/2016,Teleop Enabled,0,FALSE,0,NO ERROR,-5996.484375,5992.382812,-6000.000000,-6000.000000,Speed,Speed,-0.400000,1.540000,1.300000,1.000000,103.000000,1,1,0.000000,-0.000000,0,-1.046387,-0.005768,0.000000,-131.509567,9.018524,0.000000,-0.067000,-0.044000,-0.157000,FlatInitial
04:19:59.228 PM 02/14/2016,Teleop Enabled,0,FALSE,0,NO ERROR,-5998.828125,5996.484375,-6000.000000,-6000.000000,Speed,Speed,-0.400000,1.520000,1.230000,1.000000,101.000000,1,1,0.000000,-0.000000,0,-1.105682,-0.020004,0.000000,-131.553009,9.017929,0.000000,-0.034000,-0.016000,-0.184000,FlatInitial
04:19:59.329 PM 02/14/2016,Teleop Enabled,0,FALSE,0,NO ERROR,-6003.515625,6002.929688,-6000.000000,-6000.000000,Speed,Speed,-0.400000,1.520000,1.100000,1.000000,102.000000,1,1,0.000000,-0.000000,0,-1.159531,-0.054901,0.000000,-131.621185,9.015350,0.000000,-0.036000,0.000000,-0.160000,FlatInitial
04:19:59.429 PM 02/14/2016,Teleop Enabled,0,FALSE,0,NO ERROR,-6005.859375,6002.343750,-6000.000000,-6000.000000,Speed,Speed,-0.400000,1.490000,1.070000,1.000000,103.000000,1,1,0.000000,-0.000000,0,-1.207962,-0.069916,0.000000,-131.680740,9.012360,0.000000,-0.029000,-0.072000,-0.156000,FlatInitial
04:19:59.531 PM 02/14/2016,Teleop Enabled,0,FALSE,0,NO ERROR,-6008.203125,6002.929688,-6000.000000,-6000.000000,Speed,Speed,-0.400000,1.490000,1.040000,1.000000,101.000000,1,1,0.000000,-0.000000,0,-1.254944,-0.087921,0.000000,-131.742508,9.008423,0.000000,-0.069000,-0.026000,-0.143000,FlatInitial
04:19:59.635 PM 02/14/2016,Teleop Enabled,0,FALSE,0,NO ERROR,-6008.203125,6004.101562,-6000.000000,-6000.000000,Speed,Speed,-0.400000,1.470000,1.100000,1.000000,105.000000,1,1,0.000000,-0.000000,0,-1.310150,-0.076828,0.000000,-131.794159,9.005142,0.000000,-0.028000,-0.023000,-0.163000,FlatInitial
04:19:59.735 PM 02/14/2016,Teleop Enabled,0,FALSE,0,NO ERROR,-6007.617188,6004.687500,-6000.000000,-6000.000000,Speed,Speed,-0.400000,1.460000,1.220000,1.000000,101.000000,1,1,0.000000,-0.000000,0,-1.356552,-0.050323,0.000000,-131.874420,9.001129,0.000000,-0.031000,0.025000,-0.121000,FlatInitial
04:19:59.835 PM 02/14/2016,Teleop Enabled,0,FALSE,0,NO ERROR,-6005.273438,6002.343750,-6000.000000,-6000.000000,Speed,Speed,-0.400000,1.410000,1.410000,1.000000,102.000000,1,1,0.000000,-0.000000,0,-1.426910,-0.001831,0.000000,-131.958099,8.999985,0.000000,-0.068000,0.063000,-0.167000,FlatInitial
04:19:59.935 PM 02/14/2016,Teleop Enabled,0,FALSE,0,NO ERROR,-6002.929688,6002.343750,-6000.000000,-6000.000000,Speed,Speed,-0.410000,1.400000,1.550000,1.000000,101.000000,1,1,0.000000,-0.000000,0,-1.491684,0.036804,0.000000,-132.046219,9.001190,0.000000,-0.066000,0.059000,-0.132000,FlatInitial
04:20:00.036 PM 02/14/2016,Teleop Enabled,0,FALSE,0,NO ERROR,-6000.000000,6002.929688,-6000.000000,-6000.000000,Speed,Speed,-0.410000,1.380000,1.610000,1.000000,102.000000,1,1,0.000000,-0.000000,0,-1.521774,0.074219,0.000000,-132.106689,9.003433,0.000000,-0.062000,0.103000,-0.137000,FlatInitial
04:20:00.137 PM 02/14/2016,Teleop Enabled,0,FALSE,0,NO ERROR,-5997.070312,6000.000000,-6000.000000,-6000.000000,Speed,Speed,-0.400000,1.330000,1.780000,1.000000,103.000000,1,1,0.000000,-0.000000,0,-1.554169,0.112900,0.000000,-132.168442,9.007416,0.000000,-0.062000,0.082000,-0.142000,FlatInitial
04:20:00.238 PM 02/14/2016,Teleop Enabled,0,FALSE,0,NO ERROR,-5995.898438,5997.656250,-6000.000000,-6000.000000,Speed,Speed,-0.400000,1.300000,1.900000,1.000000,102.000000,1,1,0.000000,-0.000000,0,-1.615387,0.151413,0.000000,-132.263702,9.015610,0.000000,-0.065000,0.043000,-0.104000,FlatInitial
04:20:00.338 PM 02/14/2016,Teleop Enabled,0,FALSE,0,NO ERROR,-5994.726562,5998.242188,-6000.000000,-6000.000000,Speed,Speed,-0.400000,1.260000,2.040000,1.000000,102.000000,1,1,0.000000,-0.000000,0,-1.684311,0.178360,0.000000,-132.379761,9.027344,0.000000,-0.048000,0.065000,-0.168000,FlatInitial
04:20:00.439 PM 02/14/2016,Teleop Enabled,0,FALSE,0,NO ERROR,-5994.140625,5998.242188,-6000.000000,-6000.000000,Speed,Speed,-0.400000,1.240000,2.120000,1.000000,102.000000,1,1,0.000000,-0.000000,0,-1.698944,0.196671,0.000000,-132.413666,9.031204,0.000000,-0.039000,0.017000,-0.096000,FlatInitial
04:20:00.539 PM 02/14/2016,Teleop Enabled,0,FALSE,0,NO ERROR,-5996.484375,5998.242188,-6000.000000,-6000.000000,Speed,Speed,-0.400000,1.220000,2.190000,1.000000,111.000000,1,1,0.000000,-0.000000,0,-1.771072,0.237503,0.000000,-132.517944,9.044693,0.000000,-0.086000,0.045000,-0.128000,FlatInitial
04:20:00.639 PM 02/14/2016,Teleop Enabled,0,FALSE,0,NO ERROR,-5997.070312,6001.171875,-6000.000000,-6000.000000,Speed,Speed,-0.400000,1.180000,2.240000,1.000000,101.000000,1,1,0.000000,-0.000000,0,-1.813538,0.251709,0.000000,-132.589951,9.054459,0.000000,-0.066000,0.056000,-0.120000,FlatInitial
04:20:00.739 PM 02/14/2016,Teleop Enabled,0,FALSE,0,NO ERROR,-5999.414062,6002.929688,-6000.000000,-6000.000000,Speed,Speed,-0.400000,1.150000,2.260000,1.000000,101.000000,1,1,0.000000,-0.000000,0,-1.881699,0.280090,0.000000,-132.719620,9.073059,0.000000,-0.041000,-0.020000,-0.082000,FlatInitial
04:20:00.840 PM 02/14/2016,Teleop Enabled,0,FALSE,0,NO ERROR,-6004.687500,6001.757812,-6000.000000,-6000.000000,Speed,Speed,-0.400000,1.080000,2.290000,1.000000,104.000000,1,1,0.000000,-0.000000,0,-1.922058,0.281158,0.000000,-132.814941,9.087173,0.000000,-0.043000,-0.019000,-0.112000,FlatInitial
04:20:00.940 PM 02/14/2016,Teleop Enabled,0,FALSE,0,NO ERROR,-6009.960938,6002.929688,-6000.000000,-6000.000000,Speed,Speed,-0.400000,1.060000,2.300000,1.000000,102.000000,1,1,0.000000,-0.000000,0,-1.963974,0.289291,0.000000,-132.892761,9.098572,0.000000,-0.054000,0.048000,-0.073000,FlatInitial
04:20:01.040 PM 02/14/2016,Teleop Enabled,0,FALSE,0,NO ERROR,-6010.546875,6001.757812,-6000.000000,-6000.000000,Speed,Speed,-0.400000,1.000000,2.420000,1.000000,101.000000,1,1,0.000000,-0.000000,0,-2.008362,0.302521,0.000000,-132.992340,9.113525,0.000000,-0.043000,0.060000,-0.091000,FlatInitial
04:20:01.140 PM 02/14/2016,Teleop Enabled,0,FALSE,0,NO ERROR,-6007.617188,5997.656250,-6000.000000,-6000.000000,Speed,Speed,-0.390000,0.980000,2.550000,1.000000,104.000000,1,1,0.000000,-0.000000,0,-2.040970,0.344650,0.000000,-133.093750,9.129852,0.000000,-0.066000,0.007000,-0.064000,FlatInitial
04:20:01.240 PM 02/14/2016,Teleop Enabled,0,FALSE,0,NO ERROR,-6007.617188,5994.726562,-6000.000000,-6000.000000,Speed,Speed,-0.390000,0.940000,2.670000,1.000000,102.000000,1,1,0.000000,-0.000000,0,-2.091141,0.000000,0.000000,-133.197342,9.144379,0.000000,-0.060000,0.012000,-0.100000,FlatInitial
04:20:01.341 PM 02/14/2016,Teleop Enabled,0,FALSE,0,NO ERROR,-6007.031250,5997.656250,-6000.000000,-6000.000000,Speed,Speed,-0.400000,0.920000,2.820000,1.000000,101.000000,1,1,0.000000,-0.000000,0,-2.143616,0.057419,0.000000,-133.345810,9.146500,0.000000,-0.039000,0.084000,-0.095000,FlatInitial
04:20:01.441 PM 02/14/2016,Teleop Enabled,0,FALSE,0,NO ERROR,-6003.515625,5997.656250,-6000.000000,-6000.000000,Speed,Speed,-0.400000,0.920000,2.940000,1.000000,101.000000,1,1,0.000000,-0.000000,0,-2.170975,0.119034,0.000000,-133.453735,9.151215,0.000000,-0.012000,0.088000,-0.134000,FlatInitial
04:20:01.541 PM 02/14/2016,Teleop Enabled,0,FALSE,0,NO ERROR,-6000.000000,5995.898438,-6000.000000,-6000.000000,Speed,Speed,-0.400000,0.880000,3.030000,1.000000,102.000000,1,1,0.000000,-0.000000,0,-2.203049,0.165970,0.000000,-133.541290,9.157227,0.000000,-0.071000,0.044000,-0.099000,FlatInitial
04:20:01.642 PM 02/14/2016,Teleop Enabled,0,FALSE,0,NO ERROR,-5995.898438,5995.312500,-6000.000000,-6000.000000,Speed,Speed,-0.400000,0.870000,3.150000,1.000000,101.000000,1,1,0.000000,-0.000000,0,-2.236450,0.212402,0.000000,-133.630264,9.165085,0.000000,-0.027000,0.031000,-0.110000,FlatInitial
04:20:01.742 PM 02/14/2016,Teleop Enabled,0,FALSE,0,NO ERROR,-5993.554688,5995.312500,-6000.000000,-6000.000000,Speed,Speed,-0.400000,0.840000,3.220000,1.000000,103.000000,1,1,0.000000,-0.000000,0,-2.264603,0.258499,0.000000,-133.742920,9.177170,0.000000,-0.024000,0.030000,-0.089000,FlatInitial
04:20:01.842 PM 02/14/2016,Teleop Enabled,0,FALSE,0,NO ERROR,-5990.039062,5997.070312,-6000.000000,-6000.000000,Speed,Speed,-0.410000,0.860000,3.360000,1.000000,102.000000,1,1,0.000000,-0.000000,0,-2.327820,0.337784,0.000000,-133.903656,9.198364,0.000000,-0.054000,0.032000,-0.123000,FlatInitial
04:20:01.943 PM 02/14/2016,Teleop Enabled,0,FALSE,0,NO ERROR,-5990.625000,6000.585938,-6000.000000,-6000.000000,Speed,Speed,-0.400000,0.830000,3.460000,1.000000,102.000000,1,1,0.000000,-0.000000,0,-2.367630,0.369385,0.000000,-133.997787,9.212646,0.000000,-0.038000,0.050000,-0.091000,FlatInitial
04:20:02.045 PM 02/14/2016,Teleop Enabled,0,FALSE,0,NO ERROR,-5990.625000,6005.859375,-6000.000000,-6000.000000,Speed,Speed,-0.400000,0.830000,3.560000,1.000000,105.000000,1,1,0.000000,-0.000000,0,-2.406830,0.418427,0.000000,-134.117340,9.232864,0.000000,-0.047000,-0.023000,-0.087000,FlatInitial
04:20:02.145 PM 02/14/2016,Teleop Enabled,0,FALSE,0,NO ERROR,-5992.382812,6005.859375,-6000.000000,-6000.000000,Speed,Speed,-0.400000,0.810000,3.650000,1.000000,108.000000,1,1,0.000000,-0.000000,0,-2.443436,0.464478,0.000000,-134.238831,9.255051,0.000000,-0.043000,0.034000,-0.063000,FlatInitial
04:20:02.245 PM 02/14/2016,Teleop Enabled,0,FALSE,0,NO ERROR,-5995.898438,6004.687500,-6000.000000,-6000.000000,Speed,Speed,-0.400000,0.780000,3.740000,1.000000,103.000000,1,1,0.000000,-0.000000,0,-2.476624,0.497833,0.000000,-134.361893,9.279404,0.000000,-0.034000,0.020000,-0.073000,FlatInitial
04:20:02.346 PM 02/14/2016,Teleop Enabled,0,FALSE,0,NO ERROR,-5995.898438,6002.929688,-6000.000000,-6000.000000,Speed,Speed,-0.400000,0.740000,3.790000,1.000000,102.000000,1,0,-0.000248,0.000062,0,-2.521973,0.530045,0.000000,-134.512222,9.310379,0.000000,-0.028000,0.036000,-0.087000,FlatInitial
04:20:02.445 PM 02/14/2016,Teleop Enabled,0,FALSE,0,NO ERROR,-6000.585938,6001.171875,-6000.000000,-6000.000000,Speed,Speed,-0.400000,0.720000,3.800000,1.000000,102.000000,1,0,-0.000248,0.000062,0,-2.546524,0.532867,0.000000,-134.639114,9.336929,0.000000,-0.003000,0.044000,-0.077000,FlatInitial
04:20:02.546 PM 02/14/2016,Teleop Enabled,0,FALSE,0,NO ERROR,-6004.687500,6001.757812,-6000.000000,-6000.000000,Speed,Speed,-0.400000,0.720000,3.850000,1.000000,105.000000,1,0,-0.000248,0.000062,0,-0.007309,0.553726,0.000000,-134.664673,9.358871,0.000000,-0.056000,0.007000,-0.027000,FlatInitial
04:20:02.647 PM 02/14/2016,Teleop Enabled,0,FALSE,0,NO ERROR,-6008.203125,6001.171875,-6000.000000,-6000.000000,Speed,Speed,-0.400000,0.680000,3.890000,1.000000,107.000000,1,0,-0.000248,0.000062,0,-0.037277,0.000000,0.000000,-134.666046,9.381226,0.000000,-0.022000,0.008000,-0.060000,FlatInitial
04:20:02.747 PM 02/14/2016,Teleop Enabled,0,FALSE,0,NO ERROR,-6011.132812,6004.101562,-6000.000000,-6000.000000,Speed,Speed,-0.400000,0.650000,3.860000,1.000000,101.000000,1,0,-0.000248,0.000062,0,-0.060349,0.006607,0.000000,-134.668503,9.381332,0.000000,-0.067000,-0.011000,-0.062000,FlatInitial
04:20:02.847 PM 02/14/2016,Teleop Enabled,0,FALSE,0,NO ERROR,-6009.375000,6005.859375,-6000.000000,-6000.000000,Speed,Speed,-0.400000,0.620000,3.910000,1.000000,103.000000,1,0,-0.000248,0.000062,0,-0.086670,0.051605,0.000000,-134.673187,9.383286,0.000000,0.000000,0.007000,-0.072000,FlatInitial
04:20:02.947 PM 02/14/2016,Teleop Enabled,0,FALSE,0,NO ERROR,-6004.687500,6001.171875,-6000.000000,-6000.000000,Speed,Speed,-0.400000,0.610000,3.910000,1.000000,102.000000,1,0,-0.000248,0.000062,0,-0.105270,0.079834,0.000000,-134.677032,9.386063,0.000000,-0.025000,0.030000,-0.048000,FlatInitial
04:20:03.047 PM 02/14/2016,Teleop Enabled,0,FALSE,0,NO ERROR,-6006.445312,5998.828125,-6000.000000,-6000.000000,Speed,Speed,-0.400000,0.600000,3.940000,1.000000,106.000000,1,0,-0.000248,0.000062,0,0.000000,0.115173,0.000000,-134.681839,9.391220,0.000000,-0.015000,0.036000,-0.050000,FlatInitial
04:20:03.148 PM 02/14/2016,Teleop Enabled,0,FALSE,0,NO ERROR,-6006.445312,5997.656250,-6000.000000,-6000.000000,Speed,Speed,-0.410000,0.580000,3.810000,1.000000,101.000000,1,0,-0.000248,0.000062,0,-0.013153,0.004379,0.000000,-134.682098,9.393692,0.000000,0.013000,0.042000,-0.088000,FlatInitial
04:20:03.248 PM 02/14/2016,Teleop Enabled,0,FALSE,0,NO ERROR,-6006.445312,5995.312500,-6000.000000,-6000.000000,Speed,Speed,-0.390000,0.590000,3.730000,1.000000,103.000000,1,0,-0.000248,0.000062,0,-0.034897,0.034271,0.000000,-134.683289,9.394913,0.000000,-0.008000,-0.002000,-0.085000,FlatInitial
04:20:03.349 PM 02/14/2016,Teleop Enabled,0,FALSE,0,NO ERROR,-6004.687500,5994.140625,-6000.000000,-6000.000000,Speed,Speed,-0.390000,0.590000,3.640000,1.000000,101.000000,1,0,-0.000248,0.000062,0,0.000000,0.063385,0.000000,-134.685471,9.397949,0.000000,-0.017000,0.031000,-0.046000,FlatInitial
04:20:03.449 PM 02/14/2016,Teleop Enabled,0,FALSE,0,NO ERROR,-6002.343750,5995.312500,-6000.000000,-6000.000000,Speed,Speed,-0.420000,0.590000,3.450000,1.000000,103.000000,1,0,-0.000248,0.000062,0,-0.023560,0.008102,0.000000,-134.686020,9.398682,0.000000,-0.019000,0.063000,-0.065000,FlatInitial
04:20:03.549 PM 02/14/2016,Teleop Enabled,0,FALSE,0,NO ERROR,-5996.484375,6002.343750,-6000.000000,-6000.000000,Speed,Speed,-0.410000,0.590000,3.320000,1.000000,101.000000,1,0,-0.000248,0.000062,0,-0.045517,0.013763,0.000000,-134.687851,9.399307,0.000000,-0.009000,0.020000,-0.084000,FlatInitial
04:20:03.650 PM 02/14/2016,Teleop Enabled,0,FALSE,0,NO ERROR,-5993.554688,6002.929688,-6000.000000,-6000.000000,Speed,Speed,-0.420000,0.590000,3.270000,1.000000,102.000000,1,0,-0.000248,0.000062,0,-0.080322,0.059326,0.000000,-134.691101,9.401337,0.000000,-0.020000,0.028000,-0.057000,FlatInitial
04:20:03.750 PM 02/14/2016,Teleop Enabled,0,FALSE,0,NO ERROR,-5994.726562,6004.687500,-6000.000000,-6000.000000,Speed,Speed,-0.420000,0.590000,3.230000,1.000000,102.000000,1,0,-0.000248,0.000062,0,-0.106842,0.103271,0.000000,-134.695984,9.405701,0.000000,-0.011000,0.023000,-0.059000,FlatInitial
04:20:03.850 PM 02/14/2016,Teleop Enabled,0,FALSE,0,NO ERROR,-5996.484375,6005.273438,-6000.000000,-6000.000000,Speed,Speed,-0.420000,0.570000,3.100000,1.000000,102.000000,1,0,-0.000248,0.000062,0,-0.138885,0.013062,0.000000,-134.702179,9.406937,0.000000,-0.001000,0.022000,-0.068000,FlatInitial
04:20:03.951 PM 02/14/2016,Teleop Enabled,0,FALSE,0,NO ERROR,-5998.828125,6004.687500,-6000.000000,-6000.000000,Speed,Speed,-0.420000,0.560000,3.010000,1.000000,102.000000,1,0,-0.000248,0.000062,0,-0.176254,0.035934,0.000000,-134.710129,9.408310,0.000000,-0.018000,-0.013000,-0.059000,FlatInitial
04:20:04.051 PM 02/14/2016,Teleop Enabled,0,FALSE,0,NO ERROR,-6001.757812,6003.515625,-6000.000000,-6000.000000,Speed,Speed,-0.410000,0.540000,2.940000,1.000000,102.000000,1,0,-0.000248,0.000062,0,0.000000,0.010742,0.000000,-134.710419,9.408478,0.000000,0.001000,-0.003000,-0.053000,FlatInitial
04:20:04.152 PM 02/14/2016,Teleop Enabled,0,FALSE,0,NO ERROR,-6002.929688,6004.101562,-6000.000000,-6000.000000,Speed,Speed,-0.420000,0.520000,2.810000,1.000000,104.000000,1,0,-0.000248,0.000062,0,-0.023209,0.034439,0.000000,-134.710983,9.409515,0.000000,0.012000,0.058000,-0.081000,FlatInitial
04:20:04.252 PM 02/14/2016,Teleop Enabled,0,FALSE,0,NO ERROR,-6004.101562,6002.343750,-6000.000000,-6000.000000,Speed,Speed,-0.420000,0.540000,2.720000,1.000000,105.000000,1,0,-0.000248,0.000062,0,-0.030106,0.065048,0.000000,-134.712585,9.412842,0.000000,-0.004000,0.030000,-0.047000,FlatInitial
04:20:04.352 PM 02/14/2016,Teleop Enabled,0,FALSE,0,NO ERROR,-6001.757812,5997.656250,-6000.000000,-6000.000000,Speed,Speed,-0.430000,0.550000,2.690000,1.000000,101.000000,1,0,-0.000248,0.000062,0,-0.052124,0.088654,0.000000,-134.714401,9.416122,0.000000,0.007000,-0.030000,0.015000,FlatInitial
04:20:04.452 PM 02/14/2016,Teleop Enabled,0,FALSE,0,NO ERROR,-5997.656250,5987.109375,-6000.000000,-6000.000000,Speed,Speed,-0.450000,0.680000,2.810000,1.000000,101.000000,1,0,-0.000248,0.000062,0,-0.050507,0.107666,0.000000,-134.717392,9.420929,0.000000,-0.060000,0.041000,-0.050000,FlatInitial
04:20:04.552 PM 02/14/2016,Teleop Enabled,0,FALSE,0,NO ERROR,-5995.312500,5988.867188,-6000.000000,-6000.000000,Speed,Speed,-0.450000,0.630000,2.850000,1.000000,102.000000,1,0,-0.000248,0.000062,0,0.000000,0.148285,0.000000,-134.719391,9.427322,0.000000,0.004000,0.068000,-0.051000,FlatInitial
04:20:04.653 PM 02/14/2016,Teleop Enabled,0,FALSE,0,NO ERROR,-5992.382812,5995.312500,-6000.000000,-6000.000000,Speed,Speed,-0.440000,0.630000,2.270000,1.000000,101.000000,1,0,-0.000248,0.000062,0,0.016251,0.213058,0.000000,-134.719086,9.438293,0.000000,-0.008000,0.105000,-0.309000,FlatInitial
04:20:04.752 PM 02/14/2016,Teleop Enabled,0,FALSE,0,NO ERROR,-5988.867188,6001.757812,-6000.000000,-6000.000000,Speed,Speed,-0.480000,0.650000,2.820000,1.000000,101.000000,1,0,-0.000248,0.000062,0,-0.014023,0.179840,0.000000,-134.719376,9.448486,0.000000,0.000000,-0.063000,0.093000,FlatInitial
04:20:04.854 PM 02/14/2016,Teleop Enabled,0,FALSE,0,NO ERROR,-5990.625000,6009.960938,-6000.000000,-6000.000000,Speed,Speed,-0.460000,0.650000,2.230000,1.000000,103.000000,1,0,-0.000248,0.000062,0,-0.018921,0.147018,0.000000,-134.720200,9.454590,0.000000,0.040000,-0.032000,0.089000,FlatInitial
04:20:04.953 PM 02/14/2016,Teleop Enabled,0,FALSE,0,NO ERROR,-5995.312500,6012.890625,-6000.000000,-6000.000000,Speed,Speed,-0.470000,0.580000,2.260000,1.000000,104.000000,1,0,-0.000248,0.000062,0,-0.045013,0.173111,0.000000,-134.722565,9.464371,0.000000,0.048000,0.050000,-0.087000,FlatInitial
04:20:05.053 PM 02/14/2016,Teleop Enabled,0,FALSE,0,NO ERROR,-5997.070312,6009.960938,-6000.000000,-6000.000000,Speed,Speed,-0.430000,0.660000,2.480000,1.000000,102.000000,1,0,-0.000248,0.000062,0,-0.044083,-0.006699,0.000000,-134.724609,9.467789,0.000000,-0.047000,0.021000,-0.078000,FlatInitial
04:20:05.155 PM 02/14/2016,Teleop Enabled,0,FALSE,0,NO ERROR,-6002.343750,6007.031250,-6000.000000,-6000.000000,Speed,Speed,-0.380000,0.670000,2.400000,1.000000,103.000000,1,0,-0.000248,0.000062,0,-0.050140,-0.010025,0.000000,-134.727234,9.467194,0.000000,0.029000,0.006000,-0.105000,FlatInitial
04:20:05.255 PM 02/14/2016,Teleop Enabled,0,FALSE,0,NO ERROR,-6007.617188,6007.031250,-6000.000000,-6000.000000,Speed,Speed,-0.440000,0.620000,2.670000,1.000000,103.000000,1,0,-0.000248,0.000062,0,0.007996,0.038910,0.000000,-134.728592,9.467880,0.000000,0.028000,-0.143000,-0.100000,FlatInitial
04:20:05.356 PM 02/14/2016,Teleop Enabled,0,FALSE,0,NO ERROR,-6008.203125,6009.960938,-6000.000000,-6000.000000,Speed,Speed,-0.480000,0.740000,3.080000,1.000000,101.000000,1,0,-0.000248,0.000062,0,0.049347,-0.049759,0.000000,-134.726532,9.467117,0.000000,0.084000,-0.061000,-0.010000,FlatInitial
04:20:05.456 PM 02/14/2016,Teleop Enabled,0,FALSE,0,NO ERROR,-6005.273438,6007.031250,-6000.000000,-6000.000000,Speed,Speed,-0.490000,0.800000,3.060000,1.000000,103.000000,1,0,-0.000248,0.000062,0,0.163681,-0.096909,0.000000,-134.720810,9.463150,0.000000,0.111000,-0.053000,0.127000,FlatInitial
04:20:05.555 PM 02/14/2016,Teleop Enabled,0,FALSE,0,NO ERROR,-6002.929688,6007.031250,-6000.000000,-6000.000000,Speed,Speed,-0.460000,0.850000,2.830000,1.000000,100.000000,1,0,-0.000248,0.000062,0,0.256226,-0.135651,0.000000,-134.712067,9.458176,0.000000,0.131000,0.002000,0.048000,FlatInitial
04:20:05.656 PM 02/14/2016,Teleop Enabled,0,FALSE,0,NO ERROR,-5995.312500,6000.000000,-6000.000000,-6000.000000,Speed,Speed,-0.450000,0.950000,2.770000,1.000000,103.000000,1,0,-0.000248,0.000062,0,0.375778,-0.204117,0.000000,-134.692032,9.448074,0.000000,0.131000,0.002000,0.048000,FlatInitial
04:20:05.756 PM 02/14/2016,Teleop Enabled,0,FALSE,0,NO ERROR,-5983.593750,5985.937500,-6000.000000,-6000.000000,Speed,Speed,-0.440000,0.980000,3.430000,1.000000,104.000000,1,0,-0.000248,0.000062,0,0.418930,-0.239471,0.000000,-134.676041,9.439148,0.000000,0.037000,-0.098000,-0.158000,FlatInitial
04:20:05.856 PM 02/14/2016,Teleop Enabled,0,FALSE,0,NO ERROR,-5982.421875,5980.078125,-6000.000000,-6000.000000,Speed,Speed,-0.390000,1.010000,3.140000,1.000000,103.000000,1,0,-0.000248,0.000062,0,0.481125,-0.307419,0.000000,-134.648682,9.421539,0.000000,0.037000,-0.098000,-0.158000,FlatInitial
04:20:05.956 PM 02/14/2016,Teleop Enabled,0,FALSE,0,NO ERROR,-5985.351562,5987.109375,-6000.000000,-6000.000000,Speed,Speed,-0.380000,0.970000,2.990000,1.000000,102.000000,1,0,-0.000248,0.000062,0,0.522461,-0.305618,0.000000,-134.628616,9.409164,0.000000,-0.014000,-0.017000,-0.019000,FlatInitial
04:20:06.058 PM 02/14/2016,Teleop Enabled,0,FALSE,0,NO ERROR,-5990.625000,5991.210938,-6000.000000,-6000.000000,Speed,Speed,-0.370000,0.980000,3.320000,1.000000,101.000000,1,0,-0.000248,0.000062,0,0.535248,-0.378769,0.000000,-134.596878,9.388458,0.000000,-0.065000,-0.045000,0.052000,FlatInitial
04:20:06.158 PM 02/14/2016,Teleop Enabled,0,FALSE,0,NO ERROR,-5996.484375,5992.382812,-6000.000000,-6000.000000,Speed,Speed,-0.370000,1.020000,3.190000,1.000000,103.000000,1,0,-0.000248,0.000062,0,0.554947,-0.423813,0.000000,-134.569351,9.368210,0.000000,-0.065000,-0.045000,0.052000,FlatInitial
04:20:06.260 PM 02/14/2016,Teleop Enabled,0,FALSE,0,NO ERROR,-5998.242188,5992.382812,-6000.000000,-6000.000000,Speed,Speed,-0.380000,0.950000,3.200000,1.000000,102.000000,1,0,-0.000248,0.000062,0,0.553665,-0.446518,0.000000,-134.541641,9.346207,0.000000,-0.003000,-0.081000,0.117000,FlatInitial
04:20:06.361 PM 02/14/2016,Teleop Enabled,0,FALSE,0,NO ERROR,-6001.757812,5996.484375,-6000.000000,-6000.000000,Speed,Speed,-0.360000,0.930000,3.310000,1.000000,102.000000,1,0,-0.000248,0.000062,0,0.012802,-0.483337,0.000000,-134.535904,9.327225,0.000000,-0.024000,-0.014000,0.092000,FlatInitial
04:20:06.466 PM 02/14/2016,Teleop Enabled,0,FALSE,0,NO ERROR,-6005.859375,6000.000000,-6000.000000,-6000.000000,Speed,Speed,-0.360000,0.880000,3.360000,1.000000,103.000000,1,0,-0.000248,0.000062,0,0.015152,0.006973,0.000000,-134.535233,9.327637,0.000000,-0.024000,-0.014000,0.092000,FlatInitial
04:20:06.565 PM 02/14/2016,Teleop Enabled,0,FALSE,0,NO ERROR,-6011.132812,6005.273438,-6000.000000,-6000.000000,Speed,Speed,-0.360000,0.800000,3.460000,1.000000,102.000000,1,1,0.000000,-0.000000,0,0.015152,0.006973,0.000000,-134.535233,9.327637,0.000000,0.077000,0.020000,0.010000,FlatInitial
04:20:06.665 PM 02/14/2016,Teleop Enabled,0,FALSE,0,NO ERROR,-6007.031250,6009.960938,-6000.000000,-6000.000000,Speed,Speed,-0.350000,0.760000,3.460000,1.000000,102.000000,1,1,0.000000,-0.000000,0,0.107620,-0.000320,0.000000,-134.529327,9.327515,0.000000,0.068000,0.075000,0.035000,FlatInitial
04:20:06.766 PM 02/14/2016,Teleop Enabled,0,FALSE,0,NO ERROR,-5998.242188,6009.960938,-6000.000000,-6000.000000,Speed,Speed,-0.350000,0.760000,3.460000,1.000000,101.000000,1,1,0.000000,-0.000000,0,0.144440,0.008514,0.000000,-134.522888,9.327301,0.000000,0.031000,0.027000,0.090000,FlatInitial
04:20:06.867 PM 02/14/2016,Teleop Enabled,0,FALSE,0,NO ERROR,-5988.281250,5992.382812,-6000.000000,-6000.000000,Speed,Speed,-0.390000,0.760000,3.300000,1.000000,106.000000,1,1,0.000000,-0.000000,0,0.167343,0.063568,0.000000,-134.514832,9.329498,0.000000,0.008000,-0.032000,0.040000,FlatInitial
04:20:06.967 PM 02/14/2016,Teleop Enabled,0,FALSE,0,NO ERROR,-5981.250000,5989.453125,-6000.000000,-6000.000000,Speed,Speed,-0.340000,0.770000,3.080000,1.000000,101.000000,1,1,0.000000,-0.000000,0,0.167343,0.063568,0.000000,-134.514832,9.329498,0.000000,0.008000,-0.032000,0.040000,FlatInitial
04:20:07.068 PM 02/14/2016,Teleop Enabled,0,FALSE,0,NO ERROR,-5982.421875,5988.281250,-6000.000000,-6000.000000,Speed,Speed,-0.390000,0.750000,2.920000,1.000000,103.000000,1,1,0.000000,-0.000000,0,0.055176,0.102921,0.000000,-134.511902,9.337280,0.000000,0.006000,-0.022000,-0.017000,FlatInitial
04:20:07.169 PM 02/14/2016,Teleop Enabled,0,FALSE,0,NO ERROR,-5983.593750,5988.281250,-6000.000000,-6000.000000,Speed,Speed,-0.450000,0.730000,3.380000,1.000000,102.000000,1,1,0.000000,-0.000000,0,0.002869,0.178162,0.000000,-134.511795,9.344925,0.000000,-0.018000,-0.087000,0.066000,FlatInitial
04:20:07.269 PM 02/14/2016,Teleop Enabled,0,FALSE,0,NO ERROR,-5987.695312,5990.625000,-6000.000000,-6000.000000,Speed,Speed,-0.390000,0.710000,3.160000,1.000000,103.000000,1,1,-0.250000,-0.250000,0,-0.015686,0.208511,0.000000,-134.512512,9.356415,0.000000,-0.018000,-0.087000,0.066000,FlatInitial
04:20:07.371 PM 02/14/2016,Teleop Enabled,0,FALSE,0,NO ERROR,-5979.492188,6000.585938,-6000.000000,-6000.000000,Speed,Speed,0.880000,0.230000,3.010000,1.000000,103.000000,1,1,0.000000,-0.000000,0,-0.099808,0.190994,0.000000,-134.516525,9.366791,0.000000,-0.212000,0.024000,0.179000,FlatInitial
04:20:07.471 PM 02/14/2016,Teleop Enabled,0,FALSE,0,NO ERROR,-5979.492188,5991.210938,-6000.000000,-6000.000000,Speed,Speed,2.940000,0.430000,3.230000,1.000000,103.000000,1,1,0.000000,-0.000000,0,-0.062515,0.130615,0.000000,-134.519608,9.372742,0.000000,-0.080000,-0.072000,-0.035000,FlatInitial
04:20:07.571 PM 02/14/2016,Teleop Enabled,0,FALSE,0,NO ERROR,-5974.218750,5975.976562,-6000.000000,-6000.000000,Speed,Speed,2.940000,0.430000,3.230000,1.000000,103.000000,1,1,0.000000,-0.000000,0,-0.062515,0.130615,0.000000,-134.519608,9.372742,0.000000,-0.080000,-0.072000,-0.035000,FlatInitial
04:20:07.673 PM 02/14/2016,Teleop Enabled,0,FALSE,0,NO ERROR,-5998.828125,5990.625000,-6000.000000,-6000.000000,Speed,Speed,3.480000,0.440000,3.150000,1.000000,104.000000,1,1,0.000000,-0.000000,0,-0.090988,0.132233,0.000000,-134.526779,9.381912,0.000000,-0.034000,0.050000,-0.015000,FlatInitial
04:20:07.774 PM 02/14/2016,Teleop Enabled,0,FALSE,0,NO ERROR,-6022.851562,6012.304688,-6000.000000,-6000.000000,Speed,Speed,2.810000,0.470000,3.500000,1.000000,101.000000,1,1,0.000000,-0.000000,0,-0.158173,0.164520,0.000000,-134.531906,9.387924,0.000000,-0.053000,0.054000,-0.101000,FlatInitial
04:20:07.874 PM 02/14/2016,Teleop Enabled,0,FALSE,0,NO ERROR,-6032.812500,6020.507812,-6000.000000,-6000.000000,Speed,Speed,2.620000,0.530000,3.510000,1.000000,102.000000,1,1,0.000000,-0.000000,0,-0.010468,0.031876,0.000000,-134.540482,9.394760,0.000000,0.077000,0.004000,-0.118000,FlatInitial
04:20:07.974 PM 02/14/2016,Teleop Enabled,0,FALSE,0,NO ERROR,-6032.226562,6022.851562,-6000.000000,-6000.000000,Speed,Speed,2.560000,0.600000,3.480000,1.000000,102.000000,1,1,0.000000,-0.000000,0,-0.010468,0.031876,0.000000,-134.540482,9.394760,0.000000,-0.014000,0.000000,-0.151000,FlatInitial
04:20:08.075 PM 02/14/2016,Teleop Enabled,0,FALSE,0,NO ERROR,-6027.539062,6014.648438,-6000.000000,-6000.000000,Speed,Speed,2.590000,0.660000,3.340000,1.000000,103.000000,1,1,0.000000,-0.000000,0,0.022964,0.051804,0.000000,-134.539978,9.397018,0.000000,-0.008000,-0.007000,-0.014000,FlatInitial
04:20:08.175 PM 02/14/2016,Teleop Enabled,0,FALSE,0,NO ERROR,-6021.679688,6009.375000,-6000.000000,-6000.000000,Speed,Speed,2.570000,0.810000,3.160000,1.000000,102.000000,1,1,0.000000,-0.000000,0,0.043289,0.060349,0.000000,-134.538269,9.400116,0.000000,0.046000,-0.012000,-0.122000,FlatInitial
04:20:08.275 PM 02/14/2016,Teleop Enabled,0,FALSE,0,NO ERROR,-6015.820312,6004.101562,-6000.000000,-6000.000000,Speed,Speed,2.570000,0.810000,3.160000,1.000000,102.000000,1,1,0.000000,-0.000000,0,0.101868,0.124832,0.000000,-134.530472,9.409378,0.000000,0.053000,0.019000,-0.148000,FlatInitial
04:20:08.376 PM 02/14/2016,Teleop Enabled,0,FALSE,0,NO ERROR,-6006.445312,6005.859375,-6000.000000,-6000.000000,Speed,Speed,2.580000,0.970000,2.810000,1.000000,105.000000,1,1,0.000000,-0.000000,0,0.126877,0.168839,0.000000,-134.524689,9.417038,0.000000,0.066000,0.041000,-0.132000,FlatInitial
04:20:08.477 PM 02/14/2016,Teleop Enabled,0,FALSE,0,NO ERROR,-6001.757812,6007.031250,-6000.000000,-6000.000000,Speed,Speed,2.580000,0.970000,2.810000,1.000000,102.000000,1,1,0.000000,-0.000000,0,0.126877,0.168839,0.000000,-134.524689,9.417038,0.000000,0.007000,0.069000,-0.134000,FlatInitial
04:20:08.577 PM 02/14/2016,Teleop Enabled,0,FALSE,0,NO ERROR,-5996.484375,5998.242188,-6000.000000,-6000.000000,Speed,Speed,2.540000,1.060000,2.680000,1.000000,103.000000,1,1,0.000000,-0.000000,0,0.131348,0.254318,0.000000,-134.516708,9.429993,0.000000,-0.060000,0.065000,0.078000,FlatInitial
04:20:08.678 PM 02/14/2016,Teleop Enabled,0,FALSE,0,NO ERROR,-5992.382812,5995.898438,-6000.000000,-6000.000000,Speed,Speed,2.520000,1.090000,2.610000,1.000000,111.000000,1,1,0.000000,-0.000000,0,0.140488,0.299530,0.000000,-134.511185,9.441376,0.000000,-0.017000,0.037000,-0.108000,FlatInitial
04:20:08.778 PM 02/14/2016,Teleop Enabled,0,FALSE,0,NO ERROR,-5990.039062,5991.210938,-6000.000000,-6000.000000,Speed,Speed,2.500000,1.190000,2.340000,1.000000,102.000000,1,1,0.000000,-0.000000,0,0.120316,0.367157,0.000000,-134.498154,9.474808,0.000000,-0.032000,0.063000,-0.006000,FlatInitial
04:20:08.878 PM 02/14/2016,Teleop Enabled,0,FALSE,0,NO ERROR,-5989.453125,5991.796875,-6000.000000,-6000.000000,Speed,Speed,2.500000,1.190000,2.340000,1.000000,107.000000,1,1,0.000000,-0.000000,0,0.120316,0.367157,0.000000,-134.498154,9.474808,0.000000,-0.039000,-0.061000,-0.188000,FlatInitial
04:20:08.978 PM 02/14/2016,Teleop Enabled,0,FALSE,0,NO ERROR,-5995.312500,5992.382812,-6000.000000,-6000.000000,Speed,Speed,2.500000,1.250000,2.300000,1.000000,102.000000,1,1,0.000000,-0.000000,0,0.003845,0.425720,0.000000,-134.493225,9.498505,0.000000,0.021000,0.082000,-0.001000,FlatInitial
04:20:09.080 PM 02/14/2016,Teleop Enabled,0,FALSE,0,NO ERROR,-5998.828125,5998.828125,-6000.000000,-6000.000000,Speed,Speed,2.510000,1.340000,2.260000,1.000000,103.000000,1,1,0.000000,-0.000000,0,0.016541,0.474152,0.000000,-134.492508,9.516876,0.000000,-0.028000,0.026000,-0.150000,FlatInitial
04:20:09.180 PM 02/14/2016,Teleop Enabled,0,FALSE,0,NO ERROR,-6002.343750,6004.101562,-6000.000000,-6000.000000,Speed,Speed,2.480000,1.360000,2.170000,1.000000,104.000000,1,1,0.000000,-0.000000,0,0.004684,0.530838,0.000000,-134.491547,9.547318,0.000000,-0.009000,0.070000,-0.019000,FlatInitial
04:20:09.280 PM 02/14/2016,Teleop Enabled,0,FALSE,0,NO ERROR,-6007.031250,6006.445312,-6000.000000,-6000.000000,Speed,Speed,2.470000,1.360000,2.110000,1.000000,103.000000,1,1,0.000000,-0.000000,0,-0.000061,0.612900,0.000000,-134.491241,9.576385,0.000000,0.019000,0.085000,-0.045000,FlatInitial
04:20:09.381 PM 02/14/2016,Teleop Enabled,0,FALSE,0,NO ERROR,-6010.546875,6007.031250,-6000.000000,-6000.000000,Speed,Speed,2.460000,1.360000,1.960000,1.000000,102.000000,1,1,0.000000,-0.000000,0,0.005737,0.686447,0.000000,-134.490814,9.609650,0.000000,0.063000,0.047000,-0.083000,FlatInitial
04:20:09.482 PM 02/14/2016,Teleop Enabled,0,FALSE,0,NO ERROR,-6009.375000,6009.375000,-6000.000000,-6000.000000,Speed,Speed,2.470000,1.460000,1.880000,1.000000,107.000000,1,1,0.000000,-0.000000,0,0.005737,0.755539,0.000000,-134.490280,9.638748,0.000000,0.039000,0.102000,-0.015000,FlatInitial
04:20:09.582 PM 02/14/2016,Teleop Enabled,0,FALSE,0,NO ERROR,-6006.445312,6004.687500,-6000.000000,-6000.000000,Speed,Speed,2.460000,1.380000,1.830000,1.000000,103.000000,1,1,0.000000,-0.000000,0,-0.021240,0.840042,0.000000,-134.490356,9.687454,0.000000,0.062000,0.105000,-0.017000,FlatInitial
04:20:09.683 PM 02/14/2016,Teleop Enabled,0,FALSE,0,NO ERROR,-6005.273438,6002.343750,-6000.000000,-6000.000000,Speed,Speed,2.460000,1.380000,1.780000,1.000000,102.000000,1,1,0.000000,-0.000000,0,-0.051208,0.898376,0.000000,-134.491837,9.731445,0.000000,0.014000,0.091000,-0.061000,FlatInitial
04:20:09.783 PM 02/14/2016,Teleop Enabled,0,FALSE,0,NO ERROR,-6001.757812,6001.171875,-6000.000000,-6000.000000,Speed,Speed,2.450000,1.390000,1.780000,1.000000,102.000000,1,1,0.000000,-0.000000,0,-0.084564,0.952972,0.000000,-134.495117,9.778458,0.000000,0.026000,0.078000,-0.112000,FlatInitial
04:20:09.884 PM 02/14/2016,Teleop Enabled,0,FALSE,0,NO ERROR,-5997.070312,5997.656250,-6000.000000,-6000.000000,Speed,Speed,2.440000,1.390000,1.660000,1.000000,102.000000,1,1,-0.250000,-0.250000,0,-0.114182,0.980469,0.000000,-134.500015,9.827026,0.000000,0.001000,0.129000,-0.059000,FlatInitial
04:20:09.985 PM 02/14/2016,Teleop Enabled,0,FALSE,0,NO ERROR,-5989.453125,5984.765625,-6000.000000,-6000.000000,Speed,Speed,2.440000,1.410000,1.590000,1.000000,103.000000,1,1,0.000000,-0.000000,0,-0.148895,1.015503,0.000000,-134.506668,9.877106,0.000000,-0.091000,0.233000,-0.064000,FlatInitial
04:20:10.085 PM 02/14/2016,Teleop Enabled,0,FALSE,0,NO ERROR,-5968.945312,5970.117188,-6000.000000,-6000.000000,Speed,Speed,4.340000,1.080000,1.210000,1.000000,101.000000,1,1,0.000000,-0.000000,0,-0.256088,1.058365,0.000000,-134.518173,9.930267,0.000000,0.039000,0.023000,-0.288000,FlatInitial
04:20:10.185 PM 02/14/2016,Teleop Enabled,0,FALSE,0,NO ERROR,-5984.179688,5978.906250,-6000.000000,-6000.000000,Speed,Speed,5.990000,1.430000,1.570000,1.000000,103.000000,1,1,0.000000,-0.000000,0,-0.202911,1.060211,0.000000,-134.528854,9.983444,0.000000,0.008000,0.030000,0.024000,FlatInitial
04:20:10.285 PM 02/14/2016,Teleop Enabled,0,FALSE,0,NO ERROR,-6005.273438,5996.484375,-6000.000000,-6000.000000,Speed,Speed,6.170000,1.550000,1.520000,1.000000,103.000000,1,1,0.000000,-0.000000,0,-0.235641,1.077545,0.000000,-134.539810,10.037079,0.000000,0.098000,0.061000,-0.012000,FlatInitial
04:20:10.386 PM 02/14/2016,Teleop Enabled,0,FALSE,0,NO ERROR,-6012.890625,6010.546875,-6000.000000,-6000.000000,Speed,Speed,5.590000,1.610000,1.290000,1.000000,101.000000,1,1,0.000000,-0.000000,0,-0.254150,1.219742,0.000000,-134.553650,10.106247,0.000000,-0.034000,0.142000,-0.054000,FlatInitial
04:20:10.486 PM 02/14/2016,Teleop Enabled,0,FALSE,0,NO ERROR,-6014.648438,6016.406250,-6000.000000,-6000.000000,Speed,Speed,5.380000,1.480000,1.560000,1.000000,102.000000,1,1,0.000000,-0.000000,0,-0.299774,1.288818,0.000000,-134.565033,10.157013,0.000000,-0.031000,0.156000,-0.061000,FlatInitial
04:20:10.587 PM 02/14/2016,Teleop Enabled,0,FALSE,0,NO ERROR,-6011.132812,6012.304688,-6000.000000,-6000.000000,Speed,Speed,5.250000,1.520000,1.430000,1.000000,102.000000,1,1,0.000000,-0.000000,0,-0.308289,1.331665,0.000000,-134.582870,10.235718,0.000000,0.017000,0.114000,0.001000,FlatInitial
04:20:10.687 PM 02/14/2016,Teleop Enabled,0,FALSE,0,NO ERROR,-6007.031250,6007.031250,-6000.000000,-6000.000000,Speed,Speed,5.200000,1.490000,1.360000,1.000000,101.000000,1,1,0.000000,-0.000000,0,-0.304794,1.367142,0.000000,-134.598297,10.303207,0.000000,0.053000,0.087000,0.025000,FlatInitial
04:20:10.787 PM 02/14/2016,Teleop Enabled,0,FALSE,0,NO ERROR,-6005.273438,6002.929688,-6000.000000,-6000.000000,Speed,Speed,5.230000,1.470000,1.360000,1.000000,102.000000,1,1,0.000000,-0.000000,0,-0.319855,1.412781,0.000000,-134.613846,10.372849,0.000000,-0.017000,0.055000,-0.025000,FlatInitial
04:20:10.888 PM 02/14/2016,Teleop Enabled,0,FALSE,0,NO ERROR,-6002.929688,6003.515625,-6000.000000,-6000.000000,Speed,Speed,5.180000,1.480000,1.290000,1.000000,104.000000,1,1,0.000000,-0.000000,0,-0.025131,1.487015,0.000000,-134.614365,10.445831,0.000000,-0.042000,0.073000,0.000000,FlatInitial
04:20:10.988 PM 02/14/2016,Teleop Enabled,0,FALSE,0,NO ERROR,-5999.414062,5997.656250,-6000.000000,-6000.000000,Speed,Speed,5.160000,1.410000,1.390000,1.000000,101.000000,1,1,0.000000,-0.000000,0,-0.083984,1.547012,0.000000,-134.617538,10.522003,0.000000,-0.030000,0.026000,-0.034000,FlatInitial
04:20:11.088 PM 02/14/2016,Teleop Enabled,0,FALSE,0,NO ERROR,-5997.656250,5995.898438,-6000.000000,-6000.000000,Speed,Speed,5.140000,1.400000,1.350000,1.000000,101.000000,1,1,0.000000,-0.000000,0,-0.129578,1.586304,0.000000,-134.623245,10.600418,0.000000,-0.043000,0.012000,-0.201000,FlatInitial
04:20:11.188 PM 02/14/2016,Teleop Enabled,0,FALSE,0,NO ERROR,-5995.898438,5997.070312,-6000.000000,-6000.000000,Speed,Speed,5.130000,1.370000,1.340000,1.000000,102.000000,1,1,0.000000,-0.000000,0,-0.169632,0.028000,0.000000,-134.632706,10.633102,0.000000,-0.105000,0.036000,-0.121000,FlatInitial
04:20:11.288 PM 02/14/2016,Teleop Enabled,0,FALSE,0,NO ERROR,-5995.898438,5998.242188,-6000.000000,-6000.000000,Speed,Speed,5.130000,1.400000,1.420000,1.000000,101.000000,1,1,0.000000,-0.000000,0,-0.202576,0.083328,0.000000,-134.642349,10.636383,0.000000,-0.081000,0.034000,-0.104000,FlatInitial
04:20:11.388 PM 02/14/2016,Teleop Enabled,0,FALSE,0,NO ERROR,-5993.554688,5999.414062,-6000.000000,-6000.000000,Speed,Speed,5.120000,1.390000,1.320000,1.000000,101.000000,1,1,0.000000,-0.000000,0,-0.234299,0.128799,0.000000,-134.651459,10.640747,0.000000,-0.090000,0.126000,-0.064000,FlatInitial
04:20:11.489 PM 02/14/2016,Teleop Enabled,0,FALSE,0,NO ERROR,-5995.898438,6003.515625,-6000.000000,-6000.000000,Speed,Speed,5.130000,1.300000,1.290000,1.000000,104.000000,1,1,0.000000,-0.000000,0,-0.274185,0.217804,0.000000,-134.667419,10.651703,0.000000,0.005000,0.041000,-0.072000,FlatInitial
04:20:11.590 PM 02/14/2016,Teleop Enabled,0,FALSE,0,NO ERROR,-6000.585938,6005.859375,-6000.000000,-6000.000000,Speed,Speed,5.120000,1.310000,1.250000,1.000000,102.000000,1,1,0.000000,-0.000000,0,-0.002243,0.270279,0.000000,-134.673004,10.664169,0.000000,-0.032000,0.080000,-0.063000,FlatInitial
04:20:11.692 PM 02/14/2016,Teleop Enabled,0,FALSE,0,NO ERROR,-6002.929688,6002.929688,-6000.000000,-6000.000000,Speed,Speed,5.120000,1.280000,1.260000,1.000000,102.000000,1,1,0.000000,-0.000000,0,-0.012772,0.338303,0.000000,-134.673447,10.679626,0.000000,-0.048000,0.025000,-0.185000,FlatInitial
04:20:11.793 PM 02/14/2016,Teleop Enabled,0,FALSE,0,NO ERROR,-6004.687500,6002.929688,-6000.000000,-6000.000000,Speed,Speed,5.110000,1.290000,1.240000,1.000000,102.000000,1,1,0.000000,-0.000000,0,-0.018356,0.405045,0.000000,-134.674362,10.698502,0.000000,-0.053000,0.047000,-0.161000,FlatInitial
04:20:11.893 PM 02/14/2016,Teleop Enabled,0,FALSE,0,NO ERROR,-6008.203125,6002.343750,-6000.000000,-6000.000000,Speed,Speed,5.110000,1.280000,1.270000,1.000000,104.000000,1,1,0.000000,-0.000000,0,-0.047668,0.479889,0.000000,-134.675980,10.720993,0.000000,-0.120000,0.067000,-0.161000,FlatInitial
