Time,RobotMode,AutoToRun,ErrorStatus, ErrorCode,ErrorSource,ActualRPM1,ActualRPM2,DesiredRPM1,DesiredRPM2,ControlMode1,ControlMode2,NavXYaw,NavXRoll,NavXPitch,ShooterState,LoopTime,IsLevel,IsAutoTargeting,LeftMotorOutput,RightMotorOutput,IsHaloDrive,NavXVelocityX,NavXVelocityY,NavXVelocityZ,NavXDisplacementX,NavXDisplacementY,NavXDisplacementZ,NavXAccelerationX,NavXAccelerationY,NavXAccelerationZ,AutoDefendState
04:15:00.743 PM 02/14/2016,Teleop Enabled,0,TRUE,91,Variant To Data in WPI_DigitalInputRefNum Registry Get.vi->Periodic Tasks.vi->Robot Main.vi,0.000000,0.000000,0.000000,0.000000,Speed,Speed,0.000000,1.190000,1.800000,0.000000,50210.000000,1,0,-0.000248,0.000062,0,0.000000,0.000000,0.000000,-65.775024,7.898712,0.000000,0.000000,0.002000,0.000000,FlatInitial
04:15:00.843 PM 02/14/2016,Teleop Enabled,0,TRUE,-44007,<LOCATION>WPI_DigitalInputRefNum Registry Get.vi<CALLSTACK>WPI_DigitalInputRefNum Registry Get.vi< <Periodic Tasks.vi< <Robot Main.vi,0.000000,0.000000,0.000000,0.000000,Speed,Speed,-0.010000,1.190000,1.810000,0.000000,101.000000,1,0,-0.000248,0.000062,0,0.000000,0.003433,0.000000,-65.775024,7.898743,0.000000,0.000000,0.026000,0.024000,FlatInitial
04:15:00.945 PM 02/14/2016,Teleop Enabled,0,FALSE,0,NO ERROR,0.000000,0.000000,0.000000,0.000000,Speed,Speed,0.000000,1.200000,1.820000,0.000000,102.000000,1,0,-0.000248,0.000062,0,0.002625,0.011078,0.000000,-65.774994,7.899399,0.000000,0.001000,-0.089000,0.025000,FlatInitial
04:15:01.045 PM 02/14/2016,Teleop Enabled,0,FALSE,0,NO ERROR,0.000000,0.000000,0.000000,0.000000,Speed,Speed,0.000000,1.180000,1.750000,0.000000,101.000000,1,0,-0.000248,0.000062,0,-0.003891,0.000000,0.000000,-65.774948,7.898712,0.000000,0.008000,0.016000,-0.004000,FlatInitial
04:15:01.146 PM 02/14/2016,Teleop Enabled,0,FALSE,0,NO ERROR,0.000000,0.000000,0.000000,0.000000,Speed,Speed,0.000000,1.180000,1.860000,0.000000,103.000000,1,0,-0.000248,0.000062,0,0.000000,0.020126,0.000000,-65.774948,7.899368,0.000000,-0.007000,0.006000,0.020000,FlatInitial
04:15:01.248 PM 02/14/2016,Teleop Enabled,0,FALSE,0,NO ERROR,0.000000,0.000000,0.000000,0.000000,Speed,Speed,0.020000,1.180000,1.970000,0.000000,103.000000,1,0,-0.000248,0.000062,0,0.000000,0.000000,0.000000,-65.774948,7.899368,0.000000,-0.010000,-0.002000,0.009000,FlatInitial
04:15:01.349 PM 02/14/2016,Teleop Enabled,0,FALSE,0,NO ERROR,0.000000,0.000000,0.000000,0.000000,Speed,Speed,0.000000,1.180000,1.980000,0.000000,103.000000,1,0,-0.000248,0.000062,0,0.000000,0.000000,0.000000,-65.774948,7.899368,0.000000,-0.001000,-0.004000,0.003000,FlatInitial
04:15:01.449 PM 02/14/2016,Teleop Enabled,0,FALSE,0,NO ERROR,0.000000,0.000000,0.000000,0.000000,Speed,Speed,0.020000,1.170000,1.950000,0.000000,101.000000,1,0,-0.000248,0.000062,0,0.000000,0.004440,0.000000,-65.774948,7.899414,0.000000,0.009000,0.018000,0.001000,FlatInitial
04:15:01.549 PM 02/14/2016,Teleop Enabled,0,FALSE,0,NO ERROR,0.000000,0.000000,0.000000,0.000000,Speed,Speed,0.010000,1.180000,1.970000,0.000000,106.000000,1,0,-0.000248,0.000062,0,0.000000,0.000000,0.000000,-65.774948,7.899612,0.000000,0.006000,-0.015000,0.012000,FlatInitial
04:15:01.650 PM 02/14/2016,Teleop Enabled,0,FALSE,0,NO ERROR,0.000000,0.000000,0.000000,0.000000,Speed,Speed,-0.030000,1.190000,1.890000,0.000000,104.000000,1,0,-0.000248,0.000062,0,0.000000,0.000000,0.000000,-65.774948,7.899612,0.000000,-0.004000,0.001000,0.005000,FlatInitial
04:15:01.750 PM 02/14/2016,Teleop Enabled,0,FALSE,0,NO ERROR,0.000000,0.000000,0.000000,0.000000,Speed,Speed,-0.010000,1.190000,1.900000,0.000000,100.000000,1,0,-0.000248,0.000062,0,0.000000,0.000000,0.000000,-65.774948,7.899612,0.000000,-0.005000,-0.005000,0.000000,FlatInitial
04:15:01.850 PM 02/14/2016,Teleop Enabled,0,FALSE,0,NO ERROR,0.000000,0.000000,0.000000,0.000000,Speed,Speed,0.010000,1.180000,1.860000,0.000000,101.000000,1,0,-0.000248,0.000062,0,0.000000,0.000000,0.000000,-65.774948,7.899612,0.000000,0.001000,0.019000,0.015000,FlatInitial
04:15:01.950 PM 02/14/2016,Teleop Enabled,0,FALSE,0,NO ERROR,0.000000,0.000000,0.000000,0.000000,Speed,Speed,0.030000,1.200000,1.830000,0.000000,101.000000,1,0,-0.000248,0.000062,0,0.000000,0.030502,0.000000,-65.774948,7.900574,0.000000,0.001000,0.012000,-0.014000,FlatInitial
04:15:02.050 PM 02/14/2016,Teleop Enabled,0,FALSE,0,NO ERROR,0.000000,0.000000,0.000000,0.000000,Speed,Speed,-0.010000,1.190000,1.910000,0.000000,101.000000,1,0,-0.000248,0.000062,0,0.002762,-0.026550,0.000000,-65.774673,7.899948,0.000000,-0.023000,-0.023000,0.009000,FlatInitial
04:15:02.152 PM 02/14/2016,Teleop Enabled,0,FALSE,0,NO ERROR,0.000000,0.000000,0.000000,0.000000,Speed,Speed,0.020000,1.200000,1.750000,0.000000,102.000000,1,0,-0.000248,0.000062,0,-0.003845,0.000000,0.000000,-65.774658,7.899002,0.000000,0.000000,0.008000,-0.078000,FlatInitial
04:15:02.252 PM 02/14/2016,Teleop Enabled,0,FALSE,0,NO ERROR,0.000000,0.000000,0.000000,0.000000,Speed,Speed,0.020000,1.150000,1.780000,0.000000,105.000000,1,0,-0.000248,0.000062,0,-0.012268,-0.011261,0.000000,-65.774857,7.898758,0.000000,-0.012000,-0.013000,-0.055000,FlatInitial
04:15:02.353 PM 02/14/2016,Teleop Enabled,0,FALSE,0,NO ERROR,0.000000,0.000000,0.000000,0.000000,Speed,Speed,0.050000,1.190000,1.740000,0.000000,101.000000,1,0,-0.000248,0.000062,0,0.006393,0.000000,0.000000,-65.774551,7.898758,0.000000,-0.021000,0.019000,-0.005000,FlatInitial
04:15:02.453 PM 02/14/2016,Teleop Enabled,0,FALSE,0,NO ERROR,0.000000,0.000000,0.000000,0.000000,Speed,Speed,0.040000,1.190000,1.860000,0.000000,102.000000,1,0,-0.000248,0.000062,0,0.000000,0.000000,0.000000,-65.774506,7.898987,0.000000,-0.003000,-0.015000,0.033000,FlatInitial
04:15:02.553 PM 02/14/2016,Teleop Enabled,0,FALSE,0,NO ERROR,0.000000,0.000000,0.000000,0.000000,Speed,Speed,0.040000,1.180000,1.800000,0.000000,101.000000,1,1,0.000000,-0.000000,0,0.000000,0.000000,0.000000,-65.774506,7.898987,0.000000,0.007000,0.010000,0.023000,FlatInitial
04:15:02.653 PM 02/14/2016,Teleop Enabled,0,FALSE,0,NO ERROR,0.000000,0.000000,0.000000,0.000000,Speed,Speed,0.040000,1.190000,1.850000,0.000000,101.000000,1,1,0.000000,-0.000000,0,0.000000,0.000000,0.000000,-65.774506,7.898987,0.000000,-0.003000,-0.009000,0.013000,FlatInitial
04:15:02.753 PM 02/14/2016,Teleop Enabled,0,FALSE,0,NO ERROR,0.000000,0.000000,0.000000,0.000000,Speed,Speed,0.010000,1.190000,1.800000,0.000000,102.000000,1,1,0.000000,-0.000000,0,0.000000,0.000000,0.000000,-65.774506,7.898987,0.000000,-0.005000,0.003000,0.001000,FlatInitial
04:15:02.854 PM 02/14/2016,Teleop Enabled,0,FALSE,0,NO ERROR,0.000000,0.000000,0.000000,0.000000,Speed,Speed,0.020000,1.190000,1.800000,0.000000,103.000000,1,1,0.000000,-0.000000,0,0.000000,0.000000,0.000000,-65.774506,7.898987,0.000000,0.003000,-0.006000,-0.004000,FlatInitial
04:15:02.954 PM 02/14/2016,Teleop Enabled,0,FALSE,0,NO ERROR,0.000000,0.000000,0.000000,0.000000,Speed,Speed,0.020000,1.180000,1.800000,0.000000,101.000000,1,1,0.000000,-0.000000,0,0.000000,0.000000,0.000000,-65.774506,7.898987,0.000000,0.002000,0.001000,0.006000,FlatInitial
04:15:03.054 PM 02/14/2016,Teleop Enabled,0,FALSE,0,NO ERROR,0.000000,0.000000,0.000000,0.000000,Speed,Speed,0.040000,1.190000,1.820000,0.000000,102.000000,1,1,0.000000,-0.000000,0,0.000000,0.000000,0.000000,-65.774506,7.898987,0.000000,0.001000,0.002000,-0.002000,FlatInitial
04:15:03.156 PM 02/14/2016,Teleop Enabled,0,FALSE,0,NO ERROR,0.000000,0.000000,0.000000,0.000000,Speed,Speed,0.030000,1.190000,1.820000,0.000000,103.000000,1,1,0.000000,-0.000000,0,0.000000,0.000000,0.000000,-65.774506,7.898987,0.000000,0.000000,0.004000,-0.002000,FlatInitial
04:15:03.256 PM 02/14/2016,Teleop Enabled,0,FALSE,0,NO ERROR,0.000000,0.000000,0.000000,0.000000,Speed,Speed,0.030000,1.190000,1.820000,0.000000,103.000000,1,1,0.000000,-0.000000,0,0.000000,0.000000,0.000000,-65.774506,7.898987,0.000000,0.001000,-0.004000,0.004000,FlatInitial
04:15:03.356 PM 02/14/2016,Teleop Enabled,0,FALSE,0,NO ERROR,0.000000,0.000000,0.000000,0.000000,Speed,Speed,0.020000,1.190000,1.810000,0.000000,103.000000,1,1,0.000000,-0.000000,0,0.000000,0.000000,0.000000,-65.774506,7.898987,0.000000,0.002000,0.002000,0.006000,FlatInitial
04:15:03.460 PM 02/14/2016,Teleop Enabled,0,FALSE,0,NO ERROR,0.000000,0.000000,0.000000,0.000000,Speed,Speed,0.020000,1.200000,1.810000,0.000000,103.000000,1,1,0.000000,-0.000000,0,0.000000,0.000000,0.000000,-65.774506,7.898987,0.000000,0.000000,0.000000,0.003000,FlatInitial
04:15:03.561 PM 02/14/2016,Teleop Enabled,0,FALSE,0,NO ERROR,0.000000,0.000000,0.000000,0.000000,Speed,Speed,0.020000,1.200000,1.800000,0.000000,101.000000,1,1,0.000000,-0.000000,0,0.000000,0.000000,0.000000,-65.774506,7.898987,0.000000,0.000000,-0.004000,-0.001000,FlatInitial
04:15:03.661 PM 02/14/2016,Teleop Enabled,0,FALSE,0,NO ERROR,0.000000,0.000000,0.000000,0.000000,Speed,Speed,0.020000,1.200000,1.800000,0.000000,103.000000,1,1,0.000000,-0.000000,0,0.000000,0.000000,0.000000,-65.774506,7.898987,0.000000,-0.002000,-0.002000,0.000000,FlatInitial
04:15:03.761 PM 02/14/2016,Teleop Enabled,0,FALSE,0,NO ERROR,0.000000,0.000000,0.000000,0.000000,Speed,Speed,0.020000,1.200000,1.800000,0.000000,101.000000,1,1,0.000000,-0.000000,0,0.000000,0.000000,0.000000,-65.774506,7.898987,0.000000,0.001000,0.000000,0.003000,FlatInitial
04:15:03.862 PM 02/14/2016,Teleop Enabled,0,FALSE,0,NO ERROR,0.000000,0.000000,0.000000,0.000000,Speed,Speed,0.020000,1.200000,1.800000,0.000000,101.000000,1,1,0.000000,-0.000000,0,0.000000,0.000000,0.000000,-65.774506,7.898987,0.000000,0.002000,-0.001000,0.003000,FlatInitial
04:15:03.966 PM 02/14/2016,Teleop Enabled,0,FALSE,0,NO ERROR,0.000000,0.000000,-6000.000000,-6000.000000,Speed,Speed,0.020000,1.200000,1.800000,1.000000,102.000000,1,1,0.000000,-0.000000,0,0.000000,0.000000,0.000000,-65.774506,7.898987,0.000000,0.000000,0.000000,0.007000,FlatInitial
04:15:04.066 PM 02/14/2016,Teleop Enabled,0,FALSE,0,NO ERROR,-176.513672,74.853516,-6000.000000,-6000.000000,Speed,Speed,0.020000,1.210000,1.810000,1.000000,102.000000,1,1,0.000000,-0.000000,0,0.002640,0.000000,0.000000,-65.774475,7.898987,0.000000,0.027000,-0.006000,-0.014000,FlatInitial
04:15:04.166 PM 02/14/2016,Teleop Enabled,0,FALSE,0,NO ERROR,-1813.623047,1514.501953,-6000.000000,-6000.000000,Speed,Speed,0.020000,1.220000,1.830000,1.000000,101.000000,1,1,0.000000,-0.000000,0,-0.006683,0.000000,0.000000,-65.774429,7.898987,0.000000,-0.021000,0.011000,-0.003000,FlatInitial
04:15:04.266 PM 02/14/2016,Teleop Enabled,0,FALSE,0,NO ERROR,-3604.248047,3412.792969,-6000.000000,-6000.000000,Speed,Speed,0.020000,1.200000,1.780000,1.000000,102.000000,1,1,0.000000,-0.000000,0,0.000000,-0.002777,0.000000,-65.774536,7.898834,0.000000,0.038000,0.003000,0.022000,FlatInitial
04:15:04.366 PM 02/14/2016,Teleop Enabled,0,FALSE,0,NO ERROR,-5004.492188,4937.695312,-6000.000000,-6000.000000,Speed,Speed,0.020000,1.260000,1.670000,1.000000,109.000000,1,1,0.000000,-0.000000,0,0.027191,-0.041946,0.000000,-65.773865,7.897873,0.000000,-0.048000,0.011000,0.008000,FlatInitial
04:15:04.466 PM 02/14/2016,Teleop Enabled,0,FALSE,0,NO ERROR,-5799.023438,5834.765625,-6000.000000,-6000.000000,Speed,Speed,0.020000,1.270000,1.650000,1.000000,105.000000,1,1,0.000000,-0.000000,0,0.024231,0.001602,0.000000,-65.772491,7.897507,0.000000,-0.031000,-0.027000,0.069000,FlatInitial
04:15:04.566 PM 02/14/2016,Teleop Enabled,0,FALSE,0,NO ERROR,-6072.070312,5834.765625,-6000.000000,-6000.000000,Speed,Speed,0.020000,1.330000,1.660000,1.000000,101.000000,1,1,0.000000,-0.000000,0,-0.009644,-0.014877,0.000000,-65.772247,7.897263,0.000000,-0.025000,-0.045000,0.042000,FlatInitial
04:15:04.666 PM 02/14/2016,Teleop Enabled,0,FALSE,0,NO ERROR,-6121.875000,6096.093750,-6000.000000,-6000.000000,Speed,Speed,0.020000,1.340000,1.530000,1.000000,102.000000,1,1,0.000000,-0.000000,0,-0.070190,0.000000,0.000000,-65.774399,7.896408,0.000000,-0.066000,0.017000,-0.071000,FlatInitial
04:15:04.766 PM 02/14/2016,Teleop Enabled,0,FALSE,0,NO ERROR,-6121.875000,6106.640625,-6000.000000,-6000.000000,Speed,Speed,0.020000,1.250000,1.600000,1.000000,104.000000,1,1,0.000000,-0.000000,0,-0.136383,0.000000,0.000000,-65.780106,7.896637,0.000000,-0.030000,0.005000,-0.056000,FlatInitial
04:15:04.866 PM 02/14/2016,Teleop Enabled,0,FALSE,0,NO ERROR,-6104.296875,6067.382812,-6000.000000,-6000.000000,Speed,Speed,0.020000,1.270000,1.630000,1.000000,107.000000,1,1,0.000000,-0.000000,0,0.014908,-0.020874,0.000000,-65.782761,7.896240,0.000000,0.026000,-0.028000,-0.080000,FlatInitial
04:15:04.967 PM 02/14/2016,Teleop Enabled,0,FALSE,0,NO ERROR,-6076.757812,6042.187500,-6000.000000,-6000.000000,Speed,Speed,0.020000,1.330000,1.490000,1.000000,107.000000,1,1,0.000000,-0.000000,0,0.055618,-0.046204,0.000000,-65.781204,7.894714,0.000000,0.069000,-0.030000,-0.122000,FlatInitial
04:15:05.067 PM 02/14/2016,Teleop Enabled,0,FALSE,0,NO ERROR,-6045.117188,6031.054688,-6000.000000,-6000.000000,Speed,Speed,0.020000,1.320000,1.520000,1.000000,102.000000,1,1,0.000000,-0.000000,0,0.109787,0.008041,0.000000,-65.775818,7.893311,0.000000,0.036000,0.044000,-0.066000,FlatInitial
04:15:05.172 PM 02/14/2016,Teleop Enabled,0,FALSE,0,NO ERROR,-6032.812500,6018.750000,-6000.000000,-6000.000000,Speed,Speed,0.020000,1.320000,1.650000,1.000000,101.000000,1,1,0.000000,-0.000000,0,0.144302,0.084702,0.000000,-65.769257,7.895859,0.000000,0.020000,0.095000,-0.054000,FlatInitial
04:15:05.273 PM 02/14/2016,Teleop Enabled,0,FALSE,0,NO ERROR,-6025.195312,6011.132812,-6000.000000,-6000.000000,Speed,Speed,0.030000,1.330000,1.920000,1.000000,101.000000,1,1,0.000000,-0.000000,0,0.170898,0.161087,0.000000,-65.762802,7.901199,0.000000,0.032000,0.113000,-0.091000,FlatInitial
04:15:05.373 PM 02/14/2016,Teleop Enabled,0,FALSE,0,NO ERROR,-6017.578125,6008.789062,-6000.000000,-6000.000000,Speed,Speed,0.020000,1.360000,2.190000,1.000000,103.000000,1,1,0.000000,-0.000000,0,0.215561,0.257614,0.000000,-65.751068,7.914566,0.000000,0.026000,0.048000,-0.089000,FlatInitial
04:15:05.473 PM 02/14/2016,Teleop Enabled,0,FALSE,0,NO ERROR,-6011.132812,6007.031250,-6000.000000,-6000.000000,Speed,Speed,0.020000,1.410000,2.460000,1.000000,101.000000,1,1,0.000000,-0.000000,0,0.246216,0.318802,0.000000,-65.739349,7.929337,0.000000,0.016000,0.036000,-0.070000,FlatInitial
04:15:05.574 PM 02/14/2016,Teleop Enabled,0,FALSE,0,NO ERROR,-6008.203125,6007.617188,-6000.000000,-6000.000000,Speed,Speed,0.020000,1.430000,2.670000,1.000000,104.000000,1,1,0.000000,-0.000000,0,0.280640,0.370743,0.000000,-65.725983,7.946884,0.000000,0.006000,0.048000,-0.079000,FlatInitial
04:15:05.674 PM 02/14/2016,Teleop Enabled,0,FALSE,0,NO ERROR,-6007.031250,6005.859375,-6000.000000,-6000.000000,Speed,Speed,0.020000,1.480000,2.780000,1.000000,102.000000,1,1,0.000000,-0.000000,0,0.302032,0.397324,0.000000,-65.711273,7.966248,0.000000,0.041000,0.002000,-0.074000,FlatInitial
04:15:05.774 PM 02/14/2016,Teleop Enabled,0,FALSE,0,NO ERROR,-6008.203125,6002.929688,-6000.000000,-6000.000000,Speed,Speed,0.020000,1.540000,2.860000,1.000000,102.000000,1,1,0.000000,-0.000000,0,0.320297,0.000519,0.000000,-65.695679,7.970261,0.000000,0.031000,-0.024000,-0.075000,FlatInitial
04:15:05.874 PM 02/14/2016,Teleop Enabled,0,FALSE,0,NO ERROR,-6007.031250,5998.828125,-6000.000000,-6000.000000,Speed,Speed,0.010000,1.610000,2.920000,1.000000,103.000000,1,1,0.000000,-0.000000,0,0.344086,-0.013245,0.000000,-65.675674,7.969955,0.000000,0.030000,-0.018000,-0.082000,FlatInitial
04:15:05.974 PM 02/14/2016,Teleop Enabled,0,FALSE,0,NO ERROR,-6003.515625,5998.828125,-6000.000000,-6000.000000,Speed,Speed,0.000000,1.690000,2.900000,1.000000,102.000000,1,1,0.000000,-0.000000,0,0.348297,-0.019821,0.000000,-65.658279,7.969437,0.000000,0.025000,-0.011000,-0.097000,FlatInitial
04:15:06.074 PM 02/14/2016,Teleop Enabled,0,FALSE,0,NO ERROR,-5998.828125,5998.828125,-6000.000000,-6000.000000,Speed,Speed,0.000000,1.740000,2.910000,1.000000,102.000000,1,1,0.000000,-0.000000,0,0.363464,-0.016541,0.000000,-65.640320,7.968872,0.000000,0.030000,-0.053000,-0.103000,FlatInitial
04:15:06.174 PM 02/14/2016,Teleop Enabled,0,FALSE,0,NO ERROR,-5995.898438,5999.414062,-6000.000000,-6000.000000,Speed,Speed,0.000000,1.790000,2.930000,1.000000,102.000000,1,1,0.000000,-0.000000,0,0.374405,-0.041367,0.000000,-65.621811,7.967285,0.000000,0.021000,-0.040000,-0.074000,FlatInitial
04:15:06.274 PM 02/14/2016,Teleop Enabled,0,FALSE,0,NO ERROR,-5996.484375,6002.929688,-6000.000000,-6000.000000,Speed,Speed,0.000000,1.830000,2.910000,1.000000,101.000000,1,1,0.000000,-0.000000,0,0.390366,-0.063522,0.000000,-65.602478,7.964645,0.000000,0.000000,-0.027000,-0.061000,FlatInitial
04:15:06.374 PM 02/14/2016,Teleop Enabled,0,FALSE,0,NO ERROR,-6002.343750,6007.617188,-6000.000000,-6000.000000,Speed,Speed,0.000000,1.840000,2.860000,1.000000,101.000000,1,1,0.000000,-0.000000,0,0.389664,-0.010117,0.000000,-65.582932,7.963074,0.000000,0.009000,-0.089000,-0.104000,FlatInitial
04:15:06.474 PM 02/14/2016,Teleop Enabled,0,FALSE,0,NO ERROR,-6008.789062,6009.375000,-6000.000000,-6000.000000,Speed,Speed,0.000000,1.850000,2.790000,1.000000,102.000000,1,1,0.000000,-0.000000,0,0.011002,-0.068039,0.000000,-65.582748,7.960831,0.000000,0.018000,-0.076000,-0.104000,FlatInitial
04:15:06.574 PM 02/14/2016,Teleop Enabled,0,FALSE,0,NO ERROR,-6013.476562,6007.617188,-6000.000000,-6000.000000,Speed,Speed,0.000000,1.880000,2.580000,1.000000,106.000000,1,1,0.000000,-0.000000,0,0.022522,-0.160141,0.000000,-65.581757,7.954712,0.000000,0.012000,-0.077000,-0.095000,FlatInitial
04:15:06.675 PM 02/14/2016,Teleop Enabled,0,FALSE,0,NO ERROR,-6012.890625,6008.789062,-6000.000000,-6000.000000,Speed,Speed,0.000000,1.870000,2.370000,1.000000,104.000000,1,1,0.000000,-0.000000,0,-0.004547,-0.254913,0.000000,-65.581924,7.943939,0.000000,0.030000,-0.093000,-0.122000,FlatInitial
04:15:06.776 PM 02/14/2016,Teleop Enabled,0,FALSE,0,NO ERROR,-6002.929688,6005.859375,-6000.000000,-6000.000000,Speed,Speed,0.000000,1.870000,2.150000,1.000000,103.000000,1,1,0.000000,-0.000000,0,-0.001389,-0.350037,0.000000,-65.582031,7.928436,0.000000,0.026000,-0.142000,-0.097000,FlatInitial
04:15:06.876 PM 02/14/2016,Teleop Enabled,0,FALSE,0,NO ERROR,-6000.585938,6000.000000,-6000.000000,-6000.000000,Speed,Speed,0.000000,1.850000,1.870000,1.000000,103.000000,1,1,0.000000,-0.000000,0,0.000000,-0.461716,0.000000,-65.582016,7.907410,0.000000,0.003000,-0.127000,-0.098000,FlatInitial
04:15:06.976 PM 02/14/2016,Teleop Enabled,0,FALSE,0,NO ERROR,-5998.242188,6000.000000,-6000.000000,-6000.000000,Speed,Speed,0.000000,1.840000,1.570000,1.000000,103.000000,1,1,0.000000,-0.000000,0,-0.007706,-0.592621,0.000000,-65.582245,7.875015,0.000000,-0.010000,-0.113000,-0.124000,FlatInitial
04:15:07.076 PM 02/14/2016,Teleop Enabled,0,FALSE,0,NO ERROR,-5995.898438,6003.515625,-6000.000000,-6000.000000,Speed,Speed,-0.010000,1.820000,1.390000,1.000000,108.000000,1,1,0.000000,-0.000000,0,-0.012848,-0.682434,0.000000,-65.582901,7.842850,0.000000,-0.010000,-0.113000,-0.124000,FlatInitial
04:15:07.176 PM 02/14/2016,Teleop Enabled,0,FALSE,0,NO ERROR,-5998.242188,6002.343750,-6000.000000,-6000.000000,Speed,Speed,-0.010000,1.800000,1.240000,1.000000,101.000000,1,1,0.000000,-0.000000,0,0.002701,-0.770370,0.000000,-65.583038,7.813370,0.000000,-0.012000,-0.107000,-0.088000,FlatInitial
04:15:07.276 PM 02/14/2016,Teleop Enabled,0,FALSE,0,NO ERROR,-5998.828125,6002.929688,-6000.000000,-6000.000000,Speed,Speed,-0.010000,1.770000,1.010000,1.000000,102.000000,1,1,0.000000,-0.000000,0,-0.006104,-0.879227,0.000000,-65.583054,7.771530,0.000000,-0.010000,-0.113000,-0.074000,FlatInitial
04:15:07.376 PM 02/14/2016,Teleop Enabled,0,FALSE,0,NO ERROR,-5998.242188,6001.757812,-6000.000000,-6000.000000,Speed,Speed,0.000000,1.720000,0.820000,1.000000,104.000000,1,1,0.000000,-0.000000,0,-0.010712,-0.991638,0.000000,-65.583572,7.724228,0.000000,-0.002000,-0.120000,-0.067000,FlatInitial
04:15:07.476 PM 02/14/2016,Teleop Enabled,0,FALSE,0,NO ERROR,-5997.656250,5997.656250,-6000.000000,-6000.000000,Speed,Speed,0.000000,1.690000,0.640000,1.000000,102.000000,1,1,0.000000,-0.000000,0,0.004959,-1.132339,0.000000,-65.583664,7.660095,0.000000,-0.018000,-0.151000,-0.057000,FlatInitial
04:15:07.576 PM 02/14/2016,Teleop Enabled,0,FALSE,0,NO ERROR,-5995.898438,5997.070312,-6000.000000,-6000.000000,Speed,Speed,0.000000,1.690000,0.640000,1.000000,102.000000,1,1,0.000000,-0.000000,0,0.004959,-1.132339,0.000000,-65.583664,7.660095,0.000000,-0.018000,-0.151000,-0.057000,FlatInitial
04:15:07.676 PM 02/14/2016,Teleop Enabled,0,FALSE,0,NO ERROR,-5995.312500,5999.414062,-6000.000000,-6000.000000,Speed,Speed,0.000000,1.670000,0.280000,1.000000,101.000000,1,1,0.000000,-0.000000,0,0.000000,-1.351883,0.000000,-65.583038,7.535095,0.000000,0.000000,-0.133000,-0.074000,FlatInitial
04:15:07.780 PM 02/14/2016,Teleop Enabled,0,FALSE,0,NO ERROR,-5998.242188,6001.171875,-6000.000000,-6000.000000,Speed,Speed,-0.010000,1.670000,0.120000,1.000000,104.000000,1,1,0.000000,-0.000000,0,0.005600,-1.447708,0.000000,-65.582947,7.464676,0.000000,0.000000,-0.133000,-0.074000,FlatInitial
04:15:07.881 PM 02/14/2016,Teleop Enabled,0,FALSE,0,NO ERROR,-6003.515625,5999.414062,-6000.000000,-6000.000000,Speed,Speed,0.000000,1.660000,0.000000,1.000000,102.000000,1,1,0.000000,-0.000000,0,0.010696,-1.550583,0.000000,-65.582672,7.389114,0.000000,-0.008000,-0.089000,-0.068000,FlatInitial
04:15:07.981 PM 02/14/2016,Teleop Enabled,0,FALSE,0,NO ERROR,-6007.617188,6001.757812,-6000.000000,-6000.000000,Speed,Speed,0.000000,1.660000,0.000000,1.000000,102.000000,1,1,0.000000,-0.000000,0,0.010696,-1.550583,0.000000,-65.582672,7.389114,0.000000,-0.008000,-0.089000,-0.068000,FlatInitial
04:15:08.081 PM 02/14/2016,Teleop Enabled,0,FALSE,0,NO ERROR,-6009.375000,6006.445312,-6000.000000,-6000.000000,Speed,Speed,-0.010000,1.610000,-0.210000,1.000000,103.000000,1,1,0.000000,-0.000000,0,0.000000,-1.695053,0.000000,-65.582672,7.274826,0.000000,0.007000,-0.131000,-0.069000,FlatInitial
04:15:08.181 PM 02/14/2016,Teleop Enabled,0,FALSE,0,NO ERROR,-6008.789062,6005.859375,-6000.000000,-6000.000000,Speed,Speed,-0.010000,1.520000,-0.460000,1.000000,103.000000,1,1,0.000000,-0.000000,0,0.002594,-1.864365,0.000000,-65.582672,7.131973,0.000000,-0.004000,-0.126000,-0.062000,FlatInitial
04:15:08.282 PM 02/14/2016,Teleop Enabled,0,FALSE,0,NO ERROR,-6004.687500,6008.789062,-6000.000000,-6000.000000,Speed,Speed,-0.010000,1.520000,-0.460000,1.000000,102.000000,1,1,0.000000,-0.000000,0,0.002594,-1.864365,0.000000,-65.582672,7.131973,0.000000,0.020000,-0.087000,-0.094000,FlatInitial
04:15:08.383 PM 02/14/2016,Teleop Enabled,0,FALSE,0,NO ERROR,-6005.859375,6009.960938,-6000.000000,-6000.000000,Speed,Speed,0.000000,1.390000,-0.710000,1.000000,102.000000,1,1,0.000000,-0.000000,0,0.000000,-1.980515,0.000000,-65.582550,7.016068,0.000000,0.015000,-0.100000,-0.073000,FlatInitial
04:15:08.483 PM 02/14/2016,Teleop Enabled,0,FALSE,0,NO ERROR,-6006.445312,6007.617188,-6000.000000,-6000.000000,Speed,Speed,0.000000,1.390000,-0.710000,1.000000,102.000000,1,1,0.000000,-0.000000,0,0.000000,-2.076935,0.000000,-65.582642,6.914108,0.000000,0.016000,-0.084000,-0.056000,FlatInitial
04:15:08.584 PM 02/14/2016,Teleop Enabled,0,FALSE,0,NO ERROR,-6008.789062,6000.585938,-6000.000000,-6000.000000,Speed,Speed,0.000000,1.310000,-0.750000,1.000000,101.000000,1,1,0.000000,-0.000000,0,-0.002625,-2.173431,0.000000,-65.582611,6.785980,0.000000,-0.031000,-0.083000,-0.043000,FlatInitial
04:15:08.685 PM 02/14/2016,Teleop Enabled,0,FALSE,0,NO ERROR,-6008.789062,6000.585938,-6000.000000,-6000.000000,Speed,Speed,-0.010000,1.160000,-0.710000,1.000000,104.000000,1,1,0.000000,-0.000000,0,-0.029343,-2.245346,0.000000,-65.583969,6.586029,0.000000,0.005000,0.019000,-0.042000,FlatInitial
04:15:08.787 PM 02/14/2016,Teleop Enabled,0,FALSE,0,NO ERROR,-6005.859375,5997.656250,-6000.000000,-6000.000000,Speed,Speed,-0.010000,1.160000,-0.710000,1.000000,110.000000,1,1,0.000000,-0.000000,0,-0.029343,-2.245346,0.000000,-65.583969,6.586029,0.000000,0.005000,0.019000,-0.042000,FlatInitial
04:15:08.888 PM 02/14/2016,Teleop Enabled,0,FALSE,0,NO ERROR,-6001.171875,5991.796875,-6000.000000,-6000.000000,Speed,Speed,-0.010000,1.060000,-0.610000,1.000000,103.000000,1,1,0.000000,-0.000000,0,-0.004272,0.000000,0.000000,-65.584381,6.473221,0.000000,-0.029000,0.007000,-0.038000,FlatInitial
04:15:08.988 PM 02/14/2016,Teleop Enabled,0,FALSE,0,NO ERROR,-6001.171875,5991.796875,-6000.000000,-6000.000000,Speed,Speed,-0.010000,0.980000,-0.520000,1.000000,101.000000,1,1,0.000000,-0.000000,0,0.000000,-0.033890,0.000000,-65.584534,6.472305,0.000000,-0.008000,-0.033000,-0.042000,FlatInitial
04:15:09.088 PM 02/14/2016,Teleop Enabled,0,FALSE,0,NO ERROR,-5987.695312,5995.312500,-6000.000000,-6000.000000,Speed,Speed,-0.010000,0.820000,-0.430000,1.000000,103.000000,1,1,0.000000,-0.000000,0,-0.011459,-0.053055,0.000000,-65.584747,6.470245,0.000000,-0.010000,-0.010000,-0.064000,FlatInitial
04:15:09.189 PM 02/14/2016,Teleop Enabled,0,FALSE,0,NO ERROR,-5987.109375,5995.312500,-6000.000000,-6000.000000,Speed,Speed,-0.010000,0.820000,-0.430000,1.000000,104.000000,1,1,0.000000,-0.000000,0,0.000000,-0.099152,0.000000,-65.585815,6.465591,0.000000,0.003000,-0.028000,-0.073000,FlatInitial
04:15:09.289 PM 02/14/2016,Teleop Enabled,0,FALSE,0,NO ERROR,-5987.109375,5998.828125,-6000.000000,-6000.000000,Speed,Speed,-0.010000,0.770000,-0.420000,1.000000,104.000000,1,1,0.000000,-0.000000,0,-0.002182,-0.129761,0.000000,-65.585800,6.462051,0.000000,-0.023000,-0.081000,-0.064000,FlatInitial
04:15:09.390 PM 02/14/2016,Teleop Enabled,0,FALSE,0,NO ERROR,-5994.140625,6001.757812,-6000.000000,-6000.000000,Speed,Speed,-0.010000,0.770000,-0.420000,1.000000,102.000000,1,1,0.000000,-0.000000,0,-0.002182,-0.129761,0.000000,-65.585800,6.462051,0.000000,-0.023000,-0.081000,-0.064000,FlatInitial
04:15:09.490 PM 02/14/2016,Teleop Enabled,0,FALSE,0,NO ERROR,-5998.828125,6008.789062,-6000.000000,-6000.000000,Speed,Speed,-0.010000,0.770000,-0.420000,1.000000,102.000000,1,1,0.000000,-0.000000,0,-0.002182,-0.129761,0.000000,-65.585800,6.462051,0.000000,-0.023000,-0.081000,-0.064000,FlatInitial
04:15:09.590 PM 02/14/2016,Teleop Enabled,0,FALSE,0,NO ERROR,-6002.929688,6009.960938,-6000.000000,-6000.000000,Speed,Speed,-0.010000,0.770000,-0.420000,1.000000,102.000000,1,1,0.000000,-0.000000,0,-0.002182,-0.129761,0.000000,-65.585800,6.462051,0.000000,-0.023000,-0.081000,-0.064000,FlatInitial
04:15:09.691 PM 02/14/2016,Teleop Enabled,0,FALSE,0,NO ERROR,-6005.273438,6004.101562,-6000.000000,-6000.000000,Speed,Speed,-0.010000,0.770000,-0.420000,1.000000,103.000000,1,1,0.000000,-0.000000,0,-0.002182,-0.129761,0.000000,-65.585800,6.462051,0.000000,-0.023000,-0.081000,-0.064000,FlatInitial
04:15:09.792 PM 02/14/2016,Teleop Enabled,0,FALSE,0,NO ERROR,-6008.203125,6001.757812,-6000.000000,-6000.000000,Speed,Speed,-0.010000,0.770000,-0.420000,1.000000,101.000000,1,1,0.000000,-0.000000,0,-0.002182,-0.129761,0.000000,-65.585800,6.462051,0.000000,-0.023000,-0.081000,-0.064000,FlatInitial
04:15:09.893 PM 02/14/2016,Teleop Enabled,0,FALSE,0,NO ERROR,-6007.031250,6002.929688,-6000.000000,-6000.000000,Speed,Speed,-0.010000,0.770000,-0.420000,1.000000,101.000000,1,1,0.000000,-0.000000,0,-0.002182,-0.129761,0.000000,-65.585800,6.462051,0.000000,-0.023000,-0.081000,-0.064000,FlatInitial
04:15:09.993 PM 02/14/2016,Teleop Enabled,0,FALSE,0,NO ERROR,-6002.343750,6002.343750,-6000.000000,-6000.000000,Speed,Speed,-0.010000,0.770000,-0.420000,1.000000,112.000000,1,1,0.000000,-0.000000,0,-0.002182,-0.129761,0.000000,-65.585800,6.462051,0.000000,-0.023000,-0.081000,-0.064000,FlatInitial
04:15:10.094 PM 02/14/2016,Teleop Enabled,0,FALSE,0,NO ERROR,-6001.757812,6001.171875,-6000.000000,-6000.000000,Speed,Speed,-0.010000,0.770000,-0.420000,1.000000,103.000000,1,1,0.000000,-0.000000,0,-0.002182,-0.129761,0.000000,-65.585800,6.462051,0.000000,-0.023000,-0.081000,-0.064000,FlatInitial
04:15:10.194 PM 02/14/2016,Teleop Enabled,0,FALSE,0,NO ERROR,-5999.414062,6002.343750,-6000.000000,-6000.000000,Speed,Speed,-0.020000,0.610000,0.430000,1.000000,105.000000,1,1,0.000000,-0.000000,0,0.107666,0.018051,0.000000,-65.566269,6.330719,0.000000,0.031000,-0.026000,-0.067000,FlatInitial
04:15:10.294 PM 02/14/2016,Teleop Enabled,0,FALSE,0,NO ERROR,-5997.656250,5997.656250,-6000.000000,-6000.000000,Speed,Speed,-0.020000,0.600000,0.650000,1.000000,103.000000,1,1,0.000000,-0.000000,0,0.130371,0.016129,0.000000,-65.558960,6.331345,0.000000,0.004000,0.007000,-0.048000,FlatInitial
04:15:10.394 PM 02/14/2016,Teleop Enabled,0,FALSE,0,NO ERROR,-5997.656250,5995.312500,-6000.000000,-6000.000000,Speed,Speed,-0.020000,0.600000,0.760000,1.000000,104.000000,1,1,0.000000,-0.000000,0,0.152176,0.000000,0.000000,-65.551682,6.331497,0.000000,0.006000,-0.002000,-0.055000,FlatInitial
04:15:10.494 PM 02/14/2016,Teleop Enabled,0,FALSE,0,NO ERROR,-6002.929688,5996.484375,-6000.000000,-6000.000000,Speed,Speed,-0.020000,0.570000,0.940000,1.000000,102.000000,1,0,-0.000248,0.000062,0,0.005859,0.003357,0.000000,-65.551559,6.331406,0.000000,0.003000,0.024000,-0.060000,FlatInitial
04:15:10.595 PM 02/14/2016,Teleop Enabled,0,FALSE,0,NO ERROR,-6005.859375,6000.000000,-6000.000000,-6000.000000,Speed,Speed,-0.020000,0.560000,1.150000,1.000000,103.000000,1,0,-0.000248,0.000062,0,0.025635,0.011032,0.000000,-65.550674,6.331711,0.000000,0.034000,0.014000,-0.079000,FlatInitial
04:15:10.696 PM 02/14/2016,Teleop Enabled,0,FALSE,0,NO ERROR,-6007.617188,6002.343750,-6000.000000,-6000.000000,Speed,Speed,-0.020000,0.560000,1.340000,1.000000,104.000000,1,0,-0.000248,0.000062,0,0.038589,0.044617,0.000000,-65.548996,6.333191,0.000000,0.007000,0.045000,-0.044000,FlatInitial
04:15:10.796 PM 02/14/2016,Teleop Enabled,0,FALSE,0,NO ERROR,-6011.718750,6006.445312,-6000.000000,-6000.000000,Speed,Speed,-0.020000,0.570000,1.620000,1.000000,105.000000,1,1,0.000000,-0.000000,0,0.075790,0.099960,0.000000,-65.545990,6.337234,0.000000,0.035000,0.048000,-0.070000,FlatInitial
04:15:10.896 PM 02/14/2016,Teleop Enabled,0,FALSE,0,NO ERROR,-6010.546875,6009.960938,-6000.000000,-6000.000000,Speed,Speed,-0.030000,0.650000,1.960000,1.000000,102.000000,1,1,0.000000,-0.000000,0,0.075790,0.099960,0.000000,-65.545990,6.337234,0.000000,0.035000,0.048000,-0.070000,FlatInitial
04:15:10.996 PM 02/14/2016,Teleop Enabled,0,FALSE,0,NO ERROR,-6002.343750,6005.859375,-6000.000000,-6000.000000,Speed,Speed,-0.020000,0.690000,2.230000,1.000000,105.000000,1,1,0.000000,-0.000000,0,0.187149,0.281708,0.000000,-65.532104,6.356552,0.000000,0.068000,0.130000,-0.069000,FlatInitial
04:15:11.096 PM 02/14/2016,Teleop Enabled,0,FALSE,0,NO ERROR,-5998.828125,6003.515625,-6000.000000,-6000.000000,Speed,Speed,-0.020000,0.690000,2.230000,1.000000,101.000000,1,1,0.000000,-0.000000,0,0.187149,0.281708,0.000000,-65.532104,6.356552,0.000000,0.068000,0.130000,-0.069000,FlatInitial
04:15:11.196 PM 02/14/2016,Teleop Enabled,0,FALSE,0,NO ERROR,-5997.070312,5999.414062,-6000.000000,-6000.000000,Speed,Speed,-0.030000,0.790000,2.810000,1.000000,102.000000,1,1,0.000000,-0.000000,0,0.269287,0.489410,0.000000,-65.508667,6.396179,0.000000,0.053000,0.095000,-0.110000,FlatInitial
04:15:11.296 PM 02/14/2016,Teleop Enabled,0,FALSE,0,NO ERROR,-5994.140625,5997.656250,-6000.000000,-6000.000000,Speed,Speed,-0.040000,0.830000,3.020000,1.000000,103.000000,1,1,0.000000,-0.000000,0,0.308884,0.566116,0.000000,-65.493988,6.422974,0.000000,0.041000,0.106000,-0.091000,FlatInitial
04:15:11.398 PM 02/14/2016,Teleop Enabled,0,FALSE,0,NO ERROR,-5992.968750,5998.242188,-6000.000000,-6000.000000,Speed,Speed,-0.040000,0.860000,3.280000,1.000000,103.000000,1,1,0.000000,-0.000000,0,0.347595,0.663818,0.000000,-65.474106,6.460602,0.000000,0.041000,0.091000,-0.086000,FlatInitial
04:15:11.499 PM 02/14/2016,Teleop Enabled,0,FALSE,0,NO ERROR,-5989.453125,6000.000000,-6000.000000,-6000.000000,Speed,Speed,-0.040000,0.870000,3.470000,1.000000,101.000000,1,1,0.000000,-0.000000,0,0.375687,0.713318,0.000000,-65.459518,6.488541,0.000000,0.058000,0.066000,-0.073000,FlatInitial
04:15:11.599 PM 02/14/2016,Teleop Enabled,0,FALSE,0,NO ERROR,-5991.796875,6006.445312,-6000.000000,-6000.000000,Speed,Speed,-0.040000,0.870000,3.470000,1.000000,101.000000,1,1,0.000000,-0.000000,0,0.375687,0.713318,0.000000,-65.459518,6.488541,0.000000,0.058000,0.066000,-0.073000,FlatInitial
04:15:11.699 PM 02/14/2016,Teleop Enabled,0,FALSE,0,NO ERROR,-5991.796875,6005.273438,-6000.000000,-6000.000000,Speed,Speed,-0.040000,0.880000,3.650000,1.000000,102.000000,1,1,0.000000,-0.000000,0,0.476669,0.822968,0.000000,-65.412231,6.573822,0.000000,0.014000,0.041000,-0.031000,FlatInitial
04:15:11.801 PM 02/14/2016,Teleop Enabled,0,FALSE,0,NO ERROR,-5991.796875,6002.929688,-6000.000000,-6000.000000,Speed,Speed,-0.040000,0.870000,3.670000,1.000000,102.000000,1,1,0.000000,-0.000000,0,0.507385,0.856461,0.000000,-65.387405,6.615967,0.000000,0.018000,0.021000,-0.023000,FlatInitial
04:15:11.901 PM 02/14/2016,Teleop Enabled,0,FALSE,0,NO ERROR,-5995.312500,6002.343750,-6000.000000,-6000.000000,Speed,Speed,-0.040000,0.880000,3.680000,1.000000,103.000000,1,1,0.000000,-0.000000,0,0.507385,0.856461,0.000000,-65.387405,6.615967,0.000000,0.018000,0.021000,-0.023000,FlatInitial
04:15:12.001 PM 02/14/2016,Teleop Enabled,0,FALSE,0,NO ERROR,-5998.828125,6003.515625,-6000.000000,-6000.000000,Speed,Speed,-0.040000,0.860000,3.650000,1.000000,102.000000,1,1,0.000000,-0.000000,0,0.554199,0.889542,0.000000,-65.355453,6.668488,0.000000,0.036000,-0.003000,-0.044000,FlatInitial
04:15:12.102 PM 02/14/2016,Teleop Enabled,0,FALSE,0,NO ERROR,-6005.273438,6002.929688,-6000.000000,-6000.000000,Speed,Speed,-0.040000,0.840000,3.620000,1.000000,107.000000,1,1,0.000000,-0.000000,0,0.628372,0.945526,0.000000,-65.302063,6.751419,0.000000,0.057000,0.048000,-0.012000,FlatInitial
04:15:12.203 PM 02/14/2016,Teleop Enabled,0,FALSE,0,NO ERROR,-6011.132812,6004.101562,-6000.000000,-6000.000000,Speed,Speed,-0.040000,0.840000,3.650000,1.000000,101.000000,1,1,0.000000,-0.000000,0,0.696823,1.002609,0.000000,-65.262054,6.810043,0.000000,0.039000,0.095000,0.032000,FlatInitial
04:15:12.303 PM 02/14/2016,Teleop Enabled,0,FALSE,0,NO ERROR,-6010.546875,6001.171875,-6000.000000,-6000.000000,Speed,Speed,-0.030000,0.840000,3.710000,1.000000,101.000000,1,1,0.000000,-0.000000,0,0.752182,1.075882,0.000000,-65.225494,6.862610,0.000000,0.039000,0.095000,0.032000,FlatInitial
04:15:12.403 PM 02/14/2016,Teleop Enabled,0,FALSE,0,NO ERROR,-6006.445312,5997.656250,-6000.000000,-6000.000000,Speed,Speed,-0.030000,0.840000,3.710000,1.000000,103.000000,1,1,0.000000,-0.000000,0,0.752182,1.075882,0.000000,-65.225494,6.862610,0.000000,0.072000,0.080000,0.036000,FlatInitial
04:15:12.503 PM 02/14/2016,Teleop Enabled,0,FALSE,0,NO ERROR,-6005.273438,5990.039062,-6000.000000,-6000.000000,Speed,Speed,-0.040000,0.820000,3.900000,1.000000,103.000000,1,1,0.000000,-0.000000,0,0.820267,1.185440,0.000000,-65.177719,6.930954,0.000000,0.050000,0.095000,0.002000,FlatInitial
04:15:12.604 PM 02/14/2016,Teleop Enabled,0,FALSE,0,NO ERROR,-6004.101562,5989.453125,-6000.000000,-6000.000000,Speed,Speed,-0.040000,0.820000,3.900000,1.000000,103.000000,1,1,0.000000,-0.000000,0,0.886124,1.358093,0.000000,-65.109482,7.033859,0.000000,0.056000,0.082000,-0.033000,FlatInitial
04:15:12.703 PM 02/14/2016,Teleop Enabled,0,FALSE,0,NO ERROR,-6004.101562,5993.554688,-6000.000000,-6000.000000,Speed,Speed,-0.040000,0.930000,4.140000,1.000000,101.000000,1,1,0.000000,-0.000000,0,0.886124,1.358093,0.000000,-65.109482,7.033859,0.000000,0.030000,0.131000,-0.060000,FlatInitial
04:15:12.804 PM 02/14/2016,Teleop Enabled,0,FALSE,0,NO ERROR,-6003.515625,5991.210938,-6000.000000,-6000.000000,Speed,Speed,-0.050000,0.990000,4.280000,1.000000,103.000000,1,1,0.000000,-0.000000,0,0.942642,1.485779,0.000000,-65.054276,7.119568,0.000000,0.019000,0.149000,-0.072000,FlatInitial
04:15:12.904 PM 02/14/2016,Teleop Enabled,0,FALSE,0,NO ERROR,-6000.585938,5993.554688,-6000.000000,-6000.000000,Speed,Speed,-0.050000,0.990000,4.280000,1.000000,101.000000,1,1,0.000000,-0.000000,0,0.987518,1.585007,0.000000,-65.005890,7.196823,0.000000,0.039000,0.132000,-0.069000,FlatInitial
04:15:13.004 PM 02/14/2016,Teleop Enabled,0,FALSE,0,NO ERROR,-5997.070312,5991.210938,-6000.000000,-6000.000000,Speed,Speed,-0.060000,1.100000,4.390000,1.000000,105.000000,1,1,0.000000,-0.000000,0,1.051636,1.678574,0.000000,-64.944397,7.295059,0.000000,0.074000,0.062000,-0.047000,FlatInitial
04:15:13.104 PM 02/14/2016,Teleop Enabled,0,FALSE,0,NO ERROR,-5993.554688,5991.210938,-6000.000000,-6000.000000,Speed,Speed,-0.060000,1.190000,4.490000,1.000000,102.000000,1,1,0.000000,-0.000000,0,1.103683,1.734940,0.000000,-64.890198,7.380707,0.000000,0.064000,0.040000,-0.075000,FlatInitial
04:15:13.204 PM 02/14/2016,Teleop Enabled,0,FALSE,0,NO ERROR,-5991.210938,5996.484375,-6000.000000,-6000.000000,Speed,Speed,-0.070000,1.260000,4.550000,1.000000,102.000000,1,1,0.000000,-0.000000,0,1.171951,1.871429,0.000000,-64.787201,7.543945,0.000000,0.053000,0.077000,-0.085000,FlatInitial
04:15:13.305 PM 02/14/2016,Teleop Enabled,0,FALSE,0,NO ERROR,-5991.796875,5996.484375,-6000.000000,-6000.000000,Speed,Speed,-0.070000,1.300000,4.650000,1.000000,101.000000,1,1,0.000000,-0.000000,0,1.171951,1.871429,0.000000,-64.787201,7.543945,0.000000,0.053000,0.064000,-0.102000,FlatInitial
04:15:13.405 PM 02/14/2016,Teleop Enabled,0,FALSE,0,NO ERROR,-5991.796875,6002.343750,-6000.000000,-6000.000000,Speed,Speed,-0.080000,1.350000,4.790000,1.000000,105.000000,1,1,0.000000,-0.000000,0,1.203583,1.944366,0.000000,-64.727570,7.639771,0.000000,0.066000,0.015000,-0.095000,FlatInitial
04:15:13.505 PM 02/14/2016,Teleop Enabled,0,FALSE,0,NO ERROR,-6001.757812,6007.617188,-6000.000000,-6000.000000,Speed,Speed,-0.080000,1.350000,4.790000,1.000000,100.000000,1,1,0.000000,-0.000000,0,1.232452,2.023804,0.000000,-64.666489,7.739105,0.000000,0.013000,0.146000,-0.084000,FlatInitial
04:15:13.606 PM 02/14/2016,Teleop Enabled,0,FALSE,0,NO ERROR,-6005.859375,6009.375000,-6000.000000,-6000.000000,Speed,Speed,-0.080000,1.340000,4.900000,1.000000,101.000000,1,1,0.000000,-0.000000,0,1.262878,2.121231,0.000000,-64.604034,7.843140,0.000000,0.031000,0.120000,-0.033000,FlatInitial
04:15:13.706 PM 02/14/2016,Teleop Enabled,0,FALSE,0,NO ERROR,-6005.859375,6013.476562,-6000.000000,-6000.000000,Speed,Speed,-0.070000,1.350000,4.940000,1.000000,103.000000,1,1,0.000000,-0.000000,0,1.311554,2.216949,0.000000,-64.526581,7.973709,0.000000,0.030000,0.124000,-0.008000,FlatInitial
04:15:13.806 PM 02/14/2016,Teleop Enabled,0,FALSE,0,NO ERROR,-6011.132812,6009.960938,-6000.000000,-6000.000000,Speed,Speed,-0.070000,1.350000,4.940000,1.000000,103.000000,1,1,0.000000,-0.000000,0,1.388321,2.354950,0.000000,-64.404404,8.180237,0.000000,0.044000,0.082000,-0.003000,FlatInitial
04:15:13.906 PM 02/14/2016,Teleop Enabled,0,FALSE,0,NO ERROR,-6009.375000,6006.445312,-6000.000000,-6000.000000,Speed,Speed,-0.080000,1.370000,4.790000,1.000000,103.000000,1,1,0.000000,-0.000000,0,1.388321,2.354950,0.000000,-64.404404,8.180237,0.000000,0.033000,0.059000,0.005000,FlatInitial
04:15:14.008 PM 02/14/2016,Teleop Enabled,0,FALSE,0,NO ERROR,-6005.859375,6009.960938,-6000.000000,-6000.000000,Speed,Speed,-0.080000,1.370000,4.790000,1.000000,108.000000,1,1,0.000000,-0.000000,0,1.408447,2.432022,0.000000,-64.334473,8.300323,0.000000,0.045000,0.079000,-0.022000,FlatInitial
04:15:14.110 PM 02/14/2016,Teleop Enabled,0,FALSE,0,NO ERROR,-6005.273438,6008.789062,-6000.000000,-6000.000000,Speed,Speed,-0.080000,1.390000,4.620000,1.000000,102.000000,1,1,0.000000,-0.000000,0,1.433777,2.490875,0.000000,-64.263199,8.423706,0.000000,-0.018000,0.101000,-0.001000,FlatInitial
04:15:14.210 PM 02/14/2016,Teleop Enabled,0,FALSE,0,NO ERROR,-6005.859375,6004.687500,-6000.000000,-6000.000000,Speed,Speed,-0.080000,1.370000,4.470000,1.000000,103.000000,1,1,0.000000,-0.000000,0,0.000000,2.590179,0.000000,-64.220139,8.576614,0.000000,-0.017000,0.066000,0.029000,FlatInitial
04:15:14.310 PM 02/14/2016,Teleop Enabled,0,FALSE,0,NO ERROR,-6005.273438,6001.757812,-6000.000000,-6000.000000,Speed,Speed,-0.080000,1.360000,4.290000,1.000000,101.000000,1,1,0.000000,-0.000000,0,0.001251,2.642273,0.000000,-64.220123,8.681534,0.000000,0.024000,0.082000,0.003000,FlatInitial
04:15:14.411 PM 02/14/2016,Teleop Enabled,0,FALSE,0,NO ERROR,-5998.828125,6000.585938,-6000.000000,-6000.000000,Speed,Speed,-0.080000,1.370000,4.080000,1.000000,102.000000,1,1,0.000000,-0.000000,0,0.000000,2.701340,0.000000,-64.220062,8.815613,0.000000,-0.003000,0.055000,0.054000,FlatInitial
04:15:14.511 PM 02/14/2016,Teleop Enabled,0,FALSE,0,NO ERROR,-5993.554688,5994.726562,-6000.000000,-6000.000000,Speed,Speed,-0.080000,1.390000,3.850000,1.000000,101.000000,1,1,0.000000,-0.000000,0,0.000000,2.767899,0.000000,-64.220093,8.980179,0.000000,0.013000,0.042000,0.019000,FlatInitial
04:15:14.612 PM 02/14/2016,Teleop Enabled,0,FALSE,0,NO ERROR,-5990.625000,5991.210938,-6000.000000,-6000.000000,Speed,Speed,-0.080000,1.400000,3.700000,1.000000,102.000000,1,1,0.000000,-0.000000,0,0.000427,2.817200,0.000000,-64.220016,9.091995,0.000000,0.009000,0.079000,0.025000,FlatInitial
04:15:14.713 PM 02/14/2016,Teleop Enabled,0,FALSE,0,NO ERROR,-5990.039062,5988.281250,-6000.000000,-6000.000000,Speed,Speed,-0.080000,1.400000,3.650000,1.000000,102.000000,1,1,0.000000,-0.000000,0,0.002853,2.925095,0.000000,-64.219986,9.264801,0.000000,0.021000,0.057000,-0.043000,FlatInitial
04:15:14.813 PM 02/14/2016,Teleop Enabled,0,FALSE,0,NO ERROR,-5995.312500,5992.968750,-6000.000000,-6000.000000,Speed,Speed,-0.090000,1.410000,3.560000,1.000000,102.000000,1,1,0.000000,-0.000000,0,0.017136,2.992996,0.000000,-64.219498,9.383469,0.000000,-0.013000,0.147000,-0.011000,FlatInitial
04:15:14.915 PM 02/14/2016,Teleop Enabled,0,FALSE,0,NO ERROR,-5997.656250,5997.656250,-6000.000000,-6000.000000,Speed,Speed,-0.090000,1.410000,3.540000,1.000000,102.000000,1,1,0.000000,-0.000000,0,0.000000,3.120071,0.000000,-64.218872,9.567398,0.000000,0.012000,0.091000,-0.016000,FlatInitial
04:15:15.015 PM 02/14/2016,Teleop Enabled,0,FALSE,0,NO ERROR,-6002.929688,6002.929688,-6000.000000,-6000.000000,Speed,Speed,-0.090000,1.430000,3.510000,1.000000,101.000000,1,1,0.000000,-0.000000,0,0.000000,3.214142,0.000000,-64.218582,9.726242,0.000000,0.008000,0.089000,0.002000,FlatInitial
04:15:15.118 PM 02/14/2016,Teleop Enabled,0,FALSE,0,NO ERROR,-6008.203125,6010.546875,-6000.000000,-6000.000000,Speed,Speed,-0.090000,1.430000,3.390000,1.000000,101.000000,1,1,0.000000,-0.000000,0,0.014847,3.279510,0.000000,-64.218094,9.888931,0.000000,0.003000,0.047000,0.042000,FlatInitial
04:15:15.219 PM 02/14/2016,Teleop Enabled,0,FALSE,0,NO ERROR,-6010.546875,6009.375000,-6000.000000,-6000.000000,Speed,Speed,-0.080000,1.440000,3.270000,1.000000,101.000000,1,1,0.000000,-0.000000,0,0.000000,3.341278,0.000000,-64.217514,10.054840,0.000000,0.010000,0.065000,0.012000,FlatInitial
04:15:15.321 PM 02/14/2016,Teleop Enabled,0,FALSE,0,NO ERROR,-6009.960938,6002.929688,-6000.000000,-6000.000000,Speed,Speed,-0.080000,1.440000,3.040000,1.000000,102.000000,1,1,0.000000,-0.000000,0,-0.017075,3.397202,0.000000,-64.217941,10.223557,0.000000,-0.008000,0.052000,0.024000,FlatInitial
04:15:15.421 PM 02/14/2016,Teleop Enabled,0,FALSE,0,NO ERROR,-6007.031250,6000.585938,-6000.000000,-6000.000000,Speed,Speed,-0.090000,1.470000,2.830000,1.000000,104.000000,1,1,0.000000,-0.000000,0,-0.004807,3.451080,0.000000,-64.218781,10.395111,0.000000,-0.029000,0.032000,0.000000,FlatInitial
04:15:15.522 PM 02/14/2016,Teleop Enabled,0,FALSE,0,NO ERROR,-6004.687500,6002.343750,-6000.000000,-6000.000000,Speed,Speed,-0.080000,1.460000,2.570000,1.000000,103.000000,1,1,0.000000,-0.000000,0,-0.044144,3.497070,0.000000,-64.220093,10.568893,0.000000,-0.052000,0.060000,0.004000,FlatInitial
04:15:15.622 PM 02/14/2016,Teleop Enabled,0,FALSE,0,NO ERROR,-6001.757812,6004.687500,-6000.000000,-6000.000000,Speed,Speed,-0.080000,1.440000,2.320000,1.000000,102.000000,1,1,0.000000,-0.000000,0,-0.088531,3.551971,0.000000,-64.223709,10.745377,0.000000,-0.037000,0.075000,0.006000,FlatInitial
04:15:15.723 PM 02/14/2016,Teleop Enabled,0,FALSE,0,NO ERROR,-5997.656250,6007.617188,-6000.000000,-6000.000000,Speed,Speed,-0.070000,1.440000,2.120000,1.000000,103.000000,1,1,0.000000,-0.000000,0,-0.127197,3.607025,0.000000,-64.229294,10.924744,0.000000,-0.042000,0.050000,0.024000,FlatInitial
04:15:15.824 PM 02/14/2016,Teleop Enabled,0,FALSE,0,NO ERROR,-5995.312500,6008.203125,-6000.000000,-6000.000000,Speed,Speed,-0.080000,1.410000,1.890000,1.000000,102.000000,1,1,0.000000,-0.000000,0,-0.171982,3.651321,0.000000,-64.236893,11.106522,0.000000,-0.015000,0.055000,-0.012000,FlatInitial
04:15:15.924 PM 02/14/2016,Teleop Enabled,0,FALSE,0,NO ERROR,-5993.554688,6005.859375,-6000.000000,-6000.000000,Speed,Speed,-0.070000,1.400000,1.680000,1.000000,102.000000,1,1,0.000000,-0.000000,0,-0.226715,3.717285,0.000000,-64.249069,11.328064,0.000000,-0.080000,0.035000,0.032000,FlatInitial
04:15:16.024 PM 02/14/2016,Teleop Enabled,0,FALSE,0,NO ERROR,-5995.312500,6002.343750,-6000.000000,-6000.000000,Speed,Speed,-0.070000,1.400000,1.580000,1.000000,101.000000,1,1,0.000000,-0.000000,0,-0.258301,3.769501,0.000000,-64.258972,11.478119,0.000000,-0.037000,0.077000,-0.016000,FlatInitial
04:15:16.124 PM 02/14/2016,Teleop Enabled,0,FALSE,0,NO ERROR,-5998.828125,5999.414062,-6000.000000,-6000.000000,Speed,Speed,-0.070000,1.430000,1.450000,1.000000,101.000000,1,1,0.000000,-0.000000,0,-0.289185,3.835419,0.000000,-64.272781,11.668579,0.000000,-0.029000,0.052000,-0.029000,FlatInitial
04:15:16.225 PM 02/14/2016,Teleop Enabled,0,FALSE,0,NO ERROR,-6001.757812,5999.414062,-6000.000000,-6000.000000,Speed,Speed,-0.070000,1.440000,1.320000,1.000000,103.000000,1,1,0.000000,-0.000000,0,-0.339600,3.920563,0.000000,-64.291779,11.901413,0.000000,-0.062000,0.069000,-0.026000,FlatInitial
04:15:16.326 PM 02/14/2016,Teleop Enabled,0,FALSE,0,NO ERROR,-6006.445312,5995.898438,-6000.000000,-6000.000000,Speed,Speed,-0.070000,1.440000,1.200000,1.000000,102.000000,1,1,0.000000,-0.000000,0,-0.377808,3.982513,0.000000,-64.306351,12.059753,0.000000,-0.050000,0.087000,-0.010000,FlatInitial
04:15:16.426 PM 02/14/2016,Teleop Enabled,0,FALSE,0,NO ERROR,-6008.203125,5996.484375,-6000.000000,-6000.000000,Speed,Speed,-0.070000,1.450000,1.050000,1.000000,103.000000,1,1,0.000000,-0.000000,0,-0.435181,4.075439,0.000000,-64.330978,12.302017,0.000000,-0.035000,0.060000,0.027000,FlatInitial
04:15:16.526 PM 02/14/2016,Teleop Enabled,0,FALSE,0,NO ERROR,-6007.617188,5996.484375,-6000.000000,-6000.000000,Speed,Speed,-0.070000,1.430000,0.900000,1.000000,111.000000,1,1,0.000000,-0.000000,0,-0.490051,4.127548,0.000000,-64.354309,12.507507,0.000000,-0.042000,0.030000,0.014000,FlatInitial
04:15:16.626 PM 02/14/2016,Teleop Enabled,0,FALSE,0,NO ERROR,-6001.757812,5995.312500,-6000.000000,-6000.000000,Speed,Speed,-0.070000,1.410000,0.680000,1.000000,101.000000,1,1,0.000000,-0.000000,0,-0.559265,4.176300,0.000000,-64.380798,12.715408,0.000000,-0.097000,0.040000,0.066000,FlatInitial
04:15:16.726 PM 02/14/2016,Teleop Enabled,0,FALSE,0,NO ERROR,-5996.484375,5992.968750,-6000.000000,-6000.000000,Speed,Speed,-0.070000,1.350000,0.480000,1.000000,103.000000,1,1,0.000000,-0.000000,0,-0.637238,4.216339,0.000000,-64.411224,12.925583,0.000000,-0.077000,0.041000,0.002000,FlatInitial
04:15:16.826 PM 02/14/2016,Teleop Enabled,0,FALSE,0,NO ERROR,-5991.796875,5997.656250,-6000.000000,-6000.000000,Speed,Speed,-0.060000,1.320000,0.290000,1.000000,102.000000,1,1,0.000000,-0.000000,0,-0.707047,4.268814,0.000000,-64.445175,13.138000,0.000000,-0.077000,0.038000,-0.022000,FlatInitial
04:15:16.926 PM 02/14/2016,Teleop Enabled,0,FALSE,0,NO ERROR,-5992.382812,6003.515625,-6000.000000,-6000.000000,Speed,Speed,-0.060000,1.300000,0.150000,1.000000,103.000000,1,1,0.000000,-0.000000,0,-0.800247,4.348236,0.000000,-64.490875,13.396790,0.000000,-0.066000,0.084000,0.018000,FlatInitial
04:15:17.027 PM 02/14/2016,Teleop Enabled,0,FALSE,0,NO ERROR,-5993.554688,6008.203125,-6000.000000,-6000.000000,Speed,Speed,-0.070000,1.310000,0.050000,1.000000,102.000000,1,1,0.000000,-0.000000,0,-0.842484,4.415131,0.000000,-64.523941,13.572311,0.000000,-0.063000,0.089000,0.009000,FlatInitial
04:15:17.129 PM 02/14/2016,Teleop Enabled,0,FALSE,0,NO ERROR,-5998.828125,6012.890625,-6000.000000,-6000.000000,Speed,Speed,-0.070000,1.310000,0.050000,1.000000,103.000000,1,1,0.000000,-0.000000,0,-0.842484,4.415131,0.000000,-64.523941,13.572311,0.000000,-0.063000,0.089000,0.009000,FlatInitial
04:15:17.229 PM 02/14/2016,Teleop Enabled,0,FALSE,0,NO ERROR,-6003.515625,6004.687500,-6000.000000,-6000.000000,Speed,Speed,-0.070000,1.310000,0.050000,1.000000,101.000000,1,1,0.000000,-0.000000,0,-0.842484,4.415131,0.000000,-64.523941,13.572311,0.000000,-0.063000,0.089000,0.009000,FlatInitial
04:15:17.330 PM 02/14/2016,Teleop Enabled,0,FALSE,0,NO ERROR,-6007.617188,5998.242188,-6000.000000,-6000.000000,Speed,Speed,-0.070000,1.310000,0.050000,1.000000,101.000000,1,1,0.000000,-0.000000,0,-0.842484,4.415131,0.000000,-64.523941,13.572311,0.000000,-0.063000,0.089000,0.009000,FlatInitial
04:15:17.430 PM 02/14/2016,Teleop Enabled,0,FALSE,0,NO ERROR,-6010.546875,5995.312500,-6000.000000,-6000.000000,Speed,Speed,-0.070000,1.310000,0.050000,1.000000,101.000000,1,1,0.000000,-0.000000,0,-0.842484,4.415131,0.000000,-64.523941,13.572311,0.000000,-0.063000,0.089000,0.009000,FlatInitial
04:15:17.531 PM 02/14/2016,Teleop Enabled,0,FALSE,0,NO ERROR,-6007.617188,5995.898438,-6000.000000,-6000.000000,Speed,Speed,-0.070000,1.310000,0.050000,1.000000,102.000000,1,1,0.000000,-0.000000,0,-0.842484,4.415131,0.000000,-64.523941,13.572311,0.000000,-0.063000,0.089000,0.009000,FlatInitial
04:15:17.632 PM 02/14/2016,Teleop Enabled,0,FALSE,0,NO ERROR,-6001.171875,6000.000000,-6000.000000,-6000.000000,Speed,Speed,-0.070000,1.310000,0.050000,1.000000,101.000000,1,1,0.000000,-0.000000,0,-0.842484,4.415131,0.000000,-64.523941,13.572311,0.000000,-0.063000,0.089000,0.009000,FlatInitial
04:15:17.732 PM 02/14/2016,Teleop Enabled,0,FALSE,0,NO ERROR,-5999.414062,6004.101562,-6000.000000,-6000.000000,Speed,Speed,-0.070000,1.310000,0.050000,1.000000,101.000000,1,1,0.000000,-0.000000,0,-0.842484,4.415131,0.000000,-64.523941,13.572311,0.000000,-0.063000,0.089000,0.009000,FlatInitial
04:15:17.833 PM 02/14/2016,Teleop Enabled,0,FALSE,0,NO ERROR,-5995.898438,6010.546875,-6000.000000,-6000.000000,Speed,Speed,-0.070000,1.310000,0.050000,1.000000,112.000000,1,1,0.000000,-0.000000,0,-0.842484,4.415131,0.000000,-64.523941,13.572311,0.000000,-0.063000,0.089000,0.009000,FlatInitial
04:15:17.933 PM 02/14/2016,Teleop Enabled,0,FALSE,0,NO ERROR,-5996.484375,6004.687500,-6000.000000,-6000.000000,Speed,Speed,-0.070000,1.320000,-0.380000,1.000000,102.000000,1,1,0.000000,-0.000000,0,-0.842484,4.415131,0.000000,-64.523941,13.572311,0.000000,-0.063000,0.089000,0.009000,FlatInitial
04:15:18.033 PM 02/14/2016,Teleop Enabled,0,FALSE,0,NO ERROR,-5998.242188,5996.484375,-6000.000000,-6000.000000,Speed,Speed,-0.070000,1.320000,-0.350000,1.000000,102.000000,1,1,0.000000,-0.000000,0,-1.579422,5.133652,0.000000,-65.133926,16.023819,0.000000,-0.077000,0.081000,0.027000,FlatInitial
04:15:18.133 PM 02/14/2016,Teleop Enabled,0,FALSE,0,NO ERROR,-6001.171875,5992.382812,-6000.000000,-6000.000000,Speed,Speed,-0.060000,1.360000,-0.330000,1.000000,101.000000,1,1,0.000000,-0.000000,0,-1.663742,5.205948,0.000000,-65.231735,16.334427,0.000000,-0.086000,0.067000,0.027000,FlatInitial
04:15:18.233 PM 02/14/2016,Teleop Enabled,0,FALSE,0,NO ERROR,-6002.929688,5992.382812,-6000.000000,-6000.000000,Speed,Speed,-0.070000,1.340000,-0.350000,1.000000,101.000000,1,1,0.000000,-0.000000,0,-1.750687,5.275085,0.000000,-65.317413,16.596649,0.000000,-0.115000,0.072000,0.047000,FlatInitial
04:15:18.334 PM 02/14/2016,Teleop Enabled,0,FALSE,0,NO ERROR,-6003.515625,5998.242188,-6000.000000,-6000.000000,Speed,Speed,-0.070000,1.330000,-0.360000,1.000000,103.000000,1,1,0.000000,-0.000000,0,-1.835846,5.326843,0.000000,-65.407639,16.862045,0.000000,-0.064000,0.038000,0.040000,FlatInitial
04:15:18.434 PM 02/14/2016,Teleop Enabled,0,FALSE,0,NO ERROR,-6003.515625,6004.101562,-6000.000000,-6000.000000,Speed,Speed,-0.070000,1.320000,-0.350000,1.000000,108.000000,1,1,0.000000,-0.000000,0,-1.895554,5.361160,0.000000,-65.482574,17.076004,0.000000,-0.084000,0.064000,0.040000,FlatInitial
04:15:18.535 PM 02/14/2016,Teleop Enabled,0,FALSE,0,NO ERROR,-6001.757812,6007.031250,-6000.000000,-6000.000000,Speed,Speed,-0.070000,1.290000,-0.320000,1.000000,101.000000,1,1,0.000000,-0.000000,0,-1.973358,5.414185,0.000000,-65.579727,17.345596,0.000000,-0.096000,0.044000,0.097000,FlatInitial
04:15:18.636 PM 02/14/2016,Teleop Enabled,0,FALSE,0,NO ERROR,-5997.070312,6008.203125,-6000.000000,-6000.000000,Speed,Speed,-0.070000,1.280000,-0.230000,1.000000,101.000000,1,1,0.000000,-0.000000,0,-2.070679,5.466156,0.000000,-65.701553,17.672302,0.000000,-0.085000,0.036000,0.057000,FlatInitial
04:15:18.736 PM 02/14/2016,Teleop Enabled,0,FALSE,0,NO ERROR,-5997.070312,6005.273438,-6000.000000,-6000.000000,Speed,Speed,-0.070000,1.280000,-0.130000,1.000000,102.000000,1,1,0.000000,-0.000000,0,-2.159943,5.520416,0.000000,-65.807724,17.947220,0.000000,-0.096000,0.043000,0.063000,FlatInitial
04:15:18.836 PM 02/14/2016,Teleop Enabled,0,FALSE,0,NO ERROR,-5992.968750,6001.757812,-6000.000000,-6000.000000,Speed,Speed,-0.080000,1.310000,-0.090000,1.000000,101.000000,1,1,0.000000,-0.000000,0,-2.232758,5.549393,0.000000,-65.917908,18.224060,0.000000,-0.078000,0.072000,0.044000,FlatInitial
04:15:18.936 PM 02/14/2016,Teleop Enabled,0,FALSE,0,NO ERROR,-5992.382812,6001.757812,-6000.000000,-6000.000000,Speed,Speed,-0.070000,1.340000,-0.020000,1.000000,102.000000,1,1,0.000000,-0.000000,0,-2.318207,5.618362,0.000000,-66.032013,18.503571,0.000000,-0.110000,0.071000,0.016000,FlatInitial
04:15:19.038 PM 02/14/2016,Teleop Enabled,0,FALSE,0,NO ERROR,-5992.382812,6000.585938,-6000.000000,-6000.000000,Speed,Speed,-0.080000,1.390000,0.020000,1.000000,107.000000,1,1,0.000000,-0.000000,0,-2.403458,5.674881,0.000000,-66.174210,18.842880,0.000000,-0.054000,0.051000,0.007000,FlatInitial
04:15:19.141 PM 02/14/2016,Teleop Enabled,0,FALSE,0,NO ERROR,-5994.726562,5998.242188,-6000.000000,-6000.000000,Speed,Speed,-0.080000,1.450000,0.060000,1.000000,103.000000,1,1,0.000000,-0.000000,0,-2.451691,5.713760,0.000000,-66.271530,19.070877,0.000000,-0.055000,0.061000,-0.026000,FlatInitial
04:15:19.242 PM 02/14/2016,Teleop Enabled,0,FALSE,0,NO ERROR,-6000.000000,6000.000000,-6000.000000,-6000.000000,Speed,Speed,-0.080000,1.510000,0.140000,1.000000,102.000000,1,1,0.000000,-0.000000,0,-2.519806,5.777374,0.000000,-66.396133,19.358398,0.000000,-0.063000,0.027000,0.009000,FlatInitial
04:15:19.342 PM 02/14/2016,Teleop Enabled,0,FALSE,0,NO ERROR,-6004.101562,5998.242188,-6000.000000,-6000.000000,Speed,Speed,-0.080000,1.540000,0.190000,1.000000,102.000000,1,1,0.000000,-0.000000,0,-2.590363,5.816940,0.000000,-66.524246,19.648438,0.000000,-0.084000,0.073000,0.052000,FlatInitial
04:15:19.444 PM 02/14/2016,Teleop Enabled,0,FALSE,0,NO ERROR,-6007.617188,5997.070312,-6000.000000,-6000.000000,Speed,Speed,-0.070000,1.550000,0.290000,1.000000,101.000000,1,1,0.000000,-0.000000,0,-2.701309,5.875809,0.000000,-66.683533,19.999619,0.000000,-0.069000,0.026000,0.041000,FlatInitial
04:15:19.547 PM 02/14/2016,Teleop Enabled,0,FALSE,0,NO ERROR,-6011.132812,5994.726562,-6000.000000,-6000.000000,Speed,Speed,-0.080000,1.510000,0.410000,1.000000,101.000000,1,1,0.000000,-0.000000,0,-2.822205,5.909256,0.000000,-66.849655,20.353104,0.000000,-0.099000,0.076000,0.049000,FlatInitial
04:15:19.646 PM 02/14/2016,Teleop Enabled,0,FALSE,0,NO ERROR,-6011.718750,5992.968750,-6000.000000,-6000.000000,Speed,Speed,-0.080000,1.480000,0.540000,1.000000,101.000000,1,1,0.000000,-0.000000,0,-2.915741,5.954041,0.000000,-66.964890,20.590622,0.000000,-0.089000,0.041000,0.067000,FlatInitial
04:15:19.747 PM 02/14/2016,Teleop Enabled,0,FALSE,0,NO ERROR,-6006.445312,5997.070312,-6000.000000,-6000.000000,Speed,Speed,-0.080000,1.430000,0.690000,1.000000,106.000000,1,1,0.000000,-0.000000,0,-2.995346,0.003433,0.000000,-67.083527,20.650253,0.000000,-0.110000,0.018000,0.090000,FlatInitial
04:15:19.849 PM 02/14/2016,Teleop Enabled,0,FALSE,0,NO ERROR,-6002.343750,6000.000000,-6000.000000,-6000.000000,Speed,Speed,-0.080000,1.400000,0.800000,1.000000,103.000000,1,1,0.000000,-0.000000,0,-3.092392,0.009552,0.000000,-67.236252,20.650482,0.000000,-0.099000,-0.009000,0.117000,FlatInitial
04:15:19.949 PM 02/14/2016,Teleop Enabled,0,FALSE,0,NO ERROR,-5999.414062,6004.687500,-6000.000000,-6000.000000,Speed,Speed,-0.080000,1.360000,1.040000,1.000000,105.000000,1,1,0.000000,-0.000000,0,-3.225296,0.000000,0.000000,-67.489822,20.650864,0.000000,-0.099000,-0.009000,0.117000,FlatInitial
04:15:20.049 PM 02/14/2016,Teleop Enabled,0,FALSE,0,NO ERROR,-5996.484375,6008.789062,-6000.000000,-6000.000000,Speed,Speed,-0.080000,1.350000,1.190000,1.000000,110.000000,1,1,0.000000,-0.000000,0,-3.299759,0.005905,0.000000,-67.620667,20.650970,0.000000,-0.045000,0.052000,0.033000,FlatInitial
04:15:20.149 PM 02/14/2016,Teleop Enabled,0,FALSE,0,NO ERROR,-5994.726562,6005.273438,-6000.000000,-6000.000000,Speed,Speed,-0.090000,1.350000,1.300000,1.000000,103.000000,1,1,0.000000,-0.000000,0,-3.367294,0.000000,0.000000,-67.754364,20.651321,0.000000,-0.063000,-0.018000,0.038000,FlatInitial
04:15:20.250 PM 02/14/2016,Teleop Enabled,0,FALSE,0,NO ERROR,-5997.656250,6001.757812,-6000.000000,-6000.000000,Speed,Speed,-0.090000,1.340000,1.400000,1.000000,103.000000,1,1,0.000000,-0.000000,0,-3.456009,0.000000,0.000000,-67.925201,20.651184,0.000000,-0.076000,0.044000,0.009000,FlatInitial
04:15:20.350 PM 02/14/2016,Teleop Enabled,0,FALSE,0,NO ERROR,-6001.171875,6002.343750,-6000.000000,-6000.000000,Speed,Speed,-0.090000,1.340000,1.550000,1.000000,102.000000,1,1,0.000000,-0.000000,0,-3.554306,0.027878,0.000000,-68.100952,20.652130,0.000000,-0.072000,-0.001000,0.026000,FlatInitial
04:15:20.451 PM 02/14/2016,Teleop Enabled,0,FALSE,0,NO ERROR,-6004.101562,6002.343750,-6000.000000,-6000.000000,Speed,Speed,-0.090000,1.340000,1.680000,1.000000,104.000000,1,1,0.000000,-0.000000,0,-3.661148,-0.008636,0.000000,-68.354065,20.652420,0.000000,-0.093000,0.005000,0.053000,FlatInitial
04:15:20.551 PM 02/14/2016,Teleop Enabled,0,FALSE,0,NO ERROR,-6006.445312,6002.929688,-6000.000000,-6000.000000,Speed,Speed,-0.100000,1.350000,1.790000,1.000000,102.000000,1,1,0.000000,-0.000000,0,-3.727463,-0.006607,0.000000,-68.502213,20.652176,0.000000,-0.072000,-0.021000,0.071000,FlatInitial
04:15:20.651 PM 02/14/2016,Teleop Enabled,0,FALSE,0,NO ERROR,-6008.789062,6005.859375,-6000.000000,-6000.000000,Speed,Speed,-0.100000,1.360000,1.940000,1.000000,100.000000,1,1,0.000000,-0.000000,0,-3.786331,-0.030334,0.000000,-68.652786,20.651413,0.000000,-0.054000,-0.033000,0.070000,FlatInitial
04:15:20.751 PM 02/14/2016,Teleop Enabled,0,FALSE,0,NO ERROR,-6008.789062,6002.343750,-6000.000000,-6000.000000,Speed,Speed,-0.090000,1.370000,2.160000,1.000000,102.000000,1,1,0.000000,-0.000000,0,-3.880753,-0.071426,0.000000,-68.883179,20.648209,0.000000,-0.105000,-0.016000,0.067000,FlatInitial
04:15:20.851 PM 02/14/2016,Teleop Enabled,0,FALSE,0,NO ERROR,-6004.687500,5998.242188,-6000.000000,-6000.000000,Speed,Speed,-0.100000,1.380000,2.290000,1.000000,105.000000,1,1,0.000000,-0.000000,0,-3.951736,-0.104950,0.000000,-69.079269,20.643646,0.000000,-0.098000,-0.031000,0.062000,FlatInitial
04:15:20.952 PM 02/14/2016,Teleop Enabled,0,FALSE,0,NO ERROR,-6001.171875,5992.382812,-6000.000000,-6000.000000,Speed,Speed,-0.090000,1.350000,2.530000,1.000000,104.000000,1,1,0.000000,-0.000000,0,-4.057953,-0.133896,0.000000,-69.320099,20.636353,0.000000,-0.098000,-0.031000,0.062000,FlatInitial
04:15:21.054 PM 02/14/2016,Teleop Enabled,0,FALSE,0,NO ERROR,-5994.140625,5991.796875,-6000.000000,-6000.000000,Speed,Speed,-0.090000,1.370000,2.720000,1.000000,104.000000,1,1,0.000000,-0.000000,0,-4.057953,-0.133896,0.000000,-69.320099,20.636353,0.000000,-0.105000,-0.060000,0.101000,FlatInitial
