Time,RobotMode,AutoToRun,ErrorStatus, ErrorCode,ErrorSource,ActualRPM1,ActualRPM2,DesiredRPM1,DesiredRPM2,ControlMode1,ControlMode2,NavXYaw,NavXRoll,NavXPitch,ShooterState,LoopTime,IsLevel,IsAutoTargeting,LeftMotorOutput,RightMotorOutput,IsHaloDrive,NavXVelocityX,NavXVelocityY,NavXVelocityZ,NavXDisplacementX,NavXDisplacementY,NavXDisplacementZ,NavXAccelerationX,NavXAccelerationY,NavXAccelerationZ,AutoDefendState
08:44:34.452 PM 02/15/2016,Autonomous Disabled,0,TRUE,91,Variant To Data in WPI_DigitalInputRefNum Registry Get.vi->Periodic Tasks.vi->Robot Main.vi,4869.726562,-3364.892578,0.000000,0.000000,Speed,Speed,-1.370000,1.160000,1.210000,0.000000,102.000000,1,0,-0.000000,0.000000,1,0.020432,0.006744,0.000000,-0.492416,16.864639,0.000000,-0.083000,0.001000,-0.135000,FlatInitial
08:44:34.555 PM 02/15/2016,Teleop Disabled,0,TRUE,-44007,<LOCATION>WPI_DigitalInputRefNum Registry Get.vi<CALLSTACK>WPI_DigitalInputRefNum Registry Get.vi< <Periodic Tasks.vi< <Robot Main.vi,0.000000,0.000000,0.000000,0.000000,Speed,Speed,0.000000,0.950000,1.650000,0.000000,1138475.000000,1,0,-0.000000,0.000000,1,0.000000,0.000000,0.000000,-0.496811,16.866455,0.000000,-0.083000,0.001000,-0.135000,FlatInitial
08:44:34.656 PM 02/15/2016,Teleop Disabled,0,FALSE,0,NO ERROR,0.000000,0.000000,-6000.000000,-6000.000000,Speed,Speed,0.000000,0.950000,1.650000,1.000000,107.000000,1,0,-0.000000,0.000000,1,0.000000,0.000000,0.000000,-0.496811,16.866455,0.000000,-0.001000,0.000000,0.000000,FlatInitial
08:44:34.755 PM 02/15/2016,Teleop Disabled,0,FALSE,0,NO ERROR,0.000000,0.000000,-6000.000000,-6000.000000,Speed,Speed,0.000000,0.950000,1.650000,1.000000,101.000000,1,0,-0.000000,0.000000,1,0.000000,0.000000,0.000000,-0.496811,16.866455,0.000000,0.000000,0.000000,0.001000,FlatInitial
08:44:34.855 PM 02/15/2016,Teleop Disabled,0,FALSE,0,NO ERROR,0.000000,0.000000,-6000.000000,-6000.000000,Speed,Speed,0.000000,0.950000,1.650000,1.000000,102.000000,1,0,-0.000000,0.000000,1,0.000000,0.000000,0.000000,-0.496811,16.866455,0.000000,0.002000,0.000000,0.000000,FlatInitial
08:44:34.955 PM 02/15/2016,Teleop Disabled,0,FALSE,0,NO ERROR,0.000000,0.000000,-6000.000000,-6000.000000,Speed,Speed,0.000000,0.960000,1.650000,1.000000,100.000000,1,0,-0.000000,0.000000,1,0.000000,0.000000,0.000000,-0.496811,16.866455,0.000000,-0.001000,0.000000,0.002000,FlatInitial
08:44:35.055 PM 02/15/2016,Teleop Disabled,0,FALSE,0,NO ERROR,0.000000,0.000000,-6000.000000,-6000.000000,Speed,Speed,0.000000,0.960000,1.660000,1.000000,101.000000,1,0,-0.000000,0.000000,1,0.000000,0.000000,0.000000,-0.496811,16.866455,0.000000,0.000000,0.000000,0.001000,FlatInitial
08:44:35.155 PM 02/15/2016,Teleop Disabled,0,FALSE,0,NO ERROR,0.000000,0.000000,-6000.000000,-6000.000000,Speed,Speed,0.000000,0.950000,1.650000,1.000000,100.000000,1,0,-0.000000,0.000000,1,0.000000,0.000000,0.000000,-0.496811,16.866455,0.000000,0.001000,-0.001000,0.000000,FlatInitial
08:44:35.255 PM 02/15/2016,Teleop Disabled,0,FALSE,0,NO ERROR,0.000000,0.000000,-6000.000000,-6000.000000,Speed,Speed,0.000000,0.950000,1.650000,1.000000,101.000000,1,0,-0.000000,0.000000,1,0.000000,0.000000,0.000000,-0.496811,16.866455,0.000000,-0.002000,0.000000,0.003000,FlatInitial
08:44:35.355 PM 02/15/2016,Teleop Disabled,0,FALSE,0,NO ERROR,0.000000,0.000000,-6000.000000,-6000.000000,Speed,Speed,0.000000,0.950000,1.650000,1.000000,101.000000,1,0,-0.000000,0.000000,1,0.000000,0.000000,0.000000,-0.496811,16.866455,0.000000,0.000000,0.002000,0.004000,FlatInitial
08:44:35.456 PM 02/15/2016,Teleop Disabled,0,FALSE,0,NO ERROR,0.000000,0.000000,-6000.000000,-6000.000000,Speed,Speed,0.000000,0.950000,1.660000,1.000000,101.000000,1,0,-0.000000,0.000000,1,0.000000,0.000000,0.000000,-0.496811,16.866455,0.000000,-0.002000,0.000000,0.000000,FlatInitial
08:44:35.557 PM 02/15/2016,Teleop Disabled,0,FALSE,0,NO ERROR,0.000000,0.000000,-6000.000000,-6000.000000,Speed,Speed,0.000000,0.950000,1.660000,1.000000,101.000000,1,0,-0.000000,0.000000,1,0.000000,0.000000,0.000000,-0.496811,16.866455,0.000000,-0.002000,0.000000,0.000000,FlatInitial
08:44:35.657 PM 02/15/2016,Teleop Disabled,0,FALSE,0,NO ERROR,0.000000,0.000000,-6000.000000,-6000.000000,Speed,Speed,0.000000,0.950000,1.660000,1.000000,102.000000,1,0,-0.000000,0.000000,1,0.000000,0.000000,0.000000,-0.496811,16.866455,0.000000,-0.002000,0.000000,0.000000,FlatInitial
08:44:35.758 PM 02/15/2016,Teleop Disabled,0,FALSE,0,NO ERROR,0.000000,0.000000,-6000.000000,-6000.000000,Speed,Speed,0.000000,0.960000,1.660000,1.000000,101.000000,1,0,-0.000000,0.000000,1,0.000000,0.000000,0.000000,-0.496811,16.866455,0.000000,-0.001000,0.001000,0.000000,FlatInitial
08:44:35.858 PM 02/15/2016,Teleop Disabled,0,FALSE,0,NO ERROR,0.000000,0.000000,-6000.000000,-6000.000000,Speed,Speed,0.000000,0.960000,1.660000,1.000000,102.000000,1,0,-0.000000,0.000000,1,0.000000,0.000000,0.000000,-0.496811,16.866455,0.000000,-0.001000,0.001000,0.000000,FlatInitial
08:44:35.958 PM 02/15/2016,Teleop Disabled,0,FALSE,0,NO ERROR,0.000000,0.000000,-6000.000000,-6000.000000,Speed,Speed,0.000000,0.950000,1.660000,1.000000,100.000000,1,0,-0.000000,0.000000,1,0.000000,0.000000,0.000000,-0.496811,16.866455,0.000000,0.002000,0.000000,-0.001000,FlatInitial
08:44:36.058 PM 02/15/2016,Teleop Disabled,0,FALSE,0,NO ERROR,0.000000,0.000000,-6000.000000,-6000.000000,Speed,Speed,0.000000,0.950000,1.660000,1.000000,101.000000,1,0,-0.000000,0.000000,1,0.000000,0.000000,0.000000,-0.496811,16.866455,0.000000,0.002000,0.000000,-0.001000,FlatInitial
08:44:36.158 PM 02/15/2016,Teleop Disabled,0,FALSE,0,NO ERROR,0.000000,0.000000,-6000.000000,-6000.000000,Speed,Speed,0.000000,0.950000,1.670000,1.000000,102.000000,1,0,-0.000000,0.000000,1,0.000000,0.000000,0.000000,-0.496811,16.866455,0.000000,-0.002000,0.001000,0.002000,FlatInitial
08:44:36.258 PM 02/15/2016,Teleop Disabled,0,FALSE,0,NO ERROR,0.000000,0.000000,-6000.000000,-6000.000000,Speed,Speed,0.000000,0.950000,1.670000,1.000000,100.000000,1,0,-0.000000,0.000000,1,0.000000,0.000000,0.000000,-0.496811,16.866455,0.000000,0.000000,0.001000,0.000000,FlatInitial
08:44:36.358 PM 02/15/2016,Teleop Disabled,0,FALSE,0,NO ERROR,0.000000,0.000000,-6000.000000,-6000.000000,Speed,Speed,0.000000,0.950000,1.670000,1.000000,102.000000,1,0,-0.000000,0.000000,1,0.000000,0.000000,0.000000,-0.496811,16.866455,0.000000,0.000000,0.001000,0.000000,FlatInitial
08:44:36.458 PM 02/15/2016,Teleop Disabled,0,FALSE,0,NO ERROR,0.000000,0.000000,-6000.000000,-6000.000000,Speed,Speed,0.000000,0.940000,1.670000,1.000000,103.000000,1,0,-0.000000,0.000000,1,0.000000,0.000000,0.000000,-0.496811,16.866455,0.000000,0.001000,-0.002000,0.005000,FlatInitial
08:44:36.558 PM 02/15/2016,Teleop Disabled,0,FALSE,0,NO ERROR,0.000000,0.000000,-6000.000000,-6000.000000,Speed,Speed,0.000000,0.940000,1.660000,1.000000,102.000000,1,0,-0.000000,0.000000,1,0.000000,0.000000,0.000000,-0.496811,16.866455,0.000000,0.001000,-0.002000,0.005000,FlatInitial
08:44:36.658 PM 02/15/2016,Teleop Disabled,0,FALSE,0,NO ERROR,0.000000,0.000000,-6000.000000,-6000.000000,Speed,Speed,0.000000,0.950000,1.670000,1.000000,100.000000,1,0,-0.000000,0.000000,1,0.000000,0.000000,0.000000,-0.496811,16.866455,0.000000,-0.001000,-0.001000,0.001000,FlatInitial
08:44:36.758 PM 02/15/2016,Teleop Disabled,0,FALSE,0,NO ERROR,0.000000,0.000000,-6000.000000,-6000.000000,Speed,Speed,0.000000,0.940000,1.660000,1.000000,103.000000,1,0,-0.000000,0.000000,1,0.000000,0.000000,0.000000,-0.496811,16.866455,0.000000,0.000000,-0.002000,0.003000,FlatInitial
08:44:36.858 PM 02/15/2016,Teleop Disabled,0,FALSE,0,NO ERROR,0.000000,0.000000,-6000.000000,-6000.000000,Speed,Speed,0.000000,0.950000,1.660000,1.000000,100.000000,1,0,-0.000000,0.000000,1,0.000000,0.000000,0.000000,-0.496811,16.866455,0.000000,0.000000,-0.001000,0.002000,FlatInitial
08:44:36.958 PM 02/15/2016,Teleop Disabled,0,FALSE,0,NO ERROR,0.000000,0.000000,-6000.000000,-6000.000000,Speed,Speed,0.000000,0.950000,1.660000,1.000000,102.000000,1,0,-0.000000,0.000000,1,0.000000,0.000000,0.000000,-0.496811,16.866455,0.000000,0.002000,0.000000,0.000000,FlatInitial
08:44:37.058 PM 02/15/2016,Teleop Disabled,0,FALSE,0,NO ERROR,0.000000,0.000000,-6000.000000,-6000.000000,Speed,Speed,0.000000,0.940000,1.660000,1.000000,101.000000,1,0,-0.000000,0.000000,1,0.000000,0.000000,0.000000,-0.496811,16.866455,0.000000,0.000000,0.000000,0.000000,FlatInitial
08:44:37.157 PM 02/15/2016,Teleop Disabled,0,FALSE,0,NO ERROR,0.000000,0.000000,-6000.000000,-6000.000000,Speed,Speed,0.000000,0.940000,1.670000,1.000000,103.000000,1,0,-0.000000,0.000000,1,0.000000,0.000000,0.000000,-0.496811,16.866455,0.000000,-0.001000,0.000000,0.003000,FlatInitial
08:44:37.257 PM 02/15/2016,Teleop Disabled,0,FALSE,0,NO ERROR,0.000000,0.000000,-6000.000000,-6000.000000,Speed,Speed,0.000000,0.940000,1.670000,1.000000,101.000000,1,0,-0.000000,0.000000,1,0.000000,0.000000,0.000000,-0.496811,16.866455,0.000000,-0.001000,0.000000,0.003000,FlatInitial
08:44:37.357 PM 02/15/2016,Teleop Disabled,0,FALSE,0,NO ERROR,0.000000,0.000000,-6000.000000,-6000.000000,Speed,Speed,0.000000,0.950000,1.670000,1.000000,101.000000,1,0,-0.000000,0.000000,1,0.000000,0.000000,0.000000,-0.496811,16.866455,0.000000,0.001000,0.000000,0.006000,FlatInitial
08:44:37.458 PM 02/15/2016,Teleop Disabled,0,FALSE,0,NO ERROR,0.000000,0.000000,-6000.000000,-6000.000000,Speed,Speed,0.000000,0.950000,1.670000,1.000000,101.000000,1,0,-0.000000,0.000000,1,0.000000,0.000000,0.000000,-0.496811,16.866455,0.000000,-0.001000,0.000000,-0.002000,FlatInitial
08:44:37.558 PM 02/15/2016,Teleop Disabled,0,FALSE,0,NO ERROR,0.000000,0.000000,-6000.000000,-6000.000000,Speed,Speed,0.000000,0.950000,1.670000,1.000000,101.000000,1,0,-0.000000,0.000000,1,0.000000,0.000000,0.000000,-0.496811,16.866455,0.000000,-0.002000,0.000000,0.000000,FlatInitial
08:44:37.658 PM 02/15/2016,Teleop Disabled,0,FALSE,0,NO ERROR,0.000000,0.000000,-6000.000000,-6000.000000,Speed,Speed,0.000000,0.950000,1.670000,1.000000,102.000000,1,0,-0.000000,0.000000,1,0.000000,0.000000,0.000000,-0.496811,16.866455,0.000000,-0.001000,0.001000,0.005000,FlatInitial
08:44:37.758 PM 02/15/2016,Teleop Disabled,0,FALSE,0,NO ERROR,0.000000,0.000000,-6000.000000,-6000.000000,Speed,Speed,0.000000,0.950000,1.670000,1.000000,103.000000,1,0,-0.000000,0.000000,1,0.000000,0.000000,0.000000,-0.496811,16.866455,0.000000,0.000000,0.001000,0.000000,FlatInitial
08:44:37.860 PM 02/15/2016,Teleop Disabled,0,FALSE,0,NO ERROR,0.000000,0.000000,-6000.000000,-6000.000000,Speed,Speed,0.000000,0.950000,1.670000,1.000000,101.000000,1,0,-0.000000,0.000000,1,0.000000,0.000000,0.000000,-0.496811,16.866455,0.000000,-0.001000,0.000000,0.000000,FlatInitial
08:44:37.960 PM 02/15/2016,Teleop Disabled,0,FALSE,0,NO ERROR,0.000000,0.000000,-6000.000000,-6000.000000,Speed,Speed,0.000000,0.950000,1.670000,1.000000,102.000000,1,0,-0.000000,0.000000,1,0.000000,0.000000,0.000000,-0.496811,16.866455,0.000000,0.000000,-0.001000,0.000000,FlatInitial
08:44:38.059 PM 02/15/2016,Teleop Disabled,0,FALSE,0,NO ERROR,0.000000,0.000000,-6000.000000,-6000.000000,Speed,Speed,0.000000,0.950000,1.670000,1.000000,101.000000,1,0,-0.000000,0.000000,1,0.000000,0.000000,0.000000,-0.496811,16.866455,0.000000,0.000000,-0.001000,0.002000,FlatInitial
08:44:38.159 PM 02/15/2016,Teleop Disabled,0,FALSE,0,NO ERROR,0.000000,0.000000,-6000.000000,-6000.000000,Speed,Speed,0.000000,0.950000,1.670000,1.000000,101.000000,1,0,-0.000000,0.000000,1,0.000000,0.000000,0.000000,-0.496811,16.866455,0.000000,-0.001000,-0.001000,0.004000,FlatInitial
08:44:38.260 PM 02/15/2016,Teleop Disabled,0,FALSE,0,NO ERROR,0.000000,0.000000,-6000.000000,-6000.000000,Speed,Speed,0.000000,0.950000,1.670000,1.000000,101.000000,1,0,-0.000000,0.000000,1,0.000000,0.000000,0.000000,-0.496811,16.866455,0.000000,0.000000,0.002000,0.002000,FlatInitial
08:44:38.360 PM 02/15/2016,Teleop Disabled,0,FALSE,0,NO ERROR,0.000000,0.000000,-6000.000000,-6000.000000,Speed,Speed,0.000000,0.940000,1.670000,1.000000,101.000000,1,0,-0.000000,0.000000,1,0.000000,0.000000,0.000000,-0.496811,16.866455,0.000000,0.000000,0.001000,0.005000,FlatInitial
08:44:38.461 PM 02/15/2016,Teleop Disabled,0,FALSE,0,NO ERROR,0.000000,0.000000,-6000.000000,-6000.000000,Speed,Speed,0.000000,0.940000,1.670000,1.000000,101.000000,1,0,-0.000000,0.000000,1,0.000000,0.000000,0.000000,-0.496811,16.866455,0.000000,0.000000,-0.001000,0.001000,FlatInitial
08:44:38.562 PM 02/15/2016,Teleop Disabled,0,FALSE,0,NO ERROR,0.000000,0.000000,-6000.000000,-6000.000000,Speed,Speed,0.000000,0.940000,1.670000,1.000000,101.000000,1,0,-0.000000,0.000000,1,0.000000,0.000000,0.000000,-0.496811,16.866455,0.000000,0.002000,0.000000,-0.002000,FlatInitial
08:44:38.662 PM 02/15/2016,Teleop Disabled,0,FALSE,0,NO ERROR,0.000000,0.000000,-6000.000000,-6000.000000,Speed,Speed,0.000000,0.940000,1.670000,1.000000,101.000000,1,0,-0.000000,0.000000,1,0.000000,0.000000,0.000000,-0.496811,16.866455,0.000000,0.001000,0.001000,-0.001000,FlatInitial
08:44:38.762 PM 02/15/2016,Teleop Disabled,0,FALSE,0,NO ERROR,0.000000,0.000000,-6000.000000,-6000.000000,Speed,Speed,0.000000,0.950000,1.670000,1.000000,100.000000,1,0,-0.000000,0.000000,1,0.000000,0.000000,0.000000,-0.496811,16.866455,0.000000,0.001000,-0.002000,0.000000,FlatInitial
08:44:38.861 PM 02/15/2016,Teleop Disabled,0,FALSE,0,NO ERROR,0.000000,0.000000,-6000.000000,-6000.000000,Speed,Speed,0.000000,0.940000,1.670000,1.000000,102.000000,1,0,-0.000000,0.000000,1,0.000000,0.000000,0.000000,-0.496811,16.866455,0.000000,0.000000,-0.001000,0.000000,FlatInitial
08:44:38.962 PM 02/15/2016,Teleop Disabled,0,FALSE,0,NO ERROR,0.000000,0.000000,-6000.000000,-6000.000000,Speed,Speed,0.000000,0.940000,1.660000,1.000000,100.000000,1,0,-0.000000,0.000000,1,0.000000,0.000000,0.000000,-0.496811,16.866455,0.000000,0.001000,0.000000,0.012000,FlatInitial
08:44:39.062 PM 02/15/2016,Teleop Disabled,0,FALSE,0,NO ERROR,0.000000,0.000000,-6000.000000,-6000.000000,Speed,Speed,0.000000,0.940000,1.650000,1.000000,101.000000,1,0,-0.000000,0.000000,1,0.000000,0.000000,0.000000,-0.496811,16.866455,0.000000,-0.003000,-0.001000,0.006000,FlatInitial
08:44:39.162 PM 02/15/2016,Teleop Disabled,0,FALSE,0,NO ERROR,0.000000,0.000000,-6000.000000,-6000.000000,Speed,Speed,0.000000,0.940000,1.650000,1.000000,102.000000,1,0,-0.000000,0.000000,1,0.000000,0.000000,0.000000,-0.496811,16.866455,0.000000,-0.005000,0.002000,0.027000,FlatInitial
08:44:39.262 PM 02/15/2016,Teleop Disabled,0,FALSE,0,NO ERROR,0.000000,0.000000,-6000.000000,-6000.000000,Speed,Speed,0.000000,0.930000,1.650000,1.000000,102.000000,1,0,-0.000000,0.000000,1,0.000000,0.000000,0.000000,-0.496811,16.866455,0.000000,0.001000,-0.001000,0.009000,FlatInitial
08:44:39.366 PM 02/15/2016,Teleop Disabled,0,FALSE,0,NO ERROR,0.000000,0.000000,-6000.000000,-6000.000000,Speed,Speed,0.000000,0.940000,1.660000,1.000000,102.000000,1,0,-0.000000,0.000000,1,0.000000,0.000000,0.000000,-0.496811,16.866455,0.000000,-0.001000,0.000000,0.001000,FlatInitial
08:44:39.466 PM 02/15/2016,Teleop Disabled,0,FALSE,0,NO ERROR,0.000000,0.000000,-6000.000000,-6000.000000,Speed,Speed,0.000000,0.940000,1.650000,1.000000,103.000000,1,0,-0.000000,0.000000,1,0.000000,0.000000,0.000000,-0.496811,16.866455,0.000000,0.000000,-0.002000,0.014000,FlatInitial
08:44:39.567 PM 02/15/2016,Teleop Disabled,0,FALSE,0,NO ERROR,0.000000,0.000000,-6000.000000,-6000.000000,Speed,Speed,-0.010000,0.940000,1.650000,1.000000,101.000000,1,0,-0.000000,0.000000,1,0.000000,0.000000,0.000000,-0.496811,16.866455,0.000000,-0.007000,-0.005000,-0.001000,FlatInitial
08:44:39.669 PM 02/15/2016,Teleop Disabled,0,FALSE,0,NO ERROR,0.000000,0.000000,-6000.000000,-6000.000000,Speed,Speed,-0.010000,0.940000,1.650000,1.000000,101.000000,1,0,-0.000000,0.000000,1,0.000000,0.000000,0.000000,-0.496811,16.866455,0.000000,-0.001000,-0.001000,0.001000,FlatInitial
08:44:39.770 PM 02/15/2016,Teleop Disabled,0,FALSE,0,NO ERROR,0.000000,0.000000,-6000.000000,-6000.000000,Speed,Speed,0.000000,0.930000,1.650000,1.000000,101.000000,1,0,-0.000000,0.000000,1,0.000000,0.000000,0.000000,-0.496811,16.866455,0.000000,0.000000,0.001000,0.002000,FlatInitial
08:44:39.871 PM 02/15/2016,Teleop Disabled,0,FALSE,0,NO ERROR,0.000000,0.000000,-6000.000000,-6000.000000,Speed,Speed,0.000000,0.930000,1.650000,1.000000,103.000000,1,0,-0.000000,0.000000,1,0.000000,0.000000,0.000000,-0.496811,16.866455,0.000000,0.002000,-0.004000,0.003000,FlatInitial
08:44:39.971 PM 02/15/2016,Teleop Disabled,0,FALSE,0,NO ERROR,0.000000,0.000000,-6000.000000,-6000.000000,Speed,Speed,0.000000,0.930000,1.640000,1.000000,101.000000,1,0,-0.000000,0.000000,1,0.000000,0.000000,0.000000,-0.496811,16.866455,0.000000,0.000000,0.000000,0.000000,FlatInitial
08:44:40.072 PM 02/15/2016,Teleop Disabled,0,FALSE,0,NO ERROR,0.000000,0.000000,-6000.000000,-6000.000000,Speed,Speed,0.000000,0.940000,1.630000,1.000000,102.000000,1,0,-0.000000,0.000000,1,0.000000,0.000000,0.000000,-0.496811,16.866455,0.000000,0.002000,0.000000,0.002000,FlatInitial
08:44:40.172 PM 02/15/2016,Teleop Disabled,0,FALSE,0,NO ERROR,0.000000,0.000000,-6000.000000,-6000.000000,Speed,Speed,0.000000,0.940000,1.630000,1.000000,101.000000,1,0,-0.000000,0.000000,1,0.000000,0.000000,0.000000,-0.496811,16.866455,0.000000,0.000000,0.000000,0.002000,FlatInitial
08:44:40.272 PM 02/15/2016,Teleop Disabled,0,FALSE,0,NO ERROR,0.000000,0.000000,-6000.000000,-6000.000000,Speed,Speed,0.000000,0.940000,1.630000,1.000000,101.000000,1,0,-0.000000,0.000000,1,0.000000,0.000000,0.000000,-0.496811,16.866455,0.000000,0.000000,-0.001000,0.000000,FlatInitial
08:44:40.373 PM 02/15/2016,Teleop Disabled,0,FALSE,0,NO ERROR,0.000000,0.000000,-6000.000000,-6000.000000,Speed,Speed,0.000000,0.940000,1.630000,1.000000,101.000000,1,0,-0.000000,0.000000,1,0.000000,0.000000,0.000000,-0.496811,16.866455,0.000000,-0.001000,0.000000,0.001000,FlatInitial
08:44:40.473 PM 02/15/2016,Teleop Disabled,0,FALSE,0,NO ERROR,0.000000,0.000000,-6000.000000,-6000.000000,Speed,Speed,0.000000,0.940000,1.630000,1.000000,101.000000,1,0,-0.000000,0.000000,1,0.000000,0.000000,0.000000,-0.496811,16.866455,0.000000,0.000000,0.001000,0.002000,FlatInitial
08:44:40.573 PM 02/15/2016,Teleop Disabled,0,FALSE,0,NO ERROR,0.000000,0.000000,-6000.000000,-6000.000000,Speed,Speed,0.000000,0.940000,1.630000,1.000000,102.000000,1,0,-0.000000,0.000000,1,0.000000,0.000000,0.000000,-0.496811,16.866455,0.000000,0.001000,0.001000,0.000000,FlatInitial
08:44:40.674 PM 02/15/2016,Teleop Disabled,0,FALSE,0,NO ERROR,0.000000,0.000000,-6000.000000,-6000.000000,Speed,Speed,0.000000,0.930000,1.630000,1.000000,102.000000,1,0,-0.000000,0.000000,1,0.000000,0.000000,0.000000,-0.496811,16.866455,0.000000,0.000000,0.001000,0.001000,FlatInitial
08:44:40.774 PM 02/15/2016,Teleop Disabled,0,FALSE,0,NO ERROR,0.000000,0.000000,-6000.000000,-6000.000000,Speed,Speed,0.000000,0.940000,1.630000,1.000000,101.000000,1,0,-0.000000,0.000000,1,0.000000,0.000000,0.000000,-0.496811,16.866455,0.000000,-0.002000,-0.001000,0.002000,FlatInitial
08:44:40.874 PM 02/15/2016,Teleop Disabled,0,FALSE,0,NO ERROR,0.000000,0.000000,-6000.000000,-6000.000000,Speed,Speed,0.000000,0.930000,1.630000,1.000000,101.000000,1,0,-0.000000,0.000000,1,0.000000,0.000000,0.000000,-0.496811,16.866455,0.000000,0.000000,0.001000,0.000000,FlatInitial
08:44:40.974 PM 02/15/2016,Teleop Disabled,0,FALSE,0,NO ERROR,0.000000,0.000000,-6000.000000,-6000.000000,Speed,Speed,0.000000,0.930000,1.640000,1.000000,102.000000,1,0,-0.000000,0.000000,1,0.000000,0.000000,0.000000,-0.496811,16.866455,0.000000,0.001000,0.000000,-0.002000,FlatInitial
08:44:41.075 PM 02/15/2016,Teleop Disabled,0,FALSE,0,NO ERROR,0.000000,0.000000,-6000.000000,-6000.000000,Speed,Speed,0.000000,0.930000,1.640000,1.000000,101.000000,1,0,-0.000000,0.000000,1,0.000000,0.000000,0.000000,-0.496811,16.866455,0.000000,-0.002000,0.001000,0.000000,FlatInitial
08:44:41.174 PM 02/15/2016,Teleop Disabled,0,FALSE,0,NO ERROR,0.000000,0.000000,-6000.000000,-6000.000000,Speed,Speed,0.000000,0.930000,1.640000,1.000000,101.000000,1,0,-0.000000,0.000000,1,0.000000,0.000000,0.000000,-0.496811,16.866455,0.000000,0.002000,-0.001000,0.000000,FlatInitial
08:44:41.275 PM 02/15/2016,Teleop Disabled,0,FALSE,0,NO ERROR,0.000000,0.000000,-6000.000000,-6000.000000,Speed,Speed,0.000000,0.930000,1.630000,1.000000,104.000000,1,0,-0.000000,0.000000,1,0.000000,0.000000,0.000000,-0.496811,16.866455,0.000000,0.000000,0.002000,-0.002000,FlatInitial
08:44:41.374 PM 02/15/2016,Teleop Disabled,0,FALSE,0,NO ERROR,0.000000,0.000000,-6000.000000,-6000.000000,Speed,Speed,0.000000,0.930000,1.640000,1.000000,101.000000,1,0,-0.000000,0.000000,1,0.000000,0.000000,0.000000,-0.496811,16.866455,0.000000,0.000000,0.000000,0.004000,FlatInitial
08:44:41.474 PM 02/15/2016,Teleop Disabled,0,FALSE,0,NO ERROR,0.000000,0.000000,-6000.000000,-6000.000000,Speed,Speed,0.000000,0.940000,1.640000,1.000000,103.000000,1,0,-0.000000,0.000000,1,0.000000,0.000000,0.000000,-0.496811,16.866455,0.000000,0.000000,0.001000,0.003000,FlatInitial
08:44:41.574 PM 02/15/2016,Teleop Disabled,0,FALSE,0,NO ERROR,0.000000,0.000000,-6000.000000,-6000.000000,Speed,Speed,0.000000,0.940000,1.640000,1.000000,101.000000,1,0,-0.000000,0.000000,1,0.000000,0.000000,0.000000,-0.496811,16.866455,0.000000,0.001000,0.000000,0.002000,FlatInitial
08:44:41.675 PM 02/15/2016,Teleop Disabled,0,FALSE,0,NO ERROR,0.000000,0.000000,-6000.000000,-6000.000000,Speed,Speed,-0.010000,0.930000,1.640000,1.000000,101.000000,1,0,-0.000000,0.000000,1,0.000000,0.000000,0.000000,-0.496811,16.866455,0.000000,0.000000,0.001000,0.000000,FlatInitial
08:44:41.775 PM 02/15/2016,Teleop Disabled,0,FALSE,0,NO ERROR,0.000000,0.000000,-6000.000000,-6000.000000,Speed,Speed,-0.010000,0.930000,1.650000,1.000000,101.000000,1,0,-0.000000,0.000000,1,0.000000,0.000000,0.000000,-0.496811,16.866455,0.000000,0.000000,-0.001000,0.000000,FlatInitial
08:44:41.875 PM 02/15/2016,Teleop Disabled,0,FALSE,0,NO ERROR,0.000000,0.000000,-6000.000000,-6000.000000,Speed,Speed,0.000000,0.930000,1.650000,1.000000,101.000000,1,0,-0.000000,0.000000,1,0.000000,0.000000,0.000000,-0.496811,16.866455,0.000000,0.001000,0.000000,0.003000,FlatInitial
08:44:41.975 PM 02/15/2016,Teleop Disabled,0,FALSE,0,NO ERROR,0.000000,0.000000,-6000.000000,-6000.000000,Speed,Speed,-0.010000,0.930000,1.650000,1.000000,103.000000,1,0,-0.000000,0.000000,1,0.000000,0.000000,0.000000,-0.496811,16.866455,0.000000,0.000000,0.001000,0.003000,FlatInitial
08:44:42.075 PM 02/15/2016,Teleop Disabled,0,FALSE,0,NO ERROR,0.000000,0.000000,-6000.000000,-6000.000000,Speed,Speed,-0.010000,0.930000,1.650000,1.000000,101.000000,1,0,-0.000000,0.000000,1,0.000000,0.000000,0.000000,-0.496811,16.866455,0.000000,0.002000,0.001000,0.004000,FlatInitial
08:44:42.175 PM 02/15/2016,Teleop Disabled,0,FALSE,0,NO ERROR,0.000000,0.000000,-6000.000000,-6000.000000,Speed,Speed,-0.010000,0.940000,1.650000,1.000000,101.000000,1,0,-0.000000,0.000000,1,0.000000,0.000000,0.000000,-0.496811,16.866455,0.000000,0.000000,0.002000,0.000000,FlatInitial
08:44:42.275 PM 02/15/2016,Teleop Disabled,0,FALSE,0,NO ERROR,0.000000,0.000000,-6000.000000,-6000.000000,Speed,Speed,-0.010000,0.930000,1.650000,1.000000,101.000000,1,0,-0.000000,0.000000,1,0.000000,0.000000,0.000000,-0.496811,16.866455,0.000000,0.000000,0.000000,0.003000,FlatInitial
08:44:42.375 PM 02/15/2016,Teleop Disabled,0,FALSE,0,NO ERROR,0.000000,0.000000,-6000.000000,-6000.000000,Speed,Speed,-0.010000,0.930000,1.650000,1.000000,102.000000,1,0,-0.000000,0.000000,1,0.000000,0.000000,0.000000,-0.496811,16.866455,0.000000,0.000000,-0.001000,0.002000,FlatInitial
08:44:42.475 PM 02/15/2016,Teleop Disabled,0,FALSE,0,NO ERROR,0.000000,0.000000,-6000.000000,-6000.000000,Speed,Speed,-0.010000,0.930000,1.650000,1.000000,101.000000,1,0,-0.000000,0.000000,1,0.000000,0.000000,0.000000,-0.496811,16.866455,0.000000,0.001000,0.000000,0.006000,FlatInitial
08:44:42.576 PM 02/15/2016,Teleop Disabled,0,FALSE,0,NO ERROR,0.000000,0.000000,-6000.000000,-6000.000000,Speed,Speed,-0.020000,0.930000,1.650000,1.000000,103.000000,1,0,-0.000000,0.000000,1,0.000000,0.000000,0.000000,-0.496811,16.866455,0.000000,0.000000,0.001000,0.003000,FlatInitial
08:44:42.675 PM 02/15/2016,Teleop Disabled,0,FALSE,0,NO ERROR,0.000000,0.000000,-6000.000000,-6000.000000,Speed,Speed,-0.010000,0.930000,1.650000,1.000000,101.000000,1,0,-0.000000,0.000000,1,0.000000,0.000000,0.000000,-0.496811,16.866455,0.000000,0.002000,-0.001000,0.002000,FlatInitial
08:44:42.776 PM 02/15/2016,Teleop Disabled,0,FALSE,0,NO ERROR,0.000000,0.000000,-6000.000000,-6000.000000,Speed,Speed,-0.020000,0.940000,1.640000,1.000000,100.000000,1,0,-0.000000,0.000000,1,0.000000,0.000000,0.000000,-0.496811,16.866455,0.000000,0.001000,-0.001000,0.004000,FlatInitial
08:44:42.875 PM 02/15/2016,Teleop Disabled,0,FALSE,0,NO ERROR,0.000000,0.000000,-6000.000000,-6000.000000,Speed,Speed,-0.020000,0.940000,1.640000,1.000000,102.000000,1,0,-0.000000,0.000000,1,0.000000,0.000000,0.000000,-0.496811,16.866455,0.000000,0.000000,0.000000,0.002000,FlatInitial
08:44:42.976 PM 02/15/2016,Teleop Disabled,0,FALSE,0,NO ERROR,0.000000,0.000000,-6000.000000,-6000.000000,Speed,Speed,-0.010000,0.940000,1.650000,1.000000,101.000000,1,0,-0.000000,0.000000,1,0.000000,0.000000,0.000000,-0.496811,16.866455,0.000000,0.000000,0.001000,0.004000,FlatInitial
08:44:43.076 PM 02/15/2016,Teleop Disabled,0,FALSE,0,NO ERROR,0.000000,0.000000,-6000.000000,-6000.000000,Speed,Speed,-0.020000,0.950000,1.640000,1.000000,103.000000,1,0,-0.000000,0.000000,1,0.000000,0.000000,0.000000,-0.496811,16.866455,0.000000,0.001000,0.000000,0.003000,FlatInitial
08:44:43.177 PM 02/15/2016,Teleop Disabled,0,FALSE,0,NO ERROR,0.000000,0.000000,-6000.000000,-6000.000000,Speed,Speed,-0.020000,0.940000,1.640000,1.000000,101.000000,1,0,-0.000000,0.000000,1,0.000000,0.000000,0.000000,-0.496811,16.866455,0.000000,0.000000,0.000000,0.005000,FlatInitial
08:44:43.277 PM 02/15/2016,Teleop Disabled,0,FALSE,0,NO ERROR,0.000000,0.000000,-6000.000000,-6000.000000,Speed,Speed,-0.020000,0.950000,1.640000,1.000000,101.000000,1,0,-0.000000,0.000000,1,0.000000,0.000000,0.000000,-0.496811,16.866455,0.000000,-0.001000,0.000000,0.004000,FlatInitial
08:44:43.377 PM 02/15/2016,Teleop Disabled,0,FALSE,0,NO ERROR,0.000000,0.000000,-6000.000000,-6000.000000,Speed,Speed,-0.020000,0.950000,1.640000,1.000000,103.000000,1,0,-0.000000,0.000000,1,0.000000,0.000000,0.000000,-0.496811,16.866455,0.000000,0.000000,-0.002000,0.002000,FlatInitial
08:44:43.478 PM 02/15/2016,Teleop Disabled,0,FALSE,0,NO ERROR,0.000000,0.000000,-6000.000000,-6000.000000,Speed,Speed,-0.020000,0.950000,1.630000,1.000000,101.000000,1,0,-0.000000,0.000000,1,0.000000,0.000000,0.000000,-0.496811,16.866455,0.000000,0.001000,0.000000,0.000000,FlatInitial
08:44:43.578 PM 02/15/2016,Teleop Enabled,0,FALSE,0,NO ERROR,0.000000,0.000000,-6000.000000,-6000.000000,Speed,Speed,-0.020000,0.950000,1.630000,1.000000,102.000000,1,0,-0.000000,0.000000,1,0.000000,0.000000,0.000000,-0.496811,16.866455,0.000000,-0.001000,-0.001000,0.004000,FlatInitial
08:44:43.678 PM 02/15/2016,Teleop Enabled,0,FALSE,0,NO ERROR,-37.646484,62.988281,-6000.000000,-6000.000000,Speed,Speed,-0.020000,0.940000,1.620000,1.000000,101.000000,1,0,-0.000000,0.000000,1,-0.008057,0.000000,0.000000,-0.496902,16.866455,0.000000,0.005000,0.015000,0.016000,FlatInitial
08:44:43.778 PM 02/15/2016,Teleop Enabled,0,FALSE,0,NO ERROR,-1283.349609,1429.394531,-6000.000000,-6000.000000,Speed,Speed,0.000000,0.950000,1.550000,1.000000,102.000000,1,0,-0.000000,0.000000,1,-0.013123,-0.013275,0.000000,-0.497284,16.866272,0.000000,-0.037000,0.013000,-0.076000,FlatInitial
08:44:43.878 PM 02/15/2016,Teleop Enabled,0,FALSE,0,NO ERROR,-3111.914062,3266.455078,-6000.000000,-6000.000000,Speed,Speed,0.000000,0.930000,1.580000,1.000000,101.000000,1,0,-0.000000,0.000000,1,-0.028412,0.000000,0.000000,-0.498398,16.866104,0.000000,-0.025000,-0.011000,-0.032000,FlatInitial
08:44:43.979 PM 02/15/2016,Teleop Enabled,0,FALSE,0,NO ERROR,-4613.818359,4779.492188,-6000.000000,-6000.000000,Speed,Speed,0.000000,0.940000,1.600000,1.000000,101.000000,1,0,-0.000000,0.000000,1,0.000000,0.000793,0.000000,-0.499893,16.866104,0.000000,-0.010000,0.020000,0.011000,FlatInitial
08:44:44.080 PM 02/15/2016,Teleop Enabled,0,FALSE,0,NO ERROR,-5579.296875,5598.632812,-6000.000000,-6000.000000,Speed,Speed,-0.010000,0.900000,1.680000,1.000000,102.000000,1,0,-0.000000,0.000000,1,0.013016,-0.028351,0.000000,-0.499390,16.865280,0.000000,-0.027000,0.011000,-0.021000,FlatInitial
08:44:44.179 PM 02/15/2016,Teleop Enabled,0,FALSE,0,NO ERROR,-5986.523438,6034.570312,-6000.000000,-6000.000000,Speed,Speed,-0.030000,0.840000,1.660000,1.000000,102.000000,1,0,-0.000000,0.000000,1,0.019424,-0.036636,0.000000,-0.498856,16.863754,0.000000,0.044000,0.053000,-0.085000,FlatInitial
08:44:44.280 PM 02/15/2016,Teleop Enabled,0,FALSE,0,NO ERROR,-6108.984375,6121.875000,-6000.000000,-6000.000000,Speed,Speed,-0.020000,0.830000,1.770000,1.000000,102.000000,1,0,-0.000000,0.000000,1,0.077927,-0.038879,0.000000,-0.496216,16.862213,0.000000,0.094000,-0.055000,0.022000,FlatInitial
08:44:44.380 PM 02/15/2016,Teleop Enabled,0,FALSE,0,NO ERROR,-6119.531250,6102.539062,-6000.000000,-6000.000000,Speed,Speed,-0.030000,0.850000,1.690000,1.000000,103.000000,1,0,-0.000000,0.000000,1,0.145599,-0.051437,0.000000,-0.491196,16.860077,0.000000,0.016000,0.026000,0.094000,FlatInitial
08:44:44.480 PM 02/15/2016,Teleop Enabled,0,FALSE,0,NO ERROR,-6106.054688,6067.382812,-6000.000000,-6000.000000,Speed,Speed,-0.040000,0.820000,1.800000,1.000000,105.000000,1,0,-0.000000,0.000000,1,0.180801,-0.015701,0.000000,-0.481049,16.858322,0.000000,-0.015000,-0.007000,0.021000,FlatInitial
08:44:44.580 PM 02/15/2016,Teleop Enabled,0,FALSE,0,NO ERROR,-6081.445312,6043.359375,-6000.000000,-6000.000000,Speed,Speed,-0.040000,0.780000,1.800000,1.000000,102.000000,1,0,-0.000000,0.000000,1,0.169540,-0.006577,0.000000,-0.474091,16.857895,0.000000,-0.017000,0.017000,0.035000,FlatInitial
08:44:44.680 PM 02/15/2016,Teleop Enabled,0,FALSE,0,NO ERROR,-6055.664062,6028.710938,-6000.000000,-6000.000000,Speed,Speed,-0.040000,0.780000,1.730000,1.000000,102.000000,1,0,-0.000000,0.000000,1,-0.009552,0.026352,0.000000,-0.472595,16.858566,0.000000,-0.040000,0.043000,0.062000,FlatInitial
08:44:44.780 PM 02/15/2016,Teleop Enabled,0,FALSE,0,NO ERROR,-6038.085938,6012.304688,-6000.000000,-6000.000000,Speed,Speed,-0.050000,0.800000,1.720000,1.000000,102.000000,1,0,-0.000000,0.000000,1,-0.032913,0.070206,0.000000,-0.473999,16.861649,0.000000,-0.039000,0.067000,0.034000,FlatInitial
08:44:44.881 PM 02/15/2016,Teleop Enabled,0,FALSE,0,NO ERROR,-6025.195312,6003.515625,-6000.000000,-6000.000000,Speed,Speed,-0.050000,0.850000,1.920000,1.000000,101.000000,1,0,-0.000000,0.000000,1,-0.053986,0.123749,0.000000,-0.476349,16.866669,0.000000,-0.021000,0.098000,0.027000,FlatInitial
08:44:44.981 PM 02/15/2016,Teleop Enabled,0,FALSE,0,NO ERROR,-6013.476562,6000.000000,-6000.000000,-6000.000000,Speed,Speed,-0.060000,0.900000,2.150000,1.000000,101.000000,1,0,-0.000000,0.000000,1,-0.066330,0.188080,0.000000,-0.479507,16.874771,0.000000,-0.021000,0.057000,0.053000,FlatInitial
08:44:45.081 PM 02/15/2016,Teleop Enabled,0,FALSE,0,NO ERROR,-6009.960938,5993.554688,-6000.000000,-6000.000000,Speed,Speed,-0.050000,0.930000,2.350000,1.000000,102.000000,1,0,-0.000000,0.000000,1,-0.080429,0.259918,0.000000,-0.483185,16.886215,0.000000,-0.017000,0.092000,0.008000,FlatInitial
08:44:45.182 PM 02/15/2016,Teleop Enabled,0,FALSE,0,NO ERROR,-6010.546875,5991.796875,-6000.000000,-6000.000000,Speed,Speed,0.000000,0.960000,2.460000,1.000000,102.000000,1,0,-0.000000,0.000000,1,-0.122925,0.315002,0.000000,-0.488419,16.901047,0.000000,-0.029000,0.087000,0.024000,FlatInitial
08:44:45.282 PM 02/15/2016,Teleop Enabled,0,FALSE,0,NO ERROR,-6009.375000,5993.554688,-6000.000000,-6000.000000,Speed,Speed,-0.010000,0.990000,2.610000,1.000000,100.000000,1,0,-0.000000,0.000000,1,-0.164597,0.401749,0.000000,-0.495773,16.919403,0.000000,-0.045000,0.127000,0.005000,FlatInitial
08:44:45.382 PM 02/15/2016,Teleop Enabled,0,FALSE,0,NO ERROR,-6009.375000,5998.242188,-6000.000000,-6000.000000,Speed,Speed,-0.080000,0.990000,2.750000,1.000000,110.000000,1,0,-0.000000,0.000000,1,-0.222977,0.523712,0.000000,-0.505753,16.943054,0.000000,-0.090000,0.141000,0.100000,FlatInitial
08:44:45.482 PM 02/15/2016,Teleop Enabled,0,FALSE,0,NO ERROR,-6008.789062,6005.859375,-6000.000000,-6000.000000,Speed,Speed,-0.080000,0.950000,2.970000,1.000000,101.000000,1,0,-0.000000,0.000000,1,-0.287064,0.619919,0.000000,-0.518784,16.971954,0.000000,-0.049000,0.144000,0.107000,FlatInitial
08:44:45.583 PM 02/15/2016,Teleop Enabled,0,FALSE,0,NO ERROR,-6005.273438,6011.718750,-6000.000000,-6000.000000,Speed,Speed,-0.020000,0.980000,3.230000,1.000000,104.000000,1,0,-0.000000,0.000000,1,-0.353180,0.740555,0.000000,-0.535034,17.006470,0.000000,-0.087000,0.132000,0.103000,FlatInitial
08:44:45.684 PM 02/15/2016,Teleop Enabled,0,FALSE,0,NO ERROR,-6004.101562,6011.718750,-6000.000000,-6000.000000,Speed,Speed,-0.010000,1.000000,3.160000,1.000000,101.000000,1,0,-0.000000,0.000000,1,-0.427917,0.847198,0.000000,-0.554993,17.046753,0.000000,-0.002000,0.058000,0.022000,FlatInitial
08:44:45.784 PM 02/15/2016,Teleop Enabled,0,FALSE,0,NO ERROR,-5992.382812,6004.101562,-6000.000000,-6000.000000,Speed,Speed,-0.070000,1.050000,3.340000,1.000000,101.000000,1,0,-0.000000,0.000000,1,0.000000,0.899323,0.000000,-0.572891,17.090927,0.000000,0.006000,0.082000,-0.005000,FlatInitial
08:44:45.884 PM 02/15/2016,Teleop Enabled,0,FALSE,0,NO ERROR,-5985.351562,5997.656250,-6000.000000,-6000.000000,Speed,Speed,-0.100000,1.050000,3.250000,1.000000,102.000000,1,0,-0.000000,0.000000,1,-0.044235,0.010284,0.000000,-0.574570,17.100266,0.000000,0.061000,0.006000,-0.038000,FlatInitial
08:44:45.985 PM 02/15/2016,Teleop Enabled,0,FALSE,0,NO ERROR,-5984.765625,5997.070312,-6000.000000,-6000.000000,Speed,Speed,-0.140000,1.120000,3.410000,1.000000,101.000000,1,0,-0.000000,0.000000,1,-0.069077,-0.008514,0.000000,-0.577301,17.100143,0.000000,-0.047000,-0.032000,0.062000,FlatInitial
08:44:46.086 PM 02/15/2016,Teleop Enabled,0,FALSE,0,NO ERROR,-5988.867188,5997.656250,-6000.000000,-6000.000000,Speed,Speed,0.000000,1.220000,3.410000,1.000000,101.000000,1,0,-0.000000,0.000000,1,-0.109024,-0.007858,0.000000,-0.582352,17.099518,0.000000,-0.076000,-0.035000,0.030000,FlatInitial
08:44:46.187 PM 02/15/2016,Teleop Enabled,0,FALSE,0,NO ERROR,-5996.484375,5997.656250,-6000.000000,-6000.000000,Speed,Speed,0.100000,1.260000,3.180000,1.000000,102.000000,1,0,-0.000000,0.000000,1,-0.147232,0.040085,0.000000,-0.589081,17.099899,0.000000,-0.034000,0.086000,0.092000,FlatInitial
08:44:46.287 PM 02/15/2016,Teleop Enabled,0,FALSE,0,NO ERROR,-5995.898438,5998.828125,-6000.000000,-6000.000000,Speed,Speed,0.130000,1.510000,2.690000,1.000000,101.000000,1,0,-0.000000,0.000000,1,0.033203,0.066406,0.000000,-0.589996,17.103058,0.000000,0.067000,-0.028000,-0.084000,FlatInitial
08:44:46.388 PM 02/15/2016,Teleop Enabled,0,FALSE,0,NO ERROR,-6001.757812,6005.273438,-6000.000000,-6000.000000,Speed,Speed,-0.040000,1.440000,3.020000,1.000000,102.000000,1,0,-0.000000,0.000000,1,0.019196,0.021729,0.000000,-0.588577,17.105026,0.000000,-0.045000,-0.032000,0.085000,FlatInitial
08:44:46.490 PM 02/15/2016,Teleop Enabled,0,FALSE,0,NO ERROR,-6004.687500,6006.445312,-6000.000000,-6000.000000,Speed,Speed,-0.320000,1.580000,2.430000,1.000000,103.000000,1,0,-0.000000,0.000000,1,0.008377,-0.023956,0.000000,-0.588196,17.104477,0.000000,-0.014000,0.000000,0.133000,FlatInitial
08:44:46.590 PM 02/15/2016,Teleop Enabled,0,FALSE,0,NO ERROR,-6008.203125,6007.617188,-6000.000000,-6000.000000,Speed,Speed,-0.540000,1.570000,2.170000,1.000000,100.000000,1,0,-0.000000,0.000000,1,0.000000,0.010468,0.000000,-0.588028,17.104477,0.000000,0.006000,0.004000,0.130000,FlatInitial
08:44:46.692 PM 02/15/2016,Teleop Enabled,0,FALSE,0,NO ERROR,-6012.304688,6011.718750,-6000.000000,-6000.000000,Speed,Speed,-0.480000,1.600000,1.960000,1.000000,102.000000,1,0,-0.000000,0.000000,1,0.018448,-0.002151,0.000000,-0.587692,17.104370,0.000000,0.032000,-0.028000,0.190000,FlatInitial
08:44:46.792 PM 02/15/2016,Teleop Enabled,0,FALSE,0,NO ERROR,-6011.718750,6010.546875,-6000.000000,-6000.000000,Speed,Speed,-0.500000,1.630000,1.830000,1.000000,104.000000,1,0,-0.000000,0.000000,1,0.080856,-0.020157,0.000000,-0.584671,17.103012,0.000000,0.026000,-0.035000,0.450000,FlatInitial
08:44:46.893 PM 02/15/2016,Teleop Enabled,0,FALSE,0,NO ERROR,-6005.859375,6007.031250,-6000.000000,-6000.000000,Speed,Speed,-0.720000,1.550000,2.500000,1.000000,101.000000,1,0,-0.000000,0.000000,1,0.094971,-0.009888,0.000000,-0.581070,17.102280,0.000000,-0.002000,-0.023000,0.341000,FlatInitial
08:44:46.994 PM 02/15/2016,Teleop Enabled,0,FALSE,0,NO ERROR,-6002.929688,6007.617188,-6000.000000,-6000.000000,Speed,Speed,-0.790000,1.470000,2.440000,1.000000,102.000000,1,0,-0.000000,0.000000,1,0.127808,-0.052017,0.000000,-0.574142,17.100449,0.000000,0.021000,0.033000,0.218000,FlatInitial
08:44:47.094 PM 02/15/2016,Teleop Enabled,0,FALSE,0,NO ERROR,-5998.242188,6004.101562,-6000.000000,-6000.000000,Speed,Speed,-0.750000,1.590000,1.820000,1.000000,101.000000,1,0,-0.000000,0.000000,1,0.140320,-0.070648,0.000000,-0.568726,17.098083,0.000000,-0.116000,0.005000,0.272000,FlatInitial
08:44:47.195 PM 02/15/2016,Teleop Enabled,0,FALSE,0,NO ERROR,-5990.625000,5991.210938,-6000.000000,-6000.000000,Speed,Speed,-0.810000,1.440000,2.580000,1.000000,102.000000,1,0,-0.000000,0.000000,1,0.171143,0.008911,0.000000,-0.558838,17.098267,0.000000,-0.050000,0.074000,0.215000,FlatInitial
08:44:47.296 PM 02/15/2016,Teleop Enabled,0,FALSE,0,NO ERROR,-5988.867188,5991.210938,-6000.000000,-6000.000000,Speed,Speed,-0.770000,1.360000,2.500000,1.000000,103.000000,1,0,-0.000000,0.000000,1,0.164764,-0.006943,0.000000,-0.550751,17.098236,0.000000,-0.014000,0.056000,0.134000,FlatInitial
08:44:47.397 PM 02/15/2016,Teleop Enabled,0,FALSE,0,NO ERROR,-5988.867188,5989.453125,-6000.000000,-6000.000000,Speed,Speed,-0.790000,1.420000,2.280000,1.000000,101.000000,1,0,-0.000000,0.000000,1,0.152496,-0.006485,0.000000,-0.543182,17.097961,0.000000,-0.036000,-0.020000,0.089000,FlatInitial
08:44:47.497 PM 02/15/2016,Teleop Enabled,0,FALSE,0,NO ERROR,-5994.726562,5989.453125,-6000.000000,-6000.000000,Speed,Speed,-0.790000,1.360000,2.480000,1.000000,103.000000,1,0,-0.000000,0.000000,1,0.175171,-0.033890,0.000000,-0.534912,17.096649,0.000000,0.033000,0.013000,0.053000,FlatInitial
08:44:47.598 PM 02/15/2016,Teleop Enabled,0,FALSE,0,NO ERROR,-5994.726562,5994.726562,-6000.000000,-6000.000000,Speed,Speed,-0.780000,1.470000,2.350000,1.000000,103.000000,1,0,-0.000000,0.000000,1,0.232422,0.000000,0.000000,-0.524445,17.095932,0.000000,0.022000,0.019000,0.071000,FlatInitial
08:44:47.698 PM 02/15/2016,Teleop Enabled,0,FALSE,0,NO ERROR,-5995.312500,5998.242188,-6000.000000,-6000.000000,Speed,Speed,-0.790000,1.480000,2.480000,1.000000,102.000000,1,0,-0.000000,0.000000,1,0.268967,-0.035324,0.000000,-0.511734,17.094833,0.000000,0.037000,0.013000,0.086000,FlatInitial
08:44:47.798 PM 02/15/2016,Teleop Enabled,0,FALSE,0,NO ERROR,-6001.757812,6000.585938,-6000.000000,-6000.000000,Speed,Speed,-0.790000,1.490000,2.380000,1.000000,102.000000,1,0,-0.000000,0.000000,1,0.000000,-0.075500,0.000000,-0.500641,17.091995,0.000000,-0.010000,-0.087000,0.017000,FlatInitial
08:44:47.899 PM 02/15/2016,Teleop Enabled,0,FALSE,0,NO ERROR,-6004.687500,6004.687500,-6000.000000,-6000.000000,Speed,Speed,-0.800000,1.480000,2.350000,1.000000,102.000000,1,0,-0.000000,0.000000,1,0.000000,-0.121613,0.000000,-0.500641,17.086563,0.000000,0.000000,0.000000,0.088000,FlatInitial
08:44:48.000 PM 02/15/2016,Teleop Enabled,0,FALSE,0,NO ERROR,-6008.789062,6008.203125,-6000.000000,-6000.000000,Speed,Speed,-0.790000,1.430000,2.300000,1.000000,101.000000,1,0,-0.000000,0.000000,1,0.005051,-0.155533,0.000000,-0.500748,17.079330,0.000000,0.012000,0.044000,0.072000,FlatInitial
08:44:48.102 PM 02/15/2016,Teleop Enabled,0,FALSE,0,NO ERROR,-6005.273438,6009.375000,-6000.000000,-6000.000000,Speed,Speed,-0.800000,1.430000,2.200000,1.000000,101.000000,1,0,-0.370079,0.370079,1,0.051147,-0.165573,0.000000,-0.499054,17.071213,0.000000,-0.024000,-0.008000,0.099000,FlatInitial
08:44:48.202 PM 02/15/2016,Teleop Enabled,0,FALSE,0,NO ERROR,-6001.757812,6008.789062,-6000.000000,-6000.000000,Speed,Speed,0.800000,0.830000,1.930000,1.000000,104.000000,1,0,-0.000000,0.000000,1,-0.028870,0.009125,0.000000,-0.498917,17.066330,0.000000,0.000000,0.054000,0.142000,FlatInitial
08:44:48.302 PM 02/15/2016,Teleop Enabled,0,FALSE,0,NO ERROR,-5967.773438,5979.492188,-6000.000000,-6000.000000,Speed,Speed,5.450000,0.750000,1.950000,1.000000,101.000000,1,0,-0.362205,-0.362205,1,0.097656,0.041718,0.000000,-0.497772,17.068115,0.000000,0.145000,-0.045000,0.118000,FlatInitial
08:44:48.402 PM 02/15/2016,Teleop Enabled,0,FALSE,0,NO ERROR,-5929.101562,5953.710938,-6000.000000,-6000.000000,Speed,Speed,7.050000,1.300000,3.720000,1.000000,103.000000,1,0,-0.000000,0.000000,1,0.354095,0.107239,0.000000,-0.485199,17.071381,0.000000,-0.065000,-0.161000,0.230000,FlatInitial
08:44:48.501 PM 02/15/2016,Teleop Enabled,0,FALSE,0,NO ERROR,-5938.476562,5929.687500,-6000.000000,-6000.000000,Speed,Speed,6.690000,1.320000,1.750000,1.000000,104.000000,1,0,-0.000000,0.000000,1,0.360199,0.041901,0.000000,-0.467728,17.075546,0.000000,0.015000,-0.114000,0.280000,FlatInitial
08:44:48.602 PM 02/15/2016,Teleop Enabled,0,FALSE,0,NO ERROR,-5973.046875,5957.812500,-6000.000000,-6000.000000,Speed,Speed,6.420000,1.320000,1.230000,1.000000,101.000000,1,0,-0.330709,-0.330709,1,0.385162,-0.011887,0.000000,-0.444366,17.076111,0.000000,-0.031000,0.049000,0.126000,FlatInitial
08:44:48.702 PM 02/15/2016,Teleop Enabled,0,FALSE,0,NO ERROR,-6015.234375,6019.335938,-6000.000000,-6000.000000,Speed,Speed,5.830000,1.400000,3.780000,1.000000,101.000000,1,0,-0.448819,-0.448819,1,0.541077,0.077927,0.000000,-0.425323,17.077759,0.000000,0.171000,0.259000,-0.126000,FlatInitial
08:44:48.801 PM 02/15/2016,Teleop Enabled,0,FALSE,0,NO ERROR,-6014.648438,6017.578125,-6000.000000,-6000.000000,Speed,Speed,4.600000,1.610000,4.640000,1.000000,101.000000,1,0,-0.448819,-0.448819,1,0.672226,0.354050,0.000000,-0.394470,17.089706,0.000000,0.262000,0.426000,0.051000,FlatInitial
08:44:48.902 PM 02/15/2016,Teleop Enabled,0,FALSE,0,NO ERROR,-5966.601562,5948.437500,-6000.000000,-6000.000000,Speed,Speed,2.640000,1.860000,5.350000,1.000000,102.000000,1,0,-0.448819,-0.448819,1,0.773621,0.643280,0.000000,-0.356842,17.116776,0.000000,-0.087000,0.352000,0.049000,FlatInitial
08:44:49.003 PM 02/15/2016,Teleop Enabled,0,FALSE,0,NO ERROR,-5932.617188,5920.898438,-6000.000000,-6000.000000,Speed,Speed,0.390000,1.700000,6.010000,1.000000,101.000000,0,0,-0.456693,-0.456693,1,0.696533,0.898026,0.000000,-0.313278,17.165222,0.000000,-0.049000,0.147000,0.042000,FlatInitial
08:44:49.103 PM 02/15/2016,Teleop Enabled,0,FALSE,0,NO ERROR,-5937.304688,5940.234375,-6000.000000,-6000.000000,Speed,Speed,-1.770000,1.710000,6.240000,1.000000,102.000000,0,0,-0.582553,-0.330833,1,0.648849,0.978714,0.000000,-0.278946,17.212372,0.000000,-0.093000,-0.018000,0.204000,FlatInitial
08:44:49.203 PM 02/15/2016,Teleop Enabled,0,FALSE,0,NO ERROR,-5963.671875,5978.906250,-6000.000000,-6000.000000,Speed,Speed,-3.440000,1.430000,6.640000,1.000000,101.000000,0,0,-0.480315,0.480315,1,0.520279,1.015594,0.000000,-0.250488,17.262512,0.000000,-0.151000,0.068000,0.065000,FlatInitial
08:44:49.303 PM 02/15/2016,Teleop Enabled,0,FALSE,0,NO ERROR,-5991.796875,6008.789062,-6000.000000,-6000.000000,Speed,Speed,-3.130000,0.730000,5.660000,1.000000,101.000000,1,0,-0.480315,0.480315,1,0.323349,0.880020,0.000000,-0.229568,17.310272,0.000000,-0.151000,0.068000,0.065000,FlatInitial
08:44:49.403 PM 02/15/2016,Teleop Enabled,0,FALSE,0,NO ERROR,-5985.937500,6007.031250,-6000.000000,-6000.000000,Speed,Speed,1.760000,0.000000,3.170000,1.000000,101.000000,1,0,-0.000000,0.000000,1,0.232361,0.560837,0.000000,-0.217651,17.344269,0.000000,0.184000,-0.387000,-0.638000,FlatInitial
08:44:49.503 PM 02/15/2016,Teleop Enabled,0,FALSE,0,NO ERROR,-5963.671875,5992.382812,-6000.000000,-6000.000000,Speed,Speed,6.700000,0.840000,3.700000,1.000000,102.000000,1,0,-0.000000,0.000000,1,0.399475,0.289795,0.000000,-0.204483,17.360168,0.000000,0.094000,-0.452000,0.536000,FlatInitial
08:44:49.603 PM 02/15/2016,Teleop Enabled,0,FALSE,0,NO ERROR,-6026.953125,6038.085938,-6000.000000,-6000.000000,Speed,Speed,10.560000,0.600000,2.650000,1.000000,103.000000,1,0,-0.000000,0.000000,1,0.304550,0.010452,0.000000,-0.181396,17.365463,0.000000,-0.141000,-0.036000,0.216000,FlatInitial
08:44:49.704 PM 02/15/2016,Teleop Enabled,0,FALSE,0,NO ERROR,-6084.375000,6061.523438,-6000.000000,-6000.000000,Speed,Speed,13.710000,0.830000,1.770000,1.000000,102.000000,1,0,-0.283465,0.283465,1,0.321915,-0.048187,0.000000,-0.166656,17.365082,0.000000,-0.141000,-0.036000,0.216000,FlatInitial
08:44:49.804 PM 02/15/2016,Teleop Enabled,0,FALSE,0,NO ERROR,-6090.234375,6063.281250,-6000.000000,-6000.000000,Speed,Speed,17.360000,0.590000,2.130000,1.000000,102.000000,1,0,-0.307087,0.307087,1,0.323288,-0.060425,0.000000,-0.150269,17.361603,0.000000,-0.091000,0.094000,0.009000,FlatInitial
08:44:49.905 PM 02/15/2016,Teleop Enabled,0,FALSE,0,NO ERROR,-6039.843750,5917.382812,-6000.000000,-6000.000000,Speed,Speed,23.370000,0.390000,1.390000,1.000000,102.000000,1,0,-0.000000,0.000000,1,0.306229,-0.059570,0.000000,-0.136078,17.358871,0.000000,-0.091000,0.094000,0.009000,FlatInitial
08:44:50.005 PM 02/15/2016,Teleop Enabled,0,FALSE,0,NO ERROR,-5772.656250,5449.218750,-6000.000000,-6000.000000,Speed,Speed,27.970000,0.770000,1.710000,1.000000,102.000000,1,0,-0.000000,0.000000,1,0.355072,-0.353958,0.000000,-0.117004,17.348358,0.000000,-0.173000,0.046000,0.272000,FlatInitial
08:44:50.105 PM 02/15/2016,Teleop Enabled,0,FALSE,0,NO ERROR,-3409.570312,3239.355469,-6000.000000,-6000.000000,Speed,Speed,30.160000,0.710000,0.600000,1.000000,100.000000,1,0,-0.000000,0.000000,1,0.270218,-0.331299,0.000000,-0.101990,17.331085,0.000000,0.144000,0.135000,-0.217000,FlatInitial
08:44:50.205 PM 02/15/2016,Teleop Enabled,0,FALSE,0,NO ERROR,-3510.498047,3731.982422,-6000.000000,-6000.000000,Speed,Speed,30.660000,1.350000,0.280000,1.000000,101.000000,1,0,-0.000000,0.000000,1,0.394440,-0.356583,0.000000,-0.084167,17.313873,0.000000,0.007000,0.004000,-0.017000,FlatInitial
08:44:50.305 PM 02/15/2016,Teleop Enabled,0,FALSE,0,NO ERROR,-4883.203125,4756.201172,-6000.000000,-6000.000000,Speed,Speed,30.410000,0.990000,1.270000,1.000000,101.000000,1,0,-0.000000,0.000000,1,0.320038,-0.308212,0.000000,-0.066971,17.297195,0.000000,0.007000,0.004000,-0.017000,FlatInitial
08:44:50.405 PM 02/15/2016,Teleop Enabled,0,FALSE,0,NO ERROR,-5700.585938,5548.242188,0.000000,0.000000,Speed,Speed,30.260000,0.970000,1.010000,2.000000,101.000000,1,0,-0.000000,0.000000,1,0.412445,-0.272903,0.000000,-0.048447,17.282715,0.000000,0.091000,0.093000,-0.064000,FlatInitial
08:44:50.505 PM 02/15/2016,Teleop Enabled,0,FALSE,0,NO ERROR,-5940.234375,5736.914062,0.000000,0.000000,Speed,Speed,30.250000,0.930000,0.950000,2.000000,101.000000,1,0,0.244094,0.244094,1,0.495590,-0.223083,0.000000,-0.025452,17.270798,0.000000,0.029000,0.008000,0.060000,FlatInitial
08:44:50.605 PM 02/15/2016,Teleop Enabled,0,FALSE,0,NO ERROR,-5725.195312,5268.164062,0.000000,0.000000,Speed,Speed,30.580000,0.780000,-0.110000,2.000000,101.000000,1,0,0.251969,0.251969,1,0.420471,-0.327362,0.000000,-0.003128,17.256653,0.000000,0.029000,0.008000,0.060000,FlatInitial
08:44:50.706 PM 02/15/2016,Teleop Enabled,0,FALSE,0,NO ERROR,-5333.789062,4602.685547,0.000000,0.000000,Speed,Speed,31.560000,0.800000,-0.930000,2.000000,101.000000,1,0,0.259843,0.259843,1,0.420471,-0.327362,0.000000,-0.003128,17.256653,0.000000,-0.087000,-0.145000,0.148000,FlatInitial
08:44:50.806 PM 02/15/2016,Teleop Enabled,0,FALSE,0,NO ERROR,-4945.898438,4076.513672,0.000000,0.000000,Speed,Speed,32.760000,0.740000,-0.480000,2.000000,103.000000,1,0,0.259843,0.259843,1,0.369965,-0.456985,0.000000,0.019455,17.232193,0.000000,0.059000,-0.147000,0.002000,FlatInitial
08:44:50.906 PM 02/15/2016,Teleop Enabled,0,FALSE,0,NO ERROR,-4564.306641,3422.460938,0.000000,0.000000,Speed,Speed,34.540000,0.510000,-0.300000,2.000000,101.000000,1,0,0.244094,-0.244094,1,0.267654,-0.531631,0.000000,0.047638,17.186920,0.000000,-0.041000,0.063000,0.072000,FlatInitial
08:44:51.006 PM 02/15/2016,Teleop Enabled,0,FALSE,0,NO ERROR,-4195.458984,2781.445312,0.000000,0.000000,Speed,Speed,34.540000,0.510000,-0.300000,2.000000,102.000000,1,0,0.299213,-0.299213,1,0.267654,-0.531631,0.000000,0.047638,17.186920,0.000000,0.120000,-0.008000,-0.066000,FlatInitial
08:44:51.106 PM 02/15/2016,Teleop Enabled,0,FALSE,0,NO ERROR,-3844.335937,2129.003906,0.000000,0.000000,Speed,Speed,35.640000,0.880000,0.710000,2.000000,101.000000,1,0,0.299213,-0.299213,1,0.464996,0.026260,0.000000,0.070251,17.181778,0.000000,0.099000,0.153000,-0.146000,FlatInitial
08:44:51.207 PM 02/15/2016,Teleop Enabled,0,FALSE,0,NO ERROR,-3500.244141,1487.402344,0.000000,0.000000,Speed,Speed,32.020000,1.220000,1.450000,2.000000,103.000000,1,0,0.299213,-0.299213,1,0.608093,0.103119,0.000000,0.096985,17.185364,0.000000,0.230000,0.051000,-0.018000,FlatInitial
08:44:51.310 PM 02/15/2016,Teleop Enabled,0,FALSE,0,NO ERROR,-3228.515625,871.435547,0.000000,0.000000,Speed,Speed,26.110000,1.800000,1.370000,2.000000,102.000000,1,0,0.299213,-0.299213,1,0.040665,0.202820,0.000000,0.133713,17.198456,0.000000,0.014000,0.066000,-0.019000,FlatInitial
08:44:51.409 PM 02/15/2016,Teleop Enabled,0,FALSE,0,NO ERROR,-2897.607422,299.853516,0.000000,0.000000,Speed,Speed,10.850000,2.420000,1.740000,2.000000,101.000000,1,0,-0.000000,0.000000,1,0.135147,0.267242,0.000000,0.139023,17.210342,0.000000,0.133000,-0.013000,0.090000,FlatInitial
08:44:51.510 PM 02/15/2016,Teleop Enabled,0,FALSE,0,NO ERROR,-2571.240234,25.341797,0.000000,0.000000,Speed,Speed,2.900000,2.020000,1.100000,2.000000,102.000000,1,0,-0.000000,0.000000,1,0.135147,0.267242,0.000000,0.139023,17.210342,0.000000,-0.145000,0.066000,-0.048000,FlatInitial
08:44:51.610 PM 02/15/2016,Teleop Enabled,0,FALSE,0,NO ERROR,-2238.574219,0.000000,4000.000000,4000.000000,Speed,Speed,2.900000,2.020000,1.100000,3.000000,102.000000,1,0,-0.000000,0.000000,1,-0.002579,0.375671,0.000000,0.141663,17.230652,0.000000,-0.088000,0.047000,-0.045000,FlatInitial
08:44:51.710 PM 02/15/2016,Teleop Enabled,0,FALSE,0,NO ERROR,-1683.398438,-74.267578,4000.000000,4000.000000,Speed,Speed,-2.930000,1.640000,1.550000,3.000000,101.000000,1,0,0.251969,0.251969,1,-0.076050,0.429825,0.000000,0.139862,17.251114,0.000000,-0.134000,0.049000,-0.074000,FlatInitial
08:44:51.811 PM 02/15/2016,Teleop Enabled,0,FALSE,0,NO ERROR,577.294922,-1308.984375,4000.000000,4000.000000,Speed,Speed,-5.330000,1.340000,2.400000,3.000000,105.000000,1,0,0.259843,0.259843,1,-0.192383,0.435425,0.000000,0.132721,17.273178,0.000000,-0.070000,-0.025000,-0.033000,FlatInitial
08:44:51.911 PM 02/15/2016,Teleop Enabled,0,FALSE,0,NO ERROR,2600.537109,-2616.943359,4000.000000,4000.000000,Speed,Speed,-5.480000,1.230000,1.100000,3.000000,105.000000,1,0,0.173228,-0.173228,1,-0.211777,0.356003,0.000000,0.122894,17.292999,0.000000,-0.097000,-0.235000,0.034000,FlatInitial
08:44:52.011 PM 02/15/2016,Teleop Enabled,0,FALSE,0,NO ERROR,3733.300781,-3346.435547,4000.000000,4000.000000,Speed,Speed,-4.780000,1.020000,0.330000,3.000000,102.000000,1,0,0.322835,-0.322835,1,-0.250610,0.260971,0.000000,0.110367,17.308044,0.000000,0.102000,0.028000,-0.040000,FlatInitial
08:44:52.111 PM 02/15/2016,Teleop Enabled,0,FALSE,0,NO ERROR,4011.035156,-3597.070312,4000.000000,4000.000000,Speed,Speed,-4.650000,1.270000,2.270000,3.000000,101.000000,1,0,0.330709,-0.330709,1,-0.151413,0.337769,0.000000,0.101440,17.322372,0.000000,-0.146000,-0.014000,-0.004000,FlatInitial
08:44:52.211 PM 02/15/2016,Teleop Enabled,0,FALSE,0,NO ERROR,3994.775391,-3605.859375,4000.000000,4000.000000,Speed,Speed,-7.390000,1.520000,2.230000,3.000000,101.000000,1,0,0.330709,-0.330709,1,-0.090515,0.404465,0.000000,0.093552,17.340836,0.000000,0.257000,0.083000,0.078000,FlatInitial
08:44:52.312 PM 02/15/2016,Teleop Enabled,0,FALSE,0,NO ERROR,3937.646484,-3626.806641,4000.000000,4000.000000,Speed,Speed,-13.180000,2.100000,1.890000,3.000000,101.000000,1,0,-0.000000,0.000000,1,0.038162,0.459061,0.000000,0.094223,17.363388,0.000000,0.007000,0.092000,0.023000,FlatInitial
08:44:52.414 PM 02/15/2016,Teleop Enabled,0,FALSE,0,NO ERROR,3939.550781,-3737.841797,4000.000000,4000.000000,Speed,Speed,-21.010000,2.250000,2.180000,3.000000,102.000000,1,0,-0.000000,0.000000,1,0.000122,0.541824,0.000000,0.095367,17.389191,0.000000,-0.072000,0.232000,-0.121000,FlatInitial
08:44:52.514 PM 02/15/2016,Teleop Enabled,0,FALSE,0,NO ERROR,3983.642578,-3884.179687,4000.000000,4000.000000,Speed,Speed,-26.740000,2.210000,1.920000,3.000000,103.000000,1,0,0.299213,0.299213,1,-0.064194,0.581604,0.000000,0.093872,17.418030,0.000000,-0.198000,-0.071000,0.003000,FlatInitial
08:44:52.614 PM 02/15/2016,Teleop Enabled,0,FALSE,0,NO ERROR,4003.857422,-3952.441406,4000.000000,4000.000000,Speed,Speed,-30.210000,1.690000,1.640000,3.000000,101.000000,1,0,0.307087,0.307087,1,-0.201645,0.492538,0.000000,0.086258,17.444931,0.000000,0.284000,-0.393000,-0.077000,FlatInitial
08:44:52.714 PM 02/15/2016,Teleop Enabled,0,FALSE,0,NO ERROR,3993.896484,-3952.441406,4000.000000,4000.000000,Speed,Speed,-30.970000,1.520000,0.040000,3.000000,101.000000,1,0,0.307087,0.307087,1,-0.162064,0.296890,0.000000,0.078339,17.462708,0.000000,-0.033000,-0.195000,0.004000,FlatInitial
08:44:52.813 PM 02/15/2016,Teleop Enabled,0,FALSE,0,NO ERROR,3984.667969,-3957.421875,4000.000000,4000.000000,Speed,Speed,-30.180000,1.260000,0.370000,3.000000,101.000000,1,0,0.299213,0.299213,1,-0.149170,0.150864,0.000000,0.070007,17.472992,0.000000,0.004000,-0.106000,0.141000,FlatInitial
08:44:52.913 PM 02/15/2016,Teleop Enabled,0,FALSE,0,NO ERROR,3986.572266,-3968.994141,4000.000000,4000.000000,Speed,Speed,-28.650000,0.990000,0.440000,3.000000,103.000000,1,0,0.299213,0.299213,1,-0.134598,-0.064011,0.000000,0.063766,17.474548,0.000000,0.031000,-0.160000,0.071000,FlatInitial
08:44:53.013 PM 02/15/2016,Teleop Enabled,0,FALSE,0,NO ERROR,3994.921875,-3983.496094,4000.000000,4000.000000,Speed,Speed,-26.610000,0.880000,-0.370000,3.000000,103.000000,1,0,0.299213,0.299213,1,-0.132767,-0.213608,0.000000,0.055206,17.465683,0.000000,-0.050000,0.046000,-0.112000,FlatInitial
08:44:53.114 PM 02/15/2016,Teleop Enabled,0,FALSE,0,NO ERROR,4007.666016,-4004.296875,4000.000000,4000.000000,Speed,Speed,-24.530000,0.850000,-0.420000,3.000000,101.000000,1,0,0.299213,0.299213,1,-0.144226,-0.250656,0.000000,0.049713,17.455765,0.000000,0.018000,-0.127000,0.101000,FlatInitial
08:44:53.214 PM 02/15/2016,Teleop Enabled,0,FALSE,0,NO ERROR,4020.996094,-4023.925781,4000.000000,4000.000000,Speed,Speed,-22.450000,0.790000,-0.340000,3.000000,101.000000,1,0,0.257983,0.340443,1,-0.190582,-0.326706,0.000000,0.040054,17.437454,0.000000,0.009000,0.102000,0.010000,FlatInitial
08:44:53.314 PM 02/15/2016,Teleop Enabled,0,FALSE,0,NO ERROR,4025.097656,-4027.294922,4000.000000,4000.000000,Speed,Speed,-19.800000,0.630000,-0.940000,3.000000,101.000000,1,0,-0.314961,0.314961,1,-0.230637,-0.360397,0.000000,0.029663,17.420105,0.000000,-0.052000,0.068000,-0.126000,FlatInitial
08:44:53.415 PM 02/15/2016,Teleop Enabled,0,FALSE,0,NO ERROR,4022.314453,-4011.914062,4000.000000,4000.000000,Speed,Speed,-17.870000,0.510000,-0.790000,3.000000,101.000000,1,0,-0.322835,0.322835,1,-0.316956,-0.295425,0.000000,0.015259,17.403168,0.000000,-0.234000,0.484000,-0.400000,FlatInitial
08:44:53.515 PM 02/15/2016,Teleop Enabled,0,FALSE,0,NO ERROR,4014.404297,-3991.699219,4000.000000,4000.000000,Speed,Speed,-12.480000,0.110000,1.610000,3.000000,101.000000,1,0,-0.000000,0.000000,1,-0.485275,-0.026443,0.000000,-0.005692,17.397400,0.000000,-0.309000,0.233000,0.274000,FlatInitial
08:44:53.615 PM 02/15/2016,Teleop Enabled,0,FALSE,0,NO ERROR,4010.302734,-3995.800781,4000.000000,4000.000000,Speed,Speed,-4.730000,-0.720000,2.230000,3.000000,102.000000,1,0,-0.000000,0.000000,1,-0.706879,0.182190,0.000000,-0.037094,17.402908,0.000000,-0.117000,0.081000,-0.114000,FlatInitial
08:44:53.717 PM 02/15/2016,Teleop Enabled,0,FALSE,0,NO ERROR,4011.035156,-4026.562500,4000.000000,4000.000000,Speed,Speed,1.940000,-0.460000,2.890000,3.000000,101.000000,1,0,-0.000000,0.000000,1,-0.628433,0.298965,0.000000,-0.070999,17.416000,0.000000,0.159000,-0.006000,-0.315000,FlatInitial
08:44:53.818 PM 02/15/2016,Teleop Enabled,0,FALSE,0,NO ERROR,4011.621094,-4043.115234,4000.000000,4000.000000,Speed,Speed,5.630000,-0.290000,3.100000,3.000000,101.000000,1,0,0.259843,-0.259843,1,-0.549927,0.349976,0.000000,-0.099686,17.432190,0.000000,-0.023000,0.015000,-0.057000,FlatInitial
08:44:53.918 PM 02/15/2016,Teleop Enabled,0,FALSE,0,NO ERROR,3998.730469,-4017.919922,4000.000000,4000.000000,Speed,Speed,7.300000,0.110000,3.190000,3.000000,100.000000,1,0,-0.000000,0.000000,1,-0.429504,0.425537,0.000000,-0.124817,17.451508,0.000000,0.298000,0.034000,-0.124000,FlatInitial
08:44:54.019 PM 02/15/2016,Teleop Enabled,0,FALSE,0,NO ERROR,3961.230469,-3974.707031,4000.000000,4000.000000,Speed,Speed,5.440000,0.730000,3.530000,3.000000,101.000000,1,0,-0.000000,0.000000,1,-0.291931,0.427292,0.000000,-0.144272,17.475861,0.000000,-0.222000,0.095000,0.160000,FlatInitial
08:44:54.120 PM 02/15/2016,Teleop Enabled,0,FALSE,0,NO ERROR,3979.541016,-3988.183594,4000.000000,4000.000000,Speed,Speed,2.190000,1.070000,2.830000,3.000000,101.000000,1,0,-0.000000,0.000000,1,-0.297607,0.472092,0.000000,-0.156372,17.494019,0.000000,-0.002000,0.033000,0.048000,FlatInitial
08:44:54.221 PM 02/15/2016,Teleop Enabled,0,FALSE,0,NO ERROR,4013.232422,-4024.951172,4000.000000,4000.000000,Speed,Speed,0.650000,0.850000,2.790000,3.000000,102.000000,1,0,0.346457,0.346457,1,-0.385880,0.498947,0.000000,-0.173508,17.518509,0.000000,-0.088000,0.011000,0.042000,FlatInitial
08:44:54.322 PM 02/15/2016,Teleop Enabled,0,FALSE,0,NO ERROR,4014.990234,-4014.257812,4000.000000,4000.000000,Speed,Speed,0.660000,0.830000,3.110000,3.000000,101.000000,1,0,-0.000000,0.000000,1,-0.386292,-0.061356,0.000000,-0.193756,17.527893,0.000000,0.038000,-0.286000,-0.080000,FlatInitial
08:44:54.422 PM 02/15/2016,Teleop Enabled,0,FALSE,0,NO ERROR,3994.921875,-3966.650391,4000.000000,4000.000000,Speed,Speed,1.780000,0.690000,0.490000,3.000000,103.000000,1,0,-0.000000,0.000000,1,-0.440231,-0.321411,0.000000,-0.214203,17.515778,0.000000,0.171000,-0.056000,-0.514000,FlatInitial
08:44:54.524 PM 02/15/2016,Teleop Enabled,0,FALSE,0,NO ERROR,4000.195312,-3999.023437,4000.000000,4000.000000,Speed,Speed,2.800000,1.010000,2.900000,3.000000,102.000000,1,0,-0.000000,0.000000,1,-0.316727,-0.241867,0.000000,-0.232925,17.501572,0.000000,-0.121000,0.058000,0.320000,FlatInitial
08:44:54.624 PM 02/15/2016,Teleop Enabled,0,FALSE,0,NO ERROR,4019.531250,-4026.708984,4000.000000,4000.000000,Speed,Speed,3.210000,1.050000,2.840000,3.000000,101.000000,1,0,0.244094,-0.244094,1,-0.345154,-0.110611,0.000000,-0.249771,17.493439,0.000000,0.056000,0.074000,0.314000,FlatInitial
08:44:54.723 PM 02/15/2016,Teleop Enabled,0,FALSE,0,NO ERROR,4017.333984,-4032.421875,4000.000000,4000.000000,Speed,Speed,2.850000,1.490000,2.200000,3.000000,101.000000,1,0,-0.000000,0.000000,1,-0.277130,-0.069931,0.000000,-0.268555,17.488647,0.000000,0.034000,-0.119000,-0.084000,FlatInitial
08:44:54.825 PM 02/15/2016,Teleop Enabled,0,FALSE,0,NO ERROR,3969.140625,-3969.287109,4000.000000,4000.000000,Speed,Speed,-0.330000,1.800000,3.210000,3.000000,101.000000,1,0,-0.000000,0.000000,1,-0.195358,-0.148880,0.000000,-0.279282,17.482162,0.000000,-0.310000,-0.145000,0.527000,FlatInitial
08:44:54.926 PM 02/15/2016,Teleop Enabled,0,FALSE,0,NO ERROR,3983.496094,-3983.496094,4000.000000,4000.000000,Speed,Speed,-3.230000,1.950000,2.390000,3.000000,103.000000,1,0,-0.000000,0.000000,1,-0.213272,-0.155106,0.000000,-0.290939,17.473831,0.000000,0.060000,0.092000,0.138000,FlatInitial
