Time,RobotMode,AutoToRun,ErrorStatus, ErrorCode,ErrorSource,ActualRPM1,ActualRPM2,DesiredRPM1,DesiredRPM2,ControlMode1,ControlMode2,NavXYaw,NavXRoll,NavXPitch,ShooterState,LoopTime,IsLevel,IsAutoTargeting,LeftMotorOutput,RightMotorOutput,IsHaloDrive,NavXVelocityX,NavXVelocityY,NavXVelocityZ,NavXDisplacementX,NavXDisplacementY,NavXDisplacementZ,NavXAccelerationX,NavXAccelerationY,NavXAccelerationZ,AutoDefendState
04:10:31.740 PM 02/14/2016,Teleop Enabled,0,TRUE,91,Variant To Data in WPI_DigitalInputRefNum Registry Get.vi->Periodic Tasks.vi->Robot Main.vi,0.000000,0.000000,0.000000,0.000000,Speed,Speed,-0.420000,1.170000,1.840000,0.000000,102.000000,1,0,-0.001550,0.000062,0,0.000000,0.000000,0.000000,0.007919,-0.001328,0.000000,0.000000,0.000000,0.003000,FlatInitial
04:10:31.840 PM 02/14/2016,Teleop Enabled,0,TRUE,-44007,<LOCATION>WPI_DigitalInputRefNum Registry Get.vi<CALLSTACK>WPI_DigitalInputRefNum Registry Get.vi< <Periodic Tasks.vi< <Robot Main.vi,0.000000,0.000000,0.000000,0.000000,Speed,Speed,-0.420000,1.170000,1.840000,0.000000,103.000000,1,0,-0.001550,0.000062,0,0.001846,0.004990,0.000000,0.007950,-0.001282,0.000000,0.030000,0.000000,0.034000,FlatInitial
04:10:31.940 PM 02/14/2016,Teleop Enabled,0,FALSE,0,NO ERROR,0.000000,0.000000,0.000000,0.000000,Speed,Speed,-0.220000,1.140000,1.560000,0.000000,104.000000,1,0,-0.001550,0.000062,0,-0.030548,-0.011703,0.000000,0.007034,-0.001450,0.000000,0.003000,0.019000,-0.131000,FlatInitial
04:10:32.040 PM 02/14/2016,Teleop Enabled,0,FALSE,0,NO ERROR,0.000000,0.000000,0.000000,0.000000,Speed,Speed,-0.130000,1.160000,1.910000,0.000000,101.000000,1,0,-0.001550,0.000062,0,-0.024536,0.000000,0.000000,0.006088,-0.001816,0.000000,-0.038000,-0.009000,-0.056000,FlatInitial
04:10:32.140 PM 02/14/2016,Teleop Enabled,0,FALSE,0,NO ERROR,0.000000,0.000000,-6000.000000,-6000.000000,Speed,Speed,-0.360000,1.160000,1.780000,1.000000,104.000000,1,0,-0.001550,0.000062,0,-0.018570,0.004059,0.000000,0.004684,-0.001770,0.000000,0.015000,0.024000,-0.012000,FlatInitial
04:10:32.240 PM 02/14/2016,Teleop Enabled,0,FALSE,0,NO ERROR,-249.755859,183.398438,-6000.000000,-6000.000000,Speed,Speed,-0.360000,1.100000,2.030000,1.000000,104.000000,1,0,-0.001550,0.000062,0,-0.003067,0.022919,0.000000,0.004654,-0.000809,0.000000,-0.027000,-0.024000,-0.008000,FlatInitial
04:10:32.340 PM 02/14/2016,Teleop Enabled,0,FALSE,0,NO ERROR,-1923.925781,1819.628906,-6000.000000,-6000.000000,Speed,Speed,-0.290000,1.160000,1.950000,1.000000,103.000000,1,0,-0.001550,0.000062,0,-0.008194,0.021774,0.000000,0.004410,0.000061,0.000000,-0.020000,0.021000,-0.051000,FlatInitial
04:10:32.440 PM 02/14/2016,Teleop Enabled,0,FALSE,0,NO ERROR,-3631.201172,3592.236328,-6000.000000,-6000.000000,Speed,Speed,-0.370000,1.130000,2.000000,1.000000,103.000000,1,0,-0.001550,0.000062,0,-0.002594,-0.002853,0.000000,0.003906,0.000519,0.000000,-0.032000,-0.040000,0.063000,FlatInitial
04:10:32.541 PM 02/14/2016,Teleop Enabled,0,FALSE,0,NO ERROR,-4747.265625,4996.289062,-6000.000000,-6000.000000,Speed,Speed,-0.300000,1.130000,1.930000,1.000000,101.000000,1,0,-0.001550,0.000062,0,-0.039215,0.003281,0.000000,0.002579,0.000656,0.000000,-0.008000,0.028000,-0.123000,FlatInitial
04:10:32.642 PM 02/14/2016,Teleop Enabled,0,FALSE,0,NO ERROR,-5739.257812,5791.406250,-6000.000000,-6000.000000,Speed,Speed,-0.320000,1.130000,1.930000,1.000000,104.000000,1,0,-0.001550,0.000062,0,-0.045227,0.012787,0.000000,0.001083,0.001572,0.000000,-0.058000,0.003000,0.340000,FlatInitial
04:10:32.742 PM 02/14/2016,Teleop Enabled,0,FALSE,0,NO ERROR,-5981.250000,5791.406250,-6000.000000,-6000.000000,Speed,Speed,-0.350000,1.220000,1.940000,1.000000,101.000000,1,0,-0.001550,0.000062,0,-0.119156,0.011353,0.000000,-0.002899,0.001724,0.000000,-0.120000,0.018000,0.048000,FlatInitial
04:10:32.842 PM 02/14/2016,Teleop Enabled,0,FALSE,0,NO ERROR,-6073.242188,6040.429688,-6000.000000,-6000.000000,Speed,Speed,-0.300000,1.230000,1.950000,1.000000,101.000000,1,0,-0.001550,0.000062,0,-0.183670,0.000000,0.000000,-0.011017,0.002640,0.000000,-0.040000,0.006000,0.160000,FlatInitial
04:10:32.942 PM 02/14/2016,Teleop Enabled,0,FALSE,0,NO ERROR,-6079.687500,6030.468750,-6000.000000,-6000.000000,Speed,Speed,-0.330000,1.290000,1.870000,1.000000,101.000000,1,0,-0.001550,0.000062,0,-0.217178,-0.027634,0.000000,-0.021194,0.002075,0.000000,-0.054000,-0.090000,0.186000,FlatInitial
04:10:33.043 PM 02/14/2016,Teleop Enabled,0,FALSE,0,NO ERROR,-6061.523438,6014.062500,-6000.000000,-6000.000000,Speed,Speed,-0.320000,1.310000,1.730000,1.000000,102.000000,1,0,-0.001550,0.000062,0,-0.253784,-0.083221,0.000000,-0.033020,-0.001083,0.000000,-0.073000,-0.010000,0.206000,FlatInitial
04:10:33.144 PM 02/14/2016,Teleop Enabled,0,FALSE,0,NO ERROR,-6042.187500,6014.648438,-6000.000000,-6000.000000,Speed,Speed,-0.320000,1.230000,1.790000,1.000000,101.000000,1,0,-0.001550,0.000062,0,-0.318146,0.000000,0.000000,-0.047607,-0.003891,0.000000,-0.090000,0.047000,0.102000,FlatInitial
04:10:33.244 PM 02/14/2016,Teleop Enabled,0,FALSE,0,NO ERROR,-6042.187500,6018.750000,-6000.000000,-6000.000000,Speed,Speed,-0.320000,1.180000,1.970000,1.000000,102.000000,1,0,-0.001550,0.000062,0,-0.365234,0.024002,0.000000,-0.065109,-0.003128,0.000000,-0.031000,0.023000,0.053000,FlatInitial
04:10:33.345 PM 02/14/2016,Teleop Enabled,0,FALSE,0,NO ERROR,-6028.710938,6022.265625,-6000.000000,-6000.000000,Speed,Speed,-0.300000,1.150000,2.110000,1.000000,101.000000,1,0,-0.001550,0.000062,0,-0.004211,0.046921,0.000000,-0.072693,-0.001251,0.000000,-0.032000,0.053000,0.052000,FlatInitial
04:10:33.446 PM 02/14/2016,Teleop Enabled,0,FALSE,0,NO ERROR,-6018.164062,6016.992188,-6000.000000,-6000.000000,Speed,Speed,-0.270000,1.160000,1.970000,1.000000,102.000000,1,0,-0.001550,0.000062,0,-0.007263,0.069717,0.000000,-0.073196,0.001938,0.000000,0.033000,-0.017000,0.044000,FlatInitial
04:10:33.546 PM 02/14/2016,Teleop Enabled,0,FALSE,0,NO ERROR,-6012.304688,6014.648438,-6000.000000,-6000.000000,Speed,Speed,-0.290000,1.120000,2.100000,1.000000,101.000000,1,0,-0.001550,0.000062,0,0.000000,0.026276,0.000000,-0.072784,0.004257,0.000000,0.023000,-0.024000,0.098000,FlatInitial
04:10:33.647 PM 02/14/2016,Teleop Enabled,0,FALSE,0,NO ERROR,-6007.617188,6013.476562,-6000.000000,-6000.000000,Speed,Speed,-0.270000,1.170000,1.790000,1.000000,102.000000,1,0,-0.001550,0.000062,0,0.042770,-0.016891,0.000000,-0.071625,0.004166,0.000000,0.040000,-0.003000,0.081000,FlatInitial
04:10:33.747 PM 02/14/2016,Teleop Enabled,0,FALSE,0,NO ERROR,-6010.546875,6012.304688,-6000.000000,-6000.000000,Speed,Speed,-0.320000,1.090000,1.890000,1.000000,101.000000,1,0,-0.001550,0.000062,0,0.053177,-0.017715,0.000000,-0.069611,0.003464,0.000000,0.038000,-0.035000,0.103000,FlatInitial
04:10:33.847 PM 02/14/2016,Teleop Enabled,0,FALSE,0,NO ERROR,-6007.617188,6012.304688,-6000.000000,-6000.000000,Speed,Speed,-0.300000,1.130000,1.800000,1.000000,103.000000,1,0,-0.001550,0.000062,0,0.097610,-0.065277,0.000000,-0.065735,0.001129,0.000000,0.054000,-0.026000,0.115000,FlatInitial
04:10:33.949 PM 02/14/2016,Teleop Enabled,0,FALSE,0,NO ERROR,-6007.617188,6013.476562,-6000.000000,-6000.000000,Speed,Speed,-0.270000,1.120000,1.620000,1.000000,101.000000,1,0,-0.001550,0.000062,0,0.144287,-0.082214,0.000000,-0.059616,-0.002838,0.000000,0.085000,-0.019000,0.124000,FlatInitial
04:10:34.050 PM 02/14/2016,Teleop Enabled,0,FALSE,0,NO ERROR,-6008.789062,6009.960938,-6000.000000,-6000.000000,Speed,Speed,-0.320000,1.110000,1.630000,1.000000,102.000000,1,0,-0.001550,0.000062,0,0.206390,-0.025833,0.000000,-0.048492,-0.004364,0.000000,0.068000,-0.017000,0.127000,FlatInitial
04:10:34.150 PM 02/14/2016,Teleop Enabled,0,FALSE,0,NO ERROR,-6008.789062,6009.960938,-6000.000000,-6000.000000,Speed,Speed,-0.300000,1.170000,1.430000,1.000000,102.000000,1,0,-0.001550,0.000062,0,0.258499,-0.040268,0.000000,-0.038986,-0.005753,0.000000,0.072000,-0.046000,0.116000,FlatInitial
04:10:34.250 PM 02/14/2016,Teleop Enabled,0,FALSE,0,NO ERROR,-6007.617188,6007.617188,-6000.000000,-6000.000000,Speed,Speed,-0.300000,1.160000,1.340000,1.000000,102.000000,1,0,-0.001550,0.000062,0,0.320572,0.000000,0.000000,-0.024261,-0.007965,0.000000,0.080000,-0.017000,0.123000,FlatInitial
04:10:34.350 PM 02/14/2016,Teleop Enabled,0,FALSE,0,NO ERROR,-6002.929688,6011.132812,-6000.000000,-6000.000000,Speed,Speed,-0.320000,1.180000,1.270000,1.000000,102.000000,1,0,-0.001550,0.000062,0,0.394485,-0.001694,0.000000,-0.002365,-0.008011,0.000000,0.083000,-0.018000,0.121000,FlatInitial
04:10:34.450 PM 02/14/2016,Teleop Enabled,0,FALSE,0,NO ERROR,-6001.171875,6007.031250,-6000.000000,-6000.000000,Speed,Speed,-0.300000,1.220000,1.140000,1.000000,101.000000,1,0,-0.001550,0.000062,0,0.469040,-0.008347,0.000000,0.019577,-0.008209,0.000000,0.067000,0.016000,0.110000,FlatInitial
04:10:34.549 PM 02/14/2016,Teleop Enabled,0,FALSE,0,NO ERROR,-5998.242188,6007.617188,-6000.000000,-6000.000000,Speed,Speed,-0.310000,1.240000,1.070000,1.000000,101.000000,1,0,-0.001550,0.000062,0,0.538193,0.000000,0.000000,0.045013,-0.008301,0.000000,0.082000,-0.017000,0.130000,FlatInitial
04:10:34.650 PM 02/14/2016,Teleop Enabled,0,FALSE,0,NO ERROR,-5994.140625,6009.375000,-6000.000000,-6000.000000,Speed,Speed,-0.310000,1.300000,1.030000,1.000000,101.000000,1,0,-0.001550,0.000062,0,0.612564,0.007919,0.000000,0.074112,-0.008011,0.000000,0.076000,-0.003000,0.130000,FlatInitial
04:10:34.750 PM 02/14/2016,Teleop Enabled,0,FALSE,0,NO ERROR,-5994.726562,6008.203125,-6000.000000,-6000.000000,Speed,Speed,-0.300000,1.340000,0.940000,1.000000,101.000000,1,0,-0.001550,0.000062,0,0.684601,-0.006363,0.000000,0.106979,-0.007950,0.000000,0.060000,-0.052000,0.099000,FlatInitial
04:10:34.849 PM 02/14/2016,Teleop Enabled,0,FALSE,0,NO ERROR,-5994.726562,6002.929688,-6000.000000,-6000.000000,Speed,Speed,-0.310000,1.400000,0.880000,1.000000,102.000000,1,0,-0.001550,0.000062,0,0.752106,0.000000,0.000000,0.143143,-0.008331,0.000000,0.072000,-0.006000,0.111000,FlatInitial
04:10:34.950 PM 02/14/2016,Teleop Enabled,0,FALSE,0,NO ERROR,-5995.898438,5998.828125,-6000.000000,-6000.000000,Speed,Speed,-0.310000,1.440000,0.840000,1.000000,105.000000,1,0,-0.001550,0.000062,0,0.826340,-0.016281,0.000000,0.182922,-0.008591,0.000000,0.068000,-0.044000,0.128000,FlatInitial
04:10:35.050 PM 02/14/2016,Teleop Enabled,0,FALSE,0,NO ERROR,-6000.585938,5999.414062,-6000.000000,-6000.000000,Speed,Speed,-0.310000,1.480000,0.800000,1.000000,102.000000,1,0,-0.001550,0.000062,0,0.894974,-0.012787,0.000000,0.226303,-0.009399,0.000000,0.080000,0.024000,0.111000,FlatInitial
04:10:35.151 PM 02/14/2016,Teleop Enabled,0,FALSE,0,NO ERROR,-6005.273438,5995.898438,-6000.000000,-6000.000000,Speed,Speed,-0.310000,1.510000,0.750000,1.000000,101.000000,1,0,-0.001550,0.000062,0,0.970001,0.000000,0.000000,0.273331,-0.009796,0.000000,0.053000,0.038000,0.127000,FlatInitial
04:10:35.251 PM 02/14/2016,Teleop Enabled,0,FALSE,0,NO ERROR,-6009.375000,5994.726562,-6000.000000,-6000.000000,Speed,Speed,-0.310000,1.530000,0.750000,1.000000,102.000000,1,0,-0.001550,0.000062,0,1.053207,0.021912,0.000000,0.334381,-0.008972,0.000000,0.056000,0.065000,0.124000,FlatInitial
04:10:35.351 PM 02/14/2016,Teleop Enabled,0,FALSE,0,NO ERROR,-6014.062500,5996.484375,-6000.000000,-6000.000000,Speed,Speed,-0.310000,1.530000,0.770000,1.000000,102.000000,1,0,-0.001550,0.000062,0,1.132751,0.037918,0.000000,0.389420,-0.007416,0.000000,0.087000,0.055000,0.077000,FlatInitial
04:10:35.451 PM 02/14/2016,Teleop Enabled,0,FALSE,0,NO ERROR,-6014.062500,5998.828125,-6000.000000,-6000.000000,Speed,Speed,-0.310000,1.530000,0.830000,1.000000,101.000000,1,0,-0.001550,0.000062,0,1.191971,0.045700,0.000000,0.436234,-0.005768,0.000000,0.077000,-0.011000,0.115000,FlatInitial
04:10:35.552 PM 02/14/2016,Teleop Enabled,0,FALSE,0,NO ERROR,-6011.718750,6000.585938,-6000.000000,-6000.000000,Speed,Speed,-0.310000,1.520000,0.910000,1.000000,102.000000,1,0,-0.001550,0.000062,0,1.292328,0.083832,0.000000,0.511200,-0.001816,0.000000,0.092000,0.059000,0.121000,FlatInitial
04:10:35.652 PM 02/14/2016,Teleop Enabled,0,FALSE,0,NO ERROR,-6008.203125,6007.031250,-6000.000000,-6000.000000,Speed,Speed,-0.300000,1.510000,1.050000,1.000000,102.000000,1,0,-0.001550,0.000062,0,1.373795,0.102951,0.000000,0.578323,0.003143,0.000000,0.088000,0.041000,0.106000,FlatInitial
04:10:35.752 PM 02/14/2016,Teleop Enabled,0,FALSE,0,NO ERROR,-6007.031250,6010.546875,-6000.000000,-6000.000000,Speed,Speed,-0.300000,1.490000,1.200000,1.000000,100.000000,1,0,-0.001550,0.000062,0,1.450806,0.011612,0.000000,0.649323,0.004486,0.000000,0.088000,0.043000,0.129000,FlatInitial
04:10:35.852 PM 02/14/2016,Teleop Enabled,0,FALSE,0,NO ERROR,-6006.445312,6008.203125,-6000.000000,-6000.000000,Speed,Speed,-0.300000,1.470000,1.320000,1.000000,101.000000,1,0,-0.001550,0.000062,0,1.536331,0.033508,0.000000,0.724472,0.005661,0.000000,0.083000,0.062000,0.110000,FlatInitial
04:10:35.952 PM 02/14/2016,Teleop Enabled,0,FALSE,0,NO ERROR,-6006.445312,6007.617188,-6000.000000,-6000.000000,Speed,Speed,-0.300000,1.440000,1.520000,1.000000,101.000000,1,0,-0.001550,0.000062,0,1.615585,0.049255,0.000000,0.803696,0.007980,0.000000,0.098000,0.006000,0.126000,FlatInitial
04:10:36.052 PM 02/14/2016,Teleop Enabled,0,FALSE,0,NO ERROR,-6002.929688,6007.617188,-6000.000000,-6000.000000,Speed,Speed,-0.300000,1.420000,1.640000,1.000000,102.000000,1,0,-0.001550,0.000062,0,1.695023,-0.015503,0.000000,0.887009,0.007629,0.000000,0.082000,-0.018000,0.072000,FlatInitial
04:10:36.152 PM 02/14/2016,Teleop Enabled,0,FALSE,0,NO ERROR,-6000.000000,6009.375000,-6000.000000,-6000.000000,Speed,Speed,-0.300000,1.390000,1.790000,1.000000,103.000000,1,0,-0.001550,0.000062,0,1.767822,-0.021210,0.000000,0.973892,0.006729,0.000000,0.085000,-0.002000,0.141000,FlatInitial
04:10:36.252 PM 02/14/2016,Teleop Enabled,0,FALSE,0,NO ERROR,-5995.312500,6001.757812,-6000.000000,-6000.000000,Speed,Speed,-0.310000,1.360000,1.930000,1.000000,101.000000,1,0,-0.001550,0.000062,0,1.840683,-0.037216,0.000000,1.064514,0.005264,0.000000,0.075000,-0.004000,0.124000,FlatInitial
04:10:36.352 PM 02/14/2016,Teleop Enabled,0,FALSE,0,NO ERROR,-5993.554688,6000.000000,-6000.000000,-6000.000000,Speed,Speed,-0.300000,1.330000,2.010000,1.000000,102.000000,1,0,-0.001550,0.000062,0,1.910339,-0.063828,0.000000,1.158646,0.002869,0.000000,0.062000,-0.037000,0.096000,FlatInitial
04:10:36.453 PM 02/14/2016,Teleop Enabled,0,FALSE,0,NO ERROR,-5992.382812,5995.312500,-6000.000000,-6000.000000,Speed,Speed,-0.300000,1.300000,2.090000,1.000000,105.000000,1,0,-0.001550,0.000062,0,1.986282,-0.094604,0.000000,1.256424,-0.001266,0.000000,0.095000,-0.030000,0.136000,FlatInitial
04:10:36.553 PM 02/14/2016,Teleop Enabled,0,FALSE,0,NO ERROR,-5994.140625,5990.625000,-6000.000000,-6000.000000,Speed,Speed,-0.300000,1.280000,2.150000,1.000000,101.000000,1,0,-0.001550,0.000062,0,2.065689,-0.113327,0.000000,1.358124,-0.006744,0.000000,0.077000,0.025000,0.117000,FlatInitial
04:10:36.653 PM 02/14/2016,Teleop Enabled,0,FALSE,0,NO ERROR,-5995.898438,5991.210938,-6000.000000,-6000.000000,Speed,Speed,-0.290000,1.260000,2.230000,1.000000,101.000000,1,0,-0.001550,0.000062,0,2.152069,-0.125290,0.000000,1.463943,-0.012634,0.000000,0.098000,-0.008000,0.147000,FlatInitial
04:10:36.753 PM 02/14/2016,Teleop Enabled,0,FALSE,0,NO ERROR,-6000.000000,5993.554688,-6000.000000,-6000.000000,Speed,Speed,-0.290000,1.250000,2.270000,1.000000,102.000000,1,0,-0.001550,0.000062,0,2.236008,-0.150879,0.000000,1.574158,-0.019669,0.000000,0.076000,-0.004000,0.107000,FlatInitial
04:10:36.854 PM 02/14/2016,Teleop Enabled,0,FALSE,0,NO ERROR,-6004.101562,5998.242188,-6000.000000,-6000.000000,Speed,Speed,-0.290000,1.240000,2.350000,1.000000,101.000000,1,0,-0.001550,0.000062,0,2.322464,-0.157654,0.000000,1.688568,-0.027374,0.000000,0.085000,-0.013000,0.138000,FlatInitial
04:10:36.954 PM 02/14/2016,Teleop Enabled,0,FALSE,0,NO ERROR,-6008.789062,5999.414062,-6000.000000,-6000.000000,Speed,Speed,-0.300000,1.230000,2.400000,1.000000,102.000000,1,0,-0.001550,0.000062,0,2.400909,-0.172195,0.000000,1.807114,-0.035767,0.000000,0.081000,-0.024000,0.084000,FlatInitial
04:10:37.054 PM 02/14/2016,Teleop Enabled,0,FALSE,0,NO ERROR,-6011.132812,6006.445312,-6000.000000,-6000.000000,Speed,Speed,-0.290000,1.220000,2.510000,1.000000,102.000000,1,0,-0.001550,0.000062,0,2.474106,-0.196823,0.000000,1.929398,-0.044846,0.000000,0.076000,-0.026000,0.094000,FlatInitial
04:10:37.154 PM 02/14/2016,Teleop Enabled,0,FALSE,0,NO ERROR,-6008.789062,6012.304688,-6000.000000,-6000.000000,Speed,Speed,-0.290000,1.200000,2.620000,1.000000,103.000000,1,0,-0.001550,0.000062,0,2.549881,-0.230927,0.000000,2.055435,-0.055634,0.000000,0.050000,-0.044000,0.081000,FlatInitial
04:10:37.254 PM 02/14/2016,Teleop Enabled,0,FALSE,0,NO ERROR,-6005.859375,6011.132812,-6000.000000,-6000.000000,Speed,Speed,-0.290000,1.180000,2.650000,1.000000,103.000000,1,0,-0.001550,0.000062,0,2.625946,-0.291565,0.000000,2.211105,-0.071579,0.000000,0.054000,-0.072000,0.127000,FlatInitial
04:10:37.355 PM 02/14/2016,Teleop Enabled,0,FALSE,0,NO ERROR,-6006.445312,6006.445312,-6000.000000,-6000.000000,Speed,Speed,-0.290000,1.150000,2.750000,1.000000,101.000000,1,0,-0.001550,0.000062,0,2.689056,-0.364471,0.000000,2.344299,-0.088196,0.000000,0.055000,-0.073000,0.085000,FlatInitial
04:10:37.456 PM 02/14/2016,Teleop Enabled,0,FALSE,0,NO ERROR,-6005.859375,6006.445312,-6000.000000,-6000.000000,Speed,Speed,-0.290000,1.100000,2.810000,1.000000,103.000000,1,0,-0.001550,0.000062,0,2.741409,-0.447128,0.000000,2.480362,-0.108948,0.000000,0.055000,-0.073000,0.085000,FlatInitial
04:10:37.556 PM 02/14/2016,Teleop Enabled,0,FALSE,0,NO ERROR,-6005.273438,6006.445312,-6000.000000,-6000.000000,Speed,Speed,-0.290000,1.070000,2.860000,1.000000,102.000000,1,0,-0.001550,0.000062,0,2.803665,-0.526016,0.000000,2.619308,-0.133545,0.000000,0.036000,-0.085000,0.087000,FlatInitial
04:10:37.656 PM 02/14/2016,Teleop Enabled,0,FALSE,0,NO ERROR,-6004.687500,6002.343750,-6000.000000,-6000.000000,Speed,Speed,-0.290000,1.030000,2.880000,1.000000,102.000000,1,0,-0.001550,0.000062,0,2.859512,-0.613800,0.000000,2.761139,-0.162460,0.000000,0.034000,-0.117000,0.056000,FlatInitial
04:10:37.756 PM 02/14/2016,Teleop Enabled,0,FALSE,0,NO ERROR,-6003.515625,6002.343750,-6000.000000,-6000.000000,Speed,Speed,-0.290000,1.000000,2.850000,1.000000,101.000000,1,0,-0.001550,0.000062,0,2.912628,-0.707993,0.000000,2.905701,-0.195908,0.000000,0.056000,-0.081000,0.074000,FlatInitial
04:10:37.856 PM 02/14/2016,Teleop Enabled,0,FALSE,0,NO ERROR,-6001.757812,6001.757812,-6000.000000,-6000.000000,Speed,Speed,-0.280000,0.970000,2.840000,1.000000,102.000000,1,0,-0.001550,0.000062,0,2.968826,-0.793945,0.000000,3.053085,-0.233994,0.000000,0.032000,-0.048000,0.062000,FlatInitial
04:10:37.956 PM 02/14/2016,Teleop Enabled,0,FALSE,0,NO ERROR,-5999.414062,5997.656250,-6000.000000,-6000.000000,Speed,Speed,-0.280000,0.940000,2.840000,1.000000,101.000000,1,0,-0.001550,0.000062,0,3.027603,-0.882370,0.000000,3.203323,-0.276215,0.000000,0.032000,-0.048000,0.062000,FlatInitial
04:10:38.056 PM 02/14/2016,Teleop Enabled,0,FALSE,0,NO ERROR,-5999.414062,5998.828125,-6000.000000,-6000.000000,Speed,Speed,-0.290000,0.910000,2.850000,1.000000,101.000000,1,0,-0.001550,0.000062,0,3.096451,-0.983917,0.000000,3.356735,-0.323410,0.000000,0.056000,-0.075000,0.048000,FlatInitial
04:10:38.156 PM 02/14/2016,Teleop Enabled,0,FALSE,0,NO ERROR,-5997.656250,6000.585938,-6000.000000,-6000.000000,Speed,Speed,-0.280000,0.890000,2.840000,1.000000,102.000000,1,0,-0.001550,0.000062,0,3.149216,-1.076584,0.000000,3.513153,-0.375381,0.000000,0.056000,-0.075000,0.048000,FlatInitial
04:10:38.256 PM 02/14/2016,Teleop Enabled,0,FALSE,0,NO ERROR,-5995.312500,6001.757812,-6000.000000,-6000.000000,Speed,Speed,-0.280000,0.890000,2.840000,1.000000,102.000000,1,0,-0.001550,0.000062,0,3.210953,-1.165894,0.000000,3.672485,-0.431854,0.000000,0.064000,-0.095000,0.054000,FlatInitial
04:10:38.357 PM 02/14/2016,Teleop Enabled,0,FALSE,0,NO ERROR,-5992.968750,6001.757812,-6000.000000,-6000.000000,Speed,Speed,-0.280000,0.810000,2.860000,1.000000,103.000000,1,0,-0.001550,0.000062,0,3.210953,-1.165894,0.000000,3.672485,-0.431854,0.000000,0.061000,-0.095000,0.070000,FlatInitial
04:10:38.457 PM 02/14/2016,Teleop Enabled,0,FALSE,0,NO ERROR,-5992.968750,6004.101562,-6000.000000,-6000.000000,Speed,Speed,-0.270000,0.780000,2.830000,1.000000,102.000000,1,0,-0.001550,0.000062,0,3.308868,-1.345901,0.000000,3.999054,-0.558289,0.000000,0.064000,-0.075000,0.041000,FlatInitial
04:10:38.558 PM 02/14/2016,Teleop Enabled,0,FALSE,0,NO ERROR,-5993.554688,6002.343750,-6000.000000,-6000.000000,Speed,Speed,-0.280000,0.760000,2.850000,1.000000,102.000000,1,0,-0.001550,0.000062,0,3.308868,-1.345901,0.000000,3.999054,-0.558289,0.000000,0.041000,-0.089000,0.080000,FlatInitial
04:10:38.658 PM 02/14/2016,Teleop Enabled,0,FALSE,0,NO ERROR,-5995.898438,5997.070312,-6000.000000,-6000.000000,Speed,Speed,-0.280000,0.740000,2.880000,1.000000,101.000000,1,0,-0.001550,0.000062,0,3.367447,-1.429077,0.000000,4.199692,-0.642242,0.000000,0.057000,-0.041000,0.093000,FlatInitial
04:10:38.758 PM 02/14/2016,Teleop Enabled,0,FALSE,0,NO ERROR,-6000.585938,5995.898438,-6000.000000,-6000.000000,Speed,Speed,-0.280000,0.730000,2.910000,1.000000,101.000000,1,0,-0.001550,0.000062,0,3.426727,-1.512299,0.000000,4.369827,-0.716171,0.000000,0.070000,-0.096000,0.105000,FlatInitial
04:10:38.858 PM 02/14/2016,Teleop Enabled,0,FALSE,0,NO ERROR,-6002.343750,5997.656250,-6000.000000,-6000.000000,Speed,Speed,-0.280000,0.730000,2.910000,1.000000,102.000000,1,0,-0.001550,0.000062,0,3.483932,-1.604416,0.000000,4.542923,-0.794449,0.000000,0.055000,-0.118000,0.062000,FlatInitial
04:10:38.960 PM 02/14/2016,Teleop Enabled,0,FALSE,0,NO ERROR,-6004.101562,5997.656250,-6000.000000,-6000.000000,Speed,Speed,-0.270000,0.700000,2.880000,1.000000,102.000000,1,0,-0.001550,0.000062,0,3.535370,-1.696426,0.000000,4.718704,-0.877655,0.000000,0.058000,-0.089000,0.077000,FlatInitial
04:10:39.061 PM 02/14/2016,Teleop Enabled,0,FALSE,0,NO ERROR,-6004.101562,5999.414062,-6000.000000,-6000.000000,Speed,Speed,-0.270000,0.670000,2.880000,1.000000,101.000000,1,0,-0.001550,0.000062,0,3.596634,-1.789703,0.000000,4.897369,-0.965363,0.000000,0.075000,-0.101000,0.071000,FlatInitial
04:10:39.161 PM 02/14/2016,Teleop Enabled,0,FALSE,0,NO ERROR,-6007.617188,6007.617188,-6000.000000,-6000.000000,Speed,Speed,-0.270000,0.670000,2.840000,1.000000,103.000000,1,0,-0.001550,0.000062,0,3.657608,-1.890717,0.000000,5.078979,-1.057907,0.000000,0.083000,-0.090000,0.059000,FlatInitial
04:10:39.263 PM 02/14/2016,Teleop Enabled,0,FALSE,0,NO ERROR,-6007.617188,6009.960938,-6000.000000,-6000.000000,Speed,Speed,-0.270000,0.680000,2.800000,1.000000,102.000000,1,0,-0.001550,0.000062,0,3.721176,-1.981277,0.000000,5.263718,-1.155151,0.000000,0.062000,-0.083000,0.044000,FlatInitial
04:10:39.362 PM 02/14/2016,Teleop Enabled,0,FALSE,0,NO ERROR,-6007.031250,6008.203125,-6000.000000,-6000.000000,Speed,Speed,-0.270000,0.700000,2.780000,1.000000,102.000000,1,0,-0.001550,0.000062,0,3.784927,-2.072937,0.000000,5.451736,-1.257141,0.000000,0.088000,-0.145000,0.062000,FlatInitial
04:10:39.462 PM 02/14/2016,Teleop Enabled,0,FALSE,0,NO ERROR,-6008.203125,6006.445312,-6000.000000,-6000.000000,Speed,Speed,-0.270000,0.750000,2.700000,1.000000,102.000000,1,0,-0.001550,0.000062,0,3.866135,-2.181595,0.000000,5.643448,-1.364059,0.000000,0.094000,-0.110000,0.018000,FlatInitial
04:10:39.562 PM 02/14/2016,Teleop Enabled,0,FALSE,0,NO ERROR,-6005.859375,6008.203125,-6000.000000,-6000.000000,Speed,Speed,-0.270000,0.780000,2.630000,1.000000,101.000000,1,0,-0.001550,0.000062,0,3.959427,-2.298691,0.000000,5.878769,-1.499191,0.000000,0.095000,-0.106000,-0.028000,FlatInitial
04:10:39.663 PM 02/14/2016,Teleop Enabled,0,FALSE,0,NO ERROR,-6005.859375,6004.687500,-6000.000000,-6000.000000,Speed,Speed,-0.280000,0.840000,2.490000,1.000000,103.000000,1,0,-0.001550,0.000062,0,4.026321,-2.358246,0.000000,6.038803,-1.592697,0.000000,0.096000,-0.165000,0.007000,FlatInitial
04:10:39.763 PM 02/14/2016,Teleop Enabled,0,FALSE,0,NO ERROR,-6003.515625,6001.757812,-6000.000000,-6000.000000,Speed,Speed,-0.280000,0.890000,2.450000,1.000000,102.000000,1,0,-0.001550,0.000062,0,4.137115,-2.471832,0.000000,6.284286,-1.738251,0.000000,0.093000,-0.151000,0.001000,FlatInitial
04:10:39.863 PM 02/14/2016,Teleop Enabled,0,FALSE,0,NO ERROR,-6002.929688,6000.585938,-6000.000000,-6000.000000,Speed,Speed,-0.280000,0.950000,2.350000,1.000000,101.000000,1,0,-0.001550,0.000062,0,4.226044,-2.562927,0.000000,6.493790,-1.864578,0.000000,0.084000,-0.106000,-0.036000,FlatInitial
04:10:39.963 PM 02/14/2016,Teleop Enabled,0,FALSE,0,NO ERROR,-6001.757812,6000.000000,-6000.000000,-6000.000000,Speed,Speed,-0.280000,1.000000,2.240000,1.000000,101.000000,1,0,-0.001550,0.000062,0,4.298904,-2.621033,0.000000,6.664627,-1.968552,0.000000,0.094000,-0.056000,-0.054000,FlatInitial
04:10:40.065 PM 02/14/2016,Teleop Enabled,0,FALSE,0,NO ERROR,-6000.585938,5998.242188,-6000.000000,-6000.000000,Speed,Speed,-0.290000,1.080000,2.090000,1.000000,101.000000,1,0,-0.001550,0.000062,0,4.410095,-2.731949,0.000000,6.926483,-2.129730,0.000000,0.098000,-0.161000,-0.030000,FlatInitial
04:10:40.166 PM 02/14/2016,Teleop Enabled,0,FALSE,0,NO ERROR,-5998.828125,5998.242188,-6000.000000,-6000.000000,Speed,Speed,-0.290000,1.140000,1.930000,1.000000,101.000000,1,0,-0.001550,0.000062,0,4.504761,-2.838058,0.000000,7.149826,-2.269516,0.000000,0.083000,-0.127000,-0.022000,FlatInitial
04:10:40.266 PM 02/14/2016,Teleop Enabled,0,FALSE,0,NO ERROR,-6000.000000,5997.070312,-6000.000000,-6000.000000,Speed,Speed,-0.290000,1.180000,1.830000,1.000000,102.000000,1,0,-0.001550,0.000062,0,4.586288,-2.913483,0.000000,7.377487,-2.413834,0.000000,0.086000,-0.099000,-0.045000,FlatInitial
04:10:40.367 PM 02/14/2016,Teleop Enabled,0,FALSE,0,NO ERROR,-5999.414062,5992.382812,-6000.000000,-6000.000000,Speed,Speed,-0.290000,1.220000,1.740000,1.000000,104.000000,1,0,-0.001550,0.000062,0,4.674438,-2.979401,0.000000,7.609360,-2.561386,0.000000,0.098000,-0.141000,-0.044000,FlatInitial
04:10:40.467 PM 02/14/2016,Teleop Enabled,0,FALSE,0,NO ERROR,-6000.000000,5992.968750,-6000.000000,-6000.000000,Speed,Speed,-0.290000,1.250000,1.700000,1.000000,102.000000,1,0,-0.001550,0.000062,0,4.743881,-3.037201,0.000000,7.798126,-2.682083,0.000000,0.097000,-0.084000,-0.050000,FlatInitial
04:10:40.567 PM 02/14/2016,Teleop Enabled,0,FALSE,0,NO ERROR,-5997.656250,5992.968750,-6000.000000,-6000.000000,Speed,Speed,-0.290000,1.300000,1.550000,1.000000,101.000000,1,0,-0.001550,0.000062,0,4.843475,-3.138077,0.000000,8.086273,-2.868103,0.000000,0.077000,-0.089000,-0.039000,FlatInitial
04:10:40.667 PM 02/14/2016,Teleop Enabled,0,FALSE,0,NO ERROR,-5994.140625,5996.484375,-6000.000000,-6000.000000,Speed,Speed,-0.290000,1.320000,1.460000,1.000000,101.000000,1,0,-0.001550,0.000062,0,4.919846,-3.205475,0.000000,8.330719,-3.026901,0.000000,0.080000,-0.144000,0.003000,FlatInitial
04:10:40.768 PM 02/14/2016,Teleop Enabled,0,FALSE,0,NO ERROR,-5994.140625,5998.242188,-6000.000000,-6000.000000,Speed,Speed,-0.290000,1.340000,1.400000,1.000000,101.000000,1,0,-0.001550,0.000062,0,4.996445,-3.275391,0.000000,8.578964,-3.189285,0.000000,0.070000,-0.030000,-0.028000,FlatInitial
04:10:40.868 PM 02/14/2016,Teleop Enabled,0,FALSE,0,NO ERROR,-5994.140625,6001.171875,-6000.000000,-6000.000000,Speed,Speed,-0.290000,1.370000,1.310000,1.000000,103.000000,1,0,-0.001550,0.000062,0,5.082825,-3.354370,0.000000,8.831345,-3.355377,0.000000,0.066000,-0.073000,-0.024000,FlatInitial
04:10:40.968 PM 02/14/2016,Teleop Enabled,0,FALSE,0,NO ERROR,-5994.140625,6004.687500,-6000.000000,-6000.000000,Speed,Speed,-0.290000,1.390000,1.270000,1.000000,101.000000,1,0,-0.001550,0.000062,0,5.174377,-3.433350,0.000000,9.139465,-3.559525,0.000000,0.084000,-0.037000,-0.042000,FlatInitial
04:10:41.068 PM 02/14/2016,Teleop Enabled,0,FALSE,0,NO ERROR,-5995.312500,6007.617188,-6000.000000,-6000.000000,Speed,Speed,-0.290000,1.420000,1.220000,1.000000,101.000000,1,0,-0.001550,0.000062,0,5.267776,-3.495728,0.000000,9.400894,-3.732864,0.000000,0.099000,-0.037000,-0.036000,FlatInitial
04:10:41.168 PM 02/14/2016,Teleop Enabled,0,FALSE,0,NO ERROR,-5996.484375,6004.687500,-6000.000000,-6000.000000,Speed,Speed,-0.290000,1.480000,1.230000,1.000000,102.000000,1,0,-0.001550,0.000062,0,5.346405,-3.546875,0.000000,9.613571,-3.873825,0.000000,0.068000,-0.034000,-0.037000,FlatInitial
04:10:41.268 PM 02/14/2016,Teleop Enabled,0,FALSE,0,NO ERROR,-5996.484375,6001.757812,-6000.000000,-6000.000000,Speed,Speed,-0.290000,1.520000,1.210000,1.000000,101.000000,1,0,-0.001550,0.000062,0,5.455688,-3.617615,0.000000,9.938141,-4.089264,0.000000,0.083000,-0.007000,-0.036000,FlatInitial
04:10:41.368 PM 02/14/2016,Teleop Enabled,0,FALSE,0,NO ERROR,-5998.242188,6001.171875,-6000.000000,-6000.000000,Speed,Speed,-0.290000,1.560000,1.190000,1.000000,102.000000,1,0,-0.001550,0.000062,0,5.558884,-3.674347,0.000000,10.214020,-4.271622,0.000000,0.107000,-0.023000,-0.071000,FlatInitial
04:10:41.468 PM 02/14/2016,Teleop Enabled,0,FALSE,0,NO ERROR,-6002.343750,5995.898438,-6000.000000,-6000.000000,Speed,Speed,-0.300000,1.600000,1.180000,1.000000,102.000000,1,0,-0.001550,0.000062,0,5.651810,-3.741013,0.000000,10.494766,-4.457138,0.000000,0.079000,-0.036000,-0.050000,FlatInitial
04:10:41.569 PM 02/14/2016,Teleop Enabled,0,FALSE,0,NO ERROR,-6004.101562,5995.898438,-6000.000000,-6000.000000,Speed,Speed,-0.300000,1.620000,1.130000,1.000000,102.000000,1,0,-0.001550,0.000062,0,5.728455,-3.803452,0.000000,10.722794,-4.608292,0.000000,0.090000,-0.115000,-0.038000,FlatInitial
04:10:41.668 PM 02/14/2016,Teleop Enabled,0,FALSE,0,NO ERROR,-6007.617188,5997.656250,-6000.000000,-6000.000000,Speed,Speed,-0.300000,1.640000,1.070000,1.000000,102.000000,1,0,-0.001550,0.000062,0,5.823746,-3.865326,0.000000,11.069763,-4.838898,0.000000,0.097000,-0.008000,-0.059000,FlatInitial
04:10:41.769 PM 02/14/2016,Teleop Enabled,0,FALSE,0,NO ERROR,-6008.203125,6004.101562,-6000.000000,-6000.000000,Speed,Speed,-0.300000,1.650000,1.020000,1.000000,102.000000,1,0,-0.001550,0.000062,0,5.915787,-3.906952,0.000000,11.363663,-5.033234,0.000000,0.101000,-0.012000,-0.080000,FlatInitial
04:10:41.869 PM 02/14/2016,Teleop Enabled,0,FALSE,0,NO ERROR,-6007.617188,6004.687500,-6000.000000,-6000.000000,Speed,Speed,-0.300000,1.690000,0.980000,1.000000,102.000000,1,0,-0.001550,0.000062,0,6.007309,-3.944046,0.000000,11.662216,-5.229568,0.000000,0.080000,-0.003000,-0.088000,FlatInitial
04:10:41.970 PM 02/14/2016,Teleop Enabled,0,FALSE,0,NO ERROR,-6005.273438,6005.859375,-6000.000000,-6000.000000,Speed,Speed,-0.300000,1.700000,0.950000,1.000000,103.000000,1,0,-0.001550,0.000062,0,6.070480,-3.969055,0.000000,11.904083,-5.387939,0.000000,0.095000,0.009000,-0.080000,FlatInitial
04:10:42.071 PM 02/14/2016,Teleop Enabled,0,FALSE,0,NO ERROR,-6002.343750,6007.617188,-6000.000000,-6000.000000,Speed,Speed,-0.300000,1.700000,0.910000,1.000000,102.000000,1,0,-0.001550,0.000062,0,6.178955,-0.021637,0.000000,12.272079,-5.428131,0.000000,0.094000,-0.014000,-0.118000,FlatInitial
04:10:42.171 PM 02/14/2016,Teleop Enabled,0,FALSE,0,NO ERROR,-6001.757812,6004.687500,-6000.000000,-6000.000000,Speed,Speed,-0.290000,1.720000,0.820000,1.000000,103.000000,1,0,-0.001550,0.000062,0,6.267731,-0.068268,0.000000,12.583786,-5.430420,0.000000,0.074000,-0.009000,-0.115000,FlatInitial
04:10:42.272 PM 02/14/2016,Teleop Enabled,0,FALSE,0,NO ERROR,-5999.414062,6002.929688,-6000.000000,-6000.000000,Speed,Speed,-0.290000,1.720000,0.780000,1.000000,101.000000,1,0,-0.001550,0.000062,0,6.355576,-0.095367,0.000000,12.899872,-5.434555,0.000000,0.093000,-0.005000,-0.114000,FlatInitial
04:10:42.372 PM 02/14/2016,Teleop Enabled,0,FALSE,0,NO ERROR,-6000.585938,6001.171875,-6000.000000,-6000.000000,Speed,Speed,-0.290000,1.720000,0.770000,1.000000,101.000000,1,0,-0.001550,0.000062,0,6.422302,-0.003616,0.000000,13.155792,-5.435577,0.000000,0.084000,-0.045000,-0.152000,FlatInitial
04:10:42.473 PM 02/14/2016,Teleop Enabled,0,FALSE,0,NO ERROR,-5999.414062,5998.242188,-6000.000000,-6000.000000,Speed,Speed,-0.300000,1.720000,0.750000,1.000000,103.000000,1,0,-0.001550,0.000062,0,6.505249,0.000000,0.000000,13.479401,-5.435944,0.000000,0.072000,-0.020000,-0.120000,FlatInitial
04:10:42.573 PM 02/14/2016,Teleop Enabled,0,FALSE,0,NO ERROR,-6000.000000,5992.968750,-6000.000000,-6000.000000,Speed,Speed,-0.300000,1.750000,0.690000,1.000000,101.000000,1,0,-0.001550,0.000062,0,6.601807,-0.021957,0.000000,13.873108,-5.436783,0.000000,0.076000,0.015000,-0.117000,FlatInitial
04:10:42.673 PM 02/14/2016,Teleop Enabled,0,FALSE,0,NO ERROR,-5998.828125,5995.312500,-6000.000000,-6000.000000,Speed,Speed,-0.290000,1.740000,0.680000,1.000000,103.000000,1,0,-0.001550,0.000062,0,6.674820,-0.029221,0.000000,14.205353,-5.438095,0.000000,0.097000,0.025000,-0.093000,FlatInitial
04:10:42.773 PM 02/14/2016,Teleop Enabled,0,FALSE,0,NO ERROR,-5998.242188,5996.484375,-6000.000000,-6000.000000,Speed,Speed,-0.290000,1.730000,0.680000,1.000000,102.000000,1,0,-0.001550,0.000062,0,6.759262,-0.010971,0.000000,14.541626,-5.438507,0.000000,0.099000,-0.020000,-0.119000,FlatInitial
04:10:42.873 PM 02/14/2016,Teleop Enabled,0,FALSE,0,NO ERROR,-5997.656250,5997.656250,-6000.000000,-6000.000000,Speed,Speed,-0.290000,1.750000,0.610000,1.000000,101.000000,1,0,-0.001550,0.000062,0,6.841202,-0.046799,0.000000,14.882141,-5.440002,0.000000,0.081000,0.000000,-0.105000,FlatInitial
04:10:42.973 PM 02/14/2016,Teleop Enabled,0,FALSE,0,NO ERROR,-5998.828125,6000.585938,-6000.000000,-6000.000000,Speed,Speed,-0.300000,1.740000,0.580000,1.000000,101.000000,1,0,-0.001550,0.000062,0,6.924072,-0.060486,0.000000,15.226776,-5.442780,0.000000,0.079000,0.015000,-0.094000,FlatInitial
04:10:43.073 PM 02/14/2016,Teleop Enabled,0,FALSE,0,NO ERROR,-5997.070312,6008.203125,-6000.000000,-6000.000000,Speed,Speed,-0.300000,1.740000,0.580000,1.000000,101.000000,1,0,-0.001550,0.000062,0,7.025314,0.004089,0.000000,15.645721,-5.443283,0.000000,0.083000,-0.043000,-0.155000,FlatInitial
04:10:43.173 PM 02/14/2016,Teleop Enabled,0,FALSE,0,NO ERROR,-5997.070312,6009.960938,-6000.000000,-6000.000000,Speed,Speed,-0.300000,1.750000,0.580000,1.000000,101.000000,1,0,-0.001550,0.000062,0,7.093857,-0.010788,0.000000,15.928436,-5.443527,0.000000,0.122000,-0.025000,-0.135000,FlatInitial
04:10:43.273 PM 02/14/2016,Teleop Enabled,0,FALSE,0,NO ERROR,-5997.070312,6003.515625,-6000.000000,-6000.000000,Speed,Speed,-0.300000,1.750000,0.510000,1.000000,101.000000,1,0,-0.001550,0.000062,0,7.176056,-0.005356,0.000000,16.285660,-5.443954,0.000000,0.085000,0.011000,-0.130000,FlatInitial
04:10:43.373 PM 02/14/2016,Teleop Enabled,0,FALSE,0,NO ERROR,-5996.484375,6002.929688,-6000.000000,-6000.000000,Speed,Speed,-0.300000,1.740000,0.490000,1.000000,104.000000,1,0,-0.001550,0.000062,0,7.245834,-0.017624,0.000000,16.646591,-5.444366,0.000000,0.092000,-0.038000,-0.168000,FlatInitial
04:10:43.474 PM 02/14/2016,Teleop Enabled,0,FALSE,0,NO ERROR,-6000.000000,6001.757812,-6000.000000,-6000.000000,Speed,Speed,-0.300000,1.730000,0.450000,1.000000,101.000000,1,0,-0.001550,0.000062,0,7.364548,-0.035065,0.000000,17.158585,-5.446136,0.000000,0.099000,-0.017000,-0.143000,FlatInitial
04:10:43.574 PM 02/14/2016,Teleop Enabled,0,FALSE,0,NO ERROR,-6001.757812,5998.828125,-6000.000000,-6000.000000,Speed,Speed,-0.300000,1.730000,0.370000,1.000000,101.000000,1,0,-0.001550,0.000062,0,7.425919,-0.048157,0.000000,17.454697,-5.448013,0.000000,0.081000,-0.027000,-0.158000,FlatInitial
04:10:43.675 PM 02/14/2016,Teleop Enabled,0,FALSE,0,NO ERROR,-6004.101562,6000.000000,-6000.000000,-6000.000000,Speed,Speed,-0.300000,1.710000,0.330000,1.000000,102.000000,1,0,-0.001550,0.000062,0,7.487518,-0.061798,0.000000,17.753265,-5.450333,0.000000,0.094000,0.012000,-0.153000,FlatInitial
04:10:43.776 PM 02/14/2016,Teleop Enabled,0,FALSE,0,NO ERROR,-6005.273438,6002.929688,-6000.000000,-6000.000000,Speed,Speed,-0.300000,1.700000,0.360000,1.000000,101.000000,1,0,-0.001550,0.000062,0,7.576324,-0.043304,0.000000,18.205719,-5.453629,0.000000,0.056000,-0.034000,-0.149000,FlatInitial
04:10:43.876 PM 02/14/2016,Teleop Enabled,0,FALSE,0,NO ERROR,-6007.031250,6002.929688,-6000.000000,-6000.000000,Speed,Speed,-0.290000,1.670000,0.410000,1.000000,101.000000,1,0,-0.001550,0.000062,0,7.638794,-0.020966,0.000000,18.586365,-5.455154,0.000000,0.058000,0.006000,-0.112000,FlatInitial
04:10:43.977 PM 02/14/2016,Teleop Enabled,0,FALSE,0,NO ERROR,-6007.617188,5997.656250,-6000.000000,-6000.000000,Speed,Speed,-0.300000,1.640000,0.440000,1.000000,102.000000,1,0,-0.001550,0.000062,0,7.703049,0.011292,0.000000,18.970139,-5.455368,0.000000,0.069000,0.037000,-0.138000,FlatInitial
04:10:44.077 PM 02/14/2016,Teleop Enabled,0,FALSE,0,NO ERROR,-6006.445312,5997.656250,-6000.000000,-6000.000000,Speed,Speed,-0.300000,1.610000,0.540000,1.000000,102.000000,1,0,-0.001550,0.000062,0,7.767273,0.056091,0.000000,19.357147,-5.453522,0.000000,0.066000,0.038000,-0.152000,FlatInitial
04:10:44.177 PM 02/14/2016,Teleop Enabled,0,FALSE,0,NO ERROR,-6005.273438,5995.312500,-6000.000000,-6000.000000,Speed,Speed,-0.300000,1.600000,0.620000,1.000000,102.000000,1,0,-0.001550,0.000062,0,7.830734,0.111649,0.000000,19.747391,-5.449097,0.000000,0.088000,0.042000,-0.170000,FlatInitial
04:10:44.279 PM 02/14/2016,Teleop Enabled,0,FALSE,0,NO ERROR,-6004.687500,5993.554688,-6000.000000,-6000.000000,Speed,Speed,-0.290000,1.570000,0.750000,1.000000,102.000000,1,0,-0.001550,0.000062,0,7.896240,0.169250,0.000000,20.140945,-5.441925,0.000000,0.057000,0.084000,-0.126000,FlatInitial
04:10:44.380 PM 02/14/2016,Teleop Enabled,0,FALSE,0,NO ERROR,-6001.171875,5997.070312,-6000.000000,-6000.000000,Speed,Speed,-0.290000,1.540000,0.860000,1.000000,102.000000,1,0,-0.001550,0.000062,0,7.960953,0.240234,0.000000,20.537704,-5.431335,0.000000,0.062000,0.056000,-0.173000,FlatInitial
04:10:44.481 PM 02/14/2016,Teleop Enabled,0,FALSE,0,NO ERROR,-5995.898438,5998.242188,-6000.000000,-6000.000000,Speed,Speed,-0.290000,1.520000,0.960000,1.000000,101.000000,1,0,-0.001550,0.000062,0,8.025742,0.295258,0.000000,20.937714,-5.417770,0.000000,0.046000,0.058000,-0.188000,FlatInitial
04:10:44.581 PM 02/14/2016,Teleop Enabled,0,FALSE,0,NO ERROR,-5992.968750,6003.515625,-6000.000000,-6000.000000,Speed,Speed,-0.280000,1.490000,1.100000,1.000000,102.000000,1,0,-0.001550,0.000062,0,8.075195,0.359253,0.000000,21.340424,-5.401093,0.000000,0.066000,0.042000,-0.169000,FlatInitial
04:10:44.681 PM 02/14/2016,Teleop Enabled,0,FALSE,0,NO ERROR,-5990.625000,6005.273438,-6000.000000,-6000.000000,Speed,Speed,-0.280000,1.470000,1.120000,1.000000,102.000000,1,0,-0.001550,0.000062,0,8.132812,0.414719,0.000000,21.745956,-5.381592,0.000000,0.055000,0.054000,-0.183000,FlatInitial
04:10:44.780 PM 02/14/2016,Teleop Enabled,0,FALSE,0,NO ERROR,-5992.382812,6008.203125,-6000.000000,-6000.000000,Speed,Speed,-0.280000,1.420000,1.190000,1.000000,101.000000,1,0,-0.001550,0.000062,0,8.180161,0.464874,0.000000,22.153992,-5.359299,0.000000,0.044000,0.045000,-0.152000,FlatInitial
04:10:44.881 PM 02/14/2016,Teleop Enabled,0,FALSE,0,NO ERROR,-5994.726562,6006.445312,-6000.000000,-6000.000000,Speed,Speed,-0.280000,1.370000,1.180000,1.000000,101.000000,1,0,-0.001550,0.000062,0,8.225204,0.506088,0.000000,22.564270,-5.334747,0.000000,0.053000,0.024000,-0.120000,FlatInitial
04:10:44.981 PM 02/14/2016,Teleop Enabled,0,FALSE,0,NO ERROR,-5996.484375,6000.585938,-6000.000000,-6000.000000,Speed,Speed,-0.270000,1.310000,1.200000,1.000000,101.000000,1,0,-0.001550,0.000062,0,8.274826,0.552567,0.000000,22.977020,-5.308243,0.000000,0.045000,0.039000,-0.136000,FlatInitial
04:10:45.083 PM 02/14/2016,Teleop Enabled,0,FALSE,0,NO ERROR,-5999.414062,5997.070312,-6000.000000,-6000.000000,Speed,Speed,-0.270000,1.260000,1.200000,1.000000,105.000000,1,0,-0.001550,0.000062,0,8.327347,0.590240,0.000000,23.392242,-5.279449,0.000000,0.055000,0.033000,-0.171000,FlatInitial
04:10:45.183 PM 02/14/2016,Teleop Enabled,0,FALSE,0,NO ERROR,-6001.757812,5994.726562,-6000.000000,-6000.000000,Speed,Speed,-0.270000,1.230000,1.250000,1.000000,102.000000,1,0,-0.001550,0.000062,0,8.386307,0.649109,0.000000,23.894028,-5.241898,0.000000,0.041000,0.061000,-0.167000,FlatInitial
04:10:45.283 PM 02/14/2016,Teleop Enabled,0,FALSE,0,NO ERROR,-6007.617188,5993.554688,-6000.000000,-6000.000000,Speed,Speed,-0.270000,1.180000,1.270000,1.000000,101.000000,1,0,-0.001550,0.000062,0,8.417969,0.692261,0.000000,24.230240,-5.214859,0.000000,0.048000,0.068000,-0.149000,FlatInitial
04:10:45.383 PM 02/14/2016,Teleop Enabled,0,FALSE,0,NO ERROR,-6011.718750,5991.796875,-6000.000000,-6000.000000,Speed,Speed,-0.270000,1.130000,1.340000,1.000000,103.000000,1,0,-0.001550,0.000062,0,8.470200,0.765228,0.000000,24.652664,-5.178223,0.000000,0.058000,0.092000,-0.197000,FlatInitial
04:10:45.483 PM 02/14/2016,Teleop Enabled,0,FALSE,0,NO ERROR,-6009.960938,5995.312500,-6000.000000,-6000.000000,Speed,Speed,-0.260000,1.120000,1.450000,1.000000,103.000000,1,0,-0.001550,0.000062,0,8.542953,0.860413,0.000000,25.163361,-5.128891,0.000000,0.063000,0.075000,-0.158000,FlatInitial
04:10:45.583 PM 02/14/2016,Teleop Enabled,0,FALSE,0,NO ERROR,-6005.273438,5998.242188,-6000.000000,-6000.000000,Speed,Speed,-0.260000,1.120000,1.590000,1.000000,101.000000,1,0,-0.001550,0.000062,0,8.607864,0.951324,0.000000,25.592407,-5.083099,0.000000,0.066000,0.083000,-0.152000,FlatInitial
04:10:45.685 PM 02/14/2016,Teleop Enabled,0,FALSE,0,NO ERROR,-6002.343750,6002.929688,-6000.000000,-6000.000000,Speed,Speed,-0.260000,1.110000,1.730000,1.000000,101.000000,1,0,-0.001550,0.000062,0,8.648163,1.024353,0.000000,25.937744,-5.043289,0.000000,0.030000,0.111000,-0.137000,FlatInitial
04:10:45.786 PM 02/14/2016,Teleop Enabled,0,FALSE,0,NO ERROR,-6001.757812,6008.789062,-6000.000000,-6000.000000,Speed,Speed,-0.260000,1.090000,1.890000,1.000000,103.000000,1,0,-0.001550,0.000062,0,8.705856,1.145798,0.000000,26.458618,-4.977524,0.000000,0.036000,0.101000,-0.151000,FlatInitial
04:10:45.887 PM 02/14/2016,Teleop Enabled,0,FALSE,0,NO ERROR,-5999.414062,6011.718750,-6000.000000,-6000.000000,Speed,Speed,-0.260000,1.070000,2.000000,1.000000,105.000000,1,1,0.000000,-0.000000,0,8.746368,1.235825,0.000000,26.895218,-4.917603,0.000000,0.031000,0.091000,-0.126000,FlatInitial
04:10:45.988 PM 02/14/2016,Teleop Enabled,0,FALSE,0,NO ERROR,-5998.242188,6004.101562,-6000.000000,-6000.000000,Speed,Speed,-0.250000,1.040000,2.130000,1.000000,103.000000,1,1,0.000000,-0.000000,0,8.787064,1.335297,0.000000,27.333710,-4.852707,0.000000,0.039000,0.107000,-0.122000,FlatInitial
04:10:46.089 PM 02/14/2016,Teleop Enabled,0,FALSE,0,NO ERROR,-5996.484375,5999.414062,-6000.000000,-6000.000000,Speed,Speed,-0.250000,1.000000,2.240000,1.000000,102.000000,1,1,0.000000,-0.000000,0,8.828201,1.442047,0.000000,27.774460,-4.782654,0.000000,0.023000,0.111000,-0.145000,FlatInitial
04:10:46.189 PM 02/14/2016,Teleop Enabled,0,FALSE,0,NO ERROR,-5994.726562,5999.414062,-6000.000000,-6000.000000,Speed,Speed,-0.240000,0.960000,2.340000,1.000000,102.000000,1,1,0.000000,-0.000000,0,8.862198,1.529709,0.000000,28.216919,-4.707718,0.000000,0.025000,0.092000,-0.122000,FlatInitial
04:10:46.289 PM 02/14/2016,Teleop Enabled,0,FALSE,0,NO ERROR,-5994.726562,5995.312500,-6000.000000,-6000.000000,Speed,Speed,-0.240000,0.930000,2.420000,1.000000,102.000000,1,1,0.000000,-0.000000,0,8.901794,1.615005,0.000000,28.661194,-4.628525,0.000000,0.035000,0.088000,-0.111000,FlatInitial
04:10:46.390 PM 02/14/2016,Teleop Enabled,0,FALSE,0,NO ERROR,-5993.554688,5991.796875,-6000.000000,-6000.000000,Speed,Speed,-0.240000,0.930000,2.420000,1.000000,103.000000,1,1,0.000000,-0.000000,0,8.901794,1.615005,0.000000,28.661194,-4.628525,0.000000,0.035000,0.088000,-0.111000,FlatInitial
04:10:46.491 PM 02/14/2016,Teleop Enabled,0,FALSE,0,NO ERROR,-5997.070312,5994.726562,-6000.000000,-6000.000000,Speed,Speed,-0.240000,0.870000,2.490000,1.000000,102.000000,1,1,0.000000,-0.000000,0,8.953262,1.729309,0.000000,29.286331,-4.510773,0.000000,0.052000,0.099000,-0.185000,FlatInitial
04:10:46.589 PM 02/14/2016,Teleop Enabled,0,FALSE,0,NO ERROR,-6001.757812,5996.484375,-6000.000000,-6000.000000,Speed,Speed,-0.230000,0.840000,2.460000,1.000000,102.000000,1,1,-0.250000,-0.250000,0,0.000000,1.825165,0.000000,29.915085,-4.367889,0.000000,0.011000,0.070000,-0.153000,FlatInitial
04:10:46.690 PM 02/14/2016,Teleop Enabled,0,FALSE,0,NO ERROR,-5995.312500,5996.484375,-6000.000000,-6000.000000,Speed,Speed,0.310000,0.670000,1.770000,1.000000,104.000000,1,1,0.000000,-0.000000,0,-0.014130,1.822357,0.000000,29.915085,-4.275848,0.000000,-0.041000,-0.100000,-0.059000,FlatInitial
04:10:46.792 PM 02/14/2016,Teleop Enabled,0,FALSE,0,NO ERROR,-5974.804688,5972.460938,-6000.000000,-6000.000000,Speed,Speed,3.660000,0.520000,1.970000,1.000000,104.000000,1,1,0.000000,-0.000000,0,0.071075,-0.001205,0.000000,29.915802,-4.218369,0.000000,-0.041000,-0.100000,-0.059000,FlatInitial
04:10:46.893 PM 02/14/2016,Teleop Enabled,0,FALSE,0,NO ERROR,-5985.351562,5972.460938,-6000.000000,-6000.000000,Speed,Speed,3.660000,0.520000,1.970000,1.000000,102.000000,1,1,0.000000,-0.000000,0,0.071075,-0.001205,0.000000,29.915802,-4.218369,0.000000,0.238000,0.036000,-0.055000,FlatInitial
04:10:46.994 PM 02/14/2016,Teleop Enabled,0,FALSE,0,NO ERROR,-6011.132812,6001.171875,-6000.000000,-6000.000000,Speed,Speed,5.070000,0.910000,1.900000,1.000000,102.000000,1,1,0.000000,-0.000000,0,0.288391,-0.078079,0.000000,29.936951,-4.223923,0.000000,0.136000,0.056000,-0.237000,FlatInitial
04:10:47.094 PM 02/14/2016,Teleop Enabled,0,FALSE,0,NO ERROR,-6011.132812,6014.648438,-6000.000000,-6000.000000,Speed,Speed,4.340000,1.090000,2.100000,1.000000,101.000000,1,1,0.000000,-0.000000,0,0.396255,0.033066,0.000000,29.958817,-4.224792,0.000000,0.025000,0.158000,-0.126000,FlatInitial
04:10:47.196 PM 02/14/2016,Teleop Enabled,0,FALSE,0,NO ERROR,-6013.476562,6014.648438,-6000.000000,-6000.000000,Speed,Speed,4.240000,0.880000,2.600000,1.000000,102.000000,1,1,0.000000,-0.000000,0,0.447174,0.083786,0.000000,29.979675,-4.220963,0.000000,0.106000,0.027000,-0.058000,FlatInitial
04:10:47.297 PM 02/14/2016,Teleop Enabled,0,FALSE,0,NO ERROR,-6010.546875,6020.507812,-6000.000000,-6000.000000,Speed,Speed,4.300000,0.870000,2.300000,1.000000,101.000000,1,1,0.000000,-0.000000,0,0.497879,0.148605,0.000000,30.003845,-4.215027,0.000000,0.042000,0.099000,-0.048000,FlatInitial
04:10:47.398 PM 02/14/2016,Teleop Enabled,0,FALSE,0,NO ERROR,-6008.789062,6020.507812,-6000.000000,-6000.000000,Speed,Speed,4.300000,0.870000,2.300000,1.000000,101.000000,1,1,0.000000,-0.000000,0,0.497879,0.148605,0.000000,30.003845,-4.215027,0.000000,0.042000,0.099000,-0.048000,FlatInitial
04:10:47.499 PM 02/14/2016,Teleop Enabled,0,FALSE,0,NO ERROR,-6008.789062,6009.375000,-6000.000000,-6000.000000,Speed,Speed,4.310000,0.750000,2.500000,1.000000,102.000000,1,1,0.000000,-0.000000,0,0.625931,0.266464,0.000000,30.061874,-4.193130,0.000000,0.060000,0.074000,-0.101000,FlatInitial
04:10:47.600 PM 02/14/2016,Teleop Enabled,0,FALSE,0,NO ERROR,-6004.687500,6004.101562,-6000.000000,-6000.000000,Speed,Speed,4.280000,0.740000,2.380000,1.000000,104.000000,1,1,0.000000,-0.000000,0,0.670563,0.333878,0.000000,30.094742,-4.177811,0.000000,0.037000,0.085000,-0.134000,FlatInitial
04:10:47.705 PM 02/14/2016,Teleop Enabled,0,FALSE,0,NO ERROR,-6000.000000,6003.515625,-6000.000000,-6000.000000,Speed,Speed,4.370000,0.680000,2.560000,1.000000,102.000000,1,1,0.000000,-0.000000,0,0.721710,0.407745,0.000000,30.129684,-4.158676,0.000000,0.046000,0.108000,-0.087000,FlatInitial
04:10:47.803 PM 02/14/2016,Teleop Enabled,0,FALSE,0,NO ERROR,-6000.000000,6000.585938,-6000.000000,-6000.000000,Speed,Speed,4.320000,0.660000,2.580000,1.000000,102.000000,1,1,0.000000,-0.000000,0,0.769409,0.491440,0.000000,30.167343,-4.135681,0.000000,0.048000,0.058000,-0.114000,FlatInitial
04:10:47.903 PM 02/14/2016,Teleop Enabled,0,FALSE,0,NO ERROR,-5997.656250,5997.656250,-6000.000000,-6000.000000,Speed,Speed,4.300000,0.650000,2.600000,1.000000,108.000000,1,1,-0.085374,-0.085374,0,0.769409,0.491440,0.000000,30.167343,-4.135681,0.000000,0.048000,0.058000,-0.114000,FlatInitial
04:10:48.004 PM 02/14/2016,Teleop Enabled,0,FALSE,0,NO ERROR,-5995.898438,6000.000000,-6000.000000,-6000.000000,Speed,Speed,4.300000,0.650000,2.600000,1.000000,102.000000,1,1,-0.085374,-0.085374,0,0.843231,0.628052,0.000000,30.248489,-4.078629,0.000000,0.018000,0.096000,-0.104000,FlatInitial
04:10:48.104 PM 02/14/2016,Teleop Enabled,0,FALSE,0,NO ERROR,-5996.484375,5999.414062,-6000.000000,-6000.000000,Speed,Speed,4.880000,0.540000,2.500000,1.000000,102.000000,1,1,0.000000,-0.000000,0,0.882935,0.707993,0.000000,30.291565,-4.044540,0.000000,0.062000,0.082000,-0.043000,FlatInitial
04:10:48.204 PM 02/14/2016,Teleop Enabled,0,FALSE,0,NO ERROR,-5993.554688,5995.312500,-6000.000000,-6000.000000,Speed,Speed,4.940000,0.620000,2.600000,1.000000,102.000000,1,1,0.000000,-0.000000,0,0.958069,0.763336,0.000000,30.347290,-4.000229,0.000000,0.062000,0.082000,-0.043000,FlatInitial
04:10:48.304 PM 02/14/2016,Teleop Enabled,0,FALSE,0,NO ERROR,-5992.968750,5997.070312,-6000.000000,-6000.000000,Speed,Speed,4.690000,0.510000,2.910000,1.000000,101.000000,1,1,0.000000,-0.000000,0,0.958069,0.763336,0.000000,30.347290,-4.000229,0.000000,0.010000,0.070000,-0.093000,FlatInitial
04:10:48.404 PM 02/14/2016,Teleop Enabled,0,FALSE,0,NO ERROR,-5994.726562,5996.484375,-6000.000000,-6000.000000,Speed,Speed,4.770000,0.520000,2.770000,1.000000,104.000000,1,1,0.000000,-0.000000,0,0.996246,0.845444,0.000000,30.396210,-3.959671,0.000000,0.073000,0.086000,-0.088000,FlatInitial
04:10:48.504 PM 02/14/2016,Teleop Enabled,0,FALSE,0,NO ERROR,-5997.656250,5992.968750,-6000.000000,-6000.000000,Speed,Speed,4.770000,0.520000,2.730000,1.000000,102.000000,1,1,0.000000,-0.000000,0,1.112122,0.958344,0.000000,30.491531,-3.877121,0.000000,0.055000,0.082000,-0.097000,FlatInitial
04:10:48.604 PM 02/14/2016,Teleop Enabled,0,FALSE,0,NO ERROR,-6001.171875,5995.312500,-6000.000000,-6000.000000,Speed,Speed,4.770000,0.460000,2.840000,1.000000,102.000000,1,1,0.000000,-0.000000,0,1.173721,1.019775,0.000000,30.560593,-3.817352,0.000000,0.055000,0.082000,-0.097000,FlatInitial
04:10:48.704 PM 02/14/2016,Teleop Enabled,0,FALSE,0,NO ERROR,-6006.445312,6000.000000,-6000.000000,-6000.000000,Speed,Speed,4.710000,0.450000,2.960000,1.000000,103.000000,1,1,0.000000,-0.000000,0,1.210297,1.093307,0.000000,30.608475,-3.774918,0.000000,0.033000,0.080000,-0.083000,FlatInitial
04:10:48.805 PM 02/14/2016,Teleop Enabled,0,FALSE,0,NO ERROR,-6011.718750,6004.101562,-6000.000000,-6000.000000,Speed,Speed,4.750000,0.450000,2.870000,1.000000,117.000000,1,1,0.000000,-0.000000,0,1.247620,1.165283,0.000000,30.670135,-3.718002,0.000000,0.051000,0.073000,-0.047000,FlatInitial
04:10:48.905 PM 02/14/2016,Teleop Enabled,0,FALSE,0,NO ERROR,-6010.546875,6005.273438,-6000.000000,-6000.000000,Speed,Speed,4.750000,0.450000,2.870000,1.000000,102.000000,1,1,0.000000,-0.000000,0,1.247620,1.165283,0.000000,30.670135,-3.718002,0.000000,0.051000,0.073000,-0.047000,FlatInitial
04:10:49.005 PM 02/14/2016,Teleop Enabled,0,FALSE,0,NO ERROR,-6004.101562,6009.960938,-6000.000000,-6000.000000,Speed,Speed,4.730000,0.500000,2.780000,1.000000,110.000000,1,1,0.000000,-0.000000,0,1.325058,1.288391,0.000000,30.812347,-3.582458,0.000000,0.028000,0.088000,-0.095000,FlatInitial
04:10:49.107 PM 02/14/2016,Teleop Enabled,0,FALSE,0,NO ERROR,-6000.000000,6007.031250,-6000.000000,-6000.000000,Speed,Speed,4.730000,0.540000,2.870000,1.000000,103.000000,1,1,0.000000,-0.000000,0,1.325058,1.288391,0.000000,30.812347,-3.582458,0.000000,0.039000,0.047000,-0.091000,FlatInitial
04:10:49.205 PM 02/14/2016,Teleop Enabled,0,FALSE,0,NO ERROR,-5995.898438,6004.687500,-6000.000000,-6000.000000,Speed,Speed,4.730000,0.540000,2.870000,1.000000,103.000000,1,1,0.000000,-0.000000,0,1.354523,1.367416,0.000000,30.879593,-3.515778,0.000000,0.023000,0.075000,-0.112000,FlatInitial
04:10:49.306 PM 02/14/2016,Teleop Enabled,0,FALSE,0,NO ERROR,-5993.554688,6003.515625,-6000.000000,-6000.000000,Speed,Speed,4.720000,0.590000,2.730000,1.000000,102.000000,1,1,0.000000,-0.000000,0,0.002899,1.422073,0.000000,30.920502,-3.445755,0.000000,0.028000,0.041000,-0.151000,FlatInitial
04:10:49.406 PM 02/14/2016,Teleop Enabled,0,FALSE,0,NO ERROR,-5992.382812,6003.515625,-6000.000000,-6000.000000,Speed,Speed,4.730000,0.620000,2.710000,1.000000,102.000000,1,1,0.000000,-0.000000,0,0.026367,1.483795,0.000000,30.921371,-3.372650,0.000000,0.025000,0.083000,-0.127000,FlatInitial
04:10:49.506 PM 02/14/2016,Teleop Enabled,0,FALSE,0,NO ERROR,-5992.382812,5999.414062,-6000.000000,-6000.000000,Speed,Speed,4.720000,0.640000,2.770000,1.000000,103.000000,1,1,0.000000,-0.000000,0,0.000000,1.538071,0.000000,30.922913,-3.296829,0.000000,0.007000,0.048000,-0.151000,FlatInitial
04:10:49.607 PM 02/14/2016,Teleop Enabled,0,FALSE,0,NO ERROR,-5994.726562,5996.484375,-6000.000000,-6000.000000,Speed,Speed,4.730000,0.660000,2.840000,1.000000,101.000000,1,1,0.000000,-0.000000,0,0.013351,1.611908,0.000000,30.923187,-3.217697,0.000000,0.028000,0.065000,-0.121000,FlatInitial
04:10:49.708 PM 02/14/2016,Teleop Enabled,0,FALSE,0,NO ERROR,-5998.242188,5998.828125,-6000.000000,-6000.000000,Speed,Speed,4.720000,0.680000,2.810000,1.000000,102.000000,1,1,0.000000,-0.000000,0,0.030365,1.663910,0.000000,30.924255,-3.135559,0.000000,0.024000,0.045000,-0.148000,FlatInitial
04:10:49.809 PM 02/14/2016,Teleop Enabled,0,FALSE,0,NO ERROR,-6000.585938,5999.414062,-6000.000000,-6000.000000,Speed,Speed,4.730000,0.690000,2.810000,1.000000,100.000000,1,1,0.000000,-0.000000,0,0.054642,1.719254,0.000000,30.926422,-3.050613,0.000000,0.042000,0.055000,-0.146000,FlatInitial
04:10:49.909 PM 02/14/2016,Teleop Enabled,0,FALSE,0,NO ERROR,-6003.515625,5998.242188,-6000.000000,-6000.000000,Speed,Speed,4.720000,0.710000,2.920000,1.000000,104.000000,1,1,0.000000,-0.000000,0,0.077362,1.786942,0.000000,30.929947,-2.962708,0.000000,0.025000,0.062000,-0.152000,FlatInitial
04:10:50.009 PM 02/14/2016,Teleop Enabled,0,FALSE,0,NO ERROR,-6008.789062,6000.585938,-6000.000000,-6000.000000,Speed,Speed,4.720000,0.740000,2.930000,1.000000,103.000000,1,1,0.000000,-0.000000,0,0.000000,1.862045,0.000000,30.934189,-2.852798,0.000000,0.000000,0.037000,-0.151000,FlatInitial
04:10:50.110 PM 02/14/2016,Teleop Enabled,0,FALSE,0,NO ERROR,-6007.617188,6005.273438,-6000.000000,-6000.000000,Speed,Speed,4.720000,0.760000,2.880000,1.000000,102.000000,1,1,0.000000,-0.000000,0,0.000000,1.913162,0.000000,30.934189,-2.758011,0.000000,0.008000,0.023000,-0.156000,FlatInitial
04:10:50.210 PM 02/14/2016,Teleop Enabled,0,FALSE,0,NO ERROR,-6007.031250,6005.273438,-6000.000000,-6000.000000,Speed,Speed,4.720000,0.800000,2.850000,1.000000,103.000000,1,1,0.000000,-0.000000,0,-0.009857,1.960648,0.000000,30.933975,-2.660782,0.000000,-0.019000,0.110000,-0.149000,FlatInitial
04:10:50.311 PM 02/14/2016,Teleop Enabled,0,FALSE,0,NO ERROR,-6003.515625,6004.687500,-6000.000000,-6000.000000,Speed,Speed,4.720000,0.830000,2.850000,1.000000,101.000000,1,1,0.000000,-0.000000,0,-0.011642,2.019623,0.000000,30.933762,-2.560760,0.000000,-0.042000,0.037000,-0.159000,FlatInitial
04:10:50.412 PM 02/14/2016,Teleop Enabled,0,FALSE,0,NO ERROR,-6000.000000,6006.445312,-6000.000000,-6000.000000,Speed,Speed,4.720000,0.890000,2.790000,1.000000,104.000000,1,1,0.000000,-0.000000,0,-0.039856,2.072556,0.000000,30.932373,-2.458176,0.000000,-0.040000,0.038000,-0.180000,FlatInitial
04:10:50.513 PM 02/14/2016,Teleop Enabled,0,FALSE,0,NO ERROR,-5997.070312,6006.445312,-6000.000000,-6000.000000,Speed,Speed,4.720000,0.960000,2.700000,1.000000,102.000000,1,1,0.000000,-0.000000,0,0.000000,2.115128,0.000000,30.930099,-2.353119,0.000000,-0.018000,0.038000,-0.240000,FlatInitial
04:10:50.613 PM 02/14/2016,Teleop Enabled,0,FALSE,0,NO ERROR,-5997.656250,6004.687500,-6000.000000,-6000.000000,Speed,Speed,4.710000,1.030000,2.640000,1.000000,103.000000,1,1,0.000000,-0.000000,0,-0.029221,2.163452,0.000000,30.929230,-2.245865,0.000000,-0.039000,0.079000,-0.206000,FlatInitial
04:10:50.713 PM 02/14/2016,Teleop Enabled,0,FALSE,0,NO ERROR,-5997.070312,6000.585938,-6000.000000,-6000.000000,Speed,Speed,4.710000,1.100000,2.600000,1.000000,103.000000,1,1,0.000000,-0.000000,0,-0.064148,2.228531,0.000000,30.926743,-2.135666,0.000000,-0.060000,0.054000,-0.202000,FlatInitial
04:10:50.814 PM 02/14/2016,Teleop Enabled,0,FALSE,0,NO ERROR,-5997.070312,5997.070312,-6000.000000,-6000.000000,Speed,Speed,4.710000,1.170000,2.520000,1.000000,103.000000,1,1,0.000000,-0.000000,0,-0.107697,2.286362,0.000000,30.922256,-2.022522,0.000000,-0.016000,0.082000,-0.225000,FlatInitial
04:10:50.915 PM 02/14/2016,Teleop Enabled,0,FALSE,0,NO ERROR,-6000.585938,5992.382812,-6000.000000,-6000.000000,Speed,Speed,4.710000,1.240000,2.480000,1.000000,102.000000,1,1,0.000000,-0.000000,0,-0.143188,2.354752,0.000000,30.915833,-1.906143,0.000000,-0.039000,0.078000,-0.206000,FlatInitial
04:10:51.016 PM 02/14/2016,Teleop Enabled,0,FALSE,0,NO ERROR,-6002.929688,5993.554688,-6000.000000,-6000.000000,Speed,Speed,4.700000,1.320000,2.470000,1.000000,103.000000,1,1,0.000000,-0.000000,0,-0.181519,2.441574,0.000000,30.906021,-1.761703,0.000000,-0.042000,0.069000,-0.206000,FlatInitial
04:10:51.117 PM 02/14/2016,Teleop Enabled,0,FALSE,0,NO ERROR,-6002.929688,5998.828125,-6000.000000,-6000.000000,Speed,Speed,4.700000,1.350000,2.430000,1.000000,102.000000,1,1,0.000000,-0.000000,0,-0.224625,2.508041,0.000000,30.895721,-1.637650,0.000000,-0.047000,0.085000,-0.224000,FlatInitial
04:10:51.217 PM 02/14/2016,Teleop Enabled,0,FALSE,0,NO ERROR,-6004.687500,6001.757812,-6000.000000,-6000.000000,Speed,Speed,4.700000,1.400000,2.360000,1.000000,102.000000,1,1,0.000000,-0.000000,0,-0.286301,2.569122,0.000000,30.880066,-1.485001,0.000000,-0.044000,0.062000,-0.214000,FlatInitial
04:10:51.320 PM 02/14/2016,Teleop Enabled,0,FALSE,0,NO ERROR,-6005.859375,6002.929688,-6000.000000,-6000.000000,Speed,Speed,4.700000,1.450000,2.290000,1.000000,101.000000,1,1,0.000000,-0.000000,0,-0.333069,2.609726,0.000000,30.867538,-1.381256,0.000000,-0.064000,0.050000,-0.221000,FlatInitial
04:10:51.421 PM 02/14/2016,Teleop Enabled,0,FALSE,0,NO ERROR,-6003.515625,6006.445312,-6000.000000,-6000.000000,Speed,Speed,4.700000,1.500000,2.210000,1.000000,102.000000,1,1,0.000000,-0.000000,0,-0.401611,2.663254,0.000000,30.848923,-1.249069,0.000000,-0.063000,0.073000,-0.208000,FlatInitial
04:10:51.521 PM 02/14/2016,Teleop Enabled,0,FALSE,0,NO ERROR,-6001.757812,6006.445312,-6000.000000,-6000.000000,Speed,Speed,4.700000,1.540000,2.140000,1.000000,101.000000,1,1,0.000000,-0.000000,0,-0.475632,2.719330,0.000000,30.826675,-1.114334,0.000000,-0.085000,0.051000,-0.193000,FlatInitial
04:10:51.622 PM 02/14/2016,Teleop Enabled,0,FALSE,0,NO ERROR,-6001.171875,6000.585938,-6000.000000,-6000.000000,Speed,Speed,4.700000,1.600000,2.050000,1.000000,102.000000,1,1,0.000000,-0.000000,0,-0.547623,2.754150,0.000000,30.800674,-0.977264,0.000000,-0.066000,0.063000,-0.174000,FlatInitial
04:10:51.723 PM 02/14/2016,Teleop Enabled,0,FALSE,0,NO ERROR,-5998.828125,6000.585938,-6000.000000,-6000.000000,Speed,Speed,4.700000,1.660000,1.940000,1.000000,101.000000,1,1,0.000000,-0.000000,0,-0.628815,0.018188,0.000000,30.771042,-0.921600,0.000000,-0.074000,0.075000,-0.199000,FlatInitial
04:10:51.823 PM 02/14/2016,Teleop Enabled,0,FALSE,0,NO ERROR,-5998.828125,6001.171875,-6000.000000,-6000.000000,Speed,Speed,4.690000,1.710000,1.860000,1.000000,106.000000,1,1,0.000000,-0.000000,0,-0.715378,0.069656,0.000000,30.737061,-0.919083,0.000000,-0.071000,0.043000,-0.193000,FlatInitial
04:10:51.923 PM 02/14/2016,Teleop Enabled,0,FALSE,0,NO ERROR,-5994.140625,6003.515625,-6000.000000,-6000.000000,Speed,Speed,4.690000,1.770000,1.780000,1.000000,101.000000,1,1,0.000000,-0.000000,0,-0.804840,0.116898,0.000000,30.698624,-0.914215,0.000000,-0.080000,0.056000,-0.233000,FlatInitial
