Time,RobotMode,AutoToRun,ErrorStatus, ErrorCode,ErrorSource,ActualRPM1,ActualRPM2,DesiredRPM1,DesiredRPM2,ControlMode1,ControlMode2,NavXYaw,NavXRoll,NavXPitch,ShooterState,LoopTime,IsLevel,IsAutoTargeting,LeftMotorOutput,RightMotorOutput,IsHaloDrive,NavXVelocityX,NavXVelocityY,NavXVelocityZ,NavXDisplacementX,NavXDisplacementY,NavXDisplacementZ,NavXAccelerationX,NavXAccelerationY,NavXAccelerationZ,AutoDefendState
02:15:26.471 PM 02/14/2016,Autonomous Disabled,0,TRUE,-44087,NetComm_CAN_Receive.vi:5470006<APPEND>  <b>Complete call chain:</b>      NetComm_CAN_Receive.vi:5470006      WPI_CANTalonSRX_Receive.vi      WPI_MotorControlOpenCANTalonSRX.vi      Begin.vi      Robot Main.vi,0.000000,0.000000,9000.000000,9000.000000,Speed,Speed,-4.050000,1.190000,1.700000,4.000000,101.000000,1,0,-0.000248,0.000992,0,0.000000,0.000000,0.000000,0.041855,-0.269379,0.000000,-0.002000,-0.001000,0.004000,FlatInitial
02:15:26.571 PM 02/14/2016,Teleop Disabled,0,TRUE,-44087,NetComm_CAN_Receive.vi:5470006<APPEND>  <b>Complete call chain:</b>      NetComm_CAN_Receive.vi:5470006      WPI_CANTalonSRX_Receive.vi      WPI_MotorControlOpenCANTalonSRX.vi      Begin.vi      Robot Main.vi,0.000000,0.000000,0.000000,0.000000,Speed,Speed,-4.050000,1.190000,1.700000,0.000000,35606.000000,1,0,-0.000248,0.000992,0,0.000000,0.000000,0.000000,0.041855,-0.269379,0.000000,-0.002000,-0.001000,0.004000,FlatInitial
02:15:26.671 PM 02/14/2016,Teleop Disabled,0,TRUE,-44087,NetComm_CAN_Receive.vi:5470006<APPEND>  <b>Complete call chain:</b>      NetComm_CAN_Receive.vi:5470006      WPI_CANTalonSRX_Receive.vi      WPI_MotorControlOpenCANTalonSRX.vi      Begin.vi      Robot Main.vi,0.000000,0.000000,0.000000,0.000000,Speed,Speed,0.000000,1.410000,2.040000,0.000000,119.000000,1,0,-0.000248,0.000992,0,0.000000,0.000000,0.000000,0.041519,-0.269241,0.000000,-0.003000,0.004000,0.005000,FlatInitial
02:15:26.772 PM 02/14/2016,Teleop Disabled,0,TRUE,-44087,NetComm_CAN_Receive.vi:5470006<APPEND>  <b>Complete call chain:</b>      NetComm_CAN_Receive.vi:5470006      WPI_CANTalonSRX_Receive.vi      WPI_MotorControlOpenCANTalonSRX.vi      Begin.vi      Robot Main.vi,0.000000,0.000000,0.000000,0.000000,Speed,Speed,0.000000,1.400000,2.040000,0.000000,103.000000,1,0,-0.000248,0.000992,0,0.000000,0.000000,0.000000,0.041519,-0.269241,0.000000,0.001000,0.000000,0.005000,FlatInitial
02:15:26.872 PM 02/14/2016,Teleop Disabled,0,TRUE,-44087,NetComm_CAN_Receive.vi:5470006<APPEND>  <b>Complete call chain:</b>      NetComm_CAN_Receive.vi:5470006      WPI_CANTalonSRX_Receive.vi      WPI_MotorControlOpenCANTalonSRX.vi      Begin.vi      Robot Main.vi,0.000000,0.000000,0.000000,0.000000,Speed,Speed,0.000000,1.400000,2.040000,0.000000,104.000000,1,0,-0.000248,0.000992,0,0.000000,0.000000,0.000000,0.041519,-0.269241,0.000000,0.003000,0.000000,-0.001000,FlatInitial
02:15:26.973 PM 02/14/2016,Teleop Disabled,0,TRUE,-44087,NetComm_CAN_Receive.vi:5470006<APPEND>  <b>Complete call chain:</b>      NetComm_CAN_Receive.vi:5470006      WPI_CANTalonSRX_Receive.vi      WPI_MotorControlOpenCANTalonSRX.vi      Begin.vi      Robot Main.vi,0.000000,0.000000,0.000000,0.000000,Speed,Speed,0.000000,1.400000,2.030000,0.000000,102.000000,1,0,-0.000248,0.000992,0,0.000000,0.000000,0.000000,0.041519,-0.269241,0.000000,0.000000,-0.001000,-0.003000,FlatInitial
02:15:27.074 PM 02/14/2016,Teleop Disabled,0,TRUE,-44087,NetComm_CAN_Receive.vi:5470006<APPEND>  <b>Complete call chain:</b>      NetComm_CAN_Receive.vi:5470006      WPI_CANTalonSRX_Receive.vi      WPI_MotorControlOpenCANTalonSRX.vi      Begin.vi      Robot Main.vi,0.000000,0.000000,0.000000,0.000000,Speed,Speed,0.000000,1.400000,2.040000,0.000000,102.000000,1,0,-0.000248,0.000992,0,0.000000,0.000000,0.000000,0.041519,-0.269241,0.000000,0.000000,-0.001000,0.004000,FlatInitial
02:15:27.175 PM 02/14/2016,Teleop Disabled,0,TRUE,-44087,NetComm_CAN_Receive.vi:5470006<APPEND>  <b>Complete call chain:</b>      NetComm_CAN_Receive.vi:5470006      WPI_CANTalonSRX_Receive.vi      WPI_MotorControlOpenCANTalonSRX.vi      Begin.vi      Robot Main.vi,0.000000,0.000000,0.000000,0.000000,Speed,Speed,0.000000,1.400000,2.030000,0.000000,104.000000,1,0,-0.000248,0.000992,0,0.000000,0.000000,0.000000,0.041519,-0.269241,0.000000,0.000000,-0.001000,0.004000,FlatInitial
02:15:27.277 PM 02/14/2016,Teleop Disabled,0,TRUE,-44087,NetComm_CAN_Receive.vi:5470006<APPEND>  <b>Complete call chain:</b>      NetComm_CAN_Receive.vi:5470006      WPI_CANTalonSRX_Receive.vi      WPI_MotorControlOpenCANTalonSRX.vi      Begin.vi      Robot Main.vi,0.000000,0.000000,0.000000,0.000000,Speed,Speed,0.000000,1.400000,2.030000,0.000000,102.000000,1,0,-0.000248,0.000992,0,0.000000,0.000000,0.000000,0.041519,-0.269241,0.000000,0.000000,0.000000,-0.001000,FlatInitial
02:15:27.377 PM 02/14/2016,Teleop Disabled,0,TRUE,-44087,NetComm_CAN_Receive.vi:5470006<APPEND>  <b>Complete call chain:</b>      NetComm_CAN_Receive.vi:5470006      WPI_CANTalonSRX_Receive.vi      WPI_MotorControlOpenCANTalonSRX.vi      Begin.vi      Robot Main.vi,0.000000,0.000000,0.000000,0.000000,Speed,Speed,0.000000,1.400000,2.030000,0.000000,104.000000,1,0,-0.000248,0.000992,0,0.000000,0.000000,0.000000,0.041519,-0.269241,0.000000,0.000000,0.000000,-0.001000,FlatInitial
02:15:27.477 PM 02/14/2016,Teleop Disabled,0,TRUE,-44087,NetComm_CAN_Receive.vi:5470006<APPEND>  <b>Complete call chain:</b>      NetComm_CAN_Receive.vi:5470006      WPI_CANTalonSRX_Receive.vi      WPI_MotorControlOpenCANTalonSRX.vi      Begin.vi      Robot Main.vi,0.000000,0.000000,0.000000,0.000000,Speed,Speed,0.000000,1.410000,2.020000,0.000000,103.000000,1,0,-0.000248,0.000992,0,0.000000,0.000000,0.000000,0.041519,-0.269241,0.000000,-0.002000,-0.001000,0.000000,FlatInitial
02:15:27.578 PM 02/14/2016,Teleop Disabled,0,TRUE,-44087,NetComm_CAN_Receive.vi:5470006<APPEND>  <b>Complete call chain:</b>      NetComm_CAN_Receive.vi:5470006      WPI_CANTalonSRX_Receive.vi      WPI_MotorControlOpenCANTalonSRX.vi      Begin.vi      Robot Main.vi,0.000000,0.000000,0.000000,0.000000,Speed,Speed,0.000000,1.410000,2.040000,0.000000,102.000000,1,0,-0.000248,0.000992,0,0.000000,0.000000,0.000000,0.041519,-0.269241,0.000000,0.001000,0.000000,0.002000,FlatInitial
02:15:27.679 PM 02/14/2016,Teleop Disabled,0,TRUE,-44087,NetComm_CAN_Receive.vi:5470006<APPEND>  <b>Complete call chain:</b>      NetComm_CAN_Receive.vi:5470006      WPI_CANTalonSRX_Receive.vi      WPI_CANTalonSRX_GetStatus.vi      ShooterVI.vi      Periodic Tasks.vi      Robot Main.vi,0.000000,0.000000,0.000000,0.000000,Speed,Speed,0.000000,1.400000,2.040000,0.000000,104.000000,1,0,-0.000248,0.000992,0,0.000000,0.000000,0.000000,0.041519,-0.269241,0.000000,0.001000,0.000000,0.003000,FlatInitial
02:15:27.779 PM 02/14/2016,Teleop Disabled,0,FALSE,0,NO ERROR,0.000000,0.000000,0.000000,0.000000,Speed,Speed,0.000000,1.400000,2.030000,0.000000,102.000000,1,0,-0.000248,0.000992,0,0.000000,0.000000,0.000000,0.041519,-0.269241,0.000000,-0.003000,-0.001000,-0.001000,FlatInitial
02:15:27.880 PM 02/14/2016,Teleop Disabled,0,FALSE,0,NO ERROR,0.000000,0.000000,0.000000,0.000000,Speed,Speed,0.010000,1.410000,2.050000,0.000000,102.000000,1,0,-0.000248,0.000992,0,0.000000,0.000000,0.000000,0.041519,-0.269241,0.000000,0.001000,-0.002000,0.000000,FlatInitial
02:15:27.980 PM 02/14/2016,Teleop Disabled,0,FALSE,0,NO ERROR,0.000000,0.000000,0.000000,0.000000,Speed,Speed,0.000000,1.400000,2.040000,0.000000,101.000000,1,0,-0.000248,0.000992,0,0.000000,0.000000,0.000000,0.041519,-0.269241,0.000000,-0.001000,0.004000,0.001000,FlatInitial
02:15:28.080 PM 02/14/2016,Teleop Disabled,0,FALSE,0,NO ERROR,0.000000,0.000000,0.000000,0.000000,Speed,Speed,0.000000,1.400000,2.040000,0.000000,102.000000,1,0,-0.000248,0.000992,0,0.000000,0.000000,0.000000,0.041519,-0.269241,0.000000,-0.001000,-0.002000,0.001000,FlatInitial
02:15:28.180 PM 02/14/2016,Teleop Disabled,0,FALSE,0,NO ERROR,0.000000,0.000000,0.000000,0.000000,Speed,Speed,0.000000,1.400000,2.040000,0.000000,102.000000,1,0,-0.000248,0.000992,0,0.000000,0.000000,0.000000,0.041519,-0.269241,0.000000,0.000000,-0.001000,0.001000,FlatInitial
02:15:28.280 PM 02/14/2016,Teleop Disabled,0,FALSE,0,NO ERROR,0.000000,0.000000,0.000000,0.000000,Speed,Speed,0.000000,1.400000,2.040000,0.000000,103.000000,1,0,-0.000248,0.000992,0,0.000000,0.000000,0.000000,0.041519,-0.269241,0.000000,0.000000,0.000000,-0.003000,FlatInitial
02:15:28.380 PM 02/14/2016,Teleop Disabled,0,FALSE,0,NO ERROR,0.000000,0.000000,0.000000,0.000000,Speed,Speed,0.000000,1.400000,2.040000,0.000000,104.000000,1,0,-0.000248,0.000992,0,0.000000,0.000000,0.000000,0.041519,-0.269241,0.000000,0.000000,-0.002000,-0.001000,FlatInitial
02:15:28.482 PM 02/14/2016,Teleop Disabled,0,FALSE,0,NO ERROR,0.000000,0.000000,0.000000,0.000000,Speed,Speed,0.000000,1.410000,2.050000,0.000000,101.000000,1,0,-0.000248,0.000992,0,0.000000,0.000000,0.000000,0.041519,-0.269241,0.000000,0.000000,0.003000,0.000000,FlatInitial
02:15:28.583 PM 02/14/2016,Teleop Disabled,0,FALSE,0,NO ERROR,0.000000,0.000000,0.000000,0.000000,Speed,Speed,0.000000,1.410000,2.050000,0.000000,102.000000,1,0,-0.000248,0.000992,0,0.000000,0.000000,0.000000,0.041519,-0.269241,0.000000,0.000000,0.000000,0.004000,FlatInitial
02:15:28.683 PM 02/14/2016,Teleop Disabled,0,FALSE,0,NO ERROR,0.000000,0.000000,0.000000,0.000000,Speed,Speed,0.000000,1.410000,2.040000,0.000000,102.000000,1,0,-0.000248,0.000992,0,0.000000,0.000000,0.000000,0.041519,-0.269241,0.000000,0.000000,0.001000,0.003000,FlatInitial
02:15:28.785 PM 02/14/2016,Teleop Disabled,0,FALSE,0,NO ERROR,0.000000,0.000000,0.000000,0.000000,Speed,Speed,0.000000,1.410000,2.050000,0.000000,102.000000,1,0,-0.000248,0.000992,0,0.000000,0.000000,0.000000,0.041519,-0.269241,0.000000,-0.002000,0.001000,0.001000,FlatInitial
02:15:28.885 PM 02/14/2016,Teleop Disabled,0,FALSE,0,NO ERROR,0.000000,0.000000,0.000000,0.000000,Speed,Speed,0.000000,1.410000,2.040000,0.000000,102.000000,1,0,-0.000248,0.000992,0,0.000000,0.000000,0.000000,0.041519,-0.269241,0.000000,0.000000,0.000000,-0.001000,FlatInitial
02:15:28.986 PM 02/14/2016,Teleop Disabled,0,FALSE,0,NO ERROR,0.000000,0.000000,0.000000,0.000000,Speed,Speed,0.000000,1.410000,2.050000,0.000000,101.000000,1,0,-0.000248,0.000992,0,0.000000,0.000000,0.000000,0.041519,-0.269241,0.000000,0.001000,0.005000,0.000000,FlatInitial
02:15:29.087 PM 02/14/2016,Teleop Disabled,0,FALSE,0,NO ERROR,0.000000,0.000000,0.000000,0.000000,Speed,Speed,0.000000,1.410000,2.050000,0.000000,101.000000,1,0,-0.000248,0.000992,0,0.000000,0.000000,0.000000,0.041519,-0.269241,0.000000,-0.001000,0.000000,-0.003000,FlatInitial
02:15:29.188 PM 02/14/2016,Teleop Disabled,0,FALSE,0,NO ERROR,0.000000,0.000000,0.000000,0.000000,Speed,Speed,0.000000,1.410000,2.040000,0.000000,102.000000,1,0,-0.000248,0.000992,0,0.000000,0.000000,0.000000,0.041519,-0.269241,0.000000,0.002000,-0.003000,0.000000,FlatInitial
02:15:29.288 PM 02/14/2016,Teleop Disabled,0,FALSE,0,NO ERROR,0.000000,0.000000,0.000000,0.000000,Speed,Speed,0.000000,1.410000,2.040000,0.000000,101.000000,1,0,-0.000248,0.000992,0,0.000000,0.000000,0.000000,0.041519,-0.269241,0.000000,-0.003000,-0.002000,0.002000,FlatInitial
02:15:29.389 PM 02/14/2016,Teleop Disabled,0,FALSE,0,NO ERROR,0.000000,0.000000,0.000000,0.000000,Speed,Speed,0.000000,1.410000,2.050000,0.000000,102.000000,1,0,-0.000248,0.000992,0,0.000000,0.000000,0.000000,0.041519,-0.269241,0.000000,0.000000,-0.001000,0.001000,FlatInitial
02:15:29.489 PM 02/14/2016,Teleop Disabled,0,FALSE,0,NO ERROR,0.000000,0.000000,0.000000,0.000000,Speed,Speed,0.000000,1.410000,2.040000,0.000000,103.000000,1,0,-0.000248,0.000992,0,0.000000,0.000000,0.000000,0.041519,-0.269241,0.000000,0.002000,-0.001000,0.005000,FlatInitial
02:15:29.589 PM 02/14/2016,Teleop Disabled,0,FALSE,0,NO ERROR,0.000000,0.000000,0.000000,0.000000,Speed,Speed,0.000000,1.410000,2.050000,0.000000,102.000000,1,0,-0.000248,0.000992,0,0.000000,0.000000,0.000000,0.041519,-0.269241,0.000000,0.000000,0.000000,0.002000,FlatInitial
02:15:29.689 PM 02/14/2016,Teleop Disabled,0,FALSE,0,NO ERROR,0.000000,0.000000,0.000000,0.000000,Speed,Speed,0.000000,1.410000,2.040000,0.000000,102.000000,1,0,-0.000248,0.000992,0,0.000000,0.000000,0.000000,0.041519,-0.269241,0.000000,-0.001000,0.000000,-0.002000,FlatInitial
02:15:29.789 PM 02/14/2016,Teleop Enabled,0,FALSE,0,NO ERROR,0.000000,0.000000,0.000000,0.000000,Speed,Speed,0.000000,1.400000,2.050000,0.000000,102.000000,1,0,-0.000248,0.000992,0,0.000000,0.000000,0.000000,0.041519,-0.269241,0.000000,0.002000,0.000000,-0.003000,FlatInitial
02:15:29.889 PM 02/14/2016,Teleop Enabled,0,FALSE,0,NO ERROR,0.000000,0.000000,-6000.000000,-6000.000000,Speed,Speed,0.000000,1.410000,2.060000,1.000000,101.000000,1,0,-0.000248,0.000992,0,0.008362,-0.003189,0.000000,0.041824,-0.269302,0.000000,-0.004000,0.006000,0.038000,FlatInitial
02:15:29.988 PM 02/14/2016,Teleop Enabled,0,FALSE,0,NO ERROR,0.000000,0.000000,0.000000,0.000000,Speed,Speed,-0.060000,1.410000,1.970000,2.000000,102.000000,1,0,-0.000248,0.000992,0,0.000000,0.005112,0.000000,0.041885,-0.269150,0.000000,-0.009000,-0.031000,-0.006000,FlatInitial
02:15:30.089 PM 02/14/2016,Teleop Enabled,0,FALSE,0,NO ERROR,0.000000,0.000000,0.000000,0.000000,Speed,Speed,-0.050000,1.390000,2.080000,2.000000,101.000000,1,0,-0.000248,0.000992,0,0.000000,0.004425,0.000000,0.041885,-0.269363,0.000000,0.008000,0.028000,0.002000,FlatInitial
02:15:30.188 PM 02/14/2016,Teleop Enabled,0,FALSE,0,NO ERROR,0.000000,0.000000,0.000000,0.000000,Speed,Speed,0.040000,1.370000,2.110000,2.000000,102.000000,1,0,-0.000248,0.000992,0,0.000000,0.000000,0.000000,0.041885,-0.269150,0.000000,0.004000,0.005000,0.012000,FlatInitial
02:15:30.289 PM 02/14/2016,Teleop Enabled,0,FALSE,0,NO ERROR,0.000000,0.000000,0.000000,0.000000,Speed,Speed,-0.050000,1.390000,2.140000,2.000000,101.000000,1,0,-0.000248,0.000992,0,0.000000,0.000000,0.000000,0.041885,-0.269150,0.000000,-0.001000,0.005000,0.005000,FlatInitial
02:15:30.390 PM 02/14/2016,Teleop Enabled,0,FALSE,0,NO ERROR,0.000000,0.000000,0.000000,0.000000,Speed,Speed,-0.070000,1.380000,2.080000,2.000000,101.000000,1,0,-0.000248,0.000992,0,0.000000,0.000000,0.000000,0.041885,-0.269150,0.000000,0.000000,-0.008000,-0.007000,FlatInitial
02:15:30.490 PM 02/14/2016,Teleop Enabled,0,FALSE,0,NO ERROR,0.000000,0.000000,0.000000,0.000000,Speed,Speed,-0.040000,1.380000,2.140000,2.000000,100.000000,1,0,-0.000248,0.000992,0,0.000000,0.000000,0.000000,0.041885,-0.269150,0.000000,0.000000,-0.001000,0.009000,FlatInitial
02:15:30.591 PM 02/14/2016,Teleop Enabled,0,FALSE,0,NO ERROR,0.000000,0.000000,0.000000,0.000000,Speed,Speed,-0.020000,1.370000,2.170000,2.000000,101.000000,1,0,-0.000248,0.000992,0,0.000000,0.000000,0.000000,0.041885,-0.269150,0.000000,0.009000,0.009000,-0.002000,FlatInitial
02:15:30.691 PM 02/14/2016,Teleop Enabled,0,FALSE,0,NO ERROR,0.000000,0.000000,0.000000,0.000000,Speed,Speed,-0.050000,1.370000,2.180000,2.000000,101.000000,1,0,-0.000248,0.000992,0,0.000000,0.000000,0.000000,0.041885,-0.269150,0.000000,-0.003000,-0.006000,0.000000,FlatInitial
02:15:30.791 PM 02/14/2016,Teleop Enabled,0,FALSE,0,NO ERROR,0.000000,0.000000,0.000000,0.000000,Speed,Speed,-0.040000,1.380000,2.200000,2.000000,101.000000,1,0,-0.000248,0.000992,0,0.000000,0.000000,0.000000,0.041885,-0.269150,0.000000,-0.009000,-0.005000,0.005000,FlatInitial
02:15:30.891 PM 02/14/2016,Teleop Enabled,0,FALSE,0,NO ERROR,0.000000,0.000000,0.000000,0.000000,Speed,Speed,0.000000,1.370000,2.240000,2.000000,101.000000,1,0,-0.000248,0.000992,0,0.000000,0.000000,0.000000,0.041885,-0.269150,0.000000,0.001000,0.004000,0.000000,FlatInitial
02:15:30.991 PM 02/14/2016,Teleop Enabled,0,FALSE,0,NO ERROR,0.000000,0.000000,0.000000,0.000000,Speed,Speed,0.010000,1.360000,2.220000,2.000000,101.000000,1,0,-0.000248,0.000992,0,0.000000,0.000000,0.000000,0.041885,-0.269150,0.000000,0.000000,0.012000,-0.003000,FlatInitial
02:15:31.091 PM 02/14/2016,Teleop Enabled,0,FALSE,0,NO ERROR,0.000000,0.000000,0.000000,0.000000,Speed,Speed,-0.080000,1.390000,2.180000,2.000000,104.000000,1,0,-0.000248,0.000992,0,0.000000,0.000000,0.000000,0.041885,-0.269150,0.000000,-0.005000,-0.006000,0.007000,FlatInitial
02:15:31.191 PM 02/14/2016,Teleop Enabled,0,FALSE,0,NO ERROR,0.000000,0.000000,4000.000000,4000.000000,Speed,Speed,-0.050000,1.400000,2.130000,3.000000,101.000000,1,0,-0.000248,0.000992,0,0.004639,-0.006180,0.000000,0.042023,-0.269241,0.000000,-0.001000,-0.006000,-0.001000,FlatInitial
02:15:31.291 PM 02/14/2016,Teleop Enabled,0,FALSE,0,NO ERROR,0.000000,0.000000,4000.000000,4000.000000,Speed,Speed,-0.010000,1.400000,2.190000,3.000000,101.000000,1,0,-0.000248,0.000992,0,0.005310,0.000000,0.000000,0.042099,-0.269318,0.000000,-0.006000,0.006000,-0.009000,FlatInitial
02:15:31.390 PM 02/14/2016,Teleop Enabled,0,FALSE,0,NO ERROR,0.000000,0.000000,4000.000000,4000.000000,Speed,Speed,-0.010000,1.400000,2.200000,3.000000,101.000000,1,0,-0.000248,0.000992,0,0.000000,0.000000,0.000000,0.042160,-0.269318,0.000000,0.007000,0.001000,0.004000,FlatInitial
02:15:31.491 PM 02/14/2016,Teleop Enabled,0,FALSE,0,NO ERROR,0.000000,0.000000,4000.000000,4000.000000,Speed,Speed,-0.050000,1.400000,2.180000,3.000000,101.000000,1,0,-0.000248,0.000992,0,-0.005890,0.000000,0.000000,0.041992,-0.269318,0.000000,0.012000,-0.002000,-0.008000,FlatInitial
02:15:31.591 PM 02/14/2016,Teleop Enabled,0,FALSE,0,NO ERROR,0.000000,0.000000,4000.000000,4000.000000,Speed,Speed,-0.030000,1.390000,2.160000,3.000000,102.000000,1,0,-0.000248,0.000992,0,0.000000,0.000000,0.000000,0.041992,-0.269318,0.000000,0.000000,0.002000,-0.001000,FlatInitial
02:15:31.691 PM 02/14/2016,Teleop Enabled,0,FALSE,0,NO ERROR,0.000000,0.000000,4000.000000,4000.000000,Speed,Speed,0.000000,1.400000,2.180000,3.000000,101.000000,1,0,-0.000248,0.000992,0,0.000000,0.000000,0.000000,0.041992,-0.269318,0.000000,0.000000,0.029000,-0.002000,FlatInitial
02:15:31.791 PM 02/14/2016,Teleop Enabled,0,FALSE,0,NO ERROR,0.000000,0.000000,4000.000000,4000.000000,Speed,Speed,-0.040000,1.420000,2.020000,3.000000,103.000000,1,0,-0.000248,0.000992,0,0.000000,0.020004,0.000000,0.041992,-0.268600,0.000000,-0.008000,-0.018000,-0.019000,FlatInitial
02:15:31.891 PM 02/14/2016,Teleop Enabled,0,FALSE,0,NO ERROR,0.000000,0.000000,4000.000000,4000.000000,Speed,Speed,-0.150000,1.410000,2.220000,3.000000,101.000000,1,0,-0.000248,0.000992,0,0.006317,-0.033920,0.000000,0.042114,-0.269348,0.000000,-0.004000,-0.044000,0.009000,FlatInitial
02:15:31.991 PM 02/14/2016,Teleop Enabled,0,FALSE,0,NO ERROR,0.000000,0.000000,4000.000000,4000.000000,Speed,Speed,0.020000,1.380000,1.980000,3.000000,100.000000,1,0,-0.000248,0.000992,0,0.000000,0.003983,0.000000,0.042114,-0.269684,0.000000,0.007000,0.029000,0.011000,FlatInitial
02:15:32.091 PM 02/14/2016,Teleop Enabled,0,FALSE,0,NO ERROR,0.000000,0.000000,4000.000000,4000.000000,Speed,Speed,0.010000,1.400000,2.140000,3.000000,100.000000,1,0,-0.000248,0.000992,0,0.000000,0.000000,0.000000,0.042114,-0.268967,0.000000,0.000000,0.002000,0.006000,FlatInitial
02:15:32.192 PM 02/14/2016,Teleop Enabled,0,FALSE,0,NO ERROR,0.000000,0.000000,4000.000000,4000.000000,Speed,Speed,-0.070000,1.400000,2.180000,3.000000,102.000000,1,0,-0.000248,0.000992,0,0.000000,0.000000,0.000000,0.042114,-0.268967,0.000000,0.002000,0.004000,0.003000,FlatInitial
02:15:32.292 PM 02/14/2016,Teleop Enabled,0,FALSE,0,NO ERROR,0.000000,0.000000,4000.000000,4000.000000,Speed,Speed,-0.030000,1.400000,2.110000,3.000000,103.000000,1,0,-0.000248,0.000992,0,0.000000,0.000000,0.000000,0.042114,-0.268967,0.000000,0.006000,-0.015000,0.000000,FlatInitial
02:15:32.393 PM 02/14/2016,Teleop Enabled,0,FALSE,0,NO ERROR,0.000000,0.000000,4000.000000,4000.000000,Speed,Speed,-0.100000,1.400000,2.140000,3.000000,102.000000,1,0,-0.000248,0.000992,0,0.000000,0.000000,0.000000,0.042114,-0.269150,0.000000,0.000000,0.006000,0.000000,FlatInitial
02:15:32.494 PM 02/14/2016,Teleop Enabled,0,FALSE,0,NO ERROR,0.000000,0.000000,4000.000000,4000.000000,Speed,Speed,-0.020000,1.400000,2.110000,3.000000,102.000000,1,0,-0.000248,0.000992,0,0.000000,0.000000,0.000000,0.042114,-0.269150,0.000000,0.000000,-0.001000,-0.004000,FlatInitial
02:15:32.594 PM 02/14/2016,Teleop Enabled,0,FALSE,0,NO ERROR,0.000000,0.000000,4000.000000,4000.000000,Speed,Speed,-0.050000,1.400000,2.150000,3.000000,102.000000,1,0,-0.000248,0.000992,0,0.000000,0.000000,0.000000,0.042114,-0.269150,0.000000,0.001000,0.002000,0.001000,FlatInitial
02:15:32.694 PM 02/14/2016,Teleop Enabled,0,FALSE,0,NO ERROR,0.000000,0.000000,4000.000000,4000.000000,Speed,Speed,-0.080000,1.400000,2.160000,3.000000,101.000000,1,0,-0.000248,0.000992,0,0.000000,0.000000,0.000000,0.042114,-0.269150,0.000000,0.000000,-0.004000,0.004000,FlatInitial
02:15:32.794 PM 02/14/2016,Teleop Enabled,0,FALSE,0,NO ERROR,0.000000,0.000000,4000.000000,4000.000000,Speed,Speed,-0.060000,1.400000,2.110000,3.000000,102.000000,1,0,-0.000248,0.000992,0,0.000000,0.000000,0.000000,0.042114,-0.269150,0.000000,0.001000,0.000000,0.000000,FlatInitial
02:15:32.894 PM 02/14/2016,Teleop Enabled,0,FALSE,0,NO ERROR,0.000000,0.000000,4000.000000,4000.000000,Speed,Speed,-0.070000,1.400000,2.140000,3.000000,101.000000,1,0,-0.000248,0.000992,0,0.000000,0.000000,0.000000,0.042114,-0.269150,0.000000,0.000000,0.000000,0.003000,FlatInitial
02:15:32.994 PM 02/14/2016,Teleop Enabled,0,FALSE,0,NO ERROR,0.000000,0.000000,4000.000000,4000.000000,Speed,Speed,-0.040000,1.400000,2.130000,3.000000,103.000000,1,0,-0.000248,0.000992,0,0.000000,0.000000,0.000000,0.042114,-0.269150,0.000000,-0.001000,0.001000,0.001000,FlatInitial
02:15:33.095 PM 02/14/2016,Teleop Enabled,0,FALSE,0,NO ERROR,0.000000,0.000000,4000.000000,4000.000000,Speed,Speed,-0.070000,1.400000,2.130000,3.000000,100.000000,1,0,-0.000248,0.000992,0,0.000000,0.000000,0.000000,0.042114,-0.269150,0.000000,0.000000,0.000000,0.001000,FlatInitial
02:15:33.195 PM 02/14/2016,Teleop Enabled,0,FALSE,0,NO ERROR,0.000000,0.000000,4000.000000,4000.000000,Speed,Speed,-0.070000,1.390000,2.120000,3.000000,101.000000,1,0,-0.000248,0.000992,0,0.000000,0.000000,0.000000,0.042114,-0.269150,0.000000,0.000000,0.001000,0.003000,FlatInitial
02:15:33.296 PM 02/14/2016,Teleop Enabled,0,FALSE,0,NO ERROR,0.000000,0.000000,4000.000000,4000.000000,Speed,Speed,-0.070000,1.400000,2.130000,3.000000,101.000000,1,0,-0.000248,0.000992,0,0.000000,0.000000,0.000000,0.042114,-0.269150,0.000000,0.002000,0.000000,0.004000,FlatInitial
02:15:33.396 PM 02/14/2016,Teleop Enabled,0,FALSE,0,NO ERROR,0.000000,0.000000,4000.000000,4000.000000,Speed,Speed,-0.070000,1.400000,2.130000,3.000000,101.000000,1,0,-0.000248,0.000992,0,0.000000,0.000000,0.000000,0.042114,-0.269150,0.000000,0.000000,0.000000,0.000000,FlatInitial
02:15:33.497 PM 02/14/2016,Teleop Enabled,0,FALSE,0,NO ERROR,0.000000,0.000000,4000.000000,4000.000000,Speed,Speed,-0.060000,1.400000,2.140000,3.000000,101.000000,1,0,-0.000248,0.000992,0,0.000000,0.000000,0.000000,0.042114,-0.269150,0.000000,0.000000,-0.001000,0.002000,FlatInitial
02:15:33.597 PM 02/14/2016,Teleop Enabled,0,FALSE,0,NO ERROR,0.000000,0.000000,4000.000000,4000.000000,Speed,Speed,-0.070000,1.410000,2.150000,3.000000,101.000000,1,0,-0.000248,0.000992,0,0.000000,0.000000,0.000000,0.042114,-0.269150,0.000000,0.002000,0.004000,0.004000,FlatInitial
02:15:33.697 PM 02/14/2016,Teleop Enabled,0,FALSE,0,NO ERROR,0.000000,0.000000,4000.000000,4000.000000,Speed,Speed,-0.080000,1.410000,2.150000,3.000000,106.000000,1,0,-0.000248,0.000992,0,0.000000,0.000000,0.000000,0.042114,-0.269150,0.000000,-0.001000,0.000000,-0.001000,FlatInitial
02:15:33.798 PM 02/14/2016,Teleop Enabled,0,FALSE,0,NO ERROR,0.000000,0.000000,4000.000000,4000.000000,Speed,Speed,-0.070000,1.410000,2.150000,3.000000,104.000000,1,0,-0.000248,0.000992,0,0.000000,0.000000,0.000000,0.042114,-0.269150,0.000000,0.003000,0.002000,-0.002000,FlatInitial
02:15:33.899 PM 02/14/2016,Teleop Enabled,0,FALSE,0,NO ERROR,0.000000,0.000000,4000.000000,4000.000000,Speed,Speed,-0.080000,1.410000,2.150000,3.000000,103.000000,1,0,-0.000248,0.000992,0,0.000000,0.000000,0.000000,0.042114,-0.269150,0.000000,0.000000,-0.002000,0.000000,FlatInitial
02:15:33.999 PM 02/14/2016,Teleop Enabled,0,FALSE,0,NO ERROR,0.000000,0.000000,4000.000000,4000.000000,Speed,Speed,-0.070000,1.410000,2.150000,3.000000,102.000000,1,0,-0.000248,0.000992,0,0.000000,0.000000,0.000000,0.042114,-0.269150,0.000000,0.000000,0.000000,0.001000,FlatInitial
02:15:34.099 PM 02/14/2016,Teleop Enabled,0,FALSE,0,NO ERROR,0.000000,0.000000,4000.000000,4000.000000,Speed,Speed,-0.080000,1.410000,2.150000,3.000000,100.000000,1,0,-0.000248,0.000992,0,0.000000,0.000000,0.000000,0.042114,-0.269150,0.000000,0.000000,0.000000,0.000000,FlatInitial
02:15:34.199 PM 02/14/2016,Teleop Enabled,0,FALSE,0,NO ERROR,0.000000,0.000000,4000.000000,4000.000000,Speed,Speed,-0.080000,1.410000,2.150000,3.000000,101.000000,1,0,-0.000248,0.000992,0,0.000000,0.000000,0.000000,0.042114,-0.269150,0.000000,-0.002000,-0.001000,-0.001000,FlatInitial
02:15:34.300 PM 02/14/2016,Teleop Enabled,0,FALSE,0,NO ERROR,0.000000,0.000000,4000.000000,4000.000000,Speed,Speed,-0.080000,1.420000,2.150000,3.000000,101.000000,1,0,-0.000248,0.000992,0,0.000000,0.000000,0.000000,0.042114,-0.269150,0.000000,0.000000,0.002000,0.000000,FlatInitial
02:15:34.400 PM 02/14/2016,Teleop Enabled,0,FALSE,0,NO ERROR,0.000000,0.000000,4000.000000,4000.000000,Speed,Speed,-0.080000,1.410000,2.150000,3.000000,102.000000,1,0,-0.000248,0.000992,0,0.000000,0.000000,0.000000,0.042114,-0.269150,0.000000,0.000000,0.003000,0.000000,FlatInitial
02:15:34.501 PM 02/14/2016,Teleop Enabled,0,FALSE,0,NO ERROR,0.000000,0.000000,4000.000000,4000.000000,Speed,Speed,-0.080000,1.410000,2.140000,3.000000,101.000000,1,0,-0.000248,0.000992,0,0.000000,0.000000,0.000000,0.042114,-0.269150,0.000000,0.000000,0.001000,0.000000,FlatInitial
02:15:34.601 PM 02/14/2016,Teleop Enabled,0,FALSE,0,NO ERROR,0.000000,0.000000,4000.000000,4000.000000,Speed,Speed,-0.080000,1.410000,2.140000,3.000000,101.000000,1,0,-0.000248,0.000992,0,0.000000,0.000000,0.000000,0.042114,-0.269150,0.000000,0.001000,0.002000,0.003000,FlatInitial
02:15:34.701 PM 02/14/2016,Teleop Enabled,0,FALSE,0,NO ERROR,0.000000,0.000000,4000.000000,4000.000000,Speed,Speed,-0.080000,1.410000,2.140000,3.000000,101.000000,1,0,-0.000248,0.000992,0,0.000000,0.000000,0.000000,0.042114,-0.269150,0.000000,0.002000,0.001000,0.001000,FlatInitial
02:15:34.801 PM 02/14/2016,Teleop Enabled,0,FALSE,0,NO ERROR,0.000000,0.000000,4000.000000,4000.000000,Speed,Speed,-0.080000,1.410000,2.140000,3.000000,104.000000,1,0,-0.000248,0.000992,0,0.000000,0.000000,0.000000,0.042114,-0.269150,0.000000,0.000000,0.001000,0.001000,FlatInitial
02:15:34.901 PM 02/14/2016,Teleop Enabled,0,FALSE,0,NO ERROR,0.000000,0.000000,4000.000000,4000.000000,Speed,Speed,-0.080000,1.410000,2.130000,3.000000,103.000000,1,0,-0.000248,0.000992,0,0.000000,0.000000,0.000000,0.042114,-0.269150,0.000000,0.001000,-0.003000,0.003000,FlatInitial
02:15:35.001 PM 02/14/2016,Teleop Enabled,0,FALSE,0,NO ERROR,0.000000,0.000000,4000.000000,4000.000000,Speed,Speed,-0.080000,1.400000,2.130000,3.000000,101.000000,1,0,-0.000248,0.000992,0,0.000000,0.000000,0.000000,0.042114,-0.269150,0.000000,-0.001000,0.002000,0.002000,FlatInitial
02:15:35.101 PM 02/14/2016,Teleop Enabled,0,FALSE,0,NO ERROR,0.000000,0.000000,4000.000000,4000.000000,Speed,Speed,-0.080000,1.400000,2.140000,3.000000,102.000000,1,0,-0.000248,0.000992,0,0.000000,0.000000,0.000000,0.042114,-0.269150,0.000000,0.001000,0.001000,0.000000,FlatInitial
02:15:35.201 PM 02/14/2016,Teleop Enabled,0,FALSE,0,NO ERROR,0.000000,0.000000,4000.000000,4000.000000,Speed,Speed,-0.080000,1.400000,2.140000,3.000000,101.000000,1,0,-0.000248,0.000992,0,0.000000,0.000000,0.000000,0.042114,-0.269150,0.000000,-0.001000,-0.003000,-0.001000,FlatInitial
02:15:35.301 PM 02/14/2016,Teleop Enabled,0,FALSE,0,NO ERROR,0.000000,0.000000,4000.000000,4000.000000,Speed,Speed,-0.090000,1.400000,2.140000,3.000000,103.000000,1,0,-0.000248,0.000992,0,0.000000,0.000000,0.000000,0.042114,-0.269150,0.000000,0.001000,-0.002000,0.006000,FlatInitial
02:15:35.403 PM 02/14/2016,Teleop Enabled,0,FALSE,0,NO ERROR,0.000000,0.000000,4000.000000,4000.000000,Speed,Speed,-0.080000,1.400000,2.130000,3.000000,101.000000,1,0,-0.000248,0.000992,0,0.000000,0.000000,0.000000,0.042114,-0.269150,0.000000,-0.003000,-0.001000,-0.003000,FlatInitial
02:15:35.504 PM 02/14/2016,Teleop Enabled,0,FALSE,0,NO ERROR,0.000000,0.000000,4000.000000,4000.000000,Speed,Speed,-0.080000,1.400000,2.140000,3.000000,101.000000,1,0,-0.000248,0.000992,0,0.000000,0.000000,0.000000,0.042114,-0.269150,0.000000,0.000000,-0.001000,0.003000,FlatInitial
02:15:35.604 PM 02/14/2016,Teleop Enabled,0,FALSE,0,NO ERROR,0.000000,0.000000,4000.000000,4000.000000,Speed,Speed,-0.080000,1.400000,2.120000,3.000000,104.000000,1,0,-0.000248,0.000992,0,0.000000,0.000000,0.000000,0.042114,-0.269150,0.000000,0.000000,0.000000,-0.001000,FlatInitial
02:15:35.706 PM 02/14/2016,Teleop Enabled,0,FALSE,0,NO ERROR,0.000000,0.000000,4000.000000,4000.000000,Speed,Speed,-0.080000,1.410000,2.130000,3.000000,101.000000,1,0,-0.000248,0.000992,0,0.000000,0.000000,0.000000,0.042114,-0.269150,0.000000,0.000000,-0.001000,0.004000,FlatInitial
02:15:35.806 PM 02/14/2016,Teleop Enabled,0,FALSE,0,NO ERROR,0.000000,0.000000,4000.000000,4000.000000,Speed,Speed,-0.080000,1.410000,2.120000,3.000000,102.000000,1,0,-0.000248,0.000992,0,0.000000,0.000000,0.000000,0.042114,-0.269150,0.000000,0.000000,-0.001000,-0.001000,FlatInitial
02:15:35.906 PM 02/14/2016,Teleop Enabled,0,FALSE,0,NO ERROR,0.000000,0.000000,4000.000000,4000.000000,Speed,Speed,-0.080000,1.410000,2.110000,3.000000,103.000000,1,0,-0.000248,0.000992,0,0.000000,0.000000,0.000000,0.042114,-0.269150,0.000000,0.001000,-0.002000,0.000000,FlatInitial
02:15:36.008 PM 02/14/2016,Teleop Enabled,0,FALSE,0,NO ERROR,0.000000,0.000000,4000.000000,4000.000000,Speed,Speed,-0.080000,1.410000,2.120000,3.000000,101.000000,1,0,-0.000248,0.000992,0,0.000000,0.000000,0.000000,0.042114,-0.269150,0.000000,0.000000,0.000000,0.000000,FlatInitial
02:15:36.109 PM 02/14/2016,Teleop Enabled,0,FALSE,0,NO ERROR,0.000000,0.000000,4000.000000,4000.000000,Speed,Speed,-0.090000,1.410000,2.120000,3.000000,102.000000,1,0,-0.000248,0.000992,0,0.000000,0.000000,0.000000,0.042114,-0.269150,0.000000,0.000000,0.000000,0.004000,FlatInitial
02:15:36.210 PM 02/14/2016,Teleop Enabled,0,FALSE,0,NO ERROR,0.000000,0.000000,4000.000000,4000.000000,Speed,Speed,-0.090000,1.410000,2.120000,3.000000,101.000000,1,0,-0.000248,0.000992,0,0.000000,0.000000,0.000000,0.042114,-0.269150,0.000000,0.001000,0.000000,0.000000,FlatInitial
02:15:36.311 PM 02/14/2016,Teleop Enabled,0,FALSE,0,NO ERROR,0.000000,0.000000,4000.000000,4000.000000,Speed,Speed,-0.090000,1.410000,2.120000,3.000000,102.000000,1,0,-0.000248,0.000992,0,0.000000,0.000000,0.000000,0.042114,-0.269150,0.000000,0.001000,0.001000,0.002000,FlatInitial
02:15:36.411 PM 02/14/2016,Teleop Enabled,0,FALSE,0,NO ERROR,0.000000,0.000000,4000.000000,4000.000000,Speed,Speed,-0.090000,1.410000,2.110000,3.000000,101.000000,1,0,-0.000248,0.000992,0,0.000000,0.000000,0.000000,0.042114,-0.269150,0.000000,0.001000,0.001000,0.001000,FlatInitial
02:15:36.512 PM 02/14/2016,Teleop Enabled,0,FALSE,0,NO ERROR,0.000000,0.000000,4000.000000,4000.000000,Speed,Speed,-0.090000,1.410000,2.110000,3.000000,101.000000,1,0,-0.000248,0.000992,0,0.000000,0.000000,0.000000,0.042114,-0.269150,0.000000,-0.001000,0.001000,0.004000,FlatInitial
02:15:36.614 PM 02/14/2016,Teleop Enabled,0,FALSE,0,NO ERROR,0.000000,0.000000,4000.000000,4000.000000,Speed,Speed,-0.090000,1.410000,2.100000,3.000000,103.000000,1,0,-0.000248,0.000992,0,0.000000,0.000000,0.000000,0.042114,-0.269150,0.000000,0.000000,0.001000,0.002000,FlatInitial
02:15:36.714 PM 02/14/2016,Teleop Enabled,0,FALSE,0,NO ERROR,0.000000,0.000000,4000.000000,4000.000000,Speed,Speed,-0.090000,1.410000,2.090000,3.000000,102.000000,1,0,-0.000248,0.000992,0,0.000000,0.000000,0.000000,0.042114,-0.269150,0.000000,0.000000,0.002000,-0.003000,FlatInitial
02:15:36.816 PM 02/14/2016,Teleop Enabled,0,FALSE,0,NO ERROR,0.000000,0.000000,4000.000000,4000.000000,Speed,Speed,-0.090000,1.410000,2.090000,3.000000,101.000000,1,0,-0.000248,0.000992,0,0.000000,0.000000,0.000000,0.042114,-0.269150,0.000000,-0.001000,0.002000,0.002000,FlatInitial
02:15:36.916 PM 02/14/2016,Teleop Enabled,0,FALSE,0,NO ERROR,0.000000,0.000000,4000.000000,4000.000000,Speed,Speed,-0.080000,1.410000,2.090000,3.000000,101.000000,1,0,-0.000248,0.000992,0,0.000000,0.000000,0.000000,0.042114,-0.269150,0.000000,0.000000,-0.003000,0.000000,FlatInitial
02:15:37.017 PM 02/14/2016,Teleop Enabled,0,FALSE,0,NO ERROR,0.000000,0.000000,4000.000000,4000.000000,Speed,Speed,-0.100000,1.410000,2.100000,3.000000,121.000000,1,0,-0.000248,0.000992,0,0.000000,0.000000,0.000000,0.042114,-0.269150,0.000000,-0.001000,-0.001000,-0.001000,FlatInitial
02:15:37.117 PM 02/14/2016,Teleop Enabled,0,FALSE,0,NO ERROR,0.000000,0.000000,4000.000000,4000.000000,Speed,Speed,-0.090000,1.410000,2.100000,3.000000,103.000000,1,0,-0.000248,0.000992,0,0.000000,0.000000,0.000000,0.042114,-0.269150,0.000000,0.000000,0.000000,0.002000,FlatInitial
02:15:37.217 PM 02/14/2016,Teleop Enabled,0,FALSE,0,NO ERROR,0.000000,0.000000,4000.000000,4000.000000,Speed,Speed,-0.090000,1.410000,2.110000,3.000000,103.000000,1,0,-0.000248,0.000992,0,0.000000,0.000000,0.000000,0.042114,-0.269150,0.000000,0.002000,0.000000,0.002000,FlatInitial
02:15:37.317 PM 02/14/2016,Teleop Enabled,0,FALSE,0,NO ERROR,0.000000,0.000000,4000.000000,4000.000000,Speed,Speed,-0.090000,1.410000,2.110000,3.000000,101.000000,1,0,-0.000248,0.000992,0,0.000000,0.000000,0.000000,0.042114,-0.269150,0.000000,0.000000,-0.001000,0.000000,FlatInitial
02:15:37.417 PM 02/14/2016,Teleop Enabled,0,FALSE,0,NO ERROR,0.000000,0.000000,4000.000000,4000.000000,Speed,Speed,-0.090000,1.410000,2.110000,3.000000,103.000000,1,0,-0.000248,0.000992,0,0.000000,0.000000,0.000000,0.042114,-0.269150,0.000000,-0.001000,0.000000,0.000000,FlatInitial
02:15:37.518 PM 02/14/2016,Teleop Enabled,0,FALSE,0,NO ERROR,0.000000,0.000000,4000.000000,4000.000000,Speed,Speed,-0.080000,1.410000,2.110000,3.000000,102.000000,1,0,-0.000248,0.000992,0,0.000000,0.000000,0.000000,0.042114,-0.269150,0.000000,0.000000,0.001000,0.001000,FlatInitial
02:15:37.619 PM 02/14/2016,Teleop Enabled,0,FALSE,0,NO ERROR,0.000000,0.000000,4000.000000,4000.000000,Speed,Speed,-0.100000,1.410000,2.100000,3.000000,100.000000,1,0,-0.000248,0.000992,0,0.000000,0.000000,0.000000,0.042114,-0.269150,0.000000,0.001000,-0.001000,0.002000,FlatInitial
02:15:37.720 PM 02/14/2016,Teleop Enabled,0,FALSE,0,NO ERROR,0.000000,0.000000,4000.000000,4000.000000,Speed,Speed,-0.090000,1.410000,2.100000,3.000000,101.000000,1,0,-0.000248,0.000992,0,0.000000,0.000000,0.000000,0.042114,-0.269150,0.000000,0.000000,0.000000,0.001000,FlatInitial
02:15:37.822 PM 02/14/2016,Teleop Enabled,0,FALSE,0,NO ERROR,0.000000,0.000000,4000.000000,4000.000000,Speed,Speed,-0.080000,1.410000,2.100000,3.000000,102.000000,1,0,-0.000248,0.000992,0,0.000000,0.000000,0.000000,0.042114,-0.269150,0.000000,0.000000,0.001000,0.001000,FlatInitial
02:15:37.923 PM 02/14/2016,Teleop Enabled,0,FALSE,0,NO ERROR,0.000000,0.000000,4000.000000,4000.000000,Speed,Speed,-0.090000,1.410000,2.100000,3.000000,101.000000,1,0,-0.000248,0.000992,0,0.000000,0.000000,0.000000,0.042114,-0.269150,0.000000,0.001000,-0.001000,0.000000,FlatInitial
02:15:38.024 PM 02/14/2016,Teleop Enabled,0,FALSE,0,NO ERROR,0.000000,0.000000,4000.000000,4000.000000,Speed,Speed,-0.100000,1.410000,2.090000,3.000000,101.000000,1,0,-0.000248,0.000992,0,0.000000,0.000000,0.000000,0.042114,-0.269150,0.000000,0.000000,-0.001000,0.001000,FlatInitial
02:15:38.125 PM 02/14/2016,Teleop Enabled,0,FALSE,0,NO ERROR,0.000000,0.000000,4000.000000,4000.000000,Speed,Speed,-0.100000,1.410000,2.090000,3.000000,102.000000,1,0,-0.000248,0.000992,0,0.000000,0.000000,0.000000,0.042114,-0.269150,0.000000,0.001000,0.000000,-0.001000,FlatInitial
02:15:38.226 PM 02/14/2016,Teleop Enabled,0,FALSE,0,NO ERROR,0.000000,0.000000,4000.000000,4000.000000,Speed,Speed,-0.100000,1.410000,2.080000,3.000000,101.000000,1,0,-0.000248,0.000992,0,0.000000,0.000000,0.000000,0.042114,-0.269150,0.000000,0.001000,0.000000,0.002000,FlatInitial
02:15:38.327 PM 02/14/2016,Teleop Enabled,0,FALSE,0,NO ERROR,0.000000,0.000000,4000.000000,4000.000000,Speed,Speed,-0.100000,1.410000,2.080000,3.000000,103.000000,1,0,-0.000248,0.000992,0,0.000000,0.000000,0.000000,0.042114,-0.269150,0.000000,0.001000,0.000000,0.000000,FlatInitial
02:15:38.427 PM 02/14/2016,Teleop Enabled,0,FALSE,0,NO ERROR,0.000000,0.000000,4000.000000,4000.000000,Speed,Speed,-0.100000,1.400000,2.090000,3.000000,102.000000,1,0,-0.000248,0.000992,0,0.000000,0.000000,0.000000,0.042114,-0.269150,0.000000,-0.001000,0.003000,0.000000,FlatInitial
02:15:38.527 PM 02/14/2016,Teleop Enabled,0,FALSE,0,NO ERROR,0.000000,0.000000,4000.000000,4000.000000,Speed,Speed,-0.100000,1.400000,2.090000,3.000000,100.000000,1,0,-0.000248,0.000992,0,0.000000,0.000000,0.000000,0.042114,-0.269150,0.000000,0.001000,0.000000,0.003000,FlatInitial
02:15:38.626 PM 02/14/2016,Teleop Enabled,0,FALSE,0,NO ERROR,0.000000,0.000000,4000.000000,4000.000000,Speed,Speed,-0.100000,1.400000,2.100000,3.000000,102.000000,1,0,-0.000248,0.001550,0,0.000000,0.000000,0.000000,0.042114,-0.269150,0.000000,0.000000,-0.001000,0.003000,FlatInitial
02:15:38.727 PM 02/14/2016,Teleop Enabled,0,FALSE,0,NO ERROR,0.000000,0.000000,4000.000000,4000.000000,Speed,Speed,-0.100000,1.400000,2.090000,3.000000,101.000000,1,0,-0.000248,0.001550,0,0.000000,0.000000,0.000000,0.042114,-0.269150,0.000000,0.000000,0.002000,0.003000,FlatInitial
02:15:38.828 PM 02/14/2016,Teleop Enabled,0,FALSE,0,NO ERROR,0.000000,0.000000,4000.000000,4000.000000,Speed,Speed,-0.100000,1.400000,2.100000,3.000000,101.000000,1,0,-0.000248,0.001550,0,0.000000,0.000000,0.000000,0.042114,-0.269150,0.000000,0.000000,0.002000,0.004000,FlatInitial
02:15:38.928 PM 02/14/2016,Teleop Enabled,0,FALSE,0,NO ERROR,0.000000,0.000000,4000.000000,4000.000000,Speed,Speed,-0.100000,1.400000,2.090000,3.000000,102.000000,1,0,-0.000248,0.000992,0,0.000000,0.000000,0.000000,0.042114,-0.269150,0.000000,0.000000,-0.005000,0.002000,FlatInitial
02:15:39.027 PM 02/14/2016,Teleop Enabled,0,FALSE,0,NO ERROR,0.000000,0.000000,4000.000000,4000.000000,Speed,Speed,-0.100000,1.400000,2.110000,3.000000,102.000000,1,0,-0.000248,0.000992,0,0.000000,0.000000,0.000000,0.042114,-0.269150,0.000000,0.000000,0.004000,0.004000,FlatInitial
02:15:39.128 PM 02/14/2016,Teleop Enabled,0,FALSE,0,NO ERROR,0.000000,0.000000,4000.000000,4000.000000,Speed,Speed,-0.100000,1.400000,2.120000,3.000000,100.000000,1,0,-0.000248,0.000992,0,0.000000,0.000000,0.000000,0.042114,-0.269150,0.000000,-0.001000,-0.002000,0.005000,FlatInitial
02:15:39.228 PM 02/14/2016,Teleop Enabled,0,FALSE,0,NO ERROR,0.000000,0.000000,4000.000000,4000.000000,Speed,Speed,-0.110000,1.410000,2.110000,3.000000,102.000000,1,0,-0.000248,0.000992,0,0.000000,0.000000,0.000000,0.042114,-0.269150,0.000000,0.000000,-0.002000,0.000000,FlatInitial
02:15:39.328 PM 02/14/2016,Teleop Enabled,0,FALSE,0,NO ERROR,0.000000,0.000000,4000.000000,4000.000000,Speed,Speed,-0.120000,1.400000,2.110000,3.000000,102.000000,1,0,-0.000248,0.000992,0,0.000000,0.000000,0.000000,0.042114,-0.269150,0.000000,0.001000,0.002000,0.004000,FlatInitial
02:15:39.427 PM 02/14/2016,Teleop Enabled,0,FALSE,0,NO ERROR,0.000000,0.000000,4000.000000,4000.000000,Speed,Speed,-0.080000,1.400000,2.120000,3.000000,101.000000,1,0,-0.000248,0.000992,0,0.000000,0.000000,0.000000,0.042114,-0.269150,0.000000,-0.002000,-0.003000,0.002000,FlatInitial
02:15:39.528 PM 02/14/2016,Teleop Enabled,0,FALSE,0,NO ERROR,0.000000,0.000000,4000.000000,4000.000000,Speed,Speed,-0.110000,1.400000,2.130000,3.000000,102.000000,1,0,-0.000248,0.000992,0,0.000000,0.000000,0.000000,0.042114,-0.269150,0.000000,-0.003000,0.000000,0.002000,FlatInitial
02:15:39.629 PM 02/14/2016,Teleop Enabled,0,FALSE,0,NO ERROR,0.000000,0.000000,4000.000000,4000.000000,Speed,Speed,-0.110000,1.400000,2.110000,3.000000,103.000000,1,0,-0.000248,0.000992,0,0.000000,0.000000,0.000000,0.042114,-0.269150,0.000000,0.001000,-0.004000,-0.002000,FlatInitial
02:15:39.729 PM 02/14/2016,Teleop Enabled,0,FALSE,0,NO ERROR,0.000000,0.000000,4000.000000,4000.000000,Speed,Speed,-0.110000,1.400000,2.130000,3.000000,104.000000,1,0,-0.000248,0.000992,0,0.000000,0.000000,0.000000,0.042114,-0.269150,0.000000,0.000000,0.000000,0.000000,FlatInitial
02:15:39.829 PM 02/14/2016,Teleop Enabled,0,FALSE,0,NO ERROR,0.000000,0.000000,4000.000000,4000.000000,Speed,Speed,-0.100000,1.400000,2.140000,3.000000,101.000000,1,0,-0.000248,0.000992,0,0.000000,0.000000,0.000000,0.042114,-0.269150,0.000000,0.000000,0.001000,0.006000,FlatInitial
02:15:39.929 PM 02/14/2016,Teleop Enabled,0,FALSE,0,NO ERROR,0.000000,0.000000,4000.000000,4000.000000,Speed,Speed,-0.100000,1.400000,2.140000,3.000000,102.000000,1,0,-0.000248,0.000992,0,0.000000,0.000000,0.000000,0.042114,-0.269150,0.000000,-0.001000,-0.001000,0.000000,FlatInitial
02:15:40.029 PM 02/14/2016,Teleop Enabled,0,FALSE,0,NO ERROR,0.000000,0.000000,4000.000000,4000.000000,Speed,Speed,-0.110000,1.400000,2.130000,3.000000,102.000000,1,0,-0.000248,0.000992,0,0.000000,0.000000,0.000000,0.042114,-0.269150,0.000000,-0.003000,-0.001000,-0.001000,FlatInitial
02:15:40.130 PM 02/14/2016,Teleop Enabled,0,FALSE,0,NO ERROR,0.000000,0.000000,4000.000000,4000.000000,Speed,Speed,-0.100000,1.400000,2.130000,3.000000,101.000000,1,0,-0.000248,0.000992,0,0.000000,0.000000,0.000000,0.042114,-0.269150,0.000000,-0.001000,-0.001000,0.003000,FlatInitial
02:15:40.231 PM 02/14/2016,Teleop Enabled,0,FALSE,0,NO ERROR,0.000000,0.000000,4000.000000,4000.000000,Speed,Speed,-0.100000,1.400000,2.140000,3.000000,100.000000,1,0,-0.000248,0.000992,0,0.000000,0.000000,0.000000,0.042114,-0.269150,0.000000,0.000000,-0.001000,0.002000,FlatInitial
02:15:40.331 PM 02/14/2016,Teleop Enabled,0,FALSE,0,NO ERROR,0.000000,0.000000,4000.000000,4000.000000,Speed,Speed,-0.100000,1.410000,2.110000,3.000000,100.000000,1,0,-0.000248,0.000992,0,0.000000,0.000000,0.000000,0.042114,-0.269150,0.000000,0.000000,-0.001000,0.000000,FlatInitial
02:15:40.430 PM 02/14/2016,Teleop Enabled,0,FALSE,0,NO ERROR,0.000000,0.000000,4000.000000,4000.000000,Speed,Speed,-0.110000,1.400000,2.120000,3.000000,101.000000,1,0,-0.000248,0.000992,0,0.000000,0.000000,0.000000,0.042114,-0.269150,0.000000,0.000000,-0.001000,0.006000,FlatInitial
02:15:40.531 PM 02/14/2016,Teleop Enabled,0,FALSE,0,NO ERROR,0.000000,0.000000,4000.000000,4000.000000,Speed,Speed,-0.100000,1.400000,2.130000,3.000000,101.000000,1,0,-0.000248,0.000992,0,0.000000,0.000000,0.000000,0.042114,-0.269150,0.000000,-0.001000,0.002000,0.003000,FlatInitial
02:15:40.631 PM 02/14/2016,Teleop Enabled,0,FALSE,0,NO ERROR,0.000000,0.000000,4000.000000,4000.000000,Speed,Speed,-0.100000,1.400000,2.130000,3.000000,102.000000,1,0,-0.000248,0.000992,0,0.000000,0.000000,0.000000,0.042114,-0.269150,0.000000,-0.001000,0.002000,0.003000,FlatInitial
02:15:40.733 PM 02/14/2016,Teleop Enabled,0,FALSE,0,NO ERROR,0.000000,0.000000,4000.000000,4000.000000,Speed,Speed,-0.120000,1.400000,2.130000,3.000000,107.000000,1,0,-0.000558,0.001550,0,0.000000,0.000000,0.000000,0.042114,-0.269150,0.000000,0.000000,0.000000,0.002000,FlatInitial
02:15:40.833 PM 02/14/2016,Teleop Enabled,0,FALSE,0,NO ERROR,0.000000,0.000000,4000.000000,4000.000000,Speed,Speed,-0.100000,1.410000,2.140000,3.000000,101.000000,1,0,-0.000558,0.000992,0,0.000000,0.000000,0.000000,0.042114,-0.269150,0.000000,-0.004000,0.000000,0.005000,FlatInitial
02:15:40.933 PM 02/14/2016,Teleop Enabled,0,FALSE,0,NO ERROR,0.000000,0.000000,4000.000000,4000.000000,Speed,Speed,-0.100000,1.410000,2.150000,3.000000,101.000000,1,0,-0.000558,0.000992,0,0.000000,0.000000,0.000000,0.042114,-0.269150,0.000000,0.000000,0.000000,0.004000,FlatInitial
02:15:41.033 PM 02/14/2016,Teleop Enabled,0,FALSE,0,NO ERROR,0.000000,0.000000,4000.000000,4000.000000,Speed,Speed,-0.100000,1.410000,2.130000,3.000000,101.000000,1,0,-0.000558,0.000992,0,0.000000,0.000000,0.000000,0.042114,-0.269150,0.000000,0.000000,0.001000,0.000000,FlatInitial
02:15:41.134 PM 02/14/2016,Teleop Enabled,0,FALSE,0,NO ERROR,0.000000,0.000000,4000.000000,4000.000000,Speed,Speed,-0.100000,1.410000,2.130000,3.000000,105.000000,1,0,-0.000558,0.000992,0,0.000000,0.000000,0.000000,0.042114,-0.269150,0.000000,-0.001000,-0.004000,-0.003000,FlatInitial
02:15:41.234 PM 02/14/2016,Teleop Enabled,0,FALSE,0,NO ERROR,0.000000,0.000000,4000.000000,4000.000000,Speed,Speed,-0.090000,1.420000,2.180000,3.000000,101.000000,1,0,-0.000558,0.000992,0,0.000000,0.000000,0.000000,0.042114,-0.269302,0.000000,-0.001000,-0.005000,-0.001000,FlatInitial
02:15:41.335 PM 02/14/2016,Teleop Enabled,0,FALSE,0,NO ERROR,0.000000,0.000000,4000.000000,4000.000000,Speed,Speed,-0.010000,1.410000,2.160000,3.000000,100.000000,1,0,-0.000558,0.000992,0,0.000000,0.000000,0.000000,0.042114,-0.269302,0.000000,-0.004000,0.000000,0.000000,FlatInitial
02:15:41.440 PM 02/14/2016,Teleop Enabled,0,FALSE,0,NO ERROR,0.000000,0.000000,4000.000000,4000.000000,Speed,Speed,-0.030000,1.410000,2.250000,3.000000,102.000000,1,0,-0.000558,0.000992,0,0.000000,0.000000,0.000000,0.042114,-0.269302,0.000000,0.001000,0.037000,0.009000,FlatInitial
02:15:41.540 PM 02/14/2016,Teleop Enabled,0,FALSE,0,NO ERROR,0.000000,0.000000,4000.000000,4000.000000,Speed,Speed,-0.200000,1.440000,2.380000,3.000000,101.000000,1,0,-0.000558,0.000992,0,0.017960,0.022095,0.000000,0.042801,-0.265701,0.000000,0.030000,0.058000,-0.053000,FlatInitial
02:15:41.640 PM 02/14/2016,Teleop Enabled,0,FALSE,0,NO ERROR,0.000000,0.000000,4000.000000,4000.000000,Speed,Speed,-0.120000,1.470000,1.830000,3.000000,106.000000,1,0,-0.000558,0.000992,0,0.017960,0.022095,0.000000,0.042801,-0.265701,0.000000,-0.023000,-0.083000,0.038000,FlatInitial
02:15:41.740 PM 02/14/2016,Teleop Enabled,0,FALSE,0,NO ERROR,0.000000,0.000000,4000.000000,4000.000000,Speed,Speed,-0.120000,1.470000,1.830000,3.000000,104.000000,1,0,-0.000558,0.000992,0,0.000000,0.000000,0.000000,0.043152,-0.265884,0.000000,-0.035000,0.008000,0.018000,FlatInitial
02:15:41.840 PM 02/14/2016,Teleop Enabled,0,FALSE,0,NO ERROR,0.000000,0.000000,4000.000000,4000.000000,Speed,Speed,-0.130000,1.480000,1.850000,3.000000,102.000000,1,0,-0.000558,0.000992,0,0.001968,0.000000,0.000000,0.042969,-0.265686,0.000000,-0.009000,-0.009000,0.010000,FlatInitial
02:15:41.941 PM 02/14/2016,Teleop Enabled,0,FALSE,0,NO ERROR,0.000000,0.000000,4000.000000,4000.000000,Speed,Speed,-0.160000,1.460000,1.940000,3.000000,100.000000,1,0,-0.000558,0.000992,0,0.000000,0.000000,0.000000,0.042969,-0.265915,0.000000,0.013000,-0.001000,0.007000,FlatInitial
02:15:42.041 PM 02/14/2016,Teleop Enabled,0,FALSE,0,NO ERROR,0.000000,0.000000,4000.000000,4000.000000,Speed,Speed,-0.110000,1.460000,1.820000,3.000000,101.000000,1,0,-0.000558,0.000992,0,0.000000,0.000000,0.000000,0.042969,-0.265915,0.000000,0.005000,0.005000,0.006000,FlatInitial
02:15:42.143 PM 02/14/2016,Teleop Enabled,0,FALSE,0,NO ERROR,0.000000,0.000000,4000.000000,4000.000000,Speed,Speed,-0.110000,1.460000,1.890000,3.000000,102.000000,1,0,-0.000558,0.000992,0,0.000000,0.000000,0.000000,0.042969,-0.265915,0.000000,-0.003000,-0.003000,0.007000,FlatInitial
02:15:42.243 PM 02/14/2016,Teleop Enabled,0,FALSE,0,NO ERROR,0.000000,0.000000,4000.000000,4000.000000,Speed,Speed,-0.120000,1.470000,1.800000,3.000000,101.000000,1,0,-0.000558,0.000992,0,0.000000,0.000000,0.000000,0.042969,-0.265915,0.000000,-0.001000,0.006000,0.004000,FlatInitial
02:15:42.345 PM 02/14/2016,Teleop Enabled,0,FALSE,0,NO ERROR,0.000000,0.000000,4000.000000,4000.000000,Speed,Speed,-0.110000,1.460000,1.900000,3.000000,101.000000,1,0,-0.000558,0.000992,0,0.000000,0.000000,0.000000,0.042969,-0.265915,0.000000,0.000000,-0.011000,0.015000,FlatInitial
02:15:42.446 PM 02/14/2016,Teleop Enabled,0,FALSE,0,NO ERROR,0.000000,0.000000,4000.000000,4000.000000,Speed,Speed,-0.120000,1.460000,1.890000,3.000000,100.000000,1,0,-0.000558,0.000992,0,0.000000,0.000000,0.000000,0.042969,-0.265915,0.000000,-0.005000,0.001000,0.004000,FlatInitial
02:15:42.546 PM 02/14/2016,Teleop Enabled,0,FALSE,0,NO ERROR,0.000000,0.000000,4000.000000,4000.000000,Speed,Speed,-0.100000,1.460000,1.870000,3.000000,101.000000,1,0,-0.000558,0.000992,0,0.000000,0.000000,0.000000,0.042969,-0.265915,0.000000,-0.001000,-0.004000,0.006000,FlatInitial
02:15:42.646 PM 02/14/2016,Teleop Enabled,0,FALSE,0,NO ERROR,0.000000,0.000000,4000.000000,4000.000000,Speed,Speed,-0.120000,1.450000,1.900000,3.000000,101.000000,1,0,-0.000558,0.000992,0,0.000000,0.000000,0.000000,0.042969,-0.265915,0.000000,0.000000,0.000000,0.001000,FlatInitial
02:15:42.746 PM 02/14/2016,Teleop Enabled,0,FALSE,0,NO ERROR,0.000000,0.000000,4000.000000,4000.000000,Speed,Speed,-0.110000,1.460000,1.880000,3.000000,102.000000,1,0,-0.000558,0.000992,0,0.000000,0.000000,0.000000,0.042969,-0.265915,0.000000,0.000000,-0.004000,0.000000,FlatInitial
02:15:42.846 PM 02/14/2016,Teleop Enabled,0,FALSE,0,NO ERROR,0.000000,0.000000,4000.000000,4000.000000,Speed,Speed,-0.120000,1.460000,1.870000,3.000000,101.000000,1,0,-0.000558,0.000992,0,0.000000,0.000000,0.000000,0.042969,-0.265915,0.000000,0.002000,0.001000,0.001000,FlatInitial
02:15:42.946 PM 02/14/2016,Teleop Enabled,0,FALSE,0,NO ERROR,0.000000,0.000000,4000.000000,4000.000000,Speed,Speed,-0.120000,1.460000,1.870000,3.000000,101.000000,1,0,-0.000558,0.000992,0,0.000000,0.000000,0.000000,0.042969,-0.265915,0.000000,-0.001000,0.000000,0.000000,FlatInitial
02:15:43.047 PM 02/14/2016,Teleop Enabled,0,FALSE,0,NO ERROR,0.000000,0.000000,4000.000000,4000.000000,Speed,Speed,-0.110000,1.460000,1.870000,3.000000,103.000000,1,0,-0.000558,0.000992,0,0.000000,0.000000,0.000000,0.042969,-0.265915,0.000000,0.000000,0.001000,0.003000,FlatInitial
02:15:43.153 PM 02/14/2016,Teleop Enabled,0,FALSE,0,NO ERROR,0.000000,0.000000,4000.000000,4000.000000,Speed,Speed,-0.120000,1.460000,1.870000,3.000000,103.000000,1,0,-0.000558,0.000992,0,0.000000,0.000000,0.000000,0.042969,-0.265915,0.000000,0.001000,-0.002000,0.004000,FlatInitial
02:15:43.250 PM 02/14/2016,Teleop Enabled,0,FALSE,0,NO ERROR,0.000000,0.000000,4000.000000,4000.000000,Speed,Speed,-0.120000,1.460000,1.870000,3.000000,101.000000,1,0,-0.000558,0.000992,0,0.000000,0.000000,0.000000,0.042969,-0.265915,0.000000,0.001000,0.000000,0.004000,FlatInitial
02:15:43.352 PM 02/14/2016,Teleop Enabled,0,FALSE,0,NO ERROR,0.000000,0.000000,4000.000000,4000.000000,Speed,Speed,-0.120000,1.460000,1.870000,3.000000,101.000000,1,0,-0.000558,0.000992,0,0.000000,0.000000,0.000000,0.042969,-0.265915,0.000000,0.000000,-0.002000,0.004000,FlatInitial
02:15:43.453 PM 02/14/2016,Teleop Enabled,0,FALSE,0,NO ERROR,0.000000,0.000000,4000.000000,4000.000000,Speed,Speed,-0.120000,1.460000,1.870000,3.000000,102.000000,1,0,-0.000558,0.000992,0,0.000000,0.000000,0.000000,0.042969,-0.265915,0.000000,0.000000,0.001000,0.000000,FlatInitial
02:15:43.554 PM 02/14/2016,Teleop Enabled,0,FALSE,0,NO ERROR,0.000000,0.000000,4000.000000,4000.000000,Speed,Speed,-0.120000,1.460000,1.860000,3.000000,101.000000,1,0,-0.000558,0.000992,0,0.000000,0.000000,0.000000,0.042969,-0.265915,0.000000,-0.001000,0.000000,0.001000,FlatInitial
02:15:43.654 PM 02/14/2016,Teleop Enabled,0,FALSE,0,NO ERROR,0.000000,0.000000,4000.000000,4000.000000,Speed,Speed,-0.110000,1.460000,1.860000,3.000000,102.000000,1,0,-0.000558,0.000992,0,0.000000,0.000000,0.000000,0.042969,-0.265915,0.000000,-0.001000,0.001000,0.004000,FlatInitial
02:15:43.755 PM 02/14/2016,Teleop Enabled,0,FALSE,0,NO ERROR,0.000000,0.000000,4000.000000,4000.000000,Speed,Speed,-0.110000,1.460000,1.860000,3.000000,101.000000,1,0,-0.000558,0.000992,0,0.000000,0.000000,0.000000,0.042969,-0.265915,0.000000,-0.002000,0.000000,-0.001000,FlatInitial
02:15:43.855 PM 02/14/2016,Teleop Enabled,0,FALSE,0,NO ERROR,0.000000,0.000000,4000.000000,4000.000000,Speed,Speed,-0.110000,1.460000,1.850000,3.000000,101.000000,1,0,-0.000558,0.000992,0,0.000000,0.000000,0.000000,0.042969,-0.265915,0.000000,-0.002000,-0.001000,0.007000,FlatInitial
02:15:43.955 PM 02/14/2016,Teleop Enabled,0,FALSE,0,NO ERROR,0.000000,0.000000,4000.000000,4000.000000,Speed,Speed,-0.120000,1.440000,1.770000,3.000000,104.000000,1,0,-0.000558,0.000992,0,0.000000,0.000000,0.000000,0.042969,-0.265915,0.000000,0.005000,-0.016000,0.031000,FlatInitial
02:15:44.055 PM 02/14/2016,Teleop Enabled,0,FALSE,0,NO ERROR,0.000000,0.000000,4000.000000,4000.000000,Speed,Speed,-0.170000,1.400000,1.530000,3.000000,101.000000,1,0,-0.000558,0.000992,0,0.000000,0.011795,0.000000,0.042969,-0.265686,0.000000,0.005000,0.021000,-0.012000,FlatInitial
02:15:44.157 PM 02/14/2016,Teleop Enabled,0,FALSE,0,NO ERROR,0.000000,0.000000,4000.000000,4000.000000,Speed,Speed,-0.120000,1.380000,1.570000,3.000000,101.000000,1,0,-0.000558,0.000992,0,0.000000,0.000000,0.000000,0.042969,-0.265396,0.000000,0.005000,-0.011000,-0.008000,FlatInitial
02:15:44.257 PM 02/14/2016,Teleop Enabled,0,FALSE,0,NO ERROR,0.000000,0.000000,4000.000000,4000.000000,Speed,Speed,-0.120000,1.470000,1.890000,3.000000,105.000000,1,0,-0.000558,0.000992,0,-0.021332,0.008163,0.000000,0.042664,-0.265274,0.000000,0.090000,-0.065000,0.341000,FlatInitial
02:15:44.357 PM 02/14/2016,Teleop Enabled,0,FALSE,0,NO ERROR,0.000000,0.000000,4000.000000,4000.000000,Speed,Speed,-0.080000,1.350000,1.990000,3.000000,101.000000,1,0,-0.000558,0.000992,0,0.000290,0.004807,0.000000,0.042831,-0.265533,0.000000,-0.014000,-0.008000,0.082000,FlatInitial
02:15:44.459 PM 02/14/2016,Teleop Enabled,0,FALSE,0,NO ERROR,0.000000,0.000000,4000.000000,4000.000000,Speed,Speed,0.020000,1.250000,1.660000,3.000000,100.000000,1,0,-0.000558,0.000992,0,0.014282,-0.021255,0.000000,0.042847,-0.266006,0.000000,0.073000,-0.020000,-0.015000,FlatInitial
02:15:44.559 PM 02/14/2016,Teleop Enabled,0,FALSE,0,NO ERROR,0.000000,0.000000,4000.000000,4000.000000,Speed,Speed,-0.130000,1.280000,1.240000,3.000000,102.000000,1,0,-0.000558,0.000992,0,0.013275,0.004303,0.000000,0.043549,-0.266403,0.000000,-0.003000,0.026000,0.034000,FlatInitial
02:15:44.659 PM 02/14/2016,Teleop Enabled,0,FALSE,0,NO ERROR,0.000000,0.000000,4000.000000,4000.000000,Speed,Speed,-0.160000,1.260000,1.570000,3.000000,101.000000,1,0,-0.000558,0.000992,0,-0.005814,0.000000,0.000000,0.043777,-0.266190,0.000000,-0.040000,-0.013000,0.074000,FlatInitial
02:15:44.759 PM 02/14/2016,Teleop Enabled,0,FALSE,0,NO ERROR,0.000000,0.000000,4000.000000,4000.000000,Speed,Speed,-0.090000,1.230000,1.610000,3.000000,101.000000,1,0,-0.000558,0.000992,0,0.013733,-0.006958,0.000000,0.043869,-0.266342,0.000000,0.057000,0.001000,-0.030000,FlatInitial
02:15:44.859 PM 02/14/2016,Teleop Enabled,0,FALSE,0,NO ERROR,0.000000,0.000000,4000.000000,4000.000000,Speed,Speed,-0.090000,1.290000,1.630000,3.000000,101.000000,1,0,-0.000558,0.000992,0,0.020752,0.000000,0.000000,0.044785,-0.266159,0.000000,0.017000,-0.015000,-0.005000,FlatInitial
02:15:44.959 PM 02/14/2016,Teleop Enabled,0,FALSE,0,NO ERROR,0.000000,0.000000,4000.000000,4000.000000,Speed,Speed,-0.240000,1.180000,1.330000,3.000000,102.000000,1,0,-0.000558,0.000992,0,0.009079,-0.007401,0.000000,0.045288,-0.266525,0.000000,-0.005000,0.042000,-0.099000,FlatInitial
02:15:45.059 PM 02/14/2016,Teleop Enabled,0,FALSE,0,NO ERROR,0.000000,0.000000,4000.000000,4000.000000,Speed,Speed,-0.450000,1.080000,0.540000,3.000000,102.000000,1,0,-0.000558,0.000992,0,-0.035172,0.064453,0.000000,0.044464,-0.265015,0.000000,-0.036000,0.097000,-0.284000,FlatInitial
02:15:45.160 PM 02/14/2016,Teleop Enabled,0,FALSE,0,NO ERROR,0.000000,0.000000,4000.000000,4000.000000,Speed,Speed,-0.150000,1.300000,2.170000,3.000000,101.000000,1,0,-0.000558,0.000992,0,-0.018066,0.024200,0.000000,0.042679,-0.261383,0.000000,0.124000,-0.245000,0.461000,FlatInitial
02:15:45.260 PM 02/14/2016,Teleop Enabled,0,FALSE,0,NO ERROR,0.000000,0.000000,4000.000000,4000.000000,Speed,Speed,-0.160000,1.210000,2.010000,3.000000,102.000000,1,0,-0.000558,0.000992,0,0.015228,-0.042023,0.000000,0.043671,-0.263824,0.000000,-0.025000,0.098000,0.354000,FlatInitial
02:15:45.361 PM 02/14/2016,Teleop Enabled,0,FALSE,0,NO ERROR,0.000000,0.000000,4000.000000,4000.000000,Speed,Speed,0.160000,1.030000,0.510000,3.000000,101.000000,1,0,-0.000558,0.000992,0,-0.032578,0.030991,0.000000,0.042816,-0.263763,0.000000,0.006000,0.084000,-0.342000,FlatInitial
02:15:45.461 PM 02/14/2016,Teleop Enabled,0,FALSE,0,NO ERROR,0.000000,0.000000,4000.000000,4000.000000,Speed,Speed,0.340000,1.360000,2.280000,3.000000,101.000000,1,0,-0.000558,0.000992,0,0.043427,-0.057816,0.000000,0.042633,-0.262726,0.000000,0.160000,-0.148000,0.358000,FlatInitial
02:15:45.563 PM 02/14/2016,Teleop Enabled,0,FALSE,0,NO ERROR,0.000000,0.000000,4000.000000,4000.000000,Speed,Speed,0.660000,0.990000,1.900000,3.000000,100.000000,1,0,-0.000558,0.000992,0,-0.029144,-0.014938,0.000000,0.043289,-0.264862,0.000000,-0.164000,0.082000,0.326000,FlatInitial
02:15:45.664 PM 02/14/2016,Teleop Enabled,0,FALSE,0,NO ERROR,0.000000,0.000000,4000.000000,4000.000000,Speed,Speed,1.050000,1.110000,0.980000,3.000000,103.000000,1,0,-0.000558,0.000992,0,-0.067551,0.007401,0.000000,0.039734,-0.264847,0.000000,0.100000,0.028000,0.210000,FlatInitial
02:15:45.764 PM 02/14/2016,Teleop Enabled,0,FALSE,0,NO ERROR,0.000000,0.000000,4000.000000,4000.000000,Speed,Speed,1.290000,1.360000,2.290000,3.000000,103.000000,1,0,-0.000558,0.000992,0,0.038956,-0.021484,0.000000,0.040314,-0.265106,0.000000,-0.191000,-0.027000,0.175000,FlatInitial
02:15:45.866 PM 02/14/2016,Teleop Enabled,0,FALSE,0,NO ERROR,0.000000,0.000000,4000.000000,4000.000000,Speed,Speed,1.610000,1.240000,1.900000,3.000000,101.000000,1,0,-0.000558,0.000992,0,-0.011169,0.000000,0.000000,0.039642,-0.266220,0.000000,-0.075000,-0.015000,0.171000,FlatInitial
02:15:45.965 PM 02/14/2016,Teleop Enabled,0,FALSE,0,NO ERROR,0.000000,0.000000,4000.000000,4000.000000,Speed,Speed,1.600000,1.420000,0.700000,3.000000,102.000000,1,0,-0.000558,0.000992,0,0.001236,0.071854,0.000000,0.039108,-0.264359,0.000000,0.050000,0.074000,-0.265000,FlatInitial
02:15:46.065 PM 02/14/2016,Teleop Enabled,0,FALSE,0,NO ERROR,0.000000,0.000000,4000.000000,4000.000000,Speed,Speed,1.470000,1.220000,2.440000,3.000000,101.000000,1,0,-0.000558,0.000992,0,-0.013885,0.055862,0.000000,0.039185,-0.260437,0.000000,-0.057000,-0.136000,0.452000,FlatInitial
02:15:46.166 PM 02/14/2016,Teleop Enabled,0,FALSE,0,NO ERROR,0.000000,0.000000,4000.000000,4000.000000,Speed,Speed,1.370000,1.150000,1.660000,3.000000,102.000000,1,0,-0.000558,0.000992,0,-0.022888,0.035873,0.000000,0.037888,-0.258926,0.000000,-0.076000,0.023000,0.279000,FlatInitial
02:15:46.266 PM 02/14/2016,Teleop Enabled,0,FALSE,0,NO ERROR,0.000000,0.000000,4000.000000,4000.000000,Speed,Speed,1.450000,1.160000,0.310000,3.000000,101.000000,1,0,-0.000558,0.000992,0,0.000000,0.090210,0.000000,0.036026,-0.255997,0.000000,-0.009000,0.062000,-0.469000,FlatInitial
02:15:46.367 PM 02/14/2016,Teleop Enabled,0,FALSE,0,NO ERROR,0.000000,0.000000,4000.000000,4000.000000,Speed,Speed,1.530000,1.260000,2.320000,3.000000,104.000000,1,0,-0.000558,0.000992,0,0.058334,0.049271,0.000000,0.037003,-0.251282,0.000000,-0.046000,-0.054000,-0.188000,FlatInitial
02:15:46.467 PM 02/14/2016,Teleop Enabled,0,FALSE,0,NO ERROR,0.000000,0.000000,4000.000000,4000.000000,Speed,Speed,2.000000,1.080000,1.700000,3.000000,101.000000,1,0,-0.000558,0.000992,0,0.026581,0.000000,0.000000,0.039261,-0.250198,0.000000,-0.139000,-0.039000,0.323000,FlatInitial
02:15:46.567 PM 02/14/2016,Teleop Enabled,0,FALSE,0,NO ERROR,0.000000,0.000000,4000.000000,4000.000000,Speed,Speed,2.150000,1.310000,1.220000,3.000000,102.000000,1,0,-0.000558,0.000992,0,0.025711,0.006302,0.000000,0.039459,-0.250549,0.000000,0.102000,0.084000,0.141000,FlatInitial
02:15:46.667 PM 02/14/2016,Teleop Enabled,0,FALSE,0,NO ERROR,0.000000,0.000000,4000.000000,4000.000000,Speed,Speed,2.160000,1.220000,2.130000,3.000000,102.000000,1,0,-0.000558,0.000992,0,0.047729,0.012512,0.000000,0.042099,-0.249557,0.000000,-0.065000,-0.058000,0.167000,FlatInitial
