Time,RobotMode,AutoToRun,ErrorStatus, ErrorCode,ErrorSource,ActualRPM1,ActualRPM2,DesiredRPM1,DesiredRPM2,ControlMode1,ControlMode2,NavXYaw,NavXRoll,NavXPitch,ShooterState,LoopTime,IsLevel,IsAutoTargeting,LeftMotorOutput,RightMotorOutput,IsHaloDrive,NavXVelocityX,NavXVelocityY,NavXVelocityZ,NavXDisplacementX,NavXDisplacementY,NavXDisplacementZ,NavXAccelerationX,NavXAccelerationY,NavXAccelerationZ,AutoDefendState
04:53:52.944 PM 02/14/2016,Autonomous Disabled,0,TRUE,91,Variant To Data in WPI_DigitalInputRefNum Registry Get.vi->Periodic Tasks.vi->Robot Main.vi,0.000000,0.000000,-6000.000000,-6000.000000,Speed,Speed,-8.990000,0.910000,2.340000,1.000000,102.000000,1,0,-0.003038,-0.000000,0,0.000000,0.000000,0.000000,0.245773,-0.055099,0.000000,0.000000,-0.002000,-0.001000,FlatInitial
04:53:53.044 PM 02/14/2016,Teleop Enabled,0,TRUE,-44007,<LOCATION>WPI_DigitalInputRefNum Registry Get.vi<CALLSTACK>WPI_DigitalInputRefNum Registry Get.vi< <Periodic Tasks.vi< <Robot Main.vi,0.000000,0.000000,0.000000,0.000000,Speed,Speed,-8.990000,0.910000,2.340000,0.000000,19239.000000,1,0,-0.003038,-0.000000,0,0.000000,0.000000,0.000000,0.245621,-0.055008,0.000000,0.002000,0.000000,0.007000,FlatInitial
04:53:53.146 PM 02/14/2016,Teleop Enabled,0,FALSE,0,NO ERROR,0.000000,0.000000,0.000000,0.000000,Speed,Speed,0.000000,0.910000,2.340000,0.000000,100.000000,1,0,-0.003038,-0.000000,0,0.000000,0.000000,0.000000,0.245621,-0.055008,0.000000,0.000000,0.008000,0.002000,FlatInitial
04:53:53.247 PM 02/14/2016,Teleop Enabled,0,FALSE,0,NO ERROR,0.000000,0.000000,0.000000,0.000000,Speed,Speed,0.000000,0.920000,2.340000,0.000000,103.000000,1,0,-0.003038,-0.000000,0,0.000000,0.000000,0.000000,0.245621,-0.055008,0.000000,0.009000,-0.008000,-0.009000,FlatInitial
04:53:53.347 PM 02/14/2016,Teleop Enabled,0,FALSE,0,NO ERROR,0.000000,0.000000,0.000000,0.000000,Speed,Speed,-0.010000,0.910000,2.340000,0.000000,103.000000,1,0,-0.003038,-0.000000,0,0.000000,0.000000,0.000000,0.245621,-0.055008,0.000000,0.017000,-0.007000,0.004000,FlatInitial
04:53:53.448 PM 02/14/2016,Teleop Enabled,0,FALSE,0,NO ERROR,0.000000,0.000000,0.000000,0.000000,Speed,Speed,-0.010000,0.920000,2.310000,0.000000,101.000000,1,0,-0.003038,-0.000000,0,0.000000,0.000000,0.000000,0.245621,-0.055008,0.000000,0.004000,-0.001000,0.015000,FlatInitial
04:53:53.548 PM 02/14/2016,Teleop Enabled,0,FALSE,0,NO ERROR,0.000000,0.000000,0.000000,0.000000,Speed,Speed,-0.010000,0.920000,2.350000,0.000000,102.000000,1,0,-0.003038,-0.000000,0,0.000000,0.000000,0.000000,0.245621,-0.055008,0.000000,-0.014000,0.004000,-0.003000,FlatInitial
04:53:53.649 PM 02/14/2016,Teleop Enabled,0,FALSE,0,NO ERROR,0.000000,0.000000,0.000000,0.000000,Speed,Speed,0.000000,0.920000,2.360000,0.000000,100.000000,1,0,-0.003038,-0.000000,0,0.000000,0.000000,0.000000,0.245621,-0.055008,0.000000,-0.002000,-0.006000,0.000000,FlatInitial
04:53:53.750 PM 02/14/2016,Teleop Enabled,0,FALSE,0,NO ERROR,0.000000,0.000000,0.000000,0.000000,Speed,Speed,0.000000,0.920000,2.360000,0.000000,102.000000,1,0,-0.003038,-0.000000,0,0.000000,0.000000,0.000000,0.245621,-0.055008,0.000000,0.002000,-0.002000,0.005000,FlatInitial
04:53:53.850 PM 02/14/2016,Teleop Enabled,0,FALSE,0,NO ERROR,0.000000,0.000000,0.000000,0.000000,Speed,Speed,-0.010000,0.900000,2.320000,0.000000,101.000000,1,0,-0.003038,-0.000000,0,0.000000,0.000000,0.000000,0.245621,-0.055008,0.000000,0.011000,-0.001000,0.007000,FlatInitial
04:53:53.951 PM 02/14/2016,Teleop Enabled,0,FALSE,0,NO ERROR,0.000000,0.000000,0.000000,0.000000,Speed,Speed,-0.020000,0.900000,2.330000,0.000000,102.000000,1,0,-0.003038,-0.000000,0,0.000000,0.000000,0.000000,0.245621,-0.055008,0.000000,-0.003000,0.002000,0.002000,FlatInitial
04:53:54.053 PM 02/14/2016,Teleop Enabled,0,FALSE,0,NO ERROR,0.000000,0.000000,0.000000,0.000000,Speed,Speed,-0.020000,0.920000,2.350000,0.000000,101.000000,1,0,-0.003038,-0.000000,0,0.000000,0.000000,0.000000,0.245621,-0.055008,0.000000,-0.009000,0.000000,0.004000,FlatInitial
04:53:54.153 PM 02/14/2016,Teleop Enabled,0,FALSE,0,NO ERROR,0.000000,0.000000,0.000000,0.000000,Speed,Speed,-0.010000,0.920000,2.340000,0.000000,101.000000,1,0,-0.003038,-0.000000,0,0.000000,0.000000,0.000000,0.245621,-0.055008,0.000000,0.006000,-0.003000,0.003000,FlatInitial
04:53:54.253 PM 02/14/2016,Teleop Enabled,0,FALSE,0,NO ERROR,0.000000,0.000000,0.000000,0.000000,Speed,Speed,-0.020000,0.910000,2.340000,0.000000,101.000000,1,0,-0.003038,-0.000000,0,0.000000,0.000000,0.000000,0.245621,-0.055008,0.000000,0.009000,0.000000,0.003000,FlatInitial
04:53:54.354 PM 02/14/2016,Teleop Enabled,0,FALSE,0,NO ERROR,0.000000,0.000000,0.000000,0.000000,Speed,Speed,-0.020000,0.910000,2.340000,0.000000,101.000000,1,0,-0.003038,-0.000000,0,0.000000,0.000000,0.000000,0.245621,-0.055008,0.000000,-0.009000,0.001000,0.009000,FlatInitial
04:53:54.454 PM 02/14/2016,Teleop Enabled,0,FALSE,0,NO ERROR,0.000000,0.000000,0.000000,0.000000,Speed,Speed,-0.020000,0.900000,2.350000,0.000000,101.000000,1,0,-0.003038,-0.000000,0,0.000000,0.000000,0.000000,0.245621,-0.055145,0.000000,-0.005000,0.006000,0.018000,FlatInitial
04:53:54.555 PM 02/14/2016,Teleop Enabled,0,FALSE,0,NO ERROR,0.000000,0.000000,0.000000,0.000000,Speed,Speed,-0.020000,0.880000,2.360000,0.000000,101.000000,1,0,-0.003038,-0.000000,0,-0.010513,-0.013184,0.000000,0.245468,-0.055374,0.000000,0.076000,0.017000,-0.016000,FlatInitial
04:53:54.656 PM 02/14/2016,Teleop Enabled,0,FALSE,0,NO ERROR,0.000000,0.000000,0.000000,0.000000,Speed,Speed,0.000000,0.890000,2.370000,0.000000,102.000000,1,0,-0.003038,-0.000000,0,0.003555,-0.005432,0.000000,0.245804,-0.056137,0.000000,0.043000,0.016000,-0.020000,FlatInitial
04:53:54.757 PM 02/14/2016,Teleop Enabled,0,FALSE,0,NO ERROR,0.000000,0.000000,0.000000,0.000000,Speed,Speed,-0.020000,0.910000,2.330000,0.000000,102.000000,1,0,-0.003038,-0.000000,0,0.000000,0.000000,0.000000,0.246063,-0.056183,0.000000,0.008000,-0.007000,-0.037000,FlatInitial
04:53:54.857 PM 02/14/2016,Teleop Enabled,0,FALSE,0,NO ERROR,0.000000,0.000000,0.000000,0.000000,Speed,Speed,-0.010000,0.930000,2.340000,0.000000,107.000000,1,0,-0.003038,-0.000000,0,0.000000,0.000000,0.000000,0.246063,-0.056183,0.000000,-0.007000,-0.001000,-0.013000,FlatInitial
04:53:54.957 PM 02/14/2016,Teleop Enabled,0,FALSE,0,NO ERROR,0.000000,0.000000,0.000000,0.000000,Speed,Speed,0.000000,0.920000,2.330000,0.000000,100.000000,1,0,-0.003038,-0.000000,0,0.000000,0.000000,0.000000,0.245865,-0.056183,0.000000,-0.008000,0.002000,-0.006000,FlatInitial
04:53:55.057 PM 02/14/2016,Teleop Enabled,0,FALSE,0,NO ERROR,0.000000,0.000000,0.000000,0.000000,Speed,Speed,-0.010000,0.910000,2.310000,0.000000,102.000000,1,0,-0.003038,-0.000000,0,0.000000,0.000000,0.000000,0.245865,-0.056183,0.000000,0.005000,0.006000,-0.011000,FlatInitial
04:53:55.159 PM 02/14/2016,Teleop Enabled,0,FALSE,0,NO ERROR,0.000000,0.000000,0.000000,0.000000,Speed,Speed,-0.010000,0.910000,2.300000,0.000000,101.000000,1,0,-0.003038,-0.000000,0,0.000000,0.000000,0.000000,0.245865,-0.056183,0.000000,0.000000,0.009000,-0.009000,FlatInitial
04:53:55.259 PM 02/14/2016,Teleop Enabled,0,FALSE,0,NO ERROR,0.000000,0.000000,0.000000,0.000000,Speed,Speed,0.000000,0.920000,2.320000,0.000000,102.000000,1,0,-0.003038,-0.000000,0,0.000000,0.000000,0.000000,0.245865,-0.056183,0.000000,-0.007000,0.001000,-0.020000,FlatInitial
04:53:55.360 PM 02/14/2016,Teleop Enabled,0,FALSE,0,NO ERROR,0.000000,0.000000,0.000000,0.000000,Speed,Speed,0.000000,0.920000,2.180000,0.000000,101.000000,1,0,-0.003038,-0.000000,0,0.000000,0.006821,0.000000,0.245865,-0.056046,0.000000,0.014000,-0.001000,0.040000,FlatInitial
04:53:55.459 PM 02/14/2016,Teleop Enabled,0,FALSE,0,NO ERROR,0.000000,0.000000,0.000000,0.000000,Speed,Speed,-0.010000,0.920000,2.260000,0.000000,101.000000,1,0,-0.003038,-0.000000,0,0.000000,-0.006012,0.000000,0.245865,-0.056152,0.000000,-0.007000,-0.001000,0.015000,FlatInitial
04:53:55.560 PM 02/14/2016,Teleop Enabled,0,FALSE,0,NO ERROR,0.439453,-0.146484,0.000000,0.000000,Speed,Speed,-0.090000,0.970000,0.950000,0.000000,101.000000,1,0,-0.003038,-0.000000,0,0.004089,0.038635,0.000000,0.245987,-0.055374,0.000000,0.025000,-0.012000,-0.816000,FlatInitial
04:53:55.660 PM 02/14/2016,Teleop Enabled,0,FALSE,0,NO ERROR,0.146484,0.000000,0.000000,0.000000,Speed,Speed,-0.330000,0.830000,2.840000,0.000000,103.000000,1,0,-0.003038,-0.000000,0,0.004318,0.023727,0.000000,0.246780,-0.052475,0.000000,-0.070000,-0.056000,0.277000,FlatInitial
04:53:55.761 PM 02/14/2016,Teleop Enabled,0,FALSE,0,NO ERROR,0.146484,0.000000,0.000000,0.000000,Speed,Speed,-0.330000,0.910000,2.400000,0.000000,102.000000,1,0,-0.003038,-0.000000,0,0.052414,0.000000,0.000000,0.248138,-0.052490,0.000000,0.000000,-0.016000,0.025000,FlatInitial
04:53:55.863 PM 02/14/2016,Teleop Enabled,0,FALSE,0,NO ERROR,0.439453,-0.146484,0.000000,0.000000,Speed,Speed,-0.170000,0.920000,2.430000,0.000000,102.000000,1,0,-0.003038,-0.000000,0,-0.041046,-0.057541,0.000000,0.248230,-0.053497,0.000000,0.339000,-0.084000,-0.738000,FlatInitial
04:53:55.963 PM 02/14/2016,Teleop Enabled,0,FALSE,0,NO ERROR,3.369141,-0.146484,0.000000,0.000000,Speed,Speed,-0.190000,0.820000,1.780000,0.000000,102.000000,1,0,-0.003038,-0.000000,0,-0.035995,-0.038422,0.000000,0.246033,-0.057114,0.000000,-0.099000,-0.020000,-0.148000,FlatInitial
04:53:56.064 PM 02/14/2016,Teleop Enabled,0,FALSE,0,NO ERROR,1.757812,0.000000,0.000000,0.000000,Speed,Speed,-0.270000,0.990000,2.840000,0.000000,102.000000,1,0,-0.003038,-0.000000,0,-0.031433,0.007706,0.000000,0.242737,-0.058441,0.000000,-0.040000,0.028000,-0.015000,FlatInitial
04:53:56.164 PM 02/14/2016,Teleop Enabled,0,FALSE,0,NO ERROR,0.000000,0.000000,0.000000,0.000000,Speed,Speed,-0.280000,0.910000,2.790000,0.000000,103.000000,1,0,-0.003038,-0.000000,0,-0.035172,-0.001877,0.000000,0.240891,-0.058319,0.000000,0.036000,-0.035000,-0.075000,FlatInitial
04:53:56.265 PM 02/14/2016,Teleop Enabled,0,FALSE,0,NO ERROR,0.000000,0.000000,-6000.000000,-6000.000000,Speed,Speed,-0.320000,0.930000,2.430000,1.000000,102.000000,1,0,-0.003038,-0.000000,0,-0.030731,-0.027664,0.000000,0.239960,-0.059113,0.000000,-0.035000,0.031000,0.030000,FlatInitial
04:53:56.365 PM 02/14/2016,Teleop Enabled,0,FALSE,0,NO ERROR,0.000000,0.000000,-6000.000000,-6000.000000,Speed,Speed,-0.300000,0.940000,2.640000,1.000000,100.000000,1,0,-0.003038,-0.000000,0,-0.002899,-0.036606,0.000000,0.238541,-0.060654,0.000000,-0.039000,-0.002000,-0.013000,FlatInitial
04:53:56.465 PM 02/14/2016,Teleop Enabled,0,FALSE,0,NO ERROR,0.000000,0.000000,-6000.000000,-6000.000000,Speed,Speed,-0.300000,0.950000,2.520000,1.000000,101.000000,1,0,-0.003038,-0.000000,0,-0.000153,0.000000,0.000000,0.238449,-0.060654,0.000000,-0.032000,0.016000,-0.010000,FlatInitial
04:53:56.565 PM 02/14/2016,Teleop Enabled,0,FALSE,0,NO ERROR,0.000000,0.000000,-6000.000000,-6000.000000,Speed,Speed,-0.280000,0.950000,2.520000,1.000000,101.000000,1,0,-0.003038,-0.000000,0,0.008652,-0.006912,0.000000,0.238480,-0.060760,0.000000,0.015000,-0.005000,-0.009000,FlatInitial
04:53:56.665 PM 02/14/2016,Teleop Enabled,0,FALSE,0,NO ERROR,0.000000,0.000000,-6000.000000,-6000.000000,Speed,Speed,-0.280000,0.930000,2.610000,1.000000,102.000000,1,0,-0.003038,-0.000000,0,0.005661,0.000000,0.000000,0.238724,-0.060822,0.000000,0.024000,-0.015000,0.007000,FlatInitial
04:53:56.765 PM 02/14/2016,Teleop Enabled,0,FALSE,0,NO ERROR,0.000000,0.000000,-6000.000000,-6000.000000,Speed,Speed,-0.290000,0.930000,2.510000,1.000000,101.000000,1,1,0.250000,0.250000,0,0.000000,0.000000,0.000000,0.238922,-0.060944,0.000000,0.009000,-0.009000,-0.012000,FlatInitial
04:53:56.865 PM 02/14/2016,Teleop Enabled,0,FALSE,0,NO ERROR,0.000000,0.000000,-6000.000000,-6000.000000,Speed,Speed,-1.140000,1.120000,2.740000,1.000000,101.000000,1,1,0.250000,0.250000,0,0.056549,-0.030838,0.000000,0.240280,-0.061386,0.000000,0.040000,0.034000,0.039000,FlatInitial
04:53:56.966 PM 02/14/2016,Teleop Enabled,0,FALSE,0,NO ERROR,0.000000,0.000000,-6000.000000,-6000.000000,Speed,Speed,-2.180000,1.330000,2.630000,1.000000,102.000000,1,1,0.250000,0.250000,0,0.077362,-0.022964,0.000000,0.241730,-0.061905,0.000000,0.060000,0.029000,-0.001000,FlatInitial
04:53:57.066 PM 02/14/2016,Teleop Enabled,0,FALSE,0,NO ERROR,0.000000,0.000000,-6000.000000,-6000.000000,Speed,Speed,-5.920000,1.680000,2.630000,1.000000,102.000000,1,1,0.250000,0.250000,0,0.122070,0.000000,0.000000,0.247528,-0.062302,0.000000,-0.050000,0.039000,0.010000,FlatInitial
04:53:57.167 PM 02/14/2016,Teleop Enabled,0,FALSE,0,NO ERROR,0.000000,0.000000,-6000.000000,-6000.000000,Speed,Speed,-10.950000,1.860000,2.640000,1.000000,101.000000,1,1,0.250000,0.250000,0,0.119797,0.029678,0.000000,0.252991,-0.061569,0.000000,0.043000,0.042000,-0.048000,FlatInitial
04:53:57.269 PM 02/14/2016,Teleop Enabled,0,FALSE,0,NO ERROR,0.000000,0.000000,-6000.000000,-6000.000000,Speed,Speed,-16.920000,2.050000,2.670000,1.000000,103.000000,1,1,0.001780,0.001780,0,0.121902,0.058197,0.000000,0.259705,-0.059219,0.000000,-0.064000,0.054000,-0.041000,FlatInitial
04:53:57.370 PM 02/14/2016,Teleop Enabled,0,FALSE,0,NO ERROR,0.000000,0.000000,-6000.000000,-6000.000000,Speed,Speed,-23.430000,2.110000,2.570000,1.000000,101.000000,1,1,-0.030081,-0.030081,0,0.082809,0.076065,0.000000,0.264664,-0.055527,0.000000,-0.090000,-0.118000,0.081000,FlatInitial
04:53:57.470 PM 02/14/2016,Teleop Enabled,0,FALSE,0,NO ERROR,0.000000,0.000000,-6000.000000,-6000.000000,Speed,Speed,-27.600000,1.640000,2.330000,1.000000,102.000000,1,1,-0.250000,-0.250000,0,-0.061722,0.021301,0.000000,0.264709,-0.053223,0.000000,-0.129000,-0.039000,0.014000,FlatInitial
04:53:57.570 PM 02/14/2016,Teleop Enabled,0,FALSE,0,NO ERROR,0.000000,0.000000,-6000.000000,-6000.000000,Speed,Speed,-28.600000,1.190000,2.130000,1.000000,102.000000,1,1,-0.250000,-0.250000,0,-0.137955,-0.059418,0.000000,0.258850,-0.054718,0.000000,-0.064000,-0.056000,0.011000,FlatInitial
04:53:57.670 PM 02/14/2016,Teleop Enabled,0,FALSE,0,NO ERROR,0.000000,0.000000,-6000.000000,-6000.000000,Speed,Speed,-26.180000,0.750000,2.210000,1.000000,100.000000,1,1,0.000000,-0.000000,0,-0.199539,-0.110260,0.000000,0.249954,-0.059204,0.000000,0.035000,-0.066000,0.086000,FlatInitial
04:53:57.771 PM 02/14/2016,Teleop Enabled,0,FALSE,0,NO ERROR,0.000000,0.000000,-6000.000000,-6000.000000,Speed,Speed,-22.560000,0.810000,2.310000,1.000000,101.000000,1,1,0.000000,-0.000000,0,-0.147171,-0.121735,0.000000,0.243057,-0.064209,0.000000,0.113000,-0.039000,0.117000,FlatInitial
04:53:57.871 PM 02/14/2016,Teleop Enabled,0,FALSE,0,NO ERROR,0.000000,0.000000,-6000.000000,-6000.000000,Speed,Speed,-21.170000,1.040000,2.090000,1.000000,101.000000,1,1,-0.250000,-0.250000,0,-0.047379,0.008347,0.000000,0.238083,-0.066727,0.000000,0.094000,0.023000,0.038000,FlatInitial
04:53:57.974 PM 02/14/2016,Teleop Enabled,0,FALSE,0,NO ERROR,0.146484,0.000000,-6000.000000,-6000.000000,Speed,Speed,-20.560000,0.770000,2.150000,1.000000,102.000000,1,1,-0.237656,-0.237656,0,-0.159225,0.035965,0.000000,0.232956,-0.065872,0.000000,-0.012000,0.004000,-0.044000,FlatInitial
04:53:58.083 PM 02/14/2016,Teleop Enabled,0,FALSE,0,NO ERROR,0.000000,0.000000,-6000.000000,-6000.000000,Speed,Speed,-16.550000,0.530000,2.190000,1.000000,105.000000,1,1,-0.190042,-0.190042,0,-0.210785,-0.005524,0.000000,0.223343,-0.065582,0.000000,0.031000,0.018000,0.085000,FlatInitial
04:53:58.184 PM 02/14/2016,Teleop Enabled,0,FALSE,0,NO ERROR,0.000000,0.000000,-6000.000000,-6000.000000,Speed,Speed,-11.720000,0.230000,2.090000,1.000000,104.000000,1,1,-0.092834,-0.092834,0,-0.245392,0.000000,0.000000,0.212158,-0.065948,0.000000,-0.020000,-0.012000,0.011000,FlatInitial
04:53:58.286 PM 02/14/2016,Teleop Enabled,0,FALSE,0,NO ERROR,0.000000,0.000000,-6000.000000,-6000.000000,Speed,Speed,-4.660000,0.330000,1.980000,1.000000,101.000000,1,1,-0.013733,-0.013733,0,-0.186630,0.000000,0.000000,0.197083,-0.066040,0.000000,0.016000,-0.008000,0.000000,FlatInitial
04:53:58.386 PM 02/14/2016,Teleop Enabled,0,FALSE,0,NO ERROR,0.000000,0.000000,-6000.000000,-6000.000000,Speed,Speed,-2.310000,0.380000,1.950000,1.000000,102.000000,1,1,0.000000,-0.000000,0,0.016129,0.000595,0.000000,0.197266,-0.066055,0.000000,0.134000,-0.036000,0.091000,FlatInitial
04:53:58.486 PM 02/14/2016,Teleop Enabled,0,FALSE,0,NO ERROR,0.000000,0.000000,-6000.000000,-6000.000000,Speed,Speed,-0.360000,0.720000,2.000000,1.000000,102.000000,1,1,0.048538,0.048538,0,0.096680,0.012024,0.000000,0.201019,-0.065887,0.000000,0.048000,0.033000,-0.032000,FlatInitial
04:53:58.590 PM 02/14/2016,Teleop Enabled,0,FALSE,0,NO ERROR,0.000000,0.000000,-6000.000000,-6000.000000,Speed,Speed,-0.100000,0.840000,2.200000,1.000000,102.000000,1,1,0.073916,0.073916,0,0.012619,0.055344,0.000000,0.203247,-0.064056,0.000000,0.061000,0.028000,0.059000,FlatInitial
04:53:58.691 PM 02/14/2016,Teleop Enabled,0,FALSE,0,NO ERROR,0.000000,0.000000,-6000.000000,-6000.000000,Speed,Speed,-0.690000,0.860000,2.270000,1.000000,101.000000,1,1,0.081760,0.081760,0,0.018951,0.096893,0.000000,0.204422,-0.059998,0.000000,0.030000,0.053000,0.000000,FlatInitial
04:53:58.791 PM 02/14/2016,Teleop Enabled,0,FALSE,0,NO ERROR,0.000000,0.000000,-6000.000000,-6000.000000,Speed,Speed,-0.880000,0.860000,2.540000,1.000000,100.000000,1,1,0.071389,0.071389,0,0.021347,0.000000,0.000000,0.205658,-0.055374,0.000000,-0.022000,0.016000,0.003000,FlatInitial
04:53:58.895 PM 02/14/2016,Teleop Enabled,0,FALSE,0,NO ERROR,0.000000,0.000000,-6000.000000,-6000.000000,Speed,Speed,-1.030000,0.900000,2.420000,1.000000,101.000000,1,1,0.068906,0.068906,0,0.000000,0.000000,0.000000,0.206039,-0.055374,0.000000,-0.003000,-0.012000,-0.009000,FlatInitial
04:53:59.003 PM 02/14/2016,Teleop Enabled,0,FALSE,0,NO ERROR,0.000000,0.000000,-6000.000000,-6000.000000,Speed,Speed,-1.300000,0.880000,2.360000,1.000000,101.000000,1,1,0.000000,-0.000000,0,0.000000,-0.003174,0.000000,0.206039,-0.055649,0.000000,0.009000,-0.021000,0.029000,FlatInitial
04:53:59.103 PM 02/14/2016,Teleop Enabled,0,FALSE,0,NO ERROR,0.000000,0.000000,-6000.000000,-6000.000000,Speed,Speed,-1.550000,0.840000,2.330000,1.000000,101.000000,1,1,0.061721,0.061721,0,-0.009872,-0.001846,0.000000,0.206024,-0.055756,0.000000,-0.027000,-0.023000,0.008000,FlatInitial
04:53:59.205 PM 02/14/2016,Teleop Enabled,0,FALSE,0,NO ERROR,0.000000,0.000000,-6000.000000,-6000.000000,Speed,Speed,-1.520000,0.890000,2.310000,1.000000,101.000000,1,1,0.059414,0.059414,0,0.000000,0.000000,0.000000,0.205826,-0.055908,0.000000,-0.005000,-0.009000,0.012000,FlatInitial
04:53:59.305 PM 02/14/2016,Teleop Enabled,0,FALSE,0,NO ERROR,0.000000,0.000000,-6000.000000,-6000.000000,Speed,Speed,-1.530000,0.890000,2.320000,1.000000,101.000000,1,1,0.059414,0.059414,0,0.000000,0.000000,0.000000,0.205643,-0.055908,0.000000,0.011000,0.000000,0.026000,FlatInitial
04:53:59.406 PM 02/14/2016,Teleop Enabled,0,FALSE,0,NO ERROR,0.000000,0.000000,-6000.000000,-6000.000000,Speed,Speed,-1.530000,0.870000,2.310000,1.000000,104.000000,1,1,0.059414,0.059414,0,0.000000,0.000000,0.000000,0.205643,-0.055908,0.000000,0.005000,0.002000,0.001000,FlatInitial
04:53:59.506 PM 02/14/2016,Teleop Enabled,0,FALSE,0,NO ERROR,0.000000,0.000000,-6000.000000,-6000.000000,Speed,Speed,-1.540000,0.890000,2.310000,1.000000,106.000000,1,1,0.059414,0.059414,0,0.000000,0.000000,0.000000,0.205643,-0.055908,0.000000,-0.005000,0.003000,-0.005000,FlatInitial
04:53:59.606 PM 02/14/2016,Teleop Enabled,0,FALSE,0,NO ERROR,0.000000,0.000000,-6000.000000,-6000.000000,Speed,Speed,-1.540000,0.890000,2.320000,1.000000,101.000000,1,1,0.059414,0.059414,0,0.000000,0.000000,0.000000,0.205643,-0.055908,0.000000,-0.002000,0.001000,-0.001000,FlatInitial
04:53:59.706 PM 02/14/2016,Teleop Enabled,0,FALSE,0,NO ERROR,0.000000,0.000000,-6000.000000,-6000.000000,Speed,Speed,-1.530000,0.900000,2.330000,1.000000,101.000000,1,1,0.059414,0.059414,0,0.000000,0.000000,0.000000,0.205643,-0.055908,0.000000,0.000000,0.000000,0.005000,FlatInitial
04:53:59.808 PM 02/14/2016,Teleop Enabled,0,FALSE,0,NO ERROR,0.000000,0.000000,-6000.000000,-6000.000000,Speed,Speed,-1.540000,0.900000,2.330000,1.000000,100.000000,1,1,0.059414,0.059414,0,0.000000,0.000000,0.000000,0.205643,-0.055908,0.000000,0.003000,0.000000,0.004000,FlatInitial
04:53:59.910 PM 02/14/2016,Teleop Enabled,0,FALSE,0,NO ERROR,0.000000,0.000000,-6000.000000,-6000.000000,Speed,Speed,-1.540000,0.910000,2.330000,1.000000,102.000000,1,1,0.059414,0.059414,0,0.000000,0.000000,0.000000,0.205643,-0.055908,0.000000,0.000000,0.001000,0.002000,FlatInitial
04:54:00.011 PM 02/14/2016,Teleop Enabled,0,FALSE,0,NO ERROR,0.000000,0.000000,-6000.000000,-6000.000000,Speed,Speed,-1.540000,0.910000,2.340000,1.000000,100.000000,1,1,0.059414,0.059414,0,0.000000,0.000000,0.000000,0.205643,-0.055908,0.000000,0.001000,-0.001000,0.008000,FlatInitial
04:54:00.112 PM 02/14/2016,Teleop Enabled,0,FALSE,0,NO ERROR,0.000000,0.000000,-6000.000000,-6000.000000,Speed,Speed,-1.540000,0.910000,2.330000,1.000000,102.000000,1,1,0.059414,0.059414,0,0.000000,0.000000,0.000000,0.205643,-0.055908,0.000000,0.001000,0.000000,0.004000,FlatInitial
04:54:00.214 PM 02/14/2016,Teleop Enabled,0,FALSE,0,NO ERROR,0.000000,0.000000,-6000.000000,-6000.000000,Speed,Speed,-1.530000,0.920000,2.340000,1.000000,100.000000,1,1,0.059414,0.059414,0,0.000000,0.000000,0.000000,0.205643,-0.055908,0.000000,0.000000,-0.001000,0.006000,FlatInitial
04:54:00.314 PM 02/14/2016,Teleop Enabled,0,FALSE,0,NO ERROR,0.000000,0.000000,-6000.000000,-6000.000000,Speed,Speed,-1.540000,0.920000,2.340000,1.000000,101.000000,1,1,0.059414,0.059414,0,0.000000,0.000000,0.000000,0.205643,-0.055908,0.000000,0.002000,0.000000,0.002000,FlatInitial
04:54:00.414 PM 02/14/2016,Teleop Enabled,0,FALSE,0,NO ERROR,0.000000,0.000000,-6000.000000,-6000.000000,Speed,Speed,-1.540000,0.920000,2.340000,1.000000,101.000000,1,1,0.059414,0.059414,0,0.000000,0.000000,0.000000,0.205643,-0.055908,0.000000,0.000000,0.001000,0.000000,FlatInitial
04:54:00.514 PM 02/14/2016,Teleop Enabled,0,FALSE,0,NO ERROR,0.000000,0.000000,-6000.000000,-6000.000000,Speed,Speed,-1.540000,0.920000,2.340000,1.000000,101.000000,1,1,0.059414,0.059414,0,0.000000,0.000000,0.000000,0.205643,-0.055908,0.000000,0.000000,0.001000,0.001000,FlatInitial
04:54:00.616 PM 02/14/2016,Teleop Enabled,0,FALSE,0,NO ERROR,0.000000,0.000000,-6000.000000,-6000.000000,Speed,Speed,-1.540000,0.930000,2.340000,1.000000,105.000000,1,1,0.059414,0.059414,0,0.000000,0.000000,0.000000,0.205643,-0.055908,0.000000,0.000000,0.000000,0.001000,FlatInitial
04:54:00.718 PM 02/14/2016,Teleop Enabled,0,FALSE,0,NO ERROR,0.000000,0.000000,-6000.000000,-6000.000000,Speed,Speed,-1.540000,0.920000,2.340000,1.000000,102.000000,1,0,-0.003038,-0.000000,0,0.000000,0.000000,0.000000,0.205643,-0.055908,0.000000,0.000000,-0.001000,0.004000,FlatInitial
04:54:00.819 PM 02/14/2016,Teleop Enabled,0,FALSE,0,NO ERROR,0.000000,0.000000,-6000.000000,-6000.000000,Speed,Speed,-1.530000,0.910000,2.320000,1.000000,103.000000,1,0,-0.003038,-0.000000,0,0.000000,0.000000,0.000000,0.205643,-0.055908,0.000000,0.011000,0.006000,0.000000,FlatInitial
04:54:00.921 PM 02/14/2016,Teleop Enabled,0,FALSE,0,NO ERROR,0.000000,0.000000,-6000.000000,-6000.000000,Speed,Speed,-1.530000,0.920000,2.330000,1.000000,101.000000,1,0,-0.003038,-0.000000,0,0.000000,0.000000,0.000000,0.205643,-0.055908,0.000000,0.008000,-0.001000,-0.002000,FlatInitial
04:54:01.022 PM 02/14/2016,Teleop Enabled,0,FALSE,0,NO ERROR,0.000000,0.000000,-6000.000000,-6000.000000,Speed,Speed,-1.530000,0.920000,2.330000,1.000000,101.000000,1,0,-0.003038,-0.000000,0,0.000000,0.000000,0.000000,0.205643,-0.055908,0.000000,-0.002000,-0.002000,-0.002000,FlatInitial
04:54:01.123 PM 02/14/2016,Teleop Enabled,0,FALSE,0,NO ERROR,0.000000,0.000000,-6000.000000,-6000.000000,Speed,Speed,-1.530000,0.930000,2.340000,1.000000,101.000000,1,1,0.059414,0.059414,0,0.000000,0.000000,0.000000,0.205643,-0.055908,0.000000,0.000000,0.000000,0.002000,FlatInitial
04:54:01.224 PM 02/14/2016,Teleop Enabled,0,FALSE,0,NO ERROR,0.000000,0.000000,-6000.000000,-6000.000000,Speed,Speed,-1.540000,0.930000,2.350000,1.000000,102.000000,1,1,0.059414,0.059414,0,0.000000,0.000000,0.000000,0.205643,-0.055908,0.000000,-0.006000,0.000000,0.000000,FlatInitial
04:54:01.325 PM 02/14/2016,Teleop Enabled,0,FALSE,0,NO ERROR,0.000000,0.000000,-6000.000000,-6000.000000,Speed,Speed,-1.540000,0.920000,2.350000,1.000000,100.000000,1,1,0.059414,0.059414,0,0.000000,0.000000,0.000000,0.205643,-0.055908,0.000000,0.002000,-0.006000,0.003000,FlatInitial
04:54:01.425 PM 02/14/2016,Teleop Enabled,0,FALSE,0,NO ERROR,0.000000,0.000000,-6000.000000,-6000.000000,Speed,Speed,-1.540000,0.920000,2.350000,1.000000,101.000000,1,1,0.059414,0.059414,0,0.000000,0.000000,0.000000,0.205643,-0.055908,0.000000,0.004000,0.001000,0.003000,FlatInitial
04:54:01.526 PM 02/14/2016,Teleop Enabled,0,FALSE,0,NO ERROR,0.000000,0.000000,-6000.000000,-6000.000000,Speed,Speed,-1.550000,0.910000,2.350000,1.000000,101.000000,1,0,-0.003038,-0.000000,0,0.000000,0.000000,0.000000,0.205643,-0.055908,0.000000,0.004000,0.003000,0.000000,FlatInitial
04:54:01.626 PM 02/14/2016,Teleop Enabled,0,FALSE,0,NO ERROR,0.000000,0.000000,-6000.000000,-6000.000000,Speed,Speed,-1.540000,0.920000,2.340000,1.000000,101.000000,1,0,-0.003038,-0.000000,0,0.000000,0.000000,0.000000,0.205643,-0.055908,0.000000,0.008000,0.000000,0.001000,FlatInitial
04:54:01.727 PM 02/14/2016,Teleop Enabled,0,FALSE,0,NO ERROR,0.000000,0.000000,-6000.000000,-6000.000000,Speed,Speed,-1.540000,0.920000,2.340000,1.000000,102.000000,1,0,-0.003038,-0.000000,0,0.000000,0.000000,0.000000,0.205643,-0.055908,0.000000,0.000000,0.000000,0.008000,FlatInitial
04:54:01.827 PM 02/14/2016,Teleop Enabled,0,FALSE,0,NO ERROR,0.000000,0.000000,-6000.000000,-6000.000000,Speed,Speed,-1.550000,0.920000,2.350000,1.000000,101.000000,1,0,-0.003038,-0.000000,0,0.000000,0.000000,0.000000,0.205643,-0.055908,0.000000,-0.003000,0.002000,0.000000,FlatInitial
04:54:01.931 PM 02/14/2016,Teleop Enabled,0,FALSE,0,NO ERROR,0.000000,0.000000,-6000.000000,-6000.000000,Speed,Speed,-1.550000,0.920000,2.350000,1.000000,102.000000,1,0,-0.003038,-0.000000,0,0.000000,0.000000,0.000000,0.205643,-0.055908,0.000000,-0.006000,-0.001000,0.006000,FlatInitial
04:54:02.028 PM 02/14/2016,Teleop Enabled,0,FALSE,0,NO ERROR,0.000000,0.000000,-6000.000000,-6000.000000,Speed,Speed,-1.550000,0.920000,2.340000,1.000000,101.000000,1,0,-0.041912,-0.007502,0,0.000000,0.000000,0.000000,0.205643,-0.055908,0.000000,-0.001000,0.000000,-0.005000,FlatInitial
04:54:02.128 PM 02/14/2016,Teleop Enabled,0,FALSE,0,NO ERROR,0.000000,0.000000,-6000.000000,-6000.000000,Speed,Speed,-1.550000,0.930000,2.350000,1.000000,102.000000,1,0,-0.161262,-0.020088,0,0.000000,0.000000,0.000000,0.205643,-0.055908,0.000000,-0.004000,-0.002000,0.004000,FlatInitial
04:54:02.228 PM 02/14/2016,Teleop Enabled,0,FALSE,0,NO ERROR,0.000000,0.000000,-6000.000000,-6000.000000,Speed,Speed,-1.540000,0.930000,2.360000,1.000000,101.000000,1,0,-0.278319,-0.048608,0,0.000000,0.007050,0.000000,0.205643,-0.055832,0.000000,-0.014000,0.064000,0.000000,FlatInitial
04:54:02.329 PM 02/14/2016,Teleop Enabled,0,FALSE,0,NO ERROR,0.000000,0.000000,-6000.000000,-6000.000000,Speed,Speed,-1.030000,0.880000,2.770000,1.000000,101.000000,1,0,-0.295183,-0.131192,0,-0.002487,0.000000,0.000000,0.205215,-0.053436,0.000000,0.025000,0.000000,0.058000,FlatInitial
04:54:02.430 PM 02/14/2016,Teleop Enabled,0,FALSE,0,NO ERROR,0.000000,0.000000,-6000.000000,-6000.000000,Speed,Speed,-0.170000,0.650000,2.640000,1.000000,101.000000,1,0,-0.348751,-0.148862,0,-0.040619,0.002029,0.000000,0.204132,-0.053268,0.000000,-0.008000,0.002000,-0.022000,FlatInitial
04:54:02.533 PM 02/14/2016,Teleop Enabled,0,FALSE,0,NO ERROR,0.000000,0.000000,-6000.000000,-6000.000000,Speed,Speed,1.690000,0.610000,2.880000,1.000000,102.000000,1,0,-0.524769,-0.238328,0,0.007568,0.023529,0.000000,0.204575,-0.052505,0.000000,-0.050000,-0.002000,-0.020000,FlatInitial
04:54:02.635 PM 02/14/2016,Teleop Enabled,0,FALSE,0,NO ERROR,0.000000,0.000000,-6000.000000,-6000.000000,Speed,Speed,5.060000,0.140000,3.170000,1.000000,100.000000,1,0,-0.524769,-0.238328,0,-0.059525,0.137283,0.000000,0.202133,-0.047592,0.000000,0.083000,0.112000,0.009000,FlatInitial
04:54:02.737 PM 02/14/2016,Teleop Enabled,0,FALSE,0,NO ERROR,0.000000,0.000000,-6000.000000,-6000.000000,Speed,Speed,11.160000,-0.180000,3.560000,1.000000,101.000000,1,0,-0.524769,-0.035712,0,-0.003723,0.233292,0.000000,0.201065,-0.037979,0.000000,0.033000,0.093000,0.027000,FlatInitial
04:54:02.836 PM 02/14/2016,Teleop Enabled,0,FALSE,0,NO ERROR,0.000000,0.000000,-6000.000000,-6000.000000,Speed,Speed,19.640000,-0.640000,4.070000,1.000000,101.000000,1,0,-0.524769,-0.012152,0,0.110718,0.320862,0.000000,0.203400,-0.023605,0.000000,0.203000,0.087000,0.036000,FlatInitial
04:54:02.936 PM 02/14/2016,Teleop Enabled,0,FALSE,0,NO ERROR,0.000000,0.000000,-6000.000000,-6000.000000,Speed,Speed,28.540000,-0.620000,4.590000,1.000000,101.000000,1,0,-0.524769,-0.008928,0,0.250656,0.375778,0.000000,0.211426,-0.009552,0.000000,0.201000,0.065000,-0.046000,FlatInitial
04:54:03.037 PM 02/14/2016,Teleop Enabled,0,FALSE,0,NO ERROR,0.000000,0.000000,-6000.000000,-6000.000000,Speed,Speed,38.510000,-0.670000,4.910000,1.000000,101.000000,1,0,-0.524769,-0.006200,0,0.430283,0.434402,0.000000,0.229477,0.011139,0.000000,0.122000,0.033000,0.003000,FlatInitial
04:54:03.137 PM 02/14/2016,Teleop Enabled,0,FALSE,0,NO ERROR,0.000000,0.000000,-6000.000000,-6000.000000,Speed,Speed,45.020000,-0.750000,4.910000,1.000000,102.000000,1,0,-0.013950,0.000062,0,0.604675,0.000000,0.000000,0.261520,0.032852,0.000000,0.163000,-0.016000,-0.077000,FlatInitial
04:54:03.237 PM 02/14/2016,Teleop Enabled,0,FALSE,0,NO ERROR,0.000000,0.000000,-6000.000000,-6000.000000,Speed,Speed,53.210000,-0.690000,4.590000,1.000000,101.000000,1,0,0.002232,0.055800,0,0.629074,-0.187561,0.000000,0.293228,0.028366,0.000000,-0.071000,-0.421000,-0.122000,FlatInitial
04:54:03.338 PM 02/14/2016,Teleop Enabled,0,FALSE,0,NO ERROR,0.000000,0.000000,-6000.000000,-6000.000000,Speed,Speed,61.040000,-0.290000,3.200000,1.000000,101.000000,1,0,0.041912,0.155000,0,0.588989,-0.380600,0.000000,0.323715,0.012741,0.000000,-0.015000,-0.112000,-0.191000,FlatInitial
04:54:03.439 PM 02/14/2016,Teleop Enabled,0,FALSE,0,NO ERROR,0.000000,0.000000,-6000.000000,-6000.000000,Speed,Speed,65.460000,0.160000,2.980000,1.000000,101.000000,1,0,0.136958,0.161262,0,0.539368,-0.555466,0.000000,0.351730,-0.011383,0.000000,-0.104000,-0.136000,-0.072000,FlatInitial
04:54:03.542 PM 02/14/2016,Teleop Enabled,0,FALSE,0,NO ERROR,0.000000,0.000000,-6000.000000,-6000.000000,Speed,Speed,66.570000,0.490000,1.850000,1.000000,102.000000,1,0,0.131192,0.167648,0,0.426102,-0.688721,0.000000,0.375259,-0.043472,0.000000,-0.108000,-0.134000,-0.020000,FlatInitial
04:54:03.641 PM 02/14/2016,Teleop Enabled,0,FALSE,0,NO ERROR,0.000000,0.000000,-6000.000000,-6000.000000,Speed,Speed,65.120000,0.840000,1.700000,1.000000,104.000000,1,0,0.238328,0.261951,0,0.363052,-0.803116,0.000000,0.394379,-0.081573,0.000000,-0.039000,-0.086000,0.044000,FlatInitial
04:54:03.741 PM 02/14/2016,Teleop Enabled,0,FALSE,0,NO ERROR,0.000000,0.000000,-6000.000000,-6000.000000,Speed,Speed,62.010000,1.040000,1.520000,1.000000,102.000000,1,0,0.321409,0.312543,0,0.352966,-0.849121,0.000000,0.411774,-0.123535,0.000000,0.001000,-0.021000,0.024000,FlatInitial
04:54:03.841 PM 02/14/2016,Teleop Enabled,0,FALSE,0,NO ERROR,0.000000,0.000000,-6000.000000,-6000.000000,Speed,Speed,56.760000,1.380000,1.490000,1.000000,100.000000,1,0,0.180792,0.270073,0,0.392990,-0.892365,0.000000,0.433945,-0.175522,0.000000,0.089000,-0.033000,-0.019000,FlatInitial
04:54:03.942 PM 02/14/2016,Teleop Enabled,0,FALSE,0,NO ERROR,0.000000,0.000000,-6000.000000,-6000.000000,Speed,Speed,49.280000,1.600000,1.550000,1.000000,102.000000,1,0,0.125550,0.080352,0,0.422501,-0.886322,0.000000,0.450485,-0.211304,0.000000,0.028000,0.145000,0.049000,FlatInitial
04:54:04.044 PM 02/14/2016,Teleop Enabled,0,FALSE,0,NO ERROR,0.000000,0.000000,-6000.000000,-6000.000000,Speed,Speed,40.340000,1.470000,1.420000,1.000000,101.000000,1,0,0.125550,0.080352,0,0.445374,-0.801147,0.000000,0.472092,-0.252747,0.000000,-0.033000,0.052000,-0.013000,FlatInitial
04:54:04.145 PM 02/14/2016,Teleop Enabled,0,FALSE,0,NO ERROR,0.000000,0.000000,-6000.000000,-6000.000000,Speed,Speed,35.450000,1.220000,1.700000,1.000000,101.000000,1,0,0.348751,0.080352,0,0.403870,-0.708984,0.000000,0.497803,-0.297745,0.000000,-0.020000,0.049000,0.002000,FlatInitial
04:54:04.245 PM 02/14/2016,Teleop Enabled,0,FALSE,0,NO ERROR,0.000000,0.000000,-6000.000000,-6000.000000,Speed,Speed,30.370000,1.260000,1.240000,1.000000,101.000000,1,0,0.406783,0.223200,0,0.000000,-0.754608,0.000000,0.501831,-0.326675,0.000000,-0.021000,-0.116000,-0.013000,FlatInitial
04:54:04.346 PM 02/14/2016,Teleop Enabled,0,FALSE,0,NO ERROR,0.000000,0.000000,-6000.000000,-6000.000000,Speed,Speed,24.810000,1.230000,0.740000,1.000000,101.000000,1,0,0.035712,0.167648,0,-0.023285,-0.840866,0.000000,0.501083,-0.367325,0.000000,0.048000,-0.010000,-0.036000,FlatInitial
04:54:04.446 PM 02/14/2016,Teleop Enabled,0,FALSE,0,NO ERROR,0.000000,0.000000,-6000.000000,-6000.000000,Speed,Speed,17.660000,1.510000,1.260000,1.000000,103.000000,1,0,0.000000,0.007502,0,0.047485,-0.827087,0.000000,0.501877,-0.418518,0.000000,0.071000,0.084000,0.034000,FlatInitial
04:54:04.547 PM 02/14/2016,Teleop Enabled,0,FALSE,0,NO ERROR,0.000000,0.000000,-6000.000000,-6000.000000,Speed,Speed,10.020000,1.250000,1.280000,1.000000,102.000000,1,0,0.000000,0.003968,0,0.005447,-0.713882,0.000000,0.504105,-0.456177,0.000000,-0.074000,0.114000,-0.016000,FlatInitial
04:54:04.646 PM 02/14/2016,Teleop Enabled,0,FALSE,0,NO ERROR,0.000000,0.000000,-6000.000000,-6000.000000,Speed,Speed,6.460000,0.980000,1.820000,1.000000,102.000000,1,0,0.000000,-0.000558,0,-0.056396,-0.634537,0.000000,0.502197,-0.489212,0.000000,-0.035000,0.034000,0.055000,FlatInitial
04:54:04.746 PM 02/14/2016,Teleop Enabled,0,FALSE,0,NO ERROR,0.000000,0.000000,-6000.000000,-6000.000000,Speed,Speed,5.160000,0.770000,2.010000,1.000000,103.000000,1,0,0.000000,-0.002232,0,-0.096375,-0.577011,0.000000,0.498138,-0.519241,0.000000,-0.043000,0.083000,0.014000,FlatInitial
04:54:04.846 PM 02/14/2016,Teleop Enabled,0,FALSE,0,NO ERROR,0.000000,0.000000,-6000.000000,-6000.000000,Speed,Speed,5.390000,0.640000,2.090000,1.000000,101.000000,1,0,0.000000,-0.002232,0,0.000000,0.000000,0.000000,0.494751,-0.530533,0.000000,0.000000,-0.018000,0.006000,FlatInitial
04:54:04.946 PM 02/14/2016,Teleop Enabled,0,FALSE,0,NO ERROR,0.000000,0.000000,-6000.000000,-6000.000000,Speed,Speed,5.600000,0.690000,2.120000,1.000000,103.000000,1,0,0.000000,-0.002232,0,0.000000,-0.019363,0.000000,0.494980,-0.531158,0.000000,0.008000,-0.005000,-0.006000,FlatInitial
04:54:05.047 PM 02/14/2016,Teleop Enabled,0,FALSE,0,NO ERROR,0.000000,0.000000,-6000.000000,-6000.000000,Speed,Speed,5.600000,0.690000,2.120000,1.000000,102.000000,1,0,0.000000,-0.002232,0,0.000000,0.014847,0.000000,0.494980,-0.530792,0.000000,-0.002000,0.012000,-0.009000,FlatInitial
04:54:05.147 PM 02/14/2016,Teleop Enabled,0,FALSE,0,NO ERROR,0.000000,0.000000,-6000.000000,-6000.000000,Speed,Speed,5.600000,0.710000,2.190000,1.000000,101.000000,1,1,0.059414,0.059414,0,0.000000,0.000000,0.000000,0.494980,-0.530624,0.000000,0.004000,0.003000,-0.002000,FlatInitial
04:54:05.247 PM 02/14/2016,Teleop Enabled,0,FALSE,0,NO ERROR,0.000000,0.000000,-6000.000000,-6000.000000,Speed,Speed,5.560000,0.720000,2.260000,1.000000,102.000000,1,1,0.059414,0.059414,0,0.000000,0.000000,0.000000,0.494980,-0.530426,0.000000,-0.017000,0.000000,0.046000,FlatInitial
04:54:05.348 PM 02/14/2016,Teleop Enabled,0,FALSE,0,NO ERROR,0.000000,0.000000,-6000.000000,-6000.000000,Speed,Speed,5.410000,0.760000,2.270000,1.000000,102.000000,1,1,0.250000,0.250000,0,0.010895,0.012360,0.000000,0.495087,-0.530304,0.000000,0.132000,-0.103000,0.017000,FlatInitial
04:54:05.448 PM 02/14/2016,Teleop Enabled,0,FALSE,0,NO ERROR,0.000000,0.000000,-6000.000000,-6000.000000,Speed,Speed,4.090000,0.960000,2.410000,1.000000,101.000000,1,1,0.250000,0.250000,0,0.053864,-0.006073,0.000000,0.496979,-0.530396,0.000000,-0.052000,0.043000,0.147000,FlatInitial
04:54:05.548 PM 02/14/2016,Teleop Enabled,0,FALSE,0,NO ERROR,0.000000,0.000000,-6000.000000,-6000.000000,Speed,Speed,2.350000,1.030000,2.010000,1.000000,101.000000,1,1,0.250000,0.250000,0,0.065186,-0.011642,0.000000,0.499603,-0.530548,0.000000,0.102000,-0.155000,-0.017000,FlatInitial
04:54:05.649 PM 02/14/2016,Teleop Enabled,0,FALSE,0,NO ERROR,0.000000,-0.292969,-6000.000000,-6000.000000,Speed,Speed,-0.670000,1.150000,2.510000,1.000000,101.000000,1,1,0.250000,0.250000,0,0.068314,-0.027451,0.000000,0.503555,-0.532425,0.000000,0.160000,0.035000,0.008000,FlatInitial
04:54:05.750 PM 02/14/2016,Teleop Enabled,0,FALSE,0,NO ERROR,0.000000,0.000000,-6000.000000,-6000.000000,Speed,Speed,-5.140000,1.600000,2.230000,1.000000,101.000000,1,1,0.250000,0.250000,0,0.185318,0.004639,0.000000,0.513092,-0.532959,0.000000,-0.108000,0.009000,-0.059000,FlatInitial
04:54:05.851 PM 02/14/2016,Teleop Enabled,0,FALSE,0,NO ERROR,0.000000,0.000000,-6000.000000,-6000.000000,Speed,Speed,-12.080000,1.770000,2.410000,1.000000,102.000000,1,1,0.250000,0.250000,0,0.165314,0.013931,0.000000,0.522339,-0.532623,0.000000,-0.108000,0.009000,-0.059000,FlatInitial
04:54:05.951 PM 02/14/2016,Teleop Enabled,0,FALSE,0,NO ERROR,0.000000,0.000000,-6000.000000,-6000.000000,Speed,Speed,-16.090000,2.010000,2.350000,1.000000,105.000000,1,1,0.023928,0.023928,0,0.163620,0.000000,0.000000,0.529526,-0.532089,0.000000,-0.093000,-0.007000,-0.066000,FlatInitial
04:54:06.051 PM 02/14/2016,Teleop Enabled,0,FALSE,0,NO ERROR,0.000000,0.000000,-6000.000000,-6000.000000,Speed,Speed,-22.340000,1.750000,2.350000,1.000000,105.000000,1,1,-0.007119,-0.007119,0,0.087036,-0.010544,0.000000,0.535034,-0.532532,0.000000,-0.053000,-0.062000,-0.009000,FlatInitial
04:54:06.152 PM 02/14/2016,Teleop Enabled,0,FALSE,0,NO ERROR,0.000000,0.000000,-6000.000000,-6000.000000,Speed,Speed,-27.430000,1.570000,2.370000,1.000000,102.000000,1,1,-0.007119,-0.007119,0,0.023941,0.000000,0.000000,0.537506,-0.533417,0.000000,-0.099000,0.003000,-0.035000,FlatInitial
04:54:06.253 PM 02/14/2016,Teleop Enabled,0,FALSE,0,NO ERROR,0.000000,0.000000,-6000.000000,-6000.000000,Speed,Speed,-29.140000,1.160000,2.310000,1.000000,102.000000,1,1,-0.215354,-0.215354,0,-0.069122,-0.043564,0.000000,0.535004,-0.534637,0.000000,0.008000,0.006000,-0.101000,FlatInitial
04:54:06.354 PM 02/14/2016,Teleop Enabled,0,FALSE,0,NO ERROR,0.000000,0.000000,-6000.000000,-6000.000000,Speed,Speed,-28.560000,0.900000,2.210000,1.000000,101.000000,1,1,0.000000,-0.000000,0,-0.039368,-0.074081,0.000000,0.533752,-0.536972,0.000000,-0.073000,-0.066000,-0.073000,FlatInitial
04:54:06.455 PM 02/14/2016,Teleop Enabled,0,FALSE,0,NO ERROR,0.000000,0.000000,-6000.000000,-6000.000000,Speed,Speed,-26.140000,0.740000,2.320000,1.000000,101.000000,1,1,-0.250000,-0.250000,0,-0.040634,0.000000,0.000000,0.531006,-0.539841,0.000000,0.029000,-0.001000,-0.036000,FlatInitial
04:54:06.556 PM 02/14/2016,Teleop Enabled,0,FALSE,0,NO ERROR,0.000000,0.000000,-6000.000000,-6000.000000,Speed,Speed,-24.490000,0.720000,2.370000,1.000000,101.000000,1,1,-0.202500,-0.202500,0,-0.071564,-0.004990,0.000000,0.529617,-0.539658,0.000000,-0.131000,-0.030000,0.005000,FlatInitial
04:54:06.656 PM 02/14/2016,Teleop Enabled,0,FALSE,0,NO ERROR,0.146484,0.000000,-6000.000000,-6000.000000,Speed,Speed,-20.970000,0.450000,2.190000,1.000000,100.000000,1,1,-0.137131,-0.137131,0,0.000000,0.003571,0.000000,0.528763,-0.539795,0.000000,-0.008000,0.047000,-0.106000,FlatInitial
04:54:06.757 PM 02/14/2016,Teleop Enabled,0,FALSE,0,NO ERROR,0.000000,0.000000,-6000.000000,-6000.000000,Speed,Speed,-15.490000,0.270000,2.370000,1.000000,101.000000,1,1,-0.137131,-0.137131,0,0.000000,0.003571,0.000000,0.528763,-0.539795,0.000000,-0.008000,0.047000,-0.106000,FlatInitial
04:54:06.857 PM 02/14/2016,Teleop Enabled,0,FALSE,0,NO ERROR,0.000000,0.000000,-6000.000000,-6000.000000,Speed,Speed,-12.050000,0.290000,2.260000,1.000000,101.000000,1,1,-0.008789,-0.008789,0,0.017899,0.000000,0.000000,0.528793,-0.539337,0.000000,0.073000,0.000000,-0.059000,FlatInitial
04:54:06.957 PM 02/14/2016,Teleop Enabled,0,FALSE,0,NO ERROR,0.000000,0.000000,-6000.000000,-6000.000000,Speed,Speed,-8.860000,0.580000,2.230000,1.000000,107.000000,1,1,0.000000,-0.000000,0,0.107224,-0.011292,0.000000,0.532455,-0.539734,0.000000,-0.017000,-0.018000,-0.014000,FlatInitial
04:54:07.057 PM 02/14/2016,Teleop Enabled,0,FALSE,0,NO ERROR,0.000000,0.000000,-6000.000000,-6000.000000,Speed,Speed,-7.570000,0.710000,2.300000,1.000000,101.000000,1,1,0.036936,0.036936,0,0.154114,0.011322,0.000000,0.540039,-0.539795,0.000000,0.078000,0.002000,0.000000,FlatInitial
04:54:07.157 PM 02/14/2016,Teleop Enabled,0,FALSE,0,NO ERROR,0.000000,0.000000,-6000.000000,-6000.000000,Speed,Speed,-7.600000,0.850000,2.410000,1.000000,102.000000,1,1,0.061721,0.061721,0,0.173279,0.041046,0.000000,0.546936,-0.538681,0.000000,-0.054000,0.050000,0.058000,FlatInitial
04:54:07.257 PM 02/14/2016,Teleop Enabled,0,FALSE,0,NO ERROR,0.000000,0.000000,-6000.000000,-6000.000000,Speed,Speed,-7.600000,0.850000,2.410000,1.000000,103.000000,1,1,0.061721,0.061721,0,0.173279,0.041046,0.000000,0.546936,-0.538681,0.000000,-0.054000,0.050000,0.058000,FlatInitial
04:54:07.358 PM 02/14/2016,Teleop Enabled,0,FALSE,0,NO ERROR,0.000000,0.000000,-6000.000000,-6000.000000,Speed,Speed,-8.280000,0.800000,2.580000,1.000000,100.000000,1,1,0.050625,0.050625,0,-0.011703,0.000000,0.000000,0.550369,-0.531982,0.000000,-0.022000,0.020000,-0.006000,FlatInitial
04:54:07.461 PM 02/14/2016,Teleop Enabled,0,FALSE,0,NO ERROR,0.000000,0.000000,-6000.000000,-6000.000000,Speed,Speed,-8.340000,0.850000,2.570000,1.000000,101.000000,1,1,0.046494,0.046494,0,0.000000,-0.010254,0.000000,0.550644,-0.532181,0.000000,-0.005000,-0.017000,0.004000,FlatInitial
04:54:07.561 PM 02/14/2016,Teleop Enabled,0,FALSE,0,NO ERROR,0.000000,0.000000,-6000.000000,-6000.000000,Speed,Speed,-8.390000,0.810000,2.520000,1.000000,101.000000,1,1,0.046494,0.046494,0,0.000000,0.000000,0.000000,0.550644,-0.532181,0.000000,0.002000,-0.003000,0.005000,FlatInitial
04:54:07.661 PM 02/14/2016,Teleop Enabled,0,FALSE,0,NO ERROR,0.000000,0.000000,-6000.000000,-6000.000000,Speed,Speed,-8.410000,0.820000,2.510000,1.000000,101.000000,1,1,0.044495,0.044495,0,0.000000,0.000000,0.000000,0.550644,-0.532181,0.000000,0.002000,0.002000,0.000000,FlatInitial
04:54:07.762 PM 02/14/2016,Teleop Enabled,0,FALSE,0,NO ERROR,0.000000,0.000000,-6000.000000,-6000.000000,Speed,Speed,-8.410000,0.830000,2.510000,1.000000,106.000000,1,1,0.046494,0.046494,0,0.000000,0.000000,0.000000,0.550644,-0.532181,0.000000,0.002000,0.002000,0.000000,FlatInitial
04:54:07.862 PM 02/14/2016,Teleop Enabled,0,FALSE,0,NO ERROR,0.000000,0.000000,-6000.000000,-6000.000000,Speed,Speed,-8.410000,0.830000,2.500000,1.000000,103.000000,1,1,0.046494,0.046494,0,0.000000,0.000000,0.000000,0.550644,-0.532181,0.000000,0.001000,-0.002000,0.001000,FlatInitial
04:54:07.964 PM 02/14/2016,Teleop Enabled,0,FALSE,0,NO ERROR,0.000000,0.000000,-6000.000000,-6000.000000,Speed,Speed,-8.410000,0.830000,2.510000,1.000000,105.000000,1,1,0.046494,0.046494,0,0.000000,0.000000,0.000000,0.550644,-0.532181,0.000000,0.000000,0.000000,0.004000,FlatInitial
04:54:08.064 PM 02/14/2016,Teleop Enabled,0,FALSE,0,NO ERROR,0.000000,0.000000,-6000.000000,-6000.000000,Speed,Speed,-8.420000,0.830000,2.510000,1.000000,102.000000,1,1,0.046494,0.046494,0,0.000000,0.000000,0.000000,0.550644,-0.532181,0.000000,0.003000,0.000000,0.003000,FlatInitial
04:54:08.164 PM 02/14/2016,Teleop Enabled,0,FALSE,0,NO ERROR,0.000000,0.000000,-6000.000000,-6000.000000,Speed,Speed,-8.420000,0.830000,2.510000,1.000000,101.000000,1,1,0.044495,0.044495,0,0.000000,0.000000,0.000000,0.550644,-0.532181,0.000000,0.000000,-0.002000,0.006000,FlatInitial
04:54:08.267 PM 02/14/2016,Teleop Enabled,0,FALSE,0,NO ERROR,0.000000,0.000000,-6000.000000,-6000.000000,Speed,Speed,-8.420000,0.840000,2.510000,1.000000,100.000000,1,1,0.046494,0.046494,0,0.000000,0.000000,0.000000,0.550644,-0.532181,0.000000,0.000000,-0.002000,0.006000,FlatInitial
04:54:08.368 PM 02/14/2016,Teleop Enabled,0,FALSE,0,NO ERROR,0.000000,0.000000,-6000.000000,-6000.000000,Speed,Speed,-8.420000,0.840000,2.510000,1.000000,101.000000,1,1,0.044495,0.044495,0,0.000000,0.000000,0.000000,0.550644,-0.532181,0.000000,0.002000,0.000000,0.000000,FlatInitial
04:54:08.469 PM 02/14/2016,Teleop Enabled,0,FALSE,0,NO ERROR,0.000000,0.000000,-6000.000000,-6000.000000,Speed,Speed,-8.420000,0.840000,2.510000,1.000000,101.000000,1,1,0.044495,0.044495,0,0.000000,0.000000,0.000000,0.550644,-0.532181,0.000000,0.003000,0.000000,0.003000,FlatInitial
04:54:08.570 PM 02/14/2016,Teleop Enabled,0,FALSE,0,NO ERROR,0.000000,0.000000,-6000.000000,-6000.000000,Speed,Speed,-8.420000,0.850000,2.500000,1.000000,101.000000,1,1,0.044495,0.044495,0,0.000000,0.000000,0.000000,0.550644,-0.532181,0.000000,0.002000,0.000000,0.000000,FlatInitial
04:54:08.670 PM 02/14/2016,Teleop Enabled,0,FALSE,0,NO ERROR,0.000000,0.000000,-6000.000000,-6000.000000,Speed,Speed,-8.420000,0.850000,2.510000,1.000000,100.000000,1,1,0.046494,0.046494,0,0.000000,0.000000,0.000000,0.550644,-0.532181,0.000000,0.001000,0.000000,0.003000,FlatInitial
04:54:08.771 PM 02/14/2016,Teleop Enabled,0,FALSE,0,NO ERROR,0.000000,0.000000,-6000.000000,-6000.000000,Speed,Speed,-8.420000,0.850000,2.510000,1.000000,101.000000,1,1,0.046494,0.046494,0,0.000000,0.000000,0.000000,0.550644,-0.532181,0.000000,0.001000,0.001000,0.003000,FlatInitial
04:54:08.871 PM 02/14/2016,Teleop Enabled,0,FALSE,0,NO ERROR,0.000000,0.000000,-6000.000000,-6000.000000,Speed,Speed,-8.420000,0.850000,2.520000,1.000000,105.000000,1,1,0.046494,0.046494,0,0.000000,0.000000,0.000000,0.550644,-0.532181,0.000000,0.000000,0.000000,0.003000,FlatInitial
04:54:08.971 PM 02/14/2016,Teleop Enabled,0,FALSE,0,NO ERROR,0.000000,0.000000,-6000.000000,-6000.000000,Speed,Speed,-8.420000,0.850000,2.520000,1.000000,102.000000,1,1,0.044495,0.044495,0,0.000000,0.000000,0.000000,0.550644,-0.532181,0.000000,0.002000,0.002000,0.005000,FlatInitial
04:54:09.072 PM 02/14/2016,Teleop Enabled,0,FALSE,0,NO ERROR,0.000000,0.000000,-6000.000000,-6000.000000,Speed,Speed,-8.430000,0.850000,2.520000,1.000000,101.000000,1,0,0.000000,-0.002232,0,0.000000,0.000000,0.000000,0.550644,-0.532181,0.000000,0.000000,0.000000,0.004000,FlatInitial
04:54:09.174 PM 02/14/2016,Teleop Enabled,0,FALSE,0,NO ERROR,0.000000,0.000000,-6000.000000,-6000.000000,Speed,Speed,-8.420000,0.850000,2.520000,1.000000,102.000000,1,0,0.000000,-0.002232,0,0.000000,0.000000,0.000000,0.550644,-0.532181,0.000000,-0.001000,0.001000,0.003000,FlatInitial
04:54:09.274 PM 02/14/2016,Teleop Enabled,0,FALSE,0,NO ERROR,0.000000,0.000000,-6000.000000,-6000.000000,Speed,Speed,-8.420000,0.850000,2.520000,1.000000,101.000000,1,0,0.000000,-0.002232,0,0.000000,0.000000,0.000000,0.550644,-0.532181,0.000000,-0.001000,0.001000,0.003000,FlatInitial
04:54:09.375 PM 02/14/2016,Teleop Enabled,0,FALSE,0,NO ERROR,0.000000,0.000000,-6000.000000,-6000.000000,Speed,Speed,-8.420000,0.850000,2.520000,1.000000,101.000000,1,0,0.000000,-0.002232,0,0.000000,0.000000,0.000000,0.550644,-0.532181,0.000000,0.000000,-0.001000,0.008000,FlatInitial
04:54:09.475 PM 02/14/2016,Teleop Enabled,0,FALSE,0,NO ERROR,0.000000,0.000000,-6000.000000,-6000.000000,Speed,Speed,-8.430000,0.850000,2.520000,1.000000,102.000000,1,0,0.000000,-0.002232,0,0.000000,0.000000,0.000000,0.550644,-0.532181,0.000000,-0.002000,0.000000,0.006000,FlatInitial
04:54:09.576 PM 02/14/2016,Teleop Enabled,0,FALSE,0,NO ERROR,0.000000,0.000000,-6000.000000,-6000.000000,Speed,Speed,-8.430000,0.850000,2.520000,1.000000,101.000000,1,0,0.000000,-0.002232,0,0.000000,0.000000,0.000000,0.550644,-0.532181,0.000000,0.001000,0.000000,0.006000,FlatInitial
04:54:09.676 PM 02/14/2016,Teleop Enabled,0,FALSE,0,NO ERROR,0.000000,0.000000,-6000.000000,-6000.000000,Speed,Speed,-8.420000,0.850000,2.520000,1.000000,101.000000,1,1,0.044495,0.044495,0,0.000000,0.000000,0.000000,0.550644,-0.532181,0.000000,0.001000,0.000000,0.006000,FlatInitial
04:54:09.776 PM 02/14/2016,Teleop Enabled,0,FALSE,0,NO ERROR,0.000000,0.000000,-6000.000000,-6000.000000,Speed,Speed,-8.420000,0.850000,2.520000,1.000000,101.000000,1,1,0.044495,0.044495,0,0.000000,0.000000,0.000000,0.550644,-0.532181,0.000000,0.001000,-0.002000,0.001000,FlatInitial
04:54:09.878 PM 02/14/2016,Teleop Enabled,0,FALSE,0,NO ERROR,0.000000,0.000000,-6000.000000,-6000.000000,Speed,Speed,-8.430000,0.850000,2.520000,1.000000,101.000000,1,1,0.046494,0.046494,0,0.000000,0.000000,0.000000,0.550644,-0.532181,0.000000,0.004000,-0.001000,0.002000,FlatInitial
04:54:09.978 PM 02/14/2016,Teleop Enabled,0,FALSE,0,NO ERROR,0.000000,0.000000,-6000.000000,-6000.000000,Speed,Speed,-8.430000,0.850000,2.520000,1.000000,102.000000,1,1,0.046494,0.046494,0,0.000000,0.000000,0.000000,0.550644,-0.532181,0.000000,0.000000,0.000000,0.000000,FlatInitial
04:54:10.080 PM 02/14/2016,Teleop Enabled,0,FALSE,0,NO ERROR,0.000000,0.000000,-6000.000000,-6000.000000,Speed,Speed,-8.430000,0.850000,2.520000,1.000000,101.000000,1,1,0.046494,0.046494,0,0.000000,0.000000,0.000000,0.550644,-0.532181,0.000000,0.001000,0.001000,0.001000,FlatInitial
04:54:10.181 PM 02/14/2016,Teleop Enabled,0,FALSE,0,NO ERROR,0.000000,0.000000,-6000.000000,-6000.000000,Speed,Speed,-8.430000,0.850000,2.520000,1.000000,102.000000,1,0,0.000000,-0.002232,0,0.000000,0.000000,0.000000,0.550644,-0.532181,0.000000,0.000000,-0.001000,-0.001000,FlatInitial
04:54:10.283 PM 02/14/2016,Teleop Enabled,0,FALSE,0,NO ERROR,0.000000,0.000000,-6000.000000,-6000.000000,Speed,Speed,-8.430000,0.850000,2.520000,1.000000,101.000000,1,0,0.000000,-0.002232,0,0.000000,0.000000,0.000000,0.550644,-0.532181,0.000000,0.000000,0.002000,0.000000,FlatInitial
04:54:10.384 PM 02/14/2016,Teleop Enabled,0,FALSE,0,NO ERROR,0.000000,0.000000,-6000.000000,-6000.000000,Speed,Speed,-8.430000,0.850000,2.520000,1.000000,101.000000,1,0,0.003968,0.006200,0,0.000000,0.000000,0.000000,0.550644,-0.532181,0.000000,-0.002000,0.000000,0.006000,FlatInitial
04:54:10.485 PM 02/14/2016,Teleop Enabled,0,FALSE,0,NO ERROR,0.000000,0.000000,-6000.000000,-6000.000000,Speed,Speed,-8.430000,0.850000,2.530000,1.000000,101.000000,1,0,0.038750,0.030008,0,0.000000,0.000000,0.000000,0.550644,-0.532181,0.000000,0.000000,0.001000,0.000000,FlatInitial
04:54:10.585 PM 02/14/2016,Teleop Enabled,0,FALSE,0,NO ERROR,0.000000,0.000000,-6000.000000,-6000.000000,Speed,Speed,-8.440000,0.870000,2.550000,1.000000,103.000000,1,0,0.109368,0.131192,0,0.000000,0.008881,0.000000,0.550644,-0.532074,0.000000,0.012000,0.044000,-0.011000,FlatInitial
04:54:10.685 PM 02/14/2016,Teleop Enabled,0,FALSE,0,NO ERROR,0.000000,0.000000,-6000.000000,-6000.000000,Speed,Speed,-8.890000,0.970000,2.790000,1.000000,102.000000,1,0,0.131192,0.238328,0,0.011612,0.048203,0.000000,0.550797,-0.530640,0.000000,0.012000,0.044000,-0.011000,FlatInitial
04:54:10.785 PM 02/14/2016,Teleop Enabled,0,FALSE,0,NO ERROR,0.000000,0.000000,-6000.000000,-6000.000000,Speed,Speed,-10.400000,1.230000,2.960000,1.000000,102.000000,1,0,0.180792,0.286689,0,0.011612,0.048203,0.000000,0.550797,-0.530640,0.000000,0.049000,0.068000,-0.020000,FlatInitial
04:54:10.885 PM 02/14/2016,Teleop Enabled,0,FALSE,0,NO ERROR,0.000000,0.000000,-6000.000000,-6000.000000,Speed,Speed,-10.400000,1.230000,2.960000,1.000000,101.000000,1,0,0.180792,0.286689,0,0.058014,0.074158,0.000000,0.552643,-0.527252,0.000000,0.082000,0.019000,-0.014000,FlatInitial
04:54:10.986 PM 02/14/2016,Teleop Enabled,0,FALSE,0,NO ERROR,0.000000,0.000000,-6000.000000,-6000.000000,Speed,Speed,-13.870000,1.500000,3.060000,1.000000,102.000000,1,0,0.000992,0.008928,0,0.082184,0.111008,0.000000,0.556854,-0.522598,0.000000,-0.008000,0.043000,0.001000,FlatInitial
04:54:11.087 PM 02/14/2016,Teleop Enabled,0,FALSE,0,NO ERROR,0.000000,0.000000,-6000.000000,-6000.000000,Speed,Speed,-22.170000,1.420000,2.440000,1.000000,101.000000,1,0,-0.012152,-0.038750,0,0.021240,-0.044724,0.000000,0.563828,-0.520386,0.000000,-0.084000,-0.111000,0.104000,FlatInitial
04:54:11.188 PM 02/14/2016,Teleop Enabled,0,FALSE,0,NO ERROR,0.000000,0.000000,-6000.000000,-6000.000000,Speed,Speed,-22.170000,1.420000,2.440000,1.000000,100.000000,1,0,-0.045198,-0.303801,0,-0.032913,-0.151901,0.000000,0.563019,-0.525299,0.000000,-0.048000,-0.028000,-0.067000,FlatInitial
04:54:11.289 PM 02/14/2016,Teleop Enabled,0,FALSE,0,NO ERROR,0.000000,0.000000,-6000.000000,-6000.000000,Speed,Speed,-23.630000,1.060000,2.200000,1.000000,101.000000,1,0,-0.067518,-0.321409,0,-0.074081,-0.257385,0.000000,0.560715,-0.536072,0.000000,0.021000,-0.083000,0.079000,FlatInitial
04:54:11.390 PM 02/14/2016,Teleop Enabled,0,FALSE,0,NO ERROR,0.000000,0.000000,-6000.000000,-6000.000000,Speed,Speed,-18.310000,0.390000,1.630000,1.000000,101.000000,1,0,-0.067518,-0.321409,0,-0.074081,-0.257385,0.000000,0.560715,-0.536072,0.000000,-0.092000,-0.070000,-0.098000,FlatInitial
04:54:11.491 PM 02/14/2016,Teleop Enabled,0,FALSE,0,NO ERROR,0.000000,0.000000,-6000.000000,-6000.000000,Speed,Speed,-12.550000,-0.030000,1.490000,1.000000,101.000000,1,0,-0.067518,-0.330399,0,0.000000,-0.313873,0.000000,0.556564,-0.551025,0.000000,0.109000,-0.062000,0.226000,FlatInitial
04:54:11.591 PM 02/14/2016,Teleop Enabled,0,FALSE,0,NO ERROR,0.000000,0.000000,-6000.000000,-6000.000000,Speed,Speed,-12.550000,-0.030000,1.490000,1.000000,102.000000,1,0,-0.035712,-0.027342,0,-0.034714,-0.342880,0.000000,0.556320,-0.567917,0.000000,-0.044000,0.066000,0.001000,FlatInitial
04:54:11.692 PM 02/14/2016,Teleop Enabled,0,FALSE,0,NO ERROR,0.000000,0.000000,-6000.000000,-6000.000000,Speed,Speed,-5.060000,-0.290000,1.500000,1.000000,103.000000,1,0,-0.015872,-0.008928,0,-0.054276,-0.289581,0.000000,0.552826,-0.586288,0.000000,0.012000,0.019000,0.009000,FlatInitial
04:54:11.792 PM 02/14/2016,Teleop Enabled,0,FALSE,0,NO ERROR,0.000000,0.000000,-6000.000000,-6000.000000,Speed,Speed,1.910000,0.050000,2.210000,1.000000,101.000000,1,0,-0.015872,-0.008928,0,0.024414,-0.242065,0.000000,0.552399,-0.599319,0.000000,0.065000,0.073000,-0.080000,FlatInitial
04:54:11.893 PM 02/14/2016,Teleop Enabled,0,FALSE,0,NO ERROR,0.000000,0.000000,-6000.000000,-6000.000000,Speed,Speed,5.800000,0.200000,2.100000,1.000000,106.000000,1,0,-0.015872,-0.008928,0,0.065948,-0.172134,0.000000,0.554871,-0.609329,0.000000,0.076000,0.045000,-0.013000,FlatInitial
04:54:11.994 PM 02/14/2016,Teleop Enabled,0,FALSE,0,NO ERROR,0.000000,0.000000,-6000.000000,-6000.000000,Speed,Speed,7.780000,0.600000,2.420000,1.000000,103.000000,1,0,-0.017918,-0.008928,0,0.149261,-0.148666,0.000000,0.560867,-0.617126,0.000000,0.021000,0.032000,0.010000,FlatInitial
04:54:12.093 PM 02/14/2016,Teleop Enabled,0,FALSE,0,NO ERROR,0.000000,0.000000,-6000.000000,-6000.000000,Speed,Speed,8.000000,0.630000,2.540000,1.000000,100.000000,1,0,-0.017918,-0.008928,0,0.165054,-0.100555,0.000000,0.568497,-0.623047,0.000000,0.040000,0.012000,0.025000,FlatInitial
04:54:12.207 PM 02/14/2016,Teleop Enabled,0,FALSE,0,NO ERROR,0.000000,0.000000,-6000.000000,-6000.000000,Speed,Speed,7.780000,0.680000,2.740000,1.000000,101.000000,1,1,0.046494,0.046494,0,0.183792,-0.062561,0.000000,0.577606,-0.626907,0.000000,-0.027000,0.059000,0.010000,FlatInitial
04:54:12.295 PM 02/14/2016,Teleop Enabled,0,FALSE,0,NO ERROR,0.000000,0.000000,-6000.000000,-6000.000000,Speed,Speed,7.700000,0.640000,2.700000,1.000000,102.000000,1,1,0.046494,0.046494,0,0.000000,0.000000,0.000000,0.581238,-0.628448,0.000000,-0.003000,-0.012000,0.005000,FlatInitial
04:54:12.398 PM 02/14/2016,Teleop Enabled,0,FALSE,0,NO ERROR,0.000000,0.000000,-6000.000000,-6000.000000,Speed,Speed,7.630000,0.680000,2.710000,1.000000,101.000000,1,1,0.250000,0.250000,0,0.000000,0.000000,0.000000,0.581238,-0.628448,0.000000,0.004000,-0.003000,0.001000,FlatInitial
04:54:12.499 PM 02/14/2016,Teleop Enabled,0,FALSE,0,NO ERROR,0.000000,0.000000,-6000.000000,-6000.000000,Speed,Speed,7.310000,0.860000,2.860000,1.000000,101.000000,1,1,0.250000,0.250000,0,0.025726,0.014175,0.000000,0.581619,-0.628189,0.000000,0.019000,-0.119000,0.093000,FlatInitial
04:54:12.600 PM 02/14/2016,Teleop Enabled,0,FALSE,0,NO ERROR,0.000000,0.000000,-6000.000000,-6000.000000,Speed,Speed,5.430000,0.970000,2.440000,1.000000,101.000000,1,1,0.000000,-0.000000,0,0.003601,0.032974,0.000000,0.581711,-0.627487,0.000000,0.073000,0.138000,0.000000,FlatInitial
04:54:12.702 PM 02/14/2016,Teleop Enabled,0,FALSE,0,NO ERROR,0.000000,0.000000,-6000.000000,-6000.000000,Speed,Speed,2.790000,1.120000,2.900000,1.000000,103.000000,1,1,0.250000,0.250000,0,0.019470,0.034424,0.000000,0.584015,-0.625992,0.000000,-0.223000,0.057000,0.165000,FlatInitial
04:54:12.802 PM 02/14/2016,Teleop Enabled,0,FALSE,0,NO ERROR,0.000000,-0.146484,-6000.000000,-6000.000000,Speed,Speed,0.580000,1.260000,2.320000,1.000000,101.000000,1,1,0.250000,0.250000,0,0.067230,0.000000,0.000000,0.584381,-0.624924,0.000000,0.221000,-0.014000,-0.072000,FlatInitial
04:54:12.903 PM 02/14/2016,Teleop Enabled,0,FALSE,0,NO ERROR,0.000000,0.000000,-6000.000000,-6000.000000,Speed,Speed,-3.090000,1.300000,2.810000,1.000000,101.000000,1,1,0.250000,0.250000,0,0.038696,-0.002411,0.000000,0.588074,-0.625122,0.000000,0.069000,0.038000,-0.005000,FlatInitial
04:54:13.004 PM 02/14/2016,Teleop Enabled,0,FALSE,0,NO ERROR,0.000000,0.000000,-6000.000000,-6000.000000,Speed,Speed,-9.460000,1.860000,2.550000,1.000000,101.000000,1,1,0.177979,0.177979,0,0.134399,0.024796,0.000000,0.593216,-0.624405,0.000000,-0.026000,0.017000,-0.002000,FlatInitial
04:54:13.107 PM 02/14/2016,Teleop Enabled,0,FALSE,0,NO ERROR,0.000000,0.000000,-6000.000000,-6000.000000,Speed,Speed,-14.450000,1.750000,2.650000,1.000000,102.000000,1,1,0.059414,0.059414,0,0.070343,0.033310,0.000000,0.597076,-0.623199,0.000000,-0.015000,0.004000,0.001000,FlatInitial
04:54:13.209 PM 02/14/2016,Teleop Enabled,0,FALSE,0,NO ERROR,0.000000,0.000000,-6000.000000,-6000.000000,Speed,Speed,-20.390000,1.970000,2.670000,1.000000,103.000000,1,1,0.001077,0.001077,0,-0.003815,0.065292,0.000000,0.597290,-0.620621,0.000000,-0.139000,-0.053000,-0.002000,FlatInitial
04:54:13.309 PM 02/14/2016,Teleop Enabled,0,FALSE,0,NO ERROR,0.000000,0.000000,-6000.000000,-6000.000000,Speed,Speed,-24.850000,1.640000,2.580000,1.000000,103.000000,1,1,-0.040627,-0.040627,0,-0.101669,0.040817,0.000000,0.593933,-0.618057,0.000000,-0.058000,-0.042000,0.001000,FlatInitial
04:54:13.409 PM 02/14/2016,Teleop Enabled,0,FALSE,0,NO ERROR,0.000000,0.000000,-6000.000000,-6000.000000,Speed,Speed,-27.340000,1.410000,2.530000,1.000000,101.000000,1,1,0.000000,-0.000000,0,-0.162521,-0.001541,0.000000,0.585495,-0.616989,0.000000,-0.046000,-0.037000,0.029000,FlatInitial
04:54:13.510 PM 02/14/2016,Teleop Enabled,0,FALSE,0,NO ERROR,0.000000,0.000000,-6000.000000,-6000.000000,Speed,Speed,-27.410000,1.210000,2.540000,1.000000,101.000000,1,1,-0.233108,-0.233108,0,-0.175613,-0.047729,0.000000,0.576660,-0.618515,0.000000,0.021000,-0.044000,0.072000,FlatInitial
04:54:13.612 PM 02/14/2016,Teleop Enabled,0,FALSE,0,NO ERROR,0.000000,0.000000,-6000.000000,-6000.000000,Speed,Speed,-26.740000,0.930000,2.260000,1.000000,101.000000,1,1,-0.242249,-0.242249,0,-0.187607,-0.079376,0.000000,0.569824,-0.621170,0.000000,-0.146000,-0.092000,-0.019000,FlatInitial
04:54:13.713 PM 02/14/2016,Teleop Enabled,0,FALSE,0,NO ERROR,0.000000,0.000000,-6000.000000,-6000.000000,Speed,Speed,-24.320000,0.660000,2.340000,1.000000,101.000000,1,1,-0.237656,-0.237656,0,-0.268387,-0.110016,0.000000,0.554871,-0.627075,0.000000,0.002000,-0.011000,0.069000,FlatInitial
04:54:13.813 PM 02/14/2016,Teleop Enabled,0,FALSE,0,NO ERROR,0.000000,0.000000,-6000.000000,-6000.000000,Speed,Speed,-18.540000,0.280000,2.360000,1.000000,101.000000,1,1,0.000000,-0.000000,0,-0.031097,0.000000,0.000000,0.554276,-0.630554,0.000000,-0.033000,0.007000,0.003000,FlatInitial
