Time,RobotMode,AutoToRun,ErrorStatus, ErrorCode,ErrorSource,ActualRPM1,ActualRPM2,DesiredRPM1,DesiredRPM2,ControlMode1,ControlMode2,NavXYaw,NavXRoll,NavXPitch,ShooterState,LoopTime,IsLevel,IsAutoTargeting,LeftMotorOutput,RightMotorOutput,IsHaloDrive,NavXVelocityX,NavXVelocityY,NavXVelocityZ,NavXDisplacementX,NavXDisplacementY,NavXDisplacementZ,NavXAccelerationX,NavXAccelerationY,NavXAccelerationZ,AutoDefendState
03:06:56.881 PM 02/14/2016,Teleop Enabled,0,TRUE,91,Variant To Data in WPI_DigitalInputRefNum Registry Get.vi->Periodic Tasks.vi->Robot Main.vi,0.000000,0.000000,-6000.000000,-6000.000000,Speed,Speed,-0.010000,1.190000,1.510000,1.000000,102.000000,1,0,-0.000558,0.001550,0,0.000000,0.000000,0.000000,34.907974,-2.919281,0.000000,-0.005000,0.000000,0.005000,FlatInitial
03:06:56.981 PM 02/14/2016,Teleop Enabled,0,TRUE,-44007,<LOCATION>WPI_DigitalInputRefNum Registry Get.vi<CALLSTACK>WPI_DigitalInputRefNum Registry Get.vi< <Periodic Tasks.vi< <Robot Main.vi,-378.808594,-123.632812,-6000.000000,-6000.000000,Speed,Speed,-0.010000,1.200000,1.430000,1.000000,102.000000,1,0,-0.000558,0.001550,0,0.001877,0.008850,0.000000,34.907898,-2.919113,0.000000,0.072000,0.020000,-0.072000,FlatInitial
03:06:57.084 PM 02/14/2016,Teleop Enabled,0,FALSE,0,NO ERROR,-1819.628906,-1743.017578,-6000.000000,-6000.000000,Speed,Speed,-0.040000,1.170000,1.750000,1.000000,101.000000,1,0,-0.000558,0.001550,0,0.000000,0.002350,0.000000,34.908432,-2.918808,0.000000,-0.018000,0.030000,0.097000,FlatInitial
03:06:57.183 PM 02/14/2016,Teleop Enabled,0,FALSE,0,NO ERROR,-3891.357422,-3544.921875,-6000.000000,-6000.000000,Speed,Speed,0.020000,1.150000,1.430000,1.000000,104.000000,1,0,-0.000558,0.001550,0,-0.005157,0.000336,0.000000,34.908112,-2.918762,0.000000,0.013000,0.023000,-0.033000,FlatInitial
03:06:57.283 PM 02/14/2016,Teleop Enabled,0,FALSE,0,NO ERROR,-4982.812500,-4830.468750,-6000.000000,-6000.000000,Speed,Speed,0.000000,1.220000,1.510000,1.000000,101.000000,1,0,-0.000558,0.001550,0,0.034958,0.011749,0.000000,34.909378,-2.918213,0.000000,0.019000,0.062000,0.023000,FlatInitial
03:06:57.385 PM 02/14/2016,Teleop Enabled,0,FALSE,0,NO ERROR,-5838.867188,-5406.445312,-6000.000000,-6000.000000,Speed,Speed,0.000000,1.190000,1.680000,1.000000,101.000000,1,0,-0.000558,0.001550,0,-0.024734,0.000168,0.000000,34.908875,-2.917862,0.000000,-0.057000,0.044000,-0.055000,FlatInitial
03:06:57.485 PM 02/14/2016,Teleop Enabled,0,FALSE,0,NO ERROR,-6146.484375,-5602.734375,-6000.000000,-6000.000000,Speed,Speed,0.080000,1.140000,1.670000,1.000000,101.000000,1,0,-0.000558,0.001550,0,-0.132675,0.000000,0.000000,34.903732,-2.918579,0.000000,-0.053000,0.003000,-0.192000,FlatInitial
03:06:57.586 PM 02/14/2016,Teleop Enabled,0,FALSE,0,NO ERROR,-6198.046875,-5612.695312,-6000.000000,-6000.000000,Speed,Speed,0.110000,1.160000,1.740000,1.000000,101.000000,1,0,-0.000558,0.001550,0,-0.152618,0.013519,0.000000,34.897903,-2.918213,0.000000,-0.024000,0.005000,0.037000,FlatInitial
03:06:57.688 PM 02/14/2016,Teleop Enabled,0,FALSE,0,NO ERROR,-6170.507812,-5700.585938,-6000.000000,-6000.000000,Speed,Speed,0.130000,1.150000,1.710000,1.000000,102.000000,1,0,-0.000558,0.001550,0,0.011429,0.010361,0.000000,34.894943,-2.917892,0.000000,-0.020000,0.036000,0.081000,FlatInitial
03:06:57.790 PM 02/14/2016,Teleop Enabled,0,FALSE,0,NO ERROR,-6112.500000,-5824.804688,-6000.000000,-6000.000000,Speed,Speed,0.040000,1.170000,1.570000,1.000000,101.000000,1,0,-0.000558,0.001550,0,-0.005798,-0.003143,0.000000,34.894806,-2.917755,0.000000,-0.044000,0.059000,0.036000,FlatInitial
03:06:57.893 PM 02/14/2016,Teleop Enabled,0,FALSE,0,NO ERROR,-6067.968750,-5921.484375,-6000.000000,-6000.000000,Speed,Speed,0.070000,1.150000,1.790000,1.000000,101.000000,1,0,-0.000558,0.001550,0,-0.027893,0.037094,0.000000,34.893875,-2.916840,0.000000,0.048000,0.031000,0.067000,FlatInitial
03:06:57.991 PM 02/14/2016,Teleop Enabled,0,FALSE,0,NO ERROR,-6044.531250,-5980.664062,-6000.000000,-6000.000000,Speed,Speed,0.090000,1.100000,1.800000,1.000000,101.000000,1,0,-0.000558,0.001550,0,0.019653,0.000000,0.000000,34.893539,-2.914856,0.000000,0.062000,-0.018000,0.081000,FlatInitial
03:06:58.092 PM 02/14/2016,Teleop Enabled,0,FALSE,0,NO ERROR,-6036.328125,-6008.203125,-6000.000000,-6000.000000,Speed,Speed,0.080000,1.090000,1.560000,1.000000,101.000000,1,0,-0.000558,0.001550,0,0.114853,-0.017731,0.000000,34.897354,-2.915436,0.000000,0.078000,-0.019000,0.052000,FlatInitial
03:06:58.192 PM 02/14/2016,Teleop Enabled,0,FALSE,0,NO ERROR,-6033.984375,-6032.226562,-6000.000000,-6000.000000,Speed,Speed,0.060000,1.020000,1.390000,1.000000,100.000000,1,0,-0.000558,0.001550,0,0.201401,-0.004395,0.000000,34.905518,-2.916260,0.000000,0.111000,0.023000,0.024000,FlatInitial
03:06:58.294 PM 02/14/2016,Teleop Enabled,0,FALSE,0,NO ERROR,-6034.570312,-6052.148438,-6000.000000,-6000.000000,Speed,Speed,0.080000,0.960000,1.390000,1.000000,102.000000,1,0,-0.000558,0.001550,0,0.291687,0.060791,0.000000,34.918442,-2.914719,0.000000,0.101000,0.086000,0.081000,FlatInitial
03:06:58.394 PM 02/14/2016,Teleop Enabled,0,FALSE,0,NO ERROR,-6032.226562,-6059.765625,-6000.000000,-6000.000000,Speed,Speed,0.100000,0.960000,1.630000,1.000000,101.000000,1,0,-0.000558,0.001550,0,0.377960,0.157837,0.000000,34.935883,-2.908783,0.000000,0.061000,0.078000,0.027000,FlatInitial
03:06:58.495 PM 02/14/2016,Teleop Enabled,0,FALSE,0,NO ERROR,-6032.226562,-6057.421875,-6000.000000,-6000.000000,Speed,Speed,0.080000,1.020000,1.660000,1.000000,102.000000,1,0,-0.000558,0.001550,0,0.437668,0.199722,0.000000,34.956558,-2.899384,0.000000,0.047000,0.007000,-0.051000,FlatInitial
03:06:58.595 PM 02/14/2016,Teleop Enabled,0,FALSE,0,NO ERROR,-6032.226562,-6052.734375,-6000.000000,-6000.000000,Speed,Speed,0.080000,1.040000,1.640000,1.000000,102.000000,1,0,-0.000558,0.001550,0,0.452942,0.176559,0.000000,34.979095,-2.889969,0.000000,0.001000,-0.023000,-0.092000,FlatInitial
03:06:58.695 PM 02/14/2016,Teleop Enabled,0,FALSE,0,NO ERROR,-6029.882812,-6046.875000,-6000.000000,-6000.000000,Speed,Speed,0.080000,1.010000,1.620000,1.000000,103.000000,1,0,-0.000558,0.001550,0,0.413574,0.151657,0.000000,35.000671,-2.882095,0.000000,-0.049000,-0.003000,-0.109000,FlatInitial
03:06:58.797 PM 02/14/2016,Teleop Enabled,0,FALSE,0,NO ERROR,-6025.781250,-6041.015625,-6000.000000,-6000.000000,Speed,Speed,0.090000,0.990000,1.670000,1.000000,102.000000,1,0,-0.000558,0.001550,0,0.357178,0.004333,0.000000,35.019699,-2.882019,0.000000,-0.042000,0.009000,-0.155000,FlatInitial
03:06:58.896 PM 02/14/2016,Teleop Enabled,0,FALSE,0,NO ERROR,-6022.851562,-6035.156250,-6000.000000,-6000.000000,Speed,Speed,0.090000,1.030000,1.690000,1.000000,102.000000,1,0,-0.000558,0.001550,0,0.313858,-0.003952,0.000000,35.036285,-2.882034,0.000000,-0.053000,-0.015000,-0.143000,FlatInitial
03:06:58.996 PM 02/14/2016,Teleop Enabled,0,FALSE,0,NO ERROR,-6022.851562,-6031.640625,-6000.000000,-6000.000000,Speed,Speed,0.080000,1.100000,1.600000,1.000000,102.000000,1,0,-0.000558,0.001550,0,0.288605,-0.005402,0.000000,35.051041,-2.882309,0.000000,-0.013000,-0.038000,-0.165000,FlatInitial
03:06:59.096 PM 02/14/2016,Teleop Enabled,0,FALSE,0,NO ERROR,-6014.648438,-6031.640625,-6000.000000,-6000.000000,Speed,Speed,0.070000,1.150000,1.490000,1.000000,102.000000,1,0,-0.000558,0.001550,0,-0.003601,-0.037308,0.000000,35.050995,-2.883652,0.000000,-0.055000,-0.062000,-0.140000,FlatInitial
03:06:59.196 PM 02/14/2016,Teleop Enabled,0,FALSE,0,NO ERROR,-6014.648438,-6024.023438,-6000.000000,-6000.000000,Speed,Speed,0.080000,1.200000,1.330000,1.000000,101.000000,1,0,-0.000558,0.001550,0,-0.032715,-0.074127,0.000000,35.049820,-2.886642,0.000000,-0.023000,0.003000,-0.167000,FlatInitial
03:06:59.296 PM 02/14/2016,Teleop Enabled,0,FALSE,0,NO ERROR,-6012.304688,-6024.023438,-6000.000000,-6000.000000,Speed,Speed,0.080000,1.190000,1.240000,1.000000,101.000000,1,0,-0.000558,0.001550,0,-0.064957,0.000000,0.000000,35.047318,-2.888168,0.000000,-0.024000,0.003000,-0.094000,FlatInitial
03:06:59.396 PM 02/14/2016,Teleop Enabled,0,FALSE,0,NO ERROR,-6009.960938,-6026.367188,-6000.000000,-6000.000000,Speed,Speed,0.080000,1.140000,1.200000,1.000000,102.000000,1,0,-0.000558,0.001550,0,-0.095840,0.000000,0.000000,35.043137,-2.888168,0.000000,-0.029000,0.042000,-0.141000,FlatInitial
03:06:59.497 PM 02/14/2016,Teleop Enabled,0,FALSE,0,NO ERROR,-6009.960938,-6025.195312,-6000.000000,-6000.000000,Speed,Speed,0.070000,1.030000,1.260000,1.000000,102.000000,1,0,-0.000558,0.001550,0,-0.129211,0.003998,0.000000,35.037415,-2.887848,0.000000,-0.042000,0.023000,-0.079000,FlatInitial
03:06:59.597 PM 02/14/2016,Teleop Enabled,0,FALSE,0,NO ERROR,-6007.617188,-6024.023438,-6000.000000,-6000.000000,Speed,Speed,0.090000,0.870000,1.480000,1.000000,102.000000,1,0,-0.000558,0.001550,0,-0.152039,0.029144,0.000000,35.030151,-2.886932,0.000000,-0.005000,0.018000,-0.072000,FlatInitial
03:06:59.697 PM 02/14/2016,Teleop Enabled,0,FALSE,0,NO ERROR,-6009.375000,-6019.921875,-6000.000000,-6000.000000,Speed,Speed,0.080000,0.790000,1.660000,1.000000,101.000000,1,0,-0.000558,0.001550,0,0.000000,0.000000,0.000000,35.030151,-2.886597,0.000000,0.011000,0.013000,-0.073000,FlatInitial
03:06:59.798 PM 02/14/2016,Teleop Enabled,0,FALSE,0,NO ERROR,-6011.718750,-6018.164062,-6000.000000,-6000.000000,Speed,Speed,0.080000,0.690000,1.890000,1.000000,102.000000,1,0,-0.000558,0.001550,0,0.004257,-0.002014,0.000000,35.030228,-2.886703,0.000000,-0.006000,-0.026000,-0.067000,FlatInitial
03:06:59.899 PM 02/14/2016,Teleop Enabled,0,FALSE,0,NO ERROR,-6008.789062,-6021.093750,-6000.000000,-6000.000000,Speed,Speed,0.080000,0.630000,2.080000,1.000000,105.000000,1,0,-0.000558,0.001550,0,0.000000,-0.006531,0.000000,35.030258,-2.886948,0.000000,0.017000,-0.069000,-0.022000,FlatInitial
03:07:00.000 PM 02/14/2016,Teleop Enabled,0,FALSE,0,NO ERROR,-6004.687500,-6018.164062,-6000.000000,-6000.000000,Speed,Speed,0.090000,0.640000,2.210000,1.000000,101.000000,1,0,-0.000558,0.001550,0,0.008163,-0.052933,0.000000,35.030380,-2.888382,0.000000,0.021000,-0.064000,-0.004000,FlatInitial
03:07:00.101 PM 02/14/2016,Teleop Enabled,0,FALSE,0,NO ERROR,-6001.171875,-6015.234375,-6000.000000,-6000.000000,Speed,Speed,0.090000,0.700000,2.340000,1.000000,102.000000,1,0,-0.000558,0.001550,0,0.000000,-0.006744,0.000000,35.031097,-2.889893,0.000000,-0.004000,-0.038000,-0.004000,FlatInitial
03:07:00.201 PM 02/14/2016,Teleop Enabled,0,FALSE,0,NO ERROR,-6001.171875,-6016.406250,-6000.000000,-6000.000000,Speed,Speed,0.080000,0.770000,2.440000,1.000000,102.000000,1,0,-0.000558,0.001550,0,0.000000,-0.035889,0.000000,35.031097,-2.890854,0.000000,0.002000,-0.027000,-0.001000,FlatInitial
03:07:00.301 PM 02/14/2016,Teleop Enabled,0,FALSE,0,NO ERROR,-5998.828125,-6012.304688,-6000.000000,-6000.000000,Speed,Speed,0.090000,0.850000,2.540000,1.000000,101.000000,1,0,-0.000558,0.001550,0,0.000000,-0.065125,0.000000,35.031219,-2.894119,0.000000,0.004000,-0.035000,-0.024000,FlatInitial
03:07:00.401 PM 02/14/2016,Teleop Enabled,0,FALSE,0,NO ERROR,-6000.000000,-6008.203125,-6000.000000,-6000.000000,Speed,Speed,0.080000,0.930000,2.590000,1.000000,102.000000,1,0,-0.000558,0.001550,0,0.010391,-0.084396,0.000000,35.031448,-2.898911,0.000000,0.012000,-0.023000,-0.009000,FlatInitial
03:07:00.503 PM 02/14/2016,Teleop Enabled,0,FALSE,0,NO ERROR,-6004.101562,-6011.718750,-6000.000000,-6000.000000,Speed,Speed,0.070000,0.990000,2.690000,1.000000,102.000000,1,0,-0.000558,0.001550,0,0.000000,-0.099380,0.000000,35.031448,-2.902603,0.000000,0.003000,-0.036000,-0.037000,FlatInitial
03:07:00.605 PM 02/14/2016,Teleop Enabled,0,FALSE,0,NO ERROR,-6008.789062,-6012.304688,-6000.000000,-6000.000000,Speed,Speed,0.070000,1.080000,2.750000,1.000000,101.000000,1,0,-0.000558,0.001550,0,0.007477,0.000000,0.000000,35.031555,-2.905945,0.000000,0.018000,0.004000,0.008000,FlatInitial
03:07:00.705 PM 02/14/2016,Teleop Enabled,0,FALSE,0,NO ERROR,-6011.718750,-6011.718750,-6000.000000,-6000.000000,Speed,Speed,0.060000,1.140000,2.860000,1.000000,103.000000,1,0,-0.000558,0.001550,0,0.000000,0.000870,0.000000,35.031662,-2.905930,0.000000,-0.004000,0.021000,-0.053000,FlatInitial
03:07:00.806 PM 02/14/2016,Teleop Enabled,0,FALSE,0,NO ERROR,-6008.789062,-6011.718750,-6000.000000,-6000.000000,Speed,Speed,0.070000,1.180000,3.000000,1.000000,103.000000,1,0,-0.000558,0.001550,0,0.000000,-0.012146,0.000000,35.031662,-2.906265,0.000000,0.019000,0.027000,-0.066000,FlatInitial
03:07:00.907 PM 02/14/2016,Teleop Enabled,0,FALSE,0,NO ERROR,-6009.960938,-6013.476562,-6000.000000,-6000.000000,Speed,Speed,0.120000,1.240000,3.170000,1.000000,102.000000,1,0,-0.000558,0.001550,0,0.038071,0.006088,0.000000,35.032715,-2.906311,0.000000,0.050000,0.022000,-0.038000,FlatInitial
03:07:01.008 PM 02/14/2016,Teleop Enabled,0,FALSE,0,NO ERROR,-6014.062500,-6015.234375,-6000.000000,-6000.000000,Speed,Speed,0.050000,1.280000,3.210000,1.000000,103.000000,1,0,-0.000558,0.001550,0,0.081238,0.011841,0.000000,35.035904,-2.905945,0.000000,0.069000,0.009000,0.011000,FlatInitial
03:07:01.109 PM 02/14/2016,Teleop Enabled,0,FALSE,0,NO ERROR,-6013.476562,-6016.406250,-6000.000000,-6000.000000,Speed,Speed,0.040000,1.300000,3.210000,1.000000,101.000000,1,0,-0.000558,0.001550,0,0.142502,0.000000,0.000000,35.041809,-2.905945,0.000000,0.053000,0.004000,-0.022000,FlatInitial
03:07:01.210 PM 02/14/2016,Teleop Enabled,0,FALSE,0,NO ERROR,-6012.890625,-6019.921875,-6000.000000,-6000.000000,Speed,Speed,0.080000,1.330000,3.010000,1.000000,101.000000,1,0,-0.000558,0.001550,0,0.198181,-0.029175,0.000000,35.050613,-2.906784,0.000000,0.006000,0.011000,-0.030000,FlatInitial
03:07:01.311 PM 02/14/2016,Teleop Enabled,0,FALSE,0,NO ERROR,-6009.960938,-6013.476562,-6000.000000,-6000.000000,Speed,Speed,0.050000,1.290000,3.010000,1.000000,102.000000,1,0,-0.000558,0.001550,0,0.253494,-0.064926,0.000000,35.061920,-2.909103,0.000000,0.078000,-0.054000,0.045000,FlatInitial
03:07:01.412 PM 02/14/2016,Teleop Enabled,0,FALSE,0,NO ERROR,-6004.687500,-6008.203125,-6000.000000,-6000.000000,Speed,Speed,0.090000,1.230000,2.640000,1.000000,102.000000,1,0,-0.000558,0.001550,0,0.320129,-0.129181,0.000000,35.076584,-2.914169,0.000000,0.078000,-0.015000,0.034000,FlatInitial
03:07:01.512 PM 02/14/2016,Teleop Enabled,0,FALSE,0,NO ERROR,-6002.929688,-6009.375000,-6000.000000,-6000.000000,Speed,Speed,0.070000,1.230000,2.500000,1.000000,102.000000,1,0,-0.000558,0.001550,0,0.375946,-0.173325,0.000000,35.094421,-2.921936,0.000000,0.035000,-0.040000,0.040000,FlatInitial
03:07:01.612 PM 02/14/2016,Teleop Enabled,0,FALSE,0,NO ERROR,-5999.414062,-6015.234375,-6000.000000,-6000.000000,Speed,Speed,0.050000,1.170000,2.470000,1.000000,100.000000,1,0,-0.000558,0.001550,0,0.444366,-0.257553,0.000000,35.119263,-2.935013,0.000000,0.060000,-0.100000,0.034000,FlatInitial
03:07:01.713 PM 02/14/2016,Teleop Enabled,0,FALSE,0,NO ERROR,-5997.656250,-6018.164062,-6000.000000,-6000.000000,Speed,Speed,0.110000,1.130000,2.090000,1.000000,102.000000,1,0,-0.000558,0.001550,0,0.505646,-0.322083,0.000000,35.138519,-2.947144,0.000000,0.058000,-0.060000,-0.021000,FlatInitial
03:07:01.814 PM 02/14/2016,Teleop Enabled,0,FALSE,0,NO ERROR,-6001.171875,-6018.164062,-6000.000000,-6000.000000,Speed,Speed,0.070000,1.130000,2.060000,1.000000,101.000000,1,0,-0.000558,0.001550,0,0.575256,-0.423645,0.000000,35.171432,-2.969727,0.000000,0.046000,-0.106000,0.001000,FlatInitial
03:07:01.915 PM 02/14/2016,Teleop Enabled,0,FALSE,0,NO ERROR,-6002.929688,-6016.992188,-6000.000000,-6000.000000,Speed,Speed,0.080000,1.120000,1.720000,1.000000,101.000000,1,0,-0.000558,0.001550,0,0.633377,-0.515152,0.000000,35.201797,-2.993805,0.000000,0.051000,-0.065000,-0.027000,FlatInitial
03:07:02.015 PM 02/14/2016,Teleop Enabled,0,FALSE,0,NO ERROR,-6006.445312,-6014.062500,-6000.000000,-6000.000000,Speed,Speed,0.070000,1.080000,1.580000,1.000000,107.000000,1,0,-0.000558,0.001550,0,0.703323,-0.624008,0.000000,35.235474,-3.022629,0.000000,0.076000,-0.130000,-0.015000,FlatInitial
03:07:02.115 PM 02/14/2016,Teleop Enabled,0,FALSE,0,NO ERROR,-6006.445312,-6012.304688,-6000.000000,-6000.000000,Speed,Speed,0.070000,1.080000,1.370000,1.000000,101.000000,1,0,-0.000558,0.001550,0,0.782166,-0.740845,0.000000,35.273056,-3.057419,0.000000,0.052000,-0.060000,-0.016000,FlatInitial
03:07:02.215 PM 02/14/2016,Teleop Enabled,0,FALSE,0,NO ERROR,-6004.687500,-6012.890625,-6000.000000,-6000.000000,Speed,Speed,0.100000,1.070000,1.230000,1.000000,101.000000,1,0,-0.000558,0.001550,0,0.844055,-0.835373,0.000000,35.314087,-3.097153,0.000000,0.069000,-0.113000,-0.013000,FlatInitial
03:07:02.316 PM 02/14/2016,Teleop Enabled,0,FALSE,0,NO ERROR,-6005.273438,-6007.617188,-6000.000000,-6000.000000,Speed,Speed,0.060000,1.050000,1.030000,1.000000,102.000000,1,0,-0.000558,0.001550,0,0.915970,-0.946365,0.000000,35.358490,-3.142380,0.000000,0.066000,-0.082000,0.008000,FlatInitial
03:07:02.416 PM 02/14/2016,Teleop Enabled,0,FALSE,0,NO ERROR,-6004.687500,-6007.617188,-6000.000000,-6000.000000,Speed,Speed,0.060000,1.040000,0.860000,1.000000,105.000000,1,0,-0.000558,0.001550,0,0.992142,-1.041870,0.000000,35.406570,-3.192490,0.000000,0.072000,-0.123000,-0.040000,FlatInitial
03:07:02.516 PM 02/14/2016,Teleop Enabled,0,FALSE,0,NO ERROR,-6004.101562,-6010.546875,-6000.000000,-6000.000000,Speed,Speed,0.080000,1.000000,0.770000,1.000000,103.000000,1,0,-0.000558,0.001550,0,1.056747,-1.135071,0.000000,35.458130,-3.247498,0.000000,0.059000,-0.047000,-0.009000,FlatInitial
03:07:02.616 PM 02/14/2016,Teleop Enabled,0,FALSE,0,NO ERROR,-6001.757812,-6011.718750,-6000.000000,-6000.000000,Speed,Speed,0.070000,0.970000,0.690000,1.000000,106.000000,1,0,-0.000558,0.001550,0,1.113373,-1.204117,0.000000,35.512589,-3.306442,0.000000,0.061000,-0.048000,-0.053000,FlatInitial
03:07:02.716 PM 02/14/2016,Teleop Enabled,0,FALSE,0,NO ERROR,-5997.656250,-6004.687500,-6000.000000,-6000.000000,Speed,Speed,0.070000,0.940000,0.690000,1.000000,103.000000,1,0,-0.000558,0.001550,0,1.166489,-1.271729,0.000000,35.569992,-3.368637,0.000000,0.058000,-0.079000,-0.038000,FlatInitial
03:07:02.816 PM 02/14/2016,Teleop Enabled,0,FALSE,0,NO ERROR,-5998.242188,-6002.929688,-6000.000000,-6000.000000,Speed,Speed,0.070000,0.890000,0.660000,1.000000,100.000000,1,0,-0.000558,0.001550,0,1.218445,-1.333649,0.000000,35.629883,-3.434189,0.000000,0.038000,-0.056000,-0.015000,FlatInitial
03:07:02.917 PM 02/14/2016,Teleop Enabled,0,FALSE,0,NO ERROR,-5997.070312,-6007.031250,-6000.000000,-6000.000000,Speed,Speed,0.070000,0.840000,0.710000,1.000000,102.000000,1,0,-0.000558,0.001550,0,1.265152,-1.390518,0.000000,35.704620,-3.516068,0.000000,0.045000,-0.048000,-0.015000,FlatInitial
03:07:03.016 PM 02/14/2016,Teleop Enabled,0,FALSE,0,NO ERROR,-6000.000000,-6011.132812,-6000.000000,-6000.000000,Speed,Speed,0.070000,0.790000,0.670000,1.000000,102.000000,1,0,-0.000558,0.001550,0,1.316772,-1.438446,0.000000,35.769501,-3.587036,0.000000,0.045000,-0.048000,-0.015000,FlatInitial
03:07:03.116 PM 02/14/2016,Teleop Enabled,0,FALSE,0,NO ERROR,-6000.000000,-6007.617188,-6000.000000,-6000.000000,Speed,Speed,0.070000,0.770000,0.740000,1.000000,101.000000,1,0,-0.000558,0.001550,0,1.348206,-0.007538,0.000000,35.822952,-3.587112,0.000000,0.040000,-0.014000,-0.030000,FlatInitial
03:07:03.217 PM 02/14/2016,Teleop Enabled,0,FALSE,0,NO ERROR,-6002.929688,-6005.859375,-6000.000000,-6000.000000,Speed,Speed,0.070000,0.720000,0.790000,1.000000,101.000000,1,0,-0.000558,0.001550,0,1.387924,0.000000,0.000000,35.905228,-3.588043,0.000000,0.040000,-0.014000,-0.030000,FlatInitial
03:07:03.317 PM 02/14/2016,Teleop Enabled,0,FALSE,0,NO ERROR,-6007.617188,-6009.960938,-6000.000000,-6000.000000,Speed,Speed,0.070000,0.720000,0.790000,1.000000,102.000000,1,0,-0.000558,0.001550,0,1.387924,0.000000,0.000000,35.905228,-3.588043,0.000000,0.022000,-0.013000,-0.048000,FlatInitial
03:07:03.418 PM 02/14/2016,Teleop Enabled,0,FALSE,0,NO ERROR,-6009.375000,-6007.617188,-6000.000000,-6000.000000,Speed,Speed,0.060000,0.630000,1.010000,1.000000,100.000000,1,0,-0.000558,0.001550,0,1.468262,0.039749,0.000000,36.048645,-3.586502,0.000000,0.047000,0.004000,-0.043000,FlatInitial
03:07:03.518 PM 02/14/2016,Teleop Enabled,0,FALSE,0,NO ERROR,-6008.203125,-6004.101562,-6000.000000,-6000.000000,Speed,Speed,0.060000,0.600000,1.120000,1.000000,100.000000,1,0,-0.000558,0.001550,0,1.500565,0.082581,0.000000,36.123093,-3.583176,0.000000,0.043000,0.043000,-0.027000,FlatInitial
03:07:03.618 PM 02/14/2016,Teleop Enabled,0,FALSE,0,NO ERROR,-6005.273438,-6006.445312,-6000.000000,-6000.000000,Speed,Speed,0.060000,0.580000,1.260000,1.000000,102.000000,1,0,-0.000558,0.001550,0,1.560196,0.136200,0.000000,36.199890,-3.577499,0.000000,0.064000,0.046000,-0.074000,FlatInitial
03:07:03.718 PM 02/14/2016,Teleop Enabled,0,FALSE,0,NO ERROR,-6005.859375,-6009.960938,-6000.000000,-6000.000000,Speed,Speed,0.080000,0.560000,1.450000,1.000000,102.000000,1,0,-0.000558,0.001550,0,1.560196,0.136200,0.000000,36.199890,-3.577499,0.000000,0.061000,0.080000,-0.030000,FlatInitial
03:07:03.818 PM 02/14/2016,Teleop Enabled,0,FALSE,0,NO ERROR,-6003.515625,-6007.617188,-6000.000000,-6000.000000,Speed,Speed,0.060000,0.560000,1.620000,1.000000,101.000000,1,0,-0.000558,0.001550,0,1.618332,0.226364,0.000000,36.279678,-3.567947,0.000000,0.045000,0.084000,-0.061000,FlatInitial
03:07:03.921 PM 02/14/2016,Teleop Enabled,0,FALSE,0,NO ERROR,-6004.101562,-6008.789062,-6000.000000,-6000.000000,Speed,Speed,0.070000,0.560000,1.760000,1.000000,104.000000,1,0,-0.000558,0.001550,0,1.669815,0.322906,0.000000,36.362015,-3.553787,0.000000,0.075000,0.105000,-0.027000,FlatInitial
03:07:04.021 PM 02/14/2016,Teleop Enabled,0,FALSE,0,NO ERROR,-6001.757812,-6014.062500,-6000.000000,-6000.000000,Speed,Speed,0.070000,0.570000,1.880000,1.000000,100.000000,1,0,-0.000558,0.001550,0,1.729843,0.438919,0.000000,36.447235,-3.534332,0.000000,0.089000,0.110000,-0.038000,FlatInitial
03:07:04.122 PM 02/14/2016,Teleop Enabled,0,FALSE,0,NO ERROR,-5998.828125,-6008.203125,-6000.000000,-6000.000000,Speed,Speed,0.070000,0.570000,1.880000,1.000000,102.000000,1,0,-0.000558,0.001550,0,1.820801,0.563004,0.000000,36.554260,-3.503723,0.000000,0.077000,0.105000,-0.058000,FlatInitial
03:07:04.221 PM 02/14/2016,Teleop Enabled,0,FALSE,0,NO ERROR,-5995.312500,-6002.929688,-6000.000000,-6000.000000,Speed,Speed,0.080000,0.600000,1.960000,1.000000,102.000000,1,0,-0.000558,0.001550,0,1.895981,0.681824,0.000000,36.647537,-3.472000,0.000000,0.092000,0.122000,-0.073000,FlatInitial
03:07:04.321 PM 02/14/2016,Teleop Enabled,0,FALSE,0,NO ERROR,-5993.554688,-6006.445312,-6000.000000,-6000.000000,Speed,Speed,0.060000,0.620000,1.980000,1.000000,100.000000,1,0,-0.000558,0.001550,0,1.990967,0.777756,0.000000,36.745132,-3.435043,0.000000,0.106000,0.145000,-0.062000,FlatInitial
03:07:04.421 PM 02/14/2016,Teleop Enabled,0,FALSE,0,NO ERROR,-5992.382812,-6004.687500,-6000.000000,-6000.000000,Speed,Speed,0.060000,0.650000,2.090000,1.000000,102.000000,1,0,-0.000558,0.001550,0,2.090530,0.894287,0.000000,36.847763,-3.392441,0.000000,0.099000,0.095000,-0.066000,FlatInitial
03:07:04.522 PM 02/14/2016,Teleop Enabled,0,FALSE,0,NO ERROR,-5991.210938,-5998.242188,-6000.000000,-6000.000000,Speed,Speed,0.060000,0.700000,2.180000,1.000000,102.000000,1,0,-0.000558,0.001550,0,2.198303,1.001740,0.000000,36.955490,-3.344406,0.000000,0.104000,0.103000,-0.068000,FlatInitial
03:07:04.622 PM 02/14/2016,Teleop Enabled,0,FALSE,0,NO ERROR,-5990.625000,-5991.210938,-6000.000000,-6000.000000,Speed,Speed,0.070000,0.710000,2.220000,1.000000,101.000000,1,0,-0.000558,0.001550,0,2.285889,1.098724,0.000000,37.067993,-3.291367,0.000000,0.105000,0.084000,-0.069000,FlatInitial
03:07:04.724 PM 02/14/2016,Teleop Enabled,0,FALSE,0,NO ERROR,-5994.726562,-5990.625000,-6000.000000,-6000.000000,Speed,Speed,0.060000,0.710000,2.290000,1.000000,103.000000,1,0,-0.000558,0.001550,0,2.376053,1.188232,0.000000,37.184998,-3.233795,0.000000,0.088000,0.063000,-0.050000,FlatInitial
03:07:04.825 PM 02/14/2016,Teleop Enabled,0,FALSE,0,NO ERROR,-5998.828125,-5989.453125,-6000.000000,-6000.000000,Speed,Speed,0.050000,0.710000,2.290000,1.000000,102.000000,1,0,-0.000558,0.001550,0,2.481598,1.291138,0.000000,37.331360,-3.159073,0.000000,0.075000,0.083000,-0.068000,FlatInitial
03:07:04.925 PM 02/14/2016,Teleop Enabled,0,FALSE,0,NO ERROR,-6001.757812,-5994.726562,-6000.000000,-6000.000000,Speed,Speed,0.060000,0.710000,2.310000,1.000000,101.000000,1,0,-0.000558,0.001550,0,2.547546,1.359955,0.000000,37.432266,-3.105698,0.000000,0.102000,0.081000,-0.054000,FlatInitial
03:07:05.025 PM 02/14/2016,Teleop Enabled,0,FALSE,0,NO ERROR,-6005.859375,-6003.515625,-6000.000000,-6000.000000,Speed,Speed,0.060000,0.710000,2.330000,1.000000,105.000000,1,0,-0.000558,0.001550,0,2.659302,1.474487,0.000000,37.589035,-3.020493,0.000000,0.100000,0.126000,-0.055000,FlatInitial
03:07:05.126 PM 02/14/2016,Teleop Enabled,0,FALSE,0,NO ERROR,-6010.546875,-6012.890625,-6000.000000,-6000.000000,Speed,Speed,0.050000,0.730000,2.400000,1.000000,105.000000,1,0,-0.000558,0.001550,0,2.738617,1.550522,0.000000,37.697403,-2.959488,0.000000,0.097000,0.101000,-0.038000,FlatInitial
03:07:05.227 PM 02/14/2016,Teleop Enabled,0,FALSE,0,NO ERROR,-6011.132812,-6016.406250,-6000.000000,-6000.000000,Speed,Speed,0.050000,0.760000,2.510000,1.000000,101.000000,1,0,-0.000558,0.001550,0,2.857315,1.691956,0.000000,37.865997,-2.861481,0.000000,0.069000,0.112000,-0.048000,FlatInitial
03:07:05.326 PM 02/14/2016,Teleop Enabled,0,FALSE,0,NO ERROR,-6011.132812,-6015.234375,-6000.000000,-6000.000000,Speed,Speed,0.050000,0.840000,2.590000,1.000000,102.000000,1,0,-0.000558,0.001550,0,2.947327,1.800537,0.000000,38.011414,-2.773544,0.000000,0.112000,0.098000,-0.069000,FlatInitial
03:07:05.429 PM 02/14/2016,Teleop Enabled,0,FALSE,0,NO ERROR,-6007.031250,-6017.578125,-6000.000000,-6000.000000,Speed,Speed,0.040000,0.910000,2.680000,1.000000,103.000000,1,0,-0.000558,0.001550,0,3.050613,1.906189,0.000000,38.161804,-2.680328,0.000000,0.108000,0.103000,-0.097000,FlatInitial
03:07:05.529 PM 02/14/2016,Teleop Enabled,0,FALSE,0,NO ERROR,-6005.859375,-6014.648438,-6000.000000,-6000.000000,Speed,Speed,0.040000,1.030000,2.760000,1.000000,102.000000,1,0,-0.000558,0.001550,0,3.165558,1.999451,0.000000,38.317734,-2.582443,0.000000,0.114000,0.103000,-0.081000,FlatInitial
03:07:05.630 PM 02/14/2016,Teleop Enabled,0,FALSE,0,NO ERROR,-6004.687500,-6009.960938,-6000.000000,-6000.000000,Speed,Speed,0.030000,1.130000,2.840000,1.000000,101.000000,1,0,-0.000558,0.001550,0,3.278366,2.081970,0.000000,38.479370,-2.479965,0.000000,0.107000,0.068000,-0.059000,FlatInitial
03:07:05.729 PM 02/14/2016,Teleop Enabled,0,FALSE,0,NO ERROR,-6005.859375,-6009.960938,-6000.000000,-6000.000000,Speed,Speed,0.020000,1.230000,2.880000,1.000000,103.000000,1,0,-0.000558,0.001550,0,3.390884,2.124207,0.000000,38.646622,-2.374466,0.000000,0.113000,0.054000,-0.054000,FlatInitial
03:07:05.830 PM 02/14/2016,Teleop Enabled,0,FALSE,0,NO ERROR,-6004.687500,-6006.445312,-6000.000000,-6000.000000,Speed,Speed,0.020000,1.330000,2.940000,1.000000,104.000000,1,0,-0.000558,0.001550,0,3.497162,2.164581,0.000000,38.819473,-2.266891,0.000000,0.101000,0.043000,-0.080000,FlatInitial
03:07:05.930 PM 02/14/2016,Teleop Enabled,0,FALSE,0,NO ERROR,-6004.687500,-6004.101562,-6000.000000,-6000.000000,Speed,Speed,0.010000,1.410000,2.960000,1.000000,102.000000,1,0,-0.000558,0.001550,0,3.595917,2.203217,0.000000,38.997375,-2.157455,0.000000,0.069000,0.007000,-0.076000,FlatInitial
03:07:06.030 PM 02/14/2016,Teleop Enabled,0,FALSE,0,NO ERROR,-6005.859375,-6000.585938,-6000.000000,-6000.000000,Speed,Speed,0.010000,1.470000,2.950000,1.000000,100.000000,1,0,-0.000558,0.001550,0,3.703445,0.000000,0.000000,39.216843,-2.046448,0.000000,0.086000,-0.004000,-0.085000,FlatInitial
03:07:06.131 PM 02/14/2016,Teleop Enabled,0,FALSE,0,NO ERROR,-6005.273438,-6000.000000,-6000.000000,-6000.000000,Speed,Speed,0.010000,1.530000,2.850000,1.000000,102.000000,1,0,-0.000558,0.001550,0,3.791763,0.010498,0.000000,39.404724,-2.046219,0.000000,0.056000,-0.018000,-0.085000,FlatInitial
03:07:06.231 PM 02/14/2016,Teleop Enabled,0,FALSE,0,NO ERROR,-6002.343750,-5998.242188,-6000.000000,-6000.000000,Speed,Speed,0.000000,1.580000,2.750000,1.000000,100.000000,1,0,-0.000558,0.001550,0,3.878372,0.009186,0.000000,39.596832,-2.046066,0.000000,0.108000,0.000000,-0.099000,FlatInitial
03:07:06.331 PM 02/14/2016,Teleop Enabled,0,FALSE,0,NO ERROR,-5996.484375,-5996.484375,-6000.000000,-6000.000000,Speed,Speed,0.000000,1.620000,2.720000,1.000000,101.000000,1,0,-0.000558,0.001550,0,3.958908,0.032455,0.000000,39.793213,-2.044922,0.000000,0.073000,0.000000,-0.091000,FlatInitial
03:07:06.433 PM 02/14/2016,Teleop Enabled,0,FALSE,0,NO ERROR,-5991.210938,-5998.242188,-6000.000000,-6000.000000,Speed,Speed,0.000000,1.650000,2.620000,1.000000,101.000000,1,0,-0.000558,0.001550,0,4.046326,0.031662,0.000000,39.993713,-2.043289,0.000000,0.116000,0.021000,-0.084000,FlatInitial
03:07:06.532 PM 02/14/2016,Teleop Enabled,0,FALSE,0,NO ERROR,-5987.695312,-6003.515625,-6000.000000,-6000.000000,Speed,Speed,0.000000,1.710000,2.630000,1.000000,101.000000,1,0,-0.000558,0.001550,0,4.138962,0.051453,0.000000,40.198853,-2.041077,0.000000,0.096000,0.022000,-0.090000,FlatInitial
03:07:06.632 PM 02/14/2016,Teleop Enabled,0,FALSE,0,NO ERROR,-5987.695312,-6009.960938,-6000.000000,-6000.000000,Speed,Speed,0.000000,1.740000,2.640000,1.000000,101.000000,1,0,-0.000558,0.001550,0,4.226379,0.000000,0.000000,40.408585,-2.039185,0.000000,0.069000,0.025000,-0.083000,FlatInitial
03:07:06.732 PM 02/14/2016,Teleop Enabled,0,FALSE,0,NO ERROR,-5993.554688,-6012.890625,-6000.000000,-6000.000000,Speed,Speed,-0.010000,1.750000,2.730000,1.000000,101.000000,1,0,-0.000558,0.001550,0,4.297134,0.018616,0.000000,40.622055,-2.038651,0.000000,0.066000,0.015000,-0.097000,FlatInitial
03:07:06.832 PM 02/14/2016,Teleop Enabled,0,FALSE,0,NO ERROR,-5998.828125,-6009.960938,-6000.000000,-6000.000000,Speed,Speed,-0.010000,1.750000,2.750000,1.000000,102.000000,1,0,-0.000558,0.001550,0,4.355972,0.000000,0.000000,40.838791,-2.038651,0.000000,0.065000,-0.004000,-0.069000,FlatInitial
03:07:06.932 PM 02/14/2016,Teleop Enabled,0,FALSE,0,NO ERROR,-6004.687500,-6007.617188,-6000.000000,-6000.000000,Speed,Speed,-0.010000,1.720000,2.760000,1.000000,101.000000,1,0,-0.000558,0.001550,0,4.400177,-0.001587,0.000000,41.057953,-2.038666,0.000000,0.007000,0.019000,-0.087000,FlatInitial
03:07:07.032 PM 02/14/2016,Teleop Enabled,0,FALSE,0,NO ERROR,-6009.375000,-6007.031250,-6000.000000,-6000.000000,Speed,Speed,0.000000,1.690000,2.810000,1.000000,103.000000,1,0,-0.000558,0.001550,0,0.000000,-0.007599,0.000000,41.234421,-2.038849,0.000000,0.002000,-0.011000,-0.068000,FlatInitial
03:07:07.132 PM 02/14/2016,Teleop Enabled,0,FALSE,0,NO ERROR,-6009.375000,-6012.890625,-6000.000000,-6000.000000,Speed,Speed,0.000000,1.650000,2.760000,1.000000,102.000000,1,0,-0.000558,0.001550,0,0.000000,-0.034760,0.000000,41.234421,-2.040314,0.000000,0.005000,0.015000,-0.065000,FlatInitial
03:07:07.232 PM 02/14/2016,Teleop Enabled,0,FALSE,0,NO ERROR,-6007.617188,-6008.203125,-6000.000000,-6000.000000,Speed,Speed,0.000000,1.600000,2.740000,1.000000,104.000000,1,0,-0.000558,0.001550,0,-0.011002,-0.047638,0.000000,41.234268,-2.041885,0.000000,-0.029000,-0.051000,-0.074000,FlatInitial
03:07:07.333 PM 02/14/2016,Teleop Enabled,0,FALSE,0,NO ERROR,-6007.031250,-5999.414062,-6000.000000,-6000.000000,Speed,Speed,0.000000,1.530000,2.620000,1.000000,102.000000,1,0,-0.000558,0.001550,0,-0.051590,-0.097794,0.000000,41.232254,-2.046722,0.000000,-0.035000,-0.044000,-0.069000,FlatInitial
03:07:07.434 PM 02/14/2016,Teleop Enabled,0,FALSE,0,NO ERROR,-6008.203125,-5994.726562,-6000.000000,-6000.000000,Speed,Speed,0.000000,1.460000,2.490000,1.000000,101.000000,1,0,-0.000558,0.001550,0,-0.087463,-0.139801,0.000000,41.228622,-2.052856,0.000000,-0.047000,-0.056000,-0.072000,FlatInitial
03:07:07.534 PM 02/14/2016,Teleop Enabled,0,FALSE,0,NO ERROR,-6008.789062,-5990.039062,-6000.000000,-6000.000000,Speed,Speed,0.000000,1.410000,2.380000,1.000000,101.000000,1,0,-0.000558,0.001550,0,-0.137192,-0.169785,0.000000,41.222855,-2.060913,0.000000,-0.021000,-0.050000,-0.070000,FlatInitial
03:07:07.634 PM 02/14/2016,Teleop Enabled,0,FALSE,0,NO ERROR,-6005.859375,-5991.796875,-6000.000000,-6000.000000,Speed,Speed,0.000000,1.330000,2.160000,1.000000,101.000000,1,0,-0.000558,0.001550,0,-0.167130,-0.239365,0.000000,41.215027,-2.071472,0.000000,-0.034000,-0.066000,-0.065000,FlatInitial
03:07:07.734 PM 02/14/2016,Teleop Enabled,0,FALSE,0,NO ERROR,-6002.343750,-5995.898438,-6000.000000,-6000.000000,Speed,Speed,0.000000,1.270000,2.000000,1.000000,101.000000,1,0,-0.000558,0.001550,0,-0.193253,-0.288849,0.000000,41.205887,-2.085022,0.000000,-0.041000,-0.018000,-0.032000,FlatInitial
03:07:07.835 PM 02/14/2016,Teleop Enabled,0,FALSE,0,NO ERROR,-5995.898438,-6007.031250,-6000.000000,-6000.000000,Speed,Speed,0.010000,1.190000,1.800000,1.000000,102.000000,1,0,-0.000558,0.001550,0,-0.240601,-0.339905,0.000000,41.194855,-2.100967,0.000000,-0.054000,-0.024000,-0.037000,FlatInitial
03:07:07.936 PM 02/14/2016,Teleop Enabled,0,FALSE,0,NO ERROR,-5990.625000,-6015.820312,-6000.000000,-6000.000000,Speed,Speed,0.000000,1.130000,1.640000,1.000000,102.000000,1,0,-0.000558,0.001550,0,-0.313461,-0.377213,0.000000,41.180756,-2.118881,0.000000,-0.076000,-0.060000,-0.065000,FlatInitial
03:07:08.035 PM 02/14/2016,Teleop Enabled,0,FALSE,0,NO ERROR,-5988.281250,-6011.718750,-6000.000000,-6000.000000,Speed,Speed,0.000000,1.090000,1.510000,1.000000,101.000000,1,0,-0.000558,0.001550,0,-0.382416,0.000000,0.000000,41.162964,-2.134689,0.000000,-0.051000,-0.021000,-0.076000,FlatInitial
03:07:08.135 PM 02/14/2016,Teleop Enabled,0,FALSE,0,NO ERROR,-5994.140625,-6005.273438,-6000.000000,-6000.000000,Speed,Speed,0.000000,1.050000,1.480000,1.000000,103.000000,1,0,-0.000558,0.001550,0,-0.453354,-0.009979,0.000000,41.137573,-2.135040,0.000000,-0.056000,-0.021000,-0.077000,FlatInitial
03:07:08.235 PM 02/14/2016,Teleop Enabled,0,FALSE,0,NO ERROR,-6001.171875,-6000.000000,-6000.000000,-6000.000000,Speed,Speed,0.000000,1.000000,1.420000,1.000000,102.000000,1,0,-0.000558,0.001550,0,-0.504715,0.000656,0.000000,41.118210,-2.135193,0.000000,-0.050000,-0.025000,-0.088000,FlatInitial
03:07:08.335 PM 02/14/2016,Teleop Enabled,0,FALSE,0,NO ERROR,-6002.929688,-5994.726562,-6000.000000,-6000.000000,Speed,Speed,0.000000,0.970000,1.260000,1.000000,102.000000,1,0,-0.000558,0.001550,0,-0.596191,-0.046646,0.000000,41.084854,-2.136841,0.000000,-0.084000,-0.023000,-0.055000,FlatInitial
03:07:08.435 PM 02/14/2016,Teleop Enabled,0,FALSE,0,NO ERROR,-6006.445312,-5993.554688,-6000.000000,-6000.000000,Speed,Speed,0.000000,0.920000,1.120000,1.000000,103.000000,1,0,-0.000558,0.001550,0,-0.675598,-0.070221,0.000000,41.052643,-2.139999,0.000000,-0.073000,-0.018000,-0.035000,FlatInitial
03:07:08.535 PM 02/14/2016,Teleop Enabled,0,FALSE,0,NO ERROR,-6008.203125,-5992.382812,-6000.000000,-6000.000000,Speed,Speed,0.000000,0.860000,1.020000,1.000000,102.000000,1,0,-0.000558,0.001550,0,-0.740021,-0.013245,0.000000,41.024033,-2.140274,0.000000,-0.086000,-0.013000,-0.032000,FlatInitial
03:07:08.635 PM 02/14/2016,Teleop Enabled,0,FALSE,0,NO ERROR,-6009.960938,-5991.210938,-6000.000000,-6000.000000,Speed,Speed,0.000000,0.800000,0.890000,1.000000,102.000000,1,0,-0.000558,0.001550,0,-0.848755,-0.031754,0.000000,40.975906,-2.140991,0.000000,-0.083000,-0.029000,-0.010000,FlatInitial
03:07:08.735 PM 02/14/2016,Teleop Enabled,0,FALSE,0,NO ERROR,-6005.273438,-5991.210938,-6000.000000,-6000.000000,Speed,Speed,0.000000,0.720000,0.760000,1.000000,102.000000,1,0,-0.000558,0.001550,0,-0.924728,-0.067703,0.000000,40.931183,-2.143631,0.000000,-0.070000,-0.022000,-0.030000,FlatInitial
03:07:08.836 PM 02/14/2016,Teleop Enabled,0,FALSE,0,NO ERROR,-6003.515625,-5992.382812,-6000.000000,-6000.000000,Speed,Speed,0.000000,0.660000,0.680000,1.000000,102.000000,1,0,-0.000558,0.001550,0,-0.998077,-0.098785,0.000000,40.882767,-2.147949,0.000000,-0.065000,-0.040000,-0.038000,FlatInitial
03:07:08.935 PM 02/14/2016,Teleop Enabled,0,FALSE,0,NO ERROR,-6002.343750,-5997.070312,-6000.000000,-6000.000000,Speed,Speed,0.000000,0.600000,0.620000,1.000000,104.000000,1,0,-0.000558,0.001550,0,-1.072510,-0.118790,0.000000,40.830658,-2.153381,0.000000,-0.084000,-0.054000,-0.018000,FlatInitial
03:07:09.036 PM 02/14/2016,Teleop Enabled,0,FALSE,0,NO ERROR,-5999.414062,-6000.000000,-6000.000000,-6000.000000,Speed,Speed,0.000000,0.530000,0.540000,1.000000,101.000000,1,0,-0.000558,0.001550,0,-1.147522,-0.160690,0.000000,40.774765,-2.160675,0.000000,-0.063000,-0.041000,-0.013000,FlatInitial
03:07:09.136 PM 02/14/2016,Teleop Enabled,0,FALSE,0,NO ERROR,-5995.312500,-6003.515625,-6000.000000,-6000.000000,Speed,Speed,0.000000,0.490000,0.500000,1.000000,102.000000,1,0,-0.000558,0.001550,0,-1.234665,0.004410,0.000000,40.702957,-2.164124,0.000000,-0.083000,0.000000,0.017000,FlatInitial
03:07:09.237 PM 02/14/2016,Teleop Enabled,0,FALSE,0,NO ERROR,-5993.554688,-6010.546875,-6000.000000,-6000.000000,Speed,Speed,0.010000,0.430000,0.470000,1.000000,102.000000,1,0,-0.000558,0.001550,0,-1.321487,0.000000,0.000000,40.638641,-2.164093,0.000000,-0.103000,0.002000,-0.034000,FlatInitial
03:07:09.338 PM 02/14/2016,Teleop Enabled,0,FALSE,0,NO ERROR,-5992.382812,-6011.718750,-6000.000000,-6000.000000,Speed,Speed,0.010000,0.390000,0.390000,1.000000,103.000000,1,0,-0.000558,0.001550,0,-1.421753,-0.010956,0.000000,40.569534,-2.164444,0.000000,-0.099000,-0.024000,-0.030000,FlatInitial
03:07:09.439 PM 02/14/2016,Teleop Enabled,0,FALSE,0,NO ERROR,-5992.968750,-6003.515625,-6000.000000,-6000.000000,Speed,Speed,0.010000,0.340000,0.330000,1.000000,102.000000,1,0,-0.000558,0.001550,0,-1.506149,0.000000,0.000000,40.495895,-2.164719,0.000000,-0.086000,0.011000,-0.079000,FlatInitial
03:07:09.539 PM 02/14/2016,Teleop Enabled,0,FALSE,0,NO ERROR,-5999.414062,-6002.343750,-6000.000000,-6000.000000,Speed,Speed,0.000000,0.330000,0.260000,1.000000,101.000000,1,0,-0.000558,0.001550,0,-1.585220,0.000000,0.000000,40.433701,-2.164719,0.000000,-0.098000,0.011000,-0.062000,FlatInitial
03:07:09.639 PM 02/14/2016,Teleop Enabled,0,FALSE,0,NO ERROR,-6006.445312,-6004.687500,-6000.000000,-6000.000000,Speed,Speed,0.000000,0.310000,0.230000,1.000000,102.000000,1,0,-0.000558,0.001550,0,-1.700211,0.000000,0.000000,40.334641,-2.164536,0.000000,-0.116000,-0.003000,-0.040000,FlatInitial
03:07:09.739 PM 02/14/2016,Teleop Enabled,0,FALSE,0,NO ERROR,-6011.718750,-6004.687500,-6000.000000,-6000.000000,Speed,Speed,0.000000,0.300000,0.250000,1.000000,100.000000,1,0,-0.000558,0.001550,0,-1.800385,0.000000,0.000000,40.246689,-2.164536,0.000000,-0.098000,-0.019000,-0.038000,FlatInitial
03:07:09.839 PM 02/14/2016,Teleop Enabled,0,FALSE,0,NO ERROR,-6012.890625,-5991.796875,-6000.000000,-6000.000000,Speed,Speed,0.000000,0.290000,0.320000,1.000000,101.000000,1,0,-0.000558,0.001550,0,-1.906250,0.023178,0.000000,40.153519,-2.164108,0.000000,-0.098000,-0.019000,-0.038000,FlatInitial
03:07:09.939 PM 02/14/2016,Teleop Enabled,0,FALSE,0,NO ERROR,-6008.789062,-5989.453125,-6000.000000,-6000.000000,Speed,Speed,0.000000,0.270000,0.430000,1.000000,101.000000,1,0,-0.000558,0.001550,0,-2.001328,0.040604,0.000000,40.074905,-2.162659,0.000000,-0.108000,0.026000,-0.024000,FlatInitial
03:07:10.040 PM 02/14/2016,Teleop Enabled,0,FALSE,0,NO ERROR,-6002.343750,-5999.414062,-6000.000000,-6000.000000,Speed,Speed,0.000000,0.210000,0.570000,1.000000,103.000000,1,0,-0.000558,0.001550,0,-2.145935,0.059525,0.000000,39.949890,-2.159592,0.000000,-0.108000,0.026000,-0.024000,FlatInitial
03:07:10.140 PM 02/14/2016,Teleop Enabled,0,FALSE,0,NO ERROR,-5998.242188,-6005.273438,-6000.000000,-6000.000000,Speed,Speed,0.000000,0.190000,0.670000,1.000000,101.000000,1,0,-0.000558,0.001550,0,-2.261856,0.008469,0.000000,39.839142,-2.158157,0.000000,-0.131000,0.011000,-0.017000,FlatInitial
03:07:10.241 PM 02/14/2016,Teleop Enabled,0,FALSE,0,NO ERROR,-5997.070312,-6009.375000,-6000.000000,-6000.000000,Speed,Speed,-0.010000,0.180000,0.790000,1.000000,101.000000,1,0,-0.000558,0.001550,0,-2.381088,0.046204,0.000000,39.722473,-2.156708,0.000000,-0.120000,0.048000,-0.009000,FlatInitial
03:07:10.341 PM 02/14/2016,Teleop Enabled,0,FALSE,0,NO ERROR,-5997.656250,-6005.273438,-6000.000000,-6000.000000,Speed,Speed,-0.010000,0.190000,0.930000,1.000000,101.000000,1,0,-0.000558,0.001550,0,-2.472076,0.071594,0.000000,39.624924,-2.154236,0.000000,-0.117000,0.062000,-0.010000,FlatInitial
03:07:10.442 PM 02/14/2016,Teleop Enabled,0,FALSE,0,NO ERROR,-5995.312500,-6003.515625,-6000.000000,-6000.000000,Speed,Speed,-0.010000,0.190000,1.070000,1.000000,102.000000,1,0,-0.000558,0.001550,0,-2.472076,0.071594,0.000000,39.624924,-2.154236,0.000000,-0.117000,0.062000,-0.010000,FlatInitial
03:07:10.543 PM 02/14/2016,Teleop Enabled,0,FALSE,0,NO ERROR,-5997.070312,-6004.687500,-6000.000000,-6000.000000,Speed,Speed,-0.010000,0.220000,1.130000,1.000000,104.000000,1,0,-0.000558,0.001550,0,-2.699722,0.031204,0.000000,39.338608,-2.147705,0.000000,-0.102000,0.007000,0.008000,FlatInitial
03:07:10.643 PM 02/14/2016,Teleop Enabled,0,FALSE,0,NO ERROR,-5998.828125,-6007.617188,-6000.000000,-6000.000000,Speed,Speed,-0.020000,0.250000,1.250000,1.000000,100.000000,1,0,-0.000558,0.001550,0,-2.699722,0.031204,0.000000,39.338608,-2.147705,0.000000,-0.108000,0.057000,-0.026000,FlatInitial
03:07:10.744 PM 02/14/2016,Teleop Enabled,0,FALSE,0,NO ERROR,-6001.757812,-6005.273438,-6000.000000,-6000.000000,Speed,Speed,-0.010000,0.290000,1.360000,1.000000,102.000000,1,0,-0.000558,0.001550,0,-2.876694,0.125656,0.000000,39.058624,-2.139496,0.000000,-0.090000,0.014000,0.012000,FlatInitial
03:07:10.846 PM 02/14/2016,Teleop Enabled,0,FALSE,0,NO ERROR,-6005.859375,-6002.343750,-6000.000000,-6000.000000,Speed,Speed,-0.010000,0.290000,1.360000,1.000000,100.000000,1,0,-0.000558,0.001550,0,-2.876694,0.125656,0.000000,39.058624,-2.139496,0.000000,-0.042000,0.064000,-0.020000,FlatInitial
03:07:10.946 PM 02/14/2016,Teleop Enabled,0,FALSE,0,NO ERROR,-6009.960938,-6003.515625,-6000.000000,-6000.000000,Speed,Speed,-0.010000,0.430000,1.580000,1.000000,101.000000,1,0,-0.000558,0.001550,0,-2.954086,0.182877,0.000000,38.883347,-2.130020,0.000000,-0.064000,0.058000,0.012000,FlatInitial
03:07:11.046 PM 02/14/2016,Teleop Enabled,0,FALSE,0,NO ERROR,-6009.375000,-6003.515625,-6000.000000,-6000.000000,Speed,Speed,-0.020000,0.510000,1.750000,1.000000,101.000000,1,0,-0.000558,0.001550,0,-3.026505,0.235382,0.000000,38.733521,-2.119263,0.000000,-0.093000,0.053000,0.035000,FlatInitial
03:07:11.146 PM 02/14/2016,Teleop Enabled,0,FALSE,0,NO ERROR,-6004.687500,-6000.585938,-6000.000000,-6000.000000,Speed,Speed,-0.020000,0.510000,1.750000,1.000000,104.000000,1,0,-0.000558,0.001550,0,-3.098801,0.291092,0.000000,38.580185,-2.106049,0.000000,-0.068000,0.054000,0.023000,FlatInitial
03:07:11.245 PM 02/14/2016,Teleop Enabled,0,FALSE,0,NO ERROR,-5998.828125,-6001.171875,-6000.000000,-6000.000000,Speed,Speed,-0.020000,0.660000,2.030000,1.000000,101.000000,1,0,-0.000558,0.001550,0,-3.167160,0.349075,0.000000,38.423248,-2.089706,0.000000,-0.057000,0.047000,0.026000,FlatInitial
03:07:11.345 PM 02/14/2016,Teleop Enabled,0,FALSE,0,NO ERROR,-5993.554688,-6001.171875,-6000.000000,-6000.000000,Speed,Speed,-0.020000,0.660000,2.030000,1.000000,102.000000,1,0,-0.000558,0.001550,0,-3.230286,0.405899,0.000000,38.262894,-2.070648,0.000000,-0.070000,0.069000,0.018000,FlatInitial
03:07:11.447 PM 02/14/2016,Teleop Enabled,0,FALSE,0,NO ERROR,-5991.796875,-6001.757812,-6000.000000,-6000.000000,Speed,Speed,-0.020000,0.730000,2.200000,1.000000,101.000000,1,0,-0.000558,0.001550,0,-3.288803,0.447983,0.000000,38.132263,-2.053299,0.000000,-0.074000,0.058000,0.033000,FlatInitial
03:07:11.547 PM 02/14/2016,Teleop Enabled,0,FALSE,0,NO ERROR,-5989.453125,-6004.101562,-6000.000000,-6000.000000,Speed,Speed,-0.030000,0.800000,2.380000,1.000000,102.000000,1,0,-0.000558,0.001550,0,-3.362259,0.509750,0.000000,37.965561,-2.029099,0.000000,-0.062000,0.075000,0.032000,FlatInitial
03:07:11.647 PM 02/14/2016,Teleop Enabled,0,FALSE,0,NO ERROR,-5995.898438,-6007.031250,-6000.000000,-6000.000000,Speed,Speed,-0.030000,0.870000,2.450000,1.000000,101.000000,1,0,-0.000558,0.001550,0,-3.422989,0.552658,0.000000,37.795715,-2.002213,0.000000,-0.097000,0.042000,0.012000,FlatInitial
03:07:11.748 PM 02/14/2016,Teleop Enabled,0,FALSE,0,NO ERROR,-5997.070312,-6009.960938,-6000.000000,-6000.000000,Speed,Speed,-0.030000,0.910000,2.520000,1.000000,103.000000,1,0,-0.000558,0.001550,0,-3.488480,0.600433,0.000000,37.622543,-1.973190,0.000000,-0.066000,0.023000,0.015000,FlatInitial
03:07:11.848 PM 02/14/2016,Teleop Enabled,0,FALSE,0,NO ERROR,-5999.414062,-6007.031250,-6000.000000,-6000.000000,Speed,Speed,-0.030000,0.970000,2.600000,1.000000,103.000000,1,0,-0.000558,0.001550,0,-3.554443,0.653732,0.000000,37.410904,-1.935486,0.000000,-0.043000,0.034000,0.007000,FlatInitial
03:07:11.948 PM 02/14/2016,Teleop Enabled,0,FALSE,0,NO ERROR,-6002.929688,-6008.203125,-6000.000000,-6000.000000,Speed,Speed,-0.040000,1.010000,2.650000,1.000000,100.000000,1,0,-0.000558,0.001550,0,-3.607925,0.717010,0.000000,37.195709,-1.894058,0.000000,-0.061000,0.060000,0.017000,FlatInitial
03:07:12.048 PM 02/14/2016,Teleop Enabled,0,FALSE,0,NO ERROR,-6005.859375,-6007.031250,-6000.000000,-6000.000000,Speed,Speed,-0.040000,1.060000,2.690000,1.000000,102.000000,1,0,-0.000558,0.001550,0,-3.649384,0.777313,0.000000,37.014099,-1.856400,0.000000,-0.040000,0.049000,0.054000,FlatInitial
03:07:12.149 PM 02/14/2016,Teleop Enabled,0,FALSE,0,NO ERROR,-6006.445312,-6005.859375,-6000.000000,-6000.000000,Speed,Speed,-0.040000,1.120000,2.800000,1.000000,101.000000,1,0,-0.000558,0.001550,0,-3.694641,0.817520,0.000000,36.867004,-1.824326,0.000000,-0.069000,0.059000,0.047000,FlatInitial
03:07:12.249 PM 02/14/2016,Teleop Enabled,0,FALSE,0,NO ERROR,-6008.203125,-6004.101562,-6000.000000,-6000.000000,Speed,Speed,-0.040000,1.150000,2.860000,1.000000,101.000000,1,0,-0.000558,0.001550,0,-3.749786,0.900803,0.000000,36.643234,-1.772461,0.000000,-0.063000,0.065000,0.039000,FlatInitial
03:07:12.349 PM 02/14/2016,Teleop Enabled,0,FALSE,0,NO ERROR,-6010.546875,-6004.101562,-6000.000000,-6000.000000,Speed,Speed,-0.040000,1.180000,3.000000,1.000000,102.000000,1,0,-0.000558,0.001550,0,-3.795181,0.949478,0.000000,36.492111,-1.735229,0.000000,-0.043000,0.054000,0.032000,FlatInitial
03:07:12.449 PM 02/14/2016,Teleop Enabled,0,FALSE,0,NO ERROR,-6008.789062,-6002.343750,-6000.000000,-6000.000000,Speed,Speed,-0.050000,1.220000,3.080000,1.000000,102.000000,1,0,-0.000558,0.001550,0,-3.836456,0.995407,0.000000,36.339310,-1.696045,0.000000,-0.062000,0.066000,0.034000,FlatInitial
03:07:12.551 PM 02/14/2016,Teleop Enabled,0,FALSE,0,NO ERROR,-6004.687500,-6000.000000,-6000.000000,-6000.000000,Speed,Speed,-0.050000,1.270000,3.140000,1.000000,102.000000,1,0,-0.000558,0.001550,0,-3.896332,1.045792,0.000000,36.106873,-1.634705,0.000000,-0.049000,0.067000,0.010000,FlatInitial
03:07:12.652 PM 02/14/2016,Teleop Enabled,0,FALSE,0,NO ERROR,-6002.343750,-6000.000000,-6000.000000,-6000.000000,Speed,Speed,-0.050000,1.290000,3.210000,1.000000,101.000000,1,0,-0.000558,0.001550,0,-3.940445,1.106796,0.000000,35.910721,-1.580536,0.000000,-0.016000,0.031000,0.044000,FlatInitial
03:07:12.752 PM 02/14/2016,Teleop Enabled,0,FALSE,0,NO ERROR,-5999.414062,-6000.585938,-6000.000000,-6000.000000,Speed,Speed,-0.060000,1.330000,3.240000,1.000000,101.000000,1,0,-0.000558,0.001550,0,-3.987610,1.137054,0.000000,35.712296,-1.524261,0.000000,-0.067000,0.046000,0.033000,FlatInitial
03:07:12.853 PM 02/14/2016,Teleop Enabled,0,FALSE,0,NO ERROR,-5995.312500,-5998.242188,-6000.000000,-6000.000000,Speed,Speed,-0.050000,1.360000,3.270000,1.000000,101.000000,1,0,-0.000558,0.001550,0,-4.045883,1.174652,0.000000,35.511215,-1.466415,0.000000,-0.035000,0.033000,0.014000,FlatInitial
03:07:12.954 PM 02/14/2016,Teleop Enabled,0,FALSE,0,NO ERROR,-5992.382812,-5998.242188,-6000.000000,-6000.000000,Speed,Speed,-0.060000,1.390000,3.270000,1.000000,102.000000,1,0,-0.000558,0.001550,0,-4.103241,1.220642,0.000000,35.266418,-1.394485,0.000000,-0.045000,0.061000,0.033000,FlatInitial
03:07:13.057 PM 02/14/2016,Teleop Enabled,0,FALSE,0,NO ERROR,-5992.968750,-5999.414062,-6000.000000,-6000.000000,Speed,Speed,-0.060000,1.410000,3.350000,1.000000,101.000000,1,0,-0.000558,0.001550,0,-4.150177,1.263550,0.000000,35.101135,-1.344589,0.000000,-0.043000,0.029000,0.044000,FlatInitial
03:07:13.156 PM 02/14/2016,Teleop Enabled,0,FALSE,0,NO ERROR,-5992.382812,-5999.414062,-6000.000000,-6000.000000,Speed,Speed,-0.060000,1.420000,3.370000,1.000000,104.000000,1,0,-0.000558,0.001550,0,-4.214783,1.300232,0.000000,34.891724,-1.280273,0.000000,-0.064000,0.048000,0.022000,FlatInitial
03:07:13.258 PM 02/14/2016,Teleop Enabled,0,FALSE,0,NO ERROR,-5992.382812,-5997.656250,-6000.000000,-6000.000000,Speed,Speed,-0.070000,1.440000,3.390000,1.000000,101.000000,1,0,-0.000558,0.001550,0,-4.285263,1.348068,0.000000,34.636398,-1.200867,0.000000,-0.058000,0.056000,0.030000,FlatInitial
03:07:13.357 PM 02/14/2016,Teleop Enabled,0,FALSE,0,NO ERROR,-5992.968750,-6002.343750,-6000.000000,-6000.000000,Speed,Speed,-0.060000,1.440000,3.460000,1.000000,102.000000,1,0,-0.000558,0.001550,0,-4.327347,1.394516,0.000000,34.463913,-1.145737,0.000000,-0.050000,0.038000,0.055000,FlatInitial
03:07:13.457 PM 02/14/2016,Teleop Enabled,0,FALSE,0,NO ERROR,-5992.968750,-6002.343750,-6000.000000,-6000.000000,Speed,Speed,-0.060000,1.410000,3.490000,1.000000,102.000000,1,0,-0.000558,0.001550,0,-4.410278,1.428375,0.000000,34.201447,-1.060913,0.000000,-0.085000,0.042000,0.030000,FlatInitial
03:07:13.558 PM 02/14/2016,Teleop Enabled,0,FALSE,0,NO ERROR,-5992.382812,-6002.929688,-6000.000000,-6000.000000,Speed,Speed,-0.060000,1.410000,3.500000,1.000000,102.000000,1,0,-0.000558,0.001550,0,-4.482590,1.462997,0.000000,33.978668,-0.988510,0.000000,-0.054000,0.021000,0.049000,FlatInitial
03:07:13.659 PM 02/14/2016,Teleop Enabled,0,FALSE,0,NO ERROR,-5993.554688,-6002.929688,-6000.000000,-6000.000000,Speed,Speed,-0.070000,1.390000,3.530000,1.000000,101.000000,1,0,-0.000558,0.001550,0,-4.541870,1.511032,0.000000,33.752686,-0.913971,0.000000,-0.072000,0.033000,0.063000,FlatInitial
03:07:13.759 PM 02/14/2016,Teleop Enabled,0,FALSE,0,NO ERROR,-5995.898438,-6002.929688,-6000.000000,-6000.000000,Speed,Speed,-0.070000,1.350000,3.590000,1.000000,102.000000,1,0,-0.000558,0.001550,0,-4.615082,1.545395,0.000000,33.523361,-0.837402,0.000000,-0.065000,0.051000,0.062000,FlatInitial
03:07:13.861 PM 02/14/2016,Teleop Enabled,0,FALSE,0,NO ERROR,-5999.414062,-6003.515625,-6000.000000,-6000.000000,Speed,Speed,-0.060000,1.320000,3.620000,1.000000,102.000000,1,0,-0.000558,0.001550,0,-4.681641,1.578720,0.000000,33.290588,-0.759125,0.000000,-0.072000,0.003000,0.084000,FlatInitial
03:07:13.961 PM 02/14/2016,Teleop Enabled,0,FALSE,0,NO ERROR,-6005.273438,-5998.828125,-6000.000000,-6000.000000,Speed,Speed,-0.070000,1.290000,3.680000,1.000000,105.000000,1,0,-0.000558,0.001550,0,-4.745300,1.616928,0.000000,33.054565,-0.679337,0.000000,-0.040000,0.045000,0.074000,FlatInitial
03:07:14.060 PM 02/14/2016,Teleop Enabled,0,FALSE,0,NO ERROR,-5993.554688,-5995.898438,-6000.000000,-6000.000000,Speed,Speed,-0.060000,1.270000,3.710000,1.000000,102.000000,1,0,-0.000558,0.001550,0,-4.817886,0.000000,0.000000,32.767380,-0.597198,0.000000,-0.063000,0.005000,0.095000,FlatInitial
03:07:14.161 PM 02/14/2016,Teleop Enabled,0,FALSE,0,NO ERROR,-5997.070312,-5994.726562,-6000.000000,-6000.000000,Speed,Speed,-0.050000,1.260000,3.720000,1.000000,103.000000,1,0,-0.000558,0.001550,0,-4.875397,0.010712,0.000000,32.573181,-0.596954,0.000000,-0.062000,0.001000,0.065000,FlatInitial
03:07:14.261 PM 02/14/2016,Teleop Enabled,0,FALSE,0,NO ERROR,-6000.585938,-5994.726562,-6000.000000,-6000.000000,Speed,Speed,-0.060000,1.260000,3.720000,1.000000,102.000000,1,0,-0.000558,0.001550,0,-4.953354,0.049637,0.000000,32.277786,-0.595108,0.000000,-0.052000,0.057000,0.063000,FlatInitial
03:07:14.361 PM 02/14/2016,Teleop Enabled,0,FALSE,0,NO ERROR,-5958.984375,-5992.382812,-6000.000000,-6000.000000,Speed,Speed,-0.070000,1.250000,3.730000,1.000000,100.000000,1,0,-0.000558,0.001550,0,-5.019806,0.085007,0.000000,32.028290,-0.591324,0.000000,-0.106000,0.006000,0.069000,FlatInitial
03:07:14.461 PM 02/14/2016,Teleop Enabled,0,FALSE,0,NO ERROR,-5949.023438,-5992.968750,-6000.000000,-6000.000000,Speed,Speed,-0.050000,1.180000,3.580000,1.000000,102.000000,1,0,-0.000558,0.001550,0,-5.088928,0.000000,0.000000,31.825668,-0.591324,0.000000,-0.058000,-0.052000,0.042000,FlatInitial
03:07:14.561 PM 02/14/2016,Teleop Enabled,0,FALSE,0,NO ERROR,-5974.218750,-5995.898438,-6000.000000,-6000.000000,Speed,Speed,-0.050000,1.140000,3.280000,1.000000,100.000000,1,0,-0.000558,0.001550,0,-5.165924,0.000000,0.000000,31.517548,-0.591660,0.000000,-0.073000,0.002000,0.027000,FlatInitial
03:07:14.661 PM 02/14/2016,Teleop Enabled,0,FALSE,0,NO ERROR,-6006.445312,-5994.140625,-6000.000000,-6000.000000,Speed,Speed,-0.040000,1.090000,3.090000,1.000000,101.000000,1,0,-0.000558,0.001550,0,-5.228745,0.010178,0.000000,31.257416,-0.591476,0.000000,-0.077000,0.011000,0.034000,FlatInitial
03:07:14.761 PM 02/14/2016,Teleop Enabled,0,FALSE,0,NO ERROR,-6035.742188,-5999.414062,-6000.000000,-6000.000000,Speed,Speed,-0.040000,1.060000,2.990000,1.000000,101.000000,1,0,-0.000558,0.001550,0,-5.295197,0.020203,0.000000,30.993958,-0.591080,0.000000,-0.062000,0.035000,0.095000,FlatInitial
03:07:14.861 PM 02/14/2016,Teleop Enabled,0,FALSE,0,NO ERROR,-6042.187500,-6006.445312,-6000.000000,-6000.000000,Speed,Speed,-0.040000,1.050000,3.060000,1.000000,102.000000,1,0,-0.000558,0.001550,0,-5.357864,0.069153,0.000000,30.727325,-0.588684,0.000000,-0.061000,0.081000,0.056000,FlatInitial
03:07:14.961 PM 02/14/2016,Teleop Enabled,0,FALSE,0,NO ERROR,-6031.640625,-6012.890625,-6000.000000,-6000.000000,Speed,Speed,-0.040000,1.050000,3.150000,1.000000,101.000000,1,0,-0.000558,0.001550,0,-5.409576,0.120865,0.000000,30.457840,-0.583557,0.000000,-0.054000,0.055000,0.074000,FlatInitial
03:07:15.061 PM 02/14/2016,Teleop Enabled,0,FALSE,0,NO ERROR,-5975.976562,-6006.445312,-6000.000000,-6000.000000,Speed,Speed,-0.040000,1.050000,3.200000,1.000000,103.000000,1,0,-0.000558,0.001550,0,-5.456818,0.149704,0.000000,30.185974,-0.576553,0.000000,-0.059000,0.024000,0.086000,FlatInitial
03:07:15.161 PM 02/14/2016,Teleop Enabled,0,FALSE,0,NO ERROR,-5900.390625,-5985.351562,-6000.000000,-6000.000000,Speed,Speed,-0.040000,1.020000,3.170000,1.000000,102.000000,1,0,-0.000558,0.001550,0,-5.532593,0.148575,0.000000,29.965897,-0.570465,0.000000,-0.082000,-0.022000,0.086000,FlatInitial
03:07:15.261 PM 02/14/2016,Teleop Enabled,0,FALSE,0,NO ERROR,-6109.570312,-5975.976562,-6000.000000,-6000.000000,Speed,Speed,-0.050000,1.020000,3.140000,1.000000,101.000000,1,0,-0.000558,0.001550,0,-5.603149,0.176620,0.000000,29.630966,-0.560791,0.000000,-0.019000,-0.010000,0.026000,FlatInitial
03:07:15.362 PM 02/14/2016,Teleop Enabled,0,FALSE,0,NO ERROR,-6277.734375,-5974.218750,-6000.000000,-6000.000000,Speed,Speed,-0.030000,1.020000,3.040000,1.000000,103.000000,1,0,-0.000558,0.001550,0,-5.650116,0.185654,0.000000,29.349747,-0.552139,0.000000,-0.075000,-0.007000,-0.058000,FlatInitial
03:07:15.461 PM 02/14/2016,Teleop Enabled,0,FALSE,0,NO ERROR,-6310.546875,-5976.562500,-6000.000000,-6000.000000,Speed,Speed,-0.040000,1.010000,3.100000,1.000000,101.000000,1,0,-0.000558,0.001550,0,-5.703857,0.190598,0.000000,29.008301,-0.540192,0.000000,0.029000,-0.059000,-0.142000,FlatInitial
03:07:15.561 PM 02/14/2016,Teleop Enabled,0,FALSE,0,NO ERROR,-6106.640625,-5718.164062,-6000.000000,-6000.000000,Speed,Speed,-0.030000,0.980000,2.800000,1.000000,104.000000,1,0,-0.000558,0.001550,0,-5.674561,0.120621,0.000000,28.780685,-0.534409,0.000000,0.159000,-0.032000,-0.080000,FlatInitial
03:07:15.661 PM 02/14/2016,Teleop Enabled,0,FALSE,0,NO ERROR,-6092.578125,-5742.773438,-6000.000000,-6000.000000,Speed,Speed,-0.040000,1.000000,2.750000,1.000000,103.000000,1,0,-0.000558,0.001550,0,-5.560806,0.175064,0.000000,28.500595,-0.527359,0.000000,0.081000,0.036000,-0.088000,FlatInitial
03:07:15.761 PM 02/14/2016,Teleop Enabled,0,FALSE,0,NO ERROR,-5954.882812,-5616.796875,-6000.000000,-6000.000000,Speed,Speed,-0.040000,1.000000,2.780000,1.000000,103.000000,1,0,-0.000558,0.001550,0,-5.497650,0.012070,0.000000,28.224808,-0.525375,0.000000,0.004000,-0.088000,0.063000,FlatInitial
03:07:15.861 PM 02/14/2016,Teleop Enabled,0,FALSE,0,NO ERROR,-6050.976562,-5733.398438,-6000.000000,-6000.000000,Speed,Speed,-0.040000,0.950000,2.750000,1.000000,101.000000,1,0,-0.000558,0.001550,0,0.052902,0.011398,0.000000,28.225815,-0.525497,0.000000,0.137000,0.048000,-0.100000,FlatInitial
03:07:15.961 PM 02/14/2016,Teleop Enabled,0,FALSE,0,NO ERROR,-6110.156250,-5835.937500,-6000.000000,-6000.000000,Speed,Speed,-0.040000,1.020000,2.850000,1.000000,101.000000,1,0,-0.000558,0.001550,0,-0.009918,0.042999,0.000000,28.228577,-0.523773,0.000000,-0.098000,-0.087000,-0.046000,FlatInitial
03:07:16.061 PM 02/14/2016,Teleop Enabled,0,FALSE,0,NO ERROR,-6236.718750,-6006.445312,-6000.000000,-6000.000000,Speed,Speed,-0.040000,0.970000,2.740000,1.000000,101.000000,1,0,-0.000558,0.001550,0,-0.090271,0.006836,0.000000,28.224609,-0.522888,0.000000,-0.024000,-0.052000,0.025000,FlatInitial
03:07:16.162 PM 02/14/2016,Teleop Enabled,0,FALSE,0,NO ERROR,-6277.734375,-6095.507812,-6000.000000,-6000.000000,Speed,Speed,-0.040000,1.000000,2.600000,1.000000,102.000000,1,0,-0.000558,0.001550,0,-0.126328,0.020004,0.000000,28.220184,-0.522614,0.000000,-0.073000,0.070000,-0.088000,FlatInitial
03:07:16.263 PM 02/14/2016,Teleop Enabled,0,FALSE,0,NO ERROR,-6233.203125,-6095.507812,-6000.000000,-6000.000000,Speed,Speed,-0.040000,0.950000,2.570000,1.000000,103.000000,1,0,-0.000558,0.001550,0,-0.194626,0.073776,0.000000,28.209839,-0.519836,0.000000,-0.024000,0.033000,-0.053000,FlatInitial
03:07:16.363 PM 02/14/2016,Teleop Enabled,0,FALSE,0,NO ERROR,-6160.546875,-6060.351562,-6000.000000,-6000.000000,Speed,Speed,-0.050000,0.960000,2.540000,1.000000,102.000000,1,0,-0.000558,0.001550,0,-0.191116,0.025818,0.000000,28.201920,-0.517761,0.000000,0.057000,-0.058000,-0.010000,FlatInitial
03:07:16.464 PM 02/14/2016,Teleop Enabled,0,FALSE,0,NO ERROR,-6099.609375,-6039.843750,-6000.000000,-6000.000000,Speed,Speed,-0.040000,0.950000,2.390000,1.000000,103.000000,1,0,-0.000558,0.001550,0,-0.116226,-0.041595,0.000000,28.193130,-0.518814,0.000000,0.039000,-0.048000,-0.005000,FlatInitial
03:07:16.565 PM 02/14/2016,Teleop Enabled,0,FALSE,0,NO ERROR,-6063.867188,-6027.539062,-6000.000000,-6000.000000,Speed,Speed,-0.040000,0.970000,2.310000,1.000000,101.000000,1,0,-0.000558,0.001550,0,0.000000,-0.053391,0.000000,28.190002,-0.520935,0.000000,0.016000,-0.004000,-0.019000,FlatInitial
03:07:16.666 PM 02/14/2016,Teleop Enabled,0,FALSE,0,NO ERROR,-6033.984375,-6021.093750,-6000.000000,-6000.000000,Speed,Speed,-0.040000,1.030000,2.220000,1.000000,102.000000,1,0,-0.000558,0.001550,0,-0.006866,0.028015,0.000000,28.189804,-0.520203,0.000000,-0.022000,0.041000,-0.011000,FlatInitial
03:07:16.765 PM 02/14/2016,Teleop Enabled,0,FALSE,0,NO ERROR,-6017.578125,-6011.718750,-6000.000000,-6000.000000,Speed,Speed,-0.050000,1.090000,2.160000,1.000000,101.000000,1,0,-0.000558,0.001550,0,-0.023468,0.000000,0.000000,28.189285,-0.519424,0.000000,-0.027000,0.047000,-0.003000,FlatInitial
03:07:16.866 PM 02/14/2016,Teleop Enabled,0,FALSE,0,NO ERROR,-5992.382812,-5967.773438,-6000.000000,-6000.000000,Speed,Speed,-0.060000,1.140000,2.060000,1.000000,103.000000,1,0,-0.000558,0.001550,0,-0.049561,0.030182,0.000000,28.187317,-0.518494,0.000000,-0.017000,0.080000,-0.024000,FlatInitial
03:07:16.967 PM 02/14/2016,Teleop Enabled,0,FALSE,0,NO ERROR,-5895.703125,-5783.203125,-6000.000000,-6000.000000,Speed,Speed,-0.060000,1.160000,2.120000,1.000000,103.000000,1,0,-0.000558,0.001550,0,0.016693,0.079880,0.000000,28.187607,-0.515549,0.000000,0.040000,0.039000,-0.100000,FlatInitial
