Time,RobotMode,AutoToRun,ErrorStatus, ErrorCode,ErrorSource,ActualRPM1,ActualRPM2,DesiredRPM1,DesiredRPM2,ControlMode1,ControlMode2,NavXYaw,NavXRoll,NavXPitch,ShooterState,LoopTime,IsLevel,IsAutoTargeting,LeftMotorOutput,RightMotorOutput,IsHaloDrive,NavXVelocityX,NavXVelocityY,NavXVelocityZ,NavXDisplacementX,NavXDisplacementY,NavXDisplacementZ,NavXAccelerationX,NavXAccelerationY,NavXAccelerationZ,AutoDefendState
04:06:46.980 PM 02/14/2016,Teleop Enabled,0,TRUE,91,Variant To Data in WPI_DigitalInputRefNum Registry Get.vi->Periodic Tasks.vi->Robot Main.vi,0.000000,0.000000,-6000.000000,-6000.000000,Speed,Speed,-0.320000,1.110000,2.030000,1.000000,102.000000,1,0,-0.001550,0.000062,0,0.000000,0.000000,0.000000,53.108551,5.606308,0.000000,0.000000,0.000000,-0.003000,FlatInitial
04:06:47.082 PM 02/14/2016,Teleop Enabled,0,TRUE,-44007,<LOCATION>WPI_DigitalInputRefNum Registry Get.vi<CALLSTACK>WPI_DigitalInputRefNum Registry Get.vi< <Periodic Tasks.vi< <Robot Main.vi,-4.833984,3.808594,-6000.000000,-6000.000000,Speed,Speed,-0.320000,1.110000,2.030000,1.000000,102.000000,1,0,-0.001550,0.000062,0,0.000000,0.000000,0.000000,53.108551,5.606308,0.000000,0.000000,0.000000,0.003000,FlatInitial
04:06:47.182 PM 02/14/2016,Teleop Enabled,0,FALSE,0,NO ERROR,-823.828125,828.515625,-6000.000000,-6000.000000,Speed,Speed,-0.300000,1.110000,1.990000,1.000000,102.000000,1,0,-0.001550,0.000062,0,-0.003448,-0.013290,0.000000,53.108383,5.605896,0.000000,-0.020000,-0.021000,-0.029000,FlatInitial
04:06:47.281 PM 02/14/2016,Teleop Enabled,0,FALSE,0,NO ERROR,-2565.234375,2614.013672,-6000.000000,-6000.000000,Speed,Speed,-0.170000,1.090000,1.910000,1.000000,104.000000,1,0,-0.001550,0.000062,0,0.001877,0.000000,0.000000,53.108429,5.605515,0.000000,-0.032000,0.002000,0.022000,FlatInitial
04:06:47.382 PM 02/14/2016,Teleop Enabled,0,FALSE,0,NO ERROR,-4047.216797,4138.476562,-6000.000000,-6000.000000,Speed,Speed,-0.210000,1.140000,1.950000,1.000000,102.000000,1,0,-0.001550,0.000062,0,0.016434,-0.014893,0.000000,53.108887,5.605118,0.000000,-0.030000,-0.028000,-0.054000,FlatInitial
04:06:47.483 PM 02/14/2016,Teleop Enabled,0,FALSE,0,NO ERROR,-4992.187500,5274.023438,-6000.000000,-6000.000000,Speed,Speed,-0.430000,1.160000,1.950000,1.000000,101.000000,1,0,-0.001550,0.000062,0,0.002502,0.013107,0.000000,53.109039,5.605240,0.000000,-0.050000,0.015000,-0.011000,FlatInitial
04:06:47.584 PM 02/14/2016,Teleop Enabled,0,FALSE,0,NO ERROR,-5712.890625,5868.164062,-6000.000000,-6000.000000,Speed,Speed,-0.340000,1.110000,2.040000,1.000000,101.000000,1,0,-0.001550,0.000062,0,0.000565,0.037521,0.000000,53.108826,5.606339,0.000000,0.057000,0.087000,-0.159000,FlatInitial
04:06:47.684 PM 02/14/2016,Teleop Enabled,0,FALSE,0,NO ERROR,-5997.070312,6032.226562,-6000.000000,-6000.000000,Speed,Speed,-0.360000,0.980000,2.020000,1.000000,100.000000,1,0,-0.001550,0.000062,0,0.038147,-0.007446,0.000000,53.110291,5.606613,0.000000,0.042000,0.014000,0.120000,FlatInitial
04:06:47.785 PM 02/14/2016,Teleop Enabled,0,FALSE,0,NO ERROR,-6083.203125,6087.304688,-6000.000000,-6000.000000,Speed,Speed,-0.380000,0.890000,2.110000,1.000000,103.000000,1,0,-0.001550,0.000062,0,0.065048,-0.011215,0.000000,53.113037,5.606339,0.000000,0.030000,-0.006000,0.025000,FlatInitial
04:06:47.886 PM 02/14/2016,Teleop Enabled,0,FALSE,0,NO ERROR,-6095.507812,6079.101562,-6000.000000,-6000.000000,Speed,Speed,-0.340000,0.910000,2.250000,1.000000,102.000000,1,0,-0.001550,0.000062,0,0.125458,0.002914,0.000000,53.117813,5.606308,0.000000,0.112000,-0.027000,-0.063000,FlatInitial
04:06:47.987 PM 02/14/2016,Teleop Enabled,0,FALSE,0,NO ERROR,-6083.789062,6056.835938,-6000.000000,-6000.000000,Speed,Speed,-0.370000,0.980000,2.100000,1.000000,101.000000,1,0,-0.001550,0.000062,0,0.214432,-0.045364,0.000000,53.126877,5.604996,0.000000,0.086000,-0.011000,-0.108000,FlatInitial
04:06:48.088 PM 02/14/2016,Teleop Enabled,0,FALSE,0,NO ERROR,-6062.695312,6040.429688,-6000.000000,-6000.000000,Speed,Speed,-0.360000,0.990000,2.030000,1.000000,102.000000,1,0,-0.001550,0.000062,0,0.301056,0.019592,0.000000,53.142914,5.605469,0.000000,0.065000,0.000000,-0.137000,FlatInitial
04:06:48.188 PM 02/14/2016,Teleop Enabled,0,FALSE,0,NO ERROR,-6048.046875,6026.953125,-6000.000000,-6000.000000,Speed,Speed,-0.360000,0.910000,2.090000,1.000000,103.000000,1,0,-0.001550,0.000062,0,0.353119,0.067734,0.000000,53.156342,5.607330,0.000000,0.032000,0.043000,-0.104000,FlatInitial
04:06:48.289 PM 02/14/2016,Teleop Enabled,0,FALSE,0,NO ERROR,-6038.085938,6018.164062,-6000.000000,-6000.000000,Speed,Speed,-0.360000,0.850000,2.190000,1.000000,102.000000,1,0,-0.001550,0.000062,0,0.401489,0.153748,0.000000,53.179123,5.614532,0.000000,0.011000,0.034000,-0.080000,FlatInitial
04:06:48.389 PM 02/14/2016,Teleop Disabled,0,FALSE,0,NO ERROR,-6006.445312,5954.882812,-6000.000000,-6000.000000,Speed,Speed,-0.350000,0.830000,2.180000,1.000000,102.000000,1,0,-0.001550,0.000062,0,0.430969,0.198074,0.000000,53.199844,5.623566,0.000000,0.033000,0.025000,-0.065000,FlatInitial
04:06:48.490 PM 02/14/2016,Teleop Disabled,0,FALSE,0,NO ERROR,-5722.265625,5664.257812,-6000.000000,-6000.000000,Speed,Speed,-0.350000,0.900000,1.950000,1.000000,102.000000,1,0,-0.001550,0.000062,0,0.006241,0.249985,0.000000,53.204269,5.634949,0.000000,0.000000,-0.017000,-0.171000,FlatInitial
04:06:48.591 PM 02/14/2016,Teleop Disabled,0,FALSE,0,NO ERROR,-5319.726562,5162.695312,-6000.000000,-6000.000000,Speed,Speed,-0.400000,0.910000,2.030000,1.000000,100.000000,1,0,-0.001550,0.000062,0,0.047836,0.195023,0.000000,53.205597,5.646042,0.000000,0.065000,-0.082000,0.094000,FlatInitial
04:06:48.690 PM 02/14/2016,Teleop Disabled,0,FALSE,0,NO ERROR,-4923.632812,4676.806641,-6000.000000,-6000.000000,Speed,Speed,-0.400000,0.860000,2.020000,1.000000,102.000000,1,0,-0.001550,0.000062,0,0.043793,0.189285,0.000000,53.208084,5.655273,0.000000,0.005000,0.019000,-0.009000,FlatInitial
04:06:48.791 PM 02/14/2016,Teleop Disabled,0,FALSE,0,NO ERROR,-4615.869141,4208.203125,-6000.000000,-6000.000000,Speed,Speed,-0.550000,0.880000,2.120000,1.000000,101.000000,1,0,-0.001550,0.000062,0,0.041489,0.207184,0.000000,53.210388,5.665497,0.000000,0.023000,-0.001000,0.036000,FlatInitial
04:06:48.890 PM 02/14/2016,Teleop Disabled,0,FALSE,0,NO ERROR,-4242.187500,3753.662109,-6000.000000,-6000.000000,Speed,Speed,-0.490000,0.900000,1.960000,1.000000,101.000000,1,0,-0.001550,0.000062,0,-0.001022,-0.026947,0.000000,53.211273,5.664566,0.000000,-0.025000,-0.007000,0.045000,FlatInitial
04:06:48.991 PM 02/14/2016,Teleop Disabled,0,FALSE,0,NO ERROR,-3884.912109,3401.074219,-6000.000000,-6000.000000,Speed,Speed,-0.400000,0.880000,2.240000,1.000000,103.000000,1,0,-0.001550,0.000062,0,0.000046,0.009949,0.000000,53.210968,5.664139,0.000000,0.030000,0.085000,0.033000,FlatInitial
04:06:49.092 PM 02/14/2016,Teleop Disabled,0,FALSE,0,NO ERROR,-3539.501953,2969.824219,-6000.000000,-6000.000000,Speed,Speed,-0.460000,0.880000,2.380000,1.000000,101.000000,1,0,-0.001550,0.000062,0,-0.003632,0.047836,0.000000,53.210968,5.665665,0.000000,-0.001000,0.105000,0.097000,FlatInitial
04:06:49.192 PM 02/14/2016,Teleop Disabled,0,FALSE,0,NO ERROR,-3204.931641,2556.298828,-6000.000000,-6000.000000,Speed,Speed,-0.420000,0.890000,2.260000,1.000000,101.000000,1,0,-0.001550,0.000062,0,0.021545,0.000000,0.000000,53.211395,5.667847,0.000000,0.042000,-0.010000,0.106000,FlatInitial
04:06:49.293 PM 02/14/2016,Teleop Disabled,0,FALSE,0,NO ERROR,-2947.119141,2159.179688,-6000.000000,-6000.000000,Speed,Speed,-0.420000,0.910000,1.930000,1.000000,102.000000,1,0,-0.001550,0.000062,0,0.000000,-0.057068,0.000000,53.212753,5.666397,0.000000,-0.001000,-0.125000,-0.027000,FlatInitial
04:06:49.396 PM 02/14/2016,Teleop Disabled,0,FALSE,0,NO ERROR,-2634.375000,1780.078125,-6000.000000,-6000.000000,Speed,Speed,-0.430000,0.920000,1.920000,1.000000,102.000000,1,0,-0.001550,0.000062,0,0.008453,-0.103638,0.000000,53.213333,5.662018,0.000000,-0.034000,-0.046000,-0.020000,FlatInitial
04:06:49.496 PM 02/14/2016,Teleop Disabled,0,FALSE,0,NO ERROR,-2336.865234,1424.707031,-6000.000000,-6000.000000,Speed,Speed,-0.470000,0.920000,1.950000,1.000000,102.000000,1,0,-0.001550,0.000062,0,0.000000,-0.122910,0.000000,53.213394,5.656204,0.000000,-0.001000,-0.002000,-0.008000,FlatInitial
04:06:49.596 PM 02/14/2016,Teleop Disabled,0,FALSE,0,NO ERROR,-2050.927734,1163.964844,-6000.000000,-6000.000000,Speed,Speed,-0.450000,0.940000,2.000000,1.000000,100.000000,1,0,-0.001550,0.000062,0,0.000000,0.026535,0.000000,53.213623,5.656769,0.000000,0.004000,0.076000,0.000000,FlatInitial
04:06:49.697 PM 02/14/2016,Teleop Disabled,0,FALSE,0,NO ERROR,-1779.199219,848.583984,-6000.000000,-6000.000000,Speed,Speed,-0.430000,0.960000,2.160000,1.000000,102.000000,1,0,-0.001550,0.000062,0,0.000000,0.037598,0.000000,53.213623,5.658981,0.000000,-0.021000,-0.020000,-0.020000,FlatInitial
04:06:49.797 PM 02/14/2016,Teleop Disabled,0,FALSE,0,NO ERROR,-1522.998047,565.722656,-6000.000000,-6000.000000,Speed,Speed,-0.430000,0.980000,2.050000,1.000000,105.000000,1,0,-0.001550,0.000062,0,0.000000,0.000000,0.000000,53.213440,5.659943,0.000000,-0.014000,-0.001000,0.056000,FlatInitial
04:06:49.896 PM 02/14/2016,Teleop Disabled,0,FALSE,0,NO ERROR,-1270.605469,331.347656,-6000.000000,-6000.000000,Speed,Speed,-0.420000,0.970000,1.990000,1.000000,102.000000,1,0,-0.001550,0.000062,0,0.000000,-0.005951,0.000000,53.213272,5.659866,0.000000,0.016000,-0.020000,0.007000,FlatInitial
04:06:49.998 PM 02/14/2016,Teleop Disabled,0,FALSE,0,NO ERROR,-1089.843750,163.916016,-6000.000000,-6000.000000,Speed,Speed,-0.440000,0.980000,2.010000,1.000000,101.000000,1,0,-0.001550,0.000062,0,-0.011902,-0.008377,0.000000,53.213089,5.659195,0.000000,-0.024000,0.052000,0.025000,FlatInitial
04:06:50.097 PM 02/14/2016,Teleop Disabled,0,FALSE,0,NO ERROR,-859.570312,7.177734,-6000.000000,-6000.000000,Speed,Speed,-0.440000,1.000000,2.090000,1.000000,101.000000,1,0,-0.001550,0.000062,0,0.000000,0.000000,0.000000,53.212952,5.659271,0.000000,-0.001000,0.001000,0.047000,FlatInitial
04:06:50.197 PM 02/14/2016,Teleop Disabled,0,FALSE,0,NO ERROR,-659.472656,-2.929688,-6000.000000,-6000.000000,Speed,Speed,-0.440000,1.000000,1.990000,1.000000,102.000000,1,0,-0.001550,0.000062,0,0.000000,0.000000,0.000000,53.212952,5.659271,0.000000,0.010000,-0.005000,0.018000,FlatInitial
04:06:50.298 PM 02/14/2016,Teleop Disabled,0,FALSE,0,NO ERROR,-499.072266,-0.146484,-6000.000000,-6000.000000,Speed,Speed,-0.440000,1.000000,2.000000,1.000000,100.000000,1,0,-0.001550,0.000062,0,0.000000,-0.012711,0.000000,53.212952,5.658951,0.000000,-0.009000,-0.004000,-0.020000,FlatInitial
04:06:50.398 PM 02/14/2016,Teleop Disabled,0,FALSE,0,NO ERROR,-320.361328,0.000000,-6000.000000,-6000.000000,Speed,Speed,-0.450000,1.010000,2.060000,1.000000,101.000000,1,0,-0.001550,0.000062,0,0.000000,0.000000,0.000000,53.212952,5.658829,0.000000,-0.004000,0.009000,-0.020000,FlatInitial
04:06:50.498 PM 02/14/2016,Teleop Disabled,0,FALSE,0,NO ERROR,-162.597656,0.000000,-6000.000000,-6000.000000,Speed,Speed,-0.450000,1.020000,1.980000,1.000000,102.000000,1,0,-0.001550,0.000062,0,0.000000,0.000000,0.000000,53.212952,5.658829,0.000000,0.009000,-0.003000,-0.002000,FlatInitial
04:06:50.598 PM 02/14/2016,Teleop Disabled,0,FALSE,0,NO ERROR,-30.029297,-0.146484,-6000.000000,-6000.000000,Speed,Speed,-0.440000,1.020000,1.990000,1.000000,101.000000,1,0,-0.001550,0.000062,0,0.000000,0.000000,0.000000,53.212952,5.658829,0.000000,0.003000,-0.004000,0.000000,FlatInitial
04:06:50.700 PM 02/14/2016,Teleop Disabled,0,FALSE,0,NO ERROR,16.406250,0.000000,-6000.000000,-6000.000000,Speed,Speed,-0.450000,1.020000,2.010000,1.000000,102.000000,1,0,-0.001550,0.000062,0,0.000000,0.000000,0.000000,53.212952,5.658829,0.000000,0.003000,0.006000,0.007000,FlatInitial
04:06:50.800 PM 02/14/2016,Teleop Disabled,0,FALSE,0,NO ERROR,20.361328,0.000000,-6000.000000,-6000.000000,Speed,Speed,-0.450000,1.030000,1.970000,1.000000,101.000000,1,0,-0.001550,0.000062,0,0.000000,0.000000,0.000000,53.212952,5.658829,0.000000,0.005000,-0.005000,0.004000,FlatInitial
04:06:50.901 PM 02/14/2016,Teleop Disabled,0,FALSE,0,NO ERROR,21.386719,0.000000,-6000.000000,-6000.000000,Speed,Speed,-0.460000,1.040000,1.990000,1.000000,100.000000,1,0,-0.001550,0.000062,0,0.000000,0.000000,0.000000,53.212952,5.658829,0.000000,0.000000,-0.002000,0.010000,FlatInitial
04:06:51.001 PM 02/14/2016,Teleop Disabled,0,FALSE,0,NO ERROR,5.126953,0.000000,-6000.000000,-6000.000000,Speed,Speed,-0.460000,1.050000,2.000000,1.000000,101.000000,1,0,-0.001550,0.000062,0,0.000000,0.000000,0.000000,53.212952,5.658829,0.000000,0.002000,0.003000,0.000000,FlatInitial
04:06:51.102 PM 02/14/2016,Teleop Disabled,0,FALSE,0,NO ERROR,0.000000,0.000000,-6000.000000,-6000.000000,Speed,Speed,-0.460000,1.050000,1.970000,1.000000,102.000000,1,0,-0.001550,0.000062,0,0.000000,0.000000,0.000000,53.212952,5.658829,0.000000,0.000000,-0.005000,-0.002000,FlatInitial
04:06:51.201 PM 02/14/2016,Teleop Disabled,0,FALSE,0,NO ERROR,0.000000,0.000000,-6000.000000,-6000.000000,Speed,Speed,-0.460000,1.050000,1.970000,1.000000,104.000000,1,0,-0.001550,0.000062,0,0.000000,0.000000,0.000000,53.212952,5.658829,0.000000,0.000000,-0.001000,0.000000,FlatInitial
04:06:51.302 PM 02/14/2016,Teleop Disabled,0,FALSE,0,NO ERROR,0.000000,0.000000,-6000.000000,-6000.000000,Speed,Speed,-0.470000,1.050000,1.980000,1.000000,100.000000,1,0,-0.001550,0.000062,0,0.000000,0.000000,0.000000,53.212952,5.658829,0.000000,0.001000,-0.001000,-0.003000,FlatInitial
04:06:51.403 PM 02/14/2016,Teleop Disabled,0,FALSE,0,NO ERROR,0.000000,0.000000,-6000.000000,-6000.000000,Speed,Speed,-0.460000,1.060000,1.960000,1.000000,103.000000,1,0,-0.001550,0.000062,0,0.000000,0.000000,0.000000,53.212952,5.658829,0.000000,0.000000,-0.004000,0.000000,FlatInitial
04:06:51.503 PM 02/14/2016,Teleop Disabled,0,FALSE,0,NO ERROR,0.000000,0.000000,-6000.000000,-6000.000000,Speed,Speed,-0.470000,1.060000,1.960000,1.000000,101.000000,1,0,-0.001550,0.000062,0,0.000000,0.000000,0.000000,53.212952,5.658829,0.000000,0.002000,0.000000,0.001000,FlatInitial
04:06:51.603 PM 02/14/2016,Teleop Disabled,0,FALSE,0,NO ERROR,0.000000,0.000000,-6000.000000,-6000.000000,Speed,Speed,-0.470000,1.060000,1.970000,1.000000,101.000000,1,0,-0.001550,0.000062,0,0.000000,0.000000,0.000000,53.212952,5.658829,0.000000,0.001000,0.000000,0.000000,FlatInitial
04:06:51.704 PM 02/14/2016,Teleop Disabled,0,FALSE,0,NO ERROR,0.000000,0.000000,-6000.000000,-6000.000000,Speed,Speed,-0.470000,1.070000,1.950000,1.000000,102.000000,1,0,-0.001550,0.000062,0,0.000000,0.000000,0.000000,53.212952,5.658829,0.000000,0.000000,-0.005000,-0.001000,FlatInitial
04:06:51.805 PM 02/14/2016,Teleop Disabled,0,FALSE,0,NO ERROR,0.000000,0.000000,-6000.000000,-6000.000000,Speed,Speed,-0.470000,1.070000,1.950000,1.000000,101.000000,1,0,-0.001550,0.000062,0,0.000000,0.000000,0.000000,53.212952,5.658829,0.000000,0.000000,0.002000,0.006000,FlatInitial
04:06:51.906 PM 02/14/2016,Teleop Disabled,0,FALSE,0,NO ERROR,0.000000,0.000000,-6000.000000,-6000.000000,Speed,Speed,-0.470000,1.070000,1.950000,1.000000,101.000000,1,0,-0.001550,0.000062,0,0.000000,0.000000,0.000000,53.212952,5.658829,0.000000,0.000000,0.000000,0.001000,FlatInitial
04:06:52.006 PM 02/14/2016,Teleop Disabled,0,FALSE,0,NO ERROR,0.000000,0.000000,-6000.000000,-6000.000000,Speed,Speed,-0.470000,1.080000,1.940000,1.000000,101.000000,1,0,-0.001550,0.000062,0,0.000000,0.000000,0.000000,53.212952,5.658829,0.000000,0.001000,-0.004000,0.001000,FlatInitial
04:06:52.107 PM 02/14/2016,Teleop Disabled,0,FALSE,0,NO ERROR,0.000000,0.000000,-6000.000000,-6000.000000,Speed,Speed,-0.480000,1.090000,1.950000,1.000000,102.000000,1,0,-0.001550,0.000062,0,0.000000,0.000000,0.000000,53.212952,5.658829,0.000000,-0.001000,0.000000,0.005000,FlatInitial
04:06:52.207 PM 02/14/2016,Teleop Disabled,0,FALSE,0,NO ERROR,0.000000,0.000000,-6000.000000,-6000.000000,Speed,Speed,-0.480000,1.090000,1.950000,1.000000,103.000000,1,0,-0.001550,0.000062,0,0.000000,0.000000,0.000000,53.212952,5.658829,0.000000,0.003000,-0.002000,0.004000,FlatInitial
04:06:52.308 PM 02/14/2016,Teleop Disabled,0,FALSE,0,NO ERROR,0.000000,0.000000,-6000.000000,-6000.000000,Speed,Speed,-0.480000,1.090000,1.940000,1.000000,100.000000,1,0,-0.001550,0.000062,0,0.000000,0.000000,0.000000,53.212952,5.658829,0.000000,0.000000,-0.001000,0.005000,FlatInitial
04:06:52.408 PM 02/14/2016,Teleop Disabled,0,FALSE,0,NO ERROR,0.000000,0.0