Time,RobotMode,AutoToRun,ErrorStatus, ErrorCode,ErrorSource,ActualRPM1,ActualRPM2,DesiredRPM1,DesiredRPM2,ControlMode1,ControlMode2,NavXYaw,NavXRoll,NavXPitch,ShooterState,LoopTime,IsLevel,IsAutoTargeting,LeftMotorOutput,RightMotorOutput,IsHaloDrive,NavXVelocityX,NavXVelocityY,NavXVelocityZ,NavXDisplacementX,NavXDisplacementY,NavXDisplacementZ,NavXAccelerationX,NavXAccelerationY,NavXAccelerationZ,AutoDefendState
03:27:30.171 PM 02/14/2016,Autonomous Disabled,0,TRUE,91,Variant To Data in WPI_DigitalInputRefNum Registry Get.vi->Periodic Tasks.vi->Robot Main.vi,1993.359375,-1998.779297,2000.000000,2000.000000,Speed,Speed,0.520000,1.050000,1.760000,5.000000,101.000000,1,0,-0.001550,0.000558,0,-0.002213,0.000000,0.000000,24.883102,4.121521,0.000000,-0.032000,-0.006000,0.051000,FlatInitial
03:27:30.272 PM 02/14/2016,Teleop Enabled,0,TRUE,-44007,<LOCATION>WPI_DigitalInputRefNum Registry Get.vi<CALLSTACK>WPI_DigitalInputRefNum Registry Get.vi< <Periodic Tasks.vi< <Robot Main.vi,0.000000,0.000000,0.000000,0.000000,Speed,Speed,0.520000,1.050000,1.760000,0.000000,5518858.000000,1,0,-0.000558,0.000558,0,-0.002213,0.000000,0.000000,24.883102,4.121521,0.000000,-0.032000,-0.006000,0.051000,FlatInitial
03:27:30.374 PM 02/14/2016,Teleop Enabled,0,FALSE,0,NO ERROR,0.000000,0.000000,0.000000,0.000000,Speed,Speed,-0.050000,1.190000,1.860000,0.000000,101.000000,1,0,-0.000558,0.000558,0,0.000000,0.016647,0.000000,24.882370,4.125061,0.000000,-0.004000,0.020000,-0.018000,FlatInitial
03:27:30.474 PM 02/14/2016,Teleop Enabled,0,FALSE,0,NO ERROR,0.000000,0.000000,0.000000,0.000000,Speed,Speed,0.000000,1.180000,2.060000,0.000000,102.000000,1,0,-0.000558,0.000558,0,0.000000,-0.002258,0.000000,24.882370,4.125946,0.000000,-0.003000,-0.036000,0.040000,FlatInitial
03:27:30.574 PM 02/14/2016,Teleop Enabled,0,FALSE,0,NO ERROR,0.000000,0.000000,0.000000,0.000000,Speed,Speed,0.040000,1.170000,1.830000,0.000000,104.000000,1,0,-0.000558,0.000558,0,0.000000,0.000000,0.000000,24.882370,4.125595,0.000000,0.002000,0.010000,-0.006000,FlatInitial
03:27:30.674 PM 02/14/2016,Teleop Enabled,0,FALSE,0,NO ERROR,0.000000,0.000000,0.000000,0.000000,Speed,Speed,-0.040000,1.180000,2.040000,0.000000,101.000000,1,0,-0.002232,0.000558,0,0.000000,0.000000,0.000000,24.882370,4.125595,0.000000,-0.010000,0.006000,0.007000,FlatInitial
03:27:30.774 PM 02/14/2016,Teleop Enabled,0,FALSE,0,NO ERROR,0.000000,0.000000,0.000000,0.000000,Speed,Speed,0.100000,1.170000,2.060000,0.000000,103.000000,1,0,-0.003968,0.000558,0,0.004227,0.024048,0.000000,24.882217,4.126312,0.000000,0.026000,0.000000,-0.004000,FlatInitial
03:27:30.874 PM 02/14/2016,Teleop Enabled,0,FALSE,0,NO ERROR,0.000000,0.000000,0.000000,0.000000,Speed,Speed,0.020000,1.170000,2.030000,0.000000,103.000000,1,0,-0.003968,0.000558,0,0.000000,0.000000,0.000000,24.882385,4.126312,0.000000,-0.004000,0.009000,0.004000,FlatInitial
03:27:30.974 PM 02/14/2016,Teleop Enabled,0,FALSE,0,NO ERROR,0.000000,0.000000,0.000000,0.000000,Speed,Speed,-0.020000,1.190000,1.970000,0.000000,102.000000,1,0,-0.003968,0.000558,0,0.000000,0.000000,0.000000,24.882385,4.126312,0.000000,-0.020000,-0.006000,-0.008000,FlatInitial
03:27:31.074 PM 02/14/2016,Teleop Enabled,0,FALSE,0,NO ERROR,0.000000,0.000000,0.000000,0.000000,Speed,Speed,0.050000,1.170000,1.930000,0.000000,103.000000,1,0,-0.003968,0.000558,0,0.000000,-0.007355,0.000000,24.882248,4.126205,0.000000,0.016000,-0.012000,-0.002000,FlatInitial
03:27:31.174 PM 02/14/2016,Teleop Enabled,0,FALSE,0,NO ERROR,0.000000,0.000000,0.000000,0.000000,Speed,Speed,0.000000,1.180000,1.840000,0.000000,104.000000,1,0,-0.003968,0.000558,0,0.000000,0.013733,0.000000,24.882248,4.126358,0.000000,0.000000,0.006000,-0.014000,FlatInitial
03:27:31.275 PM 02/14/2016,Teleop Enabled,0,FALSE,0,NO ERROR,0.000000,0.000000,0.000000,0.000000,Speed,Speed,0.000000,1.180000,2.000000,0.000000,101.000000,1,0,-0.003968,0.000558,0,0.000000,-0.007858,0.000000,24.882248,4.126587,0.000000,-0.011000,-0.027000,0.007000,FlatInitial
03:27:31.374 PM 02/14/2016,Teleop Enabled,0,FALSE,0,NO ERROR,0.000000,0.000000,0.000000,0.000000,Speed,Speed,0.050000,1.160000,1.790000,0.000000,101.000000,1,0,-0.003968,0.000558,0,0.000000,0.000000,0.000000,24.882248,4.126114,0.000000,0.011000,0.020000,-0.015000,FlatInitial
03:27:31.475 PM 02/14/2016,Teleop Enabled,0,FALSE,0,NO ERROR,0.000000,0.000000,0.000000,0.000000,Speed,Speed,0.020000,1.170000,1.930000,0.000000,102.000000,1,0,-0.003968,0.000558,0,0.000000,0.000000,0.000000,24.882248,4.126328,0.000000,-0.001000,0.000000,0.026000,FlatInitial
03:27:31.575 PM 02/14/2016,Teleop Enabled,0,FALSE,0,NO ERROR,0.000000,0.000000,0.000000,0.000000,Speed,Speed,0.030000,1.150000,1.850000,0.000000,101.000000,1,0,-0.003968,0.000558,0,0.000000,0.000000,0.000000,24.882126,4.126328,0.000000,-0.016000,-0.006000,-0.046000,FlatInitial
03:27:31.675 PM 02/14/2016,Teleop Enabled,0,FALSE,0,NO ERROR,0.000000,0.000000,0.000000,0.000000,Speed,Speed,0.000000,1.170000,1.930000,0.000000,103.000000,1,0,-0.003968,0.000558,0,-0.001862,0.000000,0.000000,24.882187,4.126328,0.000000,-0.035000,-0.014000,0.007000,FlatInitial
03:27:31.775 PM 02/14/2016,Teleop Enabled,0,FALSE,0,NO ERROR,0.000000,0.146484,0.000000,0.000000,Speed,Speed,0.030000,1.150000,1.850000,0.000000,100.000000,1,0,-0.003968,0.000558,0,0.000000,0.000000,0.000000,24.882111,4.126328,0.000000,0.013000,0.000000,-0.036000,FlatInitial
03:27:31.876 PM 02/14/2016,Teleop Enabled,0,FALSE,0,NO ERROR,0.000000,0.000000,0.000000,0.000000,Speed,Speed,0.030000,1.130000,1.860000,0.000000,101.000000,1,0,-0.003968,0.000558,0,0.000000,0.000000,0.000000,24.881973,4.126328,0.000000,0.007000,0.008000,-0.033000,FlatInitial
03:27:31.976 PM 02/14/2016,Teleop Enabled,0,FALSE,0,NO ERROR,0.000000,0.000000,0.000000,0.000000,Speed,Speed,0.010000,1.140000,1.910000,0.000000,103.000000,1,0,-0.003968,0.000558,0,0.000000,0.000000,0.000000,24.881973,4.126328,0.000000,0.004000,0.010000,-0.023000,FlatInitial
03:27:32.077 PM 02/14/2016,Teleop Enabled,0,FALSE,0,NO ERROR,0.000000,0.000000,0.000000,0.000000,Speed,Speed,0.050000,1.150000,1.880000,0.000000,101.000000,1,0,-0.003968,0.000558,0,0.000000,0.000000,0.000000,24.881973,4.126328,0.000000,0.006000,0.006000,-0.027000,FlatInitial
03:27:32.178 PM 02/14/2016,Teleop Enabled,0,FALSE,0,NO ERROR,0.000000,0.000000,0.000000,0.000000,Speed,Speed,0.010000,1.160000,1.910000,0.000000,105.000000,1,0,-0.003968,0.000558,0,0.000000,0.000000,0.000000,24.881973,4.126328,0.000000,0.001000,-0.005000,0.001000,FlatInitial
03:27:32.279 PM 02/14/2016,Teleop Enabled,0,FALSE,0,NO ERROR,0.000000,0.000000,0.000000,0.000000,Speed,Speed,0.030000,1.150000,1.850000,0.000000,101.000000,1,0,-0.003968,0.000558,0,0.000000,0.000000,0.000000,24.881973,4.126328,0.000000,0.000000,0.005000,-0.011000,FlatInitial
03:27:32.379 PM 02/14/2016,Teleop Enabled,0,FALSE,0,NO ERROR,0.000000,0.000000,0.000000,0.000000,Speed,Speed,0.030000,1.160000,1.890000,0.000000,103.000000,1,0,-0.005022,0.000558,0,0.000000,0.000000,0.000000,24.881973,4.126328,0.000000,-0.002000,-0.002000,0.000000,FlatInitial
03:27:32.479 PM 02/14/2016,Teleop Enabled,0,FALSE,0,NO ERROR,0.000000,0.000000,0.000000,0.000000,Speed,Speed,0.020000,1.160000,1.880000,0.000000,100.000000,1,0,-0.005022,0.000558,0,0.000000,0.000000,0.000000,24.881973,4.126328,0.000000,0.004000,0.005000,0.000000,FlatInitial
03:27:32.579 PM 02/14/2016,Teleop Enabled,0,FALSE,0,NO ERROR,0.000000,0.000000,0.000000,0.000000,Speed,Speed,0.030000,1.150000,1.890000,0.000000,102.000000,1,0,-0.005022,0.000558,0,0.000000,0.000000,0.000000,24.881973,4.126328,0.000000,-0.002000,0.000000,0.000000,FlatInitial
03:27:32.679 PM 02/14/2016,Teleop Enabled,0,FALSE,0,NO ERROR,0.000000,0.000000,0.000000,0.000000,Speed,Speed,0.020000,1.150000,1.900000,0.000000,102.000000,1,0,-0.005022,0.000558,0,0.000000,0.000000,0.000000,24.881973,4.126328,0.000000,-0.002000,0.000000,0.002000,FlatInitial
03:27:32.780 PM 02/14/2016,Teleop Enabled,0,FALSE,0,NO ERROR,0.000000,0.000000,0.000000,0.000000,Speed,Speed,0.030000,1.150000,1.890000,0.000000,101.000000,1,0,-0.005022,0.000558,0,0.000000,0.000000,0.000000,24.881973,4.126328,0.000000,-0.001000,-0.001000,0.002000,FlatInitial
03:27:32.880 PM 02/14/2016,Teleop Enabled,0,FALSE,0,NO ERROR,0.000000,0.000000,0.000000,0.000000,Speed,Speed,0.030000,1.140000,1.900000,0.000000,101.000000,1,0,-0.005022,0.000558,0,0.000000,0.000000,0.000000,24.881973,4.126328,0.000000,0.001000,-0.001000,0.005000,FlatInitial
03:27:32.980 PM 02/14/2016,Teleop Enabled,0,FALSE,0,NO ERROR,0.000000,0.000000,0.000000,0.000000,Speed,Speed,0.030000,1.140000,1.900000,0.000000,101.000000,1,0,-0.005022,0.000558,0,0.000000,0.000000,0.000000,24.881973,4.126328,0.000000,0.002000,0.002000,0.000000,FlatInitial
03:27:33.080 PM 02/14/2016,Teleop Enabled,0,FALSE,0,NO ERROR,0.000000,0.000000,0.000000,0.000000,Speed,Speed,0.030000,1.140000,1.900000,0.000000,101.000000,1,0,-0.005022,0.000558,0,0.000000,0.000000,0.000000,24.881973,4.126328,0.000000,-0.002000,-0.002000,0.002000,FlatInitial
03:27:33.181 PM 02/14/2016,Teleop Enabled,0,FALSE,0,NO ERROR,0.000000,0.000000,0.000000,0.000000,Speed,Speed,0.030000,1.140000,1.880000,0.000000,103.000000,1,0,-0.005022,0.000558,0,0.000000,0.000000,0.000000,24.881973,4.126328,0.000000,0.003000,0.002000,0.000000,FlatInitial
03:27:33.281 PM 02/14/2016,Teleop Enabled,0,FALSE,0,NO ERROR,0.000000,0.000000,0.000000,0.000000,Speed,Speed,0.030000,1.140000,1.890000,0.000000,102.000000,1,0,-0.005022,0.000558,0,0.000000,0.000000,0.000000,24.881973,4.126328,0.000000,0.001000,0.000000,0.005000,FlatInitial
03:27:33.382 PM 02/14/2016,Teleop Enabled,0,FALSE,0,NO ERROR,0.000000,0.000000,0.000000,0.000000,Speed,Speed,0.030000,1.140000,1.880000,0.000000,101.000000,1,0,-0.005022,0.000558,0,0.000000,0.000000,0.000000,24.881973,4.126328,0.000000,0.001000,0.000000,0.005000,FlatInitial
03:27:33.482 PM 02/14/2016,Teleop Enabled,0,FALSE,0,NO ERROR,0.000000,0.000000,-6000.000000,-6000.000000,Speed,Speed,0.030000,1.140000,1.880000,1.000000,102.000000,1,0,-0.005022,0.000558,0,0.000000,0.000000,0.000000,24.881973,4.126328,0.000000,-0.002000,-0.002000,0.000000,FlatInitial
03:27:33.582 PM 02/14/2016,Teleop Enabled,0,FALSE,0,NO ERROR,-173.583984,153.662109,0.000000,0.000000,Speed,Speed,0.030000,1.150000,1.900000,2.000000,103.000000,1,0,-0.005022,0.000558,0,-0.006836,0.013397,0.000000,24.882019,4.126816,0.000000,-0.002000,-0.002000,0.000000,FlatInitial
03:27:33.682 PM 02/14/2016,Teleop Enabled,0,FALSE,0,NO ERROR,-1553.173828,1436.572266,0.000000,0.000000,Speed,Speed,0.030000,1.140000,1.950000,2.000000,101.000000,1,0,-0.005022,0.000558,0,-0.014633,0.022171,0.000000,24.881302,4.127625,0.000000,-0.001000,-0.009000,-0.028000,FlatInitial
03:27:33.783 PM 02/14/2016,Teleop Enabled,0,FALSE,0,NO ERROR,-1709.326172,1452.539062,0.000000,0.000000,Speed,Speed,0.030000,1.150000,1.950000,2.000000,101.000000,1,0,-0.005022,0.000558,0,-0.004257,0.000000,0.000000,24.880890,4.128296,0.000000,-0.026000,0.019000,-0.006000,FlatInitial
03:27:33.883 PM 02/14/2016,Teleop Enabled,0,FALSE,0,NO ERROR,-1483.154297,1137.597656,0.000000,0.000000,Speed,Speed,0.040000,1.140000,1.960000,2.000000,102.000000,1,0,-0.005022,0.000558,0,0.004181,0.000000,0.000000,24.880890,4.128296,0.000000,0.010000,-0.006000,-0.021000,FlatInitial
03:27:33.983 PM 02/14/2016,Teleop Enabled,0,FALSE,0,NO ERROR,-1223.583984,914.648437,0.000000,0.000000,Speed,Speed,0.040000,1.150000,1.970000,2.000000,100.000000,1,0,-0.005022,0.000558,0,-0.004944,0.000000,0.000000,24.880814,4.128296,0.000000,0.005000,0.008000,0.023000,FlatInitial
03:27:34.084 PM 02/14/2016,Teleop Enabled,0,FALSE,0,NO ERROR,-976.171875,641.601562,0.000000,0.000000,Speed,Speed,0.040000,1.150000,1.970000,2.000000,101.000000,1,0,-0.005022,0.000558,0,-0.004944,0.000000,0.000000,24.880814,4.128296,0.000000,0.005000,0.008000,0.023000,FlatInitial
03:27:34.184 PM 02/14/2016,Teleop Enabled,0,FALSE,0,NO ERROR,-757.177734,382.617188,0.000000,0.000000,Speed,Speed,0.040000,1.150000,1.960000,2.000000,104.000000,1,0,-0.005022,0.000558,0,0.000000,0.000000,0.000000,24.880753,4.128235,0.000000,0.003000,-0.004000,-0.046000,FlatInitial
03:27:34.284 PM 02/14/2016,Teleop Enabled,0,FALSE,0,NO ERROR,-536.425781,219.726562,0.000000,0.000000,Speed,Speed,0.040000,1.160000,1.950000,2.000000,103.000000,1,0,-0.005022,0.000558,0,0.000000,0.000000,0.000000,24.880753,4.128235,0.000000,-0.001000,-0.005000,-0.032000,FlatInitial
03:27:34.385 PM 02/14/2016,Teleop Enabled,0,FALSE,0,NO ERROR,-353.027344,219.726562,0.000000,0.000000,Speed,Speed,0.030000,1.150000,1.960000,2.000000,109.000000,1,0,-0.005022,0.000558,0,0.000000,0.000000,0.000000,24.880753,4.128235,0.000000,-0.006000,-0.008000,0.034000,FlatInitial
03:27:34.486 PM 02/14/2016,Teleop Enabled,0,FALSE,0,NO ERROR,-353.027344,-2.197266,0.000000,0.000000,Speed,Speed,0.040000,1.150000,1.930000,2.000000,104.000000,1,0,-0.005022,0.000558,0,0.000000,0.000000,0.000000,24.880753,4.128235,0.000000,0.000000,-0.001000,0.002000,FlatInitial
03:27:34.587 PM 02/14/2016,Teleop Enabled,0,FALSE,0,NO ERROR,-79.248047,-2.197266,0.000000,0.000000,Speed,Speed,0.030000,1.150000,1.950000,2.000000,102.000000,1,0,-0.005022,0.000558,0,0.000000,0.000000,0.000000,24.880753,4.128235,0.000000,0.002000,-0.001000,0.000000,FlatInitial
03:27:34.688 PM 02/14/2016,Teleop Enabled,0,FALSE,0,NO ERROR,-79.248047,0.000000,0.000000,0.000000,Speed,Speed,0.030000,1.150000,1.930000,2.000000,101.000000,1,0,-0.005022,0.000558,0,0.000000,0.000000,0.000000,24.880753,4.128235,0.000000,0.000000,-0.002000,0.001000,FlatInitial
03:27:34.789 PM 02/14/2016,Teleop Enabled,0,FALSE,0,NO ERROR,2.929688,0.000000,0.000000,0.000000,Speed,Speed,0.030000,1.150000,1.930000,3.000000,101.000000,1,0,-0.005022,0.000558,0,0.000000,0.000000,0.000000,24.880753,4.128235,0.000000,0.003000,0.000000,0.012000,FlatInitial
03:27:34.891 PM 02/14/2016,Teleop Enabled,0,FALSE,0,NO ERROR,1.171875,0.000000,4000.000000,4000.000000,Speed,Speed,0.030000,1.140000,1.990000,3.000000,101.000000,1,0,-0.005022,0.000558,0,-0.006119,0.000000,0.000000,24.880569,4.128235,0.000000,0.000000,0.000000,0.013000,FlatInitial
03:27:34.991 PM 02/14/2016,Teleop Enabled,0,FALSE,0,NO ERROR,413.818359,-173.730469,4000.000000,4000.000000,Speed,Speed,0.030000,1.140000,1.930000,3.000000,104.000000,1,0,-0.005022,0.000558,0,-0.006119,0.000000,0.000000,24.880569,4.128235,0.000000,-0.023000,-0.021000,0.031000,FlatInitial
03:27:35.091 PM 02/14/2016,Teleop Enabled,0,FALSE,0,NO ERROR,1825.927734,-1728.955078,4000.000000,4000.000000,Speed,Speed,0.040000,1.150000,1.950000,3.000000,104.000000,1,0,-0.005022,0.000558,0,0.010635,-0.015244,0.000000,24.880707,4.127670,0.000000,0.042000,-0.038000,-0.014000,FlatInitial
03:27:35.192 PM 02/14/2016,Teleop Enabled,0,FALSE,0,NO ERROR,3355.224609,-3160.839844,4000.000000,4000.000000,Speed,Speed,0.040000,1.150000,1.910000,3.000000,103.000000,1,0,-0.003968,0.000558,0,0.017242,-0.007874,0.000000,24.881775,4.127090,0.000000,-0.045000,-0.023000,-0.068000,FlatInitial
03:27:35.292 PM 02/14/2016,Teleop Enabled,0,FALSE,0,NO ERROR,4066.992187,-3781.640625,4000.000000,4000.000000,Speed,Speed,0.040000,1.150000,1.910000,3.000000,104.000000,1,0,-0.003968,0.000558,0,0.023682,-0.004532,0.000000,24.883438,4.126328,0.000000,-0.018000,0.088000,-0.090000,FlatInitial
03:27:35.391 PM 02/14/2016,Teleop Enabled,0,FALSE,0,NO ERROR,4208.789062,-3885.498047,4000.000000,4000.000000,Speed,Speed,0.040000,1.130000,1.940000,3.000000,101.000000,1,0,-0.005022,0.000558,0,0.023682,-0.004532,0.000000,24.883438,4.126328,0.000000,-0.008000,0.022000,0.012000,FlatInitial
03:27:35.491 PM 02/14/2016,Teleop Enabled,0,FALSE,0,NO ERROR,4162.207031,-3881.982422,4000.000000,4000.000000,Speed,Speed,0.040000,1.160000,1.880000,3.000000,101.000000,1,0,-0.005022,0.000558,0,0.010635,0.000000,0.000000,24.884384,4.125717,0.000000,0.001000,-0.007000,0.029000,FlatInitial
03:27:35.591 PM 02/14/2016,Teleop Enabled,0,FALSE,0,NO ERROR,4090.136719,-3894.873047,4000.000000,4000.000000,Speed,Speed,0.030000,1.140000,1.890000,3.000000,101.000000,1,0,-0.005022,0.000558,0,0.007126,0.007660,0.000000,24.884415,4.126022,0.000000,0.033000,-0.029000,0.098000,FlatInitial
03:27:35.691 PM 02/14/2016,Teleop Enabled,0,FALSE,0,NO ERROR,4052.050781,-3921.972656,4000.000000,4000.000000,Speed,Speed,0.030000,1.130000,1.790000,3.000000,103.000000,1,0,-0.005022,0.000558,0,0.009171,-0.012558,0.000000,24.884796,4.125702,0.000000,-0.051000,0.032000,-0.072000,FlatInitial
03:27:35.793 PM 02/14/2016,Teleop Enabled,0,FALSE,0,NO ERROR,4024.951172,-3951.269531,4000.000000,4000.000000,Speed,Speed,0.030000,1.140000,1.800000,3.000000,101.000000,1,0,-0.005022,0.000558,0,0.013733,0.000000,0.000000,24.885422,4.125565,0.000000,0.001000,-0.004000,0.003000,FlatInitial
03:27:35.893 PM 02/14/2016,Teleop Enabled,0,FALSE,0,NO ERROR,4017.187500,-3973.388672,4000.000000,4000.000000,Speed,Speed,0.040000,1.170000,1.840000,3.000000,101.000000,1,0,-0.005022,0.000558,0,0.022568,0.005310,0.000000,24.886246,4.125870,0.000000,0.031000,-0.022000,0.091000,FlatInitial
03:27:35.993 PM 02/14/2016,Teleop Enabled,0,FALSE,0,NO ERROR,4012.646484,-3984.082031,4000.000000,4000.000000,Speed,Speed,0.030000,1.180000,1.850000,3.000000,102.000000,1,0,-0.005022,0.000558,0,0.036575,0.000000,0.000000,24.887878,4.126053,0.000000,-0.035000,0.007000,-0.082000,FlatInitial
03:27:36.093 PM 02/14/2016,Teleop Enabled,0,FALSE,0,NO ERROR,4009.130859,-3994.921875,4000.000000,4000.000000,Speed,Speed,0.030000,1.210000,1.930000,3.000000,102.000000,1,0,-0.005022,0.000558,0,0.030548,-0.000748,0.000000,24.889526,4.126099,0.000000,-0.004000,0.026000,-0.019000,FlatInitial
03:27:36.193 PM 02/14/2016,Teleop Enabled,0,FALSE,0,NO ERROR,4007.812500,-4002.685547,4000.000000,4000.000000,Speed,Speed,0.040000,1.230000,2.040000,3.000000,100.000000,1,0,-0.005022,0.000558,0,0.000000,0.003967,0.000000,24.889664,4.126160,0.000000,-0.009000,0.021000,0.104000,FlatInitial
03:27:36.294 PM 02/14/2016,Teleop Enabled,0,FALSE,0,NO ERROR,4008.984375,-4007.812500,4000.000000,4000.000000,Speed,Speed,0.040000,1.210000,2.110000,3.000000,102.000000,1,0,-0.005022,0.000558,0,-0.003769,0.013809,0.000000,24.889618,4.126755,0.000000,-0.028000,-0.021000,-0.100000,FlatInitial
03:27:36.394 PM 02/14/2016,Teleop Enabled,0,FALSE,0,NO ERROR,4009.130859,-4011.767578,4000.000000,4000.000000,Speed,Speed,0.030000,1.220000,2.200000,3.000000,103.000000,1,0,-0.005022,0.000558,0,-0.014206,0.020172,0.000000,24.889099,4.127502,0.000000,-0.009000,-0.003000,0.022000,FlatInitial
03:27:36.495 PM 02/14/2016,Teleop Enabled,0,FALSE,0,NO ERROR,4006.787109,-4009.570312,4000.000000,4000.000000,Speed,Speed,0.040000,1.220000,2.220000,3.000000,102.000000,1,0,-0.005022,0.000558,0,-0.028656,0.000153,0.000000,24.887909,4.127747,0.000000,0.033000,0.034000,0.001000,FlatInitial
03:27:36.596 PM 02/14/2016,Teleop Enabled,0,FALSE,0,NO ERROR,4004.736328,-4008.544922,4000.000000,4000.000000,Speed,Speed,0.030000,1.190000,2.270000,3.000000,101.000000,1,0,-0.005022,0.000558,0,-0.037003,0.000076,0.000000,24.886307,4.127884,0.000000,-0.033000,-0.013000,-0.110000,FlatInitial
03:27:36.696 PM 02/14/2016,Teleop Enabled,0,FALSE,0,NO ERROR,4001.953125,-4009.716797,4000.000000,4000.000000,Speed,Speed,0.030000,1.170000,2.300000,3.000000,102.000000,1,0,-0.005022,0.000558,0,0.000000,-0.002213,0.000000,24.885544,4.127930,0.000000,0.015000,-0.013000,0.019000,FlatInitial
03:27:36.797 PM 02/14/2016,Teleop Enabled,0,FALSE,0,NO ERROR,4000.341797,-4012.060547,4000.000000,4000.000000,Speed,Speed,0.030000,1.150000,2.280000,3.000000,101.000000,1,0,-0.005022,0.000558,0,-0.017288,-0.014389,0.000000,24.884964,4.127640,0.000000,-0.008000,0.000000,0.033000,FlatInitial
03:27:36.897 PM 02/14/2016,Teleop Enabled,0,FALSE,0,NO ERROR,3997.998047,-4007.080078,4000.000000,4000.000000,Speed,Speed,0.040000,1.130000,2.220000,3.000000,101.000000,1,0,-0.005022,0.000558,0,0.000000,-0.037598,0.000000,24.884735,4.126205,0.000000,-0.008000,-0.001000,0.027000,FlatInitial
03:27:36.997 PM 02/14/2016,Teleop Enabled,0,FALSE,0,NO ERROR,3998.144531,-4001.953125,4000.000000,4000.000000,Speed,Speed,0.040000,1.110000,2.260000,3.000000,102.000000,1,0,-0.005022,0.000558,0,0.000000,0.006271,0.000000,24.884521,4.125961,0.000000,-0.012000,-0.016000,-0.116000,FlatInitial
03:27:37.097 PM 02/14/2016,Teleop Enabled,0,FALSE,0,NO ERROR,3999.462891,-3999.755859,4000.000000,4000.000000,Speed,Speed,0.040000,1.090000,2.240000,3.000000,100.000000,1,0,-0.005022,0.000558,0,0.000000,-0.008118,0.000000,24.884415,4.125748,0.000000,-0.017000,0.003000,0.040000,FlatInitial
03:27:37.197 PM 02/14/2016,Teleop Enabled,0,FALSE,0,NO ERROR,4000.048828,-3999.902344,4000.000000,4000.000000,Speed,Speed,0.040000,1.060000,2.260000,3.000000,104.000000,1,0,-0.005022,0.000558,0,0.000000,-0.027466,0.000000,24.884415,4.125000,0.000000,0.009000,0.001000,0.041000,FlatInitial
03:27:37.298 PM 02/14/2016,Teleop Enabled,0,FALSE,0,NO ERROR,4001.367187,-4003.417969,4000.000000,4000.000000,Speed,Speed,0.040000,1.030000,2.260000,3.000000,102.000000,1,0,-0.005022,0.000558,0,-0.006958,-0.046829,0.000000,24.884308,4.122696,0.000000,-0.001000,-0.027000,-0.103000,FlatInitial
03:27:37.398 PM 02/14/2016,Teleop Enabled,0,FALSE,0,NO ERROR,4003.271484,-4007.373047,4000.000000,4000.000000,Speed,Speed,0.040000,1.010000,2.240000,3.000000,101.000000,1,0,-0.005022,0.000558,0,-0.003296,-0.068924,0.000000,24.884109,4.119766,0.000000,0.004000,-0.041000,0.046000,FlatInitial
03:27:37.499 PM 02/14/2016,Teleop Enabled,0,FALSE,0,NO ERROR,4004.443359,-4011.035156,4000.000000,4000.000000,Speed,Speed,0.050000,0.980000,2.200000,3.000000,101.000000,1,0,-0.005022,0.000558,0,-0.006287,-0.095093,0.000000,24.883926,4.115540,0.000000,0.014000,-0.034000,0.033000,FlatInitial
03:27:37.598 PM 02/14/2016,Teleop Enabled,0,FALSE,0,NO ERROR,4005.322266,-4011.035156,4000.000000,4000.000000,Speed,Speed,0.050000,0.960000,2.150000,3.000000,102.000000,1,0,-0.005022,0.000558,0,0.004120,-0.113770,0.000000,24.883972,4.110275,0.000000,0.033000,-0.021000,-0.094000,FlatInitial
03:27:37.698 PM 02/14/2016,Teleop Enabled,0,FALSE,0,NO ERROR,4004.003906,-4007.226562,4000.000000,4000.000000,Speed,Speed,0.050000,0.960000,2.040000,3.000000,103.000000,1,0,-0.005022,0.000558,0,0.007080,-0.147034,0.000000,24.884354,4.103638,0.000000,-0.035000,-0.014000,0.069000,FlatInitial
03:27:37.799 PM 02/14/2016,Teleop Enabled,0,FALSE,0,NO ERROR,4002.685547,-4008.105469,4000.000000,4000.000000,Speed,Speed,0.050000,0.930000,1.950000,3.000000,100.000000,1,0,-0.005022,0.000558,0,0.000000,-0.178772,0.000000,24.884491,4.095291,0.000000,-0.006000,-0.002000,0.079000,FlatInitial
03:27:37.899 PM 02/14/2016,Teleop Enabled,0,FALSE,0,NO ERROR,4002.099609,-4009.863281,4000.000000,4000.000000,Speed,Speed,0.040000,0.940000,1.870000,3.000000,101.000000,1,0,-0.005022,0.000558,0,0.009369,-0.199936,0.000000,24.884781,4.085632,0.000000,0.029000,-0.023000,-0.100000,FlatInitial
03:27:37.999 PM 02/14/2016,Teleop Enabled,0,FALSE,0,NO ERROR,3999.902344,-4007.373047,4000.000000,4000.000000,Speed,Speed,0.040000,0.960000,1.770000,3.000000,101.000000,1,0,-0.005022,0.000558,0,0.019287,-0.228928,0.000000,24.885651,4.074707,0.000000,-0.018000,0.010000,0.114000,FlatInitial
03:27:38.100 PM 02/14/2016,Teleop Enabled,0,FALSE,0,NO ERROR,3998.730469,-4005.175781,4000.000000,4000.000000,Speed,Speed,0.050000,0.950000,1.660000,3.000000,101.000000,1,0,-0.005022,0.000558,0,-0.002518,-0.251282,0.000000,24.885590,4.064957,0.000000,-0.020000,-0.014000,0.094000,FlatInitial
03:27:38.199 PM 02/14/2016,Teleop Enabled,0,FALSE,0,NO ERROR,3996.826172,-4002.832031,4000.000000,4000.000000,Speed,Speed,0.040000,0.970000,1.530000,3.000000,102.000000,1,0,-0.005022,0.000558,0,0.000000,-0.014862,0.000000,24.885864,4.059311,0.000000,0.014000,-0.007000,-0.114000,FlatInitial
03:27:38.300 PM 02/14/2016,Teleop Enabled,0,FALSE,0,NO ERROR,3994.628906,-4000.195312,4000.000000,4000.000000,Speed,Speed,0.040000,0.980000,1.430000,3.000000,102.000000,1,0,-0.005022,0.000558,0,0.000000,-0.041901,0.000000,24.885864,4.057800,0.000000,-0.017000,-0.030000,0.087000,FlatInitial
03:27:38.401 PM 02/14/2016,Teleop Enabled,0,FALSE,0,NO ERROR,3997.412109,-3999.755859,4000.000000,4000.000000,Speed,Speed,0.040000,0.980000,1.280000,3.000000,104.000000,1,0,-0.005022,0.000558,0,0.010971,-0.074860,0.000000,24.886200,4.054749,0.000000,0.004000,-0.032000,0.034000,FlatInitial
03:27:38.502 PM 02/14/2016,Teleop Enabled,0,FALSE,0,NO ERROR,3996.972656,-3998.730469,4000.000000,4000.000000,Speed,Speed,0.040000,0.990000,1.210000,3.000000,103.000000,1,0,-0.005022,0.000558,0,0.001572,-0.094254,0.000000,24.886307,4.051254,0.000000,-0.010000,-0.001000,0.094000,FlatInitial
03:27:38.601 PM 02/14/2016,Teleop Enabled,0,FALSE,0,NO ERROR,3999.023437,-3999.462891,4000.000000,4000.000000,Speed,Speed,0.040000,1.010000,1.150000,3.000000,103.000000,1,0,-0.005022,0.000558,0,0.031021,0.000000,0.000000,24.887512,4.045303,0.000000,0.046000,-0.015000,-0.108000,FlatInitial
03:27:38.701 PM 02/14/2016,Teleop Enabled,0,FALSE,0,NO ERROR,3999.902344,-4000.341797,4000.000000,4000.000000,Speed,Speed,0.040000,1.000000,1.100000,3.000000,101.000000,1,0,-0.005022,0.000558,0,0.033875,-0.014450,0.000000,24.888840,4.044891,0.000000,0.001000,-0.067000,0.030000,FlatInitial
03:27:38.801 PM 02/14/2016,Teleop Enabled,0,FALSE,0,NO ERROR,4000.781250,-4002.392578,4000.000000,4000.000000,Speed,Speed,0.040000,1.030000,1.010000,3.000000,101.000000,1,0,-0.005022,0.000558,0,0.006180,-0.039185,0.000000,24.889893,4.043350,0.000000,0.058000,0.000000,-0.127000,FlatInitial
03:27:38.902 PM 02/14/2016,Teleop Enabled,0,FALSE,0,NO ERROR,4003.125000,-4004.882812,4000.000000,4000.000000,Speed,Speed,0.050000,1.030000,0.930000,3.000000,102.000000,1,0,-0.005022,0.000558,0,0.011520,-0.053940,0.000000,24.890274,4.041336,0.000000,-0.040000,-0.021000,0.086000,FlatInitial
03:27:39.003 PM 02/14/2016,Teleop Enabled,0,FALSE,0,NO ERROR,4004.589844,-4005.761719,4000.000000,4000.000000,Speed,Speed,0.040000,1.030000,0.880000,3.000000,102.000000,1,0,-0.005022,0.000558,0,0.008514,-0.007294,0.000000,24.890625,4.040009,0.000000,-0.017000,-0.052000,0.021000,FlatInitial
03:27:39.102 PM 02/14/2016,Teleop Enabled,0,FALSE,0,NO ERROR,4004.003906,-4004.150391,4000.000000,4000.000000,Speed,Speed,0.040000,1.040000,0.820000,3.000000,102.000000,1,0,-0.005022,0.000558,0,0.016083,0.000000,0.000000,24.891174,4.039169,0.000000,0.021000,-0.005000,-0.120000,FlatInitial
03:27:39.203 PM 02/14/2016,Teleop Enabled,0,FALSE,0,NO ERROR,4003.417969,-4003.271484,4000.000000,4000.000000,Speed,Speed,0.040000,1.060000,0.770000,3.000000,102.000000,1,0,-0.005022,0.000558,0,0.024567,-0.026855,0.000000,24.892502,4.038101,0.000000,0.033000,-0.021000,-0.136000,FlatInitial
03:27:39.303 PM 02/14/2016,Teleop Enabled,0,FALSE,0,NO ERROR,4003.857422,-4001.953125,4000.000000,4000.000000,Speed,Speed,0.040000,1.100000,0.720000,3.000000,101.000000,1,0,-0.005022,0.000558,0,0.037140,0.000000,0.000000,24.893723,4.037476,0.000000,0.041000,-0.015000,0.011000,FlatInitial
03:27:39.404 PM 02/14/2016,Teleop Enabled,0,FALSE,0,NO ERROR,4003.417969,-4000.634766,4000.000000,4000.000000,Speed,Speed,0.040000,1.120000,0.650000,3.000000,101.000000,1,0,-0.005022,0.000558,0,0.047546,0.000000,0.000000,24.895966,4.037170,0.000000,-0.034000,-0.041000,0.029000,FlatInitial
03:27:39.505 PM 02/14/2016,Teleop Enabled,0,FALSE,0,NO ERROR,4002.539062,-4000.048828,4000.000000,4000.000000,Speed,Speed,0.040000,1.140000,0.630000,3.000000,102.000000,1,0,-0.005022,0.000558,0,0.000000,-0.009125,0.000000,24.896851,4.036896,0.000000,-0.008000,0.025000,0.100000,FlatInitial
03:27:39.607 PM 02/14/2016,Teleop Enabled,0,FALSE,0,NO ERROR,4003.417969,-3999.462891,4000.000000,4000.000000,Speed,Speed,0.040000,1.160000,0.620000,3.000000,102.000000,1,0,-0.005022,0.000558,0,-0.003448,0.000397,0.000000,24.896805,4.036423,0.000000,0.004000,0.021000,0.070000,FlatInitial
03:27:39.707 PM 02/14/2016,Teleop Enabled,0,FALSE,0,NO ERROR,4005.029297,-3999.169922,4000.000000,4000.000000,Speed,Speed,0.040000,1.190000,0.620000,3.000000,102.000000,1,0,-0.005022,0.000558,0,0.008575,-0.003067,0.000000,24.896973,4.036362,0.000000,0.020000,-0.028000,-0.013000,FlatInitial
03:27:39.807 PM 02/14/2016,Teleop Enabled,0,FALSE,0,NO ERROR,4002.685547,-4000.634766,4000.000000,4000.000000,Speed,Speed,0.040000,1.210000,0.650000,3.000000,101.000000,1,0,-0.005022,0.000558,0,0.000000,0.000870,0.000000,24.897202,4.036346,0.000000,0.016000,0.000000,-0.098000,FlatInitial
03:27:39.907 PM 02/14/2016,Teleop Enabled,0,FALSE,0,NO ERROR,3998.437500,-4003.417969,4000.000000,4000.000000,Speed,Speed,0.040000,1.220000,0.680000,3.000000,101.000000,1,0,-0.005022,0.000558,0,0.007401,0.000000,0.000000,24.897385,4.036423,0.000000,0.009000,-0.003000,-0.020000,FlatInitial
03:27:40.007 PM 02/14/2016,Teleop Enabled,0,FALSE,0,NO ERROR,3995.361328,-4004.003906,4000.000000,4000.000000,Speed,Speed,0.040000,1.220000,0.720000,3.000000,104.000000,1,0,-0.005022,0.000558,0,0.030670,0.017181,0.000000,24.898468,4.036987,0.000000,0.020000,-0.007000,-0.019000,FlatInitial
03:27:40.107 PM 02/14/2016,Teleop Enabled,0,FALSE,0,NO ERROR,3994.189453,-4005.175781,4000.000000,4000.000000,Speed,Speed,0.040000,1.240000,0.790000,3.000000,101.000000,1,0,-0.005022,0.000558,0,0.000000,0.000000,0.000000,24.899216,4.037842,0.000000,0.005000,0.013000,0.089000,FlatInitial
03:27:40.207 PM 02/14/2016,Teleop Enabled,0,FALSE,0,NO ERROR,3994.628906,-4003.710937,4000.000000,4000.000000,Speed,Speed,0.040000,1.240000,0.830000,3.000000,102.000000,1,0,-0.005022,0.000558,0,-0.001480,-0.000656,0.000000,24.899002,4.037888,0.000000,-0.010000,-0.010000,0.007000,FlatInitial
03:27:40.307 PM 02/14/2016,Teleop Enabled,0,FALSE,0,NO ERROR,3995.800781,-4000.781250,4000.000000,4000.000000,Speed,Speed,0.040000,1.230000,0.840000,3.000000,101.000000,1,0,-0.005022,0.000558,0,0.004761,0.003510,0.000000,24.899200,4.037979,0.000000,0.013000,0.047000,0.045000,FlatInitial
03:27:40.407 PM 02/14/2016,Teleop Enabled,0,FALSE,0,NO ERROR,3995.800781,-3999.316406,4000.000000,4000.000000,Speed,Speed,0.040000,1.220000,0.900000,3.000000,103.000000,1,0,-0.005022,0.000558,0,-0.002975,0.007080,0.000000,24.899109,4.038254,0.000000,0.009000,-0.017000,-0.096000,FlatInitial
03:27:40.507 PM 02/14/2016,Teleop Enabled,0,FALSE,0,NO ERROR,3996.240234,-3997.119141,4000.000000,4000.000000,Speed,Speed,0.040000,1.230000,0.970000,3.000000,103.000000,1,0,-0.005022,0.000558,0,0.003525,0.018982,0.000000,24.899155,4.038986,0.000000,0.043000,0.028000,0.071000,FlatInitial
03:27:40.608 PM 02/14/2016,Teleop Enabled,0,FALSE,0,NO ERROR,3999.023437,-3994.482422,4000.000000,4000.000000,Speed,Speed,0.040000,1.220000,1.000000,3.000000,102.000000,1,0,-0.005022,0.000558,0,0.006470,0.025635,0.000000,24.899323,4.039963,0.000000,0.024000,0.048000,0.042000,FlatInitial
03:27:40.708 PM 02/14/2016,Teleop Enabled,0,FALSE,0,NO ERROR,4002.246094,-3992.578125,4000.000000,4000.000000,Speed,Speed,0.040000,1.200000,1.030000,3.000000,103.000000,1,0,-0.005022,0.000558,0,0.014572,0.028183,0.000000,24.899643,4.041199,0.000000,0.001000,-0.034000,-0.085000,FlatInitial
03:27:40.809 PM 02/14/2016,Teleop Enabled,0,FALSE,0,NO ERROR,4002.832031,-3995.361328,4000.000000,4000.000000,Speed,Speed,0.040000,1.220000,1.020000,3.000000,101.000000,1,0,-0.005022,0.000558,0,0.000000,0.031815,0.000000,24.900299,4.042847,0.000000,0.003000,0.053000,0.078000,FlatInitial
03:27:40.909 PM 02/14/2016,Teleop Enabled,0,FALSE,0,NO ERROR,4004.296875,-3998.876953,4000.000000,4000.000000,Speed,Speed,0.040000,1.190000,1.020000,3.000000,102.000000,1,0,-0.003038,0.000248,0,0.005341,0.034500,0.000000,24.900375,4.044189,0.000000,-0.008000,-0.008000,0.015000,FlatInitial
03:27:41.010 PM 02/14/2016,Teleop Enabled,0,FALSE,0,NO ERROR,4006.201172,-4002.685547,4000.000000,4000.000000,Speed,Speed,0.040000,1.210000,1.010000,3.000000,101.000000,1,0,-0.003038,0.000248,0,-0.008759,0.000000,0.000000,24.900284,4.044388,0.000000,0.004000,0.010000,-0.104000,FlatInitial
03:27:41.111 PM 02/14/2016,Teleop Enabled,0,FALSE,0,NO ERROR,4007.226562,-4006.787109,4000.000000,4000.000000,Speed,Speed,0.030000,1.220000,1.080000,3.000000,101.000000,1,0,-0.003038,0.000248,0,-0.000702,0.003494,0.000000,24.900162,4.044434,0.000000,0.035000,0.035000,0.053000,FlatInitial
03:27:41.212 PM 02/14/2016,Teleop Enabled,0,FALSE,0,NO ERROR,4007.812500,-4009.570312,4000.000000,4000.000000,Speed,Speed,0.030000,1.210000,1.170000,3.000000,102.000000,1,0,-0.003038,0.000248,0,-0.006760,0.017883,0.000000,24.899994,4.045090,0.000000,0.014000,-0.005000,-0.041000,FlatInitial
03:27:41.312 PM 02/14/2016,Teleop Enabled,0,FALSE,0,NO ERROR,4005.761719,-4010.742187,4000.000000,4000.000000,Speed,Speed,0.030000,1.190000,1.230000,3.000000,102.000000,1,0,-0.000992,0.000248,0,0.005615,0.033783,0.000000,24.900009,4.046432,0.000000,-0.009000,0.034000,-0.059000,FlatInitial
03:27:41.412 PM 02/14/2016,Teleop Enabled,0,FALSE,0,NO ERROR,4003.417969,-4008.398437,4000.000000,4000.000000,Speed,Speed,0.040000,1.220000,1.360000,3.000000,102.000000,1,0,-0.000992,0.000248,0,0.017212,0.074158,0.000000,24.900558,4.049362,0.000000,0.032000,0.060000,0.072000,FlatInitial
03:27:41.513 PM 02/14/2016,Teleop Enabled,0,FALSE,0,NO ERROR,4000.927734,-4007.958984,4000.000000,4000.000000,Speed,Speed,0.040000,1.230000,1.530000,3.000000,102.000000,1,0,-0.000992,0.000248,0,0.017502,0.113266,0.000000,24.901443,4.054367,0.000000,0.006000,0.037000,-0.039000,FlatInitial
03:27:41.615 PM 02/14/2016,Teleop Enabled,0,FALSE,0,NO ERROR,3995.507812,-4007.958984,4000.000000,4000.000000,Speed,Speed,0.030000,1.230000,1.660000,3.000000,103.000000,1,0,-0.000992,0.000248,0,0.016495,0.146881,0.000000,24.902374,4.060989,0.000000,-0.026000,0.031000,-0.065000,FlatInitial
03:27:41.715 PM 02/14/2016,Teleop Enabled,0,FALSE,0,NO ERROR,3994.189453,-4006.347656,4000.000000,4000.000000,Speed,Speed,0.040000,1.220000,1.740000,3.000000,102.000000,1,0,-0.000992,0.000248,0,0.000000,0.170486,0.000000,24.902908,4.069077,0.000000,0.000000,0.036000,0.092000,FlatInitial
03:27:41.815 PM 02/14/2016,Teleop Enabled,0,FALSE,0,NO ERROR,3994.189453,-4003.564453,4000.000000,4000.000000,Speed,Speed,0.040000,1.210000,1.820000,3.000000,101.000000,1,0,-0.000992,0.000248,0,-0.014679,0.192764,0.000000,24.902405,4.078262,0.000000,-0.010000,0.054000,0.082000,FlatInitial
03:27:41.916 PM 02/14/2016,Teleop Enabled,0,FALSE,0,NO ERROR,3994.628906,-3999.609375,4000.000000,4000.000000,Speed,Speed,0.040000,1.220000,1.890000,3.000000,101.000000,1,0,-0.000992,0.000248,0,-0.023712,0.216141,0.000000,24.901428,4.088486,0.000000,0.015000,-0.027000,-0.023000,FlatInitial
03:27:42.016 PM 02/14/2016,Teleop Enabled,0,FALSE,0,NO ERROR,3994.628906,-3995.800781,4000.000000,4000.000000,Speed,Speed,0.030000,1.200000,1.930000,3.000000,102.000000,1,0,-0.000992,0.000248,0,-0.021423,0.234650,0.000000,24.900070,4.102020,0.000000,-0.044000,-0.009000,-0.061000,FlatInitial
03:27:42.119 PM 02/14/2016,Teleop Enabled,0,FALSE,0,NO ERROR,3995.361328,-3995.214844,4000.000000,4000.000000,Speed,Speed,0.040000,1.230000,1.980000,3.000000,101.000000,1,0,-0.000992,0.000248,0,-0.022858,0.000000,0.000000,24.899200,4.109070,0.000000,0.017000,-0.019000,-0.048000,FlatInitial
03:27:42.219 PM 02/14/2016,Teleop Enabled,0,FALSE,0,NO ERROR,3996.533203,-3992.431641,4000.000000,4000.000000,Speed,Speed,0.030000,1.210000,2.030000,3.000000,102.000000,1,0,-0.000992,0.000248,0,-0.024475,0.015198,0.000000,24.898056,4.109528,0.000000,0.000000,-0.004000,-0.041000,FlatInitial
03:27:42.319 PM 02/14/2016,Teleop Enabled,0,FALSE,0,NO ERROR,3999.609375,-3992.431641,4000.000000,4000.000000,Speed,Speed,0.030000,1.200000,2.100000,3.000000,102.000000,1,0,-0.000992,0.000248,0,-0.023987,0.011459,0.000000,24.896774,4.109879,0.000000,-0.059000,-0.018000,-0.057000,FlatInitial
03:27:42.420 PM 02/14/2016,Teleop Enabled,0,FALSE,0,NO ERROR,4001.953125,-3994.775391,4000.000000,4000.000000,Speed,Speed,0.030000,1.220000,2.120000,3.000000,103.000000,1,0,-0.000992,0.000248,0,-0.007538,0.014343,0.000000,24.895966,4.110519,0.000000,-0.010000,0.031000,0.083000,FlatInitial
03:27:42.519 PM 02/14/2016,Teleop Enabled,0,FALSE,0,NO ERROR,4004.003906,-3997.998047,4000.000000,4000.000000,Speed,Speed,0.030000,1.200000,2.190000,3.000000,101.000000,1,0,-0.000992,0.000248,0,-0.007736,0.027710,0.000000,24.895569,4.111298,0.000000,0.002000,0.000000,-0.048000,FlatInitial
03:27:42.620 PM 02/14/2016,Teleop Enabled,0,FALSE,0,NO ERROR,4007.666016,-4005.468750,4000.000000,4000.000000,Speed,Speed,0.030000,1.220000,2.250000,3.000000,102.000000,1,0,-0.000992,0.000248,0,-0.007370,0.045822,0.000000,24.895035,4.113190,0.000000,-0.063000,0.004000,-0.050000,FlatInitial
03:27:42.720 PM 02/14/2016,Teleop Enabled,0,FALSE,0,NO ERROR,4010.302734,-4008.544922,4000.000000,4000.000000,Speed,Speed,0.030000,1.230000,2.350000,3.000000,101.000000,1,0,-0.000992,0.000248,0,-0.008194,0.070877,0.000000,24.894592,4.116150,0.000000,-0.031000,-0.011000,0.099000,FlatInitial
03:27:42.820 PM 02/14/2016,Teleop Enabled,0,FALSE,0,NO ERROR,4008.105469,-4009.716797,4000.000000,4000.000000,Speed,Speed,0.030000,1.220000,2.400000,3.000000,106.000000,1,0,-0.000992,0.000248,0,-0.025681,0.100647,0.000000,24.893509,4.121307,0.000000,0.026000,0.010000,-0.021000,FlatInitial
03:27:42.920 PM 02/14/2016,Teleop Enabled,0,FALSE,0,NO ERROR,4002.539062,-4007.080078,4000.000000,4000.000000,Speed,Speed,0.030000,1.220000,2.430000,3.000000,101.000000,1,0,-0.000992,0.000248,0,-0.026703,0.110794,0.000000,24.892319,4.126709,0.000000,-0.044000,0.039000,-0.057000,FlatInitial
03:27:43.020 PM 02/14/2016,Teleop Enabled,0,FALSE,0,NO ERROR,3999.169922,-4006.347656,4000.000000,4000.000000,Speed,Speed,0.040000,1.210000,2.490000,3.000000,102.000000,1,0,-0.000992,0.000248,0,-0.041885,0.127670,0.000000,24.890442,4.132797,0.000000,-0.029000,-0.024000,0.112000,FlatInitial
03:27:43.120 PM 02/14/2016,Teleop Enabled,0,FALSE,0,NO ERROR,3996.679687,-4005.322266,4000.000000,4000.000000,Speed,Speed,0.030000,1.200000,2.490000,3.000000,101.000000,1,0,-0.000992,0.000248,0,-0.054672,0.007950,0.000000,24.887924,4.135590,0.000000,0.014000,-0.007000,-0.036000,FlatInitial
03:27:43.220 PM 02/14/2016,Teleop Enabled,0,FALSE,0,NO ERROR,3994.921875,-4003.271484,4000.000000,4000.000000,Speed,Speed,0.030000,1.210000,2.470000,3.000000,104.000000,1,0,-0.000992,0.000248,0,-0.065399,0.004333,0.000000,24.884918,4.135971,0.000000,-0.056000,0.021000,-0.044000,FlatInitial
03:27:43.320 PM 02/14/2016,Teleop Enabled,0,FALSE,0,NO ERROR,3994.921875,-3999.023437,4000.000000,4000.000000,Speed,Speed,0.030000,1.210000,2.490000,3.000000,100.000000,1,0,-0.000992,0.000248,0,-0.076355,0.000000,0.000000,24.881332,4.136108,0.000000,-0.032000,0.053000,-0.040000,FlatInitial
03:27:43.421 PM 02/14/2016,Teleop Enabled,0,FALSE,0,NO ERROR,3996.533203,-3994.775391,4000.000000,4000.000000,Speed,Speed,0.030000,1.210000,2.480000,3.000000,101.000000,1,0,-0.000992,0.000248,0,-0.079193,0.015091,0.000000,24.877380,4.136627,0.000000,0.030000,-0.010000,-0.041000,FlatInitial
03:27:43.522 PM 02/14/2016,Teleop Enabled,0,FALSE,0,NO ERROR,3997.119141,-3992.431641,4000.000000,4000.000000,Speed,Speed,0.030000,1.220000,2.490000,3.000000,102.000000,1,0,-0.000992,0.000248,0,-0.091324,0.020813,0.000000,24.873215,4.137436,0.000000,-0.050000,0.050000,-0.061000,FlatInitial
03:27:43.622 PM 02/14/2016,Teleop Enabled,0,FALSE,0,NO ERROR,4000.341797,-3994.775391,4000.000000,4000.000000,Speed,Speed,0.030000,1.210000,2.520000,3.000000,100.000000,1,0,-0.000992,0.000248,0,-0.092514,0.030350,0.000000,24.868637,4.138855,0.000000,-0.043000,0.029000,-0.066000,FlatInitial
03:27:43.722 PM 02/14/2016,Teleop Enabled,0,FALSE,0,NO ERROR,4003.710937,-3995.654297,4000.000000,4000.000000,Speed,Speed,0.030000,1.220000,2.520000,3.000000,102.000000,1,0,-0.000992,0.000248,0,0.000000,0.054840,0.000000,24.863464,4.141357,0.000000,0.001000,0.016000,0.086000,FlatInitial
03:27:43.823 PM 02/14/2016,Teleop Enabled,0,FALSE,0,NO ERROR,4005.761719,-3997.119141,4000.000000,4000.000000,Speed,Speed,0.030000,1.210000,2.590000,3.000000,102.000000,1,0,-0.000992,0.000248,0,-0.013138,0.072205,0.000000,24.863129,4.144058,0.000000,0.037000,0.039000,-0.055000,FlatInitial
03:27:43.924 PM 02/14/2016,Teleop Enabled,0,FALSE,0,NO ERROR,4007.958984,-3997.851562,4000.000000,4000.000000,Speed,Speed,0.030000,1.200000,2.630000,3.000000,102.000000,1,0,-0.000992,0.000248,0,-0.022995,0.084625,0.000000,24.862167,4.148148,0.000000,-0.043000,0.042000,-0.027000,FlatInitial
03:27:44.024 PM 02/14/2016,Teleop Enabled,0,FALSE,0,NO ERROR,4004.882812,-4000.634766,4000.000000,4000.000000,Speed,Speed,0.030000,1.180000,2.600000,3.000000,102.000000,1,0,-0.000992,0.000248,0,-0.033203,0.105286,0.000000,24.860291,4.154022,0.000000,-0.029000,-0.023000,0.128000,FlatInitial
03:27:44.124 PM 02/14/2016,Teleop Enabled,0,FALSE,0,NO ERROR,4002.099609,-4006.347656,4000.000000,4000.000000,Speed,Speed,0.020000,1.170000,2.640000,3.000000,102.000000,1,0,-0.000992,0.000248,0,-0.046844,0.120605,0.000000,24.858322,4.159805,0.000000,0.024000,0.024000,-0.024000,FlatInitial
03:27:44.224 PM 02/14/2016,Teleop Enabled,0,FALSE,0,NO ERROR,4000.634766,-4007.958984,4000.000000,4000.000000,Speed,Speed,0.030000,1.150000,2.620000,3.000000,101.000000,1,0,-0.000992,0.000248,0,0.000000,0.114960,0.000000,24.856125,4.165604,0.000000,-0.016000,0.047000,-0.048000,FlatInitial
03:27:44.325 PM 02/14/2016,Teleop Enabled,0,FALSE,0,NO ERROR,3999.609375,-4007.666016,4000.000000,4000.000000,Speed,Speed,0.030000,1.140000,2.540000,3.000000,103.000000,1,0,-0.000992,0.000248,0,-0.007401,0.107880,0.000000,24.855942,4.171249,0.000000,-0.032000,-0.074000,0.135000,FlatInitial
03:27:44.425 PM 02/14/2016,Teleop Enabled,0,FALSE,0,NO ERROR,4000.634766,-4006.201172,4000.000000,4000.000000,Speed,Speed,0.030000,1.120000,2.520000,3.000000,101.000000,1,0,-0.000992,0.000248,0,-0.043594,0.107849,0.000000,24.854309,4.176544,0.000000,0.023000,0.017000,-0.073000,FlatInitial
03:27:44.526 PM 02/14/2016,Teleop Enabled,0,FALSE,0,NO ERROR,4000.927734,-4001.806641,4000.000000,4000.000000,Speed,Speed,0.030000,1.100000,2.500000,3.000000,100.000000,1,0,-0.000992,0.000248,0,-0.057159,0.092896,0.000000,24.851730,4.181427,0.000000,0.016000,0.022000,-0.055000,FlatInitial
03:27:44.627 PM 02/14/2016,Teleop Enabled,0,FALSE,0,NO ERROR,4001.806641,-3997.851562,4000.000000,4000.000000,Speed,Speed,0.030000,1.110000,2.440000,3.000000,101.000000,1,0,-0.000992,0.000248,0,-0.012863,0.086182,0.000000,24.851364,4.186066,0.000000,-0.035000,-0.068000,0.134000,FlatInitial
03:27:44.728 PM 02/14/2016,Teleop Enabled,0,FALSE,0,NO ERROR,4000.341797,-3992.285156,4000.000000,4000.000000,Speed,Speed,0.030000,1.070000,2.330000,3.000000,102.000000,1,0,-0.001550,0.000558,0,-0.026917,0.076462,0.000000,24.850250,4.190063,0.000000,0.035000,0.006000,-0.035000,FlatInitial
03:27:44.827 PM 02/14/2016,Teleop Enabled,0,FALSE,0,NO ERROR,3997.558594,-3988.623047,4000.000000,4000.000000,Speed,Speed,0.030000,1.080000,2.320000,3.000000,104.000000,1,0,-0.001550,0.000558,0,-0.037796,0.071304,0.000000,24.848709,4.193695,0.000000,-0.031000,0.063000,-0.047000,FlatInitial
03:27:44.927 PM 02/14/2016,Teleop Enabled,0,FALSE,0,NO ERROR,3995.800781,-3990.527344,4000.000000,4000.000000,Speed,Speed,0.030000,1.070000,2.300000,3.000000,100.000000,1,0,-0.001550,0.000558,0,-0.046799,0.080902,0.000000,24.846405,4.197647,0.000000,0.000000,-0.046000,0.128000,FlatInitial
03:27:45.028 PM 02/14/2016,Teleop Enabled,0,FALSE,0,NO ERROR,3995.068359,-3994.335937,4000.000000,4000.000000,Speed,Speed,0.030000,1.050000,2.280000,3.000000,102.000000,1,0,-0.001550,0.000558,0,-0.057953,0.087234,0.000000,24.843765,4.201767,0.000000,0.032000,0.027000,-0.048000,FlatInitial
03:27:45.127 PM 02/14/2016,Teleop Enabled,0,FALSE,0,NO ERROR,3994.775391,-3998.583984,4000.000000,4000.000000,Speed,Speed,0.030000,1.060000,2.290000,3.000000,103.000000,1,0,-0.001550,0.000558,0,-0.071167,0.086411,0.000000,24.840424,4.206009,0.000000,0.006000,0.009000,-0.027000,FlatInitial
03:27:45.228 PM 02/14/2016,Teleop Enabled,0,FALSE,0,NO ERROR,3997.412109,-4001.220703,4000.000000,4000.000000,Speed,Speed,0.030000,1.050000,2.260000,3.000000,103.000000,1,0,-0.001550,0.000558,0,-0.004135,0.092926,0.000000,24.839569,4.210678,0.000000,-0.019000,-0.051000,0.119000,FlatInitial
03:27:45.327 PM 02/14/2016,Teleop Enabled,0,FALSE,0,NO ERROR,3999.169922,-4001.806641,4000.000000,4000.000000,Speed,Speed,0.030000,1.040000,2.240000,3.000000,101.000000,1,0,-0.001550,0.000558,0,-0.018250,0.097260,0.000000,24.838882,4.215332,0.000000,0.051000,0.016000,-0.060000,FlatInitial
03:27:45.427 PM 02/14/2016,Teleop Enabled,0,FALSE,0,NO ERROR,4001.806641,-4002.685547,4000.000000,4000.000000,Speed,Speed,0.030000,1.020000,2.210000,3.000000,103.000000,1,0,-0.001550,0.000558,0,0.005386,0.109833,0.000000,24.838196,4.221298,0.000000,0.061000,0.043000,-0.060000,FlatInitial
03:27:45.527 PM 02/14/2016,Teleop Enabled,0,FALSE,0,NO ERROR,4003.857422,-4002.832031,4000.000000,4000.000000,Speed,Speed,0.030000,1.040000,2.200000,3.000000,101.000000,1,0,-0.001550,0.000558,0,0.000412,0.108948,0.000000,24.838364,4.225723,0.000000,-0.007000,0.027000,-0.022000,FlatInitial
03:27:45.628 PM 02/14/2016,Teleop Enabled,0,FALSE,0,NO ERROR,4006.054687,-4004.443359,4000.000000,4000.000000,Speed,Speed,0.040000,1.030000,2.140000,3.000000,101.000000,1,0,-0.001550,0.000558,0,-0.016724,0.100891,0.000000,24.837723,4.230835,0.000000,-0.043000,-0.087000,0.127000,FlatInitial
03:27:45.727 PM 02/14/2016,Teleop Enabled,0,FALSE,0,NO ERROR,4006.201172,-4005.468750,4000.000000,4000.000000,Speed,Speed,0.030000,1.020000,2.070000,3.000000,103.000000,1,0,-0.001550,0.000558,0,0.000000,0.074707,0.000000,24.836746,4.235779,0.000000,-0.018000,-0.038000,-0.060000,FlatInitial
03:27:45.829 PM 02/14/2016,Teleop Enabled,0,FALSE,0,NO ERROR,4005.029297,-4004.589844,4000.000000,4000.000000,Speed,Speed,0.040000,1.010000,1.940000,3.000000,100.000000,1,0,-0.001550,0.000558,0,-0.008804,0.046021,0.000000,24.836411,4.238602,0.000000,-0.024000,0.034000,-0.017000,FlatInitial
03:27:45.930 PM 02/14/2016,Teleop Enabled,0,FALSE,0,NO ERROR,4002.246094,-4000.781250,4000.000000,4000.000000,Speed,Speed,0.030000,1.020000,1.920000,3.000000,101.000000,1,0,-0.001550,0.000558,0,-0.005615,0.037033,0.000000,24.836197,4.240891,0.000000,-0.045000,-0.074000,0.149000,FlatInitial
03:27:46.031 PM 02/14/2016,Teleop Enabled,0,FALSE,0,NO ERROR,3999.609375,-4000.048828,4000.000000,4000.000000,Speed,Speed,0.040000,1.000000,1.800000,3.000000,102.000000,1,0,-0.001550,0.000558,0,-0.005447,0.023163,0.000000,24.835846,4.242218,0.000000,0.024000,-0.006000,-0.063000,FlatInitial
03:27:46.131 PM 02/14/2016,Teleop Enabled,0,FALSE,0,NO ERROR,3997.265625,-3995.947266,4000.000000,4000.000000,Speed,Speed,0.040000,1.000000,1.720000,3.000000,102.000000,1,0,-0.001550,0.000558,0,-0.004135,0.004028,0.000000,24.835693,4.242691,0.000000,0.026000,0.023000,-0.036000,FlatInitial
03:27:46.231 PM 02/14/2016,Teleop Enabled,0,FALSE,0,NO ERROR,3995.947266,-3995.068359,4000.000000,4000.000000,Speed,Speed,0.040000,1.010000,1.670000,3.000000,102.000000,1,0,-0.001550,0.000558,0,-0.007950,-0.004288,0.000000,24.835373,4.242706,0.000000,-0.027000,-0.062000,0.107000,FlatInitial
03:27:46.331 PM 02/14/2016,Teleop Enabled,0,FALSE,0,NO ERROR,3994.335937,-3994.335937,4000.000000,4000.000000,Speed,Speed,0.040000,0.990000,1.610000,3.000000,102.000000,1,0,-0.001550,0.000558,0,-0.019745,-0.009552,0.000000,24.834427,4.242325,0.000000,0.014000,0.000000,-0.093000,FlatInitial
03:27:46.432 PM 02/14/2016,Teleop Enabled,0,FALSE,0,NO ERROR,3993.896484,-3992.431641,4000.000000,4000.000000,Speed,Speed,0.040000,1.010000,1.580000,3.000000,104.000000,1,0,-0.001550,0.000558,0,-0.040222,-0.028107,0.000000,24.832947,4.241302,0.000000,-0.074000,0.023000,0.000000,FlatInitial
03:27:46.531 PM 02/14/2016,Teleop Enabled,0,FALSE,0,NO ERROR,3994.482422,-3990.673828,4000.000000,4000.000000,Speed,Speed,0.040000,1.000000,1.570000,3.000000,102.000000,1,0,-0.001550,0.000558,0,-0.059464,-0.031464,0.000000,24.830185,4.239853,0.000000,0.012000,0.059000,-0.044000,FlatInitial
03:27:46.631 PM 02/14/2016,Teleop Enabled,0,FALSE,0,NO ERROR,3996.826172,-3990.820312,4000.000000,4000.000000,Speed,Speed,0.040000,0.970000,1.540000,3.000000,102.000000,1,0,-0.001550,0.000558,0,-0.063812,-0.022064,0.000000,24.827026,4.238449,0.000000,0.012000,0.059000,-0.044000,FlatInitial
03:27:46.731 PM 02/14/2016,Teleop Enabled,0,FALSE,0,NO ERROR,4003.125000,-3993.750000,4000.000000,4000.000000,Speed,Speed,0.040000,0.980000,1.510000,3.000000,101.000000,1,0,-0.001550,0.000558,0,-0.063812,-0.022064,0.000000,24.827026,4.238449,0.000000,-0.030000,-0.064000,0.136000,FlatInitial
03:27:46.831 PM 02/14/2016,Teleop Enabled,0,FALSE,0,NO ERROR,4005.175781,-3993.603516,4000.000000,4000.000000,Speed,Speed,0.040000,0.950000,1.450000,3.000000,101.000000,1,0,-0.001550,0.000558,0,-0.003067,-0.020218,0.000000,24.825607,4.236923,0.000000,0.031000,0.050000,-0.063000,FlatInitial
03:27:46.932 PM 02/14/2016,Teleop Enabled,0,FALSE,0,NO ERROR,4006.201172,-3994.775391,4000.000000,4000.000000,Speed,Speed,0.040000,0.960000,1.420000,3.000000,102.000000,1,0,-0.001550,0.000558,0,-0.009064,-0.029449,0.000000,24.825256,4.235535,0.000000,-0.023000,0.034000,-0.019000,FlatInitial
03:27:47.031 PM 02/14/2016,Teleop Enabled,0,FALSE,0,NO ERROR,4007.226562,-3995.068359,4000.000000,4000.000000,Speed,Speed,0.040000,0.960000,1.370000,3.000000,102.000000,1,0,-0.001550,0.000558,0,-0.013062,-0.021149,0.000000,24.824707,4.234360,0.000000,0.000000,-0.068000,0.131000,FlatInitial
03:27:47.131 PM 02/14/2016,Teleop Enabled,0,FALSE,0,NO ERROR,4006.054687,-3996.386719,4000.000000,4000.000000,Speed,Speed,0.040000,0.950000,1.270000,3.000000,102.000000,1,0,-0.001550,0.000558,0,-0.019226,-0.010437,0.000000,24.823792,4.233826,0.000000,0.026000,-0.005000,-0.062000,FlatInitial
03:27:47.231 PM 02/14/2016,Teleop Enabled,0,FALSE,0,NO ERROR,4004.882812,-3997.558594,4000.000000,4000.000000,Speed,Speed,0.040000,0.950000,1.270000,3.000000,102.000000,1,0,-0.001550,0.000558,0,-0.029129,-0.033417,0.000000,24.822571,4.232590,0.000000,-0.023000,0.001000,-0.022000,FlatInitial
03:27:47.331 PM 02/14/2016,Teleop Enabled,0,FALSE,0,NO ERROR,4004.443359,-3997.705078,4000.000000,4000.000000,Speed,Speed,0.040000,0.960000,1.170000,3.000000,104.000000,1,0,-0.001550,0.000558,0,0.000000,-0.048660,0.000000,24.821960,4.230637,0.000000,0.005000,-0.057000,0.114000,FlatInitial
03:27:47.432 PM 02/14/2016,Teleop Enabled,0,FALSE,0,NO ERROR,4001.806641,-4001.367187,4000.000000,4000.000000,Speed,Speed,0.040000,0.980000,1.070000,3.000000,100.000000,1,0,-0.001550,0.000558,0,-0.002777,-0.054459,0.000000,24.821915,4.228027,0.000000,0.016000,0.026000,-0.057000,FlatInitial
03:27:47.533 PM 02/14/2016,Teleop Enabled,0,FALSE,0,NO ERROR,3999.169922,-4003.271484,4000.000000,4000.000000,Speed,Speed,0.040000,0.970000,1.010000,3.000000,101.000000,1,0,-0.001550,0.000558,0,0.013748,-0.001831,0.000000,24.822266,4.226913,0.000000,-0.009000,0.045000,-0.023000,FlatInitial
03:27:47.632 PM 02/14/2016,Teleop Enabled,0,FALSE,0,NO ERROR,3995.507812,-4005.029297,4000.000000,4000.000000,Speed,Speed,0.040000,0.970000,1.010000,3.000000,101.000000,1,0,-0.001550,0.000558,0,0.006134,0.004990,0.000000,24.822357,4.227127,0.000000,0.045000,-0.044000,0.110000,FlatInitial
03:27:47.732 PM 02/14/2016,Teleop Enabled,0,FALSE,0,NO ERROR,3994.482422,-4003.857422,4000.000000,4000.000000,Speed,Speed,0.030000,0.990000,0.930000,3.000000,103.000000,1,0,-0.001550,0.000558,0,0.004196,0.000000,0.000000,24.822693,4.227081,0.000000,-0.009000,-0.052000,0.114000,FlatInitial
03:27:47.833 PM 02/14/2016,Teleop Enabled,0,FALSE,0,NO ERROR,3995.214844,-4002.685547,4000.000000,4000.000000,Speed,Speed,0.030000,0.990000,0.850000,3.000000,100.000000,1,0,-0.001550,0.000558,0,0.000000,-0.013504,0.000000,24.822617,4.226654,0.000000,-0.017000,0.008000,-0.004000,FlatInitial
03:27:47.934 PM 02/14/2016,Teleop Enabled,0,FALSE,0,NO ERROR,3996.972656,-4001.220703,4000.000000,4000.000000,Speed,Speed,0.030000,0.980000,0.750000,3.000000,102.000000,1,0,-0.001550,0.000558,0,-0.006119,-0.025314,0.000000,24.822617,4.226044,0.000000,-0.005000,-0.002000,-0.023000,FlatInitial
03:27:48.035 PM 02/14/2016,Teleop Enabled,0,FALSE,0,NO ERROR,3999.169922,-3999.169922,4000.000000,4000.000000,Speed,Speed,0.030000,0.980000,0.670000,3.000000,103.000000,1,0,-0.001550,0.000558,0,0.002441,-0.011429,0.000000,24.822510,4.225281,0.000000,0.008000,-0.039000,0.105000,FlatInitial
03:27:48.135 PM 02/14/2016,Teleop Enabled,0,FALSE,0,NO ERROR,4002.246094,-3999.169922,4000.000000,4000.000000,Speed,Speed,0.030000,1.000000,0.650000,3.000000,103.000000,1,0,-0.001550,0.000558,0,0.000000,-0.004929,0.000000,24.822433,4.225052,0.000000,0.008000,0.037000,-0.018000,FlatInitial
03:27:48.239 PM 02/14/2016,Teleop Enabled,0,FALSE,0,NO ERROR,4003.710937,-4000.341797,4000.000000,4000.000000,Speed,Speed,0.030000,0.990000,0.580000,3.000000,102.000000,1,0,-0.001550,0.000558,0,0.000000,-0.013458,0.000000,24.822433,4.224518,0.000000,-0.003000,0.021000,-0.005000,FlatInitial
03:27:48.338 PM 02/14/2016,Teleop Enabled,0,FALSE,0,NO ERROR,4003.710937,-4001.367187,4000.000000,4000.000000,Speed,Speed,0.040000,1.010000,0.560000,3.000000,103.000000,1,0,-0.001550,0.000558,0,-0.001648,-0.014206,0.000000,24.822418,4.223892,0.000000,-0.027000,-0.036000,0.127000,FlatInitial
03:27:48.438 PM 02/14/2016,Teleop Enabled,0,FALSE,0,NO ERROR,4006.347656,-4001.367187,4000.000000,4000.000000,Speed,Speed,0.030000,0.990000,0.550000,3.000000,103.000000,1,0,-0.001550,0.000558,0,0.000000,-0.000076,0.000000,24.822327,4.223572,0.000000,-0.018000,-0.005000,-0.061000,FlatInitial
03:27:48.538 PM 02/14/2016,Teleop Enabled,0,FALSE,0,NO ERROR,4004.882812,-4000.634766,4000.000000,4000.000000,Speed,Speed,0.030000,1.010000,0.560000,3.000000,101.000000,1,0,-0.001550,0.000558,0,-0.011002,-0.007019,0.000000,24.822128,4.223404,0.000000,-0.026000,0.014000,-0.032000,FlatInitial
03:27:48.639 PM 02/14/2016,Teleop Enabled,0,FALSE,0,NO ERROR,4004.882812,-4001.074219,4000.000000,4000.000000,Speed,Speed,0.030000,1.030000,0.610000,3.000000,102.000000,1,0,-0.001550,0.000558,0,-0.015503,-0.003235,0.000000,24.821457,4.223114,0.000000,0.009000,0.003000,0.092000,FlatInitial
03:27:48.739 PM 02/14/2016,Teleop Enabled,0,FALSE,0,NO ERROR,4001.953125,-4000.781250,4000.000000,4000.000000,Speed,Speed,0.030000,1.050000,0.630000,3.000000,102.000000,1,0,-0.001550,0.000558,0,-0.002258,0.006516,0.000000,24.821136,4.223160,0.000000,-0.028000,0.012000,-0.077000,FlatInitial
03:27:48.840 PM 02/14/2016,Teleop Enabled,0,FALSE,0,NO ERROR,4001.074219,-3999.609375,4000.000000,4000.000000,Speed,Speed,0.030000,1.060000,0.670000,3.000000,100.000000,1,0,-0.001550,0.000558,0,0.000305,0.013504,0.000000,24.820969,4.223755,0.000000,-0.018000,0.003000,-0.059000,FlatInitial
03:27:48.941 PM 02/14/2016,Teleop Enabled,0,FALSE,0,NO ERROR,3999.755859,-4001.660156,4000.000000,4000.000000,Speed,Speed,0.030000,1.090000,0.710000,3.000000,100.000000,1,0,-0.001550,0.000558,0,0.000000,-0.003036,0.000000,24.821121,4.223862,0.000000,0.009000,0.007000,0.122000,FlatInitial
03:27:49.041 PM 02/14/2016,Teleop Enabled,0,FALSE,0,NO ERROR,3997.851562,-4000.488281,4000.000000,4000.000000,Speed,Speed,0.030000,1.100000,0.780000,3.000000,102.000000,1,0,-0.001550,0.000558,0,0.003250,0.029602,0.000000,24.821213,4.225143,0.000000,0.043000,0.007000,0.093000,FlatInitial
03:27:49.143 PM 02/14/2016,Teleop Enabled,0,FALSE,0,NO ERROR,3996.533203,-4000.634766,4000.000000,4000.000000,Speed,Speed,0.030000,1.120000,0.820000,3.000000,102.000000,1,0,-0.001550,0.000558,0,-0.001465,0.030457,0.000000,24.821289,4.226440,0.000000,-0.027000,0.045000,-0.028000,FlatInitial
03:27:49.244 PM 02/14/2016,Teleop Enabled,0,FALSE,0,NO ERROR,3994.628906,-4000.488281,4000.000000,4000.000000,Speed,Speed,0.030000,1.140000,0.870000,3.000000,102.000000,1,0,-0.001550,0.000558,0,-0.001419,0.003235,0.000000,24.821075,4.226852,0.000000,0.020000,0.025000,-0.039000,FlatInitial
03:27:49.344 PM 02/14/2016,Teleop Enabled,0,FALSE,0,NO ERROR,3993.750000,-4002.392578,4000.000000,4000.000000,Speed,Speed,0.020000,1.140000,0.870000,3.000000,102.000000,1,0,-0.001550,0.000558,0,-0.002426,0.006027,0.000000,24.820969,4.227036,0.000000,0.024000,0.003000,0.109000,FlatInitial
03:27:49.444 PM 02/14/2016,Teleop Enabled,0,FALSE,0,NO ERROR,3995.507812,-4003.710937,4000.000000,4000.000000,Speed,Speed,0.020000,1.150000,0.880000,3.000000,101.000000,1,0,-0.001550,0.000558,0,-0.004578,0.007065,0.000000,24.820816,4.227371,0.000000,0.018000,0.055000,-0.007000,FlatInitial
03:27:49.544 PM 02/14/2016,Teleop Enabled,0,FALSE,0,NO ERROR,3996.240234,-4004.882812,4000.000000,4000.000000,Speed,Speed,0.020000,1.160000,0.910000,3.000000,104.000000,1,0,-0.001550,0.000558,0,0.003387,0.004379,0.000000,24.820709,4.227692,0.000000,0.024000,0.031000,-0.001000,FlatInitial
03:27:49.644 PM 02/14/2016,Teleop Enabled,0,FALSE,0,NO ERROR,3999.316406,-4004.150391,4000.000000,4000.000000,Speed,Speed,0.020000,1.170000,0.870000,3.000000,101.000000,1,0,-0.001550,0.000558,0,0.020172,0.001999,0.000000,24.821442,4.227890,0.000000,0.028000,-0.005000,0.126000,FlatInitial
03:27:49.745 PM 02/14/2016,Teleop Enabled,0,FALSE,0,NO ERROR,4002.539062,-4001.660156,4000.000000,4000.000000,Speed,Speed,0.020000,1.180000,0.900000,3.000000,101.000000,1,0,-0.001550,0.000558,0,0.000000,0.005814,0.000000,24.822342,4.228165,0.000000,0.007000,-0.010000,-0.079000,FlatInitial
03:27:49.845 PM 02/14/2016,Teleop Enabled,0,FALSE,0,NO ERROR,4004.736328,-3998.583984,4000.000000,4000.000000,Speed,Speed,0.020000,1.200000,0.910000,3.000000,102.000000,1,0,-0.001550,0.000558,0,0.000000,0.004791,0.000000,24.822525,4.228271,0.000000,-0.026000,0.013000,-0.082000,FlatInitial
03:27:49.946 PM 02/14/2016,Teleop Enabled,0,FALSE,0,NO ERROR,4006.347656,-3998.876953,4000.000000,4000.000000,Speed,Speed,0.010000,1.240000,0.990000,3.000000,102.000000,1,0,-0.001550,0.000558,0,-0.006348,0.026733,0.000000,24.822327,4.229218,0.000000,0.002000,0.038000,-0.016000,FlatInitial
03:27:50.047 PM 02/14/2016,Teleop Enabled,0,FALSE,0,NO ERROR,4006.054687,-3999.462891,4000.000000,4000.000000,Speed,Speed,0.010000,1.240000,1.100000,3.000000,102.000000,1,0,-0.001550,0.000558,0,-0.006683,0.000000,0.000000,24.822098,4.231354,0.000000,0.004000,0.004000,0.090000,FlatInitial
03:27:50.148 PM 02/14/2016,Teleop Enabled,0,FALSE,0,NO ERROR,4006.347656,-4001.074219,4000.000000,4000.000000,Speed,Speed,0.010000,1.270000,1.170000,3.000000,101.000000,1,0,-0.001550,0.000558,0,0.002472,0.027039,0.000000,24.822113,4.232147,0.000000,-0.035000,0.021000,-0.060000,FlatInitial
03:27:50.248 PM 02/14/2016,Teleop Enabled,0,FALSE,0,NO ERROR,4005.468750,-4002.099609,4000.000000,4000.000000,Speed,Speed,0.010000,1.300000,1.300000,3.000000,101.000000,1,0,-0.001550,0.000558,0,0.010452,0.044632,0.000000,24.822510,4.233688,0.000000,0.032000,0.074000,-0.029000,FlatInitial
03:27:50.347 PM 02/14/2016,Teleop Enabled,0,FALSE,0,NO ERROR,4002.099609,-4004.150391,4000.000000,4000.000000,Speed,Speed,0.000000,1.320000,1.460000,3.000000,101.000000,1,0,-0.001550,0.000558,0,0.018921,0.012207,0.000000,24.823456,4.235077,0.000000,0.050000,0.019000,0.073000,FlatInitial
03:27:50.447 PM 02/14/2016,Teleop Enabled,0,FALSE,0,NO ERROR,3997.998047,-4006.933594,4000.000000,4000.000000,Speed,Speed,0.010000,1.320000,1.580000,3.000000,102.000000,1,0,-0.001550,0.000558,0,0.027420,0.029800,0.000000,24.824585,4.236130,0.000000,-0.013000,0.014000,-0.090000,FlatInitial
03:27:50.547 PM 02/14/2016,Teleop Enabled,0,FALSE,0,NO ERROR,3993.603516,-4007.666016,4000.000000,4000.000000,Speed,Speed,0.000000,1.360000,1.700000,3.000000,102.000000,1,0,-0.001550,0.000558,0,0.033340,0.056625,0.000000,24.826553,4.238861,0.000000,-0.020000,0.019000,-0.002000,FlatInitial
03:27:50.652 PM 02/14/2016,Teleop Enabled,0,FALSE,0,NO ERROR,3990.380859,-4004.882812,4000.000000,4000.000000,Speed,Speed,0.000000,1.350000,1.770000,3.000000,101.000000,1,0,-0.001550,0.000558,0,0.009506,0.008392,0.000000,24.827377,4.239059,0.000000,0.022000,-0.003000,0.101000,FlatInitial
03:27:50.748 PM 02/14/2016,Teleop Enabled,0,FALSE,0,NO ERROR,3990.673828,-4001.513672,4000.000000,4000.000000,Speed,Speed,0.000000,1.360000,1.800000,3.000000,101.000000,1,0,-0.001550,0.000558,0,0.016541,0.002640,0.000000,24.828171,4.239502,0.000000,-0.051000,0.021000,-0.074000,FlatInitial
