Time,RobotMode,AutoToRun,ErrorStatus, ErrorCode,ErrorSource,ActualRPM1,ActualRPM2,DesiredRPM1,DesiredRPM2,ControlMode1,ControlMode2,NavXYaw,NavXRoll,NavXPitch,ShooterState,LoopTime,IsLevel,IsAutoTargeting,LeftMotorOutput,RightMotorOutput,IsHaloDrive,NavXVelocityX,NavXVelocityY,NavXVelocityZ,NavXDisplacementX,NavXDisplacementY,NavXDisplacementZ,NavXAccelerationX,NavXAccelerationY,NavXAccelerationZ,AutoDefendState
09:06:43.763 PM 02/15/2016,Teleop Enabled,0,TRUE,91,Variant To Data in WPI_DigitalInputRefNum Registry Get.vi->Periodic Tasks.vi->Robot Main.vi,0.000000,0.000000,-6000.000000,-6000.000000,Speed,Speed,-0.150000,0.880000,-6.490000,1.000000,100.000000,0,0,-0.000000,0.000000,1,0.003937,0.003189,0.000000,0.000031,0.000046,0.000000,0.022000,-0.011000,-0.009000,FlatInitial
09:06:43.864 PM 02/15/2016,Teleop Enabled,0,TRUE,-44007,<LOCATION>WPI_DigitalInputRefNum Registry Get.vi<CALLSTACK>WPI_DigitalInputRefNum Registry Get.vi< <Periodic Tasks.vi< <Robot Main.vi,-41.162109,165.234375,-6000.000000,-6000.000000,Speed,Speed,-0.110000,0.950000,-6.230000,1.000000,102.000000,0,0,-0.000000,0.000000,1,0.000000,0.047226,0.000000,0.000443,0.000885,0.000000,-0.011000,0.096000,-0.124000,FlatInitial
09:06:43.965 PM 02/15/2016,Teleop Enabled,0,TRUE,-44003,<LOCATION>WPI_CameraIssue HTTP Request with Authentication.vi<CALLSTACK>WPI_CameraIssue HTTP Request with Authentication.vi< <WPI_CameraIssue Get.vi< <WPI_CameraSet Image Appearance Property.vi< <WPI_CameraSet Image Size.vi< <Vision Processing.vi< <Robot Main.vi,-1244.824219,1567.675781,-6000.000000,-6000.000000,Speed,Speed,-0.120000,0.980000,-5.570000,1.000000,101.000000,1,0,-0.000000,0.000000,1,0.000000,0.103699,0.000000,0.000275,0.004929,0.000000,-0.011000,0.096000,-0.124000,FlatInitial
09:06:44.066 PM 02/15/2016,Teleop Enabled,0,FALSE,0,NO ERROR,-3045.996094,2861.718750,-6000.000000,-6000.000000,Speed,Speed,-0.070000,0.910000,-4.740000,1.000000,101.000000,1,0,-0.000000,0.000000,1,0.017853,0.200821,0.000000,0.000732,0.011536,0.000000,-0.230000,-0.182000,0.344000,FlatInitial
09:06:44.166 PM 02/15/2016,Teleop Enabled,0,FALSE,0,NO ERROR,-4542.919922,4287.890625,-6000.000000,-6000.000000,Speed,Speed,0.000000,0.990000,-4.160000,1.000000,102.000000,1,0,-0.000000,0.000000,1,0.025543,0.153030,0.000000,0.000931,0.021423,0.000000,0.114000,-0.062000,-0.113000,FlatInitial
09:06:44.266 PM 02/15/2016,Teleop Enabled,0,FALSE,0,NO ERROR,-5519.531250,5366.601562,-6000.000000,-6000.000000,Speed,Speed,-0.020000,0.850000,-3.230000,1.000000,101.000000,1,0,-0.000000,0.000000,1,0.057053,0.185287,0.000000,0.002670,0.030136,0.000000,0.114000,-0.062000,-0.113000,FlatInitial
09:06:44.367 PM 02/15/2016,Teleop Enabled,0,FALSE,0,NO ERROR,-5944.921875,5877.539062,-6000.000000,-6000.000000,Speed,Speed,-0.080000,0.870000,-2.420000,1.000000,101.000000,1,0,-0.000000,0.000000,1,0.110580,0.148483,0.000000,0.007126,0.037933,0.000000,0.097000,-0.011000,0.095000,FlatInitial
09:06:44.468 PM 02/15/2016,Teleop Enabled,0,FALSE,0,NO ERROR,-6059.179688,5997.656250,-6000.000000,-6000.000000,Speed,Speed,0.020000,0.840000,-1.550000,1.000000,103.000000,1,0,-0.000000,0.000000,1,0.183975,0.118652,0.000000,0.014709,0.044876,0.000000,0.137000,-0.018000,0.053000,FlatInitial
09:06:44.569 PM 02/15/2016,Teleop Enabled,0,FALSE,0,NO ERROR,-6096.679688,6005.273438,-6000.000000,-6000.000000,Speed,Speed,0.030000,0.830000,-0.800000,1.000000,100.000000,1,0,-0.000000,0.000000,1,0.294662,0.129578,0.000000,0.027267,0.050659,0.000000,0.123000,0.055000,0.036000,FlatInitial
09:06:44.670 PM 02/15/2016,Teleop Enabled,0,FALSE,0,NO ERROR,-6084.375000,6000.585938,-6000.000000,-6000.000000,Speed,Speed,0.100000,0.820000,0.000000,1.000000,102.000000,1,0,-0.000000,0.000000,1,0.400543,0.195374,0.000000,0.044983,0.058838,0.000000,0.123000,0.055000,0.036000,FlatInitial
09:06:44.770 PM 02/15/2016,Teleop Enabled,0,FALSE,0,NO ERROR,-6068.554688,6002.343750,-6000.000000,-6000.000000,Speed,Speed,0.160000,0.760000,0.830000,1.000000,102.000000,1,0,-0.000000,0.000000,1,0.487564,0.011917,0.000000,0.067749,0.063202,0.000000,0.153000,0.112000,0.036000,FlatInitial
09:06:44.870 PM 02/15/2016,Teleop Enabled,0,FALSE,0,NO ERROR,-6056.835938,6013.476562,-6000.000000,-6000.000000,Speed,Speed,0.230000,0.830000,1.470000,1.000000,103.000000,1,0,-0.000000,0.000000,1,0.588577,0.009018,0.000000,0.095139,0.063950,0.000000,0.111000,0.057000,-0.032000,FlatInitial
09:06:44.970 PM 02/15/2016,Teleop Enabled,0,FALSE,0,NO ERROR,-6044.531250,6022.265625,-6000.000000,-6000.000000,Speed,Speed,0.230000,0.830000,1.470000,1.000000,103.000000,1,0,-0.000000,0.000000,1,0.664703,-0.047256,0.000000,0.126892,0.062836,0.000000,0.087000,-0.013000,0.035000,FlatInitial
09:06:45.074 PM 02/15/2016,Teleop Enabled,0,FALSE,0,NO ERROR,-6033.398438,6022.265625,-6000.000000,-6000.000000,Speed,Speed,0.540000,0.900000,2.430000,1.000000,101.000000,1,0,-0.000000,0.000000,1,0.765961,-0.202042,0.000000,0.163284,0.056030,0.000000,0.049000,-0.209000,0.177000,FlatInitial
09:06:45.175 PM 02/15/2016,Teleop Enabled,0,FALSE,0,NO ERROR,-6024.023438,6019.921875,-6000.000000,-6000.000000,Speed,Speed,0.570000,0.900000,1.780000,1.000000,102.000000,1,0,-0.000000,0.000000,1,0.807983,-0.352142,0.000000,0.202545,0.041168,0.000000,0.094000,-0.137000,-0.013000,FlatInitial
09:06:45.276 PM 02/15/2016,Teleop Enabled,0,FALSE,0,NO ERROR,-6014.648438,6020.507812,-6000.000000,-6000.000000,Speed,Speed,0.500000,0.980000,1.270000,1.000000,102.000000,1,0,-0.000000,0.000000,1,0.883484,-0.494965,0.000000,0.245056,0.019348,0.000000,0.094000,-0.137000,-0.013000,FlatInitial
09:06:45.377 PM 02/15/2016,Teleop Enabled,0,FALSE,0,NO ERROR,-6011.718750,6014.062500,-6000.000000,-6000.000000,Speed,Speed,0.480000,0.870000,1.290000,1.000000,101.000000,1,0,-0.000000,0.000000,1,0.920074,-0.637726,0.000000,0.290466,-0.009979,0.000000,0.039000,-0.161000,0.091000,FlatInitial
09:06:45.478 PM 02/15/2016,Teleop Enabled,0,FALSE,0,NO ERROR,-6008.789062,6005.273438,-6000.000000,-6000.000000,Speed,Speed,0.460000,0.820000,1.160000,1.000000,102.000000,1,0,-0.000000,0.000000,1,0.000000,-0.744644,0.000000,0.318420,-0.045227,0.000000,0.027000,-0.110000,-0.004000,FlatInitial
09:06:45.579 PM 02/15/2016,Teleop Enabled,0,FALSE,0,NO ERROR,-6012.304688,6008.203125,-6000.000000,-6000.000000,Speed,Speed,0.480000,0.770000,1.030000,1.000000,101.000000,1,0,-0.000000,0.000000,1,0.006516,-0.789520,0.000000,0.318771,-0.091965,0.000000,0.027000,-0.110000,-0.004000,FlatInitial
09:06:45.680 PM 02/15/2016,Teleop Enabled,0,FALSE,0,NO ERROR,-6017.578125,6014.648438,-6000.000000,-6000.000000,Speed,Speed,0.520000,0.710000,1.270000,1.000000,101.000000,1,0,-0.000000,0.000000,1,-0.003418,-0.762756,0.000000,0.318817,-0.130768,0.000000,0.009000,-0.041000,0.087000,FlatInitial
09:06:45.781 PM 02/15/2016,Teleop Enabled,0,FALSE,0,NO ERROR,-6019.921875,6019.921875,-6000.000000,-6000.000000,Speed,Speed,0.470000,0.680000,1.250000,1.000000,103.000000,1,0,-0.000000,0.000000,1,0.003754,-0.754486,0.000000,0.318665,-0.168549,0.000000,-0.047000,0.039000,0.021000,FlatInitial
09:06:45.881 PM 02/15/2016,Teleop Enabled,0,FALSE,0,NO ERROR,-6016.992188,6019.335938,-6000.000000,-6000.000000,Speed,Speed,0.440000,0.630000,1.430000,1.000000,102.000000,1,0,-0.000000,0.000000,1,0.003754,-0.754486,0.000000,0.318665,-0.168549,0.000000,-0.012000,0.037000,0.101000,FlatInitial
09:06:45.981 PM 02/15/2016,Teleop Enabled,0,FALSE,0,NO ERROR,-6014.648438,6018.750000,-6000.000000,-6000.000000,Speed,Speed,0.490000,0.660000,1.390000,1.000000,102.000000,1,0,-0.000000,0.000000,1,0.005280,-0.737244,0.000000,0.318924,-0.205811,0.000000,0.036000,0.046000,0.111000,FlatInitial
09:06:46.081 PM 02/15/2016,Teleop Enabled,0,FALSE,0,NO ERROR,-6011.132812,6020.507812,-6000.000000,-6000.000000,Speed,Speed,0.540000,0.730000,1.480000,1.000000,101.000000,1,0,-0.000000,0.000000,1,0.002182,-0.680878,0.000000,0.319229,-0.241425,0.000000,0.023000,0.148000,0.104000,FlatInitial
09:06:46.182 PM 02/15/2016,Teleop Enabled,0,FALSE,0,NO ERROR,-6002.929688,6015.820312,-6000.000000,-6000.000000,Speed,Speed,0.540000,0.730000,1.480000,1.000000,101.000000,1,0,-0.000000,0.000000,1,0.027557,-0.561890,0.000000,0.320801,-0.296066,0.000000,0.067000,0.068000,0.057000,FlatInitial
09:06:46.282 PM 02/15/2016,Teleop Enabled,0,FALSE,0,NO ERROR,-5998.828125,6018.750000,-6000.000000,-6000.000000,Speed,Speed,0.520000,0.640000,1.890000,1.000000,102.000000,1,0,-0.000000,0.000000,1,0.027557,-0.561890,0.000000,0.320801,-0.296066,0.000000,-0.095000,0.026000,0.017000,FlatInitial
09:06:46.384 PM 02/15/2016,Teleop Enabled,0,FALSE,0,NO ERROR,-5997.656250,6021.093750,-6000.000000,-6000.000000,Speed,Speed,0.520000,0.690000,1.910000,1.000000,101.000000,1,0,-0.000000,0.000000,1,0.119598,-0.395142,0.000000,0.328247,-0.348450,0.000000,0.031000,0.142000,0.019000,FlatInitial
09:06:46.484 PM 02/15/2016,Teleop Enabled,0,FALSE,0,NO ERROR,-5997.656250,6014.062500,-6000.000000,-6000.000000,Speed,Speed,0.540000,0.620000,2.420000,1.000000,103.000000,1,0,0.181102,-0.181102,1,0.119598,-0.395142,0.000000,0.328247,-0.348450,0.000000,0.076000,0.064000,0.040000,FlatInitial
09:06:46.584 PM 02/15/2016,Teleop Enabled,0,FALSE,0,NO ERROR,-5998.828125,6005.273438,-6000.000000,-6000.000000,Speed,Speed,-0.090000,0.710000,2.770000,1.000000,102.000000,1,0,0.204724,-0.204724,1,0.183197,-0.327896,0.000000,0.336212,-0.366089,0.000000,0.047000,0.078000,0.007000,FlatInitial
09:06:46.685 PM 02/15/2016,Teleop Enabled,0,FALSE,0,NO ERROR,-5993.554688,5994.726562,-6000.000000,-6000.000000,Speed,Speed,-0.090000,0.710000,2.770000,1.000000,101.000000,1,0,0.204724,-0.204724,1,0.410263,-0.163727,0.000000,0.367508,-0.390152,0.000000,0.083000,0.108000,0.001000,FlatInitial
09:06:46.786 PM 02/15/2016,Teleop Enabled,0,FALSE,0,NO ERROR,-5985.351562,5978.320312,-6000.000000,-6000.000000,Speed,Speed,-5.550000,1.100000,3.150000,1.000000,101.000000,1,0,0.204724,-0.204724,1,0.410263,-0.163727,0.000000,0.367508,-0.390152,0.000000,0.043000,0.035000,0.095000,FlatInitial
09:06:46.886 PM 02/15/2016,Teleop Enabled,0,FALSE,0,NO ERROR,-5981.250000,5970.703125,-6000.000000,-6000.000000,Speed,Speed,-5.550000,1.100000,3.150000,1.000000,102.000000,1,0,-0.000000,0.000000,1,0.440430,-0.104843,0.000000,0.389160,-0.396378,0.000000,0.066000,0.044000,-0.014000,FlatInitial
09:06:46.986 PM 02/15/2016,Teleop Enabled,0,FALSE,0,NO ERROR,-5985.937500,5988.281250,-6000.000000,-6000.000000,Speed,Speed,-8.920000,1.130000,3.210000,1.000000,102.000000,1,0,-0.000000,0.000000,1,0.420975,-0.050644,0.000000,0.411331,-0.399689,0.000000,-0.091000,0.017000,0.158000,FlatInitial
09:06:47.087 PM 02/15/2016,Teleop Enabled,0,FALSE,0,NO ERROR,-6004.687500,6009.960938,-6000.000000,-6000.000000,Speed,Speed,-11.060000,0.740000,3.070000,1.000000,102.000000,1,0,-0.291339,-0.291339,1,0.354797,0.019867,0.000000,0.433853,-0.400238,0.000000,-0.044000,0.026000,0.016000,FlatInitial
09:06:47.188 PM 02/15/2016,Teleop Enabled,0,FALSE,0,NO ERROR,-6011.132812,6021.093750,-6000.000000,-6000.000000,Speed,Speed,-11.660000,0.500000,5.030000,1.000000,102.000000,1,0,-0.291339,-0.291339,1,0.363525,0.052994,0.000000,0.448135,-0.398651,0.000000,-0.011000,0.003000,0.027000,FlatInitial
09:06:47.289 PM 02/15/2016,Teleop Enabled,0,FALSE,0,NO ERROR,-5997.656250,6000.000000,-6000.000000,-6000.000000,Speed,Speed,-11.660000,0.500000,5.030000,1.000000,101.000000,1,0,-0.291339,-0.291339,1,0.379272,0.245575,0.000000,0.466858,-0.390793,0.000000,-0.006000,0.229000,-0.220000,FlatInitial
09:06:47.390 PM 02/15/2016,Teleop Enabled,0,FALSE,0,NO ERROR,-5974.218750,5971.875000,-6000.000000,-6000.000000,Speed,Speed,-12.080000,0.650000,5.030000,1.000000,102.000000,1,0,-0.291339,-0.291339,1,0.383148,0.430557,0.000000,0.485596,-0.372360,0.000000,0.059000,0.185000,0.054000,FlatInitial
09:06:47.491 PM 02/15/2016,Teleop Enabled,0,FALSE,0,NO ERROR,-5968.945312,5963.085938,-6000.000000,-6000.000000,Speed,Speed,-13.640000,0.630000,5.830000,1.000000,103.000000,1,0,-0.291339,-0.291339,1,0.346634,0.628922,0.000000,0.520462,-0.316132,0.000000,-0.005000,0.088000,0.059000,FlatInitial
09:06:47.592 PM 02/15/2016,Teleop Enabled,0,FALSE,0,NO ERROR,-5980.078125,5973.632812,-6000.000000,-6000.000000,Speed,Speed,-13.640000,0.630000,5.830000,1.000000,101.000000,1,0,-0.291339,-0.291339,1,0.346634,0.628922,0.000000,0.520462,-0.316132,0.000000,0.000000,0.027000,0.173000,FlatInitial
09:06:47.692 PM 02/15/2016,Teleop Enabled,0,FALSE,0,NO ERROR,-5989.453125,5990.039062,-6000.000000,-6000.000000,Speed,Speed,-14.430000,0.620000,5.630000,1.000000,103.000000,1,0,-0.251969,-0.251969,1,-0.014511,0.604034,0.000000,0.523666,-0.285263,0.000000,-0.024000,-0.097000,0.001000,FlatInitial
09:06:47.793 PM 02/15/2016,Teleop Enabled,0,FALSE,0,NO ERROR,-6001.171875,6003.515625,-6000.000000,-6000.000000,Speed,Speed,-15.410000,0.660000,5.640000,1.000000,101.000000,1,0,-0.000000,0.000000,1,-0.031967,0.552063,0.000000,0.521698,-0.250473,0.000000,0.012000,-0.081000,0.083000,FlatInitial
09:06:47.896 PM 02/15/2016,Teleop Enabled,0,FALSE,0,NO ERROR,-6019.335938,6022.851562,-6000.000000,-6000.000000,Speed,Speed,-15.930000,0.600000,4.940000,1.000000,101.000000,1,0,-0.173228,0.173228,1,-0.018600,0.363159,0.000000,0.520279,-0.227036,0.000000,0.170000,-0.420000,0.175000,FlatInitial
09:06:47.996 PM 02/15/2016,Teleop Enabled,0,FALSE,0,NO ERROR,-6025.195312,6033.984375,-6000.000000,-6000.000000,Speed,Speed,-15.590000,0.240000,3.260000,1.000000,102.000000,1,0,-0.000000,0.000000,1,-0.031479,0.148254,0.000000,0.519211,-0.215332,0.000000,-0.009000,-0.219000,0.248000,FlatInitial
09:06:48.097 PM 02/15/2016,Teleop Enabled,0,FALSE,0,NO ERROR,-6012.890625,6024.609375,-6000.000000,-6000.000000,Speed,Speed,-11.650000,0.100000,2.390000,1.000000,101.000000,1,0,-0.000000,0.000000,1,0.125610,-0.020279,0.000000,0.520920,-0.213120,0.000000,0.318000,-0.194000,0.046000,FlatInitial
09:06:48.197 PM 02/15/2016,Teleop Enabled,0,FALSE,0,NO ERROR,-6021.679688,6027.539062,-6000.000000,-6000.000000,Speed,Speed,-9.180000,0.320000,2.700000,1.000000,102.000000,1,0,-0.000000,0.000000,1,0.234451,-0.144760,0.000000,0.531708,-0.217468,0.000000,-0.029000,-0.125000,-0.236000,FlatInitial
09:06:48.298 PM 02/15/2016,Teleop Enabled,0,FALSE,0,NO ERROR,-6030.468750,6026.367188,-6000.000000,-6000.000000,Speed,Speed,-7.690000,0.140000,1.460000,1.000000,102.000000,1,0,-0.000000,0.000000,1,0.255936,-0.229904,0.000000,0.543411,-0.227386,0.000000,0.161000,-0.069000,-0.022000,FlatInitial
09:06:48.398 PM 02/15/2016,Teleop Enabled,0,FALSE,0,NO ERROR,-6029.882812,6029.296875,-6000.000000,-6000.000000,Speed,Speed,-7.130000,0.460000,1.090000,1.000000,100.000000,1,0,0.181102,-0.181102,1,0.339996,-0.261444,0.000000,0.559387,-0.239716,0.000000,0.061000,0.007000,-0.156000,FlatInitial
09:06:48.499 PM 02/15/2016,Teleop Enabled,0,FALSE,0,NO ERROR,-6023.437500,6035.742188,-6000.000000,-6000.000000,Speed,Speed,-7.270000,0.430000,1.270000,1.000000,102.000000,1,0,0.196850,-0.196850,1,0.314423,-0.288589,0.000000,0.572647,-0.250778,0.000000,-0.053000,0.018000,-0.086000,FlatInitial
09:06:48.600 PM 02/15/2016,Teleop Enabled,0,FALSE,0,NO ERROR,-6012.304688,6024.023438,-6000.000000,-6000.000000,Speed,Speed,-7.810000,0.690000,1.240000,1.000000,102.000000,1,0,0.173228,-0.173228,1,0.323410,-0.249451,0.000000,0.587997,-0.264496,0.000000,0.060000,0.083000,-0.106000,FlatInitial
09:06:48.701 PM 02/15/2016,Teleop Enabled,0,FALSE,0,NO ERROR,-5994.726562,6004.687500,-6000.000000,-6000.000000,Speed,Speed,-10.880000,0.990000,1.550000,1.000000,105.000000,1,0,-0.000000,0.000000,1,0.307831,-0.201614,0.000000,0.606628,-0.277573,0.000000,-0.002000,-0.009000,-0.152000,FlatInitial
09:06:48.802 PM 02/15/2016,Teleop Enabled,0,FALSE,0,NO ERROR,-5976.562500,5997.070312,-6000.000000,-6000.000000,Speed,Speed,-13.560000,1.210000,1.790000,1.000000,102.000000,1,0,-0.000000,0.000000,1,0.319565,-0.024872,0.000000,0.618332,-0.282364,0.000000,-0.033000,0.144000,0.108000,FlatInitial
09:06:48.902 PM 02/15/2016,Teleop Enabled,0,FALSE,0,NO ERROR,-5967.187500,6001.171875,-6000.000000,-6000.000000,Speed,Speed,-15.840000,0.900000,2.290000,1.000000,102.000000,1,0,-0.000000,0.000000,1,0.248581,-0.052963,0.000000,0.632324,-0.283722,0.000000,0.001000,0.044000,-0.058000,FlatInitial
09:06:49.003 PM 02/15/2016,Teleop Enabled,0,FALSE,0,NO ERROR,-5972.460938,5986.523438,-6000.000000,-6000.000000,Speed,Speed,-16.300000,0.590000,3.160000,1.000000,101.000000,1,0,-0.000000,0.000000,1,0.175140,-0.051239,0.000000,0.643143,-0.286102,0.000000,-0.071000,-0.041000,-0.111000,FlatInitial
09:06:49.104 PM 02/15/2016,Teleop Enabled,0,FALSE,0,NO ERROR,-5981.250000,5954.882812,-6000.000000,-6000.000000,Speed,Speed,-16.110000,0.700000,3.360000,1.000000,102.000000,1,0,-0.000000,0.000000,1,0.141129,-0.064789,0.000000,0.650925,-0.289490,0.000000,-0.093000,0.133000,-0.087000,FlatInitial
09:06:49.204 PM 02/15/2016,Teleop Enabled,0,FALSE,0,NO ERROR,-5975.976562,5953.710938,-6000.000000,-6000.000000,Speed,Speed,-16.090000,0.660000,3.840000,1.000000,105.000000,1,0,-0.000000,0.000000,1,0.120697,-0.029144,0.000000,0.657852,-0.290497,0.000000,0.023000,-0.093000,0.012000,FlatInitial
09:06:49.305 PM 02/15/2016,Teleop Enabled,0,FALSE,0,NO ERROR,-5967.773438,5976.562500,-6000.000000,-6000.000000,Speed,Speed,-16.030000,0.610000,4.100000,1.000000,101.000000,1,0,-0.000000,0.000000,1,0.157944,-0.050415,0.000000,0.665237,-0.293472,0.000000,0.093000,0.008000,-0.019000,FlatInitial
09:06:49.406 PM 02/15/2016,Teleop Enabled,0,FALSE,0,NO ERROR,-5973.632812,6003.515625,-6000.000000,-6000.000000,Speed,Speed,-16.000000,0.540000,4.540000,1.000000,100.000000,1,0,-0.000000,0.000000,1,0.145859,-0.128876,0.000000,0.672958,-0.298325,0.000000,0.020000,-0.040000,-0.011000,FlatInitial
09:06:49.507 PM 02/15/2016,Teleop Enabled,0,FALSE,0,NO ERROR,-5986.523438,6025.195312,-6000.000000,-6000.000000,Speed,Speed,-15.990000,0.480000,4.570000,1.000000,102.000000,1,0,-0.000000,0.000000,1,0.102036,-0.155701,0.000000,0.679214,-0.305634,0.000000,-0.031000,-0.048000,0.086000,FlatInitial
09:06:49.607 PM 02/15/2016,Teleop Enabled,0,FALSE,0,NO ERROR,-5997.070312,6013.476562,-6000.000000,-6000.000000,Speed,Speed,-15.970000,0.360000,4.760000,1.000000,103.000000,1,0,-0.000000,0.000000,1,0.017242,0.006241,0.000000,0.682404,-0.308868,0.000000,-0.070000,0.049000,0.132000,FlatInitial
09:06:49.707 PM 02/15/2016,Teleop Enabled,0,FALSE,0,NO ERROR,-6004.101562,5989.453125,-6000.000000,-6000.000000,Speed,Speed,-15.960000,0.350000,5.260000,1.000000,101.000000,1,0,-0.000000,0.000000,1,-0.071548,0.071960,0.000000,0.680817,-0.306625,0.000000,-0.071000,0.110000,0.092000,FlatInitial
09:06:49.807 PM 02/15/2016,Teleop Enabled,0,FALSE,0,NO ERROR,-6005.859375,5977.734375,-6000.000000,-6000.000000,Speed,Speed,-15.940000,0.370000,5.650000,1.000000,101.000000,1,0,-0.000000,0.000000,1,-0.129440,0.122192,0.000000,0.675812,-0.301437,0.000000,-0.048000,0.088000,0.096000,FlatInitial
09:06:49.907 PM 02/15/2016,Teleop Enabled,0,FALSE,0,NO ERROR,-6006.445312,5983.007812,-6000.000000,-6000.000000,Speed,Speed,-15.930000,0.410000,5.980000,1.000000,103.000000,1,0,-0.000000,0.000000,1,-0.179108,0.154663,0.000000,0.668198,-0.294357,0.000000,-0.081000,0.047000,0.052000,FlatInitial
09:06:50.007 PM 02/15/2016,Teleop Enabled,0,FALSE,0,NO ERROR,-6001.757812,5990.039062,-6000.000000,-6000.000000,Speed,Speed,-15.910000,0.400000,6.360000,1.000000,101.000000,0,0,-0.000000,0.000000,1,-0.207809,0.000000,0.000000,0.658447,-0.288284,0.000000,-0.051000,0.001000,0.072000,FlatInitial
09:06:50.107 PM 02/15/2016,Teleop Enabled,0,FALSE,0,NO ERROR,-5995.898438,5992.382812,-6000.000000,-6000.000000,Speed,Speed,-15.880000,0.390000,6.710000,1.000000,101.000000,0,0,-0.000000,0.000000,1,-0.258011,-0.006546,0.000000,0.646652,-0.288284,0.000000,-0.018000,0.038000,-0.022000,FlatInitial
09:06:50.207 PM 02/15/2016,Teleop Enabled,0,FALSE,0,NO ERROR,-5992.382812,5991.210938,-6000.000000,-6000.000000,Speed,Speed,-15.860000,0.360000,7.250000,1.000000,101.000000,0,0,-0.000000,0.000000,1,-0.302719,0.010132,0.000000,0.632782,-0.287949,0.000000,0.012000,-0.010000,0.006000,FlatInitial
09:06:50.307 PM 02/15/2016,Teleop Enabled,0,FALSE,0,NO ERROR,-5991.210938,5987.109375,-6000.000000,-6000.000000,Speed,Speed,-15.830000,0.390000,7.690000,1.000000,101.000000,0,0,-0.000000,0.000000,1,-0.355423,-0.019226,0.000000,0.616577,-0.288239,0.000000,-0.129000,-0.076000,0.040000,FlatInitial
09:06:50.408 PM 02/15/2016,Teleop Enabled,0,FALSE,0,NO ERROR,-5988.281250,5994.726562,-6000.000000,-6000.000000,Speed,Speed,-15.810000,0.390000,8.100000,1.000000,102.000000,0,0,-0.000000,0.000000,1,-0.426834,-0.031113,0.000000,0.596893,-0.289566,0.000000,-0.065000,-0.046000,0.034000,FlatInitial
09:06:50.511 PM 02/15/2016,Teleop Enabled,0,FALSE,0,NO ERROR,-5992.382812,6002.343750,-6000.000000,-6000.000000,Speed,Speed,-15.790000,0.420000,8.480000,1.000000,102.000000,0,0,-0.000000,0.000000,1,-0.461090,-0.004883,0.000000,0.574631,-0.290985,0.000000,-0.037000,0.010000,-0.134000,FlatInitial
09:06:50.610 PM 02/15/2016,Teleop Enabled,0,FALSE,0,NO ERROR,-5994.726562,6008.789062,-6000.000000,-6000.000000,Speed,Speed,-15.780000,0.490000,8.720000,1.000000,100.000000,0,0,-0.000000,0.000000,1,-0.497787,-0.036057,0.000000,0.550583,-0.292175,0.000000,-0.055000,0.019000,-0.104000,FlatInitial
09:06:50.712 PM 02/15/2016,Teleop Enabled,0,FALSE,0,NO ERROR,-5997.070312,6016.992188,-6000.000000,-6000.000000,Speed,Speed,-15.770000,0.540000,8.970000,1.000000,101.000000,0,0,-0.000000,0.000000,1,-0.534134,-0.050140,0.000000,0.519699,-0.294998,0.000000,-0.120000,-0.048000,-0.008000,FlatInitial
09:06:50.812 PM 02/15/2016,Teleop Enabled,0,FALSE,0,NO ERROR,-6000.000000,6018.164062,-6000.000000,-6000.000000,Speed,Speed,-15.740000,0.540000,9.290000,1.000000,101.000000,0,0,-0.000000,0.000000,1,-0.571823,-0.068390,0.000000,0.497391,-0.297531,0.000000,-0.080000,-0.028000,0.012000,FlatInitial
09:06:50.912 PM 02/15/2016,Teleop Enabled,0,FALSE,0,NO ERROR,-6004.687500,6008.789062,-6000.000000,-6000.000000,Speed,Speed,-15.720000,0.540000,9.560000,1.000000,102.000000,0,0,-0.000000,0.000000,1,-0.626831,-0.063980,0.000000,0.467499,-0.301239,0.000000,-0.123000,-0.018000,-0.031000,FlatInitial
09:06:51.012 PM 02/15/2016,Teleop Enabled,0,FALSE,0,NO ERROR,-6010.546875,6001.171875,-6000.000000,-6000.000000,Speed,Speed,-15.690000,0.460000,9.880000,1.000000,100.000000,0,0,-0.000000,0.000000,1,-0.720154,0.000000,0.000000,0.433411,-0.301254,0.000000,-0.123000,-0.027000,0.028000,FlatInitial
09:06:51.112 PM 02/15/2016,Teleop Enabled,0,FALSE,0,NO ERROR,-6009.960938,5995.312500,-6000.000000,-6000.000000,Speed,Speed,-15.690000,0.510000,10.140000,1.000000,101.000000,0,0,-0.000000,0.000000,1,-0.778275,-0.001495,0.000000,0.395370,-0.301590,0.000000,-0.022000,0.072000,0.013000,FlatInitial
09:06:51.214 PM 02/15/2016,Teleop Enabled,0,FALSE,0,NO ERROR,-6004.687500,5988.281250,-6000.000000,-6000.000000,Speed,Speed,-15.660000,0.550000,10.350000,1.000000,105.000000,0,0,-0.000000,0.000000,1,-0.834106,-0.055511,0.000000,0.346634,-0.303680,0.000000,-0.037000,-0.135000,0.005000,FlatInitial
09:06:51.314 PM 02/15/2016,Teleop Enabled,0,FALSE,0,NO ERROR,-6001.171875,5990.039062,-6000.000000,-6000.000000,Speed,Speed,-15.650000,0.580000,10.530000,1.000000,101.000000,0,0,-0.000000,0.000000,1,-0.045731,-0.114471,0.000000,0.337448,-0.308289,0.000000,-0.049000,-0.128000,0.106000,FlatInitial
09:06:51.416 PM 02/15/2016,Teleop Enabled,0,FALSE,0,NO ERROR,-5994.140625,5999.414062,-6000.000000,-6000.000000,Speed,Speed,-15.620000,0.550000,10.830000,1.000000,102.000000,0,0,-0.000000,0.000000,1,-0.076035,-0.179962,0.000000,0.334778,-0.316162,0.000000,-0.063000,-0.134000,0.098000,FlatInitial
09:06:51.517 PM 02/15/2016,Teleop Enabled,0,FALSE,0,NO ERROR,-5990.039062,6007.031250,-6000.000000,-6000.000000,Speed,Speed,-15.610000,0.560000,11.040000,1.000000,101.000000,0,0,-0.000000,0.000000,1,-0.093613,-0.275558,0.000000,0.330597,-0.328201,0.000000,0.000000,-0.168000,0.056000,FlatInitial
09:06:51.617 PM 02/15/2016,Teleop Enabled,0,FALSE,0,NO ERROR,-5990.625000,6005.859375,-6000.000000,-6000.000000,Speed,Speed,-15.580000,0.540000,11.170000,1.000000,101.000000,0,0,-0.000000,0.000000,1,-0.130035,-0.375610,0.000000,0.325516,-0.345184,0.000000,-0.102000,-0.174000,0.090000,FlatInitial
09:06:51.718 PM 02/15/2016,Teleop Enabled,0,FALSE,0,NO ERROR,-5993.554688,6005.273438,-6000.000000,-6000.000000,Speed,Speed,-15.560000,0.540000,11.390000,1.000000,103.000000,0,0,-0.000000,0.000000,1,-0.173508,-0.467178,0.000000,0.318115,-0.366760,0.000000,-0.091000,-0.116000,0.086000,FlatInitial
09:06:51.818 PM 02/15/2016,Teleop Enabled,0,FALSE,0,NO ERROR,-5996.484375,6002.929688,-6000.000000,-6000.000000,Speed,Speed,-15.550000,0.550000,11.580000,1.000000,102.000000,0,0,-0.000000,0.000000,1,-0.215012,-0.584061,0.000000,0.308533,-0.393860,0.000000,-0.047000,-0.116000,0.052000,FlatInitial
09:06:51.920 PM 02/15/2016,Teleop Enabled,0,FALSE,0,NO ERROR,-5997.656250,6000.585938,-6000.000000,-6000.000000,Speed,Speed,-15.560000,0.610000,11.690000,1.000000,102.000000,0,0,-0.000000,0.000000,1,-0.231384,-0.659439,0.000000,0.297455,-0.425430,0.000000,-0.005000,-0.014000,0.056000,FlatInitial
09:06:52.021 PM 02/15/2016,Teleop Enabled,0,FALSE,0,NO ERROR,-5999.414062,6001.757812,-6000.000000,-6000.000000,Speed,Speed,-15.520000,0.610000,11.970000,1.000000,102.000000,0,0,-0.000000,0.000000,1,-0.046967,-0.727859,0.000000,0.296219,-0.460358,0.000000,0.001000,-0.044000,0.071000,FlatInitial
09:06:52.122 PM 02/15/2016,Teleop Enabled,0,FALSE,0,NO ERROR,-6004.687500,6005.859375,-6000.000000,-6000.000000,Speed,Speed,-15.520000,0.700000,12.400000,1.000000,100.000000,0,0,-0.000000,0.000000,1,-0.048965,-0.794556,0.000000,0.294281,-0.498566,0.000000,0.043000,0.069000,0.166000,FlatInitial
09:06:52.223 PM 02/15/2016,Teleop Enabled,0,FALSE,0,NO ERROR,-6007.031250,6006.445312,-6000.000000,-6000.000000,Speed,Speed,-15.510000,0.800000,12.690000,1.000000,101.000000,0,0,-0.000000,0.000000,1,0.000000,-0.814240,0.000000,0.292786,-0.538589,0.000000,0.053000,0.069000,0.034000,FlatInitial
09:06:52.324 PM 02/15/2016,Teleop Enabled,0,FALSE,0,NO ERROR,-6004.687500,6007.617188,-6000.000000,-6000.000000,Speed,Speed,-15.490000,0.860000,13.140000,1.000000,104.000000,0,0,-0.000000,0.000000,1,-0.005402,0.000000,0.000000,0.292969,-0.570496,0.000000,0.037000,0.053000,0.032000,FlatInitial
09:06:52.424 PM 02/15/2016,Teleop Disabled,0,FALSE,0,NO ERROR,-6000.000000,5997.070312,-6000.000000,-6000.000000,Speed,Speed,-15.470000,0.910000,13.590000,1.000000,102.000000,0,0,-0.000000,0.000000,1,-0.002823,-0.016190,0.000000,0.293015,-0.570480,0.000000,-0.018000,0.056000,0.000000,FlatInitial
09:06:52.524 PM 02/15/2016,Teleop Disabled,0,FALSE,0,NO ERROR,-5813.671875,5752.148438,-6000.000000,-6000.000000,Speed,Speed,-15.430000,0.900000,14.000000,1.000000,100.000000,0,0,-0.000000,0.000000,1,0.002365,-0.007629,0.000000,0.292664,-0.570770,0.000000,0.027000,0.032000,-0.014000,FlatInitial
09:06:52.625 PM 02/15/2016,Teleop Disabled,0,FALSE,0,NO ERROR,-5433.984375,5216.601562,-6000.000000,-6000.000000,Speed,Speed,-15.460000,0.920000,13.800000,1.000000,102.000000,0,0,-0.000000,0.000000,1,0.041977,-0.108826,0.000000,0.294327,-0.573593,0.000000,-0.038000,-0.057000,0.015000,FlatInitial
09:06:52.726 PM 02/15/2016,Teleop Disabled,0,FALSE,0,NO ERROR,-4888.476562,5216.601562,-6000.000000,-6000.000000,Speed,Speed,-15.510000,0.870000,12.840000,1.000000,103.000000,0,0,-0.000000,0.000000,1,0.016251,-0.105499,0.000000,0.295578,-0.578293,0.000000,0.059000,-0.542000,-0.232000,FlatInitial
09:06:52.826 PM 02/15/2016,Teleop Disabled,0,FALSE,0,NO ERROR,-4307.080078,4358.935547,-6000.000000,-6000.000000,Speed,Speed,-15.420000,0.580000,12.970000,1.000000,101.000000,0,0,-0.000000,0.000000,1,0.102539,-0.166031,0.000000,0.297806,-0.588791,0.000000,0.165000,-0.043000,0.212000,FlatInitial
09:06:52.928 PM 02/15/2016,Teleop Disabled,0,FALSE,0,NO ERROR,-3819.287109,3435.644531,-6000.000000,-6000.000000,Speed,Speed,-15.540000,0.790000,12.350000,1.000000,102.000000,0,0,-0.000000,0.000000,1,0.076248,-0.006134,0.000000,0.303696,-0.591019,0.000000,-0.227000,0.130000,0.052000,FlatInitial
09:06:53.028 PM 02/15/2016,Teleop Disabled,0,FALSE,0,NO ERROR,-3819.287109,2706.591797,-6000.000000,-6000.000000,Speed,Speed,-15.500000,0.710000,12.250000,1.000000,101.000000,0,0,-0.000000,0.000000,1,0.045013,0.060074,0.000000,0.305481,-0.588379,0.000000,0.198000,-0.249000,-0.292000,FlatInitial
09:06:53.130 PM 02/15/2016,Teleop Disabled,0,FALSE,0,NO ERROR,-3469.482422,1868.554687,-6000.000000,-6000.000000,Speed,Speed,-15.470000,0.650000,12.370000,1.000000,101.000000,0,0,-0.000000,0.000000,1,0.053711,0.072617,0.000000,0.308624,-0.586609,0.000000,-0.062000,0.045000,0.250000,FlatInitial
09:06:53.230 PM 02/15/2016,Teleop Disabled,0,FALSE,0,NO ERROR,-3139.599609,451.318359,-6000.000000,-6000.000000,Speed,Speed,-15.510000,0.760000,12.390000,1.000000,101.000000,0,0,-0.000000,0.000000,1,0.076630,0.084335,0.000000,0.312302,-0.583130,0.000000,-0.017000,0.043000,0.030000,FlatInitial
09:06:53.331 PM 02/15/2016,Teleop Disabled,0,FALSE,0,NO ERROR,-2816.601562,-8.496094,-6000.000000,-6000.000000,Speed,Speed,-15.520000,0.800000,12.480000,1.000000,102.000000,0,0,-0.000000,0.000000,1,0.000000,0.005676,0.000000,0.314728,-0.581039,0.000000,-0.019000,0.012000,-0.018000,FlatInitial
09:06:53.431 PM 02/15/2016,Teleop Disabled,0,FALSE,0,NO ERROR,-2496.826172,-0.146484,-6000.000000,-6000.000000,Speed,Speed,-15.510000,0.820000,12.570000,1.000000,102.000000,0,0,-0.000000,0.000000,1,-0.015396,0.025238,0.000000,0.314301,-0.580200,0.000000,-0.038000,0.008000,0.013000,FlatInitial
09:06:53.532 PM 02/15/2016,Teleop Disabled,0,FALSE,0,NO ERROR,-2254.687500,0.000000,-6000.000000,-6000.000000,Speed,Speed,-15.500000,0.820000,12.670000,1.000000,102.000000,0,0,-0.000000,0.000000,1,-0.030594,0.047897,0.000000,0.312958,-0.578186,0.000000,0.014000,-0.019000,-0.001000,FlatInitial
09:06:53.632 PM 02/15/2016,Teleop Disabled,0,FALSE,0,NO ERROR,-1962.304687,-0.146484,-6000.000000,-6000.000000,Speed,Speed,-15.480000,0.800000,12.760000,1.000000,104.000000,0,0,-0.000000,0.000000,1,0.001831,0.068207,0.000000,0.311890,-0.575211,0.000000,0.031000,0.025000,0.014000,FlatInitial
09:06:53.733 PM 02/15/2016,Teleop Disabled,0,FALSE,0,NO ERROR,-1674.316406,-0.146484,-6000.000000,-6000.000000,Speed,Speed,-15.480000,0.820000,12.830000,1.000000,101.000000,0,0,-0.000000,0.000000,1,0.004822,0.022263,0.000000,0.311996,-0.574097,0.000000,0.034000,0.054000,0.032000,FlatInitial
09:06:53.833 PM 02/15/2016,Teleop Disabled,0,FALSE,0,NO ERROR,-1399.658203,-0.146484,-6000.000000,-6000.000000,Speed,Speed,-15.490000,0.850000,12.900000,1.000000,101.000000,0,0,-0.000000,0.000000,1,0.004395,0.041336,0.000000,0.312088,-0.572296,0.000000,-0.031000,0.044000,0.013000,FlatInitial
09:06:53.934 PM 02/15/2016,Teleop Disabled,0,FALSE,0,NO ERROR,-1138.623047,0.000000,-6000.000000,-6000.000000,Speed,Speed,-15.490000,0.860000,12.970000,1.000000,102.000000,0,0,-0.000000,0.000000,1,0.000000,0.000000,0.000000,0.312027,-0.571304,0.000000,-0.013000,-0.032000,0.007000,FlatInitial
09:06:54.034 PM 02/15/2016,Teleop Disabled,0,FALSE,0,NO ERROR,-915.087891,0.000000,-6000.000000,-6000.000000,Speed,Speed,-15.480000,0.850000,13.040000,1.000000,100.000000,0,0,-0.000000,0.000000,1,0.000000,0.001877,0.000000,0.312027,-0.571289,0.000000,-0.018000,0.029000,0.001000,FlatInitial
09:06:54.134 PM 02/15/2016,Teleop Disabled,0,FALSE,0,NO ERROR,-734.326172,0.000000,-6000.000000,-6000.000000,Speed,Speed,-15.480000,0.840000,13.100000,1.000000,102.000000,0,0,-0.000000,0.000000,1,0.000000,0.017303,0.000000,0.312027,-0.570618,0.000000,-0.008000,-0.004000,0.010000,FlatInitial
09:06:54.234 PM 02/15/2016,Teleop Disabled,0,FALSE,0,NO ERROR,-549.462891,0.000000,-6000.000000,-6000.000000,Speed,Speed,-15.460000,0.840000,13.160000,1.000000,101.000000,0,0,-0.000000,0.000000,1,0.000000,0.027863,0.000000,0.312027,-0.569656,0.000000,-0.009000,0.003000,-0.006000,FlatInitial
09:06:54.334 PM 02/15/2016,Teleop Disabled,0,FALSE,0,NO ERROR,-370.312500,0.000000,-6000.000000,-6000.000000,Speed,Speed,-15.460000,0.840000,13.210000,1.000000,102.000000,0,0,-0.000000,0.000000,1,0.000000,0.006866,0.000000,0.312027,-0.568939,0.000000,-0.003000,0.002000,0.009000,FlatInitial
09:06:54.434 PM 02/15/2016,Teleop Disabled,0,FALSE,0,NO ERROR,-254.882812,0.000000,-6000.000000,-6000.000000,Speed,Speed,-15.460000,0.840000,13.260000,1.000000,102.000000,0,0,-0.000000,0.000000,1,0.000000,0.000000,0.000000,0.312027,-0.568863,0.000000,0.000000,0.006000,0.007000,FlatInitial
09:06:54.534 PM 02/15/2016,Teleop Disabled,0,FALSE,0,NO ERROR,-85.693359,0.000000,-6000.000000,-6000.000000,Speed,Speed,-15.450000,0.840000,13.300000,1.000000,101.000000,0,0,-0.000000,0.000000,1,0.000000,0.000000,0.000000,0.312027,-0.568863,0.000000,0.001000,0.011000,0.011000,FlatInitial
09:06:54.634 PM 02/15/2016,Teleop Disabled,0,FALSE,0,NO ERROR,27.099609,0.000000,-6000.000000,-6000.000000,Speed,Speed,-15.450000,0.830000,13.350000,1.000000,102.000000,0,0,-0.000000,0.000000,1,0.000000,0.000000,0.000000,0.312027,-0.568863,0.000000,-0.002000,0.011000,0.003000,FlatInitial
09:06:54.734 PM 02/15/2016,Teleop Disabled,0,FALSE,0,NO ERROR,50.537109,0.000000,-6000.000000,-6000.000000,Speed,Speed,-15.450000,0.820000,13.390000,1.000000,100.000000,0,0,-0.000000,0.000000,1,0.000000,0.000000,0.000000,0.312027,-0.568863,0.000000,-0.004000,0.011000,0.008000,FlatInitial
09:06:54.834 PM 02/15/2016,Teleop Disabled,0,FALSE,0,NO ERROR,46.289062,0.000000,-6000.000000,-6000.000000,Speed,Speed,-15.440000,0.820000,13.430000,1.000000,101.000000,0,0,-0.000000,0.000000,1,0.000000,0.000000,0.000000,0.312027,-0.568863,0.000000,0.001000,0.007000,0.008000,FlatInitial
09:06:54.934 PM 02/15/2016,Teleop Disabled,0,FALSE,0,NO ERROR,12.744141,0.000000,-6000.000000,-6000.000000,Speed,Speed,-15.440000,0.820000,13.460000,1.000000,101.000000,0,0,-0.000000,0.000000,1,0.000000,0.000000,0.000000,0.312027,-0.568863,0.000000,-0.001000,0.007000,0.000000,FlatInitial
09:06:55.034 PM 02/15/2016,Teleop Disabled,0,FALSE,0,NO ERROR,0.000000,0.000000,-6000.000000,-6000.000000,Speed,Speed,-15.430000,0.820000,13.500000,1.000000,102.000000,0,0,-0.000000,0.000000,1,0.000000,0.000000,0.000000,0.312027,-0.568863,0.000000,-0.001000,0.003000,0.004000,FlatInitial
09:06:55.134 PM 02/15/2016,Teleop Disabled,0,FALSE,0,NO ERROR,0.000000,0.000000,-6000.000000,-6000.000000,Speed,Speed,-15.430000,0.810000,13.540000,1.000000,102.000000,0,0,-0.000000,0.000000,1,0.000000,0.000000,0.000000,0.312027,-0.568863,0.000000,-0.004000,0.005000,0.006000,FlatInitial
09:06:55.234 PM 02/15/2016,Teleop Disabled,0,FALSE,0,NO ERROR,0.000000,0.000000,-6000.000000,-6000.000000,Speed,Speed,-15.420000,0.810000,13.560000,1.000000,101.000000,0,0,-0.000000,0.000000,1,0.000000,0.000000,0.000000,0.312027,-0.568863,0.000000,-0.002000,0.003000,0.008000,FlatInitial
09:06:55.334 PM 02/15/2016,Teleop Disabled,0,FALSE,0,NO ERROR,0.000000,0.000000,-6000.000000,-6000.000000,Speed,Speed,-15.420000,0.810000,13.580000,1.000000,101.000000,0,0,-0.000000,0.000000,1,0.000000,0.000000,0.000000,0.312027,-0.568863,0.000000,-0.003000,0.004000,0.005000,FlatInitial
09:06:55.435 PM 02/15/2016,Teleop Disabled,0,FALSE,0,NO ERROR,0.000000,0.000000,-6000.000000,-6000.000000,Speed,Speed,-15.410000,0.810000,13.600000,1.000000,102.000000,0,0,-0.000000,0.000000,1,0.000000,0.000000,0.000000,0.312027,-0.568863,0.000000,-0.003000,0.002000,0.008000,FlatInitial
09:06:55.535 PM 02/15/2016,Teleop Disabled,0,FALSE,0,NO ERROR,0.000000,0.000000,-6000.000000,-6000.000000,Speed,Speed,-15.420000,0.800000,13.620000,1.000000,101.000000,0,0,-0.000000,0.000000,1,0.000000,0.000000,0.000000,0.312027,-0.568863,0.000000,0.000000,0.001000,0.007000,FlatInitial
09:06:55.635 PM 02/15/2016,Teleop Disabled,0,FALSE,0,NO ERROR,0.000000,0.000000,-6000.000000,-6000.000000,Speed,Speed,-15.410000,0.800000,13.640000,1.000000,101.000000,0,0,-0.000000,0.000000,1,0.000000,0.000000,0.000000,0.312027,-0.568863,0.000000,-0.001000,0.002000,0.006000,FlatInitial
09:06:55.735 PM 02/15/2016,Teleop Disabled,0,FALSE,0,NO ERROR,0.000000,0.000000,-6000.000000,-6000.000000,Speed,Speed,-15.410000,0.810000,13.650000,1.000000,103.000000,0,0,-0.000000,0.000000,1,0.000000,0.000000,0.000000,0.312027,-0.568863,0.000000,0.000000,0.003000,0.004000,FlatInitial
09:06:55.835 PM 02/15/2016,Teleop Disabled,0,FALSE,0,NO ERROR,0.000000,0.000000,-6000.000000,-6000.000000,Speed,Speed,-15.410000,0.810000,13.670000,1.000000,101.000000,0,0,-0.000000,0.000000,1,0.000000,0.000000,0.000000,0.312027,-0.568863,0.000000,-0.001000,0.000000,0.008000,FlatInitial
09:06:55.936 PM 02/15/2016,Teleop Disabled,0,FALSE,0,NO ERROR,0.000000,0.000000,-6000.000000,-6000.000000,Speed,Speed,-15.400000,0.810000,13.680000,1.000000,102.000000,0,0,-0.000000,0.000000,1,0.000000,0.000000,0.000000,0.312027,-0.568863,0.000000,0.000000,0.000000,0.005000,FlatInitial
09:06:56.037 PM 02/15/2016,Teleop Disabled,0,FALSE,0,NO ERROR,0.000000,0.000000,-6000.000000,-6000.000000,Speed,Speed,-15.400000,0.800000,13.700000,1.000000,102.000000,0,0,-0.000000,0.000000,1,0.000000,0.000000,0.000000,0.312027,-0.568863,0.000000,-0.001000,0.005000,0.007000,FlatInitial
09:06:56.138 PM 02/15/2016,Teleop Disabled,0,FALSE,0,NO ERROR,0.000000,0.000000,-6000.000000,-6000.000000,Speed,Speed,-15.400000,0.800000,13.720000,1.000000,102.000000,0,0,-0.000000,0.000000,1,0.000000,0.000000,0.000000,0.312027,-0.568863,0.000000,0.000000,-0.002000,0.003000,FlatInitial
09:06:56.238 PM 02/15/2016,Teleop Disabled,0,FALSE,0,NO ERROR,0.000000,0.000000,-6000.000000,-6000.000000,Speed,Speed,-15.400000,0.800000,13.720000,1.000000,103.000000,0,0,-0.000000,0.000000,1,0.000000,0.000000,0.000000,0.312027,-0.568863,0.000000,-0.001000,0.000000,0.008000,FlatInitial
09:06:56.338 PM 02/15/2016,Teleop Disabled,0,FALSE,0,NO ERROR,0.000000,0.000000,-6000.000000,-6000.000000,Speed,Speed,-15.400000,0.800000,13.740000,1.000000,103.000000,0,0,-0.000000,0.000000,1,0.000000,0.000000,0.000000,0.312027,-0.568863,0.000000,0.000000,0.001000,0.006000,FlatInitial
09:06:56.438 PM 02/15/2016,Teleop Disabled,0,FALSE,0,NO ERROR,0.000000,0.000000,-6000.000000,-6000.000000,Speed,Speed,-15.400000,0.800000,13.740000,1.000000,101.000000,0,0,-0.000000,0.000000,1,0.000000,0.000000,0.000000,0.312027,-0.568863,0.000000,0.001000,0.000000,0.007000,FlatInitial
09:06:56.538 PM 02/15/2016,Teleop Disabled,0,FALSE,0,NO ERROR,0.000000,0.000000,-6000.000000,-6000.000000,Speed,Speed,-15.400000,0.800000,13.740000,1.000000,102.000000,0,0,-0.000000,0.000000,1,0.000000,0.000000,0.000000,0.312027,-0.568863,0.000000,0.000000,0.002000,0.009000,FlatInitial
09:06:56.639 PM 02/15/2016,Teleop Disabled,0,FALSE,0,NO ERROR,0.000000,0.000000,-6000.000000,-6000.000000,Speed,Speed,-15.390000,0.810000,13.760000,1.000000,102.000000,0,0,-0.000000,0.000000,1,0.000000,0.000000,0.000000,0.312027,-0.568863,0.000000,-0.001000,-0.001000,0.007000,FlatInitial
09:06:56.740 PM 02/15/2016,Teleop Disabled,0,FALSE,0,NO ERROR,0.000000,0.000000,-6000.000000,-6000.000000,Speed,Speed,-15.390000,0.800000,13.770000,1.000000,102.000000,0,0,-0.000000,0.000000,1,0.000000,0.000000,0.000000,0.312027,-0.568863,0.000000,-0.004000,0.000000,0.008000,FlatInitial
09:06:56.840 PM 02/15/2016,Teleop Disabled,0,FALSE,0,NO ERROR,0.000000,0.000000,-6000.000000,-6000.000000,Speed,Speed,-15.380000,0.800000,13.770000,1.000000,102.000000,0,0,-0.000000,0.000000,1,0.000000,0.000000,0.000000,0.312027,-0.568863,0.000000,0.000000,0.002000,0.003000,FlatInitial
09:06:56.941 PM 02/15/2016,Teleop Disabled,0,FALSE,0,NO ERROR,0.000000,0.000000,-6000.000000,-6000.000000,Speed,Speed,-15.380000,0.800000,13.780000,1.000000,101.000000,0,0,-0.000000,0.000000,1,0.000000,0.000000,0.000000,0.312027,-0.568863,0.000000,-0.001000,0.000000,0.005000,FlatInitial
09:06:57.042 PM 02/15/2016,Teleop Disabled,0,FALSE,0,NO ERROR,0.000000,0.000000,-6000.000000,-6000.000000,Speed,Speed,-15.380000,0.800000,13.780000,1.000000,102.000000,0,0,-0.000000,0.000000,1,0.000000,0.000000,0.000000,0.312027,-0.568863,0.000000,0.001000,0.003000,0.005000,FlatInitial
09:06:57.142 PM 02/15/2016,Teleop Disabled,0,FALSE,0,NO ERROR,0.000000,0.000000,-6000.000000,-6000.000000,Speed,Speed,-15.370000,0.790000,13.790000,1.000000,101.000000,0,0,-0.000000,0.000000,1,0.000000,0.000000,0.000000,0.312027,-0.568863,0.000000,-0.002000,0.001000,0.000000,FlatInitial
09:06:57.242 PM 02/15/2016,Teleop Disabled,0,FALSE,0,NO ERROR,0.000000,0.000000,-6000.000000,-6000.000000,Speed,Speed,-15.370000,0.790000,13.790000,1.000000,101.000000,0,0,-0.000000,0.000000,1,0.000000,0.000000,0.000000,0.312027,-0.568863,0.000000,0.001000,0.002000,0.005000,FlatInitial
09:06:57.343 PM 02/15/2016,Teleop Disabled,0,FALSE,0,NO ERROR,0.000000,0.000000,-6000.000000,-6000.000000,Speed,Speed,-15.370000,0.790000,13.800000,1.000000,104.000000,0,0,-0.000000,0.000000,1,0.000000,0.000000,0.000000,0.312027,-0.568863,0.000000,0.000000,-0.001000,0.008000,FlatInitial
09:06:57.443 PM 02/15/2016,Teleop Disabled,0,FALSE,0,NO ERROR,0.000000,0.000000,-6000.000000,-6000.000000,Speed,Speed,-15.370000,0.800000,13.800000,1.000000,102.000000,0,0,-0.000000,0.000000,1,0.000000,0.000000,0.000000,0.312027,-0.568863,0.000000,0.000000,0.000000,0.007000,FlatInitial
09:06:57.543 PM 02/15/2016,Teleop Disabled,0,FALSE,0,NO ERROR,0.000000,0.000000,-6000.000000,-6000.000000,Speed,Speed,-15.370000,0.800000,13.800000,1.000000,100.000000,0,0,-0.000000,0.000000,1,0.000000,0.000000,0.000000,0.312027,-0.568863,0.000000,0.000000,0.000000,0.006000,FlatInitial
09:06:57.643 PM 02/15/2016,Teleop Disabled,0,FALSE,0,NO ERROR,0.000000,0.000000,-6000.000000,-6000.000000,Speed,Speed,-15.370000,0.790000,13.810000,1.000000,101.000000,0,0,-0.000000,0.000000,1,0.000000,0.000000,0.000000,0.312027,-0.568863,0.000000,0.001000,0.000000,0.008000,FlatInitial
09:06:57.744 PM 02/15/2016,Teleop Disabled,0,FALSE,0,NO ERROR,0.000000,0.000000,-6000.000000,-6000.000000,Speed,Speed,-15.370000,0.790000,13.810000,1.000000,101.000000,0,0,-0.000000,0.000000,1,0.000000,0.000000,0.000000,0.312027,-0.568863,0.000000,0.000000,0.003000,0.006000,FlatInitial
09:06:57.845 PM 02/15/2016,Teleop Disabled,0,FALSE,0,NO ERROR,0.000000,0.000000,-6000.000000,-6000.000000,Speed,Speed,-15.360000,0.790000,13.820000,1.000000,102.000000,0,0,-0.000000,0.000000,1,0.000000,0.000000,0.000000,0.312027,-0.568863,0.000000,-0.002000,0.000000,0.008000,FlatInitial
09:06:57.945 PM 02/15/2016,Teleop Disabled,0,FALSE,0,NO ERROR,0.000000,0.000000,-6000.000000,-6000.000000,Speed,Speed,-15.360000,0.790000,13.820000,1.000000,102.000000,0,0,-0.000000,0.000000,1,0.000000,0.000000,0.000000,0.312027,-0.568863,0.000000,0.000000,0.000000,0.005000,FlatInitial
09:06:58.046 PM 02/15/2016,Teleop Disabled,0,FALSE,0,NO ERROR,0.000000,0.000000,-6000.000000,-6000.000000,Speed,Speed,-15.360000,0.790000,13.830000,1.000000,102.000000,0,0,-0.000000,0.000000,1,0.000000,0.000000,0.000000,0.312027,-0.568863,0.000000,0.001000,0.002000,0.004000,FlatInitial
09:06:58.147 PM 02/15/2016,Teleop Disabled,0,FALSE,0,NO ERROR,0.000000,0.000000,-6000.000000,-6000.000000,Speed,Speed,-15.360000,0.800000,13.820000,1.000000,102.000000,0,0,-0.000000,0.000000,1,0.000000,0.000000,0.000000,0.312027,-0.568863,0.000000,0.000000,0.001000,0.003000,FlatInitial
09:06:58.247 PM 02/15/2016,Teleop Disabled,0,FALSE,0,NO ERROR,0.000000,0.000000,-6000.000000,-6000.000000,Speed,Speed,-15.360000,0.800000,13.830000,1.000000,101.000000,0,0,-0.000000,0.000000,1,0.000000,0.000000,0.000000,0.312027,-0.568863,0.000000,0.002000,-0.002000,0.006000,FlatInitial
09:06:58.347 PM 02/15/2016,Teleop Disabled,0,FALSE,0,NO ERROR,0.000000,0.000000,-6000.000000,-6000.000000,Speed,Speed,-15.350000,0.800000,13.830000,1.000000,101.000000,0,0,-0.000000,0.000000,1,0.000000,0.000000,0.000000,0.312027,-0.568863,0.000000,0.001000,0.001000,0.003000,FlatInitial
09:06:58.447 PM 02/15/2016,Teleop Disabled,0,FALSE,0,NO ERROR,0.000000,0.000000,-6000.000000,-6000.000000,Speed,Speed,-15.350000,0.800000,13.840000,1.000000,101.000000,0,0,-0.000000,0.000000,1,0.000000,0.000000,0.000000,0.312027,-0.568863,0.000000,0.000000,0.000000,0.005000,FlatInitial
09:06:58.547 PM 02/15/2016,Teleop Disabled,0,FALSE,0,NO ERROR,0.000000,0.000000,-6000.000000,-6000.000000,Speed,Speed,-15.350000,0.800000,13.850000,1.000000,102.000000,0,0,-0.000000,0.000000,1,0.000000,0.000000,0.000000,0.312027,-0.568863,0.000000,0.001000,0.000000,0.001000,FlatInitial
09:06:58.647 PM 02/15/2016,Teleop Disabled,0,FALSE,0,NO ERROR,0.000000,0.000000,-6000.000000,-6000.000000,Speed,Speed,-15.350000,0.800000,13.850000,1.000000,102.000000,0,0,-0.000000,0.000000,1,0.000000,0.000000,0.000000,0.312027,-0.568863,0.000000,0.001000,-0.002000,0.006000,FlatInitial
09:06:58.748 PM 02/15/2016,Teleop Disabled,0,FALSE,0,NO ERROR,0.000000,0.000000,-6000.000000,-6000.000000,Speed,Speed,-15.350000,0.800000,13.850000,1.000000,101.000000,0,0,-0.000000,0.000000,1,0.000000,0.000000,0.000000,0.312027,-0.568863,0.000000,0.000000,0.000000,0.007000,FlatInitial
09:06:58.847 PM 02/15/2016,Teleop Disabled,0,FALSE,0,NO ERROR,0.000000,0.000000,-6000.000000,-6000.000000,Speed,Speed,-15.350000,0.800000,13.850000,1.000000,104.000000,0,0,-0.000000,0.000000,1,0.000000,0.000000,0.000000,0.312027,-0.568863,0.000000,0.000000,0.004000,0.008000,FlatInitial
09:06:58.947 PM 02/15/2016,Teleop Disabled,0,FALSE,0,NO ERROR,0.000000,0.000000,-6000.000000,-6000.000000,Speed,Speed,-15.350000,0.800000,13.850000,1.000000,101.000000,0,0,-0.000000,0.000000,1,0.000000,0.000000,0.000000,0.312027,-0.568863,0.000000,0.000000,-0.001000,0.005000,FlatInitial
09:06:59.047 PM 02/15/2016,Teleop Disabled,0,FALSE,0,NO ERROR,0.000000,0.000000,-6000.000000,-6000.000000,Speed,Speed,-15.340000,0.800000,13.860000,1.000000,101.000000,0,0,-0.000000,0.000000,1,0.000000,0.000000,0.000000,0.312027,-0.568863,0.000000,0.000000,-0.002000,0.005000,FlatInitial
09:06:59.148 PM 02/15/2016,Teleop Disabled,0,FALSE,0,NO ERROR,0.000000,0.000000,-6000.000000,-6000.000000,Speed,Speed,-15.340000,0.800000,13.860000,1.000000,101.000000,0,0,-0.000000,0.000000,1,0.000000,0.000000,0.000000,0.312027,-0.568863,0.000000,0.001000,-0.002000,0.006000,FlatInitial
09:06:59.248 PM 02/15/2016,Teleop Disabled,0,FALSE,0,NO ERROR,0.000000,0.000000,-6000.000000,-6000.000000,Speed,Speed,-15.340000,0.790000,13.860000,1.000000,103.000000,0,0,-0.000000,0.000000,1,0.000000,0.000000,0.000000,0.312027,-0.568863,0.000000,0.001000,-0.001000,0.007000,FlatInitial
09:06:59.349 PM 02/15/2016,Teleop Disabled,0,FALSE,0,NO ERROR,0.000000,0.000000,-6000.000000,-6000.000000,Speed,Speed,-15.340000,0.790000,13.860000,1.000000,103.000000,0,0,-0.000000,0.000000,1,0.000000,0.000000,0.000000,0.312027,-0.568863,0.000000,0.000000,-0.002000,0.008000,FlatInitial
09:06:59.449 PM 02/15/2016,Teleop Disabled,0,FALSE,0,NO ERROR,0.000000,0.000000,-6000.000000,-6000.000000,Speed,Speed,-15.340000,0.790000,13.860000,1.000000,104.000000,0,0,-0.000000,0.000000,1,0.000000,0.000000,0.000000,0.312027,-0.568863,0.000000,0.000000,0.000000,0.003000,FlatInitial
09:06:59.550 PM 02/15/2016,Teleop Disabled,0,FALSE,0,NO ERROR,0.000000,0.000000,-6000.000000,-6000.000000,Speed,Speed,-15.340000,0.800000,13.860000,1.000000,104.000000,0,0,-0.000000,0.000000,1,0.000000,0.000000,0.000000,0.312027,-0.568863,0.000000,0.000000,0.000000,0.005000,FlatInitial
09:06:59.651 PM 02/15/2016,Teleop Disabled,0,FALSE,0,NO ERROR,0.000000,0.000000,-6000.000000,-6000.000000,Speed,Speed,-15.330000,0.800000,13.860000,1.000000,102.000000,0,0,-0.000000,0.000000,1,0.000000,0.000000,0.000000,0.312027,-0.568863,0.000000,-0.001000,0.000000,0.011000,FlatInitial
09:06:59.751 PM 02/15/2016,Teleop Disabled,0,FALSE,0,NO ERROR,0.000000,0.000000,-6000.000000,-6000.000000,Speed,Speed,-15.330000,0.790000,13.860000,1.000000,103.000000,0,0,-0.000000,0.000000,1,0.000000,0.000000,0.000000,0.312027,-0.568863,0.000000,0.000000,-0.002000,0.010000,FlatInitial
09:06:59.851 PM 02/15/2016,Teleop Disabled,0,FALSE,0,NO ERROR,0.000000,0.000000,-6000.000000,-6000.000000,Speed,Speed,-15.330000,0.790000,13.860000,1.000000,102.000000,0,0,-0.000000,0.000000,1,0.000000,0.000000,0.000000,0.312027,-0.568863,0.000000,0.001000,0.000000,0.006000,FlatInitial
09:06:59.951 PM 02/15/2016,Teleop Disabled,0,FALSE,0,NO ERROR,0.000000,0.000000,-6000.000000,-6000.000000,Speed,Speed,-15.330000,0.800000,13.870000,1.000000,103.000000,0,0,-0.000000,0.000000,1,0.000000,0.000000,0.000000,0.312027,-0.568863,0.000000,0.002000,0.000000,0.005000,FlatInitial
09:07:00.053 PM 02/15/2016,Teleop Disabled,0,FALSE,0,NO ERROR,0.000000,0.000000,-6000.000000,-6000.000000,Speed,Speed,-15.330000,0.800000,13.870000,1.000000,100.000000,0,0,-0.000000,0.000000,1,0.000000,0.000000,0.000000,0.312027,-0.568863,0.000000,0.000000,-0.002000,0.002000,FlatInitial
09:07:00.153 PM 02/15/2016,Teleop Disabled,0,FALSE,0,NO ERROR,0.000000,0.000000,-6000.000000,-6000.000000,Speed,Speed,-15.320000,0.800000,13.870000,1.000000,101.000000,0,0,-0.000000,0.000000,1,0.000000,0.000000,0.000000,0.312027,-0.568863,0.000000,0.000000,0.000000,0.000000,FlatInitial
09:07:00.254 PM 02/15/2016,Teleop Disabled,0,FALSE,0,NO ERROR,0.000000,0.000000,-6000.000000,-6000.000000,Speed,Speed,-15.320000,0.800000,13.870000,1.000000,102.000000,0,0,-0.000000,0.000000,1,0.000000,0.000000,0.000000,0.312027,-0.568863,0.000000,0.001000,0.000000,0.006000,FlatInitial
09:07:00.356 PM 02/15/2016,Teleop Disabled,0,FALSE,0,NO ERROR,0.000000,0.000000,-6000.000000,-6000.000000,Speed,Speed,-15.320000,0.800000,13.870000,1.000000,103.000000,0,0,-0.000000,0.000000,1,0.000000,0.000000,0.000000,0.312027,-0.568863,0.000000,0.000000,0.002000,0.005000,FlatInitial
09:07:00.457 PM 02/15/2016,Teleop Disabled,0,FALSE,0,NO ERROR,0.000000,0.000000,-6000.000000,-6000.000000,Speed,Speed,-15.320000,0.800000,13.870000,1.000000,101.000000,0,0,-0.000000,0.000000,1,0.000000,0.000000,0.000000,0.312027,-0.568863,0.000000,0.000000,0.000000,0.004000,FlatInitial
09:07:00.557 PM 02/15/2016,Teleop Disabled,0,FALSE,0,NO ERROR,0.000000,0.000000,-6000.000000,-6000.000000,Speed,Speed,-15.320000,0.800000,13.870000,1.000000,102.000000,0,0,-0.000000,0.000000,1,0.000000,0.000000,0.000000,0.312027,-0.568863,0.000000,-0.001000,0.001000,0.006000,FlatInitial
09:07:00.658 PM 02/15/2016,Teleop Disabled,0,FALSE,0,NO ERROR,0.000000,0.000000,-6000.000000,-6000.000000,Speed,Speed,-15.310000,0.800000,13.870000,1.000000,102.000000,0,0,-0.000000,0.000000,1,0.000000,0.000000,0.000000,0.312027,-0.568863,0.000000,0.000000,0.000000,0.010000,FlatInitial
09:07:00.760 PM 02/15/2016,Teleop Disabled,0,FALSE,0,NO ERROR,0.000000,0.000000,-6000.000000,-6000.000000,Speed,Speed,-15.310000,0.800000,13.880000,1.000000,100.000000,0,0,-0.000000,0.000000,1,0.000000,0.000000,0.000000,0.312027,-0.568863,0.000000,0.000000,0.000000,0.002000,FlatInitial
09:07:00.860 PM 02/15/2016,Teleop Disabled,0,FALSE,0,NO ERROR,0.000000,0.000000,-6000.000000,-6000.000000,Speed,Speed,-15.310000,0.800000,13.880000,1.000000,102.000000,0,0,-0.000000,0.000000,1,0.000000,0.000000,0.000000,0.312027,-0.568863,0.000000,-0.001000,0.001000,0.004000,FlatInitial
09:07:00.961 PM 02/15/2016,Teleop Disabled,0,FALSE,0,NO ERROR,0.000000,0.000000,-6000.000000,-6000.000000,Speed,Speed,-15.310000,0.800000,13.880000,1.000000,102.000000,0,0,-0.000000,0.000000,1,0.000000,0.000000,0.000000,0.312027,-0.568863,0.000000,0.000000,0.000000,0.004000,FlatInitial
09:07:01.062 PM 02/15/2016,Teleop Disabled,0,FALSE,0,NO ERROR,0.000000,0.000000,-6000.000000,-6000.000000,Speed,Speed,-15.310000,0.800000,13.870000,1.000000,102.000000,0,0,-0.000000,0.000000,1,0.000000,0.000000,0.000000,0.312027,-0.568863,0.000000,0.000000,0.001000,0.007000,FlatInitial
09:07:01.163 PM 02/15/2016,Teleop Disabled,0,FALSE,0,NO ERROR,0.000000,0.000000,-6000.000000,-6000.000000,Speed,Speed,-15.320000,0.800000,13.870000,1.000000,102.000000,0,0,-0.000000,0.000000,1,0.000000,0.000000,0.000000,0.312027,-0.568863,0.000000,0.000000,-0.002000,0.004000,FlatInitial
09:07:01.264 PM 02/15/2016,Teleop Disabled,0,FALSE,0,NO ERROR,0.000000,0.000000,-6000.000000,-6000.000000,Speed,Speed,-15.320000,0.800000,13.860000,1.000000,102.000000,0,0,-0.000000,0.000000,1,0.000000,0.000000,0.000000,0.312027,-0.568863,0.000000,0.000000,-0.002000,0.005000,FlatInitial
09:07:01.365 PM 02/15/2016,Teleop Disabled,0,FALSE,0,NO ERROR,0.000000,0.000000,-6000.000000,-6000.000000,Speed,Speed,-15.310000,0.800000,13.850000,1.000000,104.000000,0,0,-0.000000,0.000000,1,0.000000,0.000000,0.000000,0.312027,-0.568863,0.000000,0.000000,-0.001000,0.009000,FlatInitial
09:07:01.465 PM 02/15/2016,Teleop Disabled,0,FALSE,0,NO ERROR,0.000000,0.000000,-6000.000000,-6000.000000,Speed,Speed,-15.310000,0.800000,13.850000,1.000000,101.000000,0,0,-0.000000,0.000000,1,0.000000,0.000000,0.000000,0.312027,-0.568863,0.000000,0.000000,0.000000,0.006000,FlatInitial
09:07:01.566 PM 02/15/2016,Teleop Disabled,0,FALSE,0,NO ERROR,0.000000,0.000000,-6000.000000,-6000.000000,Speed,Speed,-15.310000,0.790000,13.850000,1.000000,103.000000,0,0,-0.000000,0.000000,1,0.000000,0.000000,0.000000,0.312027,-0.568863,0.000000,0.000000,-0.002000,0.010000,FlatInitial
09:07:01.666 PM 02/15/2016,Teleop Disabled,0,FALSE,0,NO ERROR,0.000000,0.000000,-6000.000000,-6000.000000,Speed,Speed,-15.320000,0.790000,13.850000,1.000000,101.000000,0,0,-0.000000,0.000000,1,0.000000,0.000000,0.000000,0.312027,-0.568863,0.000000,0.000000,-0.001000,0.006000,FlatInitial
09:07:01.767 PM 02/15/2016,Teleop Disabled,0,FALSE,0,NO ERROR,0.000000,0.000000,-6000.000000,-6000.000000,Speed,Speed,-15.320000,0.800000,13.840000,1.000000,102.000000,0,0,-0.000000,0.000000,1,0.000000,0.000000,0.000000,0.312027,-0.568863,0.000000,0.001000,0.001000,0.002000,FlatInitial
09:07:01.868 PM 02/15/2016,Teleop Disabled,0,FALSE,0,NO ERROR,0.000000,0.000000,-6000.000000,-6000.000000,Speed,Speed,-15.310000,0.800000,13.840000,1.000000,102.000000,0,0,-0.000000,0.000000,1,0.000000,0.000000,0.000000,0.312027,-0.568863,0.000000,0.000000,-0.001000,0.005000,FlatInitial
09:07:01.968 PM 02/15/2016,Teleop Disabled,0,FALSE,0,NO ERROR,0.000000,0.000000,-6000.000000,-6000.000000,Speed,Speed,-15.310000,0.800000,13.830000,1.000000,103.000000,0,0,-0.000000,0.000000,1,0.000000,0.000000,0.000000,0.312027,-0.568863,0.000000,0.000000,0.001000,0.009000,FlatInitial
09:07:02.068 PM 02/15/2016,Teleop Disabled,0,FALSE,0,NO ERROR,0.000000,0.000000,-6000.000000,-6000.000000,Speed,Speed,-15.310000,0.790000,13.820000,1.000000,100.000000,0,0,-0.000000,0.000000,1,0.000000,0.000000,0.000000,0.312027,-0.568863,0.000000,-0.001000,0.002000,0.007000,FlatInitial
09:07:02.169 PM 02/15/2016,Teleop Disabled,0,FALSE,0,NO ERROR,0.000000,0.000000,-6000.000000,-6000.000000,Speed,Speed,-15.310000,0.790000,13.830000,1.000000,101.000000,0,0,-0.000000,0.000000,1,0.000000,0.000000,0.000000,0.312027,-0.568863,0.000000,0.000000,0.001000,0.009000,FlatInitial
09:07:02.269 PM 02/15/2016,Teleop Disabled,0,FALSE,0,NO ERROR,0.000000,0.000000,-6000.000000,-6000.000000,Speed,Speed,-15.320000,0.790000,13.820000,1.000000,102.000000,0,0,-0.000000,0.000000,1,0.000000,0.000000,0.000000,0.312027,-0.568863,0.000000,0.002000,-0.001000,0.006000,FlatInitial
09:07:02.370 PM 02/15/2016,Teleop Disabled,0,FALSE,0,NO ERROR,0.000000,0.000000,-6000.000000,-6000.000000,Speed,Speed,-15.310000,0.790000,13.820000,1.000000,101.000000,0,0,-0.000000,0.000000,1,0.000000,0.000000,0.000000,0.312027,-0.568863,0.000000,0.000000,-0.001000,0.008000,FlatInitial
09:07:02.470 PM 02/15/2016,Teleop Disabled,0,FALSE,0,NO ERROR,0.000000,0.000000,-6000.000000,-6000.000000,Speed,Speed,-15.320000,0.790000,13.820000,1.000000,102.000000,0,0,-0.000000,0.000000,1,0.000000,0.000000,0.000000,0.312027,-0.568863,0.000000,-0.002000,0.000000,0.008000,FlatInitial
09:07:02.570 PM 02/15/2016,Teleop Disabled,0,FALSE,0,NO ERROR,0.000000,0.000000,-6000.000000,-6000.000000,Speed,Speed,-15.320000,0.790000,13.820000,1.000000,103.000000,0,0,-0.000000,0.000000,1,0.000000,0.000000,0.000000,0.312027,-0.568863,0.000000,0.000000,0.001000,0.007000,FlatInitial
09:07:02.670 PM 02/15/2016,Teleop Disabled,0,FALSE,0,NO ERROR,0.000000,0.000000,-6000.000000,-6000.000000,Speed,Speed,-15.320000,0.790000,13.820000,1.000000,102.000000,0,0,-0.000000,0.000000,1,0.000000,0.000000,0.000000,0.312027,-0.568863,0.000000,0.000000,0.001000,0.007000,FlatInitial
09:07:02.770 PM 02/15/2016,Teleop Disabled,0,FALSE,0,NO ERROR,0.000000,0.000000,-6000.000000,-6000.000000,Speed,Speed,-15.320000,0.780000,13.810000,1.000000,102.000000,0,0,-0.000000,0.000000,1,0.000000,0.000000,0.000000,0.312027,-0.568863,0.000000,0.000000,0.000000,0.003000,FlatInitial
09:07:02.870 PM 02/15/2016,Teleop Disabled,0,FALSE,0,NO ERROR,0.000000,0.000000,-6000.000000,-6000.000000,Speed,Speed,-15.310000,0.790000,13.810000,1.000000,102.000000,0,0,-0.000000,0.000000,1,0.000000,0.000000,0.000000,0.312027,-0.568863,0.000000,0.000000,0.000000,0.006000,FlatInitial
09:07:02.970 PM 02/15/2016,Teleop Disabled,0,FALSE,0,NO ERROR,0.000000,0.000000,-6000.000000,-6000.000000,Speed,Speed,-15.320000,0.780000,13.810000,1.000000,102.000000,0,0,-0.000000,0.000000,1,0.000000,0.000000,0.000000,0.312027,-0.568863,0.000000,-0.001000,0.002000,0.001000,FlatInitial
09:07:03.070 PM 02/15/2016,Teleop Disabled,0,FALSE,0,NO ERROR,0.000000,0.000000,-6000.000000,-6000.000000,Speed,Speed,-15.320000,0.790000,13.810000,1.000000,103.000000,0,0,-0.000000,0.000000,1,0.000000,0.000000,0.000000,0.312027,-0.568863,0.000000,0.001000,0.000000,0.008000,FlatInitial
09:07:03.170 PM 02/15/2016,Teleop Disabled,0,FALSE,0,NO ERROR,0.000000,0.000000,-6000.000000,-6000.000000,Speed,Speed,-15.320000,0.790000,13.810000,1.000000,102.000000,0,0,-0.000000,0.000000,1,0.000000,0.000000,0.000000,0.312027,-0.568863,0.000000,-0.002000,0.000000,0.003000,FlatInitial
09:07:03.271 PM 02/15/2016,Teleop Disabled,0,FALSE,0,NO ERROR,0.000000,0.000000,-6000.000000,-6000.000000,Speed,Speed,-15.310000,0.790000,13.810000,1.000000,101.000000,0,0,-0.000000,0.000000,1,0.000000,0.000000,0.000000,0.312027,-0.568863,0.000000,0.000000,0.000000,0.002000,FlatInitial
09:07:03.372 PM 02/15/2016,Teleop Disabled,0,FALSE,0,NO ERROR,0.000000,0.000000,-6000.000000,-6000.000000,Speed,Speed,-15.320000,0.790000,13.810000,1.000000,102.000000,0,0,-0.000000,0.000000,1,0.000000,0.000000,0.000000,0.312027,-0.568863,0.000000,0.000000,0.001000,0.006000,FlatInitial
09:07:03.472 PM 02/15/2016,Teleop Disabled,0,FALSE,0,NO ERROR,0.000000,0.000000,-6000.000000,-6000.000000,Speed,Speed,-15.320000,0.790000,13.810000,1.000000,101.000000,0,0,-0.000000,0.000000,1,0.000000,0.000000,0.000000,0.312027,-0.568863,0.000000,0.001000,0.000000,0.004000,FlatInitial
09:07:03.572 PM 02/15/2016,Teleop Disabled,0,FALSE,0,NO ERROR,0.000000,0.000000,-6000.000000,-6000.000000,Speed,Speed,-15.320000,0.800000,13.810000,1.000000,102.000000,0,0,-0.000000,0.000000,1,0.000000,0.000000,0.000000,0.312027,-0.568863,0.000000,0.000000,0.000000,0.010000,FlatInitial
09:07:03.672 PM 02/15/2016,Teleop Disabled,0,FALSE,0,NO ERROR,0.000000,0.000000,-6000.000000,-6000.000000,Speed,Speed,-15.320000,0.800000,13.810000,1.000000,101.000000,0,0,-0.000000,0.000000,1,0.000000,0.000000,0.000000,0.312027,-0.568863,0.000000,0.000000,0.001000,0.006000,FlatInitial
09:07:03.772 PM 02/15/2016,Teleop Disabled,0,FALSE,0,NO ERROR,0.000000,0.000000,-6000.000000,-6000.000000,Speed,Speed,-15.320000,0.800000,13.810000,1.000000,100.000000,0,0,-0.000000,0.000000,1,0.000000,0.000000,0.000000,0.312027,-0.568863,0.000000,-0.001000,0.001000,0.005000,FlatInitial
09:07:03.872 PM 02/15/2016,Teleop Disabled,0,FALSE,0,NO ERROR,0.000000,0.000000,-6000.000000,-6000.000000,Speed,Speed,-15.320000,0.800000,13.810000,1.000000,101.000000,0,0,-0.000000,0.000000,1,0.000000,0.000000,0.000000,0.312027,-0.568863,0.000000,0.000000,0.003000,0.004000,FlatInitial
09:07:03.972 PM 02/15/2016,Teleop Disabled,0,FALSE,0,NO ERROR,0.439453,-0.146484,-6000.000000,-6000.000000,Speed,Speed,-15.320000,0.790000,13.820000,1.000000,104.000000,0,0,-0.000000,0.000000,1,0.000000,0.000000,0.000000,0.312027,-0.568863,0.000000,0.000000,0.000000,-0.018000,FlatInitial
09:07:04.072 PM 02/15/2016,Teleop Disabled,0,FALSE,0,NO ERROR,0.000000,-9.667969,-6000.000000,-6000.000000,Speed,Speed,-15.290000,0.730000,13.900000,1.000000,103.000000,0,0,-0.000000,0.000000,1,0.000000,0.006073,0.000000,0.312027,-0.568802,0.000000,0.009000,0.042000,0.000000,FlatInitial
