Time,RobotMode,AutoToRun,ErrorStatus, ErrorCode,ErrorSource,ActualRPM1,ActualRPM2,DesiredRPM1,DesiredRPM2,ControlMode1,ControlMode2,NavXYaw,NavXRoll,NavXPitch,ShooterState,LoopTime,IsLevel,IsAutoTargeting,LeftMotorOutput,RightMotorOutput,IsHaloDrive,NavXVelocityX,NavXVelocityY,NavXVelocityZ,NavXDisplacementX,NavXDisplacementY,NavXDisplacementZ,NavXAccelerationX,NavXAccelerationY,NavXAccelerationZ,AutoDefendState
02:03:11.706 PM 02/14/2016,Autonomous Disabled,0,TRUE,-44087,NetComm_CAN_Receive.vi:5470006<APPEND>  <b>Complete call chain:</b>      NetComm_CAN_Receive.vi:5470006      WPI_CANTalonSRX_Receive.vi      WPI_MotorControlOpenCANTalonSRX.vi      Begin.vi      Robot Main.vi,0.000000,0.000000,4000.000000,4000.000000,Speed,Speed,2.650000,2.260000,1.440000,3.000000,101.000000,1,0,-0.000558,0.002232,0,-0.038239,0.001846,0.000000,0.014221,-0.010193,0.000000,0.031000,0.037000,0.046000,FlatInitial
02:03:11.806 PM 02/14/2016,Teleop Disabled,0,TRUE,-44087,NetComm_CAN_Receive.vi:5470006<APPEND>  <b>Complete call chain:</b>      NetComm_CAN_Receive.vi:5470006      WPI_CANTalonSRX_Receive.vi      WPI_MotorControlOpenCANTalonSRX.vi      Begin.vi      Robot Main.vi,0.000000,0.000000,0.000000,0.000000,Speed,Speed,2.650000,2.260000,1.440000,0.000000,55818.000000,1,0,-0.000558,0.002232,0,-0.038239,0.001846,0.000000,0.014221,-0.010193,0.000000,0.031000,0.037000,0.046000,FlatInitial
02:03:11.906 PM 02/14/2016,Teleop Disabled,0,TRUE,-44087,NetComm_CAN_Receive.vi:5470006<APPEND>  <b>Complete call chain:</b>      NetComm_CAN_Receive.vi:5470006      WPI_CANTalonSRX_Receive.vi      WPI_MotorControlOpenCANTalonSRX.vi      Begin.vi      Robot Main.vi,0.000000,0.000000,0.000000,0.000000,Speed,Speed,0.000000,2.170000,1.480000,0.000000,100.000000,1,0,-0.000558,0.002232,0,0.000000,0.000000,0.000000,0.026459,-0.027588,0.000000,0.000000,-0.003000,0.005000,FlatInitial
02:03:12.008 PM 02/14/2016,Teleop Disabled,0,TRUE,-44087,NetComm_CAN_Receive.vi:5470006<APPEND>  <b>Complete call chain:</b>      NetComm_CAN_Receive.vi:5470006      WPI_CANTalonSRX_Receive.vi      WPI_MotorControlOpenCANTalonSRX.vi      Begin.vi      Robot Main.vi,0.000000,0.000000,0.000000,0.000000,Speed,Speed,0.000000,2.180000,1.480000,0.000000,103.000000,1,0,-0.000558,0.002232,0,0.000000,0.000000,0.000000,0.026459,-0.027588,0.000000,0.001000,-0.003000,0.001000,FlatInitial
02:03:12.109 PM 02/14/2016,Teleop Disabled,0,TRUE,-44087,NetComm_CAN_Receive.vi:5470006<APPEND>  <b>Complete call chain:</b>      NetComm_CAN_Receive.vi:5470006      WPI_CANTalonSRX_Receive.vi      WPI_MotorControlOpenCANTalonSRX.vi      Begin.vi      Robot Main.vi,0.000000,0.000000,0.000000,0.000000,Speed,Speed,0.000000,2.180000,1.480000,0.000000,102.000000,1,0,-0.000558,0.002232,0,0.000000,0.000000,0.000000,0.026459,-0.027588,0.000000,0.000000,0.000000,0.003000,FlatInitial
02:03:12.209 PM 02/14/2016,Teleop Disabled,0,TRUE,-44087,NetComm_CAN_Receive.vi:5470006<APPEND>  <b>Complete call chain:</b>      NetComm_CAN_Receive.vi:5470006      WPI_CANTalonSRX_Receive.vi      WPI_MotorControlOpenCANTalonSRX.vi      Begin.vi      Robot Main.vi,0.000000,0.000000,0.000000,0.000000,Speed,Speed,0.000000,2.180000,1.480000,0.000000,103.000000,1,0,-0.000558,0.002232,0,0.000000,0.000000,0.000000,0.026459,-0.027588,0.000000,-0.002000,0.002000,0.004000,FlatInitial
02:03:12.310 PM 02/14/2016,Teleop Disabled,0,TRUE,-44087,NetComm_CAN_Receive.vi:5470006<APPEND>  <b>Complete call chain:</b>      NetComm_CAN_Receive.vi:5470006      WPI_CANTalonSRX_Receive.vi      WPI_CANTalonSRX_GetStatus.vi      ShooterVI.vi      Periodic Tasks.vi      Robot Main.vi,0.000000,0.000000,0.000000,0.000000,Speed,Speed,0.000000,2.180000,1.480000,0.000000,102.000000,1,0,-0.000558,0.002232,0,0.000000,0.000000,0.000000,0.026459,-0.027588,0.000000,0.003000,-0.001000,-0.001000,FlatInitial
02:03:12.410 PM 02/14/2016,Teleop Disabled,0,TRUE,-44087,NetComm_CAN_Receive.vi:5470006<APPEND>  <b>Complete call chain:</b>      NetComm_CAN_Receive.vi:5470006      WPI_CANTalonSRX_Receive.vi      WPI_CANTalonSRX_GetStatus.vi      ShooterVI.vi      Periodic Tasks.vi      Robot Main.vi,0.000000,0.000000,0.000000,0.000000,Speed,Speed,0.000000,2.180000,1.480000,0.000000,101.000000,1,0,-0.000558,0.002232,0,0.000000,0.000000,0.000000,0.026459,-0.027588,0.000000,-0.001000,0.000000,0.002000,FlatInitial
02:03:12.510 PM 02/14/2016,Teleop Disabled,0,FALSE,0,NO ERROR,0.000000,0.000000,0.000000,0.000000,Speed,Speed,-0.010000,2.180000,1.480000,0.000000,101.000000,1,0,-0.000558,0.002232,0,0.000000,0.000000,0.000000,0.026459,-0.027588,0.000000,-0.002000,0.000000,-0.001000,FlatInitial
02:03:12.610 PM 02/14/2016,Teleop Disabled,0,FALSE,0,NO ERROR,0.000000,0.000000,0.000000,0.000000,Speed,Speed,-0.010000,2.180000,1.480000,0.000000,102.000000,1,0,-0.000558,0.002232,0,0.000000,0.000000,0.000000,0.026459,-0.027588,0.000000,0.000000,0.002000,0.000000,FlatInitial
02:03:12.710 PM 02/14/2016,Teleop Disabled,0,FALSE,0,NO ERROR,0.000000,0.000000,0.000000,0.000000,Speed,Speed,-0.010000,2.170000,1.480000,0.000000,101.000000,1,0,-0.000558,0.002232,0,0.000000,0.000000,0.000000,0.026459,-0.027588,0.000000,0.000000,-0.001000,0.001000,FlatInitial
02:03:12.810 PM 02/14/2016,Teleop Disabled,0,FALSE,0,NO ERROR,0.000000,0.000000,0.000000,0.000000,Speed,Speed,-0.010000,2.180000,1.480000,0.000000,102.000000,1,0,-0.000558,0.002232,0,0.000000,0.000000,0.000000,0.026459,-0.027588,0.000000,0.000000,-0.001000,0.001000,FlatInitial
02:03:12.910 PM 02/14/2016,Teleop Disabled,0,FALSE,0,NO ERROR,0.000000,0.000000,0.000000,0.000000,Speed,Speed,-0.010000,2.180000,1.480000,0.000000,101.000000,1,0,-0.000558,0.002232,0,0.000000,0.000000,0.000000,0.026459,-0.027588,0.000000,0.002000,0.000000,0.003000,FlatInitial
02:03:13.010 PM 02/14/2016,Teleop Disabled,0,FALSE,0,NO ERROR,0.000000,0.000000,0.000000,0.000000,Speed,Speed,-0.020000,2.180000,1.480000,0.000000,102.000000,1,0,-0.000558,0.002232,0,0.000000,0.000000,0.000000,0.026459,-0.027588,0.000000,0.000000,0.000000,0.003000,FlatInitial
02:03:13.110 PM 02/14/2016,Teleop Disabled,0,FALSE,0,NO ERROR,0.000000,0.000000,0.000000,0.000000,Speed,Speed,-0.020000,2.180000,1.480000,0.000000,101.000000,1,0,-0.000558,0.002232,0,0.000000,0.000000,0.000000,0.026459,-0.027588,0.000000,0.000000,0.000000,0.004000,FlatInitial
02:03:13.210 PM 02/14/2016,Teleop Disabled,0,FALSE,0,NO ERROR,0.000000,0.000000,0.000000,0.000000,Speed,Speed,-0.020000,2.170000,1.480000,0.000000,101.000000,1,0,-0.000558,0.002232,0,0.000000,0.000000,0.000000,0.026459,-0.027588,0.000000,0.000000,-0.001000,0.000000,FlatInitial
02:03:13.310 PM 02/14/2016,Teleop Disabled,0,FALSE,0,NO ERROR,0.000000,0.000000,0.000000,0.000000,Speed,Speed,-0.020000,2.170000,1.480000,0.000000,101.000000,1,0,-0.000558,0.002232,0,0.000000,0.000000,0.000000,0.026459,-0.027588,0.000000,-0.003000,0.000000,0.002000,FlatInitial
02:03:13.410 PM 02/14/2016,Teleop Disabled,0,FALSE,0,NO ERROR,0.000000,0.000000,0.000000,0.000000,Speed,Speed,-0.020000,2.170000,1.480000,0.000000,101.000000,1,0,-0.000558,0.002232,0,0.000000,0.000000,0.000000,0.026459,-0.027588,0.000000,-0.001000,-0.002000,0.004000,FlatInitial
02:03:13.511 PM 02/14/2016,Teleop Disabled,0,FALSE,0,NO ERROR,0.000000,0.000000,0.000000,0.000000,Speed,Speed,-0.020000,2.180000,1.480000,0.000000,102.000000,1,0,-0.000558,0.002232,0,0.000000,0.000000,0.000000,0.026459,-0.027588,0.000000,-0.002000,-0.001000,0.005000,FlatInitial
02:03:13.611 PM 02/14/2016,Teleop Disabled,0,FALSE,0,NO ERROR,0.000000,0.000000,0.000000,0.000000,Speed,Speed,-0.020000,2.180000,1.480000,0.000000,102.000000,1,0,-0.000558,0.002232,0,0.000000,0.000000,0.000000,0.026459,-0.027588,0.000000,0.000000,0.005000,-0.001000,FlatInitial
02:03:13.711 PM 02/14/2016,Teleop Disabled,0,FALSE,0,NO ERROR,0.000000,0.000000,0.000000,0.000000,Speed,Speed,-0.020000,2.170000,1.480000,0.000000,102.000000,1,0,-0.000558,0.002232,0,0.000000,0.000000,0.000000,0.026459,-0.027588,0.000000,0.000000,0.000000,0.000000,FlatInitial
02:03:13.812 PM 02/14/2016,Teleop Disabled,0,FALSE,0,NO ERROR,0.000000,0.000000,0.000000,0.000000,Speed,Speed,-0.020000,2.180000,1.480000,0.000000,101.000000,1,0,-0.000558,0.002232,0,0.000000,0.000000,0.000000,0.026459,-0.027588,0.000000,0.000000,0.000000,0.000000,FlatInitial
02:03:13.912 PM 02/14/2016,Teleop Disabled,0,FALSE,0,NO ERROR,0.000000,0.000000,0.000000,0.000000,Speed,Speed,-0.020000,2.180000,1.480000,0.000000,101.000000,1,0,-0.000558,0.002232,0,0.000000,0.000000,0.000000,0.026459,-0.027588,0.000000,0.000000,-0.001000,0.002000,FlatInitial
02:03:14.012 PM 02/14/2016,Teleop Disabled,0,FALSE,0,NO ERROR,0.000000,0.000000,0.000000,0.000000,Speed,Speed,-0.020000,2.180000,1.480000,0.000000,101.000000,1,0,-0.000558,0.002232,0,0.000000,0.000000,0.000000,0.026459,-0.027588,0.000000,0.001000,0.000000,0.004000,FlatInitial
02:03:14.112 PM 02/14/2016,Teleop Disabled,0,FALSE,0,NO ERROR,0.000000,0.000000,0.000000,0.000000,Speed,Speed,-0.020000,2.170000,1.480000,0.000000,102.000000,1,0,-0.000558,0.002232,0,0.000000,0.000000,0.000000,0.026459,-0.027588,0.000000,0.001000,0.001000,0.005000,FlatInitial
02:03:14.212 PM 02/14/2016,Teleop Disabled,0,FALSE,0,NO ERROR,0.000000,0.000000,0.000000,0.000000,Speed,Speed,-0.020000,2.180000,1.480000,0.000000,102.000000,1,0,-0.000558,0.002232,0,0.000000,0.000000,0.000000,0.026459,-0.027588,0.000000,0.001000,0.000000,0.000000,FlatInitial
02:03:14.312 PM 02/14/2016,Teleop Disabled,0,FALSE,0,NO ERROR,0.000000,0.000000,0.000000,0.000000,Speed,Speed,-0.020000,2.170000,1.480000,0.000000,102.000000,1,0,-0.000558,0.002232,0,0.000000,0.000000,0.000000,0.026459,-0.027588,0.000000,0.001000,0.002000,0.000000,FlatInitial
02:03:14.411 PM 02/14/2016,Teleop Disabled,0,FALSE,0,NO ERROR,0.000000,0.000000,0.000000,0.000000,Speed,Speed,-0.020000,2.170000,1.470000,0.000000,105.000000,1,0,-0.000558,0.002232,0,0.000000,0.000000,0.000000,0.026459,-0.027588,0.000000,-0.002000,0.003000,0.004000,FlatInitial
02:03:14.512 PM 02/14/2016,Teleop Disabled,0,FALSE,0,NO ERROR,0.000000,0.000000,0.000000,0.000000,Speed,Speed,-0.020000,2.170000,1.470000,0.000000,102.000000,1,0,-0.000558,0.002232,0,0.000000,0.000000,0.000000,0.026459,-0.027588,0.000000,0.000000,0.000000,0.001000,FlatInitial
02:03:14.612 PM 02/14/2016,Teleop Disabled,0,FALSE,0,NO ERROR,0.000000,0.000000,0.000000,0.000000,Speed,Speed,-0.020000,2.170000,1.470000,0.000000,101.000000,1,0,-0.000558,0.002232,0,0.000000,0.000000,0.000000,0.026459,-0.027588,0.000000,0.000000,0.000000,0.000000,FlatInitial
02:03:14.712 PM 02/14/2016,Teleop Disabled,0,FALSE,0,NO ERROR,0.000000,0.000000,0.000000,0.000000,Speed,Speed,-0.020000,2.170000,1.470000,0.000000,101.000000,1,0,-0.000558,0.002232,0,0.000000,0.000000,0.000000,0.026459,-0.027588,0.000000,-0.001000,0.000000,0.000000,FlatInitial
02:03:14.812 PM 02/14/2016,Teleop Disabled,0,FALSE,0,NO ERROR,0.000000,0.000000,0.000000,0.000000,Speed,Speed,-0.030000,2.170000,1.470000,0.000000,101.000000,1,0,-0.000558,0.002232,0,0.000000,0.000000,0.000000,0.026459,-0.027588,0.000000,-0.001000,0.000000,0.000000,FlatInitial
02:03:14.912 PM 02/14/2016,Teleop Disabled,0,FALSE,0,NO ERROR,0.000000,0.000000,0.000000,0.000000,Speed,Speed,-0.030000,2.170000,1.470000,0.000000,103.000000,1,0,-0.000558,0.002232,0,0.000000,0.000000,0.000000,0.026459,-0.027588,0.000000,0.000000,0.001000,0.000000,FlatInitial
02:03:15.012 PM 02/14/2016,Teleop Disabled,0,FALSE,0,NO ERROR,0.000000,0.000000,-6000.000000,-6000.000000,Speed,Speed,-0.030000,2.170000,1.470000,1.000000,102.000000,1,0,-0.000558,0.002232,0,0.000000,0.000000,0.000000,0.026459,-0.027588,0.000000,0.000000,0.001000,0.000000,FlatInitial
02:03:15.112 PM 02/14/2016,Teleop Disabled,0,FALSE,0,NO ERROR,0.000000,0.000000,0.000000,0.000000,Speed,Speed,-0.030000,2.180000,1.480000,2.000000,102.000000,1,0,-0.000558,0.002232,0,0.000000,0.000000,0.000000,0.026459,-0.027588,0.000000,-0.001000,0.002000,0.002000,FlatInitial
02:03:15.212 PM 02/14/2016,Teleop Disabled,0,FALSE,0,NO ERROR,0.000000,0.000000,0.000000,0.000000,Speed,Speed,-0.020000,2.180000,1.480000,2.000000,102.000000,1,0,-0.000558,0.002232,0,0.000000,0.000000,0.000000,0.026459,-0.027588,0.000000,-0.001000,0.001000,0.004000,FlatInitial
02:03:15.313 PM 02/14/2016,Teleop Disabled,0,FALSE,0,NO ERROR,0.000000,0.000000,0.000000,0.000000,Speed,Speed,-0.020000,2.180000,1.480000,2.000000,106.000000,1,0,-0.000558,0.002232,0,0.000000,0.000000,0.000000,0.026459,-0.027588,0.000000,0.000000,0.000000,0.004000,FlatInitial
02:03:15.413 PM 02/14/2016,Teleop Disabled,0,FALSE,0,NO ERROR,0.000000,0.000000,0.000000,0.000000,Speed,Speed,-0.030000,2.180000,1.480000,2.000000,101.000000,1,0,-0.000558,0.002232,0,0.000000,0.000000,0.000000,0.026459,-0.027588,0.000000,-0.001000,-0.002000,0.001000,FlatInitial
02:03:15.513 PM 02/14/2016,Teleop Disabled,0,FALSE,0,NO ERROR,0.000000,0.000000,0.000000,0.000000,Speed,Speed,-0.030000,2.170000,1.480000,2.000000,101.000000,1,0,-0.000558,0.002232,0,0.000000,0.000000,0.000000,0.026459,-0.027588,0.000000,-0.001000,0.000000,0.000000,FlatInitial
02:03:15.614 PM 02/14/2016,Teleop Disabled,0,FALSE,0,NO ERROR,0.000000,0.000000,0.000000,0.000000,Speed,Speed,-0.030000,2.170000,1.480000,2.000000,101.000000,1,0,-0.000558,0.002232,0,0.000000,0.000000,0.000000,0.026459,-0.027588,0.000000,0.001000,0.000000,0.002000,FlatInitial
02:03:15.714 PM 02/14/2016,Teleop Disabled,0,FALSE,0,NO ERROR,0.000000,0.000000,0.000000,0.000000,Speed,Speed,-0.030000,2.170000,1.480000,2.000000,101.000000,1,0,-0.000558,0.002232,0,0.000000,0.000000,0.000000,0.026459,-0.027588,0.000000,0.000000,0.001000,0.003000,FlatInitial
02:03:15.814 PM 02/14/2016,Teleop Disabled,0,FALSE,0,NO ERROR,0.000000,0.000000,0.000000,0.000000,Speed,Speed,-0.030000,2.170000,1.480000,2.000000,101.000000,1,0,-0.000558,0.002232,0,0.000000,0.000000,0.000000,0.026459,-0.027588,0.000000,-0.002000,-0.002000,0.004000,FlatInitial
02:03:15.914 PM 02/14/2016,Teleop Disabled,0,FALSE,0,NO ERROR,0.000000,0.000000,0.000000,0.000000,Speed,Speed,-0.030000,2.170000,1.480000,2.000000,101.000000,1,0,-0.000558,0.002232,0,0.000000,0.000000,0.000000,0.026459,-0.027588,0.000000,0.000000,0.000000,0.006000,FlatInitial
02:03:16.015 PM 02/14/2016,Teleop Disabled,0,FALSE,0,NO ERROR,0.000000,0.000000,0.000000,0.000000,Speed,Speed,-0.040000,2.180000,1.480000,2.000000,105.000000,1,0,-0.000558,0.002232,0,0.000000,0.000000,0.000000,0.026459,-0.027588,0.000000,-0.003000,0.000000,0.004000,FlatInitial
02:03:16.115 PM 02/14/2016,Teleop Disabled,0,FALSE,0,NO ERROR,0.000000,0.000000,0.000000,0.000000,Speed,Speed,-0.040000,2.180000,1.480000,2.000000,102.000000,1,0,-0.000558,0.002232,0,0.000000,0.000000,0.000000,0.026459,-0.027588,0.000000,-0.002000,0.000000,0.002000,FlatInitial
02:03:16.215 PM 02/14/2016,Teleop Disabled,0,FALSE,0,NO ERROR,0.000000,0.000000,0.000000,0.000000,Speed,Speed,-0.040000,2.180000,1.480000,2.000000,103.000000,1,0,-0.000558,0.002232,0,0.000000,0.000000,0.000000,0.026459,-0.027588,0.000000,0.000000,0.000000,-0.002000,FlatInitial
02:03:16.315 PM 02/14/2016,Teleop Disabled,0,FALSE,0,NO ERROR,0.000000,0.000000,0.000000,0.000000,Speed,Speed,-0.040000,2.180000,1.480000,3.000000,103.000000,1,0,-0.000558,0.002232,0,0.000000,0.000000,0.000000,0.026459,-0.027588,0.000000,-0.001000,-0.001000,0.002000,FlatInitial
02:03:16.415 PM 02/14/2016,Teleop Disabled,0,FALSE,0,NO ERROR,0.000000,0.000000,4000.000000,4000.000000,Speed,Speed,-0.040000,2.180000,1.480000,3.000000,103.000000,1,0,-0.000558,0.002232,0,0.000000,0.000000,0.000000,0.026459,-0.027588,0.000000,0.001000,0.000000,0.002000,FlatInitial
02:03:16.516 PM 02/14/2016,Teleop Disabled,0,FALSE,0,NO ERROR,0.000000,0.000000,4000.000000,4000.000000,Speed,Speed,-0.040000,2.170000,1.480000,3.000000,100.000000,1,0,-0.000558,0.002232,0,0.000000,0.000000,0.000000,0.026459,-0.027588,0.000000,0.000000,0.000000,0.007000,FlatInitial
02:03:16.616 PM 02/14/2016,Teleop Disabled,0,FALSE,0,NO ERROR,0.000000,0.000000,4000.000000,4000.000000,Speed,Speed,-0.040000,2.170000,1.480000,3.000000,103.000000,1,0,-0.000558,0.002232,0,0.000000,0.000000,0.000000,0.026459,-0.027588,0.000000,-0.003000,-0.002000,-0.002000,FlatInitial
02:03:16.717 PM 02/14/2016,Teleop Disabled,0,FALSE,0,NO ERROR,0.000000,0.000000,4000.000000,4000.000000,Speed,Speed,-0.050000,2.170000,1.470000,3.000000,103.000000,1,0,-0.000558,0.002232,0,0.000000,0.000000,0.000000,0.026459,-0.027588,0.000000,-0.002000,0.000000,0.000000,FlatInitial
02:03:16.818 PM 02/14/2016,Teleop Disabled,0,FALSE,0,NO ERROR,0.000000,0.000000,4000.000000,4000.000000,Speed,Speed,-0.050000,2.170000,1.480000,3.000000,104.000000,1,0,-0.000558,0.002232,0,0.000000,0.000000,0.000000,0.026459,-0.027588,0.000000,0.002000,0.000000,0.005000,FlatInitial
02:03:16.918 PM 02/14/2016,Teleop Disabled,0,FALSE,0,NO ERROR,0.000000,0.000000,4000.000000,4000.000000,Speed,Speed,-0.050000,2.170000,1.480000,3.000000,106.000000,1,0,-0.000558,0.002232,0,0.000000,0.000000,0.000000,0.026459,-0.027588,0.000000,0.000000,0.000000,0.002000,FlatInitial
02:03:17.019 PM 02/14/2016,Teleop Disabled,0,FALSE,0,NO ERROR,0.000000,0.000000,4000.000000,4000.000000,Speed,Speed,-0.050000,2.170000,1.480000,3.000000,102.000000,1,0,-0.000558,0.002232,0,0.000000,0.000000,0.000000,0.026459,-0.027588,0.000000,0.000000,0.001000,0.000000,FlatInitial
02:03:17.118 PM 02/14/2016,Teleop Disabled,0,FALSE,0,NO ERROR,0.000000,0.000000,4000.000000,4000.000000,Speed,Speed,-0.050000,2.170000,1.480000,3.000000,102.000000,1,0,-0.000558,0.002232,0,0.000000,0.000000,0.000000,0.026459,-0.027588,0.000000,-0.002000,0.000000,0.001000,FlatInitial
02:03:17.219 PM 02/14/2016,Teleop Disabled,0,FALSE,0,NO ERROR,0.000000,0.000000,4000.000000,4000.000000,Speed,Speed,-0.050000,2.170000,1.480000,3.000000,100.000000,1,0,-0.000558,0.002232,0,0.000000,0.000000,0.000000,0.026459,-0.027588,0.000000,0.000000,0.000000,0.001000,FlatInitial
02:03:17.319 PM 02/14/2016,Teleop Disabled,0,FALSE,0,NO ERROR,0.000000,0.000000,4000.000000,4000.000000,Speed,Speed,-0.050000,2.170000,1.480000,3.000000,101.000000,1,0,-0.000558,0.002232,0,0.000000,0.000000,0.000000,0.026459,-0.027588,0.000000,0.000000,0.000000,0.003000,FlatInitial
02:03:17.419 PM 02/14/2016,Teleop Disabled,0,FALSE,0,NO ERROR,0.000000,0.000000,4000.000000,4000.000000,Speed,Speed,-0.050000,2.170000,1.490000,3.000000,101.000000,1,0,-0.000558,0.002232,0,0.000000,0.000000,0.000000,0.026459,-0.027588,0.000000,0.000000,-0.003000,0.004000,FlatInitial
02:03:17.519 PM 02/14/2016,Teleop Disabled,0,FALSE,0,NO ERROR,0.000000,0.000000,4000.000000,4000.000000,Speed,Speed,-0.050000,2.170000,1.490000,3.000000,103.000000,1,0,-0.000558,0.002232,0,0.000000,0.000000,0.000000,0.026459,-0.027588,0.000000,0.000000,-0.001000,0.005000,FlatInitial
02:03:17.618 PM 02/14/2016,Teleop Disabled,0,FALSE,0,NO ERROR,0.000000,0.000000,4000.000000,4000.000000,Speed,Speed,-0.050000,2.170000,1.490000,3.000000,102.000000,1,0,-0.000558,0.002232,0,0.000000,0.000000,0.000000,0.026459,-0.027588,0.000000,0.004000,0.000000,-0.002000,FlatInitial
02:03:17.719 PM 02/14/2016,Teleop Disabled,0,FALSE,0,NO ERROR,0.000000,0.000000,4000.000000,4000.000000,Speed,Speed,-0.050000,2.170000,1.490000,3.000000,101.000000,1,0,-0.000558,0.002232,0,0.000000,0.000000,0.000000,0.026459,-0.027588,0.000000,0.001000,-0.002000,-0.001000,FlatInitial
02:03:17.819 PM 02/14/2016,Teleop Disabled,0,FALSE,0,NO ERROR,0.000000,0.000000,4000.000000,4000.000000,Speed,Speed,-0.050000,2.180000,1.500000,3.000000,100.000000,1,0,-0.000558,0.002232,0,0.000000,0.000000,0.000000,0.026459,-0.027588,0.000000,-0.001000,0.000000,0.002000,FlatInitial
02:03:17.919 PM 02/14/2016,Teleop Disabled,0,FALSE,0,NO ERROR,0.000000,0.000000,4000.000000,4000.000000,Speed,Speed,-0.050000,2.180000,1.500000,3.000000,101.000000,1,0,-0.000558,0.002232,0,0.000000,0.000000,0.000000,0.026459,-0.027588,0.000000,0.003000,0.000000,0.003000,FlatInitial
02:03:18.018 PM 02/14/2016,Teleop Disabled,0,FALSE,0,NO ERROR,0.000000,0.000000,4000.000000,4000.000000,Speed,Speed,-0.050000,2.190000,1.500000,3.000000,102.000000,1,0,-0.000558,0.002232,0,0.000000,0.000000,0.000000,0.026459,-0.027588,0.000000,0.000000,0.000000,0.002000,FlatInitial
02:03:18.119 PM 02/14/2016,Teleop Disabled,0,FALSE,0,NO ERROR,0.000000,0.000000,4000.000000,4000.000000,Speed,Speed,-0.050000,2.180000,1.500000,3.000000,102.000000,1,0,-0.000558,0.002232,0,0.000000,0.000000,0.000000,0.026459,-0.027588,0.000000,-0.002000,0.001000,0.001000,FlatInitial
02:03:18.219 PM 02/14/2016,Teleop Disabled,0,FALSE,0,NO ERROR,0.000000,0.000000,4000.000000,4000.000000,Speed,Speed,-0.050000,2.180000,1.500000,3.000000,101.000000,1,0,-0.000558,0.002232,0,0.000000,0.000000,0.000000,0.026459,-0.027588,0.000000,0.002000,-0.003000,0.004000,FlatInitial
02:03:18.319 PM 02/14/2016,Teleop Disabled,0,FALSE,0,NO ERROR,0.000000,0.000000,4000.000000,4000.000000,Speed,Speed,-0.060000,2.180000,1.500000,3.000000,103.000000,1,0,-0.000558,0.002232,0,0.000000,0.000000,0.000000,0.026459,-0.027588,0.000000,0.001000,0.003000,0.004000,FlatInitial
02:03:18.419 PM 02/14/2016,Teleop Disabled,0,FALSE,0,NO ERROR,0.000000,0.000000,4000.000000,4000.000000,Speed,Speed,-0.060000,2.180000,1.500000,3.000000,101.000000,1,0,-0.000558,0.002232,0,0.000000,0.000000,0.000000,0.026459,-0.027588,0.000000,0.000000,-0.002000,0.005000,FlatInitial
02:03:18.519 PM 02/14/2016,Teleop Disabled,0,FALSE,0,NO ERROR,0.000000,0.000000,4000.000000,4000.000000,Speed,Speed,-0.060000,2.170000,1.490000,3.000000,101.000000,1,0,-0.000558,0.002232,0,0.000000,0.000000,0.000000,0.026459,-0.027588,0.000000,0.001000,0.000000,0.005000,FlatInitial
02:03:18.619 PM 02/14/2016,Teleop Disabled,0,FALSE,0,NO ERROR,0.000000,0.000000,4000.000000,4000.000000,Speed,Speed,-0.060000,2.180000,1.490000,3.000000,102.000000,1,0,-0.000558,0.002232,0,0.000000,0.000000,0.000000,0.026459,-0.027588,0.000000,-0.001000,-0.001000,0.001000,FlatInitial
02:03:18.719 PM 02/14/2016,Teleop Disabled,0,FALSE,0,NO ERROR,0.000000,0.000000,4000.000000,4000.000000,Speed,Speed,-0.060000,2.180000,1.500000,3.000000,104.000000,1,0,-0.000558,0.002232,0,0.000000,0.000000,0.000000,0.026459,-0.027588,0.000000,0.001000,0.001000,0.004000,FlatInitial
02:03:18.819 PM 02/14/2016,Teleop Disabled,0,FALSE,0,NO ERROR,0.000000,0.000000,4000.000000,4000.000000,Speed,Speed,-0.070000,2.180000,1.500000,3.000000,102.000000,1,0,-0.000558,0.002232,0,0.000000,0.000000,0.000000,0.026459,-0.027588,0.000000,0.000000,0.001000,0.000000,FlatInitial
02:03:18.919 PM 02/14/2016,Teleop Disabled,0,FALSE,0,NO ERROR,0.000000,0.000000,4000.000000,4000.000000,Speed,Speed,-0.070000,2.180000,1.500000,3.000000,102.000000,1,0,-0.000558,0.002232,0,0.000000,0.000000,0.000000,0.026459,-0.027588,0.000000,0.000000,0.000000,0.004000,FlatInitial
02:03:19.018 PM 02/14/2016,Teleop Disabled,0,FALSE,0,NO ERROR,0.000000,0.000000,4000.000000,4000.000000,Speed,Speed,-0.070000,2.190000,1.500000,3.000000,103.000000,1,0,-0.000558,0.002232,0,0.000000,0.000000,0.000000,0.026459,-0.027588,0.000000,-0.002000,-0.004000,0.000000,FlatInitial
02:03:19.119 PM 02/14/2016,Teleop Disabled,0,FALSE,0,NO ERROR,0.000000,0.000000,4000.000000,4000.000000,Speed,Speed,-0.070000,2.190000,1.500000,3.000000,102.000000,1,0,-0.000558,0.002232,0,0.000000,0.000000,0.000000,0.026459,-0.027588,0.000000,0.000000,0.002000,0.000000,FlatInitial
02:03:19.220 PM 02/14/2016,Teleop Disabled,0,FALSE,0,NO ERROR,0.000000,0.000000,4000.000000,4000.000000,Speed,Speed,-0.070000,2.190000,1.490000,3.000000,102.000000,1,0,-0.000558,0.002232,0,0.000000,0.000000,0.000000,0.026459,-0.027588,0.000000,-0.003000,-0.004000,-0.003000,FlatInitial
02:03:19.320 PM 02/14/2016,Teleop Disabled,0,FALSE,0,NO ERROR,0.000000,0.000000,4000.000000,4000.000000,Speed,Speed,-0.070000,2.190000,1.490000,3.000000,101.000000,1,0,-0.000558,0.002232,0,0.000000,0.000000,0.000000,0.026459,-0.027588,0.000000,-0.003000,0.001000,0.004000,FlatInitial
02:03:19.420 PM 02/14/2016,Teleop Disabled,0,FALSE,0,NO ERROR,0.000000,0.000000,4000.000000,4000.000000,Speed,Speed,-0.070000,2.180000,1.490000,3.000000,101.000000,1,0,-0.000558,0.002232,0,0.000000,0.000000,0.000000,0.026459,-0.027588,0.000000,0.002000,0.001000,0.008000,FlatInitial
02:03:19.520 PM 02/14/2016,Teleop Disabled,0,FALSE,0,NO ERROR,0.000000,0.000000,4000.000000,4000.000000,Speed,Speed,-0.070000,2.190000,1.490000,3.000000,101.000000,1,0,-0.000558,0.002232,0,0.000000,0.000000,0.000000,0.026459,-0.027588,0.000000,0.002000,-0.001000,0.008000,FlatInitial
02:03:19.620 PM 02/14/2016,Teleop Disabled,0,FALSE,0,NO ERROR,0.000000,0.000000,4000.000000,4000.000000,Speed,Speed,-0.070000,2.180000,1.480000,3.000000,101.000000,1,0,-0.000558,0.002232,0,0.000000,0.000000,0.000000,0.026459,-0.027588,0.000000,0.001000,0.001000,-0.004000,FlatInitial
02:03:19.720 PM 02/14/2016,Teleop Disabled,0,FALSE,0,NO ERROR,0.000000,0.000000,4000.000000,4000.000000,Speed,Speed,-0.070000,2.180000,1.480000,3.000000,102.000000,1,0,-0.000558,0.002232,0,0.000000,0.000000,0.000000,0.026459,-0.027588,0.000000,0.000000,-0.004000,0.001000,FlatInitial
02:03:19.820 PM 02/14/2016,Teleop Disabled,0,FALSE,0,NO ERROR,0.000000,0.000000,4000.000000,4000.000000,Speed,Speed,-0.070000,2.180000,1.480000,3.000000,102.000000,1,0,-0.000558,0.002232,0,0.000000,0.000000,0.000000,0.026459,-0.027588,0.000000,0.000000,0.000000,0.004000,FlatInitial
02:03:19.920 PM 02/14/2016,Teleop Disabled,0,FALSE,0,NO ERROR,0.000000,0.000000,4000.000000,4000.000000,Speed,Speed,-0.070000,2.180000,1.480000,3.000000,101.000000,1,0,-0.000558,0.002232,0,0.000000,0.000000,0.000000,0.026459,-0.027588,0.000000,0.001000,-0.002000,0.002000,FlatInitial
02:03:20.021 PM 02/14/2016,Teleop Disabled,0,FALSE,0,NO ERROR,0.000000,0.000000,4000.000000,4000.000000,Speed,Speed,-0.080000,2.170000,1.480000,3.000000,102.000000,1,0,-0.000558,0.002232,0,0.000000,0.000000,0.000000,0.026459,-0.027588,0.000000,0.000000,-0.001000,0.006000,FlatInitial
02:03:20.121 PM 02/14/2016,Teleop Disabled,0,FALSE,0,NO ERROR,0.000000,0.000000,4000.000000,4000.000000,Speed,Speed,-0.080000,2.170000,1.480000,3.000000,101.000000,1,0,-0.000558,0.002232,0,0.000000,0.000000,0.000000,0.026459,-0.027588,0.000000,0.000000,0.002000,-0.001000,FlatInitial
02:03:20.221 PM 02/14/2016,Teleop Disabled,0,FALSE,0,NO ERROR,0.000000,0.000000,4000.000000,4000.000000,Speed,Speed,-0.070000,2.170000,1.480000,3.000000,101.000000,1,0,-0.000558,0.002232,0,0.000000,0.000000,0.000000,0.026459,-0.027588,0.000000,0.000000,0.003000,-0.001000,FlatInitial
02:03:20.321 PM 02/14/2016,Teleop Disabled,0,FALSE,0,NO ERROR,0.000000,0.000000,4000.000000,4000.000000,Speed,Speed,-0.070000,2.170000,1.490000,3.000000,101.000000,1,0,-0.000558,0.002232,0,0.000000,0.000000,0.000000,0.026459,-0.027588,0.000000,0.000000,0.000000,0.001000,FlatInitial
02:03:20.421 PM 02/14/2016,Teleop Disabled,0,FALSE,0,NO ERROR,0.000000,0.000000,4000.000000,4000.000000,Speed,Speed,-0.080000,2.170000,1.480000,3.000000,108.000000,1,0,-0.000558,0.002232,0,0.000000,0.000000,0.000000,0.026459,-0.027588,0.000000,0.000000,0.001000,0.000000,FlatInitial
02:03:20.521 PM 02/14/2016,Teleop Disabled,0,FALSE,0,NO ERROR,0.000000,0.000000,4000.000000,4000.000000,Speed,Speed,-0.070000,2.170000,1.480000,3.000000,102.000000,1,0,-0.000558,0.002232,0,0.000000,0.000000,0.000000,0.026459,-0.027588,0.000000,0.000000,0.002000,0.004000,FlatInitial
02:03:20.621 PM 02/14/2016,Teleop Disabled,0,FALSE,0,NO ERROR,0.000000,0.000000,4000.000000,4000.000000,Speed,Speed,-0.070000,2.170000,1.480000,3.000000,103.000000,1,0,-0.000558,0.002232,0,0.000000,0.000000,0.000000,0.026459,-0.027588,0.000000,0.000000,0.000000,0.001000,FlatInitial
02:03:20.722 PM 02/14/2016,Teleop Disabled,0,FALSE,0,NO ERROR,0.000000,0.000000,4000.000000,4000.000000,Speed,Speed,-0.070000,2.170000,1.480000,3.000000,101.000000,1,0,-0.000558,0.002232,0,0.000000,0.000000,0.000000,0.026459,-0.027588,0.000000,0.000000,-0.002000,0.003000,FlatInitial
02:03:20.822 PM 02/14/2016,Teleop Disabled,0,FALSE,0,NO ERROR,0.000000,0.000000,4000.000000,4000.000000,Speed,Speed,-0.070000,2.170000,1.480000,3.000000,101.000000,1,0,-0.000558,0.002232,0,0.000000,0.000000,0.000000,0.026459,-0.027588,0.000000,0.003000,0.001000,0.000000,FlatInitial
02:03:20.923 PM 02/14/2016,Teleop Disabled,0,FALSE,0,NO ERROR,0.000000,0.000000,4000.000000,4000.000000,Speed,Speed,-0.070000,2.170000,1.480000,3.000000,101.000000,1,0,-0.000558,0.002232,0,0.000000,0.000000,0.000000,0.026459,-0.027588,0.000000,0.001000,0.000000,0.001000,FlatInitial
02:03:21.023 PM 02/14/2016,Teleop Disabled,0,FALSE,0,NO ERROR,0.000000,0.000000,4000.000000,4000.000000,Speed,Speed,-0.080000,2.170000,1.480000,3.000000,101.000000,1,0,-0.000558,0.002232,0,0.000000,0.000000,0.000000,0.026459,-0.027588,0.000000,0.000000,0.000000,0.000000,FlatInitial
02:03:21.124 PM 02/14/2016,Teleop Disabled,0,FALSE,0,NO ERROR,0.000000,0.000000,4000.000000,4000.000000,Speed,Speed,-0.080000,2.170000,1.480000,3.000000,102.000000,1,0,-0.000558,0.002232,0,0.000000,0.000000,0.000000,0.026459,-0.027588,0.000000,0.000000,0.000000,0.004000,FlatInitial
02:03:21.224 PM 02/14/2016,Teleop Disabled,0,FALSE,0,NO ERROR,0.000000,0.000000,4000.000000,4000.000000,Speed,Speed,-0.080000,2.170000,1.480000,3.000000,101.000000,1,0,-0.000558,0.002232,0,0.000000,0.000000,0.000000,0.026459,-0.027588,0.000000,0.000000,0.001000,0.002000,FlatInitial
02:03:21.325 PM 02/14/2016,Teleop Disabled,0,FALSE,0,NO ERROR,0.000000,0.000000,4000.000000,4000.000000,Speed,Speed,-0.080000,2.170000,1.480000,3.000000,102.000000,1,0,-0.000558,0.002232,0,0.000000,0.000000,0.000000,0.026459,-0.027588,0.000000,0.001000,0.000000,0.001000,FlatInitial
02:03:21.425 PM 02/14/2016,Teleop Disabled,0,FALSE,0,NO ERROR,0.000000,0.000000,4000.000000,4000.000000,Speed,Speed,-0.080000,2.170000,1.480000,3.000000,102.000000,1,0,-0.000558,0.002232,0,0.000000,0.000000,0.000000,0.026459,-0.027588,0.000000,0.000000,0.001000,0.001000,FlatInitial
02:03:21.527 PM 02/14/2016,Teleop Disabled,0,FALSE,0,NO ERROR,0.000000,0.000000,4000.000000,4000.000000,Speed,Speed,-0.090000,2.170000,1.480000,3.000000,106.000000,1,0,-0.000558,0.002232,0,0.000000,0.000000,0.000000,0.026459,-0.027588,0.000000,-0.001000,0.000000,0.009000,FlatInitial
02:03:21.627 PM 02/14/2016,Teleop Disabled,0,FALSE,0,NO ERROR,0.000000,0.000000,4000.000000,4000.000000,Speed,Speed,-0.090000,2.170000,1.480000,3.000000,102.000000,1,0,-0.000558,0.002232,0,0.000000,0.000000,0.000000,0.026459,-0.027588,0.000000,-0.001000,0.002000,0.004000,FlatInitial
02:03:21.729 PM 02/14/2016,Teleop Disabled,0,FALSE,0,NO ERROR,0.000000,0.000000,4000.000000,4000.000000,Speed,Speed,-0.090000,2.170000,1.480000,3.000000,102.000000,1,0,-0.000558,0.002232,0,0.000000,0.000000,0.000000,0.026459,-0.027588,0.000000,0.000000,-0.001000,0.000000,FlatInitial
02:03:21.828 PM 02/14/2016,Teleop Disabled,0,FALSE,0,NO ERROR,0.000000,0.000000,4000.000000,4000.000000,Speed,Speed,-0.090000,2.160000,1.480000,3.000000,101.000000,1,0,-0.000558,0.002232,0,0.000000,0.000000,0.000000,0.026459,-0.027588,0.000000,-0.003000,-0.001000,-0.001000,FlatInitial
02:03:21.929 PM 02/14/2016,Teleop Disabled,0,FALSE,0,NO ERROR,0.000000,0.000000,4000.000000,4000.000000,Speed,Speed,-0.090000,2.170000,1.480000,3.000000,102.000000,1,0,-0.000558,0.002232,0,0.000000,0.000000,0.000000,0.026459,-0.027588,0.000000,-0.002000,0.001000,0.000000,FlatInitial
02:03:22.029 PM 02/14/2016,Teleop Disabled,0,FALSE,0,NO ERROR,0.000000,0.000000,4000.000000,4000.000000,Speed,Speed,-0.090000,2.160000,1.480000,3.000000,101.000000,1,0,-0.000558,0.002232,0,0.000000,0.000000,0.000000,0.026459,-0.027588,0.000000,0.000000,0.000000,0.000000,FlatInitial
02:03:22.129 PM 02/14/2016,Teleop Disabled,0,FALSE,0,NO ERROR,0.000000,0.000000,4000.000000,4000.000000,Speed,Speed,-0.090000,2.170000,1.480000,3.000000,102.000000,1,0,-0.000558,0.002232,0,0.000000,0.000000,0.000000,0.026459,-0.027588,0.000000,0.000000,0.000000,0.005000,FlatInitial
02:03:22.229 PM 02/14/2016,Teleop Disabled,0,FALSE,0,NO ERROR,0.000000,0.000000,4000.000000,4000.000000,Speed,Speed,-0.090000,2.170000,1.480000,3.000000,102.000000,1,0,-0.000558,0.002232,0,0.000000,0.000000,0.000000,0.026459,-0.027588,0.000000,0.000000,-0.003000,0.001000,FlatInitial
02:03:22.329 PM 02/14/2016,Teleop Disabled,0,FALSE,0,NO ERROR,0.000000,0.000000,4000.000000,4000.000000,Speed,Speed,-0.100000,2.170000,1.480000,3.000000,103.000000,1,0,-0.000558,0.002232,0,0.000000,0.000000,0.000000,0.026459,-0.027588,0.000000,0.000000,0.000000,0.004000,FlatInitial
02:03:22.429 PM 02/14/2016,Teleop Disabled,0,FALSE,0,NO ERROR,0.000000,0.000000,4000.000000,4000.000000,Speed,Speed,-0.100000,2.170000,1.480000,3.000000,102.000000,1,0,-0.000558,0.002232,0,0.000000,0.000000,0.000000,0.026459,-0.027588,0.000000,0.003000,0.001000,0.001000,FlatInitial
02:03:22.531 PM 02/14/2016,Teleop Disabled,0,FALSE,0,NO ERROR,0.000000,0.000000,4000.000000,4000.000000,Speed,Speed,-0.100000,2.170000,1.480000,3.000000,104.000000,1,0,-0.000558,0.002232,0,0.000000,0.000000,0.000000,0.026459,-0.027588,0.000000,0.001000,0.000000,0.001000,FlatInitial
02:03:22.631 PM 02/14/2016,Teleop Disabled,0,FALSE,0,NO ERROR,0.000000,0.000000,4000.000000,4000.000000,Speed,Speed,-0.100000,2.170000,1.480000,3.000000,104.000000,1,0,-0.000558,0.002232,0,0.000000,0.000000,0.000000,0.026459,-0.027588,0.000000,0.000000,0.000000,0.004000,FlatInitial
02:03:22.731 PM 02/14/2016,Teleop Enabled,0,FALSE,0,NO ERROR,0.000000,0.000000,4000.000000,4000.000000,Speed,Speed,-0.110000,2.170000,1.480000,3.000000,103.000000,1,0,-0.000558,0.002232,0,0.000000,0.000000,0.000000,0.026459,-0.027588,0.000000,0.000000,-0.010000,0.015000,FlatInitial
02:03:22.831 PM 02/14/2016,Teleop Enabled,0,FALSE,0,NO ERROR,0.000000,0.000000,4000.000000,4000.000000,Speed,Speed,-0.110000,2.170000,1.490000,3.000000,102.000000,1,0,-0.000558,0.002232,0,0.004166,0.000000,0.000000,0.026489,-0.027588,0.000000,0.029000,0.008000,0.004000,FlatInitial
02:03:22.932 PM 02/14/2016,Teleop Enabled,0,FALSE,0,NO ERROR,0.000000,0.000000,4000.000000,4000.000000,Speed,Speed,-0.110000,2.230000,1.470000,3.000000,101.000000,1,0,-0.000558,0.002232,0,0.012878,0.006027,0.000000,0.027069,-0.027222,0.000000,-0.038000,-0.003000,0.063000,FlatInitial
02:03:23.032 PM 02/14/2016,Teleop Enabled,0,FALSE,0,NO ERROR,0.000000,0.000000,4000.000000,4000.000000,Speed,Speed,-0.110000,2.260000,1.440000,3.000000,103.000000,1,0,-0.000558,0.002232,0,0.002808,0.008484,0.000000,0.027130,-0.026871,0.000000,0.016000,0.010000,-0.045000,FlatInitial
02:03:23.132 PM 02/14/2016,Teleop Enabled,0,FALSE,0,NO ERROR,0.000000,0.000000,4000.000000,4000.000000,Speed,Speed,-0.110000,2.250000,1.450000,3.000000,105.000000,1,0,-0.000558,0.002232,0,0.000000,0.000000,0.000000,0.027176,-0.026611,0.000000,-0.006000,0.006000,-0.023000,FlatInitial
02:03:23.232 PM 02/14/2016,Teleop Enabled,0,FALSE,0,NO ERROR,0.000000,0.000000,4000.000000,4000.000000,Speed,Speed,-0.120000,2.260000,1.450000,3.000000,104.000000,1,0,-0.000558,0.002232,0,0.000000,0.000000,0.000000,0.027176,-0.026611,0.000000,-0.004000,-0.001000,0.003000,FlatInitial
02:03:23.332 PM 02/14/2016,Teleop Enabled,0,FALSE,0,NO ERROR,0.000000,0.000000,4000.000000,4000.000000,Speed,Speed,-0.110000,2.250000,1.440000,3.000000,101.000000,1,0,-0.000558,0.002232,0,0.000000,0.000000,0.000000,0.027176,-0.026611,0.000000,0.007000,-0.008000,0.003000,FlatInitial
02:03:23.432 PM 02/14/2016,Teleop Enabled,0,FALSE,0,NO ERROR,0.000000,0.000000,4000.000000,4000.000000,Speed,Speed,-0.110000,2.250000,1.440000,3.000000,101.000000,1,0,-0.000558,0.002232,0,0.000000,0.000000,0.000000,0.027176,-0.026611,0.000000,0.003000,0.004000,-0.010000,FlatInitial
02:03:23.533 PM 02/14/2016,Teleop Enabled,0,FALSE,0,NO ERROR,0.000000,0.000000,4000.000000,4000.000000,Speed,Speed,-0.110000,2.250000,1.440000,3.000000,101.000000,1,0,-0.000558,0.002232,0,0.000000,0.000000,0.000000,0.027176,-0.026611,0.000000,0.004000,-0.001000,-0.002000,FlatInitial
02:03:23.633 PM 02/14/2016,Teleop Enabled,0,FALSE,0,NO ERROR,0.000000,0.000000,4000.000000,4000.000000,Speed,Speed,-0.110000,2.250000,1.440000,3.000000,102.000000,1,0,-0.000558,0.002232,0,0.000000,0.000000,0.000000,0.027176,-0.026611,0.000000,0.000000,-0.004000,-0.001000,FlatInitial
02:03:23.733 PM 02/14/2016,Teleop Enabled,0,FALSE,0,NO ERROR,0.000000,0.000000,4000.000000,4000.000000,Speed,Speed,-0.110000,2.250000,1.440000,3.000000,102.000000,1,0,-0.000558,0.002232,0,0.000000,0.000000,0.000000,0.027176,-0.026611,0.000000,0.002000,-0.004000,0.000000,FlatInitial
02:03:23.833 PM 02/14/2016,Teleop Enabled,0,FALSE,0,NO ERROR,0.000000,0.000000,4000.000000,4000.000000,Speed,Speed,-0.120000,2.250000,1.440000,3.000000,101.000000,1,0,-0.000558,0.002232,0,0.000000,0.000000,0.000000,0.027176,-0.026611,0.000000,-0.002000,0.006000,0.007000,FlatInitial
02:03:23.933 PM 02/14/2016,Teleop Enabled,0,FALSE,0,NO ERROR,0.000000,0.000000,4000.000000,4000.000000,Speed,Speed,-0.120000,2.260000,1.440000,3.000000,102.000000,1,0,-0.000558,0.002232,0,0.000000,0.000000,0.000000,0.027176,-0.026611,0.000000,0.001000,0.007000,-0.002000,FlatInitial
02:03:24.033 PM 02/14/2016,Teleop Enabled,0,FALSE,0,NO ERROR,0.000000,0.000000,4000.000000,4000.000000,Speed,Speed,-0.110000,2.260000,1.430000,3.000000,101.000000,1,0,-0.000558,0.002232,0,0.000000,0.000000,0.000000,0.027176,-0.026611,0.000000,-0.003000,-0.006000,0.000000,FlatInitial
02:03:24.133 PM 02/14/2016,Teleop Enabled,0,FALSE,0,NO ERROR,0.000000,0.000000,4000.000000,4000.000000,Speed,Speed,-0.110000,2.240000,1.430000,3.000000,102.000000,1,0,-0.000558,0.002232,0,-0.005951,0.000000,0.000000,0.027100,-0.026611,0.000000,-0.002000,-0.022000,0.009000,FlatInitial
02:03:24.234 PM 02/14/2016,Teleop Enabled,0,FALSE,0,NO ERROR,0.000000,0.000000,4000.000000,4000.000000,Speed,Speed,-0.110000,2.250000,1.420000,3.000000,103.000000,1,0,-0.000558,0.002232,0,0.000000,-0.002472,0.000000,0.027023,-0.026703,0.000000,-0.002000,0.005000,-0.006000,FlatInitial
02:03:24.335 PM 02/14/2016,Teleop Enabled,0,FALSE,0,NO ERROR,0.000000,0.000000,4000.000000,4000.000000,Speed,Speed,-0.120000,2.250000,1.430000,3.000000,102.000000,1,0,-0.000558,0.002232,0,0.000000,0.000000,0.000000,0.027023,-0.026703,0.000000,-0.005000,-0.006000,0.000000,FlatInitial
02:03:24.435 PM 02/14/2016,Teleop Enabled,0,FALSE,0,NO ERROR,0.000000,0.000000,4000.000000,4000.000000,Speed,Speed,-0.120000,2.260000,1.440000,3.000000,101.000000,1,0,-0.000558,0.002232,0,0.000000,0.000000,0.000000,0.027023,-0.026703,0.000000,0.004000,0.005000,0.002000,FlatInitial
02:03:24.535 PM 02/14/2016,Teleop Enabled,0,FALSE,0,NO ERROR,0.000000,0.000000,4000.000000,4000.000000,Speed,Speed,-0.120000,2.260000,1.430000,3.000000,101.000000,1,0,-0.000558,0.002232,0,0.000000,0.000000,0.000000,0.027023,-0.026703,0.000000,-0.001000,-0.004000,0.015000,FlatInitial
02:03:24.636 PM 02/14/2016,Teleop Enabled,0,FALSE,0,NO ERROR,0.000000,0.000000,4000.000000,4000.000000,Speed,Speed,-0.120000,2.250000,1.430000,3.000000,101.000000,1,0,-0.000558,0.002232,0,0.000000,0.000000,0.000000,0.027023,-0.026703,0.000000,0.001000,-0.002000,0.003000,FlatInitial
02:03:24.736 PM 02/14/2016,Teleop Enabled,0,FALSE,0,NO ERROR,0.000000,0.000000,4000.000000,4000.000000,Speed,Speed,-0.120000,2.250000,1.430000,3.000000,101.000000,1,0,-0.000558,0.002232,0,0.000000,0.000000,0.000000,0.027023,-0.026703,0.000000,0.000000,-0.002000,0.001000,FlatInitial
02:03:24.836 PM 02/14/2016,Teleop Enabled,0,FALSE,0,NO ERROR,0.000000,0.000000,4000.000000,4000.000000,Speed,Speed,-0.120000,2.260000,1.440000,3.000000,102.000000,1,0,-0.000558,0.002232,0,0.000000,0.000000,0.000000,0.027023,-0.026703,0.000000,-0.002000,0.000000,-0.004000,FlatInitial
02:03:24.936 PM 02/14/2016,Teleop Enabled,0,FALSE,0,NO ERROR,0.000000,0.000000,4000.000000,4000.000000,Speed,Speed,-0.120000,2.250000,1.440000,3.000000,101.000000,1,0,-0.000558,0.002232,0,0.000000,0.000000,0.000000,0.027023,-0.026703,0.000000,0.001000,0.001000,0.000000,FlatInitial
02:03:25.036 PM 02/14/2016,Teleop Enabled,0,FALSE,0,NO ERROR,0.000000,0.000000,4000.000000,4000.000000,Speed,Speed,-0.120000,2.250000,1.440000,3.000000,101.000000,1,0,-0.000558,0.002232,0,0.000000,0.000000,0.000000,0.027023,-0.026703,0.000000,0.000000,0.003000,0.003000,FlatInitial
02:03:25.137 PM 02/14/2016,Teleop Enabled,0,FALSE,0,NO ERROR,0.000000,0.000000,4000.000000,4000.000000,Speed,Speed,-0.120000,2.250000,1.440000,3.000000,101.000000,1,0,-0.000558,0.002232,0,0.000000,0.000000,0.000000,0.027023,-0.026703,0.000000,0.001000,-0.007000,-0.003000,FlatInitial
02:03:25.237 PM 02/14/2016,Teleop Enabled,0,FALSE,0,NO ERROR,0.000000,0.000000,4000.000000,4000.000000,Speed,Speed,-0.120000,2.250000,1.450000,3.000000,110.000000,1,0,-0.000558,0.002232,0,0.000000,0.000000,0.000000,0.027023,-0.026703,0.000000,-0.001000,-0.001000,-0.002000,FlatInitial
02:03:25.337 PM 02/14/2016,Teleop Enabled,0,FALSE,0,NO ERROR,0.000000,0.000000,4000.000000,4000.000000,Speed,Speed,-0.120000,2.250000,1.440000,3.000000,106.000000,1,0,-0.000558,0.002232,0,0.000000,0.000000,0.000000,0.027023,-0.026703,0.000000,0.002000,0.000000,0.007000,FlatInitial
02:03:25.437 PM 02/14/2016,Teleop Enabled,0,FALSE,0,NO ERROR,0.000000,0.000000,4000.000000,4000.000000,Speed,Speed,-0.120000,2.260000,1.440000,3.000000,101.000000,1,0,-0.000558,0.002232,0,0.000000,0.000000,0.000000,0.027023,-0.026703,0.000000,0.004000,0.006000,0.000000,FlatInitial
02:03:25.537 PM 02/14/2016,Teleop Enabled,0,FALSE,0,NO ERROR,0.000000,0.000000,4000.000000,4000.000000,Speed,Speed,-0.120000,2.250000,1.440000,3.000000,101.000000,1,0,-0.000558,0.002232,0,0.000000,0.000000,0.000000,0.027023,-0.026703,0.000000,-0.002000,0.000000,0.013000,FlatInitial
02:03:25.637 PM 02/14/2016,Teleop Enabled,0,FALSE,0,NO ERROR,0.000000,0.000000,4000.000000,4000.000000,Speed,Speed,-0.120000,2.240000,1.440000,3.000000,101.000000,1,0,-0.000558,0.002232,0,0.000000,0.000000,0.000000,0.027023,-0.026703,0.000000,0.000000,0.000000,-0.009000,FlatInitial
02:03:25.737 PM 02/14/2016,Teleop Enabled,0,FALSE,0,NO ERROR,0.000000,0.000000,4000.000000,4000.000000,Speed,Speed,-0.120000,2.240000,1.440000,3.000000,102.000000,1,0,-0.000558,0.002232,0,0.000000,0.000000,0.000000,0.027023,-0.026703,0.000000,0.000000,0.000000,-0.009000,FlatInitial
02:03:25.837 PM 02/14/2016,Teleop Enabled,0,FALSE,0,NO ERROR,0.000000,0.000000,4000.000000,4000.000000,Speed,Speed,-0.120000,2.250000,1.450000,3.000000,104.000000,1,0,-0.000558,0.002232,0,0.000000,0.000000,0.000000,0.027023,-0.026703,0.000000,0.006000,-0.001000,-0.002000,FlatInitial
02:03:25.937 PM 02/14/2016,Teleop Enabled,0,FALSE,0,NO ERROR,0.000000,0.000000,4000.000000,4000.000000,Speed,Speed,-0.120000,2.250000,1.450000,3.000000,101.000000,1,0,-0.000558,0.002232,0,0.000000,0.000000,0.000000,0.027023,-0.026703,0.000000,0.001000,-0.002000,0.006000,FlatInitial
02:03:26.037 PM 02/14/2016,Teleop Enabled,0,FALSE,0,NO ERROR,0.000000,0.000000,4000.000000,4000.000000,Speed,Speed,-0.120000,2.240000,1.460000,3.000000,104.000000,1,0,-0.000558,0.002232,0,0.000000,0.000000,0.000000,0.027023,-0.026703,0.000000,0.000000,-0.004000,-0.001000,FlatInitial
02:03:26.137 PM 02/14/2016,Teleop Enabled,0,FALSE,0,NO ERROR,0.000000,0.000000,4000.000000,4000.000000,Speed,Speed,-0.120000,2.240000,1.460000,3.000000,102.000000,1,0,-0.000558,0.002232,0,0.000000,0.000000,0.000000,0.027023,-0.026703,0.000000,-0.003000,-0.010000,0.004000,FlatInitial
02:03:26.239 PM 02/14/2016,Teleop Enabled,0,FALSE,0,NO ERROR,0.000000,0.000000,4000.000000,4000.000000,Speed,Speed,-0.120000,2.240000,1.470000,3.000000,101.000000,1,0,-0.000558,0.002232,0,0.000000,0.000000,0.000000,0.027023,-0.026703,0.000000,0.001000,0.000000,0.009000,FlatInitial
02:03:26.340 PM 02/14/2016,Teleop Enabled,0,FALSE,0,NO ERROR,0.000000,0.000000,4000.000000,4000.000000,Speed,Speed,-0.120000,2.240000,1.470000,3.000000,101.000000,1,0,-0.000558,0.002232,0,0.000000,0.000000,0.000000,0.027023,-0.026703,0.000000,-0.002000,0.001000,0.003000,FlatInitial
02:03:26.440 PM 02/14/2016,Teleop Enabled,0,FALSE,0,NO ERROR,0.000000,0.000000,4000.000000,4000.000000,Speed,Speed,-0.120000,2.240000,1.460000,3.000000,100.000000,1,0,-0.000558,0.002232,0,0.000000,0.000000,0.000000,0.027023,-0.026703,0.000000,0.001000,0.000000,0.000000,FlatInitial
02:03:26.541 PM 02/14/2016,Teleop Enabled,0,FALSE,0,NO ERROR,0.000000,0.000000,4000.000000,4000.000000,Speed,Speed,-0.120000,2.240000,1.460000,3.000000,103.000000,1,0,-0.000558,0.002232,0,0.000000,0.000000,0.000000,0.027023,-0.026703,0.000000,0.002000,-0.002000,0.000000,FlatInitial
02:03:26.641 PM 02/14/2016,Teleop Enabled,0,FALSE,0,NO ERROR,0.000000,0.000000,4000.000000,4000.000000,Speed,Speed,-0.120000,2.250000,1.450000,3.000000,101.000000,1,0,-0.000558,0.002232,0,0.000000,0.000000,0.000000,0.027023,-0.026703,0.000000,-0.004000,0.000000,0.006000,FlatInitial
02:03:26.741 PM 02/14/2016,Teleop Enabled,0,FALSE,0,NO ERROR,0.000000,0.000000,4000.000000,4000.000000,Speed,Speed,-0.120000,2.250000,1.450000,3.000000,101.000000,1,0,-0.000558,0.002232,0,0.000000,0.000000,0.000000,0.027023,-0.026703,0.000000,-0.004000,0.000000,0.001000,FlatInitial
02:03:26.842 PM 02/14/2016,Teleop Enabled,0,FALSE,0,NO ERROR,0.000000,0.000000,4000.000000,4000.000000,Speed,Speed,-0.120000,2.240000,1.450000,3.000000,101.000000,1,0,-0.000558,0.002232,0,0.000000,0.000000,0.000000,0.027023,-0.026703,0.000000,-0.001000,0.000000,0.000000,FlatInitial
02:03:26.942 PM 02/14/2016,Teleop Enabled,0,FALSE,0,NO ERROR,0.000000,0.000000,4000.000000,4000.000000,Speed,Speed,-0.130000,2.250000,1.440000,3.000000,100.000000,1,0,-0.000558,0.002232,0,0.000000,0.000000,0.000000,0.027023,-0.026703,0.000000,-0.003000,-0.002000,-0.003000,FlatInitial
02:03:27.042 PM 02/14/2016,Teleop Enabled,0,FALSE,0,NO ERROR,0.000000,0.000000,4000.000000,4000.000000,Speed,Speed,-0.130000,2.240000,1.450000,3.000000,101.000000,1,0,-0.000558,0.002232,0,0.000000,0.000000,0.000000,0.027023,-0.026703,0.000000,0.002000,-0.008000,0.008000,FlatInitial
02:03:27.143 PM 02/14/2016,Teleop Enabled,0,FALSE,0,NO ERROR,0.000000,0.000000,4000.000000,4000.000000,Speed,Speed,-0.130000,2.240000,1.440000,3.000000,101.000000,1,0,-0.000558,0.002232,0,0.000000,0.000000,0.000000,0.027023,-0.026703,0.000000,0.003000,-0.006000,0.011000,FlatInitial
02:03:27.244 PM 02/14/2016,Teleop Enabled,0,FALSE,0,NO ERROR,0.000000,0.000000,4000.000000,4000.000000,Speed,Speed,-0.130000,2.240000,1.440000,3.000000,103.000000,1,0,-0.000558,0.002232,0,0.000000,0.000000,0.000000,0.027023,-0.026703,0.000000,0.006000,-0.004000,0.005000,FlatInitial
02:03:27.348 PM 02/14/2016,Teleop Enabled,0,FALSE,0,NO ERROR,0.000000,0.000000,4000.000000,4000.000000,Speed,Speed,-0.130000,2.260000,1.440000,3.000000,103.000000,1,0,-0.000558,0.002232,0,0.000000,0.000000,0.000000,0.027023,-0.026703,0.000000,0.001000,-0.004000,0.003000,FlatInitial
02:03:27.449 PM 02/14/2016,Teleop Enabled,0,FALSE,0,NO ERROR,0.000000,0.000000,4000.000000,4000.000000,Speed,Speed,-0.130000,2.250000,1.450000,3.000000,103.000000,1,0,-0.000558,0.002232,0,0.000000,0.000000,0.000000,0.027023,-0.026703,0.000000,0.002000,-0.003000,0.001000,FlatInitial
02:03:27.550 PM 02/14/2016,Teleop Enabled,0,FALSE,0,NO ERROR,0.000000,0.000000,4000.000000,4000.000000,Speed,Speed,-0.130000,2.260000,1.450000,3.000000,103.000000,1,0,-0.000558,0.002232,0,0.000000,0.000000,0.000000,0.027023,-0.026703,0.000000,0.001000,-0.001000,0.005000,FlatInitial
02:03:27.651 PM 02/14/2016,Teleop Enabled,0,FALSE,0,NO ERROR,0.000000,0.000000,4000.000000,4000.000000,Speed,Speed,-0.130000,2.260000,1.450000,3.000000,102.000000,1,0,-0.000558,0.002232,0,0.000000,0.000000,0.000000,0.027023,-0.026703,0.000000,0.000000,-0.003000,0.005000,FlatInitial
02:03:27.751 PM 02/14/2016,Teleop Enabled,0,FALSE,0,NO ERROR,0.000000,0.000000,4000.000000,4000.000000,Speed,Speed,-0.130000,2.260000,1.450000,3.000000,102.000000,1,0,-0.000558,0.002232,0,0.000000,0.000000,0.000000,0.027023,-0.026703,0.000000,0.003000,-0.001000,0.011000,FlatInitial
02:03:27.852 PM 02/14/2016,Teleop Enabled,0,FALSE,0,NO ERROR,0.000000,0.000000,4000.000000,4000.000000,Speed,Speed,-0.130000,2.260000,1.440000,3.000000,101.000000,1,0,-0.000558,0.002232,0,0.000000,0.000000,0.000000,0.027023,-0.026703,0.000000,0.000000,0.000000,0.001000,FlatInitial
02:03:27.952 PM 02/14/2016,Teleop Enabled,0,FALSE,0,NO ERROR,0.000000,0.000000,4000.000000,4000.000000,Speed,Speed,-0.140000,2.260000,1.440000,3.000000,101.000000,1,0,-0.000558,0.002232,0,0.000000,0.000000,0.000000,0.027023,-0.026703,0.000000,0.000000,0.000000,0.002000,FlatInitial
02:03:28.053 PM 02/14/2016,Teleop Enabled,0,FALSE,0,NO ERROR,0.000000,0.000000,4000.000000,4000.000000,Speed,Speed,-0.140000,2.260000,1.440000,3.000000,101.000000,1,0,-0.000558,0.002232,0,0.000000,0.000000,0.000000,0.027023,-0.026703,0.000000,0.002000,-0.001000,0.002000,FlatInitial
02:03:28.153 PM 02/14/2016,Teleop Enabled,0,FALSE,0,NO ERROR,0.000000,0.000000,4000.000000,4000.000000,Speed,Speed,-0.140000,2.260000,1.450000,3.000000,101.000000,1,0,-0.000558,0.002232,0,0.000000,0.000000,0.000000,0.027023,-0.026703,0.000000,0.002000,-0.002000,0.003000,FlatInitial
02:03:28.255 PM 02/14/2016,Teleop Enabled,0,FALSE,0,NO ERROR,0.000000,0.000000,4000.000000,4000.000000,Speed,Speed,-0.140000,2.260000,1.450000,3.000000,103.000000,1,0,-0.000558,0.002232,0,0.000000,0.000000,0.000000,0.027023,-0.026703,0.000000,0.001000,-0.002000,0.003000,FlatInitial
02:03:28.358 PM 02/14/2016,Teleop Enabled,0,FALSE,0,NO ERROR,0.000000,0.000000,4000.000000,4000.000000,Speed,Speed,-0.140000,2.260000,1.450000,3.000000,101.000000,1,0,-0.000558,0.002232,0,0.000000,0.000000,0.000000,0.027023,-0.026703,0.000000,0.000000,0.001000,0.000000,FlatInitial
02:03:28.460 PM 02/14/2016,Teleop Enabled,0,FALSE,0,NO ERROR,0.000000,0.000000,4000.000000,4000.000000,Speed,Speed,-0.140000,2.260000,1.450000,3.000000,104.000000,1,0,-0.000558,0.002232,0,0.000000,0.000000,0.000000,0.027023,-0.026703,0.000000,0.000000,-0.001000,0.003000,FlatInitial
02:03:28.560 PM 02/14/2016,Teleop Enabled,0,FALSE,0,NO ERROR,0.000000,0.000000,4000.000000,4000.000000,Speed,Speed,-0.140000,2.260000,1.460000,3.000000,102.000000,1,0,-0.000558,0.002232,0,0.000000,0.000000,0.000000,0.027023,-0.026703,0.000000,0.002000,0.000000,0.002000,FlatInitial
02:03:28.660 PM 02/14/2016,Teleop Enabled,0,FALSE,0,NO ERROR,0.000000,0.000000,4000.000000,4000.000000,Speed,Speed,-0.140000,2.260000,1.460000,3.000000,103.000000,1,0,-0.000558,0.002232,0,0.000000,0.000000,0.000000,0.027023,-0.026703,0.000000,0.000000,0.000000,0.004000,FlatInitial
02:03:28.761 PM 02/14/2016,Teleop Enabled,0,FALSE,0,NO ERROR,0.000000,0.000000,4000.000000,4000.000000,Speed,Speed,-0.140000,2.260000,1.460000,3.000000,101.000000,1,0,-0.000558,0.002232,0,0.000000,0.000000,0.000000,0.027023,-0.026703,0.000000,-0.002000,0.000000,0.000000,FlatInitial
02:03:28.862 PM 02/14/2016,Teleop Enabled,0,FALSE,0,NO ERROR,0.000000,0.000000,4000.000000,4000.000000,Speed,Speed,-0.140000,2.250000,1.460000,3.000000,102.000000,1,0,-0.000558,0.002232,0,0.000000,0.000000,0.000000,0.027023,-0.026703,0.000000,-0.001000,0.002000,0.001000,FlatInitial
02:03:28.962 PM 02/14/2016,Teleop Enabled,0,FALSE,0,NO ERROR,0.000000,0.000000,4000.000000,4000.000000,Speed,Speed,-0.140000,2.250000,1.460000,3.000000,100.000000,1,0,-0.000558,0.002232,0,0.000000,0.000000,0.000000,0.027023,-0.026703,0.000000,0.000000,0.000000,0.002000,FlatInitial
02:03:29.064 PM 02/14/2016,Teleop Enabled,0,FALSE,0,NO ERROR,0.000000,0.000000,4000.000000,4000.000000,Speed,Speed,-0.140000,2.260000,1.460000,3.000000,101.000000,1,0,-0.000558,0.002232,0,0.000000,0.000000,0.000000,0.027023,-0.026703,0.000000,0.000000,-0.001000,0.005000,FlatInitial
02:03:29.168 PM 02/14/2016,Teleop Enabled,0,FALSE,0,NO ERROR,0.000000,0.000000,4000.000000,4000.000000,Speed,Speed,-0.140000,2.260000,1.460000,3.000000,101.000000,1,0,-0.000558,0.002232,0,0.000000,0.000000,0.000000,0.027023,-0.026703,0.000000,0.000000,-0.001000,0.004000,FlatInitial
02:03:29.268 PM 02/14/2016,Teleop Enabled,0,FALSE,0,NO ERROR,0.000000,0.000000,4000.000000,4000.000000,Speed,Speed,-0.140000,2.260000,1.460000,3.000000,103.000000,1,0,-0.000558,0.002232,0,0.000000,0.000000,0.000000,0.027023,-0.026703,0.000000,0.004000,-0.005000,0.006000,FlatInitial
02:03:29.366 PM 02/14/2016,Teleop Enabled,0,FALSE,0,NO ERROR,0.000000,0.000000,4000.000000,4000.000000,Speed,Speed,-0.140000,2.260000,1.460000,3.000000,103.000000,1,0,-0.000558,0.002232,0,0.000000,0.000000,0.000000,0.027023,-0.026703,0.000000,0.004000,-0.005000,0.006000,FlatInitial
02:03:29.468 PM 02/14/2016,Teleop Enabled,0,FALSE,0,NO ERROR,0.000000,0.000000,4000.000000,4000.000000,Speed,Speed,-0.140000,2.260000,1.460000,3.000000,102.000000,1,0,-0.000558,0.002232,0,0.000000,0.000000,0.000000,0.027023,-0.026703,0.000000,0.001000,0.000000,0.000000,FlatInitial
02:03:29.569 PM 02/14/2016,Teleop Enabled,0,FALSE,0,NO ERROR,0.000000,0.000000,4000.000000,4000.000000,Speed,Speed,-0.140000,2.260000,1.460000,3.000000,101.000000,1,0,-0.000558,0.002232,0,0.000000,0.000000,0.000000,0.027023,-0.026703,0.000000,0.000000,0.002000,0.006000,FlatInitial
02:03:29.668 PM 02/14/2016,Teleop Enabled,0,FALSE,0,NO ERROR,0.000000,0.000000,4000.000000,4000.000000,Speed,Speed,-0.140000,2.260000,1.460000,3.000000,101.000000,1,0,-0.000558,0.002232,0,0.000000,0.000000,0.000000,0.027023,-0.026703,0.000000,0.000000,0.000000,0.002000,FlatInitial
02:03:29.768 PM 02/14/2016,Teleop Enabled,0,FALSE,0,NO ERROR,0.000000,0.000000,4000.000000,4000.000000,Speed,Speed,-0.140000,2.260000,1.450000,3.000000,103.000000,1,0,-0.000558,0.002232,0,0.000000,0.000000,0.000000,0.027023,-0.026703,0.000000,0.000000,0.000000,-0.001000,FlatInitial
02:03:29.868 PM 02/14/2016,Teleop Enabled,0,FALSE,0,NO ERROR,0.000000,0.000000,4000.000000,4000.000000,Speed,Speed,-0.140000,2.260000,1.450000,3.000000,102.000000,1,0,-0.000558,0.002232,0,0.000000,0.000000,0.000000,0.027023,-0.026703,0.000000,0.000000,0.001000,0.001000,FlatInitial
02:03:29.968 PM 02/14/2016,Teleop Enabled,0,FALSE,0,NO ERROR,0.000000,0.000000,4000.000000,4000.000000,Speed,Speed,-0.140000,2.260000,1.450000,3.000000,101.000000,1,0,-0.000558,0.002232,0,0.000000,0.000000,0.000000,0.027023,-0.026703,0.000000,0.001000,0.001000,0.004000,FlatInitial
02:03:30.068 PM 02/14/2016,Teleop Enabled,0,FALSE,0,NO ERROR,0.000000,0.000000,4000.000000,4000.000000,Speed,Speed,-0.150000,2.260000,1.450000,3.000000,103.000000,1,0,-0.000558,0.002232,0,0.000000,0.000000,0.000000,0.027023,-0.026703,0.000000,0.000000,-0.001000,0.001000,FlatInitial
02:03:30.169 PM 02/14/2016,Teleop Enabled,0,FALSE,0,NO ERROR,0.000000,0.000000,4000.000000,4000.000000,Speed,Speed,-0.150000,2.260000,1.450000,3.000000,103.000000,1,0,-0.000558,0.002232,0,0.000000,0.000000,0.000000,0.027023,-0.026703,0.000000,0.002000,-0.001000,0.003000,FlatInitial
02:03:30.269 PM 02/14/2016,Teleop Enabled,0,FALSE,0,NO ERROR,0.000000,0.000000,4000.000000,4000.000000,Speed,Speed,-0.150000,2.260000,1.440000,3.000000,101.000000,1,0,-0.000558,0.002232,0,0.000000,0.000000,0.000000,0.027023,-0.026703,0.000000,0.003000,0.000000,0.004000,FlatInitial
02:03:30.370 PM 02/14/2016,Teleop Enabled,0,FALSE,0,NO ERROR,0.000000,0.000000,4000.000000,4000.000000,Speed,Speed,-0.140000,2.260000,1.450000,3.000000,101.000000,1,0,-0.000558,0.002232,0,0.000000,0.000000,0.000000,0.027023,-0.026703,0.000000,-0.004000,0.002000,-0.001000,FlatInitial
02:03:30.470 PM 02/14/2016,Teleop Enabled,0,FALSE,0,NO ERROR,0.000000,0.000000,4000.000000,4000.000000,Speed,Speed,-0.140000,2.260000,1.450000,3.000000,101.000000,1,0,-0.000558,0.002232,0,0.000000,0.000000,0.000000,0.027023,-0.026703,0.000000,0.000000,0.000000,0.000000,FlatInitial
02:03:30.571 PM 02/14/2016,Teleop Enabled,0,FALSE,0,NO ERROR,0.000000,0.000000,4000.000000,4000.000000,Speed,Speed,-0.140000,2.260000,1.450000,3.000000,101.000000,1,0,-0.000558,0.002232,0,0.000000,0.000000,0.000000,0.027023,-0.026703,0.000000,0.000000,0.000000,0.000000,FlatInitial
02:03:30.671 PM 02/14/2016,Teleop Enabled,0,FALSE,0,NO ERROR,0.000000,0.000000,4000.000000,4000.000000,Speed,Speed,-0.140000,2.250000,1.450000,3.000000,101.000000,1,0,-0.000558,0.002232,0,0.000000,0.000000,0.000000,0.027023,-0.026703,0.000000,0.001000,0.001000,0.000000,FlatInitial
02:03:30.771 PM 02/14/2016,Teleop Enabled,0,FALSE,0,NO ERROR,0.000000,0.000000,4000.000000,4000.000000,Speed,Speed,-0.140000,2.250000,1.450000,3.000000,102.000000,1,0,-0.000558,0.002232,0,0.000000,0.000000,0.000000,0.027023,-0.026703,0.000000,-0.002000,0.000000,0.003000,FlatInitial
02:03:30.872 PM 02/14/2016,Teleop Enabled,0,FALSE,0,NO ERROR,0.000000,0.000000,4000.000000,4000.000000,Speed,Speed,-0.150000,2.250000,1.450000,3.000000,101.000000,1,0,-0.000558,0.002232,0,0.000000,0.000000,0.000000,0.027023,-0.026703,0.000000,0.000000,0.000000,0.000000,FlatInitial
02:03:30.972 PM 02/14/2016,Teleop Enabled,0,FALSE,0,NO ERROR,0.000000,0.000000,4000.000000,4000.000000,Speed,Speed,-0.150000,2.250000,1.460000,3.000000,104.000000,1,0,-0.000558,0.002232,0,0.000000,0.000000,0.000000,0.027023,-0.026703,0.000000,0.000000,0.002000,0.002000,FlatInitial
02:03:31.072 PM 02/14/2016,Teleop Enabled,0,FALSE,0,NO ERROR,0.000000,0.000000,4000.000000,4000.000000,Speed,Speed,-0.150000,2.250000,1.460000,3.000000,101.000000,1,0,-0.000558,0.002232,0,0.000000,0.000000,0.000000,0.027023,-0.026703,0.000000,-0.003000,0.000000,0.003000,FlatInitial
02:03:31.173 PM 02/14/2016,Teleop Enabled,0,FALSE,0,NO ERROR,0.000000,0.000000,4000.000000,4000.000000,Speed,Speed,-0.150000,2.250000,1.450000,3.000000,103.000000,1,0,-0.000558,0.002232,0,0.000000,0.000000,0.000000,0.027023,-0.026703,0.000000,0.000000,0.000000,0.002000,FlatInitial
02:03:31.273 PM 02/14/2016,Teleop Enabled,0,FALSE,0,NO ERROR,0.000000,0.000000,4000.000000,4000.000000,Speed,Speed,-0.150000,2.250000,1.450000,3.000000,101.000000,1,0,-0.000558,0.002232,0,0.000000,0.000000,0.000000,0.027023,-0.026703,0.000000,0.000000,0.000000,0.002000,FlatInitial
02:03:31.373 PM 02/14/2016,Teleop Enabled,0,FALSE,0,NO ERROR,0.000000,0.000000,4000.000000,4000.000000,Speed,Speed,-0.150000,2.250000,1.460000,3.000000,102.000000,1,0,-0.000558,0.002232,0,0.000000,0.000000,0.000000,0.027023,-0.026703,0.000000,0.001000,-0.001000,0.003000,FlatInitial
02:03:31.472 PM 02/14/2016,Teleop Enabled,0,FALSE,0,NO ERROR,0.000000,0.000000,4000.000000,4000.000000,Speed,Speed,-0.150000,2.250000,1.460000,3.000000,113.000000,1,0,-0.000558,0.002232,0,0.000000,0.000000,0.000000,0.027023,-0.026703,0.000000,0.000000,0.002000,-0.002000,FlatInitial
02:03:31.573 PM 02/14/2016,Teleop Enabled,0,FALSE,0,NO ERROR,0.000000,0.000000,4000.000000,4000.000000,Speed,Speed,-0.160000,2.250000,1.450000,3.000000,102.000000,1,0,-0.000558,0.002232,0,0.000000,0.000000,0.000000,0.027023,-0.026703,0.000000,0.001000,0.000000,0.003000,FlatInitial
02:03:31.673 PM 02/14/2016,Teleop Enabled,0,FALSE,0,NO ERROR,0.000000,0.000000,4000.000000,4000.000000,Speed,Speed,-0.160000,2.250000,1.460000,3.000000,101.000000,1,0,-0.000558,0.002232,0,0.000000,0.000000,0.000000,0.027023,-0.026703,0.000000,0.000000,0.002000,0.002000,FlatInitial
02:03:31.773 PM 02/14/2016,Teleop Enabled,0,FALSE,0,NO ERROR,0.000000,0.000000,4000.000000,4000.000000,Speed,Speed,-0.160000,2.250000,1.460000,3.000000,103.000000,1,0,-0.000558,0.002232,0,0.000000,0.000000,0.000000,0.027023,-0.026703,0.000000,-0.001000,0.000000,0.002000,FlatInitial
02:03:31.873 PM 02/14/2016,Teleop Enabled,0,FALSE,0,NO ERROR,0.000000,0.000000,4000.000000,4000.000000,Speed,Speed,-0.160000,2.250000,1.460000,3.000000,101.000000,1,0,-0.000558,0.002232,0,0.000000,0.000000,0.000000,0.027023,-0.026703,0.000000,0.003000,0.000000,0.004000,FlatInitial
02:03:31.974 PM 02/14/2016,Teleop Enabled,0,FALSE,0,NO ERROR,0.000000,0.000000,4000.000000,4000.000000,Speed,Speed,-0.160000,2.250000,1.460000,3.000000,102.000000,1,0,-0.000558,0.002232,0,0.000000,0.000000,0.000000,0.027023,-0.026703,0.000000,0.003000,0.003000,0.003000,FlatInitial
02:03:32.074 PM 02/14/2016,Teleop Enabled,0,FALSE,0,NO ERROR,0.000000,0.000000,4000.000000,4000.000000,Speed,Speed,-0.160000,2.260000,1.460000,3.000000,103.000000,1,0,-0.000558,0.002232,0,0.000000,0.000000,0.000000,0.027023,-0.026703,0.000000,-0.001000,0.000000,0.001000,FlatInitial
02:03:32.174 PM 02/14/2016,Teleop Enabled,0,FALSE,0,NO ERROR,0.000000,0.000000,4000.000000,4000.000000,Speed,Speed,-0.160000,2.250000,1.460000,3.000000,101.000000,1,0,-0.000558,0.002232,0,0.000000,0.000000,0.000000,0.027023,-0.026703,0.000000,-0.002000,0.000000,0.002000,FlatInitial
