Time,RobotMode,AutoToRun,ErrorStatus, ErrorCode,ErrorSource,ActualRPM1,ActualRPM2,DesiredRPM1,DesiredRPM2,ControlMode1,ControlMode2,NavXYaw,NavXRoll,NavXPitch,ShooterState,LoopTime,IsLevel,IsAutoTargeting,LeftMotorOutput,RightMotorOutput,IsHaloDrive,NavXVelocityX,NavXVelocityY,NavXVelocityZ,NavXDisplacementX,NavXDisplacementY,NavXDisplacementZ,NavXAccelerationX,NavXAccelerationY,NavXAccelerationZ,AutoDefendState
07:51:12.237 PM 02/15/2016,Autonomous Disabled,0,TRUE,91,Variant To Data in WPI_DigitalInputRefNum Registry Get.vi->Periodic Tasks.vi->Robot Main.vi,0.000000,0.000000,-6000.000000,-6000.000000,Speed,Speed,0.330000,1.550000,1.830000,1.000000,103.000000,1,0,-0.000000,0.000000,1,0.000000,0.000000,0.000000,-1.119232,-0.509720,0.000000,0.000000,0.000000,0.001000,FlatInitial
07:51:12.337 PM 02/15/2016,Teleop Disabled,0,TRUE,-44007,<LOCATION>WPI_DigitalInputRefNum Registry Get.vi<CALLSTACK>WPI_DigitalInputRefNum Registry Get.vi< <Periodic Tasks.vi< <Robot Main.vi,0.000000,0.000000,0.000000,0.000000,Speed,Speed,0.330000,1.550000,1.830000,0.000000,3582612.000000,1,0,-0.000000,0.000000,1,0.000000,0.000000,0.000000,-1.119232,-0.509720,0.000000,0.000000,0.000000,0.001000,FlatInitial
07:51:12.437 PM 02/15/2016,Teleop Disabled,0,FALSE,0,NO ERROR,0.000000,0.000000,0.000000,0.000000,Speed,Speed,0.000000,1.530000,1.820000,0.000000,101.000000,1,0,-0.000000,0.000000,1,0.000000,0.000000,0.000000,-1.117142,-0.517029,0.000000,0.000000,-0.001000,0.005000,FlatInitial
07:51:12.538 PM 02/15/2016,Teleop Disabled,0,FALSE,0,NO ERROR,0.000000,0.000000,0.000000,0.000000,Speed,Speed,0.000000,1.540000,1.820000,0.000000,102.000000,1,0,-0.000000,0.000000,1,0.000000,0.000000,0.000000,-1.117142,-0.517029,0.000000,0.000000,0.000000,0.007000,FlatInitial
07:51:12.638 PM 02/15/2016,Teleop Disabled,0,FALSE,0,NO ERROR,0.000000,0.000000,0.000000,0.000000,Speed,Speed,0.000000,1.540000,1.820000,0.000000,101.000000,1,0,-0.000000,0.000000,1,0.000000,0.000000,0.000000,-1.117142,-0.517029,0.000000,-0.002000,0.001000,0.000000,FlatInitial
07:51:12.738 PM 02/15/2016,Teleop Disabled,0,FALSE,0,NO ERROR,0.000000,0.000000,0.000000,0.000000,Speed,Speed,0.000000,1.540000,1.820000,0.000000,101.000000,1,0,-0.000000,0.000000,1,0.000000,0.000000,0.000000,-1.117142,-0.517029,0.000000,0.000000,-0.001000,0.011000,FlatInitial
07:51:12.838 PM 02/15/2016,Teleop Disabled,0,FALSE,0,NO ERROR,0.000000,0.000000,0.000000,0.000000,Speed,Speed,0.000000,1.540000,1.820000,0.000000,101.000000,1,0,-0.000000,0.000000,1,0.000000,0.000000,0.000000,-1.117142,-0.517029,0.000000,0.004000,0.000000,0.004000,FlatInitial
07:51:12.938 PM 02/15/2016,Teleop Disabled,0,FALSE,0,NO ERROR,0.000000,0.000000,0.000000,0.000000,Speed,Speed,0.000000,1.530000,1.830000,0.000000,101.000000,1,0,-0.000000,0.000000,1,0.000000,0.000000,0.000000,-1.117142,-0.517029,0.000000,-0.001000,-0.001000,0.006000,FlatInitial
07:51:13.038 PM 02/15/2016,Teleop Disabled,0,FALSE,0,NO ERROR,0.000000,0.000000,0.000000,0.000000,Speed,Speed,0.000000,1.530000,1.830000,0.000000,102.000000,1,0,-0.000000,0.000000,1,0.000000,0.000000,0.000000,-1.117142,-0.517029,0.000000,-0.001000,0.002000,0.003000,FlatInitial
07:51:13.138 PM 02/15/2016,Teleop Disabled,0,FALSE,0,NO ERROR,0.000000,0.000000,0.000000,0.000000,Speed,Speed,0.000000,1.530000,1.830000,0.000000,101.000000,1,0,-0.000000,0.000000,1,0.000000,0.000000,0.000000,-1.117142,-0.517029,0.000000,0.002000,0.000000,-0.002000,FlatInitial
07:51:13.238 PM 02/15/2016,Teleop Disabled,0,FALSE,0,NO ERROR,0.000000,0.000000,0.000000,0.000000,Speed,Speed,0.000000,1.530000,1.830000,0.000000,101.000000,1,0,-0.000000,0.000000,1,0.000000,0.000000,0.000000,-1.117142,-0.517029,0.000000,-0.002000,0.000000,0.004000,FlatInitial
07:51:13.339 PM 02/15/2016,Teleop Disabled,0,FALSE,0,NO ERROR,0.000000,0.000000,0.000000,0.000000,Speed,Speed,0.000000,1.520000,1.830000,0.000000,102.000000,1,0,-0.000000,0.000000,1,0.000000,0.000000,0.000000,-1.117142,-0.517029,0.000000,0.001000,0.000000,0.000000,FlatInitial
07:51:13.439 PM 02/15/2016,Teleop Disabled,0,FALSE,0,NO ERROR,0.000000,0.000000,0.000000,0.000000,Speed,Speed,0.000000,1.520000,1.830000,0.000000,103.000000,1,0,-0.000000,0.000000,1,0.000000,0.000000,0.000000,-1.117142,-0.517029,0.000000,-0.001000,0.000000,0.006000,FlatInitial
07:51:13.539 PM 02/15/2016,Teleop Disabled,0,FALSE,0,NO ERROR,0.000000,0.000000,0.000000,0.000000,Speed,Speed,0.000000,1.520000,1.830000,0.000000,102.000000,1,0,-0.000000,0.000000,1,0.000000,0.000000,0.000000,-1.117142,-0.517029,0.000000,-0.001000,0.001000,0.001000,FlatInitial
07:51:13.639 PM 02/15/2016,Teleop Disabled,0,FALSE,0,NO ERROR,0.000000,0.000000,0.000000,0.000000,Speed,Speed,0.000000,1.530000,1.830000,0.000000,100.000000,1,0,-0.000000,0.000000,1,0.000000,0.000000,0.000000,-1.117142,-0.517029,0.000000,0.001000,0.001000,0.003000,FlatInitial
07:51:13.739 PM 02/15/2016,Teleop Disabled,0,FALSE,0,NO ERROR,0.000000,0.000000,0.000000,0.000000,Speed,Speed,0.000000,1.520000,1.830000,0.000000,101.000000,1,0,-0.000000,0.000000,1,0.000000,0.000000,0.000000,-1.117142,-0.517029,0.000000,-0.001000,0.000000,0.004000,FlatInitial
07:51:13.839 PM 02/15/2016,Teleop Disabled,0,FALSE,0,NO ERROR,0.000000,0.000000,0.000000,0.000000,Speed,Speed,0.000000,1.520000,1.830000,0.000000,101.000000,1,0,-0.000000,0.000000,1,0.000000,0.000000,0.000000,-1.117142,-0.517029,0.000000,0.001000,0.001000,0.005000,FlatInitial
07:51:13.939 PM 02/15/2016,Teleop Disabled,0,FALSE,0,NO ERROR,0.000000,0.000000,0.000000,0.000000,Speed,Speed,0.000000,1.520000,1.830000,0.000000,102.000000,1,0,-0.000000,0.000000,1,0.000000,0.000000,0.000000,-1.117142,-0.517029,0.000000,0.000000,0.003000,0.000000,FlatInitial
07:51:14.039 PM 02/15/2016,Teleop Disabled,0,FALSE,0,NO ERROR,0.000000,0.000000,0.000000,0.000000,Speed,Speed,0.000000,1.520000,1.830000,0.000000,103.000000,1,0,-0.000000,0.000000,1,0.000000,0.000000,0.000000,-1.117142,-0.517029,0.000000,0.000000,0.001000,0.004000,FlatInitial
07:51:14.139 PM 02/15/2016,Teleop Disabled,0,FALSE,0,NO ERROR,0.000000,0.000000,0.000000,0.000000,Speed,Speed,0.000000,1.520000,1.830000,0.000000,102.000000,1,0,-0.000000,0.000000,1,0.000000,0.000000,0.000000,-1.117142,-0.517029,0.000000,0.001000,-0.002000,0.006000,FlatInitial
07:51:14.239 PM 02/15/2016,Teleop Disabled,0,FALSE,0,NO ERROR,0.000000,0.000000,0.000000,0.000000,Speed,Speed,0.000000,1.520000,1.830000,0.000000,101.000000,1,0,-0.000000,0.000000,1,0.000000,0.000000,0.000000,-1.117142,-0.517029,0.000000,-0.001000,0.001000,0.004000,FlatInitial
07:51:14.340 PM 02/15/2016,Teleop Disabled,0,FALSE,0,NO ERROR,0.000000,0.000000,0.000000,0.000000,Speed,Speed,0.000000,1.530000,1.830000,0.000000,102.000000,1,0,-0.000000,0.000000,1,0.000000,0.000000,0.000000,-1.117142,-0.517029,0.000000,0.001000,-0.001000,0.005000,FlatInitial
07:51:14.441 PM 02/15/2016,Teleop Enabled,0,FALSE,0,NO ERROR,0.000000,0.000000,0.000000,0.000000,Speed,Speed,-0.010000,1.530000,1.820000,0.000000,102.000000,1,0,-0.000000,0.000000,1,0.001984,0.005142,0.000000,-1.117096,-0.516953,0.000000,-0.023000,0.003000,0.002000,FlatInitial
07:51:14.541 PM 02/15/2016,Teleop Enabled,0,FALSE,0,NO ERROR,0.000000,0.000000,0.000000,0.000000,Speed,Speed,0.040000,1.530000,1.730000,0.000000,101.000000,1,0,-0.000000,0.000000,1,-0.005539,0.000000,0.000000,-1.117111,-0.516632,0.000000,0.000000,0.000000,-0.032000,FlatInitial
07:51:14.642 PM 02/15/2016,Teleop Enabled,0,FALSE,0,NO ERROR,0.000000,0.000000,0.000000,0.000000,Speed,Speed,0.050000,1.550000,1.760000,0.000000,101.000000,1,0,-0.000000,0.000000,1,0.000000,-0.014267,0.000000,-1.117111,-0.516937,0.000000,-0.008000,0.004000,0.011000,FlatInitial
07:51:14.742 PM 02/15/2016,Teleop Enabled,0,FALSE,0,NO ERROR,0.000000,0.000000,0.000000,0.000000,Speed,Speed,0.060000,1.520000,1.810000,0.000000,103.000000,1,0,-0.000000,0.000000,1,0.000000,0.000702,0.000000,-1.117111,-0.517075,0.000000,0.010000,-0.018000,-0.006000,FlatInitial
07:51:14.843 PM 02/15/2016,Teleop Enabled,0,FALSE,0,NO ERROR,0.000000,0.000000,0.000000,0.000000,Speed,Speed,0.060000,1.530000,1.770000,0.000000,102.000000,1,0,-0.000000,0.000000,1,0.000000,0.000000,0.000000,-1.117111,-0.517075,0.000000,-0.004000,-0.012000,-0.001000,FlatInitial
07:51:14.943 PM 02/15/2016,Teleop Enabled,0,FALSE,0,NO ERROR,0.000000,0.000000,0.000000,0.000000,Speed,Speed,0.030000,1.550000,1.800000,0.000000,102.000000,1,0,-0.000000,0.000000,1,0.009338,0.002090,0.000000,-1.116867,-0.517242,0.000000,-0.039000,0.022000,-0.043000,FlatInitial
07:51:15.044 PM 02/15/2016,Teleop Enabled,0,FALSE,0,NO ERROR,0.000000,0.000000,0.000000,0.000000,Speed,Speed,0.050000,1.550000,1.830000,0.000000,100.000000,1,0,-0.000000,0.000000,1,0.011032,0.000000,0.000000,-1.116562,-0.517090,0.000000,0.015000,-0.006000,0.029000,FlatInitial
07:51:15.144 PM 02/15/2016,Teleop Enabled,0,FALSE,0,NO ERROR,0.000000,0.000000,0.000000,0.000000,Speed,Speed,0.040000,1.530000,1.850000,0.000000,100.000000,1,0,-0.000000,0.000000,1,0.000000,0.000000,0.000000,-1.116440,-0.517090,0.000000,0.000000,0.009000,-0.005000,FlatInitial
07:51:15.244 PM 02/15/2016,Teleop Enabled,0,FALSE,0,NO ERROR,0.000000,0.000000,0.000000,0.000000,Speed,Speed,0.040000,1.550000,1.840000,0.000000,101.000000,1,0,-0.000000,0.000000,1,0.000000,0.000000,0.000000,-1.116440,-0.517090,0.000000,-0.002000,-0.003000,-0.003000,FlatInitial
07:51:15.345 PM 02/15/2016,Teleop Enabled,0,FALSE,0,NO ERROR,0.000000,0.000000,0.000000,0.000000,Speed,Speed,0.040000,1.550000,1.830000,0.000000,102.000000,1,0,-0.000000,0.000000,1,0.000000,0.000000,0.000000,-1.116440,-0.517090,0.000000,-0.008000,-0.002000,0.000000,FlatInitial
07:51:15.445 PM 02/15/2016,Teleop Enabled,0,FALSE,0,NO ERROR,0.000000,0.000000,0.000000,0.000000,Speed,Speed,0.040000,1.550000,1.830000,0.000000,103.000000,1,0,-0.000000,0.000000,1,0.000000,0.000000,0.000000,-1.116440,-0.517090,0.000000,-0.010000,0.012000,-0.011000,FlatInitial
07:51:15.545 PM 02/15/2016,Teleop Enabled,0,FALSE,0,NO ERROR,0.000000,0.000000,-6000.000000,-6000.000000,Speed,Speed,0.040000,1.540000,1.820000,1.000000,102.000000,1,0,-0.000000,0.000000,1,0.000000,0.000000,0.000000,-1.116440,-0.517090,0.000000,-0.010000,0.012000,-0.011000,FlatInitial
07:51:15.645 PM 02/15/2016,Teleop Enabled,0,FALSE,0,NO ERROR,0.000000,0.000000,-6000.000000,-6000.000000,Speed,Speed,0.040000,1.540000,1.830000,1.000000,102.000000,1,0,-0.000000,0.000000,1,0.000000,0.000000,0.000000,-1.116440,-0.517090,0.000000,-0.005000,0.008000,0.000000,FlatInitial
07:51:15.746 PM 02/15/2016,Teleop Enabled,0,FALSE,0,NO ERROR,0.000000,0.000000,-6000.000000,-6000.000000,Speed,Speed,0.040000,1.540000,1.830000,1.000000,102.000000,1,0,-0.000000,0.000000,1,0.000000,0.000000,0.000000,-1.116440,-0.517090,0.000000,-0.005000,0.008000,0.000000,FlatInitial
07:51:15.847 PM 02/15/2016,Teleop Enabled,0,FALSE,0,NO ERROR,0.000000,0.000000,-6000.000000,-6000.000000,Speed,Speed,0.040000,1.530000,1.830000,1.000000,100.000000,1,0,-0.000000,0.000000,1,0.000000,0.000000,0.000000,-1.116440,-0.517090,0.000000,-0.007000,0.009000,0.006000,FlatInitial
07:51:15.947 PM 02/15/2016,Teleop Enabled,0,FALSE,0,NO ERROR,0.000000,0.000000,-6000.000000,-6000.000000,Speed,Speed,0.040000,1.530000,1.820000,1.000000,101.000000,1,0,-0.000000,0.000000,1,0.000000,0.000000,0.000000,-1.116440,-0.517090,0.000000,0.002000,-0.009000,0.004000,FlatInitial
07:51:16.047 PM 02/15/2016,Teleop Enabled,0,FALSE,0,NO ERROR,0.000000,0.000000,-6000.000000,-6000.000000,Speed,Speed,0.040000,1.520000,1.840000,1.000000,104.000000,1,0,-0.000000,0.000000,1,0.000000,0.000000,0.000000,-1.116440,-0.517090,0.000000,0.002000,-0.009000,0.004000,FlatInitial
07:51:16.147 PM 02/15/2016,Teleop Enabled,0,FALSE,0,NO ERROR,0.000000,0.000000,-6000.000000,-6000.000000,Speed,Speed,0.040000,1.530000,1.850000,1.000000,102.000000,1,0,-0.000000,0.000000,1,0.000000,0.000000,0.000000,-1.116440,-0.517090,0.000000,0.003000,-0.004000,0.008000,FlatInitial
07:51:16.248 PM 02/15/2016,Teleop Enabled,0,FALSE,0,NO ERROR,0.000000,0.000000,-6000.000000,-6000.000000,Speed,Speed,0.030000,1.530000,1.860000,1.000000,102.000000,1,0,-0.000000,0.000000,1,0.000000,0.000000,0.000000,-1.116440,-0.517090,0.000000,0.008000,0.002000,0.000000,FlatInitial
07:51:16.348 PM 02/15/2016,Teleop Enabled,0,FALSE,0,NO ERROR,0.000000,0.000000,-6000.000000,-6000.000000,Speed,Speed,0.030000,1.530000,1.890000,1.000000,100.000000,1,0,-0.000000,0.000000,1,0.000000,0.000000,0.000000,-1.116440,-0.517090,0.000000,0.008000,0.002000,0.000000,FlatInitial
07:51:16.448 PM 02/15/2016,Teleop Enabled,0,FALSE,0,NO ERROR,0.000000,0.000000,-6000.000000,-6000.000000,Speed,Speed,0.020000,1.540000,1.900000,1.000000,101.000000,1,0,-0.000000,0.000000,1,0.000000,0.000000,0.000000,-1.116440,-0.517090,0.000000,0.001000,0.000000,0.008000,FlatInitial
07:51:16.549 PM 02/15/2016,Teleop Enabled,0,FALSE,0,NO ERROR,0.000000,0.000000,-6000.000000,-6000.000000,Speed,Speed,0.020000,1.540000,1.910000,1.000000,101.000000,1,0,-0.000000,0.000000,1,0.000000,0.000000,0.000000,-1.116440,-0.517090,0.000000,0.000000,0.005000,0.000000,FlatInitial
07:51:16.651 PM 02/15/2016,Teleop Enabled,0,FALSE,0,NO ERROR,0.000000,0.000000,-6000.000000,-6000.000000,Speed,Speed,0.020000,1.540000,1.910000,1.000000,102.000000,1,0,-0.000000,0.000000,1,0.000000,0.000000,0.000000,-1.116440,-0.517090,0.000000,0.001000,0.008000,0.002000,FlatInitial
07:51:16.751 PM 02/15/2016,Teleop Enabled,0,FALSE,0,NO ERROR,0.000000,0.000000,-6000.000000,-6000.000000,Speed,Speed,0.010000,1.530000,1.960000,1.000000,102.000000,1,0,-0.000000,0.000000,1,0.000000,0.000000,0.000000,-1.116440,-0.517090,0.000000,0.001000,-0.005000,0.004000,FlatInitial
07:51:16.852 PM 02/15/2016,Teleop Enabled,0,FALSE,0,NO ERROR,0.000000,0.000000,-6000.000000,-6000.000000,Speed,Speed,0.000000,1.540000,1.970000,1.000000,101.000000,1,0,-0.000000,0.000000,1,0.000000,0.000000,0.000000,-1.116440,-0.517090,0.000000,0.002000,0.000000,0.004000,FlatInitial
07:51:16.956 PM 02/15/2016,Teleop Enabled,0,FALSE,0,NO ERROR,0.000000,0.000000,-6000.000000,-6000.000000,Speed,Speed,0.000000,1.540000,1.970000,1.000000,101.000000,1,0,-0.000000,0.000000,1,0.000000,0.000000,0.000000,-1.116440,-0.517090,0.000000,-0.003000,-0.004000,-0.006000,FlatInitial
07:51:17.055 PM 02/15/2016,Teleop Enabled,0,FALSE,0,NO ERROR,0.000000,0.000000,-6000.000000,-6000.000000,Speed,Speed,0.010000,1.530000,2.000000,1.000000,102.000000,1,0,-0.000000,0.000000,1,0.000000,0.000000,0.000000,-1.116440,-0.517090,0.000000,0.002000,0.003000,0.001000,FlatInitial
07:51:17.155 PM 02/15/2016,Teleop Enabled,0,FALSE,0,NO ERROR,0.000000,0.000000,-6000.000000,-6000.000000,Speed,Speed,0.010000,1.520000,2.040000,1.000000,102.000000,1,0,-0.000000,0.000000,1,0.000000,0.000000,0.000000,-1.116440,-0.517090,0.000000,0.003000,0.007000,-0.001000,FlatInitial
07:51:17.256 PM 02/15/2016,Teleop Enabled,0,FALSE,0,NO ERROR,0.000000,0.000000,-6000.000000,-6000.000000,Speed,Speed,0.010000,1.520000,2.040000,1.000000,101.000000,1,0,-0.000000,0.000000,1,0.000000,0.000000,0.000000,-1.116440,-0.517090,0.000000,-0.007000,-0.012000,0.001000,FlatInitial
07:51:17.356 PM 02/15/2016,Teleop Enabled,0,FALSE,0,NO ERROR,0.000000,0.000000,-6000.000000,-6000.000000,Speed,Speed,0.000000,1.520000,2.070000,1.000000,104.000000,1,0,-0.000000,0.000000,1,0.000000,0.000000,0.000000,-1.116440,-0.517090,0.000000,-0.002000,0.014000,0.000000,FlatInitial
07:51:17.457 PM 02/15/2016,Teleop Enabled,0,FALSE,0,NO ERROR,0.000000,0.000000,-6000.000000,-6000.000000,Speed,Speed,0.000000,1.510000,2.150000,1.000000,101.000000,1,0,-0.000000,0.000000,1,0.000000,0.000000,0.000000,-1.116440,-0.517090,0.000000,0.003000,-0.001000,0.004000,FlatInitial
07:51:17.559 PM 02/15/2016,Teleop Enabled,0,FALSE,0,NO ERROR,0.000000,0.000000,-6000.000000,-6000.000000,Speed,Speed,0.000000,1.470000,2.270000,1.000000,101.000000,1,0,-0.000000,0.000000,1,0.000000,0.000000,0.000000,-1.116440,-0.517090,0.000000,0.002000,-0.007000,0.000000,FlatInitial
07:51:17.659 PM 02/15/2016,Teleop Enabled,0,FALSE,0,NO ERROR,0.000000,0.000000,-6000.000000,-6000.000000,Speed,Speed,0.030000,1.470000,2.290000,1.000000,102.000000,1,0,-0.000000,0.000000,1,0.000000,0.000000,0.000000,-1.116440,-0.517090,0.000000,0.000000,0.014000,0.005000,FlatInitial
07:51:17.759 PM 02/15/2016,Teleop Enabled,0,FALSE,0,NO ERROR,0.000000,0.000000,-6000.000000,-6000.000000,Speed,Speed,0.030000,1.500000,2.180000,1.000000,100.000000,1,0,-0.000000,0.000000,1,0.000000,0.000000,0.000000,-1.116440,-0.517090,0.000000,0.007000,-0.006000,-0.001000,FlatInitial
07:51:17.860 PM 02/15/2016,Teleop Enabled,0,FALSE,0,NO ERROR,0.000000,0.000000,-6000.000000,-6000.000000,Speed,Speed,0.000000,1.530000,2.120000,1.000000,103.000000,1,0,-0.000000,0.000000,1,0.000000,0.000000,0.000000,-1.116440,-0.517090,0.000000,-0.002000,-0.017000,0.010000,FlatInitial
07:51:17.960 PM 02/15/2016,Teleop Enabled,0,FALSE,0,NO ERROR,0.000000,0.000000,-6000.000000,-6000.000000,Speed,Speed,0.010000,1.490000,2.130000,1.000000,102.000000,1,0,-0.000000,0.000000,1,0.000000,0.000000,0.000000,-1.116440,-0.517090,0.000000,0.000000,0.026000,0.011000,FlatInitial
07:51:18.060 PM 02/15/2016,Teleop Enabled,0,FALSE,0,NO ERROR,0.000000,0.000000,-6000.000000,-6000.000000,Speed,Speed,0.060000,1.510000,2.160000,1.000000,100.000000,1,0,-0.000000,0.000000,1,0.000000,0.000000,0.000000,-1.116440,-0.516571,0.000000,-0.001000,0.007000,0.005000,FlatInitial
07:51:18.162 PM 02/15/2016,Teleop Enabled,0,FALSE,0,NO ERROR,0.000000,0.000000,-6000.000000,-6000.000000,Speed,Speed,0.050000,1.520000,1.950000,1.000000,101.000000,1,0,-0.000000,0.000000,1,0.002609,0.020935,0.000000,-1.116409,-0.515930,0.000000,0.022000,0.014000,-0.089000,FlatInitial
07:51:18.264 PM 02/15/2016,Teleop Enabled,0,FALSE,0,NO ERROR,0.000000,0.000000,-6000.000000,-6000.000000,Speed,Speed,0.110000,1.500000,2.100000,1.000000,102.000000,1,0,-0.000000,0.000000,1,0.000000,-0.001572,0.000000,-1.116272,-0.515518,0.000000,-0.004000,-0.041000,0.024000,FlatInitial
07:51:18.364 PM 02/15/2016,Teleop Enabled,0,FALSE,0,NO ERROR,0.000000,0.000000,-6000.000000,-6000.000000,Speed,Speed,0.130000,1.510000,1.850000,1.000000,101.000000,1,0,-0.000000,0.000000,1,0.008881,0.000000,0.000000,-1.116348,-0.515747,0.000000,0.027000,-0.012000,-0.030000,FlatInitial
07:51:18.464 PM 02/15/2016,Teleop Enabled,0,FALSE,0,NO ERROR,0.000000,0.000000,-6000.000000,-6000.000000,Speed,Speed,0.060000,1.500000,1.980000,1.000000,102.000000,1,0,-0.000000,0.000000,1,-0.009186,0.000000,0.000000,-1.116348,-0.515747,0.000000,-0.020000,0.010000,-0.009000,FlatInitial
07:51:18.564 PM 02/15/2016,Teleop Enabled,0,FALSE,0,NO ERROR,0.000000,0.000000,-6000.000000,-6000.000000,Speed,Speed,0.040000,1.520000,2.110000,1.000000,101.000000,1,0,-0.000000,0.000000,1,0.000000,0.023178,0.000000,-1.116653,-0.514908,0.000000,0.001000,0.001000,0.000000,FlatInitial
07:51:18.665 PM 02/15/2016,Teleop Enabled,0,FALSE,0,NO ERROR,0.000000,0.000000,-6000.000000,-6000.000000,Speed,Speed,0.060000,1.490000,2.020000,1.000000,104.000000,1,0,-0.000000,0.000000,1,-0.007141,0.000000,0.000000,-1.116943,-0.514908,0.000000,0.024000,-0.006000,-0.001000,FlatInitial
07:51:18.765 PM 02/15/2016,Teleop Enabled,0,FALSE,0,NO ERROR,0.000000,0.000000,-6000.000000,-6000.000000,Speed,Speed,0.050000,1.490000,2.040000,1.000000,102.000000,1,0,-0.000000,0.000000,1,-0.007935,0.000000,0.000000,-1.117050,-0.514908,0.000000,-0.020000,-0.003000,0.007000,FlatInitial
07:51:18.865 PM 02/15/2016,Teleop Enabled,0,FALSE,0,NO ERROR,0.000000,0.000000,-6000.000000,-6000.000000,Speed,Speed,0.070000,1.520000,1.990000,1.000000,103.000000,1,0,-0.000000,0.000000,1,0.000000,0.000000,0.000000,-1.117157,-0.514908,0.000000,0.006000,0.001000,0.000000,FlatInitial
07:51:18.965 PM 02/15/2016,Teleop Enabled,0,FALSE,0,NO ERROR,0.000000,0.000000,-6000.000000,-6000.000000,Speed,Speed,0.040000,1.490000,2.040000,1.000000,101.000000,1,0,-0.000000,0.000000,1,0.000000,0.000000,0.000000,-1.117157,-0.514908,0.000000,0.009000,0.009000,0.000000,FlatInitial
07:51:19.067 PM 02/15/2016,Teleop Enabled,0,FALSE,0,NO ERROR,0.000000,0.000000,-6000.000000,-6000.000000,Speed,Speed,0.050000,1.500000,2.060000,1.000000,101.000000,1,0,-0.000000,0.000000,1,0.000000,0.000000,0.000000,-1.117157,-0.514908,0.000000,0.000000,0.000000,0.007000,FlatInitial
07:51:19.168 PM 02/15/2016,Teleop Enabled,0,FALSE,0,NO ERROR,0.000000,0.000000,-6000.000000,-6000.000000,Speed,Speed,0.050000,1.510000,2.030000,1.000000,101.000000,1,0,-0.000000,0.000000,1,0.000000,0.000000,0.000000,-1.117157,-0.514908,0.000000,-0.003000,-0.003000,0.000000,FlatInitial
07:51:19.270 PM 02/15/2016,Teleop Enabled,0,FALSE,0,NO ERROR,0.000000,0.000000,-6000.000000,-6000.000000,Speed,Speed,0.050000,1.500000,2.030000,1.000000,101.000000,1,0,-0.000000,0.000000,1,0.000000,0.000000,0.000000,-1.117157,-0.514908,0.000000,0.006000,0.001000,0.004000,FlatInitial
07:51:19.371 PM 02/15/2016,Teleop Enabled,0,FALSE,0,NO ERROR,0.000000,0.000000,-6000.000000,-6000.000000,Speed,Speed,0.040000,1.510000,2.050000,1.000000,101.000000,1,0,-0.000000,0.000000,1,0.000000,0.000000,0.000000,-1.117157,-0.514908,0.000000,0.000000,0.002000,0.004000,FlatInitial
07:51:19.473 PM 02/15/2016,Teleop Enabled,0,FALSE,0,NO ERROR,0.000000,0.000000,-6000.000000,-6000.000000,Speed,Speed,0.040000,1.510000,2.050000,1.000000,101.000000,1,0,-0.000000,0.000000,1,0.000000,0.000000,0.000000,-1.117157,-0.514908,0.000000,0.002000,0.001000,0.002000,FlatInitial
07:51:19.574 PM 02/15/2016,Teleop Enabled,0,FALSE,0,NO ERROR,0.000000,0.000000,-6000.000000,-6000.000000,Speed,Speed,0.040000,1.510000,2.040000,1.000000,102.000000,1,0,-0.000000,0.000000,1,0.000000,0.000000,0.000000,-1.117157,-0.514908,0.000000,0.000000,0.002000,0.000000,FlatInitial
07:51:19.675 PM 02/15/2016,Teleop Enabled,0,FALSE,0,NO ERROR,0.000000,0.000000,-6000.000000,-6000.000000,Speed,Speed,0.040000,1.500000,2.040000,1.000000,101.000000,1,0,-0.000000,0.000000,1,0.000000,0.000000,0.000000,-1.117157,-0.514908,0.000000,0.002000,0.000000,0.006000,FlatInitial
07:51:19.777 PM 02/15/2016,Teleop Enabled,0,FALSE,0,NO ERROR,0.000000,0.000000,-6000.000000,-6000.000000,Speed,Speed,0.040000,1.510000,2.050000,1.000000,106.000000,1,0,-0.000000,0.000000,1,0.000000,0.000000,0.000000,-1.117157,-0.514908,0.000000,0.000000,0.001000,0.006000,FlatInitial
07:51:19.876 PM 02/15/2016,Teleop Enabled,0,FALSE,0,NO ERROR,0.000000,0.000000,-6000.000000,-6000.000000,Speed,Speed,0.040000,1.510000,2.050000,1.000000,100.000000,1,0,-0.000000,0.000000,1,0.000000,0.000000,0.000000,-1.117157,-0.514908,0.000000,0.000000,0.000000,0.003000,FlatInitial
07:51:19.977 PM 02/15/2016,Teleop Enabled,0,FALSE,0,NO ERROR,0.000000,0.000000,-6000.000000,-6000.000000,Speed,Speed,0.040000,1.510000,2.050000,1.000000,101.000000,1,0,-0.000000,0.000000,1,0.000000,0.000000,0.000000,-1.117157,-0.514908,0.000000,0.000000,-0.001000,0.000000,FlatInitial
07:51:20.076 PM 02/15/2016,Teleop Enabled,0,FALSE,0,NO ERROR,0.000000,0.000000,-6000.000000,-6000.000000,Speed,Speed,0.030000,1.510000,2.050000,1.000000,101.000000,1,0,-0.000000,0.000000,1,0.000000,0.000000,0.000000,-1.117157,-0.514908,0.000000,0.000000,0.000000,0.002000,FlatInitial
07:51:20.176 PM 02/15/2016,Teleop Enabled,0,FALSE,0,NO ERROR,0.000000,0.000000,-6000.000000,-6000.000000,Speed,Speed,0.040000,1.510000,2.050000,1.000000,101.000000,1,0,-0.000000,0.000000,1,0.000000,0.000000,0.000000,-1.117157,-0.514908,0.000000,0.000000,0.000000,0.005000,FlatInitial
07:51:20.277 PM 02/15/2016,Teleop Enabled,0,FALSE,0,NO ERROR,0.000000,0.000000,-6000.000000,-6000.000000,Speed,Speed,0.030000,1.510000,2.050000,1.000000,101.000000,1,0,-0.000000,0.000000,1,0.000000,0.000000,0.000000,-1.117157,-0.514908,0.000000,0.000000,0.001000,0.001000,FlatInitial
07:51:20.377 PM 02/15/2016,Teleop Enabled,0,FALSE,0,NO ERROR,0.000000,0.000000,-6000.000000,-6000.000000,Speed,Speed,0.030000,1.520000,2.050000,1.000000,101.000000,1,0,-0.000000,0.000000,1,0.000000,0.000000,0.000000,-1.117157,-0.514908,0.000000,0.000000,-0.001000,0.002000,FlatInitial
07:51:20.477 PM 02/15/2016,Teleop Enabled,0,FALSE,0,NO ERROR,0.000000,0.000000,-6000.000000,-6000.000000,Speed,Speed,0.030000,1.510000,2.040000,1.000000,104.000000,1,0,-0.000000,0.000000,1,0.000000,0.000000,0.000000,-1.117157,-0.514908,0.000000,-0.001000,0.002000,0.001000,FlatInitial
07:51:20.577 PM 02/15/2016,Teleop Enabled,0,FALSE,0,NO ERROR,0.000000,0.000000,-6000.000000,-6000.000000,Speed,Speed,0.040000,1.510000,2.040000,1.000000,100.000000,1,0,-0.000000,0.000000,1,0.000000,0.000000,0.000000,-1.117157,-0.514908,0.000000,0.001000,-0.001000,0.002000,FlatInitial
07:51:20.677 PM 02/15/2016,Teleop Enabled,0,FALSE,0,NO ERROR,0.000000,0.000000,-6000.000000,-6000.000000,Speed,Speed,0.040000,1.510000,2.040000,1.000000,101.000000,1,0,-0.000000,0.000000,1,0.000000,0.000000,0.000000,-1.117157,-0.514908,0.000000,0.000000,0.000000,0.006000,FlatInitial
07:51:20.777 PM 02/15/2016,Teleop Enabled,0,FALSE,0,NO ERROR,0.000000,0.000000,-6000.000000,-6000.000000,Speed,Speed,0.040000,1.510000,2.040000,1.000000,101.000000,1,0,-0.000000,0.000000,1,0.000000,0.000000,0.000000,-1.117157,-0.514908,0.000000,0.000000,0.001000,0.007000,FlatInitial
07:51:20.877 PM 02/15/2016,Teleop Enabled,0,FALSE,0,NO ERROR,0.000000,0.000000,-6000.000000,-6000.000000,Speed,Speed,0.040000,1.500000,2.040000,1.000000,101.000000,1,0,-0.000000,0.000000,1,0.000000,0.000000,0.000000,-1.117157,-0.514908,0.000000,0.001000,-0.002000,-0.001000,FlatInitial
07:51:20.977 PM 02/15/2016,Teleop Enabled,0,FALSE,0,NO ERROR,0.000000,0.000000,-6000.000000,-6000.000000,Speed,Speed,0.040000,1.510000,2.050000,1.000000,101.000000,1,0,-0.000000,0.000000,1,0.000000,0.000000,0.000000,-1.117157,-0.514908,0.000000,0.001000,0.003000,0.001000,FlatInitial
07:51:21.077 PM 02/15/2016,Teleop Enabled,0,FALSE,0,NO ERROR,0.000000,0.000000,-6000.000000,-6000.000000,Speed,Speed,0.040000,1.510000,2.050000,1.000000,101.000000,1,0,-0.000000,0.000000,1,0.000000,0.000000,0.000000,-1.117157,-0.514908,0.000000,0.000000,0.000000,0.006000,FlatInitial
07:51:21.177 PM 02/15/2016,Teleop Enabled,0,FALSE,0,NO ERROR,0.000000,0.000000,-6000.000000,-6000.000000,Speed,Speed,0.040000,1.510000,2.050000,1.000000,101.000000,1,0,-0.000000,0.000000,1,0.000000,0.000000,0.000000,-1.117157,-0.514908,0.000000,0.000000,0.000000,0.006000,FlatInitial
07:51:21.277 PM 02/15/2016,Teleop Enabled,0,FALSE,0,NO ERROR,0.000000,0.000000,-6000.000000,-6000.000000,Speed,Speed,0.040000,1.510000,2.050000,1.000000,102.000000,1,0,-0.000000,0.000000,1,0.000000,0.000000,0.000000,-1.117157,-0.514908,0.000000,0.001000,-0.001000,0.003000,FlatInitial
07:51:21.377 PM 02/15/2016,Teleop Enabled,0,FALSE,0,NO ERROR,0.000000,0.000000,-6000.000000,-6000.000000,Speed,Speed,0.040000,1.510000,2.060000,1.000000,102.000000,1,0,-0.000000,0.000000,1,0.000000,0.000000,0.000000,-1.117157,-0.514908,0.000000,0.002000,0.000000,0.003000,FlatInitial
07:51:21.478 PM 02/15/2016,Teleop Enabled,0,FALSE,0,NO ERROR,0.000000,0.000000,-6000.000000,-6000.000000,Speed,Speed,0.040000,1.500000,2.060000,1.000000,104.000000,1,0,-0.000000,0.000000,1,0.000000,0.000000,0.000000,-1.117157,-0.514908,0.000000,0.000000,-0.001000,0.004000,FlatInitial
07:51:21.578 PM 02/15/2016,Teleop Enabled,0,FALSE,0,NO ERROR,0.000000,0.000000,-6000.000000,-6000.000000,Speed,Speed,0.040000,1.510000,2.050000,1.000000,100.000000,1,0,-0.000000,0.000000,1,0.000000,0.000000,0.000000,-1.117157,-0.514908,0.000000,0.002000,0.003000,0.004000,FlatInitial
07:51:21.678 PM 02/15/2016,Teleop Enabled,0,FALSE,0,NO ERROR,0.000000,0.000000,-6000.000000,-6000.000000,Speed,Speed,0.030000,1.510000,2.050000,1.000000,102.000000,1,0,-0.000000,0.000000,1,0.000000,0.000000,0.000000,-1.117157,-0.514908,0.000000,0.000000,0.000000,0.004000,FlatInitial
07:51:21.778 PM 02/15/2016,Teleop Enabled,0,FALSE,0,NO ERROR,0.000000,0.000000,-6000.000000,-6000.000000,Speed,Speed,0.030000,1.510000,2.050000,1.000000,101.000000,1,0,-0.000000,0.000000,1,0.000000,0.000000,0.000000,-1.117157,-0.514908,0.000000,0.000000,0.001000,0.003000,FlatInitial
07:51:21.879 PM 02/15/2016,Teleop Enabled,0,FALSE,0,NO ERROR,0.000000,0.000000,-6000.000000,-6000.000000,Speed,Speed,0.040000,1.510000,2.050000,1.000000,101.000000,1,0,-0.000000,0.000000,1,0.000000,0.000000,0.000000,-1.117157,-0.514908,0.000000,0.000000,0.000000,0.007000,FlatInitial
07:51:21.980 PM 02/15/2016,Teleop Enabled,0,FALSE,0,NO ERROR,0.000000,0.000000,-6000.000000,-6000.000000,Speed,Speed,0.040000,1.510000,2.050000,1.000000,100.000000,1,0,-0.000000,0.000000,1,0.000000,0.000000,0.000000,-1.117157,-0.514908,0.000000,0.003000,0.001000,0.003000,FlatInitial
07:51:22.080 PM 02/15/2016,Teleop Enabled,0,FALSE,0,NO ERROR,0.000000,0.000000,-6000.000000,-6000.000000,Speed,Speed,0.030000,1.510000,2.050000,1.000000,101.000000,1,0,-0.000000,0.000000,1,0.000000,0.000000,0.000000,-1.117157,-0.514908,0.000000,0.000000,0.000000,0.002000,FlatInitial
07:51:22.180 PM 02/15/2016,Teleop Enabled,0,FALSE,0,NO ERROR,0.000000,0.000000,-6000.000000,-6000.000000,Speed,Speed,0.030000,1.510000,2.050000,1.000000,101.000000,1,0,-0.000000,0.000000,1,0.000000,0.000000,0.000000,-1.117157,-0.514908,0.000000,0.000000,-0.002000,0.002000,FlatInitial
07:51:22.280 PM 02/15/2016,Teleop Enabled,0,FALSE,0,NO ERROR,0.000000,0.000000,-6000.000000,-6000.000000,Speed,Speed,0.030000,1.510000,2.050000,1.000000,101.000000,1,0,-0.000000,0.000000,1,0.000000,0.000000,0.000000,-1.117157,-0.514908,0.000000,0.000000,-0.003000,0.003000,FlatInitial
07:51:22.380 PM 02/15/2016,Teleop Enabled,0,FALSE,0,NO ERROR,0.000000,0.000000,-6000.000000,-6000.000000,Speed,Speed,0.030000,1.520000,2.050000,1.000000,101.000000,1,0,-0.000000,0.000000,1,0.000000,0.000000,0.000000,-1.117157,-0.514908,0.000000,-0.002000,0.000000,0.000000,FlatInitial
07:51:22.480 PM 02/15/2016,Teleop Enabled,0,FALSE,0,NO ERROR,0.000000,0.000000,-6000.000000,-6000.000000,Speed,Speed,0.030000,1.520000,2.050000,1.000000,102.000000,1,0,-0.000000,0.000000,1,0.000000,0.000000,0.000000,-1.117157,-0.514908,0.000000,-0.002000,0.002000,0.004000,FlatInitial
07:51:22.581 PM 02/15/2016,Teleop Enabled,0,FALSE,0,NO ERROR,0.000000,0.000000,-6000.000000,-6000.000000,Speed,Speed,0.030000,1.520000,2.050000,1.000000,101.000000,1,0,-0.000000,0.000000,1,0.000000,0.000000,0.000000,-1.117157,-0.514908,0.000000,0.000000,0.000000,0.005000,FlatInitial
07:51:22.681 PM 02/15/2016,Teleop Enabled,0,FALSE,0,NO ERROR,0.000000,0.000000,-6000.000000,-6000.000000,Speed,Speed,0.020000,1.520000,2.060000,1.000000,101.000000,1,0,-0.000000,0.000000,1,0.000000,0.000000,0.000000,-1.117157,-0.514908,0.000000,0.001000,0.001000,0.003000,FlatInitial
07:51:22.782 PM 02/15/2016,Teleop Enabled,0,FALSE,0,NO ERROR,0.000000,0.000000,-6000.000000,-6000.000000,Speed,Speed,0.020000,1.520000,2.050000,1.000000,101.000000,1,0,-0.000000,0.000000,1,0.000000,0.000000,0.000000,-1.117157,-0.514908,0.000000,0.001000,-0.001000,0.003000,FlatInitial
07:51:22.882 PM 02/15/2016,Teleop Enabled,0,FALSE,0,NO ERROR,0.000000,0.000000,-6000.000000,-6000.000000,Speed,Speed,0.020000,1.520000,2.050000,1.000000,101.000000,1,0,-0.000000,0.000000,1,0.000000,0.000000,0.000000,-1.117157,-0.514908,0.000000,0.000000,0.000000,0.002000,FlatInitial
07:51:22.983 PM 02/15/2016,Teleop Enabled,0,FALSE,0,NO ERROR,0.000000,0.000000,-6000.000000,-6000.000000,Speed,Speed,0.020000,1.520000,2.050000,1.000000,104.000000,1,0,-0.000000,0.000000,1,0.000000,0.000000,0.000000,-1.117157,-0.514908,0.000000,0.000000,0.000000,0.002000,FlatInitial
07:51:23.083 PM 02/15/2016,Teleop Enabled,0,FALSE,0,NO ERROR,0.000000,0.000000,-6000.000000,-6000.000000,Speed,Speed,0.020000,1.530000,2.050000,1.000000,101.000000,1,0,-0.000000,0.000000,1,0.000000,0.000000,0.000000,-1.117157,-0.514908,0.000000,0.000000,0.002000,0.000000,FlatInitial
07:51:23.183 PM 02/15/2016,Teleop Enabled,0,FALSE,0,NO ERROR,0.000000,0.000000,-6000.000000,-6000.000000,Speed,Speed,0.020000,1.530000,2.050000,1.000000,101.000000,1,0,-0.000000,0.000000,1,0.000000,0.000000,0.000000,-1.117157,-0.514908,0.000000,0.000000,0.001000,0.003000,FlatInitial
07:51:23.283 PM 02/15/2016,Teleop Enabled,0,FALSE,0,NO ERROR,0.000000,0.000000,-6000.000000,-6000.000000,Speed,Speed,0.020000,1.530000,2.050000,1.000000,101.000000,1,0,-0.000000,0.000000,1,0.000000,0.000000,0.000000,-1.117157,-0.514908,0.000000,0.001000,0.000000,0.002000,FlatInitial
07:51:23.383 PM 02/15/2016,Teleop Enabled,0,FALSE,0,NO ERROR,0.000000,0.000000,-6000.000000,-6000.000000,Speed,Speed,0.020000,1.520000,2.050000,1.000000,101.000000,1,0,-0.000000,0.000000,1,0.000000,0.000000,0.000000,-1.117157,-0.514908,0.000000,0.003000,0.000000,0.004000,FlatInitial
07:51:23.483 PM 02/15/2016,Teleop Enabled,0,FALSE,0,NO ERROR,0.000000,0.000000,-6000.000000,-6000.000000,Speed,Speed,0.020000,1.520000,2.050000,1.000000,101.000000,1,0,-0.000000,0.000000,1,0.000000,0.000000,0.000000,-1.117157,-0.514908,0.000000,-0.001000,-0.001000,0.003000,FlatInitial
07:51:23.583 PM 02/15/2016,Teleop Enabled,0,FALSE,0,NO ERROR,0.000000,0.000000,-6000.000000,-6000.000000,Speed,Speed,0.020000,1.520000,2.060000,1.000000,101.000000,1,0,-0.000000,0.000000,1,0.000000,0.000000,0.000000,-1.117157,-0.514908,0.000000,0.000000,0.002000,0.005000,FlatInitial
07:51:23.684 PM 02/15/2016,Teleop Enabled,0,FALSE,0,NO ERROR,0.000000,0.000000,-6000.000000,-6000.000000,Speed,Speed,0.020000,1.520000,2.060000,1.000000,101.000000,1,0,-0.000000,0.000000,1,0.000000,0.000000,0.000000,-1.117157,-0.514908,0.000000,0.000000,0.000000,0.007000,FlatInitial
07:51:23.784 PM 02/15/2016,Teleop Enabled,0,FALSE,0,NO ERROR,0.000000,0.000000,-6000.000000,-6000.000000,Speed,Speed,0.020000,1.520000,2.050000,1.000000,101.000000,1,0,-0.000000,0.000000,1,0.000000,0.000000,0.000000,-1.117157,-0.514908,0.000000,0.000000,-0.001000,0.005000,FlatInitial
07:51:23.884 PM 02/15/2016,Teleop Enabled,0,FALSE,0,NO ERROR,0.000000,0.000000,-6000.000000,-6000.000000,Speed,Speed,0.020000,1.520000,2.060000,1.000000,101.000000,1,0,-0.000000,0.000000,1,0.000000,0.000000,0.000000,-1.117157,-0.514908,0.000000,0.000000,-0.002000,0.006000,FlatInitial
07:51:23.985 PM 02/15/2016,Teleop Enabled,0,FALSE,0,NO ERROR,0.000000,0.000000,-6000.000000,-6000.000000,Speed,Speed,0.020000,1.520000,2.060000,1.000000,102.000000,1,0,-0.000000,0.000000,1,0.000000,0.000000,0.000000,-1.117157,-0.514908,0.000000,-0.001000,0.000000,0.002000,FlatInitial
07:51:24.085 PM 02/15/2016,Teleop Enabled,0,FALSE,0,NO ERROR,0.000000,0.000000,-6000.000000,-6000.000000,Speed,Speed,0.020000,1.520000,2.060000,1.000000,104.000000,1,0,-0.000000,0.000000,1,0.000000,0.000000,0.000000,-1.117157,-0.514908,0.000000,0.000000,0.000000,0.003000,FlatInitial
07:51:24.185 PM 02/15/2016,Teleop Enabled,0,FALSE,0,NO ERROR,0.000000,0.000000,-6000.000000,-6000.000000,Speed,Speed,0.020000,1.530000,2.060000,1.000000,102.000000,1,0,-0.000000,0.000000,1,0.000000,0.000000,0.000000,-1.117157,-0.514908,0.000000,0.000000,0.000000,0.005000,FlatInitial
07:51:24.285 PM 02/15/2016,Teleop Enabled,0,FALSE,0,NO ERROR,0.000000,0.000000,-6000.000000,-6000.000000,Speed,Speed,0.020000,1.530000,2.060000,1.000000,104.000000,1,0,-0.000000,0.000000,1,0.000000,0.000000,0.000000,-1.117157,-0.514908,0.000000,0.000000,-0.003000,-0.001000,FlatInitial
07:51:24.385 PM 02/15/2016,Teleop Enabled,0,FALSE,0,NO ERROR,0.000000,0.000000,-6000.000000,-6000.000000,Speed,Speed,0.020000,1.520000,2.060000,1.000000,104.000000,1,0,-0.000000,0.000000,1,0.000000,0.000000,0.000000,-1.117157,-0.514908,0.000000,0.001000,0.007000,0.003000,FlatInitial
07:51:24.485 PM 02/15/2016,Teleop Enabled,0,FALSE,0,NO ERROR,0.000000,0.000000,-6000.000000,-6000.000000,Speed,Speed,0.030000,1.530000,2.060000,1.000000,101.000000,1,0,-0.000000,0.000000,1,0.000000,0.000000,0.000000,-1.117157,-0.514908,0.000000,0.000000,-0.011000,0.005000,FlatInitial
07:51:24.585 PM 02/15/2016,Teleop Enabled,0,FALSE,0,NO ERROR,0.000000,0.000000,-6000.000000,-6000.000000,Speed,Speed,0.020000,1.520000,2.040000,1.000000,101.000000,1,0,-0.000000,0.000000,1,0.000000,0.000000,0.000000,-1.117157,-0.514908,0.000000,0.000000,0.004000,0.001000,FlatInitial
07:51:24.685 PM 02/15/2016,Teleop Enabled,0,FALSE,0,NO ERROR,0.000000,0.000000,-6000.000000,-6000.000000,Speed,Speed,0.030000,1.530000,2.060000,1.000000,101.000000,1,0,-0.000000,0.000000,1,0.000000,0.000000,0.000000,-1.117157,-0.514908,0.000000,-0.003000,-0.001000,0.006000,FlatInitial
07:51:24.785 PM 02/15/2016,Teleop Enabled,0,FALSE,0,NO ERROR,0.000000,0.000000,-6000.000000,-6000.000000,Speed,Speed,0.030000,1.530000,2.050000,1.000000,101.000000,1,0,-0.000000,0.000000,1,0.000000,0.000000,0.000000,-1.117157,-0.514908,0.000000,0.003000,0.002000,-0.001000,FlatInitial
07:51:24.886 PM 02/15/2016,Teleop Enabled,0,FALSE,0,NO ERROR,0.000000,0.000000,-6000.000000,-6000.000000,Speed,Speed,0.030000,1.530000,2.050000,1.000000,101.000000,1,0,-0.000000,0.000000,1,0.000000,0.000000,0.000000,-1.117157,-0.514908,0.000000,0.000000,-0.002000,0.002000,FlatInitial
07:51:24.986 PM 02/15/2016,Teleop Enabled,0,FALSE,0,NO ERROR,0.000000,0.000000,-6000.000000,-6000.000000,Speed,Speed,0.030000,1.530000,2.050000,1.000000,101.000000,1,0,-0.000000,0.000000,1,0.000000,0.000000,0.000000,-1.117157,-0.514908,0.000000,0.000000,0.003000,0.004000,FlatInitial
07:51:25.086 PM 02/15/2016,Teleop Enabled,0,FALSE,0,NO ERROR,0.000000,0.000000,-6000.000000,-6000.000000,Speed,Speed,0.030000,1.530000,2.050000,1.000000,102.000000,1,0,-0.000000,0.000000,1,0.000000,0.000000,0.000000,-1.117157,-0.514908,0.000000,0.002000,-0.001000,0.005000,FlatInitial
07:51:25.186 PM 02/15/2016,Teleop Enabled,0,FALSE,0,NO ERROR,0.000000,0.000000,-6000.000000,-6000.000000,Speed,Speed,0.030000,1.530000,2.050000,1.000000,101.000000,1,0,-0.000000,0.000000,1,0.000000,0.000000,0.000000,-1.117157,-0.514908,0.000000,0.002000,0.003000,0.001000,FlatInitial
07:51:25.286 PM 02/15/2016,Teleop Enabled,0,FALSE,0,NO ERROR,0.000000,0.000000,-6000.000000,-6000.000000,Speed,Speed,0.030000,1.530000,2.050000,1.000000,101.000000,1,0,-0.000000,0.000000,1,0.000000,0.000000,0.000000,-1.117157,-0.514908,0.000000,0.001000,-0.002000,0.006000,FlatInitial
07:51:25.386 PM 02/15/2016,Teleop Enabled,0,FALSE,0,NO ERROR,0.000000,0.000000,-6000.000000,-6000.000000,Speed,Speed,0.030000,1.530000,2.050000,1.000000,102.000000,1,0,-0.000000,0.000000,1,0.000000,0.000000,0.000000,-1.117157,-0.514908,0.000000,-0.001000,0.002000,0.002000,FlatInitial
07:51:25.487 PM 02/15/2016,Teleop Enabled,0,FALSE,0,NO ERROR,0.000000,0.000000,-6000.000000,-6000.000000,Speed,Speed,0.030000,1.530000,2.050000,1.000000,104.000000,1,0,-0.000000,0.000000,1,0.000000,0.000000,0.000000,-1.117157,-0.514908,0.000000,-0.002000,-0.001000,0.005000,FlatInitial
07:51:25.587 PM 02/15/2016,Teleop Enabled,0,FALSE,0,NO ERROR,0.000000,0.000000,-6000.000000,-6000.000000,Speed,Speed,0.030000,1.530000,2.050000,1.000000,100.000000,1,0,-0.000000,0.000000,1,0.000000,0.000000,0.000000,-1.117157,-0.514908,0.000000,0.000000,-0.001000,0.004000,FlatInitial
07:51:25.687 PM 02/15/2016,Teleop Enabled,0,FALSE,0,NO ERROR,0.000000,0.000000,-6000.000000,-6000.000000,Speed,Speed,0.030000,1.530000,2.050000,1.000000,101.000000,1,0,-0.000000,0.000000,1,0.000000,0.000000,0.000000,-1.117157,-0.514908,0.000000,0.003000,-0.001000,0.001000,FlatInitial
07:51:25.788 PM 02/15/2016,Teleop Enabled,0,FALSE,0,NO ERROR,0.000000,0.000000,-6000.000000,-6000.000000,Speed,Speed,0.030000,1.520000,2.050000,1.000000,101.000000,1,0,-0.000000,0.000000,1,0.000000,0.000000,0.000000,-1.117157,-0.514908,0.000000,0.000000,0.000000,0.004000,FlatInitial
07:51:25.888 PM 02/15/2016,Teleop Enabled,0,FALSE,0,NO ERROR,0.000000,0.000000,-6000.000000,-6000.000000,Speed,Speed,0.030000,1.520000,2.050000,1.000000,102.000000,1,0,-0.000000,0.000000,1,0.000000,0.000000,0.000000,-1.117157,-0.514908,0.000000,0.000000,0.000000,0.001000,FlatInitial
07:51:25.988 PM 02/15/2016,Teleop Enabled,0,FALSE,0,NO ERROR,0.000000,0.000000,-6000.000000,-6000.000000,Speed,Speed,0.030000,1.530000,2.060000,1.000000,101.000000,1,0,-0.000000,0.000000,1,0.000000,0.000000,0.000000,-1.117157,-0.514908,0.000000,0.000000,0.000000,0.001000,FlatInitial
07:51:26.088 PM 02/15/2016,Teleop Enabled,0,FALSE,0,NO ERROR,0.000000,0.000000,-6000.000000,-6000.000000,Speed,Speed,0.030000,1.530000,2.060000,1.000000,101.000000,1,0,-0.000000,0.000000,1,0.000000,0.000000,0.000000,-1.117157,-0.514908,0.000000,0.000000,0.000000,0.003000,FlatInitial
07:51:26.189 PM 02/15/2016,Teleop Enabled,0,FALSE,0,NO ERROR,0.000000,0.000000,-6000.000000,-6000.000000,Speed,Speed,0.030000,1.530000,2.060000,1.000000,102.000000,1,0,-0.000000,0.000000,1,0.000000,0.000000,0.000000,-1.117157,-0.514908,0.000000,0.000000,0.000000,0.003000,FlatInitial
07:51:26.289 PM 02/15/2016,Teleop Enabled,0,FALSE,0,NO ERROR,0.000000,0.000000,-6000.000000,-6000.000000,Speed,Speed,0.030000,1.520000,2.050000,1.000000,100.000000,1,0,-0.000000,0.000000,1,0.000000,0.000000,0.000000,-1.117157,-0.514908,0.000000,0.001000,0.000000,0.003000,FlatInitial
07:51:26.389 PM 02/15/2016,Teleop Enabled,0,FALSE,0,NO ERROR,0.000000,0.000000,-6000.000000,-6000.000000,Speed,Speed,0.030000,1.520000,2.060000,1.000000,103.000000,1,0,-0.000000,0.000000,1,0.000000,0.000000,0.000000,-1.117157,-0.514908,0.000000,0.000000,-0.002000,0.006000,FlatInitial
07:51:26.491 PM 02/15/2016,Teleop Enabled,0,FALSE,0,NO ERROR,0.000000,0.000000,-6000.000000,-6000.000000,Speed,Speed,0.030000,1.530000,2.060000,1.000000,103.000000,1,0,-0.000000,0.000000,1,0.000000,0.000000,0.000000,-1.117157,-0.514908,0.000000,0.001000,0.002000,0.003000,FlatInitial
07:51:26.594 PM 02/15/2016,Teleop Enabled,0,FALSE,0,NO ERROR,0.000000,0.000000,-6000.000000,-6000.000000,Speed,Speed,0.030000,1.530000,2.060000,1.000000,102.000000,1,0,-0.000000,0.000000,1,0.000000,0.000000,0.000000,-1.117157,-0.514908,0.000000,0.001000,0.001000,0.003000,FlatInitial
07:51:26.695 PM 02/15/2016,Teleop Enabled,0,FALSE,0,NO ERROR,0.000000,0.000000,-6000.000000,-6000.000000,Speed,Speed,0.020000,1.530000,2.070000,1.000000,102.000000,1,0,-0.000000,0.000000,1,0.000000,0.000000,0.000000,-1.117157,-0.514908,0.000000,-0.001000,0.000000,0.004000,FlatInitial
07:51:26.796 PM 02/15/2016,Teleop Enabled,0,FALSE,0,NO ERROR,0.000000,0.000000,-6000.000000,-6000.000000,Speed,Speed,0.030000,1.520000,2.060000,1.000000,103.000000,1,0,-0.000000,0.000000,1,0.000000,0.000000,0.000000,-1.117157,-0.514908,0.000000,-0.001000,0.000000,0.004000,FlatInitial
07:51:26.896 PM 02/15/2016,Teleop Enabled,0,FALSE,0,NO ERROR,0.000000,0.000000,-6000.000000,-6000.000000,Speed,Speed,0.030000,1.520000,2.060000,1.000000,105.000000,1,0,-0.000000,0.000000,1,0.000000,0.000000,0.000000,-1.117157,-0.514908,0.000000,0.000000,0.001000,0.003000,FlatInitial
07:51:26.996 PM 02/15/2016,Teleop Enabled,0,FALSE,0,NO ERROR,0.000000,0.000000,-6000.000000,-6000.000000,Speed,Speed,0.030000,1.510000,2.070000,1.000000,101.000000,1,0,-0.000000,0.000000,1,0.000000,0.000000,0.000000,-1.117157,-0.514908,0.000000,0.000000,0.001000,0.003000,FlatInitial
07:51:27.098 PM 02/15/2016,Teleop Enabled,0,FALSE,0,NO ERROR,0.000000,0.000000,-6000.000000,-6000.000000,Speed,Speed,0.030000,1.510000,2.070000,1.000000,101.000000,1,0,-0.000000,0.000000,1,0.000000,0.000000,0.000000,-1.117157,-0.514908,0.000000,-0.001000,-0.003000,0.008000,FlatInitial
07:51:27.200 PM 02/15/2016,Teleop Enabled,0,FALSE,0,NO ERROR,0.000000,0.000000,-6000.000000,-6000.000000,Speed,Speed,0.030000,1.510000,2.070000,1.000000,101.000000,1,0,-0.000000,0.000000,1,0.000000,0.000000,0.000000,-1.117157,-0.514908,0.000000,0.003000,-0.001000,0.007000,FlatInitial
07:51:27.300 PM 02/15/2016,Teleop Enabled,0,FALSE,0,NO ERROR,0.000000,0.000000,-6000.000000,-6000.000000,Speed,Speed,0.030000,1.510000,2.070000,1.000000,101.000000,1,0,-0.000000,0.000000,1,0.000000,0.000000,0.000000,-1.117157,-0.514908,0.000000,0.003000,0.001000,0.005000,FlatInitial
07:51:27.400 PM 02/15/2016,Teleop Enabled,0,FALSE,0,NO ERROR,0.000000,0.000000,-6000.000000,-6000.000000,Speed,Speed,0.030000,1.510000,2.070000,1.000000,101.000000,1,0,-0.000000,0.000000,1,0.000000,0.000000,0.000000,-1.117157,-0.514908,0.000000,-0.003000,0.002000,0.004000,FlatInitial
07:51:27.501 PM 02/15/2016,Teleop Enabled,0,FALSE,0,NO ERROR,0.000000,0.000000,-6000.000000,-6000.000000,Speed,Speed,0.030000,1.520000,2.060000,1.000000,101.000000,1,0,-0.000000,0.000000,1,0.000000,0.000000,0.000000,-1.117157,-0.514908,0.000000,0.000000,0.000000,-0.003000,FlatInitial
07:51:27.603 PM 02/15/2016,Teleop Enabled,0,FALSE,0,NO ERROR,0.000000,0.000000,-6000.000000,-6000.000000,Speed,Speed,0.030000,1.510000,2.070000,1.000000,102.000000,1,0,-0.000000,0.000000,1,0.000000,0.000000,0.000000,-1.117157,-0.514908,0.000000,0.000000,0.001000,0.001000,FlatInitial
07:51:27.703 PM 02/15/2016,Teleop Enabled,0,FALSE,0,NO ERROR,0.000000,0.000000,-6000.000000,-6000.000000,Speed,Speed,0.030000,1.510000,2.070000,1.000000,102.000000,1,0,-0.000000,0.000000,1,0.000000,0.000000,0.000000,-1.117157,-0.514908,0.000000,-0.001000,0.000000,0.004000,FlatInitial
07:51:27.803 PM 02/15/2016,Teleop Enabled,0,FALSE,0,NO ERROR,0.000000,0.000000,-6000.000000,-6000.000000,Speed,Speed,0.030000,1.520000,2.070000,1.000000,104.000000,1,0,-0.000000,0.000000,1,0.000000,0.000000,0.000000,-1.117157,-0.514908,0.000000,-0.001000,0.002000,-0.001000,FlatInitial
07:51:27.906 PM 02/15/2016,Teleop Enabled,0,FALSE,0,NO ERROR,0.000000,0.000000,-6000.000000,-6000.000000,Speed,Speed,0.030000,1.520000,2.080000,1.000000,101.000000,1,0,-0.000000,0.000000,1,0.000000,0.000000,0.000000,-1.117157,-0.514908,0.000000,0.000000,-0.001000,0.004000,FlatInitial
07:51:28.007 PM 02/15/2016,Teleop Enabled,0,FALSE,0,NO ERROR,0.000000,0.000000,-6000.000000,-6000.000000,Speed,Speed,0.030000,1.520000,2.080000,1.000000,101.000000,1,0,-0.000000,0.000000,1,0.000000,0.000000,0.000000,-1.117157,-0.514908,0.000000,0.000000,0.000000,0.004000,FlatInitial
07:51:28.107 PM 02/15/2016,Teleop Enabled,0,FALSE,0,NO ERROR,0.000000,0.000000,-6000.000000,-6000.000000,Speed,Speed,0.030000,1.520000,2.080000,1.000000,102.000000,1,0,-0.000000,0.000000,1,0.000000,0.000000,0.000000,-1.117157,-0.514908,0.000000,0.001000,0.000000,0.000000,FlatInitial
07:51:28.207 PM 02/15/2016,Teleop Enabled,0,FALSE,0,NO ERROR,0.000000,0.000000,-6000.000000,-6000.000000,Speed,Speed,0.030000,1.510000,2.070000,1.000000,103.000000,1,0,-0.000000,0.000000,1,0.000000,0.000000,0.000000,-1.117157,-0.514908,0.000000,0.015000,0.051000,-0.006000,FlatInitial
07:51:28.308 PM 02/15/2016,Teleop Enabled,0,FALSE,0,NO ERROR,0.000000,0.000000,-6000.000000,-6000.000000,Speed,Speed,0.000000,1.530000,2.100000,1.000000,101.000000,1,0,-0.000000,0.000000,1,0.005646,0.009445,0.000000,-1.117111,-0.514526,0.000000,-0.018000,0.022000,-0.026000,FlatInitial
07:51:28.408 PM 02/15/2016,Teleop Enabled,0,FALSE,0,NO ERROR,0.000000,0.000000,-6000.000000,-6000.000000,Speed,Speed,0.060000,1.490000,2.100000,1.000000,101.000000,1,0,-0.000000,0.000000,1,0.000000,0.002975,0.000000,-1.117096,-0.513901,0.000000,0.074000,-0.002000,0.000000,FlatInitial
07:51:28.508 PM 02/15/2016,Teleop Enabled,0,FALSE,0,NO ERROR,0.000000,0.000000,-6000.000000,-6000.000000,Speed,Speed,0.010000,1.510000,2.080000,1.000000,101.000000,1,0,-0.952756,-0.952756,1,-0.001495,0.000000,0.000000,-1.116669,-0.513901,0.000000,-0.011000,-0.001000,0.015000,FlatInitial
07:51:28.608 PM 02/15/2016,Teleop Enabled,0,FALSE,0,NO ERROR,0.000000,0.000000,-6000.000000,-6000.000000,Speed,Speed,-1.550000,1.410000,6.700000,1.000000,101.000000,0,0,-1.000000,-1.000000,1,0.016830,0.569229,0.000000,-1.114594,-0.497711,0.000000,-0.011000,-0.001000,0.015000,FlatInitial
07:51:28.708 PM 02/15/2016,Teleop Enabled,0,FALSE,0,NO ERROR,0.000000,0.000000,-6000.000000,-6000.000000,Speed,Speed,-4.480000,1.760000,7.750000,1.000000,103.000000,0,0,-0.913386,-0.913386,1,-0.024872,1.049530,0.000000,-1.115036,-0.455673,0.000000,-0.017000,0.365000,-0.283000,FlatInitial
07:51:28.808 PM 02/15/2016,Teleop Enabled,0,FALSE,0,NO ERROR,0.000000,0.000000,-6000.000000,-6000.000000,Speed,Speed,-9.530000,2.340000,9.030000,1.000000,101.000000,0,0,-0.818898,-0.818898,1,-0.127243,1.351822,0.000000,-1.120148,-0.394211,0.000000,-0.371000,0.038000,0.458000,FlatInitial
07:51:28.908 PM 02/15/2016,Teleop Enabled,0,FALSE,0,NO ERROR,-0.146484,0.146484,-6000.000000,-6000.000000,Speed,Speed,-13.290000,1.790000,9.860000,1.000000,102.000000,0,0,-0.000000,0.000000,1,-0.432510,1.515411,0.000000,-1.137253,-0.320755,0.000000,-0.371000,0.038000,0.458000,FlatInitial
07:51:29.008 PM 02/15/2016,Teleop Enabled,0,FALSE,0,NO ERROR,-0.292969,0.000000,-6000.000000,-6000.000000,Speed,Speed,-13.010000,1.010000,6.050000,1.000000,104.000000,0,0,-0.000000,0.000000,1,-0.740204,1.414490,0.000000,-1.161224,-0.248154,0.000000,0.199000,-0.176000,0.752000,FlatInitial
07:51:29.108 PM 02/15/2016,Teleop Enabled,0,FALSE,0,NO ERROR,1.025391,1.757812,-6000.000000,-6000.000000,Speed,Speed,-7.980000,1.100000,3.010000,1.000000,102.000000,1,0,-0.000000,0.000000,1,-0.299149,1.251114,0.000000,-1.186188,-0.179123,0.000000,-0.770000,1.172000,-0.846000,FlatInitial
07:51:29.208 PM 02/15/2016,Teleop Enabled,0,FALSE,0,NO ERROR,-4.833984,-2.636719,-6000.000000,-6000.000000,Speed,Speed,-6.090000,2.350000,2.930000,1.000000,101.000000,1,0,-0.000000,0.000000,1,-0.299149,1.251114,0.000000,-1.186188,-0.179123,0.000000,0.623000,-0.006000,-1.775000,FlatInitial
07:51:29.308 PM 02/15/2016,Teleop Enabled,0,FALSE,0,NO ERROR,-1.757812,0.732422,-6000.000000,-6000.000000,Speed,Speed,-6.300000,1.820000,0.870000,1.000000,102.000000,1,0,-0.000000,0.000000,1,-0.054230,0.562637,0.000000,-1.181015,-0.098282,0.000000,0.269000,-0.631000,-0.303000,FlatInitial
07:51:29.409 PM 02/15/2016,Teleop Enabled,0,FALSE,0,NO ERROR,0.146484,0.000000,-6000.000000,-6000.000000,Speed,Speed,-6.020000,1.860000,0.660000,1.000000,101.000000,1,0,-0.000000,0.000000,1,0.006302,0.378342,0.000000,-1.182053,-0.076157,0.000000,0.021000,-0.071000,0.547000,FlatInitial
07:51:29.509 PM 02/15/2016,Teleop Enabled,0,FALSE,0,NO ERROR,0.000000,0.000000,-6000.000000,-6000.000000,Speed,Speed,-5.860000,1.800000,0.770000,1.000000,101.000000,1,0,-0.000000,0.000000,1,-0.037842,0.256516,0.000000,-1.182007,-0.061417,0.000000,0.129000,-0.236000,-0.019000,FlatInitial
07:51:29.609 PM 02/15/2016,Teleop Enabled,0,FALSE,0,NO ERROR,0.000000,0.000000,-6000.000000,-6000.000000,Speed,Speed,-5.950000,1.890000,0.230000,1.000000,100.000000,1,0,-0.000000,0.000000,1,-0.006699,0.182693,0.000000,-1.182739,-0.051727,0.000000,-0.053000,-0.079000,-0.048000,FlatInitial
07:51:29.709 PM 02/15/2016,Teleop Enabled,0,FALSE,0,NO ERROR,0.000000,0.000000,-6000.000000,-6000.000000,Speed,Speed,-5.950000,1.890000,0.230000,1.000000,105.000000,1,0,-0.000000,0.000000,1,0.000000,-0.013519,0.000000,-1.182800,-0.047638,0.000000,-0.013000,0.032000,-0.063000,FlatInitial
07:51:29.810 PM 02/15/2016,Teleop Enabled,0,FALSE,0,NO ERROR,0.000000,0.000000,-6000.000000,-6000.000000,Speed,Speed,-6.170000,1.890000,0.270000,1.000000,101.000000,1,0,-0.000000,0.000000,1,0.000000,-0.013519,0.000000,-1.182800,-0.047638,0.000000,-0.023000,-0.006000,0.015000,FlatInitial
07:51:29.910 PM 02/15/2016,Teleop Enabled,0,FALSE,0,NO ERROR,0.000000,0.000000,-6000.000000,-6000.000000,Speed,Speed,-6.380000,1.860000,0.420000,1.000000,102.000000,1,0,-0.000000,0.000000,1,0.000000,0.000000,0.000000,-1.182968,-0.047836,0.000000,-0.068000,-0.175000,0.046000,FlatInitial
07:51:30.011 PM 02/15/2016,Teleop Enabled,0,FALSE,0,NO ERROR,0.000000,0.000000,-6000.000000,-6000.000000,Speed,Speed,-5.930000,1.670000,0.200000,1.000000,105.000000,1,0,-0.000000,0.000000,1,0.055145,-0.011505,0.000000,-1.179977,-0.049103,0.000000,-0.072000,-0.090000,0.031000,FlatInitial
07:51:30.112 PM 02/15/2016,Teleop Enabled,0,FALSE,0,NO ERROR,0.000000,0.000000,-6000.000000,-6000.000000,Speed,Speed,-5.980000,1.860000,0.720000,1.000000,102.000000,1,0,-0.000000,0.000000,1,0.055145,-0.011505,0.000000,-1.179977,-0.049103,0.000000,-0.022000,0.006000,-0.050000,FlatInitial
07:51:30.212 PM 02/15/2016,Teleop Enabled,0,FALSE,0,NO ERROR,0.000000,0.000000,-6000.000000,-6000.000000,Speed,Speed,-6.430000,1.780000,0.240000,1.000000,100.000000,1,0,-0.000000,0.000000,1,0.006622,0.006866,0.000000,-1.178452,-0.049286,0.000000,0.020000,0.018000,-0.071000,FlatInitial
07:51:30.314 PM 02/15/2016,Teleop Enabled,0,FALSE,0,NO ERROR,0.000000,0.000000,-6000.000000,-6000.000000,Speed,Speed,-6.720000,1.680000,0.610000,1.000000,101.000000,1,0,-0.000000,0.000000,1,-0.043243,0.060379,0.000000,-1.179214,-0.047516,0.000000,-0.048000,0.077000,-0.025000,FlatInitial
07:51:30.415 PM 02/15/2016,Teleop Enabled,0,FALSE,0,NO ERROR,0.000000,0.000000,-6000.000000,-6000.000000,Speed,Speed,-6.310000,1.730000,1.250000,1.000000,101.000000,1,0,-0.000000,0.000000,1,-0.029434,0.102921,0.000000,-1.181335,-0.042877,0.000000,0.021000,0.010000,-0.009000,FlatInitial
07:51:30.515 PM 02/15/2016,Teleop Enabled,0,FALSE,0,NO ERROR,0.000000,0.000000,-6000.000000,-6000.000000,Speed,Speed,-6.360000,1.670000,1.220000,1.000000,104.000000,1,0,-0.000000,0.000000,1,-0.041473,0.128128,0.000000,-1.183319,-0.036911,0.000000,0.023000,-0.004000,0.002000,FlatInitial
07:51:30.616 PM 02/15/2016,Teleop Enabled,0,FALSE,0,NO ERROR,0.000000,0.000000,-6000.000000,-6000.000000,Speed,Speed,-6.500000,1.680000,1.210000,1.000000,101.000000,1,0,-0.000000,0.000000,1,-0.007874,0.000000,0.000000,-1.184143,-0.036911,0.000000,-0.025000,0.005000,0.000000,FlatInitial
07:51:30.716 PM 02/15/2016,Teleop Enabled,0,FALSE,0,NO ERROR,0.000000,0.000000,-6000.000000,-6000.000000,Speed,Speed,-6.430000,1.660000,1.250000,1.000000,102.000000,1,0,-0.000000,0.000000,1,0.006210,0.000000,0.000000,-1.184113,-0.036911,0.000000,-0.006000,-0.001000,0.008000,FlatInitial
07:51:30.817 PM 02/15/2016,Teleop Enabled,0,FALSE,0,NO ERROR,0.000000,0.000000,-6000.000000,-6000.000000,Speed,Speed,-6.450000,1.630000,1.270000,1.000000,102.000000,1,0,-0.000000,0.000000,1,0.000000,0.000000,0.000000,-1.184113,-0.036911,0.000000,-0.001000,0.011000,0.027000,FlatInitial
07:51:30.917 PM 02/15/2016,Teleop Enabled,0,FALSE,0,NO ERROR,0.000000,0.000000,-6000.000000,-6000.000000,Speed,Speed,-6.450000,1.610000,1.370000,1.000000,101.000000,1,0,-0.000000,0.000000,1,0.000000,0.014664,0.000000,-1.184113,-0.036636,0.000000,0.005000,0.006000,-0.006000,FlatInitial
07:51:31.017 PM 02/15/2016,Teleop Enabled,0,FALSE,0,NO ERROR,0.000000,0.000000,-6000.000000,-6000.000000,Speed,Speed,-6.440000,1.600000,1.350000,1.000000,102.000000,1,0,-0.000000,0.000000,1,0.000000,0.000000,0.000000,-1.184113,-0.036636,0.000000,-0.018000,0.008000,0.001000,FlatInitial
07:51:31.117 PM 02/15/2016,Teleop Enabled,0,FALSE,0,NO ERROR,0.000000,0.000000,-6000.000000,-6000.000000,Speed,Speed,-6.490000,1.600000,1.300000,1.000000,105.000000,1,0,-0.000000,0.000000,1,0.000000,0.000000,0.000000,-1.184265,-0.036377,0.000000,-0.006000,0.006000,0.016000,FlatInitial
07:51:31.217 PM 02/15/2016,Teleop Enabled,0,FALSE,0,NO ERROR,0.000000,0.000000,-6000.000000,-6000.000000,Speed,Speed,-6.500000,1.570000,1.360000,1.000000,100.000000,1,0,-0.000000,0.000000,1,0.000000,0.000000,0.000000,-1.184265,-0.036377,0.000000,0.004000,-0.006000,0.013000,FlatInitial
07:51:31.317 PM 02/15/2016,Teleop Enabled,0,FALSE,0,NO ERROR,0.000000,0.000000,-6000.000000,-6000.000000,Speed,Speed,-6.460000,1.560000,1.290000,1.000000,102.000000,1,0,-0.000000,0.000000,1,0.000000,0.000000,0.000000,-1.184265,-0.036377,0.000000,-0.002000,0.001000,0.013000,FlatInitial
07:51:31.417 PM 02/15/2016,Teleop Enabled,0,FALSE,0,NO ERROR,0.000000,0.000000,-6000.000000,-6000.000000,Speed,Speed,-6.480000,1.560000,1.330000,1.000000,101.000000,1,0,-0.000000,0.000000,1,0.000000,0.000000,0.000000,-1.184265,-0.036377,0.000000,-0.004000,0.004000,0.002000,FlatInitial
07:51:31.517 PM 02/15/2016,Teleop Enabled,0,FALSE,0,NO ERROR,0.000000,0.000000,-6000.000000,-6000.000000,Speed,Speed,-6.470000,1.540000,1.370000,1.000000,102.000000,1,0,-0.000000,0.000000,1,0.000000,0.000000,0.000000,-1.184265,-0.036377,0.000000,0.000000,0.010000,0.006000,FlatInitial
07:51:31.618 PM 02/15/2016,Teleop Enabled,0,FALSE,0,NO ERROR,0.000000,0.000000,-6000.000000,-6000.000000,Speed,Speed,-6.470000,1.540000,1.400000,1.000000,101.000000,1,0,-0.000000,0.000000,1,0.000000,0.000000,0.000000,-1.184265,-0.036377,0.000000,-0.003000,0.001000,0.004000,FlatInitial
07:51:31.719 PM 02/15/2016,Teleop Enabled,0,FALSE,0,NO ERROR,0.000000,0.000000,-6000.000000,-6000.000000,Speed,Speed,-6.480000,1.530000,1.410000,1.000000,102.000000,1,0,-0.000000,0.000000,1,0.000000,0.000000,0.000000,-1.184265,-0.036377,0.000000,-0.004000,0.004000,0.004000,FlatInitial
07:51:31.819 PM 02/15/2016,Teleop Enabled,0,FALSE,0,NO ERROR,0.000000,0.000000,-6000.000000,-6000.000000,Speed,Speed,-6.480000,1.530000,1.420000,1.000000,101.000000,1,0,-0.000000,0.000000,1,0.000000,0.000000,0.000000,-1.184265,-0.036377,0.000000,-0.001000,0.000000,0.003000,FlatInitial
07:51:31.920 PM 02/15/2016,Teleop Enabled,0,FALSE,0,NO ERROR,0.000000,0.000000,-6000.000000,-6000.000000,Speed,Speed,-6.480000,1.520000,1.430000,1.000000,102.000000,1,0,-0.000000,0.000000,1,0.000000,0.000000,0.000000,-1.184265,-0.036377,0.000000,-0.002000,0.004000,0.007000,FlatInitial
07:51:32.020 PM 02/15/2016,Teleop Enabled,0,FALSE,0,NO ERROR,0.000000,0.000000,-6000.000000,-6000.000000,Speed,Speed,-6.480000,1.510000,1.450000,1.000000,101.000000,1,0,-0.000000,0.000000,1,0.000000,0.000000,0.000000,-1.184265,-0.036377,0.000000,-0.004000,0.001000,0.004000,FlatInitial
07:51:32.120 PM 02/15/2016,Teleop Enabled,0,FALSE,0,NO ERROR,0.000000,0.000000,-6000.000000,-6000.000000,Speed,Speed,-6.490000,1.500000,1.470000,1.000000,105.000000,1,0,-0.000000,0.000000,1,0.000000,0.000000,0.000000,-1.184265,-0.036377,0.000000,-0.001000,0.000000,0.000000,FlatInitial
07:51:32.221 PM 02/15/2016,Teleop Enabled,0,FALSE,0,NO ERROR,0.000000,0.000000,-6000.000000,-6000.000000,Speed,Speed,-6.490000,1.500000,1.490000,1.000000,104.000000,1,0,-0.000000,0.000000,1,0.000000,0.000000,0.000000,-1.184265,-0.036377,0.000000,0.000000,0.001000,0.000000,FlatInitial
07:51:32.321 PM 02/15/2016,Teleop Enabled,0,FALSE,0,NO ERROR,0.000000,0.000000,-6000.000000,-6000.000000,Speed,Speed,-6.500000,1.500000,1.500000,1.000000,101.000000,1,0,-0.000000,0.000000,1,0.000000,0.000000,0.000000,-1.184265,-0.036377,0.000000,-0.002000,0.004000,0.004000,FlatInitial
07:51:32.422 PM 02/15/2016,Teleop Enabled,0,FALSE,0,NO ERROR,0.000000,0.000000,-6000.000000,-6000.000000,Speed,Speed,-6.500000,1.490000,1.520000,1.000000,103.000000,1,0,-0.000000,0.000000,1,0.000000,0.000000,0.000000,-1.184265,-0.036377,0.000000,0.000000,0.000000,0.004000,FlatInitial
07:51:32.522 PM 02/15/2016,Teleop Enabled,0,FALSE,0,NO ERROR,0.000000,0.000000,-6000.000000,-6000.000000,Speed,Speed,-6.500000,1.490000,1.520000,1.000000,101.000000,1,0,-0.000000,0.000000,1,0.000000,0.000000,0.000000,-1.184265,-0.036377,0.000000,0.000000,0.002000,-0.001000,FlatInitial
07:51:32.623 PM 02/15/2016,Teleop Enabled,0,FALSE,0,NO ERROR,0.000000,0.000000,-6000.000000,-6000.000000,Speed,Speed,-6.500000,1.480000,1.530000,1.000000,101.000000,1,0,-0.000000,0.000000,1,0.000000,0.000000,0.000000,-1.184265,-0.036377,0.000000,-0.003000,0.002000,0.002000,FlatInitial
07:51:32.723 PM 02/15/2016,Teleop Enabled,0,FALSE,0,NO ERROR,0.000000,0.000000,-6000.000000,-6000.000000,Speed,Speed,-6.500000,1.470000,1.540000,1.000000,102.000000,1,0,-0.000000,0.000000,1,0.000000,0.000000,0.000000,-1.184265,-0.036377,0.000000,-0.002000,0.003000,0.001000,FlatInitial
07:51:32.823 PM 02/15/2016,Teleop Enabled,0,FALSE,0,NO ERROR,0.000000,0.000000,-6000.000000,-6000.000000,Speed,Speed,-6.500000,1.470000,1.550000,1.000000,101.000000,1,0,-0.000000,0.000000,1,0.000000,0.000000,0.000000,-1.184265,-0.036377,0.000000,-0.003000,0.002000,0.001000,FlatInitial
07:51:32.924 PM 02/15/2016,Teleop Enabled,0,FALSE,0,NO ERROR,0.000000,0.000000,-6000.000000,-6000.000000,Speed,Speed,-6.500000,1.460000,1.550000,1.000000,101.000000,1,0,-0.000000,0.000000,1,0.000000,0.000000,0.000000,-1.184265,-0.036377,0.000000,0.000000,0.003000,0.003000,FlatInitial
07:51:33.024 PM 02/15/2016,Teleop Enabled,0,FALSE,0,NO ERROR,0.000000,0.000000,-6000.000000,-6000.000000,Speed,Speed,-6.500000,1.460000,1.560000,1.000000,101.000000,1,0,-0.000000,0.000000,1,0.000000,0.000000,0.000000,-1.184265,-0.036377,0.000000,0.000000,0.001000,0.006000,FlatInitial
