Time,RobotMode,AutoToRun,ErrorStatus, ErrorCode,ErrorSource,ActualRPM1,ActualRPM2,DesiredRPM1,DesiredRPM2,ControlMode1,ControlMode2,NavXYaw,NavXRoll,NavXPitch,ShooterState,LoopTime,IsLevel,IsAutoTargeting,LeftMotorOutput,RightMotorOutput,IsHaloDrive,NavXVelocityX,NavXVelocityY,NavXVelocityZ,NavXDisplacementX,NavXDisplacementY,NavXDisplacementZ,NavXAccelerationX,NavXAccelerationY,NavXAccelerationZ,AutoDefendState
03:23:43.951 PM 02/14/2016,Teleop Enabled,0,TRUE,91,Variant To Data in WPI_DigitalInputRefNum Registry Get.vi->Periodic Tasks.vi->Robot Main.vi,0.000000,0.000000,0.000000,0.000000,Speed,Speed,0.000000,1.190000,1.840000,0.000000,104.000000,1,0,-0.000558,0.000558,0,0.000000,0.000000,0.000000,44.229111,-5.419891,0.000000,0.016000,0.018000,-0.011000,FlatInitial
03:23:44.051 PM 02/14/2016,Teleop Enabled,0,TRUE,-44007,<LOCATION>WPI_DigitalInputRefNum Registry Get.vi<CALLSTACK>WPI_DigitalInputRefNum Registry Get.vi< <Periodic Tasks.vi< <Robot Main.vi,0.000000,0.000000,0.000000,0.000000,Speed,Speed,0.070000,1.160000,1.890000,0.000000,102.000000,1,0,-0.000558,0.000558,0,0.003647,0.026779,0.000000,44.229248,-5.419205,0.000000,-0.010000,-0.062000,0.094000,FlatInitial
03:23:44.152 PM 02/14/2016,Teleop Enabled,0,FALSE,0,NO ERROR,0.000000,0.000000,0.000000,0.000000,Speed,Speed,0.040000,1.180000,1.940000,0.000000,101.000000,1,0,-0.000558,0.000558,0,-0.002213,-0.008682,0.000000,44.229218,-5.418762,0.000000,-0.020000,-0.026000,0.023000,FlatInitial
03:23:44.253 PM 02/14/2016,Teleop Enabled,0,FALSE,0,NO ERROR,0.000000,0.000000,0.000000,0.000000,Speed,Speed,0.010000,1.170000,1.730000,0.000000,102.000000,1,0,-0.000558,0.000558,0,0.000000,0.000000,0.000000,44.229141,-5.418900,0.000000,0.003000,0.002000,-0.005000,FlatInitial
03:23:44.353 PM 02/14/2016,Teleop Enabled,0,FALSE,0,NO ERROR,0.000000,0.000000,0.000000,0.000000,Speed,Speed,0.050000,1.170000,1.940000,0.000000,102.000000,1,0,-0.000558,0.000558,0,0.000000,0.000000,0.000000,44.229141,-5.418900,0.000000,0.001000,-0.008000,0.021000,FlatInitial
03:23:44.453 PM 02/14/2016,Teleop Enabled,0,FALSE,0,NO ERROR,0.000000,0.000000,0.000000,0.000000,Speed,Speed,0.020000,1.170000,1.920000,0.000000,101.000000,1,0,-0.000558,0.000558,0,0.000000,0.000000,0.000000,44.229141,-5.418900,0.000000,0.003000,0.006000,-0.003000,FlatInitial
03:23:44.554 PM 02/14/2016,Teleop Enabled,0,FALSE,0,NO ERROR,0.000000,0.000000,0.000000,0.000000,Speed,Speed,-0.010000,1.160000,2.060000,0.000000,101.000000,1,0,-0.000558,0.000558,0,0.000000,0.000000,0.000000,44.229141,-5.418900,0.000000,0.000000,0.011000,-0.002000,FlatInitial
03:23:44.654 PM 02/14/2016,Teleop Enabled,0,FALSE,0,NO ERROR,0.000000,0.000000,0.000000,0.000000,Speed,Speed,0.010000,1.160000,2.000000,0.000000,103.000000,1,0,-0.000558,0.000558,0,0.000000,0.000000,0.000000,44.229141,-5.418900,0.000000,0.000000,0.004000,-0.012000,FlatInitial
03:23:44.759 PM 02/14/2016,Teleop Enabled,0,FALSE,0,NO ERROR,0.000000,0.000000,0.000000,0.000000,Speed,Speed,0.000000,1.170000,2.010000,0.000000,104.000000,1,0,-0.000558,0.000558,0,0.000000,0.000000,0.000000,44.229141,-5.418900,0.000000,-0.002000,-0.013000,-0.001000,FlatInitial
03:23:44.855 PM 02/14/2016,Teleop Enabled,0,FALSE,0,NO ERROR,0.000000,0.000000,0.000000,0.000000,Speed,Speed,0.020000,1.170000,1.920000,0.000000,102.000000,1,0,-0.000558,0.000558,0,0.000000,0.000000,0.000000,44.229141,-5.418900,0.000000,0.000000,-0.004000,-0.001000,FlatInitial
03:23:44.957 PM 02/14/2016,Teleop Enabled,0,FALSE,0,NO ERROR,0.000000,0.000000,0.000000,0.000000,Speed,Speed,0.020000,1.170000,1.870000,0.000000,101.000000,1,0,-0.000558,0.000558,0,0.000000,0.004456,0.000000,44.229141,-5.418854,0.000000,-0.008000,0.021000,-0.013000,FlatInitial
03:23:45.058 PM 02/14/2016,Teleop Enabled,0,FALSE,0,NO ERROR,0.000000,0.000000,0.000000,0.000000,Speed,Speed,0.010000,1.170000,1.930000,0.000000,103.000000,1,0,-0.000558,0.000558,0,0.000000,-0.004349,0.000000,44.229141,-5.418671,0.000000,0.002000,-0.025000,0.014000,FlatInitial
03:23:45.159 PM 02/14/2016,Teleop Enabled,0,FALSE,0,NO ERROR,0.000000,0.000000,0.000000,0.000000,Speed,Speed,0.010000,1.150000,1.910000,0.000000,100.000000,1,0,-0.000558,0.000558,0,0.000000,0.000000,0.000000,44.229141,-5.418884,0.000000,0.003000,-0.003000,-0.001000,FlatInitial
03:23:45.259 PM 02/14/2016,Teleop Enabled,0,FALSE,0,NO ERROR,0.000000,0.000000,0.000000,0.000000,Speed,Speed,0.030000,1.160000,1.850000,0.000000,104.000000,1,0,-0.000558,0.000558,0,0.000000,0.000000,0.000000,44.229141,-5.418884,0.000000,-0.005000,-0.002000,0.017000,FlatInitial
03:23:45.359 PM 02/14/2016,Teleop Enabled,0,FALSE,0,NO ERROR,0.000000,0.000000,0.000000,0.000000,Speed,Speed,0.000000,1.180000,1.880000,0.000000,101.000000,1,0,-0.000558,0.000558,0,-0.006058,0.008774,0.000000,44.228699,-5.418762,0.000000,-0.015000,0.000000,0.008000,FlatInitial
03:23:45.459 PM 02/14/2016,Teleop Enabled,0,FALSE,0,NO ERROR,0.000000,0.000000,0.000000,0.000000,Speed,Speed,0.010000,1.160000,1.940000,0.000000,101.000000,1,0,-0.000558,0.000558,0,0.000000,0.000000,0.000000,44.228638,-5.418640,0.000000,0.018000,-0.009000,-0.015000,FlatInitial
03:23:45.559 PM 02/14/2016,Teleop Enabled,0,FALSE,0,NO ERROR,0.000000,0.000000,-6000.000000,-6000.000000,Speed,Speed,0.010000,1.150000,1.840000,1.000000,102.000000,1,0,-0.000558,0.000558,0,-0.004257,0.000000,0.000000,44.228500,-5.418869,0.000000,0.012000,0.007000,-0.031000,FlatInitial
03:23:45.660 PM 02/14/2016,Teleop Enabled,0,FALSE,0,NO ERROR,-218.994141,233.349609,-6000.000000,-6000.000000,Speed,Speed,0.000000,1.150000,1.870000,1.000000,103.000000,1,0,-0.000558,0.000558,0,0.000000,0.001434,0.000000,44.228500,-5.418884,0.000000,0.000000,0.023000,-0.011000,FlatInitial
03:23:45.761 PM 02/14/2016,Teleop Enabled,0,FALSE,0,NO ERROR,-1460.156250,1543.798828,-6000.000000,-6000.000000,Speed,Speed,0.000000,1.150000,1.900000,1.000000,102.000000,1,0,-0.000558,0.000558,0,0.030518,-0.001282,0.000000,44.229584,-5.418610,0.000000,0.010000,-0.001000,0.080000,FlatInitial
03:23:45.861 PM 02/14/2016,Teleop Enabled,0,FALSE,0,NO ERROR,-3508.154297,3632.812500,-6000.000000,-6000.000000,Speed,Speed,0.010000,1.150000,1.810000,1.000000,119.000000,1,0,-0.000558,0.000558,0,0.020554,-0.009308,0.000000,44.230392,-5.418777,0.000000,-0.021000,-0.065000,0.106000,FlatInitial
03:23:45.962 PM 02/14/2016,Teleop Enabled,0,FALSE,0,NO ERROR,-4891.992188,4902.539062,-6000.000000,-6000.000000,Speed,Speed,0.000000,1.160000,1.770000,1.000000,101.000000,1,0,-0.000558,0.000558,0,0.011902,0.000000,0.000000,44.231140,-5.418533,0.000000,-0.065000,-0.003000,0.066000,FlatInitial
03:23:46.063 PM 02/14/2016,Teleop Enabled,0,FALSE,0,NO ERROR,-5816.015625,5584.570312,-6000.000000,-6000.000000,Speed,Speed,0.000000,1.170000,1.790000,1.000000,102.000000,1,0,-0.000558,0.000558,0,0.000610,0.030319,0.000000,44.231400,-5.416992,0.000000,0.049000,-0.056000,-0.082000,FlatInitial
03:23:46.164 PM 02/14/2016,Teleop Enabled,0,FALSE,0,NO ERROR,-6193.945312,5794.921875,-6000.000000,-6000.000000,Speed,Speed,0.000000,1.150000,1.890000,1.000000,101.000000,1,0,-0.000558,0.000558,0,0.054916,0.034439,0.000000,44.232559,-5.416214,0.000000,-0.019000,0.048000,0.017000,FlatInitial
03:23:46.266 PM 02/14/2016,Teleop Enabled,0,FALSE,0,NO ERROR,-6274.218750,5869.921875,-6000.000000,-6000.000000,Speed,Speed,0.000000,1.170000,1.950000,1.000000,103.000000,1,0,-0.000558,0.000558,0,0.032257,0.084671,0.000000,44.234802,-5.412903,0.000000,0.024000,-0.064000,0.014000,FlatInitial
03:23:46.367 PM 02/14/2016,Teleop Enabled,0,FALSE,0,NO ERROR,-6252.539062,5916.210938,-6000.000000,-6000.000000,Speed,Speed,0.000000,1.190000,2.030000,1.000000,102.000000,1,0,-0.000558,0.000558,0,-0.001282,0.017120,0.000000,44.235107,-5.412964,0.000000,-0.006000,-0.028000,-0.154000,FlatInitial
03:23:46.469 PM 02/14/2016,Teleop Enabled,0,FALSE,0,NO ERROR,-6182.812500,5953.710938,-6000.000000,-6000.000000,Speed,Speed,-0.010000,1.200000,1.960000,1.000000,103.000000,1,0,-0.000558,0.000558,0,-0.023209,-0.001617,0.000000,44.234497,-5.412827,0.000000,-0.036000,0.075000,-0.140000,FlatInitial
03:23:46.569 PM 02/14/2016,Teleop Enabled,0,FALSE,0,NO ERROR,-6119.531250,5983.593750,-6000.000000,-6000.000000,Speed,Speed,-0.010000,1.190000,2.060000,1.000000,101.000000,1,0,-0.000558,0.000558,0,0.000000,0.032974,0.000000,44.233490,-5.411530,0.000000,-0.015000,-0.014000,-0.087000,FlatInitial
03:23:46.669 PM 02/14/2016,Teleop Enabled,0,FALSE,0,NO ERROR,-6074.414062,6007.617188,-6000.000000,-6000.000000,Speed,Speed,-0.010000,1.210000,2.090000,1.000000,101.000000,1,0,-0.000558,0.000558,0,0.015289,-0.021652,0.000000,44.233917,-5.412003,0.000000,0.010000,-0.066000,-0.092000,FlatInitial
03:23:46.769 PM 02/14/2016,Teleop Enabled,0,FALSE,0,NO ERROR,-6045.117188,6007.617188,-6000.000000,-6000.000000,Speed,Speed,-0.010000,1.190000,1.830000,1.000000,105.000000,1,0,-0.000558,0.000558,0,0.049408,-0.081940,0.000000,44.235519,-5.414948,0.000000,0.083000,-0.032000,-0.087000,FlatInitial
03:23:46.873 PM 02/14/2016,Teleop Enabled,0,FALSE,0,NO ERROR,-6031.054688,6029.882812,-6000.000000,-6000.000000,Speed,Speed,-0.010000,1.180000,1.610000,1.000000,102.000000,1,0,-0.000558,0.000558,0,0.088028,-0.124298,0.000000,44.238464,-5.419327,0.000000,0.051000,-0.089000,-0.133000,FlatInitial
03:23:46.971 PM 02/14/2016,Teleop Enabled,0,FALSE,0,NO ERROR,-6019.921875,6032.226562,-6000.000000,-6000.000000,Speed,Speed,-0.020000,1.160000,1.450000,1.000000,102.000000,1,0,-0.000558,0.000558,0,0.170914,-0.158981,0.000000,44.246536,-5.428116,0.000000,0.082000,-0.041000,-0.167000,FlatInitial
03:23:47.072 PM 02/14/2016,Teleop Enabled,0,FALSE,0,NO ERROR,-6016.992188,6032.226562,-6000.000000,-6000.000000,Speed,Speed,-0.030000,1.160000,1.500000,1.000000,102.000000,1,0,-0.000558,0.000558,0,0.233398,0.015640,0.000000,44.256927,-5.429428,0.000000,0.052000,0.052000,-0.172000,FlatInitial
03:23:47.171 PM 02/14/2016,Teleop Enabled,0,FALSE,0,NO ERROR,-6014.062500,6029.882812,-6000.000000,-6000.000000,Speed,Speed,-0.020000,1.180000,1.660000,1.000000,101.000000,1,0,-0.000558,0.000558,0,0.296997,0.084503,0.000000,44.270493,-5.426865,0.000000,0.049000,0.092000,-0.166000,FlatInitial
03:23:47.271 PM 02/14/2016,Teleop Enabled,0,FALSE,0,NO ERROR,-6009.375000,6026.367188,-6000.000000,-6000.000000,Speed,Speed,-0.020000,1.190000,1.860000,1.000000,101.000000,1,0,-0.000558,0.000558,0,0.341507,0.172470,0.000000,44.283463,-5.421295,0.000000,0.048000,0.124000,-0.185000,FlatInitial
03:23:47.371 PM 02/14/2016,Teleop Enabled,0,FALSE,0,NO ERROR,-6009.375000,6024.609375,-6000.000000,-6000.000000,Speed,Speed,-0.010000,1.190000,2.160000,1.000000,101.000000,1,0,-0.000558,0.000558,0,0.000000,0.304459,0.000000,44.301941,-5.406021,0.000000,-0.012000,-0.028000,-0.338000,FlatInitial
03:23:47.471 PM 02/14/2016,Teleop Enabled,0,FALSE,0,NO ERROR,-5610.937500,5478.515625,-6000.000000,-6000.000000,Speed,Speed,-0.020000,1.130000,2.040000,1.000000,101.000000,1,0,-0.000558,0.000558,0,-0.021240,0.344284,0.000000,44.302017,-5.389542,0.000000,-0.115000,0.055000,-0.444000,FlatInitial
03:23:47.571 PM 02/14/2016,Teleop Enabled,0,FALSE,0,NO ERROR,-1671.826172,1649.267578,-6000.000000,-6000.000000,Speed,Speed,-0.010000,1.110000,2.280000,1.000000,102.000000,1,0,-0.000558,0.000558,0,-0.018280,0.315353,0.000000,44.300903,-5.372787,0.000000,0.013000,-0.019000,-0.002000,FlatInitial
03:23:47.671 PM 02/14/2016,Teleop Enabled,0,FALSE,0,NO ERROR,-2809.863281,2999.267578,-6000.000000,-6000.000000,Speed,Speed,0.020000,1.160000,2.070000,1.000000,102.000000,1,0,-0.000558,0.000558,0,-0.012421,0.012756,0.000000,44.300354,-5.372711,0.000000,-0.027000,0.040000,0.046000,FlatInitial
03:23:47.772 PM 02/14/2016,Teleop Enabled,0,FALSE,0,NO ERROR,-4323.925781,4253.466797,-6000.000000,-6000.000000,Speed,Speed,-0.050000,1.170000,2.290000,1.000000,101.000000,1,0,-0.000558,0.000558,0,0.000732,0.056549,0.000000,44.300079,-5.370361,0.000000,-0.029000,-0.002000,0.047000,FlatInitial
03:23:47.872 PM 02/14/2016,Teleop Enabled,0,FALSE,0,NO ERROR,-5311.523438,5356.640625,0.000000,0.000000,Speed,Speed,0.000000,1.120000,2.210000,2.000000,101.000000,1,0,-0.000558,0.000558,0,-0.077896,0.010727,0.000000,44.297760,-5.368240,0.000000,-0.071000,-0.005000,0.066000,FlatInitial
03:23:47.972 PM 02/14/2016,Teleop Enabled,0,FALSE,0,NO ERROR,-5926.757812,5752.148438,0.000000,0.000000,Speed,Speed,0.010000,1.080000,2.010000,2.000000,102.000000,1,0,-0.000558,0.000558,0,0.005463,0.003983,0.000000,44.295929,-5.368240,0.000000,0.055000,-0.002000,-0.116000,FlatInitial
03:23:48.073 PM 02/14/2016,Teleop Enabled,0,FALSE,0,NO ERROR,-5633.203125,5372.460938,0.000000,0.000000,Speed,Speed,-0.030000,1.070000,2.130000,2.000000,102.000000,1,0,-0.000558,0.000558,0,0.005035,-0.000656,0.000000,44.297119,-5.368546,0.000000,0.035000,0.036000,-0.024000,FlatInitial
03:23:48.173 PM 02/14/2016,Teleop Enabled,0,FALSE,0,NO ERROR,-5201.367188,4831.640625,0.000000,0.000000,Speed,Speed,0.000000,1.080000,2.110000,2.000000,100.000000,1,0,-0.000558,0.000558,0,0.002380,0.002045,0.000000,44.296982,-5.368164,0.000000,0.043000,0.079000,-0.058000,FlatInitial
03:23:48.273 PM 02/14/2016,Teleop Enabled,0,FALSE,0,NO ERROR,-4774.804688,4418.701172,0.000000,0.000000,Speed,Speed,-0.020000,1.080000,2.070000,2.000000,103.000000,1,0,-0.000558,0.000558,0,0.000000,-0.035599,0.000000,44.297073,-5.369217,0.000000,-0.019000,-0.074000,-0.048000,FlatInitial
03:23:48.374 PM 02/14/2016,Teleop Enabled,0,FALSE,0,NO ERROR,-4444.189453,3925.781250,0.000000,0.000000,Speed,Speed,-0.030000,1.090000,2.090000,2.000000,102.000000,1,0,-0.000558,0.000558,0,0.011444,0.000793,0.000000,44.297272,-5.370102,0.000000,0.018000,0.026000,-0.005000,FlatInitial
03:23:48.473 PM 02/14/2016,Teleop Enabled,0,FALSE,0,NO ERROR,-4048.242187,3454.101562,0.000000,0.000000,Speed,Speed,-0.010000,1.080000,2.100000,2.000000,101.000000,1,0,-0.000558,0.000558,0,-0.021851,-0.000488,0.000000,44.296722,-5.370163,0.000000,-0.035000,-0.052000,0.076000,FlatInitial
03:23:48.573 PM 02/14/2016,Teleop Enabled,0,FALSE,0,NO ERROR,-3664.160156,3000.000000,0.000000,0.000000,Speed,Speed,-0.020000,1.090000,2.100000,2.000000,102.000000,1,0,-0.000558,0.000558,0,-0.030151,0.000000,0.000000,44.295166,-5.370285,0.000000,-0.003000,-0.005000,0.131000,FlatInitial
03:23:48.673 PM 02/14/2016,Teleop Enabled,0,FALSE,0,NO ERROR,-3292.382812,2569.775391,0.000000,0.000000,Speed,Speed,-0.020000,1.090000,2.040000,2.000000,101.000000,1,0,-0.000558,0.000558,0,-0.059845,0.000000,0.000000,44.292938,-5.370438,0.000000,-0.003000,-0.005000,0.131000,FlatInitial
03:23:48.773 PM 02/14/2016,Teleop Enabled,0,FALSE,0,NO ERROR,-2935.253906,2166.796875,0.000000,0.000000,Speed,Speed,-0.020000,1.100000,2.080000,2.000000,101.000000,1,0,-0.000558,0.000558,0,-0.061249,0.010849,0.000000,44.289780,-5.370010,0.000000,-0.024000,-0.019000,0.004000,FlatInitial
03:23:48.873 PM 02/14/2016,Teleop Enabled,0,FALSE,0,NO ERROR,-2593.505859,1788.574219,0.000000,0.000000,Speed,Speed,-0.020000,1.090000,2.010000,2.000000,101.000000,1,0,-0.000558,0.000558,0,-0.061249,0.010849,0.000000,44.289780,-5.370010,0.000000,-0.024000,-0.019000,0.004000,FlatInitial
03:23:48.973 PM 02/14/2016,Teleop Enabled,0,FALSE,0,NO ERROR,-2333.496094,1507.324219,0.000000,0.000000,Speed,Speed,-0.030000,1.090000,2.010000,2.000000,101.000000,1,0,-0.000558,0.000558,0,-0.072464,0.000000,0.000000,44.286407,-5.370010,0.000000,0.050000,-0.002000,0.000000,FlatInitial
03:23:49.073 PM 02/14/2016,Teleop Enabled,0,FALSE,0,NO ERROR,-2022.070312,1184.033203,4000.000000,4000.000000,Speed,Speed,-0.030000,1.090000,2.010000,3.000000,102.000000,1,0,-0.000558,0.000558,0,-0.002808,0.000000,0.000000,44.284531,-5.370255,0.000000,-0.005000,-0.006000,0.002000,FlatInitial
03:23:49.174 PM 02/14/2016,Teleop Enabled,0,FALSE,0,NO ERROR,-1548.046875,728.906250,4000.000000,4000.000000,Speed,Speed,-0.020000,1.110000,1.990000,3.000000,101.000000,1,0,-0.000558,0.000558,0,0.002502,0.000000,0.000000,44.284836,-5.370132,0.000000,0.000000,0.019000,0.002000,FlatInitial
03:23:49.274 PM 02/14/2016,Teleop Enabled,0,FALSE,0,NO ERROR,583.447266,-1117.089844,4000.000000,4000.000000,Speed,Speed,-0.030000,1.100000,1.970000,3.000000,105.000000,1,0,-0.000558,0.000558,0,-0.024918,-0.006531,0.000000,44.284134,-5.370255,0.000000,0.002000,0.021000,-0.049000,FlatInitial
03:23:49.375 PM 02/14/2016,Teleop Enabled,0,FALSE,0,NO ERROR,2614.453125,-2772.070312,4000.000000,4000.000000,Speed,Speed,-0.020000,1.090000,1.970000,3.000000,102.000000,1,0,-0.000558,0.000558,0,-0.025238,-0.004364,0.000000,44.283325,-5.370193,0.000000,0.002000,0.021000,-0.049000,FlatInitial
03:23:49.476 PM 02/14/2016,Teleop Enabled,0,FALSE,0,NO ERROR,3851.513672,-3618.017578,4000.000000,4000.000000,Speed,Speed,-0.030000,1.100000,1.990000,3.000000,102.000000,1,0,-0.000558,0.000558,0,-0.025238,-0.004364,0.000000,44.283325,-5.370193,0.000000,-0.007000,0.009000,0.003000,FlatInitial
03:23:49.577 PM 02/14/2016,Teleop Enabled,0,FALSE,0,NO ERROR,4231.933594,-3831.005859,4000.000000,4000.000000,Speed,Speed,-0.020000,1.090000,1.970000,3.000000,102.000000,1,0,-0.000558,0.000558,0,-0.026642,-0.003189,0.000000,44.282440,-5.370224,0.000000,-0.017000,-0.049000,0.011000,FlatInitial
03:23:49.678 PM 02/14/2016,Teleop Enabled,0,FALSE,0,NO ERROR,4237.646484,-3870.703125,4000.000000,4000.000000,Speed,Speed,-0.030000,1.090000,1.940000,3.000000,102.000000,1,0,-0.000558,0.000558,0,-0.027924,-0.006210,0.000000,44.280807,-5.371033,0.000000,0.043000,0.011000,0.083000,FlatInitial
03:23:49.778 PM 02/14/2016,Teleop Enabled,0,FALSE,0,NO ERROR,4145.068359,-3877.880859,4000.000000,4000.000000,Speed,Speed,-0.030000,1.120000,1.960000,3.000000,100.000000,1,0,-0.000558,0.000558,0,0.004944,-0.008179,0.000000,44.280060,-5.372726,0.000000,0.065000,-0.004000,-0.031000,FlatInitial
03:23:49.878 PM 02/14/2016,Teleop Enabled,0,FALSE,0,NO ERROR,4063.916016,-3903.515625,4000.000000,4000.000000,Speed,Speed,-0.030000,1.140000,1.870000,3.000000,103.000000,1,0,-0.000558,0.000558,0,0.004944,-0.008179,0.000000,44.280060,-5.372726,0.000000,-0.051000,-0.016000,-0.054000,FlatInitial
03:23:49.979 PM 02/14/2016,Teleop Enabled,0,FALSE,0,NO ERROR,4024.511719,-3940.576172,4000.000000,4000.000000,Speed,Speed,-0.040000,1.140000,1.780000,3.000000,101.000000,1,0,-0.000558,0.000558,0,0.001892,-0.039688,0.000000,44.280167,-5.375717,0.000000,0.050000,0.003000,0.039000,FlatInitial
03:23:50.080 PM 02/14/2016,Teleop Enabled,0,FALSE,0,NO ERROR,4013.085937,-3969.140625,4000.000000,4000.000000,Speed,Speed,-0.040000,1.140000,1.780000,3.000000,103.000000,1,0,-0.000558,0.000558,0,0.001892,-0.039688,0.000000,44.280167,-5.375717,0.000000,-0.025000,0.013000,-0.002000,FlatInitial
03:23:50.181 PM 02/14/2016,Teleop Enabled,0,FALSE,0,NO ERROR,4010.595703,-3985.400391,4000.000000,4000.000000,Speed,Speed,-0.040000,1.150000,1.860000,3.000000,100.000000,1,0,-0.000558,0.000558,0,0.007004,-0.025818,0.000000,44.279984,-5.380051,0.000000,-0.007000,-0.011000,-0.007000,FlatInitial
03:23:50.281 PM 02/14/2016,Teleop Enabled,0,FALSE,0,NO ERROR,4007.080078,-3994.482422,4000.000000,4000.000000,Speed,Speed,-0.040000,1.150000,1.860000,3.000000,105.000000,1,0,-0.000558,0.000558,0,0.007004,-0.025818,0.000000,44.279984,-5.380051,0.000000,-0.006000,0.001000,0.070000,FlatInitial
03:23:50.381 PM 02/14/2016,Teleop Enabled,0,FALSE,0,NO ERROR,4007.812500,-3998.583984,4000.000000,4000.000000,Speed,Speed,-0.040000,1.160000,1.930000,3.000000,101.000000,1,0,-0.000558,0.000558,0,-0.004410,0.002884,0.000000,44.280136,-5.380478,0.000000,-0.043000,0.046000,0.003000,FlatInitial
03:23:50.482 PM 02/14/2016,Teleop Enabled,0,FALSE,0,NO ERROR,4007.812500,-4004.296875,4000.000000,4000.000000,Speed,Speed,-0.050000,1.150000,2.020000,3.000000,102.000000,1,0,-0.000558,0.000558,0,0.000000,0.022110,0.000000,44.279984,-5.379761,0.000000,0.006000,0.046000,0.002000,FlatInitial
03:23:50.583 PM 02/14/2016,Teleop Enabled,0,FALSE,0,NO ERROR,4007.373047,-4010.742187,4000.000000,4000.000000,Speed,Speed,-0.040000,1.170000,2.180000,3.000000,102.000000,1,0,-0.000558,0.000558,0,-0.018112,0.011337,0.000000,44.279282,-5.377136,0.000000,0.023000,0.007000,-0.025000,FlatInitial
03:23:50.684 PM 02/14/2016,Teleop Enabled,0,FALSE,0,NO ERROR,4004.443359,-4013.378906,4000.000000,4000.000000,Speed,Speed,-0.040000,1.200000,2.230000,3.000000,102.000000,1,0,-0.000558,0.000558,0,-0.018112,0.011337,0.000000,44.279282,-5.377136,0.000000,0.023000,0.007000,-0.025000,FlatInitial
03:23:50.785 PM 02/14/2016,Teleop Enabled,0,FALSE,0,NO ERROR,4002.685547,-4008.837891,4000.000000,4000.000000,Speed,Speed,-0.040000,1.200000,2.230000,3.000000,102.000000,1,0,-0.000558,0.000558,0,0.000000,-0.002075,0.000000,44.278381,-5.377228,0.000000,-0.004000,-0.020000,-0.039000,FlatInitial
03:23:50.886 PM 02/14/2016,Teleop Enabled,0,FALSE,0,NO ERROR,3998.876953,-4005.029297,4000.000000,4000.000000,Speed,Speed,-0.040000,1.210000,2.270000,3.000000,101.000000,1,0,-0.000558,0.000558,0,-0.003159,0.000000,0.000000,44.278244,-5.377304,0.000000,-0.032000,0.002000,0.065000,FlatInitial
03:23:50.987 PM 02/14/2016,Teleop Enabled,0,FALSE,0,NO ERROR,3989.941406,-4005.761719,4000.000000,4000.000000,Speed,Speed,-0.040000,1.230000,2.320000,3.000000,102.000000,1,0,-0.000558,0.000558,0,0.000000,0.000000,0.000000,44.278091,-5.377304,0.000000,0.001000,-0.016000,-0.046000,FlatInitial
03:23:51.088 PM 02/14/2016,Teleop Enabled,0,FALSE,0,NO ERROR,3986.279297,-4008.398437,4000.000000,4000.000000,Speed,Speed,-0.040000,1.230000,2.320000,3.000000,101.000000,1,0,-0.000558,0.000558,0,-0.012970,-0.006424,0.000000,44.277679,-5.377182,0.000000,0.008000,0.018000,-0.050000,FlatInitial
03:23:51.188 PM 02/14/2016,Teleop Enabled,0,FALSE,0,NO ERROR,3989.648437,-4009.130859,4000.000000,4000.000000,Speed,Speed,-0.050000,1.240000,2.330000,3.000000,104.000000,1,0,-0.000558,0.000558,0,0.000000,0.001190,0.000000,44.277557,-5.377396,0.000000,0.000000,0.029000,0.073000,FlatInitial
03:23:51.289 PM 02/14/2016,Teleop Enabled,0,FALSE,0,NO ERROR,3993.164062,-4005.029297,4000.000000,4000.000000,Speed,Speed,-0.050000,1.250000,2.370000,3.000000,101.000000,1,0,-0.000558,0.000558,0,0.000000,0.001190,0.000000,44.277557,-5.377396,0.000000,0.016000,0.023000,-0.024000,FlatInitial
03:23:51.389 PM 02/14/2016,Teleop Enabled,0,FALSE,0,NO ERROR,3989.794922,-4001.367187,4000.000000,4000.000000,Speed,Speed,-0.050000,1.270000,2.440000,3.000000,104.000000,1,0,-0.000558,0.000558,0,0.016754,0.000000,0.000000,44.278183,-5.377274,0.000000,-0.026000,0.019000,-0.024000,FlatInitial
03:23:51.490 PM 02/14/2016,Teleop Enabled,0,FALSE,0,NO ERROR,3990.234375,-3997.851562,4000.000000,4000.000000,Speed,Speed,-0.060000,1.300000,2.380000,3.000000,102.000000,1,0,-0.000558,0.000558,0,-0.009903,-0.023361,0.000000,44.278488,-5.377563,0.000000,-0.018000,-0.027000,-0.051000,FlatInitial
03:23:51.590 PM 02/14/2016,Teleop Enabled,0,FALSE,0,NO ERROR,3995.214844,-3995.800781,4000.000000,4000.000000,Speed,Speed,-0.060000,1.300000,2.380000,3.000000,101.000000,1,0,-0.000558,0.000558,0,-0.009903,-0.023361,0.000000,44.278488,-5.377563,0.000000,-0.032000,-0.001000,-0.015000,FlatInitial
03:23:51.691 PM 02/14/2016,Teleop Enabled,0,FALSE,0,NO ERROR,4002.539062,-3997.412109,4000.000000,4000.000000,Speed,Speed,-0.050000,1.290000,2.290000,3.000000,103.000000,1,0,-0.000558,0.000558,0,-0.007706,-0.037506,0.000000,44.278000,-5.379089,0.000000,-0.020000,0.001000,-0.022000,FlatInitial
03:23:51.792 PM 02/14/2016,Teleop Enabled,0,FALSE,0,NO ERROR,4011.328125,-4000.341797,4000.000000,4000.000000,Speed,Speed,-0.050000,1.290000,2.270000,3.000000,101.000000,1,0,-0.000558,0.000558,0,-0.008041,-0.053619,0.000000,44.277618,-5.381409,0.000000,0.014000,-0.005000,0.051000,FlatInitial
03:23:51.893 PM 02/14/2016,Teleop Enabled,0,FALSE,0,NO ERROR,4016.894531,-4001.953125,4000.000000,4000.000000,Speed,Speed,-0.050000,1.290000,2.290000,3.000000,102.000000,1,0,-0.000558,0.000558,0,-0.009155,0.000000,0.000000,44.277298,-5.381409,0.000000,0.022000,-0.008000,0.031000,FlatInitial
03:23:51.994 PM 02/14/2016,Teleop Enabled,0,FALSE,0,NO ERROR,4013.671875,-4002.539062,4000.000000,4000.000000,Speed,Speed,-0.050000,1.290000,2.370000,3.000000,103.000000,1,0,-0.000558,0.000558,0,0.000000,0.011398,0.000000,44.276886,-5.381134,0.000000,-0.005000,-0.013000,-0.021000,FlatInitial
03:23:52.095 PM 02/14/2016,Teleop Enabled,0,FALSE,0,NO ERROR,4005.761719,-4005.615234,4000.000000,4000.000000,Speed,Speed,-0.050000,1.290000,2.440000,3.000000,101.000000,1,0,-0.000558,0.000558,0,-0.008713,0.000000,0.000000,44.276764,-5.380646,0.000000,-0.031000,-0.014000,-0.052000,FlatInitial
03:23:52.195 PM 02/14/2016,Teleop Enabled,0,FALSE,0,NO ERROR,4000.341797,-4010.009766,4000.000000,4000.000000,Speed,Speed,-0.050000,1.300000,2.480000,3.000000,100.000000,1,0,-0.000558,0.000558,0,-0.028046,-0.006226,0.000000,44.275681,-5.380798,0.000000,-0.011000,0.007000,0.037000,FlatInitial
03:23:52.295 PM 02/14/2016,Teleop Enabled,0,FALSE,0,NO ERROR,3996.972656,-4008.984375,4000.000000,4000.000000,Speed,Speed,-0.050000,1.280000,2.500000,3.000000,101.000000,1,0,-0.000558,0.000558,0,0.000000,0.000351,0.000000,44.275681,-5.380875,0.000000,-0.019000,0.009000,-0.057000,FlatInitial
03:23:52.395 PM 02/14/2016,Teleop Enabled,0,FALSE,0,NO ERROR,3992.871094,-4005.761719,4000.000000,4000.000000,Speed,Speed,-0.050000,1.300000,2.530000,3.000000,101.000000,1,0,-0.000558,0.000558,0,0.000000,0.000000,0.000000,44.275681,-5.381042,0.000000,-0.014000,0.019000,-0.048000,FlatInitial
03:23:52.496 PM 02/14/2016,Teleop Enabled,0,FALSE,0,NO ERROR,3991.699219,-4004.589844,4000.000000,4000.000000,Speed,Speed,-0.040000,1.290000,2.570000,3.000000,102.000000,1,0,-0.000558,0.000558,0,0.002029,-0.005814,0.000000,44.275696,-5.381104,0.000000,0.021000,-0.041000,0.024000,FlatInitial
03:23:52.597 PM 02/14/2016,Teleop Enabled,0,FALSE,0,NO ERROR,3990.527344,-4007.226562,4000.000000,4000.000000,Speed,Speed,-0.050000,1.270000,2.560000,3.000000,102.000000,1,0,-0.000558,0.000558,0,-0.004105,-0.004715,0.000000,44.275665,-5.381409,0.000000,0.003000,0.037000,-0.059000,FlatInitial
03:23:52.698 PM 02/14/2016,Teleop Enabled,0,FALSE,0,NO ERROR,3994.921875,-4006.494141,4000.000000,4000.000000,Speed,Speed,-0.050000,1.260000,2.600000,3.000000,102.000000,1,0,-0.000558,0.000558,0,-0.002075,-0.005569,0.000000,44.275589,-5.381653,0.000000,-0.021000,0.029000,-0.067000,FlatInitial
03:23:52.799 PM 02/14/2016,Teleop Enabled,0,FALSE,0,NO ERROR,4003.564453,-4005.761719,4000.000000,4000.000000,Speed,Speed,-0.040000,1.250000,2.650000,3.000000,100.000000,1,0,-0.000558,0.000558,0,0.000000,-0.001633,0.000000,44.275345,-5.381760,0.000000,-0.017000,0.003000,-0.052000,FlatInitial
03:23:52.900 PM 02/14/2016,Teleop Enabled,0,FALSE,0,NO ERROR,4014.550781,-4002.246094,4000.000000,4000.000000,Speed,Speed,-0.050000,1.250000,2.690000,3.000000,101.000000,1,0,-0.000558,0.000558,0,0.000000,0.003601,0.000000,44.275345,-5.381805,0.000000,-0.011000,0.012000,-0.026000,FlatInitial
03:23:53.000 PM 02/14/2016,Teleop Enabled,0,FALSE,0,NO ERROR,4018.066406,-4000.927734,4000.000000,4000.000000,Speed,Speed,-0.050000,1.250000,2.700000,3.000000,101.000000,1,0,-0.000558,0.000558,0,-0.002243,-0.011307,0.000000,44.275330,-5.381973,0.000000,-0.011000,-0.019000,-0.074000,FlatInitial
03:23:53.100 PM 02/14/2016,Teleop Enabled,0,FALSE,0,NO ERROR,4016.015625,-4000.634766,4000.000000,4000.000000,Speed,Speed,-0.050000,1.230000,2.640000,3.000000,103.000000,1,0,-0.000558,0.000558,0,-0.016281,-0.036026,0.000000,44.274734,-5.383118,0.000000,-0.017000,0.000000,-0.016000,FlatInitial
03:23:53.201 PM 02/14/2016,Teleop Enabled,0,FALSE,0,NO ERROR,4009.130859,-4004.150391,4000.000000,4000.000000,Speed,Speed,-0.050000,1.190000,2.570000,3.000000,101.000000,1,0,-0.000558,0.000558,0,-0.028000,-0.017609,0.000000,44.273529,-5.383911,0.000000,-0.037000,-0.048000,0.033000,FlatInitial
03:23:53.301 PM 02/14/2016,Teleop Enabled,0,FALSE,0,NO ERROR,4005.029297,-4007.958984,4000.000000,4000.000000,Speed,Speed,-0.050000,1.180000,2.480000,3.000000,101.000000,1,0,-0.000558,0.000558,0,-0.053986,-0.057114,0.000000,44.271332,-5.385910,0.000000,-0.010000,-0.064000,-0.091000,FlatInitial
03:23:53.402 PM 02/14/2016,Teleop Enabled,0,FALSE,0,NO ERROR,4006.933594,-4005.468750,4000.000000,4000.000000,Speed,Speed,-0.050000,1.160000,2.400000,3.000000,102.000000,1,0,-0.000558,0.000558,0,-0.069580,-0.092621,0.000000,44.267456,-5.390900,0.000000,-0.022000,0.027000,0.005000,FlatInitial
03:23:53.503 PM 02/14/2016,Teleop Enabled,0,FALSE,0,NO ERROR,4006.640625,-4004.443359,4000.000000,4000.000000,Speed,Speed,-0.070000,1.140000,2.360000,3.000000,103.000000,1,0,-0.000558,0.000558,0,0.000000,-0.116989,0.000000,44.266098,-5.396164,0.000000,-0.014000,-0.032000,0.076000,FlatInitial
03:23:53.603 PM 02/14/2016,Teleop Enabled,0,FALSE,0,NO ERROR,4005.908203,-4003.125000,4000.000000,4000.000000,Speed,Speed,-0.060000,1.120000,2.210000,3.000000,101.000000,1,0,-0.000558,0.000558,0,0.000000,-0.136154,0.000000,44.266098,-5.401321,0.000000,0.013000,-0.081000,-0.071000,FlatInitial
03:23:53.704 PM 02/14/2016,Teleop Enabled,0,FALSE,0,NO ERROR,4001.513672,-4004.589844,4000.000000,4000.000000,Speed,Speed,-0.060000,1.120000,2.120000,3.000000,102.000000,1,0,-0.000558,0.000558,0,0.000000,-0.176483,0.000000,44.266281,-5.411057,0.000000,0.004000,0.038000,0.017000,FlatInitial
03:23:53.804 PM 02/14/2016,Teleop Enabled,0,FALSE,0,NO ERROR,3997.412109,-4004.150391,4000.000000,4000.000000,Speed,Speed,-0.070000,1.140000,2.060000,3.000000,100.000000,1,0,-0.000558,0.000558,0,0.000000,-0.203476,0.000000,44.266068,-5.420609,0.000000,0.001000,-0.028000,0.038000,FlatInitial
03:23:53.905 PM 02/14/2016,Teleop Enabled,0,FALSE,0,NO ERROR,3993.457031,-4000.781250,2000.000000,2000.000000,Speed,Speed,-0.070000,1.130000,1.980000,5.000000,103.000000,1,0,-0.000558,0.000558,0,0.000000,-0.222778,0.000000,44.265991,-5.431320,0.000000,0.008000,-0.026000,-0.067000,FlatInitial
03:23:54.006 PM 02/14/2016,Teleop Enabled,0,FALSE,0,NO ERROR,3751.611328,-3677.343750,2000.000000,2000.000000,Speed,Speed,-0.070000,1.140000,1.940000,5.000000,101.000000,1,0,-0.000558,0.000558,0,-0.002350,-0.240005,0.000000,44.265976,-5.440613,0.000000,0.000000,0.054000,0.022000,FlatInitial
03:23:54.108 PM 02/14/2016,Teleop Enabled,0,FALSE,0,NO ERROR,2429.589844,-2185.546875,2000.000000,2000.000000,Speed,Speed,-0.080000,1.140000,1.970000,5.000000,101.000000,1,0,-0.000558,0.000558,0,-0.011459,-0.234772,0.000000,44.265472,-5.454819,0.000000,-0.020000,0.023000,0.081000,FlatInitial
03:23:54.208 PM 02/14/2016,Teleop Enabled,0,FALSE,0,NO ERROR,1888.037109,-1636.669922,2000.000000,2000.000000,Speed,Speed,-0.080000,1.150000,1.980000,5.000000,102.000000,1,0,-0.000558,0.000558,0,0.000000,0.003021,0.000000,44.265137,-5.459518,0.000000,0.011000,0.020000,0.013000,FlatInitial
03:23:54.308 PM 02/14/2016,Teleop Enabled,0,FALSE,0,NO ERROR,1822.851562,-1658.642578,2000.000000,2000.000000,Speed,Speed,-0.080000,1.140000,2.020000,5.000000,102.000000,1,0,-0.000558,0.000558,0,0.002899,0.008102,0.000000,44.265305,-5.459076,0.000000,0.005000,-0.013000,0.051000,FlatInitial
03:23:54.409 PM 02/14/2016,Teleop Enabled,0,FALSE,0,NO ERROR,1936.669922,-1859.326172,2000.000000,2000.000000,Speed,Speed,-0.080000,1.140000,1.980000,5.000000,102.000000,1,0,-0.000558,0.000558,0,0.000000,-0.001099,0.000000,44.265518,-5.459045,0.000000,0.011000,-0.032000,0.041000,FlatInitial
03:23:54.511 PM 02/14/2016,Teleop Enabled,0,FALSE,0,NO ERROR,2010.937500,-1977.539062,2000.000000,2000.000000,Speed,Speed,-0.080000,1.160000,1.950000,5.000000,101.000000,1,0,-0.000558,0.000558,0,0.000000,-0.008392,0.000000,44.265808,-5.459412,0.000000,0.018000,-0.024000,0.004000,FlatInitial
03:23:54.611 PM 02/14/2016,Teleop Enabled,0,FALSE,0,NO ERROR,2030.859375,-2000.683594,2000.000000,2000.000000,Speed,Speed,-0.070000,1.160000,1.920000,5.000000,102.000000,1,0,-0.000558,0.000558,0,0.000000,-0.002319,0.000000,44.265808,-5.459869,0.000000,0.004000,-0.002000,-0.056000,FlatInitial
03:23:54.712 PM 02/14/2016,Teleop Enabled,0,FALSE,0,NO ERROR,2024.853516,-1993.359375,2000.000000,2000.000000,Speed,Speed,-0.080000,1.160000,1.880000,5.000000,101.000000,1,0,-0.000558,0.000558,0,0.000000,-0.007477,0.000000,44.265808,-5.460190,0.000000,0.005000,0.021000,0.035000,FlatInitial
03:23:54.812 PM 02/14/2016,Teleop Enabled,0,FALSE,0,NO ERROR,2016.796875,-1985.449219,2000.000000,2000.000000,Speed,Speed,-0.080000,1.160000,1.870000,5.000000,102.000000,1,0,-0.000558,0.000558,0,0.000000,-0.009003,0.000000,44.265808,-5.460495,0.000000,-0.013000,0.010000,0.027000,FlatInitial
03:23:54.913 PM 02/14/2016,Teleop Enabled,0,FALSE,0,NO ERROR,2005.957031,-1987.353516,2000.000000,2000.000000,Speed,Speed,-0.080000,1.150000,1.880000,5.000000,100.000000,1,0,-0.000558,0.000558,0,-0.012604,0.000000,0.000000,44.265427,-5.460510,0.000000,0.011000,0.044000,-0.049000,FlatInitial
03:23:55.014 PM 02/14/2016,Teleop Enabled,0,FALSE,0,NO ERROR,1998.925781,-1992.480469,2000.000000,2000.000000,Speed,Speed,-0.080000,1.150000,1.910000,5.000000,103.000000,1,0,-0.000558,0.000558,0,-0.020981,0.010468,0.000000,44.264587,-5.460144,0.000000,-0.032000,-0.021000,0.031000,FlatInitial
03:23:55.116 PM 02/14/2016,Teleop Enabled,0,FALSE,0,NO ERROR,1996.289062,-1993.652344,2000.000000,2000.000000,Speed,Speed,-0.080000,1.140000,1.910000,5.000000,102.000000,1,0,-0.000558,0.000558,0,-0.034378,0.014114,0.000000,44.262817,-5.459427,0.000000,-0.039000,-0.013000,-0.037000,FlatInitial
03:23:55.216 PM 02/14/2016,Teleop Enabled,0,FALSE,0,NO ERROR,1991.601562,-1993.359375,2000.000000,2000.000000,Speed,Speed,-0.080000,1.140000,1.900000,5.000000,103.000000,1,0,-0.000558,0.000558,0,0.000000,0.019730,0.000000,44.261307,-5.458572,0.000000,-0.017000,0.058000,-0.060000,FlatInitial
03:23:55.317 PM 02/14/2016,Teleop Enabled,0,FALSE,0,NO ERROR,1990.283203,-1994.091797,2000.000000,2000.000000,Speed,Speed,-0.080000,1.140000,1.940000,5.000000,102.000000,1,0,-0.000558,0.000558,0,-0.000290,0.027969,0.000000,44.261154,-5.457184,0.000000,0.001000,-0.001000,-0.035000,FlatInitial
03:23:55.421 PM 02/14/2016,Teleop Enabled,0,FALSE,0,NO ERROR,1991.455078,-1996.875000,2000.000000,2000.000000,Speed,Speed,-0.080000,1.140000,1.960000,5.000000,102.000000,1,0,-0.000558,0.000558,0,0.000000,0.041489,0.000000,44.261154,-5.455383,0.000000,-0.015000,-0.008000,-0.042000,FlatInitial
03:23:55.521 PM 02/14/2016,Teleop Enabled,0,FALSE,0,NO ERROR,1996.142578,-1997.460937,2000.000000,2000.000000,Speed,Speed,-0.080000,1.150000,1.980000,5.000000,102.000000,1,0,-0.000558,0.000558,0,0.000000,0.054810,0.000000,44.261154,-5.453003,0.000000,-0.009000,0.043000,-0.043000,FlatInitial
03:23:55.623 PM 02/14/2016,Teleop Enabled,0,FALSE,0,NO ERROR,1998.632812,-1997.900391,2000.000000,2000.000000,Speed,Speed,-0.090000,1.140000,2.010000,5.000000,101.000000,1,0,-0.000558,0.000558,0,0.000000,0.061890,0.000000,44.261154,-5.449966,0.000000,-0.008000,0.000000,-0.036000,FlatInitial
03:23:55.724 PM 02/14/2016,Teleop Enabled,0,FALSE,0,NO ERROR,2000.830078,-1999.804687,2000.000000,2000.000000,Speed,Speed,-0.090000,1.130000,2.010000,5.000000,101.000000,1,0,-0.000558,0.000558,0,0.000000,0.000000,0.000000,44.261154,-5.447998,0.000000,-0.007000,0.008000,-0.061000,FlatInitial
03:23:55.825 PM 02/14/2016,Teleop Enabled,0,FALSE,0,NO ERROR,2002.294922,-1999.218750,2000.000000,2000.000000,Speed,Speed,-0.090000,1.130000,2.010000,5.000000,103.000000,1,0,-0.000558,0.000558,0,0.000000,0.009171,0.000000,44.260971,-5.447739,0.000000,-0.007000,0.022000,-0.039000,FlatInitial
03:23:55.927 PM 02/14/2016,Teleop Enabled,0,FALSE,0,NO ERROR,2001.123047,-2000.097656,2000.000000,2000.000000,Speed,Speed,-0.090000,1.130000,2.030000,5.000000,102.000000,1,0,-0.000558,0.000558,0,-0.002197,0.000000,0.000000,44.260956,-5.447479,0.000000,-0.020000,-0.006000,-0.041000,FlatInitial
03:23:56.030 PM 02/14/2016,Teleop Enabled,0,FALSE,0,NO ERROR,2000.976562,-1998.779297,2000.000000,2000.000000,Speed,Speed,-0.090000,1.130000,2.040000,5.000000,101.000000,1,0,-0.000558,0.000558,0,0.000000,0.000000,0.000000,44.260910,-5.447342,0.000000,-0.004000,-0.010000,0.028000,FlatInitial
03:23:56.130 PM 02/14/2016,Teleop Enabled,0,FALSE,0,NO ERROR,1999.072266,-1996.582031,2000.000000,2000.000000,Speed,Speed,-0.090000,1.130000,2.030000,5.000000,101.000000,1,0,-0.000558,0.000558,0,0.000000,0.012390,0.000000,44.260910,-5.446960,0.000000,-0.002000,-0.012000,-0.016000,FlatInitial
03:23:56.233 PM 02/14/2016,Teleop Enabled,0,FALSE,0,NO ERROR,1998.925781,-1997.021484,2000.000000,2000.000000,Speed,Speed,-0.100000,1.140000,2.050000,5.000000,102.000000,1,0,-0.000558,0.000558,0,-0.002045,0.000839,0.000000,44.260880,-5.446899,0.000000,-0.024000,-0.001000,-0.043000,FlatInitial
03:23:56.334 PM 02/14/2016,Teleop Enabled,0,FALSE,0,NO ERROR,1998.925781,-1999.072266,2000.000000,2000.000000,Speed,Speed,-0.100000,1.140000,2.060000,5.000000,101.000000,1,0,-0.000558,0.000558,0,-0.015686,0.002716,0.000000,44.260376,-5.446686,0.000000,-0.016000,-0.015000,0.011000,FlatInitial
03:23:56.434 PM 02/14/2016,Teleop Enabled,0,FALSE,0,NO ERROR,1999.365234,-2001.416016,2000.000000,2000.000000,Speed,Speed,-0.100000,1.140000,2.030000,5.000000,103.000000,1,0,-0.000558,0.000558,0,-0.003494,-0.000549,0.000000,44.260345,-5.446732,0.000000,-0.019000,-0.037000,-0.004000,FlatInitial
03:23:56.539 PM 02/14/2016,Teleop Enabled,0,FALSE,0,NO ERROR,1999.804687,-2003.027344,2000.000000,2000.000000,Speed,Speed,-0.100000,1.160000,2.020000,5.000000,101.000000,1,0,-0.000558,0.000558,0,0.000000,0.001968,0.000000,44.260162,-5.446808,0.000000,-0.008000,0.048000,0.026000,FlatInitial
03:23:56.639 PM 02/14/2016,Teleop Enabled,0,FALSE,0,NO ERROR,1997.314453,-2004.345703,2000.000000,2000.000000,Speed,Speed,-0.100000,1.160000,2.030000,5.000000,102.000000,1,0,-0.000558,0.000558,0,-0.005447,0.009674,0.000000,44.260071,-5.446442,0.000000,-0.002000,0.000000,0.030000,FlatInitial
03:23:56.742 PM 02/14/2016,Teleop Enabled,0,FALSE,0,NO ERROR,1997.314453,-2004.345703,2000.000000,2000.000000,Speed,Speed,-0.100000,1.160000,2.040000,5.000000,102.000000,1,0,-0.000558,0.000558,0,0.004166,0.020111,0.000000,44.260117,-5.445633,0.000000,-0.021000,-0.018000,0.031000,FlatInitial
03:23:56.842 PM 02/14/2016,Teleop Enabled,0,FALSE,0,NO ERROR,1994.091797,-2002.148437,2000.000000,2000.000000,Speed,Speed,-0.100000,1.150000,2.050000,5.000000,102.000000,1,0,-0.000558,0.000558,0,-0.009735,0.022705,0.000000,44.259949,-5.444611,0.000000,-0.014000,0.011000,-0.009000,FlatInitial
03:23:56.944 PM 02/14/2016,Teleop Enabled,0,FALSE,0,NO ERROR,1994.677734,-1998.046875,2000.000000,2000.000000,Speed,Speed,-0.100000,1.150000,2.070000,5.000000,103.000000,1,0,-0.000558,0.000558,0,-0.006714,0.000000,0.000000,44.259827,-5.443451,0.000000,0.000000,0.028000,-0.013000,FlatInitial
03:23:57.045 PM 02/14/2016,Teleop Enabled,0,FALSE,0,NO ERROR,1995.410156,-1992.480469,2000.000000,2000.000000,Speed,Speed,-0.100000,1.150000,2.110000,5.000000,102.000000,1,0,-0.000558,0.000558,0,0.000000,0.015030,0.000000,44.259491,-5.442947,0.000000,-0.018000,0.000000,0.035000,FlatInitial
03:23:57.146 PM 02/14/2016,Teleop Enabled,0,FALSE,0,NO ERROR,1999.951172,-1988.671875,2000.000000,2000.000000,Speed,Speed,-0.100000,1.150000,2.120000,5.000000,101.000000,1,0,-0.000558,0.000558,0,0.000000,0.004639,0.000000,44.259491,-5.442841,0.000000,-0.001000,0.028000,0.019000,FlatInitial
03:23:57.246 PM 02/14/2016,Teleop Enabled,0,FALSE,0,NO ERROR,2001.562500,-1991.162109,2000.000000,2000.000000,Speed,Speed,-0.100000,1.160000,2.110000,5.000000,102.000000,1,0,-0.000558,0.000558,0,0.000000,0.010605,0.000000,44.259491,-5.442398,0.000000,0.007000,0.016000,0.013000,FlatInitial
03:23:57.346 PM 02/14/2016,Teleop Enabled,0,FALSE,0,NO ERROR,2002.441406,-1996.728516,2000.000000,2000.000000,Speed,Speed,-0.110000,1.160000,2.100000,5.000000,101.000000,1,0,-0.000558,0.000558,0,-0.007050,0.000000,0.000000,44.259384,-5.442261,0.000000,-0.015000,0.001000,-0.015000,FlatInitial
03:23:57.447 PM 02/14/2016,Teleop Enabled,0,FALSE,0,NO ERROR,2002.441406,-1998.925781,2000.000000,2000.000000,Speed,Speed,-0.110000,1.160000,2.080000,5.000000,101.000000,1,0,-0.000558,0.000558,0,0.002121,0.000000,0.000000,44.259369,-5.442261,0.000000,0.007000,-0.009000,-0.009000,FlatInitial
03:23:57.548 PM 02/14/2016,Teleop Enabled,0,FALSE,0,NO ERROR,1999.365234,-1998.925781,2000.000000,2000.000000,Speed,Speed,-0.110000,1.180000,2.080000,5.000000,101.000000,1,0,-0.000558,0.000558,0,0.000000,0.000000,0.000000,44.259293,-5.442261,0.000000,0.003000,0.025000,0.008000,FlatInitial
03:23:57.649 PM 02/14/2016,Teleop Enabled,0,FALSE,0,NO ERROR,2000.683594,-2003.027344,2000.000000,2000.000000,Speed,Speed,-0.110000,1.170000,2.100000,5.000000,101.000000,1,0,-0.000558,0.000558,0,0.000000,0.000000,0.000000,44.259293,-5.442139,0.000000,-0.007000,-0.002000,-0.003000,FlatInitial
03:23:57.750 PM 02/14/2016,Teleop Enabled,0,FALSE,0,NO ERROR,2000.683594,-2004.931641,2000.000000,2000.000000,Speed,Speed,-0.110000,1.160000,2.080000,5.000000,106.000000,1,0,-0.000558,0.000558,0,0.000000,0.009232,0.000000,44.259293,-5.441864,0.000000,0.011000,-0.006000,-0.005000,FlatInitial
03:23:57.851 PM 02/14/2016,Teleop Enabled,0,FALSE,0,NO ERROR,1997.753906,-2004.638672,2000.000000,2000.000000,Speed,Speed,-0.110000,1.170000,2.100000,5.000000,101.000000,1,0,-0.000558,0.000558,0,0.000000,0.006744,0.000000,44.259293,-5.441635,0.000000,-0.017000,0.034000,0.003000,FlatInitial
03:23:57.952 PM 02/14/2016,Teleop Enabled,0,FALSE,0,NO ERROR,1998.925781,-2003.906250,2000.000000,2000.000000,Speed,Speed,-0.110000,1.150000,2.140000,5.000000,101.000000,1,0,-0.000558,0.000558,0,0.000000,0.026657,0.000000,44.259293,-5.440659,0.000000,0.013000,-0.023000,0.020000,FlatInitial
03:23:58.052 PM 02/14/2016,Teleop Enabled,0,FALSE,0,NO ERROR,1998.632812,-2000.683594,2000.000000,2000.000000,Speed,Speed,-0.110000,1.150000,2.160000,5.000000,103.000000,1,0,-0.000558,0.000558,0,0.000000,0.007904,0.000000,44.259293,-5.440033,0.000000,0.003000,0.013000,-0.013000,FlatInitial
03:23:58.155 PM 02/14/2016,Teleop Enabled,0,FALSE,0,NO ERROR,1994.677734,-1995.849609,2000.000000,2000.000000,Speed,Speed,-0.110000,1.150000,2.160000,5.000000,100.000000,1,0,-0.000558,0.000558,0,0.000000,0.001328,0.000000,44.259293,-5.439941,0.000000,0.007000,0.026000,0.021000,FlatInitial
03:23:58.254 PM 02/14/2016,Teleop Enabled,0,FALSE,0,NO ERROR,1993.652344,-1991.601562,2000.000000,2000.000000,Speed,Speed,-0.110000,1.150000,2.170000,5.000000,100.000000,1,0,-0.000558,0.000558,0,-0.003067,0.009125,0.000000,44.259201,-5.439545,0.000000,0.009000,0.008000,0.014000,FlatInitial
03:23:58.354 PM 02/14/2016,Teleop Enabled,0,FALSE,0,NO ERROR,1993.212891,-1991.748047,2000.000000,2000.000000,Speed,Speed,-0.120000,1.150000,2.140000,5.000000,101.000000,1,0,-0.000558,0.000558,0,-0.006668,0.000000,0.000000,44.259048,-5.439545,0.000000,0.019000,-0.018000,-0.018000,FlatInitial
03:23:58.455 PM 02/14/2016,Teleop Enabled,0,FALSE,0,NO ERROR,1995.263672,-1997.167969,2000.000000,2000.000000,Speed,Speed,-0.120000,1.160000,2.110000,5.000000,101.000000,1,0,-0.000558,0.000558,0,0.000000,0.002274,0.000000,44.259048,-5.439423,0.000000,0.016000,-0.014000,-0.047000,FlatInitial
03:23:58.556 PM 02/14/2016,Teleop Enabled,0,FALSE,0,NO ERROR,1996.875000,-2002.148437,2000.000000,2000.000000,Speed,Speed,-0.120000,1.180000,2.100000,5.000000,101.000000,1,0,-0.000558,0.000558,0,-0.004089,0.000000,0.000000,44.258972,-5.439362,0.000000,-0.008000,-0.006000,-0.003000,FlatInitial
03:23:58.657 PM 02/14/2016,Teleop Enabled,0,FALSE,0,NO ERROR,2002.294922,-2006.689453,2000.000000,2000.000000,Speed,Speed,-0.130000,1.170000,2.070000,5.000000,103.000000,1,0,-0.000558,0.000558,0,0.000000,0.000000,0.000000,44.258972,-5.439362,0.000000,0.006000,0.015000,0.009000,FlatInitial
03:23:58.757 PM 02/14/2016,Teleop Enabled,0,FALSE,0,NO ERROR,2002.587891,-2009.033203,2000.000000,2000.000000,Speed,Speed,-0.130000,1.180000,2.070000,5.000000,103.000000,1,0,-0.000558,0.000558,0,-0.008057,0.014236,0.000000,44.258789,-5.438904,0.000000,-0.031000,-0.003000,-0.007000,FlatInitial
03:23:58.858 PM 02/14/2016,Teleop Enabled,0,FALSE,0,NO ERROR,2005.078125,-2008.007812,2000.000000,2000.000000,Speed,Speed,-0.130000,1.170000,2.090000,5.000000,103.000000,1,0,-0.000558,0.000558,0,-0.007980,0.017685,0.000000,44.258545,-5.438248,0.000000,-0.016000,0.039000,-0.026000,FlatInitial
03:23:58.959 PM 02/14/2016,Teleop Enabled,0,FALSE,0,NO ERROR,2006.982422,-2004.492187,2000.000000,2000.000000,Speed,Speed,-0.130000,1.160000,2.110000,5.000000,101.000000,1,0,-0.000558,0.000558,0,-0.020401,0.034592,0.000000,44.257767,-5.436890,0.000000,0.004000,-0.015000,-0.001000,FlatInitial
03:23:59.059 PM 02/14/2016,Teleop Enabled,0,FALSE,0,NO ERROR,2005.664062,-2000.097656,2000.000000,2000.000000,Speed,Speed,-0.130000,1.160000,2.120000,5.000000,102.000000,1,0,-0.000558,0.000558,0,-0.031036,0.051132,0.000000,44.256119,-5.434326,0.000000,-0.037000,0.040000,-0.030000,FlatInitial
03:23:59.160 PM 02/14/2016,Teleop Enabled,0,FALSE,0,NO ERROR,2005.957031,-1996.289062,2000.000000,2000.000000,Speed,Speed,-0.130000,1.160000,2.140000,5.000000,102.000000,1,0,-0.000558,0.000558,0,-0.042648,0.056152,0.000000,44.254196,-5.431580,0.000000,-0.008000,0.025000,-0.038000,FlatInitial
03:23:59.261 PM 02/14/2016,Teleop Enabled,0,FALSE,0,NO ERROR,2001.123047,-1990.722656,2000.000000,2000.000000,Speed,Speed,-0.120000,1.140000,2.150000,5.000000,101.000000,1,0,-0.000558,0.000558,0,-0.052917,0.000000,0.000000,44.251678,-5.429321,0.000000,0.010000,-0.012000,-0.038000,FlatInitial
03:23:59.361 PM 02/14/2016,Teleop Enabled,0,FALSE,0,NO ERROR,1998.779297,-1987.060547,2000.000000,2000.000000,Speed,Speed,-0.120000,1.150000,2.130000,5.000000,102.000000,1,0,-0.000558,0.000558,0,-0.052353,0.007980,0.000000,44.248978,-5.429092,0.000000,-0.001000,-0.026000,-0.048000,FlatInitial
03:23:59.462 PM 02/14/2016,Teleop Enabled,0,FALSE,0,NO ERROR,1993.066406,-1990.576172,2000.000000,2000.000000,Speed,Speed,-0.130000,1.150000,2.140000,5.000000,101.000000,1,0,-0.000558,0.000558,0,0.000000,0.015915,0.000000,44.248459,-5.428619,0.000000,0.003000,0.036000,-0.044000,FlatInitial
03:23:59.563 PM 02/14/2016,Teleop Enabled,0,FALSE,0,NO ERROR,1990.869141,-1997.167969,2000.000000,2000.000000,Speed,Speed,-0.130000,1.170000,2.160000,5.000000,102.000000,1,0,-0.000558,0.000558,0,0.000000,0.018509,0.000000,44.248459,-5.427963,0.000000,-0.014000,0.019000,-0.044000,FlatInitial
03:23:59.663 PM 02/14/2016,Teleop Enabled,0,FALSE,0,NO ERROR,1989.843750,-2000.244141,2000.000000,2000.000000,Speed,Speed,-0.130000,1.180000,2.160000,5.000000,100.000000,1,0,-0.000558,0.000558,0,0.000000,0.026993,0.000000,44.248459,-5.426559,0.000000,0.000000,0.004000,-0.054000,FlatInitial
03:23:59.764 PM 02/14/2016,Teleop Enabled,0,FALSE,0,NO ERROR,1994.824219,-2004.199219,2000.000000,2000.000000,Speed,Speed,-0.130000,1.190000,2.160000,5.000000,102.000000,1,0,-0.000558,0.000558,0,-0.002899,0.002045,0.000000,44.248428,-5.426254,0.000000,-0.033000,0.020000,-0.048000,FlatInitial
03:23:59.864 PM 02/14/2016,Teleop Enabled,0,FALSE,0,NO ERROR,1997.607422,-2005.810547,2000.000000,2000.000000,Speed,Speed,-0.130000,1.180000,2.170000,5.000000,102.000000,1,0,-0.000558,0.000558,0,0.000000,0.000000,0.000000,44.248276,-5.426163,0.000000,0.011000,-0.004000,-0.027000,FlatInitial
03:23:59.965 PM 02/14/2016,Teleop Enabled,0,FALSE,0,NO ERROR,1998.779297,-2007.714844,2000.000000,2000.000000,Speed,Speed,-0.130000,1.190000,2.160000,5.000000,102.000000,1,0,-0.000558,0.000558,0,-0.006958,0.004807,0.000000,44.248123,-5.426117,0.000000,0.014000,-0.006000,0.023000,FlatInitial
03:24:00.065 PM 02/14/2016,Teleop Enabled,0,FALSE,0,NO ERROR,2002.148437,-2005.810547,2000.000000,2000.000000,Speed,Speed,-0.120000,1.190000,2.180000,5.000000,101.000000,1,0,-0.000558,0.000558,0,-0.004837,0.004837,0.000000,44.248077,-5.425720,0.000000,-0.023000,0.030000,0.011000,FlatInitial
03:24:00.166 PM 02/14/2016,Teleop Enabled,0,FALSE,0,NO ERROR,2001.269531,-2003.173828,2000.000000,2000.000000,Speed,Speed,-0.130000,1.170000,2.210000,5.000000,103.000000,1,0,-0.000558,0.000558,0,0.003067,0.015228,0.000000,44.248047,-5.425110,0.000000,-0.014000,0.014000,0.033000,FlatInitial
03:24:00.266 PM 02/14/2016,Teleop Enabled,0,FALSE,0,NO ERROR,2001.708984,-2000.537109,2000.000000,2000.000000,Speed,Speed,-0.130000,1.160000,2.210000,5.000000,101.000000,1,0,-0.000558,0.000558,0,-0.006866,0.031372,0.000000,44.247864,-5.424133,0.000000,0.003000,-0.025000,0.040000,FlatInitial
03:24:00.367 PM 02/14/2016,Teleop Enabled,0,FALSE,0,NO ERROR,2000.830078,-1994.238281,2000.000000,2000.000000,Speed,Speed,-0.130000,1.150000,2.240000,5.000000,102.000000,1,0,-0.000558,0.000558,0,0.000000,0.000000,0.000000,44.247360,-5.422165,0.000000,-0.019000,0.017000,0.033000,FlatInitial
03:24:00.468 PM 02/14/2016,Teleop Enabled,0,FALSE,0,NO ERROR,2001.123047,-1991.308594,2000.000000,2000.000000,Speed,Speed,-0.130000,1.150000,2.250000,5.000000,101.000000,1,0,-0.000558,0.000558,0,0.000000,0.005722,0.000000,44.247131,-5.421997,0.000000,0.000000,-0.015000,0.053000,FlatInitial
03:24:00.568 PM 02/14/2016,Teleop Enabled,0,FALSE,0,NO ERROR,2001.708984,-1991.015625,2000.000000,2000.000000,Speed,Speed,-0.130000,1.150000,2.240000,5.000000,104.000000,1,0,-0.000558,0.000558,0,0.000000,0.003174,0.000000,44.247131,-5.421906,0.000000,-0.018000,0.017000,-0.046000,FlatInitial
03:24:00.668 PM 02/14/2016,Teleop Enabled,0,FALSE,0,NO ERROR,2000.976562,-1994.531250,2000.000000,2000.000000,Speed,Speed,-0.130000,1.140000,2.200000,5.000000,101.000000,1,0,-0.000558,0.000558,0,0.000000,0.000000,0.000000,44.247131,-5.421951,0.000000,0.008000,0.002000,0.016000,FlatInitial
03:24:00.768 PM 02/14/2016,Teleop Enabled,0,FALSE,0,NO ERROR,2002.441406,-1997.753906,2000.000000,2000.000000,Speed,Speed,-0.130000,1.150000,2.190000,5.000000,101.000000,1,0,-0.000558,0.000558,0,0.000000,0.000000,0.000000,44.247131,-5.421875,0.000000,-0.011000,0.003000,0.045000,FlatInitial
03:24:00.869 PM 02/14/2016,Teleop Enabled,0,FALSE,0,NO ERROR,1999.511719,-2001.416016,2000.000000,2000.000000,Speed,Speed,-0.130000,1.140000,2.170000,5.000000,102.000000,1,0,-0.000558,0.000558,0,0.000000,0.002533,0.000000,44.247131,-5.421753,0.000000,0.001000,0.021000,-0.050000,FlatInitial
03:24:00.970 PM 02/14/2016,Teleop Enabled,0,FALSE,0,NO ERROR,1996.728516,-2007.128906,2000.000000,2000.000000,Speed,Speed,-0.130000,1.150000,2.160000,5.000000,100.000000,1,0,-0.000558,0.000558,0,0.000000,0.001221,0.000000,44.247131,-5.421631,0.000000,-0.010000,-0.009000,-0.050000,FlatInitial
03:24:01.070 PM 02/14/2016,Teleop Enabled,0,FALSE,0,NO ERROR,1993.652344,-2006.689453,2000.000000,2000.000000,Speed,Speed,-0.130000,1.130000,2.160000,5.000000,102.000000,1,0,-0.000558,0.000558,0,0.000000,0.000000,0.000000,44.247131,-5.421631,0.000000,-0.007000,0.017000,0.033000,FlatInitial
03:24:01.171 PM 02/14/2016,Teleop Enabled,0,FALSE,0,NO ERROR,1993.652344,-2004.492187,2000.000000,2000.000000,Speed,Speed,-0.130000,1.130000,2.190000,5.000000,101.000000,1,0,-0.000558,0.000558,0,-0.008301,0.022079,0.000000,44.246765,-5.420761,0.000000,-0.005000,0.017000,-0.068000,FlatInitial
03:24:01.271 PM 02/14/2016,Teleop Enabled,0,FALSE,0,NO ERROR,1993.359375,-2000.537109,2000.000000,2000.000000,Speed,Speed,-0.130000,1.130000,2.160000,5.000000,103.000000,1,0,-0.000558,0.000558,0,-0.017670,0.003189,0.000000,44.246201,-5.420486,0.000000,0.013000,0.010000,-0.078000,FlatInitial
03:24:01.370 PM 02/14/2016,Teleop Enabled,0,FALSE,0,NO ERROR,1992.480469,-1996.142578,2000.000000,2000.000000,Speed,Speed,-0.130000,1.130000,2.180000,5.000000,102.000000,1,0,-0.000558,0.000558,0,-0.021820,0.016403,0.000000,44.245026,-5.419769,0.000000,-0.029000,0.031000,-0.071000,FlatInitial
03:24:01.470 PM 02/14/2016,Teleop Enabled,0,FALSE,0,NO ERROR,1995.849609,-1992.919922,2000.000000,2000.000000,Speed,Speed,-0.130000,1.130000,2.190000,5.000000,101.000000,1,0,-0.000558,0.000558,0,0.000000,0.031097,0.000000,44.244614,-5.418503,0.000000,-0.012000,0.003000,-0.041000,FlatInitial
03:24:01.570 PM 02/14/2016,Teleop Enabled,0,FALSE,0,NO ERROR,1999.218750,-1993.359375,2000.000000,2000.000000,Speed,Speed,-0.130000,1.120000,2.190000,5.000000,101.000000,1,0,-0.000558,0.000558,0,0.000000,0.000000,0.000000,44.244705,-5.418411,0.000000,-0.004000,-0.006000,-0.057000,FlatInitial
03:24:01.670 PM 02/14/2016,Teleop Enabled,0,FALSE,0,NO ERROR,2005.957031,-1993.505859,2000.000000,2000.000000,Speed,Speed,-0.130000,1.120000,2.190000,5.000000,102.000000,1,0,-0.000558,0.000558,0,0.000000,0.006134,0.000000,44.244705,-5.418320,0.000000,-0.008000,-0.005000,-0.074000,FlatInitial
03:24:01.771 PM 02/14/2016,Teleop Enabled,0,FALSE,0,NO ERROR,2008.447266,-1996.875000,2000.000000,2000.000000,Speed,Speed,-0.140000,1.130000,2.190000,5.000000,101.000000,1,0,-0.000558,0.000558,0,0.000000,0.012985,0.000000,44.244705,-5.417923,0.000000,-0.006000,0.026000,-0.042000,FlatInitial
03:24:01.871 PM 02/14/2016,Teleop Enabled,0,FALSE,0,NO ERROR,2009.619141,-2002.148437,2000.000000,2000.000000,Speed,Speed,-0.150000,1.130000,2.220000,5.000000,102.000000,1,0,-0.000558,0.000558,0,0.000000,0.019424,0.000000,44.244705,-5.417053,0.000000,-0.013000,-0.006000,-0.035000,FlatInitial
03:24:01.970 PM 02/14/2016,Teleop Enabled,0,FALSE,0,NO ERROR,2005.371094,-2004.785156,2000.000000,2000.000000,Speed,Speed,-0.150000,1.110000,2.230000,5.000000,102.000000,1,0,-0.000558,0.000558,0,0.000000,0.027420,0.000000,44.244705,-5.415894,0.000000,-0.013000,0.002000,-0.051000,FlatInitial
03:24:02.071 PM 02/14/2016,Teleop Enabled,0,FALSE,0,NO ERROR,2001.855469,-2008.740234,2000.000000,2000.000000,Speed,Speed,-0.150000,1.110000,2.220000,5.000000,101.000000,1,0,-0.000558,0.000558,0,-0.013367,0.031982,0.000000,44.244202,-5.414383,0.000000,0.007000,0.040000,-0.042000,FlatInitial
03:24:02.171 PM 02/14/2016,Teleop Enabled,0,FALSE,0,NO ERROR,1998.339844,-2007.421875,2000.000000,2000.000000,Speed,Speed,-0.150000,1.110000,2.250000,5.000000,103.000000,1,0,-0.000558,0.000558,0,-0.006805,0.042175,0.000000,44.244110,-5.412430,0.000000,0.001000,-0.020000,-0.060000,FlatInitial
03:24:02.272 PM 02/14/2016,Teleop Enabled,0,FALSE,0,NO ERROR,1993.945312,-2005.957031,2000.000000,2000.000000,Speed,Speed,-0.150000,1.120000,2.270000,5.000000,102.000000,1,0,-0.000558,0.000558,0,-0.003159,0.005142,0.000000,44.244019,-5.411041,0.000000,-0.038000,0.045000,-0.047000,FlatInitial
03:24:02.373 PM 02/14/2016,Teleop Enabled,0,FALSE,0,NO ERROR,1993.652344,-2000.537109,2000.000000,2000.000000,Speed,Speed,-0.150000,1.120000,2.280000,5.000000,104.000000,1,0,-0.000558,0.000558,0,-0.006302,0.015137,0.000000,44.243790,-5.410492,0.000000,-0.026000,0.062000,-0.001000,FlatInitial
03:24:02.473 PM 02/14/2016,Teleop Enabled,0,FALSE,0,NO ERROR,1992.626953,-1996.289062,2000.000000,2000.000000,Speed,Speed,-0.150000,1.120000,2.320000,5.000000,102.000000,1,0,-0.000558,0.000558,0,0.000000,0.036453,0.000000,44.243515,-5.408661,0.000000,-0.012000,0.010000,0.023000,FlatInitial
03:24:02.574 PM 02/14/2016,Teleop Enabled,0,FALSE,0,NO ERROR,1995.556641,-1994.384766,2000.000000,2000.000000,Speed,Speed,-0.150000,1.130000,2.360000,5.000000,101.000000,1,0,-0.000558,0.000558,0,0.000000,0.055267,0.000000,44.243362,-5.406143,0.000000,0.005000,-0.028000,0.011000,FlatInitial
03:24:02.674 PM 02/14/2016,Teleop Enabled,0,FALSE,0,NO ERROR,1995.263672,-1992.480469,2000.000000,2000.000000,Speed,Speed,-0.150000,1.120000,2.350000,5.000000,103.000000,1,0,-0.000558,0.000558,0,-0.004456,0.059677,0.000000,44.243240,-5.403839,0.000000,-0.017000,0.028000,-0.010000,FlatInitial
03:24:02.775 PM 02/14/2016,Teleop Enabled,0,FALSE,0,NO ERROR,1999.804687,-1994.824219,2000.000000,2000.000000,Speed,Speed,-0.160000,1.120000,2.370000,5.000000,102.000000,1,0,-0.000558,0.000558,0,0.000000,0.064896,0.000000,44.243240,-5.399979,0.000000,-0.011000,0.007000,0.043000,FlatInitial
03:24:02.874 PM 02/14/2016,Teleop Enabled,0,FALSE,0,NO ERROR,2002.587891,-1997.314453,2000.000000,2000.000000,Speed,Speed,-0.160000,1.120000,2.350000,5.000000,102.000000,1,0,-0.000558,0.000558,0,-0.006104,0.075851,0.000000,44.243149,-5.396408,0.000000,0.004000,0.002000,0.009000,FlatInitial
03:24:02.978 PM 02/14/2016,Teleop Enabled,0,FALSE,0,NO ERROR,2003.173828,-2000.976562,2000.000000,2000.000000,Speed,Speed,-0.160000,1.120000,2.360000,5.000000,101.000000,1,0,-0.000558,0.000558,0,-0.010498,0.000000,0.000000,44.242615,-5.395630,0.000000,-0.016000,0.000000,0.031000,FlatInitial
03:24:03.079 PM 02/14/2016,Teleop Enabled,0,FALSE,0,NO ERROR,2004.931641,-2004.785156,2000.000000,2000.000000,Speed,Speed,-0.160000,1.120000,2.360000,5.000000,102.000000,1,0,-0.000558,0.000558,0,-0.007751,0.004364,0.000000,44.242432,-5.395554,0.000000,-0.016000,0.000000,0.031000,FlatInitial
03:24:03.180 PM 02/14/2016,Teleop Enabled,0,FALSE,0,NO ERROR,2001.708984,-2005.371094,2000.000000,2000.000000,Speed,Speed,-0.160000,1.110000,2.370000,5.000000,101.000000,1,0,-0.000558,0.000558,0,-0.008453,0.015930,0.000000,44.242294,-5.395020,0.000000,-0.016000,0.023000,-0.024000,FlatInitial
03:24:03.281 PM 02/14/2016,Teleop Enabled,0,FALSE,0,NO ERROR,2001.123047,-2004.345703,2000.000000,2000.000000,Speed,Speed,-0.160000,1.130000,2.400000,5.000000,102.000000,1,0,-0.000558,0.000558,0,0.000000,0.032059,0.000000,44.241867,-5.393753,0.000000,-0.005000,0.009000,0.036000,FlatInitial
03:24:03.382 PM 02/14/2016,Teleop Enabled,0,FALSE,0,NO ERROR,2000.537109,-2002.587891,2000.000000,2000.000000,Speed,Speed,-0.160000,1.130000,2.410000,5.000000,101.000000,1,0,-0.000558,0.000558,0,0.000000,0.006195,0.000000,44.241867,-5.393265,0.000000,-0.008000,0.012000,0.044000,FlatInitial
03:24:03.483 PM 02/14/2016,Teleop Enabled,0,FALSE,0,NO ERROR,1999.658203,-2000.830078,2000.000000,2000.000000,Speed,Speed,-0.170000,1.130000,2.400000,5.000000,102.000000,1,0,-0.000558,0.000558,0,0.000000,0.022079,0.000000,44.241898,-5.392517,0.000000,0.014000,0.001000,0.014000,FlatInitial
03:24:03.583 PM 02/14/2016,Teleop Enabled,0,FALSE,0,NO ERROR,1997.021484,-1997.167969,2000.000000,2000.000000,Speed,Speed,-0.170000,1.140000,2.380000,5.000000,101.000000,1,0,-0.000558,0.000558,0,0.000000,0.026978,0.000000,44.241898,-5.391327,0.000000,-0.006000,0.041000,0.002000,FlatInitial
03:24:03.683 PM 02/14/2016,Teleop Enabled,0,FALSE,0,NO ERROR,1996.875000,-1995.263672,2000.000000,2000.000000,Speed,Speed,-0.170000,1.150000,2.350000,5.000000,102.000000,1,0,-0.000558,0.000558,0,0.000000,0.029648,0.000000,44.241898,-5.389877,0.000000,-0.030000,0.037000,0.002000,FlatInitial
03:24:03.783 PM 02/14/2016,Teleop Enabled,0,FALSE,0,NO ERROR,1995.263672,-1994.970703,2000.000000,2000.000000,Speed,Speed,-0.170000,1.140000,2.390000,5.000000,102.000000,1,0,-0.000558,0.000558,0,-0.010193,0.043915,0.000000,44.241440,-5.387451,0.000000,-0.030000,0.037000,0.002000,FlatInitial
03:24:03.883 PM 02/14/2016,Teleop Enabled,0,FALSE,0,NO ERROR,1994.824219,-1997.900391,2000.000000,2000.000000,Speed,Speed,-0.160000,1.140000,2.390000,5.000000,101.000000,1,0,-0.000558,0.000558,0,-0.021683,0.056702,0.000000,44.240753,-5.385345,0.000000,-0.004000,0.011000,-0.006000,FlatInitial
03:24:03.983 PM 02/14/2016,Teleop Enabled,0,FALSE,0,NO ERROR,1999.658203,-1999.804687,2000.000000,2000.000000,Speed,Speed,-0.160000,1.140000,2.390000,5.000000,101.000000,1,0,-0.000558,0.000558,0,-0.021683,0.056702,0.000000,44.240753,-5.385345,0.000000,0.008000,-0.017000,-0.012000,FlatInitial
03:24:04.083 PM 02/14/2016,Teleop Enabled,0,FALSE,0,NO ERROR,2000.390625,-1999.951172,2000.000000,2000.000000,Speed,Speed,-0.170000,1.140000,2.380000,5.000000,101.000000,1,0,-0.000558,0.000558,0,-0.012299,0.000000,0.000000,44.240082,-5.382553,0.000000,-0.015000,0.034000,0.002000,FlatInitial
03:24:04.184 PM 02/14/2016,Teleop Enabled,0,FALSE,0,NO ERROR,2004.052734,-2001.416016,2000.000000,2000.000000,Speed,Speed,-0.160000,1.130000,2.380000,5.000000,102.000000,1,0,-0.000558,0.000558,0,0.001358,0.018234,0.000000,44.239609,-5.381973,0.000000,-0.006000,0.001000,-0.013000,FlatInitial
03:24:04.284 PM 02/14/2016,Teleop Enabled,0,FALSE,0,NO ERROR,2005.078125,-2000.683594,2000.000000,2000.000000,Speed,Speed,-0.170000,1.140000,2.390000,5.000000,100.000000,1,0,-0.000558,0.000558,0,0.001358,0.018234,0.000000,44.239609,-5.381973,0.000000,0.020000,-0.031000,-0.006000,FlatInitial
03:24:04.385 PM 02/14/2016,Teleop Enabled,0,FALSE,0,NO ERROR,2005.664062,-2000.537109,2000.000000,2000.000000,Speed,Speed,-0.170000,1.140000,2.390000,5.000000,102.000000,1,0,-0.000558,0.000558,0,0.000000,0.031631,0.000000,44.239609,-5.380692,0.000000,-0.014000,0.016000,-0.013000,FlatInitial
