Time,RobotMode,AutoToRun,ErrorStatus, ErrorCode,ErrorSource,ActualRPM1,ActualRPM2,DesiredRPM1,DesiredRPM2,ControlMode1,ControlMode2,NavXYaw,NavXRoll,NavXPitch,ShooterState,LoopTime,IsLevel,IsAutoTargeting,LeftMotorOutput,RightMotorOutput,IsHaloDrive,NavXVelocityX,NavXVelocityY,NavXVelocityZ,NavXDisplacementX,NavXDisplacementY,NavXDisplacementZ,NavXAccelerationX,NavXAccelerationY,NavXAccelerationZ,AutoDefendState
08:48:09.762 PM 02/15/2016,Autonomous Disabled,0,TRUE,91,Variant To Data in WPI_DigitalInputRefNum Registry Get.vi->Periodic Tasks.vi->Robot Main.vi,2138.964844,-83.349609,9000.000000,9000.000000,Speed,Speed,57.440000,0.950000,1.790000,4.000000,101.000000,1,0,-0.000000,0.000000,1,0.000000,0.000000,0.000000,-5.894577,27.838745,0.000000,-0.034000,-0.015000,0.000000,FlatInitial
08:48:09.863 PM 02/15/2016,Teleop Disabled,0,TRUE,-44007,<LOCATION>WPI_DigitalInputRefNum Registry Get.vi<CALLSTACK>WPI_DigitalInputRefNum Registry Get.vi< <Periodic Tasks.vi< <Robot Main.vi,0.000000,0.000000,0.000000,0.000000,Speed,Speed,44.530000,0.890000,1.560000,0.000000,21578.000000,1,0,-0.000000,0.000000,1,0.000000,0.371017,0.000000,-5.917969,27.951981,0.000000,0.006000,-0.013000,-0.017000,FlatInitial
08:48:09.964 PM 02/15/2016,Teleop Disabled,0,FALSE,0,NO ERROR,0.000000,0.000000,0.000000,0.000000,Speed,Speed,0.040000,0.960000,1.710000,0.000000,112.000000,1,0,-0.000000,0.000000,1,0.020416,0.000000,0.000000,-5.917572,27.951981,0.000000,0.024000,-0.006000,0.036000,FlatInitial
08:48:10.064 PM 02/15/2016,Teleop Disabled,0,FALSE,0,NO ERROR,0.000000,0.000000,0.000000,0.000000,Speed,Speed,0.100000,0.890000,1.620000,0.000000,103.000000,1,0,-0.000000,0.000000,1,0.005844,0.000000,0.000000,-5.916809,27.951981,0.000000,-0.005000,0.004000,-0.018000,FlatInitial
08:48:10.164 PM 02/15/2016,Teleop Disabled,0,FALSE,0,NO ERROR,0.000000,0.000000,0.000000,0.000000,Speed,Speed,0.090000,0.990000,1.630000,0.000000,101.000000,1,0,-0.000000,0.000000,1,0.029236,0.000000,0.000000,-5.915833,27.951981,0.000000,-0.030000,0.000000,-0.003000,FlatInitial
08:48:10.264 PM 02/15/2016,Teleop Disabled,0,FALSE,0,NO ERROR,0.000000,0.000000,0.000000,0.000000,Speed,Speed,0.060000,0.930000,1.680000,0.000000,101.000000,1,0,-0.000000,0.000000,1,0.000000,0.000000,0.000000,-5.915237,27.951981,0.000000,0.013000,-0.012000,0.023000,FlatInitial
08:48:10.364 PM 02/15/2016,Teleop Disabled,0,FALSE,0,NO ERROR,0.000000,0.000000,0.000000,0.000000,Speed,Speed,0.020000,0.960000,1.570000,0.000000,101.000000,1,0,-0.000000,0.000000,1,0.000000,0.000000,0.000000,-5.915009,27.951981,0.000000,-0.014000,0.007000,-0.014000,FlatInitial
08:48:10.464 PM 02/15/2016,Teleop Disabled,0,FALSE,0,NO ERROR,0.000000,0.000000,0.000000,0.000000,Speed,Speed,0.010000,0.980000,1.610000,0.000000,102.000000,1,0,-0.000000,0.000000,1,0.008926,0.000000,0.000000,-5.914810,27.951981,0.000000,-0.001000,-0.005000,0.008000,FlatInitial
08:48:10.564 PM 02/15/2016,Teleop Disabled,0,FALSE,0,NO ERROR,0.000000,0.000000,0.000000,0.000000,Speed,Speed,0.030000,0.940000,1.620000,0.000000,103.000000,1,0,-0.000000,0.000000,1,0.000000,0.000000,0.000000,-5.914810,27.951981,0.000000,0.009000,-0.002000,0.007000,FlatInitial
08:48:10.665 PM 02/15/2016,Teleop Disabled,0,FALSE,0,NO ERROR,0.000000,0.000000,0.000000,0.000000,Speed,Speed,0.020000,0.980000,1.570000,0.000000,101.000000,1,0,-0.000000,0.000000,1,0.000000,0.000000,0.000000,-5.914810,27.951981,0.000000,-0.007000,0.009000,-0.006000,FlatInitial
08:48:10.766 PM 02/15/2016,Teleop Disabled,0,FALSE,0,NO ERROR,0.000000,0.000000,0.000000,0.000000,Speed,Speed,0.010000,0.980000,1.610000,0.000000,101.000000,1,0,-0.000000,0.000000,1,0.000000,0.000000,0.000000,-5.914810,27.951981,0.000000,0.004000,-0.002000,0.005000,FlatInitial
08:48:10.866 PM 02/15/2016,Teleop Disabled,0,FALSE,0,NO ERROR,0.000000,0.000000,0.000000,0.000000,Speed,Speed,0.010000,0.990000,1.590000,0.000000,103.000000,1,0,-0.000000,0.000000,1,0.000000,0.000000,0.000000,-5.914810,27.951981,0.000000,0.000000,0.001000,0.003000,FlatInitial
08:48:10.966 PM 02/15/2016,Teleop Disabled,0,FALSE,0,NO ERROR,0.000000,0.000000,0.000000,0.000000,Speed,Speed,0.010000,1.000000,1.590000,0.000000,100.000000,1,0,-0.000000,0.000000,1,0.000000,0.000000,0.000000,-5.914810,27.951981,0.000000,0.001000,-0.001000,0.008000,FlatInitial
08:48:11.065 PM 02/15/2016,Teleop Disabled,0,FALSE,0,NO ERROR,0.000000,0.000000,0.000000,0.000000,Speed,Speed,0.010000,0.990000,1.580000,0.000000,101.000000,1,0,-0.000000,0.000000,1,0.000000,0.000000,0.000000,-5.914810,27.951981,0.000000,0.002000,0.001000,-0.002000,FlatInitial
08:48:11.166 PM 02/15/2016,Teleop Disabled,0,FALSE,0,NO ERROR,0.000000,0.000000,0.000000,0.000000,Speed,Speed,0.010000,1.010000,1.570000,0.000000,103.000000,1,0,-0.000000,0.000000,1,0.000000,0.000000,0.000000,-5.914810,27.951981,0.000000,0.000000,0.000000,0.000000,FlatInitial
08:48:11.266 PM 02/15/2016,Teleop Disabled,0,FALSE,0,NO ERROR,0.000000,0.000000,0.000000,0.000000,Speed,Speed,0.000000,1.000000,1.580000,0.000000,104.000000,1,0,-0.000000,0.000000,1,0.000000,0.000000,0.000000,-5.914810,27.951981,0.000000,0.003000,-0.003000,0.004000,FlatInitial
08:48:11.365 PM 02/15/2016,Teleop Disabled,0,FALSE,0,NO ERROR,0.000000,0.000000,0.000000,0.000000,Speed,Speed,0.000000,1.010000,1.570000,0.000000,101.000000,1,0,-0.000000,0.000000,1,0.000000,0.000000,0.000000,-5.914810,27.951981,0.000000,0.000000,0.001000,-0.001000,FlatInitial
08:48:11.466 PM 02/15/2016,Teleop Disabled,0,FALSE,0,NO ERROR,0.000000,0.000000,0.000000,0.000000,Speed,Speed,0.000000,1.010000,1.570000,0.000000,101.000000,1,0,-0.000000,0.000000,1,0.000000,0.000000,0.000000,-5.914810,27.951981,0.000000,-0.003000,0.000000,0.001000,FlatInitial
08:48:11.565 PM 02/15/2016,Teleop Disabled,0,FALSE,0,NO ERROR,0.000000,0.000000,0.000000,0.000000,Speed,Speed,0.000000,1.010000,1.570000,0.000000,102.000000,1,0,-0.000000,0.000000,1,0.000000,0.000000,0.000000,-5.914810,27.951981,0.000000,0.005000,0.000000,0.000000,FlatInitial
08:48:11.666 PM 02/15/2016,Teleop Disabled,0,FALSE,0,NO ERROR,0.000000,0.000000,0.000000,0.000000,Speed,Speed,0.000000,1.010000,1.570000,0.000000,101.000000,1,0,-0.000000,0.000000,1,0.000000,0.000000,0.000000,-5.914810,27.951981,0.000000,0.000000,0.000000,0.005000,FlatInitial
08:48:11.767 PM 02/15/2016,Teleop Disabled,0,FALSE,0,NO ERROR,0.000000,0.000000,0.000000,0.000000,Speed,Speed,0.000000,1.010000,1.570000,0.000000,101.000000,1,0,-0.000000,0.000000,1,0.000000,0.000000,0.000000,-5.914810,27.951981,0.000000,0.000000,0.000000,0.000000,FlatInitial
08:48:11.868 PM 02/15/2016,Teleop Disabled,0,FALSE,0,NO ERROR,0.000000,0.000000,0.000000,0.000000,Speed,Speed,0.000000,1.010000,1.570000,0.000000,102.000000,1,0,-0.000000,0.000000,1,0.000000,0.000000,0.000000,-5.914810,27.951981,0.000000,0.002000,0.000000,-0.002000,FlatInitial
08:48:11.968 PM 02/15/2016,Teleop Disabled,0,FALSE,0,NO ERROR,0.000000,0.000000,0.000000,0.000000,Speed,Speed,-0.010000,1.010000,1.570000,0.000000,102.000000,1,0,-0.000000,0.000000,1,0.000000,0.000000,0.000000,-5.914810,27.951981,0.000000,0.000000,0.001000,0.000000,FlatInitial
08:48:12.068 PM 02/15/2016,Teleop Disabled,0,FALSE,0,NO ERROR,0.000000,0.000000,0.000000,0.000000,Speed,Speed,0.000000,1.020000,1.560000,0.000000,102.000000,1,0,-0.000000,0.000000,1,0.000000,0.000000,0.000000,-5.914810,27.951981,0.000000,0.000000,-0.001000,0.003000,FlatInitial
08:48:12.168 PM 02/15/2016,Teleop Disabled,0,FALSE,0,NO ERROR,0.000000,0.000000,0.000000,0.000000,Speed,Speed,-0.010000,1.020000,1.560000,0.000000,101.000000,1,0,-0.000000,0.000000,1,0.000000,0.000000,0.000000,-5.914810,27.951981,0.000000,0.003000,0.000000,0.000000,FlatInitial
08:48:12.268 PM 02/15/2016,Teleop Disabled,0,FALSE,0,NO ERROR,0.000000,0.000000,0.000000,0.000000,Speed,Speed,-0.010000,1.030000,1.560000,0.000000,102.000000,1,0,-0.000000,0.000000,1,0.000000,0.000000,0.000000,-5.914810,27.951981,0.000000,0.000000,-0.001000,0.000000,FlatInitial
08:48:12.369 PM 02/15/2016,Teleop Disabled,0,FALSE,0,NO ERROR,0.000000,0.000000,0.000000,0.000000,Speed,Speed,-0.010000,1.030000,1.560000,0.000000,102.000000,1,0,-0.000000,0.000000,1,0.000000,0.000000,0.000000,-5.914810,27.951981,0.000000,0.002000,0.000000,0.003000,FlatInitial
08:48:12.469 PM 02/15/2016,Teleop Disabled,0,FALSE,0,NO ERROR,0.000000,0.000000,0.000000,0.000000,Speed,Speed,-0.010000,1.030000,1.560000,0.000000,102.000000,1,0,-0.000000,0.000000,1,0.000000,0.000000,0.000000,-5.914810,27.951981,0.000000,0.001000,-0.001000,0.005000,FlatInitial
08:48:12.569 PM 02/15/2016,Teleop Disabled,0,FALSE,0,NO ERROR,0.000000,0.000000,0.000000,0.000000,Speed,Speed,-0.010000,1.030000,1.560000,0.000000,101.000000,1,0,-0.000000,0.000000,1,0.000000,0.000000,0.000000,-5.914810,27.951981,0.000000,0.000000,0.000000,0.002000,FlatInitial
08:48:12.669 PM 02/15/2016,Teleop Disabled,0,FALSE,0,NO ERROR,0.000000,0.000000,0.000000,0.000000,Speed,Speed,-0.020000,1.030000,1.560000,0.000000,101.000000,1,0,-0.000000,0.000000,1,0.000000,0.000000,0.000000,-5.914810,27.951981,0.000000,0.001000,0.000000,0.007000,FlatInitial
08:48:12.769 PM 02/15/2016,Teleop Disabled,0,FALSE,0,NO ERROR,0.000000,0.000000,0.000000,0.000000,Speed,Speed,-0.020000,1.030000,1.550000,0.000000,101.000000,1,0,-0.000000,0.000000,1,0.000000,0.000000,0.000000,-5.914810,27.951981,0.000000,0.000000,0.000000,0.000000,FlatInitial
08:48:12.869 PM 02/15/2016,Teleop Disabled,0,FALSE,0,NO ERROR,0.000000,0.000000,0.000000,0.000000,Speed,Speed,-0.020000,1.030000,1.560000,0.000000,101.000000,1,0,-0.000000,0.000000,1,0.000000,0.000000,0.000000,-5.914810,27.951981,0.000000,-0.001000,-0.001000,0.004000,FlatInitial
08:48:12.969 PM 02/15/2016,Teleop Disabled,0,FALSE,0,NO ERROR,0.000000,0.000000,0.000000,0.000000,Speed,Speed,-0.020000,1.030000,1.560000,0.000000,102.000000,1,0,-0.000000,0.000000,1,0.000000,0.000000,0.000000,-5.914810,27.951981,0.000000,0.001000,-0.001000,0.002000,FlatInitial
08:48:13.069 PM 02/15/2016,Teleop Disabled,0,FALSE,0,NO ERROR,0.000000,0.000000,-6000.000000,-6000.000000,Speed,Speed,-0.030000,1.030000,1.560000,1.000000,102.000000,1,0,-0.000000,0.000000,1,0.000000,0.000000,0.000000,-5.914810,27.951981,0.000000,0.000000,0.002000,0.001000,FlatInitial
08:48:13.169 PM 02/15/2016,Teleop Disabled,0,FALSE,0,NO ERROR,0.000000,0.000000,0.000000,0.000000,Speed,Speed,-0.030000,1.030000,1.560000,2.000000,102.000000,1,0,-0.000000,0.000000,1,0.000000,0.000000,0.000000,-5.914810,27.951981,0.000000,0.001000,-0.003000,0.001000,FlatInitial
08:48:13.271 PM 02/15/2016,Teleop Disabled,0,FALSE,0,NO ERROR,0.000000,0.000000,0.000000,0.000000,Speed,Speed,-0.030000,1.030000,1.560000,2.000000,102.000000,1,0,-0.000000,0.000000,1,0.000000,0.000000,0.000000,-5.914810,27.951981,0.000000,0.003000,0.000000,0.002000,FlatInitial
08:48:13.371 PM 02/15/2016,Teleop Disabled,0,FALSE,0,NO ERROR,0.000000,0.000000,0.000000,0.000000,Speed,Speed,-0.030000,1.030000,1.560000,2.000000,102.000000,1,0,-0.000000,0.000000,1,0.000000,0.000000,0.000000,-5.914810,27.951981,0.000000,0.000000,0.001000,0.000000,FlatInitial
08:48:13.472 PM 02/15/2016,Teleop Disabled,0,FALSE,0,NO ERROR,0.000000,0.000000,0.000000,0.000000,Speed,Speed,-0.030000,1.040000,1.560000,2.000000,102.000000,1,0,-0.000000,0.000000,1,0.000000,0.000000,0.000000,-5.914810,27.951981,0.000000,-0.002000,0.000000,0.003000,FlatInitial
08:48:13.573 PM 02/15/2016,Teleop Disabled,0,FALSE,0,NO ERROR,0.000000,0.000000,0.000000,0.000000,Speed,Speed,-0.030000,1.040000,1.570000,2.000000,102.000000,1,0,-0.000000,0.000000,1,0.000000,0.000000,0.000000,-5.914810,27.951981,0.000000,0.000000,-0.002000,0.002000,FlatInitial
08:48:13.673 PM 02/15/2016,Teleop Disabled,0,FALSE,0,NO ERROR,0.000000,0.000000,0.000000,0.000000,Speed,Speed,-0.030000,1.030000,1.560000,2.000000,103.000000,1,0,-0.000000,0.000000,1,0.000000,0.000000,0.000000,-5.914810,27.951981,0.000000,0.001000,0.000000,0.000000,FlatInitial
08:48:13.772 PM 02/15/2016,Teleop Disabled,0,FALSE,0,NO ERROR,0.000000,0.000000,0.000000,0.000000,Speed,Speed,-0.030000,1.040000,1.560000,2.000000,102.000000,1,0,-0.000000,0.000000,1,0.000000,0.000000,0.000000,-5.914810,27.951981,0.000000,0.002000,0.001000,0.005000,FlatInitial
08:48:13.874 PM 02/15/2016,Teleop Disabled,0,FALSE,0,NO ERROR,0.000000,0.000000,0.000000,0.000000,Speed,Speed,-0.030000,1.040000,1.550000,2.000000,102.000000,1,0,-0.000000,0.000000,1,0.000000,0.000000,0.000000,-5.914810,27.951981,0.000000,0.000000,0.001000,0.001000,FlatInitial
08:48:13.974 PM 02/15/2016,Teleop Disabled,0,FALSE,0,NO ERROR,0.000000,0.000000,0.000000,0.000000,Speed,Speed,-0.030000,1.040000,1.560000,2.000000,100.000000,1,0,-0.000000,0.000000,1,0.000000,0.000000,0.000000,-5.914810,27.951981,0.000000,0.001000,-0.001000,0.002000,FlatInitial
08:48:14.075 PM 02/15/2016,Teleop Disabled,0,FALSE,0,NO ERROR,0.000000,0.000000,0.000000,0.000000,Speed,Speed,-0.040000,1.050000,1.560000,2.000000,102.000000,1,0,-0.000000,0.000000,1,0.000000,0.000000,0.000000,-5.914810,27.951981,0.000000,-0.001000,-0.001000,0.000000,FlatInitial
08:48:14.176 PM 02/15/2016,Teleop Disabled,0,FALSE,0,NO ERROR,0.000000,0.000000,0.000000,0.000000,Speed,Speed,-0.040000,1.050000,1.560000,2.000000,101.000000,1,0,-0.000000,0.000000,1,0.000000,0.000000,0.000000,-5.914810,27.951981,0.000000,-0.002000,0.000000,0.000000,FlatInitial
08:48:14.276 PM 02/15/2016,Teleop Disabled,0,FALSE,0,NO ERROR,0.000000,0.000000,0.000000,0.000000,Speed,Speed,-0.050000,1.040000,1.560000,2.000000,102.000000,1,0,-0.000000,0.000000,1,0.000000,0.000000,0.000000,-5.914810,27.951981,0.000000,-0.001000,0.000000,0.004000,FlatInitial
08:48:14.376 PM 02/15/2016,Teleop Disabled,0,FALSE,0,NO ERROR,0.000000,0.000000,0.000000,0.000000,Speed,Speed,-0.050000,1.040000,1.550000,3.000000,102.000000,1,0,-0.000000,0.000000,1,0.000000,0.000000,0.000000,-5.914810,27.951981,0.000000,0.000000,-0.001000,0.000000,FlatInitial
08:48:14.476 PM 02/15/2016,Teleop Disabled,0,FALSE,0,NO ERROR,0.000000,0.000000,4000.000000,4000.000000,Speed,Speed,-0.050000,1.040000,1.550000,3.000000,102.000000,1,0,-0.000000,0.000000,1,0.000000,0.000000,0.000000,-5.914810,27.951981,0.000000,0.003000,0.000000,0.003000,FlatInitial
08:48:14.576 PM 02/15/2016,Teleop Disabled,0,FALSE,0,NO ERROR,0.000000,0.000000,4000.000000,4000.000000,Speed,Speed,-0.050000,1.050000,1.550000,3.000000,101.000000,1,0,-0.000000,0.000000,1,0.000000,0.000000,0.000000,-5.914810,27.951981,0.000000,-0.001000,0.000000,0.002000,FlatInitial
08:48:14.677 PM 02/15/2016,Teleop Disabled,0,FALSE,0,NO ERROR,0.000000,0.000000,4000.000000,4000.000000,Speed,Speed,-0.050000,1.050000,1.560000,3.000000,102.000000,1,0,-0.000000,0.000000,1,0.000000,0.000000,0.000000,-5.914810,27.951981,0.000000,0.000000,0.000000,0.004000,FlatInitial
08:48:14.777 PM 02/15/2016,Teleop Disabled,0,FALSE,0,NO ERROR,0.000000,0.000000,4000.000000,4000.000000,Speed,Speed,-0.050000,1.050000,1.550000,3.000000,102.000000,1,0,-0.000000,0.000000,1,0.000000,0.000000,0.000000,-5.914810,27.951981,0.000000,0.000000,0.000000,0.001000,FlatInitial
08:48:14.877 PM 02/15/2016,Teleop Disabled,0,FALSE,0,NO ERROR,0.000000,0.000000,4000.000000,4000.000000,Speed,Speed,-0.050000,1.050000,1.550000,3.000000,101.000000,1,0,-0.000000,0.000000,1,0.000000,0.000000,0.000000,-5.914810,27.951981,0.000000,0.000000,-0.001000,0.006000,FlatInitial
08:48:14.979 PM 02/15/2016,Teleop Disabled,0,FALSE,0,NO ERROR,0.000000,0.000000,4000.000000,4000.000000,Speed,Speed,-0.050000,1.050000,1.550000,3.000000,102.000000,1,0,-0.000000,0.000000,1,0.000000,0.000000,0.000000,-5.914810,27.951981,0.000000,0.000000,0.000000,0.008000,FlatInitial
08:48:15.079 PM 02/15/2016,Teleop Disabled,0,FALSE,0,NO ERROR,0.000000,0.000000,4000.000000,4000.000000,Speed,Speed,-0.050000,1.050000,1.550000,3.000000,102.000000,1,0,-0.000000,0.000000,1,0.000000,0.000000,0.000000,-5.914810,27.951981,0.000000,0.000000,0.001000,0.003000,FlatInitial
08:48:15.179 PM 02/15/2016,Teleop Disabled,0,FALSE,0,NO ERROR,0.000000,0.000000,4000.000000,4000.000000,Speed,Speed,-0.060000,1.050000,1.550000,3.000000,103.000000,1,0,-0.000000,0.000000,1,0.000000,0.000000,0.000000,-5.914810,27.951981,0.000000,0.000000,0.001000,-0.001000,FlatInitial
08:48:15.279 PM 02/15/2016,Teleop Disabled,0,FALSE,0,NO ERROR,0.000000,0.000000,4000.000000,4000.000000,Speed,Speed,-0.060000,1.050000,1.550000,3.000000,100.000000,1,0,-0.000000,0.000000,1,0.000000,0.000000,0.000000,-5.914810,27.951981,0.000000,0.002000,0.000000,0.002000,FlatInitial
08:48:15.379 PM 02/15/2016,Teleop Disabled,0,FALSE,0,NO ERROR,0.000000,0.000000,4000.000000,4000.000000,Speed,Speed,-0.060000,1.050000,1.550000,3.000000,102.000000,1,0,-0.000000,0.000000,1,0.000000,0.000000,0.000000,-5.914810,27.951981,0.000000,0.001000,0.002000,0.000000,FlatInitial
08:48:15.479 PM 02/15/2016,Teleop Disabled,0,FALSE,0,NO ERROR,0.000000,0.000000,4000.000000,4000.000000,Speed,Speed,-0.060000,1.050000,1.550000,3.000000,100.000000,1,0,-0.000000,0.000000,1,0.000000,0.000000,0.000000,-5.914810,27.951981,0.000000,-0.001000,-0.004000,0.006000,FlatInitial
08:48:15.579 PM 02/15/2016,Teleop Disabled,0,FALSE,0,NO ERROR,0.000000,0.000000,4000.000000,4000.000000,Speed,Speed,-0.070000,1.050000,1.550000,3.000000,102.000000,1,0,-0.000000,0.000000,1,0.000000,0.000000,0.000000,-5.914810,27.951981,0.000000,0.000000,0.000000,0.002000,FlatInitial
08:48:15.679 PM 02/15/2016,Teleop Disabled,0,FALSE,0,NO ERROR,0.000000,0.000000,4000.000000,4000.000000,Speed,Speed,-0.070000,1.050000,1.550000,3.000000,101.000000,1,0,-0.000000,0.000000,1,0.000000,0.000000,0.000000,-5.914810,27.951981,0.000000,0.000000,0.000000,0.005000,FlatInitial
08:48:15.779 PM 02/15/2016,Teleop Disabled,0,FALSE,0,NO ERROR,0.000000,0.000000,4000.000000,4000.000000,Speed,Speed,-0.070000,1.050000,1.550000,3.000000,102.000000,1,0,-0.000000,0.000000,1,0.000000,0.000000,0.000000,-5.914810,27.951981,0.000000,0.000000,-0.002000,0.004000,FlatInitial
08:48:15.879 PM 02/15/2016,Teleop Disabled,0,FALSE,0,NO ERROR,0.000000,0.000000,4000.000000,4000.000000,Speed,Speed,-0.070000,1.040000,1.550000,3.000000,101.000000,1,0,-0.000000,0.000000,1,0.000000,0.000000,0.000000,-5.914810,27.951981,0.000000,0.001000,0.000000,0.000000,FlatInitial
08:48:15.979 PM 02/15/2016,Teleop Disabled,0,FALSE,0,NO ERROR,0.000000,0.000000,4000.000000,4000.000000,Speed,Speed,-0.070000,1.050000,1.550000,3.000000,102.000000,1,0,-0.000000,0.000000,1,0.000000,0.000000,0.000000,-5.914810,27.951981,0.000000,-0.001000,0.000000,0.003000,FlatInitial
08:48:16.079 PM 02/15/2016,Teleop Disabled,0,FALSE,0,NO ERROR,0.000000,0.000000,4000.000000,4000.000000,Speed,Speed,-0.070000,1.040000,1.550000,3.000000,102.000000,1,0,-0.000000,0.000000,1,0.000000,0.000000,0.000000,-5.914810,27.951981,0.000000,0.000000,-0.003000,0.004000,FlatInitial
08:48:16.179 PM 02/15/2016,Teleop Disabled,0,FALSE,0,NO ERROR,0.000000,0.000000,4000.000000,4000.000000,Speed,Speed,-0.070000,1.040000,1.550000,3.000000,102.000000,1,0,-0.000000,0.000000,1,0.000000,0.000000,0.000000,-5.914810,27.951981,0.000000,0.000000,0.000000,0.001000,FlatInitial
08:48:57.209 PM 02/15/2016,Teleop Enabled,0,FALSE,0,NO ERROR,0.000000,0.000000,4000.000000,4000.000000,Speed,Speed,1.540000,1.040000,1.540000,3.000000,102.000000,1,0,-0.000000,0.000000,1,0.000000,0.000000,0.000000,-5.914291,27.951981,0.000000,0.000000,0.000000,0.004000,FlatInitial
08:48:57.309 PM 02/15/2016,Teleop Enabled,0,FALSE,0,NO ERROR,8.789062,-1.025391,4000.000000,4000.000000,Speed,Speed,1.550000,1.040000,1.560000,3.000000,101.000000,1,0,-0.000000,0.000000,1,0.000000,0.000000,0.000000,-5.914291,27.951981,0.000000,0.001000,-0.001000,0.001000,FlatInitial
08:48:57.409 PM 02/15/2016,Teleop Enabled,0,FALSE,0,NO ERROR,964.599609,-665.478516,4000.000000,4000.000000,Speed,Speed,1.550000,1.040000,1.560000,3.000000,103.000000,1,0,-0.000000,0.000000,1,-0.015930,0.000000,0.000000,-5.914612,27.951981,0.000000,0.015000,-0.001000,-0.006000,FlatInitial
08:48:57.509 PM 02/15/2016,Teleop Enabled,0,FALSE,0,NO ERROR,2796.386719,-2406.884766,4000.000000,4000.000000,Speed,Speed,1.530000,1.090000,1.510000,3.000000,101.000000,1,0,-0.000000,0.000000,1,0.005524,0.004684,0.000000,-5.915146,27.952057,0.000000,0.029000,-0.038000,0.029000,FlatInitial
08:48:57.609 PM 02/15/2016,Teleop Enabled,0,FALSE,0,NO ERROR,3808.007812,-3573.339844,4000.000000,4000.000000,Speed,Speed,1.530000,1.050000,1.560000,3.000000,102.000000,1,0,-0.000000,0.000000,1,0.016922,-0.017044,0.000000,-5.914154,27.951355,0.000000,-0.017000,0.021000,0.076000,FlatInitial
08:48:57.709 PM 02/15/2016,Teleop Enabled,0,FALSE,0,NO ERROR,4037.988281,-3942.480469,4000.000000,4000.000000,Speed,Speed,1.540000,1.050000,1.610000,3.000000,101.000000,1,0,-0.000000,0.000000,1,-0.001923,0.003021,0.000000,-5.913849,27.951462,0.000000,0.020000,0.008000,-0.012000,FlatInitial
08:48:57.810 PM 02/15/2016,Teleop Enabled,0,FALSE,0,NO ERROR,4056.005859,-3933.691406,4000.000000,4000.000000,Speed,Speed,1.530000,0.980000,1.620000,3.000000,102.000000,1,0,-0.000000,0.000000,1,0.003372,-0.018509,0.000000,-5.913864,27.950958,0.000000,0.028000,-0.067000,-0.008000,FlatInitial
08:48:57.910 PM 02/15/2016,Teleop Enabled,0,FALSE,0,NO ERROR,4014.697266,-3887.548828,4000.000000,4000.000000,Speed,Speed,1.510000,0.990000,1.570000,3.000000,104.000000,1,0,-0.000000,0.000000,1,0.006195,-0.040573,0.000000,-5.913483,27.949493,0.000000,-0.051000,-0.022000,0.041000,FlatInitial
08:48:58.011 PM 02/15/2016,Teleop Enabled,0,FALSE,0,NO ERROR,3984.228516,-3894.287109,4000.000000,4000.000000,Speed,Speed,1.520000,0.980000,1.510000,3.000000,102.000000,1,0,-0.000000,0.000000,1,0.019699,-0.072464,0.000000,-5.912613,27.946335,0.000000,0.016000,-0.021000,-0.091000,FlatInitial
08:48:58.112 PM 02/15/2016,Teleop Enabled,0,FALSE,0,NO ERROR,3967.529297,-3929.736328,4000.000000,4000.000000,Speed,Speed,1.480000,0.960000,1.530000,3.000000,101.000000,1,0,-0.000000,0.000000,1,0.019913,-0.067184,0.000000,-5.911438,27.942520,0.000000,-0.018000,0.023000,0.056000,FlatInitial
08:48:58.212 PM 02/15/2016,Teleop Enabled,0,FALSE,0,NO ERROR,3971.777344,-3959.179687,4000.000000,4000.000000,Speed,Speed,1.470000,0.940000,1.640000,3.000000,102.000000,1,0,-0.000000,0.000000,1,0.006851,-0.059692,0.000000,-5.910812,27.939407,0.000000,0.018000,0.035000,0.018000,FlatInitial
08:48:58.312 PM 02/15/2016,Teleop Enabled,0,FALSE,0,NO ERROR,3982.763672,-3973.974609,4000.000000,4000.000000,Speed,Speed,1.480000,0.900000,1.630000,3.000000,101.000000,1,0,-0.000000,0.000000,1,-0.011047,-0.074539,0.000000,-5.910904,27.936752,0.000000,0.056000,-0.013000,-0.101000,FlatInitial
08:48:58.413 PM 02/15/2016,Teleop Enabled,0,FALSE,0,NO ERROR,3993.310547,-3981.591797,4000.000000,4000.000000,Speed,Speed,1.460000,0.970000,1.610000,3.000000,104.000000,1,0,-0.000000,0.000000,1,0.000000,0.000000,0.000000,-5.910934,27.935959,0.000000,0.017000,0.003000,-0.056000,FlatInitial
08:48:58.514 PM 02/15/2016,Teleop Enabled,0,FALSE,0,NO ERROR,3998.876953,-3989.208984,4000.000000,4000.000000,Speed,Speed,1.460000,0.990000,1.540000,3.000000,102.000000,1,0,-0.000000,0.000000,1,0.006271,-0.020264,0.000000,-5.910843,27.935333,0.000000,-0.002000,-0.040000,0.104000,FlatInitial
08:48:58.614 PM 02/15/2016,Teleop Enabled,0,FALSE,0,NO ERROR,4001.806641,-3993.164062,4000.000000,4000.000000,Speed,Speed,1.450000,1.020000,1.430000,3.000000,101.000000,1,0,-0.000000,0.000000,1,0.020340,-0.034470,0.000000,-5.910309,27.933823,0.000000,0.055000,0.017000,-0.077000,FlatInitial
08:48:58.715 PM 02/15/2016,Teleop Enabled,0,FALSE,0,NO ERROR,4007.080078,-3993.310547,4000.000000,4000.000000,Speed,Speed,1.440000,1.060000,1.370000,3.000000,101.000000,1,0,-0.000000,0.000000,1,0.008301,-0.056183,0.000000,-5.909790,27.931442,0.000000,0.007000,-0.012000,-0.050000,FlatInitial
08:48:58.815 PM 02/15/2016,Teleop Enabled,0,FALSE,0,NO ERROR,4015.429687,-3995.654297,4000.000000,4000.000000,Speed,Speed,1.450000,1.100000,1.320000,3.000000,101.000000,1,0,-0.000000,0.000000,1,0.037949,-0.060852,0.000000,-5.908508,27.928528,0.000000,0.006000,-0.029000,0.082000,FlatInitial
08:48:58.915 PM 02/15/2016,Teleop Enabled,0,FALSE,0,NO ERROR,4018.652344,-4004.150391,4000.000000,4000.000000,Speed,Speed,1.430000,1.130000,1.330000,3.000000,102.000000,1,0,-0.000000,0.000000,1,0.059708,-0.015411,0.000000,-5.905960,27.927536,0.000000,0.062000,0.003000,-0.134000,FlatInitial
08:48:59.017 PM 02/15/2016,Teleop Enabled,0,FALSE,0,NO ERROR,4020.263672,-4015.576172,4000.000000,4000.000000,Speed,Speed,1.480000,1.180000,1.210000,3.000000,101.000000,1,0,-0.000000,0.000000,1,0.069504,-0.034302,0.000000,-5.902664,27.926102,0.000000,-0.023000,-0.004000,-0.053000,FlatInitial
08:48:59.117 PM 02/15/2016,Teleop Enabled,0,FALSE,0,NO ERROR,4016.015625,-4015.429687,4000.000000,4000.000000,Speed,Speed,1.450000,1.170000,1.060000,3.000000,102.000000,1,0,-0.000000,0.000000,1,0.058426,-0.065781,0.000000,-5.899460,27.923553,0.000000,-0.022000,-0.063000,-0.029000,FlatInitial
08:48:59.219 PM 02/15/2016,Teleop Enabled,0,FALSE,0,NO ERROR,4008.544922,-4011.328125,4000.000000,4000.000000,Speed,Speed,1.420000,1.150000,0.910000,3.000000,101.000000,1,0,-0.000000,0.000000,1,0.049683,-0.005402,0.000000,-5.896790,27.921875,0.000000,0.010000,0.015000,-0.080000,FlatInitial
08:48:59.318 PM 02/15/2016,Teleop Enabled,0,FALSE,0,NO ERROR,4000.341797,-4007.373047,4000.000000,4000.000000,Speed,Speed,1.430000,1.160000,0.860000,3.000000,109.000000,1,0,-0.000000,0.000000,1,0.037918,-0.015366,0.000000,-5.894623,27.921341,0.000000,-0.028000,-0.023000,-0.013000,FlatInitial
08:48:59.419 PM 02/15/2016,Teleop Enabled,0,FALSE,0,NO ERROR,3992.724609,-4006.494141,4000.000000,4000.000000,Speed,Speed,1.460000,1.130000,0.900000,3.000000,103.000000,1,0,-0.000000,0.000000,1,0.000000,0.000000,0.000000,-5.893906,27.920746,0.000000,-0.021000,0.006000,0.026000,FlatInitial
08:48:59.520 PM 02/15/2016,Teleop Enabled,0,FALSE,0,NO ERROR,3984.375000,-4000.488281,4000.000000,4000.000000,Speed,Speed,1.500000,1.110000,0.680000,3.000000,100.000000,1,0,-0.000000,0.000000,1,-0.003220,0.013123,0.000000,-5.894150,27.921127,0.000000,-0.032000,-0.042000,-0.045000,FlatInitial
08:48:59.622 PM 02/15/2016,Teleop Enabled,0,FALSE,0,NO ERROR,3986.718750,-3990.087891,4000.000000,4000.000000,Speed,Speed,1.460000,1.120000,0.790000,3.000000,101.000000,1,0,-0.000000,0.000000,1,0.004822,-0.027298,0.000000,-5.894089,27.920746,0.000000,-0.043000,-0.056000,-0.004000,FlatInitial
08:48:59.722 PM 02/15/2016,Teleop Enabled,0,FALSE,0,NO ERROR,3993.457031,-3987.158203,4000.000000,4000.000000,Speed,Speed,1.470000,1.030000,0.670000,3.000000,102.000000,1,0,-0.000000,0.000000,1,-0.013397,-0.046707,0.000000,-5.894409,27.919220,0.000000,0.038000,-0.060000,0.053000,FlatInitial
08:48:59.822 PM 02/15/2016,Teleop Enabled,0,FALSE,0,NO ERROR,4000.048828,-3994.921875,4000.000000,4000.000000,Speed,Speed,1.440000,1.060000,0.690000,3.000000,101.000000,1,0,-0.000000,0.000000,1,0.000000,-0.059158,0.000000,-5.894440,27.916290,0.000000,-0.006000,0.042000,0.099000,FlatInitial
08:48:59.923 PM 02/15/2016,Teleop Enabled,0,FALSE,0,NO ERROR,4007.373047,-4001.513672,4000.000000,4000.000000,Speed,Speed,1.440000,1.100000,0.710000,3.000000,101.000000,1,0,-0.000000,0.000000,1,0.007248,-0.054092,0.000000,-5.894348,27.913544,0.000000,0.023000,0.004000,-0.076000,FlatInitial
08:49:00.024 PM 02/15/2016,Teleop Enabled,0,FALSE,0,NO ERROR,4013.671875,-4006.494141,4000.000000,4000.000000,Speed,Speed,1.450000,1.070000,0.690000,3.000000,104.000000,1,0,-0.000000,0.000000,1,0.000000,-0.009048,0.000000,-5.893829,27.912750,0.000000,-0.001000,-0.037000,-0.020000,FlatInitial
08:49:00.125 PM 02/15/2016,Teleop Enabled,0,FALSE,0,NO ERROR,4011.621094,-4007.666016,4000.000000,4000.000000,Speed,Speed,1.440000,1.080000,0.580000,3.000000,101.000000,1,0,-0.000000,0.000000,1,-0.003281,-0.027679,0.000000,-5.893799,27.911728,0.000000,0.004000,0.011000,0.063000,FlatInitial
08:49:00.225 PM 02/15/2016,Teleop Enabled,0,FALSE,0,NO ERROR,4006.494141,-4007.958984,4000.000000,4000.000000,Speed,Speed,1.420000,1.040000,0.600000,3.000000,103.000000,1,0,-0.000000,0.000000,1,-0.006500,-0.025208,0.000000,-5.894104,27.910538,0.000000,-0.016000,-0.013000,-0.026000,FlatInitial
08:49:00.325 PM 02/15/2016,Teleop Enabled,0,FALSE,0,NO ERROR,4005.029297,-4006.787109,4000.000000,4000.000000,Speed,Speed,1.420000,1.030000,0.610000,3.000000,102.000000,1,0,-0.000000,0.000000,1,-0.008224,-0.007782,0.000000,-5.894501,27.909317,0.000000,-0.016000,0.021000,0.023000,FlatInitial
08:49:00.427 PM 02/15/2016,Teleop Enabled,0,FALSE,0,NO ERROR,4000.341797,-4008.984375,4000.000000,4000.000000,Speed,Speed,1.430000,1.050000,0.800000,3.000000,106.000000,1,0,-0.000000,0.000000,1,-0.023819,0.017059,0.000000,-5.895294,27.909744,0.000000,0.007000,0.033000,0.033000,FlatInitial
08:49:00.527 PM 02/15/2016,Teleop Enabled,0,FALSE,0,NO ERROR,3999.902344,-4007.812500,4000.000000,4000.000000,Speed,Speed,1.420000,1.010000,0.900000,3.000000,101.000000,1,0,-0.000000,0.000000,1,-0.004120,0.028259,0.000000,-5.896347,27.910858,0.000000,-0.053000,0.031000,-0.047000,FlatInitial
08:49:00.627 PM 02/15/2016,Teleop Enabled,0,FALSE,0,NO ERROR,3998.730469,-4003.417969,4000.000000,4000.000000,Speed,Speed,1.420000,0.980000,1.100000,3.000000,103.000000,1,0,-0.000000,0.000000,1,-0.014404,0.068314,0.000000,-5.897018,27.913498,0.000000,0.026000,0.023000,-0.002000,FlatInitial
08:49:00.727 PM 02/15/2016,Teleop Enabled,0,FALSE,0,NO ERROR,3998.437500,-4000.927734,4000.000000,4000.000000,Speed,Speed,1.420000,1.010000,1.310000,3.000000,100.000000,1,0,-0.000000,0.000000,1,-0.019684,0.119232,0.000000,-5.897751,27.918427,0.000000,0.006000,0.097000,0.050000,FlatInitial
08:49:00.828 PM 02/15/2016,Teleop Enabled,0,FALSE,0,NO ERROR,3996.533203,-4000.195312,4000.000000,4000.000000,Speed,Speed,1.410000,1.010000,1.490000,3.000000,101.000000,1,0,-0.000000,0.000000,1,-0.031235,0.017303,0.000000,-5.899017,27.920181,0.000000,-0.059000,-0.001000,-0.014000,FlatInitial
08:49:00.932 PM 02/15/2016,Teleop Enabled,0,FALSE,0,NO ERROR,3997.705078,-4002.392578,4000.000000,4000.000000,Speed,Speed,1.410000,0.990000,1.640000,3.000000,102.000000,1,0,-0.000000,0.000000,1,-0.044281,0.037445,0.000000,-5.900970,27.921707,0.000000,-0.009000,0.003000,0.041000,FlatInitial
08:49:01.032 PM 02/15/2016,Teleop Enabled,0,FALSE,0,NO ERROR,4002.539062,-4002.392578,4000.000000,4000.000000,Speed,Speed,1.410000,0.970000,1.770000,3.000000,100.000000,1,0,-0.000000,0.000000,1,-0.063629,0.068298,0.000000,-5.903854,27.924377,0.000000,-0.011000,-0.007000,0.043000,FlatInitial
08:49:01.135 PM 02/15/2016,Teleop Enabled,0,FALSE,0,NO ERROR,4004.882812,-3998.144531,4000.000000,4000.000000,Speed,Speed,1.410000,0.970000,1.910000,3.000000,103.000000,1,0,-0.000000,0.000000,1,-0.071198,0.015854,0.000000,-5.907211,27.925446,0.000000,0.035000,0.059000,0.014000,FlatInitial
08:49:01.234 PM 02/15/2016,Teleop Enabled,0,FALSE,0,NO ERROR,4002.978516,-3993.896484,9000.000000,9000.000000,Speed,Speed,1.420000,0.970000,2.080000,4.000000,101.000000,1,0,-0.000000,0.000000,1,-0.075684,0.050995,0.000000,-5.910934,27.927338,0.000000,-0.056000,0.014000,-0.014000,FlatInitial
08:49:01.334 PM 02/15/2016,Teleop Enabled,0,FALSE,0,NO ERROR,3985.693359,-3961.230469,9000.000000,9000.000000,Speed,Speed,1.420000,0.950000,2.180000,4.000000,102.000000,1,0,-0.000000,0.000000,1,-0.089294,0.019333,0.000000,-5.916168,27.927963,0.000000,0.011000,-0.026000,0.027000,FlatInitial
08:49:01.435 PM 02/15/2016,Teleop Enabled,0,FALSE,0,NO ERROR,4856.250000,-4803.515625,9000.000000,9000.000000,Speed,Speed,1.400000,0.980000,2.290000,4.000000,104.000000,1,0,-0.000000,0.000000,1,-0.083221,0.029297,0.000000,-5.919662,27.929337,0.000000,-0.013000,-0.026000,0.046000,FlatInitial
08:49:01.535 PM 02/15/2016,Teleop Enabled,0,FALSE,0,NO ERROR,6183.984375,-6045.117188,9000.000000,9000.000000,Speed,Speed,1.430000,1.010000,2.350000,4.000000,102.000000,1,0,-0.000000,0.000000,1,-0.100433,0.045410,0.000000,-5.924988,27.931030,0.000000,-0.069000,0.089000,-0.213000,FlatInitial
08:49:01.634 PM 02/15/2016,Teleop Enabled,0,FALSE,0,NO ERROR,7293.164062,-6890.039062,9000.000000,9000.000000,Speed,Speed,1.490000,1.030000,2.420000,4.000000,100.000000,1,0,-0.000000,0.000000,1,-0.090210,0.065430,0.000000,-5.928848,27.933578,0.000000,0.001000,-0.022000,-0.178000,FlatInitial
08:49:01.734 PM 02/15/2016,Teleop Enabled,0,FALSE,0,NO ERROR,8054.882812,-7781.835937,9000.000000,9000.000000,Speed,Speed,1.420000,1.230000,2.070000,4.000000,101.000000,1,0,-0.000000,0.000000,1,-0.030762,0.145248,0.000000,-5.932465,27.940964,0.000000,-0.010000,0.002000,-0.134000,FlatInitial
08:49:01.835 PM 02/15/2016,Teleop Enabled,0,FALSE,0,NO ERROR,8717.578125,-8452.734375,9000.000000,9000.000000,Speed,Speed,1.300000,1.020000,2.480000,4.000000,101.000000,1,0,-0.000000,0.000000,1,-0.035446,0.123367,0.000000,-5.934036,27.948029,0.000000,0.020000,0.096000,-0.049000,FlatInitial
08:49:01.936 PM 02/15/2016,Teleop Enabled,0,FALSE,0,NO ERROR,9049.804688,-8783.203125,9000.000000,9000.000000,Speed,Speed,1.200000,1.000000,2.130000,4.000000,102.000000,1,0,-0.000000,0.000000,1,-0.061264,0.054779,0.000000,-5.937195,27.951599,0.000000,-0.072000,-0.137000,-0.047000,FlatInitial
08:49:02.036 PM 02/15/2016,Teleop Enabled,0,FALSE,0,NO ERROR,9195.703125,-8973.046875,9000.000000,9000.000000,Speed,Speed,1.280000,0.930000,1.930000,4.000000,101.000000,1,0,-0.000000,0.000000,1,-0.106918,0.027649,0.000000,-5.941559,27.953445,0.000000,-0.056000,-0.057000,0.008000,FlatInitial
08:49:02.136 PM 02/15/2016,Teleop Enabled,0,FALSE,0,NO ERROR,9239.062500,-8973.046875,9000.000000,9000.000000,Speed,Speed,1.440000,1.060000,1.890000,4.000000,104.000000,1,0,-0.000000,0.000000,1,-0.054153,0.055115,0.000000,-5.945480,27.955734,0.000000,-0.002000,0.304000,0.108000,FlatInitial
08:49:02.235 PM 02/15/2016,Teleop Enabled,0,FALSE,0,NO ERROR,9239.062500,-9095.507812,9000.000000,9000.000000,Speed,Speed,1.410000,1.020000,2.070000,4.000000,101.000000,1,0,-0.000000,0.000000,1,-0.078995,0.086975,0.000000,-5.948883,27.959763,0.000000,0.061000,-0.001000,-0.040000,FlatInitial
08:49:02.336 PM 02/15/2016,Teleop Enabled,0,FALSE,0,NO ERROR,9217.382812,-9152.343750,9000.000000,9000.000000,Speed,Speed,1.380000,1.030000,1.910000,4.000000,103.000000,1,0,-0.000000,0.000000,1,-0.084717,0.038971,0.000000,-5.952957,27.962799,0.000000,-0.001000,-0.174000,-0.097000,FlatInitial
08:49:02.436 PM 02/15/2016,Teleop Enabled,0,FALSE,0,NO ERROR,9174.609375,-9154.101562,9000.000000,9000.000000,Speed,Speed,1.380000,1.050000,1.890000,4.000000,103.000000,1,0,-0.000000,0.000000,1,-0.065720,0.076553,0.000000,-5.956970,27.965561,0.000000,-0.028000,-0.200000,0.030000,FlatInitial
08:49:02.535 PM 02/15/2016,Teleop Enabled,0,FALSE,0,NO ERROR,9138.867188,-9135.351562,9000.000000,9000.000000,Speed,Speed,1.370000,0.960000,2.080000,4.000000,101.000000,1,0,-0.000000,0.000000,1,-0.049789,0.063202,0.000000,-5.960083,27.970291,0.000000,0.082000,0.057000,0.081000,FlatInitial
08:49:02.635 PM 02/15/2016,Teleop Enabled,0,FALSE,0,NO ERROR,9097.265625,-9110.742188,9000.000000,9000.000000,Speed,Speed,1.370000,0.990000,1.970000,4.000000,103.000000,1,0,-0.000000,0.000000,1,-0.045746,0.031509,0.000000,-5.962570,27.972672,0.000000,0.004000,-0.074000,-0.023000,FlatInitial
08:49:02.737 PM 02/15/2016,Teleop Enabled,0,FALSE,0,NO ERROR,9074.414062,-9080.859375,9000.000000,9000.000000,Speed,Speed,1.400000,0.980000,1.960000,4.000000,101.000000,1,0,-0.000000,0.000000,1,-0.070587,0.031784,0.000000,-5.965729,27.974411,0.000000,0.080000,-0.011000,-0.080000,FlatInitial
08:49:02.837 PM 02/15/2016,Teleop Enabled,0,FALSE,0,NO ERROR,9046.289062,-9052.734375,9000.000000,9000.000000,Speed,Speed,1.390000,1.000000,2.130000,4.000000,101.000000,1,0,-0.000000,0.000000,1,0.005157,-0.031143,0.000000,-5.966888,27.974274,0.000000,-0.140000,-0.086000,0.100000,FlatInitial
08:49:02.938 PM 02/15/2016,Teleop Enabled,0,FALSE,0,NO ERROR,9027.539062,-9036.328125,9000.000000,9000.000000,Speed,Speed,1.390000,0.940000,1.930000,4.000000,101.000000,1,0,-0.000000,0.000000,1,-0.015198,-0.059464,0.000000,-5.967224,27.972061,0.000000,0.109000,-0.021000,-0.009000,FlatInitial
08:49:03.037 PM 02/15/2016,Teleop Enabled,0,FALSE,0,NO ERROR,9013.476562,-9021.093750,9000.000000,9000.000000,Speed,Speed,1.380000,0.990000,1.780000,4.000000,101.000000,1,0,-0.000000,0.000000,1,0.010117,-0.062073,0.000000,-5.967239,27.968338,0.000000,-0.037000,0.088000,-0.052000,FlatInitial
08:49:03.138 PM 02/15/2016,Teleop Enabled,0,FALSE,0,NO ERROR,9004.687500,-9012.890625,9000.000000,9000.000000,Speed,Speed,1.360000,0.990000,1.840000,4.000000,101.000000,1,0,-0.000000,0.000000,1,0.034622,-0.095001,0.000000,-5.966049,27.964233,0.000000,0.053000,-0.152000,-0.094000,FlatInitial
08:49:03.239 PM 02/15/2016,Teleop Enabled,0,FALSE,0,NO ERROR,8998.242188,-9012.890625,9000.000000,9000.000000,Speed,Speed,1.380000,0.960000,1.820000,4.000000,101.000000,1,0,-0.000000,0.000000,1,0.055283,-0.119690,0.000000,-5.963776,27.958603,0.000000,-0.023000,0.085000,0.058000,FlatInitial
08:49:03.339 PM 02/15/2016,Teleop Enabled,0,FALSE,0,NO ERROR,8997.656250,-9012.890625,9000.000000,9000.000000,Speed,Speed,1.410000,0.950000,1.650000,4.000000,103.000000,1,0,-0.000000,0.000000,1,0.050217,-0.161667,0.000000,-5.960907,27.951279,0.000000,0.005000,-0.120000,-0.006000,FlatInitial
08:49:03.440 PM 02/15/2016,Teleop Enabled,0,FALSE,0,NO ERROR,8991.796875,-9009.375000,9000.000000,9000.000000,Speed,Speed,1.430000,0.950000,1.800000,4.000000,111.000000,1,0,-0.000000,0.000000,1,0.048370,-0.183380,0.000000,-5.957901,27.940811,0.000000,0.036000,-0.064000,-0.103000,FlatInitial
08:49:03.540 PM 02/15/2016,Teleop Enabled,0,FALSE,0,NO ERROR,8990.625000,-9009.960938,9000.000000,9000.000000,Speed,Speed,1.440000,0.930000,1.780000,4.000000,103.000000,1,0,-0.000000,0.000000,1,0.000000,-0.214691,0.000000,-5.956543,27.930740,0.000000,-0.010000,0.094000,0.022000,FlatInitial
08:49:03.641 PM 02/15/2016,Teleop Enabled,0,FALSE,0,NO ERROR,8992.382812,-9006.445312,9000.000000,9000.000000,Speed,Speed,1.410000,0.970000,1.690000,4.000000,101.000000,1,0,-0.000000,0.000000,1,-0.005554,-0.213226,0.000000,-5.956726,27.922241,0.000000,-0.020000,0.056000,0.016000,FlatInitial
08:49:03.742 PM 02/15/2016,Teleop Enabled,0,FALSE,0,NO ERROR,8996.484375,-9010.546875,9000.000000,9000.000000,Speed,Speed,1.390000,0.960000,1.780000,4.000000,101.000000,1,0,-0.000000,0.000000,1,-0.015182,-0.211716,0.000000,-5.957718,27.909485,0.000000,0.010000,0.123000,0.019000,FlatInitial
08:49:03.842 PM 02/15/2016,Teleop Enabled,0,FALSE,0,NO ERROR,9002.929688,-9012.304688,9000.000000,9000.000000,Speed,Speed,1.380000,0.960000,1.770000,4.000000,101.000000,1,0,-0.000000,0.000000,1,-0.006363,-0.211792,0.000000,-5.957947,27.899139,0.000000,0.030000,-0.186000,-0.140000,FlatInitial
08:49:03.943 PM 02/15/2016,Teleop Enabled,0,FALSE,0,NO ERROR,9012.890625,-9011.132812,9000.000000,9000.000000,Speed,Speed,1.400000,0.960000,1.770000,4.000000,103.000000,1,0,-0.000000,0.000000,1,-0.002792,-0.233078,0.000000,-5.958084,27.887924,0.000000,-0.039000,0.069000,0.037000,FlatInitial
08:49:04.044 PM 02/15/2016,Teleop Enabled,0,FALSE,0,NO ERROR,9016.992188,-9010.546875,9000.000000,9000.000000,Speed,Speed,1.410000,0.950000,1.760000,4.000000,100.000000,1,0,-0.000000,0.000000,1,-0.012878,-0.240204,0.000000,-5.958527,27.875809,0.000000,0.003000,-0.170000,-0.043000,FlatInitial
08:49:04.144 PM 02/15/2016,Teleop Enabled,0,FALSE,0,NO ERROR,9015.234375,-9005.859375,9000.000000,9000.000000,Speed,Speed,1.410000,0.970000,1.690000,4.000000,103.000000,1,0,-0.000000,0.000000,1,0.000000,-0.225098,0.000000,-5.958435,27.864151,0.000000,0.001000,0.213000,0.070000,FlatInitial
08:49:04.245 PM 02/15/2016,Teleop Enabled,0,FALSE,0,NO ERROR,9009.375000,-9004.687500,9000.000000,9000.000000,Speed,Speed,1.410000,0.980000,1.710000,4.000000,101.000000,1,0,-0.000000,0.000000,1,-0.009903,-0.214890,0.000000,-5.958679,27.852859,0.000000,-0.043000,0.225000,0.049000,FlatInitial
08:49:04.345 PM 02/15/2016,Teleop Enabled,0,FALSE,0,NO ERROR,9004.687500,-9005.273438,9000.000000,9000.000000,Speed,Speed,1.420000,0.980000,1.710000,4.000000,112.000000,1,0,-0.000000,0.000000,1,-0.010620,-0.202637,0.000000,-5.959427,27.842560,0.000000,-0.037000,0.233000,0.094000,FlatInitial
08:49:04.446 PM 02/15/2016,Teleop Enabled,0,FALSE,0,NO ERROR,9004.101562,-9004.687500,9000.000000,9000.000000,Speed,Speed,1.420000,0.980000,1.700000,4.000000,101.000000,1,0,-0.000000,0.000000,1,-0.032303,-0.189774,0.000000,-5.960754,27.830399,0.000000,-0.028000,0.297000,0.065000,FlatInitial
08:49:04.546 PM 02/15/2016,Teleop Enabled,0,FALSE,0,NO ERROR,9001.171875,-8999.414062,9000.000000,9000.000000,Speed,Speed,1.410000,1.010000,1.580000,4.000000,102.000000,1,0,-0.000000,0.000000,1,-0.034958,-0.174561,0.000000,-5.962006,27.823120,0.000000,-0.005000,0.322000,0.105000,FlatInitial
08:49:04.646 PM 02/15/2016,Teleop Enabled,0,FALSE,0,NO ERROR,8997.070312,-8991.796875,9000.000000,9000.000000,Speed,Speed,1.410000,1.010000,1.680000,4.000000,101.000000,1,0,-0.000000,0.000000,1,-0.001663,-0.128540,0.000000,-5.962204,27.814316,0.000000,-0.029000,0.306000,0.063000,FlatInitial
08:49:04.747 PM 02/15/2016,Teleop Enabled,0,FALSE,0,NO ERROR,8993.554688,-8983.007812,9000.000000,9000.000000,Speed,Speed,1.410000,1.020000,1.710000,4.000000,102.000000,1,0,-0.000000,0.000000,1,-0.031525,-0.097778,0.000000,-5.963074,27.808823,0.000000,-0.064000,-0.215000,-0.023000,FlatInitial
08:49:04.847 PM 02/15/2016,Teleop Enabled,0,FALSE,0,NO ERROR,8993.554688,-8976.562500,9000.000000,9000.000000,Speed,Speed,1.410000,1.010000,1.670000,4.000000,101.000000,1,0,-0.000000,0.000000,1,0.000000,-0.081909,0.000000,-5.964554,27.805313,0.000000,-0.009000,-0.214000,-0.069000,FlatInitial
08:49:04.947 PM 02/15/2016,Teleop Enabled,0,FALSE,0,NO ERROR,8995.898438,-8981.835938,9000.000000,9000.000000,Speed,Speed,1.410000,0.990000,1.590000,4.000000,102.000000,1,0,-0.000000,0.000000,1,-0.022446,-0.039337,0.000000,-5.965408,27.801910,0.000000,-0.028000,-0.176000,-0.044000,FlatInitial
08:49:05.048 PM 02/15/2016,Teleop Enabled,0,FALSE,0,NO ERROR,8994.140625,-8989.453125,9000.000000,9000.000000,Speed,Speed,1.410000,1.000000,1.730000,4.000000,102.000000,1,0,-0.000000,0.000000,1,-0.040482,0.009384,0.000000,-5.967117,27.801605,0.000000,0.018000,0.279000,0.031000,FlatInitial
08:49:05.150 PM 02/15/2016,Teleop Enabled,0,FALSE,0,NO ERROR,8997.070312,-8995.898438,9000.000000,9000.000000,Speed,Speed,1.400000,0.980000,1.660000,4.000000,104.000000,1,0,-0.000000,0.000000,1,0.000000,0.025772,0.000000,-5.968323,27.802765,0.000000,-0.007000,-0.218000,-0.090000,FlatInitial
08:49:05.250 PM 02/15/2016,Teleop Enabled,0,FALSE,0,NO ERROR,9003.515625,-9001.757812,9000.000000,9000.000000,Speed,Speed,1.410000,1.010000,1.720000,4.000000,101.000000,1,0,-0.000000,0.000000,1,0.000000,0.049606,0.000000,-5.968491,27.804932,0.000000,-0.013000,-0.232000,-0.097000,FlatInitial
08:49:05.349 PM 02/15/2016,Teleop Enabled,0,FALSE,0,NO ERROR,9008.203125,-9011.132812,9000.000000,9000.000000,Speed,Speed,1.410000,0.990000,1.660000,4.000000,101.000000,1,0,-0.000000,0.000000,1,-0.003769,0.071762,0.000000,-5.968414,27.808365,0.000000,-0.059000,-0.275000,-0.003000,FlatInitial
08:49:05.450 PM 02/15/2016,Teleop Enabled,0,FALSE,0,NO ERROR,9012.890625,-9018.164062,9000.000000,9000.000000,Speed,Speed,1.390000,0.980000,1.740000,4.000000,102.000000,1,0,-0.000000,0.000000,1,-0.026581,0.121674,0.000000,-5.969208,27.813446,0.000000,-0.040000,-0.273000,-0.087000,FlatInitial
08:49:05.550 PM 02/15/2016,Teleop Enabled,0,FALSE,0,NO ERROR,9012.304688,-9019.335938,9000.000000,9000.000000,Speed,Speed,1.390000,0.980000,1.590000,4.000000,101.000000,1,0,-0.000000,0.000000,1,0.000000,0.164810,0.000000,-5.971252,27.822250,0.000000,0.003000,0.328000,0.066000,FlatInitial
08:49:05.651 PM 02/15/2016,Teleop Enabled,0,FALSE,0,NO ERROR,9012.304688,-9015.234375,9000.000000,9000.000000,Speed,Speed,1.390000,1.010000,1.710000,4.000000,104.000000,1,0,-0.000000,0.000000,1,-0.007095,0.216248,0.000000,-5.971497,27.829987,0.000000,-0.037000,0.341000,0.133000,FlatInitial
08:49:05.751 PM 02/15/2016,Teleop Enabled,0,FALSE,0,NO ERROR,9009.960938,-9008.789062,9000.000000,9000.000000,Speed,Speed,1.400000,0.990000,1.620000,4.000000,102.000000,1,0,-0.000000,0.000000,1,0.001999,0.250656,0.000000,-5.971756,27.841858,0.000000,0.021000,-0.259000,-0.039000,FlatInitial
08:49:05.851 PM 02/15/2016,Teleop Enabled,0,FALSE,0,NO ERROR,9009.960938,-9002.929688,9000.000000,9000.000000,Speed,Speed,1.410000,0.960000,1.570000,4.000000,102.000000,1,0,-0.000000,0.000000,1,-0.002960,0.292084,0.000000,-5.971542,27.855423,0.000000,0.009000,-0.238000,-0.049000,FlatInitial
08:49:05.951 PM 02/15/2016,Teleop Enabled,0,FALSE,0,NO ERROR,9008.789062,-9002.929688,9000.000000,9000.000000,Speed,Speed,1.410000,1.010000,1.600000,4.000000,102.000000,1,0,-0.000000,0.000000,1,0.014786,0.340363,0.000000,-5.971252,27.871521,0.000000,-0.008000,-0.229000,-0.056000,FlatInitial
08:49:06.051 PM 02/15/2016,Teleop Enabled,0,FALSE,0,NO ERROR,9007.031250,-9000.585938,9000.000000,9000.000000,Speed,Speed,1.400000,0.990000,1.550000,4.000000,106.000000,1,0,-0.000000,0.000000,1,0.018219,0.383911,0.000000,-5.970612,27.889816,0.000000,0.008000,-0.198000,-0.012000,FlatInitial
08:49:06.153 PM 02/15/2016,Teleop Enabled,0,FALSE,0,NO ERROR,9002.929688,-9000.000000,9000.000000,9000.000000,Speed,Speed,1.400000,1.000000,1.560000,4.000000,100.000000,1,0,-0.000000,0.000000,1,0.031647,0.446854,0.000000,-5.969223,27.910950,0.000000,0.024000,0.375000,0.135000,FlatInitial
08:49:06.254 PM 02/15/2016,Teleop Enabled,0,FALSE,0,NO ERROR,8999.414062,-8998.828125,9000.000000,9000.000000,Speed,Speed,1.390000,1.010000,1.570000,4.000000,104.000000,1,0,-0.000000,0.000000,1,0.040787,0.502960,0.000000,-5.967377,27.935226,0.000000,0.057000,0.351000,0.123000,FlatInitial
08:49:06.355 PM 02/15/2016,Teleop Enabled,0,FALSE,0,NO ERROR,8994.140625,-8998.828125,9000.000000,9000.000000,Speed,Speed,1.390000,1.030000,1.610000,4.000000,102.000000,1,0,-0.000000,0.000000,1,0.041855,0.562363,0.000000,-5.965393,27.962128,0.000000,-0.010000,-0.204000,-0.048000,FlatInitial
08:49:06.456 PM 02/15/2016,Teleop Enabled,0,FALSE,0,NO ERROR,8991.210938,-8995.312500,9000.000000,9000.000000,Speed,Speed,1.390000,1.010000,1.620000,4.000000,102.000000,1,0,-0.000000,0.000000,1,0.048996,0.618271,0.000000,-5.963028,27.992188,0.000000,0.061000,0.310000,0.092000,FlatInitial
08:49:06.557 PM 02/15/2016,Teleop Enabled,0,FALSE,0,NO ERROR,8988.867188,-8997.656250,9000.000000,9000.000000,Speed,Speed,1.400000,1.050000,1.630000,4.000000,102.000000,1,0,-0.000000,0.000000,1,0.047592,0.664963,0.000000,-5.960693,28.024643,0.000000,-0.067000,-0.232000,-0.013000,FlatInitial
08:49:06.658 PM 02/15/2016,Teleop Enabled,0,FALSE,0,NO ERROR,8996.484375,-9001.757812,9000.000000,9000.000000,Speed,Speed,1.390000,1.040000,1.650000,4.000000,100.000000,1,0,-0.000000,0.000000,1,0.003952,0.733948,0.000000,-5.959045,28.060028,0.000000,-0.059000,-0.240000,-0.055000,FlatInitial
08:49:06.759 PM 02/15/2016,Teleop Enabled,0,FALSE,0,NO ERROR,9002.929688,-9006.445312,9000.000000,9000.000000,Speed,Speed,1.380000,1.040000,1.690000,4.000000,103.000000,1,0,-0.000000,0.000000,1,-0.003067,0.791138,0.000000,-5.958923,28.098450,0.000000,0.095000,0.299000,0.100000,FlatInitial
08:49:06.859 PM 02/15/2016,Teleop Enabled,0,FALSE,0,NO ERROR,9007.617188,-9011.132812,9000.000000,9000.000000,Speed,Speed,1.390000,1.010000,1.640000,4.000000,102.000000,1,0,-0.000000,0.000000,1,0.001541,0.845184,0.000000,-5.958939,28.139328,0.000000,-0.050000,-0.253000,-0.003000,FlatInitial
08:49:06.960 PM 02/15/2016,Teleop Enabled,0,FALSE,0,NO ERROR,9009.375000,-9009.375000,9000.000000,9000.000000,Speed,Speed,1.390000,1.020000,1.690000,4.000000,103.000000,1,0,-0.000000,0.000000,1,-0.000290,0.888565,0.000000,-5.958878,28.182800,0.000000,0.044000,0.283000,0.134000,FlatInitial
08:49:07.060 PM 02/15/2016,Teleop Enabled,0,FALSE,0,NO ERROR,9011.132812,-9012.304688,9000.000000,9000.000000,Speed,Speed,1.390000,0.990000,1.630000,4.000000,102.000000,1,0,-0.000000,0.000000,1,0.005371,0.932281,0.000000,-5.958771,28.228302,0.000000,0.019000,-0.212000,-0.080000,FlatInitial
08:49:07.162 PM 02/15/2016,Teleop Enabled,0,FALSE,0,NO ERROR,9009.960938,-9009.960938,9000.000000,9000.000000,Speed,Speed,1.390000,1.000000,1.630000,4.000000,102.000000,1,0,-0.000000,0.000000,1,0.039246,0.965454,0.000000,-5.957169,28.285309,0.000000,0.071000,0.303000,0.108000,FlatInitial
08:49:07.262 PM 02/15/2016,Teleop Enabled,0,FALSE,0,NO ERROR,9008.203125,-9005.859375,9000.000000,9000.000000,Speed,Speed,1.380000,1.030000,1.610000,4.000000,100.000000,1,0,-0.000000,0.000000,1,0.044785,0.983246,0.000000,-5.955551,28.324432,0.000000,-0.020000,-0.142000,-0.069000,FlatInitial
08:49:07.363 PM 02/15/2016,Teleop Enabled,0,FALSE,0,NO ERROR,9007.617188,-9000.000000,9000.000000,9000.000000,Speed,Speed,1.380000,1.010000,1.630000,4.000000,101.000000,1,0,-0.000000,0.000000,1,0.063751,1.006180,0.000000,-5.952728,28.374512,0.000000,0.055000,0.201000,0.131000,FlatInitial
08:49:07.464 PM 02/15/2016,Teleop Enabled,0,FALSE,0,NO ERROR,9007.617188,-8999.414062,9000.000000,9000.000000,Speed,Speed,1.380000,1.010000,1.640000,4.000000,102.000000,1,0,-0.000000,0.000000,1,0.086472,1.017303,0.000000,-5.948151,28.435333,0.000000,-0.027000,-0.119000,-0.043000,FlatInitial
08:49:07.565 PM 02/15/2016,Teleop Enabled,0,FALSE,0,NO ERROR,9004.687500,-8998.242188,9000.000000,9000.000000,Speed,Speed,1.380000,1.020000,1.640000,4.000000,103.000000,1,0,-0.000000,0.000000,1,0.111130,1.025620,0.000000,-5.943054,28.486618,0.000000,0.099000,0.169000,0.101000,FlatInitial
08:49:07.666 PM 02/15/2016,Teleop Enabled,0,FALSE,0,NO ERROR,9000.000000,-8995.312500,9000.000000,9000.000000,Speed,Speed,1.380000,1.040000,1.630000,4.000000,104.000000,1,0,-0.000000,0.000000,1,0.123947,1.028824,0.000000,-5.937073,28.538101,0.000000,-0.064000,-0.179000,-0.035000,FlatInitial
08:49:07.766 PM 02/15/2016,Teleop Enabled,0,FALSE,0,NO ERROR,8996.484375,-8991.796875,9000.000000,9000.000000,Speed,Speed,1.370000,1.030000,1.690000,4.000000,101.000000,1,0,-0.000000,0.000000,1,0.018448,1.031113,0.000000,-5.935501,28.589859,0.000000,0.131000,0.119000,0.085000,FlatInitial
08:49:07.870 PM 02/15/2016,Teleop Enabled,0,FALSE,0,NO ERROR,8995.898438,-8990.039062,9000.000000,9000.000000,Speed,Speed,1.390000,1.030000,1.610000,4.000000,102.000000,1,0,-0.000000,0.000000,1,0.039932,1.014008,0.000000,-5.933838,28.640930,0.000000,-0.091000,-0.156000,-0.043000,FlatInitial
08:49:07.970 PM 02/15/2016,Teleop Enabled,0,FALSE,0,NO ERROR,8992.968750,-8991.210938,9000.000000,9000.000000,Speed,Speed,1.380000,1.030000,1.640000,4.000000,102.000000,1,0,-0.000000,0.000000,1,0.063446,1.016251,0.000000,-5.931213,28.691803,0.000000,0.160000,0.141000,0.057000,FlatInitial
08:49:08.070 PM 02/15/2016,Teleop Enabled,0,FALSE,0,NO ERROR,8995.312500,-8995.312500,9000.000000,9000.000000,Speed,Speed,1.370000,1.040000,1.680000,4.000000,102.000000,1,0,-0.000000,0.000000,1,0.109344,1.018524,0.000000,-5.926727,28.742661,0.000000,-0.047000,-0.194000,-0.079000,FlatInitial
08:49:08.172 PM 02/15/2016,Teleop Enabled,0,FALSE,0,NO ERROR,8997.656250,-9000.585938,9000.000000,9000.000000,Speed,Speed,1.370000,1.060000,1.670000,4.000000,101.000000,1,0,-0.000000,0.000000,1,0.120468,1.017761,0.000000,-5.920914,28.793289,0.000000,0.098000,0.125000,0.063000,FlatInitial
08:49:08.272 PM 02/15/2016,Teleop Disabled,0,FALSE,0,NO ERROR,8995.312500,-9002.929688,9000.000000,9000.000000,Speed,Speed,1.370000,1.050000,1.700000,4.000000,101.000000,1,0,-0.000000,0.000000,1,0.136948,1.019012,0.000000,-5.914490,28.844147,0.000000,-0.046000,-0.186000,-0.065000,FlatInitial
08:49:08.373 PM 02/15/2016,Teleop Disabled,0,FALSE,0,NO ERROR,8858.789062,-8845.898438,9000.000000,9000.000000,Speed,Speed,1.370000,1.050000,1.670000,4.000000,103.000000,1,0,-0.000000,0.000000,1,0.154556,0.999283,0.000000,-5.906937,28.894409,0.000000,0.047000,-0.279000,-0.062000,FlatInitial
08:49:08.473 PM 02/15/2016,Teleop Disabled,0,FALSE,0,NO ERROR,8472.656250,-8357.226562,9000.000000,9000.000000,Speed,Speed,1.370000,1.090000,1.680000,4.000000,100.000000,1,0,-0.000000,0.000000,1,0.158875,1.026123,0.000000,-5.898712,28.944824,0.000000,0.020000,0.206000,0.069000,FlatInitial
08:49:08.575 PM 02/15/2016,Teleop Disabled,0,FALSE,0,NO ERROR,8150.390625,-7818.750000,9000.000000,9000.000000,Speed,Speed,1.370000,1.060000,1.870000,4.000000,102.000000,1,0,-0.000000,0.000000,1,0.148422,1.044785,0.000000,-5.890778,28.996536,0.000000,0.087000,0.010000,-0.006000,FlatInitial
08:49:08.675 PM 02/15/2016,Teleop Disabled,0,FALSE,0,NO ERROR,7757.226562,-7273.828125,9000.000000,9000.000000,Speed,Speed,1.380000,1.000000,1.910000,4.000000,101.000000,1,0,-0.000000,0.000000,1,0.149704,1.061813,0.000000,-5.883499,29.049133,0.000000,-0.155000,-0.010000,0.090000,FlatInitial
08:49:08.774 PM 02/15/2016,Teleop Disabled,0,FALSE,0,NO ERROR,7370.507812,-6728.320312,9000.000000,9000.000000,Speed,Speed,1.380000,0.990000,1.940000,4.000000,101.000000,1,0,-0.000000,0.000000,1,0.108459,1.072098,0.000000,-5.877060,29.102509,0.000000,0.158000,0.071000,-0.118000,FlatInitial
08:49:08.875 PM 02/15/2016,Teleop Disabled,0,FALSE,0,NO ERROR,6983.789062,-6298.828125,9000.000000,9000.000000,Speed,Speed,1.350000,0.980000,1.900000,4.000000,102.000000,1,0,-0.000000,0.000000,1,0.108856,1.049774,0.000000,-5.871231,29.156479,0.000000,0.005000,0.130000,-0.240000,FlatInitial
08:49:08.975 PM 02/15/2016,Teleop Disabled,0,FALSE,0,NO ERROR,6605.273438,-6298.828125,9000.000000,9000.000000,Speed,Speed,1.350000,1.050000,1.920000,4.000000,102.000000,1,0,-0.000000,0.000000,1,0.158218,1.113602,0.000000,-5.864624,29.211243,0.000000,0.032000,-0.050000,-0.021000,FlatInitial
08:49:09.077 PM 02/15/2016,Teleop Disabled,0,FALSE,0,NO ERROR,6239.648438,-5775.000000,9000.000000,9000.000000,Speed,Speed,1.360000,1.010000,1.960000,4.000000,101.000000,1,0,-0.000000,0.000000,1,0.133591,1.058105,0.000000,-5.857040,29.265289,0.000000,0.021000,-0.020000,-0.102000,FlatInitial
08:49:09.178 PM 02/15/2016,Teleop Disabled,0,FALSE,0,NO ERROR,6239.648438,-5266.992188,9000.000000,9000.000000,Speed,Speed,1.350000,1.000000,2.000000,4.000000,102.000000,1,0,-0.000000,0.000000,1,0.000000,1.081757,0.000000,-5.851974,29.329376,0.000000,-0.013000,-0.088000,-0.070000,FlatInitial
08:49:09.278 PM 02/15/2016,Teleop Disabled,0,FALSE,0,NO ERROR,5953.710938,-4769.531250,9000.000000,9000.000000,Speed,Speed,1.340000,1.020000,1.950000,4.000000,102.000000,1,0,-0.000000,0.000000,1,-0.045898,1.081497,0.000000,-5.852966,29.382812,0.000000,-0.085000,-0.002000,-0.162000,FlatInitial
08:49:09.378 PM 02/15/2016,Teleop Disabled,0,TRUE,-44007,<LOCATION>Finish.vi<CALLSTACK>Finish.vi< <Robot Main.vi,5602.148438,-4288.476562,9000.000000,9000.000000,Speed,Speed,1.350000,1.010000,1.860000,4.000000,102.000000,1,0,-0.000000,0.000000,1,0.018585,1.077545,0.000000,-5.853119,29.436951,0.000000,0.028000,-0.078000,0.124000,FlatInitial