Time,RobotMode,AutoToRun,ErrorStatus, ErrorCode,ErrorSource,ActualRPM1,ActualRPM2,DesiredRPM1,DesiredRPM2,ControlMode1,ControlMode2,NavXYaw,NavXRoll,NavXPitch,ShooterState,LoopTime,IsLevel,IsAutoTargeting,LeftMotorOutput,RightMotorOutput,IsHaloDrive,NavXVelocityX,NavXVelocityY,NavXVelocityZ,NavXDisplacementX,NavXDisplacementY,NavXDisplacementZ,NavXAccelerationX,NavXAccelerationY,NavXAccelerationZ,AutoDefendState
03:15:03.202 PM 02/14/2016,Autonomous Disabled,0,TRUE,91,Variant To Data in WPI_DigitalInputRefNum Registry Get.vi->Periodic Tasks.vi->Robot Main.vi,4000.634766,-3997.851562,4000.000000,4000.000000,Speed,Speed,-0.220000,1.230000,1.310000,3.000000,101.000000,1,0,-0.000558,0.001550,0,0.027710,-0.044891,0.000000,42.167740,-4.517776,0.000000,-0.003000,-0.048000,0.152000,FlatInitial
03:15:03.302 PM 02/14/2016,Teleop Disabled,0,TRUE,-44007,<LOCATION>WPI_DigitalInputRefNum Registry Get.vi<CALLSTACK>WPI_DigitalInputRefNum Registry Get.vi< <Periodic Tasks.vi< <Robot Main.vi,0.000000,0.000000,0.000000,0.000000,Speed,Speed,-0.400000,1.160000,1.850000,0.000000,4771902.000000,1,0,-0.000558,0.001550,0,0.000000,0.000000,0.000000,42.167816,-4.516937,0.000000,0.001000,0.003000,-0.001000,FlatInitial
03:15:03.403 PM 02/14/2016,Teleop Disabled,0,FALSE,0,NO ERROR,0.000000,0.000000,0.000000,0.000000,Speed,Speed,0.000000,1.170000,1.850000,0.000000,102.000000,1,0,-0.000558,0.001550,0,0.000000,0.000000,0.000000,42.167816,-4.516937,0.000000,0.003000,0.000000,-0.001000,FlatInitial
03:15:03.503 PM 02/14/2016,Teleop Disabled,0,FALSE,0,NO ERROR,0.000000,0.000000,0.000000,0.000000,Speed,Speed,0.000000,1.160000,1.850000,0.000000,102.000000,1,0,-0.000558,0.001550,0,0.000000,0.000000,0.000000,42.167816,-4.516937,0.000000,0.000000,0.000000,0.003000,FlatInitial
03:15:03.603 PM 02/14/2016,Teleop Disabled,0,FALSE,0,NO ERROR,0.000000,0.000000,0.000000,0.000000,Speed,Speed,0.000000,1.160000,1.860000,0.000000,102.000000,1,0,-0.000558,0.001550,0,0.000000,0.000000,0.000000,42.167816,-4.516937,0.000000,-0.003000,0.000000,0.000000,FlatInitial
03:15:03.704 PM 02/14/2016,Teleop Disabled,0,FALSE,0,NO ERROR,0.000000,0.000000,0.000000,0.000000,Speed,Speed,0.000000,1.160000,1.860000,0.000000,102.000000,1,0,-0.000558,0.001550,0,0.000000,0.000000,0.000000,42.167816,-4.516937,0.000000,0.000000,0.000000,0.000000,FlatInitial
03:15:03.804 PM 02/14/2016,Teleop Disabled,0,FALSE,0,NO ERROR,0.000000,0.000000,0.000000,0.000000,Speed,Speed,0.000000,1.150000,1.860000,0.000000,102.000000,1,0,-0.000558,0.001550,0,0.000000,0.000000,0.000000,42.167816,-4.516937,0.000000,0.000000,0.000000,-0.001000,FlatInitial
03:15:03.905 PM 02/14/2016,Teleop Disabled,0,FALSE,0,NO ERROR,0.000000,0.000000,0.000000,0.000000,Speed,Speed,0.000000,1.160000,1.860000,0.000000,101.000000,1,0,-0.000558,0.001550,0,0.000000,0.000000,0.000000,42.167816,-4.516937,0.000000,0.000000,0.003000,-0.002000,FlatInitial
03:15:04.005 PM 02/14/2016,Teleop Disabled,0,FALSE,0,NO ERROR,0.000000,0.000000,0.000000,0.000000,Speed,Speed,0.000000,1.160000,1.860000,0.000000,101.000000,1,0,-0.000558,0.001550,0,0.000000,0.000000,0.000000,42.167816,-4.516937,0.000000,0.000000,0.002000,0.000000,FlatInitial
03:15:04.105 PM 02/14/2016,Teleop Disabled,0,FALSE,0,NO ERROR,0.000000,0.000000,0.000000,0.000000,Speed,Speed,0.000000,1.160000,1.860000,0.000000,102.000000,1,0,-0.000558,0.001550,0,0.000000,0.000000,0.000000,42.167816,-4.516937,0.000000,-0.001000,0.000000,0.000000,FlatInitial
03:15:04.205 PM 02/14/2016,Teleop Disabled,0,FALSE,0,NO ERROR,0.000000,0.000000,0.000000,0.000000,Speed,Speed,0.000000,1.160000,1.860000,0.000000,102.000000,1,0,-0.000558,0.001550,0,0.000000,0.000000,0.000000,42.167816,-4.516937,0.000000,0.000000,-0.001000,0.001000,FlatInitial
03:15:04.305 PM 02/14/2016,Teleop Disabled,0,FALSE,0,NO ERROR,0.000000,0.000000,0.000000,0.000000,Speed,Speed,0.000000,1.150000,1.860000,0.000000,101.000000,1,0,-0.000558,0.001550,0,0.000000,0.000000,0.000000,42.167816,-4.516937,0.000000,0.001000,0.000000,0.002000,FlatInitial
03:15:04.405 PM 02/14/2016,Teleop Disabled,0,FALSE,0,NO ERROR,0.000000,0.000000,0.000000,0.000000,Speed,Speed,0.000000,1.160000,1.850000,0.000000,101.000000,1,0,-0.000558,0.001550,0,0.000000,0.000000,0.000000,42.167816,-4.516937,0.000000,0.001000,0.000000,0.001000,FlatInitial
03:15:04.505 PM 02/14/2016,Teleop Disabled,0,FALSE,0,NO ERROR,0.000000,0.000000,0.000000,0.000000,Speed,Speed,0.000000,1.160000,1.850000,0.000000,102.000000,1,0,-0.000558,0.001550,0,0.000000,0.000000,0.000000,42.167816,-4.516937,0.000000,0.000000,-0.001000,0.005000,FlatInitial
03:15:04.605 PM 02/14/2016,Teleop Disabled,0,FALSE,0,NO ERROR,0.000000,0.000000,0.000000,0.000000,Speed,Speed,0.000000,1.160000,1.850000,0.000000,102.000000,1,0,-0.000558,0.001550,0,0.000000,0.000000,0.000000,42.167816,-4.516937,0.000000,0.001000,0.000000,0.000000,FlatInitial
03:15:04.705 PM 02/14/2016,Teleop Disabled,0,FALSE,0,NO ERROR,0.000000,0.000000,0.000000,0.000000,Speed,Speed,0.000000,1.160000,1.840000,0.000000,102.000000,1,0,-0.000558,0.001550,0,0.000000,0.000000,0.000000,42.167816,-4.516937,0.000000,-0.002000,0.000000,-0.001000,FlatInitial
03:15:04.805 PM 02/14/2016,Teleop Disabled,0,FALSE,0,NO ERROR,0.000000,0.000000,0.000000,0.000000,Speed,Speed,0.000000,1.160000,1.840000,0.000000,102.000000,1,0,-0.000558,0.001550,0,0.000000,0.000000,0.000000,42.167816,-4.516937,0.000000,0.000000,0.000000,-0.003000,FlatInitial
03:15:04.906 PM 02/14/2016,Teleop Disabled,0,FALSE,0,NO ERROR,0.000000,0.000000,0.000000,0.000000,Speed,Speed,0.000000,1.160000,1.840000,0.000000,102.000000,1,0,-0.000558,0.001550,0,0.000000,0.000000,0.000000,42.167816,-4.516937,0.000000,0.001000,0.000000,0.000000,FlatInitial
03:15:05.006 PM 02/14/2016,Teleop Disabled,0,FALSE,0,NO ERROR,0.000000,0.000000,0.000000,0.000000,Speed,Speed,0.000000,1.160000,1.850000,0.000000,103.000000,1,0,-0.000558,0.001550,0,0.000000,0.000000,0.000000,42.167816,-4.516937,0.000000,0.001000,-0.005000,0.027000,FlatInitial
03:15:05.106 PM 02/14/2016,Teleop Disabled,0,FALSE,0,NO ERROR,0.000000,0.000000,0.000000,0.000000,Speed,Speed,0.000000,1.160000,1.850000,0.000000,101.000000,1,0,-0.000558,0.001550,0,0.000000,0.000000,0.000000,42.167816,-4.516937,0.000000,0.006000,-0.004000,-0.003000,FlatInitial
03:15:05.206 PM 02/14/2016,Teleop Disabled,0,FALSE,0,NO ERROR,0.000000,0.000000,0.000000,0.000000,Speed,Speed,0.000000,1.160000,1.850000,0.000000,102.000000,1,0,-0.000558,0.001550,0,0.000000,0.000000,0.000000,42.167816,-4.516937,0.000000,0.000000,0.004000,-0.001000,FlatInitial
03:15:05.307 PM 02/14/2016,Teleop Disabled,0,FALSE,0,NO ERROR,0.000000,0.000000,0.000000,0.000000,Speed,Speed,0.000000,1.160000,1.850000,0.000000,102.000000,1,0,-0.000558,0.001550,0,0.000000,0.000000,0.000000,42.167816,-4.516937,0.000000,0.000000,-0.001000,0.004000,FlatInitial
03:15:05.406 PM 02/14/2016,Teleop Disabled,0,FALSE,0,NO ERROR,0.000000,0.000000,0.000000,0.000000,Speed,Speed,0.000000,1.160000,1.850000,0.000000,101.000000,1,0,-0.000558,0.001550,0,0.000000,0.000000,0.000000,42.167816,-4.516937,0.000000,0.000000,0.001000,0.003000,FlatInitial
03:15:05.507 PM 02/14/2016,Teleop Disabled,0,FALSE,0,NO ERROR,0.000000,0.000000,0.000000,0.000000,Speed,Speed,0.000000,1.160000,1.850000,0.000000,102.000000,1,0,-0.000558,0.001550,0,0.000000,0.000000,0.000000,42.167816,-4.516937,0.000000,-0.002000,-0.001000,-0.003000,FlatInitial
03:15:05.606 PM 02/14/2016,Teleop Disabled,0,FALSE,0,NO ERROR,0.000000,0.000000,0.000000,0.000000,Speed,Speed,0.000000,1.160000,1.850000,0.000000,101.000000,1,0,-0.000558,0.001550,0,0.000000,0.000000,0.000000,42.167816,-4.516937,0.000000,0.000000,0.000000,0.001000,FlatInitial
03:15:05.707 PM 02/14/2016,Teleop Disabled,0,FALSE,0,NO ERROR,0.000000,0.000000,0.000000,0.000000,Speed,Speed,0.010000,1.160000,1.850000,0.000000,101.000000,1,0,-0.000558,0.001550,0,0.000000,0.000000,0.000000,42.167816,-4.516937,0.000000,-0.001000,0.001000,0.000000,FlatInitial
03:15:05.807 PM 02/14/2016,Teleop Enabled,0,FALSE,0,NO ERROR,0.000000,-1.171875,0.000000,0.000000,Speed,Speed,0.010000,1.160000,1.850000,0.000000,101.000000,1,0,-0.000558,0.001550,0,0.000000,0.000000,0.000000,42.167816,-4.516937,0.000000,0.015000,0.012000,-0.014000,FlatInitial
03:15:05.907 PM 02/14/2016,Teleop Enabled,0,FALSE,0,NO ERROR,0.000000,1.318359,0.000000,0.000000,Speed,Speed,0.020000,1.150000,1.850000,0.000000,104.000000,1,0,-0.000558,0.001550,0,-0.008240,0.020599,0.000000,42.167633,-4.516525,0.000000,0.001000,0.026000,0.021000,FlatInitial
03:15:06.007 PM 02/14/2016,Teleop Enabled,0,FALSE,0,NO ERROR,0.000000,0.000000,0.000000,0.000000,Speed,Speed,0.060000,1.150000,2.060000,0.000000,102.000000,1,0,-0.000558,0.001550,0,0.000000,-0.010117,0.000000,42.167633,-4.516113,0.000000,-0.020000,-0.051000,0.035000,FlatInitial
03:15:06.107 PM 02/14/2016,Teleop Enabled,0,FALSE,0,NO ERROR,0.000000,0.000000,0.000000,0.000000,Speed,Speed,0.110000,1.130000,1.850000,0.000000,102.000000,1,0,-0.000558,0.001550,0,0.000000,0.000000,0.000000,42.167480,-4.516937,0.000000,0.002000,-0.005000,0.007000,FlatInitial
03:15:06.208 PM 02/14/2016,Teleop Enabled,0,FALSE,0,NO ERROR,0.000000,0.000000,0.000000,0.000000,Speed,Speed,0.070000,1.130000,1.980000,0.000000,102.000000,1,0,-0.000558,0.001550,0,0.000000,0.000000,0.000000,42.167480,-4.516937,0.000000,0.001000,-0.002000,0.005000,FlatInitial
03:15:06.309 PM 02/14/2016,Teleop Enabled,0,FALSE,0,NO ERROR,0.000000,0.000000,0.000000,0.000000,Speed,Speed,0.120000,1.130000,1.880000,0.000000,102.000000,1,0,-0.000558,0.001550,0,0.000000,0.004105,0.000000,42.167480,-4.516891,0.000000,0.012000,0.023000,-0.010000,FlatInitial
03:15:06.409 PM 02/14/2016,Teleop Enabled,0,FALSE,0,NO ERROR,0.000000,0.000000,0.000000,0.000000,Speed,Speed,0.120000,1.140000,2.010000,0.000000,101.000000,1,0,-0.000558,0.001550,0,0.000000,0.000000,0.000000,42.167480,-4.516693,0.000000,-0.003000,0.010000,-0.006000,FlatInitial
03:15:06.510 PM 02/14/2016,Teleop Enabled,0,FALSE,0,NO ERROR,0.000000,0.000000,-6000.000000,-6000.000000,Speed,Speed,0.090000,1.150000,1.930000,1.000000,102.000000,1,0,-0.000558,0.001550,0,0.000000,0.000000,0.000000,42.167480,-4.516693,0.000000,-0.001000,0.001000,-0.003000,FlatInitial
03:15:06.612 PM 02/14/2016,Teleop Enabled,0,FALSE,0,NO ERROR,-252.392578,264.404297,-6000.000000,-6000.000000,Speed,Speed,0.070000,1.140000,1.970000,1.000000,103.000000,1,0,-0.000558,0.001550,0,0.000000,0.000000,0.000000,42.167480,-4.516693,0.000000,0.019000,0.016000,-0.006000,FlatInitial
03:15:06.711 PM 02/14/2016,Teleop Enabled,0,FALSE,0,NO ERROR,-1935.058594,264.404297,-6000.000000,-6000.000000,Speed,Speed,0.110000,1.130000,1.900000,1.000000,100.000000,1,0,-0.000558,0.001550,0,0.005630,0.003632,0.000000,42.167587,-4.516708,0.000000,-0.011000,-0.005000,-0.029000,FlatInitial
03:15:06.811 PM 02/14/2016,Teleop Enabled,0,FALSE,0,NO ERROR,-3608.642578,2020.898437,-6000.000000,-6000.000000,Speed,Speed,0.120000,1.140000,1.900000,1.000000,103.000000,1,0,-0.000558,0.001550,0,-0.015320,0.007309,0.000000,42.167297,-4.516830,0.000000,-0.073000,0.034000,0.041000,FlatInitial
03:15:06.912 PM 02/14/2016,Teleop Enabled,0,FALSE,0,NO ERROR,-4730.566406,4845.703125,-6000.000000,-6000.000000,Speed,Speed,0.140000,1.140000,1.950000,1.000000,101.000000,1,0,-0.000558,0.001550,0,-0.051865,0.000000,0.000000,42.165192,-4.516068,0.000000,0.021000,-0.018000,0.119000,FlatInitial
03:15:07.011 PM 02/14/2016,Teleop Enabled,0,FALSE,0,NO ERROR,-5726.367188,4845.703125,-6000.000000,-6000.000000,Speed,Speed,0.170000,1.150000,1.940000,1.000000,102.000000,1,0,-0.000558,0.001550,0,-0.026825,-0.037430,0.000000,42.163391,-4.516830,0.000000,0.038000,-0.013000,-0.158000,FlatInitial
03:15:07.112 PM 02/14/2016,Teleop Enabled,0,FALSE,0,NO ERROR,-6154.687500,5853.515625,-6000.000000,-6000.000000,Speed,Speed,0.160000,1.120000,1.730000,1.000000,102.000000,1,0,-0.000558,0.001550,0,-0.010803,0.013199,0.000000,42.162445,-4.516388,0.000000,0.000000,0.041000,-0.096000,FlatInitial
03:15:07.213 PM 02/14/2016,Teleop Enabled,0,FALSE,0,NO ERROR,-6271.289062,5909.179688,-6000.000000,-6000.000000,Speed,Speed,0.150000,1.100000,1.760000,1.000000,100.000000,1,0,-0.000558,0.001550,0,0.014145,-0.047882,0.000000,42.162704,-4.517029,0.000000,0.019000,-0.225000,-0.115000,FlatInitial
03:15:07.314 PM 02/14/2016,Teleop Enabled,0,FALSE,0,NO ERROR,-6252.539062,5909.179688,-6000.000000,-6000.000000,Speed,Speed,0.210000,1.140000,1.610000,1.000000,102.000000,1,0,-0.000558,0.001550,0,0.098724,-0.059921,0.000000,42.165833,-4.520676,0.000000,-0.012000,0.043000,0.204000,FlatInitial
03:15:07.414 PM 02/14/2016,Teleop Enabled,0,FALSE,0,NO ERROR,-6186.914062,5939.648438,-6000.000000,-6000.000000,Speed,Speed,0.230000,1.130000,1.710000,1.000000,102.000000,1,0,-0.000558,0.001550,0,-0.004364,-0.039322,0.000000,42.165771,-4.523056,0.000000,-0.047000,0.025000,0.147000,FlatInitial
03:15:07.515 PM 02/14/2016,Teleop Enabled,0,FALSE,0,NO ERROR,-6186.914062,6001.171875,-6000.000000,-6000.000000,Speed,Speed,0.140000,1.130000,1.680000,1.000000,101.000000,1,0,-0.000558,0.001550,0,-0.057190,-0.036987,0.000000,42.164230,-4.524963,0.000000,-0.070000,0.012000,0.077000,FlatInitial
03:15:07.614 PM 02/14/2016,Teleop Enabled,0,FALSE,0,NO ERROR,-6081.445312,6001.171875,-6000.000000,-6000.000000,Speed,Speed,0.190000,1.190000,1.660000,1.000000,100.000000,1,0,-0.000558,0.001550,0,-0.126068,0.000763,0.000000,42.159088,-4.525757,0.000000,-0.042000,0.061000,0.005000,FlatInitial
03:15:07.715 PM 02/14/2016,Teleop Enabled,0,FALSE,0,NO ERROR,-6081.445312,6019.921875,-6000.000000,-6000.000000,Speed,Speed,0.170000,1.170000,1.900000,1.000000,100.000000,1,0,-0.000558,0.001550,0,0.000000,0.027527,0.000000,42.155014,-4.524719,0.000000,0.016000,0.015000,0.005000,FlatInitial
03:15:07.816 PM 02/14/2016,Teleop Enabled,0,FALSE,0,NO ERROR,-6026.953125,6027.539062,-6000.000000,-6000.000000,Speed,Speed,0.200000,1.110000,1.980000,1.000000,102.000000,1,0,-0.000558,0.001550,0,0.025848,-0.015289,0.000000,42.155563,-4.525070,0.000000,0.044000,-0.009000,0.035000,FlatInitial
03:15:07.917 PM 02/14/2016,Teleop Enabled,0,FALSE,0,NO ERROR,-6026.953125,6031.054688,-6000.000000,-6000.000000,Speed,Speed,0.190000,1.020000,1.960000,1.000000,103.000000,1,0,-0.000558,0.001550,0,0.060516,-0.070724,0.000000,42.157913,-4.527115,0.000000,0.050000,-0.119000,0.042000,FlatInitial
03:15:08.018 PM 02/14/2016,Teleop Enabled,0,FALSE,0,NO ERROR,-6019.921875,6028.710938,-6000.000000,-6000.000000,Speed,Speed,0.170000,0.960000,1.950000,1.000000,101.000000,1,0,-0.000558,0.001550,0,0.111588,-0.168930,0.000000,42.162476,-4.533661,0.000000,0.056000,-0.099000,0.031000,FlatInitial
03:15:08.118 PM 02/14/2016,Teleop Enabled,0,FALSE,0,NO ERROR,-6014.648438,6022.851562,-6000.000000,-6000.000000,Speed,Speed,0.210000,0.920000,1.850000,1.000000,101.000000,1,0,-0.000558,0.001550,0,0.175903,-0.286072,0.000000,42.171280,-4.547958,0.000000,0.058000,-0.070000,0.075000,FlatInitial
03:15:08.219 PM 02/14/2016,Teleop Enabled,0,FALSE,0,NO ERROR,-6011.132812,6014.648438,-6000.000000,-6000.000000,Speed,Speed,0.190000,0.900000,1.790000,1.000000,103.000000,1,0,-0.000558,0.001550,0,0.231613,-0.358200,0.000000,42.179672,-4.561127,0.000000,0.061000,-0.084000,0.043000,FlatInitial
03:15:08.319 PM 02/14/2016,Teleop Enabled,0,FALSE,0,NO ERROR,-6006.445312,5992.382812,-6000.000000,-6000.000000,Speed,Speed,0.200000,0.910000,1.730000,1.000000,102.000000,1,0,-0.000558,0.001550,0,0.312424,-0.472488,0.000000,42.196457,-4.586807,0.000000,0.076000,-0.084000,0.007000,FlatInitial
03:15:08.419 PM 02/14/2016,Teleop Enabled,0,FALSE,0,NO ERROR,-6005.859375,5966.601562,-6000.000000,-6000.000000,Speed,Speed,0.190000,0.890000,1.800000,1.000000,104.000000,1,0,-0.000558,0.001550,0,0.374512,-0.542343,0.000000,42.213943,-4.612671,0.000000,0.060000,-0.057000,0.034000,FlatInitial
03:15:08.519 PM 02/14/2016,Teleop Enabled,0,FALSE,0,NO ERROR,-6002.929688,5988.281250,-6000.000000,-6000.000000,Speed,Speed,0.190000,0.880000,2.000000,1.000000,122.000000,1,0,-0.000558,0.001550,0,0.434326,-0.578888,0.000000,42.234589,-4.640900,0.000000,0.037000,-0.045000,0.034000,FlatInitial
03:15:08.620 PM 02/14/2016,Teleop Enabled,0,FALSE,0,NO ERROR,-6002.929688,6021.679688,-6000.000000,-6000.000000,Speed,Speed,0.200000,0.840000,2.090000,1.000000,103.000000,1,0,-0.000558,0.001550,0,0.488342,-0.636932,0.000000,42.257843,-4.671432,0.000000,0.063000,-0.072000,0.034000,FlatInitial
03:15:08.720 PM 02/14/2016,Teleop Enabled,0,FALSE,0,NO ERROR,-6007.031250,6039.257812,-6000.000000,-6000.000000,Speed,Speed,0.190000,0.870000,2.080000,1.000000,101.000000,1,0,-0.000558,0.001550,0,0.561264,-0.735931,0.000000,42.289658,-4.712936,0.000000,0.053000,-0.093000,0.024000,FlatInitial
03:15:08.822 PM 02/14/2016,Teleop Enabled,0,FALSE,0,NO ERROR,-6012.890625,6039.257812,-6000.000000,-6000.000000,Speed,Speed,0.200000,0.930000,2.020000,1.000000,101.000000,1,0,-0.000558,0.001550,0,0.629486,-0.783493,0.000000,42.319656,-4.751343,0.000000,0.079000,-0.028000,0.012000,FlatInitial
03:15:08.923 PM 02/14/2016,Teleop Enabled,0,FALSE,0,NO ERROR,-6012.304688,6032.812500,-6000.000000,-6000.000000,Speed,Speed,0.190000,1.020000,1.960000,1.000000,100.000000,1,0,-0.000558,0.001550,0,0.714294,-0.818466,0.000000,42.353729,-4.791748,0.000000,0.080000,-0.039000,-0.030000,FlatInitial
03:15:09.023 PM 02/14/2016,Teleop Enabled,0,FALSE,0,NO ERROR,-6002.929688,6024.609375,-6000.000000,-6000.000000,Speed,Speed,0.200000,1.070000,2.000000,1.000000,100.000000,1,0,-0.000558,0.001550,0,0.767548,-0.797623,0.000000,42.383728,-4.824097,0.000000,0.052000,0.030000,-0.023000,FlatInitial
03:15:09.124 PM 02/14/2016,Teleop Enabled,0,FALSE,0,NO ERROR,-5985.351562,6014.648438,-6000.000000,-6000.000000,Speed,Speed,0.190000,1.080000,2.090000,1.000000,101.000000,1,0,-0.000558,0.001550,0,0.855270,-0.778946,0.000000,42.432678,-4.871017,0.000000,0.080000,0.004000,-0.031000,FlatInitial
03:15:09.225 PM 02/14/2016,Teleop Enabled,0,FALSE,0,NO ERROR,-5988.867188,6006.445312,-6000.000000,-6000.000000,Speed,Speed,0.190000,1.100000,2.150000,1.000000,104.000000,1,0,-0.000558,0.001550,0,0.930466,0.017700,0.000000,42.477783,-4.870590,0.000000,0.079000,0.035000,-0.042000,FlatInitial
03:15:09.325 PM 02/14/2016,Teleop Enabled,0,FALSE,0,NO ERROR,-6002.343750,6002.929688,-6000.000000,-6000.000000,Speed,Speed,0.190000,1.110000,2.290000,1.000000,100.000000,1,0,-0.000558,0.001550,0,0.995728,0.030869,0.000000,42.516586,-4.869537,0.000000,0.080000,-0.011000,-0.052000,FlatInitial
03:15:09.426 PM 02/14/2016,Teleop Enabled,0,FALSE,0,NO ERROR,-6011.718750,6004.101562,-6000.000000,-6000.000000,Speed,Speed,0.190000,1.120000,2.380000,1.000000,102.000000,1,0,-0.000558,0.001550,0,1.074188,-0.003952,0.000000,42.568756,-4.869629,0.000000,0.070000,0.024000,-0.025000,FlatInitial
03:15:09.526 PM 02/14/2016,Teleop Enabled,0,FALSE,0,NO ERROR,-6018.164062,6006.445312,-6000.000000,-6000.000000,Speed,Speed,0.190000,1.130000,2.560000,1.000000,102.000000,1,0,-0.000558,0.001550,0,1.160095,0.021515,0.000000,42.635956,-4.868942,0.000000,0.090000,0.035000,-0.063000,FlatInitial
03:15:09.626 PM 02/14/2016,Teleop Enabled,0,FALSE,0,NO ERROR,-6018.750000,6010.546875,-6000.000000,-6000.000000,Speed,Speed,0.180000,1.150000,2.680000,1.000000,101.000000,1,0,-0.000558,0.001550,0,1.227341,0.002426,0.000000,42.696030,-4.868484,0.000000,0.056000,0.024000,-0.039000,FlatInitial
03:15:09.727 PM 02/14/2016,Teleop Enabled,0,FALSE,0,NO ERROR,-6014.062500,6012.890625,-6000.000000,-6000.000000,Speed,Speed,0.190000,1.160000,2.760000,1.000000,103.000000,1,0,-0.000558,0.001550,0,1.282959,0.000000,0.000000,42.759155,-4.868393,0.000000,0.086000,0.014000,-0.025000,FlatInitial
03:15:09.828 PM 02/14/2016,Teleop Enabled,0,FALSE,0,NO ERROR,-6010.546875,6009.960938,-6000.000000,-6000.000000,Speed,Speed,0.180000,1.160000,2.890000,1.000000,102.000000,1,0,-0.000558,0.001550,0,1.335663,0.010056,0.000000,42.824966,-4.868057,0.000000,0.055000,0.004000,-0.082000,FlatInitial
03:15:09.928 PM 02/14/2016,Teleop Enabled,0,FALSE,0,NO ERROR,-6006.445312,6007.617188,-6000.000000,-6000.000000,Speed,Speed,0.180000,1.150000,2.890000,1.000000,101.000000,1,0,-0.000558,0.001550,0,1.395020,-0.010681,0.000000,42.893494,-4.868134,0.000000,0.073000,-0.027000,-0.103000,FlatInitial
03:15:10.028 PM 02/14/2016,Teleop Enabled,0,FALSE,0,NO ERROR,-6004.101562,6010.546875,-6000.000000,-6000.000000,Speed,Speed,0.180000,1.150000,2.870000,1.000000,104.000000,1,0,-0.000558,0.001550,0,1.448639,0.000259,0.000000,42.964828,-4.868301,0.000000,0.047000,0.060000,-0.075000,FlatInitial
03:15:10.128 PM 02/14/2016,Teleop Enabled,0,FALSE,0,NO ERROR,-6004.687500,6012.890625,-6000.000000,-6000.000000,Speed,Speed,0.180000,1.130000,2.850000,1.000000,100.000000,1,0,-0.000558,0.001550,0,1.490021,0.010834,0.000000,43.038544,-4.867584,0.000000,0.031000,-0.021000,-0.086000,FlatInitial
03:15:10.228 PM 02/14/2016,Teleop Enabled,0,FALSE,0,NO ERROR,-6007.031250,6009.960938,-6000.000000,-6000.000000,Speed,Speed,0.180000,1.120000,2.700000,1.000000,101.000000,1,0,-0.000558,0.001550,0,1.540741,-0.016891,0.000000,43.114563,-4.867966,0.000000,0.024000,0.047000,-0.069000,FlatInitial
03:15:10.329 PM 02/14/2016,Teleop Enabled,0,FALSE,0,NO ERROR,-6009.375000,6007.031250,-6000.000000,-6000.000000,Speed,Speed,0.190000,1.120000,2.630000,1.000000,103.000000,1,0,-0.000558,0.001550,0,1.576294,-0.015121,0.000000,43.208344,-4.868576,0.000000,0.029000,-0.055000,-0.075000,FlatInitial
03:15:10.430 PM 02/14/2016,Teleop Enabled,0,FALSE,0,NO ERROR,-6007.617188,6005.859375,-6000.000000,-6000.000000,Speed,Speed,0.190000,1.120000,2.460000,1.000000,101.000000,1,0,-0.000558,0.001550,0,1.610657,-0.049103,0.000000,43.272217,-4.870132,0.000000,0.054000,-0.003000,-0.097000,FlatInitial
03:15:10.530 PM 02/14/2016,Teleop Enabled,0,FALSE,0,NO ERROR,-6004.687500,6001.757812,-6000.000000,-6000.000000,Speed,Speed,0.190000,1.120000,2.310000,1.000000,102.000000,1,0,-0.000558,0.001550,0,1.645325,0.008072,0.000000,43.353912,-4.869949,0.000000,0.008000,0.006000,-0.090000,FlatInitial
03:15:10.630 PM 02/14/2016,Teleop Enabled,0,FALSE,0,NO ERROR,-6001.757812,5996.484375,-6000.000000,-6000.000000,Speed,Speed,0.180000,1.090000,2.160000,1.000000,101.000000,1,0,-0.000558,0.001550,0,1.679184,-0.013977,0.000000,43.437027,-4.870209,0.000000,0.051000,0.014000,-0.142000,FlatInitial
03:15:10.731 PM 02/14/2016,Teleop Enabled,0,FALSE,0,NO ERROR,-5999.414062,5995.312500,-6000.000000,-6000.000000,Speed,Speed,0.190000,1.070000,1.980000,1.000000,116.000000,1,0,-0.000558,0.001550,0,1.719101,-0.010971,0.000000,43.522156,-4.871017,0.000000,0.025000,0.039000,-0.096000,FlatInitial
03:15:10.831 PM 02/14/2016,Teleop Enabled,0,FALSE,0,NO ERROR,-5994.140625,5993.554688,-6000.000000,-6000.000000,Speed,Speed,0.190000,1.060000,1.880000,1.000000,101.000000,1,0,-0.000558,0.001550,0,1.754074,0.006195,0.000000,43.609177,-4.870743,0.000000,0.062000,-0.037000,-0.111000,FlatInitial
03:15:10.932 PM 02/14/2016,Teleop Enabled,0,FALSE,0,NO ERROR,-5992.382812,5996.484375,-6000.000000,-6000.000000,Speed,Speed,0.190000,1.040000,1.740000,1.000000,102.000000,1,0,-0.000558,0.001550,0,1.790756,0.000000,0.000000,43.697968,-4.870773,0.000000,0.038000,-0.008000,-0.098000,FlatInitial
03:15:11.032 PM 02/14/2016,Teleop Enabled,0,FALSE,0,NO ERROR,-5991.796875,6002.343750,-6000.000000,-6000.000000,Speed,Speed,0.190000,1.030000,1.660000,1.000000,104.000000,1,0,-0.000558,0.001550,0,1.828812,0.030609,0.000000,43.806808,-4.869522,0.000000,0.030000,-0.044000,-0.091000,FlatInitial
03:15:11.133 PM 02/14/2016,Teleop Enabled,0,FALSE,0,NO ERROR,-5994.140625,6005.859375,-6000.000000,-6000.000000,Speed,Speed,0.190000,1.030000,1.560000,1.000000,114.000000,1,0,-0.000558,0.001550,0,1.855347,0.000000,0.000000,43.880615,-4.868851,0.000000,0.024000,0.006000,-0.109000,FlatInitial
03:15:11.233 PM 02/14/2016,Teleop Enabled,0,FALSE,0,NO ERROR,-5997.070312,6005.273438,-6000.000000,-6000.000000,Speed,Speed,0.190000,1.030000,1.480000,1.000000,103.000000,1,0,-0.000558,0.001550,0,1.882416,0.000000,0.000000,43.974213,-4.868851,0.000000,0.016000,0.013000,-0.099000,FlatInitial
03:15:11.334 PM 02/14/2016,Teleop Enabled,0,FALSE,0,NO ERROR,-6002.929688,6007.031250,-6000.000000,-6000.000000,Speed,Speed,0.190000,1.010000,1.380000,1.000000,102.000000,1,0,-0.000558,0.001550,0,0.034348,-0.015900,0.000000,43.975189,-4.869202,0.000000,0.036000,0.024000,-0.130000,FlatInitial
03:15:11.434 PM 02/14/2016,Teleop Enabled,0,FALSE,0,NO ERROR,-6008.789062,6008.203125,-6000.000000,-6000.000000,Speed,Speed,0.190000,1.030000,1.220000,1.000000,101.000000,1,0,-0.000558,0.001550,0,0.061462,-0.014832,0.000000,43.977249,-4.869888,0.000000,0.030000,0.007000,-0.152000,FlatInitial
03:15:11.535 PM 02/14/2016,Teleop Enabled,0,FALSE,0,NO ERROR,-6013.476562,6007.617188,-6000.000000,-6000.000000,Speed,Speed,0.180000,1.020000,1.180000,1.000000,103.000000,1,0,-0.000558,0.001550,0,0.104797,0.000000,0.000000,43.982315,-4.870132,0.000000,0.050000,-0.009000,-0.152000,FlatInitial
03:15:11.636 PM 02/14/2016,Teleop Enabled,0,FALSE,0,NO ERROR,-6012.890625,6007.031250,-6000.000000,-6000.000000,Speed,Speed,0.190000,1.010000,1.030000,1.000000,101.000000,1,0,-0.000558,0.001550,0,0.137650,-0.001678,0.000000,43.988480,-4.870285,0.000000,0.047000,0.032000,-0.150000,FlatInitial
03:15:11.738 PM 02/14/2016,Teleop Enabled,0,FALSE,0,NO ERROR,-6009.960938,6007.031250,-6000.000000,-6000.000000,Speed,Speed,0.190000,1.010000,0.920000,1.000000,102.000000,1,0,-0.000558,0.001550,0,0.176834,0.014694,0.000000,43.996536,-4.869812,0.000000,0.023000,0.015000,-0.128000,FlatInitial
03:15:11.838 PM 02/14/2016,Teleop Enabled,0,FALSE,0,NO ERROR,-6009.960938,6008.203125,-6000.000000,-6000.000000,Speed,Speed,0.190000,1.010000,0.880000,1.000000,102.000000,1,0,-0.000558,0.001550,0,0.226624,0.000000,0.000000,44.006882,-4.869125,0.000000,0.063000,-0.016000,-0.132000,FlatInitial
03:15:11.939 PM 02/14/2016,Teleop Enabled,0,FALSE,0,NO ERROR,-6005.273438,6008.203125,-6000.000000,-6000.000000,Speed,Speed,0.200000,1.000000,0.820000,1.000000,101.000000,1,0,-0.000558,0.001550,0,0.270340,0.016907,0.000000,44.019562,-4.868713,0.000000,0.036000,0.028000,-0.145000,FlatInitial
03:15:12.039 PM 02/14/2016,Teleop Enabled,0,FALSE,0,NO ERROR,-5936.718750,5864.648438,-6000.000000,-6000.000000,Speed,Speed,0.200000,0.990000,0.790000,1.000000,101.000000,1,0,-0.000558,0.001550,0,0.311417,0.026215,0.000000,44.034317,-4.867233,0.000000,0.038000,0.000000,-0.211000,FlatInitial
03:15:12.140 PM 02/14/2016,Teleop Enabled,0,FALSE,0,NO ERROR,-3065.625000,3521.630859,-6000.000000,-6000.000000,Speed,Speed,0.110000,1.020000,0.450000,1.000000,102.000000,1,0,-0.000558,0.001550,0,0.000000,-0.015671,0.000000,44.046539,-4.867447,0.000000,-0.005000,0.195000,0.260000,FlatInitial
03:15:12.240 PM 02/14/2016,Teleop Enabled,0,FALSE,0,NO ERROR,-3065.625000,3215.039062,-6000.000000,-6000.000000,Speed,Speed,0.150000,0.960000,0.870000,1.000000,101.000000,1,0,-0.000558,0.001550,0,0.040512,-0.005615,0.000000,44.047958,-4.867126,0.000000,0.042000,-0.058000,0.422000,FlatInitial
03:15:12.341 PM 02/14/2016,Teleop Enabled,0,FALSE,0,NO ERROR,-3413.818359,3215.039062,-6000.000000,-6000.000000,Speed,Speed,0.240000,0.950000,0.520000,1.000000,101.000000,1,0,-0.000558,0.001550,0,0.062057,-0.017349,0.000000,44.050140,-4.868439,0.000000,0.033000,0.042000,0.182000,FlatInitial
03:15:12.442 PM 02/14/2016,Teleop Enabled,0,FALSE,0,NO ERROR,-4501.318359,4572.216797,-6000.000000,-6000.000000,Speed,Speed,0.200000,1.010000,0.830000,1.000000,102.000000,1,0,-0.000558,0.001550,0,0.085098,0.038361,0.000000,44.053528,-4.867569,0.000000,0.036000,-0.026000,-0.052000,FlatInitial
03:15:12.542 PM 02/14/2016,Teleop Enabled,0,FALSE,0,NO ERROR,-5517.773438,5410.546875,-6000.000000,-6000.000000,Speed,Speed,0.130000,0.970000,0.870000,2.000000,101.000000,1,0,-0.000558,0.001550,0,0.003647,0.007462,0.000000,44.056595,-4.866165,0.000000,-0.044000,-0.074000,0.028000,FlatInitial
03:15:12.643 PM 02/14/2016,Teleop Enabled,0,FALSE,0,NO ERROR,-6003.515625,5722.851562,0.000000,0.000000,Speed,Speed,0.170000,0.950000,0.830000,2.000000,101.000000,1,0,-0.000558,0.001550,0,0.000000,-0.044205,0.000000,44.055923,-4.867523,0.000000,0.003000,-0.033000,-0.123000,FlatInitial
03:15:12.743 PM 02/14/2016,Teleop Enabled,0,FALSE,0,NO ERROR,-6093.164062,5724.609375,0.000000,0.000000,Speed,Speed,0.200000,1.040000,1.050000,2.000000,103.000000,1,0,-0.000558,0.001550,0,0.053360,-0.046112,0.000000,44.057037,-4.870087,0.000000,0.058000,-0.089000,0.040000,FlatInitial
03:15:12.843 PM 02/14/2016,Teleop Enabled,0,FALSE,0,NO ERROR,-5688.867188,5228.906250,0.000000,0.000000,Speed,Speed,0.190000,1.000000,1.120000,2.000000,105.000000,1,0,-0.000558,0.001550,0,0.051605,-0.043777,0.000000,44.059921,-4.872131,0.000000,-0.039000,-0.026000,0.129000,FlatInitial
03:15:12.943 PM 02/14/2016,Teleop Enabled,0,FALSE,0,NO ERROR,-5190.820312,4632.568359,0.000000,0.000000,Speed,Speed,0.220000,1.050000,1.160000,2.000000,102.000000,1,0,-0.000558,0.001550,0,0.053497,0.000000,0.000000,44.062317,-4.873795,0.000000,-0.004000,-0.016000,0.057000,FlatInitial
03:15:13.043 PM 02/14/2016,Teleop Enabled,0,FALSE,0,NO ERROR,-4801.171875,4171.875000,0.000000,0.000000,Speed,Speed,0.150000,1.100000,1.130000,2.000000,100.000000,1,0,-0.000558,0.001550,0,0.021072,0.002045,0.000000,44.063278,-4.873795,0.000000,0.027000,0.004000,-0.018000,FlatInitial
03:15:13.143 PM 02/14/2016,Teleop Enabled,0,FALSE,0,NO ERROR,-4324.511719,3620.214844,0.000000,0.000000,Speed,Speed,0.180000,1.060000,1.080000,2.000000,101.000000,1,0,-0.000558,0.001550,0,0.042435,0.013809,0.000000,44.065125,-4.873383,0.000000,0.047000,0.020000,0.118000,FlatInitial
03:15:13.243 PM 02/14/2016,Teleop Enabled,0,FALSE,0,NO ERROR,-3866.748047,3087.011719,0.000000,0.000000,Speed,Speed,0.190000,1.090000,1.150000,2.000000,100.000000,1,0,-0.000558,0.001550,0,0.039703,0.041672,0.000000,44.067459,-4.871933,0.000000,-0.002000,0.003000,0.100000,FlatInitial
03:15:13.344 PM 02/14/2016,Teleop Enabled,0,FALSE,0,NO ERROR,-3424.218750,2576.953125,0.000000,0.000000,Speed,Speed,0.190000,1.080000,1.220000,2.000000,101.000000,1,0,-0.000558,0.001550,0,0.059982,0.063065,0.000000,44.069534,-4.869736,0.000000,0.040000,0.019000,0.105000,FlatInitial
03:15:13.445 PM 02/14/2016,Teleop Enabled,0,FALSE,0,NO ERROR,-2996.630859,2193.017578,0.000000,0.000000,Speed,Speed,0.180000,1.090000,1.270000,2.000000,101.000000,1,0,-0.000558,0.001550,0,0.070511,0.005539,0.000000,44.073227,-4.868332,0.000000,-0.005000,-0.008000,0.026000,FlatInitial
03:15:13.546 PM 02/14/2016,Teleop Enabled,0,FALSE,0,NO ERROR,-2667.773438,1734.375000,0.000000,0.000000,Speed,Speed,0.160000,1.120000,1.330000,2.000000,102.000000,1,0,-0.000558,0.001550,0,0.002136,0.019699,0.000000,44.073929,-4.867737,0.000000,0.022000,0.008000,0.010000,FlatInitial
03:15:13.647 PM 02/14/2016,Teleop Enabled,0,FALSE,0,NO ERROR,-2191.845703,1311.914062,0.000000,0.000000,Speed,Speed,0.190000,1.130000,1.390000,2.000000,103.000000,1,0,-0.000558,0.001550,0,-0.001160,0.028275,0.000000,44.074020,-4.866562,0.000000,-0.022000,0.008000,-0.006000,FlatInitial
03:15:13.746 PM 02/14/2016,Teleop Enabled,0,FALSE,0,NO ERROR,-1891.406250,917.871094,0.000000,0.000000,Speed,Speed,0.190000,1.130000,1.450000,2.000000,101.000000,1,0,-0.000558,0.001550,0,-0.000458,0.000000,0.000000,44.073868,-4.865524,0.000000,0.023000,0.011000,0.079000,FlatInitial
03:15:13.846 PM 02/14/2016,Teleop Enabled,0,FALSE,0,NO ERROR,-1454.882812,510.058594,4000.000000,4000.000000,Speed,Speed,0.180000,1.140000,1.480000,3.000000,116.000000,1,0,-0.000558,0.001550,0,-0.008011,0.000000,0.000000,44.073715,-4.865524,0.000000,0.021000,-0.013000,0.059000,FlatInitial
03:15:13.946 PM 02/14/2016,Teleop Enabled,0,FALSE,0,NO ERROR,-816.650391,-55.078125,4000.000000,4000.000000,Speed,Speed,0.180000,1.150000,1.450000,3.000000,102.000000,1,0,-0.000558,0.001550,0,0.003159,0.001205,0.000000,44.073685,-4.865814,0.000000,0.033000,0.029000,0.046000,FlatInitial
03:15:14.046 PM 02/14/2016,Teleop Enabled,0,FALSE,0,NO ERROR,834.814453,-1445.800781,4000.000000,4000.000000,Speed,Speed,0.180000,1.170000,1.550000,3.000000,101.000000,1,0,-0.000558,0.001550,0,0.000000,0.007477,0.000000,44.073837,-4.865585,0.000000,0.005000,-0.008000,0.033000,FlatInitial
03:15:14.147 PM 02/14/2016,Teleop Enabled,0,FALSE,0,NO ERROR,3034.277344,-2967.919922,4000.000000,4000.000000,Speed,Speed,0.190000,1.140000,1.510000,3.000000,103.000000,1,0,-0.000558,0.001550,0,-0.002228,-0.014587,0.000000,44.073807,-4.866013,0.000000,0.018000,0.039000,0.082000,FlatInitial
03:15:14.248 PM 02/14/2016,Teleop Enabled,0,FALSE,0,NO ERROR,3855.908203,-3676.171875,4000.000000,4000.000000,Speed,Speed,0.180000,1.140000,1.550000,3.000000,100.000000,1,0,-0.000558,0.001550,0,0.010849,0.008514,0.000000,44.074509,-4.865936,0.000000,-0.036000,0.032000,0.075000,FlatInitial
03:15:14.348 PM 02/14/2016,Teleop Enabled,0,FALSE,0,NO ERROR,4162.353516,-3827.929687,4000.000000,4000.000000,Speed,Speed,0.180000,1.140000,1.550000,3.000000,101.000000,1,0,-0.000558,0.001550,0,-0.005859,-0.001450,0.000000,44.074524,-4.865982,0.000000,-0.051000,0.079000,-0.039000,FlatInitial
03:15:14.449 PM 02/14/2016,Teleop Enabled,0,FALSE,0,NO ERROR,4140.234375,-3835.986328,4000.000000,4000.000000,Speed,Speed,0.180000,1.150000,1.520000,3.000000,101.000000,1,0,-0.000558,0.001550,0,0.017120,-0.002579,0.000000,44.074860,-4.865738,0.000000,0.032000,-0.060000,-0.006000,FlatInitial
03:15:14.549 PM 02/14/2016,Teleop Enabled,0,FALSE,0,NO ERROR,4064.501953,-3852.832031,4000.000000,4000.000000,Speed,Speed,0.180000,1.190000,1.560000,3.000000,102.000000,1,0,-0.000558,0.001550,0,0.013275,0.000000,0.000000,44.075531,-4.865845,0.000000,-0.015000,0.013000,-0.059000,FlatInitial
03:15:14.649 PM 02/14/2016,Teleop Enabled,0,FALSE,0,NO ERROR,4023.339844,-3891.064453,4000.000000,4000.000000,Speed,Speed,0.180000,1.170000,1.660000,3.000000,102.000000,1,0,-0.000558,0.001550,0,0.024002,0.014542,0.000000,44.076355,-4.865524,0.000000,0.086000,0.016000,0.049000,FlatInitial
03:15:14.749 PM 02/14/2016,Teleop Enabled,0,FALSE,0,NO ERROR,4001.953125,-3930.322266,4000.000000,4000.000000,Speed,Speed,0.180000,1.200000,1.720000,3.000000,103.000000,1,0,-0.000558,0.001550,0,0.040680,0.013016,0.000000,44.078140,-4.865326,0.000000,0.047000,0.015000,0.061000,FlatInitial
03:15:14.849 PM 02/14/2016,Teleop Enabled,0,FALSE,0,NO ERROR,3996.972656,-3961.230469,4000.000000,4000.000000,Speed,Speed,0.180000,1.210000,1.810000,3.000000,100.000000,1,0,-0.000558,0.001550,0,0.056122,0.034332,0.000000,44.080750,-4.864151,0.000000,-0.009000,0.070000,-0.115000,FlatInitial
03:15:14.950 PM 02/14/2016,Teleop Enabled,0,FALSE,0,NO ERROR,3997.851562,-3981.884766,4000.000000,4000.000000,Speed,Speed,0.180000,1.220000,1.900000,3.000000,103.000000,1,0,-0.000558,0.001550,0,0.080338,0.059677,0.000000,44.084366,-4.861679,0.000000,-0.009000,0.070000,-0.115000,FlatInitial
03:15:15.050 PM 02/14/2016,Teleop Enabled,0,FALSE,0,NO ERROR,3998.144531,-3995.068359,4000.000000,4000.000000,Speed,Speed,0.180000,1.200000,1.950000,3.000000,100.000000,1,0,-0.000558,0.001550,0,0.095276,0.076340,0.000000,44.089569,-4.857254,0.000000,0.004000,0.065000,-0.128000,FlatInitial
03:15:15.150 PM 02/14/2016,Teleop Enabled,0,FALSE,0,NO ERROR,4001.367187,-4000.927734,4000.000000,4000.000000,Speed,Speed,0.180000,1.200000,1.950000,3.000000,102.000000,1,0,-0.000558,0.001550,0,0.084839,0.093628,0.000000,44.093948,-4.853119,0.000000,-0.029000,-0.036000,0.040000,FlatInitial
03:15:15.251 PM 02/14/2016,Teleop Enabled,0,FALSE,0,NO ERROR,4005.615234,-4003.564453,4000.000000,4000.000000,Speed,Speed,0.180000,1.180000,2.060000,3.000000,102.000000,1,0,-0.000558,0.001550,0,0.084839,0.093628,0.000000,44.093948,-4.853119,0.000000,0.039000,0.007000,0.066000,FlatInitial
03:15:15.352 PM 02/14/2016,Teleop Enabled,0,FALSE,0,NO ERROR,4007.519531,-4004.150391,4000.000000,4000.000000,Speed,Speed,0.180000,1.170000,2.130000,3.000000,102.000000,1,0,-0.000558,0.001550,0,0.008026,0.127625,0.000000,44.098038,-4.841812,0.000000,0.000000,0.083000,-0.078000,FlatInitial
03:15:15.454 PM 02/14/2016,Teleop Enabled,0,FALSE,0,NO ERROR,4007.080078,-3993.017578,4000.000000,4000.000000,Speed,Speed,0.180000,1.170000,2.150000,3.000000,101.000000,1,0,-0.000558,0.001550,0,0.016464,0.140015,0.000000,44.098572,-4.835007,0.000000,-0.016000,0.009000,0.048000,FlatInitial
03:15:15.553 PM 02/14/2016,Teleop Enabled,0,FALSE,0,NO ERROR,4004.589844,-3983.789062,4000.000000,4000.000000,Speed,Speed,0.180000,1.150000,2.150000,3.000000,103.000000,1,0,-0.000558,0.001550,0,0.031235,0.130539,0.000000,44.099564,-4.829681,0.000000,0.048000,-0.023000,0.073000,FlatInitial
03:15:15.654 PM 02/14/2016,Teleop Enabled,0,FALSE,0,NO ERROR,4004.150391,-3983.496094,4000.000000,4000.000000,Speed,Speed,0.180000,1.160000,2.180000,3.000000,102.000000,1,0,-0.000558,0.001550,0,0.031235,0.130539,0.000000,44.099564,-4.829681,0.000000,0.010000,0.078000,-0.124000,FlatInitial
03:15:15.755 PM 02/14/2016,Teleop Enabled,0,FALSE,0,NO ERROR,4001.953125,-3992.431641,4000.000000,4000.000000,Speed,Speed,0.190000,1.130000,2.180000,3.000000,103.000000,1,0,-0.000558,0.001550,0,0.046478,0.136322,0.000000,44.104080,-4.815109,0.000000,-0.023000,-0.058000,0.062000,FlatInitial
03:15:15.855 PM 02/14/2016,Teleop Enabled,0,FALSE,0,NO ERROR,4000.634766,-4008.691406,4000.000000,4000.000000,Speed,Speed,0.180000,1.120000,2.180000,3.000000,102.000000,1,0,-0.000558,0.001550,0,0.046478,0.136322,0.000000,44.104080,-4.815109,0.000000,0.027000,-0.038000,0.077000,FlatInitial
03:15:15.955 PM 02/14/2016,Teleop Enabled,0,FALSE,0,NO ERROR,4001.953125,-4024.658203,4000.000000,4000.000000,Speed,Speed,0.190000,1.140000,2.170000,3.000000,102.000000,1,0,-0.000558,0.001550,0,-0.002304,0.131561,0.000000,44.105179,-4.802185,0.000000,0.014000,0.072000,-0.118000,FlatInitial
03:15:16.056 PM 02/14/2016,Teleop Enabled,0,FALSE,0,NO ERROR,4001.953125,-4027.734375,4000.000000,4000.000000,Speed,Speed,0.190000,1.140000,2.170000,3.000000,101.000000,1,0,-0.000558,0.001550,0,-0.002304,0.131561,0.000000,44.105179,-4.802185,0.000000,-0.039000,-0.020000,0.068000,FlatInitial
03:15:16.157 PM 02/14/2016,Teleop Enabled,0,FALSE,0,NO ERROR,4003.417969,-4023.632812,4000.000000,4000.000000,Speed,Speed,0.180000,1.120000,2.240000,3.000000,102.000000,1,0,-0.000558,0.001550,0,0.015274,0.148346,0.000000,44.105301,-4.788239,0.000000,-0.001000,-0.026000,0.057000,FlatInitial
03:15:16.258 PM 02/14/2016,Teleop Enabled,0,FALSE,0,NO ERROR,4002.099609,-4009.716797,4000.000000,4000.000000,Speed,Speed,0.180000,1.150000,2.200000,3.000000,101.000000,1,0,-0.000558,0.001550,0,0.015274,0.148346,0.000000,44.105301,-4.788239,0.000000,0.003000,0.046000,-0.107000,FlatInitial
03:15:16.359 PM 02/14/2016,Teleop Enabled,0,FALSE,0,NO ERROR,4000.488281,-3988.476562,4000.000000,4000.000000,Speed,Speed,0.180000,1.150000,2.200000,3.000000,101.000000,1,0,-0.000558,0.001550,0,0.011414,-0.005112,0.000000,44.105606,-4.785370,0.000000,0.032000,0.014000,0.048000,FlatInitial
03:15:16.459 PM 02/14/2016,Teleop Enabled,0,FALSE,0,NO ERROR,3999.755859,-3993.457031,4000.000000,4000.000000,Speed,Speed,0.180000,1.160000,2.220000,3.000000,102.000000,1,0,-0.000558,0.001550,0,0.025192,0.003754,0.000000,44.106613,-4.785355,0.000000,0.009000,0.004000,0.085000,FlatInitial
03:15:16.560 PM 02/14/2016,Teleop Enabled,0,FALSE,0,NO ERROR,3999.609375,-4002.099609,4000.000000,4000.000000,Speed,Speed,0.180000,1.180000,2.220000,3.000000,101.000000,1,0,-0.000558,0.001550,0,-0.012985,0.000000,0.000000,44.106537,-4.784775,0.000000,-0.030000,-0.033000,0.037000,FlatInitial
03:15:16.660 PM 02/14/2016,Teleop Enabled,0,FALSE,0,NO ERROR,4000.048828,-4009.130859,4000.000000,4000.000000,Speed,Speed,0.180000,1.180000,2.220000,3.000000,103.000000,1,0,-0.000558,0.001550,0,-0.012985,0.000000,0.000000,44.106537,-4.784775,0.000000,-0.001000,-0.014000,0.058000,FlatInitial
03:15:16.761 PM 02/14/2016,Teleop Enabled,0,FALSE,0,NO ERROR,4003.710937,-4013.232422,4000.000000,4000.000000,Speed,Speed,0.180000,1.180000,2.180000,3.000000,102.000000,1,0,-0.000558,0.001550,0,-0.003799,-0.011047,0.000000,44.105988,-4.785110,0.000000,0.072000,0.008000,0.049000,FlatInitial
03:15:16.862 PM 02/14/2016,Teleop Enabled,0,FALSE,0,NO ERROR,4004.150391,-4012.060547,4000.000000,4000.000000,Speed,Speed,0.180000,1.190000,2.110000,3.000000,102.000000,1,0,-0.000558,0.001550,0,0.006851,-0.017700,0.000000,44.106171,-4.785645,0.000000,-0.004000,-0.020000,0.076000,FlatInitial
03:15:16.963 PM 02/14/2016,Teleop Enabled,0,FALSE,0,NO ERROR,4008.398437,-4008.984375,4000.000000,4000.000000,Speed,Speed,0.180000,1.190000,2.110000,3.000000,101.000000,1,0,-0.000558,0.001550,0,0.006851,-0.017700,0.000000,44.106171,-4.785645,0.000000,-0.019000,-0.047000,-0.090000,FlatInitial
03:15:17.064 PM 02/14/2016,Teleop Enabled,0,FALSE,0,NO ERROR,4007.226562,-4006.933594,4000.000000,4000.000000,Speed,Speed,0.180000,1.200000,2.000000,3.000000,101.000000,1,0,-0.000558,0.001550,0,0.001846,-0.003952,0.000000,44.106430,-4.786591,0.000000,0.022000,0.048000,0.076000,FlatInitial
03:15:17.164 PM 02/14/2016,Teleop Enabled,0,FALSE,0,NO ERROR,4003.125000,-4008.105469,4000.000000,4000.000000,Speed,Speed,0.180000,1.200000,1.920000,3.000000,101.000000,1,0,-0.000558,0.001550,0,-0.017380,-0.020050,0.000000,44.106018,-4.787079,0.000000,-0.007000,-0.061000,0.013000,FlatInitial
03:15:17.265 PM 02/14/2016,Teleop Enabled,0,FALSE,0,NO ERROR,3994.482422,-4005.468750,4000.000000,4000.000000,Speed,Speed,0.180000,1.180000,1.860000,3.000000,102.000000,1,0,-0.000558,0.001550,0,-0.004333,-0.037796,0.000000,44.105164,-4.788803,0.000000,-0.044000,-0.030000,-0.130000,FlatInitial
03:15:17.366 PM 02/14/2016,Teleop Enabled,0,FALSE,0,NO ERROR,3991.845703,-4005.468750,4000.000000,4000.000000,Speed,Speed,0.180000,1.170000,1.770000,3.000000,101.000000,1,0,-0.000558,0.001550,0,-0.021774,-0.055313,0.000000,44.104401,-4.791214,0.000000,-0.031000,0.000000,0.084000,FlatInitial
03:15:17.467 PM 02/14/2016,Teleop Enabled,0,FALSE,0,NO ERROR,3993.457031,-4006.054687,4000.000000,4000.000000,Speed,Speed,0.180000,1.160000,1.700000,3.000000,101.000000,1,0,-0.000558,0.001550,0,0.000000,-0.071701,0.000000,44.103775,-4.794342,0.000000,-0.015000,-0.033000,0.052000,FlatInitial
03:15:17.569 PM 02/14/2016,Teleop Enabled,0,FALSE,0,NO ERROR,3995.800781,-4005.615234,4000.000000,4000.000000,Speed,Speed,0.180000,1.140000,1.640000,3.000000,103.000000,1,0,-0.000558,0.001550,0,-0.020828,-0.099869,0.000000,44.103088,-4.798813,0.000000,0.021000,-0.017000,0.031000,FlatInitial
03:15:17.668 PM 02/14/2016,Teleop Enabled,0,FALSE,0,NO ERROR,3999.023437,-4004.882812,4000.000000,4000.000000,Speed,Speed,0.180000,1.140000,1.590000,3.000000,103.000000,1,0,-0.000558,0.001550,0,-0.003922,-0.119781,0.000000,44.102463,-4.804306,0.000000,-0.038000,-0.010000,0.089000,FlatInitial
03:15:17.767 PM 02/14/2016,Teleop Enabled,0,FALSE,0,NO ERROR,3996.386719,-4003.857422,4000.000000,4000.000000,Speed,Speed,0.190000,1.100000,1.580000,3.000000,101.000000,1,0,-0.000558,0.001550,0,-0.020203,-0.131165,0.000000,44.101822,-4.810593,0.000000,-0.004000,-0.026000,0.024000,FlatInitial
03:15:17.870 PM 02/14/2016,Teleop Enabled,0,FALSE,0,NO ERROR,3995.507812,-4000.488281,4000.000000,4000.000000,Speed,Speed,0.190000,1.100000,1.550000,3.000000,102.000000,1,0,-0.000558,0.001550,0,-0.030838,-0.146667,0.000000,44.100525,-4.817627,0.000000,-0.019000,-0.025000,0.010000,FlatInitial
03:15:17.970 PM 02/14/2016,Teleop Enabled,0,FALSE,0,NO ERROR,4001.220703,-3996.386719,4000.000000,4000.000000,Speed,Speed,0.190000,1.100000,1.520000,3.000000,103.000000,1,0,-0.000558,0.001550,0,-0.042252,-0.159119,0.000000,44.098587,-4.825272,0.000000,-0.039000,0.007000,0.085000,FlatInitial
03:15:18.071 PM 02/14/2016,Teleop Enabled,0,FALSE,0,NO ERROR,4008.398437,-3995.654297,4000.000000,4000.000000,Speed,Speed,0.190000,1.080000,1.450000,3.000000,103.000000,1,0,-0.000558,0.001550,0,-0.064667,-0.182114,0.000000,44.095673,-4.833771,0.000000,-0.078000,0.011000,0.081000,FlatInitial
03:15:18.170 PM 02/14/2016,Teleop Enabled,0,FALSE,0,NO ERROR,4013.378906,-3996.972656,4000.000000,4000.000000,Speed,Speed,0.190000,1.070000,1.430000,3.000000,101.000000,1,0,-0.000558,0.001550,0,-0.088730,-0.006622,0.000000,44.091583,-4.835831,0.000000,0.000000,-0.051000,0.005000,FlatInitial
03:15:18.271 PM 02/14/2016,Teleop Enabled,0,FALSE,0,NO ERROR,4011.474609,-3999.023437,4000.000000,4000.000000,Speed,Speed,0.190000,1.040000,1.360000,3.000000,102.000000,1,0,-0.000558,0.001550,0,0.000000,-0.032074,0.000000,44.090683,-4.836945,0.000000,0.006000,-0.006000,-0.114000,FlatInitial
03:15:18.372 PM 02/14/2016,Teleop Enabled,0,FALSE,0,NO ERROR,3994.042969,-4000.781250,4000.000000,4000.000000,Speed,Speed,0.200000,1.030000,1.320000,3.000000,102.000000,1,0,-0.000558,0.001550,0,0.000000,-0.047455,0.000000,44.090805,-4.838852,0.000000,-0.053000,0.026000,0.055000,FlatInitial
03:15:18.472 PM 02/14/2016,Teleop Enabled,0,FALSE,0,NO ERROR,3979.101562,-4003.710937,4000.000000,4000.000000,Speed,Speed,0.180000,1.000000,1.320000,3.000000,100.000000,1,0,-0.000558,0.001550,0,-0.025238,-0.052032,0.000000,44.090057,-4.841522,0.000000,-0.001000,-0.059000,-0.034000,FlatInitial
03:15:18.574 PM 02/14/2016,Teleop Enabled,0,FALSE,0,NO ERROR,3971.484375,-4005.322266,4000.000000,4000.000000,Speed,Speed,0.180000,0.990000,1.270000,3.000000,103.000000,1,0,-0.000558,0.001550,0,-0.042786,-0.082474,0.000000,44.088364,-4.844864,0.000000,-0.038000,-0.016000,0.086000,FlatInitial
03:15:18.675 PM 02/14/2016,Teleop Enabled,0,FALSE,0,NO ERROR,3963.427734,-4006.494141,4000.000000,4000.000000,Speed,Speed,0.200000,0.980000,1.280000,3.000000,102.000000,1,0,-0.000558,0.001550,0,-0.059509,-0.008301,0.000000,44.085052,-4.845078,0.000000,-0.042000,0.010000,0.075000,FlatInitial
03:15:18.775 PM 02/14/2016,Teleop Enabled,0,FALSE,0,NO ERROR,3983.935547,-4005.761719,4000.000000,4000.000000,Speed,Speed,0.190000,0.970000,1.380000,3.000000,102.000000,1,0,-0.000558,0.001550,0,-0.064606,0.001892,0.000000,44.081818,-4.845139,0.000000,0.027000,-0.005000,0.026000,FlatInitial
03:15:18.876 PM 02/14/2016,Teleop Enabled,0,FALSE,0,NO ERROR,3983.935547,-4003.417969,4000.000000,4000.000000,Speed,Speed,0.180000,0.990000,1.540000,3.000000,104.000000,1,0,-0.000558,0.001550,0,-0.050339,0.026810,0.000000,44.078995,-4.844452,0.000000,0.003000,0.070000,-0.094000,FlatInitial
03:15:18.977 PM 02/14/2016,Teleop Enabled,0,FALSE,0,NO ERROR,4027.880859,-4004.150391,4000.000000,4000.000000,Speed,Speed,0.190000,1.030000,1.680000,3.000000,103.000000,1,0,-0.000558,0.001550,0,-0.001556,0.039154,0.000000,44.077606,-4.842682,0.000000,0.017000,0.017000,-0.114000,FlatInitial
03:15:19.077 PM 02/14/2016,Teleop Enabled,0,FALSE,0,NO ERROR,4029.052734,-4004.150391,4000.000000,4000.000000,Speed,Speed,0.190000,1.050000,1.690000,3.000000,103.000000,1,0,-0.000558,0.001550,0,-0.003464,-0.008682,0.000000,44.077499,-4.841934,0.000000,-0.050000,-0.003000,0.111000,FlatInitial
03:15:19.178 PM 02/14/2016,Teleop Enabled,0,FALSE,0,NO ERROR,4019.091797,-4004.003906,4000.000000,4000.000000,Speed,Speed,0.190000,1.020000,1.670000,3.000000,100.000000,1,0,-0.000558,0.001550,0,-0.025162,-0.011292,0.000000,44.076599,-4.842331,0.000000,-0.019000,-0.061000,-0.022000,FlatInitial
03:15:19.278 PM 02/14/2016,Teleop Enabled,0,FALSE,0,NO ERROR,4015.722656,-4004.003906,4000.000000,4000.000000,Speed,Speed,0.180000,1.020000,1.580000,3.000000,100.000000,1,0,-0.000558,0.001550,0,-0.011230,-0.046494,0.000000,44.076324,-4.843933,0.000000,-0.054000,0.032000,0.104000,FlatInitial
03:15:19.378 PM 02/14/2016,Teleop Enabled,0,FALSE,0,NO ERROR,4007.519531,-4003.564453,4000.000000,4000.000000,Speed,Speed,0.190000,1.020000,1.590000,3.000000,102.000000,1,0,-0.000558,0.001550,0,-0.007996,-0.055588,0.000000,44.075714,-4.846939,0.000000,-0.011000,0.048000,0.111000,FlatInitial
03:15:19.478 PM 02/14/2016,Teleop Enabled,0,FALSE,0,NO ERROR,4009.130859,-4001.513672,4000.000000,4000.000000,Speed,Speed,0.190000,1.030000,1.620000,3.000000,101.000000,1,0,-0.000558,0.001550,0,-0.014221,-0.049759,0.000000,44.075409,-4.849075,0.000000,0.000000,-0.047000,-0.011000,FlatInitial
03:15:19.578 PM 02/14/2016,Teleop Enabled,0,FALSE,0,NO ERROR,4010.156250,-3999.023437,4000.000000,4000.000000,Speed,Speed,0.180000,1.050000,1.630000,3.000000,102.000000,1,0,-0.000558,0.001550,0,0.000000,-0.055206,0.000000,44.074631,-4.851807,0.000000,0.012000,0.009000,-0.115000,FlatInitial
03:15:19.678 PM 02/14/2016,Teleop Enabled,0,FALSE,0,NO ERROR,4010.156250,-3997.265625,4000.000000,4000.000000,Speed,Speed,0.180000,1.030000,1.680000,3.000000,102.000000,1,0,-0.000558,0.001550,0,-0.004181,-0.046097,0.000000,44.074585,-4.854691,0.000000,-0.029000,0.070000,0.093000,FlatInitial
03:15:19.778 PM 02/14/2016,Teleop Enabled,0,FALSE,0,NO ERROR,4005.908203,-3997.119141,4000.000000,4000.000000,Speed,Speed,0.180000,1.070000,1.780000,3.000000,102.000000,1,0,-0.000558,0.001550,0,-0.006912,-0.022751,0.000000,44.074310,-4.856064,0.000000,-0.026000,-0.039000,-0.037000,FlatInitial
03:15:19.879 PM 02/14/2016,Teleop Enabled,0,FALSE,0,NO ERROR,4004.882812,-3993.310547,4000.000000,4000.000000,Speed,Speed,0.180000,1.090000,1.810000,3.000000,101.000000,1,0,-0.000558,0.001550,0,-0.028488,-0.006424,0.000000,44.073227,-4.856827,0.000000,0.019000,0.052000,-0.126000,FlatInitial
03:15:19.980 PM 02/14/2016,Teleop Enabled,0,FALSE,0,NO ERROR,4006.201172,-3984.082031,4000.000000,4000.000000,Speed,Speed,0.180000,1.100000,1.920000,3.000000,104.000000,1,0,-0.000558,0.001550,0,-0.040894,0.013596,0.000000,44.071533,-4.856400,0.000000,-0.045000,0.039000,0.119000,FlatInitial
03:15:20.081 PM 02/14/2016,Teleop Enabled,0,FALSE,0,NO ERROR,4006.201172,-3988.769531,4000.000000,4000.000000,Speed,Speed,0.180000,1.090000,2.000000,3.000000,102.000000,1,0,-0.000558,0.001550,0,-0.055603,0.025940,0.000000,44.068939,-4.855545,0.000000,-0.031000,0.023000,0.157000,FlatInitial
03:15:20.181 PM 02/14/2016,Teleop Enabled,0,FALSE,0,NO ERROR,4004.736328,-4002.246094,4000.000000,4000.000000,Speed,Speed,0.180000,1.090000,2.100000,3.000000,103.000000,1,0,-0.000558,0.001550,0,-0.060638,0.005859,0.000000,44.066055,-4.854431,0.000000,0.039000,0.001000,-0.026000,FlatInitial
03:15:20.282 PM 02/14/2016,Teleop Enabled,0,FALSE,0,NO ERROR,4002.832031,-4010.595703,4000.000000,4000.000000,Speed,Speed,0.180000,1.110000,2.180000,3.000000,101.000000,1,0,-0.000558,0.001550,0,-0.060532,0.029449,0.000000,44.063126,-4.853394,0.000000,-0.032000,0.023000,0.130000,FlatInitial
03:15:20.383 PM 02/14/2016,Teleop Enabled,0,FALSE,0,NO ERROR,4001.074219,-4013.232422,4000.000000,4000.000000,Speed,Speed,0.180000,1.100000,2.220000,3.000000,102.000000,1,0,-0.000558,0.001550,0,-0.071091,0.001526,0.000000,44.059723,-4.852631,0.000000,-0.054000,0.000000,0.136000,FlatInitial
03:15:20.483 PM 02/14/2016,Teleop Enabled,0,FALSE,0,NO ERROR,3996.972656,-4004.736328,4000.000000,4000.000000,Speed,Speed,0.180000,1.110000,2.250000,3.000000,101.000000,1,0,-0.000558,0.001550,0,0.000000,0.017227,0.000000,44.057388,-4.852203,0.000000,-0.003000,0.002000,-0.035000,FlatInitial
03:15:20.583 PM 02/14/2016,Teleop Enabled,0,FALSE,0,NO ERROR,3995.068359,-3993.164062,4000.000000,4000.000000,Speed,Speed,0.180000,1.130000,2.280000,3.000000,102.000000,1,0,-0.000558,0.001550,0,-0.023834,0.000916,0.000000,44.056732,-4.851837,0.000000,-0.007000,0.033000,-0.082000,FlatInitial
03:15:20.684 PM 02/14/2016,Teleop Enabled,0,FALSE,0,NO ERROR,3991.406250,-3992.724609,4000.000000,4000.000000,Speed,Speed,0.180000,1.130000,2.320000,3.000000,102.000000,1,0,-0.000558,0.001550,0,-0.042984,-0.004333,0.000000,44.055115,-4.851898,0.000000,-0.044000,-0.027000,0.123000,FlatInitial
03:15:20.785 PM 02/14/2016,Teleop Enabled,0,FALSE,0,NO ERROR,3989.648437,-3997.558594,4000.000000,4000.000000,Speed,Speed,0.180000,1.110000,2.320000,3.000000,103.000000,1,0,-0.000558,0.001550,0,-0.006134,-0.005478,0.000000,44.054565,-4.852188,0.000000,0.019000,-0.036000,-0.043000,FlatInitial
03:15:20.886 PM 02/14/2016,Teleop Enabled,0,FALSE,0,NO ERROR,3992.578125,-4002.832031,4000.000000,4000.000000,Speed,Speed,0.180000,1.110000,2.320000,3.000000,101.000000,1,0,-0.000558,0.001550,0,-0.003494,-0.003174,0.000000,44.054474,-4.852371,0.000000,0.007000,0.018000,-0.095000,FlatInitial
03:15:20.985 PM 02/14/2016,Teleop Enabled,0,FALSE,0,NO ERROR,3996.533203,-4006.933594,4000.000000,4000.000000,Speed,Speed,0.180000,1.140000,2.370000,3.000000,102.000000,1,0,-0.000558,0.001550,0,-0.016052,0.005997,0.000000,44.053955,-4.852295,0.000000,-0.034000,0.040000,0.111000,FlatInitial
03:15:21.086 PM 02/14/2016,Teleop Enabled,0,FALSE,0,NO ERROR,4001.953125,-4008.544922,4000.000000,4000.000000,Speed,Speed,0.180000,1.130000,2.370000,3.000000,101.000000,1,0,-0.000558,0.001550,0,0.000000,0.014618,0.000000,44.053375,-4.851791,0.000000,0.003000,-0.026000,-0.038000,FlatInitial
03:15:21.186 PM 02/14/2016,Teleop Enabled,0,FALSE,0,NO ERROR,4006.494141,-4007.080078,4000.000000,4000.000000,Speed,Speed,0.170000,1.150000,2.450000,3.000000,102.000000,1,0,-0.000558,0.001550,0,-0.012756,0.031342,0.000000,44.053101,-4.850601,0.000000,-0.016000,-0.012000,-0.046000,FlatInitial
03:15:21.287 PM 02/14/2016,Teleop Enabled,0,FALSE,0,NO ERROR,4011.474609,-4006.640625,4000.000000,4000.000000,Speed,Speed,0.170000,1.190000,2.490000,3.000000,100.000000,1,0,-0.000558,0.001550,0,-0.002411,0.009659,0.000000,44.053070,-4.850006,0.000000,0.021000,0.048000,-0.091000,FlatInitial
03:15:21.388 PM 02/14/2016,Teleop Enabled,0,FALSE,0,NO ERROR,4009.863281,-4005.615234,4000.000000,4000.000000,Speed,Speed,0.170000,1.210000,2.510000,3.000000,102.000000,1,0,-0.000558,0.001550,0,-0.003571,0.021057,0.000000,44.052902,-4.849091,0.000000,0.008000,-0.024000,-0.041000,FlatInitial
03:15:21.487 PM 02/14/2016,Teleop Enabled,0,FALSE,0,NO ERROR,4005.468750,-4004.882812,4000.000000,4000.000000,Speed,Speed,0.160000,1.210000,2.520000,3.000000,101.000000,1,0,-0.000558,0.001550,0,0.003479,0.022614,0.000000,44.052734,-4.847763,0.000000,0.022000,-0.009000,-0.036000,FlatInitial
03:15:21.587 PM 02/14/2016,Teleop Enabled,0,FALSE,0,NO ERROR,4002.978516,-4001.074219,4000.000000,4000.000000,Speed,Speed,0.160000,1.250000,2.490000,3.000000,103.000000,1,0,-0.000558,0.001550,0,0.006882,-0.005066,0.000000,44.052917,-4.847824,0.000000,-0.015000,0.055000,-0.031000,FlatInitial
03:15:21.688 PM 02/14/2016,Teleop Enabled,0,FALSE,0,NO ERROR,4013.818359,-4021.289062,4000.000000,4000.000000,Speed,Speed,0.190000,1.260000,2.490000,3.000000,102.000000,1,0,-0.000558,0.001550,0,0.031464,-0.006638,0.000000,44.053940,-4.847809,0.000000,0.046000,-0.083000,0.088000,FlatInitial
03:15:21.789 PM 02/14/2016,Teleop Enabled,0,FALSE,0,NO ERROR,4063.476562,-4079.882812,4000.000000,4000.000000,Speed,Speed,0.220000,1.220000,2.510000,3.000000,101.000000,1,0,-0.000558,0.001550,0,0.022339,-0.000534,0.000000,44.055344,-4.848343,0.000000,0.024000,0.079000,-0.126000,FlatInitial
03:15:21.890 PM 02/14/2016,Teleop Enabled,0,FALSE,0,NO ERROR,4082.666016,-4091.894531,4000.000000,4000.000000,Speed,Speed,0.210000,1.280000,2.420000,3.000000,101.000000,1,0,-0.000558,0.001550,0,0.019867,0.003754,0.000000,44.056335,-4.848190,0.000000,0.000000,-0.014000,-0.015000,FlatInitial
03:15:21.991 PM 02/14/2016,Teleop Enabled,0,FALSE,0,NO ERROR,4073.144531,-4072.558594,4000.000000,4000.000000,Speed,Speed,0.110000,1.260000,2.450000,3.000000,103.000000,1,0,-0.000558,0.001550,0,0.006927,-0.032410,0.000000,44.057129,-4.848877,0.000000,0.020000,-0.036000,0.007000,FlatInitial
03:15:22.091 PM 02/14/2016,Teleop Enabled,0,FALSE,0,NO ERROR,4050.000000,-4041.210937,4000.000000,4000.000000,Speed,Speed,0.190000,1.240000,2.200000,3.000000,102.000000,1,0,-0.000558,0.001550,0,-0.007126,-0.058395,0.000000,44.057068,-4.851349,0.000000,0.025000,-0.030000,-0.078000,FlatInitial
03:15:22.191 PM 02/14/2016,Teleop Enabled,0,FALSE,0,NO ERROR,4027.734375,-4019.384766,4000.000000,4000.000000,Speed,Speed,0.160000,1.220000,2.250000,3.000000,100.000000,1,0,-0.000558,0.001550,0,-0.018082,-0.076553,0.000000,44.056564,-4.854904,0.000000,-0.066000,0.099000,0.092000,FlatInitial
03:15:22.292 PM 02/14/2016,Teleop Enabled,0,FALSE,0,NO ERROR,4015.136719,-4011.035156,4000.000000,4000.000000,Speed,Speed,0.200000,1.210000,2.370000,3.000000,105.000000,1,0,-0.000558,0.001550,0,0.000000,0.013550,0.000000,44.055344,-4.855240,0.000000,0.003000,0.019000,-0.016000,FlatInitial
03:15:22.391 PM 02/14/2016,Teleop Enabled,0,FALSE,0,NO ERROR,4008.251953,-4010.595703,4000.000000,4000.000000,Speed,Speed,0.170000,1.210000,2.320000,3.000000,102.000000,1,0,-0.000558,0.001550,0,-0.009705,-0.001892,0.000000,44.055267,-4.855362,0.000000,0.032000,0.008000,-0.053000,FlatInitial
03:15:22.491 PM 02/14/2016,Teleop Enabled,0,FALSE,0,NO ERROR,4004.882812,-4006.347656,4000.000000,4000.000000,Speed,Speed,0.100000,1.250000,2.370000,3.000000,102.000000,1,0,-0.000558,0.001550,0,-0.005203,0.002228,0.000000,44.055130,-4.855515,0.000000,0.007000,0.015000,-0.072000,FlatInitial
03:15:22.593 PM 02/14/2016,Teleop Enabled,0,FALSE,0,NO ERROR,4004.882812,-4004.589844,4000.000000,4000.000000,Speed,Speed,0.190000,1.280000,2.340000,3.000000,102.000000,1,0,-0.000558,0.001550,0,-0.000198,0.000626,0.000000,44.054977,-4.855225,0.000000,0.018000,-0.069000,-0.041000,FlatInitial
03:15:22.692 PM 02/14/2016,Teleop Enabled,0,FALSE,0,NO ERROR,4003.417969,-4003.125000,4000.000000,4000.000000,Speed,Speed,0.160000,1.290000,2.440000,3.000000,100.000000,1,0,-0.000558,0.001550,0,0.000000,0.021530,0.000000,44.054962,-4.854584,0.000000,0.000000,-0.001000,-0.022000,FlatInitial
03:15:22.793 PM 02/14/2016,Teleop Enabled,0,FALSE,0,NO ERROR,4000.195312,-4001.806641,4000.000000,4000.000000,Speed,Speed,0.160000,1.320000,2.430000,3.000000,102.000000,1,0,-0.000558,0.001550,0,-0.006027,0.027939,0.000000,44.054871,-4.853134,0.000000,-0.011000,0.014000,-0.071000,FlatInitial
03:15:22.894 PM 02/14/2016,Teleop Enabled,0,FALSE,0,NO ERROR,3998.730469,-4001.953125,4000.000000,4000.000000,Speed,Speed,0.140000,1.350000,2.400000,3.000000,101.000000,1,0,-0.000558,0.001550,0,-0.008255,-0.005234,0.000000,44.054703,-4.852905,0.000000,-0.038000,-0.034000,0.106000,FlatInitial
03:15:22.993 PM 02/14/2016,Teleop Enabled,0,FALSE,0,NO ERROR,3996.386719,-3997.558594,4000.000000,4000.000000,Speed,Speed,0.130000,1.340000,2.390000,3.000000,102.000000,1,0,-0.000558,0.001550,0,-0.008987,0.005661,0.000000,44.054443,-4.853073,0.000000,-0.011000,-0.036000,-0.043000,FlatInitial
03:15:23.094 PM 02/14/2016,Teleop Enabled,0,FALSE,0,NO ERROR,3995.654297,-3992.431641,4000.000000,4000.000000,Speed,Speed,0.180000,1.370000,2.400000,3.000000,102.000000,1,0,-0.000558,0.001550,0,-0.009247,0.000000,0.000000,44.054138,-4.852646,0.000000,0.007000,-0.018000,-0.071000,FlatInitial
03:15:23.195 PM 02/14/2016,Teleop Enabled,0,FALSE,0,NO ERROR,3991.113281,-3992.138672,4000.000000,4000.000000,Speed,Speed,0.150000,1.370000,2.420000,3.000000,101.000000,1,0,-0.000558,0.001550,0,-0.009659,0.002670,0.000000,44.053772,-4.852493,0.000000,-0.027000,0.022000,0.087000,FlatInitial
03:15:23.295 PM 02/14/2016,Teleop Enabled,0,FALSE,0,NO ERROR,3990.966797,-3992.431641,4000.000000,4000.000000,Speed,Speed,0.150000,1.360000,2.410000,3.000000,101.000000,1,0,-0.000558,0.001550,0,-0.016266,-0.007889,0.000000,44.053040,-4.852524,0.000000,-0.028000,-0.038000,-0.012000,FlatInitial
03:15:23.396 PM 02/14/2016,Teleop Enabled,0,FALSE,0,NO ERROR,3992.578125,-3995.507812,4000.000000,4000.000000,Speed,Speed,0.150000,1.390000,2.400000,3.000000,103.000000,1,0,-0.000558,0.001550,0,0.000000,-0.017410,0.000000,44.052368,-4.852982,0.000000,0.010000,-0.002000,-0.069000,FlatInitial
03:15:23.496 PM 02/14/2016,Teleop Enabled,0,FALSE,0,NO ERROR,3993.603516,-3996.826172,4000.000000,4000.000000,Speed,Speed,0.160000,1.390000,2.360000,3.000000,102.000000,1,0,-0.000558,0.001550,0,-0.005890,-0.006668,0.000000,44.052261,-4.853302,0.000000,-0.049000,0.053000,0.108000,FlatInitial
03:15:23.596 PM 02/14/2016,Teleop Enabled,0,FALSE,0,NO ERROR,3996.679687,-3998.291016,4000.000000,4000.000000,Speed,Speed,0.150000,1.380000,2.370000,3.000000,103.000000,1,0,-0.000558,0.001550,0,-0.012161,-0.005508,0.000000,44.051804,-4.853546,0.000000,-0.037000,-0.041000,-0.016000,FlatInitial
03:15:23.696 PM 02/14/2016,Teleop Enabled,0,FALSE,0,NO ERROR,4000.048828,-4002.099609,4000.000000,4000.000000,Speed,Speed,0.140000,1.380000,2.370000,3.000000,102.000000,1,0,-0.000558,0.001550,0,-0.036911,-0.009628,0.000000,44.050476,-4.854019,0.000000,0.003000,-0.028000,-0.097000,FlatInitial
