Time,RobotMode,AutoToRun,ErrorStatus, ErrorCode,ErrorSource,ActualRPM1,ActualRPM2,DesiredRPM1,DesiredRPM2,ControlMode1,ControlMode2,NavXYaw,NavXRoll,NavXPitch,ShooterState,LoopTime,IsLevel,IsAutoTargeting,LeftMotorOutput,RightMotorOutput,IsHaloDrive,NavXVelocityX,NavXVelocityY,NavXVelocityZ,NavXDisplacementX,NavXDisplacementY,NavXDisplacementZ,NavXAccelerationX,NavXAccelerationY,NavXAccelerationZ,AutoDefendState
01:39:07.972 PM 02/14/2016,Teleop Disabled,0,TRUE,-44087,NetComm_CAN_Receive.vi:5470006<APPEND>  <b>Complete call chain:</b>      NetComm_CAN_Receive.vi:5470006      WPI_CANTalonSRX_Receive.vi      WPI_MotorControlOpenCANTalonSRX.vi      Begin.vi      Robot Main.vi,0.000000,-727.587891,4000.000000,4000.000000,Speed,Speed,0.160000,1.290000,1.860000,3.000000,100.000000,1,0,-0.006200,-0.006200,0,0.000000,0.000000,0.000000,-0.114868,0.041641,0.000000,0.003000,-0.006000,-0.002000,FlatInitial
01:39:08.070 PM 02/14/2016,Teleop Disabled,0,TRUE,-44087,NetComm_CAN_Receive.vi:5470006<APPEND>  <b>Complete call chain:</b>      NetComm_CAN_Receive.vi:5470006      WPI_CANTalonSRX_Receive.vi      WPI_MotorControlOpenCANTalonSRX.vi      Begin.vi      Robot Main.vi,0.000000,-727.587891,0.000000,0.000000,Speed,Speed,0.160000,1.290000,1.860000,0.000000,40571.000000,1,0,-0.006200,-0.006200,0,0.000000,0.000000,0.000000,-0.114868,0.041641,0.000000,0.003000,-0.006000,-0.002000,FlatInitial
01:39:08.180 PM 02/14/2016,Teleop Disabled,0,TRUE,-44087,NetComm_CAN_Receive.vi:5470006<APPEND>  <b>Complete call chain:</b>      NetComm_CAN_Receive.vi:5470006      WPI_CANTalonSRX_Receive.vi      WPI_MotorControlOpenCANTalonSRX.vi      Begin.vi      Robot Main.vi,0.000000,-727.587891,0.000000,0.000000,Speed,Speed,0.000000,1.450000,1.680000,0.000000,101.000000,1,0,-0.006200,-0.006200,0,0.000000,0.000000,0.000000,-0.116333,0.037033,0.000000,0.000000,0.001000,0.000000,FlatInitial
01:39:08.281 PM 02/14/2016,Teleop Disabled,0,TRUE,-44087,NetComm_CAN_Receive.vi:5470006<APPEND>  <b>Complete call chain:</b>      NetComm_CAN_Receive.vi:5470006      WPI_CANTalonSRX_Receive.vi      WPI_MotorControlOpenCANTalonSRX.vi      Begin.vi      Robot Main.vi,0.000000,-727.587891,0.000000,0.000000,Speed,Speed,0.000000,1.460000,1.670000,0.000000,101.000000,1,0,-0.006200,-0.006200,0,0.000000,0.000000,0.000000,-0.116333,0.037033,0.000000,0.000000,0.000000,-0.003000,FlatInitial
01:39:08.381 PM 02/14/2016,Teleop Disabled,0,TRUE,-44087,NetComm_CAN_Receive.vi:5470006<APPEND>  <b>Complete call chain:</b>      NetComm_CAN_Receive.vi:5470006      WPI_CANTalonSRX_Receive.vi      WPI_MotorControlOpenCANTalonSRX.vi      Begin.vi      Robot Main.vi,0.000000,-727.587891,0.000000,0.000000,Speed,Speed,0.000000,1.460000,1.670000,0.000000,102.000000,1,0,-0.006200,-0.006200,0,0.000000,0.000000,0.000000,-0.116333,0.037033,0.000000,0.000000,0.000000,0.003000,FlatInitial
01:39:08.482 PM 02/14/2016,Teleop Disabled,0,TRUE,-44087,NetComm_CAN_Receive.vi:5470006<APPEND>  <b>Complete call chain:</b>      NetComm_CAN_Receive.vi:5470006      WPI_CANTalonSRX_Receive.vi      WPI_MotorControlOpenCANTalonSRX.vi      Begin.vi      Robot Main.vi,0.000000,-727.587891,0.000000,0.000000,Speed,Speed,0.010000,1.450000,1.660000,0.000000,101.000000,1,0,-0.006200,-0.006200,0,0.000000,0.000000,0.000000,-0.116333,0.037033,0.000000,0.001000,-0.001000,0.000000,FlatInitial
01:39:08.583 PM 02/14/2016,Teleop Disabled,0,TRUE,-44087,NetComm_CAN_Receive.vi:5470006<APPEND>  <b>Complete call chain:</b>      NetComm_CAN_Receive.vi:5470006      WPI_CANTalonSRX_Receive.vi      WPI_MotorControlOpenCANTalonSRX.vi      Begin.vi      Robot Main.vi,0.000000,-727.587891,0.000000,0.000000,Speed,Speed,0.020000,1.450000,1.660000,0.000000,101.000000,1,0,-0.006200,-0.006200,0,0.000000,0.000000,0.000000,-0.116333,0.037033,0.000000,0.000000,0.001000,0.003000,FlatInitial
01:39:08.683 PM 02/14/2016,Teleop Disabled,0,TRUE,-44087,NetComm_CAN_Receive.vi:5470006<APPEND>  <b>Complete call chain:</b>      NetComm_CAN_Receive.vi:5470006      WPI_CANTalonSRX_Receive.vi      WPI_MotorControlOpenCANTalonSRX.vi      Begin.vi      Robot Main.vi,0.000000,-727.587891,0.000000,0.000000,Speed,Speed,0.020000,1.460000,1.660000,0.000000,101.000000,1,0,-0.006200,-0.006200,0,0.000000,0.000000,0.000000,-0.116333,0.037033,0.000000,0.000000,0.002000,0.000000,FlatInitial
01:39:08.783 PM 02/14/2016,Teleop Disabled,0,TRUE,-44087,NetComm_CAN_Receive.vi:5470006<APPEND>  <b>Complete call chain:</b>      NetComm_CAN_Receive.vi:5470006      WPI_CANTalonSRX_Receive.vi      WPI_MotorControlOpenCANTalonSRX.vi      Begin.vi      Robot Main.vi,0.000000,-727.587891,0.000000,0.000000,Speed,Speed,0.020000,1.460000,1.660000,0.000000,101.000000,1,0,-0.006200,-0.006200,0,0.000000,0.000000,0.000000,-0.116333,0.037033,0.000000,-0.001000,-0.006000,0.002000,FlatInitial
01:39:08.884 PM 02/14/2016,Teleop Disabled,0,TRUE,-44087,NetComm_CAN_Receive.vi:5470006<APPEND>  <b>Complete call chain:</b>      NetComm_CAN_Receive.vi:5470006      WPI_CANTalonSRX_Receive.vi      WPI_MotorControlOpenCANTalonSRX.vi      Begin.vi      Robot Main.vi,0.000000,-727.587891,0.000000,0.000000,Speed,Speed,0.020000,1.460000,1.650000,0.000000,103.000000,1,0,-0.006200,-0.006200,0,0.000000,0.000000,0.000000,-0.116333,0.037033,0.000000,0.000000,0.000000,0.000000,FlatInitial
01:39:08.984 PM 02/14/2016,Teleop Disabled,0,TRUE,-44087,NetComm_CAN_Receive.vi:5470006<APPEND>  <b>Complete call chain:</b>      NetComm_CAN_Receive.vi:5470006      WPI_CANTalonSRX_Receive.vi      WPI_MotorControlOpenCANTalonSRX.vi      Begin.vi      Robot Main.vi,0.000000,-727.587891,0.000000,0.000000,Speed,Speed,0.020000,1.460000,1.650000,0.000000,104.000000,1,0,-0.006200,-0.006200,0,0.000000,0.000000,0.000000,-0.116333,0.037033,0.000000,0.001000,0.000000,-0.001000,FlatInitial
01:39:09.086 PM 02/14/2016,Teleop Disabled,0,TRUE,-44087,NetComm_CAN_Receive.vi:5470006<APPEND>  <b>Complete call chain:</b>      NetComm_CAN_Receive.vi:5470006      WPI_CANTalonSRX_Receive.vi      WPI_MotorControlOpenCANTalonSRX.vi      Begin.vi      Robot Main.vi,0.000000,-727.587891,0.000000,0.000000,Speed,Speed,0.020000,1.460000,1.660000,0.000000,103.000000,1,0,-0.006200,-0.006200,0,0.000000,0.000000,0.000000,-0.116333,0.037033,0.000000,-0.001000,0.005000,0.000000,FlatInitial
01:39:09.186 PM 02/14/2016,Teleop Disabled,0,TRUE,-44087,NetComm_CAN_Receive.vi:5470006<APPEND>  <b>Complete call chain:</b>      NetComm_CAN_Receive.vi:5470006      WPI_CANTalonSRX_Receive.vi      WPI_CANTalonSRX_GetStatus.vi      ShooterVI.vi      Periodic Tasks.vi      Robot Main.vi,0.000000,-727.587891,0.000000,0.000000,Speed,Speed,0.020000,1.470000,1.660000,0.000000,102.000000,1,0,-0.006200,-0.006200,0,0.000000,0.000000,0.000000,-0.116333,0.037033,0.000000,0.001000,0.000000,0.000000,FlatInitial
01:39:09.286 PM 02/14/2016,Teleop Disabled,0,FALSE,0,NO ERROR,0.000000,-727.587891,0.000000,0.000000,Speed,Speed,0.010000,1.470000,1.650000,0.000000,101.000000,1,0,-0.006200,-0.006200,0,0.000000,0.000000,0.000000,-0.116333,0.037033,0.000000,-0.002000,0.000000,0.001000,FlatInitial
01:39:09.386 PM 02/14/2016,Teleop Disabled,0,FALSE,0,NO ERROR,0.000000,-727.587891,0.000000,0.000000,Speed,Speed,0.010000,1.470000,1.660000,0.000000,102.000000,1,0,-0.006200,-0.006200,0,0.000000,0.000000,0.000000,-0.116333,0.037033,0.000000,0.000000,0.001000,0.004000,FlatInitial
01:39:09.487 PM 02/14/2016,Teleop Disabled,0,FALSE,0,NO ERROR,0.000000,-727.587891,0.000000,0.000000,Speed,Speed,0.010000,1.460000,1.660000,0.000000,103.000000,1,0,-0.006200,-0.006200,0,0.000000,0.000000,0.000000,-0.116333,0.037033,0.000000,0.000000,0.004000,-0.001000,FlatInitial
01:39:09.587 PM 02/14/2016,Teleop Disabled,0,FALSE,0,NO ERROR,0.000000,-727.587891,0.000000,0.000000,Speed,Speed,0.020000,1.460000,1.670000,0.000000,101.000000,1,0,-0.006200,-0.006200,0,0.000000,0.000000,0.000000,-0.116333,0.037033,0.000000,0.001000,0.000000,0.002000,FlatInitial
01:39:09.687 PM 02/14/2016,Teleop Disabled,0,FALSE,0,NO ERROR,0.000000,-727.587891,0.000000,0.000000,Speed,Speed,0.020000,1.460000,1.670000,0.000000,101.000000,1,0,-0.006200,-0.006200,0,0.000000,0.000000,0.000000,-0.116333,0.037033,0.000000,0.000000,-0.004000,0.002000,FlatInitial
01:39:09.788 PM 02/14/2016,Teleop Disabled,0,FALSE,0,NO ERROR,0.000000,-727.587891,0.000000,0.000000,Speed,Speed,0.020000,1.460000,1.670000,0.000000,102.000000,1,0,-0.006200,-0.006200,0,0.000000,0.000000,0.000000,-0.116333,0.037033,0.000000,0.000000,0.002000,0.001000,FlatInitial
01:39:09.888 PM 02/14/2016,Teleop Disabled,0,FALSE,0,NO ERROR,0.000000,-727.587891,0.000000,0.000000,Speed,Speed,0.020000,1.460000,1.660000,0.000000,103.000000,1,0,-0.006200,-0.006200,0,0.000000,0.000000,0.000000,-0.116333,0.037033,0.000000,0.001000,0.001000,0.000000,FlatInitial
01:39:09.989 PM 02/14/2016,Teleop Disabled,0,FALSE,0,NO ERROR,0.000000,-727.587891,0.000000,0.000000,Speed,Speed,0.020000,1.450000,1.660000,0.000000,102.000000,1,0,-0.006200,-0.006200,0,0.000000,0.000000,0.000000,-0.116333,0.037033,0.000000,0.000000,0.000000,0.004000,FlatInitial
01:39:10.090 PM 02/14/2016,Teleop Disabled,0,FALSE,0,NO ERROR,0.000000,-727.587891,0.000000,0.000000,Speed,Speed,0.020000,1.450000,1.650000,0.000000,102.000000,1,0,-0.006200,-0.006200,0,0.000000,0.000000,0.000000,-0.116333,0.037033,0.000000,0.000000,0.000000,0.000000,FlatInitial
01:39:10.189 PM 02/14/2016,Teleop Disabled,0,FALSE,0,NO ERROR,0.000000,-727.587891,0.000000,0.000000,Speed,Speed,0.030000,1.460000,1.650000,0.000000,101.000000,1,0,-0.006200,-0.006200,0,0.000000,0.000000,0.000000,-0.116333,0.037033,0.000000,0.000000,0.000000,0.000000,FlatInitial
01:39:10.289 PM 02/14/2016,Teleop Disabled,0,FALSE,0,NO ERROR,0.000000,-727.587891,0.000000,0.000000,Speed,Speed,0.030000,1.460000,1.650000,0.000000,103.000000,1,0,-0.006200,-0.006200,0,0.000000,0.000000,0.000000,-0.116333,0.037033,0.000000,-0.001000,0.000000,0.000000,FlatInitial
01:39:10.389 PM 02/14/2016,Teleop Disabled,0,FALSE,0,NO ERROR,0.000000,-727.587891,0.000000,0.000000,Speed,Speed,0.030000,1.460000,1.650000,0.000000,101.000000,1,0,-0.006200,-0.006200,0,0.000000,0.000000,0.000000,-0.116333,0.037033,0.000000,-0.001000,0.001000,0.001000,FlatInitial
01:39:10.489 PM 02/14/2016,Teleop Disabled,0,FALSE,0,NO ERROR,0.000000,-727.587891,0.000000,0.000000,Speed,Speed,0.040000,1.460000,1.650000,0.000000,101.000000,1,0,-0.006200,-0.006200,0,0.000000,0.000000,0.000000,-0.116333,0.037033,0.000000,0.000000,0.002000,-0.001000,FlatInitial
01:39:10.590 PM 02/14/2016,Teleop Disabled,0,FALSE,0,NO ERROR,0.000000,-727.587891,0.000000,0.000000,Speed,Speed,0.040000,1.450000,1.650000,0.000000,102.000000,1,0,-0.006200,-0.006200,0,0.000000,0.000000,0.000000,-0.116333,0.037033,0.000000,0.000000,0.001000,0.005000,FlatInitial
01:39:10.689 PM 02/14/2016,Teleop Disabled,0,FALSE,0,NO ERROR,0.000000,-727.587891,0.000000,0.000000,Speed,Speed,0.040000,1.450000,1.640000,0.000000,103.000000,1,0,-0.006200,-0.006200,0,0.000000,0.000000,0.000000,-0.116333,0.037033,0.000000,-0.002000,0.000000,0.001000,FlatInitial
01:39:10.790 PM 02/14/2016,Teleop Disabled,0,FALSE,0,NO ERROR,0.000000,-727.587891,0.000000,0.000000,Speed,Speed,0.050000,1.450000,1.640000,0.000000,102.000000,1,0,-0.006200,-0.006200,0,0.000000,0.000000,0.000000,-0.116333,0.037033,0.000000,0.000000,0.001000,0.001000,FlatInitial
01:39:10.890 PM 02/14/2016,Teleop Disabled,0,FALSE,0,NO ERROR,0.000000,-727.587891,0.000000,0.000000,Speed,Speed,0.040000,1.450000,1.650000,0.000000,103.000000,1,0,-0.006200,-0.006200,0,0.000000,0.000000,0.000000,-0.116333,0.037033,0.000000,0.000000,-0.005000,0.007000,FlatInitial
01:39:10.990 PM 02/14/2016,Teleop Disabled,0,FALSE,0,NO ERROR,0.000000,-727.587891,0.000000,0.000000,Speed,Speed,0.040000,1.460000,1.640000,0.000000,104.000000,1,0,-0.006200,-0.006200,0,0.000000,0.000000,0.000000,-0.116333,0.037033,0.000000,0.000000,0.000000,0.004000,FlatInitial
01:39:11.090 PM 02/14/2016,Teleop Disabled,0,FALSE,0,NO ERROR,0.000000,-727.587891,0.000000,0.000000,Speed,Speed,0.040000,1.450000,1.640000,0.000000,101.000000,1,0,-0.006200,-0.006200,0,0.000000,0.000000,0.000000,-0.116333,0.037033,0.000000,0.000000,0.000000,0.000000,FlatInitial
01:39:11.190 PM 02/14/2016,Teleop Disabled,0,FALSE,0,NO ERROR,0.000000,-727.587891,0.000000,0.000000,Speed,Speed,0.040000,1.450000,1.640000,0.000000,102.000000,1,0,-0.006200,-0.006200,0,0.000000,0.000000,0.000000,-0.116333,0.037033,0.000000,0.002000,0.000000,-0.001000,FlatInitial
01:39:11.289 PM 02/14/2016,Teleop Disabled,0,FALSE,0,NO ERROR,0.000000,-727.587891,-6000.000000,-6000.000000,Speed,Speed,0.040000,1.460000,1.640000,1.000000,102.000000,1,0,-0.006200,-0.006200,0,0.000000,0.000000,0.000000,-0.116333,0.037033,0.000000,0.000000,0.001000,0.002000,FlatInitial
01:39:11.389 PM 02/14/2016,Teleop Disabled,0,FALSE,0,NO ERROR,0.000000,-727.587891,0.000000,0.000000,Speed,Speed,0.050000,1.460000,1.630000,2.000000,102.000000,1,0,-0.006200,-0.006200,0,0.000000,0.000000,0.000000,-0.116333,0.037033,0.000000,0.000000,0.000000,-0.001000,FlatInitial
01:39:11.489 PM 02/14/2016,Teleop Disabled,0,FALSE,0,NO ERROR,0.000000,-727.587891,0.000000,0.000000,Speed,Speed,0.040000,1.460000,1.630000,2.000000,103.000000,1,0,-0.006200,-0.006200,0,0.000000,0.000000,0.000000,-0.116333,0.037033,0.000000,-0.001000,0.000000,0.000000,FlatInitial
01:39:11.590 PM 02/14/2016,Teleop Disabled,0,FALSE,0,NO ERROR,0.000000,-727.587891,0.000000,0.000000,Speed,Speed,0.040000,1.460000,1.630000,2.000000,102.000000,1,0,-0.006200,-0.006200,0,0.000000,0.000000,0.000000,-0.116333,0.037033,0.000000,0.001000,0.000000,-0.001000,FlatInitial
01:39:11.689 PM 02/14/2016,Teleop Disabled,0,FALSE,0,NO ERROR,0.000000,-727.587891,0.000000,0.000000,Speed,Speed,0.040000,1.460000,1.630000,2.000000,102.000000,1,0,-0.006200,-0.006200,0,0.000000,0.000000,0.000000,-0.116333,0.037033,0.000000,0.003000,0.000000,0.002000,FlatInitial
01:39:11.790 PM 02/14/2016,Teleop Disabled,0,FALSE,0,NO ERROR,0.000000,-727.587891,0.000000,0.000000,Speed,Speed,0.040000,1.460000,1.630000,2.000000,101.000000,1,0,-0.006200,-0.006200,0,0.000000,0.000000,0.000000,-0.116333,0.037033,0.000000,0.000000,0.000000,0.000000,FlatInitial
01:39:11.890 PM 02/14/2016,Teleop Disabled,0,FALSE,0,NO ERROR,0.000000,-727.587891,0.000000,0.000000,Speed,Speed,0.040000,1.460000,1.630000,2.000000,103.000000,1,0,-0.006200,-0.006200,0,0.000000,0.000000,0.000000,-0.116333,0.037033,0.000000,0.000000,0.002000,0.002000,FlatInitial
01:39:11.991 PM 02/14/2016,Teleop Disabled,0,FALSE,0,NO ERROR,0.000000,-727.587891,0.000000,0.000000,Speed,Speed,0.030000,1.460000,1.630000,2.000000,103.000000,1,0,-0.006200,-0.006200,0,0.000000,0.000000,0.000000,-0.116333,0.037033,0.000000,-0.001000,0.002000,-0.003000,FlatInitial
01:39:12.090 PM 02/14/2016,Teleop Disabled,0,FALSE,0,NO ERROR,0.000000,-727.587891,0.000000,0.000000,Speed,Speed,0.030000,1.460000,1.640000,2.000000,102.000000,1,0,-0.006200,-0.006200,0,0.000000,0.000000,0.000000,-0.116333,0.037033,0.000000,-0.001000,0.001000,-0.001000,FlatInitial
01:39:12.190 PM 02/14/2016,Teleop Disabled,0,FALSE,0,NO ERROR,0.000000,-727.587891,0.000000,0.000000,Speed,Speed,0.040000,1.460000,1.640000,2.000000,102.000000,1,0,-0.006200,-0.006200,0,0.000000,0.000000,0.000000,-0.116333,0.037033,0.000000,0.000000,0.000000,0.003000,FlatInitial
01:39:12.291 PM 02/14/2016,Teleop Disabled,0,FALSE,0,NO ERROR,0.000000,-727.587891,0.000000,0.000000,Speed,Speed,0.040000,1.470000,1.640000,2.000000,101.000000,1,0,-0.006200,-0.006200,0,0.000000,0.000000,0.000000,-0.116333,0.037033,0.000000,0.000000,0.000000,0.000000,FlatInitial
01:39:12.392 PM 02/14/2016,Teleop Disabled,0,FALSE,0,NO ERROR,0.000000,-727.587891,0.000000,0.000000,Speed,Speed,0.040000,1.460000,1.640000,2.000000,101.000000,1,0,-0.006200,-0.006200,0,0.000000,0.000000,0.000000,-0.116333,0.037033,0.000000,-0.004000,0.000000,0.001000,FlatInitial
01:39:12.491 PM 02/14/2016,Teleop Disabled,0,FALSE,0,NO ERROR,0.000000,-727.587891,0.000000,0.000000,Speed,Speed,0.040000,1.460000,1.640000,2.000000,101.000000,1,0,-0.006200,-0.006200,0,0.000000,0.000000,0.000000,-0.116333,0.037033,0.000000,0.000000,-0.001000,0.001000,FlatInitial
01:39:12.594 PM 02/14/2016,Teleop Disabled,0,FALSE,0,NO ERROR,0.000000,-727.587891,4000.000000,4000.000000,Speed,Speed,0.040000,1.460000,1.640000,3.000000,101.000000,1,0,-0.006200,-0.006200,0,0.000000,0.000000,0.000000,-0.116333,0.037033,0.000000,0.000000,0.000000,-0.002000,FlatInitial
01:39:12.694 PM 02/14/2016,Teleop Disabled,0,FALSE,0,NO ERROR,0.000000,-727.587891,4000.000000,4000.000000,Speed,Speed,0.040000,1.460000,1.640000,3.000000,103.000000,1,0,-0.006200,-0.006200,0,0.000000,0.000000,0.000000,-0.116333,0.037033,0.000000,0.000000,0.001000,0.002000,FlatInitial
01:39:12.795 PM 02/14/2016,Teleop Disabled,0,FALSE,0,NO ERROR,0.000000,-727.587891,4000.000000,4000.000000,Speed,Speed,0.040000,1.460000,1.630000,3.000000,101.000000,1,0,-0.006200,-0.006200,0,0.000000,0.000000,0.000000,-0.116333,0.037033,0.000000,-0.001000,0.000000,0.000000,FlatInitial
01:39:12.895 PM 02/14/2016,Teleop Disabled,0,FALSE,0,NO ERROR,0.000000,-727.587891,4000.000000,4000.000000,Speed,Speed,0.040000,1.460000,1.630000,3.000000,103.000000,1,0,-0.006200,-0.006200,0,0.000000,0.000000,0.000000,-0.116333,0.037033,0.000000,0.000000,0.000000,0.002000,FlatInitial
01:39:12.996 PM 02/14/2016,Teleop Disabled,0,FALSE,0,NO ERROR,0.000000,-727.587891,4000.000000,4000.000000,Speed,Speed,0.040000,1.460000,1.640000,3.000000,103.000000,1,0,-0.006200,-0.006200,0,0.000000,0.000000,0.000000,-0.116333,0.037033,0.000000,0.000000,0.000000,-0.001000,FlatInitial
01:39:13.098 PM 02/14/2016,Teleop Enabled,0,FALSE,0,NO ERROR,0.000000,-727.587891,4000.000000,4000.000000,Speed,Speed,0.040000,1.460000,1.650000,3.000000,102.000000,1,0,-0.006200,-0.006200,0,0.000000,0.000000,0.000000,-0.116333,0.037033,0.000000,0.040000,-0.005000,0.000000,FlatInitial
01:39:13.198 PM 02/14/2016,Teleop Enabled,0,FALSE,0,NO ERROR,0.000000,-727.587891,4000.000000,4000.000000,Speed,Speed,0.020000,1.470000,1.620000,3.000000,102.000000,1,0,-0.006200,-0.006200,0,0.000000,0.000000,0.000000,-0.116028,0.036865,0.000000,-0.004000,-0.002000,-0.024000,FlatInitial
01:39:13.298 PM 02/14/2016,Teleop Enabled,0,FALSE,0,NO ERROR,0.000000,-727.587891,4000.000000,4000.000000,Speed,Speed,0.020000,1.470000,1.620000,3.000000,101.000000,1,0,-0.006200,-0.006200,0,0.000000,0.000000,0.000000,-0.116028,0.036865,0.000000,0.003000,-0.005000,-0.006000,FlatInitial
01:39:13.398 PM 02/14/2016,Teleop Enabled,0,FALSE,0,NO ERROR,0.000000,-727.587891,4000.000000,4000.000000,Speed,Speed,0.000000,1.470000,1.610000,3.000000,101.000000,1,0,-0.006200,-0.006200,0,0.000000,0.000000,0.000000,-0.116028,0.036865,0.000000,0.014000,0.000000,0.007000,FlatInitial
01:39:13.498 PM 02/14/2016,Teleop Enabled,0,FALSE,0,NO ERROR,0.000000,-727.587891,4000.000000,4000.000000,Speed,Speed,0.000000,1.470000,1.630000,3.000000,104.000000,1,0,-0.006200,-0.006200,0,0.000000,0.000000,0.000000,-0.116028,0.036865,0.000000,0.003000,0.000000,0.002000,FlatInitial
01:39:13.598 PM 02/14/2016,Teleop Enabled,0,FALSE,0,NO ERROR,0.000000,-727.587891,4000.000000,4000.000000,Speed,Speed,-0.010000,1.480000,1.630000,3.000000,101.000000,1,0,-0.006200,-0.006200,0,0.000000,0.000000,0.000000,-0.116028,0.036865,0.000000,-0.003000,0.002000,-0.003000,FlatInitial
01:39:13.698 PM 02/14/2016,Teleop Enabled,0,FALSE,0,NO ERROR,0.000000,-727.587891,4000.000000,4000.000000,Speed,Speed,-0.010000,1.470000,1.620000,3.000000,102.000000,1,0,-0.006200,-0.006200,0,0.000000,0.000000,0.000000,-0.116028,0.036865,0.000000,0.004000,-0.007000,0.001000,FlatInitial
01:39:13.799 PM 02/14/2016,Teleop Enabled,0,FALSE,0,NO ERROR,0.000000,-727.587891,4000.000000,4000.000000,Speed,Speed,0.000000,1.450000,1.610000,3.000000,102.000000,1,0,-0.006200,-0.006200,0,0.000000,0.000000,0.000000,-0.116028,0.036865,0.000000,0.002000,0.003000,0.002000,FlatInitial
01:39:13.899 PM 02/14/2016,Teleop Enabled,0,FALSE,0,NO ERROR,0.000000,-727.587891,4000.000000,4000.000000,Speed,Speed,0.000000,1.470000,1.640000,3.000000,101.000000,1,0,-0.006200,-0.006200,0,0.000000,0.000000,0.000000,-0.116028,0.036865,0.000000,0.002000,-0.005000,0.005000,FlatInitial
01:39:14.000 PM 02/14/2016,Teleop Enabled,0,FALSE,0,NO ERROR,0.000000,-727.587891,4000.000000,4000.000000,Speed,Speed,-0.020000,1.460000,1.640000,3.000000,101.000000,1,0,-0.006200,-0.006200,0,0.000000,0.000000,0.000000,-0.116028,0.036865,0.000000,0.001000,-0.002000,0.005000,FlatInitial
01:39:14.100 PM 02/14/2016,Teleop Enabled,0,FALSE,0,NO ERROR,0.000000,-727.587891,4000.000000,4000.000000,Speed,Speed,-0.020000,1.460000,1.640000,3.000000,101.000000,1,0,-0.006200,-0.006200,0,0.000000,0.000000,0.000000,-0.116028,0.036865,0.000000,0.000000,0.002000,-0.002000,FlatInitial
01:39:14.200 PM 02/14/2016,Teleop Enabled,0,FALSE,0,NO ERROR,0.000000,-727.587891,4000.000000,4000.000000,Speed,Speed,-0.030000,1.460000,1.640000,3.000000,101.000000,1,0,-0.006200,-0.006200,0,0.000000,0.000000,0.000000,-0.116028,0.036865,0.000000,0.001000,0.003000,0.005000,FlatInitial
01:39:14.303 PM 02/14/2016,Teleop Enabled,0,FALSE,0,NO ERROR,0.000000,-727.587891,4000.000000,4000.000000,Speed,Speed,-0.020000,1.460000,1.650000,3.000000,103.000000,1,0,-0.006200,-0.006200,0,0.000000,0.000000,0.000000,-0.116028,0.036865,0.000000,0.000000,0.002000,0.000000,FlatInitial
01:39:14.404 PM 02/14/2016,Teleop Enabled,0,FALSE,0,NO ERROR,0.000000,-727.587891,4000.000000,4000.000000,Speed,Speed,-0.020000,1.460000,1.650000,3.000000,103.000000,1,0,-0.006200,-0.006200,0,0.000000,0.000000,0.000000,-0.116028,0.036865,0.000000,0.000000,0.002000,0.000000,FlatInitial
01:39:14.504 PM 02/14/2016,Teleop Enabled,0,FALSE,0,NO ERROR,0.000000,-727.587891,4000.000000,4000.000000,Speed,Speed,-0.040000,1.460000,1.630000,3.000000,102.000000,1,0,-0.006200,-0.006200,0,0.000000,0.000000,0.000000,-0.115814,0.036713,0.000000,0.013000,0.000000,0.041000,FlatInitial
01:39:14.605 PM 02/14/2016,Teleop Enabled,0,FALSE,0,NO ERROR,0.000000,-727.587891,4000.000000,4000.000000,Speed,Speed,-0.040000,1.460000,1.640000,3.000000,102.000000,1,0,-0.006200,-0.006200,0,0.000000,0.000000,0.000000,-0.115814,0.036713,0.000000,0.001000,-0.003000,0.039000,FlatInitial
01:39:14.707 PM 02/14/2016,Teleop Enabled,0,FALSE,0,NO ERROR,0.000000,-727.587891,4000.000000,4000.000000,Speed,Speed,-0.040000,1.470000,1.650000,3.000000,102.000000,1,0,-0.006200,-0.006200,0,0.000000,0.000000,0.000000,-0.115814,0.036713,0.000000,-0.001000,0.000000,0.004000,FlatInitial
01:39:14.806 PM 02/14/2016,Teleop Enabled,0,FALSE,0,NO ERROR,0.000000,-727.587891,4000.000000,4000.000000,Speed,Speed,-0.050000,1.470000,1.650000,3.000000,101.000000,1,0,-0.006200,-0.006200,0,0.000000,0.000000,0.000000,-0.115814,0.036713,0.000000,-0.003000,-0.002000,0.010000,FlatInitial
01:39:14.907 PM 02/14/2016,Teleop Enabled,0,FALSE,0,NO ERROR,0.000000,-727.587891,4000.000000,4000.000000,Speed,Speed,-0.050000,1.470000,1.650000,3.000000,103.000000,1,0,-0.006200,-0.006200,0,0.000000,0.000000,0.000000,-0.115814,0.036713,0.000000,0.000000,-0.003000,0.001000,FlatInitial
01:39:15.007 PM 02/14/2016,Teleop Enabled,0,FALSE,0,NO ERROR,0.000000,-727.587891,4000.000000,4000.000000,Speed,Speed,-0.050000,1.470000,1.650000,3.000000,102.000000,1,0,-0.006200,-0.006200,0,0.000000,0.000000,0.000000,-0.115814,0.036713,0.000000,0.001000,0.001000,0.004000,FlatInitial
01:39:15.109 PM 02/14/2016,Teleop Enabled,0,FALSE,0,NO ERROR,0.000000,-727.587891,4000.000000,4000.000000,Speed,Speed,-0.050000,1.460000,1.660000,3.000000,101.000000,1,0,-0.006200,-0.006200,0,0.000000,0.000000,0.000000,-0.115814,0.036713,0.000000,-0.001000,0.000000,0.004000,FlatInitial
01:39:15.210 PM 02/14/2016,Teleop Enabled,0,FALSE,0,NO ERROR,0.000000,-727.587891,4000.000000,4000.000000,Speed,Speed,-0.050000,1.470000,1.650000,3.000000,103.000000,1,0,-0.006200,-0.006200,0,0.000000,0.000000,0.000000,-0.115814,0.036713,0.000000,-0.002000,0.000000,0.001000,FlatInitial
01:39:15.310 PM 02/14/2016,Teleop Enabled,0,FALSE,0,NO ERROR,0.000000,-727.587891,4000.000000,4000.000000,Speed,Speed,-0.050000,1.460000,1.650000,3.000000,101.000000,1,0,-0.006200,-0.006200,0,0.000000,0.000000,0.000000,-0.115814,0.036713,0.000000,-0.001000,0.002000,0.002000,FlatInitial
01:39:15.410 PM 02/14/2016,Teleop Enabled,0,FALSE,0,NO ERROR,0.000000,-727.587891,4000.000000,4000.000000,Speed,Speed,-0.050000,1.450000,1.660000,3.000000,102.000000,1,0,-0.006200,-0.006200,0,0.000000,0.000000,0.000000,-0.115814,0.036713,0.000000,-0.002000,0.000000,0.000000,FlatInitial
01:39:15.510 PM 02/14/2016,Teleop Enabled,0,FALSE,0,NO ERROR,0.000000,-727.587891,4000.000000,4000.000000,Speed,Speed,-0.060000,1.450000,1.660000,3.000000,101.000000,1,0,-0.006200,-0.006200,0,0.000000,0.000000,0.000000,-0.115814,0.036713,0.000000,-0.002000,0.000000,0.000000,FlatInitial
01:39:15.610 PM 02/14/2016,Teleop Enabled,0,FALSE,0,NO ERROR,0.000000,-727.587891,4000.000000,4000.000000,Speed,Speed,-0.060000,1.450000,1.660000,3.000000,103.000000,1,0,-0.006200,-0.006200,0,0.000000,0.000000,0.000000,-0.115814,0.036713,0.000000,-0.002000,0.000000,0.000000,FlatInitial
01:39:15.711 PM 02/14/2016,Teleop Enabled,0,FALSE,0,NO ERROR,0.000000,-727.587891,4000.000000,4000.000000,Speed,Speed,-0.060000,1.440000,1.670000,3.000000,101.000000,1,0,-0.006200,-0.006200,0,0.000000,0.000000,0.000000,-0.115814,0.036713,0.000000,-0.002000,0.000000,0.000000,FlatInitial
01:39:15.811 PM 02/14/2016,Teleop Enabled,0,FALSE,0,NO ERROR,0.000000,-727.587891,4000.000000,4000.000000,Speed,Speed,-0.050000,1.450000,1.660000,3.000000,102.000000,1,0,-0.006200,-0.006200,0,0.000000,0.000000,0.000000,-0.115814,0.036713,0.000000,0.001000,0.000000,-0.002000,FlatInitial
01:39:15.912 PM 02/14/2016,Teleop Enabled,0,FALSE,0,NO ERROR,0.000000,-727.587891,4000.000000,4000.000000,Speed,Speed,-0.050000,1.440000,1.650000,3.000000,103.000000,1,0,-0.006200,-0.006200,0,0.000000,0.000000,0.000000,-0.115814,0.036713,0.000000,0.000000,-0.002000,0.003000,FlatInitial
01:39:16.013 PM 02/14/2016,Teleop Enabled,0,FALSE,0,NO ERROR,0.000000,-727.587891,4000.000000,4000.000000,Speed,Speed,-0.040000,1.440000,1.650000,3.000000,103.000000,1,0,-0.006200,-0.006200,0,0.000000,0.000000,0.000000,-0.115814,0.036713,0.000000,0.000000,-0.002000,0.003000,FlatInitial
01:39:16.114 PM 02/14/2016,Teleop Enabled,0,FALSE,0,NO ERROR,0.000000,-727.587891,4000.000000,4000.000000,Speed,Speed,-0.050000,1.440000,1.650000,3.000000,103.000000,1,0,-0.006200,-0.006200,0,0.000000,0.000000,0.000000,-0.115814,0.036713,0.000000,-0.001000,-0.001000,0.004000,FlatInitial
01:39:16.214 PM 02/14/2016,Teleop Enabled,0,FALSE,0,NO ERROR,0.000000,-727.587891,4000.000000,4000.000000,Speed,Speed,-0.050000,1.440000,1.640000,3.000000,101.000000,1,0,-0.006200,-0.006200,0,0.000000,0.000000,0.000000,-0.115814,0.036713,0.000000,0.000000,0.000000,-0.001000,FlatInitial
01:39:16.316 PM 02/14/2016,Teleop Enabled,0,FALSE,0,NO ERROR,0.000000,-727.587891,4000.000000,4000.000000,Speed,Speed,-0.050000,1.440000,1.640000,3.000000,100.000000,1,0,-0.006200,-0.006200,0,0.000000,0.000000,0.000000,-0.115814,0.036713,0.000000,0.000000,0.000000,-0.001000,FlatInitial
01:39:16.417 PM 02/14/2016,Teleop Enabled,0,FALSE,0,NO ERROR,0.000000,-727.587891,4000.000000,4000.000000,Speed,Speed,-0.060000,1.420000,1.640000,3.000000,101.000000,1,0,-0.006200,-0.006200,0,0.000000,0.000000,0.000000,-0.115814,0.036713,0.000000,-0.004000,-0.002000,0.000000,FlatInitial
01:39:16.517 PM 02/14/2016,Teleop Enabled,0,FALSE,0,NO ERROR,0.000000,-727.587891,4000.000000,4000.000000,Speed,Speed,-0.050000,1.400000,1.650000,3.000000,103.000000,1,0,-0.006200,-0.006200,0,0.000000,0.000000,0.000000,-0.115814,0.036713,0.000000,-0.002000,0.001000,-0.003000,FlatInitial
01:39:16.617 PM 02/14/2016,Teleop Enabled,0,FALSE,0,NO ERROR,0.000000,-727.587891,4000.000000,4000.000000,Speed,Speed,-0.040000,1.350000,1.620000,3.000000,102.000000,1,0,-0.006200,-0.006200,0,0.000000,0.000000,0.000000,-0.115814,0.036713,0.000000,-0.003000,0.002000,0.001000,FlatInitial
01:39:16.718 PM 02/14/2016,Teleop Enabled,0,FALSE,0,NO ERROR,0.000000,-727.587891,4000.000000,4000.000000,Speed,Speed,-0.040000,1.350000,1.650000,3.000000,101.000000,1,0,-0.006200,-0.006200,0,0.014130,0.000000,0.000000,-0.115540,0.036713,0.000000,-0.005000,0.002000,0.009000,FlatInitial
01:39:16.819 PM 02/14/2016,Teleop Enabled,0,FALSE,0,NO ERROR,0.000000,-727.587891,4000.000000,4000.000000,Speed,Speed,-0.220000,1.280000,1.750000,3.000000,105.000000,1,0,-0.006200,-0.006200,0,-0.007172,-0.003952,0.000000,-0.115723,0.036682,0.000000,-0.002000,-0.011000,-0.002000,FlatInitial
01:39:16.920 PM 02/14/2016,Teleop Enabled,0,FALSE,0,NO ERROR,0.000000,-727.587891,4000.000000,4000.000000,Speed,Speed,-0.280000,1.300000,1.760000,3.000000,102.000000,1,0,-0.006200,-0.006200,0,-0.019714,0.014648,0.000000,-0.116394,0.036560,0.000000,0.007000,-0.024000,-0.024000,FlatInitial
01:39:17.020 PM 02/14/2016,Teleop Enabled,0,FALSE,0,NO ERROR,0.000000,-727.587891,4000.000000,4000.000000,Speed,Speed,-0.100000,1.280000,1.890000,3.000000,101.000000,1,0,-0.006200,-0.006200,0,0.000000,0.000000,0.000000,-0.116394,0.037430,0.000000,-0.009000,0.051000,-0.016000,FlatInitial
01:39:17.123 PM 02/14/2016,Teleop Enabled,0,FALSE,0,NO ERROR,0.000000,-727.587891,4000.000000,4000.000000,Speed,Speed,-0.160000,1.290000,1.830000,3.000000,102.000000,1,0,-0.006200,-0.006200,0,0.000000,0.000000,0.000000,-0.116394,0.037430,0.000000,0.011000,-0.015000,-0.003000,FlatInitial
01:39:17.223 PM 02/14/2016,Teleop Enabled,0,FALSE,0,NO ERROR,0.000000,-727.587891,4000.000000,4000.000000,Speed,Speed,-0.220000,1.300000,1.820000,3.000000,103.000000,1,0,-0.006200,-0.006200,0,0.000000,0.000000,0.000000,-0.116394,0.037430,0.000000,0.006000,0.013000,-0.005000,FlatInitial
01:39:17.323 PM 02/14/2016,Teleop Enabled,0,FALSE,0,NO ERROR,0.000000,-727.587891,4000.000000,4000.000000,Speed,Speed,-0.220000,1.300000,1.820000,3.000000,100.000000,1,0,-0.006200,-0.006200,0,0.000000,0.000000,0.000000,-0.116394,0.036926,0.000000,-0.003000,-0.026000,-0.002000,FlatInitial
01:39:17.423 PM 02/14/2016,Teleop Enabled,0,FALSE,0,NO ERROR,0.000000,-727.587891,4000.000000,4000.000000,Speed,Speed,-0.170000,1.280000,1.790000,3.000000,103.000000,1,0,-0.006200,-0.006200,0,0.000000,0.000000,0.000000,-0.116394,0.036926,0.000000,0.003000,0.007000,0.005000,FlatInitial
01:39:17.523 PM 02/14/2016,Teleop Enabled,0,FALSE,0,NO ERROR,0.000000,-727.587891,4000.000000,4000.000000,Speed,Speed,-0.170000,1.280000,1.790000,3.000000,101.000000,1,0,-0.006200,-0.006200,0,0.000000,0.000000,0.000000,-0.116394,0.036926,0.000000,0.000000,-0.001000,-0.001000,FlatInitial
01:39:17.624 PM 02/14/2016,Teleop Enabled,0,FALSE,0,NO ERROR,0.000000,-727.587891,4000.000000,4000.000000,Speed,Speed,-0.170000,1.280000,1.830000,3.000000,100.000000,1,0,-0.006200,-0.006200,0,0.000000,0.000000,0.000000,-0.116394,0.036926,0.000000,-0.004000,0.005000,0.006000,FlatInitial
01:39:17.728 PM 02/14/2016,Teleop Enabled,0,FALSE,0,NO ERROR,0.000000,-727.587891,4000.000000,4000.000000,Speed,Speed,-0.170000,1.280000,1.820000,3.000000,105.000000,1,0,-0.006200,-0.006200,0,0.000000,0.000000,0.000000,-0.116394,0.036926,0.000000,0.006000,0.000000,0.000000,FlatInitial
01:39:17.828 PM 02/14/2016,Teleop Enabled,0,FALSE,0,NO ERROR,0.000000,-727.587891,4000.000000,4000.000000,Speed,Speed,-0.200000,1.280000,1.810000,3.000000,102.000000,1,0,-0.006200,-0.006200,0,0.000000,0.000000,0.000000,-0.116394,0.036926,0.000000,-0.003000,-0.005000,0.004000,FlatInitial
01:39:17.930 PM 02/14/2016,Teleop Enabled,0,FALSE,0,NO ERROR,0.000000,-727.587891,4000.000000,4000.000000,Speed,Speed,-0.200000,1.280000,1.810000,3.000000,102.000000,1,0,-0.006200,-0.006200,0,0.000000,0.000000,0.000000,-0.116394,0.036926,0.000000,-0.001000,-0.004000,0.004000,FlatInitial
01:39:18.030 PM 02/14/2016,Teleop Enabled,0,FALSE,0,NO ERROR,0.000000,-727.587891,4000.000000,4000.000000,Speed,Speed,-0.170000,1.270000,1.830000,3.000000,101.000000,1,0,-0.006200,-0.006200,0,0.000000,0.000000,0.000000,-0.116394,0.036926,0.000000,0.003000,0.000000,-0.001000,FlatInitial
01:39:18.130 PM 02/14/2016,Teleop Enabled,0,FALSE,0,NO ERROR,0.000000,-727.587891,4000.000000,4000.000000,Speed,Speed,-0.170000,1.270000,1.830000,3.000000,101.000000,1,0,-0.006200,-0.006200,0,0.000000,0.000000,0.000000,-0.116394,0.036926,0.000000,-0.003000,0.001000,0.001000,FlatInitial
01:39:18.230 PM 02/14/2016,Teleop Enabled,0,FALSE,0,NO ERROR,0.000000,-727.587891,4000.000000,4000.000000,Speed,Speed,-0.190000,1.270000,1.810000,3.000000,101.000000,1,0,-0.006200,-0.006200,0,0.000000,0.000000,0.000000,-0.116394,0.036926,0.000000,0.000000,0.005000,0.001000,FlatInitial
01:39:18.330 PM 02/14/2016,Teleop Enabled,0,FALSE,0,NO ERROR,0.000000,-727.587891,4000.000000,4000.000000,Speed,Speed,-0.190000,1.270000,1.810000,3.000000,103.000000,1,0,-0.006200,-0.006200,0,0.000000,0.000000,0.000000,-0.116394,0.036926,0.000000,0.003000,-0.003000,-0.002000,FlatInitial
01:39:18.432 PM 02/14/2016,Teleop Enabled,0,FALSE,0,NO ERROR,0.000000,-727.587891,4000.000000,4000.000000,Speed,Speed,-0.190000,1.280000,1.810000,3.000000,102.000000,1,0,-0.006200,-0.006200,0,0.000000,0.000000,0.000000,-0.116394,0.036926,0.000000,0.000000,-0.002000,0.004000,FlatInitial
01:39:18.533 PM 02/14/2016,Teleop Enabled,0,FALSE,0,NO ERROR,0.000000,-727.587891,4000.000000,4000.000000,Speed,Speed,-0.190000,1.270000,1.820000,3.000000,102.000000,1,0,-0.006200,-0.006200,0,0.000000,0.000000,0.000000,-0.116394,0.036926,0.000000,0.001000,0.000000,-0.002000,FlatInitial
01:39:18.634 PM 02/14/2016,Teleop Enabled,0,FALSE,0,NO ERROR,0.000000,-727.587891,4000.000000,4000.000000,Speed,Speed,-0.190000,1.270000,1.820000,3.000000,100.000000,1,0,-0.006200,-0.006200,0,0.000000,0.000000,0.000000,-0.116394,0.036926,0.000000,0.000000,0.000000,0.001000,FlatInitial
01:39:18.735 PM 02/14/2016,Teleop Enabled,0,FALSE,0,NO ERROR,0.000000,-727.587891,4000.000000,4000.000000,Speed,Speed,-0.190000,1.270000,1.820000,3.000000,101.000000,1,0,-0.006200,-0.006200,0,0.000000,0.000000,0.000000,-0.116394,0.036926,0.000000,0.004000,0.000000,0.002000,FlatInitial
01:39:18.835 PM 02/14/2016,Teleop Enabled,0,FALSE,0,NO ERROR,0.000000,-727.587891,4000.000000,4000.000000,Speed,Speed,-0.190000,1.270000,1.810000,3.000000,101.000000,1,0,-0.006200,-0.006200,0,0.000000,0.000000,0.000000,-0.116394,0.036926,0.000000,0.000000,0.000000,0.004000,FlatInitial
01:39:18.936 PM 02/14/2016,Teleop Enabled,0,FALSE,0,NO ERROR,0.000000,-727.587891,4000.000000,4000.000000,Speed,Speed,-0.190000,1.270000,1.810000,3.000000,103.000000,1,0,-0.006200,-0.006200,0,0.000000,0.000000,0.000000,-0.116394,0.036926,0.000000,-0.001000,-0.001000,0.002000,FlatInitial
01:39:19.036 PM 02/14/2016,Teleop Enabled,0,FALSE,0,NO ERROR,0.000000,-727.587891,4000.000000,4000.000000,Speed,Speed,-0.190000,1.280000,1.810000,3.000000,100.000000,1,0,-0.006200,-0.006200,0,0.000000,0.000000,0.000000,-0.116394,0.036926,0.000000,0.003000,-0.001000,0.000000,FlatInitial
01:39:19.137 PM 02/14/2016,Teleop Enabled,0,FALSE,0,NO ERROR,0.000000,-727.587891,4000.000000,4000.000000,Speed,Speed,-0.190000,1.270000,1.810000,3.000000,103.000000,1,0,-0.006200,-0.006200,0,0.000000,0.000000,0.000000,-0.116394,0.036926,0.000000,-0.001000,0.000000,0.000000,FlatInitial
01:39:19.237 PM 02/14/2016,Teleop Enabled,0,FALSE,0,NO ERROR,0.000000,-727.587891,4000.000000,4000.000000,Speed,Speed,-0.200000,1.280000,1.810000,3.000000,102.000000,1,0,-0.006200,-0.006200,0,0.000000,0.000000,0.000000,-0.116394,0.036926,0.000000,-0.004000,0.000000,-0.001000,FlatInitial
01:39:19.338 PM 02/14/2016,Teleop Enabled,0,FALSE,0,NO ERROR,0.000000,-727.587891,4000.000000,4000.000000,Speed,Speed,-0.190000,1.270000,1.810000,3.000000,102.000000,1,0,-0.006200,-0.006200,0,0.000000,0.000000,0.000000,-0.116394,0.036926,0.000000,0.000000,0.000000,-0.001000,FlatInitial
01:39:19.440 PM 02/14/2016,Teleop Enabled,0,FALSE,0,NO ERROR,0.000000,-727.587891,4000.000000,4000.000000,Speed,Speed,-0.190000,1.270000,1.810000,3.000000,102.000000,1,0,-0.006200,-0.006200,0,0.000000,0.000000,0.000000,-0.116394,0.036926,0.000000,-0.001000,-0.001000,0.002000,FlatInitial
01:39:19.540 PM 02/14/2016,Teleop Enabled,0,FALSE,0,NO ERROR,0.000000,-727.587891,4000.000000,4000.000000,Speed,Speed,-0.190000,1.270000,1.810000,3.000000,103.000000,1,0,-0.006200,-0.006200,0,0.000000,0.000000,0.000000,-0.116394,0.036926,0.000000,0.000000,0.000000,0.000000,FlatInitial
01:39:19.639 PM 02/14/2016,Teleop Enabled,0,FALSE,0,NO ERROR,0.000000,-727.587891,4000.000000,4000.000000,Speed,Speed,-0.200000,1.270000,1.810000,3.000000,100.000000,1,0,-0.006200,-0.006200,0,0.000000,0.000000,0.000000,-0.116394,0.036926,0.000000,0.000000,-0.001000,0.002000,FlatInitial
01:39:19.739 PM 02/14/2016,Teleop Enabled,0,FALSE,0,NO ERROR,0.000000,-727.587891,4000.000000,4000.000000,Speed,Speed,-0.190000,1.260000,1.810000,3.000000,103.000000,1,0,-0.006200,-0.006200,0,0.000000,0.000000,0.000000,-0.116394,0.036926,0.000000,-0.002000,0.000000,0.000000,FlatInitial
01:39:19.840 PM 02/14/2016,Teleop Enabled,0,FALSE,0,NO ERROR,0.000000,-727.587891,4000.000000,4000.000000,Speed,Speed,-0.190000,1.260000,1.810000,3.000000,101.000000,1,0,-0.006200,-0.006200,0,0.000000,0.000000,0.000000,-0.116394,0.036926,0.000000,0.000000,0.000000,-0.001000,FlatInitial
01:39:19.940 PM 02/14/2016,Teleop Enabled,0,FALSE,0,NO ERROR,0.000000,-727.587891,4000.000000,4000.000000,Speed,Speed,-0.200000,1.260000,1.810000,3.000000,102.000000,1,0,-0.006200,-0.006200,0,0.000000,0.000000,0.000000,-0.116394,0.036926,0.000000,0.001000,0.001000,-0.004000,FlatInitial
01:39:20.040 PM 02/14/2016,Teleop Enabled,0,FALSE,0,NO ERROR,0.000000,-727.587891,4000.000000,4000.000000,Speed,Speed,-0.200000,1.260000,1.810000,3.000000,102.000000,1,0,-0.006200,-0.006200,0,0.000000,0.000000,0.000000,-0.116394,0.036926,0.000000,0.000000,-0.001000,0.003000,FlatInitial
01:39:20.142 PM 02/14/2016,Teleop Enabled,0,FALSE,0,NO ERROR,0.000000,-727.587891,4000.000000,4000.000000,Speed,Speed,-0.200000,1.250000,1.810000,3.000000,101.000000,1,0,-0.006200,-0.006200,0,0.000000,0.000000,0.000000,-0.116394,0.036926,0.000000,0.003000,0.001000,0.000000,FlatInitial
01:39:20.244 PM 02/14/2016,Teleop Enabled,0,FALSE,0,NO ERROR,0.000000,-727.587891,4000.000000,4000.000000,Speed,Speed,-0.200000,1.260000,1.810000,3.000000,102.000000,1,0,-0.006200,-0.006200,0,0.000000,0.000000,0.000000,-0.116394,0.036926,0.000000,-0.003000,-0.001000,0.000000,FlatInitial
01:39:20.346 PM 02/14/2016,Teleop Enabled,0,FALSE,0,NO ERROR,0.000000,-727.587891,4000.000000,4000.000000,Speed,Speed,-0.200000,1.260000,1.810000,3.000000,101.000000,1,0,-0.006200,-0.006200,0,0.000000,0.000000,0.000000,-0.116394,0.036926,0.000000,0.002000,0.001000,0.005000,FlatInitial
01:39:20.448 PM 02/14/2016,Teleop Enabled,0,FALSE,0,NO ERROR,0.000000,-727.587891,4000.000000,4000.000000,Speed,Speed,-0.200000,1.260000,1.810000,3.000000,103.000000,1,0,-0.006200,-0.006200,0,0.000000,0.000000,0.000000,-0.116394,0.036926,0.000000,-0.001000,0.001000,0.000000,FlatInitial
01:39:20.549 PM 02/14/2016,Teleop Enabled,0,FALSE,0,NO ERROR,0.000000,-727.587891,4000.000000,4000.000000,Speed,Speed,-0.200000,1.260000,1.820000,3.000000,100.000000,1,0,-0.006200,-0.006200,0,0.000000,0.000000,0.000000,-0.116394,0.036926,0.000000,0.000000,0.001000,0.004000,FlatInitial
01:39:20.649 PM 02/14/2016,Teleop Enabled,0,FALSE,0,NO ERROR,0.000000,-727.587891,4000.000000,4000.000000,Speed,Speed,-0.190000,1.260000,1.820000,3.000000,102.000000,1,0,-0.006200,-0.006200,0,0.000000,0.000000,0.000000,-0.116394,0.036926,0.000000,0.000000,-0.004000,0.000000,FlatInitial
01:39:20.750 PM 02/14/2016,Teleop Enabled,0,FALSE,0,NO ERROR,0.000000,-727.587891,4000.000000,4000.000000,Speed,Speed,-0.210000,1.260000,1.800000,3.000000,103.000000,1,0,-0.006200,-0.006200,0,0.000000,0.000000,0.000000,-0.116394,0.036926,0.000000,0.001000,-0.001000,0.002000,FlatInitial
01:39:20.850 PM 02/14/2016,Teleop Enabled,0,FALSE,0,NO ERROR,0.000000,-727.587891,4000.000000,4000.000000,Speed,Speed,-0.210000,1.270000,1.800000,3.000000,101.000000,1,0,-0.006200,-0.006200,0,0.000000,0.000000,0.000000,-0.116394,0.036926,0.000000,-0.001000,0.000000,0.006000,FlatInitial
01:39:20.950 PM 02/14/2016,Teleop Enabled,0,FALSE,0,NO ERROR,0.000000,-727.587891,4000.000000,4000.000000,Speed,Speed,-0.200000,1.270000,1.810000,3.000000,100.000000,1,0,-0.006200,-0.006200,0,0.000000,0.000000,0.000000,-0.116394,0.036926,0.000000,0.000000,-0.001000,0.000000,FlatInitial
01:39:21.049 PM 02/14/2016,Teleop Enabled,0,FALSE,0,NO ERROR,0.000000,-727.587891,4000.000000,4000.000000,Speed,Speed,-0.210000,1.270000,1.810000,3.000000,102.000000,1,0,-0.006200,-0.006200,0,0.000000,0.000000,0.000000,-0.116394,0.036926,0.000000,0.001000,0.001000,0.000000,FlatInitial
01:39:21.150 PM 02/14/2016,Teleop Enabled,0,FALSE,0,NO ERROR,0.000000,-727.587891,4000.000000,4000.000000,Speed,Speed,-0.210000,1.270000,1.810000,3.000000,101.000000,1,0,-0.006200,-0.006200,0,0.000000,0.000000,0.000000,-0.116394,0.036926,0.000000,0.000000,-0.002000,0.000000,FlatInitial
01:39:21.251 PM 02/14/2016,Teleop Enabled,0,FALSE,0,NO ERROR,0.000000,-727.587891,4000.000000,4000.000000,Speed,Speed,-0.220000,1.270000,1.810000,3.000000,102.000000,1,0,-0.006200,-0.006200,0,0.000000,0.000000,0.000000,-0.116394,0.036926,0.000000,0.001000,0.002000,0.003000,FlatInitial
01:39:21.352 PM 02/14/2016,Teleop Enabled,0,FALSE,0,NO ERROR,0.000000,-727.587891,4000.000000,4000.000000,Speed,Speed,-0.210000,1.260000,1.820000,3.000000,102.000000,1,0,-0.006200,-0.006200,0,0.000000,0.000000,0.000000,-0.116394,0.036926,0.000000,-0.005000,0.002000,0.000000,FlatInitial
01:39:21.453 PM 02/14/2016,Teleop Enabled,0,FALSE,0,NO ERROR,0.000000,-727.587891,4000.000000,4000.000000,Speed,Speed,-0.220000,1.260000,1.810000,3.000000,101.000000,1,0,-0.006200,-0.006200,0,0.000000,0.000000,0.000000,-0.116394,0.036926,0.000000,0.000000,0.000000,0.000000,FlatInitial
01:39:21.554 PM 02/14/2016,Teleop Enabled,0,FALSE,0,NO ERROR,0.000000,-727.587891,4000.000000,4000.000000,Speed,Speed,-0.230000,1.260000,1.800000,3.000000,101.000000,1,0,-0.006200,-0.006200,0,0.000000,0.000000,0.000000,-0.116394,0.036926,0.000000,0.002000,-0.003000,0.002000,FlatInitial
01:39:21.655 PM 02/14/2016,Teleop Enabled,0,FALSE,0,NO ERROR,0.000000,-727.587891,4000.000000,4000.000000,Speed,Speed,-0.220000,1.250000,1.800000,3.000000,102.000000,1,0,-0.006200,-0.006200,0,0.000000,0.000000,0.000000,-0.116394,0.036926,0.000000,0.000000,0.000000,-0.002000,FlatInitial
01:39:21.754 PM 02/14/2016,Teleop Enabled,0,FALSE,0,NO ERROR,0.000000,-727.587891,4000.000000,4000.000000,Speed,Speed,-0.220000,1.250000,1.810000,3.000000,102.000000,1,0,-0.006200,-0.006200,0,0.000000,0.000000,0.000000,-0.116394,0.036926,0.000000,0.000000,0.000000,0.005000,FlatInitial
01:39:21.859 PM 02/14/2016,Teleop Enabled,0,FALSE,0,NO ERROR,0.000000,-727.587891,4000.000000,4000.000000,Speed,Speed,-0.220000,1.260000,1.800000,3.000000,101.000000,1,0,-0.006200,-0.006200,0,0.000000,0.000000,0.000000,-0.116394,0.036926,0.000000,-0.001000,0.000000,-0.001000,FlatInitial
01:39:21.960 PM 02/14/2016,Teleop Enabled,0,FALSE,0,NO ERROR,0.000000,-727.587891,4000.000000,4000.000000,Speed,Speed,-0.230000,1.260000,1.800000,3.000000,103.000000,1,0,-0.006200,-0.006200,0,0.000000,0.000000,0.000000,-0.116394,0.036926,0.000000,0.000000,0.000000,-0.005000,FlatInitial
01:39:22.060 PM 02/14/2016,Teleop Enabled,0,FALSE,0,NO ERROR,0.000000,-727.587891,4000.000000,4000.000000,Speed,Speed,-0.220000,1.260000,1.800000,3.000000,103.000000,1,0,-0.006200,-0.006200,0,0.000000,0.000000,0.000000,-0.116394,0.036926,0.000000,0.000000,-0.003000,-0.001000,FlatInitial
01:39:22.160 PM 02/14/2016,Teleop Enabled,0,FALSE,0,NO ERROR,0.000000,-727.587891,4000.000000,4000.000000,Speed,Speed,-0.220000,1.260000,1.800000,3.000000,102.000000,1,0,-0.006200,-0.006200,0,0.000000,0.000000,0.000000,-0.116394,0.036926,0.000000,0.004000,0.000000,0.003000,FlatInitial
01:39:22.261 PM 02/14/2016,Teleop Enabled,0,FALSE,0,NO ERROR,0.000000,-727.587891,4000.000000,4000.000000,Speed,Speed,-0.230000,1.260000,1.780000,3.000000,101.000000,1,0,-0.006200,-0.006200,0,0.000000,0.000000,0.000000,-0.116394,0.036926,0.000000,0.002000,0.000000,0.004000,FlatInitial
01:39:22.362 PM 02/14/2016,Teleop Enabled,0,FALSE,0,NO ERROR,0.000000,-727.587891,4000.000000,4000.000000,Speed,Speed,-0.230000,1.260000,1.750000,3.000000,102.000000,1,0,-0.006200,-0.006200,0,0.000000,0.000000,0.000000,-0.116394,0.036926,0.000000,0.001000,0.000000,0.001000,FlatInitial
01:39:22.466 PM 02/14/2016,Teleop Enabled,0,FALSE,0,NO ERROR,0.000000,-727.587891,4000.000000,4000.000000,Speed,Speed,-0.250000,1.260000,1.720000,3.000000,102.000000,1,0,-0.006200,-0.006200,0,0.000000,0.000000,0.000000,-0.116394,0.036926,0.000000,0.001000,-0.002000,0.002000,FlatInitial
01:39:22.567 PM 02/14/2016,Teleop Enabled,0,FALSE,0,NO ERROR,0.000000,-727.587891,4000.000000,4000.000000,Speed,Speed,-0.260000,1.270000,1.680000,3.000000,101.000000,1,0,-0.006200,-0.006200,0,0.000000,0.000000,0.000000,-0.116394,0.036926,0.000000,0.000000,-0.002000,0.001000,FlatInitial
01:39:22.667 PM 02/14/2016,Teleop Enabled,0,FALSE,0,NO ERROR,0.000000,-727.587891,4000.000000,4000.000000,Speed,Speed,-0.260000,1.270000,1.660000,3.000000,102.000000,1,0,-0.006200,-0.006200,0,0.000000,0.000000,0.000000,-0.116394,0.036926,0.000000,0.003000,0.003000,-0.007000,FlatInitial
01:39:22.769 PM 02/14/2016,Teleop Enabled,0,FALSE,0,NO ERROR,0.000000,-727.587891,4000.000000,4000.000000,Speed,Speed,-0.250000,1.280000,1.620000,3.000000,102.000000,1,0,-0.006200,-0.006200,0,0.000000,0.000000,0.000000,-0.116394,0.036926,0.000000,0.004000,-0.001000,0.015000,FlatInitial
01:39:22.869 PM 02/14/2016,Teleop Enabled,0,FALSE,0,NO ERROR,0.000000,-727.587891,4000.000000,4000.000000,Speed,Speed,-0.290000,1.300000,1.560000,3.000000,101.000000,1,0,-0.006200,-0.006200,0,0.000000,0.000000,0.000000,-0.116394,0.036926,0.000000,0.000000,0.004000,0.003000,FlatInitial
01:39:22.969 PM 02/14/2016,Teleop Enabled,0,FALSE,0,NO ERROR,0.000000,-727.587891,4000.000000,4000.000000,Speed,Speed,-0.380000,1.320000,1.460000,3.000000,102.000000,1,0,-0.006200,-0.006200,0,0.000000,0.000000,0.000000,-0.116394,0.036926,0.000000,0.004000,-0.001000,0.002000,FlatInitial
01:39:23.069 PM 02/14/2016,Teleop Enabled,0,FALSE,0,NO ERROR,0.000000,-727.587891,4000.000000,4000.000000,Speed,Speed,-0.450000,1.290000,1.350000,3.000000,103.000000,1,0,-0.006200,-0.006200,0,0.000000,0.000000,0.000000,-0.116394,0.036926,0.000000,-0.008000,0.000000,-0.012000,FlatInitial
01:39:23.169 PM 02/14/2016,Teleop Enabled,0,FALSE,0,NO ERROR,0.000000,-727.587891,4000.000000,4000.000000,Speed,Speed,-0.390000,1.300000,1.310000,3.000000,100.000000,1,0,-0.006200,-0.006200,0,0.000000,0.000000,0.000000,-0.116394,0.036926,0.000000,0.011000,-0.008000,0.000000,FlatInitial
01:39:23.270 PM 02/14/2016,Teleop Enabled,0,FALSE,0,NO ERROR,0.000000,-727.587891,4000.000000,4000.000000,Speed,Speed,-0.390000,1.300000,1.310000,3.000000,104.000000,1,0,-0.006200,-0.006200,0,0.000000,0.000000,0.000000,-0.116394,0.036926,0.000000,0.000000,-0.001000,0.007000,FlatInitial
01:39:23.370 PM 02/14/2016,Teleop Enabled,0,FALSE,0,NO ERROR,0.000000,-727.587891,4000.000000,4000.000000,Speed,Speed,-0.420000,1.310000,1.240000,3.000000,100.000000,1,0,-0.006200,-0.006200,0,0.000000,0.000000,0.000000,-0.116394,0.036926,0.000000,0.002000,0.007000,0.001000,FlatInitial
01:39:23.471 PM 02/14/2016,Teleop Enabled,0,FALSE,0,NO ERROR,0.000000,-727.587891,4000.000000,4000.000000,Speed,Speed,-0.440000,1.310000,1.210000,3.000000,102.000000,1,0,-0.006200,-0.006200,0,0.000000,0.000000,0.000000,-0.116394,0.036926,0.000000,0.004000,-0.018000,-0.004000,FlatInitial
01:39:23.571 PM 02/14/2016,Teleop Enabled,0,FALSE,0,NO ERROR,0.000000,-727.587891,4000.000000,4000.000000,Speed,Speed,-0.420000,1.290000,1.270000,3.000000,102.000000,1,0,-0.006200,-0.006200,0,0.000000,0.000000,0.000000,-0.116394,0.036926,0.000000,0.004000,0.010000,0.001000,FlatInitial
01:39:23.672 PM 02/14/2016,Teleop Enabled,0,FALSE,0,NO ERROR,0.000000,-727.587891,4000.000000,4000.000000,Speed,Speed,-0.390000,1.330000,1.310000,3.000000,106.000000,1,0,-0.006200,-0.006200,0,0.000000,0.000000,0.000000,-0.116394,0.036926,0.000000,0.013000,0.005000,-0.004000,FlatInitial
01:39:23.771 PM 02/14/2016,Teleop Enabled,0,FALSE,0,NO ERROR,0.000000,-727.587891,4000.000000,4000.000000,Speed,Speed,-0.420000,1.330000,1.400000,3.000000,102.000000,1,0,-0.006200,-0.006200,0,0.000000,0.000000,0.000000,-0.116394,0.036926,0.000000,-0.014000,-0.002000,-0.002000,FlatInitial
01:39:23.872 PM 02/14/2016,Teleop Enabled,0,FALSE,0,NO ERROR,0.000000,-727.587891,4000.000000,4000.000000,Speed,Speed,-0.380000,1.290000,1.550000,3.000000,101.000000,1,0,-0.006200,-0.006200,0,0.000000,-0.011139,0.000000,-0.116394,0.036713,0.000000,0.015000,-0.028000,-0.007000,FlatInitial
01:39:23.971 PM 02/14/2016,Teleop Enabled,0,FALSE,0,NO ERROR,0.000000,-727.587891,4000.000000,4000.000000,Speed,Speed,-0.410000,1.270000,1.650000,3.000000,103.000000,1,0,-0.006200,-0.006200,0,-0.007172,-0.045029,0.000000,-0.116562,0.035095,0.000000,-0.001000,-0.009000,-0.009000,FlatInitial
01:39:24.072 PM 02/14/2016,Teleop Enabled,0,FALSE,0,NO ERROR,0.000000,-727.587891,4000.000000,4000.000000,Speed,Speed,-0.500000,1.270000,1.950000,3.000000,102.000000,1,0,-0.006200,-0.006200,0,0.000000,0.021667,0.000000,-0.116562,0.035004,0.000000,-0.010000,0.048000,0.023000,FlatInitial
01:39:24.172 PM 02/14/2016,Teleop Enabled,0,FALSE,0,NO ERROR,0.000000,-727.587891,4000.000000,4000.000000,Speed,Speed,-0.250000,1.250000,2.130000,3.000000,102.000000,1,0,-0.006200,-0.006200,0,0.000000,0.008194,0.000000,-0.116562,0.035721,0.000000,0.011000,0.031000,-0.017000,FlatInitial
01:39:24.273 PM 02/14/2016,Teleop Enabled,0,FALSE,0,NO ERROR,0.000000,-727.587891,4000.000000,4000.000000,Speed,Speed,-0.270000,1.260000,2.380000,3.000000,105.000000,1,0,-0.006200,-0.006200,0,0.000000,0.039886,0.000000,-0.116562,0.037109,0.000000,-0.005000,0.078000,0.008000,FlatInitial
01:39:24.373 PM 02/14/2016,Teleop Enabled,0,FALSE,0,NO ERROR,0.000000,-727.587891,4000.000000,4000.000000,Speed,Speed,-0.280000,1.370000,2.740000,3.000000,101.000000,1,0,-0.006200,-0.006200,0,0.013428,0.221695,0.000000,-0.117325,0.046661,0.000000,0.081000,0.032000,0.044000,FlatInitial
01:39:24.474 PM 02/14/2016,Teleop Enabled,0,FALSE,0,NO ERROR,0.000000,-727.587891,4000.000000,4000.000000,Speed,Speed,-0.290000,1.040000,6.700000,3.000000,101.000000,0,0,-0.006200,-0.006200,0,0.024765,0.284073,0.000000,-0.116394,0.056152,0.000000,-0.163000,0.212000,0.017000,FlatInitial
01:39:24.574 PM 02/14/2016,Teleop Enabled,0,FALSE,0,NO ERROR,0.000000,-727.587891,4000.000000,4000.000000,Speed,Speed,-0.110000,0.860000,14.870000,3.000000,102.000000,0,0,-0.006200,-0.006200,0,-0.038513,0.375580,0.000000,-0.118057,0.074142,0.000000,-0.016000,0.038000,-0.223000,FlatInitial
01:39:24.674 PM 02/14/2016,Teleop Enabled,0,FALSE,0,NO ERROR,0.000000,-727.587891,4000.000000,4000.000000,Speed,Speed,0.250000,0.880000,23.630000,3.000000,102.000000,0,0,-0.006200,-0.006200,0,-0.042038,0.445694,0.000000,-0.119705,0.094162,0.000000,-0.044000,0.125000,-0.023000,FlatInitial
01:39:24.774 PM 02/14/2016,Teleop Enabled,0,FALSE,0,NO ERROR,0.000000,-727.587891,4000.000000,4000.000000,Speed,Speed,0.630000,0.900000,30.550000,3.000000,100.000000,0,0,-0.006200,-0.006200,0,-0.048141,0.564667,0.000000,-0.122391,0.120300,0.000000,-0.011000,0.053000,0.139000,FlatInitial
01:39:24.873 PM 02/14/2016,Teleop Enabled,0,FALSE,0,NO ERROR,0.000000,-727.587891,4000.000000,4000.000000,Speed,Speed,0.960000,0.840000,37.110000,3.000000,101.000000,0,0,-0.006200,-0.006200,0,-0.031021,0.584991,0.000000,-0.124176,0.149094,0.000000,-0.078000,0.107000,-0.033000,FlatInitial
01:39:24.973 PM 02/14/2016,Teleop Enabled,0,FALSE,0,NO ERROR,0.000000,-727.587891,4000.000000,4000.000000,Speed,Speed,1.190000,0.880000,43.150000,3.000000,102.000000,0,0,-0.006200,-0.006200,0,-0.045990,0.694473,0.000000,-0.126633,0.181061,0.000000,0.062000,0.367000,-0.069000,FlatInitial
01:39:25.073 PM 02/14/2016,Teleop Enabled,0,FALSE,0,NO ERROR,0.000000,-727.587891,4000.000000,4000.000000,Speed,Speed,0.980000,1.150000,49.230000,3.000000,103.000000,0,0,-0.006200,-0.006200,0,-0.027039,0.729797,0.000000,-0.127716,0.216919,0.000000,-0.043000,0.015000,0.024000,FlatInitial
01:39:25.174 PM 02/14/2016,Teleop Enabled,0,FALSE,0,NO ERROR,0.000000,-727.587891,4000.000000,4000.000000,Speed,Speed,1.300000,0.820000,50.490000,3.000000,101.000000,0,0,-0.006200,-0.006200,0,-0.159637,0.560150,0.000000,-0.132629,0.254059,0.000000,-0.101000,-0.019000,-0.418000,FlatInitial
01:39:25.275 PM 02/14/2016,Teleop Enabled,0,FALSE,0,NO ERROR,0.000000,-727.587891,4000.000000,4000.000000,Speed,Speed,1.460000,0.990000,49.330000,3.000000,103.000000,0,0,-0.006200,-0.006200,0,-0.226685,0.413071,0.000000,-0.141815,0.273132,0.000000,-0.018000,-0.047000,-0.069000,FlatInitial
01:39:25.375 PM 02/14/2016,Teleop Disabled,0,FALSE,0,NO ERROR,0.000000,-727.587891,4000.000000,4000.000000,Speed,Speed,1.400000,1.080000,48.780000,3.000000,101.000000,0,0,-0.006200,-0.006200,0,0.007217,0.291962,0.000000,-0.143997,0.289566,0.000000,-0.207000,0.106000,0.105000,FlatInitial
01:39:25.476 PM 02/14/2016,Teleop Disabled,0,FALSE,0,NO ERROR,0.000000,-727.587891,4000.000000,4000.000000,Speed,Speed,1.540000,0.730000,49.370000,3.000000,101.000000,0,0,-0.006200,-0.006200,0,-0.043152,0.387100,0.000000,-0.145905,0.307587,0.000000,0.017000,-0.016000,0.008000,FlatInitial
01:39:25.576 PM 02/14/2016,Teleop Disabled,0,FALSE,0,NO ERROR,0.000000,-727.587891,4000.000000,4000.000000,Speed,Speed,1.310000,0.960000,49.290000,3.000000,101.000000,0,0,-0.006200,-0.006200,0,0.000000,0.391525,0.000000,-0.146820,0.327454,0.000000,0.024000,0.000000,-0.011000,FlatInitial
01:39:25.677 PM 02/14/2016,Teleop Disabled,0,FALSE,0,NO ERROR,0.000000,-727.587891,4000.000000,4000.000000,Speed,Speed,1.330000,0.880000,49.310000,3.000000,101.000000,0,0,-0.006200,-0.006200,0,-0.001999,0.003098,0.000000,-0.146667,0.335266,0.000000,-0.022000,0.053000,-0.001000,FlatInitial
01:39:25.777 PM 02/14/2016,Teleop Disabled,0,FALSE,0,NO ERROR,0.000000,-727.587891,4000.000000,4000.000000,Speed,Speed,1.330000,0.940000,49.370000,3.000000,102.000000,0,0,-0.006200,-0.006200,0,-0.000900,0.000000,0.000000,-0.146973,0.336105,0.000000,0.019000,-0.016000,0.015000,FlatInitial
01:39:25.877 PM 02/14/2016,Teleop Disabled,0,FALSE,0,NO ERROR,0.000000,-727.587891,4000.000000,4000.000000,Speed,Speed,1.300000,0.930000,49.330000,3.000000,102.000000,0,0,-0.006200,-0.006200,0,-0.004761,-0.003082,0.000000,-0.147202,0.336060,0.000000,0.022000,-0.032000,0.024000,FlatInitial
01:39:25.977 PM 02/14/2016,Teleop Disabled,0,FALSE,0,NO ERROR,0.000000,-727.587891,4000.000000,4000.000000,Speed,Speed,1.250000,0.970000,49.210000,3.000000,102.000000,0,0,-0.006200,-0.006200,0,0.000000,0.000443,0.000000,-0.147934,0.335571,0.000000,0.006000,0.037000,0.016000,FlatInitial
01:39:26.077 PM 02/14/2016,Teleop Disabled,0,FALSE,0,NO ERROR,0.000000,-727.587891,4000.000000,4000.000000,Speed,Speed,1.230000,0.960000,49.190000,3.000000,102.000000,0,0,-0.006200,-0.006200,0,-0.007492,0.033920,0.000000,-0.147964,0.336533,0.000000,-0.020000,0.043000,0.020000,FlatInitial
01:39:26.178 PM 02/14/2016,Teleop Disabled,0,FALSE,0,NO ERROR,0.000000,-727.587891,4000.000000,4000.000000,Speed,Speed,1.250000,0.940000,49.280000,3.000000,101.000000,0,0,-0.006200,-0.006200,0,0.000000,0.003922,0.000000,-0.148041,0.336975,0.000000,-0.004000,0.027000,0.002000,FlatInitial
01:39:26.278 PM 02/14/2016,Teleop Disabled,0,FALSE,0,NO ERROR,0.000000,-727.587891,4000.000000,4000.000000,Speed,Speed,1.250000,0.960000,49.260000,3.000000,102.000000,0,0,-0.006200,-0.006200,0,0.000000,0.000000,0.000000,-0.148041,0.337158,0.000000,0.000000,0.009000,0.018000,FlatInitial
01:39:26.379 PM 02/14/2016,Teleop Disabled,0,FALSE,0,NO ERROR,0.000000,-727.587891,4000.000000,4000.000000,Speed,Speed,1.260000,0.940000,49.280000,3.000000,106.000000,0,0,-0.006200,-0.006200,0,0.000000,0.000000,0.000000,-0.148041,0.337158,0.000000,0.003000,0.010000,0.005000,FlatInitial
01:39:26.479 PM 02/14/2016,Teleop Disabled,0,FALSE,0,NO ERROR,0.000000,-727.587891,4000.000000,4000.000000,Speed,Speed,1.260000,0.950000,49.270000,3.000000,101.000000,0,0,-0.006200,-0.006200,0,0.000000,0.000000,0.000000,-0.148041,0.337158,0.000000,0.008000,-0.002000,0.009000,FlatInitial
01:39:26.579 PM 02/14/2016,Teleop Disabled,0,FALSE,0,NO ERROR,0.000000,-727.587891,4000.000000,4000.000000,Speed,Speed,1.240000,0.960000,49.260000,3.000000,105.000000,0,0,-0.006200,-0.006200,0,0.000000,0.000000,0.000000,-0.148041,0.337158,0.000000,-0.003000,0.011000,0.012000,FlatInitial
01:39:26.680 PM 02/14/2016,Teleop Disabled,0,FALSE,0,NO ERROR,0.000000,-727.587891,4000.000000,4000.000000,Speed,Speed,1.250000,0.960000,49.310000,3.000000,103.000000,0,0,-0.006200,-0.006200,0,0.000000,0.000000,0.000000,-0.148041,0.337158,0.000000,0.007000,0.008000,0.015000,FlatInitial
01:39:26.781 PM 02/14/2016,Teleop Disabled,0,FALSE,0,NO ERROR,0.000000,-727.587891,4000.000000,4000.000000,Speed,Speed,1.230000,0.970000,49.300000,3.000000,102.000000,0,0,-0.006200,-0.006200,0,0.000000,0.000000,0.000000,-0.148041,0.337158,0.000000,0.000000,-0.007000,0.015000,FlatInitial
01:39:26.881 PM 02/14/2016,Teleop Disabled,0,FALSE,0,NO ERROR,0.000000,-727.587891,4000.000000,4000.000000,Speed,Speed,1.240000,0.970000,49.340000,3.000000,101.000000,0,0,-0.006200,-0.006200,0,0.000000,0.000000,0.000000,-0.148041,0.337158,0.000000,0.002000,0.001000,0.015000,FlatInitial
01:39:26.981 PM 02/14/2016,Teleop Disabled,0,FALSE,0,NO ERROR,0.000000,-727.587891,4000.000000,4000.000000,Speed,Speed,1.240000,0.970000,49.330000,3.000000,105.000000,0,0,-0.006200,-0.006200,0,0.000000,0.000000,0.000000,-0.148041,0.337158,0.000000,0.004000,0.000000,0.012000,FlatInitial
01:39:27.080 PM 02/14/2016,Teleop Disabled,0,FALSE,0,NO ERROR,0.000000,-727.587891,4000.000000,4000.000000,Speed,Speed,1.250000,0.960000,49.360000,3.000000,101.000000,0,0,-0.006200,-0.006200,0,0.000000,0.000000,0.000000,-0.148041,0.337158,0.000000,0.002000,0.002000,0.007000,FlatInitial
01:39:27.180 PM 02/14/2016,Teleop Disabled,0,FALSE,0,NO ERROR,0.000000,-727.587891,4000.000000,4000.000000,Speed,Speed,1.250000,0.980000,49.330000,3.000000,106.000000,0,0,-0.006200,-0.006200,0,0.000000,0.000000,0.000000,-0.148041,0.337158,0.000000,-0.002000,0.010000,0.006000,FlatInitial
01:39:27.280 PM 02/14/2016,Teleop Disabled,0,FALSE,0,NO ERROR,0.000000,-727.587891,4000.000000,4000.000000,Speed,Speed,1.250000,0.960000,49.360000,3.000000,102.000000,0,0,-0.006200,-0.006200,0,0.000000,0.000000,0.000000,-0.148041,0.337158,0.000000,0.002000,0.006000,0.012000,FlatInitial
01:39:27.381 PM 02/14/2016,Teleop Disabled,0,FALSE,0,NO ERROR,0.000000,-727.587891,4000.000000,4000.000000,Speed,Speed,1.250000,0.970000,49.370000,3.000000,101.000000,0,0,-0.006200,-0.006200,0,0.000000,0.000000,0.000000,-0.148041,0.337158,0.000000,0.001000,0.003000,0.015000,FlatInitial
01:39:27.481 PM 02/14/2016,Teleop Disabled,0,FALSE,0,NO ERROR,0.000000,-727.587891,4000.000000,4000.000000,Speed,Speed,1.250000,0.970000,49.380000,3.000000,101.000000,0,0,-0.006200,-0.006200,0,0.000000,0.000000,0.000000,-0.148041,0.337158,0.000000,0.000000,0.001000,0.015000,FlatInitial
01:39:27.581 PM 02/14/2016,Teleop Disabled,0,FALSE,0,NO ERROR,0.000000,-727.587891,4000.000000,4000.000000,Speed,Speed,1.250000,0.980000,49.380000,3.000000,103.000000,0,0,-0.006200,-0.006200,0,0.000000,0.000000,0.000000,-0.148041,0.337158,0.000000,0.003000,0.001000,0.013000,FlatInitial
01:39:27.681 PM 02/14/2016,Teleop Disabled,0,FALSE,0,NO ERROR,0.000000,-727.587891,4000.000000,4000.000000,Speed,Speed,1.250000,0.970000,49.390000,3.000000,102.000000,0,0,-0.006200,-0.006200,0,0.000000,0.000000,0.000000,-0.148041,0.337158,0.000000,0.001000,0.004000,0.011000,FlatInitial
01:39:27.781 PM 02/14/2016,Teleop Disabled,0,FALSE,0,NO ERROR,0.000000,-727.587891,4000.000000,4000.000000,Speed,Speed,1.240000,0.980000,49.400000,3.000000,102.000000,0,0,-0.006200,-0.006200,0,0.000000,0.000000,0.000000,-0.148041,0.337158,0.000000,0.003000,-0.001000,0.013000,FlatInitial
01:39:27.883 PM 02/14/2016,Teleop Disabled,0,FALSE,0,NO ERROR,0.000000,-727.587891,4000.000000,4000.000000,Speed,Speed,1.240000,0.980000,49.410000,3.000000,102.000000,0,0,-0.006200,-0.006200,0,0.000000,0.000000,0.000000,-0.148041,0.337158,0.000000,0.003000,0.001000,0.013000,FlatInitial
