Time,RobotMode,AutoToRun,ErrorStatus, ErrorCode,ErrorSource,ActualRPM1,ActualRPM2,DesiredRPM1,DesiredRPM2,ControlMode1,ControlMode2,NavXYaw,NavXRoll,NavXPitch,ShooterState,LoopTime,IsLevel,IsAutoTargeting,LeftMotorOutput,RightMotorOutput,IsHaloDrive,NavXVelocityX,NavXVelocityY,NavXVelocityZ,NavXDisplacementX,NavXDisplacementY,NavXDisplacementZ,NavXAccelerationX,NavXAccelerationY,NavXAccelerationZ,AutoDefendState
03:55:28.852 PM 02/14/2016,Autonomous Disabled,0,TRUE,91,Variant To Data in WPI_DigitalInputRefNum Registry Get.vi->Periodic Tasks.vi->Robot Main.vi,9883.007812,-9000.585938,9000.000000,9000.000000,Speed,Speed,-0.520000,1.130000,1.770000,4.000000,102.000000,1,0,-0.000248,0.000062,0,0.092224,-0.227219,0.000000,28.104782,9.909790,0.000000,0.011000,0.137000,0.008000,FlatInitial
03:55:28.954 PM 02/14/2016,Teleop Disabled,0,TRUE,-44007,<LOCATION>WPI_DigitalInputRefNum Registry Get.vi<CALLSTACK>WPI_DigitalInputRefNum Registry Get.vi< <Periodic Tasks.vi< <Robot Main.vi,0.000000,0.000000,0.000000,0.000000,Speed,Speed,-0.750000,1.150000,1.830000,0.000000,23775.000000,1,0,-0.000248,0.000062,0,0.092224,-0.227219,0.000000,28.104782,9.909790,0.000000,0.011000,0.137000,0.008000,FlatInitial
03:55:29.054 PM 02/14/2016,Teleop Disabled,0,FALSE,0,NO ERROR,0.000000,0.000000,0.000000,0.000000,Speed,Speed,0.000000,1.150000,1.830000,0.000000,102.000000,1,0,-0.000248,0.000062,0,0.000000,0.000000,0.000000,28.184875,9.830475,0.000000,0.002000,-0.001000,0.004000,FlatInitial
03:55:29.154 PM 02/14/2016,Teleop Disabled,0,FALSE,0,NO ERROR,0.000000,0.000000,0.000000,0.000000,Speed,Speed,0.000000,1.150000,1.820000,0.000000,102.000000,1,0,-0.000248,0.000062,0,0.000000,0.000000,0.000000,28.184875,9.830475,0.000000,-0.001000,-0.001000,0.003000,FlatInitial
03:55:29.255 PM 02/14/2016,Teleop Disabled,0,FALSE,0,NO ERROR,0.000000,0.000000,0.000000,0.000000,Speed,Speed,0.000000,1.150000,1.820000,0.000000,101.000000,1,0,-0.000248,0.000062,0,0.000000,0.000000,0.000000,28.184875,9.830475,0.000000,-0.002000,-0.001000,0.002000,FlatInitial
03:55:29.355 PM 02/14/2016,Teleop Disabled,0,FALSE,0,NO ERROR,0.000000,0.000000,0.000000,0.000000,Speed,Speed,0.000000,1.150000,1.820000,0.000000,101.000000,1,0,-0.000248,0.000062,0,0.000000,0.000000,0.000000,28.184875,9.830475,0.000000,0.000000,-0.002000,0.006000,FlatInitial
03:55:29.455 PM 02/14/2016,Teleop Disabled,0,FALSE,0,NO ERROR,0.000000,0.000000,0.000000,0.000000,Speed,Speed,0.000000,1.140000,1.820000,0.000000,103.000000,1,0,-0.000248,0.000062,0,0.000000,0.000000,0.000000,28.184875,9.830475,0.000000,0.000000,0.000000,0.003000,FlatInitial
03:55:29.555 PM 02/14/2016,Teleop Disabled,0,FALSE,0,NO ERROR,0.000000,0.000000,0.000000,0.000000,Speed,Speed,-0.010000,1.140000,1.820000,0.000000,101.000000,1,0,-0.000248,0.000062,0,0.000000,0.000000,0.000000,28.184875,9.830475,0.000000,0.000000,0.000000,0.003000,FlatInitial
03:55:29.655 PM 02/14/2016,Teleop Disabled,0,FALSE,0,NO ERROR,0.000000,0.000000,0.000000,0.000000,Speed,Speed,-0.010000,1.140000,1.820000,0.000000,102.000000,1,0,-0.000248,0.000062,0,0.000000,0.000000,0.000000,28.184875,9.830475,0.000000,0.000000,0.000000,0.000000,FlatInitial
03:55:29.755 PM 02/14/2016,Teleop Disabled,0,FALSE,0,NO ERROR,0.000000,0.000000,0.000000,0.000000,Speed,Speed,-0.010000,1.140000,1.820000,0.000000,100.000000,1,0,-0.000248,0.000062,0,0.000000,0.000000,0.000000,28.184875,9.830475,0.000000,0.000000,-0.001000,0.005000,FlatInitial
03:55:29.855 PM 02/14/2016,Teleop Disabled,0,FALSE,0,NO ERROR,0.000000,0.000000,0.000000,0.000000,Speed,Speed,-0.010000,1.140000,1.820000,0.000000,101.000000,1,0,-0.000248,0.000062,0,0.000000,0.000000,0.000000,28.184875,9.830475,0.000000,-0.001000,0.001000,-0.001000,FlatInitial
03:55:29.955 PM 02/14/2016,Teleop Disabled,0,FALSE,0,NO ERROR,0.000000,0.000000,0.000000,0.000000,Speed,Speed,0.000000,1.140000,1.820000,0.000000,102.000000,1,0,-0.000248,0.000062,0,0.000000,0.000000,0.000000,28.184875,9.830475,0.000000,0.000000,0.000000,0.000000,FlatInitial
03:55:30.054 PM 02/14/2016,Teleop Disabled,0,FALSE,0,NO ERROR,0.000000,0.000000,0.000000,0.000000,Speed,Speed,-0.010000,1.140000,1.820000,0.000000,101.000000,1,0,-0.000248,0.000062,0,0.000000,0.000000,0.000000,28.184875,9.830475,0.000000,0.000000,0.000000,0.000000,FlatInitial
03:55:30.155 PM 02/14/2016,Teleop Disabled,0,FALSE,0,NO ERROR,0.000000,0.000000,0.000000,0.000000,Speed,Speed,-0.010000,1.140000,1.820000,0.000000,101.000000,1,0,-0.000248,0.000062,0,0.000000,0.000000,0.000000,28.184875,9.830475,0.000000,0.001000,0.002000,0.000000,FlatInitial
03:55:30.254 PM 02/14/2016,Teleop Disabled,0,FALSE,0,NO ERROR,0.000000,0.000000,0.000000,0.000000,Speed,Speed,-0.010000,1.130000,1.820000,0.000000,104.000000,1,0,-0.000248,0.000062,0,0.000000,0.000000,0.000000,28.184875,9.830475,0.000000,0.001000,0.002000,0.004000,FlatInitial
03:55:30.354 PM 02/14/2016,Teleop Disabled,0,FALSE,0,NO ERROR,0.000000,0.000000,0.000000,0.000000,Speed,Speed,-0.010000,1.130000,1.810000,0.000000,104.000000,1,0,-0.000248,0.000062,0,0.000000,0.000000,0.000000,28.184875,9.830475,0.000000,0.002000,0.000000,0.001000,FlatInitial
03:55:30.455 PM 02/14/2016,Teleop Disabled,0,FALSE,0,NO ERROR,0.000000,0.000000,0.000000,0.000000,Speed,Speed,-0.010000,1.130000,1.810000,0.000000,101.000000,1,0,-0.000248,0.000062,0,0.000000,0.000000,0.000000,28.184875,9.830475,0.000000,-0.001000,0.000000,0.005000,FlatInitial
03:55:30.555 PM 02/14/2016,Teleop Disabled,0,FALSE,0,NO ERROR,0.000000,0.000000,0.000000,0.000000,Speed,Speed,-0.010000,1.140000,1.820000,0.000000,102.000000,1,0,-0.000248,0.000062,0,0.000000,0.000000,0.000000,28.184875,9.830475,0.000000,0.003000,-0.002000,0.001000,FlatInitial
03:55:30.654 PM 02/14/2016,Teleop Disabled,0,FALSE,0,NO ERROR,0.000000,0.000000,0.000000,0.000000,Speed,Speed,-0.010000,1.140000,1.820000,0.000000,102.000000,1,0,-0.000248,0.000062,0,0.000000,0.000000,0.000000,28.184875,9.830475,0.000000,0.000000,-0.002000,0.002000,FlatInitial
03:55:30.755 PM 02/14/2016,Teleop Disabled,0,FALSE,0,NO ERROR,0.000000,0.000000,0.000000,0.000000,Speed,Speed,-0.010000,1.140000,1.810000,0.000000,101.000000,1,0,-0.000248,0.000062,0,0.000000,0.000000,0.000000,28.184875,9.830475,0.000000,0.000000,0.000000,0.001000,FlatInitial
03:55:30.855 PM 02/14/2016,Teleop Disabled,0,FALSE,0,NO ERROR,0.000000,0.000000,0.000000,0.000000,Speed,Speed,-0.010000,1.130000,1.800000,0.000000,101.000000,1,0,-0.000248,0.000062,0,0.000000,0.000000,0.000000,28.184875,9.830475,0.000000,0.000000,0.000000,0.002000,FlatInitial
03:55:30.956 PM 02/14/2016,Teleop Disabled,0,FALSE,0,NO ERROR,0.000000,0.000000,0.000000,0.000000,Speed,Speed,-0.020000,1.130000,1.800000,0.000000,101.000000,1,0,-0.000248,0.000062,0,0.000000,0.000000,0.000000,28.184875,9.830475,0.000000,0.001000,0.001000,0.002000,FlatInitial
03:55:31.055 PM 02/14/2016,Teleop Disabled,0,FALSE,0,NO ERROR,0.000000,0.000000,0.000000,0.000000,Speed,Speed,-0.020000,1.140000,1.800000,0.000000,101.000000,1,0,-0.000248,0.000062,0,0.000000,0.000000,0.000000,28.184875,9.830475,0.000000,0.000000,0.000000,0.001000,FlatInitial
03:55:31.156 PM 02/14/2016,Teleop Disabled,0,FALSE,0,NO ERROR,0.000000,0.000000,0.000000,0.000000,Speed,Speed,-0.020000,1.130000,1.800000,0.000000,102.000000,1,0,-0.000248,0.000062,0,0.000000,0.000000,0.000000,28.184875,9.830475,0.000000,-0.002000,-0.001000,-0.001000,FlatInitial
03:55:31.257 PM 02/14/2016,Teleop Disabled,0,FALSE,0,NO ERROR,0.000000,0.000000,0.000000,0.000000,Speed,Speed,-0.020000,1.140000,1.800000,0.000000,105.000000,1,0,-0.000248,0.000062,0,0.000000,0.000000,0.000000,28.184875,9.830475,0.000000,0.001000,0.000000,0.002000,FlatInitial
03:55:31.357 PM 02/14/2016,Teleop Disabled,0,FALSE,0,NO ERROR,0.000000,0.000000,0.000000,0.000000,Speed,Speed,-0.020000,1.140000,1.800000,0.000000,101.000000,1,0,-0.000248,0.000062,0,0.000000,0.000000,0.000000,28.184875,9.830475,0.000000,0.000000,0.002000,0.003000,FlatInitial
03:55:31.458 PM 02/14/2016,Teleop Disabled,0,FALSE,0,NO ERROR,0.000000,0.000000,0.000000,0.000000,Speed,Speed,-0.020000,1.130000,1.800000,0.000000,105.000000,1,0,-0.000248,0.000062,0,0.000000,0.000000,0.000000,28.184875,9.830475,0.000000,0.003000,-0.001000,-0.003000,FlatInitial
03:55:31.558 PM 02/14/2016,Teleop Disabled,0,FALSE,0,NO ERROR,0.000000,0.000000,0.000000,0.000000,Speed,Speed,-0.020000,1.140000,1.800000,0.000000,101.000000,1,0,-0.000248,0.000062,0,0.000000,0.000000,0.000000,28.184875,9.830475,0.000000,0.003000,0.001000,0.000000,FlatInitial
03:55:31.658 PM 02/14/2016,Teleop Disabled,0,FALSE,0,NO ERROR,0.000000,0.000000,0.000000,0.000000,Speed,Speed,-0.020000,1.140000,1.800000,0.000000,101.000000,1,0,-0.000248,0.000062,0,0.000000,0.000000,0.000000,28.184875,9.830475,0.000000,0.000000,0.001000,0.004000,FlatInitial
03:55:31.758 PM 02/14/2016,Teleop Disabled,0,FALSE,0,NO ERROR,0.000000,0.000000,0.000000,0.000000,Speed,Speed,-0.020000,1.130000,1.800000,0.000000,101.000000,1,0,-0.000248,0.000062,0,0.000000,0.000000,0.000000,28.184875,9.830475,0.000000,0.000000,0.000000,0.000000,FlatInitial
03:55:31.859 PM 02/14/2016,Teleop Disabled,0,FALSE,0,NO ERROR,0.000000,0.000000,0.000000,0.000000,Speed,Speed,-0.030000,1.130000,1.800000,0.000000,101.000000,1,0,-0.000248,0.000062,0,0.000000,0.000000,0.000000,28.184875,9.830475,0.000000,0.000000,0.000000,0.000000,FlatInitial
03:55:31.959 PM 02/14/2016,Teleop Disabled,0,FALSE,0,NO ERROR,0.000000,0.000000,0.000000,0.000000,Speed,Speed,-0.020000,1.130000,1.800000,0.000000,102.000000,1,0,-0.000248,0.000062,0,0.000000,0.000000,0.000000,28.184875,9.830475,0.000000,0.000000,0.003000,0.000000,FlatInitial
03:55:32.059 PM 02/14/2016,Teleop Disabled,0,FALSE,0,NO ERROR,0.000000,0.000000,0.000000,0.000000,Speed,Speed,-0.020000,1.130000,1.800000,0.000000,101.000000,1,0,-0.000248,0.000062,0,0.000000,0.000000,0.000000,28.184875,9.830475,0.000000,0.003000,0.003000,0.007000,FlatInitial
03:55:32.159 PM 02/14/2016,Teleop Disabled,0,FALSE,0,NO ERROR,0.000000,0.000000,-6000.000000,-6000.000000,Speed,Speed,-0.020000,1.130000,1.800000,1.000000,103.000000,1,0,-0.000248,0.000062,0,0.000000,0.000000,0.000000,28.184875,9.830475,0.000000,0.000000,0.002000,0.001000,FlatInitial
03:55:32.258 PM 02/14/2016,Teleop Disabled,0,FALSE,0,NO ERROR,0.000000,0.000000,0.000000,0.000000,Speed,Speed,-0.020000,1.140000,1.800000,2.000000,101.000000,1,0,-0.000248,0.000062,0,0.000000,0.000000,0.000000,28.184875,9.830475,0.000000,0.001000,0.000000,0.004000,FlatInitial
03:55:32.359 PM 02/14/2016,Teleop Disabled,0,FALSE,0,NO ERROR,0.000000,0.000000,0.000000,0.000000,Speed,Speed,-0.020000,1.130000,1.800000,2.000000,102.000000,1,0,-0.000248,0.000062,0,0.000000,0.000000,0.000000,28.184875,9.830475,0.000000,0.000000,0.000000,0.004000,FlatInitial
03:55:32.459 PM 02/14/2016,Teleop Disabled,0,FALSE,0,NO ERROR,0.000000,0.000000,0.000000,0.000000,Speed,Speed,-0.020000,1.130000,1.800000,2.000000,104.000000,1,0,-0.000248,0.000062,0,0.000000,0.000000,0.000000,28.184875,9.830475,0.000000,0.000000,0.000000,0.004000,FlatInitial
03:55:32.559 PM 02/14/2016,Teleop Disabled,0,FALSE,0,NO ERROR,0.000000,0.000000,0.000000,0.000000,Speed,Speed,-0.020000,1.140000,1.810000,2.000000,101.000000,1,0,-0.000248,0.000062,0,0.000000,0.000000,0.000000,28.184875,9.830475,0.000000,0.002000,-0.001000,0.004000,FlatInitial
03:55:32.659 PM 02/14/2016,Teleop Disabled,0,FALSE,0,NO ERROR,0.000000,0.000000,0.000000,0.000000,Speed,Speed,-0.020000,1.130000,1.810000,2.000000,101.000000,1,0,-0.000248,0.000062,0,0.000000,0.000000,0.000000,28.184875,9.830475,0.000000,0.001000,0.000000,0.000000,FlatInitial
03:55:32.760 PM 02/14/2016,Teleop Disabled,0,FALSE,0,NO ERROR,0.000000,0.000000,0.000000,0.000000,Speed,Speed,-0.020000,1.130000,1.810000,2.000000,101.000000,1,0,-0.000248,0.000062,0,0.000000,0.000000,0.000000,28.184875,9.830475,0.000000,-0.002000,0.000000,0.002000,FlatInitial
03:55:32.860 PM 02/14/2016,Teleop Disabled,0,FALSE,0,NO ERROR,0.000000,0.000000,0.000000,0.000000,Speed,Speed,-0.020000,1.130000,1.820000,2.000000,102.000000,1,0,-0.000248,0.000062,0,0.000000,0.000000,0.000000,28.184875,9.830475,0.000000,0.000000,-0.002000,0.002000,FlatInitial
03:55:32.960 PM 02/14/2016,Teleop Disabled,0,FALSE,0,NO ERROR,0.000000,0.000000,0.000000,0.000000,Speed,Speed,-0.020000,1.130000,1.820000,2.000000,101.000000,1,0,-0.000248,0.000062,0,0.000000,0.000000,0.000000,28.184875,9.830475,0.000000,0.000000,0.001000,0.004000,FlatInitial
03:55:33.060 PM 02/14/2016,Teleop Disabled,0,FALSE,0,NO ERROR,0.000000,0.000000,0.000000,0.000000,Speed,Speed,-0.020000,1.130000,1.820000,2.000000,101.000000,1,0,-0.000248,0.000062,0,0.000000,0.000000,0.000000,28.184875,9.830475,0.000000,0.000000,0.001000,0.004000,FlatInitial
03:55:33.159 PM 02/14/2016,Teleop Disabled,0,FALSE,0,NO ERROR,0.000000,0.000000,0.000000,0.000000,Speed,Speed,-0.020000,1.130000,1.820000,2.000000,102.000000,1,0,-0.000248,0.000062,0,0.000000,0.000000,0.000000,28.184875,9.830475,0.000000,0.000000,0.000000,0.003000,FlatInitial
03:55:33.259 PM 02/14/2016,Teleop Disabled,0,FALSE,0,NO ERROR,0.000000,0.000000,0.000000,0.000000,Speed,Speed,-0.020000,1.130000,1.820000,2.000000,101.000000,1,0,-0.000248,0.000062,0,0.000000,0.000000,0.000000,28.184875,9.830475,0.000000,0.000000,0.002000,0.002000,FlatInitial
03:55:33.360 PM 02/14/2016,Teleop Enabled,0,FALSE,0,NO ERROR,0.000000,0.000000,0.000000,0.000000,Speed,Speed,-0.020000,1.130000,1.820000,2.000000,101.000000,1,0,-0.000248,0.000062,0,0.000000,0.000000,0.000000,28.184875,9.830475,0.000000,0.001000,0.000000,0.001000,FlatInitial
03:55:33.461 PM 02/14/2016,Teleop Enabled,0,FALSE,0,NO ERROR,0.000000,0.000000,0.000000,0.000000,Speed,Speed,0.020000,1.140000,1.500000,3.000000,101.000000,1,0,-0.000248,0.000062,0,0.002945,0.000000,0.000000,28.184906,9.830475,0.000000,0.031000,0.017000,0.010000,FlatInitial
03:55:33.560 PM 02/14/2016,Teleop Enabled,0,FALSE,0,NO ERROR,257.666016,-170.947266,4000.000000,4000.000000,Speed,Speed,0.170000,1.210000,1.780000,3.000000,102.000000,1,0,-0.000248,0.000062,0,-0.002991,0.001358,0.000000,28.184937,9.830246,0.000000,0.065000,0.024000,0.017000,FlatInitial
03:55:33.661 PM 02/14/2016,Teleop Enabled,0,FALSE,0,NO ERROR,1664.355469,-1857.714844,4000.000000,4000.000000,Speed,Speed,0.120000,1.070000,1.910000,3.000000,102.000000,1,0,-0.000248,0.000062,0,0.035294,-0.006958,0.000000,28.186157,9.830765,0.000000,0.000000,-0.036000,0.160000,FlatInitial
03:55:33.768 PM 02/14/2016,Teleop Enabled,0,FALSE,0,NO ERROR,3369.140625,-3485.595703,4000.000000,4000.000000,Speed,Speed,0.120000,1.070000,1.910000,3.000000,103.000000,1,0,-0.000248,0.000062,0,-0.007675,0.001282,0.000000,28.186493,9.830688,0.000000,-0.022000,-0.007000,0.063000,FlatInitial
03:55:33.867 PM 02/14/2016,Teleop Enabled,0,FALSE,0,NO ERROR,4081.494141,-4122.656250,4000.000000,4000.000000,Speed,Speed,0.120000,1.140000,1.800000,3.000000,102.000000,1,0,-0.000248,0.000062,0,-0.016602,0.041687,0.000000,28.185532,9.831619,0.000000,0.023000,0.022000,-0.010000,FlatInitial
03:55:33.974 PM 02/14/2016,Teleop Enabled,0,FALSE,0,NO ERROR,4154.589844,-4123.095703,4000.000000,4000.000000,Speed,Speed,0.100000,1.140000,2.100000,3.000000,101.000000,1,0,-0.000248,0.000062,0,-0.011459,0.038422,0.000000,28.185318,9.833893,0.000000,-0.011000,-0.024000,-0.130000,FlatInitial
03:55:34.074 PM 02/14/2016,Teleop Enabled,0,FALSE,0,NO ERROR,4059.960937,-3993.457031,4000.000000,4000.000000,Speed,Speed,0.060000,1.190000,1.920000,3.000000,100.000000,1,0,-0.000248,0.000062,0,0.000229,0.012726,0.000000,28.184570,9.834824,0.000000,0.052000,-0.027000,0.085000,FlatInitial
03:55:34.174 PM 02/14/2016,Teleop Enabled,0,FALSE,0,NO ERROR,4001.074219,-3933.544922,4000.000000,4000.000000,Speed,Speed,0.110000,1.180000,1.850000,3.000000,101.000000,1,0,-0.000248,0.000062,0,0.010406,-0.009781,0.000000,28.185257,9.834930,0.000000,-0.077000,-0.052000,-0.118000,FlatInitial
03:55:34.274 PM 02/14/2016,Teleop Enabled,0,FALSE,0,NO ERROR,3979.980469,-3945.117187,4000.000000,4000.000000,Speed,Speed,0.100000,1.120000,1.880000,3.000000,101.000000,1,0,-0.000248,0.000062,0,-0.002182,-0.034576,0.000000,28.185425,9.833603,0.000000,-0.008000,0.018000,-0.027000,FlatInitial
03:55:34.374 PM 02/14/2016,Teleop Enabled,0,FALSE,0,NO ERROR,3983.496094,-3970.312500,4000.000000,4000.000000,Speed,Speed,0.080000,1.090000,1.870000,3.000000,101.000000,1,0,-0.000248,0.000062,0,-0.005173,-0.019363,0.000000,28.184219,9.830093,0.000000,0.000000,-0.059000,0.217000,FlatInitial
03:55:34.475 PM 02/14/2016,Teleop Enabled,0,FALSE,0,NO ERROR,3991.699219,-3990.820312,4000.000000,4000.000000,Speed,Speed,0.080000,1.090000,1.870000,3.000000,102.000000,1,0,-0.000248,0.000062,0,-0.005173,-0.019363,0.000000,28.184219,9.830093,0.000000,-0.013000,0.016000,-0.118000,FlatInitial
03:55:34.576 PM 02/14/2016,Teleop Enabled,0,FALSE,0,NO ERROR,3997.412109,-3996.093750,4000.000000,4000.000000,Speed,Speed,0.090000,1.150000,1.890000,3.000000,101.000000,1,0,-0.000248,0.000062,0,0.004623,0.009918,0.000000,28.184418,9.829224,0.000000,0.020000,0.020000,-0.119000,FlatInitial
03:55:34.681 PM 02/14/2016,Teleop Enabled,0,FALSE,0,NO ERROR,3996.093750,-3998.437500,4000.000000,4000.000000,Speed,Speed,0.090000,1.150000,1.890000,3.000000,102.000000,1,0,-0.000248,0.000062,0,0.004623,0.009918,0.000000,28.184418,9.829224,0.000000,0.005000,-0.013000,0.192000,FlatInitial
03:55:34.785 PM 02/14/2016,Teleop Enabled,0,FALSE,0,NO ERROR,3998.144531,-4003.417969,4000.000000,4000.000000,Speed,Speed,0.020000,1.210000,1.790000,3.000000,102.000000,1,0,-0.000248,0.000062,0,0.017105,-0.045227,0.000000,28.186203,9.828461,0.000000,0.064000,-0.105000,-0.159000,FlatInitial
03:55:34.885 PM 02/14/2016,Teleop Enabled,0,FALSE,0,NO ERROR,3998.144531,-4010.888672,4000.000000,4000.000000,Speed,Speed,0.170000,1.310000,1.490000,3.000000,103.000000,1,0,-0.000248,0.000062,0,0.029007,-0.007431,0.000000,28.187241,9.827942,0.000000,-0.049000,0.019000,-0.074000,FlatInitial
03:55:34.984 PM 02/14/2016,Teleop Enabled,0,FALSE,0,NO ERROR,4013.818359,-4013.378906,4000.000000,4000.000000,Speed,Speed,0.180000,1.200000,1.630000,3.000000,101.000000,1,0,-0.000248,0.000062,0,-0.016464,-0.033569,0.000000,28.186935,9.826797,0.000000,-0.043000,-0.026000,-0.132000,FlatInitial
03:55:35.085 PM 02/14/2016,Teleop Enabled,0,FALSE,0,NO ERROR,4014.404297,-4007.519531,4000.000000,4000.000000,Speed,Speed,0.090000,1.280000,1.490000,3.000000,102.000000,1,0,-0.000248,0.000062,0,0.009903,-0.027740,0.000000,28.186661,9.825027,0.000000,-0.043000,-0.026000,-0.132000,FlatInitial
03:55:35.185 PM 02/14/2016,Teleop Enabled,0,FALSE,0,NO ERROR,4010.742187,-4005.468750,4000.000000,4000.000000,Speed,Speed,0.100000,1.190000,1.550000,3.000000,104.000000,1,0,-0.000248,0.000062,0,0.009903,-0.027740,0.000000,28.186661,9.825027,0.000000,-0.072000,0.017000,-0.081000,FlatInitial
03:55:35.286 PM 02/14/2016,Teleop Enabled,0,FALSE,0,NO ERROR,4005.322266,-4004.736328,4000.000000,4000.000000,Speed,Speed,0.140000,1.150000,1.640000,3.000000,100.000000,1,0,-0.000248,0.000062,0,-0.001831,-0.005356,0.000000,28.186401,9.823807,0.000000,0.015000,0.030000,0.006000,FlatInitial
03:55:35.387 PM 02/14/2016,Teleop Enabled,0,FALSE,0,NO ERROR,4004.589844,-4002.978516,4000.000000,4000.000000,Speed,Speed,0.140000,1.130000,1.590000,3.000000,102.000000,1,0,-0.000248,0.000062,0,0.009750,0.006546,0.000000,28.186371,9.823837,0.000000,-0.069000,-0.019000,-0.106000,FlatInitial
03:55:35.488 PM 02/14/2016,Teleop Enabled,0,FALSE,0,NO ERROR,4003.857422,-4002.978516,4000.000000,4000.000000,Speed,Speed,0.110000,1.070000,1.780000,3.000000,102.000000,1,0,-0.000248,0.000062,0,-0.001846,0.000000,0.000000,28.186569,9.824234,0.000000,-0.042000,-0.019000,-0.115000,FlatInitial
03:55:35.591 PM 02/14/2016,Teleop Enabled,0,FALSE,0,NO ERROR,4005.175781,-4001.367187,4000.000000,4000.000000,Speed,Speed,0.130000,1.050000,1.760000,3.000000,102.000000,1,0,-0.000248,0.000062,0,-0.008789,0.001663,0.000000,28.186310,9.824310,0.000000,-0.048000,-0.014000,-0.112000,FlatInitial
03:55:35.690 PM 02/14/2016,Teleop Enabled,0,FALSE,0,NO ERROR,4005.175781,-4001.806641,4000.000000,4000.000000,Speed,Speed,0.130000,0.990000,1.800000,3.000000,102.000000,1,0,-0.000248,0.000062,0,-0.028961,0.002838,0.000000,28.185104,9.824234,0.000000,-0.048000,-0.014000,-0.112000,FlatInitial
03:55:35.790 PM 02/14/2016,Teleop Enabled,0,FALSE,0,NO ERROR,4000.927734,-4001.806641,4000.000000,4000.000000,Speed,Speed,0.120000,0.960000,1.920000,3.000000,102.000000,1,0,-0.000248,0.000062,0,-0.028961,0.002838,0.000000,28.185104,9.824234,0.000000,-0.056000,0.002000,-0.101000,FlatInitial
03:55:35.891 PM 02/14/2016,Teleop Enabled,0,FALSE,0,NO ERROR,3998.144531,-4000.927734,4000.000000,4000.000000,Speed,Speed,0.130000,0.940000,1.920000,3.000000,100.000000,1,0,-0.000248,0.000062,0,0.000000,0.024200,0.000000,28.183441,9.825195,0.000000,0.008000,0.046000,-0.006000,FlatInitial
03:55:35.990 PM 02/14/2016,Teleop Enabled,0,FALSE,0,NO ERROR,3998.144531,-4001.953125,4000.000000,4000.000000,Speed,Speed,0.120000,0.900000,2.000000,3.000000,103.000000,1,0,-0.000248,0.000062,0,-0.012161,0.032150,0.000000,28.183167,9.826691,0.000000,0.001000,-0.018000,0.091000,FlatInitial
03:55:36.090 PM 02/14/2016,Teleop Enabled,0,FALSE,0,NO ERROR,3997.412109,-4003.564453,4000.000000,4000.000000,Speed,Speed,0.120000,0.900000,2.000000,3.000000,102.000000,1,0,-0.000248,0.000062,0,-0.022781,0.050735,0.000000,28.181625,9.830597,0.000000,-0.026000,0.011000,-0.073000,FlatInitial
03:55:36.191 PM 02/14/2016,Teleop Enabled,0,FALSE,0,NO ERROR,3995.214844,-4005.468750,4000.000000,4000.000000,Speed,Speed,0.130000,0.860000,2.090000,3.000000,103.000000,1,0,-0.000248,0.000062,0,-0.022781,0.050735,0.000000,28.181625,9.830597,0.000000,0.010000,0.045000,0.007000,FlatInitial
03:55:36.290 PM 02/14/2016,Teleop Enabled,0,FALSE,0,NO ERROR,3992.871094,-4003.710937,4000.000000,4000.000000,Speed,Speed,0.130000,0.860000,2.090000,3.000000,103.000000,1,0,-0.000248,0.000062,0,-0.020538,0.051605,0.000000,28.180954,9.833984,0.000000,0.023000,-0.039000,0.080000,FlatInitial
03:55:36.390 PM 02/14/2016,Teleop Enabled,0,FALSE,0,NO ERROR,3993.164062,-4003.125000,4000.000000,4000.000000,Speed,Speed,0.130000,0.840000,2.240000,3.000000,102.000000,1,0,-0.000248,0.000062,0,-0.024048,0.063065,0.000000,28.179840,9.836945,0.000000,-0.036000,-0.012000,-0.085000,FlatInitial
03:55:36.491 PM 02/14/2016,Teleop Enabled,0,FALSE,0,NO ERROR,3995.507812,-4000.341797,4000.000000,4000.000000,Speed,Speed,0.130000,0.840000,2.240000,3.000000,101.000000,1,0,-0.000248,0.000062,0,-0.031158,0.066299,0.000000,28.178467,9.840149,0.000000,-0.016000,0.032000,0.002000,FlatInitial
03:55:36.592 PM 02/14/2016,Teleop Enabled,0,FALSE,0,NO ERROR,3999.609375,-4000.488281,4000.000000,4000.000000,Speed,Speed,0.130000,0.830000,2.300000,3.000000,100.000000,1,0,-0.000248,0.000062,0,-0.040344,0.010269,0.000000,28.176590,9.841064,0.000000,0.030000,-0.024000,0.066000,FlatInitial
03:55:36.693 PM 02/14/2016,Teleop Enabled,0,FALSE,0,NO ERROR,4004.443359,-3998.876953,9000.000000,9000.000000,Speed,Speed,0.120000,0.830000,2.320000,4.000000,101.000000,1,0,-0.000248,0.000062,0,-0.048187,0.000000,0.000000,28.174408,9.841309,0.000000,-0.027000,0.016000,-0.059000,FlatInitial
03:55:36.793 PM 02/14/2016,Teleop Enabled,0,FALSE,0,NO ERROR,4042.968750,-4109.326172,9000.000000,9000.000000,Speed,Speed,0.120000,0.820000,2.370000,4.000000,102.000000,1,0,-0.000062,0.000062,0,-0.009506,0.006866,0.000000,28.173416,9.841690,0.000000,-0.103000,-0.084000,0.091000,FlatInitial
03:55:36.893 PM 02/14/2016,Teleop Enabled,0,FALSE,0,NO ERROR,4905.468750,-5289.257812,9000.000000,9000.000000,Speed,Speed,0.130000,0.800000,2.300000,4.000000,102.000000,1,0,-0.000062,0.000062,0,-0.031342,0.000000,0.000000,28.171860,9.841034,0.000000,0.020000,0.019000,0.086000,FlatInitial
03:55:36.994 PM 02/14/2016,Teleop Enabled,0,FALSE,0,NO ERROR,6313.476562,-6609.960938,9000.000000,9000.000000,Speed,Speed,0.140000,0.870000,2.240000,4.000000,101.000000,1,0,-0.000062,0.000062,0,-0.073166,0.021942,0.000000,28.169174,9.841446,0.000000,-0.016000,0.113000,-0.099000,FlatInitial
03:55:37.095 PM 02/14/2016,Teleop Enabled,0,FALSE,0,NO ERROR,7494.140625,-7705.078125,9000.000000,9000.000000,Speed,Speed,0.120000,0.800000,2.340000,4.000000,101.000000,1,0,-0.000062,0.000062,0,-0.057083,0.024490,0.000000,28.166962,9.842834,0.000000,0.025000,-0.219000,0.057000,FlatInitial
03:55:37.195 PM 02/14/2016,Teleop Enabled,0,FALSE,0,NO ERROR,8457.421875,-8434.570312,9000.000000,9000.000000,Speed,Speed,0.140000,0.770000,2.070000,4.000000,104.000000,1,0,-0.000062,0.000062,0,-0.073608,0.003311,0.000000,28.163712,9.843018,0.000000,-0.075000,0.001000,-0.102000,FlatInitial
03:55:37.295 PM 02/14/2016,Teleop Enabled,0,FALSE,0,NO ERROR,9022.851562,-8943.750000,9000.000000,9000.000000,Speed,Speed,0.150000,0.750000,2.150000,4.000000,103.000000,1,0,-0.000062,0.000062,0,-0.040985,0.038681,0.000000,28.160034,9.844757,0.000000,0.068000,0.052000,0.080000,FlatInitial
03:55:37.396 PM 02/14/2016,Teleop Enabled,0,FALSE,0,NO ERROR,9257.812500,-9155.273438,9000.000000,9000.000000,Speed,Speed,0.130000,0.770000,2.170000,4.000000,103.000000,1,0,-0.000062,0.000062,0,-0.078964,0.025818,0.000000,28.157578,9.846283,0.000000,-0.091000,0.142000,0.034000,FlatInitial
03:55:37.496 PM 02/14/2016,Teleop Enabled,0,FALSE,0,NO ERROR,9318.750000,-9235.546875,9000.000000,9000.000000,Speed,Speed,0.130000,0.820000,1.900000,4.000000,100.000000,1,0,-0.000062,0.000062,0,-0.048630,0.040680,0.000000,28.154144,9.848083,0.000000,-0.089000,-0.042000,-0.093000,FlatInitial
03:55:37.597 PM 02/14/2016,Teleop Enabled,0,FALSE,0,NO ERROR,9296.484375,-9229.687500,9000.000000,9000.000000,Speed,Speed,0.140000,0.860000,1.950000,4.000000,101.000000,1,0,-0.000062,0.000062,0,-0.078415,0.045349,0.000000,28.151199,9.850418,0.000000,0.081000,-0.218000,0.024000,FlatInitial
03:55:37.697 PM 02/14/2016,Teleop Enabled,0,FALSE,0,NO ERROR,9229.101562,-9185.742188,9000.000000,9000.000000,Speed,Speed,0.140000,0.860000,1.940000,4.000000,101.000000,1,0,-0.000062,0.000062,0,-0.008713,0.040787,0.000000,28.148392,9.852402,0.000000,0.034000,0.037000,0.120000,FlatInitial
03:55:37.797 PM 02/14/2016,Teleop Enabled,0,FALSE,0,NO ERROR,9157.031250,-9142.382812,9000.000000,9000.000000,Speed,Speed,0.140000,0.840000,1.850000,4.000000,101.000000,1,0,-0.000062,0.000062,0,-0.015610,0.059830,0.000000,28.148010,9.855133,0.000000,-0.071000,-0.231000,0.002000,FlatInitial
03:55:37.897 PM 02/14/2016,Teleop Enabled,0,FALSE,0,NO ERROR,9099.609375,-9089.062500,9000.000000,9000.000000,Speed,Speed,0.140000,0.950000,1.920000,4.000000,101.000000,1,0,-0.000062,0.000062,0,-0.108322,0.014343,0.000000,28.144852,9.857101,0.000000,-0.002000,-0.019000,-0.041000,FlatInitial
03:55:37.997 PM 02/14/2016,Teleop Enabled,0,FALSE,0,NO ERROR,9057.421875,-9053.906250,9000.000000,9000.000000,Speed,Speed,0.130000,0.930000,1.860000,4.000000,101.000000,1,0,-0.000062,0.000062,0,-0.195267,-0.033386,0.000000,28.136444,9.856094,0.000000,-0.194000,0.104000,0.082000,FlatInitial
03:55:38.097 PM 02/14/2016,Teleop Enabled,0,FALSE,0,NO ERROR,9036.328125,-9027.539062,9000.000000,9000.000000,Speed,Speed,0.120000,0.950000,1.850000,4.000000,101.000000,1,0,-0.000062,0.000062,0,-0.228455,-0.076233,0.000000,28.125580,9.852951,0.000000,0.105000,-0.217000,-0.088000,FlatInitial
03:55:38.197 PM 02/14/2016,Teleop Enabled,0,FALSE,0,NO ERROR,9013.476562,-9016.992188,9000.000000,9000.000000,Speed,Speed,0.130000,0.950000,1.940000,4.000000,102.000000,1,0,-0.000062,0.000062,0,-0.221237,-0.093018,0.000000,28.116440,9.849457,0.000000,-0.091000,0.165000,0.041000,FlatInitial
03:55:38.297 PM 02/14/2016,Teleop Enabled,0,FALSE,0,NO ERROR,9002.929688,-9012.304688,9000.000000,9000.000000,Speed,Speed,0.130000,0.970000,1.990000,4.000000,101.000000,1,0,-0.000062,0.000062,0,-0.190430,-0.134247,0.000000,28.104263,9.842361,0.000000,0.104000,-0.271000,-0.067000,FlatInitial
03:55:38.397 PM 02/14/2016,Teleop Enabled,0,FALSE,0,NO ERROR,9000.000000,-9009.960938,9000.000000,9000.000000,Speed,Speed,0.130000,0.980000,1.860000,4.000000,103.000000,1,0,-0.000062,0.000062,0,-0.153198,-0.159073,0.000000,28.095810,9.834854,0.000000,-0.011000,0.220000,-0.037000,FlatInitial
03:55:38.496 PM 02/14/2016,Teleop Enabled,0,FALSE,0,NO ERROR,8997.656250,-9009.960938,9000.000000,9000.000000,Speed,Speed,0.130000,1.010000,1.890000,4.000000,102.000000,1,0,-0.000062,0.000062,0,-0.116486,-0.185730,0.000000,28.089355,9.826035,0.000000,0.095000,-0.312000,-0.045000,FlatInitial
03:55:38.597 PM 02/14/2016,Teleop Enabled,0,FALSE,0,NO ERROR,9001.171875,-9009.375000,9000.000000,9000.000000,Speed,Speed,0.130000,1.010000,1.780000,4.000000,102.000000,1,0,-0.000062,0.000062,0,-0.093933,-0.227097,0.000000,28.084167,9.815521,0.000000,-0.028000,0.174000,-0.022000,FlatInitial
03:55:38.697 PM 02/14/2016,Teleop Enabled,0,FALSE,0,NO ERROR,9004.687500,-9009.375000,9000.000000,9000.000000,Speed,Speed,0.130000,1.030000,1.730000,4.000000,102.000000,1,0,-0.000062,0.000062,0,-0.068176,-0.249969,0.000000,28.080353,9.803253,0.000000,0.065000,-0.252000,-0.001000,FlatInitial
03:55:38.798 PM 02/14/2016,Teleop Enabled,0,FALSE,0,NO ERROR,9007.617188,-9008.789062,9000.000000,9000.000000,Speed,Speed,0.120000,1.010000,1.720000,4.000000,102.000000,1,0,-0.000062,0.000062,0,-0.033112,-0.270935,0.000000,28.078049,9.790085,0.000000,0.003000,0.236000,-0.036000,FlatInitial
03:55:38.898 PM 02/14/2016,Teleop Enabled,0,FALSE,0,NO ERROR,9013.476562,-9012.304688,9000.000000,9000.000000,Speed,Speed,0.130000,1.050000,1.720000,4.000000,101.000000,1,0,-0.000062,0.000062,0,0.018845,-0.276962,0.000000,28.077820,9.776382,0.000000,0.057000,0.200000,-0.074000,FlatInitial
03:55:38.998 PM 02/14/2016,Teleop Enabled,0,FALSE,0,NO ERROR,9014.062500,-9011.718750,9000.000000,9000.000000,Speed,Speed,0.120000,1.030000,1.730000,4.000000,102.000000,1,0,-0.000062,0.000062,0,0.095978,-0.275467,0.000000,28.081009,9.762360,0.000000,0.072000,-0.138000,-0.005000,FlatInitial
03:55:39.098 PM 02/14/2016,Teleop Enabled,0,FALSE,0,NO ERROR,9011.718750,-9009.960938,9000.000000,9000.000000,Speed,Speed,0.120000,1.080000,1.680000,4.000000,101.000000,1,0,-0.000062,0.000062,0,0.216278,-0.246277,0.000000,28.090714,9.746964,0.000000,0.080000,0.207000,-0.061000,FlatInitial
03:55:39.198 PM 02/14/2016,Teleop Enabled,0,FALSE,0,NO ERROR,9007.031250,-9008.789062,9000.000000,9000.000000,Speed,Speed,0.110000,1.060000,1.730000,4.000000,101.000000,1,0,-0.000062,0.000062,0,0.289978,-0.226196,0.000000,28.101181,9.737610,0.000000,0.103000,-0.087000,0.032000,FlatInitial
03:55:39.298 PM 02/14/2016,Teleop Enabled,0,FALSE,0,NO ERROR,9005.273438,-9008.203125,9000.000000,9000.000000,Speed,Speed,0.110000,1.090000,1.710000,4.000000,101.000000,1,0,-0.000062,0.000062,0,0.389908,-0.187012,0.000000,28.118622,9.727417,0.000000,0.096000,0.173000,-0.029000,FlatInitial
03:55:39.398 PM 02/14/2016,Teleop Enabled,0,FALSE,0,NO ERROR,9007.031250,-9007.617188,9000.000000,9000.000000,Speed,Speed,0.110000,1.080000,1.770000,4.000000,102.000000,1,0,-0.000062,0.000062,0,0.501205,-0.150131,0.000000,28.145920,9.717850,0.000000,0.078000,-0.093000,0.035000,FlatInitial
03:55:39.498 PM 02/14/2016,Teleop Enabled,0,FALSE,0,NO ERROR,9008.203125,-9003.515625,9000.000000,9000.000000,Speed,Speed,0.110000,1.080000,1.710000,4.000000,101.000000,1,0,-0.000062,0.000062,0,0.593994,-0.112671,0.000000,28.173737,9.711456,0.000000,0.098000,0.185000,-0.039000,FlatInitial
03:55:39.598 PM 02/14/2016,Teleop Enabled,0,FALSE,0,NO ERROR,9006.445312,-9004.687500,9000.000000,9000.000000,Speed,Speed,0.110000,1.080000,1.780000,4.000000,103.000000,1,0,-0.000062,0.000062,0,0.687866,-0.066147,0.000000,28.206268,9.707382,0.000000,0.069000,-0.037000,-0.010000,FlatInitial
03:55:39.698 PM 02/14/2016,Teleop Enabled,0,FALSE,0,NO ERROR,9003.515625,-9001.171875,9000.000000,9000.000000,Speed,Speed,0.110000,1.080000,1.760000,4.000000,102.000000,1,0,-0.000062,0.000062,0,0.770111,-0.032089,0.000000,28.242981,9.705002,0.000000,0.133000,0.102000,-0.058000,FlatInitial
03:55:39.798 PM 02/14/2016,Teleop Enabled,0,FALSE,0,NO ERROR,9001.171875,-9005.273438,9000.000000,9000.000000,Speed,Speed,0.110000,1.080000,1.770000,4.000000,104.000000,1,0,-0.000062,0.000062,0,0.851990,0.009323,0.000000,28.275879,9.704712,0.000000,0.043000,-0.028000,-0.023000,FlatInitial
03:55:39.898 PM 02/14/2016,Teleop Enabled,0,FALSE,0,NO ERROR,8997.070312,-9004.687500,9000.000000,9000.000000,Speed,Speed,0.110000,1.090000,1.790000,4.000000,102.000000,1,0,-0.000062,0.000062,0,0.960693,0.064316,0.000000,28.330795,9.707291,0.000000,0.133000,0.096000,-0.035000,FlatInitial
03:55:39.999 PM 02/14/2016,Teleop Enabled,0,FALSE,0,NO ERROR,8997.656250,-9005.859375,9000.000000,9000.000000,Speed,Speed,0.110000,1.070000,1.840000,4.000000,101.000000,1,0,-0.000062,0.000062,0,1.055862,0.121887,0.000000,28.381729,9.712082,0.000000,0.075000,-0.004000,-0.030000,FlatInitial
03:55:40.098 PM 02/14/2016,Teleop Enabled,0,FALSE,0,NO ERROR,9000.585938,-9008.789062,9000.000000,9000.000000,Speed,Speed,0.110000,1.090000,1.830000,4.000000,101.000000,1,0,-0.000062,0.000062,0,1.146790,0.148285,0.000000,28.437286,9.718964,0.000000,0.106000,0.083000,-0.042000,FlatInitial
03:55:40.198 PM 02/14/2016,Teleop Enabled,0,FALSE,0,NO ERROR,9003.515625,-9011.718750,9000.000000,9000.000000,Speed,Speed,0.110000,1.090000,1.770000,4.000000,102.000000,1,0,-0.000062,0.000062,0,1.235016,0.184143,0.000000,28.497208,9.727463,0.000000,0.067000,-0.041000,-0.025000,FlatInitial
03:55:40.299 PM 02/14/2016,Teleop Enabled,0,FALSE,0,NO ERROR,9011.132812,-9009.960938,9000.000000,9000.000000,Speed,Speed,0.110000,1.100000,1.800000,4.000000,101.000000,1,0,-0.000062,0.000062,0,1.312912,0.209885,0.000000,28.561279,9.737427,0.000000,0.058000,0.124000,0.033000,FlatInitial
03:55:40.399 PM 02/14/2016,Teleop Enabled,0,FALSE,0,NO ERROR,9009.960938,-9009.960938,9000.000000,9000.000000,Speed,Speed,0.110000,1.080000,1.770000,4.000000,101.000000,1,0,-0.000062,0.000062,0,1.380417,0.247940,0.000000,28.628937,9.749207,0.000000,0.075000,-0.009000,-0.079000,FlatInitial
03:55:40.498 PM 02/14/2016,Teleop Enabled,0,FALSE,0,NO ERROR,9008.789062,-9008.203125,9000.000000,9000.000000,Speed,Speed,0.100000,1.110000,1.720000,4.000000,101.000000,1,0,-0.000062,0.000062,0,1.452530,0.274231,0.000000,28.700256,9.762497,0.000000,0.058000,0.068000,0.040000,FlatInitial
03:55:40.599 PM 02/14/2016,Teleop Enabled,0,FALSE,0,NO ERROR,9004.687500,-9008.203125,9000.000000,9000.000000,Speed,Speed,0.110000,1.100000,1.730000,4.000000,101.000000,1,0,-0.000062,0.000062,0,1.510559,0.318787,0.000000,28.774536,9.777664,0.000000,0.088000,0.006000,-0.112000,FlatInitial
03:55:40.700 PM 02/14/2016,Teleop Enabled,0,FALSE,0,NO ERROR,9003.515625,-9006.445312,9000.000000,9000.000000,Speed,Speed,0.100000,1.110000,1.720000,4.000000,102.000000,1,0,-0.000062,0.000062,0,1.577423,0.351288,0.000000,28.852173,9.794647,0.000000,0.048000,0.040000,0.094000,FlatInitial
03:55:40.801 PM 02/14/2016,Teleop Enabled,0,FALSE,0,NO ERROR,9004.101562,-9002.343750,9000.000000,9000.000000,Speed,Speed,0.110000,1.110000,1.710000,4.000000,102.000000,1,0,-0.000062,0.000062,0,1.640533,0.381256,0.000000,28.933014,9.812943,0.000000,0.089000,0.069000,0.064000,FlatInitial
03:55:40.901 PM 02/14/2016,Teleop Enabled,0,FALSE,0,NO ERROR,9002.343750,-8997.070312,9000.000000,9000.000000,Speed,Speed,0.100000,1.110000,1.690000,4.000000,101.000000,1,0,-0.000062,0.000062,0,1.691742,0.420059,0.000000,29.016739,9.833176,0.000000,0.047000,-0.068000,-0.088000,FlatInitial
03:55:41.001 PM 02/14/2016,Teleop Enabled,0,FALSE,0,NO ERROR,9001.171875,-8990.039062,9000.000000,9000.000000,Speed,Speed,0.110000,1.120000,1.690000,4.000000,103.000000,1,0,-0.000062,0.000062,0,1.738739,0.454254,0.000000,29.102707,9.854843,0.000000,0.041000,0.012000,-0.085000,FlatInitial
03:55:41.101 PM 02/14/2016,Teleop Enabled,0,FALSE,0,NO ERROR,8995.898438,-8985.351562,9000.000000,9000.000000,Speed,Speed,0.100000,1.120000,1.690000,4.000000,105.000000,1,0,-0.000062,0.000062,0,1.785080,0.499435,0.000000,29.191040,9.878784,0.000000,0.055000,0.018000,-0.065000,FlatInitial
03:55:41.201 PM 02/14/2016,Teleop Enabled,0,FALSE,0,NO ERROR,8995.312500,-8993.554688,9000.000000,9000.000000,Speed,Speed,0.110000,1.110000,1.770000,4.000000,100.000000,1,0,-0.000062,0.000062,0,1.832031,0.554108,0.000000,29.300003,9.910553,0.000000,0.048000,0.071000,0.097000,FlatInitial
03:55:41.301 PM 02/14/2016,Teleop Enabled,0,FALSE,0,NO ERROR,8995.898438,-8998.242188,9000.000000,9000.000000,Speed,Speed,0.110000,1.100000,1.750000,4.000000,101.000000,1,0,-0.000062,0.000062,0,1.878510,0.592468,0.000000,29.392899,9.939285,0.000000,0.041000,-0.027000,-0.114000,FlatInitial
03:55:41.402 PM 02/14/2016,Teleop Enabled,0,FALSE,0,NO ERROR,8995.898438,-9003.515625,9000.000000,9000.000000,Speed,Speed,0.110000,1.110000,1.810000,4.000000,101.000000,1,0,-0.000062,0.000062,0,1.925476,0.638611,0.000000,29.488297,9.970184,0.000000,0.046000,0.046000,0.088000,FlatInitial
03:55:41.502 PM 02/14/2016,Teleop Enabled,0,FALSE,0,NO ERROR,8999.414062,-9004.101562,9000.000000,9000.000000,Speed,Speed,0.110000,1.130000,1.750000,4.000000,102.000000,1,0,-0.000062,0.000062,0,1.973526,0.672989,0.000000,29.586121,10.003021,0.000000,0.010000,0.042000,-0.070000,FlatInitial
03:55:41.603 PM 02/14/2016,Teleop Enabled,0,FALSE,0,NO ERROR,9003.515625,-9009.960938,9000.000000,9000.000000,Speed,Speed,0.110000,1.130000,1.790000,4.000000,102.000000,1,0,-0.000062,0.000062,0,2.025803,0.719131,0.000000,29.686478,10.038223,0.000000,0.044000,0.099000,0.064000,FlatInitial
03:55:41.702 PM 02/14/2016,Teleop Enabled,0,FALSE,0,NO ERROR,9009.375000,-9011.718750,9000.000000,9000.000000,Speed,Speed,0.100000,1.140000,1.730000,6.000000,102.000000,1,0,-0.000062,0.000062,0,2.056198,0.741608,0.000000,29.768219,10.067490,0.000000,-0.018000,-0.038000,-0.071000,FlatInitial
03:55:41.803 PM 02/14/2016,Teleop Enabled,0,FALSE,0,NO ERROR,8900.976562,-8926.171875,9000.000000,9000.000000,Speed,Speed,0.100000,1.140000,1.790000,6.000000,101.000000,1,0,-0.000062,0.000062,0,2.085159,0.767502,0.000000,29.892502,10.113251,0.000000,0.036000,0.061000,0.040000,FlatInitial
03:55:41.904 PM 02/14/2016,Teleop Enabled,0,FALSE,0,NO ERROR,7191.796875,-7004.296875,9000.000000,9000.000000,Speed,Speed,0.080000,1.210000,1.350000,6.000000,101.000000,1,0,-0.000062,0.000062,0,2.112137,0.766586,0.000000,29.996887,10.151276,0.000000,0.199000,0.046000,-0.244000,FlatInitial
03:55:42.004 PM 02/14/2016,Teleop Enabled,0,FALSE,0,NO ERROR,7377.539062,-7621.289062,9000.000000,9000.000000,Speed,Speed,0.040000,1.160000,1.800000,6.000000,101.000000,1,0,-0.000248,0.000062,0,2.095749,0.805588,0.000000,30.102371,10.190125,0.000000,-0.125000,-0.010000,0.238000,FlatInitial
03:55:42.106 PM 02/14/2016,Teleop Enabled,0,FALSE,0,NO ERROR,8412.890625,-8578.125000,9000.000000,9000.000000,Speed,Speed,0.030000,1.150000,1.790000,6.000000,101.000000,1,0,-0.000248,0.000062,0,2.068192,0.782913,0.000000,30.205963,10.229660,0.000000,0.120000,0.164000,-0.067000,FlatInitial
03:55:42.207 PM 02/14/2016,Teleop Enabled,0,FALSE,0,NO ERROR,9130.664062,-8994.726562,9000.000000,9000.000000,Speed,Speed,0.040000,1.090000,1.710000,6.000000,101.000000,1,0,-0.000248,0.000062,0,2.090851,0.859833,0.000000,30.309921,10.271149,0.000000,-0.021000,-0.041000,-0.132000,FlatInitial
03:55:42.308 PM 02/14/2016,Teleop Enabled,0,FALSE,0,NO ERROR,9320.507812,-9228.515625,9000.000000,9000.000000,Speed,Speed,0.060000,1.110000,1.900000,6.000000,102.000000,1,0,-0.000248,0.000062,0,2.080429,0.825684,0.000000,30.414673,10.313736,0.000000,0.032000,-0.127000,0.006000,FlatInitial
03:55:42.409 PM 02/14/2016,Teleop Enabled,0,FALSE,0,NO ERROR,9381.445312,-9295.898438,9000.000000,9000.000000,Speed,Speed,0.050000,1.050000,1.720000,6.000000,102.000000,1,0,-0.000248,0.000062,0,2.087875,0.848038,0.000000,30.518311,10.355453,0.000000,0.114000,0.171000,0.105000,FlatInitial
03:55:42.510 PM 02/14/2016,Teleop Enabled,0,FALSE,0,NO ERROR,9331.640625,-9270.117188,9000.000000,9000.000000,Speed,Speed,0.030000,1.010000,1.710000,6.000000,102.000000,1,0,-0.000248,0.000062,0,2.052353,0.827820,0.000000,30.621338,10.397018,0.000000,0.034000,0.148000,-0.103000,FlatInitial
03:55:42.612 PM 02/14/2016,Teleop Enabled,0,FALSE,0,NO ERROR,9257.812500,-9198.046875,9000.000000,9000.000000,Speed,Speed,0.070000,1.010000,1.860000,6.000000,102.000000,1,0,-0.000248,0.000062,0,2.080551,0.011230,0.000000,30.725189,10.405670,0.000000,-0.065000,-0.153000,-0.053000,FlatInitial
03:55:42.713 PM 02/14/2016,Teleop Enabled,0,FALSE,0,NO ERROR,9165.234375,-9138.867188,9000.000000,9000.000000,Speed,Speed,0.060000,1.000000,1.870000,6.000000,100.000000,1,0,-0.000248,0.000062,0,2.026062,-0.032303,0.000000,30.827194,10.405411,0.000000,0.141000,-0.151000,-0.037000,FlatInitial
03:55:42.816 PM 02/14/2016,Teleop Enabled,0,FALSE,0,NO ERROR,9090.820312,-9080.859375,9000.000000,9000.000000,Speed,Speed,0.030000,1.040000,1.780000,6.000000,101.000000,1,0,-0.000248,0.000062,0,2.065277,-0.025864,0.000000,30.929642,10.403717,0.000000,0.149000,-0.095000,-0.084000,FlatInitial
03:55:42.917 PM 02/14/2016,Teleop Enabled,0,FALSE,0,NO ERROR,9039.257812,-9039.257812,9000.000000,9000.000000,Speed,Speed,0.030000,1.020000,1.870000,6.000000,101.000000,1,0,-0.000248,0.000062,0,2.137238,-0.001816,0.000000,31.035172,10.402893,0.000000,0.051000,0.084000,0.029000,FlatInitial
03:55:43.019 PM 02/14/2016,Teleop Enabled,0,FALSE,0,NO ERROR,9013.476562,-9018.164062,9000.000000,9000.000000,Speed,Speed,0.040000,1.010000,1.840000,7.000000,101.000000,1,0,-0.000248,0.000062,0,2.232208,0.056931,0.000000,31.166473,10.404678,0.000000,0.105000,0.079000,-0.078000,FlatInitial
03:55:43.118 PM 02/14/2016,Teleop Enabled,0,FALSE,0,NO ERROR,9002.343750,-9007.031250,9000.000000,9000.000000,Speed,Speed,0.040000,1.060000,1.770000,7.000000,102.000000,1,0,-0.000248,0.000062,0,2.325272,0.130402,0.000000,31.281006,10.409882,0.000000,0.071000,0.112000,0.029000,FlatInitial
03:55:43.220 PM 02/14/2016,Teleop Enabled,0,FALSE,0,NO ERROR,8998.242188,-8998.828125,9000.000000,9000.000000,Speed,Speed,0.030000,1.040000,1.850000,7.000000,101.000000,1,0,-0.000248,0.000062,0,2.387711,0.179596,0.000000,31.375397,10.416443,0.000000,0.030000,0.029000,-0.102000,FlatInitial
03:55:43.320 PM 02/14/2016,Teleop Enabled,0,FALSE,0,NO ERROR,8993.554688,-8997.070312,9000.000000,9000.000000,Speed,Speed,0.030000,1.020000,1.790000,7.000000,101.000000,1,0,-0.000248,0.000062,0,2.458527,0.233246,0.000000,31.496857,10.427185,0.000000,0.090000,0.104000,0.058000,FlatInitial
03:55:43.421 PM 02/14/2016,Teleop Enabled,0,FALSE,0,NO ERROR,8988.867188,-8996.484375,9000.000000,9000.000000,Speed,Speed,0.030000,1.000000,1.780000,7.000000,101.000000,1,0,-0.000248,0.000062,0,2.529221,0.315231,0.000000,31.646851,10.444138,0.000000,0.029000,-0.033000,-0.094000,FlatInitial
03:55:43.521 PM 02/14/2016,Teleop Enabled,0,FALSE,0,NO ERROR,8991.210938,-8996.484375,9000.000000,9000.000000,Speed,Speed,0.030000,1.020000,1.850000,7.000000,102.000000,1,0,-0.000248,0.000062,0,2.612259,0.385666,0.000000,31.775620,10.462112,0.000000,0.093000,0.127000,0.008000,FlatInitial
03:55:43.622 PM 02/14/2016,Teleop Enabled,0,FALSE,0,NO ERROR,8991.796875,-8997.070312,9000.000000,9000.000000,Speed,Speed,0.030000,1.020000,1.830000,7.000000,101.000000,1,0,-0.000248,0.000062,0,2.665054,0.437195,0.000000,31.881302,10.478760,0.000000,0.045000,-0.057000,-0.069000,FlatInitial
03:55:43.723 PM 02/14/2016,Teleop Enabled,0,FALSE,0,NO ERROR,8991.210938,-8997.656250,9000.000000,9000.000000,Speed,Speed,0.030000,0.990000,1.840000,7.000000,102.000000,1,0,-0.000248,0.000062,0,2.757599,0.516205,0.000000,32.044174,10.507446,0.000000,0.120000,0.136000,-0.020000,FlatInitial
03:55:43.823 PM 02/14/2016,Teleop Enabled,0,FALSE,0,NO ERROR,8991.210938,-9003.515625,9000.000000,9000.000000,Speed,Speed,0.030000,1.020000,1.810000,7.000000,106.000000,1,0,-0.000248,0.000062,0,2.839310,0.565353,0.000000,32.184677,10.534897,0.000000,0.084000,-0.043000,-0.039000,FlatInitial
03:55:43.923 PM 02/14/2016,Teleop Enabled,0,FALSE,0,NO ERROR,8996.484375,-9007.617188,9000.000000,9000.000000,Speed,Speed,0.020000,1.010000,1.800000,7.000000,102.000000,1,0,-0.000248,0.000062,0,2.918365,0.611984,0.000000,32.329010,10.564392,0.000000,0.117000,0.155000,-0.046000,FlatInitial
03:55:44.024 PM 02/14/2016,Teleop Enabled,0,FALSE,0,NO ERROR,9005.273438,-9012.890625,9000.000000,9000.000000,Speed,Speed,0.030000,1.050000,1.710000,7.000000,101.000000,1,0,-0.000248,0.000062,0,3.012650,0.663528,0.000000,32.477676,10.596466,0.000000,0.100000,-0.004000,-0.066000,FlatInitial
03:55:44.125 PM 02/14/2016,Teleop Enabled,0,FALSE,0,NO ERROR,9011.718750,-9009.960938,9000.000000,9000.000000,Speed,Speed,0.030000,1.050000,1.790000,7.000000,101.000000,1,0,-0.000248,0.000062,0,3.101608,0.729218,0.000000,32.631119,10.631409,0.000000,0.107000,0.104000,-0.033000,FlatInitial
03:55:44.226 PM 02/14/2016,Teleop Enabled,0,FALSE,0,NO ERROR,9011.718750,-9007.617188,0.000000,0.000000,Speed,Speed,0.020000,1.060000,1.710000,0.000000,102.000000,1,0,-0.000248,0.000062,0,3.204849,0.797256,0.000000,32.789276,10.669922,0.000000,0.093000,0.060000,-0.061000,FlatInitial
03:55:44.326 PM 02/14/2016,Teleop Enabled,0,FALSE,0,NO ERROR,8942.578125,-8936.132812,0.000000,0.000000,Speed,Speed,0.020000,1.070000,1.700000,0.000000,102.000000,1,0,-0.000248,0.000062,0,3.290329,0.862732,0.000000,32.952271,10.711700,0.000000,0.076000,0.042000,-0.075000,FlatInitial
03:55:44.428 PM 02/14/2016,Teleop Enabled,0,FALSE,0,NO ERROR,8668.359375,-8555.273438,0.000000,0.000000,Speed,Speed,0.020000,1.070000,1.780000,0.000000,101.000000,1,0,-0.000248,0.000062,0,3.368240,0.928619,0.000000,33.119247,10.756943,0.000000,0.166000,-0.098000,-0.087000,FlatInitial
03:55:44.531 PM 02/14/2016,Teleop Enabled,0,FALSE,0,NO ERROR,8255.273438,-8056.054687,0.000000,0.000000,Speed,Speed,0.020000,1.050000,1.740000,0.000000,102.000000,1,0,-0.000248,0.000062,0,3.348694,0.902771,0.000000,33.287216,10.801605,0.000000,-0.089000,-0.159000,0.038000,FlatInitial
03:55:44.633 PM 02/14/2016,Teleop Enabled,0,FALSE,0,NO ERROR,7847.460937,-7666.406250,0.000000,0.000000,Speed,Speed,0.020000,1.000000,1.470000,0.000000,101.000000,1,0,-0.000248,0.000062,0,3.334793,0.842850,0.000000,33.454254,10.844925,0.000000,0.005000,0.125000,-0.077000,FlatInitial
03:55:44.733 PM 02/14/2016,Teleop Enabled,0,FALSE,0,NO ERROR,7450.781250,-7666.406250,0.000000,0.000000,Speed,Speed,0.020000,0.990000,1.520000,0.000000,102.000000,1,0,-0.000248,0.000062,0,3.343536,0.876389,0.000000,33.621506,10.888214,0.000000,0.034000,-0.157000,-0.004000,FlatInitial
03:55:44.835 PM 02/14/2016,Teleop Enabled,0,FALSE,0,NO ERROR,7051.757812,-7187.695312,0.000000,0.000000,Speed,Speed,0.020000,1.020000,1.510000,0.000000,103.000000,1,0,-0.000248,0.000062,0,0.009201,0.866669,0.000000,33.722000,10.931198,0.000000,-0.086000,-0.024000,-0.138000,FlatInitial
03:55:44.934 PM 02/14/2016,Teleop Enabled,0,FALSE,0,NO ERROR,7051.757812,-6713.085938,0.000000,0.000000,Speed,Speed,0.010000,1.050000,1.520000,0.000000,103.000000,1,0,-0.000248,0.000062,0,0.010025,0.903076,0.000000,33.721725,10.974808,0.000000,0.090000,-0.098000,0.082000,FlatInitial
03:55:45.035 PM 02/14/2016,Teleop Enabled,0,FALSE,0,NO ERROR,6664.453125,-6244.921875,0.000000,0.000000,Speed,Speed,0.020000,1.110000,1.330000,0.000000,101.000000,1,0,-0.000248,0.000062,0,0.029083,0.780029,0.000000,33.723450,11.016266,0.000000,0.014000,0.010000,-0.057000,FlatInitial
03:55:45.136 PM 02/14/2016,Teleop Enabled,0,FALSE,0,NO ERROR,6288.867188,-5797.851562,0.000000,0.000000,Speed,Speed,0.010000,1.090000,1.260000,0.000000,102.000000,1,0,-0.000248,0.000062,0,0.013687,0.756760,0.000000,33.724976,11.062042,0.000000,-0.022000,0.042000,0.011000,FlatInitial
03:55:45.236 PM 02/14/2016,Teleop Enabled,0,FALSE,0,NO ERROR,5998.828125,-5360.742188,0.000000,0.000000,Speed,Speed,0.010000,1.070000,1.300000,0.000000,102.000000,1,0,-0.000248,0.000062,0,0.016388,0.784271,0.000000,33.725540,11.100891,0.000000,-0.025000,-0.081000,-0.048000,FlatInitial
03:55:45.338 PM 02/14/2016,Teleop Enabled,0,FALSE,0,NO ERROR,5641.406250,-5020.312500,0.000000,0.000000,Speed,Speed,0.010000,1.150000,1.250000,0.000000,102.000000,1,0,-0.000248,0.000062,0,0.082977,0.797211,0.000000,33.728287,11.140503,0.000000,0.063000,-0.004000,0.058000,FlatInitial
03:55:45.438 PM 02/14/2016,Teleop Enabled,0,FALSE,0,NO ERROR,5292.187500,-4606.054688,0.000000,0.000000,Speed,Speed,0.010000,1.130000,1.360000,0.000000,101.000000,1,0,-0.000248,0.000062,0,0.004135,0.810211,0.000000,33.729462,11.180283,0.000000,-0.073000,0.098000,-0.149000,FlatInitial
03:55:45.539 PM 02/14/2016,Teleop Enabled,0,FALSE,0,NO ERROR,4951.171875,-4202.929688,0.000000,0.000000,Speed,Speed,0.010000,1.150000,1.570000,0.000000,101.000000,1,0,-0.000248,0.000062,0,-0.002487,0.874695,0.000000,33.729095,11.223129,0.000000,-0.022000,0.014000,-0.006000,FlatInitial
03:55:45.639 PM 02/14/2016,Teleop Enabled,0,FALSE,0,NO ERROR,4619.384766,-3813.867187,0.000000,0.000000,Speed,Speed,0.010000,1.120000,1.640000,0.000000,101.000000,1,0,-0.000248,0.000062,0,-0.014114,0.908539,0.000000,33.728638,11.267441,0.000000,0.032000,0.024000,-0.050000,FlatInitial
03:55:45.740 PM 02/14/2016,Teleop Enabled,0,FALSE,0,NO ERROR,4295.654297,-3431.250000,0.000000,0.000000,Speed,Speed,0.010000,1.150000,1.660000,0.000000,101.000000,1,0,-0.000248,0.000062,0,0.005280,0.919708,0.000000,33.728516,11.303665,0.000000,0.061000,-0.003000,0.070000,FlatInitial
03:55:45.840 PM 02/14/2016,Teleop Enabled,0,FALSE,0,NO ERROR,4046.044922,-3052.441406,0.000000,0.000000,Speed,Speed,0.010000,1.180000,1.700000,0.000000,101.000000,1,0,-0.000248,0.000062,0,0.038330,0.931076,0.000000,33.730225,11.359055,0.000000,-0.032000,-0.050000,0.140000,FlatInitial
03:55:45.939 PM 02/14/2016,Teleop Enabled,0,FALSE,0,NO ERROR,3740.332031,-2764.599609,0.000000,0.000000,Speed,Speed,0.010000,1.180000,1.670000,0.000000,101.000000,1,0,-0.000248,0.000062,0,0.026093,0.912979,0.000000,33.731918,11.404999,0.000000,-0.028000,-0.022000,0.074000,FlatInitial
03:55:46.040 PM 02/14/2016,Teleop Enabled,0,FALSE,0,NO ERROR,3445.312500,-2419.335938,0.000000,0.000000,Speed,Speed,0.000000,1.200000,1.680000,0.000000,102.000000,1,0,-0.000248,0.000062,0,0.000000,0.008926,0.000000,33.732559,11.414322,0.000000,-0.008000,-0.003000,0.147000,FlatInitial
03:55:46.139 PM 02/14/2016,Teleop Enabled,0,FALSE,0,NO ERROR,3159.960938,-2087.255859,0.000000,0.000000,Speed,Speed,0.000000,1.180000,1.670000,0.000000,102.000000,1,0,-0.000248,0.000062,0,0.000000,-0.000870,0.000000,33.732849,11.414444,0.000000,0.001000,-0.028000,0.035000,FlatInitial
03:55:46.239 PM 02/14/2016,Teleop Enabled,0,FALSE,0,NO ERROR,2883.691406,-1769.384766,0.000000,0.000000,Speed,Speed,0.000000,1.170000,1.700000,0.000000,104.000000,1,0,-0.000248,0.000062,0,-0.010757,0.000000,0.000000,33.732559,11.414337,0.000000,0.005000,0.003000,-0.051000,FlatInitial
03:55:46.340 PM 02/14/2016,Teleop Enabled,0,FALSE,0,NO ERROR,2614.160156,-1466.455078,0.000000,0.000000,Speed,Speed,0.000000,1.170000,1.710000,0.000000,101.000000,1,0,-0.000248,0.000062,0,0.000000,0.005157,0.000000,33.732224,11.414566,0.000000,0.019000,0.007000,0.068000,FlatInitial
03:55:46.440 PM 02/14/2016,Teleop Enabled,0,FALSE,0,NO ERROR,2406.591797,-1177.734375,0.000000,0.000000,Speed,Speed,0.000000,1.160000,1.720000,0.000000,101.000000,1,0,-0.000248,0.000062,0,-0.001450,-0.003525,0.000000,33.732224,11.414581,0.000000,0.015000,0.021000,-0.025000,FlatInitial
03:55:46.539 PM 02/14/2016,Teleop Enabled,0,FALSE,0,NO ERROR,2153.906250,-905.712891,0.000000,0.000000,Speed,Speed,0.000000,1.160000,1.700000,0.000000,101.000000,1,0,-0.000248,0.000062,0,0.000000,0.000000,0.000000,33.732193,11.414520,0.000000,0.017000,-0.016000,0.043000,FlatInitial
03:55:46.639 PM 02/14/2016,Teleop Enabled,0,FALSE,0,NO ERROR,1914.550781,-708.544922,0.000000,0.000000,Speed,Speed,0.000000,1.170000,1.700000,0.000000,102.000000,1,0,-0.000248,0.000062,0,-0.007812,0.000000,0.000000,33.732010,11.414520,0.000000,-0.018000,-0.012000,0.017000,FlatInitial
03:55:46.740 PM 02/14/2016,Teleop Enabled,0,FALSE,0,NO ERROR,1687.500000,-453.808594,0.000000,0.000000,Speed,Speed,0.000000,1.160000,1.720000,0.000000,102.000000,1,0,-0.000248,0.000062,0,-0.004349,0.000000,0.000000,33.731888,11.414520,0.000000,-0.007000,-0.013000,0.021000,FlatInitial
03:55:46.839 PM 02/14/2016,Teleop Enabled,0,FALSE,0,NO ERROR,1464.550781,-246.533203,0.000000,0.000000,Speed,Speed,0.000000,1.150000,1.720000,0.000000,101.000000,1,0,-0.000248,0.000062,0,0.000000,0.000000,0.000000,33.731888,11.414520,0.000000,0.001000,-0.002000,0.010000,FlatInitial
03:55:46.940 PM 02/14/2016,Teleop Enabled,0,FALSE,0,NO ERROR,1260.058594,-74.560547,0.000000,0.000000,Speed,Speed,0.000000,1.160000,1.730000,0.000000,101.000000,1,0,-0.000248,0.000062,0,0.000000,-0.003891,0.000000,33.731888,11.414459,0.000000,0.004000,-0.002000,0.003000,FlatInitial
03:55:47.040 PM 02/14/2016,Teleop Enabled,0,FALSE,0,NO ERROR,1095.703125,18.164062,0.000000,0.000000,Speed,Speed,0.000000,1.160000,1.720000,0.000000,101.000000,1,0,-0.000248,0.000062,0,0.000000,0.000000,0.000000,33.731888,11.414429,0.000000,-0.011000,-0.016000,0.054000,FlatInitial
03:55:47.140 PM 02/14/2016,Teleop Enabled,0,FALSE,0,NO ERROR,870.263672,4.248047,0.000000,0.000000,Speed,Speed,0.000000,1.150000,1.710000,0.000000,102.000000,1,0,-0.000248,0.000062,0,0.000000,0.004639,0.000000,33.731888,11.414490,0.000000,0.010000,0.003000,0.061000,FlatInitial
03:55:47.240 PM 02/14/2016,Teleop Enabled,0,FALSE,0,NO ERROR,719.531250,0.000000,0.000000,0.000000,Speed,Speed,0.000000,1.160000,1.730000,0.000000,103.000000,1,0,-0.000248,0.000062,0,0.000000,0.000000,0.000000,33.731888,11.414551,0.000000,0.000000,-0.006000,0.053000,FlatInitial
03:55:47.339 PM 02/14/2016,Teleop Enabled,0,FALSE,0,NO ERROR,547.265625,0.000000,0.000000,0.000000,Speed,Speed,0.000000,1.160000,1.720000,0.000000,102.000000,1,0,-0.000248,0.000062,0,0.000000,0.000000,0.000000,33.731888,11.414551,0.000000,0.000000,0.004000,0.022000,FlatInitial
03:55:47.440 PM 02/14/2016,Teleop Enabled,0,FALSE,0,NO ERROR,411.621094,0.000000,0.000000,0.000000,Speed,Speed,0.000000,1.160000,1.720000,0.000000,104.000000,1,0,-0.000248,0.000062,0,0.000000,0.000000,0.000000,33.731888,11.414551,0.000000,0.000000,-0.003000,0.031000,FlatInitial
03:55:47.541 PM 02/14/2016,Teleop Enabled,0,FALSE,0,NO ERROR,284.179688,0.000000,-6000.000000,-6000.000000,Speed,Speed,0.000000,1.160000,1.730000,1.000000,101.000000,1,0,-0.000248,0.000062,0,0.000000,0.000000,0.000000,33.731888,11.414551,0.000000,-0.007000,0.002000,0.014000,FlatInitial
03:55:47.641 PM 02/14/2016,Teleop Enabled,0,FALSE,0,NO ERROR,-165.527344,165.673828,-6000.000000,-6000.000000,Speed,Speed,0.000000,1.150000,1.740000,1.000000,102.000000,1,0,-0.000248,0.000062,0,0.000000,0.000000,0.000000,33.731888,11.414673,0.000000,0.014000,-0.006000,0.039000,FlatInitial
03:55:47.740 PM 02/14/2016,Teleop Enabled,0,FALSE,0,NO ERROR,-1649.853516,1859.912109,-6000.000000,-6000.000000,Speed,Speed,0.000000,1.160000,1.700000,1.000000,100.000000,1,0,-0.000248,0.000062,0,-0.005386,-0.017639,0.000000,33.731888,11.414413,0.000000,0.028000,-0.042000,-0.033000,FlatInitial
03:55:47.841 PM 02/14/2016,Teleop Enabled,0,FALSE,0,NO ERROR,-3507.128906,3413.671875,-6000.000000,-6000.000000,Speed,Speed,0.000000,1.190000,1.610000,1.000000,101.000000,1,0,-0.000248,0.000062,0,0.021667,-0.002563,0.000000,33.732346,11.413300,0.000000,0.001000,-0.020000,0.059000,FlatInitial
03:55:47.941 PM 02/14/2016,Teleop Enabled,0,FALSE,0,NO ERROR,-4995.117188,5002.148438,-6000.000000,-6000.000000,Speed,Speed,0.000000,1.190000,1.690000,1.000000,101.000000,1,0,-0.000248,0.000062,0,0.000000,-0.014740,0.000000,33.732620,11.412811,0.000000,0.004000,-0.114000,-0.185000,FlatInitial
03:55:48.042 PM 02/14/2016,Teleop Enabled,0,FALSE,0,NO ERROR,-5868.164062,5934.375000,-6000.000000,-6000.000000,Speed,Speed,0.000000,1.220000,1.480000,1.000000,101.000000,1,0,-0.000248,0.000062,0,0.023178,-0.139618,0.000000,33.733292,11.408707,0.000000,-0.071000,-0.049000,-0.037000,FlatInitial
03:55:48.141 PM 02/14/2016,Teleop Enabled,0,FALSE,0,NO ERROR,-6165.234375,6206.835938,-6000.000000,-6000.000000,Speed,Speed,0.000000,1.180000,1.600000,1.000000,101.000000,1,0,-0.000248,0.000062,0,0.031372,-0.190796,0.000000,33.733810,11.398041,0.000000,0.091000,-0.024000,-0.116000,FlatInitial
03:55:48.242 PM 02/14/2016,Teleop Enabled,0,FALSE,0,NO ERROR,-6207.421875,6204.492188,-6000.000000,-6000.000000,Speed,Speed,0.000000,1.170000,1.600000,1.000000,102.000000,1,0,-0.000248,0.000062,0,0.088547,-0.127396,0.000000,33.736633,11.391602,0.000000,0.026000,0.119000,-0.030000,FlatInitial
03:55:48.342 PM 02/14/2016,Teleop Enabled,0,FALSE,0,NO ERROR,-6170.507812,6130.078125,-6000.000000,-6000.000000,Speed,Speed,0.000000,1.210000,1.560000,1.000000,102.000000,1,0,-0.000248,0.000062,0,0.112915,0.000000,0.000000,33.743088,11.387695,0.000000,-0.038000,0.017000,0.038000,FlatInitial
03:55:48.442 PM 02/14/2016,Teleop Enabled,0,FALSE,0,NO ERROR,-6110.742188,6079.101562,-6000.000000,-6000.000000,Speed,Speed,0.000000,1.250000,1.480000,1.000000,101.000000,1,0,-0.000248,0.000062,0,0.076004,0.046997,0.000000,33.747681,11.388779,0.000000,-0.052000,0.078000,0.069000,FlatInitial
03:55:48.541 PM 02/14/2016,Teleop Enabled,0,FALSE,0,NO ERROR,-6063.867188,6036.328125,-6000.000000,-6000.000000,Speed,Speed,0.000000,1.230000,1.640000,1.000000,101.000000,1,0,-0.000248,0.000062,0,0.019028,0.126404,0.000000,33.749985,11.393585,0.000000,-0.070000,0.060000,0.108000,FlatInitial
03:55:48.641 PM 02/14/2016,Teleop Enabled,0,FALSE,0,NO ERROR,-6033.398438,6016.992188,-6000.000000,-6000.000000,Speed,Speed,0.000000,1.190000,1.890000,1.000000,103.000000,1,0,-0.000248,0.000062,0,-0.035004,0.190659,0.000000,33.749237,11.401855,0.000000,-0.042000,0.038000,0.092000,FlatInitial
03:55:48.742 PM 02/14/2016,Teleop Enabled,0,FALSE,0,NO ERROR,-6019.921875,6004.687500,-6000.000000,-6000.000000,Speed,Speed,0.000000,1.160000,2.150000,1.000000,101.000000,1,0,-0.000248,0.000062,0,-0.088928,0.257080,0.000000,33.745804,11.413391,0.000000,-0.058000,0.056000,0.128000,FlatInitial
03:55:48.842 PM 02/14/2016,Teleop Enabled,0,FALSE,0,NO ERROR,-6012.890625,6003.515625,-6000.000000,-6000.000000,Speed,Speed,0.000000,1.130000,2.340000,1.000000,103.000000,1,0,-0.000248,0.000062,0,-0.117432,0.300049,0.000000,33.741547,11.424698,0.000000,-0.015000,0.028000,0.132000,FlatInitial
03:55:48.942 PM 02/14/2016,Teleop Enabled,0,FALSE,0,NO ERROR,-6007.617188,6000.000000,-6000.000000,-6000.000000,Speed,Speed,0.000000,1.110000,2.400000,1.000000,100.000000,1,0,-0.000248,0.000062,0,-0.144104,0.328506,0.000000,33.734879,11.440735,0.000000,-0.033000,0.060000,0.127000,FlatInitial
03:55:49.042 PM 02/14/2016,Teleop Enabled,0,FALSE,0,NO ERROR,-6004.101562,5995.898438,-6000.000000,-6000.000000,Speed,Speed,0.000000,1.110000,2.430000,1.000000,101.000000,1,0,-0.000248,0.000062,0,-0.189240,0.000000,0.000000,33.724625,11.458115,0.000000,-0.033000,0.060000,0.127000,FlatInitial
03:55:49.143 PM 02/14/2016,Teleop Enabled,0,FALSE,0,NO ERROR,-6003.515625,5988.281250,-6000.000000,-6000.000000,Speed,Speed,0.000000,1.110000,2.380000,1.000000,102.000000,1,0,-0.000248,0.000062,0,-0.211487,-0.004013,0.000000,33.714508,11.458038,0.000000,-0.036000,0.018000,0.151000,FlatInitial
03:55:49.243 PM 02/14/2016,Teleop Enabled,0,FALSE,0,NO ERROR,-6000.000000,5988.281250,-6000.000000,-6000.000000,Speed,Speed,0.000000,1.120000,2.390000,1.000000,100.000000,1,0,-0.000248,0.000062,0,-0.231018,0.000000,0.000000,33.703262,11.458389,0.000000,-0.032000,0.035000,0.120000,FlatInitial
03:55:49.343 PM 02/14/2016,Teleop Enabled,0,FALSE,0,NO ERROR,-6000.585938,5988.281250,-6000.000000,-6000.000000,Speed,Speed,0.000000,1.140000,2.340000,1.000000,103.000000,1,0,-0.000248,0.000062,0,-0.253448,0.000000,0.000000,33.691071,11.458389,0.000000,-0.009000,0.011000,0.111000,FlatInitial
03:55:49.443 PM 02/14/2016,Teleop Enabled,0,FALSE,0,NO ERROR,-5999.414062,5997.070312,-6000.000000,-6000.000000,Speed,Speed,-0.010000,1.170000,2.260000,1.000000,101.000000,1,0,-0.000248,0.000062,0,-0.253448,0.000000,0.000000,33.691071,11.458389,0.000000,-0.009000,0.011000,0.111000,FlatInitial
03:55:49.543 PM 02/14/2016,Teleop Enabled,0,FALSE,0,NO ERROR,-6000.000000,6002.343750,-6000.000000,-6000.000000,Speed,Speed,-0.010000,1.170000,2.260000,1.000000,101.000000,1,0,-0.000248,0.000062,0,-0.019867,0.012970,0.000000,33.682434,11.458679,0.000000,-0.011000,0.002000,0.150000,FlatInitial
