Time,RobotMode,AutoToRun,ErrorStatus, ErrorCode,ErrorSource,ActualRPM1,ActualRPM2,DesiredRPM1,DesiredRPM2,ControlMode1,ControlMode2,NavXYaw,NavXRoll,NavXPitch,ShooterState,LoopTime,IsLevel,IsAutoTargeting,LeftMotorOutput,RightMotorOutput,IsHaloDrive,NavXVelocityX,NavXVelocityY,NavXVelocityZ,NavXDisplacementX,NavXDisplacementY,NavXDisplacementZ,NavXAccelerationX,NavXAccelerationY,NavXAccelerationZ,AutoDefendState
08:21:40.763 PM 02/15/2016,Autonomous Disabled,0,TRUE,91,Variant To Data in WPI_DigitalInputRefNum Registry Get.vi->Periodic Tasks.vi->Robot Main.vi,9793.359375,-8998.242188,9000.000000,9000.000000,Speed,Speed,12.730000,1.080000,1.650000,4.000000,105.000000,1,0,-0.000000,0.000000,1,0.749405,0.034500,0.000000,3.021500,25.696060,0.000000,-0.025000,0.017000,0.130000,FlatInitial
08:21:40.863 PM 02/15/2016,Teleop Disabled,0,TRUE,-44007,<LOCATION>WPI_DigitalInputRefNum Registry Get.vi<CALLSTACK>WPI_DigitalInputRefNum Registry Get.vi< <Periodic Tasks.vi< <Robot Main.vi,0.000000,0.000000,0.000000,0.000000,Speed,Speed,0.000000,1.100000,1.640000,0.000000,5411146.000000,1,0,-0.000000,0.000000,1,0.000000,0.000000,0.000000,3.615952,26.208679,0.000000,0.003000,0.005000,0.004000,FlatInitial
08:21:40.964 PM 02/15/2016,Teleop Disabled,0,FALSE,0,NO ERROR,0.000000,0.000000,0.000000,0.000000,Speed,Speed,0.000000,1.100000,1.650000,0.000000,101.000000,1,0,-0.000000,0.000000,1,0.000000,0.000000,0.000000,3.615952,26.208679,0.000000,0.000000,0.008000,0.002000,FlatInitial
08:21:41.064 PM 02/15/2016,Teleop Disabled,0,FALSE,0,NO ERROR,0.000000,0.000000,0.000000,0.000000,Speed,Speed,0.000000,1.090000,1.680000,0.000000,101.000000,1,0,-0.000000,0.000000,1,0.000000,0.000000,0.000000,3.615952,26.208679,0.000000,0.004000,-0.001000,0.009000,FlatInitial
08:21:41.164 PM 02/15/2016,Teleop Disabled,0,FALSE,0,NO ERROR,0.000000,0.000000,0.000000,0.000000,Speed,Speed,0.000000,1.110000,1.640000,0.000000,101.000000,1,0,-0.000000,0.000000,1,0.000000,0.000000,0.000000,3.615952,26.208679,0.000000,0.000000,0.004000,0.003000,FlatInitial
08:21:41.264 PM 02/15/2016,Teleop Disabled,0,FALSE,0,NO ERROR,0.000000,0.000000,0.000000,0.000000,Speed,Speed,0.010000,1.100000,1.630000,0.000000,102.000000,1,0,-0.000000,0.000000,1,0.000000,0.000000,0.000000,3.615952,26.208679,0.000000,0.003000,-0.003000,-0.002000,FlatInitial
08:21:41.364 PM 02/15/2016,Teleop Disabled,0,FALSE,0,NO ERROR,0.000000,0.000000,0.000000,0.000000,Speed,Speed,0.000000,1.120000,1.620000,0.000000,101.000000,1,0,-0.000000,0.000000,1,0.000000,0.000000,0.000000,3.615952,26.208679,0.000000,-0.009000,0.006000,0.010000,FlatInitial
08:21:41.464 PM 02/15/2016,Teleop Disabled,0,FALSE,0,NO ERROR,0.000000,0.000000,0.000000,0.000000,Speed,Speed,0.010000,1.100000,1.620000,0.000000,103.000000,1,0,-0.000000,0.000000,1,0.000000,0.000000,0.000000,3.615952,26.208679,0.000000,0.008000,0.004000,-0.001000,FlatInitial
08:21:41.564 PM 02/15/2016,Teleop Disabled,0,FALSE,0,NO ERROR,0.000000,0.000000,0.000000,0.000000,Speed,Speed,0.010000,1.110000,1.620000,0.000000,101.000000,1,0,-0.000000,0.000000,1,0.000000,0.000000,0.000000,3.615952,26.208679,0.000000,-0.002000,-0.002000,-0.004000,FlatInitial
08:21:41.666 PM 02/15/2016,Teleop Disabled,0,FALSE,0,NO ERROR,0.000000,0.000000,0.000000,0.000000,Speed,Speed,0.010000,1.110000,1.610000,0.000000,105.000000,1,0,-0.000000,0.000000,1,0.000000,0.000000,0.000000,3.615952,26.208679,0.000000,0.000000,0.003000,-0.004000,FlatInitial
08:21:41.766 PM 02/15/2016,Teleop Disabled,0,FALSE,0,NO ERROR,0.000000,0.000000,0.000000,0.000000,Speed,Speed,0.010000,1.120000,1.630000,0.000000,101.000000,1,0,-0.000000,0.000000,1,0.000000,0.000000,0.000000,3.615952,26.208679,0.000000,0.000000,-0.004000,0.009000,FlatInitial
08:21:41.866 PM 02/15/2016,Teleop Disabled,0,FALSE,0,NO ERROR,0.000000,0.000000,0.000000,0.000000,Speed,Speed,0.010000,1.120000,1.620000,0.000000,102.000000,1,0,-0.000000,0.000000,1,0.000000,0.000000,0.000000,3.615952,26.208679,0.000000,0.002000,0.000000,0.005000,FlatInitial
08:21:41.967 PM 02/15/2016,Teleop Disabled,0,FALSE,0,NO ERROR,0.000000,0.000000,0.000000,0.000000,Speed,Speed,0.000000,1.120000,1.620000,0.000000,102.000000,1,0,-0.000000,0.000000,1,0.000000,0.000000,0.000000,3.615952,26.208679,0.000000,0.002000,0.001000,-0.004000,FlatInitial
08:21:42.068 PM 02/15/2016,Teleop Disabled,0,FALSE,0,NO ERROR,0.000000,0.000000,0.000000,0.000000,Speed,Speed,0.000000,1.130000,1.630000,0.000000,101.000000,1,0,-0.000000,0.000000,1,0.000000,0.000000,0.000000,3.615952,26.208679,0.000000,0.000000,0.000000,0.007000,FlatInitial
08:21:42.168 PM 02/15/2016,Teleop Disabled,0,FALSE,0,NO ERROR,0.000000,0.000000,0.000000,0.000000,Speed,Speed,0.010000,1.120000,1.640000,0.000000,101.000000,1,0,-0.000000,0.000000,1,0.000000,0.000000,0.000000,3.615952,26.208679,0.000000,0.001000,-0.004000,0.004000,FlatInitial
08:21:42.268 PM 02/15/2016,Teleop Disabled,0,FALSE,0,NO ERROR,0.000000,0.000000,0.000000,0.000000,Speed,Speed,0.000000,1.120000,1.650000,0.000000,101.000000,1,0,-0.000000,0.000000,1,0.000000,0.000000,0.000000,3.615952,26.208679,0.000000,0.002000,0.002000,-0.001000,FlatInitial
08:21:42.369 PM 02/15/2016,Teleop Disabled,0,FALSE,0,NO ERROR,0.000000,0.000000,0.000000,0.000000,Speed,Speed,0.000000,1.120000,1.640000,0.000000,102.000000,1,0,-0.000000,0.000000,1,0.000000,0.000000,0.000000,3.615952,26.208679,0.000000,0.000000,0.000000,0.003000,FlatInitial
08:21:42.469 PM 02/15/2016,Teleop Disabled,0,FALSE,0,NO ERROR,0.000000,0.000000,0.000000,0.000000,Speed,Speed,0.000000,1.130000,1.620000,0.000000,103.000000,1,0,-0.000000,0.000000,1,0.000000,0.000000,0.000000,3.615952,26.208679,0.000000,0.000000,-0.002000,0.004000,FlatInitial
08:21:42.570 PM 02/15/2016,Teleop Disabled,0,FALSE,0,NO ERROR,0.000000,0.000000,0.000000,0.000000,Speed,Speed,0.020000,1.120000,1.630000,0.000000,103.000000,1,0,-0.000000,0.000000,1,0.000000,0.000000,0.000000,3.615952,26.208679,0.000000,0.004000,-0.002000,-0.002000,FlatInitial
08:21:42.671 PM 02/15/2016,Teleop Disabled,0,FALSE,0,NO ERROR,0.000000,0.000000,0.000000,0.000000,Speed,Speed,0.000000,1.120000,1.620000,0.000000,101.000000,1,0,-0.000000,0.000000,1,0.000000,0.000000,0.000000,3.615952,26.208679,0.000000,-0.002000,0.002000,0.005000,FlatInitial
08:21:42.771 PM 02/15/2016,Teleop Disabled,0,FALSE,0,NO ERROR,0.000000,0.000000,0.000000,0.000000,Speed,Speed,0.000000,1.130000,1.610000,0.000000,101.000000,1,0,-0.000000,0.000000,1,0.000000,0.000000,0.000000,3.615952,26.208679,0.000000,0.000000,0.002000,-0.001000,FlatInitial
08:21:42.871 PM 02/15/2016,Teleop Disabled,0,FALSE,0,NO ERROR,0.000000,0.000000,0.000000,0.000000,Speed,Speed,0.000000,1.120000,1.620000,0.000000,101.000000,1,0,-0.000000,0.000000,1,0.000000,0.000000,0.000000,3.615952,26.208679,0.000000,0.001000,-0.002000,0.007000,FlatInitial
08:21:42.972 PM 02/15/2016,Teleop Disabled,0,FALSE,0,NO ERROR,0.000000,0.000000,0.000000,0.000000,Speed,Speed,0.010000,1.140000,1.590000,0.000000,107.000000,1,0,-0.000000,0.000000,1,0.000000,0.000000,0.000000,3.615952,26.208679,0.000000,-0.001000,-0.003000,0.010000,FlatInitial
08:21:43.072 PM 02/15/2016,Teleop Disabled,0,FALSE,0,NO ERROR,0.000000,0.000000,0.000000,0.000000,Speed,Speed,0.000000,1.140000,1.530000,0.000000,101.000000,1,0,-0.000000,0.000000,1,0.000000,0.000000,0.000000,3.615952,26.208679,0.000000,-0.003000,-0.005000,0.000000,FlatInitial
08:21:43.172 PM 02/15/2016,Teleop Disabled,0,FALSE,0,NO ERROR,0.000000,0.000000,0.000000,0.000000,Speed,Speed,-0.030000,1.150000,1.570000,0.000000,102.000000,1,0,-0.000000,0.000000,1,0.000000,0.000000,0.000000,3.615952,26.208679,0.000000,0.001000,-0.004000,-0.005000,FlatInitial
08:21:43.272 PM 02/15/2016,Teleop Disabled,0,FALSE,0,NO ERROR,0.000000,0.000000,0.000000,0.000000,Speed,Speed,-0.060000,1.130000,1.600000,0.000000,102.000000,1,0,-0.000000,0.000000,1,0.000000,0.000000,0.000000,3.615952,26.208679,0.000000,0.003000,0.002000,0.002000,FlatInitial
08:21:43.372 PM 02/15/2016,Teleop Disabled,0,FALSE,0,NO ERROR,0.000000,0.000000,0.000000,0.000000,Speed,Speed,-0.060000,1.120000,1.630000,0.000000,104.000000,1,0,-0.000000,0.000000,1,0.000000,0.000000,0.000000,3.615952,26.208679,0.000000,0.000000,0.000000,0.000000,FlatInitial
08:21:43.473 PM 02/15/2016,Teleop Disabled,0,FALSE,0,NO ERROR,0.000000,0.000000,0.000000,0.000000,Speed,Speed,-0.030000,1.100000,1.690000,0.000000,104.000000,1,0,-0.000000,0.000000,1,0.000000,0.000000,0.000000,3.615952,26.208679,0.000000,0.000000,0.002000,0.002000,FlatInitial
08:21:43.574 PM 02/15/2016,Teleop Disabled,0,FALSE,0,NO ERROR,0.000000,0.000000,0.000000,0.000000,Speed,Speed,-0.040000,1.120000,1.670000,0.000000,101.000000,1,0,-0.000000,0.000000,1,0.000000,0.000000,0.000000,3.615952,26.208679,0.000000,-0.005000,0.002000,0.002000,FlatInitial
08:21:43.674 PM 02/15/2016,Teleop Disabled,0,FALSE,0,NO ERROR,0.000000,0.000000,0.000000,0.000000,Speed,Speed,-0.040000,1.130000,1.640000,0.000000,101.000000,1,0,-0.000000,0.000000,1,0.000000,0.000000,0.000000,3.615952,26.208679,0.000000,0.002000,0.000000,0.004000,FlatInitial
08:21:43.774 PM 02/15/2016,Teleop Disabled,0,FALSE,0,NO ERROR,0.000000,0.000000,0.000000,0.000000,Speed,Speed,-0.040000,1.120000,1.650000,0.000000,101.000000,1,0,-0.000000,0.000000,1,0.000000,0.000000,0.000000,3.615952,26.208679,0.000000,-0.008000,0.000000,0.008000,FlatInitial
08:21:43.874 PM 02/15/2016,Teleop Disabled,0,FALSE,0,NO ERROR,0.000000,0.000000,0.000000,0.000000,Speed,Speed,-0.020000,1.140000,1.610000,0.000000,101.000000,1,0,-0.000000,0.000000,1,0.000000,0.000000,0.000000,3.615952,26.208679,0.000000,-0.001000,0.005000,0.007000,FlatInitial
08:21:43.974 PM 02/15/2016,Teleop Disabled,0,FALSE,0,NO ERROR,0.000000,0.000000,0.000000,0.000000,Speed,Speed,-0.020000,1.150000,1.590000,0.000000,101.000000,1,0,-0.000000,0.000000,1,0.000000,0.000000,0.000000,3.615952,26.208679,0.000000,0.000000,-0.007000,0.003000,FlatInitial
08:21:44.075 PM 02/15/2016,Teleop Disabled,0,FALSE,0,NO ERROR,0.000000,0.000000,-6000.000000,-6000.000000,Speed,Speed,-0.010000,1.140000,1.610000,1.000000,101.000000,1,0,-0.000000,0.000000,1,0.000000,0.000000,0.000000,3.615952,26.208679,0.000000,0.000000,-0.006000,0.002000,FlatInitial
08:21:44.175 PM 02/15/2016,Teleop Disabled,0,FALSE,0,NO ERROR,0.000000,0.000000,-6000.000000,-6000.000000,Speed,Speed,-0.010000,1.130000,1.590000,1.000000,101.000000,1,0,-0.000000,0.000000,1,0.000000,0.000000,0.000000,3.615952,26.208679,0.000000,-0.001000,0.005000,0.007000,FlatInitial
08:21:44.275 PM 02/15/2016,Teleop Disabled,0,FALSE,0,NO ERROR,0.000000,0.000000,-6000.000000,-6000.000000,Speed,Speed,0.000000,1.130000,1.630000,1.000000,101.000000,1,0,-0.000000,0.000000,1,0.000000,0.000000,0.000000,3.615952,26.208679,0.000000,0.001000,0.001000,0.003000,FlatInitial
08:21:44.375 PM 02/15/2016,Teleop Disabled,0,FALSE,0,NO ERROR,0.000000,0.000000,-6000.000000,-6000.000000,Speed,Speed,0.000000,1.140000,1.610000,1.000000,102.000000,1,0,-0.000000,0.000000,1,0.000000,0.000000,0.000000,3.615952,26.208679,0.000000,-0.001000,0.001000,-0.002000,FlatInitial
08:21:44.475 PM 02/15/2016,Teleop Disabled,0,FALSE,0,NO ERROR,0.000000,0.000000,-6000.000000,-6000.000000,Speed,Speed,-0.010000,1.140000,1.610000,1.000000,101.000000,1,0,-0.000000,0.000000,1,0.000000,0.000000,0.000000,3.615952,26.208679,0.000000,0.001000,0.002000,0.009000,FlatInitial
08:21:44.575 PM 02/15/2016,Teleop Disabled,0,FALSE,0,NO ERROR,0.000000,0.000000,-6000.000000,-6000.000000,Speed,Speed,0.000000,1.120000,1.640000,1.000000,101.000000,1,0,-0.000000,0.000000,1,0.000000,0.000000,0.000000,3.615952,26.208679,0.000000,0.002000,-0.007000,0.007000,FlatInitial
08:21:44.675 PM 02/15/2016,Teleop Disabled,0,FALSE,0,NO ERROR,0.000000,0.000000,-6000.000000,-6000.000000,Speed,Speed,0.000000,1.120000,1.660000,1.000000,102.000000,1,0,-0.000000,0.000000,1,0.000000,0.000000,0.000000,3.615952,26.208679,0.000000,-0.002000,-0.004000,0.001000,FlatInitial
08:21:44.775 PM 02/15/2016,Teleop Disabled,0,FALSE,0,NO ERROR,0.000000,0.000000,-6000.000000,-6000.000000,Speed,Speed,0.020000,1.120000,1.650000,1.000000,102.000000,1,0,-0.000000,0.000000,1,0.000000,0.000000,0.000000,3.615952,26.208679,0.000000,0.002000,-0.001000,0.008000,FlatInitial
08:21:44.875 PM 02/15/2016,Teleop Disabled,0,FALSE,0,NO ERROR,0.000000,0.000000,-6000.000000,-6000.000000,Speed,Speed,0.040000,1.120000,1.650000,1.000000,104.000000,1,0,-0.000000,0.000000,1,0.000000,0.000000,0.000000,3.615952,26.208679,0.000000,0.000000,-0.001000,0.002000,FlatInitial
08:21:44.975 PM 02/15/2016,Teleop Disabled,0,FALSE,0,NO ERROR,0.000000,0.000000,-6000.000000,-6000.000000,Speed,Speed,0.060000,1.110000,1.660000,1.000000,101.000000,1,0,-0.000000,0.000000,1,0.000000,0.000000,0.000000,3.615952,26.208679,0.000000,-0.006000,0.003000,0.001000,FlatInitial
08:21:45.075 PM 02/15/2016,Teleop Disabled,0,FALSE,0,NO ERROR,0.000000,0.000000,-6000.000000,-6000.000000,Speed,Speed,0.190000,1.100000,1.660000,1.000000,101.000000,1,0,-0.000000,0.000000,1,0.000000,0.000000,0.000000,3.615952,26.208679,0.000000,0.004000,-0.001000,0.002000,FlatInitial
08:21:45.175 PM 02/15/2016,Teleop Disabled,0,FALSE,0,NO ERROR,0.000000,0.000000,-6000.000000,-6000.000000,Speed,Speed,0.270000,1.090000,1.750000,1.000000,101.000000,1,0,-0.000000,0.000000,1,0.000000,0.000000,0.000000,3.615952,26.208679,0.000000,-0.002000,0.001000,0.004000,FlatInitial
08:21:45.276 PM 02/15/2016,Teleop Disabled,0,FALSE,0,NO ERROR,0.000000,0.000000,-6000.000000,-6000.000000,Speed,Speed,0.270000,1.100000,1.740000,1.000000,103.000000,1,0,-0.000000,0.000000,1,0.000000,0.000000,0.000000,3.615952,26.208679,0.000000,-0.002000,-0.006000,0.003000,FlatInitial
08:21:45.376 PM 02/15/2016,Teleop Disabled,0,FALSE,0,NO ERROR,0.000000,0.000000,-6000.000000,-6000.000000,Speed,Speed,0.190000,1.110000,1.700000,1.000000,101.000000,1,0,-0.000000,0.000000,1,0.000000,0.000000,0.000000,3.615952,26.208679,0.000000,0.002000,0.001000,0.002000,FlatInitial
08:21:45.476 PM 02/15/2016,Teleop Disabled,0,FALSE,0,NO ERROR,0.000000,0.000000,-6000.000000,-6000.000000,Speed,Speed,0.140000,1.090000,1.730000,1.000000,101.000000,1,0,-0.000000,0.000000,1,0.000000,0.000000,0.000000,3.615952,26.208679,0.000000,-0.001000,0.006000,0.004000,FlatInitial
08:21:45.576 PM 02/15/2016,Teleop Disabled,0,FALSE,0,NO ERROR,0.000000,0.000000,-6000.000000,-6000.000000,Speed,Speed,0.190000,1.100000,1.760000,1.000000,102.000000,1,0,-0.000000,0.000000,1,0.000000,0.000000,0.000000,3.615952,26.208679,0.000000,0.004000,0.000000,-0.005000,FlatInitial
08:21:45.676 PM 02/15/2016,Teleop Disabled,0,FALSE,0,NO ERROR,0.000000,0.000000,-6000.000000,-6000.000000,Speed,Speed,0.180000,1.100000,1.770000,1.000000,101.000000,1,0,-0.000000,0.000000,1,0.000000,0.000000,0.000000,3.615952,26.208679,0.000000,-0.001000,0.009000,0.006000,FlatInitial
08:21:45.776 PM 02/15/2016,Teleop Disabled,0,FALSE,0,NO ERROR,0.000000,0.000000,-6000.000000,-6000.000000,Speed,Speed,0.210000,1.080000,1.820000,1.000000,101.000000,1,0,-0.000000,0.000000,1,0.000000,0.000000,0.000000,3.615952,26.208679,0.000000,-0.007000,0.000000,-0.001000,FlatInitial
08:21:45.877 PM 02/15/2016,Teleop Disabled,0,FALSE,0,NO ERROR,0.000000,0.000000,-6000.000000,-6000.000000,Speed,Speed,0.290000,1.060000,1.810000,1.000000,101.000000,1,0,-0.000000,0.000000,1,0.000000,0.000000,0.000000,3.615952,26.208679,0.000000,0.006000,-0.010000,0.008000,FlatInitial
08:21:45.977 PM 02/15/2016,Teleop Disabled,0,FALSE,0,NO ERROR,0.000000,0.000000,-6000.000000,-6000.000000,Speed,Speed,0.430000,1.030000,1.690000,1.000000,102.000000,1,0,-0.000000,0.000000,1,0.000000,-0.009964,0.000000,3.615952,26.208466,0.000000,-0.016000,-0.009000,0.000000,FlatInitial
08:21:46.077 PM 02/15/2016,Teleop Disabled,0,FALSE,0,NO ERROR,0.000000,0.000000,-6000.000000,-6000.000000,Speed,Speed,0.510000,1.050000,1.680000,1.000000,101.000000,1,0,-0.000000,0.000000,1,0.000000,0.000000,0.000000,3.615952,26.208466,0.000000,0.002000,0.002000,0.008000,FlatInitial
08:21:46.178 PM 02/15/2016,Teleop Disabled,0,FALSE,0,NO ERROR,0.000000,0.000000,-6000.000000,-6000.000000,Speed,Speed,0.570000,1.030000,1.670000,1.000000,102.000000,1,0,-0.000000,0.000000,1,0.000000,0.000000,0.000000,3.615952,26.208466,0.000000,-0.011000,0.005000,0.010000,FlatInitial
08:21:46.278 PM 02/15/2016,Teleop Disabled,0,FALSE,0,NO ERROR,0.000000,0.000000,-6000.000000,-6000.000000,Speed,Speed,0.680000,1.050000,1.700000,1.000000,102.000000,1,0,-0.000000,0.000000,1,0.000000,0.000000,0.000000,3.615952,26.208466,0.000000,0.006000,-0.016000,0.005000,FlatInitial
08:21:46.378 PM 02/15/2016,Teleop Disabled,0,FALSE,0,NO ERROR,0.000000,0.000000,-6000.000000,-6000.000000,Speed,Speed,0.730000,1.030000,1.670000,1.000000,104.000000,1,0,-0.000000,0.000000,1,0.000000,0.000000,0.000000,3.615952,26.208466,0.000000,0.004000,0.002000,0.001000,FlatInitial
08:21:46.478 PM 02/15/2016,Teleop Disabled,0,FALSE,0,NO ERROR,0.000000,0.000000,-6000.000000,-6000.000000,Speed,Speed,0.680000,1.060000,1.650000,1.000000,101.000000,1,0,-0.000000,0.000000,1,0.000000,0.000000,0.000000,3.615952,26.208466,0.000000,0.002000,0.000000,0.004000,FlatInitial
08:21:46.578 PM 02/15/2016,Teleop Disabled,0,FALSE,0,NO ERROR,0.000000,0.000000,-6000.000000,-6000.000000,Speed,Speed,0.670000,1.040000,1.660000,1.000000,101.000000,1,0,-0.000000,0.000000,1,0.000000,0.000000,0.000000,3.615952,26.208466,0.000000,-0.002000,-0.007000,0.012000,FlatInitial
08:21:46.678 PM 02/15/2016,Teleop Disabled,0,FALSE,0,NO ERROR,0.000000,0.000000,-6000.000000,-6000.000000,Speed,Speed,0.590000,1.050000,1.690000,1.000000,101.000000,1,0,-0.000000,0.000000,1,0.000000,0.000000,0.000000,3.615952,26.208466,0.000000,0.000000,0.007000,0.000000,FlatInitial
08:21:46.778 PM 02/15/2016,Teleop Disabled,0,FALSE,0,NO ERROR,0.000000,0.000000,-6000.000000,-6000.000000,Speed,Speed,0.570000,1.050000,1.710000,1.000000,101.000000,1,0,-0.000000,0.000000,1,0.000000,0.000000,0.000000,3.615952,26.208466,0.000000,-0.006000,0.004000,0.011000,FlatInitial
08:21:46.878 PM 02/15/2016,Teleop Disabled,0,FALSE,0,NO ERROR,0.000000,0.000000,-6000.000000,-6000.000000,Speed,Speed,0.620000,1.050000,1.690000,1.000000,101.000000,1,0,-0.000000,0.000000,1,0.000000,0.000000,0.000000,3.615952,26.208466,0.000000,0.003000,-0.007000,-0.003000,FlatInitial
08:21:46.979 PM 02/15/2016,Teleop Disabled,0,FALSE,0,NO ERROR,0.000000,0.000000,-6000.000000,-6000.000000,Speed,Speed,0.610000,1.060000,1.650000,1.000000,101.000000,1,0,-0.000000,0.000000,1,0.000000,0.000000,0.000000,3.615952,26.208466,0.000000,0.003000,-0.006000,0.000000,FlatInitial
08:21:47.079 PM 02/15/2016,Teleop Disabled,0,FALSE,0,NO ERROR,0.000000,0.000000,-6000.000000,-6000.000000,Speed,Speed,0.570000,1.050000,1.690000,1.000000,103.000000,1,0,-0.000000,0.000000,1,0.000000,0.000000,0.000000,3.615952,26.208466,0.000000,-0.006000,0.006000,0.003000,FlatInitial
08:21:47.180 PM 02/15/2016,Teleop Disabled,0,FALSE,0,NO ERROR,0.000000,0.000000,-6000.000000,-6000.000000,Speed,Speed,0.540000,1.060000,1.740000,1.000000,101.000000,1,0,-0.000000,0.000000,1,0.000000,0.000000,0.000000,3.615952,26.208466,0.000000,0.000000,-0.003000,0.008000,FlatInitial
08:21:47.282 PM 02/15/2016,Teleop Disabled,0,FALSE,0,NO ERROR,0.000000,0.000000,-6000.000000,-6000.000000,Speed,Speed,0.540000,1.050000,1.720000,1.000000,102.000000,1,0,-0.000000,0.000000,1,0.000000,0.000000,0.000000,3.615952,26.208466,0.000000,-0.002000,0.000000,0.010000,FlatInitial
08:21:47.382 PM 02/15/2016,Teleop Disabled,0,FALSE,0,NO ERROR,0.000000,0.000000,-6000.000000,-6000.000000,Speed,Speed,0.550000,1.060000,1.710000,1.000000,101.000000,1,0,-0.000000,0.000000,1,0.000000,0.000000,0.000000,3.615952,26.208466,0.000000,-0.002000,-0.004000,0.011000,FlatInitial
08:21:47.482 PM 02/15/2016,Teleop Disabled,0,FALSE,0,NO ERROR,0.000000,0.000000,-6000.000000,-6000.000000,Speed,Speed,0.580000,1.060000,1.700000,1.000000,102.000000,1,0,-0.000000,0.000000,1,0.000000,0.000000,0.000000,3.615952,26.208466,0.000000,0.002000,-0.004000,0.002000,FlatInitial
08:21:47.583 PM 02/15/2016,Teleop Disabled,0,FALSE,0,NO ERROR,0.000000,0.000000,-6000.000000,-6000.000000,Speed,Speed,0.570000,1.060000,1.700000,1.000000,101.000000,1,0,-0.000000,0.000000,1,0.000000,0.000000,0.000000,3.615952,26.208466,0.000000,0.001000,-0.001000,0.001000,FlatInitial
08:21:47.683 PM 02/15/2016,Teleop Disabled,0,FALSE,0,NO ERROR,0.000000,0.000000,-6000.000000,-6000.000000,Speed,Speed,0.550000,1.060000,1.720000,1.000000,101.000000,1,0,-0.000000,0.000000,1,0.000000,0.000000,0.000000,3.615952,26.208466,0.000000,-0.002000,0.004000,0.000000,FlatInitial
08:21:47.783 PM 02/15/2016,Teleop Disabled,0,FALSE,0,NO ERROR,0.000000,0.000000,-6000.000000,-6000.000000,Speed,Speed,0.560000,1.060000,1.760000,1.000000,101.000000,1,0,-0.000000,0.000000,1,0.000000,0.000000,0.000000,3.615952,26.208466,0.000000,-0.002000,-0.005000,0.003000,FlatInitial
08:21:47.883 PM 02/15/2016,Teleop Disabled,0,FALSE,0,NO ERROR,0.000000,0.000000,-6000.000000,-6000.000000,Speed,Speed,0.560000,1.070000,1.780000,1.000000,101.000000,1,0,-0.000000,0.000000,1,0.000000,0.000000,0.000000,3.615952,26.208466,0.000000,0.001000,-0.001000,0.007000,FlatInitial
08:21:47.985 PM 02/15/2016,Teleop Disabled,0,FALSE,0,NO ERROR,0.000000,0.000000,-6000.000000,-6000.000000,Speed,Speed,0.560000,1.060000,1.830000,1.000000,101.000000,1,0,-0.000000,0.000000,1,0.000000,0.000000,0.000000,3.615952,26.208466,0.000000,-0.001000,0.000000,-0.004000,FlatInitial
08:21:48.085 PM 02/15/2016,Teleop Disabled,0,FALSE,0,NO ERROR,0.000000,0.000000,-6000.000000,-6000.000000,Speed,Speed,0.540000,1.060000,1.820000,1.000000,101.000000,1,0,-0.000000,0.000000,1,0.000000,0.000000,0.000000,3.615952,26.208466,0.000000,-0.001000,0.005000,0.005000,FlatInitial
08:21:48.185 PM 02/15/2016,Teleop Disabled,0,FALSE,0,NO ERROR,0.000000,0.000000,-6000.000000,-6000.000000,Speed,Speed,0.580000,1.060000,1.820000,1.000000,101.000000,1,0,-0.000000,0.000000,1,0.000000,0.000000,0.000000,3.615952,26.208466,0.000000,-0.004000,0.002000,0.004000,FlatInitial
08:21:48.285 PM 02/15/2016,Teleop Disabled,0,FALSE,0,NO ERROR,0.000000,0.000000,-6000.000000,-6000.000000,Speed,Speed,0.640000,1.040000,1.800000,1.000000,101.000000,1,0,-0.000000,0.000000,1,0.000000,0.000000,0.000000,3.615952,26.208466,0.000000,0.005000,-0.011000,-0.001000,FlatInitial
08:21:48.385 PM 02/15/2016,Teleop Disabled,0,FALSE,0,NO ERROR,0.000000,0.000000,-6000.000000,-6000.000000,Speed,Speed,0.590000,1.080000,1.630000,1.000000,101.000000,1,0,-0.000000,0.000000,1,0.000000,0.000000,0.000000,3.615952,26.208466,0.000000,-0.003000,0.002000,0.011000,FlatInitial
08:21:48.485 PM 02/15/2016,Teleop Disabled,0,FALSE,0,NO ERROR,0.000000,0.000000,-6000.000000,-6000.000000,Speed,Speed,0.590000,1.070000,1.700000,1.000000,101.000000,1,0,-0.000000,0.000000,1,0.000000,0.000000,0.000000,3.615952,26.208466,0.000000,0.010000,-0.004000,-0.016000,FlatInitial
08:21:48.586 PM 02/15/2016,Teleop Disabled,0,FALSE,0,NO ERROR,0.000000,0.000000,-6000.000000,-6000.000000,Speed,Speed,0.620000,1.060000,1.700000,1.000000,101.000000,1,0,-0.000000,0.000000,1,0.000000,0.000000,0.000000,3.615952,26.208466,0.000000,0.007000,0.006000,0.000000,FlatInitial
08:21:48.686 PM 02/15/2016,Teleop Disabled,0,FALSE,0,NO ERROR,0.000000,0.000000,-6000.000000,-6000.000000,Speed,Speed,0.580000,1.090000,1.580000,1.000000,102.000000,1,0,-0.000000,0.000000,1,-0.004807,-0.006180,0.000000,3.615875,26.208389,0.000000,0.012000,-0.013000,-0.060000,FlatInitial
08:21:48.786 PM 02/15/2016,Teleop Disabled,0,FALSE,0,NO ERROR,0.000000,0.000000,-6000.000000,-6000.000000,Speed,Speed,0.410000,1.080000,1.610000,1.000000,101.000000,1,0,-0.000000,0.000000,1,-0.002899,0.008545,0.000000,3.615616,26.208481,0.000000,-0.019000,0.009000,-0.030000,FlatInitial
08:21:48.886 PM 02/15/2016,Teleop Disabled,0,FALSE,0,NO ERROR,0.000000,0.000000,-6000.000000,-6000.000000,Speed,Speed,0.480000,1.060000,1.650000,1.000000,101.000000,1,0,-0.000000,0.000000,1,0.000000,0.007935,0.000000,3.615463,26.208603,0.000000,0.000000,0.016000,0.021000,FlatInitial
08:21:48.986 PM 02/15/2016,Teleop Disabled,0,FALSE,0,NO ERROR,0.000000,0.000000,-6000.000000,-6000.000000,Speed,Speed,0.700000,1.030000,1.680000,1.000000,101.000000,1,0,-0.000000,0.000000,1,0.008347,0.000000,0.000000,3.615570,26.208725,0.000000,0.026000,-0.005000,0.016000,FlatInitial
08:21:49.086 PM 02/15/2016,Teleop Disabled,0,FALSE,0,NO ERROR,0.000000,0.000000,-6000.000000,-6000.000000,Speed,Speed,0.880000,1.060000,1.630000,1.000000,104.000000,1,0,-0.000000,0.000000,1,0.000000,0.000000,0.000000,3.615692,26.208725,0.000000,0.000000,-0.001000,-0.014000,FlatInitial
08:21:49.186 PM 02/15/2016,Teleop Disabled,0,FALSE,0,NO ERROR,0.000000,0.000000,-6000.000000,-6000.000000,Speed,Speed,0.930000,1.090000,1.610000,1.000000,101.000000,1,0,-0.000000,0.000000,1,0.000000,0.000000,0.000000,3.615692,26.208725,0.000000,-0.001000,-0.004000,-0.007000,FlatInitial
08:21:49.286 PM 02/15/2016,Teleop Disabled,0,FALSE,0,NO ERROR,0.000000,0.000000,-6000.000000,-6000.000000,Speed,Speed,1.070000,1.070000,1.600000,1.000000,102.000000,1,0,-0.000000,0.000000,1,0.000000,0.000000,0.000000,3.615692,26.208725,0.000000,0.004000,-0.001000,0.001000,FlatInitial
08:21:49.387 PM 02/15/2016,Teleop Disabled,0,FALSE,0,NO ERROR,0.000000,0.000000,-6000.000000,-6000.000000,Speed,Speed,1.190000,1.080000,1.600000,1.000000,101.000000,1,0,-0.000000,0.000000,1,0.000000,0.000000,0.000000,3.615692,26.208725,0.000000,0.002000,0.004000,0.005000,FlatInitial
08:21:49.487 PM 02/15/2016,Teleop Disabled,0,FALSE,0,NO ERROR,0.000000,0.000000,-6000.000000,-6000.000000,Speed,Speed,1.220000,1.090000,1.630000,1.000000,101.000000,1,0,-0.000000,0.000000,1,0.000000,0.000000,0.000000,3.615692,26.208725,0.000000,-0.001000,0.000000,0.001000,FlatInitial
08:21:49.587 PM 02/15/2016,Teleop Disabled,0,FALSE,0,NO ERROR,0.000000,0.000000,-6000.000000,-6000.000000,Speed,Speed,1.170000,1.100000,1.630000,1.000000,103.000000,1,0,-0.000000,0.000000,1,0.000000,0.000000,0.000000,3.615692,26.208725,0.000000,0.006000,0.001000,0.007000,FlatInitial
08:21:49.687 PM 02/15/2016,Teleop Disabled,0,FALSE,0,NO ERROR,0.000000,0.000000,-6000.000000,-6000.000000,Speed,Speed,1.120000,1.100000,1.610000,1.000000,101.000000,1,0,-0.000000,0.000000,1,0.000000,0.000000,0.000000,3.615692,26.208725,0.000000,0.000000,-0.003000,0.005000,FlatInitial
08:21:49.787 PM 02/15/2016,Teleop Disabled,0,FALSE,0,NO ERROR,0.000000,0.000000,-6000.000000,-6000.000000,Speed,Speed,1.070000,1.110000,1.580000,1.000000,102.000000,1,0,-0.000000,0.000000,1,0.000000,0.000000,0.000000,3.615692,26.208725,0.000000,0.000000,0.001000,0.001000,FlatInitial
08:21:49.887 PM 02/15/2016,Teleop Disabled,0,FALSE,0,NO ERROR,0.000000,0.000000,-6000.000000,-6000.000000,Speed,Speed,0.970000,1.100000,1.620000,1.000000,102.000000,1,0,-0.000000,0.000000,1,0.000000,0.000000,0.000000,3.615692,26.208725,0.000000,0.000000,-0.001000,0.000000,FlatInitial
08:21:49.987 PM 02/15/2016,Teleop Disabled,0,FALSE,0,NO ERROR,0.000000,0.000000,-6000.000000,-6000.000000,Speed,Speed,0.910000,1.090000,1.610000,1.000000,101.000000,1,0,-0.000000,0.000000,1,0.000000,0.000000,0.000000,3.615692,26.208725,0.000000,-0.001000,0.004000,0.004000,FlatInitial
08:21:50.087 PM 02/15/2016,Teleop Disabled,0,FALSE,0,NO ERROR,0.000000,0.000000,-6000.000000,-6000.000000,Speed,Speed,0.910000,1.090000,1.600000,1.000000,101.000000,1,0,-0.000000,0.000000,1,0.000000,0.000000,0.000000,3.615692,26.208725,0.000000,0.000000,-0.006000,0.001000,FlatInitial
08:21:50.187 PM 02/15/2016,Teleop Disabled,0,FALSE,0,NO ERROR,0.000000,0.000000,-6000.000000,-6000.000000,Speed,Speed,0.890000,1.080000,1.590000,1.000000,103.000000,1,0,-0.000000,0.000000,1,0.000000,0.000000,0.000000,3.615692,26.208725,0.000000,-0.003000,0.005000,-0.001000,FlatInitial
08:21:50.287 PM 02/15/2016,Teleop Disabled,0,FALSE,0,NO ERROR,0.000000,0.000000,-6000.000000,-6000.000000,Speed,Speed,0.940000,1.100000,1.600000,1.000000,102.000000,1,0,-0.000000,0.000000,1,0.000000,0.000000,0.000000,3.615692,26.208725,0.000000,-0.001000,-0.001000,0.000000,FlatInitial
08:21:50.387 PM 02/15/2016,Teleop Disabled,0,FALSE,0,NO ERROR,0.000000,0.000000,-6000.000000,-6000.000000,Speed,Speed,0.960000,1.080000,1.590000,1.000000,103.000000,1,0,-0.000000,0.000000,1,0.000000,0.000000,0.000000,3.615692,26.208725,0.000000,-0.001000,-0.001000,0.000000,FlatInitial
08:21:50.487 PM 02/15/2016,Teleop Disabled,0,FALSE,0,NO ERROR,0.000000,0.000000,-6000.000000,-6000.000000,Speed,Speed,0.910000,1.090000,1.630000,1.000000,102.000000,1,0,-0.000000,0.000000,1,0.000000,0.000000,0.000000,3.615692,26.208725,0.000000,0.000000,0.001000,0.001000,FlatInitial
08:21:50.587 PM 02/15/2016,Teleop Disabled,0,FALSE,0,NO ERROR,0.000000,0.000000,-6000.000000,-6000.000000,Speed,Speed,0.830000,1.130000,1.520000,1.000000,101.000000,1,0,-0.000000,0.000000,1,0.000000,0.000000,0.000000,3.615692,26.208725,0.000000,-0.008000,-0.003000,0.000000,FlatInitial
08:21:50.687 PM 02/15/2016,Teleop Disabled,0,FALSE,0,NO ERROR,0.000000,0.000000,-6000.000000,-6000.000000,Speed,Speed,0.830000,1.130000,1.520000,1.000000,101.000000,1,0,-0.000000,0.000000,1,0.000000,0.000000,0.000000,3.615555,26.208725,0.000000,0.017000,0.002000,0.028000,FlatInitial
08:21:50.787 PM 02/15/2016,Teleop Disabled,0,FALSE,0,NO ERROR,0.000000,0.000000,-6000.000000,-6000.000000,Speed,Speed,0.910000,1.100000,1.580000,1.000000,102.000000,1,0,-0.000000,0.000000,1,0.000000,0.000000,0.000000,3.615555,26.208725,0.000000,-0.007000,0.004000,0.003000,FlatInitial
08:21:50.887 PM 02/15/2016,Teleop Disabled,0,FALSE,0,NO ERROR,0.000000,0.000000,-6000.000000,-6000.000000,Speed,Speed,0.910000,1.100000,1.580000,1.000000,101.000000,1,0,-0.000000,0.000000,1,0.000000,0.000000,0.000000,3.615555,26.208725,0.000000,0.005000,-0.007000,0.000000,FlatInitial
08:21:50.987 PM 02/15/2016,Teleop Disabled,0,FALSE,0,NO ERROR,0.000000,0.000000,-6000.000000,-6000.000000,Speed,Speed,0.890000,1.080000,1.610000,1.000000,102.000000,1,0,-0.000000,0.000000,1,0.000000,0.000000,0.000000,3.615555,26.208725,0.000000,0.004000,-0.005000,0.001000,FlatInitial
08:21:51.087 PM 02/15/2016,Teleop Disabled,0,FALSE,0,NO ERROR,0.000000,0.000000,-6000.000000,-6000.000000,Speed,Speed,0.890000,1.080000,1.610000,1.000000,100.000000,1,0,-0.000000,0.000000,1,0.000000,0.000000,0.000000,3.615555,26.208725,0.000000,-0.008000,0.006000,0.001000,FlatInitial
08:21:51.187 PM 02/15/2016,Teleop Disabled,0,FALSE,0,NO ERROR,0.000000,0.000000,-6000.000000,-6000.000000,Speed,Speed,0.880000,1.100000,1.590000,1.000000,101.000000,1,0,-0.000000,0.000000,1,0.000000,0.000000,0.000000,3.615555,26.208725,0.000000,-0.001000,0.006000,-0.002000,FlatInitial
08:21:51.289 PM 02/15/2016,Teleop Disabled,0,FALSE,0,NO ERROR,0.000000,0.000000,-6000.000000,-6000.000000,Speed,Speed,0.890000,1.090000,1.570000,1.000000,101.000000,1,0,-0.000000,0.000000,1,0.000000,0.000000,0.000000,3.615555,26.208725,0.000000,0.002000,0.000000,0.000000,FlatInitial
08:21:51.389 PM 02/15/2016,Teleop Disabled,0,FALSE,0,NO ERROR,0.000000,0.000000,-6000.000000,-6000.000000,Speed,Speed,0.860000,1.110000,1.560000,1.000000,101.000000,1,0,-0.000000,0.000000,1,0.000000,0.000000,0.000000,3.615555,26.208725,0.000000,-0.005000,-0.006000,0.003000,FlatInitial
08:21:51.489 PM 02/15/2016,Teleop Disabled,0,FALSE,0,NO ERROR,0.000000,0.000000,-6000.000000,-6000.000000,Speed,Speed,0.860000,1.090000,1.570000,1.000000,102.000000,1,0,-0.000000,0.000000,1,0.000000,0.000000,0.000000,3.615555,26.208725,0.000000,0.004000,0.004000,0.001000,FlatInitial
08:21:51.590 PM 02/15/2016,Teleop Disabled,0,FALSE,0,NO ERROR,0.000000,0.000000,-6000.000000,-6000.000000,Speed,Speed,0.870000,1.100000,1.550000,1.000000,103.000000,1,0,-0.000000,0.000000,1,0.000000,0.000000,0.000000,3.615555,26.208725,0.000000,-0.004000,0.000000,0.000000,FlatInitial
08:21:51.691 PM 02/15/2016,Teleop Disabled,0,FALSE,0,NO ERROR,0.000000,0.000000,-6000.000000,-6000.000000,Speed,Speed,0.870000,1.090000,1.560000,1.000000,101.000000,1,0,-0.000000,0.000000,1,0.000000,0.000000,0.000000,3.615555,26.208725,0.000000,-0.002000,-0.009000,0.000000,FlatInitial
08:21:51.791 PM 02/15/2016,Teleop Disabled,0,FALSE,0,NO ERROR,0.000000,0.000000,-6000.000000,-6000.000000,Speed,Speed,0.880000,1.080000,1.580000,1.000000,101.000000,1,0,-0.000000,0.000000,1,0.000000,0.000000,0.000000,3.615555,26.208725,0.000000,0.002000,0.000000,0.003000,FlatInitial
08:21:51.891 PM 02/15/2016,Teleop Disabled,0,FALSE,0,NO ERROR,0.000000,0.000000,-6000.000000,-6000.000000,Speed,Speed,0.880000,1.080000,1.610000,1.000000,101.000000,1,0,-0.000000,0.000000,1,0.000000,0.000000,0.000000,3.615555,26.208725,0.000000,0.000000,0.000000,0.014000,FlatInitial
08:21:51.991 PM 02/15/2016,Teleop Disabled,0,FALSE,0,NO ERROR,0.000000,0.000000,-6000.000000,-6000.000000,Speed,Speed,0.880000,1.090000,1.580000,1.000000,101.000000,1,0,-0.000000,0.000000,1,0.000000,0.000000,0.000000,3.615555,26.208725,0.000000,0.000000,-0.002000,0.000000,FlatInitial
08:21:52.091 PM 02/15/2016,Teleop Disabled,0,FALSE,0,NO ERROR,0.000000,0.000000,-6000.000000,-6000.000000,Speed,Speed,0.880000,1.080000,1.580000,1.000000,101.000000,1,0,-0.000000,0.000000,1,0.000000,0.000000,0.000000,3.615555,26.208725,0.000000,0.003000,0.004000,0.004000,FlatInitial
08:21:52.191 PM 02/15/2016,Teleop Disabled,0,FALSE,0,NO ERROR,0.000000,0.000000,-6000.000000,-6000.000000,Speed,Speed,0.870000,1.090000,1.590000,1.000000,102.000000,1,0,-0.000000,0.000000,1,0.000000,0.000000,0.000000,3.615555,26.208725,0.000000,-0.001000,0.002000,0.002000,FlatInitial
08:21:52.291 PM 02/15/2016,Teleop Disabled,0,FALSE,0,NO ERROR,0.000000,0.000000,-6000.000000,-6000.000000,Speed,Speed,0.910000,1.080000,1.560000,1.000000,100.000000,1,0,-0.000000,0.000000,1,0.000000,0.000000,0.000000,3.615555,26.208725,0.000000,0.004000,-0.001000,0.005000,FlatInitial
08:21:52.391 PM 02/15/2016,Teleop Disabled,0,FALSE,0,NO ERROR,0.000000,0.000000,-6000.000000,-6000.000000,Speed,Speed,0.950000,1.100000,1.500000,1.000000,101.000000,1,0,-0.000000,0.000000,1,0.000000,0.000000,0.000000,3.615555,26.208725,0.000000,0.001000,-0.006000,0.004000,FlatInitial
08:21:52.492 PM 02/15/2016,Teleop Disabled,0,FALSE,0,NO ERROR,0.000000,0.000000,-6000.000000,-6000.000000,Speed,Speed,0.940000,1.100000,1.500000,1.000000,101.000000,1,0,-0.000000,0.000000,1,0.000000,0.000000,0.000000,3.615555,26.208725,0.000000,-0.009000,0.001000,-0.001000,FlatInitial
08:21:52.592 PM 02/15/2016,Teleop Disabled,0,FALSE,0,NO ERROR,0.000000,0.000000,-6000.000000,-6000.000000,Speed,Speed,1.070000,1.090000,1.680000,1.000000,102.000000,1,0,-0.000000,0.000000,1,0.000000,0.000000,0.000000,3.615555,26.208725,0.000000,0.004000,0.004000,0.002000,FlatInitial
08:21:52.692 PM 02/15/2016,Teleop Disabled,0,FALSE,0,NO ERROR,0.000000,0.000000,-6000.000000,-6000.000000,Speed,Speed,1.080000,1.080000,1.570000,1.000000,101.000000,1,0,-0.000000,0.000000,1,0.000000,0.000000,0.000000,3.615555,26.208725,0.000000,0.005000,0.000000,-0.008000,FlatInitial
08:21:52.793 PM 02/15/2016,Teleop Disabled,0,FALSE,0,NO ERROR,0.000000,0.000000,-6000.000000,-6000.000000,Speed,Speed,1.090000,1.110000,1.550000,1.000000,102.000000,1,0,-0.000000,0.000000,1,0.000000,0.000000,0.000000,3.615555,26.208725,0.000000,-0.003000,-0.005000,-0.019000,FlatInitial
08:21:52.893 PM 02/15/2016,Teleop Disabled,0,FALSE,0,NO ERROR,0.000000,0.000000,-6000.000000,-6000.000000,Speed,Speed,1.120000,1.080000,1.640000,1.000000,102.000000,1,0,-0.000000,0.000000,1,0.000000,0.000000,0.000000,3.615555,26.208725,0.000000,0.012000,0.000000,0.010000,FlatInitial
08:21:52.996 PM 02/15/2016,Teleop Disabled,0,FALSE,0,NO ERROR,0.000000,0.000000,-6000.000000,-6000.000000,Speed,Speed,1.090000,1.090000,1.630000,1.000000,102.000000,1,0,-0.000000,0.000000,1,0.000000,0.000000,0.000000,3.615555,26.208725,0.000000,0.005000,0.003000,0.006000,FlatInitial
08:21:53.098 PM 02/15/2016,Teleop Disabled,0,FALSE,0,NO ERROR,0.000000,0.000000,-6000.000000,-6000.000000,Speed,Speed,1.130000,1.090000,1.560000,1.000000,101.000000,1,0,-0.000000,0.000000,1,0.000000,0.000000,0.000000,3.615555,26.208725,0.000000,0.001000,-0.003000,-0.011000,FlatInitial
08:21:53.197 PM 02/15/2016,Teleop Disabled,0,FALSE,0,NO ERROR,0.000000,0.000000,-6000.000000,-6000.000000,Speed,Speed,1.160000,1.110000,1.560000,1.000000,103.000000,1,0,-0.000000,0.000000,1,0.000000,0.000000,0.000000,3.615555,26.208725,0.000000,0.000000,-0.002000,0.006000,FlatInitial
08:21:53.297 PM 02/15/2016,Teleop Disabled,0,FALSE,0,NO ERROR,0.000000,0.000000,-6000.000000,-6000.000000,Speed,Speed,1.170000,1.090000,1.600000,1.000000,102.000000,1,0,-0.000000,0.000000,1,0.000000,0.000000,0.000000,3.615555,26.208725,0.000000,0.006000,0.001000,0.004000,FlatInitial
08:21:53.397 PM 02/15/2016,Teleop Disabled,0,FALSE,0,NO ERROR,0.000000,0.000000,-6000.000000,-6000.000000,Speed,Speed,1.150000,1.100000,1.610000,1.000000,102.000000,1,0,-0.000000,0.000000,1,0.000000,0.000000,0.000000,3.615555,26.208725,0.000000,-0.007000,0.005000,0.000000,FlatInitial
08:21:53.497 PM 02/15/2016,Teleop Disabled,0,FALSE,0,NO ERROR,0.000000,0.000000,-6000.000000,-6000.000000,Speed,Speed,1.170000,1.100000,1.580000,1.000000,102.000000,1,0,-0.000000,0.000000,1,0.000000,0.000000,0.000000,3.615555,26.208725,0.000000,0.003000,-0.005000,-0.005000,FlatInitial
08:21:53.598 PM 02/15/2016,Teleop Disabled,0,FALSE,0,NO ERROR,0.000000,0.000000,-6000.000000,-6000.000000,Speed,Speed,1.180000,1.100000,1.620000,1.000000,101.000000,1,0,-0.000000,0.000000,1,-0.001190,0.000000,0.000000,3.615601,26.208466,0.000000,-0.015000,-0.011000,0.009000,FlatInitial
08:21:53.698 PM 02/15/2016,Teleop Disabled,0,FALSE,0,NO ERROR,0.000000,0.000000,-6000.000000,-6000.000000,Speed,Speed,1.180000,1.090000,1.610000,1.000000,101.000000,1,0,-0.000000,0.000000,1,0.016495,-0.011032,0.000000,3.615952,26.208313,0.000000,-0.006000,-0.052000,0.037000,FlatInitial
08:21:53.798 PM 02/15/2016,Teleop Disabled,0,FALSE,0,NO ERROR,0.000000,0.000000,-6000.000000,-6000.000000,Speed,Speed,1.200000,1.100000,1.590000,1.000000,101.000000,1,0,-0.000000,0.000000,1,0.000000,-0.002823,0.000000,3.616638,26.208054,0.000000,0.012000,0.006000,-0.029000,FlatInitial
08:21:53.900 PM 02/15/2016,Teleop Disabled,0,FALSE,0,NO ERROR,0.000000,0.000000,-6000.000000,-6000.000000,Speed,Speed,1.190000,1.120000,1.580000,1.000000,101.000000,1,0,-0.000000,0.000000,1,-0.001434,0.013290,0.000000,3.616608,26.208328,0.000000,0.024000,-0.014000,0.112000,FlatInitial
08:21:54.001 PM 02/15/2016,Teleop Disabled,0,FALSE,0,NO ERROR,0.000000,0.000000,-6000.000000,-6000.000000,Speed,Speed,1.300000,1.100000,1.560000,1.000000,101.000000,1,0,-0.000000,0.000000,1,0.019547,-0.011993,0.000000,3.617157,26.208221,0.000000,0.021000,-0.008000,0.036000,FlatInitial
08:21:54.101 PM 02/15/2016,Teleop Disabled,0,FALSE,0,NO ERROR,0.000000,0.000000,-6000.000000,-6000.000000,Speed,Speed,1.290000,1.120000,1.610000,1.000000,101.000000,1,0,-0.000000,0.000000,1,0.000000,0.000000,0.000000,3.617401,26.208221,0.000000,0.004000,-0.015000,0.047000,FlatInitial
08:21:54.203 PM 02/15/2016,Teleop Disabled,0,FALSE,0,NO ERROR,0.000000,0.000000,-6000.000000,-6000.000000,Speed,Speed,1.310000,1.130000,1.540000,1.000000,101.000000,1,0,-0.000000,0.000000,1,0.000000,0.000000,0.000000,3.617523,26.208221,0.000000,0.014000,-0.007000,-0.001000,FlatInitial
08:21:54.303 PM 02/15/2016,Teleop Disabled,0,FALSE,0,NO ERROR,0.000000,0.000000,-6000.000000,-6000.000000,Speed,Speed,1.310000,1.140000,1.540000,1.000000,103.000000,1,0,-0.000000,0.000000,1,0.000000,0.000000,0.000000,3.617523,26.208221,0.000000,0.010000,0.000000,-0.020000,FlatInitial
08:21:54.403 PM 02/15/2016,Teleop Disabled,0,FALSE,0,NO ERROR,0.000000,0.000000,-6000.000000,-6000.000000,Speed,Speed,1.310000,1.110000,1.610000,1.000000,103.000000,1,0,-0.000000,0.000000,1,0.000000,0.000000,0.000000,3.617523,26.208221,0.000000,-0.001000,0.005000,0.012000,FlatInitial
08:21:54.503 PM 02/15/2016,Teleop Disabled,0,FALSE,0,NO ERROR,0.000000,0.000000,-6000.000000,-6000.000000,Speed,Speed,1.300000,1.120000,1.600000,1.000000,103.000000,1,0,-0.000000,0.000000,1,0.000000,0.000000,0.000000,3.617523,26.208221,0.000000,-0.019000,0.013000,0.016000,FlatInitial
08:21:54.603 PM 02/15/2016,Teleop Disabled,0,FALSE,0,NO ERROR,0.000000,0.000000,-6000.000000,-6000.000000,Speed,Speed,1.350000,1.140000,1.540000,1.000000,101.000000,1,0,-0.000000,0.000000,1,0.000000,0.000000,0.000000,3.617523,26.208221,0.000000,0.002000,-0.006000,-0.015000,FlatInitial
08:21:54.703 PM 02/15/2016,Teleop Disabled,0,FALSE,0,NO ERROR,0.000000,0.000000,-6000.000000,-6000.000000,Speed,Speed,1.340000,1.120000,1.520000,1.000000,103.000000,1,0,-0.000000,0.000000,1,0.000000,0.000000,0.000000,3.617523,26.208221,0.000000,0.003000,0.008000,-0.007000,FlatInitial
08:21:54.803 PM 02/15/2016,Teleop Disabled,0,FALSE,0,NO ERROR,0.000000,0.000000,-6000.000000,-6000.000000,Speed,Speed,1.390000,1.110000,1.560000,1.000000,101.000000,1,0,-0.000000,0.000000,1,0.004089,0.000000,0.000000,3.617630,26.208221,0.000000,0.024000,0.000000,-0.014000,FlatInitial
08:21:54.903 PM 02/15/2016,Teleop Disabled,0,FALSE,0,NO ERROR,0.000000,0.000000,-6000.000000,-6000.000000,Speed,Speed,1.410000,1.110000,1.620000,1.000000,101.000000,1,0,-0.000000,0.000000,1,0.000000,0.000000,0.000000,3.617798,26.208221,0.000000,-0.006000,-0.002000,-0.004000,FlatInitial
08:21:55.004 PM 02/15/2016,Teleop Disabled,0,FALSE,0,NO ERROR,0.000000,0.000000,-6000.000000,-6000.000000,Speed,Speed,1.420000,1.120000,1.600000,1.000000,101.000000,1,0,-0.000000,0.000000,1,0.000000,0.000000,0.000000,3.617798,26.208221,0.000000,0.017000,-0.004000,0.014000,FlatInitial
08:21:55.105 PM 02/15/2016,Teleop Disabled,0,FALSE,0,NO ERROR,0.000000,0.000000,-6000.000000,-6000.000000,Speed,Speed,1.390000,1.100000,1.580000,1.000000,101.000000,1,0,-0.000000,0.000000,1,-0.011826,0.000000,0.000000,3.617615,26.208221,0.000000,0.000000,0.005000,-0.014000,FlatInitial
08:21:55.205 PM 02/15/2016,Teleop Disabled,0,FALSE,0,NO ERROR,0.000000,0.000000,-6000.000000,-6000.000000,Speed,Speed,1.390000,1.120000,1.600000,1.000000,101.000000,1,0,-0.000000,0.000000,1,0.000000,0.000000,0.000000,3.617508,26.208221,0.000000,0.002000,0.000000,0.011000,FlatInitial
08:21:55.305 PM 02/15/2016,Teleop Disabled,0,FALSE,0,NO ERROR,0.000000,0.000000,-6000.000000,-6000.000000,Speed,Speed,1.400000,1.120000,1.600000,1.000000,103.000000,1,0,-0.000000,0.000000,1,0.000000,0.000000,0.000000,3.617508,26.208221,0.000000,0.004000,0.002000,-0.005000,FlatInitial
08:21:55.405 PM 02/15/2016,Teleop Disabled,0,FALSE,0,NO ERROR,0.000000,0.000000,-6000.000000,-6000.000000,Speed,Speed,1.400000,1.100000,1.590000,1.000000,101.000000,1,0,-0.000000,0.000000,1,0.000000,0.000000,0.000000,3.617508,26.208221,0.000000,-0.005000,-0.003000,0.009000,FlatInitial
08:21:55.505 PM 02/15/2016,Teleop Disabled,0,FALSE,0,NO ERROR,0.000000,0.000000,-6000.000000,-6000.000000,Speed,Speed,1.420000,1.120000,1.570000,1.000000,119.000000,1,0,-0.000000,0.000000,1,0.000000,0.000000,0.000000,3.617508,26.208221,0.000000,0.012000,0.003000,-0.002000,FlatInitial
08:21:55.605 PM 02/15/2016,Teleop Disabled,0,FALSE,0,NO ERROR,0.000000,0.000000,-6000.000000,-6000.000000,Speed,Speed,1.400000,1.130000,1.510000,1.000000,102.000000,1,0,-0.000000,0.000000,1,0.000000,0.000000,0.000000,3.617508,26.208221,0.000000,-0.004000,-0.003000,-0.001000,FlatInitial
08:21:55.706 PM 02/15/2016,Teleop Disabled,0,FALSE,0,NO ERROR,0.000000,0.000000,-6000.000000,-6000.000000,Speed,Speed,1.430000,1.130000,1.530000,1.000000,103.000000,1,0,-0.000000,0.000000,1,0.000000,0.000000,0.000000,3.617508,26.208221,0.000000,-0.002000,0.000000,0.005000,FlatInitial
08:21:55.806 PM 02/15/2016,Teleop Disabled,0,FALSE,0,NO ERROR,0.000000,0.000000,-6000.000000,-6000.000000,Speed,Speed,1.450000,1.140000,1.480000,1.000000,102.000000,1,0,-0.000000,0.000000,1,0.000000,0.000000,0.000000,3.617508,26.208221,0.000000,-0.011000,0.013000,0.013000,FlatInitial
08:21:55.906 PM 02/15/2016,Teleop Disabled,0,FALSE,0,NO ERROR,0.000000,0.000000,-6000.000000,-6000.000000,Speed,Speed,1.510000,1.120000,1.530000,1.000000,101.000000,1,0,-0.000000,0.000000,1,0.000000,0.000000,0.000000,3.617508,26.208221,0.000000,-0.014000,-0.009000,0.014000,FlatInitial
08:21:56.006 PM 02/15/2016,Teleop Disabled,0,FALSE,0,NO ERROR,0.000000,0.000000,-6000.000000,-6000.000000,Speed,Speed,1.600000,1.130000,1.540000,1.000000,102.000000,1,0,-0.000000,0.000000,1,0.000000,0.000000,0.000000,3.617508,26.208221,0.000000,0.002000,0.004000,-0.007000,FlatInitial
08:21:56.106 PM 02/15/2016,Teleop Disabled,0,FALSE,0,NO ERROR,0.000000,0.000000,-6000.000000,-6000.000000,Speed,Speed,1.580000,1.130000,1.510000,1.000000,101.000000,1,0,-0.000000,0.000000,1,0.000000,0.000000,0.000000,3.617508,26.208221,0.000000,0.005000,-0.002000,0.011000,FlatInitial
08:21:56.206 PM 02/15/2016,Teleop Disabled,0,FALSE,0,NO ERROR,0.000000,0.000000,-6000.000000,-6000.000000,Speed,Speed,1.590000,1.130000,1.490000,1.000000,101.000000,1,0,-0.000000,0.000000,1,0.000000,0.000000,0.000000,3.617508,26.208221,0.000000,-0.008000,-0.008000,0.036000,FlatInitial
08:21:56.306 PM 02/15/2016,Teleop Disabled,0,FALSE,0,NO ERROR,0.000000,0.000000,-6000.000000,-6000.000000,Speed,Speed,1.610000,1.150000,1.480000,1.000000,101.000000,1,0,-0.000000,0.000000,1,0.000000,0.000000,0.000000,3.617508,26.208221,0.000000,0.002000,0.003000,0.014000,FlatInitial
08:21:56.406 PM 02/15/2016,Teleop Disabled,0,FALSE,0,NO ERROR,0.000000,0.000000,-6000.000000,-6000.000000,Speed,Speed,1.630000,1.130000,1.440000,1.000000,101.000000,1,0,-0.000000,0.000000,1,0.000000,0.000000,0.000000,3.617508,26.208221,0.000000,-0.010000,0.005000,-0.002000,FlatInitial
08:21:56.506 PM 02/15/2016,Teleop Disabled,0,FALSE,0,NO ERROR,0.000000,0.000000,-6000.000000,-6000.000000,Speed,Speed,1.740000,1.150000,1.450000,1.000000,103.000000,1,0,-0.000000,0.000000,1,0.000000,0.000000,0.000000,3.617508,26.208221,0.000000,0.007000,0.000000,-0.005000,FlatInitial
08:21:56.606 PM 02/15/2016,Teleop Disabled,0,FALSE,0,NO ERROR,0.000000,0.000000,-6000.000000,-6000.000000,Speed,Speed,1.870000,1.130000,1.530000,1.000000,100.000000,1,0,-0.000000,0.000000,1,0.000000,0.000000,0.000000,3.617508,26.208221,0.000000,0.000000,0.001000,0.004000,FlatInitial
08:21:56.706 PM 02/15/2016,Teleop Disabled,0,FALSE,0,NO ERROR,0.000000,0.000000,-6000.000000,-6000.000000,Speed,Speed,2.000000,1.110000,1.630000,1.000000,102.000000,1,0,-0.000000,0.000000,1,0.000000,0.000000,0.000000,3.617508,26.208221,0.000000,-0.005000,0.003000,0.006000,FlatInitial
08:21:56.807 PM 02/15/2016,Teleop Disabled,0,FALSE,0,NO ERROR,0.000000,0.000000,-6000.000000,-6000.000000,Speed,Speed,2.160000,1.100000,1.600000,1.000000,101.000000,1,0,-0.000000,0.000000,1,0.000000,0.000000,0.000000,3.617508,26.208221,0.000000,0.005000,0.012000,-0.002000,FlatInitial
08:21:56.907 PM 02/15/2016,Teleop Disabled,0,FALSE,0,NO ERROR,0.000000,-7.470703,-6000.000000,-6000.000000,Speed,Speed,2.460000,1.090000,1.620000,1.000000,102.000000,1,0,-0.000000,0.000000,1,0.000000,0.000000,0.000000,3.617508,26.208221,0.000000,0.002000,0.011000,-0.005000,FlatInitial
08:21:57.007 PM 02/15/2016,Teleop Disabled,0,FALSE,0,NO ERROR,0.000000,-4.833984,-6000.000000,-6000.000000,Speed,Speed,2.880000,1.040000,1.690000,1.000000,105.000000,1,0,-0.000000,0.000000,1,-0.004623,-0.013580,0.000000,3.617432,26.208038,0.000000,0.004000,-0.033000,0.034000,FlatInitial
08:21:57.107 PM 02/15/2016,Teleop Disabled,0,FALSE,0,NO ERROR,0.000000,-6.298828,-6000.000000,-6000.000000,Speed,Speed,3.130000,1.110000,1.440000,1.000000,101.000000,1,0,-0.000000,0.000000,1,0.000000,-0.054688,0.000000,3.617691,26.205795,0.000000,0.013000,-0.029000,0.001000,FlatInitial
08:21:57.207 PM 02/15/2016,Teleop Disabled,0,FALSE,0,NO ERROR,0.000000,-3.662109,-6000.000000,-6000.000000,Speed,Speed,3.080000,1.120000,1.360000,1.000000,102.000000,1,0,-0.000000,0.000000,1,0.000000,0.000000,0.000000,3.617691,26.203094,0.000000,-0.010000,0.000000,-0.004000,FlatInitial
08:21:57.308 PM 02/15/2016,Teleop Disabled,0,FALSE,0,NO ERROR,0.000000,0.000000,-6000.000000,-6000.000000,Speed,Speed,3.010000,1.140000,1.550000,1.000000,100.000000,1,0,-0.000000,0.000000,1,0.000000,0.000000,0.000000,3.617691,26.203094,0.000000,0.005000,0.007000,0.005000,FlatInitial
08:21:57.408 PM 02/15/2016,Teleop Disabled,0,FALSE,0,NO ERROR,0.000000,0.000000,-6000.000000,-6000.000000,Speed,Speed,3.020000,1.130000,1.560000,1.000000,101.000000,1,0,-0.000000,0.000000,1,0.000000,0.000000,0.000000,3.617691,26.203308,0.000000,0.004000,0.000000,0.012000,FlatInitial
08:21:57.508 PM 02/15/2016,Teleop Disabled,0,FALSE,0,NO ERROR,0.000000,0.000000,-6000.000000,-6000.000000,Speed,Speed,3.010000,1.130000,1.470000,1.000000,101.000000,1,0,-0.000000,0.000000,1,-0.007294,0.000000,0.000000,3.617584,26.203308,0.000000,-0.020000,-0.006000,-0.005000,FlatInitial
08:21:57.608 PM 02/15/2016,Teleop Disabled,0,FALSE,0,NO ERROR,0.000000,1.464844,-6000.000000,-6000.000000,Speed,Speed,3.140000,1.090000,1.520000,1.000000,102.000000,1,0,-0.000000,0.000000,1,0.000000,0.003174,0.000000,3.617477,26.203339,0.000000,0.001000,0.022000,-0.002000,FlatInitial
08:21:57.709 PM 02/15/2016,Teleop Disabled,0,FALSE,0,NO ERROR,0.000000,10.986328,-6000.000000,-6000.000000,Speed,Speed,3.400000,1.110000,1.660000,1.000000,101.000000,1,0,-0.000000,0.000000,1,-0.002289,0.024048,0.000000,3.617462,26.204132,0.000000,-0.024000,0.020000,-0.023000,FlatInitial
08:21:57.809 PM 02/15/2016,Teleop Disabled,0,FALSE,0,NO ERROR,0.000000,0.585938,-6000.000000,-6000.000000,Speed,Speed,3.590000,1.140000,1.410000,1.000000,102.000000,1,0,-0.000000,0.000000,1,0.006958,-0.016296,0.000000,3.617401,26.204117,0.000000,0.004000,-0.031000,0.012000,FlatInitial
08:21:57.910 PM 02/15/2016,Teleop Disabled,0,FALSE,0,NO ERROR,0.000000,0.000000,-6000.000000,-6000.000000,Speed,Speed,3.550000,1.160000,1.280000,1.000000,103.000000,1,0,-0.000000,0.000000,1,0.000000,-0.003479,0.000000,3.617477,26.203613,0.000000,0.009000,-0.020000,-0.019000,FlatInitial
08:21:58.010 PM 02/15/2016,Teleop Disabled,0,FALSE,0,NO ERROR,0.000000,0.000000,-6000.000000,-6000.000000,Speed,Speed,3.540000,1.100000,1.520000,1.000000,102.000000,1,0,-0.000000,0.000000,1,-0.012589,0.006302,0.000000,3.617233,26.203415,0.000000,-0.020000,0.040000,-0.009000,FlatInitial
08:21:58.110 PM 02/15/2016,Teleop Disabled,0,FALSE,0,NO ERROR,0.000000,0.000000,-6000.000000,-6000.000000,Speed,Speed,3.570000,1.170000,1.450000,1.000000,102.000000,1,0,-0.000000,0.000000,1,0.002197,0.006271,0.000000,3.617096,26.203812,0.000000,-0.028000,0.026000,-0.020000,FlatInitial
08:21:58.211 PM 02/15/2016,Teleop Disabled,0,FALSE,0,NO ERROR,0.000000,0.000000,-6000.000000,-6000.000000,Speed,Speed,3.580000,1.120000,1.360000,1.000000,101.000000,1,0,-0.000000,0.000000,1,-0.006790,-0.008240,0.000000,3.616684,26.203949,0.000000,0.033000,-0.029000,0.002000,FlatInitial
08:21:58.311 PM 02/15/2016,Teleop Disabled,0,FALSE,0,NO ERROR,0.000000,0.000000,-6000.000000,-6000.000000,Speed,Speed,3.550000,1.120000,1.420000,1.000000,103.000000,1,0,-0.000000,0.000000,1,-0.012009,0.000000,0.000000,3.616455,26.203476,0.000000,-0.013000,0.010000,0.020000,FlatInitial
08:21:58.411 PM 02/15/2016,Teleop Disabled,0,FALSE,0,NO ERROR,0.000000,0.000000,-6000.000000,-6000.000000,Speed,Speed,3.600000,1.150000,1.450000,1.000000,101.000000,1,0,-0.000000,0.000000,1,0.009064,0.000000,0.000000,3.616592,26.203476,0.000000,0.017000,-0.010000,0.000000,FlatInitial
08:21:58.511 PM 02/15/2016,Teleop Disabled,0,FALSE,0,NO ERROR,0.000000,0.000000,-6000.000000,-6000.000000,Speed,Speed,3.550000,1.120000,1.420000,1.000000,104.000000,1,0,-0.000000,0.000000,1,0.000000,0.000000,0.000000,3.616699,26.203476,0.000000,0.000000,-0.008000,0.000000,FlatInitial
08:21:58.612 PM 02/15/2016,Teleop Disabled,0,FALSE,0,NO ERROR,0.000000,0.000000,-6000.000000,-6000.000000,Speed,Speed,3.560000,1.140000,1.440000,1.000000,101.000000,1,0,-0.000000,0.000000,1,0.000000,0.000000,0.000000,3.616699,26.203476,0.000000,-0.003000,0.006000,0.007000,FlatInitial
08:21:58.712 PM 02/15/2016,Teleop Disabled,0,FALSE,0,NO ERROR,0.000000,0.000000,-6000.000000,-6000.000000,Speed,Speed,3.570000,1.120000,1.470000,1.000000,100.000000,1,0,-0.000000,0.000000,1,0.000000,0.000000,0.000000,3.616699,26.203476,0.000000,0.008000,0.000000,0.005000,FlatInitial
08:21:58.812 PM 02/15/2016,Teleop Disabled,0,FALSE,0,NO ERROR,0.000000,0.000000,-6000.000000,-6000.000000,Speed,Speed,3.550000,1.140000,1.450000,1.000000,101.000000,1,0,-0.000000,0.000000,1,0.000000,0.000000,0.000000,3.616699,26.203476,0.000000,0.004000,-0.008000,0.000000,FlatInitial
08:21:58.912 PM 02/15/2016,Teleop Disabled,0,FALSE,0,NO ERROR,0.000000,0.000000,-6000.000000,-6000.000000,Speed,Speed,3.480000,1.130000,1.440000,1.000000,101.000000,1,0,-0.000000,0.000000,1,0.000000,0.000000,0.000000,3.616699,26.203476,0.000000,-0.007000,0.000000,0.005000,FlatInitial
08:21:59.012 PM 02/15/2016,Teleop Disabled,0,FALSE,0,NO ERROR,0.000000,0.000000,-6000.000000,-6000.000000,Speed,Speed,3.490000,1.100000,1.490000,1.000000,101.000000,1,0,-0.000000,0.000000,1,0.000000,0.000000,0.000000,3.616699,26.203476,0.000000,0.007000,0.003000,0.002000,FlatInitial
08:21:59.112 PM 02/15/2016,Teleop Disabled,0,FALSE,0,NO ERROR,0.000000,0.000000,-6000.000000,-6000.000000,Speed,Speed,3.450000,1.110000,1.440000,1.000000,101.000000,1,0,-0.000000,0.000000,1,0.000000,0.000000,0.000000,3.616699,26.203476,0.000000,0.013000,-0.011000,0.003000,FlatInitial
08:21:59.212 PM 02/15/2016,Teleop Disabled,0,FALSE,0,NO ERROR,0.000000,0.000000,-6000.000000,-6000.000000,Speed,Speed,3.430000,1.070000,1.460000,1.000000,101.000000,1,0,-0.000000,0.000000,1,-0.014038,0.000000,0.000000,3.616333,26.203476,0.000000,-0.022000,0.008000,-0.012000,FlatInitial
08:21:59.313 PM 02/15/2016,Teleop Disabled,0,FALSE,0,NO ERROR,0.000000,0.000000,-6000.000000,-6000.000000,Speed,Speed,3.390000,1.060000,1.680000,1.000000,101.000000,1,0,-0.000000,0.000000,1,0.000000,0.001755,0.000000,3.615952,26.203629,0.000000,0.006000,0.010000,0.002000,FlatInitial
08:21:59.413 PM 02/15/2016,Teleop Disabled,0,FALSE,0,NO ERROR,0.000000,0.000000,-6000.000000,-6000.000000,Speed,Speed,3.400000,1.060000,1.680000,1.000000,101.000000,1,0,-0.000000,0.000000,1,0.000000,0.000000,0.000000,3.615829,26.203629,0.000000,0.000000,0.023000,0.109000,FlatInitial
08:21:59.513 PM 02/15/2016,Teleop Disabled,0,FALSE,0,NO ERROR,0.000000,0.000000,-6000.000000,-6000.000000,Speed,Speed,3.140000,1.100000,1.480000,1.000000,102.000000,1,0,-0.000000,0.000000,1,-0.004120,-0.013229,0.000000,3.615936,26.203308,0.000000,-0.002000,-0.037000,0.063000,FlatInitial
08:21:59.614 PM 02/15/2016,Teleop Disabled,0,FALSE,0,NO ERROR,0.000000,0.000000,-6000.000000,-6000.000000,Speed,Speed,3.200000,1.090000,1.340000,1.000000,101.000000,1,0,-0.000000,0.000000,1,0.000000,0.000000,0.000000,3.615936,26.202988,0.000000,0.002000,-0.003000,0.019000,FlatInitial
08:21:59.714 PM 02/15/2016,Teleop Disabled,0,FALSE,0,NO ERROR,0.000000,0.000000,-6000.000000,-6000.000000,Speed,Speed,3.210000,1.080000,1.500000,1.000000,102.000000,1,0,-0.000000,0.000000,1,0.000000,0.000000,0.000000,3.615936,26.202988,0.000000,0.003000,0.018000,-0.035000,FlatInitial
08:21:59.814 PM 02/15/2016,Teleop Disabled,0,FALSE,0,NO ERROR,0.000000,0.000000,-6000.000000,-6000.000000,Speed,Speed,3.190000,1.070000,1.680000,1.000000,103.000000,1,0,-0.000000,0.000000,1,0.000000,0.000000,0.000000,3.615936,26.202988,0.000000,-0.007000,0.014000,-0.021000,FlatInitial
08:21:59.914 PM 02/15/2016,Teleop Disabled,0,FALSE,0,NO ERROR,0.000000,0.000000,-6000.000000,-6000.000000,Speed,Speed,3.200000,1.080000,1.680000,1.000000,102.000000,1,0,-0.000000,0.000000,1,0.000000,0.000000,0.000000,3.615936,26.202988,0.000000,-0.001000,-0.002000,-0.001000,FlatInitial
08:22:00.016 PM 02/15/2016,Teleop Disabled,0,FALSE,0,NO ERROR,0.000000,0.000000,-6000.000000,-6000.000000,Speed,Speed,3.200000,1.090000,1.630000,1.000000,101.000000,1,0,-0.000000,0.000000,1,0.000000,0.000000,0.000000,3.615936,26.202988,0.000000,-0.001000,-0.001000,-0.004000,FlatInitial
08:22:00.117 PM 02/15/2016,Teleop Disabled,0,FALSE,0,NO ERROR,0.000000,0.000000,-6000.000000,-6000.000000,Speed,Speed,3.220000,1.080000,1.620000,1.000000,101.000000,1,0,-0.000000,0.000000,1,0.000000,0.000000,0.000000,3.615936,26.202988,0.000000,-0.001000,-0.001000,-0.004000,FlatInitial
08:22:00.217 PM 02/15/2016,Teleop Disabled,0,FALSE,0,NO ERROR,0.000000,0.000000,-6000.000000,-6000.000000,Speed,Speed,3.210000,1.080000,1.650000,1.000000,103.000000,1,0,-0.000000,0.000000,1,0.000000,0.000000,0.000000,3.615936,26.202988,0.000000,0.004000,0.000000,-0.002000,FlatInitial
08:22:00.317 PM 02/15/2016,Teleop Disabled,0,FALSE,0,NO ERROR,0.000000,0.000000,-6000.000000,-6000.000000,Speed,Speed,3.200000,1.070000,1.690000,1.000000,100.000000,1,0,-0.000000,0.000000,1,0.000000,0.000000,0.000000,3.615936,26.202988,0.000000,0.004000,0.000000,-0.002000,FlatInitial
08:22:00.417 PM 02/15/2016,Teleop Disabled,0,FALSE,0,NO ERROR,0.000000,0.000000,-6000.000000,-6000.000000,Speed,Speed,3.200000,1.080000,1.650000,1.000000,101.000000,1,0,-0.000000,0.000000,1,0.000000,0.000000,0.000000,3.615936,26.202988,0.000000,0.001000,0.004000,-0.006000,FlatInitial
08:22:00.517 PM 02/15/2016,Teleop Disabled,0,FALSE,0,NO ERROR,0.000000,0.000000,-6000.000000,-6000.000000,Speed,Speed,3.170000,1.070000,1.690000,1.000000,102.000000,1,0,-0.000000,0.000000,1,0.000000,0.000000,0.000000,3.615936,26.202988,0.000000,-0.003000,-0.006000,0.000000,FlatInitial
08:22:00.617 PM 02/15/2016,Teleop Disabled,0,FALSE,0,NO ERROR,0.000000,0.000000,-6000.000000,-6000.000000,Speed,Speed,3.160000,1.070000,1.690000,1.000000,101.000000,1,0,-0.000000,0.000000,1,0.000000,0.000000,0.000000,3.615936,26.202988,0.000000,0.000000,0.003000,0.007000,FlatInitial
08:22:00.717 PM 02/15/2016,Teleop Disabled,0,FALSE,0,NO ERROR,0.000000,0.000000,-6000.000000,-6000.000000,Speed,Speed,3.180000,1.070000,1.660000,1.000000,101.000000,1,0,-0.000000,0.000000,1,0.000000,0.000000,0.000000,3.615936,26.202988,0.000000,0.003000,-0.004000,0.002000,FlatInitial
08:22:00.818 PM 02/15/2016,Teleop Disabled,0,FALSE,0,NO ERROR,0.000000,0.000000,-6000.000000,-6000.000000,Speed,Speed,3.170000,1.080000,1.670000,1.000000,101.000000,1,0,-0.000000,0.000000,1,0.000000,0.000000,0.000000,3.615936,26.202988,0.000000,0.004000,0.000000,0.003000,FlatInitial
08:22:00.918 PM 02/15/2016,Teleop Disabled,0,FALSE,0,NO ERROR,0.000000,0.000000,-6000.000000,-6000.000000,Speed,Speed,3.170000,1.070000,1.680000,1.000000,102.000000,1,0,-0.000000,0.000000,1,0.000000,0.000000,0.000000,3.615936,26.202988,0.000000,0.001000,0.003000,0.003000,FlatInitial
08:22:01.018 PM 02/15/2016,Teleop Disabled,0,FALSE,0,NO ERROR,0.000000,0.000000,-6000.000000,-6000.000000,Speed,Speed,3.190000,1.070000,1.660000,1.000000,101.000000,1,0,-0.000000,0.000000,1,0.000000,0.000000,0.000000,3.615936,26.202988,0.000000,0.005000,-0.001000,0.002000,FlatInitial
08:22:01.118 PM 02/15/2016,Teleop Disabled,0,FALSE,0,NO ERROR,0.000000,0.000000,-6000.000000,-6000.000000,Speed,Speed,3.190000,1.070000,1.660000,1.000000,102.000000,1,0,-0.000000,0.000000,1,0.000000,0.000000,0.000000,3.615936,26.202988,0.000000,0.005000,-0.001000,0.002000,FlatInitial
08:22:01.218 PM 02/15/2016,Teleop Disabled,0,FALSE,0,NO ERROR,0.000000,0.000000,-6000.000000,-6000.000000,Speed,Speed,3.170000,1.080000,1.680000,1.000000,101.000000,1,0,-0.000000,0.000000,1,0.000000,0.000000,0.000000,3.615936,26.202988,0.000000,0.001000,0.000000,0.006000,FlatInitial
08:22:01.320 PM 02/15/2016,Teleop Disabled,0,FALSE,0,NO ERROR,0.000000,0.000000,-6000.000000,-6000.000000,Speed,Speed,3.180000,1.080000,1.660000,1.000000,103.000000,1,0,-0.000000,0.000000,1,0.000000,0.000000,0.000000,3.615936,26.202988,0.000000,-0.002000,0.003000,0.002000,FlatInitial
08:22:01.420 PM 02/15/2016,Teleop Disabled,0,FALSE,0,NO ERROR,0.000000,0.000000,-6000.000000,-6000.000000,Speed,Speed,3.180000,1.080000,1.680000,1.000000,102.000000,1,0,-0.000000,0.000000,1,0.000000,0.000000,0.000000,3.615936,26.202988,0.000000,0.000000,0.001000,0.000000,FlatInitial
08:22:01.520 PM 02/15/2016,Teleop Disabled,0,FALSE,0,NO ERROR,0.000000,0.000000,-6000.000000,-6000.000000,Speed,Speed,3.180000,1.080000,1.670000,1.000000,101.000000,1,0,-0.000000,0.000000,1,0.000000,0.000000,0.000000,3.615936,26.202988,0.000000,-0.001000,-0.003000,0.002000,FlatInitial
