Time,RobotMode,AutoToRun,ErrorStatus, ErrorCode,ErrorSource,ActualRPM1,ActualRPM2,DesiredRPM1,DesiredRPM2,ControlMode1,ControlMode2,NavXYaw,NavXRoll,NavXPitch,ShooterState,LoopTime,IsLevel,IsAutoTargeting,LeftMotorOutput,RightMotorOutput,IsHaloDrive,NavXVelocityX,NavXVelocityY,NavXVelocityZ,NavXDisplacementX,NavXDisplacementY,NavXDisplacementZ,NavXAccelerationX,NavXAccelerationY,NavXAccelerationZ,AutoDefendState
01:48:49.470 PM 02/14/2016,Teleop Enabled,0,TRUE,-44087,NetComm_CAN_Receive.vi:5470006<APPEND>  <b>Complete call chain:</b>      NetComm_CAN_Receive.vi:5470006      WPI_CANTalonSRX_Receive.vi      WPI_MotorControlOpenCANTalonSRX.vi      Begin.vi      Robot Main.vi,0.000000,0.000000,4000.000000,4000.000000,Speed,Speed,-0.180000,2.240000,-1.940000,3.000000,103.000000,1,0,-0.000248,0.003038,0,0.000000,0.000000,0.000000,-0.108200,0.311981,0.000000,0.014000,-0.008000,0.015000,FlatInitial
01:48:49.569 PM 02/14/2016,Teleop Enabled,0,TRUE,-44087,NetComm_CAN_Receive.vi:5470006<APPEND>  <b>Complete call chain:</b>      NetComm_CAN_Receive.vi:5470006      WPI_CANTalonSRX_Receive.vi      WPI_MotorControlOpenCANTalonSRX.vi      Begin.vi      Robot Main.vi,0.000000,0.000000,4000.000000,4000.000000,Speed,Speed,-0.160000,2.260000,-2.100000,3.000000,100.000000,1,0,-0.000248,0.003038,0,0.001068,-0.007019,0.000000,-0.108124,0.311874,0.000000,0.038000,-0.032000,-0.064000,FlatInitial
01:48:49.670 PM 02/14/2016,Teleop Enabled,0,TRUE,-44087,NetComm_CAN_Receive.vi:5470006<APPEND>  <b>Complete call chain:</b>      NetComm_CAN_Receive.vi:5470006      WPI_CANTalonSRX_Receive.vi      WPI_MotorControlOpenCANTalonSRX.vi      Begin.vi      Robot Main.vi,0.000000,0.000000,4000.000000,4000.000000,Speed,Speed,-0.170000,2.280000,-1.930000,3.000000,101.000000,1,0,-0.000248,0.003038,0,0.004044,0.000000,0.000000,-0.108078,0.310989,0.000000,0.008000,-0.003000,0.001000,FlatInitial
01:48:49.771 PM 02/14/2016,Teleop Enabled,0,TRUE,-44087,NetComm_CAN_Receive.vi:5470006<APPEND>  <b>Complete call chain:</b>      NetComm_CAN_Receive.vi:5470006      WPI_CANTalonSRX_Receive.vi      WPI_MotorControlOpenCANTalonSRX.vi      Begin.vi      Robot Main.vi,0.000000,0.000000,4000.000000,4000.000000,Speed,Speed,-0.190000,2.430000,-1.430000,3.000000,101.000000,1,0,-0.000248,0.003038,0,0.000000,0.000000,0.000000,-0.108078,0.310989,0.000000,0.008000,0.001000,0.013000,FlatInitial
01:48:49.872 PM 02/14/2016,Teleop Enabled,0,TRUE,-44087,NetComm_CAN_Receive.vi:5470006<APPEND>  <b>Complete call chain:</b>      NetComm_CAN_Receive.vi:5470006      WPI_CANTalonSRX_Receive.vi      WPI_MotorControlOpenCANTalonSRX.vi      Begin.vi      Robot Main.vi,0.000000,0.000000,4000.000000,4000.000000,Speed,Speed,-0.190000,2.460000,-1.230000,3.000000,101.000000,1,0,-0.000248,0.003038,0,0.000000,0.000000,0.000000,-0.108078,0.310989,0.000000,0.002000,-0.006000,0.007000,FlatInitial
01:48:49.972 PM 02/14/2016,Teleop Enabled,0,TRUE,-44087,NetComm_CAN_Receive.vi:5470006<APPEND>  <b>Complete call chain:</b>      NetComm_CAN_Receive.vi:5470006      WPI_CANTalonSRX_Receive.vi      WPI_MotorControlOpenCANTalonSRX.vi      Begin.vi      Robot Main.vi,0.000000,0.000000,4000.000000,4000.000000,Speed,Speed,-0.200000,2.450000,-1.240000,3.000000,101.000000,1,0,-0.000248,0.003038,0,0.000000,0.000000,0.000000,-0.108078,0.310989,0.000000,0.003000,-0.007000,0.000000,FlatInitial
01:48:50.073 PM 02/14/2016,Teleop Enabled,0,TRUE,-44087,NetComm_CAN_Receive.vi:5470006<APPEND>  <b>Complete call chain:</b>      NetComm_CAN_Receive.vi:5470006      WPI_CANTalonSRX_Receive.vi      WPI_MotorControlOpenCANTalonSRX.vi      Begin.vi      Robot Main.vi,0.000000,0.000000,4000.000000,4000.000000,Speed,Speed,-0.210000,2.440000,-1.230000,3.000000,101.000000,1,0,-0.000248,0.003038,0,0.000000,0.000000,0.000000,-0.108078,0.310989,0.000000,0.002000,-0.006000,-0.009000,FlatInitial
01:48:50.174 PM 02/14/2016,Teleop Enabled,0,TRUE,-44087,NetComm_CAN_Receive.vi:5470006<APPEND>  <b>Complete call chain:</b>      NetComm_CAN_Receive.vi:5470006      WPI_CANTalonSRX_Receive.vi      WPI_MotorControlOpenCANTalonSRX.vi      Begin.vi      Robot Main.vi,0.000000,0.000000,4000.000000,4000.000000,Speed,Speed,-0.220000,2.540000,-0.870000,3.000000,102.000000,1,0,-0.000248,0.003038,0,0.000000,0.000000,0.000000,-0.108078,0.310989,0.000000,-0.002000,0.002000,-0.013000,FlatInitial
01:48:50.273 PM 02/14/2016,Teleop Enabled,0,TRUE,-44087,NetComm_CAN_Receive.vi:5470006<APPEND>  <b>Complete call chain:</b>      NetComm_CAN_Receive.vi:5470006      WPI_CANTalonSRX_Receive.vi      WPI_MotorControlOpenCANTalonSRX.vi      Begin.vi      Robot Main.vi,0.000000,0.000000,4000.000000,4000.000000,Speed,Speed,-0.230000,2.760000,-0.120000,3.000000,102.000000,1,0,-0.000248,0.003038,0,0.000000,0.000000,0.000000,-0.108078,0.310989,0.000000,-0.002000,0.004000,0.001000,FlatInitial
01:48:50.373 PM 02/14/2016,Teleop Enabled,0,TRUE,-44087,NetComm_CAN_Receive.vi:5470006<APPEND>  <b>Complete call chain:</b>      NetComm_CAN_Receive.vi:5470006      WPI_CANTalonSRX_Receive.vi      WPI_MotorControlOpenCANTalonSRX.vi      Begin.vi      Robot Main.vi,0.000000,0.000000,4000.000000,4000.000000,Speed,Speed,-0.230000,3.010000,0.760000,3.000000,102.000000,1,0,-0.000248,0.003038,0,0.000000,0.000000,0.000000,-0.108078,0.310989,0.000000,0.000000,0.004000,0.011000,FlatInitial
01:48:50.473 PM 02/14/2016,Teleop Enabled,0,TRUE,-44087,NetComm_CAN_Receive.vi:5470006<APPEND>  <b>Complete call chain:</b>      NetComm_CAN_Receive.vi:5470006      WPI_CANTalonSRX_Receive.vi      WPI_MotorControlOpenCANTalonSRX.vi      Begin.vi      Robot Main.vi,0.000000,0.000000,4000.000000,4000.000000,Speed,Speed,-0.250000,3.230000,1.500000,3.000000,102.000000,1,0,-0.000248,0.003038,0,0.000000,0.000000,0.000000,-0.108078,0.310989,0.000000,0.000000,0.001000,0.014000,FlatInitial
01:48:50.573 PM 02/14/2016,Teleop Enabled,0,TRUE,-44087,NetComm_CAN_Receive.vi:5470006<APPEND>  <b>Complete call chain:</b>      NetComm_CAN_Receive.vi:5470006      WPI_CANTalonSRX_Receive.vi      WPI_MotorControlOpenCANTalonSRX.vi      Begin.vi      Robot Main.vi,0.000000,0.000000,4000.000000,4000.000000,Speed,Speed,-0.270000,3.320000,1.710000,3.000000,101.000000,1,0,-0.000248,0.003038,0,0.000000,0.000000,0.000000,-0.108078,0.310989,0.000000,0.000000,0.006000,0.009000,FlatInitial
01:48:50.673 PM 02/14/2016,Teleop Enabled,0,TRUE,-44087,NetComm_CAN_Receive.vi:5470006<APPEND>  <b>Complete call chain:</b>      NetComm_CAN_Receive.vi:5470006      WPI_CANTalonSRX_Receive.vi      WPI_CANTalonSRX_GetStatus.vi      ShooterVI.vi      Periodic Tasks.vi      Robot Main.vi,0.000000,0.000000,4000.000000,4000.000000,Speed,Speed,-0.280000,3.270000,1.600000,3.000000,101.000000,1,0,-0.000248,0.003038,0,0.000000,0.000000,0.000000,-0.108078,0.310989,0.000000,0.000000,0.007000,0.011000,FlatInitial
01:48:50.775 PM 02/14/2016,Teleop Enabled,0,FALSE,0,NO ERROR,0.000000,0.000000,4000.000000,4000.000000,Speed,Speed,-0.260000,3.080000,1.170000,3.000000,101.000000,1,0,-0.000248,0.003038,0,0.000000,-0.001526,0.000000,-0.108078,0.310974,0.000000,-0.001000,-0.020000,0.006000,FlatInitial
01:48:50.875 PM 02/14/2016,Teleop Enabled,0,FALSE,0,NO ERROR,0.000000,0.000000,4000.000000,4000.000000,Speed,Speed,-0.250000,2.890000,0.590000,3.000000,102.000000,1,0,-0.000248,0.003038,0,0.000000,0.000000,0.000000,-0.108078,0.310883,0.000000,0.000000,0.013000,-0.002000,FlatInitial
01:48:50.974 PM 02/14/2016,Teleop Enabled,0,FALSE,0,NO ERROR,0.000000,0.000000,4000.000000,4000.000000,Speed,Speed,-0.220000,2.660000,-0.380000,3.000000,101.000000,1,0,-0.000248,0.003038,0,0.000000,0.000000,0.000000,-0.108078,0.310883,0.000000,0.009000,0.001000,0.081000,FlatInitial
01:48:51.074 PM 02/14/2016,Teleop Enabled,0,FALSE,0,NO ERROR,0.000000,0.000000,4000.000000,4000.000000,Speed,Speed,-0.210000,2.060000,-2.370000,3.000000,101.000000,1,0,-0.000248,0.003038,0,-0.002747,0.005783,0.000000,-0.108109,0.310974,0.000000,-0.029000,-0.022000,-0.105000,FlatInitial
01:48:51.175 PM 02/14/2016,Teleop Enabled,0,FALSE,0,NO ERROR,0.000000,0.000000,4000.000000,4000.000000,Speed,Speed,-0.180000,2.200000,-3.180000,3.000000,101.000000,1,0,-0.000248,0.003038,0,0.006119,0.000000,0.000000,-0.108215,0.310760,0.000000,0.010000,-0.043000,0.002000,FlatInitial
01:48:51.275 PM 02/14/2016,Teleop Enabled,0,FALSE,0,NO ERROR,0.000000,0.000000,4000.000000,4000.000000,Speed,Speed,-0.200000,2.180000,-2.060000,3.000000,101.000000,1,0,-0.000248,0.003038,0,-0.007782,0.000000,0.000000,-0.108292,0.310410,0.000000,0.007000,-0.031000,0.037000,FlatInitial
01:48:51.376 PM 02/14/2016,Teleop Enabled,0,FALSE,0,NO ERROR,0.000000,0.000000,4000.000000,4000.000000,Speed,Speed,-0.180000,2.810000,0.280000,3.000000,101.000000,1,0,-0.000248,0.003038,0,-0.001404,-0.004120,0.000000,-0.108398,0.310303,0.000000,0.017000,-0.006000,-0.009000,FlatInitial
01:48:51.475 PM 02/14/2016,Teleop Enabled,0,FALSE,0,NO ERROR,0.000000,0.000000,4000.000000,4000.000000,Speed,Speed,-0.300000,3.290000,2.400000,3.000000,101.000000,1,0,-0.000248,0.003038,0,-0.063919,-0.002121,0.000000,-0.109695,0.309830,0.000000,0.090000,0.053000,-0.283000,FlatInitial
01:48:51.576 PM 02/14/2016,Teleop Enabled,0,FALSE,0,NO ERROR,0.000000,0.000000,4000.000000,4000.000000,Speed,Speed,-0.260000,2.430000,2.560000,3.000000,102.000000,1,0,-0.000248,0.003038,0,-0.051590,0.007629,0.000000,-0.112000,0.310654,0.000000,0.005000,-0.050000,-0.070000,FlatInitial
01:48:51.677 PM 02/14/2016,Teleop Enabled,0,FALSE,0,NO ERROR,0.000000,0.000000,4000.000000,4000.000000,Speed,Speed,-0.230000,2.580000,2.660000,3.000000,102.000000,1,0,-0.000248,0.003038,0,-0.054977,0.026749,0.000000,-0.113983,0.311356,0.000000,0.003000,-0.026000,-0.046000,FlatInitial
01:48:51.778 PM 02/14/2016,Teleop Enabled,0,FALSE,0,NO ERROR,0.000000,0.000000,4000.000000,4000.000000,Speed,Speed,-0.250000,3.240000,2.430000,3.000000,101.000000,1,0,-0.000248,0.003038,0,0.002258,0.025513,0.000000,-0.115219,0.312790,0.000000,0.025000,0.001000,0.123000,FlatInitial
01:48:51.878 PM 02/14/2016,Teleop Enabled,0,FALSE,0,NO ERROR,0.000000,0.000000,4000.000000,4000.000000,Speed,Speed,-0.260000,2.760000,2.510000,3.000000,101.000000,1,0,-0.000248,0.003038,0,-0.003677,-0.006943,0.000000,-0.115112,0.312683,0.000000,-0.024000,0.008000,-0.048000,FlatInitial
01:48:51.978 PM 02/14/2016,Teleop Enabled,0,FALSE,0,NO ERROR,0.000000,0.000000,4000.000000,4000.000000,Speed,Speed,-0.270000,2.900000,2.500000,3.000000,101.000000,1,0,-0.000248,0.003038,0,0.000000,0.008331,0.000000,-0.115280,0.312973,0.000000,-0.008000,-0.004000,-0.032000,FlatInitial
01:48:52.078 PM 02/14/2016,Teleop Enabled,0,FALSE,0,NO ERROR,0.000000,0.000000,4000.000000,4000.000000,Speed,Speed,-0.280000,3.060000,2.440000,3.000000,102.000000,1,0,-0.000248,0.003038,0,0.000000,0.000000,0.000000,-0.115280,0.313049,0.000000,0.000000,-0.014000,-0.033000,FlatInitial
01:48:52.177 PM 02/14/2016,Teleop Enabled,0,FALSE,0,NO ERROR,0.000000,0.000000,4000.000000,4000.000000,Speed,Speed,-0.330000,2.910000,2.490000,3.000000,103.000000,1,0,-0.000248,0.003038,0,0.000000,-0.005386,0.000000,-0.115280,0.312897,0.000000,0.003000,0.020000,0.000000,FlatInitial
01:48:52.278 PM 02/14/2016,Teleop Enabled,0,FALSE,0,NO ERROR,0.000000,0.000000,4000.000000,4000.000000,Speed,Speed,-0.350000,2.960000,2.440000,3.000000,101.000000,1,0,-0.000248,0.003038,0,0.000000,0.000000,0.000000,-0.115280,0.312897,0.000000,0.000000,0.001000,0.007000,FlatInitial
01:48:52.378 PM 02/14/2016,Teleop Enabled,0,FALSE,0,NO ERROR,0.000000,0.000000,4000.000000,4000.000000,Speed,Speed,-0.380000,3.140000,2.350000,3.000000,101.000000,1,0,-0.000248,0.003038,0,0.000000,0.000000,0.000000,-0.115280,0.312897,0.000000,-0.004000,-0.006000,0.000000,FlatInitial
01:48:52.479 PM 02/14/2016,Teleop Enabled,0,FALSE,0,NO ERROR,0.000000,0.000000,4000.000000,4000.000000,Speed,Speed,-0.360000,3.060000,2.420000,3.000000,102.000000,1,0,0.000248,0.001550,0,0.000000,0.001099,0.000000,-0.115280,0.312912,0.000000,0.004000,0.003000,0.000000,FlatInitial
01:48:52.579 PM 02/14/2016,Teleop Enabled,0,FALSE,0,NO ERROR,0.000000,0.000000,4000.000000,4000.000000,Speed,Speed,-0.370000,3.140000,2.330000,3.000000,101.000000,1,0,0.000248,0.001550,0,0.000000,0.000000,0.000000,-0.115280,0.312973,0.000000,0.000000,-0.005000,-0.007000,FlatInitial
01:48:52.678 PM 02/14/2016,Teleop Enabled,0,FALSE,0,NO ERROR,0.000000,0.000000,4000.000000,4000.000000,Speed,Speed,-0.380000,3.090000,2.350000,3.000000,103.000000,1,0,0.000248,0.001550,0,0.000000,0.000000,0.000000,-0.115280,0.312973,0.000000,0.001000,-0.003000,0.003000,FlatInitial
01:48:52.779 PM 02/14/2016,Teleop Enabled,0,FALSE,0,NO ERROR,0.000000,0.000000,4000.000000,4000.000000,Speed,Speed,-0.400000,3.080000,2.390000,3.000000,103.000000,1,0,0.000248,0.001550,0,0.000000,0.000000,0.000000,-0.115280,0.312973,0.000000,0.000000,0.000000,-0.009000,FlatInitial
01:48:52.879 PM 02/14/2016,Teleop Enabled,0,FALSE,0,NO ERROR,0.000000,0.000000,4000.000000,4000.000000,Speed,Speed,-0.410000,3.140000,2.340000,3.000000,101.000000,1,0,0.000248,0.001550,0,0.000000,0.000000,0.000000,-0.115280,0.312973,0.000000,0.006000,0.000000,0.008000,FlatInitial
01:48:52.979 PM 02/14/2016,Teleop Enabled,0,FALSE,0,NO ERROR,0.000000,0.000000,4000.000000,4000.000000,Speed,Speed,-0.410000,3.080000,2.370000,3.000000,103.000000,1,0,0.000248,0.001550,0,0.000000,0.000000,0.000000,-0.115280,0.312973,0.000000,0.001000,0.002000,0.010000,FlatInitial
01:48:53.079 PM 02/14/2016,Teleop Enabled,0,FALSE,0,NO ERROR,0.000000,0.000000,4000.000000,4000.000000,Speed,Speed,-0.430000,3.120000,2.340000,3.000000,105.000000,1,0,0.000248,0.001550,0,0.000000,0.000000,0.000000,-0.115280,0.312973,0.000000,-0.002000,0.003000,0.004000,FlatInitial
01:48:53.179 PM 02/14/2016,Teleop Enabled,0,FALSE,0,NO ERROR,0.000000,0.000000,4000.000000,4000.000000,Speed,Speed,-0.430000,3.070000,2.380000,3.000000,100.000000,1,0,0.000248,0.001550,0,0.000000,0.000000,0.000000,-0.115280,0.312973,0.000000,-0.002000,0.003000,0.004000,FlatInitial
01:48:53.280 PM 02/14/2016,Teleop Enabled,0,FALSE,0,NO ERROR,0.000000,0.000000,4000.000000,4000.000000,Speed,Speed,-0.430000,3.070000,2.380000,3.000000,101.000000,1,0,0.000248,0.001550,0,0.000000,0.000000,0.000000,-0.115280,0.312973,0.000000,0.000000,0.000000,0.000000,FlatInitial
01:48:53.381 PM 02/14/2016,Teleop Enabled,0,FALSE,0,NO ERROR,0.000000,0.000000,4000.000000,4000.000000,Speed,Speed,-0.480000,3.070000,2.370000,3.000000,101.000000,1,0,-0.001550,0.000992,0,0.000000,0.000000,0.000000,-0.115280,0.312973,0.000000,0.000000,0.001000,0.000000,FlatInitial
01:48:53.481 PM 02/14/2016,Teleop Enabled,0,FALSE,0,NO ERROR,0.000000,0.000000,4000.000000,4000.000000,Speed,Speed,-0.490000,3.050000,2.390000,3.000000,101.000000,1,0,-0.001550,0.000992,0,0.000000,0.000000,0.000000,-0.115280,0.312973,0.000000,0.000000,0.000000,-0.001000,FlatInitial
01:48:53.581 PM 02/14/2016,Teleop Enabled,0,FALSE,0,NO ERROR,0.000000,0.000000,4000.000000,4000.000000,Speed,Speed,-0.510000,3.100000,2.340000,3.000000,101.000000,1,0,-0.001550,0.000992,0,0.000000,0.000000,0.000000,-0.115280,0.312973,0.000000,0.000000,0.000000,-0.001000,FlatInitial
01:48:53.682 PM 02/14/2016,Teleop Enabled,0,FALSE,0,NO ERROR,0.000000,0.000000,4000.000000,4000.000000,Speed,Speed,-0.510000,3.080000,2.360000,3.000000,101.000000,1,0,-0.001550,0.000992,0,0.000000,0.000000,0.000000,-0.115280,0.312973,0.000000,0.000000,0.000000,0.003000,FlatInitial
01:48:53.782 PM 02/14/2016,Teleop Enabled,0,FALSE,0,NO ERROR,0.000000,0.000000,4000.000000,4000.000000,Speed,Speed,-0.350000,3.160000,2.320000,3.000000,102.000000,1,0,-0.001550,0.000992,0,0.000000,0.000000,0.000000,-0.115280,0.312973,0.000000,0.009000,-0.012000,0.008000,FlatInitial
01:48:53.882 PM 02/14/2016,Teleop Enabled,0,FALSE,0,NO ERROR,0.000000,0.000000,4000.000000,4000.000000,Speed,Speed,-0.340000,3.140000,2.320000,3.000000,102.000000,1,0,-0.001550,0.000992,0,0.000000,0.000000,0.000000,-0.115280,0.312973,0.000000,0.009000,-0.012000,0.008000,FlatInitial
01:48:53.982 PM 02/14/2016,Teleop Enabled,0,FALSE,0,NO ERROR,0.000000,0.000000,4000.000000,4000.000000,Speed,Speed,-0.340000,3.140000,2.320000,3.000000,103.000000,1,0,-0.001550,0.000992,0,0.000000,0.000000,0.000000,-0.115280,0.312973,0.000000,0.011000,0.000000,0.018000,FlatInitial
01:48:54.082 PM 02/14/2016,Teleop Enabled,0,FALSE,0,NO ERROR,0.000000,0.000000,4000.000000,4000.000000,Speed,Speed,-0.540000,2.950000,2.410000,3.000000,101.000000,1,0,-0.001550,0.000992,0,0.000000,0.000000,0.000000,-0.115280,0.312973,0.000000,0.005000,-0.010000,-0.017000,FlatInitial
01:48:54.183 PM 02/14/2016,Teleop Enabled,0,FALSE,0,NO ERROR,0.000000,0.000000,4000.000000,4000.000000,Speed,Speed,-1.680000,3.160000,2.280000,3.000000,101.000000,1,0,-0.001550,0.000992,0,0.000000,0.000000,0.000000,-0.115280,0.312973,0.000000,0.004000,-0.009000,0.003000,FlatInitial
01:48:54.283 PM 02/14/2016,Teleop Enabled,0,FALSE,0,NO ERROR,0.000000,0.000000,4000.000000,4000.000000,Speed,Speed,-2.220000,3.140000,2.290000,3.000000,102.000000,1,0,-0.001550,0.000992,0,0.000000,0.000000,0.000000,-0.115280,0.312973,0.000000,-0.010000,-0.009000,-0.006000,FlatInitial
01:48:54.384 PM 02/14/2016,Teleop Enabled,0,FALSE,0,NO ERROR,0.000000,0.000000,4000.000000,4000.000000,Speed,Speed,-2.190000,3.210000,2.400000,3.000000,106.000000,1,0,-0.001550,0.000992,0,-0.017426,0.000000,0.000000,-0.115707,0.312973,0.000000,-0.022000,0.014000,-0.002000,FlatInitial
01:48:54.484 PM 02/14/2016,Teleop Enabled,0,FALSE,0,NO ERROR,0.000000,0.000000,4000.000000,4000.000000,Speed,Speed,-1.860000,3.070000,2.550000,3.000000,101.000000,1,0,-0.001550,0.000992,0,0.000000,0.024536,0.000000,-0.115921,0.313583,0.000000,-0.004000,0.019000,-0.007000,FlatInitial
01:48:54.584 PM 02/14/2016,Teleop Enabled,0,FALSE,0,NO ERROR,0.000000,0.000000,4000.000000,4000.000000,Speed,Speed,-1.860000,3.070000,2.550000,3.000000,101.000000,1,0,-0.001550,0.000992,0,0.000000,0.050171,0.000000,-0.115921,0.315628,0.000000,0.000000,0.008000,-0.004000,FlatInitial
01:48:54.686 PM 02/14/2016,Teleop Enabled,0,FALSE,0,NO ERROR,0.000000,0.000000,4000.000000,4000.000000,Speed,Speed,-1.400000,3.120000,2.550000,3.000000,103.000000,1,0,-0.001550,0.000992,0,0.000000,0.000000,0.000000,-0.115921,0.315628,0.000000,-0.009000,-0.011000,0.002000,FlatInitial
01:48:54.786 PM 02/14/2016,Teleop Enabled,0,FALSE,0,NO ERROR,0.000000,0.000000,4000.000000,4000.000000,Speed,Speed,-0.230000,2.790000,2.450000,3.000000,104.000000,1,0,-0.001550,0.000992,0,0.003876,-0.035782,0.000000,-0.115875,0.314590,0.000000,0.014000,-0.022000,0.029000,FlatInitial
01:48:54.886 PM 02/14/2016,Teleop Enabled,0,FALSE,0,NO ERROR,0.000000,0.000000,4000.000000,4000.000000,Speed,Speed,-0.230000,2.790000,2.450000,3.000000,103.000000,1,0,-0.001550,0.000992,0,0.000000,-0.082916,0.000000,-0.115707,0.311234,0.000000,0.010000,-0.055000,-0.003000,FlatInitial
01:48:54.986 PM 02/14/2016,Teleop Enabled,0,FALSE,0,NO ERROR,0.000000,0.000000,4000.000000,4000.000000,Speed,Speed,-0.160000,2.600000,2.300000,3.000000,103.000000,1,0,-0.001550,0.000992,0,0.000000,0.038025,0.000000,-0.115707,0.311966,0.000000,-0.002000,0.000000,0.011000,FlatInitial
01:48:55.089 PM 02/14/2016,Teleop Enabled,0,FALSE,0,NO ERROR,0.000000,0.000000,4000.000000,4000.000000,Speed,Speed,-0.580000,2.260000,2.640000,3.000000,103.000000,1,0,-0.001550,0.000992,0,0.000000,0.000000,0.000000,-0.115707,0.313995,0.000000,0.007000,0.088000,0.016000,FlatInitial
01:48:55.190 PM 02/14/2016,Teleop Enabled,0,FALSE,0,NO ERROR,0.000000,0.000000,4000.000000,4000.000000,Speed,Speed,-0.870000,1.630000,2.930000,3.000000,100.000000,1,0,-0.001550,0.000992,0,0.000000,0.000000,0.000000,-0.115921,0.314285,0.000000,-0.018000,0.031000,-0.023000,FlatInitial
01:48:55.290 PM 02/14/2016,Teleop Enabled,0,FALSE,0,NO ERROR,0.000000,0.000000,4000.000000,4000.000000,Speed,Speed,-0.900000,2.140000,2.820000,3.000000,100.000000,1,0,-0.001550,0.000992,0,0.000000,0.000000,0.000000,-0.115921,0.314285,0.000000,0.010000,0.000000,-0.012000,FlatInitial
01:48:55.391 PM 02/14/2016,Teleop Enabled,0,FALSE,0,NO ERROR,0.000000,0.000000,4000.000000,4000.000000,Speed,Speed,-0.900000,1.960000,2.870000,3.000000,102.000000,1,0,-0.001550,0.000992,0,0.000000,0.000000,0.000000,-0.115921,0.314285,0.000000,0.000000,-0.001000,0.002000,FlatInitial
01:48:55.492 PM 02/14/2016,Teleop Enabled,0,FALSE,0,NO ERROR,0.000000,0.000000,4000.000000,4000.000000,Speed,Speed,-0.900000,1.960000,2.870000,3.000000,100.000000,1,0,-0.001550,0.000992,0,0.000000,0.000000,0.000000,-0.115921,0.314285,0.000000,0.000000,-0.002000,-0.013000,FlatInitial
01:48:55.593 PM 02/14/2016,Teleop Enabled,0,FALSE,0,NO ERROR,0.000000,0.000000,4000.000000,4000.000000,Speed,Speed,-0.900000,1.680000,2.950000,3.000000,101.000000,1,0,-0.001550,0.000992,0,0.000000,0.000000,0.000000,-0.115921,0.314285,0.000000,-0.004000,-0.003000,-0.001000,FlatInitial
01:48:55.694 PM 02/14/2016,Teleop Enabled,0,FALSE,0,NO ERROR,0.000000,0.000000,4000.000000,4000.000000,Speed,Speed,-0.900000,1.990000,2.840000,3.000000,101.000000,1,0,-0.001550,0.000992,0,0.000000,0.000000,0.000000,-0.115921,0.314285,0.000000,-0.004000,0.003000,0.037000,FlatInitial
01:48:55.795 PM 02/14/2016,Teleop Enabled,0,FALSE,0,NO ERROR,0.000000,0.000000,4000.000000,4000.000000,Speed,Speed,-0.920000,2.200000,2.770000,3.000000,101.000000,1,0,-0.001550,0.000992,0,0.000000,0.000000,0.000000,-0.115921,0.314285,0.000000,0.006000,-0.006000,0.020000,FlatInitial
01:48:55.895 PM 02/14/2016,Teleop Enabled,0,FALSE,0,NO ERROR,0.000000,0.000000,4000.000000,4000.000000,Speed,Speed,-0.920000,1.980000,2.840000,3.000000,103.000000,1,0,-0.001550,0.000992,0,0.000000,0.000000,0.000000,-0.115921,0.314285,0.000000,0.004000,-0.002000,0.011000,FlatInitial
01:48:55.996 PM 02/14/2016,Teleop Enabled,0,FALSE,0,NO ERROR,0.000000,0.000000,4000.000000,4000.000000,Speed,Speed,-0.910000,1.860000,2.880000,3.000000,100.000000,1,0,-0.001550,0.000992,0,0.000000,0.000000,0.000000,-0.115921,0.314285,0.000000,-0.004000,-0.003000,0.004000,FlatInitial
01:48:56.096 PM 02/14/2016,Teleop Enabled,0,FALSE,0,NO ERROR,0.000000,0.000000,4000.000000,4000.000000,Speed,Speed,-0.920000,2.040000,2.820000,3.000000,102.000000,1,0,-0.001550,0.000992,0,0.000000,0.000000,0.000000,-0.115921,0.314285,0.000000,0.000000,-0.002000,0.007000,FlatInitial
01:48:56.197 PM 02/14/2016,Teleop Enabled,0,FALSE,0,NO ERROR,0.000000,0.000000,4000.000000,4000.000000,Speed,Speed,-0.930000,2.220000,2.750000,3.000000,105.000000,1,0,-0.001550,0.000992,0,0.000000,0.000000,0.000000,-0.115921,0.314285,0.000000,0.000000,0.000000,0.013000,FlatInitial
01:48:56.298 PM 02/14/2016,Teleop Enabled,0,FALSE,0,NO ERROR,0.000000,0.000000,4000.000000,4000.000000,Speed,Speed,-0.930000,2.140000,2.770000,3.000000,102.000000,1,0,-0.001550,0.000992,0,0.000000,0.000000,0.000000,-0.115921,0.314285,0.000000,0.002000,0.005000,-0.001000,FlatInitial
01:48:56.398 PM 02/14/2016,Teleop Enabled,0,FALSE,0,NO ERROR,0.000000,0.000000,4000.000000,4000.000000,Speed,Speed,-0.930000,2.010000,2.810000,3.000000,103.000000,1,0,-0.001550,0.000992,0,0.000000,0.000000,0.000000,-0.115921,0.314285,0.000000,0.001000,0.001000,-0.005000,FlatInitial
01:48:56.499 PM 02/14/2016,Teleop Enabled,0,FALSE,0,NO ERROR,0.000000,0.000000,4000.000000,4000.000000,Speed,Speed,-0.940000,2.090000,2.790000,3.000000,102.000000,1,0,-0.001550,0.000992,0,0.000000,0.000000,0.000000,-0.115921,0.314285,0.000000,0.001000,0.000000,0.003000,FlatInitial
01:48:56.599 PM 02/14/2016,Teleop Enabled,0,FALSE,0,NO ERROR,0.000000,0.000000,4000.000000,4000.000000,Speed,Speed,-0.940000,2.160000,2.780000,3.000000,101.000000,1,0,-0.001550,0.000992,0,0.000000,0.000000,0.000000,-0.115921,0.314285,0.000000,0.000000,-0.001000,-0.006000,FlatInitial
01:48:56.700 PM 02/14/2016,Teleop Enabled,0,FALSE,0,NO ERROR,0.000000,0.000000,4000.000000,4000.000000,Speed,Speed,-0.950000,2.100000,2.780000,3.000000,104.000000,1,0,-0.001550,0.000992,0,0.000000,0.000000,0.000000,-0.115921,0.314285,0.000000,-0.003000,-0.002000,-0.002000,FlatInitial
01:48:56.799 PM 02/14/2016,Teleop Enabled,0,FALSE,0,NO ERROR,0.000000,0.000000,4000.000000,4000.000000,Speed,Speed,-0.950000,2.130000,2.780000,3.000000,101.000000,1,0,-0.001550,0.000992,0,0.000000,0.000000,0.000000,-0.115921,0.314285,0.000000,0.004000,-0.004000,0.001000,FlatInitial
01:48:56.900 PM 02/14/2016,Teleop Enabled,0,FALSE,0,NO ERROR,0.000000,0.000000,4000.000000,4000.000000,Speed,Speed,-0.950000,2.150000,2.760000,3.000000,102.000000,1,0,-0.001550,0.000992,0,0.000000,0.000000,0.000000,-0.115921,0.314285,0.000000,0.002000,-0.001000,0.006000,FlatInitial
01:48:57.001 PM 02/14/2016,Teleop Enabled,0,FALSE,0,NO ERROR,0.000000,0.000000,4000.000000,4000.000000,Speed,Speed,-0.960000,2.130000,2.770000,3.000000,101.000000,1,0,-0.001550,0.000992,0,0.000000,0.000000,0.000000,-0.115921,0.314285,0.000000,0.000000,0.000000,0.003000,FlatInitial
01:48:57.101 PM 02/14/2016,Teleop Enabled,0,FALSE,0,NO ERROR,0.000000,0.000000,4000.000000,4000.000000,Speed,Speed,-0.960000,2.180000,2.750000,3.000000,101.000000,1,0,-0.001550,0.000992,0,0.000000,0.000000,0.000000,-0.115921,0.314285,0.000000,0.000000,0.000000,0.001000,FlatInitial
01:48:57.201 PM 02/14/2016,Teleop Enabled,0,FALSE,0,NO ERROR,0.000000,0.000000,4000.000000,4000.000000,Speed,Speed,-0.960000,2.190000,2.740000,3.000000,102.000000,1,0,-0.001550,0.000992,0,0.000000,0.000000,0.000000,-0.115921,0.314285,0.000000,0.001000,0.000000,0.000000,FlatInitial
01:48:57.301 PM 02/14/2016,Teleop Enabled,0,FALSE,0,NO ERROR,0.000000,0.000000,4000.000000,4000.000000,Speed,Speed,-0.960000,2.180000,2.740000,3.000000,102.000000,1,0,-0.001550,0.000992,0,0.000000,0.000000,0.000000,-0.115921,0.314285,0.000000,0.000000,-0.001000,-0.003000,FlatInitial
01:48:57.401 PM 02/14/2016,Teleop Enabled,0,FALSE,0,NO ERROR,0.000000,0.000000,4000.000000,4000.000000,Speed,Speed,-0.970000,2.200000,2.730000,3.000000,101.000000,1,0,-0.001550,0.000992,0,0.000000,0.000000,0.000000,-0.115921,0.314285,0.000000,-0.001000,0.002000,0.001000,FlatInitial
01:48:57.502 PM 02/14/2016,Teleop Enabled,0,FALSE,0,NO ERROR,0.000000,0.000000,4000.000000,4000.000000,Speed,Speed,-0.970000,2.210000,2.730000,3.000000,102.000000,1,0,-0.001550,0.000992,0,0.000000,0.000000,0.000000,-0.115921,0.314285,0.000000,0.000000,-0.001000,-0.004000,FlatInitial
01:48:57.603 PM 02/14/2016,Teleop Enabled,0,FALSE,0,NO ERROR,0.000000,0.000000,4000.000000,4000.000000,Speed,Speed,-0.980000,2.200000,2.740000,3.000000,104.000000,1,0,-0.001550,0.000992,0,0.000000,0.000000,0.000000,-0.115921,0.314285,0.000000,-0.001000,0.000000,0.000000,FlatInitial
01:48:57.704 PM 02/14/2016,Teleop Enabled,0,FALSE,0,NO ERROR,0.000000,0.000000,4000.000000,4000.000000,Speed,Speed,-0.980000,2.210000,2.730000,3.000000,108.000000,1,0,-0.001550,0.000992,0,0.000000,0.000000,0.000000,-0.115921,0.314285,0.000000,-0.003000,-0.001000,0.004000,FlatInitial
01:48:57.806 PM 02/14/2016,Teleop Enabled,0,FALSE,0,NO ERROR,0.000000,0.000000,4000.000000,4000.000000,Speed,Speed,-0.990000,2.210000,2.730000,3.000000,102.000000,1,0,-0.001550,0.000992,0,0.000000,0.000000,0.000000,-0.115921,0.314285,0.000000,0.000000,0.000000,-0.001000,FlatInitial
01:48:57.909 PM 02/14/2016,Teleop Enabled,0,FALSE,0,NO ERROR,0.000000,0.000000,4000.000000,4000.000000,Speed,Speed,-0.990000,2.200000,2.730000,3.000000,105.000000,1,0,-0.001550,0.000992,0,0.000000,0.000000,0.000000,-0.115921,0.314285,0.000000,0.000000,0.000000,0.001000,FlatInitial
01:48:58.009 PM 02/14/2016,Teleop Enabled,0,FALSE,0,NO ERROR,0.000000,0.000000,4000.000000,4000.000000,Speed,Speed,-0.990000,2.210000,2.730000,3.000000,104.000000,1,0,-0.001550,0.000992,0,0.000000,0.000000,0.000000,-0.115921,0.314285,0.000000,0.000000,0.000000,0.000000,FlatInitial
01:48:58.109 PM 02/14/2016,Teleop Enabled,0,FALSE,0,NO ERROR,0.000000,0.000000,4000.000000,4000.000000,Speed,Speed,-0.990000,2.220000,2.730000,3.000000,101.000000,1,0,-0.001550,0.000992,0,0.000000,0.000000,0.000000,-0.115921,0.314285,0.000000,0.001000,0.003000,0.002000,FlatInitial
01:48:58.210 PM 02/14/2016,Teleop Enabled,0,FALSE,0,NO ERROR,0.000000,0.000000,4000.000000,4000.000000,Speed,Speed,-0.990000,2.210000,2.740000,3.000000,102.000000,1,0,-0.001550,0.000992,0,0.000000,0.000000,0.000000,-0.115921,0.314285,0.000000,-0.002000,0.000000,0.000000,FlatInitial
01:48:58.312 PM 02/14/2016,Teleop Enabled,0,FALSE,0,NO ERROR,0.000000,0.000000,4000.000000,4000.000000,Speed,Speed,-1.000000,2.220000,2.730000,3.000000,101.000000,1,0,-0.001550,0.000992,0,0.000000,0.000000,0.000000,-0.115921,0.314285,0.000000,0.000000,0.001000,0.003000,FlatInitial
01:48:58.412 PM 02/14/2016,Teleop Enabled,0,FALSE,0,NO ERROR,0.000000,0.000000,4000.000000,4000.000000,Speed,Speed,-1.010000,2.220000,2.730000,3.000000,101.000000,1,0,-0.001550,0.000992,0,0.000000,0.000000,0.000000,-0.115921,0.314285,0.000000,0.000000,-0.002000,0.000000,FlatInitial
01:48:58.513 PM 02/14/2016,Teleop Enabled,0,FALSE,0,NO ERROR,0.000000,0.000000,4000.000000,4000.000000,Speed,Speed,-1.010000,2.210000,2.730000,3.000000,101.000000,1,0,-0.001550,0.000992,0,0.000000,0.000000,0.000000,-0.115921,0.314285,0.000000,-0.002000,0.003000,0.000000,FlatInitial
01:48:58.613 PM 02/14/2016,Teleop Enabled,0,FALSE,0,NO ERROR,0.000000,0.000000,4000.000000,4000.000000,Speed,Speed,-1.020000,2.210000,2.730000,3.000000,101.000000,1,0,-0.001550,0.000992,0,0.000000,0.000000,0.000000,-0.115921,0.314285,0.000000,0.000000,0.000000,0.001000,FlatInitial
01:48:58.714 PM 02/14/2016,Teleop Enabled,0,FALSE,0,NO ERROR,0.000000,0.000000,4000.000000,4000.000000,Speed,Speed,-1.020000,2.210000,2.730000,3.000000,100.000000,1,0,-0.001550,0.000992,0,0.000000,0.000000,0.000000,-0.115921,0.314285,0.000000,0.000000,0.000000,-0.001000,FlatInitial
01:48:58.814 PM 02/14/2016,Teleop Enabled,0,FALSE,0,NO ERROR,0.000000,0.000000,4000.000000,4000.000000,Speed,Speed,-1.020000,2.210000,2.730000,3.000000,101.000000,1,0,-0.001550,0.000992,0,0.000000,0.000000,0.000000,-0.115921,0.314285,0.000000,0.000000,0.000000,0.000000,FlatInitial
01:48:58.914 PM 02/14/2016,Teleop Enabled,0,FALSE,0,NO ERROR,0.000000,0.000000,4000.000000,4000.000000,Speed,Speed,-1.020000,2.210000,2.730000,3.000000,101.000000,1,0,-0.001550,0.000992,0,0.000000,0.000000,0.000000,-0.115921,0.314285,0.000000,-0.001000,-0.001000,0.000000,FlatInitial
01:48:59.015 PM 02/14/2016,Teleop Enabled,0,FALSE,0,NO ERROR,0.000000,0.000000,4000.000000,4000.000000,Speed,Speed,-1.020000,2.210000,2.730000,3.000000,102.000000,1,0,-0.001550,0.000992,0,0.000000,0.000000,0.000000,-0.115921,0.314285,0.000000,0.000000,-0.001000,0.005000,FlatInitial
01:48:59.115 PM 02/14/2016,Teleop Enabled,0,FALSE,0,NO ERROR,0.000000,0.000000,4000.000000,4000.000000,Speed,Speed,-1.020000,2.210000,2.730000,3.000000,101.000000,1,0,-0.001550,0.000992,0,0.000000,0.000000,0.000000,-0.115921,0.314285,0.000000,0.002000,0.000000,0.006000,FlatInitial
01:48:59.215 PM 02/14/2016,Teleop Enabled,0,FALSE,0,NO ERROR,0.000000,0.000000,4000.000000,4000.000000,Speed,Speed,-1.030000,2.210000,2.730000,3.000000,103.000000,1,0,-0.001550,0.000992,0,0.000000,0.000000,0.000000,-0.115921,0.314285,0.000000,0.002000,0.000000,0.000000,FlatInitial
01:48:59.316 PM 02/14/2016,Teleop Enabled,0,FALSE,0,NO ERROR,0.000000,0.000000,4000.000000,4000.000000,Speed,Speed,-1.030000,2.210000,2.730000,3.000000,104.000000,1,0,-0.001550,0.000992,0,0.000000,0.000000,0.000000,-0.115921,0.314285,0.000000,-0.001000,0.002000,0.002000,FlatInitial
01:48:59.416 PM 02/14/2016,Teleop Enabled,0,FALSE,0,NO ERROR,0.000000,0.000000,4000.000000,4000.000000,Speed,Speed,-1.030000,2.210000,2.730000,3.000000,101.000000,1,0,-0.001550,0.000992,0,0.000000,0.000000,0.000000,-0.115921,0.314285,0.000000,0.000000,0.002000,0.001000,FlatInitial
01:48:59.516 PM 02/14/2016,Teleop Enabled,0,FALSE,0,NO ERROR,0.000000,0.000000,4000.000000,4000.000000,Speed,Speed,-1.040000,2.210000,2.730000,3.000000,101.000000,1,0,-0.001550,0.000992,0,0.000000,0.000000,0.000000,-0.115921,0.314285,0.000000,0.000000,-0.002000,0.000000,FlatInitial
01:48:59.617 PM 02/14/2016,Teleop Enabled,0,FALSE,0,NO ERROR,0.000000,0.000000,4000.000000,4000.000000,Speed,Speed,-1.040000,2.220000,2.720000,3.000000,101.000000,1,0,-0.001550,0.000992,0,0.000000,0.000000,0.000000,-0.115921,0.314285,0.000000,0.000000,0.000000,0.005000,FlatInitial
01:48:59.718 PM 02/14/2016,Teleop Enabled,0,FALSE,0,NO ERROR,0.000000,0.000000,4000.000000,4000.000000,Speed,Speed,-1.040000,2.210000,2.730000,3.000000,102.000000,1,0,-0.001550,0.000992,0,0.000000,0.000000,0.000000,-0.115921,0.314285,0.000000,0.000000,0.000000,0.001000,FlatInitial
01:48:59.818 PM 02/14/2016,Teleop Enabled,0,FALSE,0,NO ERROR,0.000000,0.000000,4000.000000,4000.000000,Speed,Speed,-1.040000,2.220000,2.720000,3.000000,102.000000,1,0,-0.001550,0.000992,0,0.000000,0.000000,0.000000,-0.115921,0.314285,0.000000,0.000000,-0.002000,0.003000,FlatInitial
01:48:59.922 PM 02/14/2016,Teleop Enabled,0,FALSE,0,NO ERROR,0.000000,0.000000,4000.000000,4000.000000,Speed,Speed,-1.040000,2.220000,2.720000,3.000000,103.000000,1,0,-0.001550,0.000992,0,0.000000,0.000000,0.000000,-0.115921,0.314285,0.000000,0.000000,0.000000,-0.002000,FlatInitial
01:49:00.022 PM 02/14/2016,Teleop Enabled,0,FALSE,0,NO ERROR,0.000000,0.000000,4000.000000,4000.000000,Speed,Speed,-1.050000,2.220000,2.730000,3.000000,103.000000,1,0,-0.001550,0.000992,0,0.000000,0.000000,0.000000,-0.115921,0.314285,0.000000,-0.001000,0.001000,0.001000,FlatInitial
01:49:00.122 PM 02/14/2016,Teleop Enabled,0,FALSE,0,NO ERROR,0.000000,0.000000,4000.000000,4000.000000,Speed,Speed,-1.050000,2.220000,2.730000,3.000000,102.000000,1,0,-0.001550,0.000992,0,0.000000,0.000000,0.000000,-0.115921,0.314285,0.000000,-0.001000,0.003000,0.000000,FlatInitial
01:49:00.222 PM 02/14/2016,Teleop Enabled,0,FALSE,0,NO ERROR,0.000000,0.000000,4000.000000,4000.000000,Speed,Speed,-1.060000,2.230000,2.730000,3.000000,103.000000,1,0,-0.001550,0.000992,0,0.000000,0.000000,0.000000,-0.115921,0.314285,0.000000,0.001000,0.000000,0.001000,FlatInitial
01:49:00.322 PM 02/14/2016,Teleop Enabled,0,FALSE,0,NO ERROR,0.000000,0.000000,4000.000000,4000.000000,Speed,Speed,-1.060000,2.220000,2.730000,3.000000,102.000000,1,0,-0.001550,0.000992,0,0.000000,0.000000,0.000000,-0.115921,0.314285,0.000000,0.000000,0.000000,0.000000,FlatInitial
01:49:00.423 PM 02/14/2016,Teleop Enabled,0,FALSE,0,NO ERROR,0.000000,0.000000,4000.000000,4000.000000,Speed,Speed,-1.070000,2.230000,2.720000,3.000000,103.000000,1,0,-0.001550,0.000992,0,0.000000,0.000000,0.000000,-0.115921,0.314285,0.000000,-0.002000,-0.001000,-0.001000,FlatInitial
01:49:00.523 PM 02/14/2016,Teleop Enabled,0,FALSE,0,NO ERROR,0.000000,0.000000,4000.000000,4000.000000,Speed,Speed,-1.070000,2.230000,2.720000,3.000000,103.000000,1,0,-0.001550,0.000992,0,0.000000,0.000000,0.000000,-0.115921,0.314285,0.000000,0.002000,-0.001000,0.001000,FlatInitial
01:49:00.622 PM 02/14/2016,Teleop Enabled,0,FALSE,0,NO ERROR,0.000000,0.000000,4000.000000,4000.000000,Speed,Speed,-1.070000,2.230000,2.720000,3.000000,102.000000,1,0,-0.001550,0.000992,0,0.000000,0.000000,0.000000,-0.115921,0.314285,0.000000,0.002000,-0.003000,-0.003000,FlatInitial
01:49:00.723 PM 02/14/2016,Teleop Enabled,0,FALSE,0,NO ERROR,0.000000,0.000000,4000.000000,4000.000000,Speed,Speed,-1.070000,2.230000,2.720000,3.000000,102.000000,1,0,-0.001550,0.000992,0,0.000000,0.000000,0.000000,-0.115921,0.314285,0.000000,0.000000,0.001000,0.001000,FlatInitial
01:49:00.824 PM 02/14/2016,Teleop Enabled,0,FALSE,0,NO ERROR,0.000000,0.000000,4000.000000,4000.000000,Speed,Speed,-1.080000,2.230000,2.720000,3.000000,101.000000,1,0,-0.001550,0.000992,0,0.000000,0.000000,0.000000,-0.115921,0.314285,0.000000,-0.004000,-0.001000,-0.001000,FlatInitial
01:49:00.924 PM 02/14/2016,Teleop Enabled,0,FALSE,0,NO ERROR,0.000000,0.000000,4000.000000,4000.000000,Speed,Speed,-1.080000,2.220000,2.720000,3.000000,102.000000,1,0,-0.001550,0.000992,0,0.000000,0.000000,0.000000,-0.115921,0.314285,0.000000,0.000000,-0.002000,0.000000,FlatInitial
01:49:01.024 PM 02/14/2016,Teleop Enabled,0,FALSE,0,NO ERROR,0.000000,0.000000,9000.000000,9000.000000,Speed,Speed,-1.090000,2.220000,2.730000,4.000000,102.000000,1,0,-0.001550,0.000992,0,0.000000,0.000000,0.000000,-0.115921,0.314285,0.000000,0.002000,0.000000,-0.001000,FlatInitial
01:49:01.125 PM 02/14/2016,Teleop Enabled,0,FALSE,0,NO ERROR,0.000000,0.000000,9000.000000,9000.000000,Speed,Speed,-1.090000,2.230000,2.730000,4.000000,104.000000,1,0,-0.001550,0.000992,0,0.000000,0.000000,0.000000,-0.115921,0.314285,0.000000,0.001000,-0.006000,-0.008000,FlatInitial
01:49:01.225 PM 02/14/2016,Teleop Enabled,0,FALSE,0,NO ERROR,0.000000,0.000000,9000.000000,9000.000000,Speed,Speed,-1.090000,2.150000,2.760000,4.000000,100.000000,1,0,-0.001550,0.000992,0,0.000000,0.000000,0.000000,-0.115921,0.314285,0.000000,-0.004000,0.009000,-0.002000,FlatInitial
01:49:01.328 PM 02/14/2016,Teleop Enabled,0,FALSE,0,NO ERROR,0.000000,0.000000,9000.000000,9000.000000,Speed,Speed,-1.100000,2.210000,2.700000,4.000000,101.000000,1,0,-0.001550,0.000992,0,0.000000,0.000000,0.000000,-0.115921,0.314285,0.000000,0.000000,-0.007000,-0.017000,FlatInitial
01:49:01.428 PM 02/14/2016,Teleop Enabled,0,FALSE,0,NO ERROR,0.000000,0.000000,9000.000000,9000.000000,Speed,Speed,-1.100000,2.570000,2.640000,4.000000,102.000000,1,0,-0.001550,0.000992,0,0.000000,0.000000,0.000000,-0.115921,0.314285,0.000000,0.011000,0.015000,0.032000,FlatInitial
01:49:01.530 PM 02/14/2016,Teleop Enabled,0,FALSE,0,NO ERROR,0.000000,0.000000,9000.000000,9000.000000,Speed,Speed,-1.110000,2.260000,2.670000,4.000000,103.000000,1,0,-0.001550,0.000992,0,0.000000,0.000000,0.000000,-0.115921,0.314285,0.000000,-0.008000,-0.002000,-0.003000,FlatInitial
01:49:01.632 PM 02/14/2016,Teleop Enabled,0,FALSE,0,NO ERROR,0.000000,0.000000,9000.000000,9000.000000,Speed,Speed,-1.100000,2.190000,2.740000,4.000000,101.000000,1,0,-0.001550,0.000992,0,0.000000,0.000000,0.000000,-0.115921,0.314285,0.000000,-0.003000,0.000000,-0.002000,FlatInitial
01:49:01.732 PM 02/14/2016,Teleop Enabled,0,FALSE,0,NO ERROR,0.000000,0.000000,9000.000000,9000.000000,Speed,Speed,-1.100000,2.320000,2.700000,4.000000,102.000000,1,0,-0.001550,0.000992,0,0.000000,0.000000,0.000000,-0.115921,0.314285,0.000000,0.001000,0.000000,0.013000,FlatInitial
01:49:01.832 PM 02/14/2016,Teleop Enabled,0,FALSE,0,NO ERROR,0.000000,0.000000,9000.000000,9000.000000,Speed,Speed,-1.110000,2.410000,2.660000,4.000000,102.000000,1,0,-0.001550,0.000992,0,0.000000,0.000000,0.000000,-0.115921,0.314285,0.000000,0.010000,0.003000,0.048000,FlatInitial
01:49:01.932 PM 02/14/2016,Teleop Enabled,0,FALSE,0,NO ERROR,0.000000,0.000000,9000.000000,9000.000000,Speed,Speed,-1.120000,2.230000,2.710000,4.000000,101.000000,1,0,-0.001550,0.000992,0,0.000000,0.000000,0.000000,-0.115921,0.314285,0.000000,-0.001000,0.004000,-0.021000,FlatInitial
01:49:02.032 PM 02/14/2016,Teleop Enabled,0,FALSE,0,NO ERROR,0.000000,0.000000,9000.000000,9000.000000,Speed,Speed,-1.120000,2.270000,2.700000,4.000000,101.000000,1,0,-0.001550,0.000992,0,0.000000,0.000000,0.000000,-0.115921,0.314285,0.000000,0.000000,-0.005000,-0.007000,FlatInitial
01:49:02.133 PM 02/14/2016,Teleop Enabled,0,FALSE,0,NO ERROR,0.000000,0.000000,9000.000000,9000.000000,Speed,Speed,-1.120000,2.380000,2.670000,4.000000,103.000000,1,0,-0.001550,0.000992,0,0.000000,0.000000,0.000000,-0.115921,0.314285,0.000000,0.000000,-0.006000,0.010000,FlatInitial
01:49:02.233 PM 02/14/2016,Teleop Enabled,0,FALSE,0,NO ERROR,0.000000,0.000000,9000.000000,9000.000000,Speed,Speed,-1.120000,2.320000,2.690000,4.000000,102.000000,1,0,-0.001550,0.000992,0,0.000000,0.000000,0.000000,-0.115921,0.314285,0.000000,-0.002000,0.001000,0.010000,FlatInitial
01:49:02.333 PM 02/14/2016,Teleop Enabled,0,FALSE,0,NO ERROR,0.000000,0.000000,9000.000000,9000.000000,Speed,Speed,-1.120000,2.300000,2.700000,4.000000,102.000000,1,0,-0.001550,0.000992,0,0.000000,0.000000,0.000000,-0.115921,0.314285,0.000000,0.002000,0.003000,-0.004000,FlatInitial
01:49:02.433 PM 02/14/2016,Teleop Enabled,0,FALSE,0,NO ERROR,0.000000,0.000000,9000.000000,9000.000000,Speed,Speed,-1.130000,2.360000,2.680000,4.000000,101.000000,1,0,-0.001550,0.000992,0,0.000000,0.000000,0.000000,-0.115921,0.314285,0.000000,0.003000,-0.002000,0.000000,FlatInitial
01:49:02.535 PM 02/14/2016,Teleop Enabled,0,FALSE,0,NO ERROR,0.000000,0.000000,9000.000000,9000.000000,Speed,Speed,-1.130000,2.340000,2.700000,4.000000,101.000000,1,0,-0.001550,0.000992,0,0.000000,0.000000,0.000000,-0.115921,0.314285,0.000000,-0.001000,0.000000,-0.004000,FlatInitial
01:49:02.635 PM 02/14/2016,Teleop Enabled,0,FALSE,0,NO ERROR,0.000000,0.000000,9000.000000,9000.000000,Speed,Speed,-1.130000,2.310000,2.700000,4.000000,101.000000,1,0,-0.001550,0.000992,0,0.000000,0.000000,0.000000,-0.115921,0.314285,0.000000,-0.002000,-0.002000,0.004000,FlatInitial
01:49:02.735 PM 02/14/2016,Teleop Enabled,0,FALSE,0,NO ERROR,0.000000,0.000000,9000.000000,9000.000000,Speed,Speed,-1.130000,2.340000,2.690000,4.000000,101.000000,1,0,-0.001550,0.000992,0,0.000000,0.000000,0.000000,-0.115921,0.314285,0.000000,0.001000,-0.001000,0.005000,FlatInitial
01:49:02.835 PM 02/14/2016,Teleop Enabled,0,FALSE,0,NO ERROR,0.000000,0.000000,9000.000000,9000.000000,Speed,Speed,-1.140000,2.320000,2.690000,4.000000,100.000000,1,0,-0.001550,0.000992,0,0.000000,0.000000,0.000000,-0.115921,0.314285,0.000000,0.000000,0.001000,0.001000,FlatInitial
01:49:02.935 PM 02/14/2016,Teleop Enabled,0,FALSE,0,NO ERROR,0.000000,0.000000,9000.000000,9000.000000,Speed,Speed,-1.140000,2.330000,2.690000,4.000000,100.000000,1,0,-0.001550,0.000992,0,0.000000,0.000000,0.000000,-0.115921,0.314285,0.000000,-0.001000,-0.001000,-0.002000,FlatInitial
01:49:03.035 PM 02/14/2016,Teleop Enabled,0,FALSE,0,NO ERROR,0.000000,0.000000,9000.000000,9000.000000,Speed,Speed,-1.140000,2.330000,2.690000,4.000000,101.000000,1,0,-0.001550,0.000992,0,0.000000,0.000000,0.000000,-0.115921,0.314285,0.000000,0.000000,0.002000,0.000000,FlatInitial
01:49:03.134 PM 02/14/2016,Teleop Enabled,0,FALSE,0,NO ERROR,0.000000,0.000000,9000.000000,9000.000000,Speed,Speed,-1.150000,2.320000,2.690000,4.000000,101.000000,1,0,-0.001550,0.000992,0,0.000000,0.000000,0.000000,-0.115921,0.314285,0.000000,0.000000,0.000000,0.005000,FlatInitial
01:49:03.234 PM 02/14/2016,Teleop Enabled,0,FALSE,0,NO ERROR,0.000000,0.000000,9000.000000,9000.000000,Speed,Speed,-1.150000,2.320000,2.690000,4.000000,102.000000,1,0,-0.001550,0.000992,0,0.000000,0.000000,0.000000,-0.115921,0.314285,0.000000,0.001000,0.000000,0.004000,FlatInitial
01:49:03.335 PM 02/14/2016,Teleop Enabled,0,FALSE,0,NO ERROR,0.000000,0.000000,9000.000000,9000.000000,Speed,Speed,-1.150000,2.340000,2.690000,4.000000,101.000000,1,0,-0.001550,0.000992,0,0.000000,0.000000,0.000000,-0.115921,0.314285,0.000000,-0.001000,0.000000,0.002000,FlatInitial
01:49:03.434 PM 02/14/2016,Teleop Enabled,0,FALSE,0,NO ERROR,0.000000,0.000000,9000.000000,9000.000000,Speed,Speed,-1.150000,2.330000,2.680000,4.000000,102.000000,1,0,-0.001550,0.000992,0,0.000000,0.000000,0.000000,-0.115921,0.314285,0.000000,0.002000,0.002000,0.001000,FlatInitial
01:49:03.534 PM 02/14/2016,Teleop Enabled,0,FALSE,0,NO ERROR,0.000000,0.000000,9000.000000,9000.000000,Speed,Speed,-1.160000,2.330000,2.690000,4.000000,101.000000,1,0,-0.001550,0.000992,0,0.000000,0.000000,0.000000,-0.115921,0.314285,0.000000,-0.001000,0.000000,-0.001000,FlatInitial
01:49:03.635 PM 02/14/2016,Teleop Enabled,0,FALSE,0,NO ERROR,0.000000,0.000000,9000.000000,9000.000000,Speed,Speed,-1.160000,2.340000,2.680000,4.000000,101.000000,1,0,-0.001550,0.000992,0,0.000000,0.000000,0.000000,-0.115921,0.314285,0.000000,0.002000,0.000000,0.004000,FlatInitial
01:49:03.736 PM 02/14/2016,Teleop Enabled,0,FALSE,0,NO ERROR,0.000000,0.000000,9000.000000,9000.000000,Speed,Speed,-1.160000,2.330000,2.680000,4.000000,102.000000,1,0,-0.001550,0.000992,0,0.000000,0.000000,0.000000,-0.115921,0.314285,0.000000,0.002000,0.000000,-0.001000,FlatInitial
01:49:03.836 PM 02/14/2016,Teleop Enabled,0,FALSE,0,NO ERROR,0.000000,0.000000,9000.000000,9000.000000,Speed,Speed,-1.170000,2.340000,2.680000,4.000000,101.000000,1,0,-0.001550,0.000992,0,0.000000,0.000000,0.000000,-0.115921,0.314285,0.000000,0.002000,0.000000,0.002000,FlatInitial
01:49:03.936 PM 02/14/2016,Teleop Enabled,0,FALSE,0,NO ERROR,0.000000,0.000000,9000.000000,9000.000000,Speed,Speed,-1.170000,2.330000,2.670000,4.000000,104.000000,1,0,-0.001550,0.000992,0,0.000000,0.000000,0.000000,-0.115921,0.314285,0.000000,0.000000,-0.001000,0.002000,FlatInitial
01:49:04.036 PM 02/14/2016,Teleop Enabled,0,FALSE,0,NO ERROR,0.000000,0.000000,9000.000000,9000.000000,Speed,Speed,-1.180000,2.330000,2.680000,4.000000,100.000000,1,0,-0.001550,0.000992,0,0.000000,0.000000,0.000000,-0.115921,0.314285,0.000000,0.003000,0.000000,0.000000,FlatInitial
01:49:04.137 PM 02/14/2016,Teleop Enabled,0,FALSE,0,NO ERROR,0.000000,0.000000,9000.000000,9000.000000,Speed,Speed,-1.180000,2.330000,2.670000,4.000000,102.000000,1,0,-0.001550,0.000992,0,0.000000,0.000000,0.000000,-0.115921,0.314285,0.000000,0.000000,0.000000,0.002000,FlatInitial
01:49:04.237 PM 02/14/2016,Teleop Enabled,0,FALSE,0,NO ERROR,0.000000,0.000000,9000.000000,9000.000000,Speed,Speed,-1.180000,2.330000,2.670000,4.000000,103.000000,1,0,-0.001550,0.000992,0,0.000000,0.000000,0.000000,-0.115921,0.314285,0.000000,0.000000,0.001000,0.003000,FlatInitial
01:49:04.338 PM 02/14/2016,Teleop Enabled,0,FALSE,0,NO ERROR,0.000000,0.000000,9000.000000,9000.000000,Speed,Speed,-1.180000,2.330000,2.670000,4.000000,102.000000,1,0,-0.001550,0.000992,0,0.000000,0.000000,0.000000,-0.115921,0.314285,0.000000,-0.001000,-0.001000,0.001000,FlatInitial
01:49:04.437 PM 02/14/2016,Teleop Enabled,0,FALSE,0,NO ERROR,0.000000,0.000000,9000.000000,9000.000000,Speed,Speed,-1.180000,2.330000,2.670000,4.000000,100.000000,1,0,-0.001550,0.000992,0,0.000000,0.000000,0.000000,-0.115921,0.314285,0.000000,0.004000,0.001000,0.000000,FlatInitial
01:49:04.538 PM 02/14/2016,Teleop Enabled,0,FALSE,0,NO ERROR,0.000000,0.000000,9000.000000,9000.000000,Speed,Speed,-1.180000,2.330000,2.680000,4.000000,101.000000,1,0,-0.001550,0.000992,0,0.000000,0.000000,0.000000,-0.115921,0.314285,0.000000,0.000000,0.000000,-0.005000,FlatInitial
01:49:04.637 PM 02/14/2016,Teleop Enabled,0,FALSE,0,NO ERROR,0.000000,0.000000,9000.000000,9000.000000,Speed,Speed,-1.180000,2.330000,2.680000,4.000000,101.000000,1,0,-0.001550,0.000992,0,0.000000,0.000000,0.000000,-0.115921,0.314285,0.000000,0.000000,0.000000,0.002000,FlatInitial
01:49:04.738 PM 02/14/2016,Teleop Enabled,0,FALSE,0,NO ERROR,0.000000,0.000000,9000.000000,9000.000000,Speed,Speed,-1.190000,2.330000,2.670000,4.000000,104.000000,1,0,-0.001550,0.000992,0,0.000000,0.000000,0.000000,-0.115921,0.314285,0.000000,-0.002000,0.000000,0.001000,FlatInitial
01:49:04.838 PM 02/14/2016,Teleop Enabled,0,FALSE,0,NO ERROR,0.000000,0.000000,9000.000000,9000.000000,Speed,Speed,-1.190000,2.330000,2.680000,4.000000,101.000000,1,0,-0.001550,0.000992,0,0.000000,0.000000,0.000000,-0.115921,0.314285,0.000000,0.000000,0.000000,0.005000,FlatInitial
01:49:04.939 PM 02/14/2016,Teleop Enabled,0,FALSE,0,NO ERROR,0.000000,0.000000,9000.000000,9000.000000,Speed,Speed,-1.200000,2.330000,2.680000,4.000000,102.000000,1,0,-0.001550,0.000992,0,0.000000,0.000000,0.000000,-0.115921,0.314285,0.000000,-0.003000,0.001000,0.002000,FlatInitial
01:49:05.038 PM 02/14/2016,Teleop Enabled,0,FALSE,0,NO ERROR,0.000000,0.000000,9000.000000,9000.000000,Speed,Speed,-1.200000,2.330000,2.670000,4.000000,103.000000,1,0,-0.001550,0.000992,0,0.000000,0.000000,0.000000,-0.115921,0.314285,0.000000,0.001000,0.001000,0.001000,FlatInitial
01:49:05.138 PM 02/14/2016,Teleop Enabled,0,FALSE,0,NO ERROR,0.000000,0.000000,9000.000000,9000.000000,Speed,Speed,-1.200000,2.320000,2.680000,4.000000,103.000000,1,0,-0.001550,0.000992,0,0.000000,0.000000,0.000000,-0.115921,0.314285,0.000000,-0.001000,0.001000,0.002000,FlatInitial
01:49:05.238 PM 02/14/2016,Teleop Enabled,0,FALSE,0,NO ERROR,0.000000,0.000000,9000.000000,9000.000000,Speed,Speed,-1.200000,2.330000,2.680000,4.000000,101.000000,1,0,-0.001550,0.000992,0,0.000000,0.000000,0.000000,-0.115921,0.314285,0.000000,-0.001000,0.001000,0.002000,FlatInitial
01:49:05.339 PM 02/14/2016,Teleop Enabled,0,FALSE,0,NO ERROR,0.000000,0.000000,9000.000000,9000.000000,Speed,Speed,-1.200000,2.320000,2.680000,4.000000,102.000000,1,0,-0.001550,0.000992,0,0.000000,0.000000,0.000000,-0.115921,0.314285,0.000000,0.000000,0.000000,0.001000,FlatInitial
01:49:05.438 PM 02/14/2016,Teleop Enabled,0,FALSE,0,NO ERROR,0.000000,0.000000,9000.000000,9000.000000,Speed,Speed,-1.210000,2.330000,2.680000,4.000000,103.000000,1,0,-0.001550,0.000992,0,0.000000,0.000000,0.000000,-0.115921,0.314285,0.000000,0.000000,0.001000,0.001000,FlatInitial
01:49:05.539 PM 02/14/2016,Teleop Enabled,0,FALSE,0,NO ERROR,0.000000,0.000000,9000.000000,9000.000000,Speed,Speed,-1.210000,2.330000,2.670000,4.000000,102.000000,1,0,-0.001550,0.000992,0,0.000000,0.000000,0.000000,-0.115921,0.314285,0.000000,0.000000,-0.001000,0.000000,FlatInitial
01:49:05.639 PM 02/14/2016,Teleop Enabled,0,FALSE,0,NO ERROR,0.000000,0.000000,9000.000000,9000.000000,Speed,Speed,-1.220000,2.330000,2.670000,4.000000,101.000000,1,0,-0.001550,0.000992,0,0.000000,0.000000,0.000000,-0.115921,0.314285,0.000000,0.001000,-0.001000,-0.001000,FlatInitial
01:49:05.740 PM 02/14/2016,Teleop Enabled,0,FALSE,0,NO ERROR,0.000000,0.000000,9000.000000,9000.000000,Speed,Speed,-1.220000,2.330000,2.670000,4.000000,101.000000,1,0,-0.001550,0.000992,0,0.000000,0.000000,0.000000,-0.115921,0.314285,0.000000,0.001000,-0.001000,0.000000,FlatInitial
01:49:05.840 PM 02/14/2016,Teleop Enabled,0,FALSE,0,NO ERROR,0.000000,0.000000,9000.000000,9000.000000,Speed,Speed,-1.220000,2.320000,2.670000,4.000000,101.000000,1,0,-0.001550,0.000992,0,0.000000,0.000000,0.000000,-0.115921,0.314285,0.000000,0.000000,0.000000,0.001000,FlatInitial
01:49:05.940 PM 02/14/2016,Teleop Enabled,0,FALSE,0,NO ERROR,0.000000,0.000000,9000.000000,9000.000000,Speed,Speed,-1.220000,2.310000,2.680000,4.000000,102.000000,1,0,-0.001550,0.000992,0,0.000000,0.000000,0.000000,-0.115921,0.314285,0.000000,0.000000,0.001000,0.004000,FlatInitial
01:49:06.041 PM 02/14/2016,Teleop Enabled,0,FALSE,0,NO ERROR,0.000000,0.000000,9000.000000,9000.000000,Speed,Speed,-1.230000,2.280000,2.690000,4.000000,103.000000,1,0,-0.001550,0.000992,0,0.000000,0.000000,0.000000,-0.115921,0.314285,0.000000,0.000000,-0.001000,0.005000,FlatInitial
01:49:06.140 PM 02/14/2016,Teleop Enabled,0,FALSE,0,NO ERROR,0.000000,0.000000,9000.000000,9000.000000,Speed,Speed,-1.220000,2.250000,2.710000,4.000000,103.000000,1,0,-0.001550,0.000992,0,0.000000,0.000000,0.000000,-0.115921,0.314285,0.000000,0.000000,-0.001000,0.000000,FlatInitial
01:49:06.243 PM 02/14/2016,Teleop Enabled,0,FALSE,0,NO ERROR,0.000000,0.000000,9000.000000,9000.000000,Speed,Speed,-1.220000,2.160000,2.740000,4.000000,104.000000,1,0,-0.001550,0.000992,0,0.000000,0.000000,0.000000,-0.115921,0.314285,0.000000,-0.001000,-0.002000,0.002000,FlatInitial
01:49:06.344 PM 02/14/2016,Teleop Enabled,0,FALSE,0,NO ERROR,0.000000,0.000000,9000.000000,9000.000000,Speed,Speed,-1.230000,2.060000,2.770000,4.000000,101.000000,1,1,0.000000,-0.000000,0,0.000000,0.000000,0.000000,-0.115921,0.314285,0.000000,0.000000,0.001000,-0.001000,FlatInitial
01:49:06.444 PM 02/14/2016,Teleop Enabled,0,FALSE,0,NO ERROR,0.000000,0.000000,2000.000000,2000.000000,Speed,Speed,-1.230000,2.040000,2.780000,5.000000,102.000000,1,0,-0.001550,0.000992,0,0.000000,0.000000,0.000000,-0.115921,0.314285,0.000000,-0.001000,0.005000,0.004000,FlatInitial
01:49:06.544 PM 02/14/2016,Teleop Enabled,0,FALSE,0,NO ERROR,0.000000,0.000000,2000.000000,2000.000000,Speed,Speed,-1.240000,2.090000,2.770000,5.000000,101.000000,1,0,-0.001550,0.000992,0,0.000000,0.000000,0.000000,-0.115921,0.314285,0.000000,-0.001000,0.005000,0.004000,FlatInitial
01:49:06.643 PM 02/14/2016,Teleop Enabled,0,FALSE,0,NO ERROR,0.000000,0.000000,2000.000000,2000.000000,Speed,Speed,-1.240000,2.070000,2.780000,5.000000,103.000000,1,0,-0.001550,0.000992,0,0.000000,0.000000,0.000000,-0.115921,0.314285,0.000000,-0.002000,0.003000,-0.002000,FlatInitial
01:49:06.744 PM 02/14/2016,Teleop Enabled,0,FALSE,0,NO ERROR,0.000000,0.000000,2000.000000,2000.000000,Speed,Speed,-1.240000,2.070000,2.770000,5.000000,101.000000,1,0,-0.001550,0.000992,0,0.000000,0.000000,0.000000,-0.115921,0.314285,0.000000,0.000000,0.000000,0.000000,FlatInitial
01:49:06.844 PM 02/14/2016,Teleop Enabled,0,FALSE,0,NO ERROR,0.000000,0.000000,2000.000000,2000.000000,Speed,Speed,-1.240000,2.140000,2.750000,5.000000,101.000000,1,0,-0.001550,0.000992,0,0.000000,0.000000,0.000000,-0.115921,0.314285,0.000000,-0.003000,0.000000,0.002000,FlatInitial
01:49:06.944 PM 02/14/2016,Teleop Enabled,0,FALSE,0,NO ERROR,0.000000,0.000000,2000.000000,2000.000000,Speed,Speed,-1.250000,2.120000,2.750000,5.000000,103.000000,1,0,-0.001550,0.000992,0,0.000000,0.000000,0.000000,-0.115921,0.314285,0.000000,-0.003000,0.000000,0.002000,FlatInitial
01:49:07.044 PM 02/14/2016,Teleop Enabled,0,FALSE,0,NO ERROR,0.000000,0.000000,2000.000000,2000.000000,Speed,Speed,-1.250000,2.110000,2.750000,5.000000,105.000000,1,0,-0.001550,0.000992,0,0.000000,0.000000,0.000000,-0.115921,0.314285,0.000000,0.000000,-0.001000,-0.001000,FlatInitial
01:49:07.144 PM 02/14/2016,Teleop Enabled,0,FALSE,0,NO ERROR,0.000000,0.000000,2000.000000,2000.000000,Speed,Speed,-1.260000,2.160000,2.740000,5.000000,100.000000,1,0,-0.001550,0.000992,0,0.000000,0.000000,0.000000,-0.115921,0.314285,0.000000,0.000000,-0.001000,-0.001000,FlatInitial
01:49:07.245 PM 02/14/2016,Teleop Enabled,0,FALSE,0,NO ERROR,0.000000,0.000000,2000.000000,2000.000000,Speed,Speed,-1.260000,2.140000,2.740000,5.000000,102.000000,1,0,-0.001550,0.000992,0,0.000000,0.000000,0.000000,-0.115921,0.314285,0.000000,-0.001000,0.004000,0.000000,FlatInitial
01:49:07.346 PM 02/14/2016,Teleop Enabled,0,FALSE,0,NO ERROR,0.000000,0.000000,2000.000000,2000.000000,Speed,Speed,-1.260000,2.160000,2.740000,5.000000,101.000000,1,0,-0.001550,0.000992,0,0.000000,0.000000,0.000000,-0.115921,0.314285,0.000000,-0.001000,0.001000,-0.005000,FlatInitial
01:49:07.447 PM 02/14/2016,Teleop Enabled,0,FALSE,0,NO ERROR,0.000000,0.000000,2000.000000,2000.000000,Speed,Speed,-1.270000,2.160000,2.730000,5.000000,105.000000,1,0,-0.001550,0.000992,0,0.000000,0.000000,0.000000,-0.115921,0.314285,0.000000,0.002000,0.000000,0.002000,FlatInitial
01:49:07.550 PM 02/14/2016,Teleop Enabled,0,FALSE,0,NO ERROR,0.000000,0.000000,2000.000000,2000.000000,Speed,Speed,-1.270000,2.160000,2.730000,5.000000,102.000000,1,0,-0.001550,0.000992,0,0.000000,0.000000,0.000000,-0.115921,0.314285,0.000000,0.000000,-0.001000,0.002000,FlatInitial
01:49:07.651 PM 02/14/2016,Teleop Enabled,0,FALSE,0,NO ERROR,0.000000,0.000000,2000.000000,2000.000000,Speed,Speed,-1.270000,2.160000,2.730000,5.000000,110.000000,1,0,-0.001550,0.000992,0,0.000000,0.000000,0.000000,-0.115921,0.314285,0.000000,0.004000,0.003000,0.007000,FlatInitial
01:49:07.751 PM 02/14/2016,Teleop Enabled,0,FALSE,0,NO ERROR,0.000000,0.000000,2000.000000,2000.000000,Speed,Speed,-1.270000,2.180000,2.720000,5.000000,102.000000,1,0,-0.001550,0.000992,0,0.000000,0.000000,0.000000,-0.115921,0.314285,0.000000,0.000000,-0.002000,-0.002000,FlatInitial
01:49:07.850 PM 02/14/2016,Teleop Enabled,0,FALSE,0,NO ERROR,0.000000,0.000000,2000.000000,2000.000000,Speed,Speed,-1.270000,2.160000,2.730000,5.000000,102.000000,1,0,-0.001550,0.000992,0,0.000000,0.000000,0.000000,-0.115921,0.314285,0.000000,0.001000,-0.001000,0.003000,FlatInitial
01:49:07.951 PM 02/14/2016,Teleop Enabled,0,FALSE,0,NO ERROR,0.000000,0.000000,2000.000000,2000.000000,Speed,Speed,-1.270000,2.180000,2.720000,5.000000,101.000000,1,0,-0.001550,0.000992,0,0.000000,0.000000,0.000000,-0.115921,0.314285,0.000000,-0.001000,0.000000,-0.002000,FlatInitial
01:49:08.052 PM 02/14/2016,Teleop Enabled,0,FALSE,0,NO ERROR,0.000000,0.000000,2000.000000,2000.000000,Speed,Speed,-1.280000,2.180000,2.720000,5.000000,102.000000,1,0,-0.001550,0.000992,0,0.000000,0.000000,0.000000,-0.115921,0.314285,0.000000,0.001000,-0.001000,0.005000,FlatInitial
01:49:08.152 PM 02/14/2016,Teleop Enabled,0,FALSE,0,NO ERROR,0.000000,0.000000,2000.000000,2000.000000,Speed,Speed,-1.280000,2.180000,2.720000,5.000000,102.000000,1,0,-0.001550,0.000992,0,0.000000,0.000000,0.000000,-0.115921,0.314285,0.000000,-0.001000,0.000000,0.001000,FlatInitial
01:49:08.251 PM 02/14/2016,Teleop Enabled,0,FALSE,0,NO ERROR,0.000000,0.000000,2000.000000,2000.000000,Speed,Speed,-1.280000,2.180000,2.720000,5.000000,101.000000,1,0,-0.001550,0.000992,0,0.000000,0.000000,0.000000,-0.115921,0.314285,0.000000,0.001000,-0.001000,0.002000,FlatInitial
01:49:08.353 PM 02/14/2016,Teleop Enabled,0,FALSE,0,NO ERROR,0.000000,0.000000,2000.000000,2000.000000,Speed,Speed,-1.280000,2.180000,2.720000,5.000000,103.000000,1,0,-0.001550,0.000992,0,0.000000,0.000000,0.000000,-0.115921,0.314285,0.000000,0.001000,-0.001000,0.002000,FlatInitial
01:49:08.453 PM 02/14/2016,Teleop Enabled,0,FALSE,0,NO ERROR,0.000000,0.000000,2000.000000,2000.000000,Speed,Speed,-1.290000,2.180000,2.720000,5.000000,105.000000,1,0,-0.001550,0.000992,0,0.000000,0.000000,0.000000,-0.115921,0.314285,0.000000,0.001000,0.001000,0.003000,FlatInitial
01:49:08.554 PM 02/14/2016,Teleop Enabled,0,FALSE,0,NO ERROR,0.000000,0.000000,2000.000000,2000.000000,Speed,Speed,-1.290000,2.190000,2.710000,5.000000,101.000000,1,0,-0.001550,0.000992,0,0.000000,0.000000,0.000000,-0.115921,0.314285,0.000000,0.000000,0.000000,0.007000,FlatInitial
01:49:08.655 PM 02/14/2016,Teleop Enabled,0,FALSE,0,NO ERROR,0.000000,0.000000,2000.000000,2000.000000,Speed,Speed,-1.290000,2.190000,2.710000,5.000000,100.000000,1,0,-0.001550,0.000992,0,0.000000,0.000000,0.000000,-0.115921,0.314285,0.000000,0.000000,0.000000,0.007000,FlatInitial
01:49:08.754 PM 02/14/2016,Teleop Enabled,0,FALSE,0,NO ERROR,0.000000,0.000000,2000.000000,2000.000000,Speed,Speed,-1.290000,2.190000,2.710000,4.000000,101.000000,1,0,-0.001550,0.000992,0,0.000000,0.000000,0.000000,-0.115921,0.314285,0.000000,-0.001000,0.002000,-0.003000,FlatInitial
01:49:08.855 PM 02/14/2016,Teleop Enabled,0,FALSE,0,NO ERROR,0.000000,0.000000,9000.000000,9000.000000,Speed,Speed,-1.290000,2.190000,2.710000,4.000000,101.000000,1,0,-0.001550,0.000992,0,0.000000,0.000000,0.000000,-0.115921,0.314285,0.000000,0.000000,0.001000,0.006000,FlatInitial
01:49:08.956 PM 02/14/2016,Teleop Enabled,0,FALSE,0,NO ERROR,0.000000,0.000000,9000.000000,9000.000000,Speed,Speed,-1.300000,2.200000,2.720000,4.000000,101.000000,1,0,-0.001550,0.000992,0,0.000000,0.000000,0.000000,-0.115921,0.314285,0.000000,0.001000,0.001000,0.003000,FlatInitial
01:49:09.056 PM 02/14/2016,Teleop Enabled,0,FALSE,0,NO ERROR,0.000000,0.000000,9000.000000,9000.000000,Speed,Speed,-1.300000,2.280000,2.690000,4.000000,101.000000,1,0,-0.001550,0.000992,0,0.000000,0.000000,0.000000,-0.115921,0.314285,0.000000,-0.002000,0.001000,-0.007000,FlatInitial
01:49:09.156 PM 02/14/2016,Teleop Enabled,0,FALSE,0,NO ERROR,0.000000,0.000000,9000.000000,9000.000000,Speed,Speed,-1.300000,2.280000,2.690000,4.000000,104.000000,1,0,-0.001550,0.000992,0,0.000000,0.000000,0.000000,-0.115921,0.314285,0.000000,0.004000,0.000000,0.001000,FlatInitial
01:49:09.257 PM 02/14/2016,Teleop Enabled,0,FALSE,0,NO ERROR,0.000000,0.000000,9000.000000,9000.000000,Speed,Speed,-1.300000,2.240000,2.690000,4.000000,101.000000,1,0,-0.001550,0.000992,0,0.000000,0.000000,0.000000,-0.115921,0.314285,0.000000,0.000000,-0.001000,0.000000,FlatInitial
01:49:09.358 PM 02/14/2016,Teleop Enabled,0,FALSE,0,NO ERROR,0.000000,0.000000,9000.000000,9000.000000,Speed,Speed,-1.300000,2.250000,2.710000,4.000000,101.000000,1,0,-0.001550,0.000992,0,0.000000,0.000000,0.000000,-0.115921,0.314285,0.000000,0.001000,-0.001000,0.001000,FlatInitial
01:49:09.458 PM 02/14/2016,Teleop Enabled,0,FALSE,0,NO ERROR,0.000000,0.000000,9000.000000,9000.000000,Speed,Speed,-1.300000,2.250000,2.710000,4.000000,101.000000,1,0,-0.001550,0.000992,0,0.000000,0.000000,0.000000,-0.115921,0.314285,0.000000,0.000000,-0.004000,-0.001000,FlatInitial
01:49:09.558 PM 02/14/2016,Teleop Enabled,0,FALSE,0,NO ERROR,0.000000,0.000000,9000.000000,9000.000000,Speed,Speed,-1.300000,2.280000,2.690000,4.000000,101.000000,1,0,-0.001550,0.000992,0,0.000000,0.000000,0.000000,-0.115921,0.314285,0.000000,0.000000,0.001000,0.003000,FlatInitial
