Time,RobotMode,AutoToRun,ErrorStatus, ErrorCode,ErrorSource,ActualRPM1,ActualRPM2,DesiredRPM1,DesiredRPM2,ControlMode1,ControlMode2,NavXYaw,NavXRoll,NavXPitch,ShooterState,LoopTime,IsLevel,IsAutoTargeting,LeftMotorOutput,RightMotorOutput,IsHaloDrive,NavXVelocityX,NavXVelocityY,NavXVelocityZ,NavXDisplacementX,NavXDisplacementY,NavXDisplacementZ,NavXAccelerationX,NavXAccelerationY,NavXAccelerationZ,AutoDefendState
08:39:01.763 PM 02/15/2016,Autonomous Disabled,0,TRUE,91,Variant To Data in WPI_DigitalInputRefNum Registry Get.vi->Periodic Tasks.vi->Robot Main.vi,8998.242188,-8997.656250,9000.000000,9000.000000,Speed,Speed,0.040000,1.100000,1.050000,4.000000,102.000000,1,0,-0.000000,0.000000,1,-0.959381,4.203598,0.000000,2.735718,4.417770,0.000000,-0.075000,0.102000,0.109000,FlatInitial
08:39:01.867 PM 02/15/2016,Teleop Disabled,0,TRUE,-44007,<LOCATION>WPI_DigitalInputRefNum Registry Get.vi<CALLSTACK>WPI_DigitalInputRefNum Registry Get.vi< <Periodic Tasks.vi< <Robot Main.vi,0.000000,0.000000,0.000000,0.000000,Speed,Speed,0.040000,1.100000,1.050000,0.000000,805775.000000,1,0,-0.000000,0.000000,1,-0.959381,4.203598,0.000000,2.735718,4.417770,0.000000,-0.075000,0.102000,0.109000,FlatInitial
08:39:01.968 PM 02/15/2016,Teleop Disabled,0,FALSE,0,NO ERROR,0.000000,0.000000,0.000000,0.000000,Speed,Speed,0.000000,0.980000,1.510000,0.000000,101.000000,1,0,-0.000000,0.000000,1,0.000000,0.000000,0.000000,1.650452,8.334396,0.000000,0.000000,0.000000,0.000000,FlatInitial
08:39:02.068 PM 02/15/2016,Teleop Disabled,0,FALSE,0,NO ERROR,0.000000,0.000000,0.000000,0.000000,Speed,Speed,0.000000,0.980000,1.510000,0.000000,103.000000,1,0,-0.000000,0.000000,1,0.000000,0.000000,0.000000,1.650452,8.334396,0.000000,-0.001000,0.000000,0.003000,FlatInitial
08:39:02.168 PM 02/15/2016,Teleop Disabled,0,FALSE,0,NO ERROR,0.000000,0.000000,0.000000,0.000000,Speed,Speed,0.000000,0.980000,1.510000,0.000000,101.000000,1,0,-0.000000,0.000000,1,0.000000,0.000000,0.000000,1.650452,8.334396,0.000000,0.001000,0.000000,0.000000,FlatInitial
08:39:02.268 PM 02/15/2016,Teleop Disabled,0,FALSE,0,NO ERROR,0.000000,0.000000,0.000000,0.000000,Speed,Speed,0.000000,0.970000,1.510000,0.000000,102.000000,1,0,-0.000000,0.000000,1,0.000000,0.000000,0.000000,1.650452,8.334396,0.000000,0.000000,0.000000,0.000000,FlatInitial
08:39:02.367 PM 02/15/2016,Teleop Disabled,0,FALSE,0,NO ERROR,0.000000,0.000000,0.000000,0.000000,Speed,Speed,-0.010000,0.970000,1.510000,0.000000,101.000000,1,0,-0.000000,0.000000,1,0.000000,0.000000,0.000000,1.650452,8.334396,0.000000,0.002000,0.001000,0.005000,FlatInitial
08:39:02.468 PM 02/15/2016,Teleop Disabled,0,FALSE,0,NO ERROR,0.000000,0.000000,0.000000,0.000000,Speed,Speed,-0.010000,0.970000,1.510000,0.000000,102.000000,1,0,-0.000000,0.000000,1,0.000000,0.000000,0.000000,1.650452,8.334396,0.000000,0.001000,0.000000,0.007000,FlatInitial
08:39:02.568 PM 02/15/2016,Teleop Disabled,0,FALSE,0,NO ERROR,0.000000,0.000000,0.000000,0.000000,Speed,Speed,-0.010000,0.970000,1.520000,0.000000,101.000000,1,0,-0.000000,0.000000,1,0.000000,0.000000,0.000000,1.650452,8.334396,0.000000,-0.003000,-0.001000,0.000000,FlatInitial
08:39:02.668 PM 02/15/2016,Teleop Disabled,0,FALSE,0,NO ERROR,0.000000,0.000000,0.000000,0.000000,Speed,Speed,-0.010000,0.970000,1.530000,0.000000,101.000000,1,0,-0.000000,0.000000,1,0.000000,0.000000,0.000000,1.650452,8.334396,0.000000,-0.001000,-0.001000,0.005000,FlatInitial
08:39:02.768 PM 02/15/2016,Teleop Disabled,0,FALSE,0,NO ERROR,0.000000,0.000000,0.000000,0.000000,Speed,Speed,-0.010000,0.960000,1.530000,0.000000,102.000000,1,0,-0.000000,0.000000,1,0.000000,0.000000,0.000000,1.650452,8.334396,0.000000,0.001000,0.000000,0.000000,FlatInitial
08:39:02.869 PM 02/15/2016,Teleop Disabled,0,FALSE,0,NO ERROR,0.000000,0.000000,0.000000,0.000000,Speed,Speed,-0.010000,0.970000,1.520000,0.000000,103.000000,1,0,-0.000000,0.000000,1,0.000000,0.000000,0.000000,1.650452,8.334396,0.000000,0.002000,0.000000,0.000000,FlatInitial
08:39:02.969 PM 02/15/2016,Teleop Enabled,0,FALSE,0,NO ERROR,0.000000,-1.318359,0.000000,0.000000,Speed,Speed,-0.010000,0.970000,1.510000,0.000000,102.000000,1,0,-0.000000,0.000000,1,0.004929,-0.004929,0.000000,1.650497,8.334320,0.000000,0.050000,0.000000,0.011000,FlatInitial
08:39:03.069 PM 02/15/2016,Teleop Enabled,0,FALSE,0,NO ERROR,0.000000,-2.929688,0.000000,0.000000,Speed,Speed,-0.100000,1.030000,1.360000,0.000000,101.000000,1,0,-0.000000,0.000000,1,0.000946,-0.007736,0.000000,1.650848,8.333542,0.000000,0.019000,0.025000,-0.015000,FlatInitial
08:39:03.170 PM 02/15/2016,Teleop Enabled,0,FALSE,0,NO ERROR,0.000000,0.000000,0.000000,0.000000,Speed,Speed,0.000000,0.960000,1.630000,0.000000,100.000000,1,0,-0.000000,0.000000,1,0.009140,-0.019913,0.000000,1.650986,8.333176,0.000000,0.042000,-0.044000,0.025000,FlatInitial
08:39:03.270 PM 02/15/2016,Teleop Enabled,0,FALSE,0,NO ERROR,0.000000,0.000000,0.000000,0.000000,Speed,Speed,0.000000,0.980000,1.520000,0.000000,104.000000,1,0,-0.000000,0.000000,1,0.000000,-0.016769,0.000000,1.651230,8.332092,0.000000,0.022000,0.011000,0.003000,FlatInitial
08:39:03.371 PM 02/15/2016,Teleop Enabled,0,FALSE,0,NO ERROR,0.000000,0.000000,0.000000,0.000000,Speed,Speed,-0.050000,0.990000,1.650000,0.000000,105.000000,1,0,-0.000000,0.000000,1,0.005676,0.018539,0.000000,1.651657,8.332550,0.000000,-0.039000,0.016000,-0.028000,FlatInitial
08:39:03.471 PM 02/15/2016,Teleop Enabled,0,FALSE,0,NO ERROR,0.000000,0.000000,0.000000,0.000000,Speed,Speed,-0.020000,1.020000,1.610000,0.000000,101.000000,1,0,-0.000000,0.000000,1,0.003189,-0.008087,0.000000,1.651581,8.332550,0.000000,-0.021000,-0.002000,-0.029000,FlatInitial
08:39:03.571 PM 02/15/2016,Teleop Enabled,0,FALSE,0,NO ERROR,0.000000,0.000000,0.000000,0.000000,Speed,Speed,-0.020000,0.990000,1.620000,0.000000,101.000000,1,0,-0.000000,0.000000,1,0.000000,0.000000,0.000000,1.651550,8.332550,0.000000,0.005000,-0.007000,-0.005000,FlatInitial
08:39:03.671 PM 02/15/2016,Teleop Enabled,0,FALSE,0,NO ERROR,0.000000,0.000000,0.000000,0.000000,Speed,Speed,-0.020000,0.970000,1.630000,0.000000,101.000000,1,0,-0.000000,0.000000,1,0.000000,0.000000,0.000000,1.651550,8.332550,0.000000,0.003000,0.000000,0.017000,FlatInitial
08:39:03.771 PM 02/15/2016,Teleop Enabled,0,FALSE,0,NO ERROR,0.000000,0.000000,0.000000,0.000000,Speed,Speed,-0.070000,0.970000,1.660000,0.000000,102.000000,1,0,-0.000000,0.000000,1,0.000000,0.000000,0.000000,1.651550,8.332550,0.000000,-0.006000,0.011000,-0.002000,FlatInitial
08:39:03.871 PM 02/15/2016,Teleop Enabled,0,FALSE,0,NO ERROR,0.000000,0.000000,0.000000,0.000000,Speed,Speed,-0.050000,0.970000,1.690000,0.000000,102.000000,1,0,-0.000000,0.000000,1,0.000000,0.000000,0.000000,1.651550,8.332550,0.000000,-0.012000,-0.002000,-0.003000,FlatInitial
08:39:03.972 PM 02/15/2016,Teleop Enabled,0,FALSE,0,NO ERROR,0.000000,0.000000,0.000000,0.000000,Speed,Speed,-0.050000,0.960000,1.700000,0.000000,103.000000,1,0,-0.000000,0.000000,1,0.000000,0.000000,0.000000,1.651550,8.332550,0.000000,-0.004000,-0.007000,-0.002000,FlatInitial
08:39:04.073 PM 02/15/2016,Teleop Enabled,0,FALSE,0,NO ERROR,0.000000,0.000000,0.000000,0.000000,Speed,Speed,-0.060000,0.940000,1.750000,0.000000,101.000000,1,0,-0.000000,0.000000,1,0.000000,0.000000,0.000000,1.651550,8.332550,0.000000,-0.001000,0.009000,-0.004000,FlatInitial
08:39:04.173 PM 02/15/2016,Teleop Enabled,0,FALSE,0,NO ERROR,0.000000,0.000000,0.000000,0.000000,Speed,Speed,-0.060000,0.940000,1.800000,0.000000,104.000000,1,0,-0.000000,0.000000,1,0.000000,0.000000,0.000000,1.651550,8.332550,0.000000,-0.005000,-0.008000,-0.012000,FlatInitial
08:39:04.273 PM 02/15/2016,Teleop Enabled,0,FALSE,0,NO ERROR,0.000000,0.000000,0.000000,0.000000,Speed,Speed,-0.090000,0.930000,1.830000,0.000000,101.000000,1,0,-0.000000,0.000000,1,0.000000,0.000000,0.000000,1.651550,8.332550,0.000000,0.021000,0.011000,0.024000,FlatInitial
08:39:04.373 PM 02/15/2016,Teleop Enabled,0,FALSE,0,NO ERROR,0.000000,0.000000,0.000000,0.000000,Speed,Speed,-0.070000,0.930000,1.880000,0.000000,102.000000,1,0,-0.000000,0.000000,1,0.000000,0.000000,0.000000,1.651642,8.332550,0.000000,-0.001000,-0.010000,-0.004000,FlatInitial
08:39:04.474 PM 02/15/2016,Teleop Enabled,0,FALSE,0,NO ERROR,0.000000,0.000000,0.000000,0.000000,Speed,Speed,-0.120000,0.930000,1.900000,0.000000,102.000000,1,0,-0.000000,0.000000,1,0.000000,0.000000,0.000000,1.651642,8.332367,0.000000,-0.003000,0.001000,0.000000,FlatInitial
08:39:04.574 PM 02/15/2016,Teleop Enabled,0,FALSE,0,NO ERROR,0.000000,0.000000,0.000000,0.000000,Speed,Speed,-0.200000,0.930000,1.950000,0.000000,100.000000,1,0,-0.000000,0.000000,1,0.000000,0.000000,0.000000,1.651642,8.332367,0.000000,-0.004000,0.013000,-0.001000,FlatInitial
08:39:04.674 PM 02/15/2016,Teleop Enabled,0,FALSE,0,NO ERROR,0.000000,0.000000,0.000000,0.000000,Speed,Speed,-0.120000,0.930000,1.930000,0.000000,101.000000,1,0,-0.000000,0.000000,1,0.000000,0.000000,0.000000,1.651642,8.332611,0.000000,0.000000,0.012000,-0.006000,FlatInitial
08:39:04.774 PM 02/15/2016,Teleop Enabled,0,FALSE,0,NO ERROR,0.000000,0.000000,0.000000,0.000000,Speed,Speed,-0.150000,0.930000,1.970000,0.000000,103.000000,1,0,-0.000000,0.000000,1,0.000000,0.000000,0.000000,1.651642,8.332611,0.000000,0.000000,0.012000,-0.006000,FlatInitial
08:39:04.876 PM 02/15/2016,Teleop Enabled,0,FALSE,0,NO ERROR,0.000000,0.000000,0.000000,0.000000,Speed,Speed,-0.140000,0.920000,1.850000,0.000000,102.000000,1,0,-0.000000,0.000000,1,0.000000,0.000000,0.000000,1.651642,8.332611,0.000000,0.007000,-0.009000,-0.003000,FlatInitial
08:39:04.977 PM 02/15/2016,Teleop Enabled,0,FALSE,0,NO ERROR,0.000000,0.000000,0.000000,0.000000,Speed,Speed,-0.110000,0.930000,1.880000,0.000000,101.000000,1,0,-0.000000,0.000000,1,0.000000,0.000000,0.000000,1.651642,8.332611,0.000000,0.000000,-0.013000,0.005000,FlatInitial
08:39:05.078 PM 02/15/2016,Teleop Enabled,0,FALSE,0,NO ERROR,0.000000,0.000000,-6000.000000,-6000.000000,Speed,Speed,-0.180000,0.940000,1.820000,1.000000,101.000000,1,0,-0.000000,0.000000,1,0.000000,0.013824,0.000000,1.651642,8.332855,0.000000,-0.002000,0.048000,0.019000,FlatInitial
08:39:05.179 PM 02/15/2016,Teleop Enabled,0,FALSE,0,NO ERROR,-231.445312,152.343750,0.000000,0.000000,Speed,Speed,-0.090000,0.930000,1.660000,2.000000,101.000000,1,0,-0.000000,0.000000,1,-0.013168,0.000000,0.000000,1.651382,8.334229,0.000000,0.002000,-0.008000,-0.069000,FlatInitial
08:39:05.280 PM 02/15/2016,Teleop Enabled,0,FALSE,0,NO ERROR,-1699.072266,1697.021484,0.000000,0.000000,Speed,Speed,0.010000,0.930000,1.690000,2.000000,101.000000,1,0,-0.000000,0.000000,1,0.000000,-0.044739,0.000000,1.651489,8.332626,0.000000,0.010000,0.022000,-0.062000,FlatInitial
08:39:05.381 PM 02/15/2016,Teleop Enabled,0,FALSE,0,NO ERROR,-1765.869141,1965.527344,0.000000,0.000000,Speed,Speed,-0.020000,0.950000,1.580000,2.000000,102.000000,1,0,-0.000000,0.000000,1,0.005615,-0.005234,0.000000,1.651459,8.331848,0.000000,0.019000,0.000000,-0.074000,FlatInitial
08:39:05.482 PM 02/15/2016,Teleop Enabled,0,FALSE,0,NO ERROR,-1531.787109,1521.679688,0.000000,0.000000,Speed,Speed,-0.140000,0.920000,1.770000,2.000000,101.000000,1,0,-0.000000,0.000000,1,-0.005646,0.004303,0.000000,1.651749,8.331863,0.000000,-0.060000,0.025000,-0.033000,FlatInitial
08:39:05.582 PM 02/15/2016,Teleop Enabled,0,FALSE,0,NO ERROR,-1259.326172,1192.968750,0.000000,0.000000,Speed,Speed,-0.100000,0.950000,1.710000,2.000000,103.000000,1,0,-0.000000,0.000000,1,0.007599,0.018631,0.000000,1.651566,8.332581,0.000000,-0.060000,0.025000,-0.033000,FlatInitial
08:39:05.681 PM 02/15/2016,Teleop Enabled,0,FALSE,0,NO ERROR,-1003.125000,754.248047,0.000000,0.000000,Speed,Speed,-0.130000,0.910000,1.800000,2.000000,101.000000,1,0,-0.000000,0.000000,1,0.000000,0.000000,0.000000,1.651642,8.332581,0.000000,-0.018000,-0.013000,0.008000,FlatInitial
08:39:05.781 PM 02/15/2016,Teleop Enabled,0,FALSE,0,NO ERROR,-762.304688,488.525391,0.000000,0.000000,Speed,Speed,-0.130000,0.950000,1.730000,2.000000,102.000000,1,0,-0.000000,0.000000,1,0.000000,0.000000,0.000000,1.651642,8.332581,0.000000,-0.018000,-0.013000,0.008000,FlatInitial
08:39:05.882 PM 02/15/2016,Teleop Enabled,0,FALSE,0,NO ERROR,-547.265625,145.605469,0.000000,0.000000,Speed,Speed,-0.060000,0.940000,1.710000,2.000000,102.000000,1,0,-0.000000,0.000000,1,0.000000,0.000000,0.000000,1.651642,8.332718,0.000000,-0.011000,0.001000,-0.015000,FlatInitial
08:39:05.982 PM 02/15/2016,Teleop Enabled,0,FALSE,0,NO ERROR,-367.089844,1.757812,0.000000,0.000000,Speed,Speed,-0.090000,0.940000,1.710000,2.000000,100.000000,1,0,-0.000000,0.000000,1,0.000000,0.000000,0.000000,1.651642,8.332718,0.000000,-0.001000,0.000000,0.007000,FlatInitial
08:39:06.082 PM 02/15/2016,Teleop Enabled,0,FALSE,0,NO ERROR,-213.427734,0.000000,0.000000,0.000000,Speed,Speed,-0.120000,0.930000,1.740000,2.000000,103.000000,1,0,-0.000000,0.000000,1,0.000000,0.000000,0.000000,1.651642,8.332718,0.000000,-0.004000,0.007000,-0.001000,FlatInitial
08:39:06.181 PM 02/15/2016,Teleop Enabled,0,FALSE,0,NO ERROR,-44.970703,0.000000,0.000000,0.000000,Speed,Speed,-0.120000,0.920000,1.770000,2.000000,102.000000,1,0,-0.000000,0.000000,1,0.000000,0.000000,0.000000,1.651642,8.332718,0.000000,0.004000,0.005000,0.003000,FlatInitial
08:39:06.281 PM 02/15/2016,Teleop Enabled,0,FALSE,0,NO ERROR,27.099609,0.000000,0.000000,0.000000,Speed,Speed,-0.100000,0.930000,1.730000,2.000000,101.000000,1,0,-0.000000,0.000000,1,0.000000,0.000000,0.000000,1.651642,8.332718,0.000000,0.000000,0.005000,0.000000,FlatInitial
08:39:06.382 PM 02/15/2016,Teleop Enabled,0,FALSE,0,NO ERROR,21.386719,0.000000,4000.000000,4000.000000,Speed,Speed,-0.090000,0.920000,1.740000,3.000000,102.000000,1,0,-0.000000,0.000000,1,0.000000,0.000000,0.000000,1.651642,8.332718,0.000000,0.007000,-0.006000,0.004000,FlatInitial
08:39:06.482 PM 02/15/2016,Teleop Enabled,0,FALSE,0,NO ERROR,192.333984,-108.837891,4000.000000,4000.000000,Speed,Speed,-0.090000,0.920000,1.740000,3.000000,105.000000,1,0,-0.000000,0.000000,1,0.000000,0.000000,0.000000,1.651642,8.332718,0.000000,0.004000,0.000000,-0.004000,FlatInitial
08:39:06.583 PM 02/15/2016,Teleop Enabled,0,FALSE,0,NO ERROR,1936.376953,-1691.162109,4000.000000,4000.000000,Speed,Speed,-0.120000,0.920000,1.770000,3.000000,101.000000,1,0,-0.000000,0.000000,1,0.000000,0.009338,0.000000,1.651642,8.332932,0.000000,-0.006000,-0.034000,0.008000,FlatInitial
08:39:06.686 PM 02/15/2016,Teleop Enabled,0,FALSE,0,NO ERROR,3511.816406,-3323.291016,4000.000000,4000.000000,Speed,Speed,-0.120000,0.900000,1.780000,3.000000,103.000000,1,0,-0.000000,0.000000,1,0.000000,-0.014114,0.000000,1.652298,8.332916,0.000000,0.013000,-0.010000,-0.031000,FlatInitial
08:39:06.787 PM 02/15/2016,Teleop Enabled,0,FALSE,0,NO ERROR,4067.138672,-3968.994141,4000.000000,4000.000000,Speed,Speed,-0.120000,0.980000,1.680000,3.000000,102.000000,1,0,-0.000000,0.000000,1,0.031464,0.000000,0.000000,1.653152,8.331528,0.000000,0.000000,-0.047000,-0.048000,FlatInitial
08:39:06.891 PM 02/15/2016,Teleop Enabled,0,FALSE,0,NO ERROR,4079.736328,-3952.587891,4000.000000,4000.000000,Speed,Speed,-0.120000,1.030000,1.710000,3.000000,102.000000,1,0,-0.000000,0.000000,1,0.030518,0.002396,0.000000,1.654739,8.331512,0.000000,0.044000,-0.006000,-0.003000,FlatInitial
08:39:06.991 PM 02/15/2016,Teleop Enabled,0,FALSE,0,NO ERROR,4010.302734,-3858.984375,4000.000000,4000.000000,Speed,Speed,-0.130000,1.030000,1.750000,3.000000,102.000000,1,0,-0.000000,0.000000,1,0.034714,0.009567,0.000000,1.656387,8.332016,0.000000,-0.029000,-0.008000,0.013000,FlatInitial
08:39:07.092 PM 02/15/2016,Teleop Enabled,0,FALSE,0,NO ERROR,3954.931641,-3862.353516,4000.000000,4000.000000,Speed,Speed,-0.130000,1.030000,1.750000,3.000000,102.000000,1,0,-0.000000,0.000000,1,0.034714,0.009567,0.000000,1.656387,8.332016,0.000000,0.027000,-0.025000,0.018000,FlatInitial
08:39:07.192 PM 02/15/2016,Teleop Enabled,0,FALSE,0,NO ERROR,3946.289062,-3906.884766,4000.000000,4000.000000,Speed,Speed,-0.130000,1.040000,1.790000,3.000000,101.000000,1,0,-0.000000,0.000000,1,0.000000,0.011200,0.000000,1.658218,8.332764,0.000000,-0.005000,-0.011000,-0.123000,FlatInitial
08:39:07.292 PM 02/15/2016,Teleop Enabled,0,FALSE,0,NO ERROR,3960.351562,-3961.669922,4000.000000,4000.000000,Speed,Speed,-0.130000,1.000000,1.850000,3.000000,103.000000,1,0,-0.000000,0.000000,1,0.001312,-0.001740,0.000000,1.658264,8.332870,0.000000,-0.063000,0.001000,0.074000,FlatInitial
08:39:07.395 PM 02/15/2016,Teleop Enabled,0,FALSE,0,NO ERROR,3976.171875,-3987.158203,4000.000000,4000.000000,Speed,Speed,-0.130000,0.970000,1.940000,3.000000,101.000000,1,0,-0.000000,0.000000,1,-0.003723,0.003845,0.000000,1.658127,8.332993,0.000000,-0.004000,0.029000,-0.003000,FlatInitial
08:39:07.496 PM 02/15/2016,Teleop Enabled,0,FALSE,0,NO ERROR,3988.330078,-3990.966797,4000.000000,4000.000000,Speed,Speed,-0.130000,0.950000,2.000000,3.000000,101.000000,1,0,-0.000000,0.000000,1,-0.014618,0.019135,0.000000,1.657639,8.333496,0.000000,0.023000,0.031000,-0.073000,FlatInitial
08:39:07.597 PM 02/15/2016,Teleop Enabled,0,FALSE,0,NO ERROR,3995.068359,-3988.476562,4000.000000,4000.000000,Speed,Speed,-0.130000,0.950000,2.000000,3.000000,104.000000,1,0,-0.000000,0.000000,1,-0.019852,0.039490,0.000000,1.656830,8.335098,0.000000,0.013000,0.018000,0.037000,FlatInitial
08:39:07.696 PM 02/15/2016,Teleop Enabled,0,FALSE,0,NO ERROR,3998.730469,-3988.476562,4000.000000,4000.000000,Speed,Speed,-0.130000,0.900000,2.060000,3.000000,102.000000,1,0,-0.000000,0.000000,1,0.000000,0.053940,0.000000,1.656754,8.337982,0.000000,0.016000,-0.001000,0.048000,FlatInitial
08:39:07.797 PM 02/15/2016,Teleop Enabled,0,FALSE,0,NO ERROR,4001.660156,-3995.800781,4000.000000,4000.000000,Speed,Speed,-0.120000,0.820000,2.110000,3.000000,102.000000,1,0,-0.000000,0.000000,1,-0.015335,0.057358,0.000000,1.656235,8.340668,0.000000,-0.008000,0.005000,0.070000,FlatInitial
08:39:07.897 PM 02/15/2016,Teleop Enabled,0,FALSE,0,NO ERROR,4001.660156,-4009.716797,4000.000000,4000.000000,Speed,Speed,-0.120000,0.770000,2.100000,3.000000,102.000000,1,0,-0.000000,0.000000,1,-0.006699,0.002289,0.000000,1.655991,8.340637,0.000000,-0.011000,-0.052000,0.081000,FlatInitial
08:39:07.997 PM 02/15/2016,Teleop Enabled,0,FALSE,0,NO ERROR,4005.761719,-4009.716797,4000.000000,4000.000000,Speed,Speed,-0.120000,0.720000,2.100000,3.000000,102.000000,1,0,-0.000000,0.000000,1,-0.012558,0.000000,0.000000,1.655716,8.340637,0.000000,-0.014000,0.003000,-0.066000,FlatInitial
08:39:08.097 PM 02/15/2016,Teleop Enabled,0,FALSE,0,NO ERROR,4009.570312,-4012.500000,4000.000000,4000.000000,Speed,Speed,-0.120000,0.710000,2.150000,3.000000,102.000000,1,0,-0.000000,0.000000,1,-0.008698,0.000000,0.000000,1.655075,8.340637,0.000000,0.055000,0.016000,-0.031000,FlatInitial
08:39:08.198 PM 02/15/2016,Teleop Enabled,0,FALSE,0,NO ERROR,4010.302734,-4008.984375,4000.000000,4000.000000,Speed,Speed,-0.120000,0.720000,2.200000,3.000000,101.000000,1,0,-0.000000,0.000000,1,0.000992,0.011383,0.000000,1.655060,8.340912,0.000000,-0.031000,0.015000,0.099000,FlatInitial
08:39:08.298 PM 02/15/2016,Teleop Enabled,0,FALSE,0,NO ERROR,4008.251953,-4008.544922,4000.000000,4000.000000,Speed,Speed,-0.120000,0.760000,2.220000,3.000000,101.000000,1,0,-0.000000,0.000000,1,0.022247,0.030533,0.000000,1.655624,8.342087,0.000000,-0.053000,-0.041000,0.086000,FlatInitial
08:39:08.399 PM 02/15/2016,Teleop Enabled,0,FALSE,0,NO ERROR,4010.302734,-4011.035156,4000.000000,4000.000000,Speed,Speed,-0.130000,0.800000,2.230000,3.000000,101.000000,1,0,-0.000000,0.000000,1,0.031418,0.017899,0.000000,1.657013,8.343170,0.000000,0.037000,-0.065000,0.002000,FlatInitial
08:39:08.500 PM 02/15/2016,Teleop Enabled,0,FALSE,0,NO ERROR,4006.054687,-4008.105469,4000.000000,4000.000000,Speed,Speed,-0.130000,0.870000,2.220000,3.000000,103.000000,1,0,-0.000000,0.000000,1,0.054855,0.003601,0.000000,1.659134,8.343582,0.000000,0.016000,0.007000,-0.082000,FlatInitial
08:39:08.602 PM 02/15/2016,Teleop Enabled,0,FALSE,0,NO ERROR,4000.195312,-4004.150391,4000.000000,4000.000000,Speed,Speed,-0.130000,0.910000,2.180000,3.000000,101.000000,1,0,-0.000000,0.000000,1,0.025253,-0.017487,0.000000,1.659882,8.343155,0.000000,-0.015000,-0.011000,0.039000,FlatInitial
08:39:08.702 PM 02/15/2016,Teleop Enabled,0,FALSE,0,NO ERROR,3995.947266,-4001.513672,4000.000000,4000.000000,Speed,Speed,-0.130000,0.990000,2.100000,3.000000,103.000000,1,0,-0.000000,0.000000,1,0.039963,-0.027313,0.000000,1.661316,8.342255,0.000000,0.023000,0.007000,-0.056000,FlatInitial
08:39:08.801 PM 02/15/2016,Teleop Enabled,0,FALSE,0,NO ERROR,3994.921875,-3998.144531,4000.000000,4000.000000,Speed,Speed,-0.140000,1.060000,2.020000,3.000000,101.000000,1,0,-0.000000,0.000000,1,0.055664,-0.056915,0.000000,1.663834,8.340164,0.000000,-0.054000,-0.091000,0.042000,FlatInitial
08:39:08.902 PM 02/15/2016,Teleop Enabled,0,FALSE,0,NO ERROR,3995.507812,-3999.169922,4000.000000,4000.000000,Speed,Speed,-0.140000,1.120000,1.930000,3.000000,101.000000,1,0,-0.000000,0.000000,1,0.084335,-0.072968,0.000000,1.667297,8.336731,0.000000,-0.017000,-0.052000,0.040000,FlatInitial
08:39:09.002 PM 02/15/2016,Teleop Enabled,0,FALSE,0,NO ERROR,3994.628906,-4005.322266,4000.000000,4000.000000,Speed,Speed,-0.140000,1.180000,1.820000,3.000000,102.000000,1,0,-0.000000,0.000000,1,0.100128,-0.005539,0.000000,1.672028,8.334122,0.000000,0.043000,-0.041000,-0.103000,FlatInitial
08:39:09.102 PM 02/15/2016,Teleop Enabled,0,FALSE,0,NO ERROR,3995.214844,-4012.207031,4000.000000,4000.000000,Speed,Speed,-0.140000,1.240000,1.690000,3.000000,102.000000,1,0,-0.000000,0.000000,1,0.108597,-0.039322,0.000000,1.677277,8.332825,0.000000,0.039000,-0.016000,-0.102000,FlatInitial
08:39:09.202 PM 02/15/2016,Teleop Enabled,0,FALSE,0,NO ERROR,3998.437500,-4011.767578,4000.000000,4000.000000,Speed,Speed,-0.140000,1.270000,1.520000,3.000000,101.000000,1,0,-0.000000,0.000000,1,0.000000,-0.081161,0.000000,1.682999,8.329056,0.000000,-0.018000,-0.043000,0.063000,FlatInitial
08:39:09.301 PM 02/15/2016,Teleop Enabled,0,FALSE,0,NO ERROR,4005.761719,-4001.074219,4000.000000,4000.000000,Speed,Speed,-0.150000,1.280000,1.400000,3.000000,102.000000,1,0,-0.000000,0.000000,1,0.000000,-0.109528,0.000000,1.682999,8.325165,0.000000,0.000000,-0.010000,0.039000,FlatInitial
08:39:09.402 PM 02/15/2016,Teleop Enabled,0,FALSE,0,NO ERROR,4011.621094,-4001.660156,4000.000000,4000.000000,Speed,Speed,-0.150000,1.290000,1.250000,3.000000,102.000000,1,0,-0.000000,0.000000,1,0.000000,-0.146896,0.000000,1.682877,8.318573,0.000000,-0.011000,-0.064000,0.057000,FlatInitial
08:39:09.501 PM 02/15/2016,Teleop Enabled,0,FALSE,0,NO ERROR,4009.716797,-4002.099609,4000.000000,4000.000000,Speed,Speed,-0.150000,1.280000,1.180000,3.000000,101.000000,1,0,-0.000000,0.000000,1,0.000000,0.000000,0.000000,1.682877,8.315430,0.000000,0.004000,-0.014000,0.047000,FlatInitial
08:39:09.602 PM 02/15/2016,Teleop Enabled,0,FALSE,0,NO ERROR,4006.494141,-3998.291016,4000.000000,4000.000000,Speed,Speed,-0.150000,1.280000,1.090000,3.000000,102.000000,1,0,-0.000000,0.000000,1,-0.009872,-0.030640,0.000000,1.682541,8.314438,0.000000,-0.005000,-0.041000,0.017000,FlatInitial
08:39:09.701 PM 02/15/2016,Teleop Enabled,0,FALSE,0,NO ERROR,4005.615234,-3992.431641,4000.000000,4000.000000,Speed,Speed,-0.150000,1.260000,1.020000,3.000000,101.000000,1,0,-0.000000,0.000000,1,-0.011612,-0.066406,0.000000,1.681854,8.311844,0.000000,0.014000,-0.040000,-0.113000,FlatInitial
08:39:09.802 PM 02/15/2016,Teleop Enabled,0,FALSE,0,NO ERROR,4008.105469,-3988.037109,4000.000000,4000.000000,Speed,Speed,-0.160000,1.270000,0.900000,3.000000,101.000000,1,0,-0.000000,0.000000,1,0.004395,0.000000,0.000000,1.681900,8.310211,0.000000,0.048000,0.004000,0.048000,FlatInitial
08:39:09.902 PM 02/15/2016,Teleop Enabled,0,FALSE,0,NO ERROR,4005.175781,-3994.189453,4000.000000,4000.000000,Speed,Speed,-0.140000,1.320000,0.880000,3.000000,101.000000,1,0,-0.000000,0.000000,1,0.023453,-0.006119,0.000000,1.682480,8.310074,0.000000,0.034000,-0.020000,0.007000,FlatInitial
08:39:10.002 PM 02/15/2016,Teleop Enabled,0,FALSE,0,NO ERROR,4000.781250,-4003.710937,4000.000000,4000.000000,Speed,Speed,-0.140000,1.370000,0.930000,3.000000,103.000000,1,0,-0.000000,0.000000,1,0.036743,-0.010056,0.000000,1.683990,8.309738,0.000000,0.042000,0.049000,-0.126000,FlatInitial
08:39:10.102 PM 02/15/2016,Teleop Enabled,0,FALSE,0,NO ERROR,3996.093750,-4013.671875,4000.000000,4000.000000,Speed,Speed,-0.170000,1.400000,0.970000,3.000000,102.000000,1,0,-0.000000,0.000000,1,0.000000,-0.008270,0.000000,1.685349,8.309418,0.000000,-0.018000,0.001000,0.069000,FlatInitial
08:39:10.202 PM 02/15/2016,Teleop Enabled,0,FALSE,0,NO ERROR,3994.042969,-4012.792969,4000.000000,4000.000000,Speed,Speed,-0.150000,1.380000,0.920000,3.000000,101.000000,1,0,-0.000000,0.000000,1,0.004211,-0.006775,0.000000,1.685425,8.309326,0.000000,-0.016000,-0.028000,0.052000,FlatInitial
08:39:10.302 PM 02/15/2016,Teleop Enabled,0,FALSE,0,NO ERROR,3994.189453,-4008.398437,4000.000000,4000.000000,Speed,Speed,-0.150000,1.330000,0.900000,3.000000,102.000000,1,0,-0.000000,0.000000,1,-0.003174,-0.012299,0.000000,1.685364,8.308640,0.000000,-0.017000,-0.018000,-0.100000,FlatInitial
08:39:10.401 PM 02/15/2016,Teleop Enabled,0,FALSE,0,NO ERROR,3996.240234,-4006.640625,4000.000000,4000.000000,Speed,Speed,-0.150000,1.240000,0.960000,3.000000,102.000000,1,0,-0.000000,0.000000,1,-0.037842,0.000000,0.000000,1.684036,8.308014,0.000000,-0.023000,-0.004000,0.025000,FlatInitial
08:39:10.502 PM 02/15/2016,Teleop Enabled,0,FALSE,0,NO ERROR,3996.679687,-4007.958984,4000.000000,4000.000000,Speed,Speed,-0.150000,1.150000,1.060000,3.000000,101.000000,1,0,-0.000000,0.000000,1,-0.063950,0.001266,0.000000,1.681290,8.308029,0.000000,-0.030000,0.023000,0.002000,FlatInitial
08:39:10.603 PM 02/15/2016,Teleop Enabled,0,FALSE,0,NO ERROR,3995.800781,-4008.251953,4000.000000,4000.000000,Speed,Speed,-0.150000,1.050000,1.170000,3.000000,101.000000,1,0,-0.000000,0.000000,1,-0.080933,0.007812,0.000000,1.677628,8.308289,0.000000,-0.057000,0.024000,-0.080000,FlatInitial
08:39:10.702 PM 02/15/2016,Teleop Enabled,0,FALSE,0,NO ERROR,3997.705078,-4002.099609,4000.000000,4000.000000,Speed,Speed,-0.150000,0.960000,1.260000,3.000000,103.000000,1,0,-0.000000,0.000000,1,-0.104599,-0.001007,0.000000,1.672745,8.308411,0.000000,-0.040000,0.079000,-0.065000,FlatInitial
08:39:10.802 PM 02/15/2016,Teleop Enabled,0,FALSE,0,NO ERROR,4005.322266,-3989.941406,4000.000000,4000.000000,Speed,Speed,-0.150000,0.870000,1.380000,3.000000,104.000000,1,0,-0.000000,0.000000,1,-0.125549,0.000000,0.000000,1.666977,8.308838,0.000000,-0.042000,0.000000,0.019000,FlatInitial
08:39:10.904 PM 02/15/2016,Teleop Enabled,0,FALSE,0,NO ERROR,4009.716797,-3985.839844,4000.000000,4000.000000,Speed,Speed,-0.150000,0.770000,1.450000,3.000000,109.000000,1,0,-0.000000,0.000000,1,-0.142410,0.005219,0.000000,1.660187,8.308899,0.000000,-0.044000,-0.014000,-0.110000,FlatInitial
08:39:11.004 PM 02/15/2016,Teleop Enabled,0,FALSE,0,NO ERROR,4009.130859,-3989.794922,4000.000000,4000.000000,Speed,Speed,-0.150000,0.730000,1.450000,3.000000,101.000000,1,0,-0.000000,0.000000,1,-0.162689,0.013489,0.000000,1.652451,8.309464,0.000000,0.006000,-0.028000,0.069000,FlatInitial
08:39:11.105 PM 02/15/2016,Teleop Enabled,0,FALSE,0,NO ERROR,4004.443359,-3998.730469,4000.000000,4000.000000,Speed,Speed,-0.150000,0.710000,1.460000,3.000000,102.000000,1,0,-0.000000,0.000000,1,-0.169052,-0.010498,0.000000,1.644104,8.309296,0.000000,-0.005000,0.006000,-0.001000,FlatInitial
08:39:11.205 PM 02/15/2016,Teleop Enabled,0,FALSE,0,NO ERROR,4002.246094,-4000.927734,4000.000000,4000.000000,Speed,Speed,-0.150000,0.690000,1.480000,3.000000,100.000000,1,0,-0.000000,0.000000,1,-0.165985,0.004105,0.000000,1.635757,8.309555,0.000000,-0.038000,0.011000,0.016000,FlatInitial
08:39:11.306 PM 02/15/2016,Teleop Enabled,0,FALSE,0,NO ERROR,4001.513672,-4000.781250,4000.000000,4000.000000,Speed,Speed,-0.150000,0.660000,1.470000,3.000000,102.000000,1,0,-0.000000,0.000000,1,-0.177643,0.000000,0.000000,1.627060,8.309586,0.000000,-0.068000,0.013000,-0.093000,FlatInitial
08:39:11.407 PM 02/15/2016,Teleop Enabled,0,FALSE,0,NO ERROR,4002.832031,-4004.003906,4000.000000,4000.000000,Speed,Speed,-0.150000,0.650000,1.530000,3.000000,101.000000,1,0,-0.000000,0.000000,1,-0.184494,0.000000,0.000000,1.615997,8.309540,0.000000,0.046000,0.000000,0.050000,FlatInitial
08:39:11.507 PM 02/15/2016,Teleop Enabled,0,FALSE,0,NO ERROR,4004.589844,-4006.347656,4000.000000,4000.000000,Speed,Speed,-0.150000,0.630000,1.590000,3.000000,101.000000,1,0,-0.000000,0.000000,1,-0.187057,0.000000,0.000000,1.606781,8.309723,0.000000,-0.040000,-0.018000,-0.013000,FlatInitial
08:39:11.607 PM 02/15/2016,Teleop Enabled,0,FALSE,0,NO ERROR,4000.488281,-4011.035156,4000.000000,4000.000000,Speed,Speed,-0.150000,0.620000,1.630000,3.000000,101.000000,1,0,-0.000000,0.000000,1,-0.004730,0.003662,0.000000,1.602951,8.309921,0.000000,-0.052000,0.025000,-0.098000,FlatInitial
08:39:11.707 PM 02/15/2016,Teleop Enabled,0,FALSE,0,NO ERROR,3998.144531,-4004.736328,4000.000000,4000.000000,Speed,Speed,-0.150000,0.560000,1.780000,3.000000,101.000000,1,0,-0.000000,0.000000,1,-0.018967,0.016602,0.000000,1.602386,8.310379,0.000000,0.028000,0.054000,0.088000,FlatInitial
08:39:11.807 PM 02/15/2016,Teleop Enabled,0,FALSE,0,NO ERROR,3998.144531,-3997.705078,4000.000000,4000.000000,Speed,Speed,-0.150000,0.510000,1.890000,3.000000,102.000000,1,0,-0.000000,0.000000,1,-0.037338,0.035812,0.000000,1.600967,8.312225,0.000000,-0.027000,0.036000,-0.007000,FlatInitial
08:39:11.907 PM 02/15/2016,Teleop Enabled,0,FALSE,0,NO ERROR,4000.781250,-3993.457031,4000.000000,4000.000000,Speed,Speed,-0.150000,0.450000,1.980000,3.000000,102.000000,1,0,-0.000000,0.000000,1,-0.045227,0.007065,0.000000,1.598846,8.313126,0.000000,-0.031000,0.031000,-0.090000,FlatInitial
08:39:12.007 PM 02/15/2016,Teleop Enabled,0,FALSE,0,NO ERROR,4001.074219,-3991.699219,4000.000000,4000.000000,Speed,Speed,-0.140000,0.420000,2.030000,3.000000,105.000000,1,0,-0.000000,0.000000,1,0.000000,-0.006256,0.000000,1.598358,8.313126,0.000000,0.004000,0.003000,0.100000,FlatInitial
08:39:12.107 PM 02/15/2016,Teleop Enabled,0,FALSE,0,NO ERROR,3999.902344,-3994.628906,9000.000000,9000.000000,Speed,Speed,-0.140000,0.390000,2.030000,4.000000,101.000000,1,0,-0.000000,0.000000,1,0.001587,-0.002197,0.000000,1.598389,8.313065,0.000000,-0.016000,0.012000,0.002000,FlatInitial
08:39:12.207 PM 02/15/2016,Teleop Enabled,0,FALSE,0,NO ERROR,4203.076172,-4119.726562,9000.000000,9000.000000,Speed,Speed,-0.150000,0.390000,2.080000,4.000000,103.000000,1,0,-0.000000,0.000000,1,0.010757,0.000504,0.000000,1.598602,8.312897,0.000000,0.002000,0.054000,-0.085000,FlatInitial
08:39:12.307 PM 02/15/2016,Teleop Enabled,0,FALSE,0,NO ERROR,5517.773438,-5279.296875,9000.000000,9000.000000,Speed,Speed,-0.190000,0.430000,2.110000,4.000000,101.000000,1,0,-0.000000,0.000000,1,0.044037,-0.028885,0.000000,1.600510,8.312210,0.000000,-0.016000,0.052000,-0.050000,FlatInitial
08:39:12.407 PM 02/15/2016,Teleop Enabled,0,FALSE,0,NO ERROR,6844.335938,-6540.820312,9000.000000,9000.000000,Speed,Speed,-0.190000,0.500000,2.130000,4.000000,102.000000,1,0,-0.000000,0.000000,1,0.019165,-0.026733,0.000000,1.601913,8.311447,0.000000,-0.114000,0.049000,-0.037000,FlatInitial
08:39:12.508 PM 02/15/2016,Teleop Enabled,0,FALSE,0,NO ERROR,7747.265625,-7587.890625,9000.000000,9000.000000,Speed,Speed,-0.050000,0.550000,1.680000,4.000000,102.000000,1,0,-0.000000,0.000000,1,0.037918,0.023224,0.000000,1.603760,8.313217,0.000000,0.009000,-0.046000,-0.148000,FlatInitial
08:39:12.609 PM 02/15/2016,Teleop Enabled,0,FALSE,0,NO ERROR,8627.929688,-8413.476562,9000.000000,9000.000000,Speed,Speed,-0.080000,0.450000,2.080000,4.000000,103.000000,1,0,-0.000000,0.000000,1,0.039154,-0.031296,0.000000,1.605972,8.312607,0.000000,0.003000,0.071000,0.028000,FlatInitial
08:39:12.710 PM 02/15/2016,Teleop Enabled,0,FALSE,0,NO ERROR,9072.070312,-8765.625000,9000.000000,9000.000000,Speed,Speed,0.000000,0.570000,1.630000,4.000000,102.000000,1,0,-0.000000,0.000000,1,0.028961,-0.083633,0.000000,1.606979,8.309753,0.000000,0.030000,0.030000,-0.178000,FlatInitial
08:39:12.810 PM 02/15/2016,Teleop Enabled,0,FALSE,0,NO ERROR,9239.062500,-8960.742188,9000.000000,9000.000000,Speed,Speed,-0.020000,0.550000,1.860000,4.000000,102.000000,1,0,-0.000000,0.000000,1,0.029510,-0.132370,0.000000,1.608963,8.304001,0.000000,0.027000,-0.103000,-0.122000,FlatInitial
08:39:12.911 PM 02/15/2016,Teleop Enabled,0,FALSE,0,NO ERROR,9262.500000,-9052.734375,9000.000000,9000.000000,Speed,Speed,-0.020000,0.650000,1.790000,4.000000,102.000000,1,0,-0.000000,0.000000,1,0.068390,-0.125488,0.000000,1.611038,8.297958,0.000000,0.124000,0.009000,0.084000,FlatInitial
08:39:13.012 PM 02/15/2016,Teleop Enabled,0,FALSE,0,NO ERROR,9221.484375,-9096.679688,9000.000000,9000.000000,Speed,Speed,-0.060000,0.670000,1.630000,4.000000,101.000000,1,0,-0.000000,0.000000,1,0.044205,-0.193375,0.000000,1.613846,8.289780,0.000000,0.108000,-0.081000,-0.140000,FlatInitial
08:39:13.114 PM 02/15/2016,Teleop Enabled,0,FALSE,0,NO ERROR,9173.437500,-9103.710938,9000.000000,9000.000000,Speed,Speed,-0.060000,0.690000,1.740000,4.000000,102.000000,1,0,-0.000000,0.000000,1,0.075958,-0.198761,0.000000,1.617111,8.279770,0.000000,-0.059000,-0.260000,0.003000,FlatInitial
08:39:13.214 PM 02/15/2016,Teleop Enabled,0,FALSE,0,NO ERROR,9118.359375,-9087.890625,9000.000000,9000.000000,Speed,Speed,-0.060000,0.690000,1.670000,4.000000,103.000000,1,0,-0.000000,0.000000,1,0.078812,-0.178223,0.000000,1.620743,8.270233,0.000000,-0.070000,-0.172000,-0.005000,FlatInitial
08:39:13.315 PM 02/15/2016,Teleop Enabled,0,FALSE,0,NO ERROR,9076.171875,-9065.625000,9000.000000,9000.000000,Speed,Speed,-0.050000,0.720000,1.560000,4.000000,101.000000,1,0,-0.000000,0.000000,1,0.000000,-0.164169,0.000000,1.623856,8.261917,0.000000,0.004000,0.118000,0.045000,FlatInitial
08:39:13.416 PM 02/15/2016,Teleop Enabled,0,FALSE,0,NO ERROR,9041.015625,-9053.906250,9000.000000,9000.000000,Speed,Speed,-0.060000,0.770000,1.590000,4.000000,102.000000,1,0,-0.000000,0.000000,1,0.006561,-0.155289,0.000000,1.624146,8.252151,0.000000,0.063000,-0.087000,-0.030000,FlatInitial
08:39:13.517 PM 02/15/2016,Teleop Enabled,0,FALSE,0,NO ERROR,9024.609375,-9038.085938,9000.000000,9000.000000,Speed,Speed,-0.060000,0.760000,1.650000,4.000000,101.000000,1,0,-0.000000,0.000000,1,0.014297,-0.159744,0.000000,1.624451,8.245697,0.000000,-0.039000,0.029000,0.071000,FlatInitial
08:39:13.618 PM 02/15/2016,Teleop Enabled,0,FALSE,0,NO ERROR,9016.992188,-9026.953125,9000.000000,9000.000000,Speed,Speed,-0.060000,0.770000,1.650000,4.000000,101.000000,1,0,-0.000000,0.000000,1,0.012360,-0.181488,0.000000,1.625366,8.235199,0.000000,0.072000,-0.049000,-0.079000,FlatInitial
08:39:13.717 PM 02/15/2016,Teleop Enabled,0,FALSE,0,NO ERROR,9012.304688,-9014.648438,9000.000000,9000.000000,Speed,Speed,-0.070000,0.820000,1.640000,4.000000,101.000000,1,0,-0.000000,0.000000,1,0.033966,-0.200302,0.000000,1.626846,8.225403,0.000000,0.006000,0.043000,0.038000,FlatInitial
08:39:13.818 PM 02/15/2016,Teleop Enabled,0,FALSE,0,NO ERROR,9008.789062,-9008.203125,9000.000000,9000.000000,Speed,Speed,-0.080000,0.830000,1.620000,4.000000,102.000000,1,0,-0.000000,0.000000,1,0.060699,-0.228622,0.000000,1.629440,8.214737,0.000000,0.027000,0.004000,-0.048000,FlatInitial
08:39:13.918 PM 02/15/2016,Teleop Enabled,0,FALSE,0,NO ERROR,9006.445312,-9011.132812,9000.000000,9000.000000,Speed,Speed,-0.080000,0.840000,1.600000,4.000000,103.000000,1,0,-0.000000,0.000000,1,0.070435,-0.022690,0.000000,1.632172,8.212112,0.000000,0.024000,0.021000,0.007000,FlatInitial
08:39:14.019 PM 02/15/2016,Teleop Enabled,0,FALSE,0,NO ERROR,9007.031250,-9010.546875,9000.000000,9000.000000,Speed,Speed,-0.080000,0.870000,1.640000,4.000000,102.000000,1,0,-0.000000,0.000000,1,0.078674,-0.045181,0.000000,1.636826,8.210449,0.000000,-0.079000,-0.020000,0.004000,FlatInitial
08:39:14.121 PM 02/15/2016,Teleop Enabled,0,FALSE,0,NO ERROR,9008.789062,-9016.406250,9000.000000,9000.000000,Speed,Speed,-0.090000,0.840000,1.630000,4.000000,102.000000,1,0,-0.000000,0.000000,1,0.069107,-0.021835,0.000000,1.640442,8.209442,0.000000,0.017000,-0.065000,-0.063000,FlatInitial
08:39:14.221 PM 02/15/2016,Teleop Enabled,0,FALSE,0,NO ERROR,9010.546875,-9016.406250,9000.000000,9000.000000,Speed,Speed,-0.090000,0.900000,1.610000,4.000000,106.000000,1,0,-0.000000,0.000000,1,0.074417,-0.058502,0.000000,1.644760,8.206726,0.000000,0.026000,-0.132000,-0.077000,FlatInitial
08:39:14.322 PM 02/15/2016,Teleop Enabled,0,FALSE,0,NO ERROR,9007.617188,-9016.406250,9000.000000,9000.000000,Speed,Speed,-0.080000,0.910000,1.720000,4.000000,103.000000,1,0,-0.000000,0.000000,1,0.081268,-0.084259,0.000000,1.647614,8.203781,0.000000,0.020000,-0.174000,-0.061000,FlatInitial
08:39:14.424 PM 02/15/2016,Teleop Enabled,0,FALSE,0,NO ERROR,9007.617188,-9017.578125,9000.000000,9000.000000,Speed,Speed,-0.090000,0.910000,1.700000,4.000000,102.000000,1,0,-0.000000,0.000000,1,0.057510,-0.118484,0.000000,1.650894,8.198502,0.000000,0.004000,0.110000,0.016000,FlatInitial
08:39:14.525 PM 02/15/2016,Teleop Enabled,0,FALSE,0,NO ERROR,9004.687500,-9020.507812,9000.000000,9000.000000,Speed,Speed,-0.070000,0.920000,1.730000,4.000000,101.000000,1,0,-0.000000,0.000000,1,-0.013077,-0.160782,0.000000,1.650360,8.191330,0.000000,-0.060000,-0.168000,0.003000,FlatInitial
08:39:14.626 PM 02/15/2016,Teleop Enabled,0,FALSE,0,NO ERROR,9002.929688,-9016.406250,9000.000000,9000.000000,Speed,Speed,-0.070000,0.910000,1.690000,4.000000,103.000000,1,0,-0.000000,0.000000,1,-0.022171,-0.181885,0.000000,1.649445,8.182556,0.000000,0.069000,0.135000,-0.058000,FlatInitial
08:39:14.726 PM 02/15/2016,Teleop Enabled,0,FALSE,0,NO ERROR,9002.343750,-9012.890625,9000.000000,9000.000000,Speed,Speed,-0.090000,0.950000,1.690000,4.000000,102.000000,1,0,-0.000000,0.000000,1,-0.024933,-0.215195,0.000000,1.648300,8.172455,0.000000,0.065000,0.131000,-0.103000,FlatInitial
08:39:14.827 PM 02/15/2016,Teleop Enabled,0,FALSE,0,NO ERROR,9005.273438,-9012.304688,9000.000000,9000.000000,Speed,Speed,-0.080000,0.920000,1.730000,4.000000,102.000000,1,0,-0.000000,0.000000,1,-0.012955,-0.233627,0.000000,1.647278,8.161102,0.000000,-0.043000,-0.178000,0.029000,FlatInitial
08:39:14.927 PM 02/15/2016,Teleop Enabled,0,FALSE,0,NO ERROR,9008.789062,-9012.304688,9000.000000,9000.000000,Speed,Speed,-0.080000,0.910000,1.660000,4.000000,102.000000,1,0,-0.000000,0.000000,1,-0.010345,-0.245026,0.000000,1.646988,8.149231,0.000000,0.092000,0.215000,-0.092000,FlatInitial
08:39:15.027 PM 02/15/2016,Teleop Enabled,0,FALSE,0,NO ERROR,9011.132812,-9010.546875,9000.000000,9000.000000,Speed,Speed,-0.080000,0.940000,1.690000,4.000000,103.000000,1,0,-0.000000,0.000000,1,0.015518,-0.227936,0.000000,1.647354,8.137665,0.000000,0.004000,-0.156000,0.064000,FlatInitial
08:39:15.127 PM 02/15/2016,Teleop Enabled,0,FALSE,0,NO ERROR,9013.476562,-9006.445312,9000.000000,9000.000000,Speed,Speed,-0.080000,0.940000,1.710000,4.000000,101.000000,1,0,-0.000000,0.000000,1,0.013977,-0.201523,0.000000,1.647812,8.126892,0.000000,-0.029000,0.207000,-0.064000,FlatInitial
08:39:15.227 PM 02/15/2016,Teleop Enabled,0,FALSE,0,NO ERROR,9008.789062,-9003.515625,9000.000000,9000.000000,Speed,Speed,-0.090000,0.930000,1.690000,4.000000,102.000000,1,0,-0.000000,0.000000,1,0.029602,-0.199020,0.000000,1.649292,8.114792,0.000000,0.014000,-0.236000,0.035000,FlatInitial
08:39:15.327 PM 02/15/2016,Teleop Enabled,0,FALSE,0,NO ERROR,9003.515625,-9005.273438,9000.000000,9000.000000,Speed,Speed,-0.090000,0.940000,1.650000,4.000000,100.000000,1,0,-0.000000,0.000000,1,0.050583,-0.187347,0.000000,1.651413,8.105164,0.000000,-0.033000,0.203000,-0.021000,FlatInitial
08:39:15.427 PM 02/15/2016,Teleop Enabled,0,FALSE,0,NO ERROR,9000.000000,-9006.445312,9000.000000,9000.000000,Speed,Speed,-0.090000,0.940000,1.590000,4.000000,104.000000,1,0,-0.000000,0.000000,1,0.067200,-0.165207,0.000000,1.653824,8.097931,0.000000,0.057000,-0.265000,-0.044000,FlatInitial
08:39:15.528 PM 02/15/2016,Teleop Enabled,0,FALSE,0,NO ERROR,8994.726562,-9009.960938,9000.000000,9000.000000,Speed,Speed,-0.090000,0.990000,1.580000,4.000000,100.000000,1,0,-0.000000,0.000000,1,0.000000,-0.136292,0.000000,1.658188,8.088821,0.000000,-0.010000,0.263000,-0.023000,FlatInitial
08:39:15.628 PM 02/15/2016,Teleop Enabled,0,FALSE,0,NO ERROR,8990.039062,-9008.789062,9000.000000,9000.000000,Speed,Speed,-0.090000,0.960000,1.630000,4.000000,101.000000,1,0,-0.000000,0.000000,1,0.026230,-0.093094,0.000000,1.658829,8.083481,0.000000,0.003000,-0.216000,-0.024000,FlatInitial
08:39:15.728 PM 02/15/2016,Teleop Enabled,0,FALSE,0,NO ERROR,8990.039062,-9002.343750,9000.000000,9000.000000,Speed,Speed,-0.090000,0.940000,1.580000,4.000000,101.000000,1,0,-0.000000,0.000000,1,0.013306,-0.049377,0.000000,1.659256,8.079742,0.000000,0.055000,0.266000,-0.017000,FlatInitial
08:39:15.828 PM 02/15/2016,Teleop Enabled,0,FALSE,0,NO ERROR,8998.242188,-9001.757812,9000.000000,9000.000000,Speed,Speed,-0.090000,0.970000,1.600000,4.000000,101.000000,1,0,-0.000000,0.000000,1,0.052826,-0.009125,0.000000,1.661240,8.078384,0.000000,-0.019000,-0.188000,0.000000,FlatInitial
08:39:15.929 PM 02/15/2016,Teleop Enabled,0,FALSE,0,NO ERROR,9000.000000,-9002.343750,9000.000000,9000.000000,Speed,Speed,-0.090000,0.960000,1.570000,4.000000,101.000000,1,0,-0.000000,0.000000,1,0.074127,0.061188,0.000000,1.664536,8.080017,0.000000,0.129000,0.287000,-0.020000,FlatInitial
08:39:16.029 PM 02/15/2016,Teleop Enabled,0,FALSE,0,NO ERROR,9009.960938,-9000.585938,9000.000000,9000.000000,Speed,Speed,-0.090000,0.970000,1.610000,4.000000,102.000000,1,0,-0.000000,0.000000,1,0.113342,0.123367,0.000000,1.669662,8.084793,0.000000,-0.053000,-0.089000,0.033000,FlatInitial
08:39:16.129 PM 02/15/2016,Teleop Enabled,0,FALSE,0,NO ERROR,9011.132812,-9000.000000,9000.000000,9000.000000,Speed,Speed,-0.090000,0.970000,1.560000,4.000000,102.000000,1,0,-0.000000,0.000000,1,0.132538,0.193939,0.000000,1.675903,8.093246,0.000000,0.040000,0.269000,-0.018000,FlatInitial
08:39:16.229 PM 02/15/2016,Teleop Enabled,0,FALSE,0,NO ERROR,9006.445312,-9000.000000,9000.000000,9000.000000,Speed,Speed,-0.100000,0.980000,1.640000,4.000000,102.000000,1,0,-0.000000,0.000000,1,0.143433,0.282486,0.000000,1.682953,8.105591,0.000000,-0.060000,-0.055000,0.058000,FlatInitial
08:39:16.330 PM 02/15/2016,Teleop Enabled,0,FALSE,0,NO ERROR,9003.515625,-9002.929688,9000.000000,9000.000000,Speed,Speed,-0.090000,0.980000,1.590000,4.000000,101.000000,1,0,-0.000000,0.000000,1,0.010880,0.367538,0.000000,1.686081,8.122543,0.000000,-0.079000,-0.052000,0.086000,FlatInitial
08:39:16.430 PM 02/15/2016,Teleop Enabled,0,FALSE,0,NO ERROR,9002.929688,-9004.101562,9000.000000,9000.000000,Speed,Speed,-0.090000,0.990000,1.640000,4.000000,101.000000,1,0,-0.000000,0.000000,1,0.015808,0.466553,0.000000,1.686707,8.143982,0.000000,-0.004000,-0.113000,0.064000,FlatInitial
08:39:16.531 PM 02/15/2016,Teleop Enabled,0,FALSE,0,NO ERROR,9003.515625,-9008.203125,9000.000000,9000.000000,Speed,Speed,-0.100000,1.010000,1.570000,4.000000,101.000000,1,0,-0.000000,0.000000,1,0.019028,0.570618,0.000000,1.688049,8.175568,0.000000,-0.010000,-0.089000,0.085000,FlatInitial
08:39:16.630 PM 02/15/2016,Teleop Enabled,0,FALSE,0,NO ERROR,8998.242188,-9007.617188,9000.000000,9000.000000,Speed,Speed,-0.090000,1.020000,1.600000,4.000000,102.000000,1,0,-0.000000,0.000000,1,0.032135,0.640488,0.000000,1.689194,8.200287,0.000000,0.035000,-0.161000,0.023000,FlatInitial
08:39:16.731 PM 02/15/2016,Teleop Enabled,0,FALSE,0,NO ERROR,8997.070312,-9008.789062,9000.000000,9000.000000,Speed,Speed,-0.090000,1.020000,1.560000,4.000000,101.000000,1,0,-0.000000,0.000000,1,0.042252,0.760696,0.000000,1.691422,8.242737,0.000000,0.057000,-0.065000,0.017000,FlatInitial
08:39:16.832 PM 02/15/2016,Teleop Enabled,0,FALSE,0,NO ERROR,8995.312500,-9009.960938,9000.000000,9000.000000,Speed,Speed,-0.090000,1.010000,1.580000,4.000000,101.000000,1,0,-0.000000,0.000000,1,0.062073,0.852127,0.000000,1.693390,8.275421,0.000000,-0.051000,0.270000,-0.018000,FlatInitial
08:39:16.933 PM 02/15/2016,Teleop Enabled,0,FALSE,0,NO ERROR,9000.000000,-9008.203125,9000.000000,9000.000000,Speed,Speed,-0.090000,1.000000,1.550000,4.000000,101.000000,1,0,-0.000000,0.000000,1,0.065796,0.965469,0.000000,1.696564,8.321304,0.000000,0.053000,-0.060000,-0.008000,FlatInitial
08:39:17.033 PM 02/15/2016,Teleop Enabled,0,FALSE,0,NO ERROR,9000.000000,-9004.101562,9000.000000,9000.000000,Speed,Speed,-0.090000,0.980000,1.550000,4.000000,101.000000,1,0,-0.000000,0.000000,1,0.069183,1.115479,0.000000,1.700974,8.384354,0.000000,0.021000,0.308000,-0.027000,FlatInitial
08:39:17.133 PM 02/15/2016,Teleop Enabled,0,FALSE,0,NO ERROR,9001.171875,-8998.242188,9000.000000,9000.000000,Speed,Speed,-0.090000,1.000000,1.550000,4.000000,102.000000,1,0,-0.000000,0.000000,1,0.082321,1.238052,0.000000,1.704758,8.443710,0.000000,0.027000,-0.060000,-0.022000,FlatInitial
08:39:17.235 PM 02/15/2016,Teleop Enabled,0,FALSE,0,NO ERROR,9002.929688,-8994.140625,9000.000000,9000.000000,Speed,Speed,-0.090000,0.990000,1.520000,4.000000,101.000000,1,0,-0.000000,0.000000,1,0.083130,1.367096,0.000000,1.708862,8.509384,0.000000,0.087000,0.315000,-0.033000,FlatInitial
08:39:17.337 PM 02/15/2016,Teleop Enabled,0,FALSE,0,NO ERROR,9007.031250,-8994.140625,9000.000000,9000.000000,Speed,Speed,-0.090000,1.000000,1.550000,4.000000,103.000000,1,0,-0.000000,0.000000,1,0.104218,1.488815,0.000000,1.713654,8.581467,0.000000,0.025000,-0.077000,0.034000,FlatInitial
08:39:17.437 PM 02/15/2016,Teleop Enabled,0,FALSE,0,NO ERROR,9010.546875,-8995.898438,9000.000000,9000.000000,Speed,Speed,-0.090000,0.960000,1.540000,4.000000,101.000000,1,0,-0.000000,0.000000,1,0.110687,1.604889,0.000000,1.719147,8.659164,0.000000,0.060000,0.304000,0.043000,FlatInitial
08:39:17.537 PM 02/15/2016,Teleop Enabled,0,FALSE,0,NO ERROR,9005.273438,-9000.000000,9000.000000,9000.000000,Speed,Speed,-0.090000,0.960000,1.510000,4.000000,102.000000,1,0,-0.000000,0.000000,1,0.127762,1.700302,0.000000,1.725418,8.742157,0.000000,-0.014000,0.004000,0.082000,FlatInitial
08:39:17.638 PM 02/15/2016,Teleop Enabled,0,FALSE,0,NO ERROR,9004.101562,-9007.617188,9000.000000,9000.000000,Speed,Speed,-0.090000,0.970000,1.540000,4.000000,101.000000,1,0,-0.000000,0.000000,1,0.149734,1.813507,0.000000,1.732559,8.830734,0.000000,0.056000,0.265000,0.010000,FlatInitial
08:39:17.738 PM 02/15/2016,Teleop Enabled,0,FALSE,0,NO ERROR,9002.929688,-9014.648438,9000.000000,9000.000000,Speed,Speed,-0.090000,0.970000,1.540000,4.000000,102.000000,1,0,-0.000000,0.000000,1,0.160172,1.912262,0.000000,1.740570,8.924576,0.000000,-0.018000,0.022000,0.074000,FlatInitial
08:39:17.837 PM 02/15/2016,Teleop Enabled,0,FALSE,0,NO ERROR,9007.031250,-9012.890625,9000.000000,9000.000000,Speed,Speed,-0.090000,0.980000,1.560000,4.000000,101.000000,1,0,-0.000000,0.000000,1,0.173813,2.007858,0.000000,1.748978,9.023315,0.000000,-0.016000,0.183000,0.064000,FlatInitial
08:39:17.938 PM 02/15/2016,Teleop Enabled,0,FALSE,0,NO ERROR,9009.375000,-9012.890625,9000.000000,9000.000000,Speed,Speed,-0.090000,0.990000,1.530000,4.000000,102.000000,1,0,-0.000000,0.000000,1,0.173843,2.076431,0.000000,1.757492,9.125916,0.000000,0.019000,0.168000,0.010000,FlatInitial
08:39:18.037 PM 02/15/2016,Teleop Enabled,0,FALSE,0,NO ERROR,9012.304688,-9011.132812,9000.000000,9000.000000,Speed,Speed,-0.090000,1.020000,1.580000,4.000000,102.000000,1,0,-0.000000,0.000000,1,0.194427,2.148575,0.000000,1.766724,9.231995,0.000000,0.014000,-0.009000,0.023000,FlatInitial
08:39:18.138 PM 02/15/2016,Teleop Enabled,0,FALSE,0,NO ERROR,9004.101562,-9011.718750,9000.000000,9000.000000,Speed,Speed,-0.090000,0.980000,1.570000,4.000000,101.000000,1,0,-0.000000,0.000000,1,0.006516,2.200378,0.000000,1.768692,9.341080,0.000000,-0.078000,0.117000,0.099000,FlatInitial
08:39:18.239 PM 02/15/2016,Teleop Enabled,0,FALSE,0,NO ERROR,8998.828125,-9008.203125,9000.000000,9000.000000,Speed,Speed,-0.090000,0.980000,1.590000,4.000000,102.000000,1,0,-0.000000,0.000000,1,0.002762,2.240707,0.000000,1.768906,9.452377,0.000000,0.120000,-0.020000,-0.040000,FlatInitial
08:39:18.339 PM 02/15/2016,Teleop Enabled,0,FALSE,0,NO ERROR,9000.585938,-9005.859375,9000.000000,9000.000000,Speed,Speed,-0.090000,0.960000,1.630000,4.000000,102.000000,1,0,-0.000000,0.000000,1,0.021622,2.277878,0.000000,1.769653,9.565582,0.000000,0.078000,-0.056000,0.007000,FlatInitial
08:39:18.439 PM 02/15/2016,Teleop Enabled,0,FALSE,0,NO ERROR,8997.656250,-9000.585938,9000.000000,9000.000000,Speed,Speed,-0.080000,1.020000,1.590000,4.000000,101.000000,1,0,-0.000000,0.000000,1,0.027374,2.309967,0.000000,1.770950,9.680267,0.000000,0.097000,-0.047000,-0.016000,FlatInitial
08:39:18.539 PM 02/15/2016,Teleop Enabled,0,FALSE,0,NO ERROR,8998.242188,-8999.414062,9000.000000,9000.000000,Speed,Speed,-0.100000,1.020000,1.610000,4.000000,101.000000,1,0,-0.000000,0.000000,1,0.035141,2.326324,0.000000,1.773392,9.819473,0.000000,0.097000,-0.047000,-0.016000,FlatInitial
08:39:18.640 PM 02/15/2016,Teleop Enabled,0,FALSE,0,NO ERROR,8996.484375,-9003.515625,9000.000000,9000.000000,Speed,Speed,-0.090000,1.010000,1.530000,4.000000,102.000000,1,0,-0.000000,0.000000,1,0.039993,2.341721,0.000000,1.775223,9.936218,0.000000,0.026000,-0.093000,-0.020000,FlatInitial
08:39:18.739 PM 02/15/2016,Teleop Enabled,0,FALSE,0,NO ERROR,9000.585938,-9000.000000,9000.000000,9000.000000,Speed,Speed,-0.090000,1.010000,1.580000,4.000000,103.000000,1,0,-0.000000,0.000000,1,0.037552,2.346664,0.000000,1.777328,10.053345,0.000000,0.014000,0.080000,0.106000,FlatInitial
08:39:18.840 PM 02/15/2016,Teleop Enabled,0,FALSE,0,NO ERROR,9002.929688,-9001.757812,9000.000000,9000.000000,Speed,Speed,-0.090000,1.010000,1.580000,4.000000,101.000000,1,0,-0.000000,0.000000,1,0.039124,2.351151,0.000000,1.779510,10.170914,0.000000,0.014000,0.080000,0.106000,FlatInitial
08:39:18.940 PM 02/15/2016,Teleop Enabled,0,FALSE,0,NO ERROR,9006.445312,-8997.656250,9000.000000,9000.000000,Speed,Speed,-0.100000,1.030000,1.580000,4.000000,103.000000,1,0,-0.000000,0.000000,1,0.039124,2.351151,0.000000,1.779510,10.170914,0.000000,-0.064000,-0.096000,0.038000,FlatInitial
08:39:19.040 PM 02/15/2016,Teleop Enabled,0,FALSE,0,NO ERROR,9007.031250,-8997.070312,9000.000000,9000.000000,Speed,Speed,-0.100000,1.020000,1.550000,4.000000,102.000000,1,0,-0.000000,0.000000,1,0.000000,2.352783,0.000000,1.780853,10.288635,0.000000,-0.002000,0.007000,0.101000,FlatInitial
08:39:19.139 PM 02/15/2016,Teleop Enabled,0,FALSE,0,NO ERROR,9000.000000,-9000.585938,9000.000000,9000.000000,Speed,Speed,-0.090000,1.030000,1.520000,4.000000,102.000000,1,0,-0.000000,0.000000,1,-0.010742,2.310394,0.000000,1.780701,10.405029,0.000000,-0.036000,-0.048000,0.016000,FlatInitial
08:39:19.240 PM 02/15/2016,Teleop Enabled,0,FALSE,0,NO ERROR,9000.000000,-8999.414062,9000.000000,9000.000000,Speed,Speed,-0.090000,1.040000,1.530000,4.000000,101.000000,1,0,-0.000000,0.000000,1,-0.004623,2.294434,0.000000,1.780380,10.520248,0.000000,-0.006000,0.058000,0.107000,FlatInitial
08:39:19.341 PM 02/15/2016,Teleop Enabled,0,FALSE,0,NO ERROR,8992.968750,-9002.343750,9000.000000,9000.000000,Speed,Speed,-0.090000,1.030000,1.520000,4.000000,102.000000,1,0,-0.000000,0.000000,1,-0.016983,2.263977,0.000000,1.779007,10.748184,0.000000,-0.023000,0.029000,0.101000,FlatInitial
08:39:19.442 PM 02/15/2016,Teleop Enabled,0,FALSE,0,NO ERROR,8991.796875,-9003.515625,9000.000000,9000.000000,Speed,Speed,-0.090000,1.000000,1.570000,4.000000,106.000000,1,0,-0.000000,0.000000,1,-0.016983,2.263977,0.000000,1.779007,10.748184,0.000000,-0.023000,0.029000,0.101000,FlatInitial
08:39:19.542 PM 02/15/2016,Teleop Enabled,0,FALSE,0,NO ERROR,8994.140625,-9007.617188,9000.000000,9000.000000,Speed,Speed,-0.090000,1.000000,1.570000,4.000000,102.000000,1,0,-0.000000,0.000000,1,-0.031342,2.255890,0.000000,1.777374,10.883835,0.000000,-0.015000,0.044000,0.080000,FlatInitial
08:39:19.643 PM 02/15/2016,Teleop Enabled,0,FALSE,0,NO ERROR,9004.101562,-9007.031250,9000.000000,9000.000000,Speed,Speed,-0.090000,1.000000,1.570000,4.000000,101.000000,1,0,-0.000000,0.000000,1,-0.041992,2.234970,0.000000,1.775726,10.973587,0.000000,0.066000,-0.061000,-0.049000,FlatInitial
08:39:19.743 PM 02/15/2016,Teleop Enabled,0,FALSE,0,NO ERROR,9008.789062,-9008.203125,9000.000000,9000.000000,Speed,Speed,-0.090000,1.000000,1.600000,4.000000,101.000000,1,0,-0.000000,0.000000,1,-0.048233,2.195892,0.000000,1.772644,11.128586,0.000000,-0.018000,-0.073000,0.000000,FlatInitial
08:39:19.843 PM 02/15/2016,Teleop Enabled,0,FALSE,0,NO ERROR,9013.476562,-8997.656250,9000.000000,9000.000000,Speed,Speed,-0.090000,1.000000,1.600000,4.000000,101.000000,1,0,-0.000000,0.000000,1,-0.048721,2.150162,0.000000,1.770721,11.215332,0.000000,0.080000,-0.126000,-0.029000,FlatInitial
08:39:19.943 PM 02/15/2016,Teleop Enabled,0,FALSE,0,NO ERROR,9008.203125,-8992.382812,9000.000000,9000.000000,Speed,Speed,-0.100000,1.000000,1.640000,4.000000,102.000000,1,0,-0.000000,0.000000,1,-0.068558,2.051987,0.000000,1.766022,11.404053,0.000000,-0.090000,-0.022000,0.114000,FlatInitial
08:39:20.044 PM 02/15/2016,Teleop Enabled,0,FALSE,0,NO ERROR,9004.101562,-8987.109375,9000.000000,9000.000000,Speed,Speed,-0.100000,1.000000,1.640000,4.000000,102.000000,1,0,-0.000000,0.000000,1,-0.068558,2.051987,0.000000,1.766022,11.404053,0.000000,0.107000,-0.107000,-0.036000,FlatInitial
08:39:20.144 PM 02/15/2016,Teleop Enabled,0,FALSE,0,NO ERROR,9007.617188,-8985.351562,9000.000000,9000.000000,Speed,Speed,-0.090000,0.980000,1.620000,4.000000,102.000000,1,0,-0.000000,0.000000,1,-0.079010,1.976440,0.000000,1.761902,11.524490,0.000000,-0.067000,-0.002000,0.100000,FlatInitial
08:39:20.245 PM 02/15/2016,Teleop Enabled,0,FALSE,0,NO ERROR,9002.343750,-8991.210938,9000.000000,9000.000000,Speed,Speed,-0.090000,0.970000,1.610000,4.000000,102.000000,1,0,-0.000000,0.000000,1,-0.089096,1.915817,0.000000,1.757568,11.621338,0.000000,0.066000,-0.108000,-0.024000,FlatInitial
08:39:20.345 PM 02/15/2016,Teleop Enabled,0,FALSE,0,NO ERROR,8991.796875,-8998.242188,9000.000000,9000.000000,Speed,Speed,-0.100000,0.980000,1.600000,4.000000,105.000000,1,0,-0.000000,0.000000,1,-0.114105,1.853638,0.000000,1.752640,11.715240,0.000000,-0.035000,0.005000,0.101000,FlatInitial
08:39:20.445 PM 02/15/2016,Teleop Enabled,0,FALSE,0,NO ERROR,8984.765625,-9001.757812,9000.000000,9000.000000,Speed,Speed,-0.090000,0.950000,1.560000,4.000000,100.000000,1,0,-0.000000,0.000000,1,-0.136688,1.791870,0.000000,1.746490,11.806290,0.000000,-0.078000,-0.004000,0.102000,FlatInitial
08:39:20.546 PM 02/15/2016,Teleop Enabled,0,FALSE,0,NO ERROR,8996.484375,-9007.617188,9000.000000,9000.000000,Speed,Speed,-0.100000,0.970000,1.550000,4.000000,102.000000,1,0,-0.000000,0.000000,1,-0.161926,1.728943,0.000000,1.738846,11.893845,0.000000,0.027000,-0.107000,-0.048000,FlatInitial
08:39:20.646 PM 02/15/2016,Teleop Enabled,0,FALSE,0,NO ERROR,9005.859375,-9012.304688,9000.000000,9000.000000,Speed,Speed,-0.100000,0.990000,1.540000,4.000000,101.000000,1,0,-0.000000,0.000000,1,-0.172287,1.669983,0.000000,1.730438,11.978500,0.000000,-0.017000,-0.088000,-0.022000,FlatInitial
08:39:20.747 PM 02/15/2016,Teleop Enabled,0,FALSE,0,NO ERROR,9011.718750,-9008.789062,9000.000000,9000.000000,Speed,Speed,-0.090000,0.960000,1.600000,4.000000,102.000000,1,0,-0.000000,0.000000,1,-0.182526,1.617126,0.000000,1.721512,12.060547,0.000000,-0.045000,-0.093000,-0.020000,FlatInitial
08:39:20.847 PM 02/15/2016,Teleop Enabled,0,FALSE,0,NO ERROR,9007.031250,-9002.929688,9000.000000,9000.000000,Speed,Speed,-0.100000,0.980000,1.590000,4.000000,101.000000,1,0,-0.000000,0.000000,1,-0.215866,1.539322,0.000000,1.709229,12.154846,0.000000,-0.038000,-0.028000,0.027000,FlatInitial
08:39:20.947 PM 02/15/2016,Teleop Enabled,0,FALSE,0,NO ERROR,9005.273438,-9004.101562,9000.000000,9000.000000,Speed,Speed,-0.100000,1.000000,1.570000,4.000000,102.000000,1,0,-0.000000,0.000000,1,-0.239105,1.466583,0.000000,1.699875,12.214813,0.000000,-0.061000,-0.107000,-0.038000,FlatInitial
08:39:21.047 PM 02/15/2016,Teleop Enabled,0,FALSE,0,NO ERROR,9001.757812,-9001.171875,9000.000000,9000.000000,Speed,Speed,-0.100000,1.000000,1.590000,4.000000,102.000000,1,0,-0.000000,0.000000,1,-0.287750,1.366638,0.000000,1.683578,12.299438,0.000000,-0.095000,-0.086000,0.018000,FlatInitial
08:39:21.148 PM 02/15/2016,Teleop Enabled,0,FALSE,0,NO ERROR,8991.210938,-9003.515625,9000.000000,9000.000000,Speed,Speed,-0.100000,1.000000,1.600000,4.000000,101.000000,1,0,-0.000000,0.000000,1,-0.342987,1.273895,0.000000,1.667465,12.365067,0.000000,-0.006000,-0.075000,-0.037000,FlatInitial
08:39:21.251 PM 02/15/2016,Teleop Enabled,0,FALSE,0,NO ERROR,8981.835938,-9001.171875,9000.000000,9000.000000,Speed,Speed,-0.100000,0.960000,1.600000,4.000000,103.000000,1,0,-0.000000,0.000000,1,-0.381088,1.202286,0.000000,1.652847,12.414291,0.000000,0.056000,-0.155000,-0.030000,FlatInitial
08:39:21.351 PM 02/15/2016,Teleop Enabled,0,FALSE,0,NO ERROR,8986.523438,-9004.101562,9000.000000,9000.000000,Speed,Speed,-0.100000,0.980000,1.590000,4.000000,102.000000,1,0,-0.000000,0.000000,1,-0.429031,1.088135,0.000000,1.628281,12.482376,0.000000,0.058000,-0.148000,-0.033000,FlatInitial
08:39:21.452 PM 02/15/2016,Teleop Enabled,0,FALSE,0,NO ERROR,8998.828125,-9007.031250,9000.000000,9000.000000,Speed,Speed,-0.100000,0.970000,1.580000,4.000000,102.000000,1,0,-0.000000,0.000000,1,-0.461990,0.983505,0.000000,1.605774,12.533676,0.000000,0.038000,-0.112000,-0.043000,FlatInitial
08:39:21.552 PM 02/15/2016,Teleop Enabled,0,FALSE,0,NO ERROR,9011.132812,-9007.031250,9000.000000,9000.000000,Speed,Speed,-0.100000,0.940000,1.590000,4.000000,101.000000,1,0,-0.000000,0.000000,1,-0.503876,0.889725,0.000000,1.581345,12.580048,0.000000,0.062000,-0.133000,-0.091000,FlatInitial
08:39:21.653 PM 02/15/2016,Teleop Enabled,0,FALSE,0,NO ERROR,9012.304688,-9008.203125,9000.000000,9000.000000,Speed,Speed,-0.100000,0.950000,1.610000,4.000000,101.000000,1,0,-0.000000,0.000000,1,-0.541702,0.785568,0.000000,1.555176,12.621460,0.000000,-0.116000,-0.079000,0.039000,FlatInitial
08:39:21.753 PM 02/15/2016,Teleop Enabled,0,FALSE,0,NO ERROR,9015.234375,-9004.101562,9000.000000,9000.000000,Speed,Speed,-0.100000,0.970000,1.610000,4.000000,103.000000,1,0,-0.000000,0.000000,1,-0.554016,0.676910,0.000000,1.527756,12.657333,0.000000,0.015000,-0.120000,-0.084000,FlatInitial
08:39:21.854 PM 02/15/2016,Teleop Enabled,0,FALSE,0,NO ERROR,9011.718750,-9006.445312,9000.000000,9000.000000,Speed,Speed,-0.110000,0.980000,1.610000,4.000000,101.000000,1,0,-0.000000,0.000000,1,-0.586807,0.570587,0.000000,1.499176,12.687775,0.000000,-0.071000,-0.064000,-0.007000,FlatInitial
08:39:21.954 PM 02/15/2016,Teleop Enabled,0,FALSE,0,NO ERROR,9006.445312,-9002.343750,9000.000000,9000.000000,Speed,Speed,-0.110000,0.990000,1.580000,4.000000,103.000000,1,0,-0.000000,0.000000,1,-0.610260,0.448471,0.000000,1.469269,12.712753,0.000000,-0.065000,-0.059000,0.041000,FlatInitial
08:39:22.055 PM 02/15/2016,Teleop Enabled,0,FALSE,0,NO ERROR,9000.585938,-9004.101562,9000.000000,9000.000000,Speed,Speed,-0.110000,0.970000,1.560000,4.000000,101.000000,1,0,-0.000000,0.000000,1,-0.640427,0.333939,0.000000,1.437851,12.731934,0.000000,-0.047000,-0.093000,0.037000,FlatInitial
08:39:22.155 PM 02/15/2016,Teleop Enabled,0,FALSE,0,NO ERROR,8998.828125,-9004.101562,9000.000000,9000.000000,Speed,Speed,-0.110000,0.980000,1.560000,4.000000,101.000000,1,0,-0.000000,0.000000,1,-0.665985,0.239090,0.000000,1.405212,12.745850,0.000000,-0.008000,-0.108000,-0.032000,FlatInitial
08:39:22.255 PM 02/15/2016,Teleop Enabled,0,FALSE,0,NO ERROR,9002.343750,-9002.343750,9000.000000,9000.000000,Speed,Speed,-0.110000,0.960000,1.580000,4.000000,102.000000,1,0,-0.000000,0.000000,1,-0.685196,0.113998,0.000000,1.364670,12.756012,0.000000,-0.050000,-0.145000,0.007000,FlatInitial
08:39:22.355 PM 02/15/2016,Teleop Enabled,0,FALSE,0,NO ERROR,9002.343750,-9001.757812,9000.000000,9000.000000,Speed,Speed,-0.110000,0.970000,1.520000,4.000000,101.000000,1,0,-0.000000,0.000000,1,-0.700180,0.025742,0.000000,1.336868,12.758392,0.000000,-0.020000,-0.087000,-0.063000,FlatInitial
