Time,RobotMode,AutoToRun,ErrorStatus, ErrorCode,ErrorSource,ActualRPM1,ActualRPM2,DesiredRPM1,DesiredRPM2,ControlMode1,ControlMode2,NavXYaw,NavXRoll,NavXPitch,ShooterState,LoopTime,IsLevel,IsAutoTargeting,LeftMotorOutput,RightMotorOutput,IsHaloDrive,NavXVelocityX,NavXVelocityY,NavXVelocityZ,NavXDisplacementX,NavXDisplacementY,NavXDisplacementZ,NavXAccelerationX,NavXAccelerationY,NavXAccelerationZ,AutoDefendState
08:49:46.833 PM 02/15/2016,Teleop Enabled,0,TRUE,91,Variant To Data in WPI_DigitalInputRefNum Registry Get.vi->Periodic Tasks.vi->Robot Main.vi,0.000000,0.000000,0.000000,0.000000,Speed,Speed,-0.020000,1.010000,1.630000,0.000000,37473.000000,1,0,-0.000000,0.000000,1,0.000000,0.000000,0.000000,-5.845459,29.531967,0.000000,0.001000,0.002000,0.002000,FlatInitial
08:49:46.933 PM 02/15/2016,Teleop Enabled,0,TRUE,-44007,<LOCATION>WPI_DigitalInputRefNum Registry Get.vi<CALLSTACK>WPI_DigitalInputRefNum Registry Get.vi< <Periodic Tasks.vi< <Robot Main.vi,0.000000,0.000000,0.000000,0.000000,Speed,Speed,0.000000,1.010000,1.610000,0.000000,108.000000,1,0,-0.000000,0.000000,1,0.013351,0.000000,0.000000,-5.845200,29.531967,0.000000,0.009000,-0.010000,0.001000,FlatInitial
08:49:47.033 PM 02/15/2016,Teleop Enabled,0,FALSE,0,NO ERROR,0.000000,0.000000,0.000000,0.000000,Speed,Speed,0.000000,1.050000,1.480000,0.000000,103.000000,1,0,-0.000000,0.000000,1,-0.004013,0.004013,0.000000,-5.845322,29.532043,0.000000,0.017000,-0.006000,-0.077000,FlatInitial
08:49:47.133 PM 02/15/2016,Teleop Enabled,0,FALSE,0,NO ERROR,0.000000,0.000000,0.000000,0.000000,Speed,Speed,0.000000,1.000000,1.740000,0.000000,102.000000,1,0,-0.000000,0.000000,1,-0.004730,-0.015289,0.000000,-5.845428,29.531738,0.000000,0.001000,-0.021000,0.017000,FlatInitial
08:49:47.233 PM 02/15/2016,Teleop Enabled,0,FALSE,0,NO ERROR,0.000000,0.000000,0.000000,0.000000,Speed,Speed,0.050000,0.990000,1.560000,0.000000,102.000000,1,0,-0.000000,0.000000,1,-0.008789,0.000000,0.000000,-5.845779,29.531326,0.000000,0.017000,-0.008000,0.047000,FlatInitial
08:49:47.334 PM 02/15/2016,Teleop Enabled,0,FALSE,0,NO ERROR,0.000000,0.000000,0.000000,0.000000,Speed,Speed,0.000000,0.980000,1.670000,0.000000,102.000000,1,0,-0.000000,0.000000,1,-0.001022,0.011612,0.000000,-5.845779,29.531570,0.000000,0.001000,0.019000,0.000000,FlatInitial
08:49:47.434 PM 02/15/2016,Teleop Enabled,0,FALSE,0,NO ERROR,0.000000,0.000000,0.000000,0.000000,Speed,Speed,-0.020000,0.990000,1.800000,0.000000,102.000000,1,0,-0.000000,0.000000,1,0.008911,0.000000,0.000000,-5.845657,29.531570,0.000000,0.022000,0.010000,-0.046000,FlatInitial
08:49:47.534 PM 02/15/2016,Teleop Enabled,0,FALSE,0,NO ERROR,0.000000,0.000000,0.000000,0.000000,Speed,Speed,-0.020000,0.970000,1.800000,0.000000,101.000000,1,0,-0.000000,0.000000,1,0.000000,0.000000,0.000000,-5.845581,29.531570,0.000000,0.002000,-0.007000,0.023000,FlatInitial
08:49:47.635 PM 02/15/2016,Teleop Enabled,0,FALSE,0,NO ERROR,0.000000,0.000000,0.000000,0.000000,Speed,Speed,-0.020000,0.970000,1.800000,0.000000,101.000000,1,0,-0.000000,0.000000,1,0.000000,0.000000,0.000000,-5.845398,29.531570,0.000000,-0.012000,0.006000,0.000000,FlatInitial
08:49:47.736 PM 02/15/2016,Teleop Enabled,0,FALSE,0,NO ERROR,0.000000,0.000000,0.000000,0.000000,Speed,Speed,-0.030000,0.980000,1.830000,0.000000,101.000000,1,0,-0.000000,0.000000,1,0.000000,0.000000,0.000000,-5.845398,29.531570,0.000000,-0.005000,-0.006000,-0.014000,FlatInitial
08:49:47.836 PM 02/15/2016,Teleop Enabled,0,FALSE,0,NO ERROR,0.000000,0.000000,0.000000,0.000000,Speed,Speed,-0.030000,0.960000,1.860000,0.000000,101.000000,1,0,-0.000000,0.000000,1,0.000000,0.000000,0.000000,-5.845398,29.531570,0.000000,0.002000,0.005000,0.005000,FlatInitial
08:49:47.936 PM 02/15/2016,Teleop Enabled,0,FALSE,0,NO ERROR,0.000000,0.000000,0.000000,0.000000,Speed,Speed,-0.030000,0.970000,1.890000,0.000000,104.000000,1,0,-0.000000,0.000000,1,0.000000,0.003204,0.000000,-5.845398,29.531677,0.000000,-0.012000,-0.006000,0.000000,FlatInitial
08:49:48.036 PM 02/15/2016,Teleop Enabled,0,FALSE,0,NO ERROR,0.000000,0.000000,0.000000,0.000000,Speed,Speed,-0.050000,0.960000,1.930000,0.000000,102.000000,1,0,-0.000000,0.000000,1,0.000000,0.000000,0.000000,-5.845398,29.531677,0.000000,0.000000,0.012000,0.007000,FlatInitial
08:49:48.137 PM 02/15/2016,Teleop Enabled,0,FALSE,0,NO ERROR,0.000000,0.000000,0.000000,0.000000,Speed,Speed,0.010000,0.960000,1.970000,0.000000,101.000000,1,0,-0.000000,0.000000,1,0.000000,0.000000,0.000000,-5.845398,29.531677,0.000000,0.006000,0.007000,0.009000,FlatInitial
08:49:48.237 PM 02/15/2016,Teleop Enabled,0,FALSE,0,NO ERROR,0.000000,0.000000,0.000000,0.000000,Speed,Speed,-0.010000,0.970000,1.980000,0.000000,102.000000,1,0,-0.000000,0.000000,1,0.000000,0.000000,0.000000,-5.845398,29.531677,0.000000,0.003000,0.006000,0.006000,FlatInitial
08:49:48.337 PM 02/15/2016,Teleop Enabled,0,FALSE,0,NO ERROR,0.000000,0.000000,0.000000,0.000000,Speed,Speed,-0.060000,0.970000,1.950000,0.000000,101.000000,1,0,-0.000000,0.000000,1,0.000000,0.000000,0.000000,-5.845398,29.531677,0.000000,-0.003000,-0.009000,0.011000,FlatInitial
08:49:48.437 PM 02/15/2016,Teleop Enabled,0,FALSE,0,NO ERROR,0.000000,0.000000,0.000000,0.000000,Speed,Speed,-0.030000,0.970000,1.910000,0.000000,101.000000,1,0,-0.000000,0.000000,1,0.000000,0.003677,0.000000,-5.845398,29.531723,0.000000,0.000000,0.022000,0.018000,FlatInitial
08:49:48.537 PM 02/15/2016,Teleop Enabled,0,FALSE,0,NO ERROR,0.000000,0.000000,0.000000,0.000000,Speed,Speed,0.020000,1.020000,1.620000,0.000000,107.000000,1,0,-0.000000,0.000000,1,0.000000,0.027313,0.000000,-5.845398,29.532486,0.000000,0.001000,0.000000,-0.101000,FlatInitial
08:49:48.637 PM 02/15/2016,Teleop Enabled,0,FALSE,0,NO ERROR,0.000000,0.000000,0.000000,0.000000,Speed,Speed,-0.020000,0.990000,2.000000,0.000000,103.000000,1,0,-0.000000,0.000000,1,0.000000,-0.027756,0.000000,-5.845154,29.531937,0.000000,-0.072000,-0.007000,-0.017000,FlatInitial
08:49:48.737 PM 02/15/2016,Teleop Enabled,0,FALSE,0,NO ERROR,0.000000,0.000000,0.000000,0.000000,Speed,Speed,0.050000,1.000000,1.550000,0.000000,101.000000,1,0,-0.000000,0.000000,1,-0.017227,0.000000,0.000000,-5.846329,29.531616,0.000000,-0.005000,0.002000,-0.027000,FlatInitial
08:49:48.837 PM 02/15/2016,Teleop Enabled,0,FALSE,0,NO ERROR,0.000000,0.000000,0.000000,0.000000,Speed,Speed,0.010000,0.990000,1.890000,0.000000,103.000000,1,0,-0.000000,0.000000,1,0.008759,-0.006943,0.000000,-5.845978,29.531494,0.000000,-0.054000,0.006000,0.035000,FlatInitial
08:49:48.938 PM 02/15/2016,Teleop Enabled,0,FALSE,0,NO ERROR,0.000000,0.000000,0.000000,0.000000,Speed,Speed,0.020000,1.020000,1.740000,0.000000,101.000000,1,0,-0.000000,0.000000,1,0.012619,0.000000,0.000000,-5.846054,29.531433,0.000000,0.029000,-0.002000,0.019000,FlatInitial
08:49:49.038 PM 02/15/2016,Teleop Enabled,0,FALSE,0,NO ERROR,0.000000,0.000000,0.000000,0.000000,Speed,Speed,-0.010000,0.970000,1.820000,0.000000,101.000000,1,0,-0.000000,0.000000,1,0.000000,0.018280,0.000000,-5.845657,29.531845,0.000000,-0.004000,0.023000,0.044000,FlatInitial
08:49:49.138 PM 02/15/2016,Teleop Enabled,0,FALSE,0,NO ERROR,0.000000,0.000000,0.000000,0.000000,Speed,Speed,0.000000,0.990000,1.890000,0.000000,101.000000,1,0,-0.000000,0.000000,1,0.005661,0.000000,0.000000,-5.845566,29.532059,0.000000,0.001000,-0.001000,0.024000,FlatInitial
08:49:49.238 PM 02/15/2016,Teleop Enabled,0,FALSE,0,NO ERROR,0.000000,0.000000,0.000000,0.000000,Speed,Speed,0.010000,0.970000,1.820000,0.000000,102.000000,1,0,-0.000000,0.000000,1,0.000000,0.000000,0.000000,-5.845612,29.532059,0.000000,0.013000,0.007000,0.005000,FlatInitial
08:49:49.339 PM 02/15/2016,Teleop Enabled,0,FALSE,0,NO ERROR,0.000000,0.000000,0.000000,0.000000,Speed,Speed,0.000000,0.980000,1.860000,0.000000,103.000000,1,0,-0.000000,0.000000,1,0.000000,0.000000,0.000000,-5.845612,29.532059,0.000000,-0.002000,-0.005000,0.013000,FlatInitial
08:49:49.439 PM 02/15/2016,Teleop Enabled,0,FALSE,0,NO ERROR,0.000000,0.000000,0.000000,0.000000,Speed,Speed,0.000000,0.980000,1.840000,0.000000,104.000000,1,0,-0.000000,0.000000,1,0.000000,0.000000,0.000000,-5.845612,29.532059,0.000000,0.005000,-0.006000,0.004000,FlatInitial
08:49:49.538 PM 02/15/2016,Teleop Enabled,0,FALSE,0,NO ERROR,0.000000,0.000000,0.000000,0.000000,Speed,Speed,0.010000,0.980000,1.830000,0.000000,101.000000,1,0,-0.000000,0.000000,1,0.000000,0.000000,0.000000,-5.845612,29.532059,0.000000,0.000000,0.000000,0.003000,FlatInitial
08:49:49.640 PM 02/15/2016,Teleop Enabled,0,FALSE,0,NO ERROR,0.000000,0.000000,0.000000,0.000000,Speed,Speed,0.000000,0.980000,1.850000,0.000000,104.000000,1,0,-0.000000,0.000000,1,0.000000,0.000000,0.000000,-5.845612,29.532059,0.000000,-0.002000,-0.005000,0.001000,FlatInitial
08:49:49.742 PM 02/15/2016,Teleop Enabled,0,FALSE,0,NO ERROR,0.000000,0.000000,0.000000,0.000000,Speed,Speed,0.000000,0.980000,1.830000,0.000000,102.000000,1,0,-0.000000,0.000000,1,0.000000,0.000000,0.000000,-5.845612,29.532059,0.000000,-0.002000,0.012000,0.000000,FlatInitial
08:49:49.843 PM 02/15/2016,Teleop Enabled,0,FALSE,0,NO ERROR,0.000000,0.000000,0.000000,0.000000,Speed,Speed,0.000000,0.980000,1.840000,0.000000,101.000000,1,0,-0.000000,0.000000,1,0.000000,0.000000,0.000000,-5.845612,29.532059,0.000000,0.003000,-0.008000,0.004000,FlatInitial
08:49:49.944 PM 02/15/2016,Teleop Enabled,0,FALSE,0,NO ERROR,0.000000,0.000000,-6000.000000,-6000.000000,Speed,Speed,0.000000,0.970000,1.860000,1.000000,102.000000,1,0,-0.000000,0.000000,1,0.000000,0.000000,0.000000,-5.845612,29.532059,0.000000,0.000000,0.001000,0.005000,FlatInitial
08:49:50.045 PM 02/15/2016,Teleop Enabled,0,FALSE,0,NO ERROR,-86.425781,212.695312,0.000000,0.000000,Speed,Speed,0.000000,0.980000,1.820000,2.000000,101.000000,1,0,-0.000000,0.000000,1,0.000000,0.000000,0.000000,-5.845612,29.532059,0.000000,-0.019000,0.014000,0.014000,FlatInitial
08:49:50.146 PM 02/15/2016,Teleop Enabled,0,FALSE,0,NO ERROR,-1362.597656,1684.716797,0.000000,0.000000,Speed,Speed,0.000000,0.970000,1.860000,2.000000,102.000000,1,0,-0.000000,0.000000,1,0.000000,-0.004013,0.000000,-5.845612,29.531982,0.000000,-0.003000,0.031000,-0.037000,FlatInitial
08:49:50.246 PM 02/15/2016,Teleop Enabled,0,FALSE,0,NO ERROR,-1698.046875,1783.154297,0.000000,0.000000,Speed,Speed,0.000000,0.980000,1.870000,2.000000,102.000000,1,0,-0.000000,0.000000,1,0.000000,0.000000,0.000000,-5.845612,29.532043,0.000000,0.005000,-0.001000,0.007000,FlatInitial
08:49:50.348 PM 02/15/2016,Teleop Enabled,0,FALSE,0,NO ERROR,-1436.718750,1469.384766,0.000000,0.000000,Speed,Speed,0.000000,0.970000,1.810000,2.000000,102.000000,1,0,-0.000000,0.000000,1,0.000000,-0.004349,0.000000,-5.845612,29.531723,0.000000,0.003000,-0.038000,-0.049000,FlatInitial
08:49:50.448 PM 02/15/2016,Teleop Enabled,0,FALSE,0,NO ERROR,-1185.644531,1100.683594,0.000000,0.000000,Speed,Speed,0.000000,0.970000,1.790000,2.000000,101.000000,1,0,-0.000000,0.000000,1,0.000000,0.000000,0.000000,-5.845612,29.531555,0.000000,-0.009000,0.005000,0.010000,FlatInitial
08:49:50.549 PM 02/15/2016,Teleop Enabled,0,FALSE,0,NO ERROR,-1003.417969,773.291016,0.000000,0.000000,Speed,Speed,0.000000,0.960000,1.790000,2.000000,101.000000,1,0,-0.000000,0.000000,1,0.000000,0.000000,0.000000,-5.845612,29.531555,0.000000,0.000000,-0.014000,0.036000,FlatInitial
08:49:50.649 PM 02/15/2016,Teleop Enabled,0,FALSE,0,NO ERROR,-773.291016,462.158203,0.000000,0.000000,Speed,Speed,0.000000,0.970000,1.790000,2.000000,103.000000,1,0,-0.000000,0.000000,1,0.000000,0.000000,0.000000,-5.845612,29.531555,0.000000,-0.007000,0.009000,0.003000,FlatInitial
08:49:50.748 PM 02/15/2016,Teleop Enabled,0,FALSE,0,NO ERROR,-567.480469,161.132812,0.000000,0.000000,Speed,Speed,0.000000,0.970000,1.810000,2.000000,101.000000,1,0,-0.000000,0.000000,1,0.000000,0.000000,0.000000,-5.845612,29.531754,0.000000,0.002000,0.003000,-0.009000,FlatInitial
08:49:50.853 PM 02/15/2016,Teleop Enabled,0,FALSE,0,NO ERROR,-369.433594,8.056641,0.000000,0.000000,Speed,Speed,0.000000,0.970000,1.820000,2.000000,102.000000,1,0,-0.000000,0.000000,1,0.000000,0.000000,0.000000,-5.845612,29.531754,0.000000,-0.010000,-0.001000,-0.009000,FlatInitial
08:49:50.953 PM 02/15/2016,Teleop Enabled,0,FALSE,0,NO ERROR,-240.966797,0.000000,0.000000,0.000000,Speed,Speed,0.000000,0.980000,1.800000,2.000000,101.000000,1,0,-0.000000,0.000000,1,0.000000,0.000000,0.000000,-5.845612,29.531754,0.000000,0.007000,0.003000,0.032000,FlatInitial
08:49:51.053 PM 02/15/2016,Teleop Enabled,0,FALSE,0,NO ERROR,-69.580078,0.000000,0.000000,0.000000,Speed,Speed,0.000000,0.980000,1.830000,2.000000,101.000000,1,0,-0.000000,0.000000,1,0.000000,0.000000,0.000000,-5.845612,29.531754,0.000000,-0.001000,-0.005000,0.020000,FlatInitial
08:49:51.154 PM 02/15/2016,Teleop Enabled,0,FALSE,0,NO ERROR,6.738281,0.000000,0.000000,0.000000,Speed,Speed,0.010000,0.980000,1.790000,2.000000,101.000000,1,0,-0.000000,0.000000,1,0.000000,0.000000,0.000000,-5.845612,29.531754,0.000000,-0.002000,0.008000,-0.018000,FlatInitial
08:49:51.257 PM 02/15/2016,Teleop Enabled,0,FALSE,0,NO ERROR,3.515625,0.000000,4000.000000,4000.000000,Speed,Speed,0.000000,0.990000,1.820000,3.000000,102.000000,1,0,-0.000000,0.000000,1,0.000000,0.000000,0.000000,-5.845612,29.531754,0.000000,0.000000,-0.006000,0.008000,FlatInitial
08:49:51.359 PM 02/15/2016,Teleop Enabled,0,FALSE,0,NO ERROR,401.074219,-247.119141,4000.000000,4000.000000,Speed,Speed,0.000000,0.980000,1.790000,3.000000,101.000000,1,0,-0.000000,0.000000,1,0.002884,0.008011,0.000000,-5.845581,29.531830,0.000000,-0.016000,0.017000,-0.006000,FlatInitial
08:49:51.459 PM 02/15/2016,Teleop Enabled,0,FALSE,0,NO ERROR,1854.492187,-1917.187500,4000.000000,4000.000000,Speed,Speed,0.000000,0.980000,1.820000,3.000000,101.000000,1,0,-0.000000,0.000000,1,-0.001953,-0.004410,0.000000,-5.845520,29.532166,0.000000,0.001000,-0.009000,0.022000,FlatInitial
08:49:51.560 PM 02/15/2016,Teleop Enabled,0,FALSE,0,NO ERROR,3380.859375,-3108.398438,4000.000000,4000.000000,Speed,Speed,0.000000,0.970000,1.810000,3.000000,101.000000,1,0,-0.000000,0.000000,1,0.003937,-0.000870,0.000000,-5.845322,29.531982,0.000000,-0.004000,-0.026000,0.035000,FlatInitial
08:49:51.660 PM 02/15/2016,Teleop Enabled,0,FALSE,0,NO ERROR,4000.341797,-3867.773437,4000.000000,4000.000000,Speed,Speed,0.000000,0.950000,1.810000,3.000000,102.000000,1,0,-0.000000,0.000000,1,0.012741,0.001266,0.000000,-5.844528,29.531662,0.000000,0.039000,-0.019000,-0.112000,FlatInitial
08:49:51.760 PM 02/15/2016,Teleop Enabled,0,FALSE,0,NO ERROR,4093.945312,-3991.699219,4000.000000,4000.000000,Speed,Speed,0.000000,0.980000,1.790000,3.000000,102.000000,1,0,-0.000000,0.000000,1,0.018997,-0.017609,0.000000,-5.843979,29.531250,0.000000,-0.003000,-0.069000,0.070000,FlatInitial
08:49:51.861 PM 02/15/2016,Teleop Enabled,0,FALSE,0,NO ERROR,4059.960937,-3938.232422,4000.000000,4000.000000,Speed,Speed,0.000000,0.980000,1.630000,3.000000,101.000000,1,0,-0.000000,0.000000,1,0.000000,-0.052414,0.000000,-5.843582,29.528381,0.000000,-0.008000,-0.038000,-0.006000,FlatInitial
08:49:51.962 PM 02/15/2016,Teleop Enabled,0,FALSE,0,NO ERROR,4006.640625,-3897.363281,4000.000000,4000.000000,Speed,Speed,0.000000,0.990000,1.780000,3.000000,101.000000,1,0,-0.000000,0.000000,1,0.000000,-0.034225,0.000000,-5.843582,29.526627,0.000000,-0.034000,0.000000,-0.057000,FlatInitial
08:49:52.062 PM 02/15/2016,Teleop Enabled,0,FALSE,0,NO ERROR,3985.107422,-3909.228516,4000.000000,4000.000000,Speed,Speed,0.000000,1.030000,1.790000,3.000000,101.000000,1,0,-0.000000,0.000000,1,-0.001450,-0.049835,0.000000,-5.843826,29.524307,0.000000,-0.002000,-0.048000,0.034000,FlatInitial
08:49:52.163 PM 02/15/2016,Teleop Enabled,0,FALSE,0,NO ERROR,3983.056641,-3942.626953,4000.000000,4000.000000,Speed,Speed,0.000000,1.040000,1.890000,3.000000,100.000000,1,0,-0.000000,0.000000,1,0.000000,-0.020782,0.000000,-5.843658,29.522339,0.000000,0.017000,0.036000,0.048000,FlatInitial
08:49:52.263 PM 02/15/2016,Teleop Enabled,0,FALSE,0,NO ERROR,3984.960937,-3976.318359,4000.000000,4000.000000,Speed,Speed,0.000000,1.030000,2.000000,3.000000,101.000000,1,0,-0.000000,0.000000,1,0.004135,0.000000,0.000000,-5.843536,29.521759,0.000000,-0.027000,0.005000,-0.049000,FlatInitial
08:49:52.367 PM 02/15/2016,Teleop Enabled,0,FALSE,0,NO ERROR,3985.693359,-3977.929687,4000.000000,4000.000000,Speed,Speed,0.000000,1.020000,2.000000,3.000000,103.000000,1,0,-0.000000,0.000000,1,-0.004257,-0.016281,0.000000,-5.843521,29.521286,0.000000,-0.049000,-0.010000,-0.007000,FlatInitial
08:49:52.467 PM 02/15/2016,Teleop Enabled,0,FALSE,0,NO ERROR,3985.693359,-3971.777344,4000.000000,4000.000000,Speed,Speed,0.000000,0.990000,1.900000,3.000000,101.000000,1,0,-0.000000,0.000000,1,-0.025558,-0.066299,0.000000,-5.844467,29.518906,0.000000,0.022000,-0.026000,0.067000,FlatInitial
08:49:52.567 PM 02/15/2016,Teleop Enabled,0,FALSE,0,NO ERROR,3995.947266,-3971.777344,4000.000000,4000.000000,Speed,Speed,0.000000,0.970000,1.810000,3.000000,101.000000,1,0,-0.000000,0.000000,1,-0.034454,-0.097717,0.000000,-5.845947,29.514664,0.000000,-0.014000,-0.079000,-0.079000,FlatInitial
08:49:52.668 PM 02/15/2016,Teleop Enabled,0,FALSE,0,NO ERROR,4001.220703,-3993.164062,4000.000000,4000.000000,Speed,Speed,0.000000,1.010000,1.700000,3.000000,102.000000,1,0,-0.000000,0.000000,1,-0.031723,0.000000,0.000000,-5.847519,29.510315,0.000000,-0.013000,-0.011000,-0.031000,FlatInitial
08:49:52.768 PM 02/15/2016,Teleop Enabled,0,FALSE,0,NO ERROR,4006.347656,-3993.164062,4000.000000,4000.000000,Speed,Speed,0.000000,1.020000,1.610000,3.000000,102.000000,1,0,-0.000000,0.000000,1,0.001419,-0.038712,0.000000,-5.847504,29.509125,0.000000,-0.013000,0.002000,0.000000,FlatInitial
08:49:52.869 PM 02/15/2016,Teleop Enabled,0,FALSE,0,NO ERROR,4007.226562,-4002.099609,4000.000000,4000.000000,Speed,Speed,0.000000,1.020000,1.510000,3.000000,102.000000,1,0,-0.000000,0.000000,1,0.000961,-0.070663,0.000000,-5.847473,29.505676,0.000000,0.024000,0.016000,0.062000,FlatInitial
08:49:52.969 PM 02/15/2016,Teleop Enabled,0,FALSE,0,NO ERROR,4007.226562,-4002.246094,4000.000000,4000.000000,Speed,Speed,0.000000,1.040000,1.490000,3.000000,101.000000,1,0,-0.000000,0.000000,1,0.001404,-0.080643,0.000000,-5.847397,29.502594,0.000000,-0.031000,-0.056000,-0.063000,FlatInitial
08:49:53.070 PM 02/15/2016,Teleop Enabled,0,FALSE,0,NO ERROR,4000.048828,-4001.220703,4000.000000,4000.000000,Speed,Speed,0.000000,1.060000,1.490000,3.000000,103.000000,1,0,-0.000000,0.000000,1,-0.011719,-0.101837,0.000000,-5.847717,29.497849,0.000000,0.004000,-0.025000,-0.031000,FlatInitial
08:49:53.170 PM 02/15/2016,Teleop Enabled,0,FALSE,0,NO ERROR,4000.048828,-4001.513672,4000.000000,4000.000000,Speed,Speed,0.000000,1.040000,1.490000,3.000000,101.000000,1,0,-0.000000,0.000000,1,0.000000,-0.116989,0.000000,-5.848236,29.492310,0.000000,0.011000,0.010000,0.069000,FlatInitial
08:49:53.272 PM 02/15/2016,Teleop Enabled,0,FALSE,0,NO ERROR,3995.214844,-4005.322266,4000.000000,4000.000000,Speed,Speed,0.000000,1.030000,1.460000,3.000000,101.000000,1,0,-0.000000,0.000000,1,0.005127,-0.136826,0.000000,-5.848145,29.484634,0.000000,0.017000,-0.074000,-0.072000,FlatInitial
08:49:53.373 PM 02/15/2016,Teleop Enabled,0,FALSE,0,NO ERROR,3995.214844,-4008.544922,4000.000000,4000.000000,Speed,Speed,0.000000,1.040000,1.390000,3.000000,103.000000,1,0,-0.000000,0.000000,1,0.002106,-0.170303,0.000000,-5.848145,29.476700,0.000000,-0.002000,-0.034000,-0.025000,FlatInitial
08:49:53.474 PM 02/15/2016,Teleop Enabled,0,FALSE,0,NO ERROR,3993.896484,-4006.347656,4000.000000,4000.000000,Speed,Speed,0.000000,1.010000,1.350000,3.000000,101.000000,1,0,-0.000000,0.000000,1,-0.003098,-0.205063,0.000000,-5.848236,29.467072,0.000000,0.039000,0.010000,0.050000,FlatInitial
08:49:53.575 PM 02/15/2016,Teleop Enabled,0,FALSE,0,NO ERROR,3996.679687,-4006.054687,4000.000000,4000.000000,Speed,Speed,0.010000,0.980000,1.350000,3.000000,103.000000,1,0,-0.000000,0.000000,1,-0.008499,-0.230270,0.000000,-5.848511,29.456116,0.000000,-0.030000,-0.061000,-0.058000,FlatInitial
08:49:53.677 PM 02/15/2016,Teleop Enabled,0,FALSE,0,NO ERROR,4002.246094,-4004.003906,4000.000000,4000.000000,Speed,Speed,0.010000,0.940000,1.320000,3.000000,103.000000,1,0,-0.000000,0.000000,1,-0.002579,-0.249268,0.000000,-5.848816,29.444061,0.000000,-0.004000,-0.013000,-0.027000,FlatInitial
08:49:53.778 PM 02/15/2016,Teleop Enabled,0,FALSE,0,NO ERROR,4008.398437,-4004.150391,4000.000000,4000.000000,Speed,Speed,0.010000,0.920000,1.350000,3.000000,102.000000,1,0,-0.000000,0.000000,1,-0.009262,0.000000,0.000000,-5.849152,29.436218,0.000000,0.010000,-0.018000,0.024000,FlatInitial
08:49:53.879 PM 02/15/2016,Teleop Enabled,0,FALSE,0,NO ERROR,4015.722656,-4005.322266,4000.000000,4000.000000,Speed,Speed,0.010000,0.920000,1.450000,3.000000,102.000000,1,0,-0.000000,0.000000,1,-0.001038,0.016647,0.000000,-5.849228,29.436523,0.000000,-0.021000,0.036000,-0.037000,FlatInitial
08:49:53.979 PM 02/15/2016,Teleop Enabled,0,FALSE,0,NO ERROR,4014.111328,-4005.029297,4000.000000,4000.000000,Speed,Speed,0.010000,0.900000,1.560000,3.000000,103.000000,1,0,-0.000000,0.000000,1,0.000000,0.033051,0.000000,-5.849258,29.437881,0.000000,-0.010000,0.005000,0.060000,FlatInitial
08:49:54.079 PM 02/15/2016,Teleop Enabled,0,FALSE,0,NO ERROR,4010.156250,-4002.099609,4000.000000,4000.000000,Speed,Speed,0.010000,0.890000,1.630000,3.000000,103.000000,1,0,-0.000000,0.000000,1,0.000839,0.048462,0.000000,-5.849197,29.439957,0.000000,0.001000,-0.008000,0.055000,FlatInitial
08:49:54.180 PM 02/15/2016,Teleop Enabled,0,FALSE,0,NO ERROR,4003.857422,-3996.093750,4000.000000,4000.000000,Speed,Speed,0.010000,0.880000,1.720000,3.000000,104.000000,1,0,-0.000000,0.000000,1,0.003143,0.000000,0.000000,-5.849152,29.442032,0.000000,-0.007000,0.018000,-0.054000,FlatInitial
08:49:54.281 PM 02/15/2016,Teleop Enabled,0,FALSE,0,NO ERROR,4003.125000,-3995.068359,4000.000000,4000.000000,Speed,Speed,0.010000,0.870000,1.740000,3.000000,102.000000,1,0,-0.000000,0.000000,1,0.000000,-0.000885,0.000000,-5.849045,29.442078,0.000000,0.012000,-0.011000,0.053000,FlatInitial
08:49:54.383 PM 02/15/2016,Teleop Enabled,0,FALSE,0,NO ERROR,4004.296875,-3999.462891,9000.000000,9000.000000,Speed,Speed,0.010000,0.870000,1.690000,4.000000,102.000000,1,0,-0.000000,0.000000,1,0.000000,0.000000,0.000000,-5.849045,29.441727,0.000000,0.025000,-0.079000,0.061000,FlatInitial
08:49:54.483 PM 02/15/2016,Teleop Enabled,0,FALSE,0,NO ERROR,4169.531250,-4080.322266,9000.000000,9000.000000,Speed,Speed,0.000000,0.900000,1.820000,4.000000,102.000000,1,0,-0.000000,0.000000,1,0.022110,-0.004547,0.000000,-5.848495,29.441406,0.000000,-0.042000,0.014000,0.031000,FlatInitial
08:49:54.584 PM 02/15/2016,Teleop Enabled,0,FALSE,0,NO ERROR,5362.500000,-5075.976562,9000.000000,9000.000000,Speed,Speed,0.040000,0.880000,1.880000,4.000000,109.000000,1,0,-0.000000,0.000000,1,0.000000,0.041061,0.000000,-5.848007,29.442047,0.000000,-0.014000,-0.005000,0.164000,FlatInitial
08:49:54.685 PM 02/15/2016,Teleop Enabled,0,FALSE,0,NO ERROR,6606.445312,-6273.046875,9000.000000,9000.000000,Speed,Speed,0.100000,0.940000,1.280000,4.000000,102.000000,1,0,-0.000000,0.000000,1,0.000916,0.050415,0.000000,-5.848495,29.443405,0.000000,0.081000,0.015000,0.004000,FlatInitial
08:49:54.785 PM 02/15/2016,Teleop Enabled,0,FALSE,0,NO ERROR,7457.812500,-7285.546875,9000.000000,9000.000000,Speed,Speed,-0.030000,1.110000,1.770000,4.000000,102.000000,1,0,-0.000000,0.000000,1,0.027145,0.042465,0.000000,-5.847092,29.445923,0.000000,-0.044000,0.030000,0.064000,FlatInitial
08:49:54.886 PM 02/15/2016,Teleop Enabled,0,FALSE,0,NO ERROR,8342.578125,-8147.460937,9000.000000,9000.000000,Speed,Speed,-0.160000,0.900000,1.590000,4.000000,102.000000,1,0,-0.000000,0.000000,1,-0.019897,0.002853,0.000000,-5.846985,29.446899,0.000000,0.144000,-0.031000,-0.062000,FlatInitial
08:49:54.987 PM 02/15/2016,Teleop Enabled,0,FALSE,0,NO ERROR,8879.882812,-8703.515625,9000.000000,9000.000000,Speed,Speed,-0.160000,0.990000,1.570000,4.000000,100.000000,1,0,-0.000000,0.000000,1,-0.034714,-0.060760,0.000000,-5.847946,29.444717,0.000000,-0.177000,-0.002000,0.115000,FlatInitial
08:49:55.087 PM 02/15/2016,Teleop Enabled,0,FALSE,0,NO ERROR,9133.593750,-8921.484375,9000.000000,9000.000000,Speed,Speed,0.000000,0.960000,1.500000,4.000000,101.000000,1,0,-0.000000,0.000000,1,-0.065460,-0.034683,0.000000,-5.851059,29.441971,0.000000,0.146000,0.026000,-0.050000,FlatInitial
08:49:55.187 PM 02/15/2016,Teleop Enabled,0,FALSE,0,NO ERROR,9231.445312,-9062.109375,9000.000000,9000.000000,Speed,Speed,0.070000,1.000000,1.600000,4.000000,101.000000,1,0,-0.000000,0.000000,1,-0.065689,-0.068878,0.000000,-5.853500,29.439682,0.000000,0.021000,0.034000,-0.022000,FlatInitial
08:49:55.287 PM 02/15/2016,Teleop Enabled,0,FALSE,0,NO ERROR,9238.476562,-9132.421875,9000.000000,9000.000000,Speed,Speed,0.000000,1.070000,1.510000,4.000000,102.000000,1,0,-0.000000,0.000000,1,-0.047974,-0.071075,0.000000,-5.856689,29.435608,0.000000,-0.042000,0.310000,0.034000,FlatInitial
08:49:55.388 PM 02/15/2016,Teleop Enabled,0,FALSE,0,NO ERROR,9208.593750,-9144.726562,9000.000000,9000.000000,Speed,Speed,0.010000,0.960000,1.640000,4.000000,101.000000,1,0,-0.000000,0.000000,1,-0.050354,0.009979,0.000000,-5.858932,29.434753,0.000000,0.030000,0.089000,0.114000,FlatInitial
08:49:55.488 PM 02/15/2016,Teleop Enabled,0,FALSE,0,NO ERROR,9155.859375,-9124.804688,9000.000000,9000.000000,Speed,Speed,0.080000,1.060000,1.400000,4.000000,102.000000,1,0,-0.000000,0.000000,1,-0.034424,-0.009476,0.000000,-5.861252,29.434982,0.000000,-0.007000,-0.051000,-0.055000,FlatInitial
08:49:55.588 PM 02/15/2016,Teleop Enabled,0,FALSE,0,NO ERROR,9103.710938,-9093.750000,9000.000000,9000.000000,Speed,Speed,0.020000,0.990000,1.650000,4.000000,102.000000,1,0,-0.000000,0.000000,1,-0.008148,-0.110291,0.000000,-5.861893,29.431274,0.000000,-0.012000,-0.148000,-0.006000,FlatInitial
08:49:55.688 PM 02/15/2016,Teleop Enabled,0,FALSE,0,NO ERROR,9063.281250,-9070.312500,9000.000000,9000.000000,Speed,Speed,0.000000,1.020000,1.610000,4.000000,101.000000,1,0,-0.000000,0.000000,1,-0.033325,-0.174255,0.000000,-5.863007,29.423599,0.000000,-0.024000,0.131000,0.043000,FlatInitial
08:49:55.788 PM 02/15/2016,Teleop Enabled,0,FALSE,0,NO ERROR,9038.085938,-9043.945312,9000.000000,9000.000000,Speed,Speed,0.010000,1.000000,1.630000,4.000000,101.000000,1,0,-0.000000,0.000000,1,0.000000,-0.180191,0.000000,-5.864075,29.414841,0.000000,-0.013000,-0.197000,-0.061000,FlatInitial
08:49:55.888 PM 02/15/2016,Teleop Enabled,0,FALSE,0,NO ERROR,9023.437500,-9028.710938,9000.000000,9000.000000,Speed,Speed,0.000000,0.990000,1.800000,4.000000,103.000000,1,0,-0.000000,0.000000,1,-0.006821,-0.190430,0.000000,-5.864227,29.405350,0.000000,0.028000,0.168000,0.030000,FlatInitial
08:49:55.988 PM 02/15/2016,Teleop Enabled,0,FALSE,0,NO ERROR,9018.164062,-9019.921875,9000.000000,9000.000000,Speed,Speed,0.020000,1.020000,1.620000,4.000000,102.000000,1,0,-0.000000,0.000000,1,-0.009064,-0.189529,0.000000,-5.864639,29.397781,0.000000,-0.031000,0.170000,-0.015000,FlatInitial
08:49:56.088 PM 02/15/2016,Teleop Enabled,0,FALSE,0,NO ERROR,9013.476562,-9013.476562,9000.000000,9000.000000,Speed,Speed,0.020000,0.990000,1.600000,4.000000,102.000000,1,0,-0.000000,0.000000,1,-0.021896,-0.186096,0.000000,-5.865814,29.386414,0.000000,0.001000,0.221000,0.020000,FlatInitial
08:49:56.187 PM 02/15/2016,Teleop Enabled,0,FALSE,0,NO ERROR,9008.789062,-9009.960938,9000.000000,9000.000000,Speed,Speed,0.040000,1.000000,1.630000,4.000000,102.000000,1,0,-0.000000,0.000000,1,-0.027039,-0.179214,0.000000,-5.867172,29.377380,0.000000,0.049000,-0.227000,-0.026000,FlatInitial
08:49:56.288 PM 02/15/2016,Teleop Enabled,0,FALSE,0,NO ERROR,9008.789062,-9004.101562,9000.000000,9000.000000,Speed,Speed,0.020000,1.020000,1.500000,4.000000,101.000000,1,0,-0.000000,0.000000,1,-0.028000,-0.173035,0.000000,-5.868500,29.368378,0.000000,-0.054000,0.241000,0.029000,FlatInitial
08:49:56.389 PM 02/15/2016,Teleop Enabled,0,FALSE,0,NO ERROR,9008.789062,-9006.445312,9000.000000,9000.000000,Speed,Speed,0.010000,1.020000,1.640000,4.000000,104.000000,1,0,-0.000000,0.000000,1,0.000000,-0.143295,0.000000,-5.869690,29.360504,0.000000,0.011000,-0.207000,-0.018000,FlatInitial
08:49:56.490 PM 02/15/2016,Teleop Enabled,0,FALSE,0,NO ERROR,9007.031250,-9005.859375,9000.000000,9000.000000,Speed,Speed,0.040000,0.980000,1.510000,4.000000,102.000000,1,0,-0.000000,0.000000,1,-0.005600,-0.119797,0.000000,-5.869919,29.354187,0.000000,-0.024000,0.307000,0.018000,FlatInitial
08:49:56.590 PM 02/15/2016,Teleop Enabled,0,FALSE,0,NO ERROR,9005.273438,-9005.273438,9000.000000,9000.000000,Speed,Speed,0.050000,1.000000,1.540000,4.000000,101.000000,1,0,-0.000000,0.000000,1,0.012512,-0.077011,0.000000,-5.869781,29.349548,0.000000,-0.033000,0.303000,-0.018000,FlatInitial
08:49:56.690 PM 02/15/2016,Teleop Enabled,0,FALSE,0,NO ERROR,9003.515625,-9009.375000,9000.000000,9000.000000,Speed,Speed,0.010000,0.970000,1.590000,4.000000,101.000000,1,0,-0.000000,0.000000,1,0.015015,-0.015472,0.000000,-5.868866,29.347229,0.000000,-0.001000,-0.208000,-0.020000,FlatInitial
08:49:56.790 PM 02/15/2016,Teleop Enabled,0,FALSE,0,NO ERROR,9004.101562,-9011.132812,9000.000000,9000.000000,Speed,Speed,0.030000,1.010000,1.540000,4.000000,102.000000,1,0,-0.000000,0.000000,1,0.004868,0.043365,0.000000,-5.868469,29.348251,0.000000,-0.036000,0.328000,0.066000,FlatInitial
08:49:56.890 PM 02/15/2016,Teleop Enabled,0,FALSE,0,NO ERROR,9003.515625,-9010.546875,9000.000000,9000.000000,Speed,Speed,0.020000,0.980000,1.580000,4.000000,102.000000,1,0,-0.000000,0.000000,1,0.003006,0.094864,0.000000,-5.868179,29.351257,0.000000,0.064000,0.306000,0.031000,FlatInitial
08:49:56.991 PM 02/15/2016,Teleop Enabled,0,FALSE,0,NO ERROR,9003.515625,-9005.859375,9000.000000,9000.000000,Speed,Speed,0.030000,1.030000,1.660000,4.000000,101.000000,1,0,-0.000000,0.000000,1,0.002609,0.177917,0.000000,-5.867889,29.358337,0.000000,0.012000,0.322000,0.005000,FlatInitial
08:49:57.092 PM 02/15/2016,Teleop Enabled,0,FALSE,0,NO ERROR,9002.343750,-9005.273438,9000.000000,9000.000000,Speed,Speed,0.020000,1.020000,1.640000,4.000000,100.000000,1,0,-0.000000,0.000000,1,-0.001572,0.270370,0.000000,-5.868027,29.372391,0.000000,-0.043000,-0.198000,0.042000,FlatInitial
08:49:57.192 PM 02/15/2016,Teleop Enabled,0,FALSE,0,NO ERROR,9002.929688,-9002.343750,9000.000000,9000.000000,Speed,Speed,0.040000,1.020000,1.640000,4.000000,100.000000,1,0,-0.000000,0.000000,1,-0.007935,0.347488,0.000000,-5.868301,29.388275,0.000000,-0.043000,-0.198000,0.042000,FlatInitial
08:49:57.292 PM 02/15/2016,Teleop Enabled,0,FALSE,0,NO ERROR,9002.929688,-8993.554688,9000.000000,9000.000000,Speed,Speed,0.040000,1.000000,1.630000,4.000000,102.000000,1,0,-0.000000,0.000000,1,0.001816,0.423279,0.000000,-5.868240,29.408005,0.000000,0.060000,0.317000,0.060000,FlatInitial
08:49:57.392 PM 02/15/2016,Teleop Enabled,0,FALSE,0,NO ERROR,9001.757812,-8981.250000,9000.000000,9000.000000,Speed,Speed,0.030000,0.990000,1.660000,4.000000,102.000000,1,0,-0.000000,0.000000,1,0.001816,0.497070,0.000000,-5.868134,29.431274,0.000000,-0.087000,-0.231000,0.074000,FlatInitial
08:49:57.493 PM 02/15/2016,Teleop Enabled,0,FALSE,0,NO ERROR,9000.000000,-8975.390625,9000.000000,9000.000000,Speed,Speed,0.000000,1.000000,1.620000,4.000000,101.000000,1,0,-0.000000,0.000000,1,0.003845,0.557922,0.000000,-5.867828,29.457794,0.000000,-0.071000,-0.221000,-0.007000,FlatInitial
08:49:57.593 PM 02/15/2016,Teleop Enabled,0,FALSE,0,NO ERROR,8998.242188,-8978.906250,9000.000000,9000.000000,Speed,Speed,0.010000,0.990000,1.630000,4.000000,101.000000,1,0,-0.000000,0.000000,1,0.010651,0.608185,0.000000,-5.867523,29.487167,0.000000,0.048000,0.311000,0.027000,FlatInitial
08:49:57.694 PM 02/15/2016,Teleop Enabled,0,FALSE,0,NO ERROR,8998.242188,-8981.250000,9000.000000,9000.000000,Speed,Speed,0.020000,1.000000,1.630000,4.000000,101.000000,1,0,-0.000000,0.000000,1,0.014145,0.649307,0.000000,-5.866913,29.518799,0.000000,0.048000,0.311000,0.027000,FlatInitial
08:49:57.794 PM 02/15/2016,Teleop Enabled,0,FALSE,0,NO ERROR,8998.828125,-8992.382812,9000.000000,9000.000000,Speed,Speed,0.020000,0.960000,1.570000,4.000000,101.000000,1,0,-0.000000,0.000000,1,0.000000,0.687836,0.000000,-5.866440,29.545700,0.000000,-0.022000,-0.235000,0.042000,FlatInitial
08:49:57.895 PM 02/15/2016,Teleop Enabled,0,FALSE,0,NO ERROR,9001.171875,-9000.585938,9000.000000,9000.000000,Speed,Speed,0.020000,1.010000,1.600000,4.000000,101.000000,1,0,-0.000000,0.000000,1,0.000000,0.687836,0.000000,-5.866440,29.545700,0.000000,0.017000,0.383000,0.033000,FlatInitial
08:49:57.995 PM 02/15/2016,Teleop Enabled,0,FALSE,0,NO ERROR,9002.343750,-9004.101562,9000.000000,9000.000000,Speed,Speed,0.020000,1.010000,1.600000,4.000000,101.000000,1,0,-0.000000,0.000000,1,0.004333,0.746857,0.000000,-5.866302,29.589355,0.000000,0.008000,0.319000,0.054000,FlatInitial
08:49:58.095 PM 02/15/2016,Teleop Enabled,0,FALSE,0,NO ERROR,9004.101562,-9011.132812,9000.000000,9000.000000,Speed,Speed,0.010000,1.010000,1.540000,4.000000,101.000000,1,0,-0.000000,0.000000,1,0.035355,0.832458,0.000000,-5.864487,29.668518,0.000000,-0.008000,-0.192000,-0.002000,FlatInitial
08:49:58.196 PM 02/15/2016,Teleop Enabled,0,FALSE,0,NO ERROR,9009.960938,-9012.304688,9000.000000,9000.000000,Speed,Speed,0.020000,1.000000,1.530000,4.000000,103.000000,1,0,-0.000000,0.000000,1,0.000229,0.896408,0.000000,-5.864029,29.712219,0.000000,0.003000,-0.231000,-0.037000,FlatInitial
08:49:58.296 PM 02/15/2016,Teleop Enabled,0,FALSE,0,NO ERROR,9009.960938,-9012.304688,9000.000000,9000.000000,Speed,Speed,0.020000,1.000000,1.530000,4.000000,102.000000,1,0,-0.000000,0.000000,1,0.000229,0.896408,0.000000,-5.864029,29.712219,0.000000,0.023000,0.351000,0.066000,FlatInitial
08:49:58.397 PM 02/15/2016,Teleop Enabled,0,FALSE,0,NO ERROR,9007.617188,-9006.445312,9000.000000,9000.000000,Speed,Speed,0.020000,1.020000,1.570000,4.000000,100.000000,1,0,-0.000000,0.000000,1,0.005539,0.961914,0.000000,-5.863861,29.759171,0.000000,-0.025000,0.279000,0.109000,FlatInitial
08:49:58.498 PM 02/15/2016,Teleop Enabled,0,FALSE,0,NO ERROR,9005.273438,-9004.101562,9000.000000,9000.000000,Speed,Speed,0.000000,1.020000,1.570000,4.000000,102.000000,1,0,-0.000000,0.000000,1,-0.002777,1.015564,0.000000,-5.863892,29.808838,0.000000,-0.023000,-0.157000,0.021000,FlatInitial
08:49:58.598 PM 02/15/2016,Teleop Enabled,0,FALSE,0,NO ERROR,9002.929688,-9008.203125,9000.000000,9000.000000,Speed,Speed,0.010000,1.030000,1.580000,4.000000,101.000000,1,0,-0.000000,0.000000,1,-0.001205,1.084595,0.000000,-5.863831,29.872238,0.000000,0.045000,0.355000,0.084000,FlatInitial
08:49:58.698 PM 02/15/2016,Teleop Enabled,0,FALSE,0,NO ERROR,9001.757812,-9013.476562,9000.000000,9000.000000,Speed,Speed,0.010000,1.000000,1.630000,4.000000,100.000000,1,0,-0.000000,0.000000,1,0.017517,1.160141,0.000000,-5.863281,29.928894,0.000000,-0.018000,-0.174000,-0.025000,FlatInitial
08:49:58.799 PM 02/15/2016,Teleop Enabled,0,FALSE,0,NO ERROR,9000.000000,-9014.062500,9000.000000,9000.000000,Speed,Speed,0.010000,1.030000,1.660000,4.000000,103.000000,1,0,-0.000000,0.000000,1,0.012711,1.218765,0.000000,-5.863037,29.988754,0.000000,0.115000,0.200000,0.088000,FlatInitial
08:49:58.901 PM 02/15/2016,Teleop Enabled,0,FALSE,0,NO ERROR,8998.242188,-9011.132812,9000.000000,9000.000000,Speed,Speed,0.000000,1.050000,1.630000,4.000000,101.000000,1,0,-0.000000,0.000000,1,0.031387,1.281418,0.000000,-5.861786,30.051392,0.000000,-0.096000,-0.155000,0.016000,FlatInitial
08:49:59.002 PM 02/15/2016,Teleop Enabled,0,FALSE,0,NO ERROR,8998.242188,-9007.617188,9000.000000,9000.000000,Speed,Speed,0.010000,1.020000,1.660000,4.000000,101.000000,1,0,-0.000000,0.000000,1,0.054474,1.343857,0.000000,-5.859482,30.117203,0.000000,0.064000,0.224000,0.095000,FlatInitial
08:49:59.103 PM 02/15/2016,Teleop Enabled,0,FALSE,0,NO ERROR,9001.757812,-9002.929688,9000.000000,9000.000000,Speed,Speed,0.040000,1.010000,1.650000,4.000000,101.000000,1,0,-0.000000,0.000000,1,0.000000,1.372757,0.000000,-5.858337,30.185211,0.000000,-0.009000,-0.137000,-0.012000,FlatInitial
08:49:59.203 PM 02/15/2016,Teleop Enabled,0,FALSE,0,NO ERROR,9004.101562,-8998.828125,9000.000000,9000.000000,Speed,Speed,0.020000,1.040000,1.600000,4.000000,101.000000,1,0,-0.000000,0.000000,1,0.026566,1.410980,0.000000,-5.857651,30.254684,0.000000,0.062000,0.254000,0.099000,FlatInitial
08:49:59.304 PM 02/15/2016,Teleop Enabled,0,FALSE,0,NO ERROR,9007.031250,-8997.070312,9000.000000,9000.000000,Speed,Speed,0.000000,1.000000,1.620000,4.000000,101.000000,1,0,-0.000000,0.000000,1,0.000000,1.453400,0.000000,-5.856781,30.326523,0.000000,0.065000,0.157000,0.087000,FlatInitial
08:49:59.407 PM 02/15/2016,Teleop Enabled,0,FALSE,0,NO ERROR,9007.031250,-8998.242188,9000.000000,9000.000000,Speed,Speed,0.020000,1.020000,1.580000,4.000000,104.000000,1,0,-0.000000,0.000000,1,0.021317,1.473083,0.000000,-5.856140,30.399704,0.000000,0.015000,0.184000,0.118000,FlatInitial
08:49:59.507 PM 02/15/2016,Teleop Enabled,0,FALSE,0,NO ERROR,9005.859375,-9000.585938,9000.000000,9000.000000,Speed,Speed,0.010000,1.020000,1.570000,4.000000,102.000000,1,0,-0.000000,0.000000,1,0.023376,1.486816,0.000000,-5.855179,30.459137,0.000000,-0.017000,0.179000,0.139000,FlatInitial
08:49:59.607 PM 02/15/2016,Teleop Enabled,0,FALSE,0,NO ERROR,9006.445312,-9003.515625,9000.000000,9000.000000,Speed,Speed,0.020000,1.020000,1.590000,4.000000,104.000000,1,0,-0.000000,0.000000,1,0.030579,1.502228,0.000000,-5.853302,30.549225,0.000000,0.003000,-0.131000,-0.068000,FlatInitial
08:49:59.708 PM 02/15/2016,Teleop Enabled,0,FALSE,0,NO ERROR,9008.789062,-9004.687500,9000.000000,9000.000000,Speed,Speed,0.020000,1.020000,1.560000,4.000000,100.000000,1,0,-0.000000,0.000000,1,0.037598,1.507050,0.000000,-5.851608,30.624451,0.000000,0.004000,-0.092000,-0.027000,FlatInitial
08:49:59.808 PM 02/15/2016,Teleop Enabled,0,FALSE,0,NO ERROR,9008.203125,-9007.031250,9000.000000,9000.000000,Speed,Speed,0.010000,0.980000,1.580000,4.000000,102.000000,1,0,-0.000000,0.000000,1,0.034653,1.482941,0.000000,-5.849655,30.714539,0.000000,0.030000,-0.105000,-0.060000,FlatInitial
08:49:59.908 PM 02/15/2016,Teleop Enabled,0,FALSE,0,NO ERROR,9004.687500,-9010.546875,9000.000000,9000.000000,Speed,Speed,0.020000,0.990000,1.560000,4.000000,100.000000,1,0,-0.000000,0.000000,1,0.000000,1.450165,0.000000,-5.848099,30.787949,0.000000,-0.017000,0.045000,0.089000,FlatInitial
08:50:00.008 PM 02/15/2016,Teleop Enabled,0,FALSE,0,NO ERROR,9003.515625,-9007.617188,9000.000000,9000.000000,Speed,Speed,0.010000,1.030000,1.570000,4.000000,100.000000,1,0,-0.000000,0.000000,1,0.020035,1.404938,0.000000,-5.847504,30.859314,0.000000,-0.036000,-0.154000,-0.106000,FlatInitial
08:50:00.108 PM 02/15/2016,Teleop Enabled,0,FALSE,0,NO ERROR,9001.757812,-9004.687500,9000.000000,9000.000000,Speed,Speed,0.020000,1.030000,1.540000,6.000000,102.000000,1,0,-0.000000,0.000000,1,0.027451,1.352005,0.000000,-5.846466,30.927994,0.000000,0.021000,0.005000,0.072000,FlatInitial
08:50:00.209 PM 02/15/2016,Teleop Enabled,0,FALSE,0,NO ERROR,8993.554688,-8956.640625,9000.000000,9000.000000,Speed,Speed,0.000000,1.020000,1.560000,6.000000,103.000000,1,0,-0.000000,0.000000,1,0.004822,1.309021,0.000000,-5.845612,30.994659,0.000000,-0.026000,-0.140000,-0.111000,FlatInitial
08:50:00.308 PM 02/15/2016,Teleop Enabled,0,FALSE,0,NO ERROR,7268.554687,-7052.929688,9000.000000,9000.000000,Speed,Speed,0.000000,1.080000,1.210000,6.000000,100.000000,1,0,-0.000000,0.000000,1,0.031235,1.216385,0.000000,-5.844666,31.056961,0.000000,-0.030000,-0.037000,-0.023000,FlatInitial
08:50:00.410 PM 02/15/2016,Teleop Enabled,0,FALSE,0,NO ERROR,7350.000000,-7222.851562,9000.000000,9000.000000,Speed,Speed,-0.050000,1.030000,1.720000,6.000000,101.000000,1,0,-0.000000,0.000000,1,0.006042,1.273499,0.000000,-5.844574,31.118790,0.000000,0.056000,-0.029000,0.086000,FlatInitial
08:50:00.515 PM 02/15/2016,Teleop Enabled,0,FALSE,0,NO ERROR,8316.796875,-8150.976562,9000.000000,9000.000000,Speed,Speed,-0.040000,1.030000,1.630000,6.000000,102.000000,1,0,-0.000000,0.000000,1,0.020538,1.184402,0.000000,-5.844238,31.179733,0.000000,-0.017000,-0.050000,0.014000,FlatInitial
08:50:00.615 PM 02/15/2016,Teleop Enabled,0,FALSE,0,NO ERROR,8937.304688,-8753.320312,9000.000000,9000.000000,Speed,Speed,-0.060000,1.060000,1.440000,6.000000,101.000000,1,0,-0.000000,0.000000,1,0.024139,1.218796,0.000000,-5.843430,31.228241,0.000000,0.024000,-0.263000,-0.024000,FlatInitial
08:50:00.715 PM 02/15/2016,Teleop Enabled,0,FALSE,0,NO ERROR,9178.125000,-9033.984375,9000.000000,9000.000000,Speed,Speed,-0.120000,1.070000,1.620000,6.000000,101.000000,1,0,-0.000000,0.000000,1,0.060532,1.210678,0.000000,-5.840546,31.301514,0.000000,0.008000,-0.106000,-0.090000,FlatInitial
08:50:00.815 PM 02/15/2016,Teleop Enabled,0,FALSE,0,NO ERROR,9305.859375,-9169.335938,9000.000000,9000.000000,Speed,Speed,-0.080000,1.000000,1.740000,6.000000,101.000000,1,0,-0.000000,0.000000,1,0.049316,1.146957,0.000000,-5.838318,31.348618,0.000000,-0.087000,-0.239000,-0.032000,FlatInitial
08:50:00.915 PM 02/15/2016,Teleop Enabled,0,FALSE,0,NO ERROR,9311.718750,-9206.835938,9000.000000,9000.000000,Speed,Speed,-0.050000,1.060000,1.440000,6.000000,101.000000,1,0,-0.000000,0.000000,1,0.065323,1.168213,0.000000,-5.834641,31.417038,0.000000,-0.087000,0.055000,0.088000,FlatInitial
08:50:01.017 PM 02/15/2016,Teleop Enabled,0,FALSE,0,NO ERROR,9258.398438,-9186.914062,9000.000000,9000.000000,Speed,Speed,-0.050000,1.070000,1.620000,6.000000,101.000000,1,0,-0.000000,0.000000,1,0.088974,1.151489,0.000000,-5.831512,31.463791,0.000000,0.197000,-0.094000,-0.091000,FlatInitial
08:50:01.117 PM 02/15/2016,Teleop Enabled,0,FALSE,0,NO ERROR,9188.085938,-9138.281250,9000.000000,9000.000000,Speed,Speed,-0.060000,1.030000,1.710000,6.000000,101.000000,1,0,-0.000000,0.000000,1,0.089340,1.169754,0.000000,-5.825790,31.543884,0.000000,-0.014000,0.100000,0.104000,FlatInitial
08:50:01.217 PM 02/15/2016,Teleop Enabled,0,FALSE,0,NO ERROR,9136.523438,-9079.101562,9000.000000,9000.000000,Speed,Speed,-0.070000,1.080000,1.610000,6.000000,102.000000,1,0,-0.000000,0.000000,1,0.117294,1.202438,0.000000,-5.821396,31.591614,0.000000,0.010000,0.009000,-0.143000,FlatInitial
08:50:01.319 PM 02/15/2016,Teleop Enabled,0,FALSE,0,NO ERROR,9076.757812,-9033.984375,9000.000000,9000.000000,Speed,Speed,-0.070000,1.080000,1.660000,6.000000,101.000000,1,0,-0.000000,0.000000,1,-0.003311,1.180908,0.000000,-5.820236,31.639191,0.000000,-0.025000,-0.063000,0.062000,FlatInitial
08:50:01.419 PM 02/15/2016,Teleop Enabled,0,FALSE,0,NO ERROR,9033.984375,-9005.859375,9000.000000,9000.000000,Speed,Speed,-0.070000,1.090000,1.650000,7.000000,102.000000,1,0,-0.000000,0.000000,1,-0.012543,1.179031,0.000000,-5.820877,31.698380,0.000000,0.012000,0.146000,-0.007000,FlatInitial
08:50:01.522 PM 02/15/2016,Teleop Enabled,0,FALSE,0,NO ERROR,9009.375000,-8998.242188,9000.000000,9000.000000,Speed,Speed,-0.060000,1.100000,1.650000,7.000000,106.000000,1,0,-0.000000,0.000000,1,-0.034073,1.205627,0.000000,-5.822845,31.781708,0.000000,-0.011000,-0.056000,0.021000,FlatInitial
08:50:01.622 PM 02/15/2016,Teleop Enabled,0,FALSE,0,NO ERROR,8999.414062,-8998.828125,9000.000000,9000.000000,Speed,Speed,-0.070000,1.080000,1.690000,7.000000,101.000000,1,0,-0.000000,0.000000,1,0.000000,1.241287,0.000000,-5.824081,31.830917,0.000000,0.006000,-0.056000,-0.022000,FlatInitial
08:50:01.722 PM 02/15/2016,Teleop Enabled,0,FALSE,0,NO ERROR,8994.726562,-9003.515625,9000.000000,9000.000000,Speed,Speed,-0.060000,1.060000,1.690000,7.000000,102.000000,1,0,-0.000000,0.000000,1,-0.018646,1.273361,0.000000,-5.824768,31.894287,0.000000,-0.013000,0.066000,0.024000,FlatInitial
08:50:01.823 PM 02/15/2016,Teleop Enabled,0,FALSE,0,NO ERROR,8994.140625,-9003.515625,9000.000000,9000.000000,Speed,Speed,-0.060000,1.020000,1.710000,7.000000,101.000000,1,0,-0.000000,0.000000,1,-0.030151,1.303329,0.000000,-5.825821,31.945908,0.000000,0.010000,-0.036000,-0.057000,FlatInitial
08:50:01.923 PM 02/15/2016,Teleop Enabled,0,FALSE,0,NO ERROR,8996.484375,-9005.859375,9000.000000,9000.000000,Speed,Speed,-0.060000,1.020000,1.810000,7.000000,101.000000,1,0,-0.000000,0.000000,1,-0.015396,1.348465,0.000000,-5.827377,32.039352,0.000000,0.040000,-0.099000,-0.074000,FlatInitial
08:50:02.024 PM 02/15/2016,Teleop Enabled,0,FALSE,0,NO ERROR,8997.656250,-9009.375000,9000.000000,9000.000000,Speed,Speed,-0.060000,1.080000,1.670000,7.000000,102.000000,1,0,-0.000000,0.000000,1,-0.005844,1.377655,0.000000,-5.828156,32.107574,0.000000,-0.003000,0.039000,0.046000,FlatInitial
08:50:02.125 PM 02/15/2016,Teleop Enabled,0,FALSE,0,NO ERROR,9001.171875,-9009.375000,9000.000000,9000.000000,Speed,Speed,-0.070000,1.070000,1.710000,7.000000,103.000000,1,0,-0.000000,0.000000,1,-0.001999,1.404617,0.000000,-5.828201,32.163239,0.000000,-0.072000,0.071000,-0.022000,FlatInitial
08:50:02.225 PM 02/15/2016,Teleop Enabled,0,FALSE,0,NO ERROR,9001.171875,-9000.000000,9000.000000,9000.000000,Speed,Speed,-0.060000,1.050000,1.680000,7.000000,101.000000,1,0,-0.000000,0.000000,1,-0.001678,1.402939,0.000000,-5.828201,32.233337,0.000000,0.000000,-0.027000,-0.010000,FlatInitial
08:50:02.326 PM 02/15/2016,Teleop Enabled,0,FALSE,0,NO ERROR,9004.101562,-9000.000000,9000.000000,9000.000000,Speed,Speed,-0.070000,1.030000,1.650000,7.000000,102.000000,1,0,-0.000000,0.000000,1,0.000000,1.438126,0.000000,-5.828247,32.304459,0.000000,-0.014000,0.173000,0.063000,FlatInitial
08:50:02.426 PM 02/15/2016,Teleop Enabled,0,FALSE,0,NO ERROR,9005.859375,-8996.484375,9000.000000,9000.000000,Speed,Speed,-0.070000,1.040000,1.690000,7.000000,100.000000,1,0,-0.000000,0.000000,1,0.021378,1.457214,0.000000,-5.827454,32.376877,0.000000,0.006000,-0.029000,-0.049000,FlatInitial
08:50:02.526 PM 02/15/2016,Teleop Enabled,0,FALSE,0,NO ERROR,9007.031250,-8997.070312,9000.000000,9000.000000,Speed,Speed,-0.070000,1.040000,1.640000,7.000000,100.000000,1,0,-0.000000,0.000000,1,0.026474,1.505203,0.000000,-5.826416,32.451202,0.000000,0.018000,-0.049000,-0.027000,FlatInitial
08:50:02.627 PM 02/15/2016,Teleop Enabled,0,FALSE,0,NO ERROR,9004.687500,-8998.828125,9000.000000,9000.000000,Speed,Speed,-0.070000,1.030000,1.670000,7.000000,107.000000,1,0,-0.000000,0.000000,1,0.011200,1.543167,0.000000,-5.826141,32.527802,0.000000,0.026000,0.175000,0.094000,FlatInitial
08:50:02.728 PM 02/15/2016,Teleop Enabled,0,FALSE,0,NO ERROR,9001.757812,-9000.000000,0.000000,0.000000,Speed,Speed,-0.070000,1.020000,1.610000,0.000000,101.000000,1,0,-0.000000,0.000000,1,0.023285,1.590881,0.000000,-5.825089,32.606476,0.000000,0.024000,-0.033000,-0.042000,FlatInitial
08:50:02.829 PM 02/15/2016,Teleop Enabled,0,FALSE,0,NO ERROR,8935.546875,-8934.960938,0.000000,0.000000,Speed,Speed,-0.060000,1.050000,1.530000,0.000000,102.000000,1,0,-0.000000,0.000000,1,0.032776,1.594818,0.000000,-5.823502,32.686676,0.000000,-0.042000,0.032000,0.017000,FlatInitial
08:50:02.928 PM 02/15/2016,Teleop Enabled,0,FALSE,0,NO ERROR,8679.492188,-8528.320312,0.000000,0.000000,Speed,Speed,-0.060000,0.990000,1.560000,0.000000,102.000000,1,0,-0.000000,0.000000,1,0.018112,1.558075,0.000000,-5.822464,32.765656,0.000000,0.036000,-0.108000,0.035000,FlatInitial
08:50:03.028 PM 02/15/2016,Teleop Enabled,0,FALSE,0,NO ERROR,8291.015625,-7989.257812,0.000000,0.000000,Speed,Speed,-0.060000,1.020000,1.890000,0.000000,100.000000,1,0,-0.000000,0.000000,1,0.032684,1.621994,0.000000,-5.820694,32.862808,0.000000,-0.099000,-0.097000,-0.045000,FlatInitial
08:50:03.128 PM 02/15/2016,Teleop Enabled,0,FALSE,0,NO ERROR,7907.812500,-7558.007812,0.000000,0.000000,Speed,Speed,-0.070000,0.980000,1.930000,0.000000,102.000000,1,0,-0.000000,0.000000,1,0.011612,1.633942,0.000000,-5.819748,32.928619,0.000000,0.134000,0.159000,-0.033000,FlatInitial
08:50:03.229 PM 02/15/2016,Teleop Enabled,0,FALSE,0,NO ERROR,7534.570312,-7003.710938,0.000000,0.000000,Speed,Speed,-0.060000,0.980000,1.970000,0.000000,101.000000,1,0,-0.000000,0.000000,1,0.038361,1.623016,0.000000,-5.818390,33.026764,0.000000,0.092000,-0.047000,-0.005000,FlatInitial
08:50:03.329 PM 02/15/2016,Teleop Enabled,0,FALSE,0,NO ERROR,7161.914062,-6457.031250,0.000000,0.000000,Speed,Speed,-0.070000,1.010000,1.940000,0.000000,103.000000,1,0,-0.000000,0.000000,1,0.028458,1.657303,0.000000,-5.817535,33.107773,0.000000,-0.034000,-0.025000,0.055000,FlatInitial
08:50:03.428 PM 02/15/2016,Teleop Enabled,0,FALSE,0,NO ERROR,6799.804688,-5927.343750,0.000000,0.000000,Speed,Speed,-0.090000,1.040000,2.240000,0.000000,103.000000,1,0,-0.000000,0.000000,1,-0.007690,1.595230,0.000000,-5.817764,33.187653,0.000000,0.012000,0.050000,0.002000,FlatInitial
08:50:03.529 PM 02/15/2016,Teleop Enabled,0,FALSE,0,NO ERROR,6447.656250,-5421.679688,0.000000,0.000000,Speed,Speed,-0.070000,1.000000,2.110000,0.000000,101.000000,1,0,-0.000000,0.000000,1,-0.009842,1.608231,0.000000,-5.818268,33.268143,0.000000,0.049000,0.124000,0.044000,FlatInitial
08:50:03.630 PM 02/15/2016,Teleop Enabled,0,FALSE,0,NO ERROR,6171.093750,-4921.875000,0.000000,0.000000,Speed,Speed,0.040000,1.100000,1.560000,0.000000,102.000000,1,0,-0.000000,0.000000,1,0.000000,1.737457,0.000000,-5.818222,33.352325,0.000000,0.017000,0.147000,-0.277000,FlatInitial
08:50:03.731 PM 02/15/2016,Teleop Enabled,0,FALSE,0,NO ERROR,5828.320312,-4430.419922,0.000000,0.000000,Speed,Speed,-0.090000,1.060000,2.240000,0.000000,101.000000,1,0,-0.000000,0.000000,1,0.048920,1.784821,0.000000,-5.816345,33.441650,0.000000,0.002000,0.132000,0.146000,FlatInitial
08:50:03.830 PM 02/15/2016,Teleop Enabled,0,FALSE,0,NO ERROR,5494.921875,-4047.216797,0.000000,0.000000,Speed,Speed,-0.130000,1.040000,1.850000,0.000000,101.000000,1,0,-0.000000,0.000000,1,0.033234,1.744354,0.000000,-5.815567,33.530838,0.000000,0.021000,-0.070000,-0.001000,FlatInitial
08:50:03.931 PM 02/15/2016,Teleop Enabled,0,FALSE,0,NO ERROR,5168.554688,-3573.632812,0.000000,0.000000,Speed,Speed,-0.160000,1.160000,1.350000,0.000000,102.000000,1,0,-0.000000,0.000000,1,0.026489,1.741562,0.000000,-5.813705,33.634949,0.000000,-0.060000,-0.135000,-0.303000,FlatInitial
08:50:04.031 PM 02/15/2016,Teleop Enabled,0,FALSE,0,NO ERROR,4842.773438,-3110.009766,0.000000,0.000000,Speed,Speed,-0.310000,1.060000,2.300000,0.000000,101.000000,1,0,-0.000000,0.000000,1,0.019638,1.747849,0.000000,-5.812622,33.704239,0.000000,-0.003000,-0.020000,0.212000,FlatInitial
08:50:04.133 PM 02/15/2016,Teleop Enabled,0,FALSE,0,NO ERROR,4587.597656,-2666.748047,0.000000,0.000000,Speed,Speed,-0.280000,0.940000,2.500000,0.000000,101.000000,1,0,-0.000000,0.000000,1,0.002289,1.743942,0.000000,-5.812317,33.791092,0.000000,0.086000,0.022000,0.067000,FlatInitial
08:50:04.233 PM 02/15/2016,Teleop Enabled,0,FALSE,0,NO ERROR,4278.662109,-2238.134766,0.000000,0.000000,Speed,Speed,-0.240000,0.970000,2.420000,0.000000,101.000000,1,0,-0.000000,0.000000,1,0.020370,1.748276,0.000000,-5.811050,33.878693,0.000000,0.031000,-0.006000,0.073000,FlatInitial
08:50:04.333 PM 02/15/2016,Teleop Enabled,0,FALSE,0,NO ERROR,3976.464844,-1826.220703,0.000000,0.000000,Speed,Speed,-0.240000,1.000000,2.460000,0.000000,101.000000,1,0,-0.000000,0.000000,1,0.000000,0.002350,0.000000,-5.809906,33.948608,0.000000,0.001000,0.031000,0.157000,FlatInitial
08:50:04.433 PM 02/15/2016,Teleop Enabled,0,FALSE,0,NO ERROR,3685.400391,-1512.451172,0.000000,0.000000,Speed,Speed,-0.250000,0.980000,2.380000,0.000000,101.000000,1,0,-0.000000,0.000000,1,-0.016922,-0.010223,0.000000,-5.810532,33.948608,0.000000,0.010000,-0.049000,0.003000,FlatInitial
08:50:04.533 PM 02/15/2016,Teleop Enabled,0,FALSE,0,NO ERROR,3400.927734,-1138.183594,0.000000,0.000000,Speed,Speed,-0.260000,1.010000,2.130000,0.000000,101.000000,1,0,-0.000000,0.000000,1,-0.006104,-0.031464,0.000000,-5.810776,33.947433,0.000000,-0.025000,0.036000,0.077000,FlatInitial
08:50:04.634 PM 02/15/2016,Teleop Enabled,0,FALSE,0,NO ERROR,3180.615234,-797.460938,0.000000,0.000000,Speed,Speed,-0.290000,1.030000,1.660000,0.000000,102.000000,1,0,-0.000000,0.000000,1,-0.023453,-0.057144,0.000000,-5.811508,33.945648,0.000000,0.034000,-0.164000,0.108000,FlatInitial
08:50:04.734 PM 02/15/2016,Teleop Enabled,0,FALSE,0,NO ERROR,2914.892578,-468.603516,0.000000,0.000000,Speed,Speed,-0.280000,1.060000,1.620000,0.000000,102.000000,1,0,-0.000000,0.000000,1,-0.011078,-0.057388,0.000000,-5.812500,33.942917,0.000000,0.026000,0.010000,-0.083000,FlatInitial
08:50:04.834 PM 02/15/2016,Teleop Enabled,0,FALSE,0,NO ERROR,2653.564453,-120.703125,0.000000,0.000000,Speed,Speed,-0.280000,0.920000,2.320000,0.000000,102.000000,1,0,-0.000000,0.000000,1,-0.019348,-0.086609,0.000000,-5.813370,33.938309,0.000000,0.003000,0.029000,-0.018000,FlatInitial
08:50:04.934 PM 02/15/2016,Teleop Enabled,0,FALSE,0,NO ERROR,2402.050781,0.585938,0.000000,0.000000,Speed,Speed,-0.270000,1.030000,1.850000,0.000000,102.000000,1,0,-0.000000,0.000000,1,0.000000,-0.084671,0.000000,-5.813522,33.933472,0.000000,0.030000,0.000000,0.040000,FlatInitial
08:50:05.034 PM 02/15/2016,Teleop Enabled,0,FALSE,0,NO ERROR,2160.058594,0.146484,0.000000,0.000000,Speed,Speed,-0.260000,1.020000,2.170000,0.000000,100.000000,1,0,-0.000000,0.000000,1,0.033447,0.003906,0.000000,-5.812454,33.933594,0.000000,0.022000,-0.031000,-0.010000,FlatInitial
08:50:05.134 PM 02/15/2016,Teleop Enabled,0,FALSE,0,NO ERROR,1926.269531,0.000000,0.000000,0.000000,Speed,Speed,-0.250000,0.950000,2.150000,0.000000,102.000000,1,0,-0.000000,0.000000,1,0.007812,-0.005112,0.000000,-5.811249,33.933441,0.000000,-0.040000,0.000000,-0.014000,FlatInitial
08:50:05.234 PM 02/15/2016,Teleop Enabled,0,FALSE,0,NO ERROR,1749.023438,0.000000,0.000000,0.000000,Speed,Speed,-0.250000,0.970000,1.950000,0.000000,102.000000,1,0,-0.000000,0.000000,1,-0.000473,0.000000,0.000000,-5.810822,33.933167,0.000000,0.007000,0.010000,-0.079000,FlatInitial
08:50:05.334 PM 02/15/2016,Teleop Enabled,0,FALSE,0,NO ERROR,1532.519531,0.000000,0.000000,0.000000,Speed,Speed,-0.250000,0.950000,2.090000,0.000000,102.000000,1,0,-0.204724,-0.204724,1,0.014786,0.001999,0.000000,-5.810501,33.933350,0.000000,0.048000,-0.043000,-0.123000,FlatInitial
08:50:05.433 PM 02/15/2016,Teleop Enabled,0,FALSE,0,NO ERROR,1319.091797,0.000000,0.000000,0.000000,Speed,Speed,-0.250000,0.950000,2.040000,0.000000,101.000000,1,0,-0.251969,-0.251969,1,-0.027359,0.007767,0.000000,-5.810760,33.933258,0.000000,-0.084000,0.188000,-0.003000,FlatInitial
08:50:05.534 PM 02/15/2016,Teleop Enabled,0,FALSE,0,NO ERROR,1126.757812,0.000000,0.000000,0.000000,Speed,Speed,-0.170000,1.100000,2.870000,0.000000,101.000000,1,0,-0.000000,0.000000,1,-0.024551,0.109924,0.000000,-5.812256,33.936951,0.000000,0.004000,0.047000,0.059000,FlatInitial
08:50:05.633 PM 02/15/2016,Teleop Enabled,0,FALSE,0,NO ERROR,930.908203,0.000000,0.000000,0.000000,Speed,Speed,-0.620000,0.930000,2.380000,0.000000,102.000000,1,0,-0.000000,0.000000,1,-0.062347,0.057510,0.000000,-5.814713,33.940216,0.000000,0.133000,-0.151000,0.022000,FlatInitial
08:50:05.733 PM 02/15/2016,Teleop Enabled,0,FALSE,0,NO ERROR,760.839844,0.000000,0.000000,0.000000,Speed,Speed,-0.860000,1.020000,1.290000,0.000000,101.000000,1,0,-0.000000,0.000000,1,-0.026871,-0.032486,0.000000,-5.815796,33.939865,0.000000,-0.080000,-0.021000,-0.121000,FlatInitial
08:50:05.834 PM 02/15/2016,Teleop Enabled,0,FALSE,0,NO ERROR,629.443359,0.000000,0.000000,0.000000,Speed,Speed,-0.980000,1.020000,1.540000,0.000000,101.000000,1,0,-0.000000,0.000000,1,-0.025146,-0.051483,0.000000,-5.817627,33.937607,0.000000,0.013000,0.014000,0.073000,FlatInitial
08:50:05.935 PM 02/15/2016,Teleop Enabled,0,FALSE,0,NO ERROR,458.203125,0.000000,-6000.000000,-6000.000000,Speed,Speed,-0.940000,0.910000,2.040000,1.000000,103.000000,1,0,-0.000000,0.000000,1,-0.059692,0.012924,0.000000,-5.819946,33.937393,0.000000,0.036000,0.023000,-0.016000,FlatInitial
08:50:06.035 PM 02/15/2016,Teleop Enabled,0,FALSE,0,NO ERROR,195.703125,140.771484,-6000.000000,-6000.000000,Speed,Speed,-0.890000,1.020000,1.710000,1.000000,103.000000,1,0,-0.000000,0.000000,1,0.008163,0.021896,0.000000,-5.820297,33.938263,0.000000,-0.006000,0.023000,0.063000,FlatInitial
08:50:06.135 PM 02/15/2016,Teleop Enabled,0,FALSE,0,NO ERROR,-1777.587891,1658.056641,-6000.000000,-6000.000000,Speed,Speed,-0.860000,1.030000,1.830000,1.000000,109.000000,1,0,-0.000000,0.000000,1,0.028992,0.000000,0.000000,-5.819595,33.939682,0.000000,0.019000,0.005000,-0.004000,FlatInitial
08:50:06.235 PM 02/15/2016,Teleop Enabled,0,FALSE,0,NO ERROR,-3179.882812,3392.431641,-6000.000000,-6000.000000,Speed,Speed,-0.900000,0.980000,2.010000,1.000000,100.000000,1,0,0.299213,-0.299213,1,0.029633,0.035660,0.000000,-5.817703,33.940796,0.000000,0.021000,0.060000,-0.179000,FlatInitial
08:50:06.335 PM 02/15/2016,Teleop Enabled,0,FALSE,0,NO ERROR,-4630.371094,4811.718750,-6000.000000,-6000.000000,Speed,Speed,-2.020000,1.320000,2.210000,1.000000,102.000000,1,0,0.307087,-0.307087,1,0.004761,0.025757,0.000000,-5.816849,33.941772,0.000000,0.008000,0.122000,0.155000,FlatInitial
08:50:06.434 PM 02/15/2016,Teleop Enabled,0,FALSE,0,NO ERROR,-5561.718750,5555.273438,-6000.000000,-6000.000000,Speed,Speed,-4.540000,1.560000,2.290000,1.000000,102.000000,1,0,0.188976,-0.188976,1,0.041336,0.096481,0.000000,-5.815994,33.944427,0.000000,0.217000,0.120000,-0.071000,FlatInitial
08:50:06.535 PM 02/15/2016,Teleop Enabled,0,FALSE,0,NO ERROR,-5972.460938,5964.843750,-6000.000000,-6000.000000,Speed,Speed,-9.630000,1.870000,1.990000,1.000000,101.000000,1,0,-0.000000,0.000000,1,0.240524,0.224976,0.000000,-5.807343,33.953445,0.000000,0.086000,0.106000,0.268000,FlatInitial
08:50:06.635 PM 02/15/2016,Teleop Enabled,0,FALSE,0,NO ERROR,-6125.390625,6102.539062,-6000.000000,-6000.000000,Speed,Speed,-12.870000,1.670000,1.320000,1.000000,101.000000,1,0,-0.000000,0.000000,1,0.258591,0.233673,0.000000,-5.794662,33.964966,0.000000,-0.001000,0.141000,0.010000,FlatInitial
08:50:06.734 PM 02/15/2016,Teleop Enabled,0,FALSE,0,NO ERROR,-6156.445312,6129.492188,-6000.000000,-6000.000000,Speed,Speed,-14.450000,1.500000,1.620000,1.000000,101.000000,1,0,-0.000000,0.000000,1,0.208130,0.278900,0.000000,-5.783035,33.978287,0.000000,-0.117000,-0.013000,0.024000,FlatInitial
08:50:06.835 PM 02/15/2016,Teleop Enabled,0,FALSE,0,NO ERROR,-6142.382812,6103.125000,-6000.000000,-6000.000000,Speed,Speed,-14.920000,1.310000,1.960000,1.000000,101.000000,1,0,-0.000000,0.000000,1,0.228867,0.182892,0.000000,-5.772537,33.989532,0.000000,-0.022000,-0.065000,0.009000,FlatInitial
08:50:06.936 PM 02/15/2016,Teleop Enabled,0,FALSE,0,NO ERROR,-6112.500000,6072.070312,-6000.000000,-6000.000000,Speed,Speed,-14.940000,1.260000,1.760000,1.000000,102.000000,1,0,-0.338583,-0.338583,1,0.210953,0.142426,0.000000,-5.759064,33.997650,0.000000,0.048000,0.456000,-0.249000,FlatInitial
08:50:07.037 PM 02/15/2016,Teleop Enabled,0,FALSE,0,NO ERROR,-6062.695312,6027.539062,-6000.000000,-6000.000000,Speed,Speed,-15.390000,1.100000,3.390000,1.000000,102.000000,1,0,-0.346457,-0.346457,1,0.106201,0.221802,0.000000,-5.752121,34.007507,0.000000,0.155000,-0.055000,0.083000,FlatInitial
08:50:07.137 PM 02/15/2016,Teleop Enabled,0,FALSE,0,NO ERROR,-5997.070312,5961.914062,-6000.000000,-6000.000000,Speed,Speed,-16.070000,1.130000,3.640000,1.000000,100.000000,1,0,-0.346457,-0.346457,1,0.117508,0.189529,0.000000,-5.746964,34.015121,0.000000,-0.163000,-0.068000,-0.092000,FlatInitial
08:50:07.237 PM 02/15/2016,Teleop Enabled,0,FALSE,0,NO ERROR,-5967.187500,5934.375000,-6000.000000,-6000.000000,Speed,Speed,-17.270000,1.160000,3.760000,1.000000,102.000000,1,0,-0.338583,-0.338583,1,0.054550,0.179031,0.000000,-5.743423,34.024231,0.000000,0.073000,0.095000,-0.270000,FlatInitial
08:50:07.338 PM 02/15/2016,Teleop Enabled,0,FALSE,0,NO ERROR,-5964.257812,5949.023438,-6000.000000,-6000.000000,Speed,Speed,-19.000000,1.370000,4.230000,1.000000,103.000000,1,0,-0.438118,-0.254796,1,0.054550,0.179031,0.000000,-5.743423,34.024231,0.000000,0.073000,0.095000,-0.270000,FlatInitial
08:50:07.439 PM 02/15/2016,Teleop Enabled,0,FALSE,0,NO ERROR,-5984.179688,5983.007812,-6000.000000,-6000.000000,Speed,Speed,-19.000000,1.370000,4.230000,1.000000,102.000000,1,0,-0.346457,-0.346457,1,-0.024582,0.234787,0.000000,-5.742081,34.047150,0.000000,0.015000,-0.101000,-0.024000,FlatInitial
