Time,RobotMode,AutoToRun,ErrorStatus, ErrorCode,ErrorSource,ActualRPM1,ActualRPM2,DesiredRPM1,DesiredRPM2,ControlMode1,ControlMode2,NavXYaw,NavXRoll,NavXPitch,ShooterState,LoopTime,IsLevel,IsAutoTargeting,LeftMotorOutput,RightMotorOutput,IsHaloDrive,NavXVelocityX,NavXVelocityY,NavXVelocityZ,NavXDisplacementX,NavXDisplacementY,NavXDisplacementZ,NavXAccelerationX,NavXAccelerationY,NavXAccelerationZ,AutoDefendState
01:42:07.339 PM 02/14/2016,Autonomous Disabled,0,TRUE,-44087,NetComm_CAN_Receive.vi:5470006<APPEND>  <b>Complete call chain:</b>      NetComm_CAN_Receive.vi:5470006      WPI_CANTalonSRX_Receive.vi      WPI_MotorControlOpenCANTalonSRX.vi      Begin.vi      Robot Main.vi,0.000000,0.000000,4000.000000,4000.000000,Speed,Speed,0.220000,1.210000,2.020000,3.000000,102.000000,1,0,-0.006200,-0.006200,0,0.000000,0.000000,0.000000,-0.153214,0.296875,0.000000,-0.003000,-0.005000,0.000000,FlatInitial
01:42:07.439 PM 02/14/2016,Teleop Disabled,0,TRUE,-44087,NetComm_CAN_Receive.vi:5470006<APPEND>  <b>Complete call chain:</b>      NetComm_CAN_Receive.vi:5470006      WPI_CANTalonSRX_Receive.vi      WPI_MotorControlOpenCANTalonSRX.vi      Begin.vi      Robot Main.vi,0.000000,0.000000,0.000000,0.000000,Speed,Speed,-0.160000,1.350000,1.780000,0.000000,23804.000000,1,0,-0.006200,-0.006200,0,0.000000,0.000000,0.000000,-0.152878,0.294922,0.000000,0.000000,0.000000,0.001000,FlatInitial
01:42:07.539 PM 02/14/2016,Teleop Disabled,0,TRUE,-44087,NetComm_CAN_Receive.vi:5470006<APPEND>  <b>Complete call chain:</b>      NetComm_CAN_Receive.vi:5470006      WPI_CANTalonSRX_Receive.vi      WPI_MotorControlOpenCANTalonSRX.vi      Begin.vi      Robot Main.vi,0.000000,0.000000,0.000000,0.000000,Speed,Speed,0.000000,1.350000,1.780000,0.000000,103.000000,1,0,-0.006200,-0.006200,0,0.000000,0.000000,0.000000,-0.152878,0.294922,0.000000,-0.001000,-0.002000,0.000000,FlatInitial
01:42:07.639 PM 02/14/2016,Teleop Disabled,0,TRUE,-44087,NetComm_CAN_Receive.vi:5470006<APPEND>  <b>Complete call chain:</b>      NetComm_CAN_Receive.vi:5470006      WPI_CANTalonSRX_Receive.vi      WPI_MotorControlOpenCANTalonSRX.vi      Begin.vi      Robot Main.vi,0.000000,0.000000,0.000000,0.000000,Speed,Speed,0.000000,1.350000,1.770000,0.000000,102.000000,1,0,-0.006200,-0.006200,0,0.000000,0.000000,0.000000,-0.152878,0.294922,0.000000,-0.003000,0.000000,-0.001000,FlatInitial
01:42:07.739 PM 02/14/2016,Teleop Disabled,0,TRUE,-44087,NetComm_CAN_Receive.vi:5470006<APPEND>  <b>Complete call chain:</b>      NetComm_CAN_Receive.vi:5470006      WPI_CANTalonSRX_Receive.vi      WPI_MotorControlOpenCANTalonSRX.vi      Begin.vi      Robot Main.vi,0.000000,0.000000,0.000000,0.000000,Speed,Speed,0.000000,1.340000,1.770000,0.000000,103.000000,1,0,-0.006200,-0.006200,0,0.000000,0.000000,0.000000,-0.152878,0.294922,0.000000,0.004000,0.000000,0.002000,FlatInitial
01:42:07.839 PM 02/14/2016,Teleop Disabled,0,TRUE,-44087,NetComm_CAN_Receive.vi:5470006<APPEND>  <b>Complete call chain:</b>      NetComm_CAN_Receive.vi:5470006      WPI_CANTalonSRX_Receive.vi      WPI_MotorControlOpenCANTalonSRX.vi      Begin.vi      Robot Main.vi,0.000000,0.000000,0.000000,0.000000,Speed,Speed,0.000000,1.340000,1.790000,0.000000,102.000000,1,0,-0.006200,-0.006200,0,0.000000,0.000000,0.000000,-0.152878,0.294922,0.000000,0.004000,0.001000,-0.002000,FlatInitial
01:42:07.938 PM 02/14/2016,Teleop Disabled,0,TRUE,-44087,NetComm_CAN_Receive.vi:5470006<APPEND>  <b>Complete call chain:</b>      NetComm_CAN_Receive.vi:5470006      WPI_CANTalonSRX_Receive.vi      WPI_CANTalonSRX_GetStatus.vi      ShooterVI.vi      Periodic Tasks.vi      Robot Main.vi,0.000000,0.000000,0.000000,0.000000,Speed,Speed,-0.010000,1.340000,1.820000,0.000000,102.000000,1,0,-0.006200,-0.006200,0,0.000000,0.000000,0.000000,-0.152878,0.294922,0.000000,-0.006000,0.003000,-0.002000,FlatInitial
01:42:08.039 PM 02/14/2016,Teleop Disabled,0,TRUE,-44087,NetComm_CAN_Receive.vi:5470006<APPEND>  <b>Complete call chain:</b>      NetComm_CAN_Receive.vi:5470006      WPI_CANTalonSRX_Receive.vi      WPI_CANTalonSRX_GetStatus.vi      ShooterVI.vi      Periodic Tasks.vi      Robot Main.vi,0.000000,0.000000,0.000000,0.000000,Speed,Speed,-0.020000,1.330000,1.850000,0.000000,102.000000,1,0,-0.006200,-0.006200,0,0.000000,0.000000,0.000000,-0.152878,0.294922,0.000000,0.001000,0.002000,0.005000,FlatInitial
01:42:08.138 PM 02/14/2016,Teleop Disabled,0,FALSE,0,NO ERROR,0.000000,0.000000,0.000000,0.000000,Speed,Speed,-0.040000,1.340000,1.850000,0.000000,102.000000,1,0,-0.006200,-0.006200,0,0.000000,0.000000,0.000000,-0.152878,0.294922,0.000000,0.000000,-0.003000,-0.003000,FlatInitial
01:42:08.239 PM 02/14/2016,Teleop Disabled,0,FALSE,0,NO ERROR,0.000000,0.000000,0.000000,0.000000,Speed,Speed,-0.040000,1.330000,1.830000,0.000000,101.000000,1,0,-0.006200,-0.006200,0,0.000000,0.000000,0.000000,-0.152878,0.294922,0.000000,0.014000,-0.012000,0.008000,FlatInitial
01:42:08.339 PM 02/14/2016,Teleop Disabled,0,FALSE,0,NO ERROR,0.000000,0.000000,0.000000,0.000000,Speed,Speed,-0.020000,1.340000,1.830000,0.000000,101.000000,1,0,-0.006200,-0.006200,0,-0.001709,0.000000,0.000000,-0.152954,0.294922,0.000000,0.020000,-0.011000,-0.007000,FlatInitial
01:42:08.439 PM 02/14/2016,Teleop Disabled,0,FALSE,0,NO ERROR,0.000000,0.000000,0.000000,0.000000,Speed,Speed,-0.040000,1.360000,1.850000,0.000000,102.000000,1,0,-0.006200,-0.006200,0,0.000000,0.000000,0.000000,-0.152924,0.295105,0.000000,0.001000,-0.004000,0.011000,FlatInitial
01:42:08.539 PM 02/14/2016,Teleop Disabled,0,FALSE,0,NO ERROR,0.000000,0.000000,0.000000,0.000000,Speed,Speed,-0.050000,1.350000,1.830000,0.000000,103.000000,1,0,-0.006200,-0.006200,0,0.000000,0.000000,0.000000,-0.152924,0.295105,0.000000,0.005000,0.002000,-0.006000,FlatInitial
01:42:08.639 PM 02/14/2016,Teleop Disabled,0,FALSE,0,NO ERROR,0.000000,0.000000,0.000000,0.000000,Speed,Speed,-0.030000,1.350000,1.830000,0.000000,103.000000,1,0,-0.006200,-0.006200,0,0.000000,0.000000,0.000000,-0.152924,0.295105,0.000000,-0.003000,-0.002000,0.005000,FlatInitial
01:42:08.739 PM 02/14/2016,Teleop Disabled,0,FALSE,0,NO ERROR,0.000000,0.000000,0.000000,0.000000,Speed,Speed,-0.050000,1.350000,1.850000,0.000000,102.000000,1,0,-0.006200,-0.006200,0,0.000000,0.000000,0.000000,-0.152924,0.295105,0.000000,0.004000,-0.001000,-0.003000,FlatInitial
01:42:08.839 PM 02/14/2016,Teleop Disabled,0,FALSE,0,NO ERROR,0.000000,0.000000,0.000000,0.000000,Speed,Speed,-0.050000,1.360000,1.850000,0.000000,102.000000,1,0,-0.006200,-0.006200,0,0.000000,0.000000,0.000000,-0.152924,0.295105,0.000000,0.001000,0.000000,-0.002000,FlatInitial
01:42:08.939 PM 02/14/2016,Teleop Disabled,0,FALSE,0,NO ERROR,0.000000,0.000000,0.000000,0.000000,Speed,Speed,-0.060000,1.360000,1.850000,0.000000,102.000000,1,0,-0.006200,-0.006200,0,0.000000,0.000000,0.000000,-0.152924,0.295105,0.000000,0.000000,0.001000,-0.001000,FlatInitial
01:42:09.039 PM 02/14/2016,Teleop Disabled,0,FALSE,0,NO ERROR,0.000000,0.000000,0.000000,0.000000,Speed,Speed,-0.040000,1.360000,1.820000,0.000000,103.000000,1,0,-0.006200,-0.006200,0,0.000000,0.000000,0.000000,-0.152924,0.295105,0.000000,0.000000,-0.002000,0.001000,FlatInitial
01:42:09.139 PM 02/14/2016,Teleop Disabled,0,FALSE,0,NO ERROR,0.000000,0.000000,0.000000,0.000000,Speed,Speed,0.010000,1.370000,1.790000,0.000000,101.000000,1,0,-0.006200,-0.006200,0,0.000000,0.000000,0.000000,-0.152924,0.295105,0.000000,0.004000,-0.003000,0.002000,FlatInitial
01:42:09.238 PM 02/14/2016,Teleop Disabled,0,FALSE,0,NO ERROR,0.000000,0.000000,0.000000,0.000000,Speed,Speed,0.020000,1.380000,1.790000,0.000000,102.000000,1,0,-0.006200,-0.006200,0,0.000000,0.000000,0.000000,-0.152924,0.295105,0.000000,0.002000,-0.001000,0.003000,FlatInitial
01:42:09.339 PM 02/14/2016,Teleop Disabled,0,FALSE,0,NO ERROR,0.000000,0.000000,0.000000,0.000000,Speed,Speed,0.000000,1.370000,1.820000,0.000000,101.000000,1,0,-0.006200,-0.006200,0,0.000000,0.000000,0.000000,-0.152924,0.295105,0.000000,0.000000,0.001000,0.005000,FlatInitial
01:42:09.439 PM 02/14/2016,Teleop Disabled,0,FALSE,0,NO ERROR,0.000000,0.000000,0.000000,0.000000,Speed,Speed,0.000000,1.370000,1.810000,0.000000,101.000000,1,0,-0.006200,-0.006200,0,0.000000,0.000000,0.000000,-0.152924,0.295105,0.000000,0.000000,-0.004000,-0.002000,FlatInitial
01:42:09.539 PM 02/14/2016,Teleop Disabled,0,FALSE,0,NO ERROR,0.000000,0.000000,0.000000,0.000000,Speed,Speed,0.000000,1.360000,1.810000,0.000000,101.000000,1,0,-0.006200,-0.006200,0,0.000000,0.000000,0.000000,-0.152924,0.295105,0.000000,0.002000,0.000000,0.002000,FlatInitial
01:42:09.640 PM 02/14/2016,Teleop Disabled,0,FALSE,0,NO ERROR,0.000000,0.000000,0.000000,0.000000,Speed,Speed,0.000000,1.360000,1.820000,0.000000,101.000000,1,0,-0.006200,-0.006200,0,0.000000,0.000000,0.000000,-0.152924,0.295105,0.000000,-0.001000,-0.001000,0.001000,FlatInitial
01:42:09.740 PM 02/14/2016,Teleop Disabled,0,FALSE,0,NO ERROR,0.000000,0.000000,0.000000,0.000000,Speed,Speed,0.020000,1.360000,1.790000,0.000000,104.000000,1,0,-0.006200,-0.006200,0,0.000000,0.000000,0.000000,-0.152924,0.295105,0.000000,0.004000,-0.002000,-0.002000,FlatInitial
01:42:09.840 PM 02/14/2016,Teleop Disabled,0,FALSE,0,NO ERROR,0.000000,0.000000,0.000000,0.000000,Speed,Speed,0.020000,1.360000,1.800000,0.000000,100.000000,1,0,-0.006200,-0.006200,0,0.000000,0.000000,0.000000,-0.152924,0.295105,0.000000,-0.003000,-0.001000,0.005000,FlatInitial
01:42:09.939 PM 02/14/2016,Teleop Disabled,0,FALSE,0,NO ERROR,0.000000,0.000000,0.000000,0.000000,Speed,Speed,0.020000,1.360000,1.770000,0.000000,102.000000,1,0,-0.006200,-0.006200,0,0.000000,0.000000,0.000000,-0.152924,0.295105,0.000000,0.001000,-0.002000,0.000000,FlatInitial
01:42:10.040 PM 02/14/2016,Teleop Disabled,0,FALSE,0,NO ERROR,0.000000,0.000000,0.000000,0.000000,Speed,Speed,0.020000,1.370000,1.780000,0.000000,101.000000,1,0,-0.006200,-0.006200,0,0.000000,0.000000,0.000000,-0.152924,0.295105,0.000000,0.003000,-0.001000,-0.005000,FlatInitial
01:42:10.140 PM 02/14/2016,Teleop Disabled,0,FALSE,0,NO ERROR,0.000000,0.000000,0.000000,0.000000,Speed,Speed,0.010000,1.370000,1.790000,0.000000,101.000000,1,0,-0.006200,-0.006200,0,0.000000,0.000000,0.000000,-0.152924,0.295105,0.000000,-0.002000,0.000000,-0.001000,FlatInitial
01:42:10.239 PM 02/14/2016,Teleop Disabled,0,FALSE,0,NO ERROR,0.000000,0.000000,0.000000,0.000000,Speed,Speed,0.020000,1.370000,1.790000,0.000000,103.000000,1,0,-0.006200,-0.006200,0,0.000000,0.000000,0.000000,-0.152924,0.295105,0.000000,-0.001000,0.000000,0.001000,FlatInitial
01:42:10.340 PM 02/14/2016,Teleop Disabled,0,FALSE,0,NO ERROR,0.000000,0.000000,0.000000,0.000000,Speed,Speed,0.030000,1.370000,1.790000,0.000000,101.000000,1,0,-0.006200,-0.006200,0,0.000000,0.000000,0.000000,-0.152924,0.295105,0.000000,-0.001000,-0.003000,0.001000,FlatInitial
01:42:10.441 PM 02/14/2016,Teleop Disabled,0,FALSE,0,NO ERROR,0.000000,0.000000,0.000000,0.000000,Speed,Speed,0.020000,1.380000,1.780000,0.000000,102.000000,1,0,-0.006200,-0.006200,0,0.000000,0.000000,0.000000,-0.152924,0.295105,0.000000,0.000000,0.003000,0.000000,FlatInitial
01:42:10.541 PM 02/14/2016,Teleop Disabled,0,FALSE,0,NO ERROR,0.000000,0.000000,0.000000,0.000000,Speed,Speed,0.000000,1.350000,1.830000,0.000000,101.000000,1,0,-0.006200,-0.006200,0,0.000000,0.000000,0.000000,-0.152924,0.295105,0.000000,0.000000,-0.002000,0.007000,FlatInitial
01:42:10.641 PM 02/14/2016,Teleop Disabled,0,FALSE,0,NO ERROR,0.000000,0.000000,-6000.000000,-6000.000000,Speed,Speed,0.000000,1.360000,1.820000,1.000000,103.000000,1,0,-0.006200,-0.006200,0,0.000000,0.000000,0.000000,-0.152924,0.295105,0.000000,-0.001000,0.000000,0.008000,FlatInitial
01:42:10.742 PM 02/14/2016,Teleop Disabled,0,FALSE,0,NO ERROR,0.000000,0.000000,0.000000,0.000000,Speed,Speed,-0.010000,1.340000,1.820000,2.000000,101.000000,1,0,-0.006200,-0.006200,0,0.000000,0.000000,0.000000,-0.152924,0.295105,0.000000,0.003000,0.002000,0.003000,FlatInitial
01:42:10.843 PM 02/14/2016,Teleop Disabled,0,FALSE,0,NO ERROR,0.000000,0.000000,0.000000,0.000000,Speed,Speed,0.020000,1.330000,1.780000,2.000000,102.000000,1,0,-0.006200,-0.006200,0,0.000000,0.000000,0.000000,-0.152924,0.295105,0.000000,-0.005000,0.000000,0.006000,FlatInitial
01:42:10.944 PM 02/14/2016,Teleop Disabled,0,FALSE,0,NO ERROR,0.000000,0.000000,0.000000,0.000000,Speed,Speed,0.080000,1.310000,1.730000,2.000000,104.000000,1,0,-0.006200,-0.006200,0,0.000000,0.000000,0.000000,-0.152924,0.295105,0.000000,0.003000,0.004000,-0.003000,FlatInitial
01:42:11.045 PM 02/14/2016,Teleop Disabled,0,FALSE,0,NO ERROR,0.000000,0.000000,0.000000,0.000000,Speed,Speed,0.070000,1.320000,1.740000,2.000000,103.000000,1,0,-0.006200,-0.006200,0,0.000000,0.000000,0.000000,-0.152924,0.295105,0.000000,-0.003000,0.007000,0.002000,FlatInitial
01:42:11.146 PM 02/14/2016,Teleop Disabled,0,FALSE,0,NO ERROR,0.000000,0.000000,0.000000,0.000000,Speed,Speed,0.080000,1.300000,1.740000,2.000000,104.000000,1,0,-0.006200,-0.006200,0,0.000000,0.000000,0.000000,-0.152924,0.295105,0.000000,0.003000,0.006000,0.006000,FlatInitial
01:42:11.247 PM 02/14/2016,Teleop Disabled,0,FALSE,0,NO ERROR,0.000000,0.000000,0.000000,0.000000,Speed,Speed,0.080000,1.300000,1.700000,2.000000,103.000000,1,0,-0.006200,-0.006200,0,0.000000,0.000000,0.000000,-0.152924,0.295105,0.000000,0.000000,-0.005000,0.011000,FlatInitial
01:42:11.348 PM 02/14/2016,Teleop Disabled,0,FALSE,0,NO ERROR,0.000000,0.000000,0.000000,0.000000,Speed,Speed,0.080000,1.280000,1.730000,2.000000,102.000000,1,0,-0.006200,-0.006200,0,0.000000,0.000000,0.000000,-0.152924,0.295105,0.000000,-0.001000,0.001000,0.001000,FlatInitial
01:42:11.449 PM 02/14/2016,Teleop Disabled,0,FALSE,0,NO ERROR,0.000000,0.000000,0.000000,0.000000,Speed,Speed,0.100000,1.280000,1.690000,2.000000,103.000000,1,0,-0.006200,-0.006200,0,0.000000,0.000000,0.000000,-0.152924,0.295105,0.000000,-0.003000,0.005000,0.019000,FlatInitial
01:42:11.550 PM 02/14/2016,Teleop Disabled,0,FALSE,0,NO ERROR,0.000000,0.000000,0.000000,0.000000,Speed,Speed,0.130000,1.280000,1.660000,2.000000,102.000000,1,0,-0.006200,-0.006200,0,0.000000,0.000000,0.000000,-0.152924,0.295105,0.000000,-0.014000,-0.009000,-0.003000,FlatInitial
01:42:11.651 PM 02/14/2016,Teleop Disabled,0,FALSE,0,NO ERROR,0.000000,0.000000,0.000000,0.000000,Speed,Speed,0.110000,1.300000,1.650000,2.000000,101.000000,1,0,-0.006200,-0.006200,0,0.000000,0.000000,0.000000,-0.152924,0.295105,0.000000,0.007000,0.010000,-0.014000,FlatInitial
01:42:11.750 PM 02/14/2016,Teleop Disabled,0,FALSE,0,NO ERROR,0.000000,0.000000,0.000000,0.000000,Speed,Speed,0.060000,1.320000,1.540000,2.000000,101.000000,1,0,-0.006200,-0.006200,0,0.000000,0.000000,0.000000,-0.152756,0.294998,0.000000,-0.006000,0.012000,-0.016000,FlatInitial
01:42:11.851 PM 02/14/2016,Teleop Disabled,0,FALSE,0,NO ERROR,0.000000,0.000000,0.000000,0.000000,Speed,Speed,0.040000,1.350000,1.560000,2.000000,101.000000,1,0,-0.006200,-0.006200,0,0.000000,0.000000,0.000000,-0.152756,0.294998,0.000000,-0.001000,0.002000,0.009000,FlatInitial
01:42:11.952 PM 02/14/2016,Teleop Disabled,0,FALSE,0,NO ERROR,0.000000,0.000000,0.000000,0.000000,Speed,Speed,0.050000,1.310000,1.690000,2.000000,101.000000,1,0,-0.006200,-0.006200,0,0.000000,0.000000,0.000000,-0.152756,0.294998,0.000000,0.001000,0.000000,-0.005000,FlatInitial
01:42:12.053 PM 02/14/2016,Teleop Disabled,0,FALSE,0,NO ERROR,0.000000,0.000000,4000.000000,4000.000000,Speed,Speed,0.030000,1.300000,1.690000,3.000000,103.000000,1,0,-0.006200,-0.006200,0,0.000000,0.000000,0.000000,-0.152756,0.294998,0.000000,0.013000,-0.020000,-0.017000,FlatInitial
01:42:12.154 PM 02/14/2016,Teleop Disabled,0,FALSE,0,NO ERROR,0.000000,0.000000,4000.000000,4000.000000,Speed,Speed,0.030000,1.290000,1.720000,3.000000,104.000000,1,0,-0.006200,-0.006200,0,0.000000,0.000000,0.000000,-0.152756,0.294861,0.000000,-0.014000,0.015000,-0.014000,FlatInitial
01:42:12.255 PM 02/14/2016,Teleop Disabled,0,FALSE,0,NO ERROR,0.000000,0.000000,4000.000000,4000.000000,Speed,Speed,0.030000,1.310000,1.710000,3.000000,101.000000,1,0,-0.006200,-0.006200,0,0.000000,0.000000,0.000000,-0.152756,0.294861,0.000000,0.000000,0.000000,-0.003000,FlatInitial
01:42:12.355 PM 02/14/2016,Teleop Disabled,0,FALSE,0,NO ERROR,0.000000,0.000000,4000.000000,4000.000000,Speed,Speed,0.000000,1.300000,1.730000,3.000000,102.000000,1,0,-0.006200,-0.006200,0,0.000000,0.000000,0.000000,-0.152756,0.294861,0.000000,0.006000,-0.002000,0.003000,FlatInitial
01:42:12.456 PM 02/14/2016,Teleop Disabled,0,FALSE,0,NO ERROR,0.000000,0.000000,4000.000000,4000.000000,Speed,Speed,-0.020000,1.300000,1.770000,3.000000,101.000000,1,0,-0.006200,-0.006200,0,0.000000,0.000000,0.000000,-0.152756,0.294861,0.000000,-0.002000,0.001000,0.005000,FlatInitial
01:42:12.557 PM 02/14/2016,Teleop Disabled,0,FALSE,0,NO ERROR,0.000000,0.000000,4000.000000,4000.000000,Speed,Speed,-0.010000,1.300000,1.760000,3.000000,103.000000,1,0,-0.006200,-0.006200,0,0.000000,0.000000,0.000000,-0.152756,0.294861,0.000000,-0.002000,0.003000,-0.001000,FlatInitial
01:42:12.657 PM 02/14/2016,Teleop Disabled,0,FALSE,0,NO ERROR,0.000000,0.000000,4000.000000,4000.000000,Speed,Speed,-0.030000,1.320000,1.710000,3.000000,102.000000,1,0,-0.006200,-0.006200,0,0.000000,0.000000,0.000000,-0.152756,0.294861,0.000000,0.000000,0.003000,0.009000,FlatInitial
01:42:12.758 PM 02/14/2016,Teleop Disabled,0,FALSE,0,NO ERROR,0.000000,0.000000,4000.000000,4000.000000,Speed,Speed,-0.060000,1.360000,1.570000,3.000000,102.000000,1,0,-0.006200,-0.006200,0,0.000000,0.000000,0.000000,-0.152756,0.294861,0.000000,0.000000,0.005000,0.000000,FlatInitial
01:42:12.858 PM 02/14/2016,Teleop Disabled,0,FALSE,0,NO ERROR,0.000000,0.000000,4000.000000,4000.000000,Speed,Speed,-0.100000,1.380000,1.530000,3.000000,104.000000,1,0,-0.006200,-0.006200,0,0.000000,0.000000,0.000000,-0.152756,0.294861,0.000000,0.000000,0.007000,-0.003000,FlatInitial
01:42:12.959 PM 02/14/2016,Teleop Disabled,0,FALSE,0,NO ERROR,0.000000,0.000000,4000.000000,4000.000000,Speed,Speed,-0.070000,1.390000,1.460000,3.000000,101.000000,1,0,-0.006200,-0.006200,0,0.000000,0.000000,0.000000,-0.152756,0.294861,0.000000,0.000000,-0.003000,0.005000,FlatInitial
01:42:13.059 PM 02/14/2016,Teleop Disabled,0,FALSE,0,NO ERROR,0.000000,0.000000,4000.000000,4000.000000,Speed,Speed,-0.080000,1.410000,1.400000,3.000000,103.000000,1,0,-0.006200,-0.006200,0,0.000000,0.000000,0.000000,-0.152756,0.294861,0.000000,0.003000,-0.013000,-0.004000,FlatInitial
01:42:13.159 PM 02/14/2016,Teleop Disabled,0,FALSE,0,NO ERROR,0.000000,0.000000,4000.000000,4000.000000,Speed,Speed,-0.110000,1.410000,1.350000,3.000000,101.000000,1,0,-0.006200,-0.006200,0,0.000000,0.000000,0.000000,-0.152756,0.294662,0.000000,-0.003000,-0.005000,-0.004000,FlatInitial
01:42:13.260 PM 02/14/2016,Teleop Disabled,0,FALSE,0,NO ERROR,0.000000,0.000000,4000.000000,4000.000000,Speed,Speed,-0.100000,1.400000,1.310000,3.000000,102.000000,1,0,-0.006200,-0.006200,0,0.000000,0.000000,0.000000,-0.152756,0.294662,0.000000,-0.004000,0.004000,-0.003000,FlatInitial
01:42:13.360 PM 02/14/2016,Teleop Disabled,0,FALSE,0,NO ERROR,0.000000,0.000000,4000.000000,4000.000000,Speed,Speed,-0.080000,1.420000,1.320000,3.000000,102.000000,1,0,-0.006200,-0.006200,0,0.000000,0.000000,0.000000,-0.152756,0.294662,0.000000,0.002000,0.010000,0.001000,FlatInitial
01:42:13.460 PM 02/14/2016,Teleop Disabled,0,FALSE,0,NO ERROR,0.000000,0.000000,4000.000000,4000.000000,Speed,Speed,-0.080000,1.410000,1.360000,3.000000,101.000000,1,0,-0.006200,-0.006200,0,0.000000,0.000000,0.000000,-0.152756,0.294662,0.000000,-0.004000,0.008000,0.009000,FlatInitial
01:42:13.560 PM 02/14/2016,Teleop Disabled,0,FALSE,0,NO ERROR,0.000000,0.000000,4000.000000,4000.000000,Speed,Speed,-0.080000,1.410000,1.340000,3.000000,102.000000,1,0,-0.006200,-0.006200,0,0.000000,0.000000,0.000000,-0.152756,0.294662,0.000000,0.002000,0.006000,-0.003000,FlatInitial
01:42:13.660 PM 02/14/2016,Teleop Disabled,0,FALSE,0,NO ERROR,0.000000,0.000000,4000.000000,4000.000000,Speed,Speed,-0.090000,1.400000,1.360000,3.000000,100.000000,1,0,-0.006200,-0.006200,0,0.000000,0.000000,0.000000,-0.152756,0.294662,0.000000,0.000000,-0.011000,0.008000,FlatInitial
01:42:13.760 PM 02/14/2016,Teleop Disabled,0,FALSE,0,NO ERROR,0.000000,0.000000,4000.000000,4000.000000,Speed,Speed,-0.110000,1.410000,1.290000,3.000000,103.000000,1,0,-0.006200,-0.006200,0,0.000000,0.000000,0.000000,-0.152756,0.294662,0.000000,-0.005000,0.002000,0.000000,FlatInitial
01:42:13.860 PM 02/14/2016,Teleop Disabled,0,FALSE,0,NO ERROR,0.000000,0.000000,4000.000000,4000.000000,Speed,Speed,-0.090000,1.410000,1.280000,3.000000,102.000000,1,0,-0.006200,-0.006200,0,0.000000,0.000000,0.000000,-0.152756,0.294662,0.000000,0.002000,-0.005000,0.003000,FlatInitial
01:42:13.960 PM 02/14/2016,Teleop Disabled,0,FALSE,0,NO ERROR,0.000000,0.000000,4000.000000,4000.000000,Speed,Speed,-0.110000,1.420000,1.260000,3.000000,103.000000,1,0,-0.006200,-0.006200,0,0.000000,0.000000,0.000000,-0.152756,0.294662,0.000000,0.000000,-0.004000,0.000000,FlatInitial
01:42:14.060 PM 02/14/2016,Teleop Disabled,0,FALSE,0,NO ERROR,0.000000,0.000000,4000.000000,4000.000000,Speed,Speed,-0.120000,1.400000,1.260000,3.000000,103.000000,1,0,-0.006200,-0.006200,0,0.000000,0.000000,0.000000,-0.152756,0.294662,0.000000,0.000000,0.000000,0.004000,FlatInitial
01:42:14.160 PM 02/14/2016,Teleop Disabled,0,FALSE,0,NO ERROR,0.000000,0.000000,4000.000000,4000.000000,Speed,Speed,-0.090000,1.410000,1.220000,3.000000,102.000000,1,0,-0.006200,-0.006200,0,0.000000,0.000000,0.000000,-0.152756,0.294662,0.000000,0.001000,0.003000,-0.004000,FlatInitial
01:42:14.259 PM 02/14/2016,Teleop Disabled,0,FALSE,0,NO ERROR,0.000000,0.000000,4000.000000,4000.000000,Speed,Speed,-0.090000,1.420000,1.240000,3.000000,102.000000,1,0,-0.006200,-0.006200,0,0.000000,0.000000,0.000000,-0.152756,0.294662,0.000000,0.000000,0.003000,0.004000,FlatInitial
01:42:14.360 PM 02/14/2016,Teleop Disabled,0,FALSE,0,NO ERROR,0.000000,0.000000,4000.000000,4000.000000,Speed,Speed,-0.100000,1.410000,1.220000,3.000000,102.000000,1,0,-0.006200,-0.006200,0,0.000000,0.000000,0.000000,-0.152756,0.294662,0.000000,-0.001000,-0.004000,0.004000,FlatInitial
01:42:14.460 PM 02/14/2016,Teleop Disabled,0,FALSE,0,NO ERROR,0.000000,0.000000,4000.000000,4000.000000,Speed,Speed,-0.100000,1.420000,1.220000,3.000000,103.000000,1,0,-0.006200,-0.006200,0,0.000000,0.000000,0.000000,-0.152756,0.294662,0.000000,0.000000,0.001000,-0.005000,FlatInitial
01:42:14.560 PM 02/14/2016,Teleop Disabled,0,FALSE,0,NO ERROR,0.000000,0.000000,4000.000000,4000.000000,Speed,Speed,-0.090000,1.420000,1.200000,3.000000,101.000000,1,0,-0.006200,-0.006200,0,0.000000,0.000000,0.000000,-0.152756,0.294662,0.000000,0.000000,-0.004000,0.000000,FlatInitial
01:42:14.660 PM 02/14/2016,Teleop Disabled,0,FALSE,0,NO ERROR,0.000000,0.000000,4000.000000,4000.000000,Speed,Speed,-0.090000,1.410000,1.190000,3.000000,101.000000,1,0,-0.006200,-0.006200,0,0.000000,0.000000,0.000000,-0.152756,0.294662,0.000000,-0.002000,-0.002000,0.005000,FlatInitial
01:42:14.760 PM 02/14/2016,Teleop Disabled,0,FALSE,0,NO ERROR,0.000000,0.000000,4000.000000,4000.000000,Speed,Speed,-0.090000,1.410000,1.180000,3.000000,101.000000,1,0,-0.006200,-0.006200,0,0.000000,0.000000,0.000000,-0.152756,0.294662,0.000000,0.000000,0.005000,0.000000,FlatInitial
01:42:14.860 PM 02/14/2016,Teleop Disabled,0,FALSE,0,NO ERROR,0.000000,0.000000,4000.000000,4000.000000,Speed,Speed,-0.080000,1.410000,1.180000,3.000000,101.000000,1,0,-0.006200,-0.006200,0,0.000000,0.000000,0.000000,-0.152756,0.294662,0.000000,-0.005000,0.000000,0.000000,FlatInitial
01:42:14.959 PM 02/14/2016,Teleop Disabled,0,FALSE,0,NO ERROR,0.000000,0.000000,4000.000000,4000.000000,Speed,Speed,-0.060000,1.400000,1.130000,3.000000,104.000000,1,0,-0.006200,-0.006200,0,0.000000,0.000000,0.000000,-0.152756,0.294662,0.000000,0.008000,0.001000,-0.004000,FlatInitial
01:42:15.060 PM 02/14/2016,Teleop Disabled,0,FALSE,0,NO ERROR,0.000000,0.000000,4000.000000,4000.000000,Speed,Speed,-0.070000,1.410000,1.110000,3.000000,104.000000,1,0,-0.006200,-0.006200,0,0.000000,0.000000,0.000000,-0.152756,0.294662,0.000000,0.000000,-0.008000,0.006000,FlatInitial
01:42:15.160 PM 02/14/2016,Teleop Disabled,0,FALSE,0,NO ERROR,0.000000,0.000000,4000.000000,4000.000000,Speed,Speed,-0.100000,1.410000,1.090000,3.000000,102.000000,1,0,-0.006200,-0.006200,0,0.000000,0.000000,0.000000,-0.152756,0.294662,0.000000,0.004000,0.007000,-0.015000,FlatInitial
01:42:15.260 PM 02/14/2016,Teleop Disabled,0,FALSE,0,NO ERROR,0.000000,0.000000,4000.000000,4000.000000,Speed,Speed,-0.120000,1.400000,1.130000,3.000000,101.000000,1,0,-0.006200,-0.006200,0,0.000000,0.000000,0.000000,-0.152756,0.294662,0.000000,0.000000,0.000000,0.012000,FlatInitial
01:42:15.360 PM 02/14/2016,Teleop Disabled,0,FALSE,0,NO ERROR,0.000000,0.000000,4000.000000,4000.000000,Speed,Speed,-0.110000,1.390000,1.110000,3.000000,105.000000,1,0,-0.006200,-0.006200,0,0.000000,0.000000,0.000000,-0.152756,0.294662,0.000000,-0.007000,-0.001000,-0.012000,FlatInitial
01:42:15.461 PM 02/14/2016,Teleop Disabled,0,FALSE,0,NO ERROR,0.000000,0.000000,4000.000000,4000.000000,Speed,Speed,-0.110000,1.390000,1.120000,3.000000,103.000000,1,0,-0.006200,-0.006200,0,0.000000,0.000000,0.000000,-0.152756,0.294662,0.000000,-0.003000,0.002000,0.009000,FlatInitial
01:42:15.561 PM 02/14/2016,Teleop Disabled,0,FALSE,0,NO ERROR,0.000000,0.000000,4000.000000,4000.000000,Speed,Speed,-0.090000,1.390000,1.150000,3.000000,101.000000,1,0,-0.006200,-0.006200,0,0.000000,0.000000,0.000000,-0.152756,0.294662,0.000000,0.001000,0.008000,-0.012000,FlatInitial
01:42:15.661 PM 02/14/2016,Teleop Disabled,0,FALSE,0,NO ERROR,0.000000,0.000000,4000.000000,4000.000000,Speed,Speed,-0.080000,1.360000,1.340000,3.000000,105.000000,1,0,-0.006200,-0.006200,0,0.000000,0.000000,0.000000,-0.152756,0.294662,0.000000,-0.003000,-0.022000,0.004000,FlatInitial
01:42:15.761 PM 02/14/2016,Teleop Disabled,0,FALSE,0,NO ERROR,0.000000,0.000000,4000.000000,4000.000000,Speed,Speed,-0.100000,1.380000,1.350000,3.000000,105.000000,1,0,-0.006200,-0.006200,0,0.000000,0.000000,0.000000,-0.152756,0.294418,0.000000,0.005000,-0.009000,0.000000,FlatInitial
01:42:15.862 PM 02/14/2016,Teleop Disabled,0,FALSE,0,NO ERROR,0.000000,0.000000,4000.000000,4000.000000,Speed,Speed,-0.080000,1.340000,1.440000,3.000000,104.000000,1,0,-0.006200,-0.006200,0,0.000000,0.000000,0.000000,-0.152756,0.294418,0.000000,0.000000,0.002000,0.011000,FlatInitial
01:42:15.963 PM 02/14/2016,Teleop Disabled,0,FALSE,0,NO ERROR,0.000000,0.000000,4000.000000,4000.000000,Speed,Speed,-0.050000,1.360000,1.520000,3.000000,101.000000,1,0,-0.006200,-0.006200,0,0.000000,0.014511,0.000000,-0.152756,0.294678,0.000000,0.003000,0.021000,-0.011000,FlatInitial
01:42:16.064 PM 02/14/2016,Teleop Disabled,0,FALSE,0,NO ERROR,0.000000,0.000000,4000.000000,4000.000000,Speed,Speed,-0.070000,1.370000,1.520000,3.000000,102.000000,1,0,-0.006200,-0.006200,0,0.000000,0.000000,0.000000,-0.152756,0.295090,0.000000,-0.005000,0.000000,-0.015000,FlatInitial
01:42:16.165 PM 02/14/2016,Teleop Disabled,0,FALSE,0,NO ERROR,0.000000,0.000000,4000.000000,4000.000000,Speed,Speed,-0.120000,1.370000,1.530000,3.000000,102.000000,1,0,-0.006200,-0.006200,0,0.000000,0.000000,0.000000,-0.152756,0.295090,0.000000,-0.004000,-0.009000,0.001000,FlatInitial
01:42:16.264 PM 02/14/2016,Teleop Disabled,0,FALSE,0,NO ERROR,0.000000,0.000000,4000.000000,4000.000000,Speed,Speed,-0.080000,1.350000,1.540000,3.000000,101.000000,1,0,-0.006200,-0.006200,0,0.000000,0.000000,0.000000,-0.152756,0.295090,0.000000,0.006000,0.002000,-0.001000,FlatInitial
01:42:16.365 PM 02/14/2016,Teleop Disabled,0,FALSE,0,NO ERROR,0.000000,0.000000,4000.000000,4000.000000,Speed,Speed,-0.080000,1.370000,1.560000,3.000000,102.000000,1,0,-0.006200,-0.006200,0,0.000000,0.000000,0.000000,-0.152756,0.295090,0.000000,-0.006000,0.000000,0.003000,FlatInitial
01:42:16.466 PM 02/14/2016,Teleop Disabled,0,FALSE,0,NO ERROR,0.000000,0.000000,4000.000000,4000.000000,Speed,Speed,-0.080000,1.350000,1.540000,3.000000,101.000000,1,0,-0.006200,-0.006200,0,0.000000,0.000000,0.000000,-0.152756,0.295090,0.000000,0.005000,-0.001000,0.000000,FlatInitial
01:42:16.567 PM 02/14/2016,Teleop Disabled,0,FALSE,0,NO ERROR,0.000000,0.000000,4000.000000,4000.000000,Speed,Speed,-0.070000,1.340000,1.570000,3.000000,102.000000,1,0,-0.006200,-0.006200,0,0.000000,0.000000,0.000000,-0.152756,0.295090,0.000000,0.000000,-0.001000,0.000000,FlatInitial
01:42:16.668 PM 02/14/2016,Teleop Disabled,0,FALSE,0,NO ERROR,0.000000,0.000000,4000.000000,4000.000000,Speed,Speed,-0.080000,1.360000,1.560000,3.000000,103.000000,1,0,-0.006200,-0.006200,0,0.000000,0.000000,0.000000,-0.152756,0.295090,0.000000,0.000000,0.003000,-0.002000,FlatInitial
01:42:16.769 PM 02/14/2016,Teleop Disabled,0,FALSE,0,NO ERROR,0.000000,0.000000,4000.000000,4000.000000,Speed,Speed,-0.080000,1.360000,1.560000,3.000000,105.000000,1,0,-0.006200,-0.006200,0,0.000000,0.000000,0.000000,-0.152756,0.295090,0.000000,-0.009000,0.001000,-0.004000,FlatInitial
01:42:16.870 PM 02/14/2016,Teleop Disabled,0,FALSE,0,NO ERROR,0.000000,0.000000,4000.000000,4000.000000,Speed,Speed,-0.080000,1.380000,1.550000,3.000000,101.000000,1,0,-0.006200,-0.006200,0,0.000000,0.000000,0.000000,-0.152756,0.295090,0.000000,0.003000,-0.002000,0.001000,FlatInitial
01:42:16.970 PM 02/14/2016,Teleop Disabled,0,FALSE,0,NO ERROR,0.000000,0.000000,4000.000000,4000.000000,Speed,Speed,-0.080000,1.370000,1.560000,3.000000,101.000000,1,0,-0.006200,-0.006200,0,0.000000,0.000000,0.000000,-0.152756,0.295090,0.000000,-0.003000,0.003000,0.001000,FlatInitial
01:42:17.070 PM 02/14/2016,Teleop Disabled,0,FALSE,0,NO ERROR,0.000000,0.000000,4000.000000,4000.000000,Speed,Speed,-0.060000,1.370000,1.560000,3.000000,102.000000,1,0,-0.006200,-0.006200,0,0.000000,0.000000,0.000000,-0.152756,0.295090,0.000000,0.006000,-0.003000,-0.007000,FlatInitial
01:42:17.170 PM 02/14/2016,Teleop Disabled,0,FALSE,0,NO ERROR,0.000000,0.000000,4000.000000,4000.000000,Speed,Speed,-0.080000,1.360000,1.540000,3.000000,103.000000,1,0,-0.006200,-0.006200,0,0.000000,0.000000,0.000000,-0.152756,0.295090,0.000000,-0.007000,-0.002000,0.000000,FlatInitial
01:42:17.270 PM 02/14/2016,Teleop Disabled,0,FALSE,0,NO ERROR,0.000000,0.000000,4000.000000,4000.000000,Speed,Speed,-0.070000,1.360000,1.570000,3.000000,101.000000,1,0,-0.006200,-0.006200,0,0.000000,0.000000,0.000000,-0.152756,0.295090,0.000000,0.002000,0.002000,0.002000,FlatInitial
01:42:17.372 PM 02/14/2016,Teleop Disabled,0,FALSE,0,NO ERROR,0.000000,0.000000,4000.000000,4000.000000,Speed,Speed,-0.080000,1.360000,1.550000,3.000000,101.000000,1,0,-0.006200,-0.006200,0,0.000000,0.000000,0.000000,-0.152756,0.295090,0.000000,-0.002000,-0.004000,0.003000,FlatInitial
01:42:17.472 PM 02/14/2016,Teleop Disabled,0,FALSE,0,NO ERROR,0.000000,0.000000,4000.000000,4000.000000,Speed,Speed,-0.080000,1.370000,1.520000,3.000000,103.000000,1,0,-0.006200,-0.006200,0,0.000000,0.000000,0.000000,-0.152756,0.295090,0.000000,0.000000,-0.005000,-0.002000,FlatInitial
01:42:17.572 PM 02/14/2016,Teleop Disabled,0,FALSE,0,NO ERROR,0.000000,0.000000,4000.000000,4000.000000,Speed,Speed,-0.080000,1.370000,1.490000,3.000000,103.000000,1,0,-0.006200,-0.006200,0,0.000000,0.000000,0.000000,-0.152756,0.295090,0.000000,0.006000,0.007000,0.000000,FlatInitial
01:42:17.674 PM 02/14/2016,Teleop Disabled,0,FALSE,0,NO ERROR,0.000000,0.000000,4000.000000,4000.000000,Speed,Speed,-0.070000,1.380000,1.480000,3.000000,101.000000,1,0,-0.006200,-0.006200,0,0.000000,0.000000,0.000000,-0.152756,0.295090,0.000000,-0.001000,-0.002000,0.001000,FlatInitial
01:42:17.774 PM 02/14/2016,Teleop Disabled,0,FALSE,0,NO ERROR,0.000000,0.000000,4000.000000,4000.000000,Speed,Speed,-0.090000,1.390000,1.450000,3.000000,103.000000,1,0,-0.006200,-0.006200,0,0.000000,0.000000,0.000000,-0.152756,0.295090,0.000000,0.000000,-0.007000,-0.003000,FlatInitial
01:42:17.875 PM 02/14/2016,Teleop Disabled,0,FALSE,0,NO ERROR,0.000000,0.000000,4000.000000,4000.000000,Speed,Speed,-0.070000,1.370000,1.430000,3.000000,102.000000,1,0,-0.006200,-0.006200,0,0.000000,0.000000,0.000000,-0.152756,0.295090,0.000000,0.001000,0.016000,-0.007000,FlatInitial
01:42:17.976 PM 02/14/2016,Teleop Disabled,0,FALSE,0,NO ERROR,0.000000,0.000000,4000.000000,4000.000000,Speed,Speed,-0.050000,1.390000,1.460000,3.000000,102.000000,1,0,-0.006200,-0.006200,0,0.000000,0.000000,0.000000,-0.152756,0.295090,0.000000,0.001000,-0.002000,0.005000,FlatInitial
01:42:18.076 PM 02/14/2016,Teleop Disabled,0,FALSE,0,NO ERROR,0.000000,0.000000,4000.000000,4000.000000,Speed,Speed,-0.060000,1.390000,1.440000,3.000000,101.000000,1,0,-0.006200,-0.006200,0,0.000000,0.000000,0.000000,-0.152756,0.295090,0.000000,0.000000,-0.003000,0.000000,FlatInitial
01:42:18.177 PM 02/14/2016,Teleop Disabled,0,FALSE,0,NO ERROR,0.000000,0.000000,4000.000000,4000.000000,Speed,Speed,-0.070000,1.390000,1.430000,3.000000,100.000000,1,0,-0.006200,-0.006200,0,0.000000,0.000000,0.000000,-0.152756,0.295090,0.000000,-0.001000,0.004000,-0.001000,FlatInitial
01:42:18.278 PM 02/14/2016,Teleop Disabled,0,FALSE,0,NO ERROR,0.000000,0.000000,4000.000000,4000.000000,Speed,Speed,-0.070000,1.390000,1.420000,3.000000,102.000000,1,0,-0.006200,-0.006200,0,0.000000,0.000000,0.000000,-0.152756,0.295090,0.000000,0.000000,0.000000,0.003000,FlatInitial
01:42:18.378 PM 02/14/2016,Teleop Disabled,0,FALSE,0,NO ERROR,0.000000,0.000000,4000.000000,4000.000000,Speed,Speed,-0.080000,1.390000,1.430000,3.000000,102.000000,1,0,-0.006200,-0.006200,0,0.000000,0.000000,0.000000,-0.152756,0.295090,0.000000,0.000000,-0.001000,-0.001000,FlatInitial
01:42:18.478 PM 02/14/2016,Teleop Disabled,0,FALSE,0,NO ERROR,0.000000,0.000000,4000.000000,4000.000000,Speed,Speed,-0.070000,1.390000,1.410000,3.000000,102.000000,1,0,-0.006200,-0.006200,0,0.000000,0.000000,0.000000,-0.152756,0.295090,0.000000,0.000000,0.000000,-0.005000,FlatInitial
01:42:18.578 PM 02/14/2016,Teleop Disabled,0,FALSE,0,NO ERROR,0.000000,0.000000,4000.000000,4000.000000,Speed,Speed,-0.060000,1.390000,1.400000,3.000000,101.000000,1,0,-0.006200,-0.006200,0,0.000000,0.000000,0.000000,-0.152756,0.295090,0.000000,0.001000,0.001000,-0.001000,FlatInitial
01:42:18.678 PM 02/14/2016,Teleop Disabled,0,FALSE,0,NO ERROR,0.000000,0.000000,4000.000000,4000.000000,Speed,Speed,-0.060000,1.390000,1.420000,3.000000,102.000000,1,0,-0.006200,-0.006200,0,0.000000,0.000000,0.000000,-0.152756,0.295090,0.000000,0.000000,0.000000,0.000000,FlatInitial
01:42:18.778 PM 02/14/2016,Teleop Disabled,0,FALSE,0,NO ERROR,0.000000,0.000000,4000.000000,4000.000000,Speed,Speed,-0.070000,1.380000,1.420000,3.000000,102.000000,1,0,-0.006200,-0.006200,0,0.000000,0.000000,0.000000,-0.152756,0.295090,0.000000,-0.004000,0.003000,-0.004000,FlatInitial
01:42:18.879 PM 02/14/2016,Teleop Disabled,0,FALSE,0,NO ERROR,0.000000,0.000000,4000.000000,4000.000000,Speed,Speed,-0.070000,1.380000,1.440000,3.000000,104.000000,1,0,-0.006200,-0.006200,0,0.000000,0.000000,0.000000,-0.152756,0.295090,0.000000,-0.008000,0.006000,-0.002000,FlatInitial
01:42:18.979 PM 02/14/2016,Teleop Disabled,0,FALSE,0,NO ERROR,0.000000,0.000000,4000.000000,4000.000000,Speed,Speed,-0.080000,1.380000,1.450000,3.000000,104.000000,1,0,-0.006200,-0.006200,0,0.000000,0.000000,0.000000,-0.152756,0.295090,0.000000,0.001000,0.000000,-0.005000,FlatInitial
01:42:19.079 PM 02/14/2016,Teleop Disabled,0,FALSE,0,NO ERROR,0.000000,0.000000,4000.000000,4000.000000,Speed,Speed,-0.070000,1.390000,1.450000,3.000000,102.000000,1,0,-0.006200,-0.006200,0,0.000000,0.000000,0.000000,-0.152756,0.295090,0.000000,0.000000,0.002000,0.003000,FlatInitial
01:42:19.179 PM 02/14/2016,Teleop Disabled,0,FALSE,0,NO ERROR,0.000000,0.000000,4000.000000,4000.000000,Speed,Speed,-0.080000,1.390000,1.460000,3.000000,101.000000,1,0,-0.006200,-0.006200,0,0.000000,0.000000,0.000000,-0.152756,0.295090,0.000000,0.003000,-0.001000,-0.001000,FlatInitial
01:42:19.280 PM 02/14/2016,Teleop Disabled,0,FALSE,0,NO ERROR,0.000000,0.000000,4000.000000,4000.000000,Speed,Speed,-0.080000,1.390000,1.450000,3.000000,101.000000,1,0,-0.006200,-0.006200,0,0.000000,0.000000,0.000000,-0.152756,0.295090,0.000000,0.000000,0.000000,-0.003000,FlatInitial
01:42:19.380 PM 02/14/2016,Teleop Disabled,0,FALSE,0,NO ERROR,0.000000,0.000000,4000.000000,4000.000000,Speed,Speed,-0.080000,1.390000,1.450000,3.000000,101.000000,1,0,-0.006200,-0.006200,0,0.000000,0.000000,0.000000,-0.152756,0.295090,0.000000,0.000000,-0.002000,0.000000,FlatInitial
01:42:19.481 PM 02/14/2016,Teleop Disabled,0,FALSE,0,NO ERROR,0.000000,0.000000,4000.000000,4000.000000,Speed,Speed,-0.080000,1.390000,1.460000,3.000000,103.000000,1,0,-0.006200,-0.006200,0,0.000000,0.000000,0.000000,-0.152756,0.295090,0.000000,0.000000,0.001000,0.003000,FlatInitial
01:42:19.581 PM 02/14/2016,Teleop Disabled,0,FALSE,0,NO ERROR,0.000000,0.000000,4000.000000,4000.000000,Speed,Speed,-0.090000,1.390000,1.470000,3.000000,101.000000,1,0,-0.006200,-0.006200,0,0.000000,0.000000,0.000000,-0.152756,0.295090,0.000000,0.000000,0.001000,0.003000,FlatInitial
01:42:19.681 PM 02/14/2016,Teleop Disabled,0,FALSE,0,NO ERROR,0.000000,0.000000,4000.000000,4000.000000,Speed,Speed,-0.100000,1.380000,1.450000,3.000000,103.000000,1,0,-0.006200,-0.006200,0,0.000000,0.000000,0.000000,-0.152756,0.295090,0.000000,0.000000,0.000000,0.000000,FlatInitial
01:42:19.781 PM 02/14/2016,Teleop Disabled,0,FALSE,0,NO ERROR,0.000000,0.000000,4000.000000,4000.000000,Speed,Speed,-0.100000,1.380000,1.460000,3.000000,106.000000,1,0,-0.006200,-0.006200,0,0.000000,0.000000,0.000000,-0.152756,0.295090,0.000000,0.000000,0.000000,0.000000,FlatInitial
01:42:19.881 PM 02/14/2016,Teleop Disabled,0,FALSE,0,NO ERROR,0.000000,0.000000,4000.000000,4000.000000,Speed,Speed,-0.080000,1.380000,1.450000,3.000000,104.000000,1,0,-0.006200,-0.006200,0,0.000000,0.000000,0.000000,-0.152756,0.295090,0.000000,0.002000,0.002000,0.001000,FlatInitial
01:42:19.981 PM 02/14/2016,Teleop Disabled,0,FALSE,0,NO ERROR,0.000000,0.000000,4000.000000,4000.000000,Speed,Speed,-0.100000,1.390000,1.450000,3.000000,103.000000,1,0,-0.006200,-0.006200,0,0.000000,0.000000,0.000000,-0.152756,0.295090,0.000000,0.002000,0.002000,0.002000,FlatInitial
01:42:20.080 PM 02/14/2016,Teleop Disabled,0,FALSE,0,NO ERROR,0.000000,0.000000,4000.000000,4000.000000,Speed,Speed,-0.100000,1.390000,1.450000,3.000000,101.000000,1,0,-0.006200,-0.006200,0,0.000000,0.000000,0.000000,-0.152756,0.295090,0.000000,0.005000,-0.002000,-0.001000,FlatInitial
01:42:20.181 PM 02/14/2016,Teleop Disabled,0,FALSE,0,NO ERROR,0.000000,0.000000,4000.000000,4000.000000,Speed,Speed,-0.100000,1.380000,1.450000,3.000000,104.000000,1,0,-0.006200,-0.006200,0,0.000000,0.000000,0.000000,-0.152756,0.295090,0.000000,0.005000,-0.002000,-0.001000,FlatInitial
01:42:20.281 PM 02/14/2016,Teleop Disabled,0,FALSE,0,NO ERROR,0.000000,0.000000,4000.000000,4000.000000,Speed,Speed,-0.100000,1.390000,1.450000,3.000000,100.000000,1,0,-0.006200,-0.006200,0,0.000000,0.000000,0.000000,-0.152756,0.295090,0.000000,0.003000,-0.004000,0.005000,FlatInitial
01:42:20.381 PM 02/14/2016,Teleop Disabled,0,FALSE,0,NO ERROR,0.000000,0.000000,4000.000000,4000.000000,Speed,Speed,-0.100000,1.390000,1.450000,3.000000,104.000000,1,0,-0.006200,-0.006200,0,0.000000,0.000000,0.000000,-0.152756,0.295090,0.000000,0.002000,0.002000,0.004000,FlatInitial
01:42:20.482 PM 02/14/2016,Teleop Disabled,0,FALSE,0,NO ERROR,0.000000,0.000000,4000.000000,4000.000000,Speed,Speed,-0.110000,1.400000,1.440000,3.000000,102.000000,1,0,-0.006200,-0.006200,0,0.000000,0.000000,0.000000,-0.152756,0.295090,0.000000,0.000000,0.000000,0.005000,FlatInitial
01:42:20.583 PM 02/14/2016,Teleop Disabled,0,FALSE,0,NO ERROR,0.000000,0.000000,4000.000000,4000.000000,Speed,Speed,-0.110000,1.380000,1.420000,3.000000,102.000000,1,0,-0.006200,-0.006200,0,0.000000,0.000000,0.000000,-0.152756,0.295090,0.000000,-0.006000,0.005000,-0.011000,FlatInitial
01:42:20.682 PM 02/14/2016,Teleop Disabled,0,FALSE,0,NO ERROR,0.000000,0.000000,4000.000000,4000.000000,Speed,Speed,-0.110000,1.410000,1.430000,3.000000,102.000000,1,0,-0.006200,-0.006200,0,0.000000,0.000000,0.000000,-0.152756,0.295090,0.000000,0.000000,0.000000,-0.016000,FlatInitial
01:42:20.784 PM 02/14/2016,Teleop Disabled,0,FALSE,0,NO ERROR,0.000000,0.000000,4000.000000,4000.000000,Speed,Speed,-0.110000,1.380000,1.450000,3.000000,103.000000,1,0,-0.006200,-0.006200,0,0.000000,0.000000,0.000000,-0.152756,0.295090,0.000000,0.006000,0.000000,0.008000,FlatInitial
01:42:20.884 PM 02/14/2016,Teleop Disabled,0,FALSE,0,NO ERROR,0.000000,0.000000,4000.000000,4000.000000,Speed,Speed,-0.110000,1.390000,1.460000,3.000000,102.000000,1,0,-0.006200,-0.006200,0,0.000000,0.000000,0.000000,-0.152756,0.295090,0.000000,0.001000,-0.001000,0.008000,FlatInitial
01:42:20.984 PM 02/14/2016,Teleop Disabled,0,FALSE,0,NO ERROR,0.000000,0.000000,4000.000000,4000.000000,Speed,Speed,-0.110000,1.390000,1.440000,3.000000,103.000000,1,0,-0.006200,-0.006200,0,0.000000,0.000000,0.000000,-0.152756,0.295090,0.000000,-0.002000,0.003000,0.008000,FlatInitial
01:42:21.084 PM 02/14/2016,Teleop Disabled,0,FALSE,0,NO ERROR,0.000000,0.000000,4000.000000,4000.000000,Speed,Speed,-0.090000,1.380000,1.430000,3.000000,101.000000,1,0,-0.006200,-0.006200,0,0.000000,0.000000,0.000000,-0.152756,0.295090,0.000000,0.003000,0.000000,0.001000,FlatInitial
01:42:21.184 PM 02/14/2016,Teleop Disabled,0,FALSE,0,NO ERROR,0.000000,0.000000,4000.000000,4000.000000,Speed,Speed,-0.100000,1.390000,1.440000,3.000000,102.000000,1,0,-0.006200,-0.006200,0,0.000000,0.000000,0.000000,-0.152756,0.295090,0.000000,0.002000,-0.001000,-0.005000,FlatInitial
01:42:21.284 PM 02/14/2016,Teleop Disabled,0,FALSE,0,NO ERROR,0.000000,0.000000,4000.000000,4000.000000,Speed,Speed,-0.110000,1.370000,1.450000,3.000000,101.000000,1,0,-0.006200,-0.006200,0,0.000000,0.000000,0.000000,-0.152756,0.295090,0.000000,0.004000,0.003000,-0.011000,FlatInitial
01:42:21.385 PM 02/14/2016,Teleop Disabled,0,FALSE,0,NO ERROR,0.000000,0.000000,4000.000000,4000.000000,Speed,Speed,-0.110000,1.410000,1.510000,3.000000,102.000000,1,0,-0.006200,-0.006200,0,0.000000,0.000000,0.000000,-0.152756,0.295090,0.000000,0.004000,0.004000,-0.006000,FlatInitial
01:42:21.484 PM 02/14/2016,Teleop Disabled,0,FALSE,0,NO ERROR,0.000000,0.000000,4000.000000,4000.000000,Speed,Speed,-0.130000,1.350000,1.730000,3.000000,102.000000,1,0,-0.006200,-0.006200,0,0.000000,0.000000,0.000000,-0.152863,0.295090,0.000000,-0.009000,0.014000,0.007000,FlatInitial
01:42:21.585 PM 02/14/2016,Teleop Disabled,0,FALSE,0,NO ERROR,0.000000,0.000000,4000.000000,4000.000000,Speed,Speed,-0.040000,1.360000,1.660000,3.000000,103.000000,1,0,-0.006200,-0.006200,0,0.000000,0.018875,0.000000,-0.152863,0.295563,0.000000,0.004000,0.011000,0.010000,FlatInitial
01:42:21.687 PM 02/14/2016,Teleop Disabled,0,FALSE,0,NO ERROR,0.000000,0.000000,4000.000000,4000.000000,Speed,Speed,-0.100000,1.400000,1.600000,3.000000,101.000000,1,0,-0.006200,-0.006200,0,0.000000,0.000000,0.000000,-0.152863,0.295761,0.000000,-0.004000,-0.014000,0.009000,FlatInitial
01:42:21.787 PM 02/14/2016,Teleop Disabled,0,FALSE,0,NO ERROR,0.000000,0.000000,4000.000000,4000.000000,Speed,Speed,-0.160000,1.390000,1.520000,3.000000,101.000000,1,0,-0.006200,-0.006200,0,0.000000,0.000000,0.000000,-0.152863,0.295502,0.000000,-0.008000,-0.010000,-0.016000,FlatInitial
01:42:21.888 PM 02/14/2016,Teleop Disabled,0,FALSE,0,NO ERROR,0.000000,0.000000,4000.000000,4000.000000,Speed,Speed,-0.110000,1.360000,1.510000,3.000000,102.000000,1,0,-0.006200,-0.006200,0,0.000000,0.003433,0.000000,-0.152863,0.295532,0.000000,-0.005000,0.032000,0.002000,FlatInitial
01:42:21.988 PM 02/14/2016,Teleop Disabled,0,FALSE,0,NO ERROR,0.000000,0.000000,4000.000000,4000.000000,Speed,Speed,-0.040000,1.360000,1.640000,3.000000,102.000000,1,0,-0.006200,-0.006200,0,0.000000,0.015228,0.000000,-0.152863,0.296310,0.000000,-0.004000,-0.013000,0.005000,FlatInitial
01:42:22.089 PM 02/14/2016,Teleop Disabled,0,FALSE,0,NO ERROR,0.000000,0.000000,4000.000000,4000.000000,Speed,Speed,-0.060000,1.330000,1.680000,3.000000,102.000000,1,0,-0.006200,-0.006200,0,0.000000,0.025070,0.000000,-0.152863,0.297150,0.000000,0.011000,0.019000,0.010000,FlatInitial
01:42:22.188 PM 02/14/2016,Teleop Disabled,0,FALSE,0,NO ERROR,0.000000,0.000000,4000.000000,4000.000000,Speed,Speed,-0.160000,1.430000,1.490000,3.000000,102.000000,1,0,-0.006200,-0.006200,0,0.000000,0.011078,0.000000,-0.152863,0.297974,0.000000,0.013000,0.029000,-0.045000,FlatInitial
01:42:22.288 PM 02/14/2016,Teleop Disabled,0,FALSE,0,NO ERROR,0.000000,0.000000,4000.000000,4000.000000,Speed,Speed,-0.290000,1.360000,1.620000,3.000000,102.000000,1,0,-0.006200,-0.006200,0,0.000000,0.000000,0.000000,-0.152863,0.298203,0.000000,-0.003000,-0.015000,0.002000,FlatInitial
01:42:22.389 PM 02/14/2016,Teleop Disabled,0,FALSE,0,NO ERROR,0.000000,0.000000,4000.000000,4000.000000,Speed,Speed,-0.350000,1.380000,1.390000,3.000000,103.000000,1,0,-0.006200,-0.006200,0,0.003601,0.000000,0.000000,-0.152832,0.297974,0.000000,0.021000,0.005000,-0.004000,FlatInitial
01:42:22.490 PM 02/14/2016,Teleop Disabled,0,FALSE,0,NO ERROR,0.000000,0.000000,4000.000000,4000.000000,Speed,Speed,-0.360000,1.340000,1.450000,3.000000,103.000000,1,0,-0.006200,-0.006200,0,0.000000,0.000000,0.000000,-0.152710,0.297974,0.000000,-0.003000,-0.006000,0.003000,FlatInitial
01:42:22.591 PM 02/14/2016,Teleop Disabled,0,FALSE,0,NO ERROR,0.000000,0.000000,4000.000000,4000.000000,Speed,Speed,-0.360000,1.350000,1.490000,3.000000,101.000000,1,0,-0.006200,-0.006200,0,0.000000,0.007980,0.000000,-0.152710,0.298080,0.000000,-0.014000,0.033000,-0.011000,FlatInitial
01:42:22.692 PM 02/14/2016,Teleop Disabled,0,FALSE,0,NO ERROR,0.000000,0.000000,4000.000000,4000.000000,Speed,Speed,-0.270000,1.370000,1.630000,3.000000,102.000000,1,0,-0.006200,-0.006200,0,0.007584,0.001770,0.000000,-0.152527,0.298584,0.000000,-0.011000,0.014000,0.000000,FlatInitial
01:42:22.794 PM 02/14/2016,Teleop Disabled,0,FALSE,0,NO ERROR,0.000000,0.000000,4000.000000,4000.000000,Speed,Speed,-0.340000,1.370000,1.630000,3.000000,105.000000,1,0,-0.006200,-0.006200,0,0.000000,0.000000,0.000000,-0.152527,0.298721,0.000000,0.004000,0.000000,-0.023000,FlatInitial
01:42:22.894 PM 02/14/2016,Teleop Disabled,0,FALSE,0,NO ERROR,0.000000,0.000000,4000.000000,4000.000000,Speed,Speed,-0.440000,1.380000,1.660000,3.000000,101.000000,1,0,-0.006200,-0.006200,0,0.000000,0.007141,0.000000,-0.152527,0.298813,0.000000,-0.009000,0.031000,0.011000,FlatInitial
01:42:22.995 PM 02/14/2016,Teleop Disabled,0,FALSE,0,NO ERROR,0.000000,0.000000,4000.000000,4000.000000,Speed,Speed,-0.500000,1.380000,1.640000,3.000000,101.000000,1,0,-0.006200,-0.006200,0,0.000000,0.000000,0.000000,-0.152527,0.298904,0.000000,0.000000,-0.001000,0.015000,FlatInitial
01:42:23.095 PM 02/14/2016,Teleop Disabled,0,FALSE,0,NO ERROR,0.000000,0.000000,4000.000000,4000.000000,Speed,Speed,-0.480000,1.370000,1.660000,3.000000,101.000000,1,0,-0.006200,-0.006200,0,0.000000,0.000000,0.000000,-0.152527,0.298904,0.000000,-0.010000,-0.004000,0.005000,FlatInitial
01:42:23.196 PM 02/14/2016,Teleop Disabled,0,FALSE,0,NO ERROR,0.000000,0.000000,4000.000000,4000.000000,Speed,Speed,-0.470000,1.380000,1.650000,3.000000,102.000000,1,0,-0.006200,-0.006200,0,0.000000,0.000000,0.000000,-0.152527,0.298904,0.000000,0.004000,0.000000,0.002000,FlatInitial
01:42:23.299 PM 02/14/2016,Teleop Disabled,0,FALSE,0,NO ERROR,0.000000,0.000000,4000.000000,4000.000000,Speed,Speed,-0.500000,1.380000,1.740000,3.000000,102.000000,1,0,-0.006200,-0.006200,0,0.000000,0.000000,0.000000,-0.152527,0.298904,0.000000,-0.003000,-0.005000,-0.009000,FlatInitial
01:42:23.398 PM 02/14/2016,Teleop Disabled,0,FALSE,0,NO ERROR,0.000000,0.000000,4000.000000,4000.000000,Speed,Speed,-0.510000,1.350000,1.920000,3.000000,103.000000,1,0,-0.006200,-0.006200,0,0.000000,0.000000,0.000000,-0.152527,0.298904,0.000000,-0.003000,0.003000,0.010000,FlatInitial
01:42:23.499 PM 02/14/2016,Teleop Disabled,0,FALSE,0,NO ERROR,0.000000,0.000000,4000.000000,4000.000000,Speed,Speed,-0.410000,1.340000,1.880000,3.000000,103.000000,1,0,-0.006200,-0.006200,0,0.000000,0.000000,0.000000,-0.152527,0.298904,0.000000,0.003000,0.019000,0.004000,FlatInitial
01:42:23.598 PM 02/14/2016,Teleop Disabled,0,FALSE,0,NO ERROR,0.000000,0.000000,4000.000000,4000.000000,Speed,Speed,-0.420000,1.390000,1.710000,3.000000,103.000000,1,0,-0.006200,-0.006200,0,0.000000,0.000000,0.000000,-0.152527,0.298904,0.000000,0.009000,-0.001000,0.001000,FlatInitial
01:42:23.699 PM 02/14/2016,Teleop Disabled,0,FALSE,0,NO ERROR,0.000000,0.000000,4000.000000,4000.000000,Speed,Speed,-0.590000,1.390000,1.660000,3.000000,102.000000,1,0,-0.006200,-0.006200,0,0.000000,0.000000,0.000000,-0.152527,0.298904,0.000000,-0.003000,-0.007000,0.018000,FlatInitial
01:42:23.799 PM 02/14/2016,Teleop Disabled,0,FALSE,0,NO ERROR,0.000000,0.000000,4000.000000,4000.000000,Speed,Speed,-0.570000,1.390000,1.610000,3.000000,102.000000,1,0,-0.006200,-0.006200,0,0.000000,0.000000,0.000000,-0.152527,0.298904,0.000000,0.005000,-0.002000,-0.009000,FlatInitial
01:42:23.899 PM 02/14/2016,Teleop Disabled,0,FALSE,0,NO ERROR,0.000000,0.000000,4000.000000,4000.000000,Speed,Speed,-0.540000,1.400000,1.620000,3.000000,102.000000,1,0,-0.006200,-0.006200,0,0.000000,0.000000,0.000000,-0.152527,0.298904,0.000000,-0.014000,0.013000,0.004000,FlatInitial
01:42:23.999 PM 02/14/2016,Teleop Disabled,0,FALSE,0,NO ERROR,0.000000,0.000000,4000.000000,4000.000000,Speed,Speed,-0.490000,1.380000,1.640000,3.000000,102.000000,1,0,-0.006200,-0.006200,0,0.000000,0.000000,0.000000,-0.152527,0.298904,0.000000,0.007000,-0.001000,0.007000,FlatInitial
01:42:24.099 PM 02/14/2016,Teleop Disabled,0,FALSE,0,NO ERROR,0.000000,0.000000,4000.000000,4000.000000,Speed,Speed,-0.510000,1.420000,1.630000,3.000000,102.000000,1,0,-0.006200,-0.006200,0,0.000000,0.000000,0.000000,-0.152527,0.298904,0.000000,-0.003000,0.002000,0.001000,FlatInitial
01:42:24.199 PM 02/14/2016,Teleop Disabled,0,FALSE,0,NO ERROR,0.000000,0.000000,4000.000000,4000.000000,Speed,Speed,-0.590000,1.400000,1.670000,3.000000,103.000000,1,0,-0.006200,-0.006200,0,0.000000,0.000000,0.000000,-0.152527,0.298904,0.000000,0.004000,-0.004000,0.018000,FlatInitial
01:42:24.299 PM 02/14/2016,Teleop Disabled,0,FALSE,0,NO ERROR,0.000000,0.000000,4000.000000,4000.000000,Speed,Speed,-0.570000,1.380000,1.760000,3.000000,101.000000,1,0,-0.006200,-0.006200,0,0.000000,0.000000,0.000000,-0.152527,0.298904,0.000000,-0.009000,-0.008000,0.013000,FlatInitial
01:42:24.400 PM 02/14/2016,Teleop Disabled,0,FALSE,0,NO ERROR,0.000000,0.000000,4000.000000,4000.000000,Speed,Speed,-0.560000,1.400000,1.720000,3.000000,103.000000,1,0,-0.006200,-0.006200,0,0.003281,0.019806,0.000000,-0.152496,0.299454,0.000000,0.012000,-0.026000,0.003000,FlatInitial
01:42:24.500 PM 02/14/2016,Teleop Disabled,0,FALSE,0,NO ERROR,0.000000,0.000000,4000.000000,4000.000000,Speed,Speed,-0.610000,1.350000,1.690000,3.000000,104.000000,1,0,-0.006200,-0.006200,0,-0.009048,0.004013,0.000000,-0.152435,0.299911,0.000000,0.013000,0.002000,0.014000,FlatInitial
01:42:24.600 PM 02/14/2016,Teleop Disabled,0,FALSE,0,NO ERROR,0.000000,0.000000,4000.000000,4000.000000,Speed,Speed,-0.560000,1.340000,1.800000,3.000000,101.000000,1,0,-0.006200,-0.006200,0,0.000000,0.000000,0.000000,-0.152328,0.299911,0.000000,-0.011000,0.002000,0.003000,FlatInitial
01:42:24.700 PM 02/14/2016,Teleop Disabled,0,FALSE,0,NO ERROR,0.000000,0.000000,4000.000000,4000.000000,Speed,Speed,-0.560000,1.310000,1.830000,3.000000,101.000000,1,0,-0.006200,-0.006200,0,0.000000,0.000000,0.000000,-0.152328,0.299911,0.000000,0.000000,0.008000,0.009000,FlatInitial
01:42:24.800 PM 02/14/2016,Teleop Disabled,0,FALSE,0,NO ERROR,0.000000,0.000000,4000.000000,4000.000000,Speed,Speed,-0.550000,1.310000,1.790000,3.000000,103.000000,1,0,-0.006200,-0.006200,0,0.000000,0.000000,0.000000,-0.152328,0.299911,0.000000,-0.004000,-0.006000,0.001000,FlatInitial
01:42:24.900 PM 02/14/2016,Teleop Disabled,0,FALSE,0,NO ERROR,0.000000,0.000000,4000.000000,4000.000000,Speed,Speed,-0.570000,1.310000,1.770000,3.000000,101.000000,1,0,-0.006200,-0.006200,0,0.000000,0.000000,0.000000,-0.152328,0.299911,0.000000,0.006000,0.005000,0.001000,FlatInitial
01:42:24.999 PM 02/14/2016,Teleop Disabled,0,FALSE,0,NO ERROR,0.000000,0.000000,4000.000000,4000.000000,Speed,Speed,-0.560000,1.310000,1.820000,3.000000,107.000000,1,0,-0.006200,-0.006200,0,0.000000,0.000000,0.000000,-0.152328,0.299911,0.000000,-0.006000,0.001000,0.004000,FlatInitial
01:42:25.100 PM 02/14/2016,Teleop Disabled,0,FALSE,0,NO ERROR,0.000000,0.000000,4000.000000,4000.000000,Speed,Speed,-0.550000,1.300000,1.820000,3.000000,103.000000,1,0,-0.006200,-0.006200,0,0.000000,0.000000,0.000000,-0.152328,0.299911,0.000000,0.000000,0.004000,-0.001000,FlatInitial
01:42:25.200 PM 02/14/2016,Teleop Disabled,0,FALSE,0,NO ERROR,0.000000,0.000000,4000.000000,4000.000000,Speed,Speed,-0.540000,1.300000,1.850000,3.000000,102.000000,1,0,-0.006200,-0.006200,0,0.000000,0.000000,0.000000,-0.152328,0.299911,0.000000,0.000000,-0.005000,0.006000,FlatInitial
01:42:25.300 PM 02/14/2016,Teleop Disabled,0,FALSE,0,NO ERROR,0.000000,0.000000,4000.000000,4000.000000,Speed,Speed,-0.560000,1.300000,1.910000,3.000000,101.000000,1,0,-0.006200,-0.006200,0,0.000000,0.000000,0.000000,-0.152328,0.299911,0.000000,0.000000,0.000000,0.001000,FlatInitial
01:42:25.400 PM 02/14/2016,Teleop Disabled,0,FALSE,0,NO ERROR,0.000000,0.000000,4000.000000,4000.000000,Speed,Speed,-0.550000,1.330000,1.930000,3.000000,101.000000,1,0,-0.006200,-0.006200,0,0.000000,0.000000,0.000000,-0.152328,0.299911,0.000000,0.006000,-0.010000,-0.001000,FlatInitial
01:42:25.500 PM 02/14/2016,Teleop Disabled,0,FALSE,0,NO ERROR,0.000000,0.000000,4000.000000,4000.000000,Speed,Speed,-0.520000,1.330000,1.870000,3.000000,101.000000,1,0,-0.006200,-0.006200,0,0.000000,0.000000,0.000000,-0.152328,0.300140,0.000000,0.008000,-0.002000,0.008000,FlatInitial
01:42:25.600 PM 02/14/2016,Teleop Disabled,0,FALSE,0,NO ERROR,0.000000,0.000000,4000.000000,4000.000000,Speed,Speed,-0.500000,1.360000,1.760000,3.000000,101.000000,1,0,-0.006200,-0.006200,0,0.000000,0.000000,0.000000,-0.152328,0.300140,0.000000,-0.003000,0.006000,0.002000,FlatInitial
01:42:25.700 PM 02/14/2016,Teleop Disabled,0,FALSE,0,NO ERROR,0.000000,0.000000,4000.000000,4000.000000,Speed,Speed,-0.520000,1.370000,1.720000,3.000000,102.000000,1,0,-0.006200,-0.006200,0,0.000000,0.000000,0.000000,-0.152328,0.300140,0.000000,-0.007000,0.000000,0.000000,FlatInitial
01:42:25.800 PM 02/14/2016,Teleop Disabled,0,FALSE,0,NO ERROR,0.000000,0.000000,4000.000000,4000.000000,Speed,Speed,-0.490000,1.350000,1.660000,3.000000,102.000000,1,0,-0.006200,-0.006200,0,0.000000,0.000000,0.000000,-0.152328,0.300140,0.000000,0.007000,-0.002000,0.000000,FlatInitial
01:42:25.900 PM 02/14/2016,Teleop Disabled,0,FALSE,0,NO ERROR,0.000000,0.000000,4000.000000,4000.000000,Speed,Speed,-0.450000,1.350000,1.640000,3.000000,100.000000,1,0,-0.006200,-0.006200,0,0.000000,0.000000,0.000000,-0.152328,0.300140,0.000000,-0.004000,0.000000,-0.003000,FlatInitial
01:42:26.000 PM 02/14/2016,Teleop Disabled,0,FALSE,0,NO ERROR,0.000000,0.000000,4000.000000,4000.000000,Speed,Speed,-0.480000,1.350000,1.700000,3.000000,102.000000,1,0,-0.006200,-0.006200,0,0.000000,0.000000,0.000000,-0.152328,0.300140,0.000000,-0.002000,0.008000,0.004000,FlatInitial
01:42:26.100 PM 02/14/2016,Teleop Disabled,0,FALSE,0,NO ERROR,0.000000,0.000000,4000.000000,4000.000000,Speed,Speed,-0.540000,1.340000,1.710000,3.000000,101.000000,1,0,-0.006200,-0.006200,0,0.000000,0.000000,0.000000,-0.152328,0.300140,0.000000,-0.002000,0.000000,0.001000,FlatInitial
01:42:26.200 PM 02/14/2016,Teleop Disabled,0,FALSE,0,NO ERROR,0.000000,0.000000,4000.000000,4000.000000,Speed,Speed,-0.540000,1.360000,1.680000,3.000000,101.000000,1,0,-0.006200,-0.006200,0,0.000000,0.000000,0.000000,-0.152328,0.300140,0.000000,0.001000,-0.004000,0.002000,FlatInitial
01:42:26.301 PM 02/14/2016,Teleop Disabled,0,FALSE,0,NO ERROR,0.000000,0.000000,4000.000000,4000.000000,Speed,Speed,-0.510000,1.340000,1.670000,3.000000,103.000000,1,0,-0.006200,-0.006200,0,0.000000,0.000000,0.000000,-0.152328,0.300140,0.000000,0.000000,0.007000,0.007000,FlatInitial
01:42:26.402 PM 02/14/2016,Teleop Disabled,0,FALSE,0,NO ERROR,0.000000,0.000000,4000.000000,4000.000000,Speed,Speed,-0.440000,1.350000,1.670000,3.000000,104.000000,1,0,-0.006200,-0.006200,0,0.000000,0.000000,0.000000,-0.152328,0.300140,0.000000,-0.010000,0.000000,0.003000,FlatInitial
01:42:26.502 PM 02/14/2016,Teleop Disabled,0,FALSE,0,NO ERROR,0.000000,0.000000,4000.000000,4000.000000,Speed,Speed,-0.420000,1.400000,1.600000,3.000000,103.000000,1,0,-0.006200,-0.006200,0,0.000000,0.000000,0.000000,-0.152328,0.300140,0.000000,0.002000,0.009000,-0.002000,FlatInitial
01:42:26.601 PM 02/14/2016,Teleop Disabled,0,FALSE,0,NO ERROR,0.000000,0.000000,4000.000000,4000.000000,Speed,Speed,-0.450000,1.400000,1.600000,3.000000,101.000000,1,0,-0.006200,-0.006200,0,0.000000,0.000000,0.000000,-0.152328,0.300140,0.000000,0.001000,0.000000,0.008000,FlatInitial
01:42:26.702 PM 02/14/2016,Teleop Disabled,0,FALSE,0,NO ERROR,0.000000,0.000000,4000.000000,4000.000000,Speed,Speed,-0.460000,1.390000,1.630000,3.000000,101.000000,1,0,-0.006200,-0.006200,0,0.000000,0.000000,0.000000,-0.152328,0.300140,0.000000,-0.002000,0.000000,0.000000,FlatInitial
01:42:26.802 PM 02/14/2016,Teleop Disabled,0,FALSE,0,NO ERROR,0.000000,0.000000,4000.000000,4000.000000,Speed,Speed,-0.450000,1.410000,1.620000,3.000000,104.000000,1,0,-0.006200,-0.006200,0,0.000000,0.000000,0.000000,-0.152328,0.300140,0.000000,0.011000,0.004000,0.004000,FlatInitial
01:42:26.902 PM 02/14/2016,Teleop Disabled,0,FALSE,0,NO ERROR,0.000000,0.000000,4000.000000,4000.000000,Speed,Speed,-0.490000,1.410000,1.640000,3.000000,101.000000,1,0,-0.006200,-0.006200,0,0.000000,0.000000,0.000000,-0.152328,0.300140,0.000000,-0.011000,0.000000,0.013000,FlatInitial
01:42:27.002 PM 02/14/2016,Teleop Disabled,0,FALSE,0,NO ERROR,0.000000,0.000000,4000.000000,4000.000000,Speed,Speed,-0.490000,1.430000,1.610000,3.000000,101.000000,1,0,-0.006200,-0.006200,0,0.000000,0.000000,0.000000,-0.152328,0.300140,0.000000,0.000000,0.002000,0.003000,FlatInitial
01:42:27.103 PM 02/14/2016,Teleop Disabled,0,FALSE,0,NO ERROR,0.000000,0.000000,4000.000000,4000.000000,Speed,Speed,-0.480000,1.420000,1.640000,3.000000,102.000000,1,0,-0.006200,-0.006200,0,0.000000,0.000000,0.000000,-0.152328,0.300140,0.000000,0.005000,0.000000,0.002000,FlatInitial
01:42:27.203 PM 02/14/2016,Teleop Disabled,0,FALSE,0,NO ERROR,0.000000,0.000000,4000.000000,4000.000000,Speed,Speed,-0.520000,1.420000,1.690000,3.000000,103.000000,1,0,-0.006200,-0.006200,0,0.000000,0.000000,0.000000,-0.152328,0.300140,0.000000,-0.001000,0.004000,0.001000,FlatInitial
01:42:27.304 PM 02/14/2016,Teleop Disabled,0,FALSE,0,NO ERROR,0.000000,0.000000,4000.000000,4000.000000,Speed,Speed,-0.520000,1.420000,1.650000,3.000000,101.000000,1,0,-0.006200,-0.006200,0,0.000000,0.000000,0.000000,-0.152328,0.300140,0.000000,-0.002000,0.004000,0.003000,FlatInitial
01:42:27.405 PM 02/14/2016,Teleop Disabled,0,FALSE,0,NO ERROR,0.000000,0.000000,4000.000000,4000.000000,Speed,Speed,-0.500000,1.430000,1.640000,3.000000,104.000000,1,0,-0.006200,-0.006200,0,0.000000,0.000000,0.000000,-0.152328,0.300140,0.000000,0.001000,-0.001000,-0.001000,FlatInitial
01:42:27.504 PM 02/14/2016,Teleop Disabled,0,FALSE,0,NO ERROR,0.000000,0.000000,4000.000000,4000.000000,Speed,Speed,-0.470000,1.420000,1.660000,3.000000,103.000000,1,0,-0.006200,-0.006200,0,0.000000,0.000000,0.000000,-0.152328,0.300140,0.000000,0.003000,0.005000,0.004000,FlatInitial
01:42:27.604 PM 02/14/2016,Teleop Disabled,0,FALSE,0,NO ERROR,0.000000,0.000000,4000.000000,4000.000000,Speed,Speed,-0.460000,1.430000,1.630000,3.000000,101.000000,1,0,-0.006200,-0.006200,0,0.000000,0.000000,0.000000,-0.152328,0.300140,0.000000,0.000000,-0.002000,0.000000,FlatInitial
01:42:27.705 PM 02/14/2016,Teleop Disabled,0,FALSE,0,NO ERROR,0.000000,0.000000,4000.000000,4000.000000,Speed,Speed,-0.500000,1.430000,1.600000,3.000000,102.000000,1,0,-0.006200,-0.006200,0,0.000000,0.000000,0.000000,-0.152328,0.300140,0.000000,0.003000,0.007000,0.000000,FlatInitial
