Time,RobotMode,AutoToRun,ErrorStatus, ErrorCode,ErrorSource,ActualRPM1,ActualRPM2,DesiredRPM1,DesiredRPM2,ControlMode1,ControlMode2,NavXYaw,NavXRoll,NavXPitch,ShooterState,LoopTime,IsLevel,IsAutoTargeting,LeftMotorOutput,RightMotorOutput,IsHaloDrive,NavXVelocityX,NavXVelocityY,NavXVelocityZ,NavXDisplacementX,NavXDisplacementY,NavXDisplacementZ,NavXAccelerationX,NavXAccelerationY,NavXAccelerationZ,AutoDefendState
01:41:17.946 PM 02/14/2016,Teleop Enabled,0,TRUE,-44087,NetComm_CAN_Receive.vi:5470006<APPEND>  <b>Complete call chain:</b>      NetComm_CAN_Receive.vi:5470006      WPI_CANTalonSRX_Receive.vi      WPI_MotorControlOpenCANTalonSRX.vi      Begin.vi      Robot Main.vi,0.000000,0.000000,4000.000000,4000.000000,Speed,Speed,-0.160000,1.680000,2.170000,3.000000,102.000000,1,0,-0.006200,-0.006200,0,0.000000,0.000000,0.000000,-0.153305,0.305557,0.000000,0.000000,0.000000,0.000000,FlatInitial
01:41:18.046 PM 02/14/2016,Teleop Enabled,0,TRUE,-44087,NetComm_CAN_Receive.vi:5470006<APPEND>  <b>Complete call chain:</b>      NetComm_CAN_Receive.vi:5470006      WPI_CANTalonSRX_Receive.vi      WPI_MotorControlOpenCANTalonSRX.vi      Begin.vi      Robot Main.vi,0.000000,0.000000,4000.000000,4000.000000,Speed,Speed,-0.170000,1.700000,2.150000,3.000000,100.000000,1,0,-0.006200,-0.006200,0,-0.004257,-0.006653,0.000000,-0.153366,0.305481,0.000000,0.001000,-0.053000,0.004000,FlatInitial
01:41:18.146 PM 02/14/2016,Teleop Enabled,0,TRUE,-44087,NetComm_CAN_Receive.vi:5470006<APPEND>  <b>Complete call chain:</b>      NetComm_CAN_Receive.vi:5470006      WPI_CANTalonSRX_Receive.vi      WPI_MotorControlOpenCANTalonSRX.vi      Begin.vi      Robot Main.vi,0.000000,0.000000,4000.000000,4000.000000,Speed,Speed,-0.160000,1.700000,2.070000,3.000000,106.000000,1,0,-0.006200,-0.006200,0,0.000000,0.000000,0.000000,-0.153397,0.304840,0.000000,-0.003000,-0.003000,-0.009000,FlatInitial
01:41:18.246 PM 02/14/2016,Teleop Enabled,0,TRUE,-44087,NetComm_CAN_Receive.vi:5470006<APPEND>  <b>Complete call chain:</b>      NetComm_CAN_Receive.vi:5470006      WPI_CANTalonSRX_Receive.vi      WPI_MotorControlOpenCANTalonSRX.vi      Begin.vi      Robot Main.vi,0.000000,0.000000,4000.000000,4000.000000,Speed,Speed,0.000000,1.730000,2.120000,3.000000,105.000000,1,0,-0.006200,-0.006200,0,0.005814,-0.000336,0.000000,-0.153412,0.304764,0.000000,0.014000,0.000000,-0.018000,FlatInitial
01:41:18.346 PM 02/14/2016,Teleop Enabled,0,TRUE,-44087,NetComm_CAN_Receive.vi:5470006<APPEND>  <b>Complete call chain:</b>      NetComm_CAN_Receive.vi:5470006      WPI_CANTalonSRX_Receive.vi      WPI_MotorControlOpenCANTalonSRX.vi      Begin.vi      Robot Main.vi,0.000000,0.000000,4000.000000,4000.000000,Speed,Speed,-0.090000,1.690000,2.080000,3.000000,101.000000,1,0,-0.006200,-0.006200,0,-0.009979,0.010559,0.000000,-0.153458,0.304871,0.000000,-0.029000,0.061000,-0.015000,FlatInitial
01:41:18.447 PM 02/14/2016,Teleop Enabled,0,TRUE,-44087,NetComm_CAN_Receive.vi:5470006<APPEND>  <b>Complete call chain:</b>      NetComm_CAN_Receive.vi:5470006      WPI_CANTalonSRX_Receive.vi      WPI_MotorControlOpenCANTalonSRX.vi      Begin.vi      Robot Main.vi,0.000000,0.000000,4000.000000,4000.000000,Speed,Speed,-0.050000,1.720000,2.320000,3.000000,101.000000,1,0,-0.006200,-0.006200,0,-0.007675,0.041962,0.000000,-0.154007,0.306747,0.000000,-0.009000,0.000000,-0.007000,FlatInitial
01:41:18.548 PM 02/14/2016,Teleop Enabled,0,TRUE,-44087,NetComm_CAN_Receive.vi:5470006<APPEND>  <b>Complete call chain:</b>      NetComm_CAN_Receive.vi:5470006      WPI_CANTalonSRX_Receive.vi      WPI_CANTalonSRX_GetStatus.vi      ShooterVI.vi      Periodic Tasks.vi      Robot Main.vi,0.000000,0.000000,4000.000000,4000.000000,Speed,Speed,-0.150000,1.730000,2.250000,3.000000,102.000000,1,0,-0.006200,-0.006200,0,0.000000,-0.010620,0.000000,-0.154007,0.306534,0.000000,0.000000,-0.011000,0.005000,FlatInitial
01:41:18.648 PM 02/14/2016,Teleop Enabled,0,TRUE,-44087,NetComm_CAN_Receive.vi:5470006<APPEND>  <b>Complete call chain:</b>      NetComm_CAN_Receive.vi:5470006      WPI_CANTalonSRX_Receive.vi      WPI_CANTalonSRX_GetStatus.vi      ShooterVI.vi      Periodic Tasks.vi      Robot Main.vi,0.000000,0.000000,4000.000000,4000.000000,Speed,Speed,-0.220000,1.720000,2.220000,3.000000,102.000000,1,0,-0.006200,-0.006200,0,0.000000,0.000000,0.000000,-0.154007,0.306534,0.000000,0.002000,-0.016000,0.003000,FlatInitial
01:41:18.748 PM 02/14/2016,Teleop Enabled,0,FALSE,0,NO ERROR,0.000000,0.000000,4000.000000,4000.000000,Speed,Speed,-0.180000,1.700000,2.290000,3.000000,102.000000,1,0,-0.006200,-0.006200,0,0.000000,0.000000,0.000000,-0.154007,0.306534,0.000000,-0.005000,0.005000,0.004000,FlatInitial
01:41:18.848 PM 02/14/2016,Teleop Enabled,0,FALSE,0,NO ERROR,0.000000,0.000000,4000.000000,4000.000000,Speed,Speed,-0.170000,1.700000,2.300000,3.000000,101.000000,1,0,-0.006200,-0.006200,0,0.000000,0.000000,0.000000,-0.154007,0.306534,0.000000,0.000000,0.003000,-0.007000,FlatInitial
01:41:18.949 PM 02/14/2016,Teleop Enabled,0,FALSE,0,NO ERROR,0.000000,0.000000,4000.000000,4000.000000,Speed,Speed,-0.180000,1.710000,2.340000,3.000000,103.000000,1,0,-0.006200,-0.006200,0,0.000000,0.000000,0.000000,-0.154007,0.306534,0.000000,0.005000,-0.014000,0.000000,FlatInitial
01:41:19.049 PM 02/14/2016,Teleop Enabled,0,FALSE,0,NO ERROR,0.000000,0.000000,4000.000000,4000.000000,Speed,Speed,-0.210000,1.710000,2.280000,3.000000,101.000000,1,0,-0.006200,-0.006200,0,0.000000,0.000000,0.000000,-0.154007,0.306534,0.000000,0.002000,-0.007000,0.009000,FlatInitial
01:41:19.151 PM 02/14/2016,Teleop Enabled,0,FALSE,0,NO ERROR,0.000000,0.000000,4000.000000,4000.000000,Speed,Speed,-0.190000,1.710000,2.310000,3.000000,102.000000,1,0,-0.006200,-0.006200,0,0.000000,0.000000,0.000000,-0.154007,0.306534,0.000000,0.000000,0.009000,0.000000,FlatInitial
01:41:19.253 PM 02/14/2016,Teleop Enabled,0,FALSE,0,NO ERROR,0.000000,0.000000,4000.000000,4000.000000,Speed,Speed,-0.190000,1.720000,2.330000,3.000000,103.000000,1,0,-0.006200,-0.006200,0,0.000000,0.000000,0.000000,-0.154007,0.306534,0.000000,0.004000,0.004000,0.008000,FlatInitial
01:41:19.353 PM 02/14/2016,Teleop Enabled,0,FALSE,0,NO ERROR,0.000000,0.000000,4000.000000,4000.000000,Speed,Speed,-0.200000,1.710000,2.320000,3.000000,103.000000,1,0,-0.006200,-0.006200,0,0.000000,0.000000,0.000000,-0.154007,0.306534,0.000000,0.007000,-0.001000,0.017000,FlatInitial
01:41:19.455 PM 02/14/2016,Teleop Enabled,0,FALSE,0,NO ERROR,0.000000,0.000000,4000.000000,4000.000000,Speed,Speed,-0.220000,1.710000,2.290000,3.000000,101.000000,1,0,-0.006200,-0.006200,0,0.000000,0.000000,0.000000,-0.154007,0.306534,0.000000,-0.003000,-0.005000,0.000000,FlatInitial
01:41:19.555 PM 02/14/2016,Teleop Enabled,0,FALSE,0,NO ERROR,0.000000,0.000000,4000.000000,4000.000000,Speed,Speed,-0.200000,1.700000,2.280000,3.000000,101.000000,1,0,-0.006200,-0.006200,0,0.000000,0.000000,0.000000,-0.154007,0.306534,0.000000,0.002000,-0.003000,-0.002000,FlatInitial
01:41:19.656 PM 02/14/2016,Teleop Enabled,0,FALSE,0,NO ERROR,0.000000,0.000000,4000.000000,4000.000000,Speed,Speed,-0.200000,1.700000,2.280000,3.000000,101.000000,1,0,-0.006200,-0.006200,0,0.000000,0.000000,0.000000,-0.154007,0.306534,0.000000,0.002000,-0.002000,0.010000,FlatInitial
01:41:19.755 PM 02/14/2016,Teleop Enabled,0,FALSE,0,NO ERROR,0.000000,0.000000,4000.000000,4000.000000,Speed,Speed,-0.230000,1.690000,2.290000,3.000000,102.000000,1,0,-0.006200,-0.006200,0,0.000000,0.000000,0.000000,-0.154007,0.306534,0.000000,-0.005000,-0.008000,0.001000,FlatInitial
01:41:19.856 PM 02/14/2016,Teleop Enabled,0,FALSE,0,NO ERROR,0.000000,0.000000,4000.000000,4000.000000,Speed,Speed,-0.220000,1.690000,2.300000,3.000000,104.000000,1,0,-0.006200,-0.006200,0,0.000000,0.000000,0.000000,-0.154007,0.306534,0.000000,-0.001000,0.000000,-0.001000,FlatInitial
01:41:19.956 PM 02/14/2016,Teleop Enabled,0,FALSE,0,NO ERROR,0.000000,0.000000,4000.000000,4000.000000,Speed,Speed,-0.180000,1.680000,2.290000,3.000000,102.000000,1,0,-0.006200,-0.006200,0,0.000000,0.000000,0.000000,-0.154007,0.306534,0.000000,0.006000,-0.009000,-0.010000,FlatInitial
01:41:20.060 PM 02/14/2016,Teleop Enabled,0,FALSE,0,NO ERROR,0.000000,0.000000,4000.000000,4000.000000,Speed,Speed,-0.210000,1.690000,2.300000,3.000000,102.000000,1,0,-0.006200,-0.006200,0,0.000000,0.000000,0.000000,-0.154007,0.306534,0.000000,-0.001000,0.000000,0.001000,FlatInitial
01:41:20.157 PM 02/14/2016,Teleop Enabled,0,FALSE,0,NO ERROR,0.000000,0.000000,4000.000000,4000.000000,Speed,Speed,-0.220000,1.690000,2.300000,3.000000,102.000000,1,0,-0.006200,-0.006200,0,0.000000,0.000000,0.000000,-0.154007,0.306534,0.000000,-0.002000,-0.006000,0.007000,FlatInitial
01:41:20.258 PM 02/14/2016,Teleop Enabled,0,FALSE,0,NO ERROR,0.000000,0.000000,4000.000000,4000.000000,Speed,Speed,-0.210000,1.700000,2.350000,3.000000,102.000000,1,0,-0.006200,-0.006200,0,0.000000,0.000000,0.000000,-0.154007,0.306534,0.000000,0.002000,0.003000,0.005000,FlatInitial
01:41:20.358 PM 02/14/2016,Teleop Enabled,0,FALSE,0,NO ERROR,0.000000,0.000000,4000.000000,4000.000000,Speed,Speed,-0.240000,1.710000,2.390000,3.000000,102.000000,1,0,-0.006200,-0.006200,0,0.000000,0.000000,0.000000,-0.154007,0.306534,0.000000,0.001000,-0.003000,0.006000,FlatInitial
01:41:20.459 PM 02/14/2016,Teleop Enabled,0,FALSE,0,NO ERROR,0.000000,0.000000,4000.000000,4000.000000,Speed,Speed,-0.240000,1.690000,2.430000,3.000000,101.000000,1,0,-0.006200,-0.006200,0,0.000000,0.000000,0.000000,-0.154007,0.306534,0.000000,0.004000,0.002000,0.007000,FlatInitial
01:41:20.560 PM 02/14/2016,Teleop Enabled,0,FALSE,0,NO ERROR,0.000000,0.000000,4000.000000,4000.000000,Speed,Speed,-0.240000,1.680000,2.480000,3.000000,101.000000,1,0,-0.006200,-0.006200,0,0.000000,0.000000,0.000000,-0.154007,0.306534,0.000000,0.000000,-0.013000,0.006000,FlatInitial
01:41:20.661 PM 02/14/2016,Teleop Enabled,0,FALSE,0,NO ERROR,0.000000,0.000000,4000.000000,4000.000000,Speed,Speed,-0.270000,1.660000,2.550000,3.000000,104.000000,1,0,-0.006200,-0.006200,0,0.000000,0.000000,0.000000,-0.154007,0.306534,0.000000,-0.008000,0.005000,0.003000,FlatInitial
01:41:20.761 PM 02/14/2016,Teleop Enabled,0,FALSE,0,NO ERROR,0.000000,0.000000,4000.000000,4000.000000,Speed,Speed,-0.250000,1.600000,2.590000,3.000000,102.000000,1,0,-0.006200,-0.006200,0,0.000000,0.000000,0.000000,-0.154007,0.306534,0.000000,0.000000,0.000000,0.000000,FlatInitial
01:41:20.861 PM 02/14/2016,Teleop Enabled,0,FALSE,0,NO ERROR,0.000000,0.000000,4000.000000,4000.000000,Speed,Speed,-0.280000,1.520000,2.580000,3.000000,101.000000,1,0,-0.006200,-0.006200,0,0.000000,0.000000,0.000000,-0.154007,0.306534,0.000000,0.011000,0.005000,-0.015000,FlatInitial
01:41:20.961 PM 02/14/2016,Teleop Enabled,0,FALSE,0,NO ERROR,0.000000,0.000000,4000.000000,4000.000000,Speed,Speed,-0.260000,1.430000,2.600000,3.000000,102.000000,1,0,-0.006200,-0.006200,0,0.000000,0.000000,0.000000,-0.154007,0.306534,0.000000,0.009000,0.008000,0.008000,FlatInitial
01:41:21.063 PM 02/14/2016,Teleop Enabled,0,FALSE,0,NO ERROR,0.000000,0.000000,4000.000000,4000.000000,Speed,Speed,-0.300000,1.410000,2.560000,3.000000,102.000000,1,0,-0.006200,-0.006200,0,0.000000,0.000000,0.000000,-0.154007,0.306534,0.000000,-0.003000,-0.007000,0.013000,FlatInitial
01:41:21.163 PM 02/14/2016,Teleop Enabled,0,FALSE,0,NO ERROR,0.000000,0.000000,4000.000000,4000.000000,Speed,Speed,-0.350000,1.390000,2.520000,3.000000,108.000000,1,0,-0.006200,-0.006200,0,0.000000,0.000000,0.000000,-0.154007,0.306534,0.000000,-0.004000,0.001000,0.014000,FlatInitial
01:41:21.264 PM 02/14/2016,Teleop Enabled,0,FALSE,0,NO ERROR,0.000000,0.000000,4000.000000,4000.000000,Speed,Speed,-0.270000,1.350000,2.480000,3.000000,100.000000,1,0,-0.006200,-0.006200,0,0.000000,0.000000,0.000000,-0.154007,0.306534,0.000000,0.000000,-0.022000,0.008000,FlatInitial
01:41:21.365 PM 02/14/2016,Teleop Enabled,0,FALSE,0,NO ERROR,0.000000,0.000000,4000.000000,4000.000000,Speed,Speed,-0.280000,1.330000,2.350000,3.000000,101.000000,1,0,-0.006200,-0.006200,0,0.000000,0.000000,0.000000,-0.154007,0.306335,0.000000,-0.008000,0.017000,0.025000,FlatInitial
01:41:21.466 PM 02/14/2016,Teleop Enabled,0,FALSE,0,NO ERROR,0.000000,0.000000,4000.000000,4000.000000,Speed,Speed,-0.320000,1.300000,2.290000,3.000000,102.000000,1,0,-0.006200,-0.006200,0,0.000000,0.000000,0.000000,-0.154007,0.306534,0.000000,0.001000,0.007000,0.000000,FlatInitial
01:41:21.566 PM 02/14/2016,Teleop Enabled,0,FALSE,0,NO ERROR,0.000000,0.000000,4000.000000,4000.000000,Speed,Speed,-0.260000,1.250000,2.120000,3.000000,102.000000,1,0,-0.006200,-0.006200,0,0.000000,0.000000,0.000000,-0.154007,0.306534,0.000000,0.003000,0.002000,-0.008000,FlatInitial
01:41:21.668 PM 02/14/2016,Teleop Enabled,0,FALSE,0,NO ERROR,0.000000,0.000000,4000.000000,4000.000000,Speed,Speed,-0.190000,1.270000,2.170000,3.000000,101.000000,1,0,-0.006200,-0.006200,0,0.000000,-0.007645,0.000000,-0.154007,0.306427,0.000000,-0.006000,-0.013000,0.002000,FlatInitial
01:41:21.769 PM 02/14/2016,Teleop Enabled,0,FALSE,0,NO ERROR,0.000000,0.000000,4000.000000,4000.000000,Speed,Speed,-0.190000,1.240000,2.060000,3.000000,101.000000,1,0,-0.006200,-0.006200,0,0.000000,0.000000,0.000000,-0.154007,0.306335,0.000000,0.017000,-0.003000,0.000000,FlatInitial
01:41:21.870 PM 02/14/2016,Teleop Enabled,0,FALSE,0,NO ERROR,0.000000,0.000000,4000.000000,4000.000000,Speed,Speed,-0.210000,1.250000,2.080000,3.000000,102.000000,1,0,-0.006200,-0.006200,0,0.000000,0.000000,0.000000,-0.154007,0.306335,0.000000,0.000000,0.007000,0.001000,FlatInitial
01:41:21.970 PM 02/14/2016,Teleop Enabled,0,FALSE,0,NO ERROR,0.000000,0.000000,4000.000000,4000.000000,Speed,Speed,-0.180000,1.250000,1.960000,3.000000,101.000000,1,0,-0.006200,-0.006200,0,0.000000,0.021378,0.000000,-0.154007,0.306808,0.000000,-0.004000,0.034000,0.011000,FlatInitial
01:41:22.070 PM 02/14/2016,Teleop Enabled,0,FALSE,0,NO ERROR,0.000000,0.000000,4000.000000,4000.000000,Speed,Speed,-0.170000,1.270000,2.060000,3.000000,102.000000,1,0,-0.006200,-0.006200,0,0.003738,-0.005142,0.000000,-0.153961,0.307770,0.000000,0.027000,-0.035000,-0.026000,FlatInitial
01:41:22.170 PM 02/14/2016,Teleop Enabled,0,FALSE,0,NO ERROR,0.000000,0.000000,4000.000000,4000.000000,Speed,Speed,-0.290000,1.260000,2.000000,3.000000,103.000000,1,0,-0.006200,-0.006200,0,0.000000,-0.059189,0.000000,-0.153854,0.305573,0.000000,-0.012000,0.000000,-0.003000,FlatInitial
01:41:22.270 PM 02/14/2016,Teleop Enabled,0,FALSE,0,NO ERROR,0.000000,0.000000,4000.000000,4000.000000,Speed,Speed,-0.250000,1.280000,1.900000,3.000000,102.000000,1,0,-0.006200,-0.006200,0,0.000000,-0.039536,0.000000,-0.153854,0.303085,0.000000,0.007000,0.031000,-0.020000,FlatInitial
01:41:22.370 PM 02/14/2016,Teleop Enabled,0,FALSE,0,NO ERROR,0.000000,0.000000,4000.000000,4000.000000,Speed,Speed,-0.140000,1.240000,2.150000,3.000000,103.000000,1,0,-0.006200,-0.006200,0,-0.005432,0.000000,0.000000,-0.153992,0.302734,0.000000,0.010000,-0.012000,-0.006000,FlatInitial
01:41:22.471 PM 02/14/2016,Teleop Enabled,0,FALSE,0,NO ERROR,0.000000,0.000000,4000.000000,4000.000000,Speed,Speed,-0.170000,1.290000,2.000000,3.000000,102.000000,1,0,-0.006200,-0.006200,0,0.000000,0.004654,0.000000,-0.153992,0.302780,0.000000,-0.005000,0.029000,-0.002000,FlatInitial
01:41:22.571 PM 02/14/2016,Teleop Enabled,0,FALSE,0,NO ERROR,0.000000,0.000000,4000.000000,4000.000000,Speed,Speed,-0.190000,1.290000,2.130000,3.000000,100.000000,1,0,-0.006200,-0.006200,0,0.000000,0.000000,0.000000,-0.153992,0.303024,0.000000,0.012000,-0.014000,0.010000,FlatInitial
01:41:22.670 PM 02/14/2016,Teleop Enabled,0,FALSE,0,NO ERROR,0.000000,0.000000,4000.000000,4000.000000,Speed,Speed,-0.190000,1.280000,2.110000,3.000000,101.000000,1,0,-0.006200,-0.006200,0,0.000000,0.000000,0.000000,-0.153992,0.303024,0.000000,0.004000,-0.009000,0.005000,FlatInitial
01:41:22.771 PM 02/14/2016,Teleop Enabled,0,FALSE,0,NO ERROR,0.000000,0.000000,4000.000000,4000.000000,Speed,Speed,-0.200000,1.310000,2.060000,3.000000,103.000000,1,0,-0.006200,-0.006200,0,0.000000,0.000000,0.000000,-0.153992,0.303024,0.000000,-0.004000,-0.001000,-0.003000,FlatInitial
01:41:22.871 PM 02/14/2016,Teleop Enabled,0,FALSE,0,NO ERROR,0.000000,0.000000,4000.000000,4000.000000,Speed,Speed,-0.210000,1.310000,2.100000,3.000000,102.000000,1,0,-0.006200,-0.006200,0,0.000000,0.000000,0.000000,-0.153992,0.303024,0.000000,0.003000,-0.003000,0.004000,FlatInitial
01:41:22.972 PM 02/14/2016,Teleop Enabled,0,FALSE,0,NO ERROR,0.000000,0.000000,4000.000000,4000.000000,Speed,Speed,-0.160000,1.310000,2.030000,3.000000,101.000000,1,0,-0.006200,-0.006200,0,0.000000,0.000000,0.000000,-0.153992,0.303024,0.000000,0.008000,0.004000,0.004000,FlatInitial
01:41:23.072 PM 02/14/2016,Teleop Enabled,0,FALSE,0,NO ERROR,0.000000,0.000000,4000.000000,4000.000000,Speed,Speed,-0.190000,1.320000,2.080000,3.000000,101.000000,1,0,-0.006200,-0.006200,0,0.000000,0.000000,0.000000,-0.153992,0.303024,0.000000,-0.003000,-0.003000,0.003000,FlatInitial
01:41:23.173 PM 02/14/2016,Teleop Enabled,0,FALSE,0,NO ERROR,0.000000,0.000000,4000.000000,4000.000000,Speed,Speed,-0.240000,1.310000,2.080000,3.000000,102.000000,1,0,-0.006200,-0.006200,0,0.000000,0.000000,0.000000,-0.153992,0.303024,0.000000,0.000000,0.008000,-0.002000,FlatInitial
01:41:23.273 PM 02/14/2016,Teleop Enabled,0,FALSE,0,NO ERROR,0.000000,0.000000,4000.000000,4000.000000,Speed,Speed,-0.190000,1.340000,2.030000,3.000000,104.000000,1,0,-0.006200,-0.006200,0,-0.003784,0.000000,0.000000,-0.154037,0.303024,0.000000,-0.002000,0.000000,0.019000,FlatInitial
01:41:23.374 PM 02/14/2016,Teleop Enabled,0,FALSE,0,NO ERROR,0.000000,0.000000,4000.000000,4000.000000,Speed,Speed,-0.150000,1.360000,1.800000,3.000000,104.000000,1,0,-0.006200,-0.006200,0,0.000000,0.000000,0.000000,-0.153961,0.303024,0.000000,0.002000,0.000000,-0.029000,FlatInitial
01:41:23.474 PM 02/14/2016,Teleop Enabled,0,FALSE,0,NO ERROR,0.000000,0.000000,4000.000000,4000.000000,Speed,Speed,-0.250000,1.400000,1.790000,3.000000,101.000000,1,0,-0.006200,-0.006200,0,0.000000,0.000000,0.000000,-0.153961,0.303024,0.000000,-0.005000,-0.001000,-0.010000,FlatInitial
01:41:23.575 PM 02/14/2016,Teleop Enabled,0,FALSE,0,NO ERROR,0.000000,0.000000,4000.000000,4000.000000,Speed,Speed,-0.220000,1.390000,1.810000,3.000000,101.000000,1,0,-0.006200,-0.006200,0,0.000000,0.000000,0.000000,-0.153961,0.303024,0.000000,0.000000,0.006000,-0.015000,FlatInitial
01:41:23.676 PM 02/14/2016,Teleop Enabled,0,FALSE,0,NO ERROR,0.000000,0.000000,4000.000000,4000.000000,Speed,Speed,-0.240000,1.390000,1.800000,3.000000,101.000000,1,0,-0.006200,-0.006200,0,0.000000,0.000000,0.000000,-0.153961,0.303024,0.000000,0.004000,-0.003000,0.000000,FlatInitial
01:41:23.777 PM 02/14/2016,Teleop Enabled,0,FALSE,0,NO ERROR,0.000000,0.000000,4000.000000,4000.000000,Speed,Speed,-0.230000,1.400000,1.760000,3.000000,101.000000,1,0,-0.006200,-0.006200,0,0.000000,0.000000,0.000000,-0.153961,0.303024,0.000000,0.004000,0.007000,0.001000,FlatInitial
01:41:23.878 PM 02/14/2016,Teleop Enabled,0,FALSE,0,NO ERROR,0.000000,0.000000,4000.000000,4000.000000,Speed,Speed,-0.220000,1.380000,1.770000,3.000000,102.000000,1,0,-0.006200,-0.006200,0,0.000000,0.000000,0.000000,-0.153961,0.303024,0.000000,0.002000,-0.002000,-0.001000,FlatInitial
01:41:23.977 PM 02/14/2016,Teleop Enabled,0,FALSE,0,NO ERROR,0.000000,0.000000,4000.000000,4000.000000,Speed,Speed,-0.230000,1.370000,1.790000,3.000000,101.000000,1,0,-0.006200,-0.006200,0,0.000000,0.000000,0.000000,-0.153961,0.303024,0.000000,0.002000,-0.002000,-0.001000,FlatInitial
01:41:24.078 PM 02/14/2016,Teleop Enabled,0,FALSE,0,NO ERROR,0.000000,0.000000,4000.000000,4000.000000,Speed,Speed,-0.220000,1.360000,1.820000,3.000000,103.000000,1,0,-0.006200,-0.006200,0,0.000000,0.000000,0.000000,-0.153961,0.303024,0.000000,0.000000,0.007000,0.005000,FlatInitial
01:41:24.179 PM 02/14/2016,Teleop Enabled,0,FALSE,0,NO ERROR,0.000000,0.000000,4000.000000,4000.000000,Speed,Speed,-0.200000,1.340000,1.880000,3.000000,101.000000,1,0,-0.006200,-0.006200,0,0.000000,0.000000,0.000000,-0.153961,0.303024,0.000000,-0.006000,0.006000,0.002000,FlatInitial
01:41:24.280 PM 02/14/2016,Teleop Enabled,0,FALSE,0,NO ERROR,0.000000,0.000000,4000.000000,4000.000000,Speed,Speed,-0.140000,1.330000,1.840000,3.000000,101.000000,1,0,-0.006200,-0.006200,0,0.000000,0.000000,0.000000,-0.153961,0.303024,0.000000,-0.006000,0.006000,0.002000,FlatInitial
01:41:24.381 PM 02/14/2016,Teleop Enabled,0,FALSE,0,NO ERROR,0.000000,0.000000,4000.000000,4000.000000,Speed,Speed,-0.120000,1.350000,1.810000,3.000000,103.000000,1,0,-0.006200,-0.006200,0,0.000000,0.000000,0.000000,-0.153961,0.303024,0.000000,0.000000,-0.003000,-0.002000,FlatInitial
01:41:24.482 PM 02/14/2016,Teleop Enabled,0,FALSE,0,NO ERROR,0.000000,0.000000,4000.000000,4000.000000,Speed,Speed,-0.190000,1.340000,1.810000,3.000000,103.000000,1,0,-0.006200,-0.006200,0,0.000000,0.000000,0.000000,-0.153961,0.303024,0.000000,0.003000,-0.011000,0.003000,FlatInitial
01:41:24.584 PM 02/14/2016,Teleop Enabled,0,FALSE,0,NO ERROR,0.000000,0.000000,4000.000000,4000.000000,Speed,Speed,-0.140000,1.300000,1.800000,3.000000,102.000000,1,0,-0.006200,-0.006200,0,0.000000,0.000000,0.000000,-0.153961,0.303024,0.000000,-0.003000,0.001000,0.009000,FlatInitial
01:41:24.685 PM 02/14/2016,Teleop Enabled,0,FALSE,0,NO ERROR,0.000000,0.000000,4000.000000,4000.000000,Speed,Speed,-0.070000,1.280000,1.880000,3.000000,101.000000,1,0,-0.006200,-0.006200,0,0.007996,0.000000,0.000000,-0.153854,0.303024,0.000000,0.000000,-0.006000,0.008000,FlatInitial
01:41:24.786 PM 02/14/2016,Teleop Enabled,0,FALSE,0,NO ERROR,0.000000,0.000000,4000.000000,4000.000000,Speed,Speed,-0.150000,1.250000,1.980000,3.000000,101.000000,1,0,-0.006200,-0.006200,0,0.000000,0.000000,0.000000,-0.153748,0.303024,0.000000,0.004000,0.003000,-0.014000,FlatInitial
01:41:24.886 PM 02/14/2016,Teleop Enabled,0,FALSE,0,NO ERROR,0.000000,0.000000,4000.000000,4000.000000,Speed,Speed,-0.140000,1.260000,1.940000,3.000000,101.000000,1,0,-0.006200,-0.006200,0,0.000000,0.000000,0.000000,-0.153748,0.303024,0.000000,-0.005000,0.006000,-0.009000,FlatInitial
01:41:24.986 PM 02/14/2016,Teleop Enabled,0,FALSE,0,NO ERROR,0.000000,0.000000,4000.000000,4000.000000,Speed,Speed,-0.130000,1.260000,1.970000,3.000000,101.000000,1,0,-0.006200,-0.006200,0,0.000000,0.000000,0.000000,-0.153748,0.303024,0.000000,-0.005000,0.006000,-0.009000,FlatInitial
01:41:25.087 PM 02/14/2016,Teleop Enabled,0,FALSE,0,NO ERROR,0.000000,0.000000,4000.000000,4000.000000,Speed,Speed,-0.150000,1.250000,1.930000,3.000000,101.000000,1,0,-0.006200,-0.006200,0,0.000000,0.000000,0.000000,-0.153748,0.303024,0.000000,0.003000,-0.006000,0.001000,FlatInitial
01:41:25.188 PM 02/14/2016,Teleop Enabled,0,FALSE,0,NO ERROR,0.000000,0.000000,4000.000000,4000.000000,Speed,Speed,-0.140000,1.250000,1.940000,3.000000,101.000000,1,0,-0.006200,-0.006200,0,0.000000,0.000000,0.000000,-0.153748,0.303024,0.000000,-0.002000,0.002000,-0.001000,FlatInitial
01:41:25.288 PM 02/14/2016,Teleop Enabled,0,FALSE,0,NO ERROR,0.000000,0.000000,4000.000000,4000.000000,Speed,Speed,-0.140000,1.250000,1.940000,3.000000,103.000000,1,0,-0.006200,-0.006200,0,0.000000,0.000000,0.000000,-0.153748,0.303024,0.000000,0.000000,0.001000,0.003000,FlatInitial
01:41:25.388 PM 02/14/2016,Teleop Enabled,0,FALSE,0,NO ERROR,0.000000,0.000000,4000.000000,4000.000000,Speed,Speed,-0.150000,1.250000,1.930000,3.000000,101.000000,1,0,-0.006200,-0.006200,0,0.000000,0.000000,0.000000,-0.153748,0.303024,0.000000,0.000000,0.001000,0.003000,FlatInitial
01:41:25.489 PM 02/14/2016,Teleop Enabled,0,FALSE,0,NO ERROR,0.000000,0.000000,4000.000000,4000.000000,Speed,Speed,-0.150000,1.260000,1.950000,3.000000,104.000000,1,0,-0.006200,-0.006200,0,0.000000,0.000000,0.000000,-0.153748,0.303024,0.000000,-0.002000,0.000000,-0.002000,FlatInitial
01:41:25.589 PM 02/14/2016,Teleop Enabled,0,FALSE,0,NO ERROR,0.000000,0.000000,4000.000000,4000.000000,Speed,Speed,-0.150000,1.260000,1.930000,3.000000,108.000000,1,0,-0.006200,-0.006200,0,0.000000,0.000000,0.000000,-0.153748,0.303024,0.000000,-0.001000,-0.001000,0.001000,FlatInitial
01:41:25.690 PM 02/14/2016,Teleop Enabled,0,FALSE,0,NO ERROR,0.000000,0.000000,4000.000000,4000.000000,Speed,Speed,-0.150000,1.260000,1.930000,3.000000,101.000000,1,0,-0.006200,-0.006200,0,0.000000,0.000000,0.000000,-0.153748,0.303024,0.000000,0.000000,0.002000,-0.002000,FlatInitial
01:41:25.790 PM 02/14/2016,Teleop Enabled,0,FALSE,0,NO ERROR,0.000000,0.000000,4000.000000,4000.000000,Speed,Speed,-0.150000,1.260000,1.930000,3.000000,102.000000,1,0,-0.006200,-0.006200,0,0.000000,0.000000,0.000000,-0.153748,0.303024,0.000000,0.001000,0.000000,0.002000,FlatInitial
01:41:25.891 PM 02/14/2016,Teleop Enabled,0,FALSE,0,NO ERROR,0.000000,0.000000,4000.000000,4000.000000,Speed,Speed,-0.150000,1.250000,1.940000,3.000000,101.000000,1,0,-0.006200,-0.006200,0,0.000000,0.000000,0.000000,-0.153748,0.303024,0.000000,0.000000,0.003000,0.000000,FlatInitial
01:41:25.992 PM 02/14/2016,Teleop Enabled,0,FALSE,0,NO ERROR,0.000000,0.000000,4000.000000,4000.000000,Speed,Speed,-0.150000,1.260000,1.940000,3.000000,102.000000,1,0,-0.006200,-0.006200,0,0.000000,0.000000,0.000000,-0.153748,0.303024,0.000000,-0.001000,0.001000,0.004000,FlatInitial
01:41:26.093 PM 02/14/2016,Teleop Enabled,0,FALSE,0,NO ERROR,0.000000,0.000000,4000.000000,4000.000000,Speed,Speed,-0.150000,1.260000,1.940000,3.000000,103.000000,1,0,-0.006200,-0.006200,0,0.000000,0.000000,0.000000,-0.153748,0.303024,0.000000,0.001000,0.000000,0.001000,FlatInitial
01:41:26.193 PM 02/14/2016,Teleop Enabled,0,FALSE,0,NO ERROR,0.000000,0.000000,4000.000000,4000.000000,Speed,Speed,-0.150000,1.260000,1.940000,3.000000,101.000000,1,0,-0.006200,-0.006200,0,0.000000,0.000000,0.000000,-0.153748,0.303024,0.000000,-0.002000,0.002000,0.005000,FlatInitial
01:41:26.294 PM 02/14/2016,Teleop Enabled,0,FALSE,0,NO ERROR,0.000000,0.000000,4000.000000,4000.000000,Speed,Speed,-0.150000,1.260000,1.940000,3.000000,103.000000,1,0,-0.006200,-0.006200,0,0.000000,0.000000,0.000000,-0.153748,0.303024,0.000000,0.000000,0.000000,0.003000,FlatInitial
01:41:26.395 PM 02/14/2016,Teleop Enabled,0,FALSE,0,NO ERROR,0.000000,0.000000,4000.000000,4000.000000,Speed,Speed,-0.150000,1.260000,1.930000,3.000000,101.000000,1,0,-0.006200,-0.006200,0,0.000000,0.000000,0.000000,-0.153748,0.303024,0.000000,-0.001000,0.000000,-0.002000,FlatInitial
01:41:26.496 PM 02/14/2016,Teleop Enabled,0,FALSE,0,NO ERROR,0.000000,0.000000,4000.000000,4000.000000,Speed,Speed,-0.150000,1.260000,1.940000,3.000000,104.000000,1,0,-0.006200,-0.006200,0,0.000000,0.000000,0.000000,-0.153748,0.303024,0.000000,-0.002000,0.000000,0.004000,FlatInitial
01:41:26.597 PM 02/14/2016,Teleop Enabled,0,FALSE,0,NO ERROR,0.000000,0.000000,4000.000000,4000.000000,Speed,Speed,-0.150000,1.260000,1.930000,3.000000,101.000000,1,0,-0.006200,-0.006200,0,0.000000,0.000000,0.000000,-0.153748,0.303024,0.000000,0.000000,0.002000,0.001000,FlatInitial
01:41:26.698 PM 02/14/2016,Teleop Enabled,0,FALSE,0,NO ERROR,0.000000,0.000000,4000.000000,4000.000000,Speed,Speed,-0.150000,1.260000,1.930000,3.000000,101.000000,1,0,-0.006200,-0.006200,0,0.000000,0.000000,0.000000,-0.153748,0.303024,0.000000,-0.001000,0.000000,0.001000,FlatInitial
01:41:26.799 PM 02/14/2016,Teleop Enabled,0,FALSE,0,NO ERROR,0.000000,0.000000,4000.000000,4000.000000,Speed,Speed,-0.150000,1.260000,1.930000,3.000000,102.000000,1,0,-0.006200,-0.006200,0,0.000000,0.000000,0.000000,-0.153748,0.303024,0.000000,0.000000,0.000000,0.000000,FlatInitial
01:41:26.901 PM 02/14/2016,Teleop Enabled,0,FALSE,0,NO ERROR,0.000000,0.000000,4000.000000,4000.000000,Speed,Speed,-0.150000,1.250000,1.930000,3.000000,101.000000,1,0,-0.006200,-0.006200,0,0.000000,0.000000,0.000000,-0.153748,0.303024,0.000000,-0.001000,0.000000,0.000000,FlatInitial
01:41:27.001 PM 02/14/2016,Teleop Enabled,0,FALSE,0,NO ERROR,0.000000,0.000000,4000.000000,4000.000000,Speed,Speed,-0.150000,1.250000,1.920000,3.000000,102.000000,1,0,-0.006200,-0.006200,0,0.000000,0.000000,0.000000,-0.153748,0.303024,0.000000,0.000000,0.000000,-0.001000,FlatInitial
01:41:27.102 PM 02/14/2016,Teleop Enabled,0,FALSE,0,NO ERROR,0.000000,0.000000,4000.000000,4000.000000,Speed,Speed,-0.140000,1.250000,1.930000,3.000000,104.000000,1,0,-0.006200,-0.006200,0,0.000000,0.000000,0.000000,-0.153748,0.303024,0.000000,0.001000,0.000000,0.003000,FlatInitial
01:41:27.204 PM 02/14/2016,Teleop Enabled,0,FALSE,0,NO ERROR,0.000000,0.000000,4000.000000,4000.000000,Speed,Speed,-0.140000,1.240000,1.930000,3.000000,103.000000,1,0,-0.006200,-0.006200,0,0.000000,0.000000,0.000000,-0.153748,0.303024,0.000000,0.000000,0.003000,0.000000,FlatInitial
01:41:27.306 PM 02/14/2016,Teleop Enabled,0,FALSE,0,NO ERROR,0.000000,0.000000,4000.000000,4000.000000,Speed,Speed,-0.140000,1.250000,1.930000,3.000000,102.000000,1,0,-0.006200,-0.006200,0,0.000000,0.000000,0.000000,-0.153748,0.303024,0.000000,-0.001000,0.001000,-0.002000,FlatInitial
01:41:27.406 PM 02/14/2016,Teleop Enabled,0,FALSE,0,NO ERROR,0.000000,0.000000,4000.000000,4000.000000,Speed,Speed,-0.150000,1.250000,1.930000,3.000000,103.000000,1,0,-0.006200,-0.006200,0,0.000000,0.000000,0.000000,-0.153748,0.303024,0.000000,0.000000,0.000000,0.003000,FlatInitial
01:41:27.506 PM 02/14/2016,Teleop Enabled,0,FALSE,0,NO ERROR,0.000000,0.000000,4000.000000,4000.000000,Speed,Speed,-0.150000,1.250000,1.910000,3.000000,102.000000,1,0,-0.006200,-0.006200,0,0.000000,0.000000,0.000000,-0.153748,0.303024,0.000000,0.000000,-0.002000,-0.002000,FlatInitial
01:41:27.607 PM 02/14/2016,Teleop Enabled,0,FALSE,0,NO ERROR,0.000000,0.000000,4000.000000,4000.000000,Speed,Speed,-0.140000,1.240000,1.910000,3.000000,102.000000,1,0,-0.006200,-0.006200,0,0.000000,0.000000,0.000000,-0.153748,0.303024,0.000000,0.000000,0.006000,-0.001000,FlatInitial
01:41:27.708 PM 02/14/2016,Teleop Enabled,0,FALSE,0,NO ERROR,0.000000,0.000000,4000.000000,4000.000000,Speed,Speed,-0.150000,1.250000,1.920000,3.000000,102.000000,1,0,-0.006200,-0.006200,0,0.000000,0.000000,0.000000,-0.153748,0.303024,0.000000,-0.003000,-0.003000,0.003000,FlatInitial
01:41:27.808 PM 02/14/2016,Teleop Enabled,0,FALSE,0,NO ERROR,0.000000,0.000000,4000.000000,4000.000000,Speed,Speed,-0.160000,1.250000,1.900000,3.000000,101.000000,1,0,-0.006200,-0.006200,0,0.000000,0.000000,0.000000,-0.153748,0.303024,0.000000,0.000000,-0.004000,0.000000,FlatInitial
01:41:27.908 PM 02/14/2016,Teleop Enabled,0,FALSE,0,NO ERROR,0.000000,0.000000,4000.000000,4000.000000,Speed,Speed,-0.140000,1.250000,1.900000,3.000000,102.000000,1,0,-0.006200,-0.006200,0,0.000000,0.000000,0.000000,-0.153748,0.303024,0.000000,0.004000,0.000000,0.004000,FlatInitial
01:41:28.009 PM 02/14/2016,Teleop Enabled,0,FALSE,0,NO ERROR,0.000000,0.000000,4000.000000,4000.000000,Speed,Speed,-0.160000,1.250000,1.880000,3.000000,101.000000,1,0,-0.006200,-0.006200,0,0.000000,0.000000,0.000000,-0.153748,0.303024,0.000000,0.000000,0.001000,0.005000,FlatInitial
01:41:28.111 PM 02/14/2016,Teleop Enabled,0,FALSE,0,NO ERROR,0.000000,0.000000,4000.000000,4000.000000,Speed,Speed,-0.160000,1.260000,1.860000,3.000000,101.000000,1,0,-0.006200,-0.006200,0,0.000000,0.000000,0.000000,-0.153748,0.303024,0.000000,-0.005000,0.001000,-0.002000,FlatInitial
01:41:28.210 PM 02/14/2016,Teleop Enabled,0,FALSE,0,NO ERROR,0.000000,0.000000,4000.000000,4000.000000,Speed,Speed,-0.150000,1.250000,1.860000,3.000000,102.000000,1,0,-0.006200,-0.006200,0,0.000000,0.000000,0.000000,-0.153748,0.303024,0.000000,0.000000,-0.005000,0.011000,FlatInitial
01:41:28.311 PM 02/14/2016,Teleop Enabled,0,FALSE,0,NO ERROR,0.000000,0.000000,4000.000000,4000.000000,Speed,Speed,-0.170000,1.250000,1.850000,3.000000,102.000000,1,0,-0.006200,-0.006200,0,0.000000,0.000000,0.000000,-0.153748,0.303024,0.000000,0.004000,0.002000,0.002000,FlatInitial
01:41:28.411 PM 02/14/2016,Teleop Enabled,0,FALSE,0,NO ERROR,0.000000,0.000000,4000.000000,4000.000000,Speed,Speed,-0.160000,1.240000,1.870000,3.000000,101.000000,1,0,-0.006200,-0.006200,0,0.000000,0.000000,0.000000,-0.153748,0.303024,0.000000,0.004000,0.007000,0.001000,FlatInitial
01:41:28.514 PM 02/14/2016,Teleop Enabled,0,FALSE,0,NO ERROR,0.000000,0.000000,4000.000000,4000.000000,Speed,Speed,-0.190000,1.260000,1.880000,3.000000,101.000000,1,0,-0.006200,-0.006200,0,0.000000,0.000000,0.000000,-0.153748,0.303024,0.000000,-0.004000,0.000000,0.012000,FlatInitial
01:41:28.614 PM 02/14/2016,Teleop Enabled,0,FALSE,0,NO ERROR,0.000000,0.000000,4000.000000,4000.000000,Speed,Speed,-0.160000,1.250000,1.830000,3.000000,104.000000,1,0,-0.006200,-0.006200,0,0.000000,0.000000,0.000000,-0.153748,0.303024,0.000000,0.002000,0.001000,0.002000,FlatInitial
01:41:28.714 PM 02/14/2016,Teleop Enabled,0,FALSE,0,NO ERROR,0.000000,0.000000,4000.000000,4000.000000,Speed,Speed,-0.170000,1.260000,1.810000,3.000000,101.000000,1,0,-0.006200,-0.006200,0,0.000000,0.000000,0.000000,-0.153748,0.303024,0.000000,0.005000,0.000000,0.004000,FlatInitial
01:41:28.814 PM 02/14/2016,Teleop Enabled,0,FALSE,0,NO ERROR,0.000000,0.000000,4000.000000,4000.000000,Speed,Speed,-0.200000,1.270000,1.790000,3.000000,101.000000,1,0,-0.006200,-0.006200,0,0.000000,0.000000,0.000000,-0.153748,0.303024,0.000000,-0.003000,0.008000,0.000000,FlatInitial
01:41:28.915 PM 02/14/2016,Teleop Enabled,0,FALSE,0,NO ERROR,0.000000,0.000000,4000.000000,4000.000000,Speed,Speed,-0.200000,1.270000,1.730000,3.000000,101.000000,1,0,-0.006200,-0.006200,0,0.000000,0.000000,0.000000,-0.153748,0.303024,0.000000,0.000000,0.000000,-0.002000,FlatInitial
01:41:29.016 PM 02/14/2016,Teleop Enabled,0,FALSE,0,NO ERROR,0.000000,0.000000,4000.000000,4000.000000,Speed,Speed,-0.220000,1.300000,1.680000,3.000000,102.000000,1,0,-0.006200,-0.006200,0,0.000000,0.000000,0.000000,-0.153748,0.303024,0.000000,-0.002000,-0.003000,0.007000,FlatInitial
01:41:29.117 PM 02/14/2016,Teleop Enabled,0,FALSE,0,NO ERROR,0.000000,0.000000,4000.000000,4000.000000,Speed,Speed,-0.190000,1.300000,1.620000,3.000000,103.000000,1,0,-0.006200,-0.006200,0,0.000000,0.000000,0.000000,-0.153748,0.303024,0.000000,0.009000,0.002000,-0.004000,FlatInitial
01:41:29.218 PM 02/14/2016,Teleop Enabled,0,FALSE,0,NO ERROR,0.000000,0.000000,4000.000000,4000.000000,Speed,Speed,-0.200000,1.320000,1.560000,3.000000,101.000000,1,0,-0.006200,-0.006200,0,0.000000,0.000000,0.000000,-0.153748,0.303024,0.000000,-0.005000,0.003000,0.006000,FlatInitial
01:41:29.319 PM 02/14/2016,Teleop Enabled,0,FALSE,0,NO ERROR,0.000000,0.000000,4000.000000,4000.000000,Speed,Speed,-0.190000,1.350000,1.490000,3.000000,103.000000,1,0,-0.006200,-0.006200,0,0.000000,0.000000,0.000000,-0.153748,0.303024,0.000000,0.017000,0.002000,0.000000,FlatInitial
01:41:29.419 PM 02/14/2016,Teleop Enabled,0,FALSE,0,NO ERROR,0.000000,0.000000,4000.000000,4000.000000,Speed,Speed,-0.260000,1.350000,1.450000,3.000000,100.000000,1,0,-0.006200,-0.006200,0,0.000000,0.000000,0.000000,-0.153748,0.303024,0.000000,-0.006000,-0.001000,0.004000,FlatInitial
01:41:29.519 PM 02/14/2016,Teleop Enabled,0,FALSE,0,NO ERROR,0.000000,0.000000,4000.000000,4000.000000,Speed,Speed,-0.260000,1.340000,1.390000,3.000000,100.000000,1,0,-0.006200,-0.006200,0,0.000000,0.000000,0.000000,-0.153748,0.303024,0.000000,0.000000,-0.004000,0.000000,FlatInitial
01:41:29.619 PM 02/14/2016,Teleop Enabled,0,FALSE,0,NO ERROR,0.000000,0.000000,4000.000000,4000.000000,Speed,Speed,-0.200000,1.330000,1.380000,3.000000,102.000000,1,0,-0.006200,-0.006200,0,0.000000,0.000000,0.000000,-0.153748,0.303024,0.000000,0.007000,0.008000,0.000000,FlatInitial
01:41:29.720 PM 02/14/2016,Teleop Enabled,0,FALSE,0,NO ERROR,0.000000,0.000000,4000.000000,4000.000000,Speed,Speed,-0.230000,1.360000,1.360000,3.000000,101.000000,1,0,-0.006200,-0.006200,0,0.000000,0.000000,0.000000,-0.153748,0.303024,0.000000,-0.007000,0.003000,-0.003000,FlatInitial
01:41:29.820 PM 02/14/2016,Teleop Enabled,0,FALSE,0,NO ERROR,0.000000,0.000000,4000.000000,4000.000000,Speed,Speed,-0.250000,1.350000,1.320000,3.000000,101.000000,1,0,-0.006200,-0.006200,0,0.000000,0.000000,0.000000,-0.153748,0.303024,0.000000,0.002000,-0.005000,-0.005000,FlatInitial
01:41:29.920 PM 02/14/2016,Teleop Enabled,0,FALSE,0,NO ERROR,0.000000,0.000000,4000.000000,4000.000000,Speed,Speed,-0.260000,1.350000,1.300000,3.000000,105.000000,1,0,-0.006200,-0.006200,0,0.000000,0.000000,0.000000,-0.153748,0.303024,0.000000,-0.003000,0.002000,-0.002000,FlatInitial
01:41:30.021 PM 02/14/2016,Teleop Enabled,0,FALSE,0,NO ERROR,0.000000,0.000000,4000.000000,4000.000000,Speed,Speed,-0.240000,1.360000,1.290000,3.000000,100.000000,1,0,-0.006200,-0.006200,0,0.000000,0.000000,0.000000,-0.153748,0.303024,0.000000,-0.004000,0.000000,0.009000,FlatInitial
01:41:30.122 PM 02/14/2016,Teleop Enabled,0,FALSE,0,NO ERROR,0.000000,0.000000,4000.000000,4000.000000,Speed,Speed,-0.250000,1.360000,1.240000,3.000000,101.000000,1,0,-0.006200,-0.006200,0,0.000000,0.000000,0.000000,-0.153748,0.303024,0.000000,0.004000,0.006000,-0.006000,FlatInitial
01:41:30.224 PM 02/14/2016,Teleop Enabled,0,FALSE,0,NO ERROR,0.000000,0.000000,4000.000000,4000.000000,Speed,Speed,-0.270000,1.350000,1.260000,3.000000,102.000000,1,0,-0.006200,-0.006200,0,0.000000,0.000000,0.000000,-0.153748,0.303024,0.000000,-0.001000,-0.005000,0.014000,FlatInitial
01:41:30.324 PM 02/14/2016,Teleop Enabled,0,FALSE,0,NO ERROR,0.000000,0.000000,4000.000000,4000.000000,Speed,Speed,-0.230000,1.350000,1.170000,3.000000,102.000000,1,0,-0.006200,-0.006200,0,0.003448,0.000000,0.000000,-0.153717,0.303024,0.000000,0.013000,-0.015000,-0.028000,FlatInitial
01:41:30.424 PM 02/14/2016,Teleop Enabled,0,FALSE,0,NO ERROR,0.000000,0.000000,4000.000000,4000.000000,Speed,Speed,-0.370000,1.370000,1.220000,3.000000,101.000000,1,0,-0.006200,-0.006200,0,0.000000,0.003479,0.000000,-0.153549,0.303055,0.000000,-0.005000,0.021000,0.010000,FlatInitial
01:41:30.525 PM 02/14/2016,Teleop Enabled,0,FALSE,0,NO ERROR,0.000000,0.000000,4000.000000,4000.000000,Speed,Speed,-0.330000,1.320000,1.230000,3.000000,101.000000,1,0,-0.006200,-0.006200,0,0.000000,0.000000,0.000000,-0.153549,0.303253,0.000000,0.003000,0.011000,0.006000,FlatInitial
01:41:30.625 PM 02/14/2016,Teleop Enabled,0,FALSE,0,NO ERROR,0.000000,0.000000,4000.000000,4000.000000,Speed,Speed,-0.270000,1.360000,1.210000,3.000000,102.000000,1,0,-0.006200,-0.006200,0,0.000000,0.000000,0.000000,-0.153549,0.303253,0.000000,0.007000,-0.001000,0.003000,FlatInitial
01:41:30.725 PM 02/14/2016,Teleop Enabled,0,FALSE,0,NO ERROR,0.000000,0.000000,4000.000000,4000.000000,Speed,Speed,-0.350000,1.360000,1.210000,3.000000,106.000000,1,0,-0.006200,-0.006200,0,0.000000,0.000000,0.000000,-0.153549,0.303253,0.000000,-0.003000,-0.002000,0.007000,FlatInitial
01:41:30.826 PM 02/14/2016,Teleop Enabled,0,FALSE,0,NO ERROR,0.000000,0.000000,4000.000000,4000.000000,Speed,Speed,-0.350000,1.350000,1.170000,3.000000,102.000000,1,0,-0.006200,-0.006200,0,0.000000,0.000000,0.000000,-0.153549,0.303253,0.000000,0.002000,0.001000,0.005000,FlatInitial
01:41:30.927 PM 02/14/2016,Teleop Enabled,0,FALSE,0,NO ERROR,0.000000,0.000000,4000.000000,4000.000000,Speed,Speed,-0.340000,1.370000,1.160000,3.000000,102.000000,1,0,-0.006200,-0.006200,0,0.000000,0.000000,0.000000,-0.153549,0.303253,0.000000,0.002000,-0.001000,0.006000,FlatInitial
01:41:31.027 PM 02/14/2016,Teleop Enabled,0,FALSE,0,NO ERROR,0.000000,0.000000,4000.000000,4000.000000,Speed,Speed,-0.330000,1.350000,1.150000,3.000000,101.000000,1,0,-0.006200,-0.006200,0,0.000000,0.000000,0.000000,-0.153549,0.303253,0.000000,0.000000,0.004000,0.000000,FlatInitial
01:41:31.127 PM 02/14/2016,Teleop Enabled,0,FALSE,0,NO ERROR,0.000000,0.000000,4000.000000,4000.000000,Speed,Speed,-0.320000,1.350000,1.170000,3.000000,103.000000,1,0,-0.006200,-0.006200,0,0.000000,0.000000,0.000000,-0.153549,0.303253,0.000000,0.001000,0.001000,-0.007000,FlatInitial
01:41:31.228 PM 02/14/2016,Teleop Enabled,0,FALSE,0,NO ERROR,0.000000,0.000000,4000.000000,4000.000000,Speed,Speed,-0.320000,1.350000,1.190000,3.000000,101.000000,1,0,-0.006200,-0.006200,0,0.000000,0.000000,0.000000,-0.153549,0.303253,0.000000,-0.004000,-0.003000,0.001000,FlatInitial
01:41:31.328 PM 02/14/2016,Teleop Enabled,0,FALSE,0,NO ERROR,0.000000,0.000000,4000.000000,4000.000000,Speed,Speed,-0.270000,1.340000,1.180000,3.000000,103.000000,1,0,-0.006200,-0.006200,0,0.000000,0.000000,0.000000,-0.153549,0.303253,0.000000,0.003000,-0.005000,0.008000,FlatInitial
01:41:31.428 PM 02/14/2016,Teleop Enabled,0,FALSE,0,NO ERROR,0.000000,0.000000,4000.000000,4000.000000,Speed,Speed,-0.280000,1.370000,1.170000,3.000000,103.000000,1,0,-0.006200,-0.006200,0,0.000000,0.000000,0.000000,-0.153549,0.303253,0.000000,0.000000,0.001000,0.004000,FlatInitial
01:41:31.528 PM 02/14/2016,Teleop Enabled,0,FALSE,0,NO ERROR,0.000000,0.000000,4000.000000,4000.000000,Speed,Speed,-0.320000,1.330000,1.210000,3.000000,100.000000,1,0,-0.006200,-0.006200,0,0.000000,0.000000,0.000000,-0.153549,0.303253,0.000000,-0.001000,-0.004000,-0.008000,FlatInitial
01:41:31.629 PM 02/14/2016,Teleop Enabled,0,FALSE,0,NO ERROR,0.000000,0.000000,4000.000000,4000.000000,Speed,Speed,-0.310000,1.350000,1.230000,3.000000,102.000000,1,0,-0.006200,-0.006200,0,0.000000,0.000000,0.000000,-0.153549,0.303253,0.000000,0.005000,0.006000,0.008000,FlatInitial
01:41:31.728 PM 02/14/2016,Teleop Enabled,0,FALSE,0,NO ERROR,0.000000,0.000000,4000.000000,4000.000000,Speed,Speed,-0.330000,1.340000,1.250000,3.000000,102.000000,1,0,-0.006200,-0.006200,0,0.000000,0.000000,0.000000,-0.153549,0.303253,0.000000,-0.003000,0.003000,0.007000,FlatInitial
01:41:31.828 PM 02/14/2016,Teleop Enabled,0,FALSE,0,NO ERROR,0.000000,0.000000,4000.000000,4000.000000,Speed,Speed,-0.300000,1.340000,1.250000,3.000000,102.000000,1,0,-0.006200,-0.006200,0,0.000000,0.000000,0.000000,-0.153549,0.303253,0.000000,0.008000,-0.002000,0.009000,FlatInitial
01:41:31.929 PM 02/14/2016,Teleop Enabled,0,FALSE,0,NO ERROR,0.000000,0.000000,4000.000000,4000.000000,Speed,Speed,-0.320000,1.340000,1.290000,3.000000,104.000000,1,0,-0.006200,-0.006200,0,0.000000,0.000000,0.000000,-0.153549,0.303253,0.000000,-0.004000,0.007000,0.000000,FlatInitial
01:41:32.029 PM 02/14/2016,Teleop Enabled,0,FALSE,0,NO ERROR,0.000000,0.000000,4000.000000,4000.000000,Speed,Speed,-0.260000,1.290000,1.520000,3.000000,100.000000,1,0,-0.006200,-0.006200,0,0.000000,0.002655,0.000000,-0.153549,0.303482,0.000000,-0.005000,-0.074000,-0.069000,FlatInitial
01:41:32.128 PM 02/14/2016,Teleop Enabled,0,FALSE,0,NO ERROR,0.000000,0.000000,4000.000000,4000.000000,Speed,Speed,-0.280000,1.290000,2.050000,3.000000,102.000000,1,0,-0.006200,-0.006200,0,0.006683,-0.045807,0.000000,-0.153381,0.302002,0.000000,-0.043000,-0.023000,-0.123000,FlatInitial
01:41:32.229 PM 02/14/2016,Teleop Enabled,0,FALSE,0,NO ERROR,0.000000,0.000000,4000.000000,4000.000000,Speed,Speed,-0.150000,1.200000,1.740000,3.000000,100.000000,1,0,-0.006200,-0.006200,0,0.000000,-0.042786,0.000000,-0.153763,0.299454,0.000000,0.030000,0.083000,-0.090000,FlatInitial
01:41:32.329 PM 02/14/2016,Teleop Enabled,0,FALSE,0,NO ERROR,0.000000,0.000000,4000.000000,4000.000000,Speed,Speed,-0.100000,1.240000,2.260000,3.000000,101.000000,1,0,-0.006200,-0.006200,0,0.000000,0.005249,0.000000,-0.153458,0.298981,0.000000,-0.010000,0.071000,-0.001000,FlatInitial
01:41:32.429 PM 02/14/2016,Teleop Enabled,0,FALSE,0,NO ERROR,0.000000,0.000000,4000.000000,4000.000000,Speed,Speed,-0.150000,1.270000,1.990000,3.000000,101.000000,1,0,-0.006200,-0.006200,0,0.000885,0.055695,0.000000,-0.153549,0.301407,0.000000,0.023000,0.010000,-0.161000,FlatInitial
01:41:32.530 PM 02/14/2016,Teleop Enabled,0,FALSE,0,NO ERROR,0.000000,0.000000,4000.000000,4000.000000,Speed,Speed,-0.160000,1.230000,2.250000,3.000000,101.000000,1,0,-0.006200,-0.006200,0,0.006531,-0.057877,0.000000,-0.152893,0.300003,0.000000,-0.012000,-0.047000,-0.135000,FlatInitial
01:41:32.630 PM 02/14/2016,Teleop Enabled,0,FALSE,0,NO ERROR,0.000000,0.000000,4000.000000,4000.000000,Speed,Speed,-0.070000,1.290000,1.840000,3.000000,104.000000,1,0,-0.006200,-0.006200,0,0.004227,-0.002823,0.000000,-0.152817,0.299332,0.000000,0.026000,-0.027000,-0.022000,FlatInitial
01:41:32.729 PM 02/14/2016,Teleop Enabled,0,FALSE,0,NO ERROR,0.000000,0.000000,4000.000000,4000.000000,Speed,Speed,-0.110000,1.230000,1.940000,3.000000,102.000000,1,0,-0.006200,-0.006200,0,-0.010880,0.000000,0.000000,-0.152771,0.298691,0.000000,-0.022000,-0.015000,0.041000,FlatInitial
01:41:32.829 PM 02/14/2016,Teleop Enabled,0,FALSE,0,NO ERROR,0.000000,0.000000,4000.000000,4000.000000,Speed,Speed,-0.100000,1.240000,1.980000,3.000000,102.000000,1,0,-0.006200,-0.006200,0,0.000000,0.000000,0.000000,-0.152893,0.298691,0.000000,0.002000,0.002000,0.027000,FlatInitial
01:41:32.930 PM 02/14/2016,Teleop Enabled,0,FALSE,0,NO ERROR,0.000000,0.000000,4000.000000,4000.000000,Speed,Speed,-0.100000,1.210000,1.990000,3.000000,103.000000,1,0,-0.006200,-0.006200,0,0.000000,0.010513,0.000000,-0.152893,0.298904,0.000000,0.004000,0.016000,0.019000,FlatInitial
01:41:33.029 PM 02/14/2016,Teleop Enabled,0,FALSE,0,NO ERROR,0.000000,0.000000,4000.000000,4000.000000,Speed,Speed,-0.110000,1.240000,2.090000,3.000000,102.000000,1,0,-0.006200,-0.006200,0,0.000000,0.000000,0.000000,-0.152893,0.298904,0.000000,-0.011000,-0.001000,0.009000,FlatInitial
01:41:33.130 PM 02/14/2016,Teleop Enabled,0,FALSE,0,NO ERROR,0.000000,0.000000,4000.000000,4000.000000,Speed,Speed,-0.130000,1.250000,2.020000,3.000000,101.000000,1,0,-0.006200,-0.006200,0,0.000000,0.000000,0.000000,-0.152893,0.298904,0.000000,-0.011000,-0.001000,0.009000,FlatInitial
01:41:33.229 PM 02/14/2016,Teleop Enabled,0,FALSE,0,NO ERROR,0.000000,0.000000,4000.000000,4000.000000,Speed,Speed,-0.160000,1.250000,2.050000,3.000000,101.000000,1,0,-0.006200,-0.006200,0,0.000000,0.000000,0.000000,-0.152893,0.298904,0.000000,-0.001000,-0.012000,0.007000,FlatInitial
01:41:33.330 PM 02/14/2016,Teleop Enabled,0,FALSE,0,NO ERROR,0.000000,0.000000,4000.000000,4000.000000,Speed,Speed,-0.170000,1.260000,2.020000,3.000000,101.000000,1,0,-0.006200,-0.006200,0,0.000000,0.000000,0.000000,-0.152893,0.298904,0.000000,0.002000,-0.009000,0.001000,FlatInitial
01:41:33.430 PM 02/14/2016,Teleop Enabled,0,FALSE,0,NO ERROR,0.000000,0.000000,4000.000000,4000.000000,Speed,Speed,-0.150000,1.250000,2.010000,3.000000,103.000000,1,0,-0.006200,-0.006200,0,0.000000,0.000000,0.000000,-0.152893,0.298904,0.000000,0.000000,-0.006000,-0.001000,FlatInitial
01:41:33.531 PM 02/14/2016,Teleop Enabled,0,FALSE,0,NO ERROR,0.000000,0.000000,4000.000000,4000.000000,Speed,Speed,-0.140000,1.250000,1.960000,3.000000,102.000000,1,0,-0.006200,-0.006200,0,0.000000,-0.011963,0.000000,-0.152893,0.298660,0.000000,0.004000,0.005000,0.010000,FlatInitial
01:41:33.631 PM 02/14/2016,Teleop Enabled,0,FALSE,0,NO ERROR,0.000000,0.000000,4000.000000,4000.000000,Speed,Speed,-0.090000,1.270000,1.730000,3.000000,101.000000,1,0,-0.006200,-0.006200,0,-0.004944,0.022919,0.000000,-0.153091,0.299179,0.000000,0.004000,0.005000,0.010000,FlatInitial
01:41:33.731 PM 02/14/2016,Teleop Enabled,0,FALSE,0,NO ERROR,0.000000,0.000000,4000.000000,4000.000000,Speed,Speed,-0.220000,1.380000,1.580000,3.000000,102.000000,1,0,-0.006200,-0.006200,0,0.000000,0.000000,0.000000,-0.152740,0.299438,0.000000,0.022000,0.020000,-0.032000,FlatInitial
01:41:33.832 PM 02/14/2016,Teleop Enabled,0,FALSE,0,NO ERROR,0.000000,0.000000,4000.000000,4000.000000,Speed,Speed,-0.360000,1.260000,1.530000,3.000000,104.000000,1,0,-0.006200,-0.006200,0,0.000000,0.000000,0.000000,-0.152740,0.299438,0.000000,-0.011000,-0.014000,-0.036000,FlatInitial
01:41:33.932 PM 02/14/2016,Teleop Enabled,0,FALSE,0,NO ERROR,0.000000,0.000000,4000.000000,4000.000000,Speed,Speed,-0.230000,1.290000,1.400000,3.000000,102.000000,1,0,-0.006200,-0.006200,0,0.008453,0.000000,0.000000,-0.153320,0.298019,0.000000,-0.015000,-0.023000,0.000000,FlatInitial
01:41:34.032 PM 02/14/2016,Teleop Enabled,0,FALSE,0,NO ERROR,0.000000,0.000000,4000.000000,4000.000000,Speed,Speed,-0.280000,1.340000,1.380000,3.000000,102.000000,1,0,-0.006200,-0.006200,0,-0.003113,0.010071,0.000000,-0.153229,0.298157,0.000000,0.017000,-0.017000,-0.004000,FlatInitial
01:41:34.133 PM 02/14/2016,Teleop Enabled,0,FALSE,0,NO ERROR,0.000000,0.000000,4000.000000,4000.000000,Speed,Speed,-0.220000,1.280000,1.440000,3.000000,102.000000,1,0,-0.006200,-0.006200,0,-0.003113,0.010071,0.000000,-0.153229,0.298157,0.000000,-0.021000,0.030000,-0.001000,FlatInitial
01:41:34.234 PM 02/14/2016,Teleop Enabled,0,FALSE,0,NO ERROR,0.000000,0.000000,4000.000000,4000.000000,Speed,Speed,-0.210000,1.310000,1.350000,3.000000,101.000000,1,0,-0.006200,-0.006200,0,0.000000,0.000000,0.000000,-0.153412,0.298309,0.000000,0.014000,-0.008000,0.013000,FlatInitial
01:41:34.335 PM 02/14/2016,Teleop Enabled,0,FALSE,0,NO ERROR,0.000000,0.000000,4000.000000,4000.000000,Speed,Speed,-0.210000,1.310000,1.350000,3.000000,103.000000,1,0,-0.006200,-0.006200,0,0.000000,0.000000,0.000000,-0.153412,0.298309,0.000000,0.004000,0.002000,-0.013000,FlatInitial
01:41:34.435 PM 02/14/2016,Teleop Enabled,0,FALSE,0,NO ERROR,0.000000,0.000000,4000.000000,4000.000000,Speed,Speed,-0.210000,1.290000,1.290000,3.000000,101.000000,1,0,-0.006200,-0.006200,0,0.000000,0.000000,0.000000,-0.153412,0.298309,0.000000,-0.004000,-0.004000,-0.002000,FlatInitial
01:41:34.536 PM 02/14/2016,Teleop Enabled,0,FALSE,0,NO ERROR,0.000000,0.000000,4000.000000,4000.000000,Speed,Speed,-0.250000,1.300000,1.260000,3.000000,101.000000,1,0,-0.006200,-0.006200,0,0.000000,0.000000,0.000000,-0.153412,0.298309,0.000000,0.007000,-0.012000,0.000000,FlatInitial
01:41:34.636 PM 02/14/2016,Teleop Enabled,0,FALSE,0,NO ERROR,0.000000,0.000000,4000.000000,4000.000000,Speed,Speed,-0.220000,1.280000,1.280000,3.000000,101.000000,1,0,-0.006200,-0.006200,0,0.000000,0.000000,0.000000,-0.153412,0.298309,0.000000,-0.003000,0.005000,-0.005000,FlatInitial
01:41:34.736 PM 02/14/2016,Teleop Enabled,0,FALSE,0,NO ERROR,0.000000,0.000000,4000.000000,4000.000000,Speed,Speed,-0.190000,1.310000,1.260000,3.000000,101.000000,1,0,-0.006200,-0.006200,0,0.000000,0.000000,0.000000,-0.153412,0.298309,0.000000,-0.006000,-0.004000,0.002000,FlatInitial
01:41:34.837 PM 02/14/2016,Teleop Enabled,0,FALSE,0,NO ERROR,0.000000,0.000000,4000.000000,4000.000000,Speed,Speed,-0.240000,1.330000,1.240000,3.000000,103.000000,1,0,-0.006200,-0.006200,0,0.000000,0.000000,0.000000,-0.153412,0.298309,0.000000,0.005000,-0.007000,-0.001000,FlatInitial
01:41:34.939 PM 02/14/2016,Teleop Enabled,0,FALSE,0,NO ERROR,0.000000,0.000000,4000.000000,4000.000000,Speed,Speed,-0.240000,1.330000,1.240000,3.000000,102.000000,1,0,-0.006200,-0.006200,0,0.000000,0.000000,0.000000,-0.153412,0.298309,0.000000,0.002000,-0.001000,-0.004000,FlatInitial
01:41:35.039 PM 02/14/2016,Teleop Enabled,0,FALSE,0,NO ERROR,0.000000,0.000000,4000.000000,4000.000000,Speed,Speed,-0.210000,1.310000,1.250000,3.000000,102.000000,1,0,-0.006200,-0.006200,0,0.000000,0.000000,0.000000,-0.153412,0.298309,0.000000,-0.002000,-0.005000,0.022000,FlatInitial
01:41:35.140 PM 02/14/2016,Teleop Enabled,0,FALSE,0,NO ERROR,0.000000,0.000000,4000.000000,4000.000000,Speed,Speed,-0.200000,1.300000,1.310000,3.000000,103.000000,1,0,-0.006200,-0.006200,0,0.000000,0.000000,0.000000,-0.153412,0.298309,0.000000,-0.001000,0.000000,0.012000,FlatInitial
01:41:35.239 PM 02/14/2016,Teleop Enabled,0,FALSE,0,NO ERROR,0.000000,0.000000,4000.000000,4000.000000,Speed,Speed,-0.160000,1.290000,1.360000,3.000000,103.000000,1,0,-0.006200,-0.006200,0,0.000000,0.000000,0.000000,-0.153412,0.298309,0.000000,0.000000,-0.007000,-0.006000,FlatInitial
01:41:35.340 PM 02/14/2016,Teleop Enabled,0,FALSE,0,NO ERROR,0.000000,0.000000,4000.000000,4000.000000,Speed,Speed,-0.080000,1.290000,1.480000,3.000000,101.000000,1,0,-0.006200,-0.006200,0,0.000000,0.000000,0.000000,-0.153412,0.298309,0.000000,0.000000,-0.007000,-0.006000,FlatInitial
01:41:35.441 PM 02/14/2016,Teleop Enabled,0,FALSE,0,NO ERROR,0.000000,0.000000,4000.000000,4000.000000,Speed,Speed,-0.090000,1.320000,1.740000,3.000000,101.000000,1,0,-0.006200,-0.006200,0,0.000000,0.000000,0.000000,-0.153412,0.298309,0.000000,0.010000,-0.018000,-0.025000,FlatInitial
01:41:35.540 PM 02/14/2016,Teleop Enabled,0,FALSE,0,NO ERROR,0.000000,0.000000,4000.000000,4000.000000,Speed,Speed,-0.030000,1.220000,1.960000,3.000000,101.000000,1,0,-0.006200,-0.006200,0,0.008392,-0.022980,0.000000,-0.153214,0.297775,0.000000,-0.012000,-0.026000,0.032000,FlatInitial
01:41:35.643 PM 02/14/2016,Teleop Enabled,0,FALSE,0,NO ERROR,0.000000,0.000000,4000.000000,4000.000000,Speed,Speed,0.070000,1.220000,1.940000,3.000000,102.000000,1,0,-0.006200,-0.006200,0,0.000000,0.000000,0.000000,-0.153214,0.296875,0.000000,-0.001000,-0.006000,0.008000,FlatInitial
01:41:35.745 PM 02/14/2016,Teleop Enabled,0,FALSE,0,NO ERROR,0.000000,0.000000,4000.000000,4000.000000,Speed,Speed,0.070000,1.220000,1.940000,3.000000,101.000000,1,0,-0.006200,-0.006200,0,0.000000,0.000000,0.000000,-0.153214,0.296875,0.000000,0.005000,0.005000,0.003000,FlatInitial
01:41:35.845 PM 02/14/2016,Teleop Enabled,0,FALSE,0,NO ERROR,0.000000,0.000000,4000.000000,4000.000000,Speed,Speed,-0.030000,1.240000,2.030000,3.000000,101.000000,1,0,-0.006200,-0.006200,0,0.000000,0.000000,0.000000,-0.153214,0.296875,0.000000,0.002000,0.005000,0.003000,FlatInitial
01:41:35.946 PM 02/14/2016,Teleop Enabled,0,FALSE,0,NO ERROR,0.000000,0.000000,4000.000000,4000.000000,Speed,Speed,0.000000,1.230000,2.030000,3.000000,103.000000,1,0,-0.006200,-0.006200,0,0.000000,0.000000,0.000000,-0.153214,0.296875,0.000000,0.000000,0.002000,0.002000,FlatInitial
01:41:36.048 PM 02/14/2016,Teleop Enabled,0,FALSE,0,NO ERROR,0.000000,0.000000,4000.000000,4000.000000,Speed,Speed,0.000000,1.230000,2.030000,3.000000,100.000000,1,0,-0.006200,-0.006200,0,0.000000,0.000000,0.000000,-0.153214,0.296875,0.000000,0.003000,-0.010000,0.002000,FlatInitial
01:41:36.148 PM 02/14/2016,Teleop Enabled,0,FALSE,0,NO ERROR,0.000000,0.000000,4000.000000,4000.000000,Speed,Speed,0.000000,1.220000,2.010000,3.000000,103.000000,1,0,-0.006200,-0.006200,0,0.000000,0.000000,0.000000,-0.153214,0.296875,0.000000,-0.001000,-0.007000,-0.003000,FlatInitial
01:41:36.248 PM 02/14/2016,Teleop Enabled,0,FALSE,0,NO ERROR,0.000000,0.000000,4000.000000,4000.000000,Speed,Speed,-0.010000,1.220000,2.030000,3.000000,101.000000,1,0,-0.006200,-0.006200,0,0.000000,0.000000,0.000000,-0.153214,0.296875,0.000000,-0.002000,-0.007000,0.001000,FlatInitial
01:41:36.348 PM 02/14/2016,Teleop Enabled,0,FALSE,0,NO ERROR,0.000000,0.000000,4000.000000,4000.000000,Speed,Speed,-0.010000,1.210000,2.040000,3.000000,102.000000,1,0,-0.006200,-0.006200,0,0.000000,0.000000,0.000000,-0.153214,0.296875,0.000000,0.004000,-0.004000,-0.001000,FlatInitial
01:41:36.450 PM 02/14/2016,Teleop Enabled,0,FALSE,0,NO ERROR,0.000000,0.000000,4000.000000,4000.000000,Speed,Speed,-0.020000,1.200000,2.080000,3.000000,102.000000,1,0,-0.006200,-0.006200,0,0.000000,0.000000,0.000000,-0.153214,0.296875,0.000000,-0.002000,0.006000,0.003000,FlatInitial
01:41:36.551 PM 02/14/2016,Teleop Enabled,0,FALSE,0,NO ERROR,0.000000,0.000000,4000.000000,4000.000000,Speed,Speed,0.010000,1.210000,2.090000,3.000000,101.000000,1,0,-0.006200,-0.006200,0,0.000000,0.000000,0.000000,-0.153214,0.296875,0.000000,0.002000,-0.001000,-0.003000,FlatInitial
01:41:36.651 PM 02/14/2016,Teleop Enabled,0,FALSE,0,NO ERROR,0.000000,0.000000,4000.000000,4000.000000,Speed,Speed,-0.030000,1.210000,2.090000,3.000000,102.000000,1,0,-0.006200,-0.006200,0,0.000000,0.000000,0.000000,-0.153214,0.296875,0.000000,0.003000,-0.004000,-0.003000,FlatInitial
01:41:36.751 PM 02/14/2016,Teleop Enabled,0,FALSE,0,NO ERROR,0.000000,0.000000,4000.000000,4000.000000,Speed,Speed,-0.010000,1.200000,2.090000,3.000000,101.000000,1,0,-0.006200,-0.006200,0,0.000000,0.000000,0.000000,-0.153214,0.296875,0.000000,-0.003000,-0.006000,0.000000,FlatInitial
01:41:36.851 PM 02/14/2016,Teleop Enabled,0,FALSE,0,NO ERROR,0.000000,0.000000,4000.000000,4000.000000,Speed,Speed,0.000000,1.200000,2.070000,3.000000,102.000000,1,0,-0.006200,-0.006200,0,0.000000,0.000000,0.000000,-0.153214,0.296875,0.000000,0.000000,-0.008000,0.002000,FlatInitial
01:41:36.951 PM 02/14/2016,Teleop Enabled,0,FALSE,0,NO ERROR,0.000000,0.000000,4000.000000,4000.000000,Speed,Speed,0.000000,1.210000,2.070000,3.000000,102.000000,1,0,-0.006200,-0.006200,0,0.000000,0.000000,0.000000,-0.153214,0.296875,0.000000,0.000000,-0.003000,0.003000,FlatInitial
01:41:37.051 PM 02/14/2016,Teleop Enabled,0,FALSE,0,NO ERROR,0.000000,0.000000,4000.000000,4000.000000,Speed,Speed,0.000000,1.200000,2.090000,3.000000,101.000000,1,0,-0.006200,-0.006200,0,0.000000,0.000000,0.000000,-0.153214,0.296875,0.000000,0.001000,-0.004000,-0.002000,FlatInitial
01:41:37.152 PM 02/14/2016,Teleop Enabled,0,FALSE,0,NO ERROR,0.000000,0.000000,4000.000000,4000.000000,Speed,Speed,0.010000,1.200000,2.090000,3.000000,104.000000,1,0,-0.006200,-0.006200,0,0.000000,0.000000,0.000000,-0.153214,0.296875,0.000000,0.003000,-0.004000,0.001000,FlatInitial
01:41:37.252 PM 02/14/2016,Teleop Enabled,0,FALSE,0,NO ERROR,0.000000,0.000000,4000.000000,4000.000000,Speed,Speed,0.000000,1.210000,2.100000,3.000000,104.000000,1,0,-0.006200,-0.006200,0,0.000000,0.000000,0.000000,-0.153214,0.296875,0.000000,0.000000,-0.004000,-0.001000,FlatInitial
01:41:37.352 PM 02/14/2016,Teleop Enabled,0,FALSE,0,NO ERROR,0.000000,0.000000,4000.000000,4000.000000,Speed,Speed,0.010000,1.200000,2.080000,3.000000,103.000000,1,0,-0.006200,-0.006200,0,0.000000,0.000000,0.000000,-0.153214,0.296875,0.000000,0.000000,-0.007000,-0.001000,FlatInitial
01:41:37.451 PM 02/14/2016,Teleop Enabled,0,FALSE,0,NO ERROR,0.000000,0.000000,4000.000000,4000.000000,Speed,Speed,0.010000,1.200000,2.080000,3.000000,103.000000,1,0,-0.006200,-0.006200,0,0.000000,0.000000,0.000000,-0.153214,0.296875,0.000000,0.002000,-0.003000,0.000000,FlatInitial
01:41:37.552 PM 02/14/2016,Teleop Enabled,0,FALSE,0,NO ERROR,0.000000,0.000000,4000.000000,4000.000000,Speed,Speed,0.020000,1.200000,2.080000,3.000000,100.000000,1,0,-0.006200,-0.006200,0,0.000000,0.000000,0.000000,-0.153214,0.296875,0.000000,0.001000,-0.001000,-0.002000,FlatInitial
01:41:37.653 PM 02/14/2016,Teleop Enabled,0,FALSE,0,NO ERROR,0.000000,0.000000,4000.000000,4000.000000,Speed,Speed,0.020000,1.200000,2.080000,3.000000,102.000000,1,0,-0.006200,-0.006200,0,0.000000,0.000000,0.000000,-0.153214,0.296875,0.000000,0.002000,-0.005000,0.000000,FlatInitial
01:41:37.753 PM 02/14/2016,Teleop Enabled,0,FALSE,0,NO ERROR,0.000000,0.000000,4000.000000,4000.000000,Speed,Speed,0.030000,1.200000,2.080000,3.000000,104.000000,1,0,-0.006200,-0.006200,0,0.000000,0.000000,0.000000,-0.153214,0.296875,0.000000,0.000000,-0.006000,0.001000,FlatInitial
01:41:37.853 PM 02/14/2016,Teleop Enabled,0,FALSE,0,NO ERROR,0.000000,0.000000,4000.000000,4000.000000,Speed,Speed,0.040000,1.200000,2.080000,3.000000,101.000000,1,0,-0.006200,-0.006200,0,0.000000,0.000000,0.000000,-0.153214,0.296875,0.000000,0.000000,-0.003000,0.000000,FlatInitial
01:41:37.953 PM 02/14/2016,Teleop Enabled,0,FALSE,0,NO ERROR,0.000000,0.000000,4000.000000,4000.000000,Speed,Speed,0.040000,1.200000,2.070000,3.000000,103.000000,1,0,-0.006200,-0.006200,0,0.000000,0.000000,0.000000,-0.153214,0.296875,0.000000,0.000000,-0.004000,0.000000,FlatInitial
01:41:38.054 PM 02/14/2016,Teleop Enabled,0,FALSE,0,NO ERROR,0.000000,0.000000,4000.000000,4000.000000,Speed,Speed,0.040000,1.190000,2.080000,3.000000,101.000000,1,0,-0.006200,-0.006200,0,0.000000,0.000000,0.000000,-0.153214,0.296875,0.000000,0.000000,-0.004000,0.002000,FlatInitial
01:41:38.154 PM 02/14/2016,Teleop Enabled,0,FALSE,0,NO ERROR,0.000000,0.000000,4000.000000,4000.000000,Speed,Speed,0.050000,1.190000,2.080000,3.000000,102.000000,1,0,-0.006200,-0.006200,0,0.000000,0.000000,0.000000,-0.153214,0.296875,0.000000,0.000000,-0.003000,0.001000,FlatInitial
01:41:38.253 PM 02/14/2016,Teleop Enabled,0,FALSE,0,NO ERROR,0.000000,0.000000,4000.000000,4000.000000,Speed,Speed,0.050000,1.200000,2.080000,3.000000,103.000000,1,0,-0.006200,-0.006200,0,0.000000,0.000000,0.000000,-0.153214,0.296875,0.000000,0.000000,-0.003000,0.002000,FlatInitial
