Time,RobotMode,AutoToRun,ErrorStatus, ErrorCode,ErrorSource,ActualRPM1,ActualRPM2,DesiredRPM1,DesiredRPM2,ControlMode1,ControlMode2,NavXYaw,NavXRoll,NavXPitch,ShooterState,LoopTime,IsLevel,IsAutoTargeting,LeftMotorOutput,RightMotorOutput,IsHaloDrive,NavXVelocityX,NavXVelocityY,NavXVelocityZ,NavXDisplacementX,NavXDisplacementY,NavXDisplacementZ,NavXAccelerationX,NavXAccelerationY,NavXAccelerationZ,AutoDefendState
01:37:36.149 PM 02/14/2016,Teleop Enabled,0,TRUE,-44087,NetComm_CAN_Receive.vi:5470006<APPEND>  <b>Complete call chain:</b>      NetComm_CAN_Receive.vi:5470006      WPI_CANTalonSRX_Receive.vi      WPI_MotorControlOpenCANTalonSRX.vi      Begin.vi      Robot Main.vi,0.000000,-727.587891,0.000000,0.000000,Speed,Speed,-0.200000,1.290000,1.940000,0.000000,15647.000000,1,0,-0.006200,-0.006200,0,0.000000,0.000000,0.000000,-0.116379,0.043121,0.000000,0.001000,-0.006000,0.001000,FlatInitial
01:37:36.249 PM 02/14/2016,Teleop Enabled,0,TRUE,-44087,NetComm_CAN_Receive.vi:5470006<APPEND>  <b>Complete call chain:</b>      NetComm_CAN_Receive.vi:5470006      WPI_CANTalonSRX_Receive.vi      WPI_MotorControlOpenCANTalonSRX.vi      Begin.vi      Robot Main.vi,0.000000,-727.587891,0.000000,0.000000,Speed,Speed,0.000000,1.290000,1.950000,0.000000,102.000000,1,0,-0.006200,-0.006200,0,0.000000,0.000000,0.000000,-0.116379,0.043121,0.000000,-0.075000,0.135000,-0.005000,FlatInitial
01:37:36.350 PM 02/14/2016,Teleop Enabled,0,TRUE,-44087,NetComm_CAN_Receive.vi:5470006<APPEND>  <b>Complete call chain:</b>      NetComm_CAN_Receive.vi:5470006      WPI_CANTalonSRX_Receive.vi      WPI_MotorControlOpenCANTalonSRX.vi      Begin.vi      Robot Main.vi,0.000000,-727.587891,0.000000,0.000000,Speed,Speed,-0.020000,1.290000,2.010000,0.000000,102.000000,1,0,-0.006200,-0.006200,0,0.000000,0.020935,0.000000,-0.117111,0.043472,0.000000,0.010000,-0.039000,-0.013000,FlatInitial
01:37:36.451 PM 02/14/2016,Teleop Enabled,0,TRUE,-44087,NetComm_CAN_Receive.vi:5470006<APPEND>  <b>Complete call chain:</b>      NetComm_CAN_Receive.vi:5470006      WPI_CANTalonSRX_Receive.vi      WPI_MotorControlOpenCANTalonSRX.vi      Begin.vi      Robot Main.vi,0.000000,-727.587891,0.000000,0.000000,Speed,Speed,0.060000,1.300000,1.890000,0.000000,101.000000,1,0,-0.006200,-0.006200,0,-0.003159,-0.002838,0.000000,-0.117004,0.044022,0.000000,-0.012000,0.014000,-0.027000,FlatInitial
01:37:36.551 PM 02/14/2016,Teleop Enabled,0,TRUE,-44087,NetComm_CAN_Receive.vi:5470006<APPEND>  <b>Complete call chain:</b>      NetComm_CAN_Receive.vi:5470006      WPI_CANTalonSRX_Receive.vi      WPI_MotorControlOpenCANTalonSRX.vi      Begin.vi      Robot Main.vi,0.000000,-727.587891,0.000000,0.000000,Speed,Speed,-0.010000,1.320000,2.050000,0.000000,102.000000,1,0,-0.006200,-0.006200,0,-0.000443,-0.008316,0.000000,-0.117233,0.043884,0.000000,-0.013000,0.003000,0.009000,FlatInitial
01:37:36.652 PM 02/14/2016,Teleop Enabled,0,TRUE,-44087,NetComm_CAN_Receive.vi:5470006<APPEND>  <b>Complete call chain:</b>      NetComm_CAN_Receive.vi:5470006      WPI_CANTalonSRX_Receive.vi      WPI_MotorControlOpenCANTalonSRX.vi      Begin.vi      Robot Main.vi,0.000000,-727.587891,0.000000,0.000000,Speed,Speed,0.130000,1.300000,1.920000,0.000000,102.000000,1,0,-0.006200,-0.006200,0,0.000000,0.018112,0.000000,-0.117233,0.044220,0.000000,0.000000,0.020000,-0.014000,FlatInitial
01:37:36.752 PM 02/14/2016,Teleop Enabled,0,TRUE,-44087,NetComm_CAN_Receive.vi:5470006<APPEND>  <b>Complete call chain:</b>      NetComm_CAN_Receive.vi:5470006      WPI_CANTalonSRX_Receive.vi      WPI_MotorControlOpenCANTalonSRX.vi      Begin.vi      Robot Main.vi,0.000000,-727.587891,0.000000,0.000000,Speed,Speed,0.000000,1.310000,1.960000,0.000000,101.000000,1,0,-0.006200,-0.006200,0,0.000000,0.000000,0.000000,-0.117233,0.044846,0.000000,-0.009000,0.013000,-0.015000,FlatInitial
01:37:36.852 PM 02/14/2016,Teleop Enabled,0,TRUE,-44087,NetComm_CAN_Receive.vi:5470006<APPEND>  <b>Complete call chain:</b>      NetComm_CAN_Receive.vi:5470006      WPI_CANTalonSRX_Receive.vi      WPI_MotorControlOpenCANTalonSRX.vi      Begin.vi      Robot Main.vi,0.000000,-727.587891,0.000000,0.000000,Speed,Speed,0.010000,1.310000,1.890000,0.000000,103.000000,1,0,-0.006200,-0.006200,0,0.000000,-0.003265,0.000000,-0.117233,0.044815,0.000000,0.000000,-0.027000,0.000000,FlatInitial
01:37:36.956 PM 02/14/2016,Teleop Enabled,0,TRUE,-44087,NetComm_CAN_Receive.vi:5470006<APPEND>  <b>Complete call chain:</b>      NetComm_CAN_Receive.vi:5470006      WPI_CANTalonSRX_Receive.vi      WPI_MotorControlOpenCANTalonSRX.vi      Begin.vi      Robot Main.vi,0.000000,-727.587891,0.000000,0.000000,Speed,Speed,0.060000,1.290000,1.910000,0.000000,100.000000,1,0,-0.006200,-0.006200,0,0.000000,0.000000,0.000000,-0.117233,0.044617,0.000000,0.010000,-0.002000,-0.009000,FlatInitial
01:37:37.055 PM 02/14/2016,Teleop Enabled,0,TRUE,-44087,NetComm_CAN_Receive.vi:5470006<APPEND>  <b>Complete call chain:</b>      NetComm_CAN_Receive.vi:5470006      WPI_CANTalonSRX_Receive.vi      WPI_MotorControlOpenCANTalonSRX.vi      Begin.vi      Robot Main.vi,0.000000,-727.587891,0.000000,0.000000,Speed,Speed,0.080000,1.300000,1.940000,0.000000,101.000000,1,0,-0.006200,-0.006200,0,0.000000,0.000000,0.000000,-0.117233,0.044617,0.000000,-0.013000,0.004000,-0.003000,FlatInitial
01:37:37.154 PM 02/14/2016,Teleop Enabled,0,TRUE,-44087,NetComm_CAN_Receive.vi:5470006<APPEND>  <b>Complete call chain:</b>      NetComm_CAN_Receive.vi:5470006      WPI_CANTalonSRX_Receive.vi      WPI_MotorControlOpenCANTalonSRX.vi      Begin.vi      Robot Main.vi,0.000000,-727.587891,0.000000,0.000000,Speed,Speed,0.040000,1.310000,1.940000,0.000000,101.000000,1,0,-0.006200,-0.006200,0,0.000000,0.000000,0.000000,-0.117233,0.044617,0.000000,0.000000,0.001000,-0.001000,FlatInitial
01:37:37.255 PM 02/14/2016,Teleop Enabled,0,TRUE,-44087,NetComm_CAN_Receive.vi:5470006<APPEND>  <b>Complete call chain:</b>      NetComm_CAN_Receive.vi:5470006      WPI_CANTalonSRX_Receive.vi      WPI_MotorControlOpenCANTalonSRX.vi      Begin.vi      Robot Main.vi,0.000000,-727.587891,0.000000,0.000000,Speed,Speed,0.050000,1.300000,1.890000,0.000000,103.000000,1,0,-0.006200,-0.006200,0,0.000000,0.000000,0.000000,-0.117233,0.044617,0.000000,0.008000,0.000000,-0.004000,FlatInitial
01:37:37.356 PM 02/14/2016,Teleop Enabled,0,TRUE,-44087,NetComm_CAN_Receive.vi:5470006<APPEND>  <b>Complete call chain:</b>      NetComm_CAN_Receive.vi:5470006      WPI_CANTalonSRX_Receive.vi      WPI_CANTalonSRX_GetStatus.vi      ShooterVI.vi      Periodic Tasks.vi      Robot Main.vi,0.000000,-727.587891,0.000000,0.000000,Speed,Speed,0.070000,1.300000,1.900000,0.000000,100.000000,1,0,-0.006200,-0.006200,0,0.000000,0.000000,0.000000,-0.117233,0.044617,0.000000,0.000000,0.008000,-0.002000,FlatInitial
01:37:37.456 PM 02/14/2016,Teleop Enabled,0,TRUE,-44087,NetComm_CAN_Receive.vi:5470006<APPEND>  <b>Complete call chain:</b>      NetComm_CAN_Receive.vi:5470006      WPI_CANTalonSRX_Receive.vi      WPI_CANTalonSRX_GetStatus.vi      ShooterVI.vi      Periodic Tasks.vi      Robot Main.vi,0.000000,-727.587891,0.000000,0.000000,Speed,Speed,0.080000,1.310000,1.780000,0.000000,102.000000,1,0,-0.006200,-0.006200,0,0.000000,0.000000,0.000000,-0.117233,0.044830,0.000000,0.012000,0.012000,0.005000,FlatInitial
01:37:37.556 PM 02/14/2016,Teleop Enabled,0,FALSE,0,NO ERROR,0.000000,-727.587891,0.000000,0.000000,Speed,Speed,-0.100000,1.340000,1.780000,0.000000,102.000000,1,0,-0.006200,-0.006200,0,-0.002594,-0.016617,0.000000,-0.117264,0.044449,0.000000,-0.034000,-0.046000,0.050000,FlatInitial
01:37:37.657 PM 02/14/2016,Teleop Enabled,0,FALSE,0,NO ERROR,0.000000,-727.587891,0.000000,0.000000,Speed,Speed,-0.070000,1.280000,1.900000,0.000000,102.000000,1,0,-0.006200,-0.006200,0,0.000000,0.000000,0.000000,-0.117432,0.043945,0.000000,0.012000,-0.005000,0.015000,FlatInitial
01:37:37.757 PM 02/14/2016,Teleop Enabled,0,FALSE,0,NO ERROR,0.000000,-727.587891,0.000000,0.000000,Speed,Speed,0.130000,1.280000,1.810000,0.000000,101.000000,1,0,-0.006200,-0.006200,0,0.000000,0.007889,0.000000,-0.117432,0.044067,0.000000,-0.002000,-0.007000,0.030000,FlatInitial
01:37:37.857 PM 02/14/2016,Teleop Enabled,0,FALSE,0,NO ERROR,0.000000,-727.587891,0.000000,0.000000,Speed,Speed,0.010000,1.320000,1.920000,0.000000,101.000000,1,0,-0.006200,-0.006200,0,0.000000,0.000000,0.000000,-0.117279,0.044159,0.000000,-0.013000,0.007000,0.006000,FlatInitial
01:37:37.958 PM 02/14/2016,Teleop Enabled,0,FALSE,0,NO ERROR,0.000000,-727.587891,0.000000,0.000000,Speed,Speed,0.000000,1.290000,1.850000,0.000000,105.000000,1,0,-0.006200,-0.006200,0,0.000000,0.000000,0.000000,-0.117279,0.044159,0.000000,0.013000,-0.005000,0.000000,FlatInitial
01:37:38.058 PM 02/14/2016,Teleop Enabled,0,FALSE,0,NO ERROR,0.000000,-727.587891,0.000000,0.000000,Speed,Speed,0.000000,1.290000,1.790000,0.000000,102.000000,1,0,-0.006200,-0.006200,0,-0.003738,0.000000,0.000000,-0.117310,0.043915,0.000000,-0.010000,0.008000,0.012000,FlatInitial
01:37:38.159 PM 02/14/2016,Teleop Enabled,0,FALSE,0,NO ERROR,0.000000,-727.587891,0.000000,0.000000,Speed,Speed,-0.010000,1.300000,1.880000,0.000000,102.000000,1,0,-0.006200,-0.006200,0,0.000000,0.000000,0.000000,-0.117462,0.043915,0.000000,-0.001000,-0.003000,0.003000,FlatInitial
01:37:38.259 PM 02/14/2016,Teleop Enabled,0,FALSE,0,NO ERROR,0.000000,-727.587891,0.000000,0.000000,Speed,Speed,0.060000,1.270000,1.830000,0.000000,101.000000,1,0,-0.006200,-0.006200,0,0.000000,0.000000,0.000000,-0.117462,0.043915,0.000000,0.011000,0.000000,0.003000,FlatInitial
01:37:38.360 PM 02/14/2016,Teleop Enabled,0,FALSE,0,NO ERROR,0.000000,-727.587891,0.000000,0.000000,Speed,Speed,0.000000,1.290000,1.880000,0.000000,103.000000,1,0,-0.006200,-0.006200,0,0.000000,0.000000,0.000000,-0.117462,0.043915,0.000000,-0.008000,-0.002000,0.002000,FlatInitial
01:37:38.461 PM 02/14/2016,Teleop Enabled,0,FALSE,0,NO ERROR,0.000000,-727.587891,0.000000,0.000000,Speed,Speed,0.000000,1.280000,1.840000,0.000000,102.000000,1,0,-0.006200,-0.006200,0,0.000000,0.000000,0.000000,-0.117462,0.043915,0.000000,-0.003000,0.006000,0.000000,FlatInitial
01:37:38.562 PM 02/14/2016,Teleop Enabled,0,FALSE,0,NO ERROR,0.000000,-727.587891,0.000000,0.000000,Speed,Speed,0.010000,1.280000,1.830000,0.000000,101.000000,1,0,-0.006200,-0.006200,0,0.000000,0.000000,0.000000,-0.117462,0.043915,0.000000,-0.002000,-0.001000,-0.001000,FlatInitial
01:37:38.662 PM 02/14/2016,Teleop Enabled,0,FALSE,0,NO ERROR,0.000000,-727.587891,0.000000,0.000000,Speed,Speed,0.010000,1.280000,1.870000,0.000000,102.000000,1,0,-0.006200,-0.006200,0,0.000000,0.000000,0.000000,-0.117462,0.043915,0.000000,0.003000,-0.002000,0.000000,FlatInitial
01:37:38.764 PM 02/14/2016,Teleop Enabled,0,FALSE,0,NO ERROR,0.000000,-727.587891,0.000000,0.000000,Speed,Speed,0.020000,1.280000,1.850000,0.000000,102.000000,1,0,-0.006200,-0.006200,0,0.000000,0.000000,0.000000,-0.117462,0.043915,0.000000,0.001000,0.000000,0.000000,FlatInitial
01:37:38.865 PM 02/14/2016,Teleop Enabled,0,FALSE,0,NO ERROR,0.000000,-727.587891,0.000000,0.000000,Speed,Speed,0.000000,1.280000,1.860000,0.000000,102.000000,1,0,-0.006200,-0.006200,0,0.000000,0.000000,0.000000,-0.117462,0.043915,0.000000,0.000000,-0.001000,0.004000,FlatInitial
01:37:38.966 PM 02/14/2016,Teleop Enabled,0,FALSE,0,NO ERROR,0.000000,-727.587891,0.000000,0.000000,Speed,Speed,0.000000,1.280000,1.840000,0.000000,102.000000,1,0,-0.006200,-0.006200,0,0.000000,0.000000,0.000000,-0.117462,0.043915,0.000000,-0.003000,0.001000,0.003000,FlatInitial
01:37:39.067 PM 02/14/2016,Teleop Enabled,0,FALSE,0,NO ERROR,0.000000,-727.587891,0.000000,0.000000,Speed,Speed,0.000000,1.280000,1.850000,0.000000,102.000000,1,0,-0.006200,-0.006200,0,0.000000,0.000000,0.000000,-0.117462,0.043915,0.000000,0.000000,0.001000,0.003000,FlatInitial
01:37:39.168 PM 02/14/2016,Teleop Enabled,0,FALSE,0,NO ERROR,0.000000,-727.587891,0.000000,0.000000,Speed,Speed,0.020000,1.290000,1.850000,0.000000,102.000000,1,0,-0.006200,-0.006200,0,0.000000,0.000000,0.000000,-0.117462,0.043915,0.000000,0.002000,-0.002000,0.003000,FlatInitial
01:37:39.268 PM 02/14/2016,Teleop Enabled,0,FALSE,0,NO ERROR,0.000000,-727.587891,0.000000,0.000000,Speed,Speed,0.000000,1.290000,1.850000,0.000000,104.000000,1,0,-0.006200,-0.006200,0,0.000000,0.000000,0.000000,-0.117462,0.043915,0.000000,0.001000,-0.002000,0.005000,FlatInitial
01:37:39.368 PM 02/14/2016,Teleop Enabled,0,FALSE,0,NO ERROR,0.000000,-727.587891,-6000.000000,-6000.000000,Speed,Speed,0.000000,1.290000,1.850000,1.000000,101.000000,1,0,-0.006200,-0.006200,0,0.000000,0.000000,0.000000,-0.117462,0.043915,0.000000,0.002000,-0.003000,0.003000,FlatInitial
01:37:39.468 PM 02/14/2016,Teleop Enabled,0,FALSE,0,NO ERROR,0.000000,-727.587891,0.000000,0.000000,Speed,Speed,0.010000,1.290000,1.850000,2.000000,100.000000,1,0,-0.006200,-0.006200,0,0.000000,0.000000,0.000000,-0.117462,0.043915,0.000000,0.001000,0.000000,0.000000,FlatInitial
01:37:39.569 PM 02/14/2016,Teleop Enabled,0,FALSE,0,NO ERROR,0.000000,-727.587891,0.000000,0.000000,Speed,Speed,0.000000,1.290000,1.870000,2.000000,104.000000,1,0,-0.006200,-0.006200,0,0.016449,0.015488,0.000000,-0.116989,0.044464,0.000000,0.036000,-0.039000,-0.090000,FlatInitial
01:37:39.669 PM 02/14/2016,Teleop Enabled,0,FALSE,0,NO ERROR,0.000000,-727.587891,0.000000,0.000000,Speed,Speed,0.000000,1.320000,1.840000,2.000000,101.000000,1,0,-0.006200,-0.006200,0,0.023605,-0.002472,0.000000,-0.115860,0.044815,0.000000,-0.063000,0.011000,0.018000,FlatInitial
01:37:39.768 PM 02/14/2016,Teleop Enabled,0,FALSE,0,NO ERROR,0.000000,-727.587891,0.000000,0.000000,Speed,Speed,0.020000,1.290000,1.830000,2.000000,101.000000,1,0,-0.006200,-0.006200,0,0.000000,0.006271,0.000000,-0.115341,0.045166,0.000000,0.007000,-0.007000,-0.010000,FlatInitial
01:37:39.870 PM 02/14/2016,Teleop Enabled,0,FALSE,0,NO ERROR,0.000000,-727.587891,0.000000,0.000000,Speed,Speed,0.000000,1.320000,1.840000,2.000000,101.000000,1,0,-0.006200,-0.006200,0,-0.001251,0.011993,0.000000,-0.115448,0.045486,0.000000,-0.035000,-0.025000,-0.009000,FlatInitial
01:37:39.974 PM 02/14/2016,Teleop Enabled,0,FALSE,0,NO ERROR,0.000000,-727.587891,0.000000,0.000000,Speed,Speed,0.000000,1.310000,1.840000,2.000000,103.000000,1,0,-0.006200,-0.006200,0,0.000000,0.000000,0.000000,-0.115768,0.045731,0.000000,-0.011000,0.005000,-0.003000,FlatInitial
01:37:40.074 PM 02/14/2016,Teleop Enabled,0,FALSE,0,NO ERROR,0.000000,-727.587891,0.000000,0.000000,Speed,Speed,0.000000,1.300000,1.820000,2.000000,102.000000,1,0,-0.006200,-0.006200,0,0.003555,0.000000,0.000000,-0.115738,0.045578,0.000000,0.028000,-0.001000,-0.010000,FlatInitial
01:37:40.176 PM 02/14/2016,Teleop Enabled,0,FALSE,0,NO ERROR,0.000000,-727.587891,0.000000,0.000000,Speed,Speed,0.000000,1.300000,1.820000,2.000000,101.000000,1,0,-0.006200,-0.006200,0,0.000000,0.000000,0.000000,-0.115585,0.045578,0.000000,0.008000,-0.004000,-0.007000,FlatInitial
01:37:40.278 PM 02/14/2016,Teleop Enabled,0,FALSE,0,NO ERROR,0.000000,-727.587891,0.000000,0.000000,Speed,Speed,0.000000,1.300000,1.820000,2.000000,102.000000,1,0,-0.006200,-0.006200,0,0.000000,0.000000,0.000000,-0.115585,0.045578,0.000000,0.000000,0.002000,0.000000,FlatInitial
01:37:40.380 PM 02/14/2016,Teleop Enabled,0,FALSE,0,NO ERROR,0.000000,-727.587891,0.000000,0.000000,Speed,Speed,0.000000,1.310000,1.820000,2.000000,103.000000,1,0,-0.006200,-0.006200,0,0.000000,0.000000,0.000000,-0.115585,0.045578,0.000000,-0.009000,-0.002000,0.003000,FlatInitial
01:37:40.480 PM 02/14/2016,Teleop Enabled,0,FALSE,0,NO ERROR,0.000000,-727.587891,0.000000,0.000000,Speed,Speed,0.000000,1.300000,1.830000,2.000000,103.000000,1,0,-0.006200,-0.006200,0,0.000000,0.000000,0.000000,-0.115585,0.045578,0.000000,-0.001000,-0.001000,0.003000,FlatInitial
01:37:40.582 PM 02/14/2016,Teleop Enabled,0,FALSE,0,NO ERROR,0.000000,-727.587891,0.000000,0.000000,Speed,Speed,0.000000,1.300000,1.830000,2.000000,101.000000,1,0,-0.006200,-0.006200,0,0.000000,0.000000,0.000000,-0.115585,0.045578,0.000000,-0.002000,-0.006000,0.008000,FlatInitial
01:37:40.682 PM 02/14/2016,Teleop Enabled,0,FALSE,0,NO ERROR,0.000000,-727.587891,4000.000000,4000.000000,Speed,Speed,0.000000,1.300000,1.840000,3.000000,102.000000,1,0,-0.006200,-0.006200,0,0.000000,0.000000,0.000000,-0.115585,0.045578,0.000000,0.000000,-0.004000,0.012000,FlatInitial
01:37:40.782 PM 02/14/2016,Teleop Enabled,0,FALSE,0,NO ERROR,0.000000,-727.587891,4000.000000,4000.000000,Speed,Speed,0.000000,1.300000,1.830000,3.000000,103.000000,1,0,-0.006200,-0.006200,0,0.000000,0.000000,0.000000,-0.115585,0.045578,0.000000,0.003000,-0.002000,0.008000,FlatInitial
01:37:40.884 PM 02/14/2016,Teleop Enabled,0,FALSE,0,NO ERROR,0.000000,-727.587891,4000.000000,4000.000000,Speed,Speed,0.000000,1.310000,1.840000,3.000000,100.000000,1,0,-0.006200,-0.006200,0,0.000000,0.000000,0.000000,-0.115585,0.045578,0.000000,-0.004000,0.000000,0.006000,FlatInitial
01:37:40.984 PM 02/14/2016,Teleop Enabled,0,FALSE,0,NO ERROR,0.000000,-727.587891,4000.000000,4000.000000,Speed,Speed,0.000000,1.300000,1.840000,3.000000,103.000000,1,0,-0.006200,-0.006200,0,0.000000,0.000000,0.000000,-0.115585,0.045578,0.000000,-0.002000,0.000000,0.005000,FlatInitial
01:37:41.085 PM 02/14/2016,Teleop Enabled,0,FALSE,0,NO ERROR,0.000000,-727.587891,4000.000000,4000.000000,Speed,Speed,0.000000,1.310000,1.840000,3.000000,101.000000,1,0,-0.006200,-0.006200,0,-0.008438,0.000000,0.000000,-0.115723,0.045578,0.000000,0.004000,-0.003000,0.006000,FlatInitial
01:37:41.186 PM 02/14/2016,Teleop Enabled,0,FALSE,0,NO ERROR,0.000000,-727.587891,4000.000000,4000.000000,Speed,Speed,0.000000,1.310000,1.840000,3.000000,102.000000,1,0,-0.006200,-0.006200,0,0.000000,0.000000,0.000000,-0.115845,0.045578,0.000000,-0.010000,0.002000,-0.014000,FlatInitial
01:37:41.288 PM 02/14/2016,Teleop Enabled,0,FALSE,0,NO ERROR,0.000000,-727.587891,4000.000000,4000.000000,Speed,Speed,0.000000,1.300000,1.820000,3.000000,103.000000,1,0,-0.006200,-0.006200,0,0.000000,0.000000,0.000000,-0.115845,0.045578,0.000000,0.010000,-0.003000,0.009000,FlatInitial
01:37:41.389 PM 02/14/2016,Teleop Enabled,0,FALSE,0,NO ERROR,0.000000,-727.587891,4000.000000,4000.000000,Speed,Speed,0.000000,1.280000,1.830000,3.000000,102.000000,1,0,-0.006200,-0.006200,0,0.000000,0.000000,0.000000,-0.115845,0.045578,0.000000,0.001000,-0.007000,0.005000,FlatInitial
01:37:41.489 PM 02/14/2016,Teleop Enabled,0,FALSE,0,NO ERROR,0.000000,-727.587891,4000.000000,4000.000000,Speed,Speed,0.000000,1.290000,1.840000,3.000000,101.000000,1,0,-0.006200,-0.006200,0,0.000000,0.000000,0.000000,-0.115845,0.045578,0.000000,0.000000,-0.003000,0.000000,FlatInitial
01:37:41.589 PM 02/14/2016,Teleop Enabled,0,FALSE,0,NO ERROR,0.000000,-727.587891,4000.000000,4000.000000,Speed,Speed,0.000000,1.290000,1.830000,3.000000,103.000000,1,0,-0.006200,-0.006200,0,0.000000,0.000000,0.000000,-0.115845,0.045578,0.000000,0.003000,0.002000,0.003000,FlatInitial
01:37:41.689 PM 02/14/2016,Teleop Enabled,0,FALSE,0,NO ERROR,0.000000,-727.587891,4000.000000,4000.000000,Speed,Speed,0.000000,1.290000,1.830000,3.000000,101.000000,1,0,-0.006200,-0.006200,0,0.000000,0.000000,0.000000,-0.115845,0.045578,0.000000,0.000000,0.000000,0.000000,FlatInitial
01:37:41.788 PM 02/14/2016,Teleop Enabled,0,FALSE,0,NO ERROR,0.000000,-727.587891,4000.000000,4000.000000,Speed,Speed,0.000000,1.290000,1.840000,3.000000,101.000000,1,0,-0.006200,-0.006200,0,0.000000,0.000000,0.000000,-0.115845,0.045578,0.000000,0.000000,0.000000,0.005000,FlatInitial
01:37:41.889 PM 02/14/2016,Teleop Enabled,0,FALSE,0,NO ERROR,0.000000,-727.587891,4000.000000,4000.000000,Speed,Speed,0.000000,1.290000,1.840000,3.000000,102.000000,1,0,-0.006200,-0.006200,0,0.000000,0.000000,0.000000,-0.115845,0.045578,0.000000,0.000000,-0.007000,0.000000,FlatInitial
01:37:41.990 PM 02/14/2016,Teleop Enabled,0,FALSE,0,NO ERROR,0.000000,-727.587891,4000.000000,4000.000000,Speed,Speed,0.000000,1.280000,1.840000,3.000000,101.000000,1,0,-0.006200,-0.006200,0,0.000000,0.000000,0.000000,-0.115845,0.045578,0.000000,0.002000,-0.004000,0.000000,FlatInitial
01:37:42.090 PM 02/14/2016,Teleop Enabled,0,FALSE,0,NO ERROR,0.000000,-727.587891,4000.000000,4000.000000,Speed,Speed,0.000000,1.280000,1.830000,3.000000,101.000000,1,0,-0.006200,-0.006200,0,0.000000,0.000000,0.000000,-0.115845,0.045578,0.000000,-0.001000,0.000000,0.002000,FlatInitial
01:37:42.191 PM 02/14/2016,Teleop Enabled,0,FALSE,0,NO ERROR,0.000000,-727.587891,4000.000000,4000.000000,Speed,Speed,0.010000,1.290000,1.820000,3.000000,102.000000,1,0,-0.006200,-0.006200,0,0.000000,0.000000,0.000000,-0.115845,0.045578,0.000000,-0.002000,-0.002000,0.002000,FlatInitial
01:37:42.291 PM 02/14/2016,Teleop Enabled,0,FALSE,0,NO ERROR,0.000000,-727.587891,4000.000000,4000.000000,Speed,Speed,0.010000,1.300000,1.830000,3.000000,102.000000,1,0,-0.006200,-0.006200,0,0.000000,0.000000,0.000000,-0.115845,0.045578,0.000000,0.000000,-0.003000,0.001000,FlatInitial
01:37:42.392 PM 02/14/2016,Teleop Enabled,0,FALSE,0,NO ERROR,0.000000,-727.587891,4000.000000,4000.000000,Speed,Speed,0.010000,1.290000,1.830000,3.000000,102.000000,1,0,-0.006200,-0.006200,0,0.000000,0.000000,0.000000,-0.115845,0.045578,0.000000,0.000000,-0.001000,0.003000,FlatInitial
01:37:42.492 PM 02/14/2016,Teleop Enabled,0,FALSE,0,NO ERROR,0.000000,-727.587891,4000.000000,4000.000000,Speed,Speed,0.010000,1.290000,1.830000,3.000000,101.000000,1,0,-0.006200,-0.006200,0,0.000000,0.000000,0.000000,-0.115845,0.045578,0.000000,0.000000,-0.001000,0.002000,FlatInitial
01:37:42.593 PM 02/14/2016,Teleop Enabled,0,FALSE,0,NO ERROR,0.000000,-727.587891,4000.000000,4000.000000,Speed,Speed,0.010000,1.290000,1.840000,3.000000,101.000000,1,0,-0.006200,-0.006200,0,0.000000,0.000000,0.000000,-0.115845,0.045578,0.000000,0.003000,0.002000,0.005000,FlatInitial
01:37:42.694 PM 02/14/2016,Teleop Enabled,0,FALSE,0,NO ERROR,0.000000,-727.587891,4000.000000,4000.000000,Speed,Speed,0.010000,1.290000,1.840000,3.000000,101.000000,1,0,-0.006200,-0.006200,0,0.000000,0.000000,0.000000,-0.115845,0.045578,0.000000,0.001000,0.001000,0.000000,FlatInitial
01:37:42.794 PM 02/14/2016,Teleop Enabled,0,FALSE,0,NO ERROR,0.000000,-727.587891,4000.000000,4000.000000,Speed,Speed,0.010000,1.280000,1.840000,3.000000,102.000000,1,0,-0.006200,-0.006200,0,0.000000,0.000000,0.000000,-0.115845,0.045578,0.000000,0.001000,0.000000,-0.001000,FlatInitial
01:37:42.895 PM 02/14/2016,Teleop Enabled,0,FALSE,0,NO ERROR,0.000000,-727.587891,4000.000000,4000.000000,Speed,Speed,0.010000,1.280000,1.840000,3.000000,101.000000,1,0,-0.006200,-0.006200,0,0.000000,0.000000,0.000000,-0.115845,0.045578,0.000000,0.000000,-0.001000,0.004000,FlatInitial
01:37:42.995 PM 02/14/2016,Teleop Enabled,0,FALSE,0,NO ERROR,0.000000,-727.587891,4000.000000,4000.000000,Speed,Speed,0.010000,1.280000,1.840000,3.000000,102.000000,1,0,-0.006200,-0.006200,0,0.000000,0.000000,0.000000,-0.115845,0.045578,0.000000,0.001000,-0.001000,0.001000,FlatInitial
01:37:43.095 PM 02/14/2016,Teleop Enabled,0,FALSE,0,NO ERROR,0.000000,-727.587891,4000.000000,4000.000000,Speed,Speed,0.010000,1.280000,1.840000,3.000000,101.000000,1,0,-0.006200,-0.006200,0,0.000000,0.000000,0.000000,-0.115845,0.045578,0.000000,0.001000,0.000000,0.002000,FlatInitial
01:37:43.195 PM 02/14/2016,Teleop Enabled,0,FALSE,0,NO ERROR,0.000000,-727.587891,4000.000000,4000.000000,Speed,Speed,0.010000,1.280000,1.840000,3.000000,101.000000,1,0,-0.006200,-0.006200,0,0.000000,0.000000,0.000000,-0.115845,0.045578,0.000000,0.000000,0.000000,-0.001000,FlatInitial
01:37:43.296 PM 02/14/2016,Teleop Enabled,0,FALSE,0,NO ERROR,0.000000,-727.587891,4000.000000,4000.000000,Speed,Speed,0.020000,1.280000,1.840000,3.000000,105.000000,1,0,-0.006200,-0.006200,0,0.000000,0.000000,0.000000,-0.115845,0.045578,0.000000,0.000000,0.001000,0.000000,FlatInitial
01:37:43.396 PM 02/14/2016,Teleop Enabled,0,FALSE,0,NO ERROR,0.000000,-727.587891,4000.000000,4000.000000,Speed,Speed,0.010000,1.280000,1.840000,3.000000,102.000000,1,0,-0.006200,-0.006200,0,0.000000,0.000000,0.000000,-0.115845,0.045578,0.000000,-0.004000,-0.002000,0.000000,FlatInitial
01:37:43.496 PM 02/14/2016,Teleop Enabled,0,FALSE,0,NO ERROR,0.000000,-727.587891,4000.000000,4000.000000,Speed,Speed,0.020000,1.280000,1.840000,3.000000,103.000000,1,0,-0.006200,-0.006200,0,0.000000,0.000000,0.000000,-0.115845,0.045578,0.000000,-0.001000,0.000000,0.001000,FlatInitial
01:37:43.596 PM 02/14/2016,Teleop Enabled,0,FALSE,0,NO ERROR,0.000000,-727.587891,4000.000000,4000.000000,Speed,Speed,0.020000,1.280000,1.850000,3.000000,101.000000,1,0,-0.006200,-0.006200,0,0.000000,0.000000,0.000000,-0.115845,0.045578,0.000000,0.000000,0.001000,0.000000,FlatInitial
01:37:43.696 PM 02/14/2016,Teleop Enabled,0,FALSE,0,NO ERROR,0.000000,-727.587891,4000.000000,4000.000000,Speed,Speed,0.020000,1.280000,1.860000,3.000000,102.000000,1,0,-0.006200,-0.006200,0,0.000000,0.000000,0.000000,-0.115845,0.045578,0.000000,0.000000,-0.004000,0.004000,FlatInitial
01:37:43.795 PM 02/14/2016,Teleop Enabled,0,FALSE,0,NO ERROR,0.000000,-727.587891,4000.000000,4000.000000,Speed,Speed,0.020000,1.270000,1.860000,3.000000,101.000000,1,0,-0.006200,-0.006200,0,0.000000,0.000000,0.000000,-0.115845,0.045578,0.000000,0.000000,0.001000,-0.001000,FlatInitial
01:37:43.896 PM 02/14/2016,Teleop Enabled,0,FALSE,0,NO ERROR,0.000000,-727.587891,4000.000000,4000.000000,Speed,Speed,0.020000,1.270000,1.860000,3.000000,102.000000,1,0,-0.006200,-0.006200,0,0.000000,0.000000,0.000000,-0.115845,0.045578,0.000000,0.001000,-0.003000,0.002000,FlatInitial
01:37:43.996 PM 02/14/2016,Teleop Enabled,0,FALSE,0,NO ERROR,0.000000,-727.587891,4000.000000,4000.000000,Speed,Speed,0.020000,1.270000,1.860000,3.000000,100.000000,1,0,-0.006200,-0.006200,0,0.000000,0.000000,0.000000,-0.115845,0.045578,0.000000,0.000000,0.000000,-0.003000,FlatInitial
01:37:44.096 PM 02/14/2016,Teleop Enabled,0,FALSE,0,NO ERROR,0.000000,-727.587891,4000.000000,4000.000000,Speed,Speed,0.020000,1.270000,1.860000,3.000000,101.000000,1,0,-0.006200,-0.006200,0,0.000000,0.000000,0.000000,-0.115845,0.045578,0.000000,-0.001000,-0.002000,-0.002000,FlatInitial
01:37:44.196 PM 02/14/2016,Teleop Enabled,0,FALSE,0,NO ERROR,0.000000,-727.587891,4000.000000,4000.000000,Speed,Speed,0.020000,1.270000,1.850000,3.000000,103.000000,1,0,-0.006200,-0.006200,0,0.000000,0.000000,0.000000,-0.115845,0.045578,0.000000,0.000000,0.000000,0.002000,FlatInitial
01:37:44.296 PM 02/14/2016,Teleop Enabled,0,FALSE,0,NO ERROR,0.000000,-727.587891,4000.000000,4000.000000,Speed,Speed,0.020000,1.270000,1.850000,3.000000,101.000000,1,0,-0.006200,-0.006200,0,0.000000,0.000000,0.000000,-0.115845,0.045578,0.000000,0.000000,-0.003000,-0.001000,FlatInitial
01:37:44.396 PM 02/14/2016,Teleop Enabled,0,FALSE,0,NO ERROR,0.000000,-727.587891,4000.000000,4000.000000,Speed,Speed,0.020000,1.270000,1.850000,3.000000,103.000000,1,0,-0.006200,-0.006200,0,0.000000,0.000000,0.000000,-0.115845,0.045578,0.000000,0.000000,-0.002000,-0.005000,FlatInitial
01:37:44.496 PM 02/14/2016,Teleop Enabled,0,FALSE,0,NO ERROR,0.000000,-727.587891,4000.000000,4000.000000,Speed,Speed,0.020000,1.270000,1.850000,3.000000,100.000000,1,0,-0.006200,-0.006200,0,0.000000,0.000000,0.000000,-0.115845,0.045578,0.000000,0.000000,0.000000,0.003000,FlatInitial
01:37:44.597 PM 02/14/2016,Teleop Enabled,0,FALSE,0,NO ERROR,0.000000,-727.587891,4000.000000,4000.000000,Speed,Speed,0.020000,1.270000,1.850000,3.000000,102.000000,1,0,-0.006200,-0.006200,0,0.000000,0.000000,0.000000,-0.115845,0.045578,0.000000,0.000000,0.000000,0.000000,FlatInitial
01:37:44.697 PM 02/14/2016,Teleop Enabled,0,FALSE,0,NO ERROR,0.000000,-727.587891,4000.000000,4000.000000,Speed,Speed,0.030000,1.270000,1.850000,3.000000,101.000000,1,0,-0.006200,-0.006200,0,0.000000,0.000000,0.000000,-0.115845,0.045578,0.000000,0.000000,0.000000,0.000000,FlatInitial
01:37:44.797 PM 02/14/2016,Teleop Enabled,0,FALSE,0,NO ERROR,0.000000,-727.587891,4000.000000,4000.000000,Speed,Speed,0.030000,1.270000,1.850000,3.000000,101.000000,1,0,-0.006200,-0.006200,0,0.000000,0.000000,0.000000,-0.115845,0.045578,0.000000,0.000000,0.000000,0.003000,FlatInitial
01:37:44.897 PM 02/14/2016,Teleop Enabled,0,FALSE,0,NO ERROR,0.000000,-727.587891,4000.000000,4000.000000,Speed,Speed,0.030000,1.270000,1.850000,3.000000,103.000000,1,0,-0.006200,-0.006200,0,0.000000,0.000000,0.000000,-0.115845,0.045578,0.000000,0.000000,0.000000,0.002000,FlatInitial
01:37:44.997 PM 02/14/2016,Teleop Enabled,0,FALSE,0,NO ERROR,0.000000,-727.587891,4000.000000,4000.000000,Speed,Speed,0.030000,1.270000,1.850000,3.000000,101.000000,1,0,-0.006200,-0.006200,0,0.000000,0.000000,0.000000,-0.115845,0.045578,0.000000,0.002000,0.000000,0.005000,FlatInitial
01:37:45.097 PM 02/14/2016,Teleop Enabled,0,FALSE,0,NO ERROR,0.000000,-727.587891,4000.000000,4000.000000,Speed,Speed,0.030000,1.270000,1.840000,3.000000,102.000000,1,0,-0.006200,-0.006200,0,0.000000,0.000000,0.000000,-0.115845,0.045578,0.000000,0.000000,-0.001000,0.000000,FlatInitial
01:37:45.196 PM 02/14/2016,Teleop Enabled,0,FALSE,0,NO ERROR,0.000000,-727.587891,4000.000000,4000.000000,Speed,Speed,0.030000,1.270000,1.840000,3.000000,103.000000,1,0,-0.006200,-0.006200,0,0.000000,0.000000,0.000000,-0.115845,0.045578,0.000000,0.000000,-0.002000,-0.001000,FlatInitial
01:37:45.297 PM 02/14/2016,Teleop Enabled,0,FALSE,0,NO ERROR,0.000000,-727.587891,4000.000000,4000.000000,Speed,Speed,0.030000,1.280000,1.840000,3.000000,100.000000,1,0,-0.006200,-0.006200,0,0.000000,0.000000,0.000000,-0.115845,0.045578,0.000000,0.000000,0.000000,-0.001000,FlatInitial
01:37:45.397 PM 02/14/2016,Teleop Enabled,0,FALSE,0,NO ERROR,0.000000,-727.587891,4000.000000,4000.000000,Speed,Speed,0.030000,1.280000,1.840000,3.000000,102.000000,1,0,-0.006200,-0.006200,0,0.000000,0.000000,0.000000,-0.115845,0.045578,0.000000,0.000000,0.000000,0.002000,FlatInitial
01:37:45.497 PM 02/14/2016,Teleop Enabled,0,FALSE,0,NO ERROR,0.000000,-727.587891,4000.000000,4000.000000,Speed,Speed,0.040000,1.280000,1.830000,3.000000,101.000000,1,0,-0.006200,-0.006200,0,0.000000,0.000000,0.000000,-0.115845,0.045578,0.000000,0.001000,-0.003000,-0.001000,FlatInitial
01:37:45.598 PM 02/14/2016,Teleop Enabled,0,FALSE,0,NO ERROR,0.000000,-727.587891,4000.000000,4000.000000,Speed,Speed,0.040000,1.280000,1.840000,3.000000,103.000000,1,0,-0.006200,-0.006200,0,0.000000,0.000000,0.000000,-0.115845,0.045578,0.000000,0.000000,-0.003000,0.005000,FlatInitial
01:37:45.698 PM 02/14/2016,Teleop Enabled,0,FALSE,0,NO ERROR,0.000000,-727.587891,4000.000000,4000.000000,Speed,Speed,0.040000,1.280000,1.840000,3.000000,101.000000,1,0,-0.006200,-0.006200,0,0.000000,0.000000,0.000000,-0.115845,0.045578,0.000000,0.000000,-0.003000,0.000000,FlatInitial
01:37:45.799 PM 02/14/2016,Teleop Enabled,0,FALSE,0,NO ERROR,0.000000,-727.587891,4000.000000,4000.000000,Speed,Speed,0.030000,1.280000,1.830000,3.000000,102.000000,1,0,-0.006200,-0.006200,0,0.000000,0.000000,0.000000,-0.115845,0.045578,0.000000,0.000000,0.001000,0.000000,FlatInitial
01:37:45.900 PM 02/14/2016,Teleop Enabled,0,FALSE,0,NO ERROR,0.000000,-727.587891,4000.000000,4000.000000,Speed,Speed,0.030000,1.280000,1.830000,3.000000,102.000000,1,0,-0.006200,-0.006200,0,0.000000,0.000000,0.000000,-0.115845,0.045578,0.000000,-0.001000,0.000000,0.000000,FlatInitial
01:37:46.000 PM 02/14/2016,Teleop Enabled,0,FALSE,0,NO ERROR,0.000000,-727.587891,4000.000000,4000.000000,Speed,Speed,0.030000,1.280000,1.830000,3.000000,101.000000,1,0,-0.006200,-0.006200,0,0.000000,0.000000,0.000000,-0.115845,0.045578,0.000000,0.001000,-0.001000,0.000000,FlatInitial
01:37:46.100 PM 02/14/2016,Teleop Enabled,0,FALSE,0,NO ERROR,0.000000,-727.587891,4000.000000,4000.000000,Speed,Speed,0.030000,1.280000,1.830000,3.000000,102.000000,1,0,-0.006200,-0.006200,0,0.000000,0.000000,0.000000,-0.115845,0.045578,0.000000,0.000000,0.000000,0.003000,FlatInitial
01:37:46.201 PM 02/14/2016,Teleop Enabled,0,FALSE,0,NO ERROR,0.000000,-727.587891,4000.000000,4000.000000,Speed,Speed,0.040000,1.280000,1.830000,3.000000,105.000000,1,0,-0.006200,-0.006200,0,0.000000,0.000000,0.000000,-0.115845,0.045578,0.000000,0.002000,0.000000,0.001000,FlatInitial
01:37:46.302 PM 02/14/2016,Teleop Enabled,0,FALSE,0,NO ERROR,0.000000,-727.587891,4000.000000,4000.000000,Speed,Speed,0.040000,1.280000,1.830000,3.000000,103.000000,1,0,-0.006200,-0.006200,0,0.000000,0.000000,0.000000,-0.115845,0.045578,0.000000,0.000000,-0.001000,0.000000,FlatInitial
01:37:46.403 PM 02/14/2016,Teleop Enabled,0,FALSE,0,NO ERROR,0.000000,-727.587891,4000.000000,4000.000000,Speed,Speed,0.040000,1.270000,1.840000,3.000000,101.000000,1,0,-0.006200,-0.006200,0,0.000000,0.000000,0.000000,-0.115845,0.045578,0.000000,0.000000,-0.002000,0.007000,FlatInitial
01:37:46.503 PM 02/14/2016,Teleop Enabled,0,FALSE,0,NO ERROR,0.000000,-727.587891,4000.000000,4000.000000,Speed,Speed,0.040000,1.280000,1.830000,3.000000,101.000000,1,0,-0.006200,-0.006200,0,0.000000,0.000000,0.000000,-0.115845,0.045578,0.000000,0.001000,-0.002000,-0.004000,FlatInitial
01:37:46.603 PM 02/14/2016,Teleop Enabled,0,FALSE,0,NO ERROR,0.000000,-727.587891,4000.000000,4000.000000,Speed,Speed,0.040000,1.280000,1.830000,3.000000,100.000000,1,0,-0.006200,-0.006200,0,0.000000,0.000000,0.000000,-0.115845,0.045578,0.000000,0.000000,-0.002000,0.000000,FlatInitial
01:37:46.705 PM 02/14/2016,Teleop Enabled,0,FALSE,0,NO ERROR,0.000000,-727.587891,4000.000000,4000.000000,Speed,Speed,0.040000,1.280000,1.830000,3.000000,101.000000,1,0,-0.006200,-0.006200,0,0.000000,0.000000,0.000000,-0.115845,0.045578,0.000000,-0.001000,0.001000,-0.002000,FlatInitial
01:37:46.805 PM 02/14/2016,Teleop Enabled,0,FALSE,0,NO ERROR,0.000000,-727.587891,4000.000000,4000.000000,Speed,Speed,0.040000,1.280000,1.840000,3.000000,101.000000,1,0,-0.006200,-0.006200,0,0.000000,0.000000,0.000000,-0.115845,0.045578,0.000000,0.001000,-0.004000,0.001000,FlatInitial
01:37:46.906 PM 02/14/2016,Teleop Enabled,0,FALSE,0,NO ERROR,0.000000,-727.587891,4000.000000,4000.000000,Speed,Speed,0.040000,1.280000,1.830000,3.000000,102.000000,1,0,-0.006200,-0.006200,0,0.000000,0.000000,0.000000,-0.115845,0.045578,0.000000,0.000000,0.000000,0.003000,FlatInitial
01:37:47.006 PM 02/14/2016,Teleop Enabled,0,FALSE,0,NO ERROR,0.000000,-727.587891,4000.000000,4000.000000,Speed,Speed,0.040000,1.280000,1.830000,3.000000,101.000000,1,0,-0.006200,-0.006200,0,0.000000,0.000000,0.000000,-0.115845,0.045578,0.000000,0.001000,-0.001000,0.001000,FlatInitial
01:37:47.105 PM 02/14/2016,Teleop Enabled,0,FALSE,0,NO ERROR,0.000000,-727.587891,4000.000000,4000.000000,Speed,Speed,0.040000,1.280000,1.830000,3.000000,102.000000,1,0,-0.006200,-0.006200,0,0.000000,0.000000,0.000000,-0.115845,0.045578,0.000000,0.001000,-0.001000,0.001000,FlatInitial
01:37:47.207 PM 02/14/2016,Teleop Enabled,0,FALSE,0,NO ERROR,0.000000,-727.587891,4000.000000,4000.000000,Speed,Speed,0.040000,1.270000,1.840000,3.000000,102.000000,1,0,-0.006200,-0.006200,0,0.000000,0.000000,0.000000,-0.115845,0.045578,0.000000,0.001000,-0.002000,0.001000,FlatInitial
01:37:47.307 PM 02/14/2016,Teleop Enabled,0,FALSE,0,NO ERROR,0.000000,-727.587891,4000.000000,4000.000000,Speed,Speed,0.040000,1.270000,1.840000,3.000000,101.000000,1,0,-0.006200,-0.006200,0,0.000000,0.000000,0.000000,-0.115845,0.045578,0.000000,0.001000,-0.005000,0.001000,FlatInitial
01:37:47.407 PM 02/14/2016,Teleop Enabled,0,FALSE,0,NO ERROR,0.000000,-727.587891,4000.000000,4000.000000,Speed,Speed,0.030000,1.270000,1.830000,3.000000,102.000000,1,0,-0.006200,-0.006200,0,0.000000,0.000000,0.000000,-0.115845,0.045578,0.000000,-0.001000,-0.002000,-0.002000,FlatInitial
01:37:47.508 PM 02/14/2016,Teleop Enabled,0,FALSE,0,NO ERROR,0.000000,-727.587891,4000.000000,4000.000000,Speed,Speed,0.030000,1.270000,1.830000,3.000000,104.000000,1,0,-0.006200,-0.006200,0,0.000000,0.000000,0.000000,-0.115845,0.045578,0.000000,0.000000,-0.001000,0.000000,FlatInitial
01:37:47.608 PM 02/14/2016,Teleop Enabled,0,FALSE,0,NO ERROR,0.000000,-727.587891,4000.000000,4000.000000,Speed,Speed,0.030000,1.270000,1.830000,3.000000,102.000000,1,0,-0.006200,-0.006200,0,0.000000,0.000000,0.000000,-0.115845,0.045578,0.000000,-0.004000,0.000000,0.002000,FlatInitial
01:37:47.708 PM 02/14/2016,Teleop Enabled,0,FALSE,0,NO ERROR,0.000000,-727.587891,4000.000000,4000.000000,Speed,Speed,0.030000,1.270000,1.820000,3.000000,101.000000,1,0,-0.006200,-0.006200,0,0.000000,0.000000,0.000000,-0.115845,0.045578,0.000000,-0.002000,0.000000,-0.002000,FlatInitial
01:37:47.809 PM 02/14/2016,Teleop Enabled,0,FALSE,0,NO ERROR,0.000000,-727.587891,4000.000000,4000.000000,Speed,Speed,0.030000,1.270000,1.820000,3.000000,101.000000,1,0,-0.006200,-0.006200,0,0.000000,0.000000,0.000000,-0.115845,0.045578,0.000000,0.000000,-0.003000,0.003000,FlatInitial
01:37:47.910 PM 02/14/2016,Teleop Enabled,0,FALSE,0,NO ERROR,0.000000,-727.587891,4000.000000,4000.000000,Speed,Speed,0.030000,1.270000,1.820000,3.000000,101.000000,1,0,-0.006200,-0.006200,0,0.000000,0.000000,0.000000,-0.115845,0.045578,0.000000,-0.001000,0.000000,0.000000,FlatInitial
01:37:48.009 PM 02/14/2016,Teleop Enabled,0,FALSE,0,NO ERROR,0.000000,-727.587891,4000.000000,4000.000000,Speed,Speed,0.030000,1.270000,1.820000,3.000000,102.000000,1,0,-0.006200,-0.006200,0,0.000000,0.000000,0.000000,-0.115845,0.045578,0.000000,-0.001000,0.000000,0.000000,FlatInitial
01:37:48.111 PM 02/14/2016,Teleop Enabled,0,FALSE,0,NO ERROR,0.000000,-727.587891,4000.000000,4000.000000,Speed,Speed,0.030000,1.270000,1.810000,3.000000,103.000000,1,0,-0.006200,-0.006200,0,0.000000,0.000000,0.000000,-0.115845,0.045578,0.000000,0.002000,0.000000,0.001000,FlatInitial
01:37:48.213 PM 02/14/2016,Teleop Enabled,0,FALSE,0,NO ERROR,0.000000,-727.587891,4000.000000,4000.000000,Speed,Speed,0.030000,1.270000,1.810000,3.000000,101.000000,1,0,-0.006200,-0.006200,0,0.000000,0.000000,0.000000,-0.115845,0.045578,0.000000,0.000000,-0.001000,0.000000,FlatInitial
01:37:48.316 PM 02/14/2016,Teleop Enabled,0,FALSE,0,NO ERROR,0.000000,-727.587891,4000.000000,4000.000000,Speed,Speed,0.030000,1.280000,1.810000,3.000000,102.000000,1,0,-0.006200,-0.006200,0,0.000000,0.000000,0.000000,-0.115845,0.045578,0.000000,-0.002000,-0.001000,0.000000,FlatInitial
01:37:48.416 PM 02/14/2016,Teleop Enabled,0,FALSE,0,NO ERROR,0.000000,-727.587891,4000.000000,4000.000000,Speed,Speed,0.030000,1.280000,1.810000,3.000000,103.000000,1,0,-0.006200,-0.006200,0,0.000000,0.000000,0.000000,-0.115845,0.045578,0.000000,0.000000,0.001000,0.001000,FlatInitial
01:37:48.517 PM 02/14/2016,Teleop Enabled,0,FALSE,0,NO ERROR,0.000000,-727.587891,4000.000000,4000.000000,Speed,Speed,0.030000,1.280000,1.810000,3.000000,101.000000,1,0,-0.006200,-0.006200,0,0.000000,0.000000,0.000000,-0.115845,0.045578,0.000000,0.000000,0.000000,0.004000,FlatInitial
01:37:48.617 PM 02/14/2016,Teleop Enabled,0,FALSE,0,NO ERROR,0.000000,-727.587891,4000.000000,4000.000000,Speed,Speed,0.030000,1.280000,1.810000,3.000000,102.000000,1,0,-0.006200,-0.006200,0,0.000000,0.000000,0.000000,-0.115845,0.045578,0.000000,-0.001000,0.000000,0.002000,FlatInitial
01:37:48.717 PM 02/14/2016,Teleop Enabled,0,FALSE,0,NO ERROR,0.000000,-727.587891,4000.000000,4000.000000,Speed,Speed,0.030000,1.280000,1.800000,3.000000,101.000000,1,0,-0.006200,-0.006200,0,0.000000,0.000000,0.000000,-0.115845,0.045578,0.000000,0.000000,0.002000,-0.001000,FlatInitial
01:37:48.817 PM 02/14/2016,Teleop Enabled,0,FALSE,0,NO ERROR,0.000000,-727.587891,4000.000000,4000.000000,Speed,Speed,0.030000,1.280000,1.810000,3.000000,102.000000,1,0,-0.006200,-0.006200,0,0.000000,0.000000,0.000000,-0.115845,0.045578,0.000000,-0.001000,0.001000,0.001000,FlatInitial
01:37:48.917 PM 02/14/2016,Teleop Enabled,0,FALSE,0,NO ERROR,0.000000,-727.587891,4000.000000,4000.000000,Speed,Speed,0.030000,1.280000,1.810000,3.000000,101.000000,1,0,-0.006200,-0.006200,0,0.000000,0.000000,0.000000,-0.115845,0.045578,0.000000,0.002000,-0.001000,0.000000,FlatInitial
01:37:49.019 PM 02/14/2016,Teleop Enabled,0,FALSE,0,NO ERROR,0.000000,-727.587891,4000.000000,4000.000000,Speed,Speed,0.030000,1.280000,1.810000,3.000000,103.000000,1,0,-0.006200,-0.006200,0,0.000000,0.000000,0.000000,-0.115845,0.045578,0.000000,-0.001000,-0.001000,0.004000,FlatInitial
01:37:49.119 PM 02/14/2016,Teleop Enabled,0,FALSE,0,NO ERROR,0.000000,-727.587891,4000.000000,4000.000000,Speed,Speed,0.030000,1.280000,1.810000,3.000000,101.000000,1,0,-0.006200,-0.006200,0,0.000000,0.000000,0.000000,-0.115845,0.045578,0.000000,0.000000,-0.001000,0.000000,FlatInitial
01:37:49.219 PM 02/14/2016,Teleop Enabled,0,FALSE,0,NO ERROR,0.000000,-727.587891,4000.000000,4000.000000,Speed,Speed,0.020000,1.280000,1.810000,3.000000,101.000000,1,0,-0.006200,-0.006200,0,0.000000,0.000000,0.000000,-0.115845,0.045578,0.000000,0.000000,0.000000,0.001000,FlatInitial
01:37:49.319 PM 02/14/2016,Teleop Enabled,0,FALSE,0,NO ERROR,0.000000,-727.587891,4000.000000,4000.000000,Speed,Speed,0.020000,1.280000,1.810000,3.000000,102.000000,1,0,-0.006200,-0.006200,0,0.000000,0.000000,0.000000,-0.115845,0.045578,0.000000,0.000000,0.003000,-0.001000,FlatInitial
01:37:49.419 PM 02/14/2016,Teleop Enabled,0,FALSE,0,NO ERROR,0.000000,-727.587891,4000.000000,4000.000000,Speed,Speed,0.020000,1.280000,1.810000,3.000000,101.000000,1,0,-0.006200,-0.006200,0,0.000000,0.000000,0.000000,-0.115845,0.045578,0.000000,-0.001000,0.000000,0.000000,FlatInitial
01:37:49.520 PM 02/14/2016,Teleop Enabled,0,FALSE,0,NO ERROR,0.000000,-727.587891,4000.000000,4000.000000,Speed,Speed,0.020000,1.280000,1.800000,3.000000,102.000000,1,0,-0.006200,-0.006200,0,0.000000,0.000000,0.000000,-0.115845,0.045578,0.000000,0.000000,0.000000,-0.002000,FlatInitial
01:37:49.620 PM 02/14/2016,Teleop Enabled,0,FALSE,0,NO ERROR,0.000000,-727.587891,4000.000000,4000.000000,Speed,Speed,0.020000,1.280000,1.800000,3.000000,102.000000,1,0,-0.006200,-0.006200,0,0.000000,0.000000,0.000000,-0.115845,0.045578,0.000000,-0.001000,0.000000,0.002000,FlatInitial
01:37:49.721 PM 02/14/2016,Teleop Enabled,0,FALSE,0,NO ERROR,0.000000,-727.587891,4000.000000,4000.000000,Speed,Speed,0.020000,1.280000,1.800000,3.000000,101.000000,1,0,-0.006200,-0.006200,0,0.000000,0.000000,0.000000,-0.115845,0.045578,0.000000,-0.001000,0.000000,0.001000,FlatInitial
01:37:49.822 PM 02/14/2016,Teleop Enabled,0,FALSE,0,NO ERROR,0.000000,-727.587891,4000.000000,4000.000000,Speed,Speed,0.020000,1.280000,1.800000,3.000000,101.000000,1,0,-0.006200,-0.006200,0,0.000000,0.000000,0.000000,-0.115845,0.045578,0.000000,0.000000,0.000000,0.001000,FlatInitial
01:37:49.923 PM 02/14/2016,Teleop Enabled,0,FALSE,0,NO ERROR,0.000000,-727.587891,4000.000000,4000.000000,Speed,Speed,0.010000,1.280000,1.800000,3.000000,107.000000,1,0,-0.006200,-0.006200,0,0.000000,0.000000,0.000000,-0.115845,0.045578,0.000000,-0.001000,0.002000,0.000000,FlatInitial
01:37:50.023 PM 02/14/2016,Teleop Enabled,0,FALSE,0,NO ERROR,0.000000,-727.587891,4000.000000,4000.000000,Speed,Speed,0.010000,1.280000,1.800000,3.000000,103.000000,1,0,-0.006200,-0.006200,0,0.000000,0.000000,0.000000,-0.115845,0.045578,0.000000,0.000000,0.000000,-0.001000,FlatInitial
01:37:50.122 PM 02/14/2016,Teleop Enabled,0,FALSE,0,NO ERROR,0.000000,-727.587891,4000.000000,4000.000000,Speed,Speed,0.010000,1.290000,1.800000,3.000000,102.000000,1,0,-0.006200,-0.006200,0,0.000000,0.000000,0.000000,-0.115845,0.045578,0.000000,0.001000,0.000000,0.002000,FlatInitial
01:37:50.222 PM 02/14/2016,Teleop Enabled,0,FALSE,0,NO ERROR,0.000000,-727.587891,4000.000000,4000.000000,Speed,Speed,0.010000,1.290000,1.800000,3.000000,103.000000,1,0,-0.006200,-0.006200,0,0.000000,0.000000,0.000000,-0.115845,0.045578,0.000000,0.001000,0.000000,0.003000,FlatInitial
01:37:50.322 PM 02/14/2016,Teleop Enabled,0,FALSE,0,NO ERROR,0.000000,-727.587891,4000.000000,4000.000000,Speed,Speed,0.010000,1.290000,1.800000,3.000000,103.000000,1,0,-0.006200,-0.006200,0,0.000000,0.000000,0.000000,-0.115845,0.045578,0.000000,0.000000,-0.001000,0.002000,FlatInitial
01:37:50.423 PM 02/14/2016,Teleop Enabled,0,FALSE,0,NO ERROR,0.000000,-727.587891,4000.000000,4000.000000,Speed,Speed,0.000000,1.290000,1.800000,3.000000,100.000000,1,0,-0.006200,-0.006200,0,0.000000,0.000000,0.000000,-0.115845,0.045578,0.000000,-0.004000,0.004000,-0.006000,FlatInitial
01:37:50.523 PM 02/14/2016,Teleop Enabled,0,FALSE,0,NO ERROR,0.000000,-727.587891,4000.000000,4000.000000,Speed,Speed,0.010000,1.290000,1.790000,3.000000,102.000000,1,0,-0.006200,-0.006200,0,0.000000,0.000000,0.000000,-0.115845,0.045578,0.000000,0.000000,0.002000,0.001000,FlatInitial
01:37:50.628 PM 02/14/2016,Teleop Enabled,0,FALSE,0,NO ERROR,0.000000,-727.587891,4000.000000,4000.000000,Speed,Speed,0.040000,1.280000,1.780000,3.000000,103.000000,1,0,-0.006200,-0.006200,0,0.000000,0.000000,0.000000,-0.115845,0.045578,0.000000,-0.003000,-0.007000,0.000000,FlatInitial
01:37:50.728 PM 02/14/2016,Teleop Enabled,0,FALSE,0,NO ERROR,0.000000,-727.587891,4000.000000,4000.000000,Speed,Speed,0.100000,1.270000,1.770000,3.000000,103.000000,1,0,-0.006200,-0.006200,0,0.000000,0.000000,0.000000,-0.115845,0.045578,0.000000,0.006000,-0.004000,0.000000,FlatInitial
01:37:50.829 PM 02/14/2016,Teleop Enabled,0,FALSE,0,NO ERROR,0.000000,-727.587891,4000.000000,4000.000000,Speed,Speed,0.090000,1.270000,1.790000,3.000000,101.000000,1,0,-0.006200,-0.006200,0,0.000000,0.000000,0.000000,-0.115845,0.045578,0.000000,0.001000,0.005000,0.003000,FlatInitial
01:37:50.929 PM 02/14/2016,Teleop Enabled,0,FALSE,0,NO ERROR,0.000000,-727.587891,4000.000000,4000.000000,Speed,Speed,0.050000,1.290000,1.820000,3.000000,103.000000,1,0,-0.006200,-0.006200,0,0.000000,0.000000,0.000000,-0.115845,0.045578,0.000000,-0.005000,-0.004000,0.000000,FlatInitial
01:37:51.029 PM 02/14/2016,Teleop Enabled,0,FALSE,0,NO ERROR,0.000000,-727.587891,4000.000000,4000.000000,Speed,Speed,0.030000,1.290000,1.820000,3.000000,102.000000,1,0,-0.006200,-0.006200,0,0.000000,0.000000,0.000000,-0.115845,0.045578,0.000000,0.002000,0.002000,0.000000,FlatInitial
01:37:51.130 PM 02/14/2016,Teleop Enabled,0,FALSE,0,NO ERROR,0.000000,-727.587891,4000.000000,4000.000000,Speed,Speed,0.010000,1.290000,1.870000,3.000000,102.000000,1,0,-0.006200,-0.006200,0,0.000000,0.000000,0.000000,-0.115845,0.045578,0.000000,-0.008000,0.000000,-0.005000,FlatInitial
01:37:51.230 PM 02/14/2016,Teleop Enabled,0,FALSE,0,NO ERROR,0.000000,-727.587891,4000.000000,4000.000000,Speed,Speed,0.020000,1.290000,1.900000,3.000000,101.000000,1,0,-0.006200,-0.006200,0,0.000000,0.000000,0.000000,-0.115845,0.045578,0.000000,-0.003000,-0.001000,-0.003000,FlatInitial
01:37:51.330 PM 02/14/2016,Teleop Enabled,0,FALSE,0,NO ERROR,0.000000,-727.587891,4000.000000,4000.000000,Speed,Speed,0.030000,1.280000,1.940000,3.000000,101.000000,1,0,-0.006200,-0.006200,0,0.000000,0.000000,0.000000,-0.115845,0.045578,0.000000,0.004000,-0.001000,-0.001000,FlatInitial
01:37:51.430 PM 02/14/2016,Teleop Enabled,0,FALSE,0,NO ERROR,0.000000,-727.587891,4000.000000,4000.000000,Speed,Speed,0.020000,1.290000,1.950000,3.000000,101.000000,1,0,-0.006200,-0.006200,0,0.000000,0.000000,0.000000,-0.115845,0.045578,0.000000,0.002000,0.009000,0.000000,FlatInitial
01:37:51.531 PM 02/14/2016,Teleop Enabled,0,FALSE,0,NO ERROR,0.000000,-727.587891,4000.000000,4000.000000,Speed,Speed,0.050000,1.280000,2.010000,3.000000,100.000000,1,0,-0.006200,-0.006200,0,0.000000,0.000000,0.000000,-0.115845,0.045578,0.000000,-0.003000,-0.007000,0.005000,FlatInitial
01:37:51.632 PM 02/14/2016,Teleop Enabled,0,FALSE,0,NO ERROR,0.000000,-727.587891,4000.000000,4000.000000,Speed,Speed,0.050000,1.290000,1.990000,3.000000,102.000000,1,0,-0.006200,-0.006200,0,0.000000,0.000000,0.000000,-0.115845,0.045578,0.000000,-0.001000,-0.009000,-0.008000,FlatInitial
01:37:51.732 PM 02/14/2016,Teleop Enabled,0,FALSE,0,NO ERROR,0.000000,-727.587891,4000.000000,4000.000000,Speed,Speed,0.020000,1.280000,2.020000,3.000000,103.000000,1,0,-0.006200,-0.006200,0,0.000000,0.000000,0.000000,-0.115845,0.045578,0.000000,-0.001000,0.014000,-0.004000,FlatInitial
01:37:51.833 PM 02/14/2016,Teleop Enabled,0,FALSE,0,NO ERROR,0.000000,-727.587891,4000.000000,4000.000000,Speed,Speed,0.040000,1.270000,1.960000,3.000000,100.000000,1,0,-0.006200,-0.006200,0,0.000000,0.000000,0.000000,-0.115845,0.045578,0.000000,0.001000,0.008000,-0.008000,FlatInitial
01:37:51.934 PM 02/14/2016,Teleop Enabled,0,FALSE,0,NO ERROR,0.000000,-727.587891,4000.000000,4000.000000,Speed,Speed,0.060000,1.270000,1.990000,3.000000,102.000000,1,0,-0.006200,-0.006200,0,0.000000,0.000000,0.000000,-0.115845,0.045578,0.000000,0.000000,-0.009000,0.000000,FlatInitial
01:37:52.034 PM 02/14/2016,Teleop Enabled,0,FALSE,0,NO ERROR,0.000000,-727.587891,4000.000000,4000.000000,Speed,Speed,0.050000,1.280000,2.040000,3.000000,102.000000,1,0,-0.006200,-0.006200,0,0.000000,-0.003510,0.000000,-0.115845,0.045547,0.000000,0.004000,-0.020000,0.007000,FlatInitial
01:37:52.134 PM 02/14/2016,Teleop Enabled,0,FALSE,0,NO ERROR,0.000000,-727.587891,4000.000000,4000.000000,Speed,Speed,0.090000,1.280000,2.010000,3.000000,100.000000,1,0,-0.006200,-0.006200,0,0.000000,0.000000,0.000000,-0.115845,0.045380,0.000000,-0.003000,0.013000,-0.006000,FlatInitial
01:37:52.235 PM 02/14/2016,Teleop Enabled,0,FALSE,0,NO ERROR,0.000000,-727.587891,4000.000000,4000.000000,Speed,Speed,0.110000,1.280000,2.040000,3.000000,101.000000,1,0,-0.006200,-0.006200,0,0.000000,0.011139,0.000000,-0.115845,0.045593,0.000000,-0.006000,0.009000,0.000000,FlatInitial
01:37:52.335 PM 02/14/2016,Teleop Enabled,0,FALSE,0,NO ERROR,0.000000,-727.587891,4000.000000,4000.000000,Speed,Speed,0.160000,1.280000,2.010000,3.000000,102.000000,1,0,-0.006200,-0.006200,0,0.000000,0.000000,0.000000,-0.115845,0.045593,0.000000,0.004000,0.002000,0.000000,FlatInitial
01:37:52.436 PM 02/14/2016,Teleop Enabled,0,FALSE,0,NO ERROR,0.000000,-727.587891,4000.000000,4000.000000,Speed,Speed,0.190000,1.280000,1.980000,3.000000,101.000000,1,0,-0.006200,-0.006200,0,0.000000,0.000000,0.000000,-0.115845,0.045593,0.000000,0.002000,-0.006000,0.004000,FlatInitial
01:37:52.536 PM 02/14/2016,Teleop Enabled,0,FALSE,0,NO ERROR,0.000000,-727.587891,4000.000000,4000.000000,Speed,Speed,0.150000,1.280000,1.900000,3.000000,102.000000,1,0,-0.006200,-0.006200,0,0.000000,-0.002884,0.000000,-0.115845,0.045563,0.000000,-0.003000,-0.020000,0.003000,FlatInitial
01:37:52.637 PM 02/14/2016,Teleop Enabled,0,FALSE,0,NO ERROR,0.000000,-727.587891,4000.000000,4000.000000,Speed,Speed,0.110000,1.280000,1.830000,3.000000,102.000000,1,0,-0.006200,-0.006200,0,0.000000,0.000000,0.000000,-0.115845,0.045410,0.000000,0.000000,-0.009000,-0.003000,FlatInitial
01:37:52.737 PM 02/14/2016,Teleop Enabled,0,FALSE,0,NO ERROR,0.000000,-727.587891,4000.000000,4000.000000,Speed,Speed,0.170000,1.280000,1.830000,3.000000,104.000000,1,0,-0.006200,-0.006200,0,0.000000,0.000000,0.000000,-0.115845,0.045410,0.000000,0.001000,0.004000,0.002000,FlatInitial
01:37:52.837 PM 02/14/2016,Teleop Enabled,0,FALSE,0,NO ERROR,0.000000,-727.587891,4000.000000,4000.000000,Speed,Speed,0.250000,1.280000,1.820000,3.000000,102.000000,1,0,-0.006200,-0.006200,0,0.000000,0.000000,0.000000,-0.115845,0.045410,0.000000,-0.001000,0.004000,0.005000,FlatInitial
01:37:52.937 PM 02/14/2016,Teleop Enabled,0,FALSE,0,NO ERROR,0.000000,-727.587891,4000.000000,4000.000000,Speed,Speed,0.250000,1.290000,1.720000,3.000000,102.000000,1,0,-0.006200,-0.006200,0,0.000000,0.012787,0.000000,-0.115845,0.045670,0.000000,0.005000,0.000000,0.020000,FlatInitial
01:37:53.038 PM 02/14/2016,Teleop Enabled,0,FALSE,0,NO ERROR,0.000000,-727.587891,4000.000000,4000.000000,Speed,Speed,0.200000,1.310000,1.810000,3.000000,101.000000,1,0,-0.006200,-0.006200,0,0.005920,-0.019318,0.000000,-0.115677,0.045242,0.000000,-0.020000,-0.029000,0.035000,FlatInitial
01:37:53.138 PM 02/14/2016,Teleop Enabled,0,FALSE,0,NO ERROR,0.000000,-727.587891,4000.000000,4000.000000,Speed,Speed,0.330000,1.250000,1.760000,3.000000,101.000000,1,0,-0.006200,-0.006200,0,0.000000,0.000000,0.000000,-0.115707,0.044403,0.000000,0.008000,0.008000,0.035000,FlatInitial
01:37:53.239 PM 02/14/2016,Teleop Enabled,0,FALSE,0,NO ERROR,0.000000,-727.587891,4000.000000,4000.000000,Speed,Speed,0.430000,1.290000,1.820000,3.000000,102.000000,1,0,-0.006200,-0.006200,0,0.007690,0.007202,0.000000,-0.115585,0.044815,0.000000,0.009000,-0.036000,0.033000,FlatInitial
01:37:53.339 PM 02/14/2016,Teleop Enabled,0,FALSE,0,NO ERROR,0.000000,-727.587891,4000.000000,4000.000000,Speed,Speed,0.420000,1.270000,1.770000,3.000000,101.000000,1,0,-0.006200,-0.006200,0,0.000000,0.000000,0.000000,-0.115524,0.044861,0.000000,0.007000,-0.008000,0.009000,FlatInitial
01:37:53.440 PM 02/14/2016,Teleop Enabled,0,FALSE,0,NO ERROR,0.000000,-727.587891,4000.000000,4000.000000,Speed,Speed,0.360000,1.290000,1.820000,3.000000,102.000000,1,0,-0.006200,-0.006200,0,0.000000,-0.001587,0.000000,-0.115524,0.044846,0.000000,-0.009000,-0.016000,0.001000,FlatInitial
01:37:53.541 PM 02/14/2016,Teleop Enabled,0,FALSE,0,NO ERROR,0.000000,-727.587891,4000.000000,4000.000000,Speed,Speed,0.520000,1.260000,1.860000,3.000000,101.000000,1,0,-0.006200,-0.006200,0,0.000000,0.003830,0.000000,-0.115524,0.044739,0.000000,-0.008000,0.026000,0.007000,FlatInitial
01:37:53.643 PM 02/14/2016,Teleop Enabled,0,FALSE,0,NO ERROR,0.000000,-727.587891,4000.000000,4000.000000,Speed,Speed,0.560000,1.260000,1.840000,3.000000,102.000000,1,0,-0.006200,-0.006200,0,0.000000,0.000000,0.000000,-0.115524,0.045471,0.000000,0.022000,-0.004000,0.017000,FlatInitial
01:37:53.744 PM 02/14/2016,Teleop Enabled,0,FALSE,0,NO ERROR,0.000000,-727.587891,4000.000000,4000.000000,Speed,Speed,0.500000,1.270000,1.800000,3.000000,101.000000,1,0,-0.006200,-0.006200,0,-0.003830,0.000000,0.000000,-0.115372,0.045059,0.000000,-0.022000,0.002000,-0.033000,FlatInitial
01:37:53.844 PM 02/14/2016,Teleop Enabled,0,FALSE,0,NO ERROR,0.000000,-727.587891,4000.000000,4000.000000,Speed,Speed,0.520000,1.290000,1.800000,3.000000,101.000000,1,0,-0.006200,-0.006200,0,0.000000,0.000000,0.000000,-0.115524,0.045059,0.000000,0.008000,-0.007000,-0.003000,FlatInitial
01:37:53.945 PM 02/14/2016,Teleop Enabled,0,FALSE,0,NO ERROR,0.000000,-727.587891,4000.000000,4000.000000,Speed,Speed,0.530000,1.270000,1.780000,3.000000,105.000000,1,0,-0.006200,-0.006200,0,0.000000,0.000000,0.000000,-0.115524,0.045059,0.000000,0.007000,-0.002000,-0.004000,FlatInitial
01:37:54.046 PM 02/14/2016,Teleop Enabled,0,FALSE,0,NO ERROR,0.000000,-727.587891,4000.000000,4000.000000,Speed,Speed,0.500000,1.280000,1.780000,3.000000,103.000000,1,0,-0.006200,-0.006200,0,0.000000,0.000000,0.000000,-0.115524,0.045059,0.000000,0.003000,0.007000,0.000000,FlatInitial
01:37:54.146 PM 02/14/2016,Teleop Enabled,0,FALSE,0,NO ERROR,0.000000,-727.587891,4000.000000,4000.000000,Speed,Speed,0.490000,1.280000,1.780000,3.000000,101.000000,1,0,-0.006200,-0.006200,0,0.000000,0.000000,0.000000,-0.115524,0.045059,0.000000,-0.003000,0.013000,0.012000,FlatInitial
01:37:54.246 PM 02/14/2016,Teleop Enabled,0,FALSE,0,NO ERROR,0.000000,-727.587891,4000.000000,4000.000000,Speed,Speed,0.450000,1.300000,1.720000,3.000000,100.000000,1,0,-0.006200,-0.006200,0,0.000000,-0.016510,0.000000,-0.115524,0.044724,0.000000,0.006000,-0.026000,-0.016000,FlatInitial
01:37:54.347 PM 02/14/2016,Teleop Enabled,0,FALSE,0,NO ERROR,0.000000,-727.587891,4000.000000,4000.000000,Speed,Speed,0.410000,1.280000,1.770000,3.000000,104.000000,1,0,-0.006200,-0.006200,0,0.000000,0.000000,0.000000,-0.115524,0.044312,0.000000,0.001000,-0.001000,0.000000,FlatInitial
01:37:54.448 PM 02/14/2016,Teleop Enabled,0,FALSE,0,NO ERROR,0.000000,-727.587891,4000.000000,4000.000000,Speed,Speed,0.520000,1.270000,1.750000,3.000000,101.000000,1,0,-0.006200,-0.006200,0,0.000000,0.000000,0.000000,-0.115524,0.044312,0.000000,-0.005000,0.013000,-0.009000,FlatInitial
01:37:54.548 PM 02/14/2016,Teleop Enabled,0,FALSE,0,NO ERROR,0.000000,-727.587891,4000.000000,4000.000000,Speed,Speed,0.530000,1.280000,1.810000,3.000000,100.000000,1,0,-0.006200,-0.006200,0,0.000000,0.000000,0.000000,-0.115524,0.044312,0.000000,0.001000,0.006000,0.000000,FlatInitial
01:37:54.648 PM 02/14/2016,Teleop Enabled,0,FALSE,0,NO ERROR,0.000000,-727.587891,4000.000000,4000.000000,Speed,Speed,0.450000,1.280000,1.820000,3.000000,102.000000,1,0,-0.006200,-0.006200,0,0.000000,-0.008453,0.000000,-0.115524,0.044189,0.000000,-0.002000,-0.020000,-0.014000,FlatInitial
01:37:54.747 PM 02/14/2016,Teleop Enabled,0,FALSE,0,NO ERROR,0.000000,-727.587891,4000.000000,4000.000000,Speed,Speed,0.550000,1.270000,1.850000,3.000000,102.000000,1,0,-0.006200,-0.006200,0,0.000000,0.000000,0.000000,-0.115524,0.044067,0.000000,0.001000,0.017000,0.000000,FlatInitial
01:37:54.848 PM 02/14/2016,Teleop Enabled,0,FALSE,0,NO ERROR,0.000000,-727.587891,4000.000000,4000.000000,Speed,Speed,0.590000,1.280000,1.750000,3.000000,102.000000,1,0,-0.006200,-0.006200,0,0.000000,0.021820,0.000000,-0.115524,0.044617,0.000000,-0.003000,0.020000,-0.039000,FlatInitial
01:37:54.949 PM 02/14/2016,Teleop Enabled,0,FALSE,0,NO ERROR,0.000000,-727.587891,4000.000000,4000.000000,Speed,Speed,0.560000,1.280000,1.810000,3.000000,101.000000,1,0,-0.006200,-0.006200,0,0.000000,0.000000,0.000000,-0.115524,0.044861,0.000000,-0.003000,0.002000,-0.025000,FlatInitial
01:37:55.049 PM 02/14/2016,Teleop Enabled,0,FALSE,0,NO ERROR,0.000000,-727.587891,4000.000000,4000.000000,Speed,Speed,0.560000,1.300000,1.780000,3.000000,102.000000,1,0,-0.006200,-0.006200,0,0.000000,0.000000,0.000000,-0.115524,0.044861,0.000000,0.007000,-0.006000,0.013000,FlatInitial
01:37:55.151 PM 02/14/2016,Teleop Enabled,0,FALSE,0,NO ERROR,0.000000,-727.587891,4000.000000,4000.000000,Speed,Speed,0.530000,1.290000,1.730000,3.000000,101.000000,1,0,-0.006200,-0.006200,0,0.000000,0.000000,0.000000,-0.115524,0.044861,0.000000,-0.004000,0.010000,-0.003000,FlatInitial
01:37:55.252 PM 02/14/2016,Teleop Enabled,0,FALSE,0,NO ERROR,0.000000,-727.587891,4000.000000,4000.000000,Speed,Speed,0.460000,1.310000,1.690000,3.000000,105.000000,1,0,-0.006200,-0.006200,0,0.000000,-0.012833,0.000000,-0.115524,0.044617,0.000000,-0.005000,-0.015000,0.005000,FlatInitial
01:37:55.353 PM 02/14/2016,Teleop Enabled,0,FALSE,0,NO ERROR,0.000000,-727.587891,4000.000000,4000.000000,Speed,Speed,0.460000,1.290000,1.730000,3.000000,101.000000,1,0,-0.006200,-0.006200,0,0.000000,0.000000,0.000000,-0.115524,0.044281,0.000000,0.002000,0.008000,0.003000,FlatInitial
01:37:55.454 PM 02/14/2016,Teleop Enabled,0,FALSE,0,NO ERROR,0.000000,-727.587891,4000.000000,4000.000000,Speed,Speed,0.510000,1.280000,1.700000,3.000000,102.000000,1,0,-0.006200,-0.006200,0,0.000000,0.000000,0.000000,-0.115524,0.044281,0.000000,0.012000,0.000000,0.004000,FlatInitial
01:37:55.553 PM 02/14/2016,Teleop Enabled,0,FALSE,0,NO ERROR,0.000000,-727.587891,4000.000000,4000.000000,Speed,Speed,0.440000,1.280000,1.740000,3.000000,102.000000,1,0,-0.006200,-0.006200,0,0.000000,0.000000,0.000000,-0.115524,0.044281,0.000000,-0.005000,0.007000,0.000000,FlatInitial
01:37:55.654 PM 02/14/2016,Teleop Enabled,0,FALSE,0,NO ERROR,0.000000,-727.587891,4000.000000,4000.000000,Speed,Speed,0.470000,1.280000,1.740000,3.000000,101.000000,1,0,-0.006200,-0.006200,0,0.000000,0.000000,0.000000,-0.115524,0.044281,0.000000,0.003000,-0.002000,-0.004000,FlatInitial
01:37:55.754 PM 02/14/2016,Teleop Enabled,0,FALSE,0,NO ERROR,0.000000,-727.587891,4000.000000,4000.000000,Speed,Speed,0.430000,1.290000,1.860000,3.000000,102.000000,1,0,-0.006200,-0.006200,0,0.000000,0.000000,0.000000,-0.115524,0.044281,0.000000,0.002000,0.005000,0.000000,FlatInitial
01:37:55.854 PM 02/14/2016,Teleop Enabled,0,FALSE,0,NO ERROR,0.000000,-727.587891,4000.000000,4000.000000,Speed,Speed,0.430000,1.290000,1.850000,3.000000,101.000000,1,0,-0.006200,-0.006200,0,0.000000,0.000000,0.000000,-0.115524,0.044281,0.000000,0.000000,0.003000,-0.025000,FlatInitial
01:37:55.955 PM 02/14/2016,Teleop Enabled,0,FALSE,0,NO ERROR,0.000000,-727.587891,4000.000000,4000.000000,Speed,Speed,0.480000,1.270000,1.910000,3.000000,101.000000,1,0,-0.006200,-0.006200,0,0.000000,0.000000,0.000000,-0.115524,0.044281,0.000000,0.006000,-0.010000,0.008000,FlatInitial
