Time,RobotMode,AutoToRun,ErrorStatus, ErrorCode,ErrorSource,ActualRPM1,ActualRPM2,DesiredRPM1,DesiredRPM2,ControlMode1,ControlMode2,NavXYaw,NavXRoll,NavXPitch,ShooterState,LoopTime,IsLevel,IsAutoTargeting,LeftMotorOutput,RightMotorOutput,IsHaloDrive,NavXVelocityX,NavXVelocityY,NavXVelocityZ,NavXDisplacementX,NavXDisplacementY,NavXDisplacementZ,NavXAccelerationX,NavXAccelerationY,NavXAccelerationZ,AutoDefendState
03:30:32.353 PM 02/14/2016,Autonomous Disabled,0,TRUE,91,Variant To Data in WPI_DigitalInputRefNum Registry Get.vi->Periodic Tasks.vi->Robot Main.vi,2000.244141,-1994.970703,2000.000000,2000.000000,Speed,Speed,-0.100000,1.070000,2.180000,5.000000,102.000000,1,0,-0.001550,0.000558,0,0.017990,0.000000,0.000000,24.824127,4.139343,0.000000,0.026000,0.010000,0.033000,FlatInitial
03:30:32.456 PM 02/14/2016,Teleop Disabled,0,TRUE,-44007,<LOCATION>WPI_DigitalInputRefNum Registry Get.vi<CALLSTACK>WPI_DigitalInputRefNum Registry Get.vi< <Periodic Tasks.vi< <Robot Main.vi,0.000000,0.000000,0.000000,0.000000,Speed,Speed,-0.100000,1.070000,2.180000,0.000000,5701045.000000,1,0,-0.001550,0.000558,0,0.017990,0.000000,0.000000,24.824127,4.139343,0.000000,0.026000,0.010000,0.033000,FlatInitial
03:30:32.557 PM 02/14/2016,Teleop Disabled,0,FALSE,0,NO ERROR,0.000000,0.000000,0.000000,0.000000,Speed,Speed,0.000000,1.170000,1.870000,0.000000,102.000000,1,0,-0.001550,0.000558,0,0.000000,0.000000,0.000000,24.829208,4.137344,0.000000,-0.002000,-0.002000,0.000000,FlatInitial
03:30:32.658 PM 02/14/2016,Teleop Disabled,0,FALSE,0,NO ERROR,0.000000,0.000000,0.000000,0.000000,Speed,Speed,0.000000,1.170000,1.870000,0.000000,100.000000,1,0,-0.001550,0.000558,0,0.000000,0.000000,0.000000,24.829208,4.137344,0.000000,0.000000,0.000000,-0.002000,FlatInitial
03:30:32.758 PM 02/14/2016,Teleop Disabled,0,FALSE,0,NO ERROR,0.000000,0.000000,0.000000,0.000000,Speed,Speed,0.000000,1.170000,1.870000,0.000000,101.000000,1,0,-0.001550,0.000558,0,0.000000,0.000000,0.000000,24.829208,4.137344,0.000000,0.000000,0.000000,0.002000,FlatInitial
03:30:32.859 PM 02/14/2016,Teleop Disabled,0,FALSE,0,NO ERROR,0.000000,0.000000,0.000000,0.000000,Speed,Speed,0.000000,1.150000,1.880000,0.000000,101.000000,1,0,-0.001550,0.000558,0,-0.005783,0.000000,0.000000,24.829086,4.137344,0.000000,0.004000,-0.005000,-0.001000,FlatInitial
03:30:32.958 PM 02/14/2016,Teleop Disabled,0,FALSE,0,NO ERROR,0.000000,0.000000,0.000000,0.000000,Speed,Speed,-0.010000,1.170000,1.870000,0.000000,103.000000,1,0,-0.001550,0.000558,0,-0.002197,0.000000,0.000000,24.829071,4.137344,0.000000,-0.022000,0.000000,0.011000,FlatInitial
03:30:33.058 PM 02/14/2016,Teleop Disabled,0,FALSE,0,NO ERROR,0.000000,0.000000,0.000000,0.000000,Speed,Speed,0.000000,1.160000,1.860000,0.000000,101.000000,1,0,-0.001550,0.000558,0,0.000000,0.000000,0.000000,24.828949,4.137344,0.000000,0.001000,-0.002000,-0.012000,FlatInitial
03:30:33.158 PM 02/14/2016,Teleop Disabled,0,FALSE,0,NO ERROR,0.000000,0.000000,0.000000,0.000000,Speed,Speed,0.000000,1.150000,1.870000,0.000000,102.000000,1,0,-0.001550,0.000558,0,0.000000,0.000000,0.000000,24.828949,4.137344,0.000000,0.006000,0.000000,0.008000,FlatInitial
03:30:33.258 PM 02/14/2016,Teleop Disabled,0,FALSE,0,NO ERROR,0.000000,0.000000,0.000000,0.000000,Speed,Speed,0.000000,1.150000,1.870000,0.000000,104.000000,1,0,-0.001550,0.000558,0,0.000000,0.000000,0.000000,24.828949,4.137344,0.000000,-0.004000,0.001000,-0.001000,FlatInitial
03:30:33.358 PM 02/14/2016,Teleop Disabled,0,FALSE,0,NO ERROR,0.000000,0.000000,0.000000,0.000000,Speed,Speed,0.000000,1.160000,1.870000,0.000000,101.000000,1,0,-0.001550,0.000558,0,0.000000,0.000000,0.000000,24.828949,4.137344,0.000000,0.002000,0.000000,0.004000,FlatInitial
03:30:33.458 PM 02/14/2016,Teleop Disabled,0,FALSE,0,NO ERROR,0.000000,0.000000,0.000000,0.000000,Speed,Speed,0.000000,1.150000,1.870000,0.000000,101.000000,1,0,-0.001550,0.000558,0,0.000000,0.000000,0.000000,24.828949,4.137344,0.000000,0.007000,0.000000,0.006000,FlatInitial
03:30:33.558 PM 02/14/2016,Teleop Disabled,0,FALSE,0,NO ERROR,0.000000,0.000000,0.000000,0.000000,Speed,Speed,0.000000,1.150000,1.880000,0.000000,103.000000,1,0,-0.001550,0.000558,0,0.000000,0.000000,0.000000,24.828949,4.137344,0.000000,0.000000,0.000000,0.002000,FlatInitial
03:30:33.658 PM 02/14/2016,Teleop Disabled,0,FALSE,0,NO ERROR,0.000000,0.000000,0.000000,0.000000,Speed,Speed,0.000000,1.160000,1.870000,0.000000,101.000000,1,0,-0.001550,0.000558,0,0.000000,0.000000,0.000000,24.828949,4.137344,0.000000,0.000000,0.002000,0.000000,FlatInitial
03:30:33.758 PM 02/14/2016,Teleop Disabled,0,FALSE,0,NO ERROR,0.000000,0.000000,0.000000,0.000000,Speed,Speed,0.000000,1.150000,1.880000,0.000000,102.000000,1,0,-0.001550,0.000558,0,0.000000,0.000000,0.000000,24.828949,4.137344,0.000000,0.002000,-0.001000,0.000000,FlatInitial
03:30:33.858 PM 02/14/2016,Teleop Disabled,0,FALSE,0,NO ERROR,0.000000,0.000000,0.000000,0.000000,Speed,Speed,0.000000,1.150000,1.880000,0.000000,101.000000,1,0,-0.001550,0.000558,0,0.000000,0.000000,0.000000,24.828949,4.137344,0.000000,0.001000,-0.001000,0.002000,FlatInitial
03:30:33.958 PM 02/14/2016,Teleop Disabled,0,FALSE,0,NO ERROR,0.000000,0.000000,0.000000,0.000000,Speed,Speed,0.000000,1.150000,1.880000,0.000000,101.000000,1,0,-0.001550,0.000558,0,0.000000,0.000000,0.000000,24.828949,4.137344,0.000000,-0.001000,0.001000,0.000000,FlatInitial
03:30:34.059 PM 02/14/2016,Teleop Disabled,0,FALSE,0,NO ERROR,0.000000,0.000000,0.000000,0.000000,Speed,Speed,0.000000,1.150000,1.880000,0.000000,103.000000,1,0,-0.001550,0.000558,0,0.000000,0.000000,0.000000,24.828949,4.137344,0.000000,0.000000,0.001000,-0.002000,FlatInitial
03:30:34.159 PM 02/14/2016,Teleop Disabled,0,FALSE,0,NO ERROR,0.000000,0.000000,0.000000,0.000000,Speed,Speed,0.000000,1.150000,1.880000,0.000000,101.000000,1,0,-0.001550,0.000558,0,0.000000,0.000000,0.000000,24.828949,4.137344,0.000000,0.000000,0.001000,-0.003000,FlatInitial
03:30:34.260 PM 02/14/2016,Teleop Disabled,0,FALSE,0,NO ERROR,0.000000,0.000000,0.000000,0.000000,Speed,Speed,0.000000,1.150000,1.880000,0.000000,104.000000,1,0,-0.001550,0.000558,0,0.000000,0.000000,0.000000,24.828949,4.137344,0.000000,0.001000,0.000000,0.000000,FlatInitial
03:30:34.360 PM 02/14/2016,Teleop Disabled,0,FALSE,0,NO ERROR,0.000000,0.000000,0.000000,0.000000,Speed,Speed,0.000000,1.140000,1.880000,0.000000,103.000000,1,0,-0.001550,0.000558,0,0.000000,0.000000,0.000000,24.828949,4.137344,0.000000,0.000000,0.000000,0.002000,FlatInitial
03:30:34.460 PM 02/14/2016,Teleop Disabled,0,FALSE,0,NO ERROR,0.000000,0.000000,0.000000,0.000000,Speed,Speed,0.000000,1.150000,1.870000,0.000000,103.000000,1,0,-0.001550,0.000558,0,0.000000,0.000000,0.000000,24.828949,4.137344,0.000000,0.000000,-0.003000,0.001000,FlatInitial
03:30:34.561 PM 02/14/2016,Teleop Disabled,0,FALSE,0,NO ERROR,0.000000,0.000000,0.000000,0.000000,Speed,Speed,0.000000,1.140000,1.870000,0.000000,101.000000,1,0,-0.001550,0.000558,0,0.000000,0.000000,0.000000,24.828949,4.137344,0.000000,-0.002000,-0.002000,0.000000,FlatInitial
03:30:34.661 PM 02/14/2016,Teleop Disabled,0,FALSE,0,NO ERROR,0.000000,0.000000,0.000000,0.000000,Speed,Speed,0.000000,1.140000,1.870000,0.000000,101.000000,1,0,-0.001550,0.000558,0,0.000000,0.000000,0.000000,24.828949,4.137344,0.000000,0.002000,0.000000,-0.003000,FlatInitial
03:30:34.762 PM 02/14/2016,Teleop Disabled,0,FALSE,0,NO ERROR,0.000000,0.000000,0.000000,0.000000,Speed,Speed,0.000000,1.140000,1.870000,0.000000,103.000000,1,0,-0.001550,0.000558,0,0.000000,0.000000,0.000000,24.828949,4.137344,0.000000,0.002000,0.000000,0.000000,FlatInitial
03:30:34.862 PM 02/14/2016,Teleop Disabled,0,FALSE,0,NO ERROR,0.000000,0.000000,0.000000,0.000000,Speed,Speed,0.000000,1.140000,1.870000,0.000000,101.000000,1,0,-0.001550,0.000558,0,0.000000,0.000000,0.000000,24.828949,4.137344,0.000000,0.002000,0.000000,0.000000,FlatInitial
03:30:34.962 PM 02/14/2016,Teleop Disabled,0,FALSE,0,NO ERROR,0.000000,0.000000,0.000000,0.000000,Speed,Speed,0.000000,1.140000,1.870000,0.000000,102.000000,1,0,-0.001550,0.000558,0,0.000000,0.000000,0.000000,24.828949,4.137344,0.000000,0.002000,0.000000,0.000000,FlatInitial
03:30:35.062 PM 02/14/2016,Teleop Disabled,0,FALSE,0,NO ERROR,0.000000,0.000000,0.000000,0.000000,Speed,Speed,0.000000,1.140000,1.870000,0.000000,101.000000,1,0,-0.001550,0.000558,0,0.000000,0.000000,0.000000,24.828949,4.137344,0.000000,-0.001000,-0.003000,0.000000,FlatInitial
03:30:35.162 PM 02/14/2016,Teleop Disabled,0,FALSE,0,NO ERROR,0.000000,0.000000,0.000000,0.000000,Speed,Speed,0.000000,1.140000,1.870000,0.000000,101.000000,1,0,-0.001550,0.000558,0,0.000000,0.000000,0.000000,24.828949,4.137344,0.000000,-0.002000,0.000000,-0.001000,FlatInitial
03:30:35.262 PM 02/14/2016,Teleop Disabled,0,FALSE,0,NO ERROR,0.000000,0.000000,0.000000,0.000000,Speed,Speed,0.000000,1.130000,1.870000,0.000000,102.000000,1,0,-0.001550,0.000558,0,0.000000,0.000000,0.000000,24.828949,4.137344,0.000000,0.002000,-0.004000,0.002000,FlatInitial
03:30:35.362 PM 02/14/2016,Teleop Disabled,0,FALSE,0,NO ERROR,0.000000,0.000000,0.000000,0.000000,Speed,Speed,0.000000,1.120000,1.870000,0.000000,103.000000,1,0,-0.001550,0.000558,0,0.000000,0.000000,0.000000,24.828949,4.137344,0.000000,0.002000,-0.004000,0.002000,FlatInitial
03:30:35.463 PM 02/14/2016,Teleop Disabled,0,FALSE,0,NO ERROR,0.000000,0.000000,0.000000,0.000000,Speed,Speed,0.000000,1.120000,1.880000,0.000000,102.000000,1,0,-0.001550,0.000558,0,0.000000,0.000000,0.000000,24.828949,4.137344,0.000000,0.001000,0.001000,-0.005000,FlatInitial
03:30:35.562 PM 02/14/2016,Teleop Disabled,0,FALSE,0,NO ERROR,0.000000,0.000000,0.000000,0.000000,Speed,Speed,0.000000,1.130000,1.880000,0.000000,102.000000,1,0,-0.001550,0.000558,0,0.000000,0.000000,0.000000,24.828949,4.137344,0.000000,-0.006000,0.000000,0.006000,FlatInitial
03:30:35.662 PM 02/14/2016,Teleop Disabled,0,FALSE,0,NO ERROR,0.000000,0.000000,-6000.000000,-6000.000000,Speed,Speed,0.000000,1.120000,1.890000,1.000000,101.000000,1,0,-0.001550,0.000558,0,0.000000,0.000000,0.000000,24.828949,4.137344,0.000000,0.000000,0.000000,0.002000,FlatInitial
03:30:35.762 PM 02/14/2016,Teleop Disabled,0,FALSE,0,NO ERROR,0.000000,0.000000,0.000000,0.000000,Speed,Speed,0.000000,1.110000,1.880000,2.000000,102.000000,1,0,-0.001550,0.000558,0,0.000000,0.000000,0.000000,24.828949,4.137344,0.000000,0.002000,-0.001000,-0.002000,FlatInitial
03:30:35.862 PM 02/14/2016,Teleop Disabled,0,FALSE,0,NO ERROR,0.000000,0.000000,0.000000,0.000000,Speed,Speed,0.000000,1.120000,1.880000,2.000000,100.000000,1,0,-0.001550,0.000558,0,0.000000,0.000000,0.000000,24.828949,4.137344,0.000000,-0.001000,-0.001000,0.000000,FlatInitial
03:30:35.963 PM 02/14/2016,Teleop Disabled,0,FALSE,0,NO ERROR,0.000000,0.000000,0.000000,0.000000,Speed,Speed,0.000000,1.110000,1.890000,2.000000,101.000000,1,0,-0.001550,0.000558,0,0.000000,0.000000,0.000000,24.828949,4.137344,0.000000,0.000000,-0.002000,-0.002000,FlatInitial
03:30:36.062 PM 02/14/2016,Teleop Disabled,0,FALSE,0,NO ERROR,0.000000,0.000000,0.000000,0.000000,Speed,Speed,0.000000,1.110000,1.890000,2.000000,101.000000,1,0,-0.001550,0.000558,0,0.000000,0.000000,0.000000,24.828949,4.137344,0.000000,0.004000,0.000000,0.000000,FlatInitial
03:30:36.162 PM 02/14/2016,Teleop Disabled,0,FALSE,0,NO ERROR,0.000000,0.000000,0.000000,0.000000,Speed,Speed,-0.010000,1.110000,1.880000,2.000000,101.000000,1,0,-0.001550,0.000558,0,0.000000,0.000000,0.000000,24.828949,4.137344,0.000000,0.000000,0.000000,-0.005000,FlatInitial
03:30:36.263 PM 02/14/2016,Teleop Disabled,0,FALSE,0,NO ERROR,0.000000,0.000000,0.000000,0.000000,Speed,Speed,0.000000,1.120000,1.880000,2.000000,102.000000,1,0,-0.001550,0.000558,0,0.000000,0.000000,0.000000,24.828949,4.137344,0.000000,-0.002000,0.000000,0.002000,FlatInitial
03:30:36.363 PM 02/14/2016,Teleop Disabled,0,FALSE,0,NO ERROR,0.000000,0.000000,0.000000,0.000000,Speed,Speed,-0.010000,1.110000,1.880000,2.000000,102.000000,1,0,-0.001550,0.000558,0,0.000000,0.000000,0.000000,24.828949,4.137344,0.000000,0.002000,0.000000,0.000000,FlatInitial
03:30:36.464 PM 02/14/2016,Teleop Disabled,0,FALSE,0,NO ERROR,0.000000,0.000000,0.000000,0.000000,Speed,Speed,-0.010000,1.110000,1.880000,2.000000,102.000000,1,0,-0.001550,0.000558,0,0.000000,0.000000,0.000000,24.828949,4.137344,0.000000,0.000000,0.000000,0.000000,FlatInitial
03:30:36.568 PM 02/14/2016,Teleop Disabled,0,FALSE,0,NO ERROR,0.000000,0.000000,0.000000,0.000000,Speed,Speed,-0.010000,1.110000,1.880000,2.000000,104.000000,1,0,-0.001550,0.000558,0,0.000000,0.000000,0.000000,24.828949,4.137344,0.000000,0.002000,-0.001000,0.000000,FlatInitial
03:30:36.669 PM 02/14/2016,Teleop Disabled,0,FALSE,0,NO ERROR,0.000000,0.000000,0.000000,0.000000,Speed,Speed,-0.010000,1.110000,1.890000,2.000000,101.000000,1,0,-0.001550,0.000558,0,0.000000,0.000000,0.000000,24.828949,4.137344,0.000000,0.000000,0.001000,0.001000,FlatInitial
03:30:36.770 PM 02/14/2016,Teleop Disabled,0,FALSE,0,NO ERROR,0.000000,0.000000,0.000000,0.000000,Speed,Speed,-0.010000,1.110000,1.890000,2.000000,102.000000,1,0,-0.001550,0.000558,0,0.000000,0.000000,0.000000,24.828949,4.137344,0.000000,0.000000,0.002000,-0.003000,FlatInitial
03:30:36.871 PM 02/14/2016,Teleop Disabled,0,FALSE,0,NO ERROR,0.000000,0.000000,0.000000,0.000000,Speed,Speed,-0.010000,1.110000,1.890000,2.000000,101.000000,1,0,-0.001550,0.000558,0,0.000000,0.000000,0.000000,24.828949,4.137344,0.000000,-0.001000,0.000000,0.000000,FlatInitial
03:30:36.972 PM 02/14/2016,Teleop Disabled,0,FALSE,0,NO ERROR,0.000000,0.000000,4000.000000,4000.000000,Speed,Speed,-0.010000,1.110000,1.890000,3.000000,101.000000,1,0,-0.001550,0.000558,0,0.000000,0.000000,0.000000,24.828949,4.137344,0.000000,0.001000,-0.001000,0.003000,FlatInitial
03:30:37.073 PM 02/14/2016,Teleop Disabled,0,FALSE,0,NO ERROR,0.000000,0.000000,4000.000000,4000.000000,Speed,Speed,-0.010000,1.110000,1.890000,3.000000,101.000000,1,0,-0.001550,0.000558,0,0.000000,0.000000,0.000000,24.828949,4.137344,0.000000,0.001000,0.000000,0.000000,FlatInitial
03:30:37.173 PM 02/14/2016,Teleop Disabled,0,FALSE,0,NO ERROR,0.000000,0.000000,4000.000000,4000.000000,Speed,Speed,-0.010000,1.110000,1.880000,3.000000,101.000000,1,0,-0.001550,0.000558,0,0.000000,0.000000,0.000000,24.828949,4.137344,0.000000,0.000000,0.003000,0.001000,FlatInitial
03:30:37.273 PM 02/14/2016,Teleop Disabled,0,FALSE,0,NO ERROR,0.000000,0.000000,4000.000000,4000.000000,Speed,Speed,-0.010000,1.110000,1.890000,3.000000,101.000000,1,0,-0.001550,0.000558,0,0.000000,0.000000,0.000000,24.828949,4.137344,0.000000,0.000000,-0.001000,-0.002000,FlatInitial
03:30:37.374 PM 02/14/2016,Teleop Disabled,0,FALSE,0,NO ERROR,0.000000,0.000000,4000.000000,4000.000000,Speed,Speed,-0.020000,1.110000,1.890000,3.000000,101.000000,1,0,-0.001550,0.000558,0,0.000000,0.000000,0.000000,24.828949,4.137344,0.000000,0.002000,-0.001000,0.005000,FlatInitial
03:30:37.473 PM 02/14/2016,Teleop Disabled,0,FALSE,0,NO ERROR,0.000000,0.000000,4000.000000,4000.000000,Speed,Speed,-0.020000,1.120000,1.880000,3.000000,101.000000,1,0,-0.001550,0.000558,0,0.000000,0.000000,0.000000,24.828949,4.137344,0.000000,0.000000,0.000000,-0.001000,FlatInitial
03:30:37.573 PM 02/14/2016,Teleop Disabled,0,FALSE,0,NO ERROR,0.000000,0.000000,4000.000000,4000.000000,Speed,Speed,-0.020000,1.120000,1.890000,3.000000,101.000000,1,0,-0.001550,0.000558,0,0.000000,0.000000,0.000000,24.828949,4.137344,0.000000,0.000000,-0.001000,0.002000,FlatInitial
03:30:37.673 PM 02/14/2016,Teleop Disabled,0,FALSE,0,NO ERROR,0.000000,0.000000,4000.000000,4000.000000,Speed,Speed,-0.020000,1.120000,1.890000,3.000000,103.000000,1,0,-0.001550,0.000558,0,0.000000,0.000000,0.000000,24.828949,4.137344,0.000000,-0.001000,0.000000,0.001000,FlatInitial
03:30:37.773 PM 02/14/2016,Teleop Disabled,0,FALSE,0,NO ERROR,0.000000,0.000000,4000.000000,4000.000000,Speed,Speed,-0.020000,1.110000,1.890000,3.000000,104.000000,1,0,-0.001550,0.000558,0,0.000000,0.000000,0.000000,24.828949,4.137344,0.000000,-0.002000,-0.001000,0.000000,FlatInitial
03:30:37.873 PM 02/14/2016,Teleop Disabled,0,FALSE,0,NO ERROR,0.000000,0.000000,4000.000000,4000.000000,Speed,Speed,-0.020000,1.120000,1.890000,3.000000,104.000000,1,0,-0.001550,0.000558,0,0.000000,0.000000,0.000000,24.828949,4.137344,0.000000,0.000000,0.001000,0.000000,FlatInitial
03:30:37.973 PM 02/14/2016,Teleop Disabled,0,FALSE,0,NO ERROR,0.000000,0.000000,4000.000000,4000.000000,Speed,Speed,-0.030000,1.110000,1.890000,3.000000,103.000000,1,0,-0.001550,0.000558,0,0.000000,0.000000,0.000000,24.828949,4.137344,0.000000,0.001000,0.000000,0.003000,FlatInitial
03:30:38.073 PM 02/14/2016,Teleop Disabled,0,FALSE,0,NO ERROR,0.000000,0.000000,4000.000000,4000.000000,Speed,Speed,-0.030000,1.110000,1.890000,3.000000,101.000000,1,0,-0.001550,0.000558,0,0.000000,0.000000,0.000000,24.828949,4.137344,0.000000,0.000000,0.002000,0.003000,FlatInitial
03:30:38.173 PM 02/14/2016,Teleop Disabled,0,FALSE,0,NO ERROR,0.000000,0.000000,4000.000000,4000.000000,Speed,Speed,-0.030000,1.110000,1.890000,3.000000,102.000000,1,0,-0.001550,0.000558,0,0.000000,0.000000,0.000000,24.828949,4.137344,0.000000,-0.001000,0.000000,0.002000,FlatInitial
03:30:38.274 PM 02/14/2016,Teleop Disabled,0,FALSE,0,NO ERROR,0.000000,0.000000,4000.000000,4000.000000,Speed,Speed,-0.030000,1.110000,1.890000,3.000000,101.000000,1,0,-0.001550,0.000558,0,0.000000,0.000000,0.000000,24.828949,4.137344,0.000000,0.000000,0.000000,-0.001000,FlatInitial
03:30:38.374 PM 02/14/2016,Teleop Disabled,0,FALSE,0,NO ERROR,0.000000,0.000000,4000.000000,4000.000000,Speed,Speed,-0.030000,1.110000,1.890000,3.000000,101.000000,1,0,-0.001550,0.000558,0,0.000000,0.000000,0.000000,24.828949,4.137344,0.000000,0.000000,0.000000,0.001000,FlatInitial
03:30:38.474 PM 02/14/2016,Teleop Disabled,0,FALSE,0,NO ERROR,0.000000,0.000000,4000.000000,4000.000000,Speed,Speed,-0.030000,1.110000,1.890000,3.000000,101.000000,1,0,-0.001550,0.000558,0,0.000000,0.000000,0.000000,24.828949,4.137344,0.000000,0.000000,0.001000,-0.001000,FlatInitial
03:30:38.575 PM 02/14/2016,Teleop Disabled,0,FALSE,0,NO ERROR,0.000000,0.000000,4000.000000,4000.000000,Speed,Speed,-0.030000,1.110000,1.890000,3.000000,101.000000,1,0,-0.001550,0.000558,0,0.000000,0.000000,0.000000,24.828949,4.137344,0.000000,0.002000,-0.001000,-0.002000,FlatInitial
03:30:38.676 PM 02/14/2016,Teleop Disabled,0,FALSE,0,NO ERROR,0.000000,0.000000,4000.000000,4000.000000,Speed,Speed,-0.030000,1.110000,1.890000,3.000000,102.000000,1,0,-0.001550,0.000558,0,0.000000,0.000000,0.000000,24.828949,4.137344,0.000000,0.000000,0.003000,0.001000,FlatInitial
03:30:38.777 PM 02/14/2016,Teleop Disabled,0,FALSE,0,NO ERROR,0.000000,0.000000,4000.000000,4000.000000,Speed,Speed,-0.030000,1.110000,1.890000,3.000000,101.000000,1,0,-0.001550,0.000558,0,0.000000,0.000000,0.000000,24.828949,4.137344,0.000000,0.000000,0.000000,0.000000,FlatInitial
03:30:38.878 PM 02/14/2016,Teleop Disabled,0,FALSE,0,NO ERROR,0.000000,0.000000,4000.000000,4000.000000,Speed,Speed,-0.030000,1.100000,1.890000,3.000000,101.000000,1,0,-0.001550,0.000558,0,0.000000,0.000000,0.000000,24.828949,4.137344,0.000000,0.000000,0.002000,-0.001000,FlatInitial
03:30:38.978 PM 02/14/2016,Teleop Disabled,0,FALSE,0,NO ERROR,0.000000,0.000000,4000.000000,4000.000000,Speed,Speed,-0.030000,1.100000,1.890000,3.000000,101.000000,1,0,-0.001550,0.000558,0,0.000000,0.000000,0.000000,24.828949,4.137344,0.000000,0.000000,0.000000,0.003000,FlatInitial
03:30:39.078 PM 02/14/2016,Teleop Disabled,0,FALSE,0,NO ERROR,0.000000,0.000000,4000.000000,4000.000000,Speed,Speed,-0.040000,1.110000,1.890000,3.000000,101.000000,1,0,-0.001550,0.000558,0,0.000000,0.000000,0.000000,24.828949,4.137344,0.000000,0.000000,0.000000,0.000000,FlatInitial
03:30:39.178 PM 02/14/2016,Teleop Disabled,0,FALSE,0,NO ERROR,0.000000,0.000000,4000.000000,4000.000000,Speed,Speed,-0.040000,1.110000,1.890000,3.000000,102.000000,1,0,-0.001550,0.000558,0,0.000000,0.000000,0.000000,24.828949,4.137344,0.000000,0.000000,0.000000,-0.005000,FlatInitial
03:30:39.278 PM 02/14/2016,Teleop Disabled,0,FALSE,0,NO ERROR,0.000000,0.000000,4000.000000,4000.000000,Speed,Speed,-0.030000,1.110000,1.890000,3.000000,103.000000,1,0,-0.001550,0.000558,0,0.000000,0.000000,0.000000,24.828949,4.137344,0.000000,0.002000,0.000000,0.000000,FlatInitial
03:30:39.378 PM 02/14/2016,Teleop Disabled,0,FALSE,0,NO ERROR,0.000000,0.000000,4000.000000,4000.000000,Speed,Speed,-0.040000,1.110000,1.890000,3.000000,101.000000,1,0,-0.001550,0.000558,0,0.000000,0.000000,0.000000,24.828949,4.137344,0.000000,0.000000,0.000000,0.001000,FlatInitial
03:30:39.478 PM 02/14/2016,Teleop Disabled,0,FALSE,0,NO ERROR,0.000000,0.000000,4000.000000,4000.000000,Speed,Speed,-0.040000,1.110000,1.890000,3.000000,101.000000,1,0,-0.001550,0.000558,0,0.000000,0.000000,0.000000,24.828949,4.137344,0.000000,0.002000,0.000000,0.000000,FlatInitial
03:30:39.579 PM 02/14/2016,Teleop Disabled,0,FALSE,0,NO ERROR,0.000000,0.000000,4000.000000,4000.000000,Speed,Speed,-0.040000,1.110000,1.890000,3.000000,102.000000,1,0,-0.001550,0.000558,0,0.000000,0.000000,0.000000,24.828949,4.137344,0.000000,0.000000,0.000000,0.005000,FlatInitial
03:30:39.679 PM 02/14/2016,Teleop Disabled,0,FALSE,0,NO ERROR,0.000000,0.000000,4000.000000,4000.000000,Speed,Speed,-0.040000,1.110000,1.890000,3.000000,102.000000,1,0,-0.001550,0.000558,0,0.000000,0.000000,0.000000,24.828949,4.137344,0.000000,0.000000,0.000000,0.003000,FlatInitial
03:30:39.779 PM 02/14/2016,Teleop Disabled,0,FALSE,0,NO ERROR,0.000000,0.000000,4000.000000,4000.000000,Speed,Speed,-0.040000,1.110000,1.890000,3.000000,102.000000,1,0,-0.001550,0.000558,0,0.000000,0.000000,0.000000,24.828949,4.137344,0.000000,0.000000,-0.002000,0.003000,FlatInitial
03:30:39.879 PM 02/14/2016,Teleop Disabled,0,FALSE,0,NO ERROR,0.000000,0.000000,4000.000000,4000.000000,Speed,Speed,-0.040000,1.120000,1.890000,3.000000,101.000000,1,0,-0.001550,0.000558,0,0.000000,0.000000,0.000000,24.828949,4.137344,0.000000,0.002000,0.001000,0.003000,FlatInitial
03:30:39.979 PM 02/14/2016,Teleop Disabled,0,FALSE,0,NO ERROR,0.000000,0.000000,4000.000000,4000.000000,Speed,Speed,-0.040000,1.120000,1.890000,3.000000,101.000000,1,0,-0.001550,0.000558,0,0.000000,0.000000,0.000000,24.828949,4.137344,0.000000,0.000000,-0.002000,-0.003000,FlatInitial
03:30:40.079 PM 02/14/2016,Teleop Disabled,0,FALSE,0,NO ERROR,0.000000,0.000000,4000.000000,4000.000000,Speed,Speed,-0.040000,1.120000,1.890000,3.000000,101.000000,1,0,-0.001550,0.000558,0,0.000000,0.000000,0.000000,24.828949,4.137344,0.000000,-0.001000,-0.001000,0.000000,FlatInitial
03:30:40.179 PM 02/14/2016,Teleop Disabled,0,FALSE,0,NO ERROR,0.000000,0.000000,4000.000000,4000.000000,Speed,Speed,-0.040000,1.110000,1.890000,3.000000,101.000000,1,0,-0.001550,0.000558,0,0.000000,0.000000,0.000000,24.828949,4.137344,0.000000,0.000000,0.000000,-0.001000,FlatInitial
03:30:40.279 PM 02/14/2016,Teleop Disabled,0,FALSE,0,NO ERROR,0.000000,0.000000,4000.000000,4000.000000,Speed,Speed,-0.040000,1.110000,1.890000,3.000000,102.000000,1,0,-0.001550,0.000558,0,0.000000,0.000000,0.000000,24.828949,4.137344,0.000000,-0.001000,-0.004000,0.001000,FlatInitial
03:30:40.379 PM 02/14/2016,Teleop Disabled,0,FALSE,0,NO ERROR,0.000000,0.000000,4000.000000,4000.000000,Speed,Speed,-0.040000,1.110000,1.890000,3.000000,102.000000,1,0,-0.001550,0.000558,0,0.000000,0.000000,0.000000,24.828949,4.137344,0.000000,0.000000,0.000000,0.003000,FlatInitial
03:30:40.480 PM 02/14/2016,Teleop Disabled,0,FALSE,0,NO ERROR,0.000000,0.000000,4000.000000,4000.000000,Speed,Speed,-0.040000,1.110000,1.890000,3.000000,103.000000,1,0,-0.001550,0.000558,0,0.000000,0.000000,0.000000,24.828949,4.137344,0.000000,0.000000,-0.002000,0.004000,FlatInitial
03:30:40.580 PM 02/14/2016,Teleop Disabled,0,FALSE,0,NO ERROR,0.000000,0.000000,4000.000000,4000.000000,Speed,Speed,-0.040000,1.110000,1.890000,3.000000,103.000000,1,0,-0.001550,0.000558,0,0.000000,0.000000,0.000000,24.828949,4.137344,0.000000,0.000000,0.000000,0.002000,FlatInitial
03:30:40.680 PM 02/14/2016,Teleop Disabled,0,FALSE,0,NO ERROR,0.000000,0.000000,4000.000000,4000.000000,Speed,Speed,-0.030000,1.110000,1.890000,3.000000,104.000000,1,0,-0.001550,0.000558,0,0.000000,0.000000,0.000000,24.828949,4.137344,0.000000,-0.002000,0.004000,-0.001000,FlatInitial
03:30:40.780 PM 02/14/2016,Teleop Disabled,0,FALSE,0,NO ERROR,0.000000,0.000000,4000.000000,4000.000000,Speed,Speed,-0.030000,1.110000,1.890000,3.000000,101.000000,1,0,-0.001550,0.000558,0,0.000000,0.000000,0.000000,24.828949,4.137344,0.000000,0.001000,-0.001000,-0.003000,FlatInitial
03:30:40.880 PM 02/14/2016,Teleop Disabled,0,FALSE,0,NO ERROR,0.000000,0.000000,4000.000000,4000.000000,Speed,Speed,-0.030000,1.110000,1.890000,3.000000,101.000000,1,0,-0.001550,0.000558,0,0.000000,0.000000,0.000000,24.828949,4.137344,0.000000,-0.001000,0.001000,-0.003000,FlatInitial
03:30:40.980 PM 02/14/2016,Teleop Disabled,0,FALSE,0,NO ERROR,0.000000,0.000000,4000.000000,4000.000000,Speed,Speed,-0.030000,1.110000,1.890000,3.000000,101.000000,1,0,-0.001550,0.000558,0,0.000000,0.000000,0.000000,24.828949,4.137344,0.000000,0.000000,0.000000,0.002000,FlatInitial
03:30:41.080 PM 02/14/2016,Teleop Disabled,0,FALSE,0,NO ERROR,0.000000,0.000000,4000.000000,4000.000000,Speed,Speed,-0.030000,1.090000,1.890000,3.000000,101.000000,1,0,-0.001550,0.000558,0,0.000000,0.000000,0.000000,24.828949,4.137344,0.000000,0.005000,-0.002000,0.006000,FlatInitial
03:30:41.180 PM 02/14/2016,Teleop Disabled,0,FALSE,0,NO ERROR,0.000000,0.000000,4000.000000,4000.000000,Speed,Speed,-0.030000,1.120000,1.880000,3.000000,101.000000,1,0,-0.001550,0.000558,0,0.000000,0.000000,0.000000,24.828949,4.137344,0.000000,-0.007000,0.000000,0.001000,FlatInitial
03:30:41.281 PM 02/14/2016,Teleop Disabled,0,FALSE,0,NO ERROR,0.000000,0.000000,4000.000000,4000.000000,Speed,Speed,-0.020000,1.110000,1.890000,3.000000,101.000000,1,0,-0.001550,0.000558,0,0.000000,0.000000,0.000000,24.828949,4.137344,0.000000,0.003000,0.000000,-0.001000,FlatInitial
03:30:41.382 PM 02/14/2016,Teleop Disabled,0,FALSE,0,NO ERROR,0.000000,0.000000,4000.000000,4000.000000,Speed,Speed,-0.020000,1.110000,1.890000,3.000000,102.000000,1,0,-0.001550,0.000558,0,0.000000,0.000000,0.000000,24.828949,4.137344,0.000000,0.004000,0.000000,0.000000,FlatInitial
03:30:41.482 PM 02/14/2016,Teleop Disabled,0,FALSE,0,NO ERROR,0.000000,0.000000,4000.000000,4000.000000,Speed,Speed,-0.030000,1.120000,1.880000,3.000000,101.000000,1,0,-0.001550,0.000558,0,0.000000,0.000000,0.000000,24.828949,4.137344,0.000000,-0.007000,-0.002000,0.000000,FlatInitial
03:30:41.582 PM 02/14/2016,Teleop Disabled,0,FALSE,0,NO ERROR,0.000000,0.000000,4000.000000,4000.000000,Speed,Speed,-0.020000,1.120000,1.880000,3.000000,101.000000,1,0,-0.001550,0.000558,0,0.000000,0.000000,0.000000,24.828949,4.137344,0.000000,0.000000,0.000000,0.006000,FlatInitial
03:30:41.682 PM 02/14/2016,Teleop Disabled,0,FALSE,0,NO ERROR,0.000000,0.000000,4000.000000,4000.000000,Speed,Speed,-0.020000,1.110000,1.890000,3.000000,104.000000,1,0,-0.001550,0.000558,0,0.000000,0.000000,0.000000,24.828949,4.137344,0.000000,0.001000,0.000000,0.007000,FlatInitial
03:30:41.782 PM 02/14/2016,Teleop Disabled,0,FALSE,0,NO ERROR,0.000000,0.000000,4000.000000,4000.000000,Speed,Speed,-0.020000,1.110000,1.890000,3.000000,102.000000,1,0,-0.001550,0.000558,0,0.000000,0.000000,0.000000,24.828949,4.137344,0.000000,-0.002000,0.001000,0.000000,FlatInitial
03:30:41.883 PM 02/14/2016,Teleop Disabled,0,FALSE,0,NO ERROR,0.000000,0.000000,4000.000000,4000.000000,Speed,Speed,-0.010000,1.120000,1.880000,3.000000,102.000000,1,0,-0.001550,0.000558,0,0.000000,0.000000,0.000000,24.828949,4.137344,0.000000,0.000000,0.000000,0.003000,FlatInitial
03:30:41.982 PM 02/14/2016,Teleop Disabled,0,FALSE,0,NO ERROR,0.000000,0.000000,4000.000000,4000.000000,Speed,Speed,-0.010000,1.120000,1.880000,3.000000,104.000000,1,0,-0.001550,0.000558,0,0.000000,0.000000,0.000000,24.828949,4.137344,0.000000,0.000000,0.002000,0.004000,FlatInitial
03:30:42.082 PM 02/14/2016,Teleop Disabled,0,FALSE,0,NO ERROR,0.000000,0.000000,4000.000000,4000.000000,Speed,Speed,-0.010000,1.120000,1.880000,3.000000,102.000000,1,0,-0.001550,0.000558,0,0.000000,0.000000,0.000000,24.828949,4.137344,0.000000,0.001000,0.002000,-0.001000,FlatInitial
03:30:42.183 PM 02/14/2016,Teleop Disabled,0,FALSE,0,NO ERROR,0.000000,0.000000,4000.000000,4000.000000,Speed,Speed,-0.020000,1.130000,1.880000,3.000000,101.000000,1,0,-0.001550,0.000558,0,0.000000,0.000000,0.000000,24.828949,4.137344,0.000000,0.000000,0.000000,0.001000,FlatInitial
03:30:42.283 PM 02/14/2016,Teleop Disabled,0,FALSE,0,NO ERROR,0.000000,0.000000,4000.000000,4000.000000,Speed,Speed,-0.010000,1.130000,1.880000,3.000000,100.000000,1,0,-0.001550,0.000558,0,0.000000,0.000000,0.000000,24.828949,4.137344,0.000000,0.000000,0.001000,0.000000,FlatInitial
03:30:42.383 PM 02/14/2016,Teleop Disabled,0,FALSE,0,NO ERROR,0.000000,0.000000,4000.000000,4000.000000,Speed,Speed,-0.010000,1.120000,1.880000,3.000000,101.000000,1,0,-0.001550,0.000558,0,0.000000,0.000000,0.000000,24.828949,4.137344,0.000000,0.000000,0.001000,0.000000,FlatInitial
03:30:42.484 PM 02/14/2016,Teleop Disabled,0,FALSE,0,NO ERROR,0.000000,0.000000,4000.000000,4000.000000,Speed,Speed,-0.010000,1.110000,1.880000,3.000000,101.000000,1,0,-0.001550,0.000558,0,0.000000,0.000000,0.000000,24.828949,4.137344,0.000000,0.000000,0.002000,0.002000,FlatInitial
03:30:42.584 PM 02/14/2016,Teleop Disabled,0,FALSE,0,NO ERROR,0.000000,0.000000,4000.000000,4000.000000,Speed,Speed,-0.010000,1.120000,1.870000,3.000000,102.000000,1,0,-0.001550,0.000558,0,0.000000,0.000000,0.000000,24.828949,4.137344,0.000000,-0.001000,0.000000,0.000000,FlatInitial
03:30:42.685 PM 02/14/2016,Teleop Disabled,0,FALSE,0,NO ERROR,0.000000,0.000000,4000.000000,4000.000000,Speed,Speed,0.000000,1.110000,1.870000,3.000000,103.000000,1,0,-0.001550,0.000558,0,0.000000,0.000000,0.000000,24.828949,4.137344,0.000000,0.001000,0.003000,-0.003000,FlatInitial
03:30:42.785 PM 02/14/2016,Teleop Disabled,0,FALSE,0,NO ERROR,0.000000,0.000000,4000.000000,4000.000000,Speed,Speed,0.000000,1.120000,1.880000,3.000000,103.000000,1,0,-0.001550,0.000558,0,0.000000,0.000000,0.000000,24.828949,4.137344,0.000000,-0.001000,-0.002000,0.004000,FlatInitial
03:30:42.885 PM 02/14/2016,Teleop Disabled,0,FALSE,0,NO ERROR,0.000000,0.000000,4000.000000,4000.000000,Speed,Speed,0.000000,1.120000,1.880000,3.000000,101.000000,1,0,-0.001550,0.000558,0,0.000000,0.000000,0.000000,24.828949,4.137344,0.000000,0.000000,0.002000,0.000000,FlatInitial
03:30:42.985 PM 02/14/2016,Teleop Disabled,0,FALSE,0,NO ERROR,0.000000,0.000000,4000.000000,4000.000000,Speed,Speed,0.000000,1.120000,1.880000,3.000000,104.000000,1,0,-0.001550,0.000558,0,0.000000,0.000000,0.000000,24.828949,4.137344,0.000000,-0.002000,-0.001000,0.004000,FlatInitial
03:30:43.085 PM 02/14/2016,Teleop Disabled,0,FALSE,0,NO ERROR,0.000000,0.000000,4000.000000,4000.000000,Speed,Speed,0.000000,1.120000,1.880000,3.000000,102.000000,1,0,-0.001550,0.000558,0,0.000000,0.000000,0.000000,24.828949,4.137344,0.000000,-0.001000,0.000000,0.003000,FlatInitial
03:30:43.185 PM 02/14/2016,Teleop Disabled,0,FALSE,0,NO ERROR,0.000000,0.000000,4000.000000,4000.000000,Speed,Speed,0.000000,1.120000,1.880000,3.000000,101.000000,1,0,-0.001550,0.000558,0,0.000000,0.000000,0.000000,24.828949,4.137344,0.000000,0.000000,0.000000,-0.001000,FlatInitial
03:30:43.285 PM 02/14/2016,Teleop Disabled,0,FALSE,0,NO ERROR,0.000000,0.000000,4000.000000,4000.000000,Speed,Speed,0.000000,1.120000,1.880000,3.000000,101.000000,1,0,-0.001550,0.000558,0,0.000000,0.000000,0.000000,24.828949,4.137344,0.000000,0.000000,0.000000,-0.001000,FlatInitial
03:30:43.385 PM 02/14/2016,Teleop Disabled,0,FALSE,0,NO ERROR,0.000000,0.000000,4000.000000,4000.000000,Speed,Speed,0.000000,1.120000,1.880000,3.000000,102.000000,1,0,-0.001550,0.000558,0,0.000000,0.000000,0.000000,24.828949,4.137344,0.000000,-0.001000,-0.003000,0.000000,FlatInitial
03:30:43.485 PM 02/14/2016,Teleop Disabled,0,FALSE,0,NO ERROR,0.000000,0.000000,4000.000000,4000.000000,Speed,Speed,0.000000,1.110000,1.880000,3.000000,103.000000,1,0,-0.001550,0.000558,0,0.000000,0.000000,0.000000,24.828949,4.137344,0.000000,0.000000,0.002000,0.000000,FlatInitial
03:30:43.586 PM 02/14/2016,Teleop Disabled,0,FALSE,0,NO ERROR,0.000000,0.000000,4000.000000,4000.000000,Speed,Speed,0.000000,1.110000,1.880000,3.000000,102.000000,1,0,-0.001550,0.000558,0,0.000000,0.000000,0.000000,24.828949,4.137344,0.000000,0.002000,0.002000,-0.001000,FlatInitial
03:30:43.686 PM 02/14/2016,Teleop Disabled,0,FALSE,0,NO ERROR,0.000000,0.000000,4000.000000,4000.000000,Speed,Speed,0.000000,1.110000,1.890000,3.000000,102.000000,1,0,-0.001550,0.000558,0,0.000000,0.000000,0.000000,24.828949,4.137344,0.000000,-0.002000,0.000000,-0.002000,FlatInitial
03:30:43.786 PM 02/14/2016,Teleop Disabled,0,FALSE,0,NO ERROR,0.000000,0.000000,4000.000000,4000.000000,Speed,Speed,0.000000,1.120000,1.880000,3.000000,101.000000,1,0,-0.001550,0.000558,0,0.000000,0.000000,0.000000,24.828949,4.137344,0.000000,0.000000,0.000000,-0.001000,FlatInitial
03:30:43.887 PM 02/14/2016,Teleop Disabled,0,FALSE,0,NO ERROR,0.000000,0.000000,4000.000000,4000.000000,Speed,Speed,0.000000,1.120000,1.880000,3.000000,101.000000,1,0,-0.001550,0.000558,0,0.000000,0.000000,0.000000,24.828949,4.137344,0.000000,0.000000,0.000000,0.001000,FlatInitial
03:30:43.988 PM 02/14/2016,Teleop Disabled,0,FALSE,0,NO ERROR,0.000000,0.000000,4000.000000,4000.000000,Speed,Speed,0.000000,1.120000,1.880000,3.000000,101.000000,1,0,-0.001550,0.000558,0,0.000000,0.000000,0.000000,24.828949,4.137344,0.000000,0.000000,0.001000,0.000000,FlatInitial
03:30:44.088 PM 02/14/2016,Teleop Disabled,0,FALSE,0,NO ERROR,0.000000,0.000000,4000.000000,4000.000000,Speed,Speed,0.000000,1.120000,1.880000,3.000000,101.000000,1,0,-0.001550,0.000558,0,0.000000,0.000000,0.000000,24.828949,4.137344,0.000000,-0.002000,0.000000,0.000000,FlatInitial
03:30:44.189 PM 02/14/2016,Teleop Disabled,0,FALSE,0,NO ERROR,0.000000,0.000000,4000.000000,4000.000000,Speed,Speed,0.000000,1.120000,1.880000,3.000000,106.000000,1,0,-0.001550,0.000558,0,0.000000,0.000000,0.000000,24.828949,4.137344,0.000000,0.000000,0.000000,0.000000,FlatInitial
03:30:44.290 PM 02/14/2016,Teleop Disabled,0,FALSE,0,NO ERROR,0.000000,0.000000,4000.000000,4000.000000,Speed,Speed,0.000000,1.120000,1.880000,3.000000,102.000000,1,0,-0.001550,0.000558,0,0.000000,0.000000,0.000000,24.828949,4.137344,0.000000,0.001000,0.000000,0.002000,FlatInitial
03:30:44.391 PM 02/14/2016,Teleop Disabled,0,FALSE,0,NO ERROR,0.000000,0.000000,4000.000000,4000.000000,Speed,Speed,0.000000,1.120000,1.880000,3.000000,101.000000,1,0,-0.001550,0.000558,0,0.000000,0.000000,0.000000,24.828949,4.137344,0.000000,-0.001000,0.000000,0.000000,FlatInitial
03:30:44.491 PM 02/14/2016,Teleop Disabled,0,FALSE,0,NO ERROR,0.000000,0.000000,4000.000000,4000.000000,Speed,Speed,0.000000,1.120000,1.880000,3.000000,101.000000,1,0,-0.001550,0.000558,0,0.000000,0.000000,0.000000,24.828949,4.137344,0.000000,-0.001000,0.000000,0.000000,FlatInitial
03:30:44.592 PM 02/14/2016,Teleop Disabled,0,FALSE,0,NO ERROR,0.000000,0.000000,4000.000000,4000.000000,Speed,Speed,0.000000,1.120000,1.880000,3.000000,101.000000,1,0,-0.001550,0.000558,0,0.000000,0.000000,0.000000,24.828949,4.137344,0.000000,0.000000,0.000000,-0.001000,FlatInitial
03:30:44.693 PM 02/14/2016,Teleop Disabled,0,FALSE,0,NO ERROR,0.000000,0.000000,4000.000000,4000.000000,Speed,Speed,0.000000,1.120000,1.880000,3.000000,103.000000,1,0,-0.001550,0.000558,0,0.000000,0.000000,0.000000,24.828949,4.137344,0.000000,0.003000,0.000000,0.001000,FlatInitial
03:30:44.793 PM 02/14/2016,Teleop Disabled,0,FALSE,0,NO ERROR,0.000000,0.000000,4000.000000,4000.000000,Speed,Speed,0.000000,1.120000,1.880000,3.000000,103.000000,1,0,-0.001550,0.000558,0,0.000000,0.000000,0.000000,24.828949,4.137344,0.000000,0.003000,-0.001000,-0.004000,FlatInitial
03:30:44.894 PM 02/14/2016,Teleop Disabled,0,FALSE,0,NO ERROR,0.000000,0.000000,4000.000000,4000.000000,Speed,Speed,0.000000,1.130000,1.880000,3.000000,101.000000,1,0,-0.001550,0.000558,0,0.000000,0.000000,0.000000,24.828949,4.137344,0.000000,0.001000,0.001000,-0.006000,FlatInitial
03:30:44.994 PM 02/14/2016,Teleop Disabled,0,FALSE,0,NO ERROR,0.000000,0.000000,4000.000000,4000.000000,Speed,Speed,0.000000,1.130000,1.880000,3.000000,101.000000,1,0,-0.001550,0.000558,0,0.000000,0.000000,0.000000,24.828949,4.137344,0.000000,0.001000,0.000000,0.002000,FlatInitial
03:30:45.094 PM 02/14/2016,Teleop Disabled,0,FALSE,0,NO ERROR,0.000000,0.000000,4000.000000,4000.000000,Speed,Speed,0.000000,1.130000,1.880000,3.000000,101.000000,1,0,-0.001550,0.000558,0,0.000000,0.000000,0.000000,24.828949,4.137344,0.000000,0.000000,0.001000,0.002000,FlatInitial
03:30:45.194 PM 02/14/2016,Teleop Disabled,0,FALSE,0,NO ERROR,0.000000,0.000000,4000.000000,4000.000000,Speed,Speed,0.000000,1.130000,1.880000,3.000000,101.000000,1,0,-0.001550,0.000558,0,0.000000,0.000000,0.000000,24.828949,4.137344,0.000000,0.000000,-0.002000,-0.005000,FlatInitial
03:30:45.295 PM 02/14/2016,Teleop Disabled,0,FALSE,0,NO ERROR,0.000000,0.000000,4000.000000,4000.000000,Speed,Speed,0.000000,1.130000,1.880000,3.000000,101.000000,1,0,-0.001550,0.000558,0,0.000000,0.000000,0.000000,24.828949,4.137344,0.000000,-0.001000,0.000000,-0.004000,FlatInitial
03:30:45.394 PM 02/14/2016,Teleop Disabled,0,FALSE,0,NO ERROR,0.000000,0.000000,4000.000000,4000.000000,Speed,Speed,0.000000,1.120000,1.880000,3.000000,102.000000,1,0,-0.001550,0.000558,0,0.000000,0.000000,0.000000,24.828949,4.137344,0.000000,0.000000,-0.003000,-0.005000,FlatInitial
03:30:45.494 PM 02/14/2016,Teleop Disabled,0,FALSE,0,NO ERROR,0.000000,0.000000,4000.000000,4000.000000,Speed,Speed,0.000000,1.120000,1.880000,3.000000,101.000000,1,0,-0.001550,0.000558,0,0.000000,0.000000,0.000000,24.828949,4.137344,0.000000,0.001000,0.000000,0.001000,FlatInitial
03:30:45.594 PM 02/14/2016,Teleop Disabled,0,FALSE,0,NO ERROR,0.000000,0.000000,4000.000000,4000.000000,Speed,Speed,0.000000,1.120000,1.880000,3.000000,102.000000,1,0,-0.001550,0.000558,0,0.000000,0.000000,0.000000,24.828949,4.137344,0.000000,0.001000,0.002000,0.000000,FlatInitial
03:30:45.694 PM 02/14/2016,Teleop Disabled,0,FALSE,0,NO ERROR,0.000000,0.000000,4000.000000,4000.000000,Speed,Speed,0.000000,1.120000,1.880000,3.000000,103.000000,1,0,-0.001550,0.000558,0,0.000000,0.000000,0.000000,24.828949,4.137344,0.000000,0.001000,0.002000,0.000000,FlatInitial
03:30:45.794 PM 02/14/2016,Teleop Disabled,0,FALSE,0,NO ERROR,0.000000,0.000000,4000.000000,4000.000000,Speed,Speed,0.000000,1.120000,1.880000,3.000000,102.000000,1,0,-0.001550,0.000558,0,0.000000,0.000000,0.000000,24.828949,4.137344,0.000000,0.001000,-0.003000,-0.001000,FlatInitial
03:30:45.894 PM 02/14/2016,Teleop Disabled,0,FALSE,0,NO ERROR,0.000000,0.000000,4000.000000,4000.000000,Speed,Speed,0.000000,1.120000,1.880000,3.000000,103.000000,1,0,-0.001550,0.000558,0,0.000000,0.000000,0.000000,24.828949,4.137344,0.000000,0.001000,-0.003000,-0.001000,FlatInitial
03:30:45.994 PM 02/14/2016,Teleop Disabled,0,FALSE,0,NO ERROR,0.000000,0.000000,4000.000000,4000.000000,Speed,Speed,0.000000,1.120000,1.880000,3.000000,101.000000,1,0,-0.001550,0.000558,0,0.000000,0.000000,0.000000,24.828949,4.137344,0.000000,0.000000,0.000000,0.002000,FlatInitial
03:30:46.094 PM 02/14/2016,Teleop Disabled,0,FALSE,0,NO ERROR,0.000000,0.000000,4000.000000,4000.000000,Speed,Speed,0.000000,1.120000,1.880000,3.000000,102.000000,1,0,-0.001550,0.000558,0,0.000000,0.000000,0.000000,24.828949,4.137344,0.000000,0.000000,0.000000,0.002000,FlatInitial
03:30:46.194 PM 02/14/2016,Teleop Disabled,0,FALSE,0,NO ERROR,0.000000,0.000000,4000.000000,4000.000000,Speed,Speed,0.000000,1.120000,1.870000,3.000000,102.000000,1,0,-0.001550,0.000558,0,0.000000,0.000000,0.000000,24.828949,4.137344,0.000000,-0.001000,0.000000,0.000000,FlatInitial
03:30:46.294 PM 02/14/2016,Teleop Disabled,0,FALSE,0,NO ERROR,0.000000,0.000000,4000.000000,4000.000000,Speed,Speed,0.010000,1.110000,1.870000,3.000000,101.000000,1,0,-0.001550,0.000558,0,0.000000,0.000000,0.000000,24.828949,4.137344,0.000000,0.000000,0.002000,-0.002000,FlatInitial
03:30:46.394 PM 02/14/2016,Teleop Disabled,0,FALSE,0,NO ERROR,0.000000,0.000000,4000.000000,4000.000000,Speed,Speed,0.010000,1.100000,1.870000,3.000000,101.000000,1,0,-0.001550,0.000558,0,0.000000,0.000000,0.000000,24.828949,4.137344,0.000000,0.002000,0.000000,0.002000,FlatInitial
03:30:46.494 PM 02/14/2016,Teleop Disabled,0,FALSE,0,NO ERROR,0.000000,0.000000,4000.000000,4000.000000,Speed,Speed,0.010000,1.100000,1.870000,3.000000,103.000000,1,0,-0.001550,0.000558,0,0.000000,0.000000,0.000000,24.828949,4.137344,0.000000,0.000000,0.000000,0.002000,FlatInitial
03:30:46.594 PM 02/14/2016,Teleop Disabled,0,FALSE,0,NO ERROR,0.000000,0.000000,4000.000000,4000.000000,Speed,Speed,0.010000,1.100000,1.870000,3.000000,100.000000,1,0,-0.001550,0.000558,0,0.000000,0.000000,0.000000,24.828949,4.137344,0.000000,0.000000,0.000000,0.001000,FlatInitial
03:30:46.695 PM 02/14/2016,Teleop Disabled,0,FALSE,0,NO ERROR,0.000000,0.000000,4000.000000,4000.000000,Speed,Speed,0.010000,1.100000,1.870000,3.000000,103.000000,1,0,-0.001550,0.000558,0,0.000000,0.000000,0.000000,24.828949,4.137344,0.000000,0.001000,0.003000,-0.003000,FlatInitial
03:30:46.794 PM 02/14/2016,Teleop Disabled,0,FALSE,0,NO ERROR,0.000000,0.000000,4000.000000,4000.000000,Speed,Speed,0.010000,1.100000,1.880000,3.000000,101.000000,1,0,-0.001550,0.000558,0,0.000000,0.000000,0.000000,24.828949,4.137344,0.000000,0.003000,0.000000,-0.001000,FlatInitial
03:30:46.895 PM 02/14/2016,Teleop Disabled,0,FALSE,0,NO ERROR,0.000000,0.000000,4000.000000,4000.000000,Speed,Speed,0.000000,1.110000,1.890000,3.000000,101.000000,1,0,-0.001550,0.000558,0,0.000000,0.000000,0.000000,24.828949,4.137344,0.000000,-0.002000,0.000000,0.006000,FlatInitial
03:30:46.994 PM 02/14/2016,Teleop Disabled,0,FALSE,0,NO ERROR,0.000000,0.000000,4000.000000,4000.000000,Speed,Speed,0.000000,1.110000,1.890000,3.000000,102.000000,1,0,-0.001550,0.000558,0,0.000000,0.000000,0.000000,24.828949,4.137344,0.000000,-0.001000,-0.001000,-0.002000,FlatInitial
03:30:47.095 PM 02/14/2016,Teleop Disabled,0,FALSE,0,NO ERROR,0.000000,0.000000,4000.000000,4000.000000,Speed,Speed,0.010000,1.110000,1.890000,3.000000,103.000000,1,0,-0.001550,0.000558,0,0.000000,0.000000,0.000000,24.828949,4.137344,0.000000,0.004000,-0.001000,0.000000,FlatInitial
03:30:47.195 PM 02/14/2016,Teleop Disabled,0,FALSE,0,NO ERROR,0.000000,0.000000,4000.000000,4000.000000,Speed,Speed,0.000000,1.110000,1.890000,3.000000,103.000000,1,0,-0.001550,0.000558,0,0.000000,0.000000,0.000000,24.828949,4.137344,0.000000,0.000000,0.000000,0.003000,FlatInitial
03:30:47.297 PM 02/14/2016,Teleop Disabled,0,FALSE,0,NO ERROR,0.000000,0.000000,4000.000000,4000.000000,Speed,Speed,0.000000,1.110000,1.890000,3.000000,101.000000,1,0,-0.001550,0.000558,0,0.000000,0.000000,0.000000,24.828949,4.137344,0.000000,-0.002000,0.002000,0.000000,FlatInitial
03:30:47.396 PM 02/14/2016,Teleop Disabled,0,FALSE,0,NO ERROR,0.000000,0.000000,4000.000000,4000.000000,Speed,Speed,0.000000,1.110000,1.890000,3.000000,101.000000,1,0,-0.001550,0.000558,0,0.000000,0.000000,0.000000,24.828949,4.137344,0.000000,0.001000,-0.001000,0.000000,FlatInitial
03:30:47.496 PM 02/14/2016,Teleop Disabled,0,FALSE,0,NO ERROR,0.000000,0.000000,4000.000000,4000.000000,Speed,Speed,0.010000,1.110000,1.890000,3.000000,104.000000,1,0,-0.001550,0.000558,0,0.000000,0.000000,0.000000,24.828949,4.137344,0.000000,0.001000,0.000000,0.002000,FlatInitial
03:30:47.596 PM 02/14/2016,Teleop Disabled,0,FALSE,0,NO ERROR,0.000000,0.000000,4000.000000,4000.000000,Speed,Speed,0.010000,1.110000,1.890000,3.000000,102.000000,1,0,-0.001550,0.000558,0,0.000000,0.000000,0.000000,24.828949,4.137344,0.000000,-0.001000,0.002000,0.001000,FlatInitial
03:30:47.697 PM 02/14/2016,Teleop Disabled,0,FALSE,0,NO ERROR,0.000000,0.000000,4000.000000,4000.000000,Speed,Speed,0.010000,1.110000,1.890000,3.000000,102.000000,1,0,-0.001550,0.000558,0,0.000000,0.000000,0.000000,24.828949,4.137344,0.000000,0.001000,0.002000,0.000000,FlatInitial
03:30:47.796 PM 02/14/2016,Teleop Disabled,0,FALSE,0,NO ERROR,0.000000,0.000000,4000.000000,4000.000000,Speed,Speed,0.010000,1.110000,1.890000,3.000000,101.000000,1,0,-0.001550,0.000558,0,0.000000,0.000000,0.000000,24.828949,4.137344,0.000000,-0.002000,-0.001000,0.001000,FlatInitial
03:30:47.897 PM 02/14/2016,Teleop Disabled,0,FALSE,0,NO ERROR,0.000000,0.000000,4000.000000,4000.000000,Speed,Speed,0.010000,1.100000,1.880000,3.000000,101.000000,1,0,-0.001550,0.000558,0,0.000000,0.000000,0.000000,24.828949,4.137344,0.000000,0.001000,-0.001000,0.000000,FlatInitial
03:30:47.997 PM 02/14/2016,Teleop Disabled,0,FALSE,0,NO ERROR,0.000000,0.000000,4000.000000,4000.000000,Speed,Speed,0.010000,1.100000,1.880000,3.000000,101.000000,1,0,-0.001550,0.000558,0,0.000000,0.000000,0.000000,24.828949,4.137344,0.000000,0.000000,-0.001000,-0.003000,FlatInitial
03:30:48.097 PM 02/14/2016,Teleop Disabled,0,FALSE,0,NO ERROR,0.000000,0.000000,4000.000000,4000.000000,Speed,Speed,0.010000,1.100000,1.880000,3.000000,101.000000,1,0,-0.001550,0.000558,0,0.000000,0.000000,0.000000,24.828949,4.137344,0.000000,0.001000,0.000000,0.001000,FlatInitial
03:30:48.197 PM 02/14/2016,Teleop Disabled,0,FALSE,0,NO ERROR,0.000000,0.000000,4000.000000,4000.000000,Speed,Speed,0.010000,1.100000,1.880000,3.000000,101.000000,1,0,-0.001550,0.000558,0,0.000000,0.000000,0.000000,24.828949,4.137344,0.000000,0.001000,0.000000,0.000000,FlatInitial
03:30:48.297 PM 02/14/2016,Teleop Disabled,0,FALSE,0,NO ERROR,0.000000,0.000000,4000.000000,4000.000000,Speed,Speed,0.010000,1.100000,1.890000,3.000000,101.000000,1,0,-0.001550,0.000558,0,0.000000,0.000000,0.000000,24.828949,4.137344,0.000000,0.003000,0.000000,-0.002000,FlatInitial
03:30:48.397 PM 02/14/2016,Teleop Disabled,0,FALSE,0,NO ERROR,0.000000,0.000000,4000.000000,4000.000000,Speed,Speed,0.000000,1.110000,1.890000,3.000000,104.000000,1,0,-0.001550,0.000558,0,0.000000,0.000000,0.000000,24.828949,4.137344,0.000000,0.000000,0.000000,-0.004000,FlatInitial
03:30:48.497 PM 02/14/2016,Teleop Disabled,0,FALSE,0,NO ERROR,0.000000,0.000000,4000.000000,4000.000000,Speed,Speed,0.000000,1.110000,1.890000,3.000000,103.000000,1,0,-0.001550,0.000558,0,0.000000,0.000000,0.000000,24.828949,4.137344,0.000000,-0.001000,-0.001000,0.000000,FlatInitial
03:30:48.597 PM 02/14/2016,Teleop Disabled,0,FALSE,0,NO ERROR,0.000000,0.000000,4000.000000,4000.000000,Speed,Speed,0.000000,1.100000,1.890000,3.000000,102.000000,1,0,-0.001550,0.000558,0,0.000000,0.000000,0.000000,24.828949,4.137344,0.000000,0.002000,0.000000,-0.002000,FlatInitial
03:30:48.697 PM 02/14/2016,Teleop Disabled,0,FALSE,0,NO ERROR,0.000000,0.000000,4000.000000,4000.000000,Speed,Speed,0.000000,1.100000,1.900000,3.000000,101.000000,1,0,-0.001550,0.000558,0,0.000000,0.000000,0.000000,24.828949,4.137344,0.000000,0.000000,0.000000,0.002000,FlatInitial
03:30:48.797 PM 02/14/2016,Teleop Disabled,0,FALSE,0,NO ERROR,0.000000,0.000000,4000.000000,4000.000000,Speed,Speed,0.000000,1.100000,1.900000,3.000000,102.000000,1,0,-0.001550,0.000558,0,0.000000,0.000000,0.000000,24.828949,4.137344,0.000000,-0.001000,0.000000,0.000000,FlatInitial
03:30:48.897 PM 02/14/2016,Teleop Disabled,0,FALSE,0,NO ERROR,0.000000,0.000000,4000.000000,4000.000000,Speed,Speed,0.010000,1.100000,1.900000,3.000000,102.000000,1,0,-0.001550,0.000558,0,0.000000,0.000000,0.000000,24.828949,4.137344,0.000000,-0.002000,-0.002000,0.001000,FlatInitial
03:30:48.997 PM 02/14/2016,Teleop Disabled,0,FALSE,0,NO ERROR,0.000000,0.000000,4000.000000,4000.000000,Speed,Speed,0.010000,1.100000,1.900000,3.000000,101.000000,1,0,-0.001550,0.000558,0,0.000000,0.000000,0.000000,24.828949,4.137344,0.000000,0.000000,-0.002000,0.001000,FlatInitial
03:30:49.097 PM 02/14/2016,Teleop Disabled,0,FALSE,0,NO ERROR,0.000000,0.000000,4000.000000,4000.000000,Speed,Speed,0.000000,1.110000,1.900000,3.000000,102.000000,1,0,-0.001550,0.000558,0,0.000000,0.000000,0.000000,24.828949,4.137344,0.000000,-0.002000,0.003000,-0.001000,FlatInitial
03:30:49.197 PM 02/14/2016,Teleop Disabled,0,FALSE,0,NO ERROR,0.000000,0.000000,4000.000000,4000.000000,Speed,Speed,0.000000,1.110000,1.910000,3.000000,101.000000,1,0,-0.001550,0.000558,0,0.000000,0.000000,0.000000,24.828949,4.137344,0.000000,0.000000,0.000000,0.003000,FlatInitial
03:30:49.297 PM 02/14/2016,Teleop Disabled,0,FALSE,0,NO ERROR,0.000000,0.000000,4000.000000,4000.000000,Speed,Speed,0.000000,1.110000,1.910000,3.000000,100.000000,1,0,-0.001550,0.000558,0,0.000000,0.000000,0.000000,24.828949,4.137344,0.000000,-0.001000,-0.003000,0.003000,FlatInitial
03:30:49.398 PM 02/14/2016,Teleop Disabled,0,FALSE,0,NO ERROR,0.000000,0.000000,4000.000000,4000.000000,Speed,Speed,0.000000,1.120000,1.910000,3.000000,103.000000,1,0,-0.001550,0.000558,0,0.000000,0.000000,0.000000,24.828949,4.137344,0.000000,0.000000,0.000000,0.001000,FlatInitial
03:30:49.498 PM 02/14/2016,Teleop Disabled,0,FALSE,0,NO ERROR,0.000000,0.000000,4000.000000,4000.000000,Speed,Speed,0.000000,1.110000,1.900000,3.000000,103.000000,1,0,-0.001550,0.000558,0,0.000000,0.000000,0.000000,24.828949,4.137344,0.000000,0.000000,0.000000,0.003000,FlatInitial
03:30:49.598 PM 02/14/2016,Teleop Disabled,0,FALSE,0,NO ERROR,0.000000,0.000000,4000.000000,4000.000000,Speed,Speed,0.000000,1.120000,1.910000,3.000000,101.000000,1,0,-0.001550,0.000558,0,0.000000,0.000000,0.000000,24.828949,4.137344,0.000000,0.000000,0.000000,0.001000,FlatInitial
03:30:49.698 PM 02/14/2016,Teleop Disabled,0,FALSE,0,NO ERROR,0.000000,0.000000,4000.000000,4000.000000,Speed,Speed,0.000000,1.120000,1.910000,3.000000,102.000000,1,0,-0.001550,0.000558,0,0.000000,0.000000,0.000000,24.828949,4.137344,0.000000,0.000000,0.001000,-0.004000,FlatInitial
03:30:49.799 PM 02/14/2016,Teleop Enabled,0,FALSE,0,NO ERROR,54.638672,-7.617187,4000.000000,4000.000000,Speed,Speed,0.000000,1.130000,1.900000,3.000000,101.000000,1,0,-0.000248,0.015872,0,0.000000,0.000000,0.000000,24.828949,4.137344,0.000000,0.002000,0.000000,0.000000,FlatInitial
03:30:49.898 PM 02/14/2016,Teleop Enabled,0,FALSE,0,NO ERROR,954.345703,-929.296875,4000.000000,4000.000000,Speed,Speed,0.000000,1.130000,1.910000,3.000000,102.000000,1,0,-0.000248,0.015872,0,0.000000,0.003433,0.000000,24.828949,4.137375,0.000000,-0.018000,0.025000,0.019000,FlatInitial
03:30:49.999 PM 02/14/2016,Teleop Enabled,0,FALSE,0,NO ERROR,2730.615234,-2594.531250,4000.000000,4000.000000,Speed,Speed,0.010000,1.150000,1.910000,3.000000,102.000000,1,0,-0.000248,0.015872,0,0.007660,0.000000,0.000000,24.829102,4.137787,0.000000,0.004000,-0.052000,0.010000,FlatInitial
03:30:50.099 PM 02/14/2016,Teleop Enabled,0,FALSE,0,NO ERROR,3820.898437,-3536.865234,4000.000000,4000.000000,Speed,Speed,0.000000,1.140000,1.910000,3.000000,103.000000,1,0,-0.000248,0.015872,0,0.000000,-0.037857,0.000000,24.829102,4.136246,0.000000,-0.012000,0.026000,-0.107000,FlatInitial
03:30:50.200 PM 02/14/2016,Teleop Enabled,0,FALSE,0,NO ERROR,4152.685547,-3781.494141,4000.000000,4000.000000,Speed,Speed,0.020000,1.160000,1.880000,3.000000,101.000000,1,0,-0.000248,0.015872,0,0.000061,-0.034561,0.000000,24.829025,4.134964,0.000000,0.008000,0.048000,-0.119000,FlatInitial
03:30:50.301 PM 02/14/2016,Teleop Enabled,0,FALSE,0,NO ERROR,4160.742188,-3834.375000,4000.000000,4000.000000,Speed,Speed,0.000000,1.120000,1.950000,3.000000,103.000000,1,0,-0.000248,0.015872,0,-0.007919,-0.039886,0.000000,24.829010,4.132614,0.000000,-0.027000,0.074000,-0.006000,FlatInitial
03:30:50.403 PM 02/14/2016,Teleop Enabled,0,FALSE,0,NO ERROR,4109.472656,-3856.933594,4000.000000,4000.000000,Speed,Speed,0.060000,1.140000,2.010000,3.000000,102.000000,1,0,-0.000248,0.015872,0,0.000000,-0.045273,0.000000,24.828888,4.131241,0.000000,-0.013000,-0.042000,-0.021000,FlatInitial
03:30:50.505 PM 02/14/2016,Teleop Enabled,0,FALSE,0,NO ERROR,4057.763672,-3894.140625,4000.000000,4000.000000,Speed,Speed,0.010000,1.140000,1.900000,3.000000,103.000000,1,0,-0.000248,0.015872,0,0.008865,0.001404,0.000000,24.829376,4.129211,0.000000,0.006000,0.028000,0.095000,FlatInitial
03:30:50.604 PM 02/14/2016,Teleop Enabled,0,FALSE,0,NO ERROR,4026.562500,-3929.736328,4000.000000,4000.000000,Speed,Speed,0.010000,1.130000,2.010000,3.000000,103.000000,1,0,-0.000248,0.015872,0,-0.007858,0.031494,0.000000,24.829300,4.130280,0.000000,0.009000,0.020000,-0.105000,FlatInitial
03:30:50.706 PM 02/14/2016,Teleop Enabled,0,FALSE,0,NO ERROR,4010.595703,-3956.542969,4000.000000,4000.000000,Speed,Speed,0.010000,1.150000,1.900000,3.000000,100.000000,1,0,-0.000248,0.015872,0,-0.004654,0.015228,0.000000,24.829300,4.131302,0.000000,-0.012000,0.081000,-0.020000,FlatInitial
03:30:50.806 PM 02/14/2016,Teleop Enabled,0,FALSE,0,NO ERROR,4010.595703,-3972.216797,4000.000000,4000.000000,Speed,Speed,0.020000,1.130000,1.950000,3.000000,101.000000,1,0,-0.000248,0.015872,0,0.001312,0.048721,0.000000,24.829132,4.133377,0.000000,0.043000,-0.014000,0.034000,FlatInitial
03:30:50.906 PM 02/14/2016,Teleop Enabled,0,FALSE,0,NO ERROR,4005.029297,-3990.234375,4000.000000,4000.000000,Speed,Speed,0.000000,1.100000,1.900000,3.000000,101.000000,1,0,-0.000248,0.015872,0,0.000153,0.016449,0.000000,24.829239,4.134842,0.000000,0.016000,0.008000,-0.097000,FlatInitial
03:30:51.006 PM 02/14/2016,Teleop Enabled,0,FALSE,0,NO ERROR,4003.710937,-3990.234375,4000.000000,4000.000000,Speed,Speed,0.040000,1.130000,1.750000,3.000000,103.000000,1,0,-0.000248,0.015872,0,0.007858,0.019882,0.000000,24.829483,4.135330,0.000000,0.034000,0.063000,-0.083000,FlatInitial
03:30:51.107 PM 02/14/2016,Teleop Enabled,0,FALSE,0,NO ERROR,4001.513672,-4001.074219,4000.000000,4000.000000,Speed,Speed,0.020000,1.090000,1.870000,3.000000,100.000000,1,0,-0.000248,0.015872,0,0.000000,0.014084,0.000000,24.829666,4.136444,0.000000,-0.042000,-0.053000,0.040000,FlatInitial
03:30:51.206 PM 02/14/2016,Teleop Enabled,0,FALSE,0,NO ERROR,3997.412109,-4007.958984,4000.000000,4000.000000,Speed,Speed,0.040000,1.060000,1.680000,3.000000,100.000000,1,0,-0.000248,0.015872,0,0.002380,0.005005,0.000000,24.829407,4.136230,0.000000,0.051000,-0.012000,0.027000,FlatInitial
03:30:51.306 PM 02/14/2016,Teleop Enabled,0,FALSE,0,NO ERROR,3997.412109,-4021.142578,4000.000000,4000.000000,Speed,Speed,0.020000,1.090000,1.680000,3.000000,101.000000,1,0,-0.000248,0.015872,0,0.002869,-0.006866,0.000000,24.829483,4.136169,0.000000,-0.054000,-0.011000,0.037000,FlatInitial
03:30:51.406 PM 02/14/2016,Teleop Enabled,0,FALSE,0,NO ERROR,3997.412109,-4021.142578,4000.000000,4000.000000,Speed,Speed,0.010000,1.080000,1.580000,3.000000,101.000000,1,0,-0.000248,0.015872,0,0.001129,-0.024826,0.000000,24.829391,4.135010,0.000000,-0.041000,-0.017000,0.029000,FlatInitial
03:30:51.507 PM 02/14/2016,Teleop Enabled,0,FALSE,0,NO ERROR,4003.417969,-4019.531250,4000.000000,4000.000000,Speed,Speed,0.040000,1.080000,1.490000,3.000000,100.000000,1,0,-0.000248,0.015872,0,0.000610,0.000000,0.000000,24.829376,4.134155,0.000000,0.022000,0.015000,-0.153000,FlatInitial
03:30:51.609 PM 02/14/2016,Teleop Enabled,0,FALSE,0,NO ERROR,4009.130859,-4010.742187,4000.000000,4000.000000,Speed,Speed,0.020000,1.080000,1.480000,3.000000,101.000000,1,0,-0.000248,0.015872,0,0.010742,-0.002304,0.000000,24.829697,4.133865,0.000000,0.013000,0.033000,-0.109000,FlatInitial
03:30:51.709 PM 02/14/2016,Teleop Enabled,0,FALSE,0,NO ERROR,4009.130859,-4010.742187,4000.000000,4000.000000,Speed,Speed,0.040000,1.080000,1.490000,3.000000,103.000000,1,0,-0.000248,0.015872,0,0.011703,0.001312,0.000000,24.829987,4.134048,0.000000,-0.011000,0.032000,0.021000,FlatInitial
03:30:51.810 PM 02/14/2016,Teleop Enabled,0,FALSE,0,NO ERROR,4012.500000,-4005.908203,4000.000000,4000.000000,Speed,Speed,0.010000,1.080000,1.420000,3.000000,101.000000,1,0,-0.000248,0.015872,0,-0.002045,-0.010025,0.000000,24.829956,4.133728,0.000000,0.055000,-0.023000,0.038000,FlatInitial
03:30:51.911 PM 02/14/2016,Teleop Enabled,0,FALSE,0,NO ERROR,4008.691406,-4009.863281,4000.000000,4000.000000,Speed,Speed,0.020000,1.110000,1.400000,3.000000,101.000000,1,0,-0.000248,0.015872,0,0.000519,-0.006104,0.000000,24.830124,4.133270,0.000000,-0.045000,0.018000,-0.087000,FlatInitial
03:30:52.012 PM 02/14/2016,Teleop Enabled,0,FALSE,0,NO ERROR,4006.640625,-4011.035156,4000.000000,4000.000000,Speed,Speed,0.020000,1.150000,1.500000,3.000000,105.000000,1,0,-0.000248,0.015872,0,0.011368,0.011414,0.000000,24.830261,4.133591,0.000000,0.029000,0.050000,0.031000,FlatInitial
03:30:52.113 PM 02/14/2016,Teleop Enabled,0,FALSE,0,NO ERROR,4006.054687,-4008.837891,4000.000000,4000.000000,Speed,Speed,0.030000,1.180000,1.540000,3.000000,104.000000,1,0,-0.000248,0.015872,0,0.021027,0.027252,0.000000,24.831146,4.134796,0.000000,0.044000,0.059000,0.012000,FlatInitial
03:30:52.214 PM 02/14/2016,Teleop Enabled,0,FALSE,0,NO ERROR,4005.908203,-4006.347656,4000.000000,4000.000000,Speed,Speed,0.020000,1.220000,1.640000,3.000000,101.000000,1,0,-0.000248,0.015872,0,0.039185,0.045135,0.000000,24.832916,4.136703,0.000000,-0.030000,0.035000,-0.041000,FlatInitial
03:30:52.313 PM 02/14/2016,Teleop Enabled,0,FALSE,0,NO ERROR,4002.685547,-4005.615234,4000.000000,4000.000000,Speed,Speed,0.010000,1.250000,1.720000,3.000000,102.000000,1,0,-0.000248,0.015872,0,0.063477,0.004074,0.000000,24.835571,4.137238,0.000000,-0.039000,0.033000,-0.074000,FlatInitial
03:30:52.413 PM 02/14/2016,Teleop Enabled,0,FALSE,0,NO ERROR,3996.386719,-4005.908203,4000.000000,4000.000000,Speed,Speed,0.020000,1.260000,1.760000,3.000000,100.000000,1,0,-0.000248,0.015872,0,0.055817,0.007065,0.000000,24.838486,4.137573,0.000000,-0.026000,-0.020000,0.013000,FlatInitial
03:30:52.514 PM 02/14/2016,Teleop Enabled,0,FALSE,0,NO ERROR,3992.871094,-4005.175781,4000.000000,4000.000000,Speed,Speed,0.020000,1.270000,1.800000,3.000000,101.000000,1,0,-0.000248,0.015872,0,0.041992,0.003571,0.000000,24.840942,4.137726,0.000000,0.037000,-0.018000,0.066000,FlatInitial
03:30:52.615 PM 02/14/2016,Teleop Enabled,0,FALSE,0,NO ERROR,3994.921875,-4004.150391,4000.000000,4000.000000,Speed,Speed,0.020000,1.290000,1.790000,3.000000,101.000000,1,0,-0.000248,0.015872,0,0.056137,0.003372,0.000000,24.843231,4.137848,0.000000,0.011000,0.000000,0.033000,FlatInitial
03:30:52.715 PM 02/14/2016,Teleop Enabled,0,FALSE,0,NO ERROR,3995.214844,-3999.023437,4000.000000,4000.000000,Speed,Speed,0.020000,1.300000,1.850000,3.000000,103.000000,1,0,-0.000248,0.015872,0,0.059540,0.025360,0.000000,24.846481,4.138855,0.000000,0.004000,0.026000,0.025000,FlatInitial
03:30:52.814 PM 02/14/2016,Teleop Enabled,0,FALSE,0,NO ERROR,3995.068359,-3994.775391,4000.000000,4000.000000,Speed,Speed,0.010000,1.290000,1.890000,3.000000,101.000000,1,0,-0.000248,0.015872,0,0.003082,0.000000,0.000000,24.848206,4.139481,0.000000,0.050000,0.006000,0.048000,FlatInitial
03:30:52.915 PM 02/14/2016,Teleop Enabled,0,FALSE,0,NO ERROR,3998.291016,-3993.310547,4000.000000,4000.000000,Speed,Speed,0.010000,1.310000,1.890000,3.000000,104.000000,1,0,-0.000248,0.015872,0,0.002426,0.000000,0.000000,24.848434,4.139297,0.000000,-0.037000,0.019000,-0.085000,FlatInitial
03:30:53.014 PM 02/14/2016,Teleop Enabled,0,FALSE,0,NO ERROR,4000.927734,-3995.800781,4000.000000,4000.000000,Speed,Speed,0.020000,1.310000,1.910000,3.000000,101.000000,1,0,-0.000248,0.015872,0,0.027191,0.009003,0.000000,24.849197,4.139511,0.000000,0.053000,0.021000,0.001000,FlatInitial
03:30:53.114 PM 02/14/2016,Teleop Enabled,0,FALSE,0,NO ERROR,4004.150391,-4000.781250,4000.000000,4000.000000,Speed,Speed,0.020000,1.340000,1.950000,3.000000,102.000000,1,0,-0.000248,0.015872,0,0.026947,0.021286,0.000000,24.850754,4.140411,0.000000,0.022000,-0.023000,0.077000,FlatInitial
03:30:53.215 PM 02/14/2016,Teleop Enabled,0,FALSE,0,NO ERROR,4006.054687,-4004.150391,4000.000000,4000.000000,Speed,Speed,0.010000,1.340000,2.000000,3.000000,104.000000,1,0,-0.000248,0.015872,0,0.029465,0.000000,0.000000,24.852249,4.141418,0.000000,-0.049000,0.004000,-0.063000,FlatInitial
