Time,RobotMode,AutoToRun,ErrorStatus, ErrorCode,ErrorSource,ActualRPM1,ActualRPM2,DesiredRPM1,DesiredRPM2,ControlMode1,ControlMode2,NavXYaw,NavXRoll,NavXPitch,ShooterState,LoopTime,IsLevel,IsAutoTargeting,LeftMotorOutput,RightMotorOutput,IsHaloDrive,NavXVelocityX,NavXVelocityY,NavXVelocityZ,NavXDisplacementX,NavXDisplacementY,NavXDisplacementZ,NavXAccelerationX,NavXAccelerationY,NavXAccelerationZ,AutoDefendState
03:53:24.765 PM 02/14/2016,Autonomous Disabled,0,TRUE,91,Variant To Data in WPI_DigitalInputRefNum Registry Get.vi->Periodic Tasks.vi->Robot Main.vi,9896.484375,-8995.312500,9000.000000,9000.000000,Speed,Speed,-2.370000,1.150000,1.580000,4.000000,102.000000,1,0,0.000558,0.000062,0,0.069382,0.334915,0.000000,28.728348,8.952301,0.000000,-0.190000,0.057000,0.043000,FlatInitial
03:53:24.871 PM 02/14/2016,Teleop Disabled,0,TRUE,-44007,<LOCATION>WPI_DigitalInputRefNum Registry Get.vi<CALLSTACK>WPI_DigitalInputRefNum Registry Get.vi< <Periodic Tasks.vi< <Robot Main.vi,0.000000,0.000000,0.000000,0.000000,Speed,Speed,-3.270000,1.130000,1.780000,0.000000,139174.000000,1,0,0.000558,0.000062,0,0.069382,0.334915,0.000000,28.728348,8.952301,0.000000,-0.190000,0.057000,0.043000,FlatInitial
03:53:24.971 PM 02/14/2016,Teleop Disabled,0,FALSE,0,NO ERROR,0.000000,0.000000,0.000000,0.000000,Speed,Speed,0.000000,1.130000,1.780000,0.000000,100.000000,1,0,0.000558,0.000062,0,0.000000,0.000000,0.000000,28.758347,9.532578,0.000000,-0.001000,0.002000,0.000000,FlatInitial
03:53:25.071 PM 02/14/2016,Teleop Disabled,0,FALSE,0,NO ERROR,0.000000,0.000000,0.000000,0.000000,Speed,Speed,0.000000,1.130000,1.780000,0.000000,106.000000,1,0,0.000558,0.000062,0,0.000000,0.000000,0.000000,28.758347,9.532578,0.000000,0.000000,-0.002000,0.000000,FlatInitial
03:53:25.171 PM 02/14/2016,Teleop Disabled,0,FALSE,0,NO ERROR,0.000000,0.000000,0.000000,0.000000,Speed,Speed,-0.010000,1.140000,1.790000,0.000000,103.000000,1,0,0.000558,0.000062,0,0.000000,0.000000,0.000000,28.758347,9.532578,0.000000,0.002000,0.000000,0.004000,FlatInitial
03:53:25.272 PM 02/14/2016,Teleop Disabled,0,FALSE,0,NO ERROR,0.000000,0.000000,0.000000,0.000000,Speed,Speed,-0.010000,1.130000,1.790000,0.000000,100.000000,1,0,0.000558,0.000062,0,0.000000,0.000000,0.000000,28.758347,9.532578,0.000000,-0.001000,0.000000,0.004000,FlatInitial
03:53:25.372 PM 02/14/2016,Teleop Disabled,0,FALSE,0,NO ERROR,0.000000,0.000000,0.000000,0.000000,Speed,Speed,-0.010000,1.130000,1.790000,0.000000,101.000000,1,0,0.000558,0.000062,0,0.000000,0.000000,0.000000,28.758347,9.532578,0.000000,0.002000,-0.003000,-0.002000,FlatInitial
03:53:25.473 PM 02/14/2016,Teleop Disabled,0,FALSE,0,NO ERROR,0.000000,0.000000,0.000000,0.000000,Speed,Speed,-0.010000,1.130000,1.790000,0.000000,101.000000,1,0,0.000558,0.000062,0,0.000000,0.000000,0.000000,28.758347,9.532578,0.000000,0.002000,-0.001000,0.004000,FlatInitial
03:53:25.573 PM 02/14/2016,Teleop Disabled,0,FALSE,0,NO ERROR,0.000000,0.000000,0.000000,0.000000,Speed,Speed,-0.010000,1.130000,1.790000,0.000000,102.000000,1,0,0.000558,0.000062,0,0.000000,0.000000,0.000000,28.758347,9.532578,0.000000,0.000000,0.001000,0.002000,FlatInitial
03:53:25.673 PM 02/14/2016,Teleop Disabled,0,FALSE,0,NO ERROR,0.000000,0.000000,0.000000,0.000000,Speed,Speed,-0.010000,1.130000,1.790000,0.000000,100.000000,1,0,0.000558,0.000062,0,0.000000,0.000000,0.000000,28.758347,9.532578,0.000000,-0.002000,0.001000,0.000000,FlatInitial
03:53:25.772 PM 02/14/2016,Teleop Disabled,0,FALSE,0,NO ERROR,0.000000,0.000000,0.000000,0.000000,Speed,Speed,-0.010000,1.130000,1.790000,0.000000,102.000000,1,0,0.000558,0.000062,0,0.000000,0.000000,0.000000,28.758347,9.532578,0.000000,0.000000,0.001000,0.004000,FlatInitial
03:53:25.873 PM 02/14/2016,Teleop Disabled,0,FALSE,0,NO ERROR,0.000000,0.000000,0.000000,0.000000,Speed,Speed,-0.010000,1.130000,1.790000,0.000000,102.000000,1,0,0.000558,0.000062,0,0.000000,0.000000,0.000000,28.758347,9.532578,0.000000,0.000000,-0.003000,0.001000,FlatInitial
03:53:25.973 PM 02/14/2016,Teleop Disabled,0,FALSE,0,NO ERROR,0.000000,0.000000,0.000000,0.000000,Speed,Speed,-0.010000,1.140000,1.790000,0.000000,103.000000,1,0,0.000558,0.000062,0,0.000000,0.000000,0.000000,28.758347,9.532578,0.000000,0.000000,0.002000,0.002000,FlatInitial
03:53:26.073 PM 02/14/2016,Teleop Disabled,0,FALSE,0,NO ERROR,0.000000,0.000000,0.000000,0.000000,Speed,Speed,-0.010000,1.140000,1.790000,0.000000,103.000000,1,0,0.000558,0.000062,0,0.000000,0.000000,0.000000,28.758347,9.532578,0.000000,0.001000,0.001000,0.000000,FlatInitial
03:53:26.173 PM 02/14/2016,Teleop Disabled,0,FALSE,0,NO ERROR,0.000000,0.000000,0.000000,0.000000,Speed,Speed,-0.020000,1.140000,1.780000,0.000000,101.000000,1,0,0.000558,0.000062,0,0.000000,0.000000,0.000000,28.758347,9.532578,0.000000,0.003000,-0.002000,0.003000,FlatInitial
03:53:26.274 PM 02/14/2016,Teleop Disabled,0,FALSE,0,NO ERROR,0.000000,0.000000,0.000000,0.000000,Speed,Speed,-0.020000,1.140000,1.780000,0.000000,101.000000,1,0,0.000558,0.000062,0,0.000000,0.000000,0.000000,28.758347,9.532578,0.000000,0.000000,-0.002000,0.000000,FlatInitial
03:53:26.374 PM 02/14/2016,Teleop Disabled,0,FALSE,0,NO ERROR,0.000000,0.000000,0.000000,0.000000,Speed,Speed,-0.020000,1.140000,1.780000,0.000000,103.000000,1,0,0.000558,0.000062,0,0.000000,0.000000,0.000000,28.758347,9.532578,0.000000,0.000000,-0.001000,0.000000,FlatInitial
03:53:26.474 PM 02/14/2016,Teleop Disabled,0,FALSE,0,NO ERROR,0.000000,0.000000,0.000000,0.000000,Speed,Speed,-0.020000,1.140000,1.780000,0.000000,102.000000,1,0,0.000558,0.000062,0,0.000000,0.000000,0.000000,28.758347,9.532578,0.000000,0.000000,-0.003000,0.003000,FlatInitial
03:53:26.574 PM 02/14/2016,Teleop Disabled,0,FALSE,0,NO ERROR,0.000000,0.000000,0.000000,0.000000,Speed,Speed,-0.020000,1.140000,1.780000,0.000000,101.000000,1,0,0.000558,0.000062,0,0.000000,0.000000,0.000000,28.758347,9.532578,0.000000,0.000000,-0.001000,0.001000,FlatInitial
03:53:26.674 PM 02/14/2016,Teleop Disabled,0,FALSE,0,NO ERROR,0.000000,0.000000,0.000000,0.000000,Speed,Speed,-0.020000,1.150000,1.790000,0.000000,101.000000,1,0,0.000558,0.000062,0,0.000000,0.000000,0.000000,28.758347,9.532578,0.000000,0.001000,0.000000,0.003000,FlatInitial
03:53:26.774 PM 02/14/2016,Teleop Disabled,0,FALSE,0,NO ERROR,0.000000,0.000000,0.000000,0.000000,Speed,Speed,-0.020000,1.150000,1.790000,0.000000,101.000000,1,0,0.000558,0.000062,0,0.000000,0.000000,0.000000,28.758347,9.532578,0.000000,-0.001000,0.000000,0.002000,FlatInitial
03:53:26.874 PM 02/14/2016,Teleop Disabled,0,FALSE,0,NO ERROR,0.000000,0.000000,0.000000,0.000000,Speed,Speed,-0.020000,1.140000,1.790000,0.000000,101.000000,1,0,0.000558,0.000062,0,0.000000,0.000000,0.000000,28.758347,9.532578,0.000000,0.000000,0.001000,0.003000,FlatInitial
03:53:26.975 PM 02/14/2016,Teleop Disabled,0,FALSE,0,NO ERROR,0.000000,0.000000,0.000000,0.000000,Speed,Speed,-0.020000,1.140000,1.790000,0.000000,102.000000,1,0,0.000558,0.000062,0,0.000000,0.000000,0.000000,28.758347,9.532578,0.000000,0.000000,0.000000,0.006000,FlatInitial
03:53:27.075 PM 02/14/2016,Teleop Disabled,0,FALSE,0,NO ERROR,0.000000,0.000000,0.000000,0.000000,Speed,Speed,-0.030000,1.140000,1.790000,0.000000,102.000000,1,0,0.000558,0.000062,0,0.000000,0.000000,0.000000,28.758347,9.532578,0.000000,0.000000,0.000000,0.002000,FlatInitial
03:53:27.175 PM 02/14/2016,Teleop Disabled,0,FALSE,0,NO ERROR,0.000000,0.000000,0.000000,0.000000,Speed,Speed,-0.020000,1.140000,1.790000,0.000000,100.000000,1,0,0.000558,0.000062,0,0.000000,0.000000,0.000000,28.758347,9.532578,0.000000,0.000000,0.000000,0.001000,FlatInitial
03:53:27.276 PM 02/14/2016,Teleop Disabled,0,FALSE,0,NO ERROR,0.000000,0.000000,0.000000,0.000000,Speed,Speed,-0.020000,1.140000,1.790000,0.000000,102.000000,1,0,0.000558,0.000062,0,0.000000,0.000000,0.000000,28.758347,9.532578,0.000000,-0.002000,-0.002000,0.005000,FlatInitial
03:53:27.377 PM 02/14/2016,Teleop Disabled,0,FALSE,0,NO ERROR,0.000000,0.000000,0.000000,0.000000,Speed,Speed,-0.020000,1.140000,1.790000,0.000000,102.000000,1,0,0.000558,0.000062,0,0.000000,0.000000,0.000000,28.758347,9.532578,0.000000,0.000000,0.000000,-0.001000,FlatInitial
03:53:27.476 PM 02/14/2016,Teleop Disabled,0,FALSE,0,NO ERROR,0.000000,0.000000,0.000000,0.000000,Speed,Speed,-0.020000,1.140000,1.790000,0.000000,102.000000,1,0,0.000558,0.000062,0,0.000000,0.000000,0.000000,28.758347,9.532578,0.000000,-0.001000,-0.001000,0.004000,FlatInitial
03:53:27.577 PM 02/14/2016,Teleop Disabled,0,FALSE,0,NO ERROR,0.000000,0.000000,0.000000,0.000000,Speed,Speed,-0.020000,1.150000,1.790000,0.000000,104.000000,1,0,0.000558,0.000062,0,0.000000,0.000000,0.000000,28.758347,9.532578,0.000000,0.003000,0.002000,0.002000,FlatInitial
03:53:27.677 PM 02/14/2016,Teleop Disabled,0,FALSE,0,NO ERROR,0.000000,0.000000,0.000000,0.000000,Speed,Speed,-0.020000,1.150000,1.790000,0.000000,104.000000,1,0,0.000558,0.000062,0,0.000000,0.000000,0.000000,28.758347,9.532578,0.000000,0.000000,0.000000,-0.002000,FlatInitial
03:53:27.777 PM 02/14/2016,Teleop Disabled,0,FALSE,0,NO ERROR,0.000000,0.000000,0.000000,0.000000,Speed,Speed,-0.020000,1.150000,1.790000,0.000000,101.000000,1,0,0.000558,0.000062,0,0.000000,0.000000,0.000000,28.758347,9.532578,0.000000,0.000000,0.000000,0.000000,FlatInitial
03:53:27.877 PM 02/14/2016,Teleop Disabled,0,FALSE,0,NO ERROR,0.000000,0.000000,0.000000,0.000000,Speed,Speed,-0.020000,1.150000,1.790000,0.000000,101.000000,1,0,0.000558,0.000062,0,0.000000,0.000000,0.000000,28.758347,9.532578,0.000000,0.001000,0.001000,0.000000,FlatInitial
03:53:27.977 PM 02/14/2016,Teleop Disabled,0,FALSE,0,NO ERROR,0.000000,0.000000,0.000000,0.000000,Speed,Speed,-0.020000,1.150000,1.800000,0.000000,102.000000,1,0,0.000558,0.000062,0,0.000000,0.000000,0.000000,28.758347,9.532578,0.000000,0.000000,-0.001000,0.000000,FlatInitial
03:53:28.077 PM 02/14/2016,Teleop Disabled,0,FALSE,0,NO ERROR,0.000000,0.000000,-6000.000000,-6000.000000,Speed,Speed,-0.020000,1.150000,1.800000,1.000000,101.000000,1,0,0.000558,0.000062,0,0.000000,0.000000,0.000000,28.758347,9.532578,0.000000,0.002000,-0.003000,-0.001000,FlatInitial
03:53:28.176 PM 02/14/2016,Teleop Disabled,0,FALSE,0,NO ERROR,0.000000,0.000000,0.000000,0.000000,Speed,Speed,-0.020000,1.150000,1.800000,2.000000,102.000000,1,0,0.000558,0.000062,0,0.000000,0.000000,0.000000,28.758347,9.532578,0.000000,0.000000,-0.001000,-0.001000,FlatInitial
03:53:28.277 PM 02/14/2016,Teleop Disabled,0,FALSE,0,NO ERROR,0.000000,0.000000,0.000000,0.000000,Speed,Speed,-0.020000,1.150000,1.800000,2.000000,101.000000,1,0,0.000558,0.000062,0,0.000000,0.000000,0.000000,28.758347,9.532578,0.000000,0.000000,0.001000,0.000000,FlatInitial
03:53:28.377 PM 02/14/2016,Teleop Disabled,0,FALSE,0,NO ERROR,0.000000,0.000000,0.000000,0.000000,Speed,Speed,-0.020000,1.160000,1.800000,2.000000,101.000000,1,0,0.000558,0.000062,0,0.000000,0.000000,0.000000,28.758347,9.532578,0.000000,0.003000,-0.002000,0.006000,FlatInitial
03:53:28.477 PM 02/14/2016,Teleop Disabled,0,FALSE,0,NO ERROR,0.000000,0.000000,0.000000,0.000000,Speed,Speed,-0.010000,1.150000,1.800000,2.000000,102.000000,1,0,0.000558,0.000062,0,0.000000,0.000000,0.000000,28.758347,9.532578,0.000000,0.000000,-0.001000,0.004000,FlatInitial
03:53:28.578 PM 02/14/2016,Teleop Disabled,0,FALSE,0,NO ERROR,0.000000,0.000000,0.000000,0.000000,Speed,Speed,-0.010000,1.150000,1.800000,2.000000,102.000000,1,0,0.000558,0.000062,0,0.000000,0.000000,0.000000,28.758347,9.532578,0.000000,0.000000,0.000000,0.001000,FlatInitial
03:53:28.678 PM 02/14/2016,Teleop Disabled,0,FALSE,0,NO ERROR,0.000000,0.000000,0.000000,0.000000,Speed,Speed,-0.010000,1.150000,1.800000,2.000000,101.000000,1,0,0.000558,0.000062,0,0.000000,0.000000,0.000000,28.758347,9.532578,0.000000,0.000000,-0.001000,0.000000,FlatInitial
03:53:28.778 PM 02/14/2016,Teleop Enabled,0,FALSE,0,NO ERROR,0.000000,0.000000,0.000000,0.000000,Speed,Speed,-0.010000,1.140000,1.790000,2.000000,102.000000,1,0,0.000558,0.000062,0,0.000000,0.000000,0.000000,28.758347,9.532578,0.000000,0.002000,-0.003000,-0.031000,FlatInitial
03:53:28.879 PM 02/14/2016,Teleop Enabled,0,FALSE,0,NO ERROR,0.000000,0.000000,0.000000,0.000000,Speed,Speed,-0.010000,1.220000,1.500000,2.000000,102.000000,1,0,0.000558,0.000062,0,0.000000,0.000000,0.000000,28.758591,9.532013,0.000000,-0.005000,-0.013000,0.039000,FlatInitial
03:53:28.980 PM 02/14/2016,Teleop Enabled,0,FALSE,0,NO ERROR,0.000000,0.146484,0.000000,0.000000,Speed,Speed,0.020000,1.290000,1.470000,2.000000,101.000000,1,0,0.000558,0.000062,0,0.009064,0.013672,0.000000,28.758331,9.532135,0.000000,0.040000,0.035000,-0.023000,FlatInitial
03:53:29.080 PM 02/14/2016,Teleop Enabled,0,FALSE,0,NO ERROR,0.000000,0.000000,0.000000,0.000000,Speed,Speed,0.080000,1.120000,2.050000,2.000000,102.000000,1,0,0.000558,0.000062,0,0.009445,-0.006363,0.000000,28.759521,9.532181,0.000000,-0.059000,-0.014000,-0.075000,FlatInitial
03:53:29.181 PM 02/14/2016,Teleop Enabled,0,FALSE,0,NO ERROR,0.000000,0.000000,0.000000,0.000000,Speed,Speed,0.070000,1.270000,1.690000,2.000000,101.000000,1,0,0.000558,0.000062,0,0.023575,0.004196,0.000000,28.760330,9.531784,0.000000,-0.036000,0.029000,-0.056000,FlatInitial
03:53:29.281 PM 02/14/2016,Teleop Enabled,0,FALSE,0,NO ERROR,0.000000,0.000000,0.000000,0.000000,Speed,Speed,0.030000,1.220000,2.000000,2.000000,102.000000,1,0,0.000558,0.000062,0,0.013809,0.000000,0.000000,28.760956,9.532562,0.000000,-0.012000,0.000000,0.002000,FlatInitial
03:53:29.381 PM 02/14/2016,Teleop Enabled,0,FALSE,0,NO ERROR,0.000000,0.000000,4000.000000,4000.000000,Speed,Speed,0.000000,1.170000,1.960000,3.000000,102.000000,1,0,0.000558,0.000062,0,0.000000,-0.019913,0.000000,28.760956,9.532059,0.000000,0.001000,-0.016000,-0.032000,FlatInitial
03:53:29.481 PM 02/14/2016,Teleop Enabled,0,FALSE,0,NO ERROR,139.746094,-90.234375,4000.000000,4000.000000,Speed,Speed,0.000000,1.190000,1.880000,3.000000,102.000000,1,0,0.000558,0.000062,0,0.000000,-0.001846,0.000000,28.760956,9.531815,0.000000,-0.022000,-0.035000,0.047000,FlatInitial
03:53:29.582 PM 02/14/2016,Teleop Enabled,0,FALSE,0,NO ERROR,139.746094,-1610.302734,4000.000000,4000.000000,Speed,Speed,0.020000,1.170000,1.940000,3.000000,101.000000,1,0,0.000558,0.000062,0,-0.007111,-0.010895,0.000000,28.760757,9.531479,0.000000,-0.001000,-0.033000,0.017000,FlatInitial
03:53:29.685 PM 02/14/2016,Teleop Enabled,0,FALSE,0,NO ERROR,3510.498047,-3298.681641,4000.000000,4000.000000,Speed,Speed,-0.010000,1.180000,1.900000,3.000000,103.000000,1,0,0.000558,0.000062,0,0.000000,-0.020493,0.000000,28.760696,9.530960,0.000000,0.000000,-0.032000,-0.108000,FlatInitial
03:53:29.785 PM 02/14/2016,Teleop Enabled,0,FALSE,0,NO ERROR,4242.187500,-4028.320312,4000.000000,4000.000000,Speed,Speed,-0.020000,1.200000,1.960000,3.000000,101.000000,1,0,0.000558,0.000062,0,0.000000,-0.017685,0.000000,28.760788,9.529846,0.000000,0.024000,-0.014000,0.038000,FlatInitial
03:53:29.885 PM 02/14/2016,Teleop Enabled,0,FALSE,0,NO ERROR,4301.660156,-4049.560547,4000.000000,4000.000000,Speed,Speed,0.000000,1.200000,1.970000,3.000000,103.000000,1,0,0.000558,0.000062,0,0.011963,0.002975,0.000000,28.761108,9.529800,0.000000,-0.008000,-0.020000,-0.007000,FlatInitial
03:53:29.991 PM 02/14/2016,Teleop Enabled,0,FALSE,0,NO ERROR,4193.408203,-3937.646484,4000.000000,4000.000000,Speed,Speed,-0.010000,1.160000,2.030000,3.000000,101.000000,1,0,0.000558,0.000062,0,0.000000,0.032990,0.000000,28.761841,9.530594,0.000000,-0.032000,0.042000,-0.056000,FlatInitial
03:53:30.092 PM 02/14/2016,Teleop Enabled,0,FALSE,0,NO ERROR,4071.826172,-3905.419922,4000.000000,4000.000000,Speed,Speed,0.000000,1.170000,2.050000,3.000000,101.000000,1,0,0.000558,0.000062,0,0.005600,0.033966,0.000000,28.761948,9.532516,0.000000,-0.032000,0.034000,0.107000,FlatInitial
03:53:30.193 PM 02/14/2016,Teleop Enabled,0,FALSE,0,NO ERROR,4014.257812,-3929.296875,4000.000000,4000.000000,Speed,Speed,0.000000,1.160000,1.970000,3.000000,100.000000,1,0,0.000558,0.000062,0,-0.004272,0.000137,0.000000,28.762024,9.533417,0.000000,0.019000,-0.005000,-0.066000,FlatInitial
03:53:30.293 PM 02/14/2016,Teleop Enabled,0,FALSE,0,NO ERROR,3999.316406,-3968.847656,4000.000000,4000.000000,Speed,Speed,-0.010000,1.150000,1.840000,3.000000,102.000000,1,0,0.000558,0.000062,0,-0.013702,0.002914,0.000000,28.761566,9.533401,0.000000,-0.007000,0.047000,-0.019000,FlatInitial
03:53:30.394 PM 02/14/2016,Teleop Enabled,0,FALSE,0,NO ERROR,4000.195312,-3988.183594,4000.000000,4000.000000,Speed,Speed,0.040000,1.200000,1.660000,3.000000,102.000000,1,0,0.000558,0.000062,0,0.002701,-0.022247,0.000000,28.761230,9.533279,0.000000,0.024000,-0.028000,0.114000,FlatInitial
03:53:30.494 PM 02/14/2016,Teleop Enabled,0,FALSE,0,NO ERROR,4005.322266,-3997.998047,4000.000000,4000.000000,Speed,Speed,0.060000,1.180000,1.610000,3.000000,101.000000,1,0,0.000558,0.000062,0,-0.010345,-0.006241,0.000000,28.761139,9.531982,0.000000,-0.021000,-0.051000,-0.018000,FlatInitial
03:53:30.595 PM 02/14/2016,Teleop Enabled,0,FALSE,0,NO ERROR,4009.863281,-4000.195312,4000.000000,4000.000000,Speed,Speed,0.010000,1.240000,1.560000,3.000000,101.000000,1,0,0.000558,0.000062,0,-0.004669,-0.027985,0.000000,28.760864,9.531006,0.000000,-0.058000,-0.023000,-0.047000,FlatInitial
03:53:30.696 PM 02/14/2016,Teleop Enabled,0,FALSE,0,NO ERROR,4010.156250,-4000.781250,4000.000000,4000.000000,Speed,Speed,0.010000,1.170000,1.500000,3.000000,101.000000,1,0,0.000558,0.000062,0,-0.028656,-0.027283,0.000000,28.759552,9.529465,0.000000,0.025000,0.037000,0.094000,FlatInitial
03:53:30.796 PM 02/14/2016,Teleop Enabled,0,FALSE,0,NO ERROR,4006.494141,-4002.539062,4000.000000,4000.000000,Speed,Speed,0.010000,1.200000,1.570000,3.000000,103.000000,1,0,0.000558,0.000062,0,-0.008957,-0.023834,0.000000,28.759171,9.528366,0.000000,-0.052000,-0.085000,-0.031000,FlatInitial
03:53:30.897 PM 02/14/2016,Teleop Enabled,0,FALSE,0,NO ERROR,4008.398437,-4003.564453,4000.000000,4000.000000,Speed,Speed,0.000000,1.190000,1.540000,3.000000,104.000000,1,0,0.000558,0.000062,0,-0.027634,-0.019974,0.000000,28.757980,9.527115,0.000000,-0.038000,0.057000,-0.069000,FlatInitial
03:53:31.001 PM 02/14/2016,Teleop Enabled,0,FALSE,0,NO ERROR,4008.398437,-4006.640625,4000.000000,4000.000000,Speed,Speed,0.010000,1.150000,1.640000,3.000000,101.000000,1,0,0.000558,0.000062,0,-0.048706,-0.003342,0.000000,28.755966,9.526642,0.000000,0.001000,0.056000,0.080000,FlatInitial
03:53:31.101 PM 02/14/2016,Teleop Enabled,0,FALSE,0,NO ERROR,4008.544922,-4006.494141,4000.000000,4000.000000,Speed,Speed,0.020000,1.130000,1.710000,3.000000,101.000000,1,0,0.000558,0.000062,0,-0.066193,-0.000793,0.000000,28.753067,9.526764,0.000000,0.001000,-0.046000,-0.019000,FlatInitial
03:53:31.208 PM 02/14/2016,Teleop Enabled,0,FALSE,0,NO ERROR,4006.640625,-4005.468750,4000.000000,4000.000000,Speed,Speed,0.030000,1.090000,1.750000,3.000000,103.000000,1,0,0.000558,0.000062,0,-0.083145,0.005844,0.000000,28.749207,9.526810,0.000000,-0.027000,0.012000,-0.056000,FlatInitial
03:53:31.308 PM 02/14/2016,Teleop Enabled,0,FALSE,0,NO ERROR,4003.271484,-4006.640625,4000.000000,4000.000000,Speed,Speed,0.000000,1.090000,1.900000,3.000000,102.000000,1,0,0.000558,0.000062,0,0.000000,0.000000,0.000000,28.747467,9.527466,0.000000,-0.016000,0.006000,0.125000,FlatInitial
03:53:31.407 PM 02/14/2016,Teleop Enabled,0,FALSE,0,NO ERROR,3999.755859,-4007.666016,4000.000000,4000.000000,Speed,Speed,0.020000,1.070000,1.980000,3.000000,100.000000,1,0,0.000558,0.000062,0,-0.008926,0.024078,0.000000,28.747208,9.528244,0.000000,-0.021000,-0.015000,-0.059000,FlatInitial
03:53:31.508 PM 02/14/2016,Teleop Enabled,0,FALSE,0,NO ERROR,3996.386719,-4010.302734,4000.000000,4000.000000,Speed,Speed,0.020000,1.040000,2.100000,3.000000,101.000000,1,0,0.000558,0.000062,0,-0.003052,0.047440,0.000000,28.746933,9.530075,0.000000,-0.025000,0.013000,-0.046000,FlatInitial
03:53:31.608 PM 02/14/2016,Teleop Enabled,0,FALSE,0,NO ERROR,3996.679687,-4007.080078,4000.000000,4000.000000,Speed,Speed,0.020000,1.010000,2.170000,3.000000,101.000000,1,0,0.000558,0.000062,0,-0.004807,0.067078,0.000000,28.746750,9.533096,0.000000,-0.038000,-0.004000,0.106000,FlatInitial
03:53:31.708 PM 02/14/2016,Teleop Enabled,0,FALSE,0,NO ERROR,3998.730469,-4000.341797,4000.000000,4000.000000,Speed,Speed,0.030000,0.990000,2.220000,3.000000,102.000000,1,0,0.000558,0.000062,0,-0.024704,0.001617,0.000000,28.745911,9.533783,0.000000,-0.003000,0.003000,0.131000,FlatInitial
03:53:31.808 PM 02/14/2016,Teleop Enabled,0,FALSE,0,NO ERROR,4003.271484,-3996.240234,4000.000000,4000.000000,Speed,Speed,0.020000,0.980000,2.320000,3.000000,100.000000,1,0,0.000558,0.000062,0,0.000000,0.000000,0.000000,28.745911,9.534119,0.000000,-0.007000,-0.022000,-0.026000,FlatInitial
03:53:31.909 PM 02/14/2016,Teleop Enabled,0,FALSE,0,NO ERROR,4005.175781,-3993.310547,4000.000000,4000.000000,Speed,Speed,0.030000,0.970000,2.340000,3.000000,102.000000,1,0,0.000558,0.000062,0,-0.019073,0.000000,0.000000,28.745377,9.534088,0.000000,-0.012000,0.019000,-0.058000,FlatInitial
03:53:32.010 PM 02/14/2016,Teleop Enabled,0,FALSE,0,NO ERROR,4006.640625,-3992.138672,4000.000000,4000.000000,Speed,Speed,0.030000,0.930000,2.390000,3.000000,102.000000,1,0,0.000558,0.000062,0,0.000000,0.006378,0.000000,28.743927,9.534271,0.000000,-0.012000,0.000000,0.115000,FlatInitial
03:53:32.110 PM 02/14/2016,Teleop Enabled,0,FALSE,0,NO ERROR,4009.570312,-3995.214844,4000.000000,4000.000000,Speed,Speed,0.020000,0.940000,2.480000,3.000000,101.000000,1,0,0.000558,0.000062,0,-0.002991,0.000000,0.000000,28.743896,9.534760,0.000000,-0.030000,-0.003000,-0.031000,FlatInitial
03:53:32.212 PM 02/14/2016,Teleop Enabled,0,FALSE,0,NO ERROR,4010.449219,-4001.806641,4000.000000,4000.000000,Speed,Speed,0.030000,0.940000,2.450000,3.000000,101.000000,1,0,0.000558,0.000062,0,0.000000,-0.007675,0.000000,28.743790,9.534637,0.000000,-0.008000,0.012000,-0.052000,FlatInitial
03:53:32.311 PM 02/14/2016,Teleop Enabled,0,FALSE,0,NO ERROR,4000.048828,-4005.908203,4000.000000,4000.000000,Speed,Speed,0.020000,0.930000,2.430000,3.000000,102.000000,1,0,0.000558,0.000062,0,0.000000,-0.011871,0.000000,28.743790,9.534210,0.000000,-0.001000,-0.058000,0.141000,FlatInitial
03:53:32.411 PM 02/14/2016,Teleop Enabled,0,FALSE,0,NO ERROR,3994.775391,-4005.908203,4000.000000,4000.000000,Speed,Speed,0.020000,0.970000,2.370000,3.000000,101.000000,1,0,0.000558,0.000062,0,0.017273,-0.001205,0.000000,28.744293,9.533966,0.000000,0.003000,0.009000,-0.028000,FlatInitial
03:53:32.512 PM 02/14/2016,Teleop Enabled,0,FALSE,0,NO ERROR,3989.062500,-4011.181641,4000.000000,4000.000000,Speed,Speed,0.030000,0.990000,2.350000,3.000000,102.000000,1,0,0.000558,0.000062,0,-0.002182,-0.008377,0.000000,28.744553,9.533661,0.000000,-0.005000,-0.024000,-0.051000,FlatInitial
03:53:32.613 PM 02/14/2016,Teleop Enabled,0,FALSE,0,NO ERROR,3988.769531,-4011.474609,4000.000000,4000.000000,Speed,Speed,0.030000,0.990000,2.340000,3.000000,101.000000,1,0,0.000558,0.000062,0,-0.012665,-0.017532,0.000000,28.744171,9.532974,0.000000,-0.036000,-0.004000,0.116000,FlatInitial
03:53:32.713 PM 02/14/2016,Teleop Enabled,0,FALSE,0,NO ERROR,3988.769531,-4008.105469,4000.000000,4000.000000,Speed,Speed,0.020000,1.020000,2.330000,3.000000,102.000000,1,0,0.000558,0.000062,0,-0.016006,0.001068,0.000000,28.743378,9.532440,0.000000,0.021000,0.062000,-0.079000,FlatInitial
03:53:32.813 PM 02/14/2016,Teleop Enabled,0,FALSE,0,NO ERROR,3996.093750,-4005.468750,4000.000000,4000.000000,Speed,Speed,0.020000,1.050000,2.380000,3.000000,102.000000,1,0,0.000558,0.000062,0,-0.002930,0.003281,0.000000,28.743088,9.532593,0.000000,0.017000,0.006000,-0.032000,FlatInitial
03:53:32.914 PM 02/14/2016,Teleop Enabled,0,FALSE,0,NO ERROR,4000.488281,-4002.539062,4000.000000,4000.000000,Speed,Speed,0.020000,1.060000,2.350000,3.000000,100.000000,1,0,0.000558,0.000062,0,0.000000,0.000000,0.000000,28.742905,9.532791,0.000000,0.006000,0.000000,0.121000,FlatInitial
03:53:33.015 PM 02/14/2016,Teleop Enabled,0,FALSE,0,NO ERROR,4004.150391,-3999.462891,4000.000000,4000.000000,Speed,Speed,0.010000,1.080000,2.360000,3.000000,101.000000,1,0,0.000558,0.000062,0,-0.001877,0.000000,0.000000,28.742798,9.532791,0.000000,0.011000,0.014000,-0.020000,FlatInitial
03:53:33.115 PM 02/14/2016,Teleop Enabled,0,FALSE,0,NO ERROR,4008.105469,-3996.093750,4000.000000,4000.000000,Speed,Speed,0.010000,1.140000,2.310000,3.000000,101.000000,1,0,0.000558,0.000062,0,0.000000,-0.006485,0.000000,28.742798,9.532654,0.000000,0.006000,-0.055000,-0.041000,FlatInitial
03:53:33.216 PM 02/14/2016,Teleop Enabled,0,FALSE,0,NO ERROR,4013.964844,-3994.628906,4000.000000,4000.000000,Speed,Speed,0.020000,1.170000,2.240000,3.000000,102.000000,1,0,0.000558,0.000062,0,0.001572,-0.014648,0.000000,28.742844,9.532120,0.000000,-0.029000,-0.034000,0.144000,FlatInitial
03:53:33.316 PM 02/14/2016,Teleop Enabled,0,FALSE,0,NO ERROR,4011.328125,-3995.654297,4000.000000,4000.000000,Speed,Speed,0.010000,1.160000,2.150000,3.000000,102.000000,1,0,0.000558,0.000062,0,0.000000,-0.032303,0.000000,28.742905,9.530670,0.000000,-0.002000,0.007000,-0.038000,FlatInitial
03:53:33.417 PM 02/14/2016,Teleop Enabled,0,FALSE,0,NO ERROR,4004.003906,-4000.048828,4000.000000,4000.000000,Speed,Speed,0.020000,1.190000,2.010000,3.000000,101.000000,1,0,0.000558,0.000062,0,-0.000916,-0.064590,0.000000,28.742905,9.528046,0.000000,0.032000,-0.058000,-0.031000,FlatInitial
03:53:33.517 PM 02/14/2016,Teleop Enabled,0,FALSE,0,NO ERROR,3998.291016,-4003.271484,4000.000000,4000.000000,Speed,Speed,0.020000,1.220000,1.880000,3.000000,103.000000,1,0,0.000558,0.000062,0,0.000000,-0.088776,0.000000,28.742889,9.523880,0.000000,0.012000,-0.017000,0.117000,FlatInitial
03:53:33.618 PM 02/14/2016,Teleop Enabled,0,FALSE,0,NO ERROR,3993.017578,-4003.564453,4000.000000,4000.000000,Speed,Speed,0.010000,1.220000,1.810000,3.000000,101.000000,1,0,0.000558,0.000062,0,-0.007538,-0.119202,0.000000,28.742691,9.518555,0.000000,0.013000,-0.002000,-0.056000,FlatInitial
03:53:33.718 PM 02/14/2016,Teleop Enabled,0,FALSE,0,NO ERROR,3987.451172,-4006.787109,4000.000000,4000.000000,Speed,Speed,0.010000,1.270000,1.750000,3.000000,103.000000,1,0,0.000558,0.000062,0,0.001419,-0.136292,0.000000,28.742691,9.511810,0.000000,0.000000,0.027000,-0.081000,FlatInitial
03:53:33.819 PM 02/14/2016,Teleop Enabled,0,FALSE,0,NO ERROR,3991.113281,-4006.787109,4000.000000,4000.000000,Speed,Speed,0.020000,1.300000,1.730000,3.000000,102.000000,1,0,0.000558,0.000062,0,0.000000,-0.150543,0.000000,28.742767,9.504669,0.000000,0.015000,0.016000,-0.020000,FlatInitial
03:53:33.920 PM 02/14/2016,Teleop Enabled,0,FALSE,0,NO ERROR,3996.533203,-4006.933594,4000.000000,4000.000000,Speed,Speed,0.010000,1.310000,1.760000,3.000000,102.000000,1,0,0.000558,0.000062,0,0.001465,-0.138672,0.000000,28.742828,9.495987,0.000000,-0.027000,-0.022000,0.113000,FlatInitial
03:53:34.020 PM 02/14/2016,Teleop Enabled,0,FALSE,0,NO ERROR,4003.271484,-4003.125000,4000.000000,4000.000000,Speed,Speed,0.010000,1.340000,1.730000,3.000000,102.000000,1,0,0.000558,0.000062,0,0.000000,0.000000,0.000000,28.742859,9.493073,0.000000,0.005000,0.017000,-0.056000,FlatInitial
03:53:34.120 PM 02/14/2016,Teleop Enabled,0,FALSE,0,NO ERROR,4010.156250,-4000.341797,4000.000000,4000.000000,Speed,Speed,0.010000,1.390000,1.680000,3.000000,101.000000,1,0,0.000558,0.000062,0,0.014359,-0.016754,0.000000,28.743210,9.492691,0.000000,0.025000,-0.066000,-0.043000,FlatInitial
03:53:34.220 PM 02/14/2016,Teleop Enabled,0,FALSE,0,NO ERROR,4012.939453,-4000.048828,4000.000000,4000.000000,Speed,Speed,0.010000,1.390000,1.560000,3.000000,102.000000,1,0,0.000558,0.000062,0,0.019348,-0.043640,0.000000,28.744110,9.490906,0.000000,0.013000,-0.029000,0.087000,FlatInitial
03:53:34.320 PM 02/14/2016,Teleop Enabled,0,FALSE,0,NO ERROR,4008.251953,-4001.660156,4000.000000,4000.000000,Speed,Speed,0.010000,1.420000,1.480000,3.000000,101.000000,1,0,0.000558,0.000062,0,0.004410,-0.069946,0.000000,28.744156,9.487930,0.000000,0.028000,-0.008000,-0.064000,FlatInitial
03:53:34.420 PM 02/14/2016,Teleop Enabled,0,FALSE,0,NO ERROR,4003.710937,-4003.125000,4000.000000,4000.000000,Speed,Speed,0.010000,1.440000,1.390000,3.000000,102.000000,1,0,0.000558,0.000062,0,0.013748,0.000000,0.000000,28.744690,9.485565,0.000000,-0.017000,-0.003000,0.026000,FlatInitial
03:53:34.521 PM 02/14/2016,Teleop Enabled,0,FALSE,0,NO ERROR,3998.437500,-4002.099609,4000.000000,4000.000000,Speed,Speed,0.010000,1.440000,1.320000,3.000000,101.000000,1,0,0.000558,0.000062,0,0.015640,-0.017487,0.000000,28.745438,9.485001,0.000000,-0.014000,0.008000,0.095000,FlatInitial
03:53:34.620 PM 02/14/2016,Teleop Enabled,0,FALSE,0,NO ERROR,3991.845703,-3999.316406,4000.000000,4000.000000,Speed,Speed,0.010000,1.450000,1.280000,3.000000,103.000000,1,0,0.000558,0.000062,0,0.000000,-0.039474,0.000000,28.745621,9.483353,0.000000,0.012000,0.014000,-0.069000,FlatInitial
03:53:34.720 PM 02/14/2016,Teleop Enabled,0,FALSE,0,NO ERROR,3988.330078,-3996.386719,4000.000000,4000.000000,Speed,Speed,0.010000,1.480000,1.230000,3.000000,102.000000,1,0,0.000558,0.000062,0,0.000000,-0.048615,0.000000,28.745621,9.481079,0.000000,-0.002000,-0.014000,-0.008000,FlatInitial
03:53:34.820 PM 02/14/2016,Teleop Enabled,0,FALSE,0,NO ERROR,3991.699219,-3997.265625,4000.000000,4000.000000,Speed,Speed,0.010000,1.500000,1.240000,3.000000,102.000000,1,0,0.000558,0.000062,0,0.013657,-0.000290,0.000000,28.746109,9.481033,0.000000,-0.007000,-0.018000,0.087000,FlatInitial
03:53:34.921 PM 02/14/2016,Teleop Enabled,0,FALSE,0,NO ERROR,3994.189453,-3999.462891,4000.000000,4000.000000,Speed,Speed,0.010000,1.490000,1.250000,3.000000,101.000000,1,0,0.000558,0.000062,0,0.000000,0.002594,0.000000,28.746246,9.481033,0.000000,0.006000,0.026000,-0.068000,FlatInitial
03:53:35.021 PM 02/14/2016,Teleop Enabled,0,FALSE,0,NO ERROR,3996.972656,-4001.220703,4000.000000,4000.000000,Speed,Speed,0.010000,1.510000,1.280000,3.000000,102.000000,1,0,0.000558,0.000062,0,0.006287,0.000000,0.000000,28.746384,9.481110,0.000000,-0.015000,0.003000,-0.018000,FlatInitial
03:53:35.121 PM 02/14/2016,Teleop Enabled,0,FALSE,0,NO ERROR,4004.003906,-4001.953125,4000.000000,4000.000000,Speed,Speed,0.010000,1.530000,1.260000,3.000000,103.000000,1,0,0.000558,0.000062,0,0.014954,0.000000,0.000000,28.746918,9.481247,0.000000,-0.015000,0.003000,-0.018000,FlatInitial
03:53:35.222 PM 02/14/2016,Teleop Enabled,0,FALSE,0,NO ERROR,4009.716797,-4002.685547,4000.000000,4000.000000,Speed,Speed,0.010000,1.530000,1.200000,3.000000,101.000000,1,0,0.000558,0.000062,0,0.014832,0.000000,0.000000,28.747650,9.481064,0.000000,0.002000,-0.002000,0.088000,FlatInitial
03:53:35.324 PM 02/14/2016,Teleop Enabled,0,FALSE,0,NO ERROR,4015.576172,-4005.908203,4000.000000,4000.000000,Speed,Speed,0.010000,1.520000,1.200000,3.000000,101.000000,1,0,0.000558,0.000062,0,0.000000,0.000000,0.000000,28.748444,9.481064,0.000000,0.033000,0.019000,-0.064000,FlatInitial
03:53:35.424 PM 02/14/2016,Teleop Enabled,0,FALSE,0,NO ERROR,4012.060547,-4005.175781,4000.000000,4000.000000,Speed,Speed,0.010000,1.520000,1.170000,3.000000,101.000000,1,0,0.000558,0.000062,0,0.016357,0.000000,0.000000,28.749023,9.480850,0.000000,0.047000,0.004000,-0.073000,FlatInitial
03:53:35.523 PM 02/14/2016,Teleop Enabled,0,FALSE,0,NO ERROR,4003.271484,-4002.832031,4000.000000,4000.000000,Speed,Speed,0.020000,1.480000,1.170000,3.000000,101.000000,1,0,0.000558,0.000062,0,0.016357,0.000000,0.000000,28.749023,9.480850,0.000000,-0.001000,0.016000,0.003000,FlatInitial
03:53:35.623 PM 02/14/2016,Teleop Enabled,0,FALSE,0,NO ERROR,3997.119141,-4002.539062,4000.000000,4000.000000,Speed,Speed,0.020000,1.470000,1.180000,3.000000,103.000000,1,0,0.000558,0.000062,0,0.019882,0.002594,0.000000,28.751007,9.480789,0.000000,0.031000,-0.002000,0.097000,FlatInitial
03:53:35.724 PM 02/14/2016,Teleop Enabled,0,FALSE,0,NO ERROR,3990.966797,-4001.660156,4000.000000,4000.000000,Speed,Speed,0.020000,1.470000,1.190000,3.000000,101.000000,1,0,0.000558,0.000062,0,0.019882,0.002594,0.000000,28.751007,9.480789,0.000000,0.026000,0.041000,-0.080000,FlatInitial
03:53:35.825 PM 02/14/2016,Teleop Enabled,0,FALSE,0,NO ERROR,3989.355469,-4002.392578,4000.000000,4000.000000,Speed,Speed,0.020000,1.460000,1.200000,3.000000,102.000000,1,0,0.000558,0.000062,0,0.020554,-0.011108,0.000000,28.752258,9.480637,0.000000,-0.028000,-0.037000,0.022000,FlatInitial
03:53:35.926 PM 02/14/2016,Teleop Enabled,0,FALSE,0,NO ERROR,3990.380859,-4000.341797,4000.000000,4000.000000,Speed,Speed,0.020000,1.450000,1.220000,3.000000,102.000000,1,0,0.000558,0.000062,0,0.029587,0.003204,0.000000,28.753525,9.480392,0.000000,0.021000,-0.012000,0.103000,FlatInitial
03:53:36.026 PM 02/14/2016,Teleop Enabled,0,FALSE,0,NO ERROR,3993.164062,-3998.876953,4000.000000,4000.000000,Speed,Speed,0.020000,1.460000,1.240000,3.000000,103.000000,1,0,0.000558,0.000062,0,0.039627,0.006790,0.000000,28.755325,9.480774,0.000000,0.043000,0.008000,-0.107000,FlatInitial
03:53:36.126 PM 02/14/2016,Teleop Enabled,0,FALSE,0,NO ERROR,3996.093750,-3996.386719,4000.000000,4000.000000,Speed,Speed,0.020000,1.470000,1.290000,3.000000,101.000000,1,0,0.000558,0.000062,0,0.050598,0.014862,0.000000,28.757706,9.481232,0.000000,-0.014000,0.006000,-0.014000,FlatInitial
03:53:36.226 PM 02/14/2016,Teleop Enabled,0,FALSE,0,NO ERROR,4001.513672,-3994.775391,4000.000000,4000.000000,Speed,Speed,0.020000,1.440000,1.260000,3.000000,102.000000,1,0,0.000558,0.000062,0,0.002060,0.024033,0.000000,28.757690,9.482300,0.000000,0.017000,0.026000,0.111000,FlatInitial
03:53:36.325 PM 02/14/2016,Teleop Enabled,0,FALSE,0,NO ERROR,4008.105469,-3995.654297,4000.000000,4000.000000,Speed,Speed,0.020000,1.440000,1.260000,3.000000,101.000000,1,0,0.000558,0.000062,0,0.014389,0.018875,0.000000,28.758118,9.483383,0.000000,0.037000,-0.007000,-0.057000,FlatInitial
03:53:36.426 PM 02/14/2016,Teleop Enabled,0,FALSE,0,NO ERROR,4013.671875,-3998.583984,4000.000000,4000.000000,Speed,Speed,0.020000,1.450000,1.230000,3.000000,103.000000,1,0,0.000558,0.000062,0,0.018936,-0.004181,0.000000,28.759003,9.483505,0.000000,-0.030000,-0.020000,0.016000,FlatInitial
03:53:36.526 PM 02/14/2016,Teleop Enabled,0,FALSE,0,NO ERROR,4008.398437,-4000.781250,4000.000000,4000.000000,Speed,Speed,0.030000,1.430000,1.200000,3.000000,101.000000,1,0,0.000558,0.000062,0,0.005981,0.000000,0.000000,28.759476,9.483170,0.000000,0.000000,-0.003000,0.057000,FlatInitial
03:53:36.626 PM 02/14/2016,Teleop Enabled,0,FALSE,0,NO ERROR,3998.876953,-4003.125000,4000.000000,4000.000000,Speed,Speed,0.020000,1.410000,1.220000,3.000000,101.000000,1,0,0.000558,0.000062,0,0.011810,0.016205,0.000000,28.760101,9.483612,0.000000,0.009000,-0.018000,-0.089000,FlatInitial
03:53:36.727 PM 02/14/2016,Teleop Enabled,0,FALSE,0,NO ERROR,3991.406250,-4002.246094,4000.000000,4000.000000,Speed,Speed,0.030000,1.390000,1.200000,3.000000,103.000000,1,0,0.000558,0.000062,0,0.009964,-0.005569,0.000000,28.760681,9.483444,0.000000,-0.020000,-0.051000,0.028000,FlatInitial
03:53:36.827 PM 02/14/2016,Teleop Enabled,0,FALSE,0,NO ERROR,3989.648437,-4004.736328,4000.000000,4000.000000,Speed,Speed,0.030000,1.370000,1.190000,3.000000,101.000000,1,0,0.000558,0.000062,0,0.005341,0.006287,0.000000,28.761002,9.483368,0.000000,0.010000,0.018000,0.074000,FlatInitial
03:53:36.928 PM 02/14/2016,Teleop Enabled,0,FALSE,0,NO ERROR,3992.724609,-4004.736328,4000.000000,4000.000000,Speed,Speed,0.030000,1.340000,1.200000,3.000000,105.000000,1,0,0.000558,0.000062,0,0.003830,0.006729,0.000000,28.761124,9.483688,0.000000,0.008000,-0.010000,0.067000,FlatInitial
03:53:37.028 PM 02/14/2016,Teleop Enabled,0,FALSE,0,NO ERROR,3993.017578,-4000.927734,4000.000000,4000.000000,Speed,Speed,0.030000,1.330000,1.230000,3.000000,102.000000,1,0,0.000558,0.000062,0,0.000000,0.000000,0.000000,28.761490,9.483902,0.000000,0.037000,0.022000,-0.076000,FlatInitial
03:53:37.128 PM 02/14/2016,Teleop Enabled,0,FALSE,0,NO ERROR,3995.068359,-3997.705078,4000.000000,4000.000000,Speed,Speed,0.030000,1.330000,1.240000,3.000000,102.000000,1,0,0.000558,0.000062,0,0.000000,0.017349,0.000000,28.761642,9.484344,0.000000,-0.030000,-0.024000,0.040000,FlatInitial
03:53:37.228 PM 02/14/2016,Teleop Enabled,0,FALSE,0,NO ERROR,4001.513672,-3994.775391,4000.000000,4000.000000,Speed,Speed,0.030000,1.300000,1.280000,3.000000,102.000000,1,0,0.000558,0.000062,0,0.004379,0.026550,0.000000,28.761765,9.485458,0.000000,0.031000,0.020000,0.089000,FlatInitial
03:53:37.328 PM 02/14/2016,Teleop Enabled,0,FALSE,0,NO ERROR,4010.302734,-3993.310547,4000.000000,4000.000000,Speed,Speed,0.030000,1.290000,1.290000,3.000000,102.000000,1,0,0.000558,0.000062,0,0.013199,0.039444,0.000000,28.762405,9.487259,0.000000,0.032000,0.046000,-0.065000,FlatInitial
03:53:37.429 PM 02/14/2016,Teleop Enabled,0,FALSE,0,NO ERROR,4015.869141,-3996.533203,4000.000000,4000.000000,Speed,Speed,0.030000,1.280000,1.290000,3.000000,101.000000,1,0,0.000558,0.000062,0,0.018478,0.046188,0.000000,28.763168,9.489426,0.000000,-0.053000,0.012000,0.017000,FlatInitial
03:53:37.530 PM 02/14/2016,Teleop Enabled,0,FALSE,0,NO ERROR,4012.939453,-3999.316406,4000.000000,4000.000000,Speed,Speed,0.030000,1.240000,1.310000,3.000000,101.000000,1,0,0.000558,0.000062,0,0.010239,0.064789,0.000000,28.763794,9.492889,0.000000,0.004000,-0.015000,0.087000,FlatInitial
03:53:37.630 PM 02/14/2016,Teleop Enabled,0,FALSE,0,NO ERROR,4004.882812,-4003.417969,4000.000000,4000.000000,Speed,Speed,0.030000,1.230000,1.360000,3.000000,101.000000,1,0,0.000558,0.000062,0,0.014496,0.078995,0.000000,28.764496,9.496414,0.000000,0.000000,-0.013000,-0.085000,FlatInitial
03:53:37.731 PM 02/14/2016,Teleop Enabled,0,FALSE,0,NO ERROR,3999.169922,-4006.494141,4000.000000,4000.000000,Speed,Speed,0.040000,1.170000,1.440000,3.000000,102.000000,1,0,0.000558,0.000062,0,0.012268,0.005051,0.000000,28.765213,9.497391,0.000000,-0.060000,-0.045000,0.040000,FlatInitial
03:53:37.832 PM 02/14/2016,Teleop Enabled,0,FALSE,0,NO ERROR,3995.507812,-4009.130859,4000.000000,4000.000000,Speed,Speed,0.040000,1.140000,1.460000,3.000000,100.000000,1,0,0.000558,0.000062,0,0.015213,0.017456,0.000000,28.765839,9.497833,0.000000,0.024000,0.005000,0.098000,FlatInitial
03:53:37.933 PM 02/14/2016,Teleop Enabled,0,FALSE,0,NO ERROR,3992.724609,-4010.595703,4000.000000,4000.000000,Speed,Speed,0.040000,1.090000,1.520000,3.000000,102.000000,1,0,0.000558,0.000062,0,0.013092,0.033737,0.000000,28.766602,9.499176,0.000000,0.036000,0.062000,-0.075000,FlatInitial
03:53:38.034 PM 02/14/2016,Teleop Enabled,0,FALSE,0,NO ERROR,3990.087891,-4002.539062,4000.000000,4000.000000,Speed,Speed,0.040000,1.050000,1.530000,3.000000,102.000000,1,0,0.000558,0.000062,0,0.032043,0.049850,0.000000,28.767807,9.501297,0.000000,0.005000,-0.015000,0.035000,FlatInitial
03:53:38.134 PM 02/14/2016,Teleop Enabled,0,FALSE,0,NO ERROR,3992.578125,-3996.386719,4000.000000,4000.000000,Speed,Speed,0.040000,1.030000,1.510000,3.000000,102.000000,1,0,0.000558,0.000062,0,0.047440,0.053986,0.000000,28.769882,9.503998,0.000000,0.019000,0.029000,0.099000,FlatInitial
03:53:38.235 PM 02/14/2016,Teleop Enabled,0,FALSE,0,NO ERROR,3996.826172,-3992.724609,4000.000000,4000.000000,Speed,Speed,0.040000,1.010000,1.490000,3.000000,102.000000,1,0,0.000558,0.000062,0,0.048523,0.051514,0.000000,28.772278,9.506470,0.000000,0.001000,0.024000,-0.108000,FlatInitial
03:53:38.335 PM 02/14/2016,Teleop Enabled,0,FALSE,0,NO ERROR,4004.003906,-3991.552734,4000.000000,4000.000000,Speed,Speed,0.040000,1.010000,1.480000,3.000000,101.000000,1,0,0.000558,0.000062,0,0.060394,0.058731,0.000000,28.775101,9.509232,0.000000,-0.058000,-0.033000,0.047000,FlatInitial
03:53:38.436 PM 02/14/2016,Teleop Enabled,0,FALSE,0,NO ERROR,4012.792969,-3992.724609,4000.000000,4000.000000,Speed,Speed,0.040000,0.970000,1.480000,3.000000,101.000000,1,0,0.000558,0.000062,0,0.072128,0.073792,0.000000,28.778503,9.512573,0.000000,-0.018000,-0.016000,0.003000,FlatInitial
03:53:38.536 PM 02/14/2016,Teleop Enabled,0,FALSE,0,NO ERROR,4011.474609,-3996.972656,4000.000000,4000.000000,Speed,Speed,0.040000,0.940000,1.500000,3.000000,102.000000,1,0,0.000558,0.000062,0,0.076096,0.077911,0.000000,28.782318,9.516342,0.000000,0.021000,0.015000,0.073000,FlatInitial
03:53:38.636 PM 02/14/2016,Teleop Enabled,0,FALSE,0,NO ERROR,4003.271484,-4000.927734,4000.000000,4000.000000,Speed,Speed,0.040000,0.910000,1.560000,3.000000,102.000000,1,0,0.000558,0.000062,0,0.000000,0.105713,0.000000,28.784760,9.520996,0.000000,0.022000,0.035000,-0.094000,FlatInitial
03:53:38.737 PM 02/14/2016,Teleop Enabled,0,FALSE,0,NO ERROR,3998.144531,-4006.054687,4000.000000,4000.000000,Speed,Speed,0.050000,0.870000,1.650000,3.000000,102.000000,1,0,0.000558,0.000062,0,0.007812,0.129822,0.000000,28.785065,9.526947,0.000000,-0.020000,-0.038000,0.022000,FlatInitial
03:53:38.837 PM 02/14/2016,Teleop Enabled,0,FALSE,0,NO ERROR,3997.119141,-4013.085937,4000.000000,4000.000000,Speed,Speed,0.040000,0.840000,1.670000,3.000000,101.000000,1,0,0.000558,0.000062,0,0.016403,0.137726,0.000000,28.785721,9.533569,0.000000,0.030000,0.013000,0.107000,FlatInitial
03:53:38.938 PM 02/14/2016,Teleop Enabled,0,FALSE,0,NO ERROR,3997.265625,-4012.500000,4000.000000,4000.000000,Speed,Speed,0.020000,0.820000,1.790000,3.000000,101.000000,1,0,0.000558,0.000062,0,-0.001343,0.167740,0.000000,28.786285,9.541351,0.000000,0.026000,0.098000,-0.089000,FlatInitial
03:53:39.038 PM 02/14/2016,Teleop Enabled,0,FALSE,0,NO ERROR,3994.482422,-4004.882812,4000.000000,4000.000000,Speed,Speed,0.040000,0.780000,1.820000,3.000000,102.000000,1,0,0.000558,0.000062,0,0.000000,0.193878,0.000000,28.786407,9.552643,0.000000,0.011000,0.000000,0.074000,FlatInitial
03:53:39.139 PM 02/14/2016,Teleop Enabled,0,FALSE,0,NO ERROR,3997.412109,-3997.265625,4000.000000,4000.000000,Speed,Speed,0.030000,0.780000,1.810000,3.000000,102.000000,1,0,0.000558,0.000062,0,0.003372,0.198563,0.000000,28.786438,9.560577,0.000000,0.023000,0.015000,0.065000,FlatInitial
03:53:39.240 PM 02/14/2016,Teleop Enabled,0,FALSE,0,NO ERROR,3999.316406,-3989.501953,4000.000000,4000.000000,Speed,Speed,0.030000,0.770000,1.800000,3.000000,102.000000,1,0,0.000558,0.000062,0,0.005356,0.208191,0.000000,28.786728,9.570816,0.000000,0.014000,0.043000,-0.098000,FlatInitial
03:53:39.341 PM 02/14/2016,Teleop Enabled,0,FALSE,0,NO ERROR,4005.175781,-3989.501953,4000.000000,4000.000000,Speed,Speed,0.030000,0.750000,1.810000,3.000000,102.000000,1,0,0.000558,0.000062,0,0.000000,0.223129,0.000000,28.787048,9.581650,0.000000,-0.012000,-0.005000,0.041000,FlatInitial
03:53:39.446 PM 02/14/2016,Teleop Enabled,0,FALSE,0,NO ERROR,4013.671875,-3996.533203,4000.000000,4000.000000,Speed,Speed,0.020000,0.720000,1.870000,3.000000,103.000000,1,0,0.000558,0.000062,0,-0.002167,0.028000,0.000000,28.786942,9.582397,0.000000,0.032000,0.014000,0.111000,FlatInitial
03:53:39.546 PM 02/14/2016,Teleop Enabled,0,FALSE,0,NO ERROR,4014.404297,-4002.099609,4000.000000,4000.000000,Speed,Speed,0.030000,0.700000,1.940000,3.000000,101.000000,1,0,0.000558,0.000062,0,0.002762,0.006271,0.000000,28.786987,9.583359,0.000000,0.001000,0.074000,-0.087000,FlatInitial
03:53:39.646 PM 02/14/2016,Teleop Enabled,0,FALSE,0,NO ERROR,4009.130859,-4009.277344,4000.000000,4000.000000,Speed,Speed,0.030000,0.680000,2.030000,3.000000,103.000000,1,0,0.000558,0.000062,0,0.000000,0.030411,0.000000,28.787338,9.584412,0.000000,-0.004000,0.005000,0.052000,FlatInitial
03:53:39.746 PM 02/14/2016,Teleop Enabled,0,FALSE,0,NO ERROR,4001.953125,-4012.353516,4000.000000,4000.000000,Speed,Speed,0.030000,0.650000,2.180000,3.000000,101.000000,1,0,0.000558,0.000062,0,0.009506,0.066025,0.000000,28.787598,9.587067,0.000000,0.041000,0.008000,0.097000,FlatInitial
03:53:39.847 PM 02/14/2016,Teleop Enabled,0,FALSE,0,NO ERROR,3996.533203,-4007.812500,4000.000000,4000.000000,Speed,Speed,0.020000,0.650000,2.250000,3.000000,102.000000,1,0,0.000558,0.000062,0,0.013351,0.083298,0.000000,28.788177,9.590836,0.000000,0.001000,0.083000,-0.110000,FlatInitial
03:53:39.952 PM 02/14/2016,Teleop Enabled,0,FALSE,0,NO ERROR,3995.068359,-4003.271484,4000.000000,4000.000000,Speed,Speed,0.020000,0.670000,2.300000,3.000000,101.000000,1,0,0.000558,0.000062,0,0.000000,0.103073,0.000000,28.788177,9.595749,0.000000,0.001000,0.004000,0.019000,FlatInitial
03:53:40.052 PM 02/14/2016,Teleop Enabled,0,FALSE,0,NO ERROR,3994.775391,-4000.195312,4000.000000,4000.000000,Speed,Speed,0.020000,0.670000,2.330000,3.000000,103.000000,1,0,0.000558,0.000062,0,0.004883,0.118698,0.000000,28.788223,9.601334,0.000000,0.002000,0.004000,0.028000,FlatInitial
03:53:40.152 PM 02/14/2016,Teleop Enabled,0,FALSE,0,NO ERROR,3997.412109,-3996.972656,4000.000000,4000.000000,Speed,Speed,0.010000,0.680000,2.360000,3.000000,101.000000,1,0,0.000558,0.000062,0,0.024673,0.134018,0.000000,28.789062,9.607620,0.000000,-0.013000,0.044000,-0.077000,FlatInitial
03:53:40.253 PM 02/14/2016,Teleop Enabled,0,FALSE,0,NO ERROR,4000.048828,-3994.775391,4000.000000,4000.000000,Speed,Speed,0.020000,0.690000,2.420000,3.000000,104.000000,1,0,0.000558,0.000062,0,0.000000,0.152328,0.000000,28.789062,9.614807,0.000000,0.009000,0.056000,-0.111000,FlatInitial
03:53:40.354 PM 02/14/2016,Teleop Enabled,0,FALSE,0,NO ERROR,4001.513672,-3993.164062,4000.000000,4000.000000,Speed,Speed,0.020000,0.690000,2.470000,3.000000,101.000000,1,0,0.000558,0.000062,0,0.019852,0.165970,0.000000,28.789566,9.622833,0.000000,0.004000,-0.003000,0.038000,FlatInitial
03:53:40.456 PM 02/14/2016,Teleop Enabled,0,FALSE,0,NO ERROR,4006.201172,-3994.775391,4000.000000,4000.000000,Speed,Speed,0.010000,0.690000,2.520000,3.000000,103.000000,1,0,0.000558,0.000062,0,0.032349,0.016586,0.000000,28.791000,9.623215,0.000000,0.046000,-0.017000,0.086000,FlatInitial
03:53:40.557 PM 02/14/2016,Teleop Enabled,0,FALSE,0,NO ERROR,4008.105469,-4001.074219,4000.000000,4000.000000,Speed,Speed,0.010000,0.700000,2.580000,3.000000,101.000000,1,0,0.000558,0.000062,0,0.056671,0.037247,0.000000,28.793839,9.624863,0.000000,0.017000,0.046000,-0.110000,FlatInitial
03:53:40.656 PM 02/14/2016,Teleop Enabled,0,FALSE,0,NO ERROR,4009.863281,-4001.074219,4000.000000,4000.000000,Speed,Speed,0.010000,0.710000,2.630000,3.000000,102.000000,1,0,0.000558,0.000062,0,0.009155,0.047089,0.000000,28.793976,9.627090,0.000000,0.014000,-0.013000,0.032000,FlatInitial
03:53:40.757 PM 02/14/2016,Teleop Enabled,0,FALSE,0,NO ERROR,4005.761719,-4008.398437,4000.000000,4000.000000,Speed,Speed,0.000000,0.730000,2.660000,3.000000,101.000000,1,0,0.000558,0.000062,0,0.009171,0.056122,0.000000,28.794281,9.629791,0.000000,0.005000,-0.017000,0.075000,FlatInitial
03:53:40.857 PM 02/14/2016,Teleop Enabled,0,FALSE,0,NO ERROR,4005.761719,-4007.812500,4000.000000,4000.000000,Speed,Speed,0.000000,0.770000,2.630000,3.000000,101.000000,1,0,0.000558,0.000062,0,0.000000,0.043869,0.000000,28.794281,9.631744,0.000000,0.022000,0.021000,-0.103000,FlatInitial
03:53:40.957 PM 02/14/2016,Teleop Enabled,0,FALSE,0,NO ERROR,3996.679687,-4008.105469,4000.000000,4000.000000,Speed,Speed,0.000000,0.820000,2.590000,3.000000,102.000000,1,0,0.000558,0.000062,0,0.003708,0.023453,0.000000,28.794525,9.633392,0.000000,0.025000,-0.038000,0.062000,FlatInitial
03:53:41.058 PM 02/14/2016,Teleop Enabled,0,FALSE,0,NO ERROR,3992.578125,-4008.105469,4000.000000,4000.000000,Speed,Speed,0.000000,0.860000,2.510000,3.000000,102.000000,1,0,0.000558,0.000062,0,0.030991,0.003143,0.000000,28.795700,9.633835,0.000000,0.015000,-0.037000,0.041000,FlatInitial
03:53:41.160 PM 02/14/2016,Teleop Enabled,0,FALSE,0,NO ERROR,3992.578125,-4006.054687,4000.000000,4000.000000,Speed,Speed,0.000000,0.920000,2.480000,3.000000,103.000000,1,0,0.000558,0.000062,0,0.047409,-0.005356,0.000000,28.797760,9.633636,0.000000,-0.007000,0.017000,-0.118000,FlatInitial
03:53:41.262 PM 02/14/2016,Teleop Enabled,0,FALSE,0,NO ERROR,3989.648437,-3999.755859,4000.000000,4000.000000,Speed,Speed,0.000000,0.960000,2.470000,3.000000,100.000000,1,0,0.000558,0.000062,0,0.063278,-0.006882,0.000000,28.800537,9.633194,0.000000,0.038000,0.017000,0.047000,FlatInitial
03:53:41.361 PM 02/14/2016,Teleop Enabled,0,FALSE,0,NO ERROR,3994.628906,-3996.679687,4000.000000,4000.000000,Speed,Speed,0.000000,0.990000,2.480000,3.000000,103.000000,1,0,0.000558,0.000062,0,0.081497,0.000488,0.000000,28.804306,9.633209,0.000000,0.010000,-0.055000,0.025000,FlatInitial
03:53:41.464 PM 02/14/2016,Teleop Enabled,0,FALSE,0,NO ERROR,3998.876953,-3996.826172,4000.000000,4000.000000,Speed,Speed,-0.010000,1.010000,2.480000,3.000000,103.000000,1,0,0.000558,0.000062,0,0.000000,0.001358,0.000000,28.806870,9.633179,0.000000,0.000000,0.053000,-0.102000,FlatInitial
03:53:41.564 PM 02/14/2016,Teleop Enabled,0,FALSE,0,NO ERROR,4004.003906,-3995.361328,4000.000000,4000.000000,Speed,Speed,-0.010000,1.060000,2.460000,3.000000,103.000000,1,0,0.000558,0.000062,0,0.016861,-0.006088,0.000000,28.807312,9.633041,0.000000,0.023000,0.017000,0.060000,FlatInitial
03:53:41.663 PM 02/14/2016,Teleop Enabled,0,FALSE,0,NO ERROR,4009.130859,-3995.214844,4000.000000,4000.000000,Speed,Speed,-0.010000,1.090000,2.420000,3.000000,103.000000,1,0,0.000558,0.000062,0,0.000000,-0.008102,0.000000,28.808456,9.632645,0.000000,0.015000,-0.049000,0.041000,FlatInitial
03:53:41.764 PM 02/14/2016,Teleop Enabled,0,FALSE,0,NO ERROR,4010.009766,-3997.851562,4000.000000,4000.000000,Speed,Speed,-0.020000,1.120000,2.370000,3.000000,102.000000,1,0,0.000558,0.000062,0,0.023804,-0.022186,0.000000,28.809204,9.631714,0.000000,0.031000,0.009000,-0.129000,FlatInitial
03:53:41.864 PM 02/14/2016,Teleop Enabled,0,FALSE,0,NO ERROR,4005.322266,-3999.755859,4000.000000,4000.000000,Speed,Speed,-0.010000,1.180000,2.300000,3.000000,103.000000,1,0,0.000558,0.000062,0,0.011765,-0.034576,0.000000,28.809723,9.630157,0.000000,0.032000,0.010000,-0.117000,FlatInitial
03:53:41.964 PM 02/14/2016,Teleop Enabled,0,FALSE,0,NO ERROR,4001.220703,-4001.367187,4000.000000,4000.000000,Speed,Speed,-0.020000,1.210000,2.270000,3.000000,100.000000,1,0,0.000558,0.000062,0,0.026581,-0.004089,0.000000,28.810837,9.630020,0.000000,0.008000,0.021000,0.084000,FlatInitial
03:53:42.064 PM 02/14/2016,Teleop Enabled,0,FALSE,0,NO ERROR,3997.851562,-4004.736328,4000.000000,4000.000000,Speed,Speed,-0.020000,1.230000,2.200000,3.000000,102.000000,1,0,0.000558,0.000062,0,0.039673,-0.023270,0.000000,28.812790,9.629211,0.000000,-0.011000,-0.049000,0.017000,FlatInitial
03:53:42.164 PM 02/14/2016,Teleop Enabled,0,FALSE,0,NO ERROR,3995.068359,-4008.837891,4000.000000,4000.000000,Speed,Speed,-0.020000,1.290000,2.160000,3.000000,101.000000,1,0,0.000558,0.000062,0,0.056961,-0.024384,0.000000,28.815323,9.627777,0.000000,0.020000,0.042000,-0.106000,FlatInitial
03:53:42.264 PM 02/14/2016,Teleop Enabled,0,FALSE,0,NO ERROR,3991.552734,-4007.080078,4000.000000,4000.000000,Speed,Speed,-0.030000,1.320000,2.150000,3.000000,100.000000,1,0,0.000558,0.000062,0,0.075150,-0.020355,0.000000,28.818680,9.626572,0.000000,0.048000,0.039000,0.055000,FlatInitial
03:53:42.365 PM 02/14/2016,Teleop Enabled,0,FALSE,0,NO ERROR,3990.673828,-4001.220703,4000.000000,4000.000000,Speed,Speed,-0.040000,1.360000,2.240000,3.000000,101.000000,1,0,0.000558,0.000062,0,0.083694,-0.009003,0.000000,28.822754,9.625900,0.000000,0.006000,-0.059000,0.033000,FlatInitial
03:53:42.465 PM 02/14/2016,Teleop Enabled,0,FALSE,0,NO ERROR,3994.335937,-3995.214844,4000.000000,4000.000000,Speed,Speed,-0.040000,1.380000,2.240000,3.000000,103.000000,1,0,0.000558,0.000062,0,0.110718,0.002930,0.000000,28.827698,9.625641,0.000000,0.001000,0.032000,-0.103000,FlatInitial
03:53:42.565 PM 02/14/2016,Teleop Enabled,0,FALSE,0,NO ERROR,3998.876953,-3991.992187,4000.000000,4000.000000,Speed,Speed,-0.040000,1.430000,2.240000,3.000000,101.000000,1,0,0.000558,0.000062,0,0.000000,-0.005768,0.000000,28.827942,9.625641,0.000000,0.017000,0.017000,0.018000,FlatInitial
03:53:42.664 PM 02/14/2016,Teleop Enabled,0,FALSE,0,NO ERROR,4002.978516,-3992.724609,4000.000000,4000.000000,Speed,Speed,-0.040000,1.450000,2.210000,3.000000,102.000000,1,0,0.000558,0.000062,0,0.005249,-0.004761,0.000000,28.828079,9.625366,0.000000,-0.006000,-0.023000,0.028000,FlatInitial
03:53:42.765 PM 02/14/2016,Teleop Enabled,0,FALSE,0,NO ERROR,4004.296875,-3996.533203,4000.000000,4000.000000,Speed,Speed,-0.040000,1.470000,2.210000,3.000000,101.000000,1,0,0.000558,0.000062,0,0.000000,-0.001450,0.000000,28.828400,9.625244,0.000000,0.003000,0.020000,-0.099000,FlatInitial
03:53:42.865 PM 02/14/2016,Teleop Enabled,0,FALSE,0,NO ERROR,4006.054687,-4001.074219,4000.000000,4000.000000,Speed,Speed,-0.040000,1.490000,2.180000,3.000000,102.000000,1,0,0.000558,0.000062,0,0.008667,-0.008636,0.000000,28.828690,9.624985,0.000000,0.021000,0.004000,-0.111000,FlatInitial
03:53:42.965 PM 02/14/2016,Teleop Enabled,0,FALSE,0,NO ERROR,4007.519531,-4004.150391,4000.000000,4000.000000,Speed,Speed,-0.050000,1.520000,2.140000,3.000000,101.000000,1,0,0.000558,0.000062,0,0.009583,0.000000,0.000000,28.829117,9.624481,0.000000,0.013000,-0.014000,0.009000,FlatInitial
03:53:43.066 PM 02/14/2016,Teleop Enabled,0,FALSE,0,NO ERROR,4005.322266,-4006.640625,4000.000000,4000.000000,Speed,Speed,-0.050000,1.540000,2.090000,3.000000,101.000000,1,0,0.000558,0.000062,0,0.007446,-0.014694,0.000000,28.829361,9.623886,0.000000,-0.006000,0.002000,-0.096000,FlatInitial
03:53:43.166 PM 02/14/2016,Teleop Enabled,0,FALSE,0,NO ERROR,4005.322266,-4008.251953,4000.000000,4000.000000,Speed,Speed,-0.050000,1.570000,2.010000,3.000000,104.000000,1,0,0.000558,0.000062,0,0.000000,-0.033707,0.000000,28.829407,9.622543,0.000000,0.007000,0.002000,0.063000,FlatInitial
03:53:43.265 PM 02/14/2016,Teleop Enabled,0,FALSE,0,NO ERROR,4003.857422,-4006.347656,4000.000000,4000.000000,Speed,Speed,-0.060000,1.600000,1.950000,3.000000,101.000000,1,0,0.000558,0.000062,0,0.000000,-0.005585,0.000000,28.829498,9.621231,0.000000,0.034000,0.025000,0.060000,FlatInitial
03:53:43.366 PM 02/14/2016,Teleop Enabled,0,FALSE,0,NO ERROR,4003.857422,-4003.857422,4000.000000,4000.000000,Speed,Speed,-0.060000,1.600000,1.910000,3.000000,100.000000,1,0,0.000558,0.000062,0,-0.000381,-0.006760,0.000000,28.829498,9.620850,0.000000,0.000000,-0.038000,0.020000,FlatInitial
03:53:43.466 PM 02/14/2016,Teleop Enabled,0,FALSE,0,NO ERROR,4005.029297,-4000.634766,4000.000000,4000.000000,Speed,Speed,-0.060000,1.620000,1.840000,3.000000,101.000000,1,0,0.000558,0.000062,0,0.001648,0.000000,0.000000,28.829544,9.620041,0.000000,0.000000,-0.006000,-0.120000,FlatInitial
03:53:43.566 PM 02/14/2016,Teleop Enabled,0,FALSE,0,NO ERROR,4002.392578,-3997.265625,4000.000000,4000.000000,Speed,Speed,-0.060000,1.630000,1.770000,3.000000,102.000000,1,0,0.000558,0.000062,0,0.000000,-0.019745,0.000000,28.829544,9.619431,0.000000,0.018000,-0.006000,0.063000,FlatInitial
03:53:43.667 PM 02/14/2016,Teleop Enabled,0,FALSE,0,NO ERROR,3999.902344,-3995.361328,4000.000000,4000.000000,Speed,Speed,-0.060000,1.640000,1.710000,3.000000,101.000000,1,0,0.000558,0.000062,0,0.000076,-0.025620,0.000000,28.829544,9.618240,0.000000,-0.041000,-0.042000,0.024000,FlatInitial
03:53:43.766 PM 02/14/2016,Teleop Enabled,0,FALSE,0,NO ERROR,3995.654297,-3996.240234,4000.000000,4000.000000,Speed,Speed,-0.070000,1.630000,1.660000,3.000000,103.000000,1,0,0.000558,0.000062,0,-0.006592,-0.038498,0.000000,28.829330,9.616531,0.000000,-0.011000,-0.033000,-0.109000,FlatInitial
03:53:43.867 PM 02/14/2016,Teleop Enabled,0,FALSE,0,NO ERROR,3991.406250,-3995.507812,4000.000000,4000.000000,Speed,Speed,-0.070000,1.660000,1.590000,3.000000,102.000000,1,0,0.000558,0.000062,0,0.002975,-0.059158,0.000000,28.829468,9.613983,0.000000,0.020000,0.021000,0.047000,FlatInitial
03:53:43.968 PM 02/14/2016,Teleop Enabled,0,FALSE,0,NO ERROR,3988.623047,-3994.775391,4000.000000,4000.000000,Speed,Speed,-0.070000,1.670000,1.570000,3.000000,101.000000,1,0,0.000558,0.000062,0,0.000000,-0.067932,0.000000,28.829605,9.610870,0.000000,-0.011000,-0.035000,0.020000,FlatInitial
03:53:44.068 PM 02/14/2016,Teleop Enabled,0,FALSE,0,NO ERROR,3991.845703,-3995.800781,4000.000000,4000.000000,Speed,Speed,-0.070000,1.670000,1.570000,3.000000,102.000000,1,0,0.000558,0.000062,0,0.005447,-0.072525,0.000000,28.829819,9.607300,0.000000,0.008000,0.009000,-0.114000,FlatInitial
03:53:44.167 PM 02/14/2016,Teleop Enabled,0,FALSE,0,NO ERROR,3996.240234,-3998.291016,4000.000000,4000.000000,Speed,Speed,-0.070000,1.680000,1.570000,3.000000,101.000000,1,0,0.000558,0.000062,0,0.003418,0.004868,0.000000,28.829849,9.607391,0.000000,-0.002000,0.001000,-0.115000,FlatInitial
03:53:44.268 PM 02/14/2016,Teleop Enabled,0,FALSE,0,NO ERROR,3998.291016,-4004.296875,4000.000000,4000.000000,Speed,Speed,-0.070000,1.700000,1.590000,3.000000,102.000000,1,0,0.000558,0.000062,0,0.000000,0.010803,0.000000,28.830078,9.607712,0.000000,-0.001000,-0.025000,0.004000,FlatInitial
03:53:44.368 PM 02/14/2016,Teleop Enabled,0,FALSE,0,NO ERROR,4001.513672,-4007.666016,4000.000000,4000.000000,Speed,Speed,-0.080000,1.700000,1.620000,3.000000,100.000000,1,0,0.000558,0.000062,0,0.003738,0.000000,0.000000,28.830139,9.608109,0.000000,-0.011000,-0.020000,0.001000,FlatInitial
03:53:44.467 PM 02/14/2016,Teleop Enabled,0,FALSE,0,NO ERROR,4003.564453,-4006.054687,4000.000000,4000.000000,Speed,Speed,-0.080000,1.710000,1.620000,3.000000,102.000000,1,0,0.000558,0.000062,0,-0.003601,-0.006912,0.000000,28.830170,9.607895,0.000000,-0.004000,0.030000,-0.089000,FlatInitial
03:53:44.568 PM 02/14/2016,Teleop Enabled,0,FALSE,0,NO ERROR,4004.443359,-4005.761719,4000.000000,4000.000000,Speed,Speed,-0.080000,1.710000,1.630000,3.000000,102.000000,1,0,0.000558,0.000062,0,-0.008438,-0.003784,0.000000,28.830032,9.607788,0.000000,0.020000,-0.006000,0.073000,FlatInitial
03:53:44.667 PM 02/14/2016,Teleop Enabled,0,FALSE,0,NO ERROR,4002.392578,-4002.099609,4000.000000,4000.000000,Speed,Speed,-0.090000,1.680000,1.580000,3.000000,101.000000,1,0,0.000558,0.000062,0,-0.027863,-0.010056,0.000000,28.829102,9.607437,0.000000,-0.002000,-0.039000,-0.008000,FlatInitial
03:53:44.768 PM 02/14/2016,Teleop Enabled,0,FALSE,0,NO ERROR,4003.125000,-4000.634766,4000.000000,4000.000000,Speed,Speed,-0.090000,1.660000,1.570000,3.000000,101.000000,1,0,0.000558,0.000062,0,-0.008102,-0.011017,0.000000,28.828766,9.606689,0.000000,-0.015000,0.001000,-0.095000,FlatInitial
03:53:44.869 PM 02/14/2016,Teleop Enabled,0,FALSE,0,NO ERROR,4000.927734,-4000.927734,4000.000000,4000.000000,Speed,Speed,-0.090000,1.650000,1.530000,3.000000,101.000000,1,0,0.000558,0.000062,0,0.000000,0.000000,0.000000,28.828293,9.606186,0.000000,0.006000,0.009000,0.090000,FlatInitial
03:53:44.970 PM 02/14/2016,Teleop Enabled,0,FALSE,0,NO ERROR,3997.265625,-3999.462891,4000.000000,4000.000000,Speed,Speed,-0.090000,1.630000,1.500000,3.000000,100.000000,1,0,0.000558,0.000062,0,-0.013519,-0.001617,0.000000,28.827957,9.606140,0.000000,-0.020000,-0.048000,0.020000,FlatInitial
03:53:45.071 PM 02/14/2016,Teleop Enabled,0,FALSE,0,NO ERROR,3996.386719,-3998.730469,4000.000000,4000.000000,Speed,Speed,-0.090000,1.610000,1.460000,3.000000,102.000000,1,0,0.000558,0.000062,0,-0.002777,-0.004547,0.000000,28.827774,9.605881,0.000000,-0.020000,0.017000,-0.068000,FlatInitial
03:53:45.171 PM 02/14/2016,Teleop Enabled,0,FALSE,0,NO ERROR,3995.654297,-3996.679687,4000.000000,4000.000000,Speed,Speed,-0.090000,1.590000,1.460000,3.000000,101.000000,1,0,0.000558,0.000062,0,-0.019653,-0.001709,0.000000,28.827209,9.605743,0.000000,-0.006000,0.031000,0.082000,FlatInitial
03:53:45.272 PM 02/14/2016,Teleop Enabled,0,FALSE,0,NO ERROR,3995.800781,-3997.998047,4000.000000,4000.000000,Speed,Speed,-0.090000,1.580000,1.480000,3.000000,103.000000,1,0,0.000558,0.000062,0,-0.035980,0.004333,0.000000,28.825699,9.605927,0.000000,0.001000,-0.038000,0.004000,FlatInitial
03:53:45.373 PM 02/14/2016,Teleop Enabled,0,FALSE,0,NO ERROR,3995.507812,-3997.412109,4000.000000,4000.000000,Speed,Speed,-0.090000,1.570000,1.510000,3.000000,101.000000,1,0,0.000558,0.000062,0,-0.045197,0.011475,0.000000,28.823624,9.606186,0.000000,-0.025000,0.014000,-0.104000,FlatInitial
03:53:45.473 PM 02/14/2016,Teleop Enabled,0,FALSE,0,NO ERROR,3998.876953,-3998.144531,4000.000000,4000.000000,Speed,Speed,-0.100000,1.580000,1.520000,3.000000,104.000000,1,0,0.000558,0.000062,0,-0.005142,0.018066,0.000000,28.822968,9.606842,0.000000,0.021000,0.018000,0.086000,FlatInitial
