Time,RobotMode,AutoToRun,ErrorStatus, ErrorCode,ErrorSource,ActualRPM1,ActualRPM2,DesiredRPM1,DesiredRPM2,ControlMode1,ControlMode2,NavXYaw,NavXRoll,NavXPitch,ShooterState,LoopTime,IsLevel,IsAutoTargeting,LeftMotorOutput,RightMotorOutput,IsHaloDrive,NavXVelocityX,NavXVelocityY,NavXVelocityZ,NavXDisplacementX,NavXDisplacementY,NavXDisplacementZ,NavXAccelerationX,NavXAccelerationY,NavXAccelerationZ,AutoDefendState
04:26:50.949 PM 02/14/2016,Teleop Enabled,0,TRUE,91,Variant To Data in WPI_DigitalInputRefNum Registry Get.vi->Periodic Tasks.vi->Robot Main.vi,0.000000,0.000000,-6000.000000,-6000.000000,Speed,Speed,-0.070000,1.180000,2.040000,1.000000,102.000000,1,0,-0.000000,0.000000,1,0.000000,0.000000,0.000000,-110.777145,12.763687,0.000000,0.003000,-0.001000,0.003000,FlatInitial
04:26:51.049 PM 02/14/2016,Teleop Enabled,0,TRUE,-44007,<LOCATION>WPI_DigitalInputRefNum Registry Get.vi<CALLSTACK>WPI_DigitalInputRefNum Registry Get.vi< <Periodic Tasks.vi< <Robot Main.vi,-122.460937,61.669922,-6000.000000,-6000.000000,Speed,Speed,-0.060000,1.170000,2.030000,1.000000,102.000000,1,0,-0.000000,0.000000,1,-0.003387,-0.004211,0.000000,-110.777267,12.763580,0.000000,0.042000,-0.036000,-0.023000,FlatInitial
04:26:51.149 PM 02/14/2016,Teleop Enabled,0,FALSE,0,NO ERROR,-1248.339844,1398.925781,-6000.000000,-6000.000000,Speed,Speed,-0.140000,1.180000,1.720000,1.000000,103.000000,1,0,-0.000000,0.000000,1,0.007263,0.020462,0.000000,-110.777145,12.763855,0.000000,-0.044000,-0.002000,-0.016000,FlatInitial
04:26:51.249 PM 02/14/2016,Teleop Enabled,0,FALSE,0,NO ERROR,-3055.224609,3224.267578,-6000.000000,-6000.000000,Speed,Speed,-0.170000,1.190000,1.760000,1.000000,104.000000,1,0,-0.000000,0.000000,1,-0.020813,0.026260,0.000000,-110.777771,12.765259,0.000000,-0.007000,-0.071000,-0.033000,FlatInitial
04:26:51.349 PM 02/14/2016,Teleop Enabled,0,FALSE,0,NO ERROR,-4539.111328,4718.554688,-6000.000000,-6000.000000,Speed,Speed,-0.160000,1.190000,1.450000,1.000000,103.000000,1,0,-0.000000,0.000000,1,-0.011383,0.005188,0.000000,-110.778275,12.765823,0.000000,0.041000,0.047000,-0.044000,FlatInitial
04:26:51.449 PM 02/14/2016,Teleop Enabled,0,FALSE,0,NO ERROR,-5538.867188,5535.937500,-6000.000000,-6000.000000,Speed,Speed,-0.190000,1.230000,1.450000,1.000000,102.000000,1,0,-0.000000,0.000000,1,-0.007645,0.025833,0.000000,-110.778336,12.766357,0.000000,-0.014000,0.116000,0.140000,FlatInitial
04:26:51.549 PM 02/14/2016,Teleop Enabled,0,FALSE,0,NO ERROR,-5982.421875,5987.695312,-6000.000000,-6000.000000,Speed,Speed,-0.140000,1.180000,1.460000,1.000000,102.000000,1,0,-0.000000,0.000000,1,-0.027954,0.041885,0.000000,-110.779297,12.768417,0.000000,-0.044000,0.008000,0.011000,FlatInitial
04:26:51.649 PM 02/14/2016,Teleop Enabled,0,FALSE,0,NO ERROR,-6108.984375,6093.164062,-6000.000000,-6000.000000,Speed,Speed,-0.130000,1.240000,1.430000,1.000000,103.000000,1,0,-0.000000,0.000000,1,-0.054932,0.077118,0.000000,-110.781479,12.771866,0.000000,-0.028000,-0.030000,0.055000,FlatInitial
04:26:51.749 PM 02/14/2016,Teleop Enabled,0,FALSE,0,NO ERROR,-6120.117188,6087.304688,-6000.000000,-6000.000000,Speed,Speed,-0.160000,1.220000,1.520000,1.000000,102.000000,1,0,-0.000000,0.000000,1,-0.030472,0.051056,0.000000,-110.783691,12.774796,0.000000,0.062000,-0.032000,0.170000,FlatInitial
04:26:51.849 PM 02/14/2016,Teleop Enabled,0,FALSE,0,NO ERROR,-6097.851562,6060.351562,-6000.000000,-6000.000000,Speed,Speed,-0.180000,1.160000,1.520000,1.000000,101.000000,1,0,-0.000000,0.000000,1,0.043640,0.051086,0.000000,-110.783279,12.777145,0.000000,0.128000,0.015000,0.187000,FlatInitial
04:26:51.949 PM 02/14/2016,Teleop Enabled,0,FALSE,0,NO ERROR,-6065.039062,6041.601562,-6000.000000,-6000.000000,Speed,Speed,-0.170000,1.190000,1.590000,1.000000,102.000000,1,0,-0.000000,0.000000,1,0.166412,0.060501,0.000000,-110.777405,12.780228,0.000000,0.132000,-0.024000,0.153000,FlatInitial
04:26:52.049 PM 02/14/2016,Teleop Enabled,0,FALSE,0,NO ERROR,-6040.429688,6032.812500,-6000.000000,-6000.000000,Speed,Speed,-0.150000,1.270000,1.670000,1.000000,103.000000,1,0,-0.000000,0.000000,1,0.302032,0.000000,0.000000,-110.765091,12.782410,0.000000,0.121000,0.010000,0.162000,FlatInitial
04:26:52.149 PM 02/14/2016,Teleop Enabled,0,FALSE,0,NO ERROR,-6026.367188,6018.164062,-6000.000000,-6000.000000,Speed,Speed,-0.160000,1.310000,1.780000,1.000000,106.000000,1,0,-0.000000,0.000000,1,0.416992,-0.022308,0.000000,-110.746460,12.781860,0.000000,0.096000,-0.070000,0.192000,FlatInitial
04:26:52.249 PM 02/14/2016,Teleop Enabled,0,FALSE,0,NO ERROR,-6017.578125,6008.203125,-6000.000000,-6000.000000,Speed,Speed,-0.160000,1.370000,1.850000,1.000000,103.000000,1,0,-0.000000,0.000000,1,0.523041,-0.060959,0.000000,-110.722534,12.779556,0.000000,0.100000,-0.024000,0.143000,FlatInitial
04:26:52.349 PM 02/14/2016,Teleop Enabled,0,FALSE,0,NO ERROR,-6013.476562,6002.343750,-6000.000000,-6000.000000,Speed,Speed,-0.160000,1.390000,1.820000,1.000000,103.000000,1,0,-0.000000,0.000000,1,0.606537,-0.111938,0.000000,-110.693741,12.774994,0.000000,0.071000,-0.098000,0.168000,FlatInitial
04:26:52.449 PM 02/14/2016,Teleop Enabled,0,FALSE,0,NO ERROR,-6011.132812,6004.101562,-6000.000000,-6000.000000,Speed,Speed,-0.170000,1.420000,1.760000,1.000000,101.000000,1,0,-0.000000,0.000000,1,0.692612,-0.213013,0.000000,-110.660965,12.766495,0.000000,0.059000,-0.113000,0.095000,FlatInitial
04:26:52.549 PM 02/14/2016,Teleop Enabled,0,FALSE,0,NO ERROR,-6010.546875,6005.273438,-6000.000000,-6000.000000,Speed,Speed,-0.160000,1.410000,1.700000,1.000000,100.000000,1,0,-0.000000,0.000000,1,0.758881,-0.305603,0.000000,-110.624344,12.752869,0.000000,0.040000,-0.110000,0.143000,FlatInitial
04:26:52.649 PM 02/14/2016,Teleop Enabled,0,FALSE,0,NO ERROR,-6008.203125,6007.617188,-6000.000000,-6000.000000,Speed,Speed,-0.160000,1.410000,1.590000,1.000000,103.000000,1,0,-0.000000,0.000000,1,0.822083,-0.423767,0.000000,-110.584625,12.734070,0.000000,0.063000,-0.169000,0.074000,FlatInitial
04:26:52.749 PM 02/14/2016,Teleop Enabled,0,FALSE,0,NO ERROR,-6007.031250,6008.789062,-6000.000000,-6000.000000,Speed,Speed,-0.170000,1.410000,1.480000,1.000000,105.000000,1,0,-0.000000,0.000000,1,0.881927,-0.529724,0.000000,-110.541687,12.709518,0.000000,0.048000,-0.098000,0.124000,FlatInitial
04:26:52.849 PM 02/14/2016,Teleop Enabled,0,FALSE,0,NO ERROR,-6009.960938,6007.617188,-6000.000000,-6000.000000,Speed,Speed,-0.160000,1.370000,1.370000,1.000000,103.000000,1,0,-0.000000,0.000000,1,0.940018,-0.640671,0.000000,-110.486740,12.673630,0.000000,0.049000,-0.104000,0.086000,FlatInitial
04:26:52.949 PM 02/14/2016,Teleop Enabled,0,FALSE,0,NO ERROR,-6010.546875,6009.960938,-6000.000000,-6000.000000,Speed,Speed,-0.160000,1.350000,1.250000,1.000000,102.000000,1,0,-0.000000,0.000000,1,0.980377,-0.743668,0.000000,-110.448181,12.645645,0.000000,0.065000,-0.094000,0.118000,FlatInitial
04:26:53.049 PM 02/14/2016,Teleop Enabled,0,FALSE,0,NO ERROR,-6009.375000,6015.234375,-6000.000000,-6000.000000,Speed,Speed,-0.160000,1.260000,1.090000,1.000000,102.000000,1,0,-0.000000,0.000000,1,1.026810,-0.867645,0.000000,-110.387741,12.596603,0.000000,0.063000,-0.115000,0.103000,FlatInitial
04:26:53.149 PM 02/14/2016,Teleop Enabled,0,FALSE,0,NO ERROR,-6007.031250,6012.304688,-6000.000000,-6000.000000,Speed,Speed,-0.150000,1.180000,0.980000,1.000000,103.000000,1,0,-0.000000,0.000000,1,1.063660,-0.935715,0.000000,-110.345718,12.560165,0.000000,0.028000,-0.021000,0.050000,FlatInitial
04:26:53.250 PM 02/14/2016,Teleop Enabled,0,FALSE,0,NO ERROR,-6007.617188,6008.203125,-6000.000000,-6000.000000,Speed,Speed,-0.150000,1.140000,1.040000,1.000000,101.000000,1,0,-0.000000,0.000000,1,1.103790,-0.968521,0.000000,-110.280579,12.502762,0.000000,0.057000,-0.029000,0.072000,FlatInitial
04:26:53.350 PM 02/14/2016,Teleop Enabled,0,FALSE,0,NO ERROR,-6007.031250,6006.445312,-6000.000000,-6000.000000,Speed,Speed,-0.160000,1.050000,1.050000,1.000000,101.000000,1,0,-0.000000,0.000000,1,1.158737,-1.006744,0.000000,-110.223770,12.453156,0.000000,0.095000,-0.029000,0.027000,FlatInitial
04:26:53.451 PM 02/14/2016,Teleop Enabled,0,FALSE,0,NO ERROR,-6008.203125,6004.687500,-6000.000000,-6000.000000,Speed,Speed,-0.150000,1.010000,1.020000,1.000000,101.000000,1,0,-0.000000,0.000000,1,1.215790,-1.053848,0.000000,-110.164154,12.401260,0.000000,0.121000,-0.042000,0.067000,FlatInitial
04:26:53.552 PM 02/14/2016,Teleop Enabled,0,FALSE,0,NO ERROR,-6008.789062,6002.343750,-6000.000000,-6000.000000,Speed,Speed,-0.150000,0.980000,1.050000,1.000000,102.000000,1,0,-0.000000,0.000000,1,1.290863,-1.082474,0.000000,-110.101135,12.347488,0.000000,0.085000,-0.048000,0.099000,FlatInitial
04:26:53.653 PM 02/14/2016,Teleop Enabled,0,FALSE,0,NO ERROR,-6008.789062,5999.414062,-6000.000000,-6000.000000,Speed,Speed,-0.160000,0.920000,1.030000,1.000000,106.000000,1,0,-0.000000,0.000000,1,1.373505,-1.127640,0.000000,-110.034073,12.292099,0.000000,0.124000,-0.077000,0.092000,FlatInitial
04:26:53.753 PM 02/14/2016,Teleop Enabled,0,FALSE,0,NO ERROR,-6009.375000,5996.484375,-6000.000000,-6000.000000,Speed,Speed,-0.150000,0.890000,1.050000,1.000000,101.000000,1,0,-0.000000,0.000000,1,1.463547,-1.179626,0.000000,-109.962601,12.234192,0.000000,0.103000,-0.033000,0.094000,FlatInitial
04:26:53.853 PM 02/14/2016,Teleop Enabled,0,FALSE,0,NO ERROR,-6004.101562,5990.625000,-6000.000000,-6000.000000,Speed,Speed,-0.150000,0.820000,1.080000,1.000000,102.000000,1,0,-0.000000,0.000000,1,1.542572,-1.218796,0.000000,-109.886917,12.173813,0.000000,0.105000,-0.044000,0.059000,FlatInitial
04:26:53.953 PM 02/14/2016,Teleop Enabled,0,FALSE,0,NO ERROR,-6001.757812,5988.867188,-6000.000000,-6000.000000,Speed,Speed,-0.150000,0.810000,1.000000,1.000000,101.000000,1,0,-0.000000,0.000000,1,1.624496,-1.300430,0.000000,-109.807373,12.110352,0.000000,0.105000,-0.104000,0.074000,FlatInitial
04:26:54.053 PM 02/14/2016,Teleop Enabled,0,FALSE,0,NO ERROR,-5996.484375,5995.898438,-6000.000000,-6000.000000,Speed,Speed,-0.150000,0.770000,0.930000,1.000000,102.000000,1,0,-0.000000,0.000000,1,1.704376,-1.369080,0.000000,-109.723709,12.042999,0.000000,0.061000,-0.052000,0.043000,FlatInitial
04:26:54.153 PM 02/14/2016,Teleop Enabled,0,FALSE,0,NO ERROR,-5993.554688,5999.414062,-6000.000000,-6000.000000,Speed,Speed,-0.140000,0.750000,0.870000,1.000000,102.000000,1,0,-0.000000,0.000000,1,1.802124,-1.444565,0.000000,-109.618073,11.958069,0.000000,0.062000,-0.095000,0.098000,FlatInitial
04:26:54.254 PM 02/14/2016,Teleop Enabled,0,FALSE,0,NO ERROR,-5992.968750,6000.000000,-6000.000000,-6000.000000,Speed,Speed,-0.140000,0.730000,0.850000,1.000000,102.000000,1,0,-0.000000,0.000000,1,1.851440,-1.470306,0.000000,-109.544724,11.899536,0.000000,0.080000,-0.026000,0.088000,FlatInitial
04:26:54.356 PM 02/14/2016,Teleop Enabled,0,FALSE,0,NO ERROR,-5994.140625,6002.929688,-6000.000000,-6000.000000,Speed,Speed,-0.140000,0.710000,0.810000,1.000000,101.000000,1,0,-0.000000,0.000000,1,1.909149,-1.517578,0.000000,-109.450317,11.824615,0.000000,0.076000,-0.045000,0.079000,FlatInitial
04:26:54.457 PM 02/14/2016,Teleop Enabled,0,FALSE,0,NO ERROR,-5996.484375,6004.687500,-6000.000000,-6000.000000,Speed,Speed,-0.140000,0.730000,0.780000,1.000000,104.000000,1,0,-0.000000,0.000000,1,1.978653,-1.558258,0.000000,-109.333282,11.732025,0.000000,0.048000,-0.050000,0.018000,FlatInitial
04:26:54.558 PM 02/14/2016,Teleop Enabled,0,FALSE,0,NO ERROR,-6001.757812,6008.789062,-6000.000000,-6000.000000,Speed,Speed,-0.140000,0.750000,0.860000,1.000000,102.000000,1,0,-0.000000,0.000000,1,2.023346,-1.558273,0.000000,-109.232986,11.654114,0.000000,0.036000,-0.051000,0.062000,FlatInitial
04:26:54.659 PM 02/14/2016,Teleop Enabled,0,FALSE,0,NO ERROR,-6007.031250,6011.718750,-6000.000000,-6000.000000,Speed,Speed,-0.140000,0.820000,0.860000,1.000000,103.000000,1,0,-0.000000,0.000000,1,2.079941,-1.594482,0.000000,-109.130127,11.575211,0.000000,0.029000,-0.068000,0.031000,FlatInitial
04:26:54.764 PM 02/14/2016,Teleop Enabled,0,FALSE,0,NO ERROR,-6011.718750,6007.617188,-6000.000000,-6000.000000,Speed,Speed,-0.120000,0.870000,0.820000,1.000000,102.000000,1,0,-0.000000,0.000000,1,2.130936,-1.618896,0.000000,-109.024689,11.494492,0.000000,0.041000,-0.043000,0.033000,FlatInitial
04:26:54.864 PM 02/14/2016,Teleop Enabled,0,FALSE,0,NO ERROR,-6012.890625,6005.273438,-6000.000000,-6000.000000,Speed,Speed,-0.160000,0.930000,0.680000,1.000000,101.000000,1,0,-0.000000,0.000000,1,2.193893,-1.668015,0.000000,-108.916428,11.412048,0.000000,0.023000,-0.097000,0.078000,FlatInitial
04:26:54.965 PM 02/14/2016,Teleop Enabled,0,FALSE,0,NO ERROR,-6010.546875,6002.929688,-6000.000000,-6000.000000,Speed,Speed,-0.160000,0.990000,0.480000,1.000000,101.000000,1,0,-0.000000,0.000000,1,2.265976,-1.744522,0.000000,-108.804703,11.326340,0.000000,0.070000,-0.120000,0.050000,FlatInitial
04:26:55.065 PM 02/14/2016,Teleop Enabled,0,FALSE,0,NO ERROR,-6007.617188,6001.757812,-6000.000000,-6000.000000,Speed,Speed,-0.150000,1.010000,0.310000,1.000000,101.000000,1,0,-0.000000,0.000000,1,2.339081,-1.780563,0.000000,-108.689163,11.237671,0.000000,0.058000,0.040000,-0.003000,FlatInitial
04:26:55.166 PM 02/14/2016,Teleop Enabled,0,FALSE,0,NO ERROR,-6005.859375,5999.414062,-6000.000000,-6000.000000,Speed,Speed,-0.140000,1.000000,0.360000,1.000000,101.000000,1,0,-0.000000,0.000000,1,2.407715,-1.793365,0.000000,-108.570236,11.148712,0.000000,0.078000,-0.087000,0.015000,FlatInitial
04:26:55.266 PM 02/14/2016,Teleop Enabled,0,FALSE,0,NO ERROR,-6003.515625,5998.828125,-6000.000000,-6000.000000,Speed,Speed,-0.110000,1.000000,0.430000,1.000000,101.000000,1,0,-0.000000,0.000000,1,2.477921,-1.790375,0.000000,-108.447769,11.059113,0.000000,0.044000,-0.041000,0.020000,FlatInitial
04:26:55.367 PM 02/14/2016,Teleop Enabled,0,FALSE,0,NO ERROR,-6000.585938,5997.656250,-6000.000000,-6000.000000,Speed,Speed,-0.160000,0.990000,0.600000,1.000000,102.000000,1,0,-0.000000,0.000000,1,2.548920,-1.807709,0.000000,-108.321686,10.969055,0.000000,0.048000,0.051000,-0.021000,FlatInitial
04:26:55.469 PM 02/14/2016,Teleop Enabled,0,FALSE,0,NO ERROR,-5997.656250,5997.656250,-6000.000000,-6000.000000,Speed,Speed,-0.130000,0.980000,0.610000,1.000000,103.000000,1,0,-0.000000,0.000000,1,2.611679,-1.784561,0.000000,-108.192459,10.879257,0.000000,0.053000,-0.016000,-0.007000,FlatInitial
04:26:55.569 PM 02/14/2016,Teleop Enabled,0,FALSE,0,NO ERROR,-5993.554688,6001.171875,-6000.000000,-6000.000000,Speed,Speed,-0.140000,0.970000,0.710000,1.000000,101.000000,1,0,-0.000000,0.000000,1,2.697067,-1.786209,0.000000,-108.059509,10.789932,0.000000,0.094000,-0.008000,-0.019000,FlatInitial
04:26:55.670 PM 02/14/2016,Teleop Enabled,0,FALSE,0,NO ERROR,-5993.554688,5998.242188,-6000.000000,-6000.000000,Speed,Speed,-0.170000,0.970000,0.630000,1.000000,104.000000,1,0,-0.000000,0.000000,1,2.776337,-1.830414,0.000000,-107.922272,10.699432,0.000000,0.082000,-0.086000,0.020000,FlatInitial
04:26:55.771 PM 02/14/2016,Teleop Enabled,0,FALSE,0,NO ERROR,-5995.312500,5998.242188,-6000.000000,-6000.000000,Speed,Speed,-0.140000,0.970000,0.680000,1.000000,102.000000,1,0,-0.000000,0.000000,1,2.866287,-1.856812,0.000000,-107.780869,10.607010,0.000000,0.104000,-0.085000,-0.008000,FlatInitial
04:26:55.872 PM 02/14/2016,Teleop Enabled,0,FALSE,0,NO ERROR,-5999.414062,5998.828125,-6000.000000,-6000.000000,Speed,Speed,-0.160000,0.990000,0.700000,1.000000,101.000000,1,0,-0.000000,0.000000,1,2.958481,-1.902954,0.000000,-107.634796,10.512680,0.000000,0.055000,-0.057000,-0.005000,FlatInitial
04:26:55.972 PM 02/14/2016,Teleop Enabled,0,FALSE,0,NO ERROR,-5999.414062,5997.070312,-6000.000000,-6000.000000,Speed,Speed,-0.150000,1.040000,0.720000,1.000000,102.000000,1,0,-0.000000,0.000000,1,3.044159,-0.015732,0.000000,-107.484299,10.474335,0.000000,0.119000,-0.021000,-0.002000,FlatInitial
04:26:56.073 PM 02/14/2016,Teleop Enabled,0,FALSE,0,NO ERROR,-6006.445312,5997.070312,-6000.000000,-6000.000000,Speed,Speed,-0.160000,1.050000,0.730000,1.000000,101.000000,1,0,-0.000000,0.000000,1,3.129578,-0.051971,0.000000,-107.329514,10.472382,0.000000,0.047000,0.044000,-0.008000,FlatInitial
04:26:56.173 PM 02/14/2016,Teleop Enabled,0,FALSE,0,NO ERROR,-6007.617188,5997.070312,-6000.000000,-6000.000000,Speed,Speed,-0.160000,1.050000,0.790000,1.000000,103.000000,1,0,-0.000000,0.000000,1,3.210373,-0.043655,0.000000,-107.138916,10.469360,0.000000,0.082000,0.052000,0.029000,FlatInitial
04:26:56.273 PM 02/14/2016,Teleop Enabled,0,FALSE,0,NO ERROR,-6007.031250,5998.828125,-6000.000000,-6000.000000,Speed,Speed,-0.150000,1.040000,0.880000,1.000000,100.000000,1,0,-0.000000,0.000000,1,3.292404,-0.035110,0.000000,-106.975922,10.467361,0.000000,0.087000,0.016000,0.030000,FlatInitial
04:26:56.373 PM 02/14/2016,Teleop Enabled,0,FALSE,0,NO ERROR,-6007.031250,5998.828125,-6000.000000,-6000.000000,Speed,Speed,-0.160000,1.020000,0.950000,1.000000,101.000000,1,0,-0.000000,0.000000,1,3.365356,0.000763,0.000000,-106.809067,10.467361,0.000000,0.076000,0.020000,0.013000,FlatInitial
04:26:56.474 PM 02/14/2016,Teleop Enabled,0,FALSE,0,NO ERROR,-6007.617188,5998.828125,-6000.000000,-6000.000000,Speed,Speed,-0.160000,1.010000,1.100000,1.000000,102.000000,1,0,-0.000000,0.000000,1,3.442734,0.018311,0.000000,-106.638596,10.468018,0.000000,0.084000,0.038000,0.022000,FlatInitial
04:26:56.574 PM 02/14/2016,Teleop Enabled,0,FALSE,0,NO ERROR,-6008.203125,6000.585938,-6000.000000,-6000.000000,Speed,Speed,-0.160000,1.020000,1.240000,1.000000,103.000000,1,0,-0.000000,0.000000,1,3.518158,0.054779,0.000000,-106.464142,10.469925,0.000000,0.082000,0.070000,-0.018000,FlatInitial
04:26:56.674 PM 02/14/2016,Teleop Enabled,0,FALSE,0,NO ERROR,-6008.203125,6002.343750,-6000.000000,-6000.000000,Speed,Speed,-0.160000,1.040000,1.420000,1.000000,103.000000,1,0,-0.000000,0.000000,1,3.599182,0.093903,0.000000,-106.285751,10.474045,0.000000,0.099000,0.024000,-0.044000,FlatInitial
04:26:56.775 PM 02/14/2016,Teleop Enabled,0,FALSE,0,NO ERROR,-6006.445312,6003.515625,-6000.000000,-6000.000000,Speed,Speed,-0.160000,1.050000,1.550000,1.000000,102.000000,1,0,-0.000000,0.000000,1,3.670822,0.135712,0.000000,-106.103668,10.479919,0.000000,0.070000,0.091000,-0.045000,FlatInitial
04:26:56.877 PM 02/14/2016,Teleop Enabled,0,FALSE,0,NO ERROR,-6002.343750,6003.515625,-6000.000000,-6000.000000,Speed,Speed,-0.160000,1.070000,1.680000,1.000000,102.000000,1,0,-0.000000,0.000000,1,3.744781,0.188202,0.000000,-105.917984,10.488251,0.000000,0.086000,0.078000,-0.060000,FlatInitial
04:26:56.979 PM 02/14/2016,Teleop Enabled,0,FALSE,0,NO ERROR,-5997.070312,6005.273438,-6000.000000,-6000.000000,Speed,Speed,-0.170000,1.100000,1.820000,1.000000,102.000000,1,0,-0.000000,0.000000,1,3.828018,0.234894,0.000000,-105.728256,10.499176,0.000000,0.060000,0.031000,-0.041000,FlatInitial
04:26:57.079 PM 02/14/2016,Teleop Enabled,0,FALSE,0,NO ERROR,-5993.554688,6004.687500,-6000.000000,-6000.000000,Speed,Speed,-0.160000,1.130000,1.930000,1.000000,102.000000,1,0,-0.000000,0.000000,1,3.908401,0.253403,0.000000,-105.534485,10.511444,0.000000,0.098000,0.031000,-0.061000,FlatInitial
04:26:57.180 PM 02/14/2016,Teleop Enabled,0,FALSE,0,NO ERROR,-5992.382812,6001.757812,-6000.000000,-6000.000000,Speed,Speed,-0.170000,1.150000,2.030000,1.000000,104.000000,1,0,-0.000000,0.000000,1,3.996948,0.274002,0.000000,-105.336426,10.524857,0.000000,0.083000,0.049000,-0.090000,FlatInitial
04:26:57.281 PM 02/14/2016,Teleop Enabled,0,FALSE,0,NO ERROR,-5992.968750,6000.000000,-6000.000000,-6000.000000,Speed,Speed,-0.170000,1.180000,2.080000,1.000000,102.000000,1,0,-0.000000,0.000000,1,4.106842,0.000000,0.000000,-105.092819,10.538818,0.000000,0.091000,-0.002000,-0.070000,FlatInitial
04:26:57.381 PM 02/14/2016,Teleop Enabled,0,FALSE,0,NO ERROR,-5993.554688,5998.828125,-6000.000000,-6000.000000,Speed,Speed,-0.160000,1.200000,2.130000,1.000000,102.000000,1,0,-0.000000,0.000000,1,4.176392,-0.011261,0.000000,-104.926743,10.538559,0.000000,0.107000,-0.045000,-0.102000,FlatInitial
04:26:57.482 PM 02/14/2016,Teleop Enabled,0,FALSE,0,NO ERROR,-5996.484375,5997.656250,-6000.000000,-6000.000000,Speed,Speed,-0.160000,1.210000,2.170000,1.000000,101.000000,1,0,-0.000000,0.000000,1,4.277542,-0.016891,0.000000,-104.672729,10.537292,0.000000,0.086000,-0.028000,-0.088000,FlatInitial
04:26:57.582 PM 02/14/2016,Teleop Enabled,0,FALSE,0,NO ERROR,-5999.414062,5997.656250,-6000.000000,-6000.000000,Speed,Speed,-0.170000,1.230000,2.260000,1.000000,103.000000,1,0,-0.000000,0.000000,1,4.348068,0.004608,0.000000,-104.499832,10.537155,0.000000,0.094000,0.031000,-0.075000,FlatInitial
04:26:57.683 PM 02/14/2016,Teleop Enabled,0,FALSE,0,NO ERROR,-6002.929688,5997.656250,-6000.000000,-6000.000000,Speed,Speed,-0.170000,1.250000,2.380000,1.000000,103.000000,1,1,-0.018479,-0.018479,1,4.452469,0.027405,0.000000,-104.235306,10.538193,0.000000,0.057000,0.005000,-0.039000,FlatInitial
04:26:57.783 PM 02/14/2016,Teleop Enabled,0,FALSE,0,NO ERROR,-6006.445312,5996.484375,-6000.000000,-6000.000000,Speed,Speed,-0.180000,1.270000,2.480000,1.000000,102.000000,1,1,-0.018479,-0.018479,1,4.535492,0.005692,0.000000,-104.010223,10.538315,0.000000,0.072000,0.000000,-0.032000,FlatInitial
04:26:57.883 PM 02/14/2016,Teleop Enabled,0,FALSE,0,NO ERROR,-6008.203125,5998.242188,-6000.000000,-6000.000000,Speed,Speed,-0.180000,1.290000,2.600000,1.000000,102.000000,1,1,-0.018479,-0.018479,1,4.627014,0.023102,0.000000,-103.780716,10.539032,0.000000,0.083000,-0.016000,-0.051000,FlatInitial
04:26:57.983 PM 02/14/2016,Teleop Enabled,0,FALSE,0,NO ERROR,-6009.960938,6004.101562,-6000.000000,-6000.000000,Speed,Speed,-0.180000,1.320000,2.720000,1.000000,101.000000,1,1,-0.018479,-0.018479,1,4.710968,0.059830,0.000000,-103.546860,10.541443,0.000000,0.088000,-0.001000,-0.055000,FlatInitial
04:26:58.083 PM 02/14/2016,Teleop Enabled,0,FALSE,0,NO ERROR,-6010.546875,6009.960938,-6000.000000,-6000.000000,Speed,Speed,-0.180000,1.350000,2.770000,1.000000,100.000000,1,1,-0.018479,-0.018479,1,4.789291,0.075058,0.000000,-103.308823,10.544891,0.000000,0.036000,0.019000,-0.086000,FlatInitial
04:26:58.184 PM 02/14/2016,Teleop Enabled,0,FALSE,0,NO ERROR,-6007.031250,6009.960938,-6000.000000,-6000.000000,Speed,Speed,-0.180000,1.370000,2.830000,1.000000,116.000000,1,1,-0.023928,-0.023928,1,4.789291,0.075058,0.000000,-103.308823,10.544891,0.000000,0.036000,0.019000,-0.086000,FlatInitial
04:26:58.284 PM 02/14/2016,Teleop Enabled,0,FALSE,0,NO ERROR,-6005.273438,6007.617188,-6000.000000,-6000.000000,Speed,Speed,-0.190000,1.400000,2.820000,1.000000,104.000000,1,1,-0.023928,-0.023928,1,4.944702,0.019897,0.000000,-102.772919,10.550186,0.000000,0.093000,0.017000,-0.115000,FlatInitial
04:26:58.384 PM 02/14/2016,Teleop Enabled,0,FALSE,0,NO ERROR,-6002.929688,6005.859375,-6000.000000,-6000.000000,Speed,Speed,-0.190000,1.420000,2.830000,1.000000,102.000000,1,1,-0.023928,-0.023928,1,4.994934,0.045258,0.000000,-102.573868,10.551590,0.000000,0.046000,0.048000,-0.058000,FlatInitial
04:26:58.484 PM 02/14/2016,Teleop Enabled,0,FALSE,0,NO ERROR,-6001.757812,6002.929688,-6000.000000,-6000.000000,Speed,Speed,-0.200000,1.440000,2.890000,1.000000,104.000000,1,1,-0.025400,-0.025400,1,5.075562,-0.001968,0.000000,-102.271408,10.554016,0.000000,0.093000,-0.027000,-0.099000,FlatInitial
04:26:58.584 PM 02/14/2016,Teleop Enabled,0,FALSE,0,NO ERROR,-6000.000000,6001.757812,-6000.000000,-6000.000000,Speed,Speed,-0.190000,1.460000,2.820000,1.000000,104.000000,1,1,-0.023928,-0.023928,1,5.115433,0.007736,0.000000,-102.067322,10.553986,0.000000,0.022000,0.002000,-0.067000,FlatInitial
04:26:58.685 PM 02/14/2016,Teleop Enabled,0,FALSE,0,NO ERROR,-5998.828125,6001.171875,-6000.000000,-6000.000000,Speed,Speed,-0.210000,1.480000,2.830000,1.000000,103.000000,1,1,-0.023928,-0.023928,1,5.163589,0.030746,0.000000,-101.810181,10.555313,0.000000,0.049000,-0.008000,-0.089000,FlatInitial
04:26:58.787 PM 02/14/2016,Teleop Enabled,0,FALSE,0,NO ERROR,-5998.828125,5995.312500,-6000.000000,-6000.000000,Speed,Speed,-0.200000,1.480000,2.790000,1.000000,101.000000,1,1,-0.023928,-0.023928,1,5.214783,0.027451,0.000000,-101.498535,10.556076,0.000000,0.049000,-0.008000,-0.089000,FlatInitial
04:26:58.887 PM 02/14/2016,Teleop Enabled,0,FALSE,0,NO ERROR,-5995.898438,5993.554688,-6000.000000,-6000.000000,Speed,Speed,-0.200000,1.520000,2.770000,1.000000,103.000000,1,1,-0.023928,-0.023928,1,5.254517,0.056183,0.000000,-101.236588,10.558365,0.000000,0.056000,0.012000,-0.125000,FlatInitial
04:26:58.987 PM 02/14/2016,Teleop Enabled,0,FALSE,0,NO ERROR,-5992.968750,5997.070312,-6000.000000,-6000.000000,Speed,Speed,-0.220000,1.550000,2.760000,1.000000,104.000000,1,1,-0.023928,-0.023928,1,5.299942,0.087402,0.000000,-100.972504,10.562012,0.000000,0.054000,0.034000,-0.133000,FlatInitial
04:26:59.088 PM 02/14/2016,Teleop Enabled,0,FALSE,0,NO ERROR,-5991.796875,5998.242188,-6000.000000,-6000.000000,Speed,Speed,-0.220000,1.550000,2.760000,1.000000,103.000000,1,1,-0.023928,-0.023928,1,5.299942,0.087402,0.000000,-100.972504,10.562012,0.000000,0.071000,0.062000,-0.106000,FlatInitial
04:26:59.189 PM 02/14/2016,Teleop Enabled,0,FALSE,0,NO ERROR,-5990.625000,5998.242188,-6000.000000,-6000.000000,Speed,Speed,-0.220000,1.570000,2.830000,1.000000,103.000000,1,1,-0.023928,-0.023928,1,5.360626,0.120529,0.000000,-100.599152,10.569214,0.000000,0.052000,0.024000,-0.082000,FlatInitial
04:26:59.290 PM 02/14/2016,Teleop Enabled,0,FALSE,0,NO ERROR,-5991.210938,6000.000000,-6000.000000,-6000.000000,Speed,Speed,-0.220000,1.540000,2.940000,1.000000,101.000000,1,1,-0.023928,-0.023928,1,5.444260,0.180603,0.000000,-100.166290,10.581329,0.000000,0.071000,0.101000,-0.118000,FlatInitial
04:26:59.391 PM 02/14/2016,Teleop Enabled,0,FALSE,0,NO ERROR,-5994.140625,6001.171875,-6000.000000,-6000.000000,Speed,Speed,-0.220000,1.540000,2.940000,1.000000,101.000000,1,1,-0.023928,-0.023928,1,5.444260,0.180603,0.000000,-100.166290,10.581329,0.000000,0.071000,0.101000,-0.118000,FlatInitial
04:26:59.491 PM 02/14/2016,Teleop Enabled,0,FALSE,0,NO ERROR,-5998.828125,5999.414062,-6000.000000,-6000.000000,Speed,Speed,-0.230000,1.500000,3.050000,1.000000,101.000000,1,1,-0.023928,-0.023928,1,5.487579,0.203705,0.000000,-99.892807,10.591248,0.000000,0.071000,0.026000,-0.118000,FlatInitial
04:26:59.592 PM 02/14/2016,Teleop Enabled,0,FALSE,0,NO ERROR,-6003.515625,6000.000000,-6000.000000,-6000.000000,Speed,Speed,-0.220000,1.470000,3.080000,1.000000,102.000000,1,1,-0.023928,-0.023928,1,5.528427,0.238998,0.000000,-99.617096,10.602371,0.000000,0.037000,0.037000,-0.095000,FlatInitial
04:26:59.692 PM 02/14/2016,Teleop Enabled,0,FALSE,0,NO ERROR,-6006.445312,6001.757812,-6000.000000,-6000.000000,Speed,Speed,-0.230000,1.460000,3.090000,1.000000,102.000000,1,1,-0.023928,-0.023928,1,5.562851,0.279999,0.000000,-99.339661,10.615723,0.000000,0.022000,-0.004000,-0.083000,FlatInitial
04:26:59.792 PM 02/14/2016,Teleop Enabled,0,FALSE,0,NO ERROR,-6005.859375,6002.343750,-6000.000000,-6000.000000,Speed,Speed,-0.230000,1.460000,3.090000,1.000000,104.000000,1,1,-0.023928,-0.023928,1,5.609879,0.035446,0.000000,-99.004227,10.616669,0.000000,0.041000,0.050000,-0.085000,FlatInitial
04:26:59.892 PM 02/14/2016,Teleop Enabled,0,FALSE,0,NO ERROR,-6004.101562,6003.515625,-6000.000000,-6000.000000,Speed,Speed,-0.230000,1.450000,3.100000,1.000000,103.000000,1,1,-0.023928,-0.023928,1,5.635452,0.063660,0.000000,-98.779205,10.618713,0.000000,0.062000,0.039000,-0.091000,FlatInitial
04:26:59.993 PM 02/14/2016,Teleop Enabled,0,FALSE,0,NO ERROR,-6002.343750,6006.445312,-6000.000000,-6000.000000,Speed,Speed,-0.230000,1.420000,3.110000,1.000000,102.000000,1,1,-0.023928,-0.023928,1,5.684433,0.106766,0.000000,-98.439301,10.624130,0.000000,0.019000,0.059000,-0.066000,FlatInitial
04:27:00.094 PM 02/14/2016,Teleop Enabled,0,FALSE,0,NO ERROR,-6001.171875,6005.859375,-6000.000000,-6000.000000,Speed,Speed,-0.230000,1.400000,3.120000,1.000000,102.000000,1,1,-0.023928,-0.023928,1,0.015503,0.157425,0.000000,-98.438919,10.630905,0.000000,-0.003000,0.056000,-0.017000,FlatInitial
04:27:00.194 PM 02/14/2016,Teleop Enabled,0,FALSE,0,NO ERROR,-5999.414062,6004.101562,-6000.000000,-6000.000000,Speed,Speed,-0.220000,1.340000,3.090000,1.000000,102.000000,1,1,-0.023928,-0.023928,1,0.031143,0.007278,0.000000,-98.437637,10.636154,0.000000,0.044000,0.064000,-0.100000,FlatInitial
04:27:00.294 PM 02/14/2016,Teleop Enabled,0,FALSE,0,NO ERROR,-5998.828125,6002.929688,-6000.000000,-6000.000000,Speed,Speed,-0.220000,1.320000,3.100000,1.000000,103.000000,1,1,-0.023928,-0.023928,1,0.000000,0.055969,0.000000,-98.436478,10.637665,0.000000,0.000000,0.046000,-0.070000,FlatInitial
04:27:00.394 PM 02/14/2016,Teleop Enabled,0,FALSE,0,NO ERROR,-5999.414062,6000.585938,-6000.000000,-6000.000000,Speed,Speed,-0.220000,1.280000,3.030000,1.000000,102.000000,1,1,-0.023928,-0.023928,1,0.017578,0.131134,0.000000,-98.435791,10.644730,0.000000,0.042000,0.035000,-0.078000,FlatInitial
04:27:00.494 PM 02/14/2016,Teleop Enabled,0,FALSE,0,NO ERROR,-5998.828125,5998.242188,-6000.000000,-6000.000000,Speed,Speed,-0.220000,1.280000,3.010000,1.000000,102.000000,1,1,-0.023928,-0.023928,1,0.029419,0.175385,0.000000,-98.434723,10.650986,0.000000,-0.037000,0.053000,-0.021000,FlatInitial
04:27:00.594 PM 02/14/2016,Teleop Enabled,0,FALSE,0,NO ERROR,-6000.000000,5994.140625,-6000.000000,-6000.000000,Speed,Speed,-0.230000,1.250000,2.980000,1.000000,101.000000,1,1,-0.023928,-0.023928,1,0.043808,0.235382,0.000000,-98.432983,10.661438,0.000000,0.010000,0.050000,-0.026000,FlatInitial
04:27:00.695 PM 02/14/2016,Teleop Enabled,0,FALSE,0,NO ERROR,-5998.828125,5995.312500,-6000.000000,-6000.000000,Speed,Speed,-0.220000,1.250000,2.930000,1.000000,104.000000,1,1,-0.023928,-0.023928,1,0.081360,0.329071,0.000000,-98.427628,10.683838,0.000000,-0.025000,0.080000,-0.039000,FlatInitial
04:27:00.796 PM 02/14/2016,Teleop Enabled,0,FALSE,0,NO ERROR,-6000.585938,5995.312500,-6000.000000,-6000.000000,Speed,Speed,-0.220000,1.210000,2.950000,1.000000,104.000000,1,1,-0.023928,-0.023928,1,0.100555,0.000000,0.000000,-98.422989,10.698318,0.000000,0.007000,0.003000,-0.036000,FlatInitial
04:27:00.897 PM 02/14/2016,Teleop Enabled,0,FALSE,0,NO ERROR,-6000.585938,5993.554688,-6000.000000,-6000.000000,Speed,Speed,-0.220000,1.210000,2.840000,1.000000,105.000000,1,1,-0.023928,-0.023928,1,0.110306,0.031494,0.000000,-98.419769,10.698837,0.000000,0.039000,0.053000,-0.077000,FlatInitial
04:27:00.997 PM 02/14/2016,Teleop Enabled,0,FALSE,0,NO ERROR,-6000.585938,5994.140625,-6000.000000,-6000.000000,Speed,Speed,-0.220000,1.210000,2.900000,1.000000,101.000000,1,1,-0.023928,-0.023928,1,0.124817,0.079453,0.000000,-98.414993,10.701263,0.000000,0.007000,0.030000,-0.056000,FlatInitial
04:27:01.099 PM 02/14/2016,Teleop Enabled,0,FALSE,0,NO ERROR,-6000.000000,5998.242188,-6000.000000,-6000.000000,Speed,Speed,-0.220000,1.200000,2.810000,1.000000,101.000000,1,1,-0.023928,-0.023928,1,0.136307,0.112885,0.000000,-98.408401,10.706299,0.000000,0.039000,0.049000,-0.078000,FlatInitial
04:27:01.199 PM 02/14/2016,Teleop Enabled,0,FALSE,0,NO ERROR,-5998.242188,6003.515625,-6000.000000,-6000.000000,Speed,Speed,-0.230000,1.220000,2.750000,1.000000,111.000000,1,1,-0.023928,-0.023928,1,0.164398,0.176483,0.000000,-98.397705,10.716766,0.000000,0.004000,0.069000,-0.027000,FlatInitial
04:27:01.299 PM 02/14/2016,Teleop Enabled,0,FALSE,0,NO ERROR,-5998.242188,6002.343750,-6000.000000,-6000.000000,Speed,Speed,-0.230000,1.220000,2.750000,1.000000,103.000000,1,1,-0.023928,-0.023928,1,0.178116,0.216187,0.000000,-98.390778,10.724899,0.000000,0.037000,0.028000,-0.060000,FlatInitial
04:27:01.403 PM 02/14/2016,Teleop Enabled,0,FALSE,0,NO ERROR,-5998.828125,6004.101562,-6000.000000,-6000.000000,Speed,Speed,-0.230000,1.230000,2.670000,1.000000,107.000000,1,1,-0.023928,-0.023928,1,0.192917,0.251282,0.000000,-98.383286,10.734344,0.000000,0.007000,0.077000,-0.027000,FlatInitial
04:27:01.503 PM 02/14/2016,Teleop Enabled,0,FALSE,0,NO ERROR,-6001.171875,6004.687500,-6000.000000,-6000.000000,Speed,Speed,-0.230000,1.210000,2.640000,1.000000,104.000000,1,1,-0.023928,-0.023928,1,0.202988,0.317444,0.000000,-98.371216,10.751816,0.000000,0.024000,0.040000,-0.069000,FlatInitial
04:27:01.603 PM 02/14/2016,Teleop Enabled,0,FALSE,0,NO ERROR,-6001.757812,6000.585938,-6000.000000,-6000.000000,Speed,Speed,-0.230000,1.180000,2.580000,1.000000,103.000000,1,1,-0.023928,-0.023928,1,0.001526,0.030975,0.000000,-98.369171,10.755554,0.000000,-0.027000,0.040000,-0.041000,FlatInitial
04:27:01.704 PM 02/14/2016,Teleop Enabled,0,FALSE,0,NO ERROR,-6001.171875,6001.171875,-6000.000000,-6000.000000,Speed,Speed,-0.220000,1.180000,2.450000,1.000000,103.000000,1,1,-0.023928,-0.023928,1,-0.003479,0.092300,0.000000,-98.369202,10.760422,0.000000,-0.031000,0.058000,-0.065000,FlatInitial
04:27:01.804 PM 02/14/2016,Teleop Enabled,0,FALSE,0,NO ERROR,-5998.828125,6003.515625,-6000.000000,-6000.000000,Speed,Speed,-0.230000,1.180000,2.370000,1.000000,103.000000,1,1,-0.023928,-0.023928,1,0.001556,0.142426,0.000000,-98.369354,10.767639,0.000000,0.023000,0.040000,-0.068000,FlatInitial
04:27:01.904 PM 02/14/2016,Teleop Enabled,0,FALSE,0,NO ERROR,-5997.656250,6002.343750,-6000.000000,-6000.000000,Speed,Speed,-0.230000,1.180000,2.370000,1.000000,103.000000,1,1,-0.023928,-0.023928,1,-0.006073,0.165848,0.000000,-98.369431,10.770859,0.000000,0.011000,0.011000,-0.048000,FlatInitial
04:27:02.004 PM 02/14/2016,Teleop Enabled,0,FALSE,0,NO ERROR,-5997.656250,5998.242188,-6000.000000,-6000.000000,Speed,Speed,-0.230000,1.180000,2.320000,1.000000,101.000000,1,1,-0.023928,-0.023928,1,0.005859,0.204758,0.000000,-98.369293,10.780319,0.000000,-0.007000,0.045000,-0.053000,FlatInitial
04:27:02.104 PM 02/14/2016,Teleop Enabled,0,FALSE,0,NO ERROR,-5999.414062,5996.484375,-6000.000000,-6000.000000,Speed,Speed,-0.230000,1.190000,2.280000,1.000000,103.000000,1,1,-0.023928,-0.023928,1,0.000000,0.263428,0.000000,-98.369293,10.794464,0.000000,0.014000,0.026000,-0.064000,FlatInitial
04:27:02.204 PM 02/14/2016,Teleop Enabled,0,FALSE,0,NO ERROR,-6002.929688,5995.312500,-6000.000000,-6000.000000,Speed,Speed,-0.240000,1.190000,2.230000,1.000000,104.000000,1,1,-0.023928,-0.023928,1,-0.006790,0.309586,0.000000,-98.369537,10.809143,0.000000,-0.023000,0.021000,-0.058000,FlatInitial
04:27:02.304 PM 02/14/2016,Teleop Enabled,0,FALSE,0,NO ERROR,-6005.273438,5994.140625,-6000.000000,-6000.000000,Speed,Speed,-0.230000,1.170000,2.160000,1.000000,110.000000,1,1,-0.023928,-0.023928,1,-0.027664,0.376877,0.000000,-98.370850,10.833221,0.000000,0.000000,0.057000,-0.100000,FlatInitial
04:27:02.404 PM 02/14/2016,Teleop Enabled,0,FALSE,0,NO ERROR,-6002.929688,5996.484375,-6000.000000,-6000.000000,Speed,Speed,-0.230000,1.170000,2.080000,1.000000,101.000000,1,1,-0.023928,-0.023928,1,-0.006851,0.003586,0.000000,-98.370987,10.841019,0.000000,-0.036000,0.039000,-0.086000,FlatInitial
04:27:02.504 PM 02/14/2016,Teleop Enabled,0,FALSE,0,NO ERROR,-6001.757812,6000.585938,-6000.000000,-6000.000000,Speed,Speed,-0.230000,1.180000,1.940000,1.000000,103.000000,1,1,-0.023928,-0.023928,1,-0.018433,0.030212,0.000000,-98.371689,10.842072,0.000000,-0.018000,0.040000,-0.075000,FlatInitial
04:27:02.604 PM 02/14/2016,Teleop Enabled,0,FALSE,0,NO ERROR,-6001.171875,6002.343750,-6000.000000,-6000.000000,Speed,Speed,-0.240000,1.190000,1.810000,1.000000,101.000000,1,1,-0.023928,-0.023928,1,0.000000,0.048050,0.000000,-98.372803,10.844193,0.000000,0.006000,0.048000,-0.101000,FlatInitial
04:27:02.704 PM 02/14/2016,Teleop Enabled,0,FALSE,0,NO ERROR,-6000.000000,6003.515625,-6000.000000,-6000.000000,Speed,Speed,-0.240000,1.190000,1.810000,1.000000,102.000000,1,1,-0.023928,-0.023928,1,0.000000,0.048050,0.000000,-98.372803,10.844193,0.000000,0.006000,0.048000,-0.101000,FlatInitial
04:27:02.804 PM 02/14/2016,Teleop Enabled,0,FALSE,0,NO ERROR,-6001.171875,6005.273438,-6000.000000,-6000.000000,Speed,Speed,-0.230000,1.220000,1.570000,1.000000,103.000000,1,1,-0.023928,-0.023928,1,-0.012131,0.090790,0.000000,-98.373016,10.849335,0.000000,-0.022000,0.027000,-0.076000,FlatInitial
04:27:02.904 PM 02/14/2016,Teleop Enabled,0,FALSE,0,NO ERROR,-6001.757812,6005.859375,-6000.000000,-6000.000000,Speed,Speed,-0.230000,1.210000,1.350000,1.000000,100.000000,1,1,-0.023928,-0.023928,1,-0.050690,0.004990,0.000000,-98.375763,10.856949,0.000000,-0.043000,0.054000,-0.076000,FlatInitial
04:27:03.004 PM 02/14/2016,Teleop Enabled,0,FALSE,0,NO ERROR,-6000.000000,6004.101562,-6000.000000,-6000.000000,Speed,Speed,-0.230000,1.210000,1.350000,1.000000,102.000000,1,1,-0.023928,-0.023928,1,-0.050690,0.004990,0.000000,-98.375763,10.856949,0.000000,-0.029000,0.081000,-0.089000,FlatInitial
04:27:03.105 PM 02/14/2016,Teleop Enabled,0,FALSE,0,NO ERROR,-6000.585938,6001.757812,-6000.000000,-6000.000000,Speed,Speed,-0.230000,1.220000,1.160000,1.000000,102.000000,1,1,-0.023928,-0.023928,1,-0.103546,0.057312,0.000000,-98.382874,10.860580,0.000000,-0.031000,0.027000,-0.074000,FlatInitial
04:27:03.205 PM 02/14/2016,Teleop Enabled,0,FALSE,0,NO ERROR,-6000.000000,6000.000000,-6000.000000,-6000.000000,Speed,Speed,-0.230000,1.220000,1.160000,1.000000,102.000000,1,1,-0.023928,-0.023928,1,-0.103546,0.057312,0.000000,-98.382874,10.860580,0.000000,-0.031000,0.027000,-0.074000,FlatInitial
04:27:03.306 PM 02/14/2016,Teleop Enabled,0,FALSE,0,NO ERROR,-5998.242188,5997.656250,-6000.000000,-6000.000000,Speed,Speed,-0.240000,1.220000,1.060000,1.000000,104.000000,1,1,-0.023928,-0.023928,1,-0.150375,0.103470,0.000000,-98.393219,10.867584,0.000000,0.002000,0.009000,-0.041000,FlatInitial
04:27:03.407 PM 02/14/2016,Teleop Enabled,0,FALSE,0,NO ERROR,-5996.484375,5994.726562,-6000.000000,-6000.000000,Speed,Speed,-0.230000,1.220000,0.880000,1.000000,104.000000,1,1,-0.023928,-0.023928,1,-0.175781,0.144348,0.000000,-98.404572,10.876175,0.000000,-0.014000,0.058000,-0.085000,FlatInitial
04:27:03.508 PM 02/14/2016,Teleop Enabled,0,FALSE,0,NO ERROR,-5994.726562,5995.312500,-6000.000000,-6000.000000,Speed,Speed,-0.240000,1.250000,0.810000,1.000000,102.000000,1,1,-0.023928,-0.023928,1,-0.201035,0.189148,0.000000,-98.414062,10.884872,0.000000,-0.014000,0.058000,-0.085000,FlatInitial
04:27:03.609 PM 02/14/2016,Teleop Enabled,0,FALSE,0,NO ERROR,-5994.726562,5994.140625,-6000.000000,-6000.000000,Speed,Speed,-0.240000,1.240000,0.740000,1.000000,106.000000,1,1,-0.023928,-0.023928,1,-0.232758,0.235779,0.000000,-98.427094,10.897766,0.000000,-0.021000,0.044000,-0.098000,FlatInitial
04:27:03.709 PM 02/14/2016,Teleop Enabled,0,FALSE,0,NO ERROR,-5994.140625,5994.140625,-6000.000000,-6000.000000,Speed,Speed,-0.240000,1.240000,0.740000,1.000000,102.000000,1,1,-0.023928,-0.023928,1,-0.232758,0.235779,0.000000,-98.427094,10.897766,0.000000,-0.021000,0.044000,-0.098000,FlatInitial
04:27:03.810 PM 02/14/2016,Teleop Enabled,0,FALSE,0,NO ERROR,-5995.312500,5995.898438,-6000.000000,-6000.000000,Speed,Speed,-0.240000,1.230000,0.670000,1.000000,104.000000,1,1,-0.023928,-0.023928,1,-0.267578,0.307861,0.000000,-98.444855,10.917496,0.000000,-0.020000,-0.002000,-0.099000,FlatInitial
04:27:03.910 PM 02/14/2016,Teleop Enabled,0,FALSE,0,NO ERROR,-5996.484375,5999.414062,-6000.000000,-6000.000000,Speed,Speed,-0.240000,1.230000,0.660000,1.000000,100.000000,1,1,-0.023928,-0.023928,1,-0.304962,0.381378,0.000000,-98.468018,10.945496,0.000000,-0.038000,0.011000,-0.061000,FlatInitial
04:27:04.011 PM 02/14/2016,Teleop Enabled,0,FALSE,0,NO ERROR,-5998.242188,6002.343750,-6000.000000,-6000.000000,Speed,Speed,-0.240000,1.230000,0.620000,1.000000,101.000000,1,1,-0.023928,-0.023928,1,-0.319748,0.409286,0.000000,-98.480652,10.961502,0.000000,-0.058000,0.081000,-0.097000,FlatInitial
04:27:04.116 PM 02/14/2016,Teleop Enabled,0,FALSE,0,NO ERROR,-6000.585938,6004.101562,-6000.000000,-6000.000000,Speed,Speed,-0.240000,1.230000,0.620000,1.000000,102.000000,1,1,-0.023928,-0.023928,1,-0.319748,0.409286,0.000000,-98.480652,10.961502,0.000000,-0.025000,0.030000,-0.067000,FlatInitial
04:27:04.218 PM 02/14/2016,Teleop Enabled,0,FALSE,0,NO ERROR,-6002.343750,6009.375000,-6000.000000,-6000.000000,Speed,Speed,-0.240000,1.250000,0.510000,1.000000,100.000000,1,1,-0.023928,-0.023928,1,-0.010101,0.503723,0.000000,-98.500320,11.012436,0.000000,-0.027000,0.051000,-0.100000,FlatInitial
04:27:04.319 PM 02/14/2016,Teleop Enabled,0,FALSE,0,NO ERROR,-6004.687500,6007.031250,-6000.000000,-6000.000000,Speed,Speed,-0.240000,1.250000,0.510000,1.000000,103.000000,1,1,-0.023928,-0.023928,1,-0.041153,0.543137,0.000000,-98.501831,11.043884,0.000000,-0.027000,0.051000,-0.100000,FlatInitial
04:27:04.421 PM 02/14/2016,Teleop Enabled,0,FALSE,0,NO ERROR,-6006.445312,6008.789062,-6000.000000,-6000.000000,Speed,Speed,-0.240000,1.310000,0.380000,1.000000,105.000000,1,1,-0.023928,-0.023928,1,-0.062531,0.562363,0.000000,-98.504013,11.066101,0.000000,-0.055000,0.026000,-0.098000,FlatInitial
04:27:04.522 PM 02/14/2016,Teleop Enabled,0,FALSE,0,NO ERROR,-6007.031250,6010.546875,-6000.000000,-6000.000000,Speed,Speed,-0.240000,1.330000,0.300000,1.000000,106.000000,1,1,-0.023928,-0.023928,1,-0.101227,0.576828,0.000000,-98.509018,11.100128,0.000000,-0.018000,0.011000,-0.119000,FlatInitial
04:27:04.623 PM 02/14/2016,Teleop Enabled,0,FALSE,0,NO ERROR,-6007.031250,6005.859375,-6000.000000,-6000.000000,Speed,Speed,-0.250000,1.350000,0.170000,1.000000,101.000000,1,1,-0.023928,-0.023928,1,-0.143143,0.602463,0.000000,-98.515366,11.129669,0.000000,-0.036000,0.026000,-0.140000,FlatInitial
04:27:04.724 PM 02/14/2016,Teleop Enabled,0,FALSE,0,NO ERROR,-6007.031250,6001.171875,-6000.000000,-6000.000000,Speed,Speed,-0.250000,1.360000,0.090000,1.000000,102.000000,1,1,-0.023928,-0.023928,1,-0.181030,0.630234,0.000000,-98.523651,11.160583,0.000000,-0.036000,0.026000,-0.140000,FlatInitial
04:27:04.824 PM 02/14/2016,Teleop Enabled,0,FALSE,0,NO ERROR,-6005.273438,5998.242188,-6000.000000,-6000.000000,Speed,Speed,-0.250000,1.350000,0.070000,1.000000,102.000000,1,1,-0.023928,-0.023928,1,-0.239761,0.680374,0.000000,-98.534454,11.193451,0.000000,-0.047000,0.047000,-0.121000,FlatInitial
04:27:04.924 PM 02/14/2016,Teleop Enabled,0,FALSE,0,NO ERROR,-6002.929688,5998.242188,-6000.000000,-6000.000000,Speed,Speed,-0.250000,1.360000,0.020000,1.000000,102.000000,1,1,-0.023928,-0.023928,1,-0.304764,0.713730,0.000000,-98.548325,11.228500,0.000000,-0.069000,0.029000,-0.147000,FlatInitial
04:27:05.025 PM 02/14/2016,Teleop Enabled,0,FALSE,0,NO ERROR,-5998.828125,5998.242188,-6000.000000,-6000.000000,Speed,Speed,-0.250000,1.350000,0.070000,1.000000,103.000000,1,1,-0.023928,-0.023928,1,-0.375305,0.778931,0.000000,-98.565735,11.265991,0.000000,-0.079000,0.046000,-0.129000,FlatInitial
04:27:05.125 PM 02/14/2016,Teleop Enabled,0,FALSE,0,NO ERROR,-5996.484375,5994.140625,-6000.000000,-6000.000000,Speed,Speed,-0.240000,1.330000,0.000000,1.000000,101.000000,1,1,-0.023928,-0.023928,1,-0.447250,0.812576,0.000000,-98.586655,11.306000,0.000000,-0.055000,0.053000,-0.121000,FlatInitial
04:27:05.227 PM 02/14/2016,Teleop Enabled,0,FALSE,0,NO ERROR,-5996.484375,5991.796875,-6000.000000,-6000.000000,Speed,Speed,-0.240000,1.330000,0.000000,1.000000,104.000000,1,1,-0.023928,-0.023928,1,-0.505981,0.852371,0.000000,-98.610840,11.347656,0.000000,-0.045000,0.052000,-0.148000,FlatInitial
04:27:05.327 PM 02/14/2016,Teleop Enabled,0,FALSE,0,NO ERROR,-5994.140625,5991.796875,-6000.000000,-6000.000000,Speed,Speed,-0.240000,1.300000,0.000000,1.000000,100.000000,1,1,-0.023928,-0.023928,1,-0.574982,0.878448,0.000000,-98.643646,11.400009,0.000000,-0.045000,0.052000,-0.148000,FlatInitial
04:27:05.428 PM 02/14/2016,Teleop Enabled,0,FALSE,0,NO ERROR,-5995.312500,5994.726562,-6000.000000,-6000.000000,Speed,Speed,-0.240000,1.300000,-0.060000,1.000000,102.000000,1,1,-0.023928,-0.023928,1,-0.614899,0.889313,0.000000,-98.667694,11.435364,0.000000,-0.061000,0.027000,-0.117000,FlatInitial
04:27:05.529 PM 02/14/2016,Teleop Enabled,0,FALSE,0,NO ERROR,-5997.656250,6002.929688,-6000.000000,-6000.000000,Speed,Speed,-0.240000,1.280000,-0.120000,1.000000,100.000000,1,1,-0.023928,-0.023928,1,-0.688980,0.935638,0.000000,-98.707199,11.490234,0.000000,-0.056000,0.054000,-0.128000,FlatInitial
04:27:05.630 PM 02/14/2016,Teleop Enabled,0,FALSE,0,NO ERROR,-6004.101562,6009.375000,-6000.000000,-6000.000000,Speed,Speed,-0.240000,1.290000,-0.210000,1.000000,103.000000,1,1,-0.023928,-0.023928,1,-0.730453,0.948456,0.000000,-98.735794,11.528000,0.000000,-0.056000,0.054000,-0.128000,FlatInitial
04:27:05.732 PM 02/14/2016,Teleop Enabled,0,FALSE,0,NO ERROR,-6008.789062,6009.375000,-6000.000000,-6000.000000,Speed,Speed,-0.250000,1.300000,-0.180000,1.000000,102.000000,1,1,-0.023928,-0.023928,1,-0.815201,1.016769,0.000000,-98.782516,11.587128,0.000000,-0.084000,0.060000,-0.109000,FlatInitial
04:27:05.834 PM 02/14/2016,Teleop Enabled,0,FALSE,0,NO ERROR,-6010.546875,6007.617188,-6000.000000,-6000.000000,Speed,Speed,-0.250000,1.320000,-0.190000,1.000000,102.000000,1,1,-0.023928,-0.023928,1,-0.900848,1.064880,0.000000,-98.825790,11.639496,0.000000,-0.085000,0.071000,-0.103000,FlatInitial
04:27:05.936 PM 02/14/2016,Teleop Enabled,0,FALSE,0,NO ERROR,-6006.445312,6006.445312,-6000.000000,-6000.000000,Speed,Speed,-0.250000,1.330000,-0.120000,1.000000,103.000000,1,1,-0.023928,-0.023928,1,-0.977722,1.129700,0.000000,-98.873199,11.694702,0.000000,-0.085000,0.071000,-0.103000,FlatInitial
04:27:06.036 PM 02/14/2016,Teleop Enabled,0,FALSE,0,NO ERROR,-6006.445312,6006.445312,-6000.000000,-6000.000000,Speed,Speed,-0.250000,1.330000,-0.070000,1.000000,104.000000,1,1,-0.023928,-0.023928,1,-1.056717,1.202438,0.000000,-98.924591,11.753448,0.000000,-0.056000,0.064000,-0.115000,FlatInitial
04:27:06.137 PM 02/14/2016,Teleop Enabled,0,FALSE,0,NO ERROR,-6004.687500,6008.203125,-6000.000000,-6000.000000,Speed,Speed,-0.250000,1.330000,-0.070000,1.000000,105.000000,1,1,-0.023928,-0.023928,1,-1.148590,1.286682,0.000000,-98.980225,11.816040,0.000000,-0.131000,0.089000,-0.123000,FlatInitial
04:27:06.243 PM 02/14/2016,Teleop Enabled,0,FALSE,0,NO ERROR,-6004.687500,6003.515625,-6000.000000,-6000.000000,Speed,Speed,-0.250000,1.320000,0.140000,1.000000,104.000000,1,1,-0.023928,-0.023928,1,-1.248596,1.375458,0.000000,-99.040649,11.883240,0.000000,-0.116000,0.107000,-0.121000,FlatInitial
04:27:06.344 PM 02/14/2016,Teleop Enabled,0,FALSE,0,NO ERROR,-6002.343750,6001.171875,-6000.000000,-6000.000000,Speed,Speed,-0.250000,1.310000,0.240000,1.000000,102.000000,1,1,-0.023928,-0.023928,1,-1.357224,1.463470,0.000000,-99.106400,11.954803,0.000000,-0.150000,0.113000,-0.128000,FlatInitial
04:27:06.446 PM 02/14/2016,Teleop Enabled,0,FALSE,0,NO ERROR,-5999.414062,5997.070312,-6000.000000,-6000.000000,Speed,Speed,-0.260000,1.320000,0.370000,1.000000,102.000000,1,1,-0.023928,-0.023928,1,-1.456787,1.554184,0.000000,-99.177170,12.031097,0.000000,-0.109000,0.093000,-0.125000,FlatInitial
04:27:06.546 PM 02/14/2016,Teleop Enabled,0,FALSE,0,NO ERROR,-5996.484375,5987.695312,-6000.000000,-6000.000000,Speed,Speed,-0.250000,1.300000,0.470000,1.000000,102.000000,1,1,-0.023928,-0.023928,1,-1.547470,1.624710,0.000000,-99.252747,12.110977,0.000000,-0.075000,0.100000,-0.102000,FlatInitial
04:27:06.646 PM 02/14/2016,Teleop Enabled,0,FALSE,0,NO ERROR,-5993.554688,5991.796875,-6000.000000,-6000.000000,Speed,Speed,-0.250000,1.300000,0.590000,1.000000,102.000000,1,1,-0.023928,-0.023928,1,-1.630585,1.706451,0.000000,-99.332642,12.194641,0.000000,-0.075000,0.100000,-0.102000,FlatInitial
04:27:06.746 PM 02/14/2016,Teleop Enabled,0,FALSE,0,NO ERROR,-5993.554688,5997.656250,-6000.000000,-6000.000000,Speed,Speed,-0.250000,1.290000,0.670000,1.000000,103.000000,1,1,-0.023928,-0.023928,1,-1.630585,1.706451,0.000000,-99.332642,12.194641,0.000000,-0.107000,0.065000,-0.107000,FlatInitial
04:27:06.846 PM 02/14/2016,Teleop Enabled,0,FALSE,0,NO ERROR,-5994.140625,6001.171875,-6000.000000,-6000.000000,Speed,Speed,-0.250000,1.280000,0.710000,1.000000,102.000000,1,1,-0.023928,-0.023928,1,-1.803558,1.840454,0.000000,-99.505157,12.372757,0.000000,-0.122000,0.071000,-0.134000,FlatInitial
04:27:06.948 PM 02/14/2016,Teleop Enabled,0,FALSE,0,NO ERROR,-5995.312500,6002.929688,-6000.000000,-6000.000000,Speed,Speed,-0.250000,1.280000,0.730000,1.000000,103.000000,1,1,-0.023928,-0.023928,1,-1.922058,1.933167,0.000000,-99.617493,12.486450,0.000000,-0.116000,0.075000,-0.134000,FlatInitial
04:27:07.048 PM 02/14/2016,Teleop Enabled,0,FALSE,0,NO ERROR,-5997.656250,6006.445312,-6000.000000,-6000.000000,Speed,Speed,-0.250000,1.280000,0.730000,1.000000,102.000000,1,1,-0.023928,-0.023928,1,-2.004684,1.989761,0.000000,-99.696396,12.565231,0.000000,-0.125000,0.084000,-0.138000,FlatInitial
04:27:07.148 PM 02/14/2016,Teleop Enabled,0,FALSE,0,NO ERROR,-6002.343750,6006.445312,-6000.000000,-6000.000000,Speed,Speed,-0.260000,1.300000,0.830000,1.000000,102.000000,1,1,-0.023928,-0.023928,1,-2.004684,1.989761,0.000000,-99.696396,12.565231,0.000000,-0.112000,0.156000,-0.132000,FlatInitial
04:27:07.250 PM 02/14/2016,Teleop Enabled,0,FALSE,0,NO ERROR,-6005.859375,6001.757812,-6000.000000,-6000.000000,Speed,Speed,-0.260000,1.310000,0.900000,1.000000,104.000000,1,1,-0.023928,-0.023928,1,-2.208176,2.165680,0.000000,-99.908020,12.774521,0.000000,-0.095000,0.096000,-0.139000,FlatInitial
04:27:07.350 PM 02/14/2016,Teleop Enabled,0,FALSE,0,NO ERROR,-6008.789062,5999.414062,-6000.000000,-6000.000000,Speed,Speed,-0.260000,1.300000,1.000000,1.000000,102.000000,1,1,-0.023928,-0.023928,1,-2.333252,2.265564,0.000000,-100.044769,12.907928,0.000000,-0.118000,0.113000,-0.141000,FlatInitial
04:27:07.450 PM 02/14/2016,Teleop Enabled,0,FALSE,0,NO ERROR,-6009.960938,5998.828125,-6000.000000,-6000.000000,Speed,Speed,-0.260000,1.300000,1.000000,1.000000,101.000000,1,1,-0.023928,-0.023928,1,-2.428711,2.366562,0.000000,-100.164261,13.024368,0.000000,-0.127000,0.121000,-0.092000,FlatInitial
04:27:07.551 PM 02/14/2016,Teleop Enabled,0,FALSE,0,NO ERROR,-6004.687500,5995.312500,-6000.000000,-6000.000000,Speed,Speed,-0.260000,1.310000,1.200000,1.000000,104.000000,1,1,-0.023928,-0.023928,1,-2.428711,2.366562,0.000000,-100.164261,13.024368,0.000000,-0.120000,0.114000,-0.129000,FlatInitial
04:27:07.651 PM 02/14/2016,Teleop Enabled,0,FALSE,0,NO ERROR,-6000.585938,5991.210938,-6000.000000,-6000.000000,Speed,Speed,-0.260000,1.300000,1.400000,1.000000,102.000000,1,1,-0.023928,-0.023928,1,-2.535706,2.471786,0.000000,-100.288956,13.145889,0.000000,-0.110000,0.098000,-0.119000,FlatInitial
04:27:07.752 PM 02/14/2016,Teleop Enabled,0,FALSE,0,NO ERROR,-5998.828125,5994.140625,-6000.000000,-6000.000000,Speed,Speed,-0.260000,1.290000,1.570000,1.000000,102.000000,1,1,-0.023928,-0.023928,1,-2.640442,2.567291,0.000000,-100.418777,13.272308,0.000000,-0.067000,0.053000,-0.142000,FlatInitial
04:27:07.853 PM 02/14/2016,Teleop Enabled,0,FALSE,0,NO ERROR,-5996.484375,5996.484375,-6000.000000,-6000.000000,Speed,Speed,-0.270000,1.270000,1.750000,1.000000,101.000000,1,1,-0.023928,-0.023928,1,-2.750061,2.658600,0.000000,-100.554077,13.403336,0.000000,-0.111000,0.095000,-0.144000,FlatInitial
04:27:07.954 PM 02/14/2016,Teleop Enabled,0,FALSE,0,NO ERROR,-5994.140625,5998.242188,-6000.000000,-6000.000000,Speed,Speed,-0.270000,1.260000,1.870000,1.000000,103.000000,1,1,-0.023928,-0.023928,1,-2.870087,2.750580,0.000000,-100.723251,13.566147,0.000000,-0.094000,0.052000,-0.099000,FlatInitial
04:27:08.055 PM 02/14/2016,Teleop Enabled,0,FALSE,0,NO ERROR,-5992.382812,5998.828125,-6000.000000,-6000.000000,Speed,Speed,-0.260000,1.240000,1.990000,1.000000,102.000000,1,1,-0.023928,-0.023928,1,-2.947388,2.810699,0.000000,-100.839981,13.677704,0.000000,-0.066000,0.068000,-0.120000,FlatInitial
04:27:08.155 PM 02/14/2016,Teleop Enabled,0,FALSE,0,NO ERROR,-5991.210938,6002.343750,-6000.000000,-6000.000000,Speed,Speed,-0.260000,1.240000,2.050000,1.000000,102.000000,1,1,-0.023928,-0.023928,1,-3.063675,2.892670,0.000000,-101.020828,13.849228,0.000000,-0.074000,0.090000,-0.097000,FlatInitial
04:27:08.257 PM 02/14/2016,Teleop Enabled,0,FALSE,0,NO ERROR,-5994.140625,6004.101562,-6000.000000,-6000.000000,Speed,Speed,-0.260000,1.230000,2.110000,1.000000,103.000000,1,1,-0.023928,-0.023928,1,-3.159439,2.968842,0.000000,-101.176834,13.996109,0.000000,-0.072000,0.081000,-0.102000,FlatInitial
04:27:08.357 PM 02/14/2016,Teleop Enabled,0,FALSE,0,NO ERROR,-5997.656250,6001.757812,-6000.000000,-6000.000000,Speed,Speed,-0.260000,1.220000,2.180000,1.000000,102.000000,1,1,-0.023928,-0.023928,1,-3.245590,3.035950,0.000000,-101.305313,14.116440,0.000000,-0.083000,0.077000,-0.078000,FlatInitial
04:27:08.460 PM 02/14/2016,Teleop Enabled,0,FALSE,0,NO ERROR,-6003.515625,6004.101562,-6000.000000,-6000.000000,Speed,Speed,-0.260000,1.190000,2.230000,1.000000,103.000000,1,1,-0.023928,-0.023928,1,-3.383560,3.130325,0.000000,-101.504730,14.301880,0.000000,-0.080000,0.069000,-0.089000,FlatInitial
04:27:08.560 PM 02/14/2016,Teleop Enabled,0,FALSE,0,NO ERROR,-6008.203125,6001.171875,-6000.000000,-6000.000000,Speed,Speed,-0.260000,1.190000,2.330000,1.000000,104.000000,1,1,-0.023928,-0.023928,1,-3.523514,3.227524,0.000000,-101.712723,14.493073,0.000000,-0.132000,0.077000,-0.062000,FlatInitial
04:27:08.661 PM 02/14/2016,Teleop Enabled,0,FALSE,0,NO ERROR,-6009.960938,5998.828125,-6000.000000,-6000.000000,Speed,Speed,-0.270000,1.180000,2.420000,1.000000,102.000000,1,1,-0.023928,-0.023928,1,-3.618317,3.283310,0.000000,-101.856125,14.623474,0.000000,-0.116000,0.112000,-0.084000,FlatInitial
04:27:08.761 PM 02/14/2016,Teleop Enabled,0,FALSE,0,NO ERROR,-6007.617188,5999.414062,-6000.000000,-6000.000000,Speed,Speed,-0.260000,1.180000,2.560000,1.000000,104.000000,1,1,-0.023928,-0.023928,1,-3.729965,3.363266,0.000000,-102.040451,14.790070,0.000000,-0.087000,0.042000,-0.066000,FlatInitial
04:27:08.861 PM 02/14/2016,Teleop Enabled,0,FALSE,0,NO ERROR,-6001.757812,6004.101562,-6000.000000,-6000.000000,Speed,Speed,-0.260000,1.180000,2.680000,1.000000,102.000000,1,1,-0.023928,-0.023928,1,-3.839478,3.430573,0.000000,-102.230225,14.960220,0.000000,-0.098000,0.102000,-0.089000,FlatInitial
04:27:08.961 PM 02/14/2016,Teleop Enabled,0,FALSE,0,NO ERROR,-5998.242188,6003.515625,-6000.000000,-6000.000000,Speed,Speed,-0.260000,1.180000,2.830000,1.000000,103.000000,1,1,-0.023928,-0.023928,1,-3.954025,3.514511,0.000000,-102.425629,15.134338,0.000000,-0.146000,0.046000,-0.052000,FlatInitial
04:27:09.062 PM 02/14/2016,Teleop Enabled,0,FALSE,0,NO ERROR,-5997.070312,6005.273438,-6000.000000,-6000.000000,Speed,Speed,-0.270000,1.180000,2.950000,1.000000,108.000000,1,1,-0.023928,-0.023928,1,-4.072296,3.582504,0.000000,-102.626938,15.312134,0.000000,-0.134000,0.036000,-0.074000,FlatInitial
04:27:09.162 PM 02/14/2016,Teleop Enabled,0,FALSE,0,NO ERROR,-5994.140625,6005.273438,-6000.000000,-6000.000000,Speed,Speed,-0.260000,1.160000,3.030000,1.000000,101.000000,1,1,-0.023928,-0.023928,1,-4.194397,3.630554,0.000000,-102.834229,15.492569,0.000000,-0.097000,0.046000,-0.101000,FlatInitial
04:27:09.262 PM 02/14/2016,Teleop Enabled,0,FALSE,0,NO ERROR,-5994.140625,6004.687500,-6000.000000,-6000.000000,Speed,Speed,-0.260000,1.150000,3.120000,1.000000,104.000000,1,1,-0.023928,-0.023928,1,-4.331192,3.693527,0.000000,-103.090805,15.712906,0.000000,-0.124000,0.006000,-0.061000,FlatInitial
04:27:09.363 PM 02/14/2016,Teleop Enabled,0,FALSE,0,NO ERROR,-5996.484375,5999.414062,-6000.000000,-6000.000000,Speed,Speed,-0.260000,1.140000,3.140000,1.000000,102.000000,1,1,-0.023928,-0.023928,1,-4.443436,3.733948,0.000000,-103.310837,15.898621,0.000000,-0.096000,0.040000,-0.053000,FlatInitial
04:27:09.463 PM 02/14/2016,Teleop Enabled,0,FALSE,0,NO ERROR,-6000.000000,6000.585938,-6000.000000,-6000.000000,Speed,Speed,-0.270000,1.130000,3.210000,1.000000,102.000000,1,1,-0.023928,-0.023928,1,-4.547867,3.780884,0.000000,-103.536179,16.086899,0.000000,-0.099000,0.045000,-0.075000,FlatInitial
04:27:09.564 PM 02/14/2016,Teleop Enabled,0,FALSE,0,NO ERROR,-6004.101562,6000.000000,-6000.000000,-6000.000000,Speed,Speed,-0.260000,1.130000,3.320000,1.000000,103.000000,1,1,-0.023928,-0.023928,1,-4.654785,3.832214,0.000000,-103.766754,16.277344,0.000000,-0.123000,0.036000,-0.048000,FlatInitial
04:27:09.665 PM 02/14/2016,Teleop Enabled,0,FALSE,0,NO ERROR,-6005.273438,5999.414062,-6000.000000,-6000.000000,Speed,Speed,-0.260000,1.100000,3.440000,1.000000,103.000000,1,1,-0.023928,-0.023928,1,-4.738327,3.881012,0.000000,-103.955078,16.431808,0.000000,-0.123000,0.036000,-0.058000,FlatInitial
04:27:09.765 PM 02/14/2016,Teleop Enabled,0,FALSE,0,NO ERROR,-6005.859375,6000.585938,-6000.000000,-6000.000000,Speed,Speed,-0.260000,1.100000,3.550000,1.000000,101.000000,1,1,-0.023928,-0.023928,1,-4.844559,3.939606,0.000000,-104.195236,16.627716,0.000000,-0.112000,0.014000,-0.047000,FlatInitial
04:27:09.866 PM 02/14/2016,Teleop Enabled,0,FALSE,0,NO ERROR,-6004.101562,6002.929688,-6000.000000,-6000.000000,Speed,Speed,-0.260000,1.080000,3.660000,1.000000,101.000000,1,1,-0.023928,-0.023928,1,-4.979767,3.993469,0.000000,-104.490646,16.865753,0.000000,-0.128000,0.037000,-0.070000,FlatInitial
04:27:09.966 PM 02/14/2016,Teleop Enabled,0,FALSE,0,NO ERROR,-6001.757812,6000.000000,-6000.000000,-6000.000000,Speed,Speed,-0.270000,1.080000,3.720000,1.000000,102.000000,1,1,-0.023928,-0.023928,1,-5.077499,4.024628,0.000000,-104.742737,17.066620,0.000000,-0.106000,-0.042000,-0.057000,FlatInitial
04:27:10.067 PM 02/14/2016,Teleop Enabled,0,FALSE,0,NO ERROR,-5999.414062,6001.171875,-6000.000000,-6000.000000,Speed,Speed,-0.260000,1.070000,3.780000,1.000000,106.000000,1,1,-0.023928,-0.023928,1,-5.177185,4.059036,0.000000,-104.999649,17.268723,0.000000,-0.116000,0.082000,-0.064000,FlatInitial
04:27:10.167 PM 02/14/2016,Teleop Enabled,0,FALSE,0,NO ERROR,-5996.484375,6003.515625,-6000.000000,-6000.000000,Speed,Speed,-0.270000,1.060000,3.820000,1.000000,107.000000,1,1,-0.023928,-0.023928,1,-5.268356,4.085358,0.000000,-105.261292,17.472702,0.000000,-0.087000,0.055000,-0.045000,FlatInitial
04:27:10.268 PM 02/14/2016,Teleop Enabled,0,FALSE,0,NO ERROR,-5994.140625,6001.171875,-6000.000000,-6000.000000,Speed,Speed,-0.270000,1.060000,3.860000,1.000000,103.000000,1,1,-0.023928,-0.023928,1,-5.335007,4.104828,0.000000,-105.473709,17.636536,0.000000,-0.095000,0.044000,-0.091000,FlatInitial
04:27:10.369 PM 02/14/2016,Teleop Enabled,0,FALSE,0,NO ERROR,-5991.796875,5998.242188,-6000.000000,-6000.000000,Speed,Speed,-0.270000,1.040000,3.910000,1.000000,103.000000,1,1,-0.023928,-0.023928,1,-5.447113,4.133957,0.000000,-105.797745,17.883789,0.000000,-0.079000,0.066000,-0.061000,FlatInitial
04:27:10.469 PM 02/14/2016,Teleop Enabled,0,FALSE,0,NO ERROR,-5993.554688,5995.898438,-6000.000000,-6000.000000,Speed,Speed,-0.270000,1.040000,3.940000,1.000000,101.000000,1,1,-0.023928,-0.023928,1,-5.562012,0.003372,0.000000,-106.128555,18.008240,0.000000,-0.102000,0.081000,-0.080000,FlatInitial
04:27:10.569 PM 02/14/2016,Teleop Enabled,0,FALSE,0,NO ERROR,-6000.000000,5994.140625,-6000.000000,-6000.000000,Speed,Speed,-0.260000,1.020000,3.950000,1.000000,101.000000,1,1,-0.023928,-0.023928,1,-5.646362,0.023529,0.000000,-106.353119,18.008850,0.000000,-0.122000,0.003000,-0.074000,FlatInitial
04:27:10.670 PM 02/14/2016,Teleop Enabled,0,FALSE,0,NO ERROR,-6005.859375,5992.382812,-6000.000000,-6000.000000,Speed,Speed,-0.260000,1.020000,3.960000,1.000000,103.000000,1,1,-0.023928,-0.023928,1,-5.770554,0.038620,0.000000,-106.696304,18.011063,0.000000,-0.107000,0.063000,-0.037000,FlatInitial
04:27:10.771 PM 02/14/2016,Teleop Enabled,0,FALSE,0,NO ERROR,-6010.546875,5992.382812,-6000.000000,-6000.000000,Speed,Speed,-0.260000,1.000000,4.050000,1.000000,103.000000,1,1,-0.023928,-0.023928,1,-5.874268,0.074142,0.000000,-106.988007,18.013931,0.000000,-0.104000,0.088000,-0.075000,FlatInitial
04:27:10.873 PM 02/14/2016,Teleop Enabled,0,FALSE,0,NO ERROR,-6010.546875,5992.382812,-6000.000000,-6000.000000,Speed,Speed,-0.270000,1.010000,4.050000,1.000000,103.000000,1,1,-0.023928,-0.023928,1,-5.972260,0.096329,0.000000,-107.284592,18.018494,0.000000,-0.099000,0.026000,-0.062000,FlatInitial
04:27:10.977 PM 02/14/2016,Teleop Enabled,0,FALSE,0,NO ERROR,-6005.859375,6001.171875,-6000.000000,-6000.000000,Speed,Speed,-0.260000,1.060000,4.100000,1.000000,102.000000,1,1,-0.023928,-0.023928,1,-6.100250,0.138733,0.000000,-107.707657,18.026703,0.000000,-0.105000,0.044000,-0.088000,FlatInitial
