Time,RobotMode,AutoToRun,ErrorStatus, ErrorCode,ErrorSource,ActualRPM1,ActualRPM2,DesiredRPM1,DesiredRPM2,ControlMode1,ControlMode2,NavXYaw,NavXRoll,NavXPitch,ShooterState,LoopTime,IsLevel,IsAutoTargeting,LeftMotorOutput,RightMotorOutput,IsHaloDrive,NavXVelocityX,NavXVelocityY,NavXVelocityZ,NavXDisplacementX,NavXDisplacementY,NavXDisplacementZ,NavXAccelerationX,NavXAccelerationY,NavXAccelerationZ,AutoDefendState
04:31:04.754 PM 02/14/2016,Teleop Enabled,0,TRUE,91,Variant To Data in WPI_DigitalInputRefNum Registry Get.vi->Periodic Tasks.vi->Robot Main.vi,0.000000,0.000000,0.000000,0.000000,Speed,Speed,0.000000,1.150000,1.610000,0.000000,108.000000,1,0,-0.000000,0.000000,1,0.000000,0.000000,0.000000,-161.538025,7.260162,0.000000,0.002000,0.003000,0.000000,FlatInitial
04:31:04.854 PM 02/14/2016,Teleop Enabled,0,TRUE,-44007,<LOCATION>WPI_DigitalInputRefNum Registry Get.vi<CALLSTACK>WPI_DigitalInputRefNum Registry Get.vi< <Periodic Tasks.vi< <Robot Main.vi,0.000000,0.000000,0.000000,0.000000,Speed,Speed,0.000000,1.170000,1.610000,0.000000,104.000000,1,0,-0.000000,0.000000,1,0.006363,0.000000,0.000000,-161.537903,7.260162,0.000000,0.009000,-0.006000,0.049000,FlatInitial
04:31:04.956 PM 02/14/2016,Teleop Enabled,0,FALSE,0,NO ERROR,0.000000,0.000000,0.000000,0.000000,Speed,Speed,0.000000,1.210000,1.620000,0.000000,101.000000,1,0,-0.000000,0.000000,1,0.000000,0.000000,0.000000,-161.538071,7.260162,0.000000,-0.007000,-0.015000,-0.022000,FlatInitial
04:31:05.056 PM 02/14/2016,Teleop Enabled,0,FALSE,0,NO ERROR,0.000000,0.000000,0.000000,0.000000,Speed,Speed,-0.020000,1.120000,1.710000,0.000000,101.000000,1,0,-0.000000,0.000000,1,-0.005386,-0.025467,0.000000,-161.538132,7.259460,0.000000,-0.014000,0.000000,-0.053000,FlatInitial
04:31:05.156 PM 02/14/2016,Teleop Enabled,0,FALSE,0,NO ERROR,0.000000,0.000000,0.000000,0.000000,Speed,Speed,0.020000,1.170000,1.520000,0.000000,103.000000,1,0,-0.000000,0.000000,1,0.007126,0.000000,0.000000,-161.538208,7.259201,0.000000,0.013000,0.021000,-0.020000,FlatInitial
04:31:05.256 PM 02/14/2016,Teleop Enabled,0,FALSE,0,NO ERROR,0.000000,0.000000,0.000000,0.000000,Speed,Speed,0.030000,1.140000,1.690000,0.000000,109.000000,1,0,-0.000000,0.000000,1,0.000000,0.000000,0.000000,-161.537979,7.259399,0.000000,-0.014000,0.007000,-0.023000,FlatInitial
04:31:05.356 PM 02/14/2016,Teleop Enabled,0,FALSE,0,NO ERROR,0.000000,0.000000,0.000000,0.000000,Speed,Speed,-0.020000,1.160000,1.760000,0.000000,101.000000,1,0,-0.000000,0.000000,1,0.000000,0.000000,0.000000,-161.537781,7.259399,0.000000,-0.016000,0.000000,0.000000,FlatInitial
04:31:05.456 PM 02/14/2016,Teleop Enabled,0,FALSE,0,NO ERROR,0.000000,0.000000,0.000000,0.000000,Speed,Speed,-0.020000,1.140000,1.790000,0.000000,102.000000,1,0,-0.000000,0.000000,1,0.000000,0.000000,0.000000,-161.538025,7.259399,0.000000,0.016000,0.002000,-0.007000,FlatInitial
04:31:05.556 PM 02/14/2016,Teleop Enabled,0,FALSE,0,NO ERROR,0.000000,0.000000,0.000000,0.000000,Speed,Speed,-0.020000,1.120000,1.820000,0.000000,102.000000,1,0,-0.000000,0.000000,1,-0.003159,0.000000,0.000000,-161.538055,7.259399,0.000000,-0.020000,0.002000,0.009000,FlatInitial
04:31:05.656 PM 02/14/2016,Teleop Enabled,0,FALSE,0,NO ERROR,0.000000,0.000000,0.000000,0.000000,Speed,Speed,-0.030000,1.120000,1.820000,0.000000,101.000000,1,0,-0.000000,0.000000,1,0.000000,0.000000,0.000000,-161.538147,7.259399,0.000000,-0.002000,0.008000,0.007000,FlatInitial
04:31:05.757 PM 02/14/2016,Teleop Enabled,0,FALSE,0,NO ERROR,0.000000,0.000000,0.000000,0.000000,Speed,Speed,-0.030000,1.110000,1.880000,0.000000,102.000000,1,0,-0.000000,0.000000,1,0.000000,0.000000,0.000000,-161.538147,7.259399,0.000000,0.000000,-0.006000,-0.006000,FlatInitial
04:31:05.857 PM 02/14/2016,Teleop Enabled,0,FALSE,0,NO ERROR,0.000000,0.000000,0.000000,0.000000,Speed,Speed,-0.030000,1.100000,1.890000,0.000000,105.000000,1,0,-0.000000,0.000000,1,0.000000,0.000000,0.000000,-161.538147,7.259399,0.000000,-0.003000,-0.009000,-0.002000,FlatInitial
04:31:05.958 PM 02/14/2016,Teleop Enabled,0,FALSE,0,NO ERROR,0.000000,0.000000,0.000000,0.000000,Speed,Speed,-0.050000,1.100000,1.930000,0.000000,102.000000,1,0,-0.000000,0.000000,1,0.000000,0.000000,0.000000,-161.538147,7.259399,0.000000,-0.004000,0.002000,-0.002000,FlatInitial
04:31:06.058 PM 02/14/2016,Teleop Enabled,0,FALSE,0,NO ERROR,0.000000,0.000000,0.000000,0.000000,Speed,Speed,-0.040000,1.090000,1.950000,0.000000,102.000000,1,0,-0.000000,0.000000,1,0.000000,0.000000,0.000000,-161.538147,7.259399,0.000000,0.001000,0.011000,0.000000,FlatInitial
04:31:06.158 PM 02/14/2016,Teleop Enabled,0,FALSE,0,NO ERROR,0.000000,0.000000,0.000000,0.000000,Speed,Speed,-0.010000,1.090000,1.970000,0.000000,103.000000,1,0,-0.000000,0.000000,1,0.000000,0.000000,0.000000,-161.538147,7.259399,0.000000,-0.003000,-0.007000,0.013000,FlatInitial
04:31:06.258 PM 02/14/2016,Teleop Enabled,0,FALSE,0,NO ERROR,0.000000,0.000000,0.000000,0.000000,Speed,Speed,0.080000,1.100000,1.860000,0.000000,101.000000,1,0,-0.000000,0.000000,1,0.000000,-0.006577,0.000000,-161.538147,7.259308,0.000000,0.017000,-0.005000,-0.006000,FlatInitial
04:31:06.358 PM 02/14/2016,Teleop Enabled,0,FALSE,0,NO ERROR,0.000000,0.000000,0.000000,0.000000,Speed,Speed,0.110000,1.080000,1.890000,0.000000,103.000000,1,0,-0.000000,0.000000,1,0.000000,0.000000,0.000000,-161.538147,7.259232,0.000000,-0.008000,-0.003000,-0.005000,FlatInitial
04:31:06.459 PM 02/14/2016,Teleop Enabled,0,FALSE,0,NO ERROR,0.000000,0.000000,0.000000,0.000000,Speed,Speed,0.110000,1.110000,1.830000,0.000000,103.000000,1,0,-0.000000,0.000000,1,0.000000,0.016678,0.000000,-161.538147,7.259552,0.000000,-0.009000,0.033000,0.038000,FlatInitial
04:31:06.560 PM 02/14/2016,Teleop Enabled,0,FALSE,0,NO ERROR,0.000000,0.000000,0.000000,0.000000,Speed,Speed,0.210000,1.120000,1.640000,0.000000,101.000000,1,0,-0.000000,0.000000,1,0.000320,-0.004547,0.000000,-161.538223,7.260696,0.000000,0.048000,-0.030000,-0.016000,FlatInitial
04:31:06.660 PM 02/14/2016,Teleop Enabled,0,FALSE,0,NO ERROR,0.000000,0.000000,0.000000,0.000000,Speed,Speed,0.360000,1.080000,1.780000,0.000000,102.000000,1,0,-0.000000,0.000000,1,-0.004364,-0.019608,0.000000,-161.538040,7.260086,0.000000,-0.046000,-0.013000,0.004000,FlatInitial
04:31:06.760 PM 02/14/2016,Teleop Enabled,0,FALSE,0,NO ERROR,0.000000,0.000000,0.000000,0.000000,Speed,Speed,0.300000,1.150000,1.710000,0.000000,102.000000,1,0,-0.000000,0.000000,1,0.000626,-0.018738,0.000000,-161.538651,7.259476,0.000000,0.013000,0.000000,-0.009000,FlatInitial
04:31:06.861 PM 02/14/2016,Teleop Enabled,0,FALSE,0,NO ERROR,0.000000,0.000000,0.000000,0.000000,Speed,Speed,0.260000,1.040000,1.710000,0.000000,101.000000,1,0,-0.000000,0.000000,1,-0.024292,0.015274,0.000000,-161.539169,7.259766,0.000000,-0.015000,0.024000,0.030000,FlatInitial
04:31:06.965 PM 02/14/2016,Teleop Enabled,0,FALSE,0,NO ERROR,0.000000,0.000000,0.000000,0.000000,Speed,Speed,0.500000,1.120000,1.840000,0.000000,104.000000,1,0,-0.000000,0.000000,1,0.000000,0.000000,0.000000,-161.539673,7.260513,0.000000,-0.003000,0.010000,-0.004000,FlatInitial
04:31:07.065 PM 02/14/2016,Teleop Enabled,0,FALSE,0,NO ERROR,0.000000,0.000000,0.000000,0.000000,Speed,Speed,0.380000,1.090000,1.900000,0.000000,104.000000,1,0,-0.000000,0.000000,1,-0.015518,0.019272,0.000000,-161.540268,7.261063,0.000000,0.027000,0.015000,0.020000,FlatInitial
04:31:07.166 PM 02/14/2016,Teleop Enabled,0,FALSE,0,NO ERROR,0.000000,0.000000,0.000000,0.000000,Speed,Speed,0.260000,1.090000,1.920000,0.000000,102.000000,1,0,-0.000000,0.000000,1,-0.011246,0.000000,0.000000,-161.540558,7.261063,0.000000,-0.037000,0.005000,0.024000,FlatInitial
04:31:07.266 PM 02/14/2016,Teleop Enabled,0,FALSE,0,NO ERROR,0.000000,0.000000,0.000000,0.000000,Speed,Speed,0.370000,1.140000,1.730000,0.000000,101.000000,1,0,-0.000000,0.000000,1,0.009766,0.000000,0.000000,-161.540588,7.261063,0.000000,0.024000,-0.012000,-0.014000,FlatInitial
04:31:07.367 PM 02/14/2016,Teleop Enabled,0,FALSE,0,NO ERROR,0.000000,0.000000,0.000000,0.000000,Speed,Speed,0.410000,1.090000,1.820000,0.000000,103.000000,1,0,-0.000000,0.000000,1,0.000000,0.000000,0.000000,-161.540466,7.261063,0.000000,0.004000,-0.007000,-0.005000,FlatInitial
04:31:07.468 PM 02/14/2016,Teleop Enabled,0,FALSE,0,NO ERROR,0.000000,0.000000,0.000000,0.000000,Speed,Speed,0.310000,1.120000,1.810000,1.000000,102.000000,1,0,-0.000000,0.000000,1,0.000000,0.000000,0.000000,-161.540466,7.261063,0.000000,0.000000,0.003000,0.000000,FlatInitial
04:31:07.570 PM 02/14/2016,Teleop Enabled,0,FALSE,0,NO ERROR,-236.425781,0.000000,-6000.000000,-6000.000000,Speed,Speed,0.270000,1.110000,1.860000,1.000000,103.000000,1,0,-0.000000,0.000000,1,0.000000,0.007431,0.000000,-161.540466,7.261185,0.000000,-0.020000,-0.004000,0.030000,FlatInitial
04:31:07.670 PM 02/14/2016,Teleop Enabled,0,FALSE,0,NO ERROR,-236.425781,250.634766,-6000.000000,-6000.000000,Speed,Speed,0.300000,1.080000,1.870000,1.000000,101.000000,1,0,-0.000000,0.000000,1,0.000000,0.002487,0.000000,-161.540512,7.261398,0.000000,0.019000,-0.044000,0.007000,FlatInitial
04:31:07.770 PM 02/14/2016,Teleop Enabled,0,FALSE,0,NO ERROR,-1863.134766,1540.576172,-6000.000000,-6000.000000,Speed,Speed,0.330000,1.110000,1.830000,1.000000,101.000000,1,0,-0.000000,0.000000,1,0.034714,-0.007095,0.000000,-161.539612,7.261169,0.000000,0.101000,-0.067000,-0.017000,FlatInitial
04:31:07.870 PM 02/14/2016,Teleop Enabled,0,FALSE,0,NO ERROR,-3214.746094,3309.521484,-6000.000000,-6000.000000,Speed,Speed,0.320000,1.100000,1.840000,1.000000,101.000000,1,0,-0.000000,0.000000,1,0.000000,-0.034775,0.000000,-161.537491,7.260071,0.000000,0.036000,0.030000,-0.099000,FlatInitial
04:31:07.971 PM 02/14/2016,Teleop Enabled,0,FALSE,0,NO ERROR,-4870.898438,4761.621094,-6000.000000,-6000.000000,Speed,Speed,0.300000,1.110000,1.910000,1.000000,104.000000,1,0,-0.000000,0.000000,1,0.028442,-0.007217,0.000000,-161.536728,7.258926,0.000000,0.019000,0.068000,0.119000,FlatInitial
04:31:08.071 PM 02/14/2016,Teleop Enabled,0,FALSE,0,NO ERROR,-5574.023438,5700.000000,-6000.000000,-6000.000000,Speed,Speed,0.290000,1.130000,1.930000,1.000000,103.000000,1,0,-0.000000,0.000000,1,-0.034409,0.006454,0.000000,-161.537186,7.259140,0.000000,-0.082000,0.048000,0.005000,FlatInitial
04:31:08.171 PM 02/14/2016,Teleop Enabled,0,FALSE,0,NO ERROR,-5990.625000,6059.765625,-6000.000000,-6000.000000,Speed,Speed,0.300000,1.150000,1.920000,1.000000,102.000000,1,0,-0.000000,0.000000,1,-0.107605,0.007355,0.000000,-161.540451,7.259674,0.000000,-0.075000,-0.020000,0.080000,FlatInitial
04:31:08.271 PM 02/14/2016,Teleop Enabled,0,FALSE,0,NO ERROR,-6116.015625,6138.867188,-6000.000000,-6000.000000,Speed,Speed,0.310000,1.130000,2.000000,1.000000,102.000000,1,0,-0.000000,0.000000,1,-0.160522,0.022736,0.000000,-161.549362,7.260147,0.000000,0.004000,-0.007000,0.116000,FlatInitial
04:31:08.371 PM 02/14/2016,Teleop Enabled,0,FALSE,0,NO ERROR,-6134.765625,6129.492188,-6000.000000,-6000.000000,Speed,Speed,0.290000,1.140000,1.890000,1.000000,102.000000,1,0,-0.000000,0.000000,1,0.005814,-0.000793,0.000000,-161.549240,7.260651,0.000000,0.000000,-0.010000,0.054000,FlatInitial
04:31:08.471 PM 02/14/2016,Teleop Enabled,0,FALSE,0,NO ERROR,-6109.570312,6094.335938,-6000.000000,-6000.000000,Speed,Speed,0.290000,1.150000,1.890000,1.000000,102.000000,1,0,-0.000000,0.000000,1,0.024277,-0.025101,0.000000,-161.548538,7.259720,0.000000,0.042000,-0.020000,-0.002000,FlatInitial
04:31:08.572 PM 02/14/2016,Teleop Enabled,0,FALSE,0,NO ERROR,-6082.031250,6061.523438,-6000.000000,-6000.000000,Speed,Speed,0.290000,1.120000,1.950000,1.000000,101.000000,1,0,-0.000000,0.000000,1,0.098557,-0.058548,0.000000,-161.545334,7.257538,0.000000,0.080000,-0.040000,-0.021000,FlatInitial
04:31:08.673 PM 02/14/2016,Teleop Enabled,0,FALSE,0,NO ERROR,-6053.906250,6037.500000,-6000.000000,-6000.000000,Speed,Speed,0.270000,1.100000,1.990000,1.000000,101.000000,1,0,-0.000000,0.000000,1,0.188049,-0.097870,0.000000,-161.537704,7.253296,0.000000,0.085000,-0.007000,-0.103000,FlatInitial
04:31:08.773 PM 02/14/2016,Teleop Enabled,0,FALSE,0,NO ERROR,-6033.398438,6024.609375,-6000.000000,-6000.000000,Speed,Speed,0.290000,1.080000,2.060000,1.000000,102.000000,1,0,-0.000000,0.000000,1,0.250809,-0.092163,0.000000,-161.526382,7.248322,0.000000,0.061000,0.020000,-0.103000,FlatInitial
04:31:08.874 PM 02/14/2016,Teleop Enabled,0,FALSE,0,NO ERROR,-6021.093750,6015.820312,-6000.000000,-6000.000000,Speed,Speed,0.290000,1.060000,2.150000,1.000000,103.000000,1,0,-0.000000,0.000000,1,0.319351,0.001389,0.000000,-161.511871,7.247498,0.000000,0.072000,-0.010000,-0.139000,FlatInitial
04:31:08.974 PM 02/14/2016,Teleop Enabled,0,FALSE,0,NO ERROR,-6011.132812,6012.304688,-6000.000000,-6000.000000,Speed,Speed,0.270000,1.050000,2.210000,1.000000,103.000000,1,0,-0.000000,0.000000,1,0.375259,0.014511,0.000000,-161.494064,7.247742,0.000000,0.023000,0.040000,-0.122000,FlatInitial
04:31:09.074 PM 02/14/2016,Teleop Enabled,0,FALSE,0,NO ERROR,-6006.445312,6009.960938,-6000.000000,-6000.000000,Speed,Speed,0.290000,1.060000,2.250000,1.000000,101.000000,1,0,-0.000000,0.000000,1,0.420624,0.023911,0.000000,-161.473984,7.248947,0.000000,0.064000,-0.003000,-0.171000,FlatInitial
04:31:09.174 PM 02/14/2016,Teleop Enabled,0,FALSE,0,NO ERROR,-6005.859375,6004.101562,-6000.000000,-6000.000000,Speed,Speed,0.260000,1.070000,2.270000,1.000000,101.000000,1,0,-0.000000,0.000000,1,0.474106,0.000000,0.000000,-161.451324,7.249191,0.000000,0.054000,-0.011000,-0.132000,FlatInitial
04:31:09.274 PM 02/14/2016,Teleop Enabled,0,FALSE,0,NO ERROR,-6004.101562,6005.273438,-6000.000000,-6000.000000,Speed,Speed,0.280000,1.070000,2.340000,1.000000,102.000000,1,0,-0.000000,0.000000,1,0.520645,0.010834,0.000000,-161.426270,7.249435,0.000000,0.088000,0.041000,-0.140000,FlatInitial
04:31:09.374 PM 02/14/2016,Teleop Enabled,0,FALSE,0,NO ERROR,-6003.515625,6008.203125,-6000.000000,-6000.000000,Speed,Speed,0.280000,1.100000,2.390000,1.000000,101.000000,1,0,-0.000000,0.000000,1,0.583847,0.026016,0.000000,-161.398392,7.250549,0.000000,0.047000,-0.014000,-0.122000,FlatInitial
04:31:09.474 PM 02/14/2016,Teleop Enabled,0,FALSE,0,NO ERROR,-6002.929688,6009.375000,-6000.000000,-6000.000000,Speed,Speed,0.270000,1.110000,2.340000,1.000000,103.000000,1,0,-0.000000,0.000000,1,0.626205,0.043030,0.000000,-161.367905,7.252121,0.000000,0.046000,-0.006000,-0.105000,FlatInitial
04:31:09.574 PM 02/14/2016,Teleop Enabled,0,FALSE,0,NO ERROR,-6004.687500,6007.617188,-6000.000000,-6000.000000,Speed,Speed,0.270000,1.130000,2.270000,1.000000,101.000000,1,0,-0.000000,0.000000,1,0.662735,0.005783,0.000000,-161.335449,7.252731,0.000000,0.040000,0.026000,-0.118000,FlatInitial
04:31:09.675 PM 02/14/2016,Teleop Enabled,0,FALSE,0,NO ERROR,-6005.273438,6005.859375,-6000.000000,-6000.000000,Speed,Speed,0.260000,1.160000,2.200000,1.000000,101.000000,1,0,-0.000000,0.000000,1,0.713547,0.015961,0.000000,-161.300781,7.253464,0.000000,0.013000,0.000000,-0.091000,FlatInitial
04:31:09.777 PM 02/14/2016,Teleop Enabled,0,FALSE,0,NO ERROR,-6003.515625,6005.273438,-6000.000000,-6000.000000,Speed,Speed,0.270000,1.170000,2.090000,1.000000,102.000000,1,1,0.000000,-0.000000,1,0.751404,0.000000,0.000000,-161.256714,7.253693,0.000000,0.038000,0.008000,-0.093000,FlatInitial
04:31:09.877 PM 02/14/2016,Teleop Enabled,0,FALSE,0,NO ERROR,-6001.757812,5998.828125,-6000.000000,-6000.000000,Speed,Speed,0.260000,1.200000,1.990000,1.000000,103.000000,1,1,0.000000,-0.000000,1,0.782806,0.008545,0.000000,-161.225967,7.253876,0.000000,0.048000,0.041000,-0.099000,FlatInitial
04:31:09.977 PM 02/14/2016,Teleop Enabled,0,FALSE,0,NO ERROR,-5999.414062,5995.312500,-6000.000000,-6000.000000,Speed,Speed,0.260000,1.230000,2.010000,1.000000,102.000000,1,1,0.000000,-0.000000,1,0.826675,0.029419,0.000000,-161.177368,7.255035,0.000000,0.014000,0.000000,-0.079000,FlatInitial
04:31:10.083 PM 02/14/2016,Teleop Enabled,0,FALSE,0,NO ERROR,-6001.171875,5994.140625,-6000.000000,-6000.000000,Speed,Speed,0.260000,1.260000,1.950000,1.000000,102.000000,1,1,0.000000,-0.000000,1,0.826675,0.029419,0.000000,-161.177368,7.255035,0.000000,0.014000,0.000000,-0.079000,FlatInitial
04:31:10.184 PM 02/14/2016,Teleop Enabled,0,FALSE,0,NO ERROR,-6000.585938,5992.382812,-6000.000000,-6000.000000,Speed,Speed,0.260000,1.260000,1.950000,1.000000,101.000000,1,1,-0.000000,-0.000000,1,0.885010,0.000000,0.000000,-161.117294,7.256210,0.000000,0.032000,-0.031000,-0.085000,FlatInitial
04:31:10.284 PM 02/14/2016,Teleop Enabled,0,FALSE,0,NO ERROR,-6001.757812,5991.210938,-6000.000000,-6000.000000,Speed,Speed,0.240000,1.290000,1.940000,1.000000,101.000000,1,1,-0.000000,-0.000000,1,0.929855,0.010529,0.000000,-161.044373,7.256378,0.000000,0.013000,0.013000,-0.094000,FlatInitial
04:31:10.384 PM 02/14/2016,Teleop Enabled,0,FALSE,0,NO ERROR,-6001.757812,5990.625000,-6000.000000,-6000.000000,Speed,Speed,0.260000,1.300000,2.010000,1.000000,101.000000,1,1,-0.000000,-0.000000,1,0.963470,-0.015717,0.000000,-160.996872,7.256256,0.000000,0.020000,-0.026000,-0.076000,FlatInitial
04:31:10.484 PM 02/14/2016,Teleop Enabled,0,FALSE,0,NO ERROR,-6001.171875,5995.312500,-6000.000000,-6000.000000,Speed,Speed,0.280000,1.310000,2.030000,1.000000,104.000000,1,1,-0.000000,-0.000000,1,1.001953,-0.040924,0.000000,-160.937653,7.254501,0.000000,0.021000,-0.025000,-0.045000,FlatInitial
04:31:10.585 PM 02/14/2016,Teleop Enabled,0,FALSE,0,NO ERROR,-6000.585938,5998.242188,-6000.000000,-6000.000000,Speed,Speed,0.250000,1.320000,2.050000,1.000000,103.000000,1,1,-0.000000,-0.000000,1,1.001953,-0.040924,0.000000,-160.937653,7.254501,0.000000,0.021000,-0.025000,-0.045000,FlatInitial
04:31:10.685 PM 02/14/2016,Teleop Enabled,0,FALSE,0,NO ERROR,-5997.656250,6004.101562,-6000.000000,-6000.000000,Speed,Speed,0.250000,1.340000,2.120000,1.000000,101.000000,1,1,0.000061,0.000061,1,1.066360,-0.070602,0.000000,-160.844162,7.249130,0.000000,0.008000,-0.018000,-0.057000,FlatInitial
04:31:10.786 PM 02/14/2016,Teleop Enabled,0,FALSE,0,NO ERROR,-5999.414062,6008.789062,-6000.000000,-6000.000000,Speed,Speed,0.270000,1.340000,2.100000,1.000000,102.000000,1,1,0.000061,0.000061,1,1.096054,-0.089691,0.000000,-160.789993,7.245346,0.000000,0.034000,-0.025000,-0.061000,FlatInitial
04:31:10.886 PM 02/14/2016,Teleop Enabled,0,FALSE,0,NO ERROR,-6001.171875,6009.960938,-6000.000000,-6000.000000,Speed,Speed,0.270000,1.360000,2.060000,1.000000,103.000000,1,1,0.000000,-0.000000,1,1.117798,-0.138611,0.000000,-160.734436,7.239456,0.000000,0.014000,0.013000,-0.065000,FlatInitial
04:31:10.988 PM 02/14/2016,Teleop Enabled,0,FALSE,0,NO ERROR,-6004.101562,6006.445312,-6000.000000,-6000.000000,Speed,Speed,0.240000,1.370000,2.010000,1.000000,103.000000,1,1,0.000000,-0.000000,1,0.001724,-0.003922,0.000000,-160.734467,7.233505,0.000000,0.031000,-0.031000,-0.101000,FlatInitial
04:31:11.088 PM 02/14/2016,Teleop Enabled,0,FALSE,0,NO ERROR,-6006.445312,6007.031250,-6000.000000,-6000.000000,Speed,Speed,0.240000,1.370000,2.010000,1.000000,103.000000,1,1,0.000061,0.000061,1,0.001724,-0.003922,0.000000,-160.734467,7.233505,0.000000,0.031000,-0.031000,-0.101000,FlatInitial
04:31:11.190 PM 02/14/2016,Teleop Enabled,0,FALSE,0,NO ERROR,-6008.789062,6003.515625,-6000.000000,-6000.000000,Speed,Speed,0.260000,1.360000,1.770000,1.000000,104.000000,1,1,-0.000000,-0.000000,1,0.015060,-0.035492,0.000000,-160.734146,7.232895,0.000000,0.027000,-0.094000,-0.112000,FlatInitial
04:31:11.291 PM 02/14/2016,Teleop Enabled,0,FALSE,0,NO ERROR,-6009.375000,5999.414062,-6000.000000,-6000.000000,Speed,Speed,0.250000,1.340000,1.690000,1.000000,103.000000,1,1,-0.000000,-0.000000,1,0.007141,-0.193604,0.000000,-160.732315,7.218887,0.000000,0.013000,-0.091000,-0.093000,FlatInitial
04:31:11.392 PM 02/14/2016,Teleop Enabled,0,FALSE,0,NO ERROR,-6008.203125,5997.656250,-6000.000000,-6000.000000,Speed,Speed,0.250000,1.340000,1.570000,1.000000,103.000000,1,1,-0.000000,-0.000000,1,0.002304,-0.294357,0.000000,-160.732162,7.203720,0.000000,0.022000,-0.091000,-0.114000,FlatInitial
04:31:11.493 PM 02/14/2016,Teleop Enabled,0,FALSE,0,NO ERROR,-6007.617188,6001.171875,-6000.000000,-6000.000000,Speed,Speed,0.250000,1.340000,1.570000,1.000000,112.000000,1,1,-0.000000,-0.000000,1,0.002304,-0.294357,0.000000,-160.732162,7.203720,0.000000,0.022000,-0.091000,-0.114000,FlatInitial
04:31:11.593 PM 02/14/2016,Teleop Enabled,0,FALSE,0,NO ERROR,-6006.445312,5999.414062,-6000.000000,-6000.000000,Speed,Speed,0.250000,1.300000,1.220000,1.000000,101.000000,1,0,-0.000000,-0.000000,1,-0.003326,-0.517075,0.000000,-160.732315,7.158630,0.000000,0.003000,-0.104000,-0.106000,FlatInitial
04:31:11.693 PM 02/14/2016,Teleop Enabled,0,FALSE,0,NO ERROR,-6004.101562,5999.414062,-6000.000000,-6000.000000,Speed,Speed,0.250000,1.300000,1.070000,1.000000,101.000000,1,0,-0.000000,0.000000,1,-0.003326,-0.517075,0.000000,-160.732315,7.158630,0.000000,-0.006000,-0.153000,-0.123000,FlatInitial
04:31:11.795 PM 02/14/2016,Teleop Enabled,0,FALSE,0,NO ERROR,-6001.757812,6001.171875,-6000.000000,-6000.000000,Speed,Speed,0.250000,1.250000,0.900000,1.000000,100.000000,1,0,-0.000000,0.000000,1,0.000000,-0.693756,0.000000,-160.732315,7.109039,0.000000,0.027000,-0.098000,-0.117000,FlatInitial
04:31:11.895 PM 02/14/2016,Teleop Enabled,0,FALSE,0,NO ERROR,-6000.000000,5998.828125,-6000.000000,-6000.000000,Speed,Speed,0.250000,1.230000,0.740000,1.000000,102.000000,1,0,-0.000000,0.000000,1,0.000000,-0.820770,0.000000,-160.732162,7.063034,0.000000,-0.008000,-0.133000,-0.132000,FlatInitial
04:31:11.995 PM 02/14/2016,Teleop Enabled,0,FALSE,0,NO ERROR,-5998.828125,5999.414062,-6000.000000,-6000.000000,Speed,Speed,0.250000,1.200000,0.620000,1.000000,101.000000,1,0,-0.000000,0.000000,1,0.006409,-0.922897,0.000000,-160.732071,7.018799,0.000000,0.020000,-0.096000,-0.123000,FlatInitial
04:31:12.095 PM 02/14/2016,Teleop Enabled,0,FALSE,0,NO ERROR,-5999.414062,6001.171875,-6000.000000,-6000.000000,Speed,Speed,0.250000,1.180000,0.450000,1.000000,102.000000,1,0,-0.000000,0.000000,1,0.000000,-1.024597,0.000000,-160.731995,6.969635,0.000000,-0.020000,-0.099000,-0.119000,FlatInitial
04:31:12.195 PM 02/14/2016,Teleop Enabled,0,FALSE,0,NO ERROR,-5999.414062,6000.585938,-6000.000000,-6000.000000,Speed,Speed,0.250000,1.180000,0.450000,1.000000,113.000000,1,0,-0.000000,0.000000,1,0.000000,-1.024597,0.000000,-160.731995,6.969635,0.000000,-0.020000,-0.099000,-0.119000,FlatInitial
04:31:12.295 PM 02/14/2016,Teleop Enabled,0,FALSE,0,NO ERROR,-5998.828125,5997.656250,-6000.000000,-6000.000000,Speed,Speed,0.240000,1.130000,0.210000,1.000000,101.000000,1,0,-0.000000,0.000000,1,-0.002975,-1.213882,0.000000,-160.732147,6.856842,0.000000,0.012000,-0.091000,-0.138000,FlatInitial
04:31:12.395 PM 02/14/2016,Teleop Enabled,0,FALSE,0,NO ERROR,-5998.828125,5997.656250,-6000.000000,-6000.000000,Speed,Speed,0.240000,1.130000,0.080000,1.000000,101.000000,1,0,-0.000000,0.000000,1,0.000000,-1.309067,0.000000,-160.732346,6.793213,0.000000,0.004000,-0.048000,-0.136000,FlatInitial
04:31:12.495 PM 02/14/2016,Teleop Enabled,0,FALSE,0,NO ERROR,-5997.656250,5997.070312,-6000.000000,-6000.000000,Speed,Speed,0.240000,1.110000,0.000000,1.000000,102.000000,1,0,-0.000000,0.000000,1,0.004013,-1.408722,0.000000,-160.732285,6.711166,0.000000,0.004000,-0.048000,-0.136000,FlatInitial
04:31:12.595 PM 02/14/2016,Teleop Enabled,0,FALSE,0,NO ERROR,-5994.726562,5994.140625,-6000.000000,-6000.000000,Speed,Speed,0.250000,1.100000,-0.080000,1.000000,103.000000,1,0,-0.000000,0.000000,1,0.000000,-1.484116,0.000000,-160.732239,6.653030,0.000000,0.021000,-0.094000,-0.140000,FlatInitial
04:31:12.696 PM 02/14/2016,Teleop Enabled,0,FALSE,0,NO ERROR,-5993.554688,5992.968750,-6000.000000,-6000.000000,Speed,Speed,0.240000,1.080000,-0.160000,1.000000,102.000000,1,0,-0.000000,0.000000,1,0.000000,-1.484116,0.000000,-160.732239,6.653030,0.000000,0.021000,-0.094000,-0.140000,FlatInitial
04:31:12.797 PM 02/14/2016,Teleop Enabled,0,FALSE,0,NO ERROR,-5992.968750,5995.898438,-6000.000000,-6000.000000,Speed,Speed,0.230000,1.070000,-0.240000,1.000000,101.000000,1,0,-0.000000,0.000000,1,0.020233,-1.596542,0.000000,-160.731552,6.559830,0.000000,0.000000,-0.093000,-0.134000,FlatInitial
04:31:12.897 PM 02/14/2016,Teleop Enabled,0,FALSE,0,NO ERROR,-5992.968750,5995.898438,-6000.000000,-6000.000000,Speed,Speed,0.240000,1.050000,-0.310000,1.000000,102.000000,1,0,-0.000000,0.000000,1,0.006805,-1.762405,0.000000,-160.731445,6.391129,0.000000,0.003000,-0.075000,-0.126000,FlatInitial
04:31:12.999 PM 02/14/2016,Teleop Enabled,0,FALSE,0,NO ERROR,-5996.484375,6001.171875,-6000.000000,-6000.000000,Speed,Speed,0.230000,1.040000,-0.410000,1.000000,102.000000,1,0,-0.000000,0.000000,1,0.017120,-1.836380,0.000000,-160.730896,6.318802,0.000000,-0.006000,-0.119000,-0.137000,FlatInitial
04:31:13.100 PM 02/14/2016,Teleop Enabled,0,FALSE,0,NO ERROR,-6000.000000,6004.101562,-6000.000000,-6000.000000,Speed,Speed,0.240000,1.050000,-0.460000,1.000000,103.000000,1,0,-0.000000,0.000000,1,0.000000,-1.927643,0.000000,-160.730515,6.205093,0.000000,0.014000,-0.031000,-0.113000,FlatInitial
04:31:13.200 PM 02/14/2016,Teleop Enabled,0,FALSE,0,NO ERROR,-6000.000000,6004.101562,-6000.000000,-6000.000000,Speed,Speed,0.240000,1.030000,-0.510000,1.000000,103.000000,1,0,-0.000000,0.000000,1,0.012131,-2.000168,0.000000,-160.730209,6.106445,0.000000,0.025000,-0.068000,-0.156000,FlatInitial
04:31:13.301 PM 02/14/2016,Teleop Enabled,0,FALSE,0,NO ERROR,-6003.515625,6005.273438,-6000.000000,-6000.000000,Speed,Speed,0.230000,1.040000,-0.540000,1.000000,102.000000,1,0,-0.000000,0.000000,1,0.000000,-2.062149,0.000000,-160.730057,6.004776,0.000000,0.011000,-0.080000,-0.132000,FlatInitial
04:31:13.402 PM 02/14/2016,Teleop Enabled,0,FALSE,0,NO ERROR,-6003.515625,6007.617188,-6000.000000,-6000.000000,Speed,Speed,0.240000,1.010000,-0.540000,1.000000,101.000000,1,0,-0.000000,0.000000,1,0.000000,-2.062149,0.000000,-160.730057,6.004776,0.000000,0.011000,-0.080000,-0.132000,FlatInitial
04:31:13.503 PM 02/14/2016,Teleop Enabled,0,FALSE,0,NO ERROR,-6004.687500,6008.789062,-6000.000000,-6000.000000,Speed,Speed,0.230000,1.010000,-0.580000,1.000000,102.000000,1,0,-0.000000,0.000000,1,-0.008240,-2.192413,0.000000,-160.730042,5.791412,0.000000,-0.004000,-0.053000,-0.154000,FlatInitial
04:31:13.603 PM 02/14/2016,Teleop Enabled,0,FALSE,0,NO ERROR,-6008.789062,6005.859375,-6000.000000,-6000.000000,Speed,Speed,0.230000,1.010000,-0.580000,1.000000,101.000000,1,0,-0.000000,0.000000,1,0.004196,-2.228592,0.000000,-160.730057,5.680542,0.000000,-0.009000,-0.041000,-0.152000,FlatInitial
04:31:13.704 PM 02/14/2016,Teleop Enabled,0,FALSE,0,NO ERROR,-6010.546875,6005.859375,-6000.000000,-6000.000000,Speed,Speed,0.230000,0.950000,-0.520000,1.000000,101.000000,1,0,-0.000000,0.000000,1,-0.000427,-2.281494,0.000000,-160.730026,5.567505,0.000000,-0.025000,-0.064000,-0.159000,FlatInitial
04:31:13.804 PM 02/14/2016,Teleop Enabled,0,FALSE,0,NO ERROR,-6009.960938,6002.929688,-6000.000000,-6000.000000,Speed,Speed,0.230000,0.920000,-0.480000,1.000000,101.000000,1,0,-0.000000,0.000000,1,-0.000427,-2.281494,0.000000,-160.730026,5.567505,0.000000,-0.025000,-0.064000,-0.159000,FlatInitial
04:31:13.905 PM 02/14/2016,Teleop Enabled,0,FALSE,0,NO ERROR,-6008.203125,6001.171875,-6000.000000,-6000.000000,Speed,Speed,0.230000,0.900000,-0.380000,1.000000,101.000000,1,0,-0.000000,0.000000,1,0.000000,0.005432,0.000000,-160.730072,5.429779,0.000000,-0.001000,-0.014000,-0.176000,FlatInitial
04:31:14.006 PM 02/14/2016,Teleop Enabled,0,FALSE,0,NO ERROR,-6007.617188,5998.242188,-6000.000000,-6000.000000,Speed,Speed,0.230000,0.890000,-0.270000,1.000000,102.000000,1,0,-0.000000,0.000000,1,0.006638,0.004684,0.000000,-160.729965,5.429916,0.000000,-0.001000,-0.014000,-0.176000,FlatInitial
04:31:14.106 PM 02/14/2016,Teleop Enabled,0,FALSE,0,NO ERROR,-6007.031250,5993.554688,-6000.000000,-6000.000000,Speed,Speed,0.220000,0.880000,-0.110000,1.000000,103.000000,1,0,-0.000000,0.000000,1,0.006638,0.004684,0.000000,-160.729965,5.429916,0.000000,0.017000,-0.034000,-0.197000,FlatInitial
04:31:14.206 PM 02/14/2016,Teleop Enabled,0,FALSE,0,NO ERROR,-6005.273438,5992.382812,-6000.000000,-6000.000000,Speed,Speed,0.220000,0.880000,-0.110000,1.000000,103.000000,1,0,-0.000000,0.000000,1,0.025040,0.002930,0.000000,-160.729080,5.429794,0.000000,0.011000,0.045000,-0.171000,FlatInitial
04:31:14.307 PM 02/14/2016,Teleop Enabled,0,FALSE,0,NO ERROR,-6005.273438,5995.312500,-6000.000000,-6000.000000,Speed,Speed,0.220000,0.850000,0.010000,1.000000,101.000000,1,0,-0.000000,0.000000,1,0.000992,0.007355,0.000000,-160.728195,5.430115,0.000000,-0.018000,-0.006000,-0.191000,FlatInitial
04:31:14.407 PM 02/14/2016,Teleop Enabled,0,FALSE,0,NO ERROR,-6003.515625,5993.554688,-6000.000000,-6000.000000,Speed,Speed,0.220000,0.860000,0.100000,1.000000,101.000000,1,0,-0.000000,0.000000,1,0.000000,-0.005524,0.000000,-160.728165,5.430023,0.000000,0.013000,0.051000,-0.187000,FlatInitial
04:31:14.507 PM 02/14/2016,Teleop Enabled,0,FALSE,0,NO ERROR,-6001.757812,5998.242188,-6000.000000,-6000.000000,Speed,Speed,0.220000,0.850000,0.220000,1.000000,101.000000,1,0,-0.000000,0.000000,1,0.000000,0.000000,0.000000,-160.728226,5.430099,0.000000,-0.015000,0.045000,-0.209000,FlatInitial
04:31:14.608 PM 02/14/2016,Teleop Enabled,0,FALSE,0,NO ERROR,-5998.828125,6002.929688,-6000.000000,-6000.000000,Speed,Speed,0.220000,0.850000,0.220000,1.000000,101.000000,1,0,-0.000000,0.000000,1,0.000000,0.006668,0.000000,-160.728226,5.430542,0.000000,0.000000,0.054000,-0.199000,FlatInitial
04:31:14.709 PM 02/14/2016,Teleop Enabled,0,FALSE,0,NO ERROR,-5994.726562,6008.203125,-6000.000000,-6000.000000,Speed,Speed,0.210000,0.840000,0.370000,1.000000,102.000000,1,0,-0.000000,0.000000,1,0.000000,0.049210,0.000000,-160.728226,5.432220,0.000000,0.000000,0.044000,-0.184000,FlatInitial
04:31:14.809 PM 02/14/2016,Teleop Enabled,0,FALSE,0,NO ERROR,-5992.968750,6010.546875,-6000.000000,-6000.000000,Speed,Speed,0.220000,0.840000,0.530000,1.000000,100.000000,1,0,-0.000000,0.000000,1,0.000000,0.148315,0.000000,-160.728226,5.441803,0.000000,0.008000,0.029000,-0.221000,FlatInitial
04:31:14.910 PM 02/14/2016,Teleop Enabled,0,FALSE,0,NO ERROR,-5991.210938,6008.789062,-6000.000000,-6000.000000,Speed,Speed,0.210000,0.840000,0.770000,1.000000,102.000000,1,0,-0.000000,0.000000,1,-0.009781,0.180634,0.000000,-160.728470,5.450256,0.000000,0.001000,0.025000,-0.161000,FlatInitial
04:31:15.011 PM 02/14/2016,Teleop Enabled,0,FALSE,0,NO ERROR,-5992.382812,6006.445312,-6000.000000,-6000.000000,Speed,Speed,0.210000,0.820000,1.040000,1.000000,101.000000,1,0,-0.000000,0.000000,1,0.000000,0.227386,0.000000,-160.728806,5.460587,0.000000,-0.033000,0.045000,-0.156000,FlatInitial
04:31:15.112 PM 02/14/2016,Teleop Enabled,0,FALSE,0,NO ERROR,-5990.039062,6005.273438,-6000.000000,-6000.000000,Speed,Speed,0.210000,0.820000,1.040000,1.000000,102.000000,1,0,-0.000000,0.000000,1,0.000000,0.227386,0.000000,-160.728806,5.460587,0.000000,-0.002000,0.017000,-0.154000,FlatInitial
04:31:15.212 PM 02/14/2016,Teleop Enabled,0,FALSE,0,NO ERROR,-5991.210938,6004.101562,-6000.000000,-6000.000000,Speed,Speed,0.210000,0.810000,1.210000,1.000000,101.000000,1,0,-0.000000,0.000000,1,-0.006042,0.002579,0.000000,-160.728882,5.470398,0.000000,-0.015000,0.036000,-0.145000,FlatInitial
04:31:15.312 PM 02/14/2016,Teleop Enabled,0,FALSE,0,NO ERROR,-5994.726562,6002.343750,-6000.000000,-6000.000000,Speed,Speed,0.210000,0.760000,1.290000,1.000000,101.000000,1,0,-0.000000,0.000000,1,-0.009216,0.013306,0.000000,-160.729431,5.470642,0.000000,0.024000,0.000000,-0.175000,FlatInitial
04:31:15.412 PM 02/14/2016,Teleop Enabled,0,FALSE,0,NO ERROR,-5994.140625,5997.070312,-6000.000000,-6000.000000,Speed,Speed,0.210000,0.710000,1.300000,1.000000,101.000000,1,0,-0.000000,0.000000,1,-0.059769,0.011856,0.000000,-160.731308,5.471619,0.000000,0.001000,-0.042000,-0.093000,FlatInitial
04:31:15.513 PM 02/14/2016,Teleop Enabled,0,FALSE,0,NO ERROR,-5994.726562,5990.625000,-6000.000000,-6000.000000,Speed,Speed,0.180000,0.610000,1.170000,1.000000,104.000000,1,0,-0.000000,0.000000,1,-0.090744,0.000000,0.000000,-160.735168,5.471649,0.000000,-0.012000,-0.013000,-0.130000,FlatInitial
04:31:15.613 PM 02/14/2016,Teleop Enabled,0,FALSE,0,NO ERROR,-5992.968750,5990.625000,-6000.000000,-6000.000000,Speed,Speed,0.210000,0.610000,1.090000,1.000000,104.000000,1,0,-0.000000,0.000000,1,0.004303,-0.005112,0.000000,-160.738159,5.471603,0.000000,0.046000,-0.058000,-0.091000,FlatInitial
04:31:15.713 PM 02/14/2016,Teleop Enabled,0,FALSE,0,NO ERROR,-5992.968750,5992.382812,-6000.000000,-6000.000000,Speed,Speed,0.220000,0.560000,0.860000,1.000000,102.000000,1,0,-0.000000,0.000000,1,-0.008621,-0.087006,0.000000,-160.738113,5.468796,0.000000,-0.033000,-0.053000,-0.108000,FlatInitial
04:31:15.813 PM 02/14/2016,Teleop Enabled,0,FALSE,0,NO ERROR,-5997.070312,5990.039062,-6000.000000,-6000.000000,Speed,Speed,0.190000,0.540000,0.750000,1.000000,103.000000,1,0,-0.000000,0.000000,1,-0.006729,-0.099579,0.000000,-160.738434,5.463928,0.000000,-0.032000,0.003000,-0.195000,FlatInitial
04:31:15.913 PM 02/14/2016,Teleop Enabled,0,FALSE,0,NO ERROR,-6000.585938,5995.312500,-6000.000000,-6000.000000,Speed,Speed,0.200000,0.530000,0.640000,1.000000,104.000000,1,0,-0.000000,0.000000,1,-0.033203,-0.008789,0.000000,-160.739655,5.462769,0.000000,-0.005000,0.033000,-0.192000,FlatInitial
04:31:16.013 PM 02/14/2016,Teleop Enabled,0,FALSE,0,NO ERROR,-6005.273438,5999.414062,-6000.000000,-6000.000000,Speed,Speed,0.210000,0.520000,0.570000,1.000000,103.000000,1,0,-0.000000,0.000000,1,0.000000,0.002991,0.000000,-160.740860,5.462738,0.000000,-0.014000,-0.020000,-0.162000,FlatInitial
04:31:16.115 PM 02/14/2016,Teleop Enabled,0,FALSE,0,NO ERROR,-6008.203125,6002.343750,-6000.000000,-6000.000000,Speed,Speed,0.190000,0.540000,0.440000,1.000000,101.000000,1,0,-0.000000,0.000000,1,0.000000,0.039871,0.000000,-160.740677,5.463913,0.000000,0.018000,0.034000,-0.123000,FlatInitial
04:31:16.215 PM 02/14/2016,Teleop Enabled,0,FALSE,0,NO ERROR,-6010.546875,6005.273438,-6000.000000,-6000.000000,Speed,Speed,0.190000,0.570000,0.290000,1.000000,103.000000,1,0,-0.000000,0.000000,1,-0.035522,-0.002808,0.000000,-160.741425,5.464554,0.000000,-0.093000,-0.037000,-0.001000,FlatInitial
04:31:16.315 PM 02/14/2016,Teleop Enabled,0,FALSE,0,NO ERROR,-6008.203125,6011.718750,-6000.000000,-6000.000000,Speed,Speed,0.260000,0.450000,0.150000,1.000000,102.000000,1,0,-0.000000,0.000000,1,-0.114624,-0.002975,0.000000,-160.745682,5.464157,0.000000,-0.133000,-0.025000,-0.114000,FlatInitial
04:31:16.415 PM 02/14/2016,Teleop Enabled,0,FALSE,0,NO ERROR,-6009.960938,6011.718750,-6000.000000,-6000.000000,Speed,Speed,0.320000,0.430000,0.120000,1.000000,101.000000,1,0,-0.000000,0.000000,1,-0.199142,-0.005646,0.000000,-160.754089,5.463760,0.000000,-0.053000,0.093000,-0.184000,FlatInitial
04:31:16.515 PM 02/14/2016,Teleop Enabled,0,FALSE,0,NO ERROR,-6011.132812,6004.101562,-6000.000000,-6000.000000,Speed,Speed,0.270000,0.440000,0.050000,1.000000,101.000000,1,0,-0.000000,0.000000,1,-0.255463,0.052887,0.000000,-160.768387,5.465591,0.000000,0.041000,0.076000,-0.105000,FlatInitial
04:31:16.615 PM 02/14/2016,Teleop Enabled,0,FALSE,0,NO ERROR,-6001.171875,5997.070312,-6000.000000,-6000.000000,Speed,Speed,0.240000,0.520000,0.060000,1.000000,101.000000,1,0,-0.000000,0.000000,1,0.000000,0.085831,0.000000,-160.778503,5.469101,0.000000,-0.017000,0.045000,-0.124000,FlatInitial
04:31:16.715 PM 02/14/2016,Teleop Enabled,0,FALSE,0,NO ERROR,-5991.796875,5991.796875,-6000.000000,-6000.000000,Speed,Speed,0.090000,0.700000,0.550000,1.000000,104.000000,1,0,-0.000000,0.000000,1,0.291367,0.107712,0.000000,-160.772507,5.473373,0.000000,0.069000,0.002000,-0.358000,FlatInitial
04:31:16.815 PM 02/14/2016,Teleop Enabled,0,FALSE,0,NO ERROR,-5986.523438,5990.625000,-6000.000000,-6000.000000,Speed,Speed,0.200000,0.500000,0.740000,1.000000,101.000000,1,0,-0.000000,0.000000,1,0.231506,0.129089,0.000000,-160.759827,5.479065,0.000000,0.083000,0.070000,-0.219000,FlatInitial
04:31:16.915 PM 02/14/2016,Teleop Enabled,0,FALSE,0,NO ERROR,-5992.968750,5991.796875,-6000.000000,-6000.000000,Speed,Speed,0.410000,0.670000,0.740000,1.000000,102.000000,1,0,-0.000000,0.000000,1,0.244247,0.016418,0.000000,-160.745468,5.480804,0.000000,-0.067000,0.068000,-0.001000,FlatInitial
04:31:17.015 PM 02/14/2016,Teleop Enabled,0,FALSE,0,NO ERROR,-5995.898438,5994.726562,-6000.000000,-6000.000000,Speed,Speed,0.390000,0.650000,0.940000,1.000000,102.000000,1,0,-0.000000,0.000000,1,0.011169,-0.000427,0.000000,-160.742920,5.481018,0.000000,0.021000,0.023000,0.089000,FlatInitial
04:31:17.115 PM 02/14/2016,Teleop Enabled,0,FALSE,0,NO ERROR,-5998.242188,5998.242188,-6000.000000,-6000.000000,Speed,Speed,0.300000,0.560000,0.880000,1.000000,101.000000,1,0,-0.000000,0.000000,1,-0.037613,-0.016800,0.000000,-160.743820,5.480392,0.000000,-0.030000,0.034000,-0.041000,FlatInitial
04:31:17.216 PM 02/14/2016,Teleop Enabled,0,FALSE,0,NO ERROR,-6002.343750,6002.929688,-6000.000000,-6000.000000,Speed,Speed,0.240000,0.610000,0.730000,1.000000,103.000000,1,0,-0.000000,0.000000,1,-0.052597,-0.005768,0.000000,-160.746262,5.480133,0.000000,-0.037000,0.053000,-0.038000,FlatInitial
04:31:17.316 PM 02/14/2016,Teleop Enabled,0,FALSE,0,NO ERROR,-6005.273438,6004.687500,-6000.000000,-6000.000000,Speed,Speed,0.160000,0.460000,0.960000,1.000000,105.000000,1,0,-0.000000,0.000000,1,-0.115417,-0.014343,0.000000,-160.750977,5.479782,0.000000,-0.034000,-0.067000,-0.003000,FlatInitial
04:31:17.417 PM 02/14/2016,Teleop Enabled,0,FALSE,0,NO ERROR,-6008.789062,6007.031250,-6000.000000,-6000.000000,Speed,Speed,0.180000,0.440000,0.920000,1.000000,107.000000,1,0,-0.000000,0.000000,1,-0.154648,-0.006119,0.000000,-160.757706,5.479218,0.000000,-0.057000,-0.013000,-0.013000,FlatInitial
04:31:17.517 PM 02/14/2016,Teleop Enabled,0,FALSE,0,NO ERROR,-6009.960938,6005.273438,-6000.000000,-6000.000000,Speed,Speed,0.180000,0.420000,1.020000,1.000000,101.000000,1,0,-0.000000,0.000000,1,-0.190964,0.032806,0.000000,-160.766510,5.479782,0.000000,-0.026000,0.121000,-0.014000,FlatInitial
04:31:17.617 PM 02/14/2016,Teleop Enabled,0,FALSE,0,NO ERROR,-6002.343750,5999.414062,-6000.000000,-6000.000000,Speed,Speed,0.160000,0.420000,1.260000,1.000000,103.000000,1,0,-0.000000,0.000000,1,-0.217148,0.087082,0.000000,-160.776779,5.483185,0.000000,-0.020000,0.073000,-0.034000,FlatInitial
04:31:17.717 PM 02/14/2016,Teleop Enabled,0,FALSE,0,NO ERROR,-5975.976562,5972.460938,-6000.000000,-6000.000000,Speed,Speed,0.250000,0.430000,0.660000,1.000000,102.000000,1,0,-0.000000,0.000000,1,-0.271454,0.088409,0.000000,-160.789459,5.487015,0.000000,-0.014000,0.124000,-0.218000,FlatInitial
04:31:17.817 PM 02/14/2016,Teleop Enabled,0,FALSE,0,NO ERROR,-5960.742188,5954.882812,-6000.000000,-6000.000000,Speed,Speed,0.150000,0.510000,1.520000,1.000000,102.000000,1,0,-0.000000,0.000000,1,-0.271866,0.132385,0.000000,-160.802628,5.492950,0.000000,-0.056000,-0.025000,-0.213000,FlatInitial
04:31:17.917 PM 02/14/2016,Teleop Enabled,0,FALSE,0,NO ERROR,-5968.945312,5970.703125,-6000.000000,-6000.000000,Speed,Speed,0.030000,0.340000,1.490000,1.000000,101.000000,1,0,-0.000000,0.000000,1,-0.326431,0.125214,0.000000,-160.817673,5.499695,0.000000,-0.053000,-0.072000,-0.113000,FlatInitial
04:31:18.017 PM 02/14/2016,Teleop Enabled,0,FALSE,0,NO ERROR,-5987.109375,5990.625000,-6000.000000,-6000.000000,Speed,Speed,0.040000,0.450000,0.860000,1.000000,103.000000,1,0,-0.000000,0.000000,1,-0.362534,0.040924,0.000000,-160.838455,5.504135,0.000000,-0.032000,-0.089000,-0.206000,FlatInitial
04:31:18.117 PM 02/14/2016,Teleop Enabled,0,FALSE,0,NO ERROR,-5998.242188,6003.515625,-6000.000000,-6000.000000,Speed,Speed,-0.030000,0.380000,0.930000,1.000000,103.000000,1,0,-0.000000,0.000000,1,-0.347992,-0.022995,0.000000,-160.852707,5.504150,0.000000,0.083000,-0.092000,-0.149000,FlatInitial
04:31:18.218 PM 02/14/2016,Teleop Enabled,0,FALSE,0,NO ERROR,-6015.820312,6021.093750,-6000.000000,-6000.000000,Speed,Speed,0.020000,0.210000,1.470000,1.000000,103.000000,1,0,-0.000000,0.000000,1,-0.365021,-0.128342,0.000000,-160.869461,5.500122,0.000000,-0.261000,-0.535000,0.059000,FlatInitial
04:31:18.318 PM 02/14/2016,Teleop Enabled,0,FALSE,0,NO ERROR,-6024.609375,6028.710938,-6000.000000,-6000.000000,Speed,Speed,0.180000,0.530000,0.640000,1.000000,101.000000,1,0,-0.000000,0.000000,1,-0.353424,-0.156265,0.000000,-160.888351,5.490540,0.000000,-0.229000,0.007000,-0.170000,FlatInitial
04:31:18.418 PM 02/14/2016,Teleop Enabled,0,FALSE,0,NO ERROR,-6016.406250,6028.710938,-6000.000000,-6000.000000,Speed,Speed,0.050000,0.590000,1.400000,1.000000,101.000000,1,0,-0.000000,0.000000,1,-0.323364,-0.081116,0.000000,-160.910339,5.483612,0.000000,0.065000,0.106000,-0.078000,FlatInitial
04:31:18.519 PM 02/14/2016,Teleop Enabled,0,FALSE,0,NO ERROR,-6009.960938,6019.335938,-6000.000000,-6000.000000,Speed,Speed,0.150000,0.500000,1.430000,1.000000,101.000000,1,0,-0.000000,0.000000,1,-0.359329,0.006348,0.000000,-160.927841,5.482422,0.000000,0.081000,-0.064000,-0.085000,FlatInitial
04:31:18.620 PM 02/14/2016,Teleop Enabled,0,FALSE,0,NO ERROR,-6011.132812,6012.304688,-6000.000000,-6000.000000,Speed,Speed,0.060000,0.520000,1.690000,1.000000,101.000000,1,0,-0.000000,0.000000,1,-0.341492,0.036667,0.000000,-160.944595,5.483185,0.000000,0.035000,0.027000,-0.064000,FlatInitial
04:31:18.720 PM 02/14/2016,Teleop Enabled,0,FALSE,0,NO ERROR,-6009.375000,6008.203125,-6000.000000,-6000.000000,Speed,Speed,0.110000,0.660000,1.440000,1.000000,102.000000,1,0,-0.000000,0.000000,1,-0.327148,0.088257,0.000000,-160.961563,5.486511,0.000000,-0.034000,0.072000,-0.085000,FlatInitial
04:31:18.820 PM 02/14/2016,Teleop Enabled,0,FALSE,0,NO ERROR,-6009.375000,6004.687500,-6000.000000,-6000.000000,Speed,Speed,0.050000,0.580000,2.020000,1.000000,101.000000,1,0,-0.000000,0.000000,1,-0.336761,0.010147,0.000000,-160.978210,5.488693,0.000000,-0.053000,0.028000,-0.083000,FlatInitial
04:31:18.921 PM 02/14/2016,Teleop Enabled,0,FALSE,0,NO ERROR,-6008.789062,6001.171875,-6000.000000,-6000.000000,Speed,Speed,0.060000,0.640000,1.830000,1.000000,102.000000,1,0,-0.000000,0.000000,1,-0.340469,0.060013,0.000000,-160.995758,5.490677,0.000000,0.065000,0.079000,-0.092000,FlatInitial
04:31:19.022 PM 02/14/2016,Teleop Enabled,0,FALSE,0,NO ERROR,-6009.375000,6000.000000,-6000.000000,-6000.000000,Speed,Speed,0.120000,0.640000,2.190000,1.000000,105.000000,1,0,-0.000000,0.000000,1,-0.312180,0.132202,0.000000,-161.011932,5.496033,0.000000,-0.026000,0.047000,-0.117000,FlatInitial
04:31:19.123 PM 02/14/2016,Teleop Enabled,0,FALSE,0,NO ERROR,-6010.546875,5998.242188,-6000.000000,-6000.000000,Speed,Speed,0.040000,0.730000,2.440000,1.000000,102.000000,1,0,-0.000000,0.000000,1,0.000000,0.198639,0.000000,-161.021591,5.504562,0.000000,0.014000,0.011000,0.015000,FlatInitial
04:31:19.223 PM 02/14/2016,Teleop Enabled,0,FALSE,0,NO ERROR,-6007.031250,5998.242188,-6000.000000,-6000.000000,Speed,Speed,0.080000,0.730000,2.550000,1.000000,104.000000,1,0,-0.000000,0.000000,1,-0.006561,0.280884,0.000000,-161.021576,5.516678,0.000000,-0.019000,0.079000,-0.038000,FlatInitial
04:31:19.323 PM 02/14/2016,Teleop Enabled,0,FALSE,0,NO ERROR,-6007.031250,5996.484375,-6000.000000,-6000.000000,Speed,Speed,0.130000,0.860000,2.670000,1.000000,102.000000,1,0,-0.000000,0.000000,1,-0.003952,0.380753,0.000000,-161.021652,5.533585,0.000000,0.012000,0.092000,-0.096000,FlatInitial
04:31:19.423 PM 02/14/2016,Teleop Enabled,0,FALSE,0,NO ERROR,-6004.687500,5992.968750,-6000.000000,-6000.000000,Speed,Speed,0.060000,0.880000,2.780000,1.000000,101.000000,1,0,-0.000000,0.000000,1,0.000000,0.479736,0.000000,-161.021957,5.559921,0.000000,-0.017000,0.086000,-0.068000,FlatInitial
04:31:19.523 PM 02/14/2016,Teleop Enabled,0,FALSE,0,NO ERROR,-6002.929688,5988.867188,-6000.000000,-6000.000000,Speed,Speed,0.040000,0.890000,2.830000,1.000000,101.000000,1,0,-0.000000,0.000000,1,-0.030472,0.552322,0.000000,-161.022812,5.586166,0.000000,-0.031000,0.067000,-0.053000,FlatInitial
04:31:19.625 PM 02/14/2016,Teleop Enabled,0,FALSE,0,NO ERROR,-5999.414062,5988.281250,-6000.000000,-6000.000000,Speed,Speed,0.070000,0.920000,2.840000,1.000000,101.000000,1,0,-0.000000,0.000000,1,0.000000,0.600159,0.000000,-161.024765,5.615280,0.000000,-0.015000,0.024000,-0.127000,FlatInitial
04:31:19.725 PM 02/14/2016,Teleop Enabled,0,FALSE,0,NO ERROR,-5992.968750,5988.281250,-6000.000000,-6000.000000,Speed,Speed,0.080000,0.920000,2.890000,1.000000,102.000000,1,0,-0.000000,0.000000,1,-0.034668,0.670563,0.000000,-161.025848,5.647385,0.000000,-0.036000,0.086000,-0.115000,FlatInitial
04:31:19.825 PM 02/14/2016,Teleop Enabled,0,FALSE,0,NO ERROR,-5990.039062,5990.625000,-6000.000000,-6000.000000,Speed,Speed,0.070000,0.960000,2.950000,1.000000,102.000000,1,0,-0.000000,0.000000,1,-0.049713,0.753571,0.000000,-161.028183,5.683624,0.000000,0.030000,0.016000,-0.134000,FlatInitial
04:31:19.926 PM 02/14/2016,Teleop Enabled,0,FALSE,0,NO ERROR,-5992.382812,5990.625000,-6000.000000,-6000.000000,Speed,Speed,0.060000,0.980000,2.890000,1.000000,102.000000,1,0,-0.000000,0.000000,1,-0.005310,0.797226,0.000000,-161.029205,5.714783,0.000000,-0.034000,0.088000,-0.137000,FlatInitial
04:31:20.026 PM 02/14/2016,Teleop Enabled,0,FALSE,0,NO ERROR,-5997.070312,5986.523438,-6000.000000,-6000.000000,Speed,Speed,0.050000,0.990000,2.890000,1.000000,104.000000,1,0,-0.000000,0.000000,1,-0.027496,0.866623,0.000000,-161.030167,5.756821,0.000000,-0.049000,0.059000,-0.112000,FlatInitial
04:31:20.126 PM 02/14/2016,Teleop Enabled,0,FALSE,0,NO ERROR,-5999.414062,5985.351562,-6000.000000,-6000.000000,Speed,Speed,0.070000,0.960000,2.860000,1.000000,103.000000,1,0,-0.000000,0.000000,1,-0.002182,0.921478,0.000000,-161.031311,5.810730,0.000000,-0.029000,0.057000,-0.126000,FlatInitial
04:31:20.226 PM 02/14/2016,Teleop Enabled,0,FALSE,0,NO ERROR,-5999.414062,5988.281250,-6000.000000,-6000.000000,Speed,Speed,0.080000,0.970000,2.880000,1.000000,101.000000,1,0,-0.000000,0.000000,1,-0.004227,0.976486,0.000000,-161.031464,5.858582,0.000000,-0.031000,0.024000,0.016000,FlatInitial
04:31:20.326 PM 02/14/2016,Teleop Enabled,0,FALSE,0,NO ERROR,-5995.312500,5992.382812,-6000.000000,-6000.000000,Speed,Speed,0.070000,0.950000,2.920000,1.000000,102.000000,1,0,-0.000000,0.000000,1,-0.010773,1.010559,0.000000,-161.031540,5.908508,0.000000,-0.087000,0.018000,-0.093000,FlatInitial
04:31:20.426 PM 02/14/2016,Teleop Enabled,0,FALSE,0,NO ERROR,-5990.625000,5990.039062,-6000.000000,-6000.000000,Speed,Speed,0.060000,0.900000,2.980000,1.000000,101.000000,1,0,-0.000000,0.000000,1,-0.087646,1.074661,0.000000,-161.034286,5.960831,0.000000,-0.096000,0.097000,-0.156000,FlatInitial
04:31:20.526 PM 02/14/2016,Teleop Enabled,0,FALSE,0,NO ERROR,-5993.554688,5997.070312,-6000.000000,-6000.000000,Speed,Speed,0.090000,0.830000,3.140000,1.000000,101.000000,1,0,-0.000000,0.000000,1,-0.169846,1.163406,0.000000,-161.041199,6.017303,0.000000,-0.073000,0.042000,-0.072000,FlatInitial
04:31:20.626 PM 02/14/2016,Teleop Enabled,0,FALSE,0,NO ERROR,-5995.898438,6002.343750,-6000.000000,-6000.000000,Speed,Speed,0.050000,0.930000,2.510000,1.000000,101.000000,1,0,-0.000000,0.000000,1,-0.234619,1.161896,0.000000,-161.051468,6.075867,0.000000,-0.059000,-0.013000,-0.389000,FlatInitial
04:31:20.726 PM 02/14/2016,Teleop Enabled,0,FALSE,0,NO ERROR,-5997.656250,6008.789062,-6000.000000,-6000.000000,Speed,Speed,-0.040000,0.710000,2.920000,1.000000,102.000000,1,0,-0.000000,0.000000,1,-0.337723,-0.045349,0.000000,-161.065857,6.075027,0.000000,-0.057000,-0.057000,-0.198000,FlatInitial
04:31:20.828 PM 02/14/2016,Teleop Enabled,0,FALSE,0,NO ERROR,-6000.585938,6010.546875,-6000.000000,-6000.000000,Speed,Speed,0.030000,0.740000,2.380000,1.000000,101.000000,1,0,-0.000000,0.000000,1,-0.448822,-0.143921,0.000000,-161.086426,6.069839,0.000000,-0.058000,-0.075000,-0.269000,FlatInitial
04:31:20.928 PM 02/14/2016,Teleop Enabled,0,FALSE,0,NO ERROR,-6007.031250,6004.101562,-6000.000000,-6000.000000,Speed,Speed,0.020000,0.690000,2.310000,1.000000,101.000000,1,0,-0.000000,0.000000,1,-0.550461,-0.222183,0.000000,-161.111572,6.060394,0.000000,-0.143000,-0.096000,-0.195000,FlatInitial
04:31:21.028 PM 02/14/2016,Teleop Enabled,0,FALSE,0,NO ERROR,-6010.546875,5999.414062,-6000.000000,-6000.000000,Speed,Speed,0.000000,0.700000,2.140000,1.000000,102.000000,1,0,-0.000000,0.000000,1,-0.664780,-0.320511,0.000000,-161.142807,6.046188,0.000000,-0.167000,-0.149000,-0.214000,FlatInitial
04:31:21.129 PM 02/14/2016,Teleop Enabled,0,FALSE,0,NO ERROR,-6013.476562,5995.898438,-6000.000000,-6000.000000,Speed,Speed,0.000000,0.650000,2.040000,1.000000,103.000000,1,0,-0.000000,0.000000,1,-0.842743,-0.441940,0.000000,-161.189011,6.022751,0.000000,-0.106000,-0.152000,-0.189000,FlatInitial
04:31:21.228 PM 02/14/2016,Teleop Enabled,0,FALSE,0,NO ERROR,-6007.617188,5995.312500,-6000.000000,-6000.000000,Speed,Speed,0.010000,0.530000,2.030000,1.000000,103.000000,1,0,-0.000000,0.000000,1,-0.933472,-0.569641,0.000000,-161.225052,6.001343,0.000000,-0.094000,-0.095000,-0.217000,FlatInitial
04:31:21.329 PM 02/14/2016,Teleop Enabled,0,FALSE,0,NO ERROR,-6005.273438,6001.757812,-6000.000000,-6000.000000,Speed,Speed,0.030000,0.500000,2.640000,1.000000,102.000000,1,0,-0.000000,0.000000,1,-1.013474,-0.614792,0.000000,-161.273956,5.971176,0.000000,-0.089000,-0.030000,-0.182000,FlatInitial
04:31:21.431 PM 02/14/2016,Teleop Enabled,0,FALSE,0,NO ERROR,-6003.515625,6007.617188,-6000.000000,-6000.000000,Speed,Speed,0.080000,0.570000,2.700000,1.000000,100.000000,1,0,-0.000000,0.000000,1,-1.114014,-0.629700,0.000000,-161.327637,5.939911,0.000000,-0.001000,-0.088000,-0.185000,FlatInitial
04:31:21.531 PM 02/14/2016,Teleop Enabled,0,FALSE,0,NO ERROR,-5991.796875,6004.687500,-6000.000000,-6000.000000,Speed,Speed,0.130000,0.640000,2.920000,1.000000,101.000000,1,0,-0.000000,0.000000,1,-0.009720,-0.625626,0.000000,-161.372589,5.901733,0.000000,-0.115000,-0.010000,-0.384000,FlatInitial
04:31:21.631 PM 02/14/2016,Teleop Enabled,0,FALSE,0,NO ERROR,-5976.562500,5994.140625,-6000.000000,-6000.000000,Speed,Speed,0.080000,0.580000,3.620000,1.000000,102.000000,1,0,-0.000000,0.000000,1,-0.042435,-0.648499,0.000000,-161.374405,5.870087,0.000000,-0.083000,-0.049000,-0.257000,FlatInitial
04:31:21.732 PM 02/14/2016,Teleop Enabled,0,FALSE,0,NO ERROR,-5973.632812,5991.210938,-6000.000000,-6000.000000,Speed,Speed,0.090000,0.610000,3.380000,1.000000,103.000000,1,0,-0.000000,0.000000,1,-0.086121,0.000000,0.000000,-161.377899,5.843307,0.000000,-0.114000,-0.017000,-0.266000,FlatInitial
04:31:21.833 PM 02/14/2016,Teleop Enabled,0,FALSE,0,NO ERROR,-5980.664062,5984.765625,-6000.000000,-6000.000000,Speed,Speed,0.120000,0.580000,3.250000,1.000000,101.000000,1,0,-0.000000,0.000000,1,-0.159943,-0.011154,0.000000,-161.384369,5.843155,0.000000,-0.070000,-0.045000,-0.164000,FlatInitial
04:31:21.933 PM 02/14/2016,Teleop Enabled,0,FALSE,0,NO ERROR,-5988.867188,5983.593750,-6000.000000,-6000.000000,Speed,Speed,0.130000,0.520000,3.520000,1.000000,101.000000,1,0,-0.000000,0.000000,1,-0.262878,-0.046219,0.000000,-161.395630,5.841736,0.000000,-0.055000,-0.022000,-0.119000,FlatInitial
04:31:22.033 PM 02/14/2016,Teleop Enabled,0,FALSE,0,NO ERROR,-5995.898438,5987.109375,-6000.000000,-6000.000000,Speed,Speed,0.140000,0.550000,3.140000,1.000000,101.000000,1,0,-0.000000,0.000000,1,-0.362289,-0.114609,0.000000,-161.411911,5.837418,0.000000,-0.087000,-0.056000,-0.104000,FlatInitial
04:31:22.133 PM 02/14/2016,Teleop Enabled,0,FALSE,0,NO ERROR,-5997.656250,5992.382812,-6000.000000,-6000.000000,Speed,Speed,0.160000,0.530000,3.100000,1.000000,106.000000,1,0,-0.000000,0.000000,1,-0.477585,-0.166611,0.000000,-161.433411,5.830475,0.000000,-0.156000,-0.109000,-0.029000,FlatInitial
04:31:22.234 PM 02/14/2016,Teleop Enabled,0,FALSE,0,NO ERROR,-6001.171875,5996.484375,-6000.000000,-6000.000000,Speed,Speed,0.170000,0.430000,3.040000,1.000000,104.000000,1,0,0.346457,0.346457,1,-0.580612,-0.260178,0.000000,-161.460327,5.819824,0.000000,-0.149000,-0.151000,0.015000,FlatInitial
04:31:22.335 PM 02/14/2016,Teleop Enabled,0,FALSE,0,NO ERROR,-6002.929688,5998.828125,-6000.000000,-6000.000000,Speed,Speed,0.450000,0.300000,1.450000,1.000000,102.000000,1,0,0.456693,0.456693,1,-0.725250,-0.487137,0.000000,-161.492828,5.801483,0.000000,-0.252000,-0.329000,0.153000,FlatInitial
04:31:22.435 PM 02/14/2016,Teleop Enabled,0,FALSE,0,NO ERROR,-5954.882812,5947.851562,-6000.000000,-6000.000000,Speed,Speed,1.740000,0.130000,-0.490000,1.000000,103.000000,1,0,0.520900,0.408234,1,-0.857697,-0.822617,0.000000,-161.533844,5.767029,0.000000,-0.031000,-0.440000,-0.360000,FlatInitial
04:31:22.535 PM 02/14/2016,Teleop Enabled,0,FALSE,0,NO ERROR,-5888.085938,5887.500000,-6000.000000,-6000.000000,Speed,Speed,3.580000,0.210000,-0.510000,1.000000,103.000000,1,0,-0.000000,0.000000,1,-0.916565,-1.122986,0.000000,-161.578629,5.716415,0.000000,-0.047000,-0.044000,-0.032000,FlatInitial
04:31:22.636 PM 02/14/2016,Teleop Enabled,0,FALSE,0,NO ERROR,-5886.914062,5883.398438,-6000.000000,-6000.000000,Speed,Speed,4.900000,0.720000,-1.920000,1.000000,102.000000,1,0,-0.000000,0.000000,1,-0.957047,-1.021469,0.000000,-161.626328,5.661102,0.000000,0.105000,0.516000,-0.825000,FlatInitial
04:31:22.737 PM 02/14/2016,Teleop Enabled,0,FALSE,0,NO ERROR,-5978.320312,5978.906250,-6000.000000,-6000.000000,Speed,Speed,4.380000,0.770000,-1.550000,1.000000,104.000000,1,0,-0.000000,0.000000,1,-0.998840,-0.644104,0.000000,-161.685471,5.613083,0.000000,0.020000,0.226000,-0.073000,FlatInitial
04:31:22.837 PM 02/14/2016,Teleop Enabled,0,FALSE,0,NO ERROR,-6044.531250,6062.109375,-6000.000000,-6000.000000,Speed,Speed,4.510000,0.800000,-1.120000,1.000000,106.000000,1,0,-0.000000,0.000000,1,0.000000,-0.440338,0.000000,-161.724350,5.587036,0.000000,-0.019000,0.211000,-0.177000,FlatInitial
04:31:22.940 PM 02/14/2016,Teleop Enabled,0,FALSE,0,NO ERROR,-6073.828125,6090.234375,-6000.000000,-6000.000000,Speed,Speed,4.450000,0.920000,-0.480000,1.000000,101.000000,1,0,-0.000000,0.000000,1,-0.029663,-0.268417,0.000000,-161.725372,5.570923,0.000000,-0.026000,-0.004000,-0.031000,FlatInitial
04:31:23.040 PM 02/14/2016,Teleop Enabled,0,FALSE,0,NO ERROR,-6068.554688,6091.406250,-6000.000000,-6000.000000,Speed,Speed,4.460000,1.010000,-0.050000,1.000000,103.000000,1,0,-0.000000,0.000000,1,-0.083313,-0.258789,0.000000,-161.727692,5.560989,0.000000,-0.138000,-0.107000,-0.189000,FlatInitial
04:31:23.141 PM 02/14/2016,Teleop Enabled,0,FALSE,0,NO ERROR,-6050.390625,6071.484375,-6000.000000,-6000.000000,Speed,Speed,4.490000,0.990000,0.020000,1.000000,103.000000,1,0,-0.291339,-0.291339,1,-0.218567,-0.390427,0.000000,-161.737396,5.541306,0.000000,-0.112000,-0.114000,-0.032000,FlatInitial
04:31:23.241 PM 02/14/2016,Teleop Enabled,0,FALSE,0,NO ERROR,-6029.882812,6033.984375,-6000.000000,-6000.000000,Speed,Speed,4.190000,0.780000,1.640000,1.000000,102.000000,1,0,-0.000000,0.000000,1,-0.288528,-0.263916,0.000000,-161.750061,5.524399,0.000000,-0.092000,0.211000,-0.010000,FlatInitial
04:31:23.341 PM 02/14/2016,Teleop Enabled,0,FALSE,0,NO ERROR,-5998.828125,5997.656250,-6000.000000,-6000.000000,Speed,Speed,4.460000,0.790000,2.320000,1.000000,102.000000,1,0,-0.000000,0.000000,1,-0.403473,-0.376968,0.000000,-161.768494,5.509140,0.000000,-0.070000,-0.210000,-0.156000,FlatInitial
04:31:23.441 PM 02/14/2016,Teleop Enabled,0,FALSE,0,NO ERROR,-5998.242188,5999.414062,-6000.000000,-6000.000000,Speed,Speed,4.430000,0.750000,2.470000,1.000000,102.000000,1,0,0.330709,-0.330709,1,-0.474091,-0.571777,0.000000,-161.790604,5.484467,0.000000,-0.142000,-0.294000,-0.271000,FlatInitial
04:31:23.541 PM 02/14/2016,Teleop Enabled,0,FALSE,0,NO ERROR,-5992.382812,5975.976562,-6000.000000,-6000.000000,Speed,Speed,1.910000,1.220000,2.830000,1.000000,102.000000,1,0,0.330709,-0.330709,1,-0.443787,-0.779053,0.000000,-161.817139,5.442734,0.000000,-0.142000,-0.294000,-0.271000,FlatInitial
04:31:23.641 PM 02/14/2016,Teleop Enabled,0,FALSE,0,NO ERROR,-5956.640625,5922.070312,-6000.000000,-6000.000000,Speed,Speed,-4.100000,1.440000,3.340000,1.000000,102.000000,1,0,-0.000000,0.000000,1,-0.520096,-0.857910,0.000000,-161.836258,5.409531,0.000000,-0.125000,-0.105000,-0.158000,FlatInitial
04:31:23.741 PM 02/14/2016,Teleop Enabled,0,FALSE,0,NO ERROR,-5953.125000,5932.031250,-6000.000000,-6000.000000,Speed,Speed,-9.280000,1.590000,1.870000,1.000000,102.000000,1,0,-0.000000,0.000000,1,-0.647369,-0.969070,0.000000,-161.865692,5.363373,0.000000,-0.216000,-0.046000,-0.104000,FlatInitial
04:31:23.841 PM 02/14/2016,Teleop Enabled,0,FALSE,0,NO ERROR,-5980.078125,6004.101562,-6000.000000,-6000.000000,Speed,Speed,-12.370000,1.260000,1.740000,1.000000,102.000000,1,0,-0.393701,0.393701,1,-0.824341,-1.084244,0.000000,-161.903656,5.311371,0.000000,-0.100000,-0.194000,-0.285000,FlatInitial
04:31:23.941 PM 02/14/2016,Teleop Enabled,0,FALSE,0,NO ERROR,-5992.382812,6034.570312,-6000.000000,-6000.000000,Speed,Speed,-11.840000,0.740000,1.750000,1.000000,102.000000,1,0,-0.000000,0.000000,1,-1.072021,-1.311859,0.000000,-161.961349,5.238068,0.000000,-0.100000,-0.194000,-0.285000,FlatInitial
04:31:24.041 PM 02/14/2016,Teleop Enabled,0,FALSE,0,NO ERROR,-5933.789062,5977.734375,-6000.000000,-6000.000000,Speed,Speed,-11.840000,0.740000,1.750000,1.000000,104.000000,1,0,-0.000000,0.000000,1,-1.072021,-1.311859,0.000000,-161.961349,5.238068,0.000000,-0.158000,-0.083000,-0.248000,FlatInitial
04:31:24.142 PM 02/14/2016,Teleop Enabled,0,FALSE,0,NO ERROR,-5979.492188,5987.695312,-6000.000000,-6000.000000,Speed,Speed,-7.650000,0.710000,1.620000,1.000000,101.000000,1,0,-0.000000,0.000000,1,0.004074,-1.422668,0.000000,-161.972168,5.155914,0.000000,-0.091000,-0.073000,-0.134000,FlatInitial
04:31:24.243 PM 02/14/2016,Teleop Enabled,0,FALSE,0,NO ERROR,-6045.703125,6014.062500,-6000.000000,-6000.000000,Speed,Speed,-5.070000,0.810000,2.020000,1.000000,102.000000,1,0,-0.000000,0.000000,1,-0.017532,-1.535095,0.000000,-161.972610,5.081329,0.000000,-0.018000,-0.064000,-0.161000,FlatInitial
04:31:24.342 PM 02/14/2016,Teleop Enabled,0,FALSE,0,NO ERROR,-6069.726562,6028.125000,-6000.000000,-6000.000000,Speed,Speed,-4.490000,1.080000,1.080000,1.000000,101.000000,1,0,-0.000000,0.000000,1,-0.107040,-1.602097,0.000000,-161.975494,5.017944,0.000000,-0.011000,-0.023000,-0.197000,FlatInitial
04:31:24.442 PM 02/14/2016,Teleop Enabled,0,FALSE,0,NO ERROR,-6058.007812,6036.328125,-6000.000000,-6000.000000,Speed,Speed,-4.490000,1.080000,1.080000,1.000000,101.000000,1,0,-0.291339,0.291339,1,-0.330917,-1.756012,0.000000,-161.996201,4.850815,0.000000,-0.190000,-0.144000,-0.183000,FlatInitial
04:31:24.542 PM 02/14/2016,Teleop Enabled,0,FALSE,0,NO ERROR,-6027.539062,6020.507812,-6000.000000,-6000.000000,Speed,Speed,-4.580000,0.880000,1.280000,1.000000,101.000000,1,0,-0.000000,0.000000,1,-0.330917,-1.756012,0.000000,-161.996201,4.850815,0.000000,-0.280000,-0.024000,0.074000,FlatInitial
04:31:24.642 PM 02/14/2016,Teleop Enabled,0,FALSE,0,NO ERROR,-5990.625000,5995.312500,-6000.000000,-6000.000000,Speed,Speed,-0.910000,0.630000,1.280000,1.000000,101.000000,1,0,-0.000000,0.000000,1,-0.508270,-1.837753,0.000000,-162.018753,4.761063,0.000000,-0.110000,-0.107000,-0.201000,FlatInitial
04:31:24.742 PM 02/14/2016,Teleop Enabled,0,FALSE,0,NO ERROR,-6001.757812,5997.070312,-6000.000000,-6000.000000,Speed,Speed,-0.910000,0.630000,1.280000,1.000000,105.000000,1,0,-0.000000,0.000000,1,-0.612747,-1.968063,0.000000,-162.052750,4.646713,0.000000,-0.019000,-0.198000,-0.130000,FlatInitial
04:31:24.842 PM 02/14/2016,Teleop Enabled,0,FALSE,0,NO ERROR,-6011.718750,5997.070312,-6000.000000,-6000.000000,Speed,Speed,-0.580000,0.620000,1.270000,1.000000,103.000000,1,0,-0.000000,0.000000,1,-0.703308,-2.040405,0.000000,-162.085754,4.545578,0.000000,-0.107000,-0.076000,0.003000,FlatInitial
04:31:24.942 PM 02/14/2016,Teleop Enabled,0,FALSE,0,NO ERROR,-6011.718750,6002.929688,-6000.000000,-6000.000000,Speed,Speed,-0.880000,0.750000,1.180000,1.000000,102.000000,1,0,-0.000000,0.000000,1,-0.819214,0.000000,0.000000,-162.124146,4.464188,0.000000,-0.105000,-0.016000,-0.252000,FlatInitial
