Time,RobotMode,AutoToRun,ErrorStatus, ErrorCode,ErrorSource,ActualRPM1,ActualRPM2,DesiredRPM1,DesiredRPM2,ControlMode1,ControlMode2,NavXYaw,NavXRoll,NavXPitch,ShooterState,LoopTime,IsLevel,IsAutoTargeting,LeftMotorOutput,RightMotorOutput,IsHaloDrive,NavXVelocityX,NavXVelocityY,NavXVelocityZ,NavXDisplacementX,NavXDisplacementY,NavXDisplacementZ,NavXAccelerationX,NavXAccelerationY,NavXAccelerationZ,AutoDefendState
07:24:44.933 PM 02/15/2016,Teleop Enabled,0,TRUE,91,Variant To Data in WPI_DigitalInputRefNum Registry Get.vi->Periodic Tasks.vi->Robot Main.vi,0.000000,0.000000,0.000000,0.000000,Speed,Speed,0.000000,0.980000,1.270000,0.000000,104.000000,1,0,-0.000000,0.000000,1,0.000000,0.000000,0.000000,-1.094238,-0.440903,0.000000,-0.001000,0.000000,0.004000,FlatInitial
07:24:45.034 PM 02/15/2016,Teleop Enabled,0,TRUE,-44007,<LOCATION>WPI_DigitalInputRefNum Registry Get.vi<CALLSTACK>WPI_DigitalInputRefNum Registry Get.vi< <Periodic Tasks.vi< <Robot Main.vi,0.000000,0.000000,0.000000,0.000000,Speed,Speed,0.000000,0.990000,1.270000,0.000000,102.000000,1,0,-0.000000,0.000000,1,0.000000,0.000000,0.000000,-1.094238,-0.440903,0.000000,0.000000,0.002000,0.009000,FlatInitial
07:24:45.134 PM 02/15/2016,Teleop Enabled,0,FALSE,0,NO ERROR,0.000000,0.000000,0.000000,0.000000,Speed,Speed,0.020000,0.980000,1.160000,0.000000,100.000000,1,0,-0.000000,0.000000,1,-0.002426,0.000000,0.000000,-1.094223,-0.440903,0.000000,-0.007000,0.010000,0.044000,FlatInitial
07:24:45.234 PM 02/15/2016,Teleop Enabled,0,FALSE,0,NO ERROR,0.000000,0.000000,0.000000,0.000000,Speed,Speed,0.110000,1.010000,1.120000,0.000000,101.000000,1,0,-0.000000,0.000000,1,0.000000,0.000000,0.000000,-1.094223,-0.440720,0.000000,0.007000,-0.027000,-0.008000,FlatInitial
07:24:45.334 PM 02/15/2016,Teleop Enabled,0,FALSE,0,NO ERROR,0.000000,0.000000,0.000000,0.000000,Speed,Speed,0.160000,0.980000,1.400000,0.000000,102.000000,1,0,-0.000000,0.000000,1,0.002228,0.000000,0.000000,-1.094040,-0.441422,0.000000,-0.023000,-0.004000,-0.004000,FlatInitial
07:24:45.434 PM 02/15/2016,Teleop Enabled,0,FALSE,0,NO ERROR,0.000000,0.000000,0.000000,0.000000,Speed,Speed,0.200000,1.020000,1.250000,0.000000,100.000000,1,0,-0.000000,0.000000,1,0.000000,0.000000,0.000000,-1.093842,-0.441422,0.000000,0.011000,0.015000,-0.034000,FlatInitial
07:24:45.534 PM 02/15/2016,Teleop Enabled,0,FALSE,0,NO ERROR,0.000000,0.000000,0.000000,0.000000,Speed,Speed,0.180000,0.970000,1.430000,0.000000,101.000000,1,0,-0.000000,0.000000,1,-0.004013,0.000000,0.000000,-1.093872,-0.441162,0.000000,-0.022000,0.003000,-0.005000,FlatInitial
07:24:45.634 PM 02/15/2016,Teleop Enabled,0,FALSE,0,NO ERROR,0.000000,0.000000,0.000000,0.000000,Speed,Speed,0.190000,1.000000,1.440000,0.000000,102.000000,1,0,-0.000000,0.000000,1,0.000000,0.000000,0.000000,-1.093979,-0.441162,0.000000,-0.012000,0.005000,0.004000,FlatInitial
07:24:45.734 PM 02/15/2016,Teleop Enabled,0,FALSE,0,NO ERROR,0.000000,0.000000,0.000000,0.000000,Speed,Speed,0.200000,0.980000,1.470000,0.000000,101.000000,1,0,-0.000000,0.000000,1,0.000000,0.000000,0.000000,-1.093979,-0.441162,0.000000,0.013000,-0.008000,-0.002000,FlatInitial
07:24:45.834 PM 02/15/2016,Teleop Enabled,0,FALSE,0,NO ERROR,0.000000,0.000000,0.000000,0.000000,Speed,Speed,0.130000,0.960000,1.470000,0.000000,102.000000,1,0,-0.000000,0.000000,1,0.000000,0.000000,0.000000,-1.093979,-0.441162,0.000000,0.008000,0.001000,0.009000,FlatInitial
07:24:45.934 PM 02/15/2016,Teleop Enabled,0,FALSE,0,NO ERROR,0.000000,0.000000,0.000000,0.000000,Speed,Speed,0.160000,0.970000,1.450000,0.000000,100.000000,1,0,-0.000000,0.000000,1,0.000000,0.000000,0.000000,-1.093979,-0.441162,0.000000,-0.013000,0.003000,0.007000,FlatInitial
07:24:46.034 PM 02/15/2016,Teleop Enabled,0,FALSE,0,NO ERROR,0.000000,0.000000,0.000000,0.000000,Speed,Speed,0.310000,0.990000,1.400000,0.000000,102.000000,1,0,-0.000000,0.000000,1,0.022751,0.004105,0.000000,-1.093506,-0.441101,0.000000,0.028000,-0.016000,0.003000,FlatInitial
07:24:46.134 PM 02/15/2016,Teleop Enabled,0,FALSE,0,NO ERROR,0.000000,0.000000,0.000000,0.000000,Speed,Speed,0.080000,0.980000,1.550000,0.000000,103.000000,1,0,-0.000000,0.000000,1,0.000000,0.000000,0.000000,-1.092651,-0.441010,0.000000,0.000000,0.002000,0.001000,FlatInitial
07:24:46.235 PM 02/15/2016,Teleop Enabled,0,FALSE,0,NO ERROR,0.000000,0.000000,0.000000,0.000000,Speed,Speed,0.140000,0.990000,1.360000,0.000000,101.000000,1,0,-0.000000,0.000000,1,0.000000,0.000000,0.000000,-1.092651,-0.441010,0.000000,0.006000,-0.017000,-0.010000,FlatInitial
07:24:46.337 PM 02/15/2016,Teleop Enabled,0,FALSE,0,NO ERROR,0.000000,0.000000,0.000000,0.000000,Speed,Speed,0.100000,0.990000,1.460000,0.000000,103.000000,1,0,-0.000000,0.000000,1,0.000000,0.000000,0.000000,-1.092651,-0.441010,0.000000,0.000000,0.016000,0.008000,FlatInitial
07:24:46.437 PM 02/15/2016,Teleop Enabled,0,FALSE,0,NO ERROR,0.000000,0.000000,0.000000,0.000000,Speed,Speed,0.100000,0.970000,1.360000,0.000000,100.000000,1,0,-0.000000,0.000000,1,-0.006897,0.022186,0.000000,-1.092758,-0.440475,0.000000,0.014000,0.000000,0.000000,FlatInitial
07:24:46.537 PM 02/15/2016,Teleop Enabled,0,FALSE,0,NO ERROR,0.000000,0.000000,0.000000,0.000000,Speed,Speed,0.110000,1.040000,1.030000,0.000000,103.000000,1,0,-0.000000,0.000000,1,0.000000,-0.016113,0.000000,-1.092819,-0.440552,0.000000,0.008000,-0.014000,-0.008000,FlatInitial
07:24:46.637 PM 02/15/2016,Teleop Enabled,0,FALSE,0,NO ERROR,0.000000,0.000000,0.000000,0.000000,Speed,Speed,0.130000,1.020000,1.230000,0.000000,101.000000,1,0,-0.000000,0.000000,1,-0.002762,0.000000,0.000000,-1.092850,-0.440948,0.000000,-0.018000,-0.017000,-0.009000,FlatInitial
07:24:46.737 PM 02/15/2016,Teleop Enabled,0,FALSE,0,NO ERROR,0.000000,0.000000,0.000000,0.000000,Speed,Speed,0.090000,1.010000,1.420000,0.000000,101.000000,1,0,-0.000000,0.000000,1,0.000000,0.000000,0.000000,-1.093048,-0.440948,0.000000,-0.012000,0.006000,0.000000,FlatInitial
07:24:46.837 PM 02/15/2016,Teleop Enabled,0,FALSE,0,NO ERROR,0.000000,0.000000,0.000000,0.000000,Speed,Speed,0.070000,1.000000,1.310000,0.000000,103.000000,1,0,-0.000000,0.000000,1,0.000000,0.023972,0.000000,-1.093048,-0.440292,0.000000,0.009000,0.018000,-0.002000,FlatInitial
07:24:46.938 PM 02/15/2016,Teleop Enabled,0,FALSE,0,NO ERROR,0.000000,0.000000,0.000000,0.000000,Speed,Speed,0.000000,0.990000,1.340000,0.000000,101.000000,1,0,-0.000000,0.000000,1,-0.002609,0.000000,0.000000,-1.092957,-0.440292,0.000000,-0.026000,-0.012000,0.021000,FlatInitial
07:24:47.038 PM 02/15/2016,Teleop Enabled,0,FALSE,0,NO ERROR,0.000000,0.000000,0.000000,0.000000,Speed,Speed,0.050000,1.010000,1.340000,0.000000,101.000000,1,0,-0.000000,0.000000,1,0.000000,0.000000,0.000000,-1.093018,-0.440292,0.000000,0.003000,-0.001000,0.000000,FlatInitial
07:24:47.139 PM 02/15/2016,Teleop Enabled,0,FALSE,0,NO ERROR,0.000000,0.000000,0.000000,0.000000,Speed,Speed,0.040000,0.990000,1.380000,0.000000,101.000000,1,0,-0.000000,0.000000,1,0.000000,0.000000,0.000000,-1.093018,-0.440292,0.000000,0.007000,0.005000,0.003000,FlatInitial
07:24:47.239 PM 02/15/2016,Teleop Enabled,0,FALSE,0,NO ERROR,0.000000,0.000000,0.000000,0.000000,Speed,Speed,0.030000,0.990000,1.340000,0.000000,101.000000,1,0,-0.000000,0.000000,1,0.000000,0.000000,0.000000,-1.093018,-0.440292,0.000000,0.000000,-0.003000,-0.001000,FlatInitial
07:24:47.340 PM 02/15/2016,Teleop Enabled,0,FALSE,0,NO ERROR,0.000000,0.000000,0.000000,0.000000,Speed,Speed,0.030000,1.000000,1.340000,0.000000,102.000000,1,0,-0.000000,0.000000,1,0.000000,0.000000,0.000000,-1.093018,-0.440292,0.000000,-0.003000,-0.001000,0.003000,FlatInitial
07:24:47.441 PM 02/15/2016,Teleop Enabled,0,FALSE,0,NO ERROR,0.000000,0.000000,0.000000,0.000000,Speed,Speed,0.030000,0.990000,1.360000,0.000000,101.000000,1,0,-0.000000,0.000000,1,0.000000,0.000000,0.000000,-1.093018,-0.440292,0.000000,0.003000,0.007000,0.002000,FlatInitial
07:24:47.541 PM 02/15/2016,Teleop Enabled,0,FALSE,0,NO ERROR,0.000000,0.000000,0.000000,0.000000,Speed,Speed,0.040000,0.990000,1.340000,0.000000,101.000000,1,0,-0.000000,0.000000,1,0.000000,0.000000,0.000000,-1.093018,-0.440292,0.000000,0.000000,-0.002000,0.001000,FlatInitial
07:24:47.642 PM 02/15/2016,Teleop Enabled,0,FALSE,0,NO ERROR,0.000000,0.000000,0.000000,0.000000,Speed,Speed,0.030000,0.990000,1.370000,0.000000,101.000000,1,0,-0.000000,0.000000,1,0.000000,0.000000,0.000000,-1.093018,-0.440292,0.000000,0.000000,0.006000,0.004000,FlatInitial
07:24:47.743 PM 02/15/2016,Teleop Enabled,0,FALSE,0,NO ERROR,0.000000,0.000000,-6000.000000,-6000.000000,Speed,Speed,0.030000,0.990000,1.350000,1.000000,104.000000,1,0,-0.000000,0.000000,1,0.000000,0.000000,0.000000,-1.093018,-0.440292,0.000000,-0.003000,0.000000,0.004000,FlatInitial
07:24:47.846 PM 02/15/2016,Teleop Enabled,0,FALSE,0,NO ERROR,0.000000,0.000000,-6000.000000,-6000.000000,Speed,Speed,0.030000,0.990000,1.340000,1.000000,101.000000,1,0,-0.000000,0.000000,1,0.000000,0.000000,0.000000,-1.093018,-0.440292,0.000000,-0.002000,0.000000,0.005000,FlatInitial
07:24:47.946 PM 02/15/2016,Teleop Enabled,0,FALSE,0,NO ERROR,0.000000,0.000000,-6000.000000,-6000.000000,Speed,Speed,0.030000,0.990000,1.350000,1.000000,101.000000,1,0,-0.000000,0.000000,1,0.000000,0.000000,0.000000,-1.093018,-0.440292,0.000000,0.001000,0.000000,0.007000,FlatInitial
07:24:48.046 PM 02/15/2016,Teleop Enabled,0,FALSE,0,NO ERROR,0.000000,0.000000,-6000.000000,-6000.000000,Speed,Speed,0.030000,0.980000,1.350000,1.000000,102.000000,1,0,-0.000000,0.000000,1,0.000000,0.000000,0.000000,-1.093018,-0.440292,0.000000,-0.002000,-0.001000,0.002000,FlatInitial
07:24:48.148 PM 02/15/2016,Teleop Enabled,0,FALSE,0,NO ERROR,0.000000,0.000000,-6000.000000,-6000.000000,Speed,Speed,0.030000,0.990000,1.340000,1.000000,101.000000,1,0,-0.000000,0.000000,1,0.000000,0.000000,0.000000,-1.093018,-0.440292,0.000000,-0.001000,-0.001000,0.004000,FlatInitial
07:24:48.248 PM 02/15/2016,Teleop Enabled,0,FALSE,0,NO ERROR,0.000000,0.000000,-6000.000000,-6000.000000,Speed,Speed,0.030000,0.990000,1.340000,1.000000,102.000000,1,0,-0.000000,0.000000,1,0.000000,0.000000,0.000000,-1.093018,-0.440292,0.000000,0.000000,0.001000,0.006000,FlatInitial
07:24:48.348 PM 02/15/2016,Teleop Enabled,0,FALSE,0,NO ERROR,0.000000,0.000000,-6000.000000,-6000.000000,Speed,Speed,0.030000,0.990000,1.370000,1.000000,102.000000,1,0,-0.000000,0.000000,1,0.000000,0.000000,0.000000,-1.093018,-0.440292,0.000000,0.000000,-0.005000,0.002000,FlatInitial
07:24:48.449 PM 02/15/2016,Teleop Enabled,0,FALSE,0,NO ERROR,0.000000,0.000000,-6000.000000,-6000.000000,Speed,Speed,0.030000,1.000000,1.360000,1.000000,101.000000,1,0,-0.000000,0.000000,1,0.000000,0.000000,0.000000,-1.093018,-0.440292,0.000000,0.000000,0.003000,0.009000,FlatInitial
07:24:48.550 PM 02/15/2016,Teleop Enabled,0,FALSE,0,NO ERROR,0.000000,0.000000,-6000.000000,-6000.000000,Speed,Speed,0.030000,0.990000,1.340000,1.000000,101.000000,1,0,-0.000000,0.000000,1,0.000000,0.000000,0.000000,-1.093018,-0.440292,0.000000,0.001000,-0.002000,0.002000,FlatInitial
07:24:48.650 PM 02/15/2016,Teleop Enabled,0,FALSE,0,NO ERROR,0.000000,0.000000,-6000.000000,-6000.000000,Speed,Speed,0.030000,0.990000,1.370000,1.000000,101.000000,1,0,-0.000000,0.000000,1,0.000000,0.000000,0.000000,-1.093018,-0.440292,0.000000,-0.002000,0.002000,0.006000,FlatInitial
07:24:48.750 PM 02/15/2016,Teleop Enabled,0,FALSE,0,NO ERROR,0.000000,0.000000,-6000.000000,-6000.000000,Speed,Speed,0.020000,0.990000,1.360000,1.000000,103.000000,1,0,-0.000000,0.000000,1,0.000000,0.000000,0.000000,-1.093018,-0.440292,0.000000,0.000000,0.003000,0.005000,FlatInitial
07:24:48.850 PM 02/15/2016,Teleop Enabled,0,FALSE,0,NO ERROR,0.000000,0.000000,-6000.000000,-6000.000000,Speed,Speed,0.030000,0.990000,1.340000,1.000000,101.000000,1,0,-0.000000,0.000000,1,0.000000,0.000000,0.000000,-1.093018,-0.440292,0.000000,-0.001000,-0.004000,0.004000,FlatInitial
07:24:48.950 PM 02/15/2016,Teleop Enabled,0,FALSE,0,NO ERROR,0.000000,0.000000,-6000.000000,-6000.000000,Speed,Speed,0.030000,0.990000,1.360000,1.000000,102.000000,1,0,-0.000000,0.000000,1,0.000000,0.000000,0.000000,-1.093018,-0.440292,0.000000,-0.001000,-0.001000,0.007000,FlatInitial
07:24:49.050 PM 02/15/2016,Teleop Enabled,0,FALSE,0,NO ERROR,0.000000,0.000000,-6000.000000,-6000.000000,Speed,Speed,0.020000,0.980000,1.360000,1.000000,102.000000,1,0,-0.000000,0.000000,1,0.000000,0.000000,0.000000,-1.093018,-0.440292,0.000000,0.004000,-0.016000,0.014000,FlatInitial
07:24:49.152 PM 02/15/2016,Teleop Enabled,0,FALSE,0,NO ERROR,0.000000,0.000000,-6000.000000,-6000.000000,Speed,Speed,0.010000,0.960000,1.470000,1.000000,101.000000,1,0,-0.000000,0.000000,1,0.000000,0.000000,0.000000,-1.093018,-0.440292,0.000000,0.000000,-0.014000,0.025000,FlatInitial
07:24:49.252 PM 02/15/2016,Teleop Enabled,0,FALSE,0,NO ERROR,0.000000,0.000000,-6000.000000,-6000.000000,Speed,Speed,0.000000,0.980000,1.380000,1.000000,102.000000,1,0,-0.000000,0.000000,1,0.000000,0.000000,0.000000,-1.093018,-0.440292,0.000000,0.002000,0.002000,0.011000,FlatInitial
07:24:49.353 PM 02/15/2016,Teleop Enabled,0,FALSE,0,NO ERROR,0.000000,0.000000,-6000.000000,-6000.000000,Speed,Speed,-0.020000,1.050000,0.810000,1.000000,100.000000,1,0,-0.000000,0.000000,1,0.000000,0.033096,0.000000,-1.093018,-0.439499,0.000000,0.015000,0.044000,0.133000,FlatInitial
07:24:49.453 PM 02/15/2016,Teleop Enabled,0,FALSE,0,NO ERROR,0.000000,0.000000,-6000.000000,-6000.000000,Speed,Speed,-0.260000,1.090000,0.920000,1.000000,102.000000,1,0,-0.000000,0.000000,1,0.015121,-0.008774,0.000000,-1.092133,-0.439240,0.000000,0.004000,-0.054000,0.104000,FlatInitial
07:24:49.553 PM 02/15/2016,Teleop Enabled,0,FALSE,0,NO ERROR,0.000000,0.000000,-6000.000000,-6000.000000,Speed,Speed,-0.320000,1.000000,1.240000,1.000000,103.000000,1,0,-0.000000,0.000000,1,0.000000,-0.045441,0.000000,-1.091995,-0.440842,0.000000,0.000000,-0.020000,-0.005000,FlatInitial
07:24:49.653 PM 02/15/2016,Teleop Enabled,0,FALSE,0,NO ERROR,0.000000,0.000000,-6000.000000,-6000.000000,Speed,Speed,-0.360000,1.030000,1.040000,1.000000,101.000000,1,0,-0.000000,0.000000,1,0.000000,0.003006,0.000000,-1.091995,-0.441895,0.000000,0.005000,0.022000,0.011000,FlatInitial
07:24:49.754 PM 02/15/2016,Teleop Enabled,0,FALSE,0,NO ERROR,0.000000,0.000000,-6000.000000,-6000.000000,Speed,Speed,-0.380000,1.030000,0.920000,1.000000,102.000000,1,0,-0.000000,0.000000,1,0.000000,-0.006592,0.000000,-1.091995,-0.441803,0.000000,0.012000,-0.023000,-0.026000,FlatInitial
07:24:49.856 PM 02/15/2016,Teleop Enabled,0,FALSE,0,NO ERROR,0.000000,0.000000,-6000.000000,-6000.000000,Speed,Speed,-0.380000,1.010000,1.100000,1.000000,101.000000,1,0,-0.000000,0.000000,1,0.000000,0.000000,0.000000,-1.091995,-0.442230,0.000000,-0.021000,0.010000,0.017000,FlatInitial
07:24:49.956 PM 02/15/2016,Teleop Enabled,0,FALSE,0,NO ERROR,0.000000,0.000000,-6000.000000,-6000.000000,Speed,Speed,-0.360000,1.010000,1.110000,1.000000,102.000000,1,0,-0.000000,0.000000,1,0.000000,0.000000,0.000000,-1.092117,-0.442230,0.000000,0.008000,0.002000,-0.006000,FlatInitial
07:24:50.056 PM 02/15/2016,Teleop Enabled,0,FALSE,0,NO ERROR,0.000000,0.000000,-6000.000000,-6000.000000,Speed,Speed,-0.450000,1.020000,1.050000,1.000000,101.000000,1,0,-0.000000,0.000000,1,0.000000,0.000000,0.000000,-1.092117,-0.442230,0.000000,-0.001000,-0.003000,-0.005000,FlatInitial
07:24:50.157 PM 02/15/2016,Teleop Enabled,0,FALSE,0,NO ERROR,0.000000,0.000000,-6000.000000,-6000.000000,Speed,Speed,-0.610000,1.070000,0.920000,1.000000,103.000000,1,0,-0.000000,0.000000,1,0.009460,0.000244,0.000000,-1.091980,-0.442276,0.000000,-0.023000,0.079000,-0.038000,FlatInitial
07:24:50.257 PM 02/15/2016,Teleop Enabled,0,FALSE,0,NO ERROR,0.000000,0.000000,-6000.000000,-6000.000000,Speed,Speed,-0.650000,0.990000,1.180000,1.000000,103.000000,1,0,-0.000000,0.000000,1,0.000000,0.032806,0.000000,-1.091812,-0.440491,0.000000,0.013000,-0.021000,-0.002000,FlatInitial
07:24:50.357 PM 02/15/2016,Teleop Enabled,0,FALSE,0,NO ERROR,0.000000,0.000000,-6000.000000,-6000.000000,Speed,Speed,-0.490000,1.010000,1.110000,1.000000,103.000000,1,0,-0.000000,0.000000,1,0.000000,0.000000,0.000000,-1.091812,-0.439941,0.000000,-0.005000,0.008000,-0.004000,FlatInitial
07:24:50.457 PM 02/15/2016,Teleop Enabled,0,FALSE,0,NO ERROR,0.000000,0.000000,-6000.000000,-6000.000000,Speed,Speed,-0.540000,1.060000,1.060000,1.000000,100.000000,1,0,-0.000000,0.000000,1,0.000000,0.000000,0.000000,-1.091812,-0.439941,0.000000,-0.001000,-0.014000,0.016000,FlatInitial
07:24:50.557 PM 02/15/2016,Teleop Enabled,0,FALSE,0,NO ERROR,0.000000,0.000000,-6000.000000,-6000.000000,Speed,Speed,-0.540000,1.010000,1.020000,1.000000,102.000000,1,0,-0.000000,0.000000,1,0.000000,0.000000,0.000000,-1.091812,-0.439941,0.000000,0.011000,-0.003000,0.004000,FlatInitial
07:24:50.657 PM 02/15/2016,Teleop Enabled,0,FALSE,0,NO ERROR,0.000000,0.000000,-6000.000000,-6000.000000,Speed,Speed,-0.540000,1.040000,1.070000,1.000000,101.000000,1,0,-0.000000,0.000000,1,0.000000,-0.003464,0.000000,-1.091812,-0.439972,0.000000,-0.001000,-0.024000,-0.019000,FlatInitial
07:24:50.757 PM 02/15/2016,Teleop Enabled,0,FALSE,0,NO ERROR,0.000000,0.000000,-6000.000000,-6000.000000,Speed,Speed,-0.570000,0.980000,1.610000,1.000000,102.000000,1,0,-0.000000,0.000000,1,-0.002075,-0.033081,0.000000,-1.091904,-0.440796,0.000000,-0.026000,-0.032000,0.199000,FlatInitial
07:24:50.858 PM 02/15/2016,Teleop Enabled,0,FALSE,0,NO ERROR,0.000000,0.000000,-6000.000000,-6000.000000,Speed,Speed,-0.430000,0.960000,0.710000,1.000000,102.000000,1,0,-0.000000,0.000000,1,-0.020798,-0.008224,0.000000,-1.092361,-0.442490,0.000000,-0.045000,0.053000,0.164000,FlatInitial
07:24:50.958 PM 02/15/2016,Teleop Enabled,0,FALSE,0,NO ERROR,0.000000,0.000000,-6000.000000,-6000.000000,Speed,Speed,-0.360000,1.070000,0.820000,1.000000,101.000000,1,0,-0.000000,0.000000,1,0.010025,0.045685,0.000000,-1.092499,-0.440948,0.000000,0.016000,0.012000,0.016000,FlatInitial
07:24:51.058 PM 02/15/2016,Teleop Enabled,0,FALSE,0,NO ERROR,0.000000,0.000000,-6000.000000,-6000.000000,Speed,Speed,-0.420000,0.980000,1.300000,1.000000,102.000000,1,0,-0.000000,0.000000,1,-0.002853,-0.029587,0.000000,-1.092239,-0.441055,0.000000,-0.007000,-0.036000,-0.040000,FlatInitial
07:24:51.158 PM 02/15/2016,Teleop Enabled,0,FALSE,0,NO ERROR,0.000000,0.000000,-6000.000000,-6000.000000,Speed,Speed,-0.400000,1.070000,0.570000,1.000000,102.000000,1,0,-0.000000,0.000000,1,0.005081,0.003784,0.000000,-1.092377,-0.442230,0.000000,0.011000,0.021000,-0.062000,FlatInitial
07:24:51.258 PM 02/15/2016,Teleop Enabled,0,FALSE,0,NO ERROR,0.000000,0.000000,-6000.000000,-6000.000000,Speed,Speed,-0.460000,1.030000,0.810000,1.000000,101.000000,1,0,-0.000000,0.000000,1,-0.015030,-0.034531,0.000000,-1.092346,-0.443466,0.000000,-0.014000,0.084000,0.147000,FlatInitial
07:24:51.358 PM 02/15/2016,Teleop Enabled,0,FALSE,0,NO ERROR,0.000000,-0.146484,-6000.000000,-6000.000000,Speed,Speed,-0.380000,0.910000,1.640000,1.000000,103.000000,1,0,-0.000000,0.000000,1,-0.020279,-0.036209,0.000000,-1.092712,-0.444977,0.000000,-0.016000,-0.021000,0.247000,FlatInitial
07:24:51.458 PM 02/15/2016,Teleop Enabled,0,FALSE,0,NO ERROR,0.000000,0.000000,-6000.000000,-6000.000000,Speed,Speed,-0.350000,0.970000,1.500000,1.000000,102.000000,1,0,-0.000000,0.000000,1,0.000183,-0.007263,0.000000,-1.092865,-0.446304,0.000000,0.033000,0.016000,-0.042000,FlatInitial
07:24:51.559 PM 02/15/2016,Teleop Enabled,0,FALSE,0,NO ERROR,0.000000,0.000000,-6000.000000,-6000.000000,Speed,Speed,-0.380000,0.940000,1.660000,1.000000,100.000000,1,0,-0.000000,0.000000,1,-0.002808,-0.012527,0.000000,-1.092636,-0.446899,0.000000,-0.032000,-0.025000,0.031000,FlatInitial
07:24:51.659 PM 02/15/2016,Teleop Enabled,0,FALSE,0,NO ERROR,0.000000,0.000000,-6000.000000,-6000.000000,Speed,Speed,-0.360000,0.980000,1.490000,1.000000,102.000000,1,0,-0.000000,0.000000,1,-0.002274,0.007812,0.000000,-1.092514,-0.446854,0.000000,-0.032000,-0.006000,0.099000,FlatInitial
07:24:51.761 PM 02/15/2016,Teleop Enabled,0,FALSE,0,NO ERROR,0.000000,0.000000,-6000.000000,-6000.000000,Speed,Speed,-0.370000,0.930000,1.520000,1.000000,102.000000,1,0,-0.000000,0.000000,1,-0.012207,0.000305,0.000000,-1.092743,-0.446945,0.000000,-0.030000,0.004000,0.022000,FlatInitial
07:24:51.863 PM 02/15/2016,Teleop Enabled,0,FALSE,0,NO ERROR,0.000000,0.000000,-6000.000000,-6000.000000,Speed,Speed,-0.360000,0.970000,1.170000,1.000000,100.000000,1,0,-0.000000,0.000000,1,0.000000,0.000000,0.000000,-1.093063,-0.446869,0.000000,-0.011000,-0.017000,0.047000,FlatInitial
07:24:51.964 PM 02/15/2016,Teleop Enabled,0,FALSE,0,NO ERROR,0.000000,0.000000,-6000.000000,-6000.000000,Speed,Speed,-0.310000,0.960000,0.650000,1.000000,102.000000,1,0,-0.000000,0.000000,1,-0.005692,-0.005432,0.000000,-1.093216,-0.446671,0.000000,0.024000,-0.048000,0.048000,FlatInitial
07:24:52.065 PM 02/15/2016,Teleop Enabled,0,FALSE,0,NO ERROR,0.000000,0.000000,-6000.000000,-6000.000000,Speed,Speed,-0.330000,1.040000,1.070000,1.000000,101.000000,1,0,-0.000000,0.000000,1,0.056915,0.000000,0.000000,-1.090637,-0.446304,0.000000,-0.034000,-0.002000,0.269000,FlatInitial
07:24:52.166 PM 02/15/2016,Teleop Enabled,0,FALSE,0,NO ERROR,0.000000,0.000000,-6000.000000,-6000.000000,Speed,Speed,-0.330000,0.940000,1.770000,1.000000,101.000000,1,0,-0.000000,0.000000,1,0.059067,0.000000,0.000000,-1.088165,-0.446198,0.000000,-0.044000,0.009000,0.067000,FlatInitial
07:24:52.266 PM 02/15/2016,Teleop Enabled,0,FALSE,0,NO ERROR,0.000000,0.000000,-6000.000000,-6000.000000,Speed,Speed,-0.350000,1.020000,1.220000,1.000000,100.000000,1,0,-0.000000,0.000000,1,0.071457,0.008118,0.000000,-1.083969,-0.446182,0.000000,-0.029000,0.030000,0.081000,FlatInitial
07:24:52.367 PM 02/15/2016,Teleop Enabled,0,FALSE,0,NO ERROR,0.000000,0.000000,-6000.000000,-6000.000000,Speed,Speed,-0.320000,1.030000,1.330000,1.000000,100.000000,1,0,-0.000000,0.000000,1,0.077698,-0.008682,0.000000,-1.081070,-0.446182,0.000000,-0.024000,0.065000,0.019000,FlatInitial
07:24:52.468 PM 02/15/2016,Teleop Enabled,0,FALSE,0,NO ERROR,0.000000,0.000000,-6000.000000,-6000.000000,Speed,Speed,-0.350000,0.960000,1.610000,1.000000,102.000000,1,0,-0.000000,0.000000,1,0.058823,-0.005310,0.000000,-1.077591,-0.446365,0.000000,0.001000,-0.015000,0.052000,FlatInitial
07:24:52.568 PM 02/15/2016,Teleop Enabled,0,FALSE,0,NO ERROR,0.000000,0.000000,-6000.000000,-6000.000000,Speed,Speed,-0.340000,1.010000,1.410000,1.000000,101.000000,1,0,-0.000000,0.000000,1,0.062393,0.000000,0.000000,-1.074417,-0.446640,0.000000,-0.016000,0.017000,0.020000,FlatInitial
07:24:52.669 PM 02/15/2016,Teleop Enabled,0,FALSE,0,NO ERROR,0.000000,0.000000,-6000.000000,-6000.000000,Speed,Speed,-0.340000,1.000000,1.380000,1.000000,103.000000,1,0,-0.000000,0.000000,1,-0.007660,-0.015686,0.000000,-1.073868,-0.446960,0.000000,-0.065000,-0.003000,0.072000,FlatInitial
07:24:52.770 PM 02/15/2016,Teleop Enabled,0,FALSE,0,NO ERROR,0.000000,0.000000,-6000.000000,-6000.000000,Speed,Speed,-0.340000,0.970000,1.490000,1.000000,101.000000,1,0,-0.000000,0.000000,1,-0.001038,-0.003555,0.000000,-1.074249,-0.446991,0.000000,0.035000,-0.006000,-0.019000,FlatInitial
07:24:52.869 PM 02/15/2016,Teleop Enabled,0,FALSE,0,NO ERROR,0.000000,0.000000,-6000.000000,-6000.000000,Speed,Speed,-0.340000,0.970000,1.440000,1.000000,102.000000,1,0,-0.000000,0.000000,1,-0.003510,0.012878,0.000000,-1.074020,-0.446854,0.000000,-0.035000,-0.010000,-0.012000,FlatInitial
07:24:52.969 PM 02/15/2016,Teleop Enabled,0,FALSE,0,NO ERROR,0.000000,0.000000,-6000.000000,-6000.000000,Speed,Speed,-0.340000,0.910000,1.450000,1.000000,102.000000,1,0,-0.000000,0.000000,1,-0.001358,-0.004288,0.000000,-1.073959,-0.446716,0.000000,0.006000,-0.015000,-0.008000,FlatInitial
07:24:53.069 PM 02/15/2016,Teleop Enabled,0,FALSE,0,NO ERROR,0.000000,0.000000,-6000.000000,-6000.000000,Speed,Speed,-0.340000,0.950000,1.440000,1.000000,102.000000,1,0,-0.000000,0.000000,1,0.000000,-0.025162,0.000000,-1.074173,-0.447784,0.000000,0.003000,0.001000,-0.030000,FlatInitial
07:24:53.169 PM 02/15/2016,Teleop Enabled,0,FALSE,0,NO ERROR,0.000000,0.000000,-6000.000000,-6000.000000,Speed,Speed,-0.340000,0.930000,1.400000,1.000000,101.000000,1,0,-0.000000,0.000000,1,0.000000,0.001923,0.000000,-1.074448,-0.447815,0.000000,-0.012000,0.000000,0.011000,FlatInitial
07:24:53.270 PM 02/15/2016,Teleop Enabled,0,FALSE,0,NO ERROR,0.000000,0.000000,-6000.000000,-6000.000000,Speed,Speed,-0.340000,0.900000,1.430000,1.000000,101.000000,1,0,-0.000000,0.000000,1,0.000000,0.017883,0.000000,-1.074677,-0.447540,0.000000,0.003000,0.061000,0.040000,FlatInitial
07:24:53.370 PM 02/15/2016,Teleop Enabled,0,FALSE,0,NO ERROR,0.000000,0.000000,-6000.000000,-6000.000000,Speed,Speed,-0.340000,0.940000,1.400000,1.000000,100.000000,1,0,-0.000000,0.000000,1,0.003433,-0.000763,0.000000,-1.074753,-0.447083,0.000000,0.020000,0.036000,0.035000,FlatInitial
07:24:53.470 PM 02/15/2016,Teleop Enabled,0,FALSE,0,NO ERROR,0.000000,0.000000,-6000.000000,-6000.000000,Speed,Speed,-0.350000,0.930000,1.420000,1.000000,100.000000,1,0,-0.000000,0.000000,1,0.020355,-0.002960,0.000000,-1.074020,-0.447098,0.000000,0.017000,0.027000,0.022000,FlatInitial
07:24:53.571 PM 02/15/2016,Teleop Enabled,0,FALSE,0,NO ERROR,0.000000,0.000000,-6000.000000,-6000.000000,Speed,Speed,-0.350000,0.940000,1.450000,1.000000,103.000000,1,0,-0.000000,0.000000,1,0.017227,-0.006210,0.000000,-1.073090,-0.447342,0.000000,0.013000,-0.029000,0.054000,FlatInitial
07:24:53.672 PM 02/15/2016,Teleop Enabled,0,FALSE,0,NO ERROR,0.000000,0.000000,-6000.000000,-6000.000000,Speed,Speed,-0.350000,0.930000,1.440000,1.000000,100.000000,1,0,-0.000000,0.000000,1,-0.015076,-0.015350,0.000000,-1.073410,-0.447998,0.000000,-0.010000,-0.011000,0.028000,FlatInitial
07:24:53.773 PM 02/15/2016,Teleop Enabled,0,FALSE,0,NO ERROR,0.000000,0.000000,-6000.000000,-6000.000000,Speed,Speed,-0.340000,0.910000,1.460000,1.000000,101.000000,1,0,-0.000000,0.000000,1,-0.010361,0.000000,0.000000,-1.073563,-0.447769,0.000000,0.015000,0.014000,0.000000,FlatInitial
07:24:53.873 PM 02/15/2016,Teleop Enabled,0,FALSE,0,NO ERROR,0.000000,0.000000,-6000.000000,-6000.000000,Speed,Speed,-0.340000,0.930000,1.460000,1.000000,101.000000,1,0,-0.000000,0.000000,1,0.006058,0.007034,0.000000,-1.073456,-0.447403,0.000000,0.027000,-0.009000,-0.027000,FlatInitial
07:24:53.973 PM 02/15/2016,Teleop Enabled,0,FALSE,0,NO ERROR,0.000000,0.000000,-6000.000000,-6000.000000,Speed,Speed,-0.340000,0.900000,1.450000,1.000000,102.000000,1,0,-0.000000,0.000000,1,0.023254,0.002380,0.000000,-1.072418,-0.447281,0.000000,0.017000,-0.038000,-0.056000,FlatInitial
07:24:54.074 PM 02/15/2016,Teleop Enabled,0,FALSE,0,NO ERROR,0.000000,0.000000,-6000.000000,-6000.000000,Speed,Speed,-0.340000,0.910000,1.440000,1.000000,100.000000,1,0,-0.000000,0.000000,1,0.004837,-0.009262,0.000000,-1.072037,-0.447388,0.000000,-0.037000,-0.034000,0.021000,FlatInitial
07:24:54.174 PM 02/15/2016,Teleop Enabled,0,FALSE,0,NO ERROR,0.000000,0.000000,-6000.000000,-6000.000000,Speed,Speed,-0.340000,0.920000,1.420000,1.000000,101.000000,1,0,-0.000000,0.000000,1,-0.012878,0.000000,0.000000,-1.072311,-0.447723,0.000000,-0.008000,0.004000,0.068000,FlatInitial
07:24:54.276 PM 02/15/2016,Teleop Enabled,0,FALSE,0,NO ERROR,0.000000,0.000000,-6000.000000,-6000.000000,Speed,Speed,-0.350000,0.900000,1.430000,1.000000,102.000000,1,0,-0.000000,0.000000,1,-0.026031,0.006287,0.000000,-1.073273,-0.447571,0.000000,-0.037000,-0.021000,0.089000,FlatInitial
07:24:54.376 PM 02/15/2016,Teleop Enabled,0,FALSE,0,NO ERROR,0.000000,0.000000,-6000.000000,-6000.000000,Speed,Speed,-0.300000,1.010000,0.090000,1.000000,106.000000,1,0,-0.000000,0.000000,1,-0.043732,0.009964,0.000000,-1.075241,-0.447800,0.000000,0.005000,0.248000,-0.496000,FlatInitial
07:24:54.477 PM 02/15/2016,Teleop Enabled,0,FALSE,0,NO ERROR,0.000000,0.000000,-6000.000000,-6000.000000,Speed,Speed,-0.410000,1.070000,1.100000,1.000000,103.000000,1,0,-0.000000,0.000000,1,-0.083786,0.133469,0.000000,-1.078262,-0.442032,0.000000,-0.153000,-0.036000,0.073000,FlatInitial
07:24:54.577 PM 02/15/2016,Teleop Enabled,0,FALSE,0,NO ERROR,0.000000,0.000000,-6000.000000,-6000.000000,Speed,Speed,-0.010000,0.980000,0.670000,1.000000,100.000000,1,0,-0.000000,0.000000,1,-0.051300,0.076645,0.000000,-1.082306,-0.437393,0.000000,0.061000,-0.001000,-0.139000,FlatInitial
07:24:54.677 PM 02/15/2016,Teleop Enabled,0,FALSE,0,NO ERROR,0.000000,0.000000,-6000.000000,-6000.000000,Speed,Speed,-0.010000,1.060000,0.650000,1.000000,102.000000,1,0,-0.000000,0.000000,1,-0.045380,0.026199,0.000000,-1.084671,-0.435043,0.000000,0.038000,-0.069000,-0.060000,FlatInitial
07:24:54.777 PM 02/15/2016,Teleop Enabled,0,FALSE,0,NO ERROR,0.000000,0.000000,-6000.000000,-6000.000000,Speed,Speed,-0.120000,0.980000,1.340000,1.000000,101.000000,1,0,-0.000000,0.000000,1,-0.112671,-0.054352,0.000000,-1.087677,-0.435684,0.000000,0.283000,-0.152000,1.000000,FlatInitial
07:24:54.878 PM 02/15/2016,Teleop Enabled,0,FALSE,0,NO ERROR,0.000000,0.000000,-6000.000000,-6000.000000,Speed,Speed,-0.190000,1.070000,0.310000,1.000000,101.000000,1,0,-0.000000,0.000000,1,-0.047562,-0.027924,0.000000,-1.091522,-0.437424,0.000000,0.037000,-0.024000,0.987000,FlatInitial
07:24:54.978 PM 02/15/2016,Teleop Enabled,0,FALSE,0,NO ERROR,0.878906,-0.146484,-6000.000000,-6000.000000,Speed,Speed,-0.570000,0.990000,1.300000,1.000000,101.000000,1,0,-0.000000,0.000000,1,0.021896,0.044342,0.000000,-1.091629,-0.437408,0.000000,0.035000,0.041000,0.278000,FlatInitial
07:24:55.078 PM 02/15/2016,Teleop Enabled,0,FALSE,0,NO ERROR,0.585938,0.000000,-6000.000000,-6000.000000,Speed,Speed,-0.670000,0.900000,1.650000,1.000000,102.000000,1,0,-0.000000,0.000000,1,0.023911,0.073990,0.000000,-1.090134,-0.434067,0.000000,0.067000,-0.015000,0.252000,FlatInitial
07:24:55.179 PM 02/15/2016,Teleop Enabled,0,FALSE,0,NO ERROR,0.000000,0.000000,-6000.000000,-6000.000000,Speed,Speed,-0.780000,0.930000,1.450000,1.000000,101.000000,1,0,-0.000000,0.000000,1,0.023911,0.000000,0.000000,-1.088455,-0.434067,0.000000,-0.014000,0.000000,0.071000,FlatInitial
07:24:55.280 PM 02/15/2016,Teleop Enabled,0,FALSE,0,NO ERROR,0.000000,0.000000,-6000.000000,-6000.000000,Speed,Speed,-0.720000,1.020000,1.330000,1.000000,101.000000,1,0,-0.000000,0.000000,1,0.000000,0.025146,0.000000,-1.087585,-0.433258,0.000000,0.007000,-0.007000,-0.012000,FlatInitial
07:24:55.381 PM 02/15/2016,Teleop Enabled,0,FALSE,0,NO ERROR,0.000000,0.000000,-6000.000000,-6000.000000,Speed,Speed,-0.640000,0.980000,1.470000,1.000000,101.000000,1,0,-0.000000,0.000000,1,0.000000,-0.019806,0.000000,-1.087265,-0.433716,0.000000,-0.012000,-0.031000,-0.050000,FlatInitial
07:24:55.482 PM 02/15/2016,Teleop Enabled,0,FALSE,0,NO ERROR,0.000000,0.000000,-6000.000000,-6000.000000,Speed,Speed,-0.630000,1.020000,1.260000,1.000000,102.000000,1,0,-0.000000,0.000000,1,0.009995,-0.054749,0.000000,-1.086868,-0.435928,0.000000,-0.031000,0.002000,-0.031000,FlatInitial
07:24:55.582 PM 02/15/2016,Teleop Enabled,0,FALSE,0,NO ERROR,0.000000,0.000000,-6000.000000,-6000.000000,Speed,Speed,-0.630000,1.010000,1.330000,1.000000,101.000000,1,0,-0.000000,0.000000,1,0.000000,0.000000,0.000000,-1.086746,-0.435928,0.000000,-0.031000,0.002000,-0.031000,FlatInitial
07:24:55.684 PM 02/15/2016,Teleop Enabled,0,FALSE,0,NO ERROR,0.000000,0.000000,-6000.000000,-6000.000000,Speed,Speed,-0.630000,1.000000,1.300000,1.000000,101.000000,1,0,-0.000000,0.000000,1,0.000000,0.000000,0.000000,-1.086746,-0.435928,0.000000,-0.007000,0.005000,-0.020000,FlatInitial
07:24:55.784 PM 02/15/2016,Teleop Enabled,0,FALSE,0,NO ERROR,0.000000,0.000000,-6000.000000,-6000.000000,Speed,Speed,-0.630000,0.990000,1.320000,1.000000,102.000000,1,0,-0.000000,0.000000,1,0.000000,0.000000,0.000000,-1.086746,-0.435928,0.000000,-0.016000,-0.005000,-0.007000,FlatInitial
07:24:55.885 PM 02/15/2016,Teleop Enabled,0,FALSE,0,NO ERROR,0.000000,0.000000,-6000.000000,-6000.000000,Speed,Speed,-0.640000,1.000000,1.310000,1.000000,104.000000,1,0,-0.000000,0.000000,1,0.000000,0.000000,0.000000,-1.086746,-0.435928,0.000000,-0.016000,-0.005000,-0.007000,FlatInitial
07:24:55.986 PM 02/15/2016,Teleop Enabled,0,FALSE,0,NO ERROR,0.000000,0.000000,-6000.000000,-6000.000000,Speed,Speed,-0.630000,0.990000,1.290000,1.000000,100.000000,1,0,-0.000000,0.000000,1,0.000000,0.000000,0.000000,-1.086746,-0.435928,0.000000,-0.001000,0.006000,-0.002000,FlatInitial
07:24:56.086 PM 02/15/2016,Teleop Enabled,0,FALSE,0,NO ERROR,0.000000,0.000000,-6000.000000,-6000.000000,Speed,Speed,-0.630000,1.000000,1.310000,1.000000,102.000000,1,0,-0.000000,0.000000,1,0.000000,0.000000,0.000000,-1.086746,-0.435928,0.000000,0.004000,-0.004000,0.004000,FlatInitial
07:24:56.187 PM 02/15/2016,Teleop Enabled,0,FALSE,0,NO ERROR,0.000000,0.000000,-6000.000000,-6000.000000,Speed,Speed,-0.630000,0.990000,1.290000,1.000000,101.000000,1,0,-0.000000,0.000000,1,0.000000,0.000000,0.000000,-1.086746,-0.435928,0.000000,0.001000,-0.007000,0.000000,FlatInitial
07:24:56.288 PM 02/15/2016,Teleop Enabled,0,FALSE,0,NO ERROR,0.000000,0.000000,-6000.000000,-6000.000000,Speed,Speed,-0.630000,0.990000,1.280000,1.000000,101.000000,1,0,-0.000000,0.000000,1,0.000000,0.000000,0.000000,-1.086746,-0.435928,0.000000,0.000000,0.003000,0.007000,FlatInitial
07:24:56.388 PM 02/15/2016,Teleop Enabled,0,FALSE,0,NO ERROR,0.000000,0.000000,-6000.000000,-6000.000000,Speed,Speed,-0.630000,0.990000,1.270000,1.000000,101.000000,1,0,-0.000000,0.000000,1,0.000000,0.000000,0.000000,-1.086746,-0.435928,0.000000,-0.001000,-0.004000,0.005000,FlatInitial
07:24:56.488 PM 02/15/2016,Teleop Enabled,0,FALSE,0,NO ERROR,0.000000,0.000000,-6000.000000,-6000.000000,Speed,Speed,-0.630000,0.990000,1.280000,1.000000,101.000000,1,0,-0.000000,0.000000,1,0.000000,0.000000,0.000000,-1.086746,-0.435928,0.000000,0.000000,-0.002000,0.007000,FlatInitial
07:24:56.588 PM 02/15/2016,Teleop Enabled,0,FALSE,0,NO ERROR,0.000000,0.000000,-6000.000000,-6000.000000,Speed,Speed,-0.640000,1.000000,1.270000,1.000000,101.000000,1,0,-0.000000,0.000000,1,0.000000,0.000000,0.000000,-1.086746,-0.435928,0.000000,0.000000,0.000000,0.008000,FlatInitial
07:24:56.689 PM 02/15/2016,Teleop Enabled,0,FALSE,0,NO ERROR,0.000000,0.000000,-6000.000000,-6000.000000,Speed,Speed,-0.640000,1.000000,1.260000,1.000000,101.000000,1,0,-0.000000,0.000000,1,0.000000,0.000000,0.000000,-1.086746,-0.435928,0.000000,-0.003000,-0.005000,0.013000,FlatInitial
07:24:56.789 PM 02/15/2016,Teleop Enabled,0,FALSE,0,NO ERROR,0.000000,0.000000,-6000.000000,-6000.000000,Speed,Speed,-0.640000,1.000000,1.260000,1.000000,102.000000,1,0,-0.000000,0.000000,1,0.000000,0.000000,0.000000,-1.086746,-0.435928,0.000000,-0.003000,-0.005000,0.013000,FlatInitial
07:24:56.891 PM 02/15/2016,Teleop Enabled,0,FALSE,0,NO ERROR,0.000000,0.000000,-6000.000000,-6000.000000,Speed,Speed,-0.640000,1.000000,1.260000,1.000000,101.000000,1,0,-0.000000,0.000000,1,0.000000,0.000000,0.000000,-1.086746,-0.435928,0.000000,0.002000,-0.004000,0.005000,FlatInitial
07:24:56.991 PM 02/15/2016,Teleop Enabled,0,FALSE,0,NO ERROR,0.000000,0.000000,-6000.000000,-6000.000000,Speed,Speed,-0.640000,1.000000,1.250000,1.000000,101.000000,1,0,-0.000000,0.000000,1,0.000000,0.000000,0.000000,-1.086746,-0.435928,0.000000,-0.002000,0.001000,0.004000,FlatInitial
07:24:57.091 PM 02/15/2016,Teleop Enabled,0,FALSE,0,NO ERROR,0.000000,0.000000,-6000.000000,-6000.000000,Speed,Speed,-0.630000,1.000000,1.240000,1.000000,101.000000,1,0,-0.000000,0.000000,1,0.000000,0.000000,0.000000,-1.086746,-0.435928,0.000000,0.000000,-0.002000,0.008000,FlatInitial
07:24:57.192 PM 02/15/2016,Teleop Enabled,0,FALSE,0,NO ERROR,0.000000,0.000000,-6000.000000,-6000.000000,Speed,Speed,-0.630000,1.000000,1.240000,1.000000,101.000000,1,0,-0.000000,0.000000,1,0.000000,0.000000,0.000000,-1.086746,-0.435928,0.000000,-0.002000,0.001000,0.004000,FlatInitial
07:24:57.292 PM 02/15/2016,Teleop Enabled,0,FALSE,0,NO ERROR,0.000000,0.000000,-6000.000000,-6000.000000,Speed,Speed,-0.630000,1.000000,1.250000,1.000000,105.000000,1,0,-0.000000,0.000000,1,0.000000,0.000000,0.000000,-1.086746,-0.435928,0.000000,0.003000,-0.002000,0.007000,FlatInitial
07:24:57.392 PM 02/15/2016,Teleop Enabled,0,FALSE,0,NO ERROR,0.000000,0.000000,-6000.000000,-6000.000000,Speed,Speed,-0.640000,0.990000,1.240000,1.000000,101.000000,1,0,-0.000000,0.000000,1,0.000000,0.000000,0.000000,-1.086746,-0.435928,0.000000,0.000000,-0.001000,0.004000,FlatInitial
07:24:57.493 PM 02/15/2016,Teleop Enabled,0,FALSE,0,NO ERROR,0.000000,0.000000,-6000.000000,-6000.000000,Speed,Speed,-0.640000,0.990000,1.240000,1.000000,101.000000,1,0,-0.000000,0.000000,1,0.000000,0.000000,0.000000,-1.086746,-0.435928,0.000000,0.002000,0.000000,0.003000,FlatInitial
07:24:57.593 PM 02/15/2016,Teleop Enabled,0,FALSE,0,NO ERROR,0.000000,0.000000,-6000.000000,-6000.000000,Speed,Speed,-0.640000,0.990000,1.240000,1.000000,102.000000,1,0,-0.000000,0.000000,1,0.000000,0.000000,0.000000,-1.086746,-0.435928,0.000000,-0.001000,0.000000,0.007000,FlatInitial
07:24:57.694 PM 02/15/2016,Teleop Enabled,0,FALSE,0,NO ERROR,0.000000,0.000000,-6000.000000,-6000.000000,Speed,Speed,-0.640000,0.990000,1.240000,1.000000,104.000000,1,0,-0.000000,0.000000,1,0.000000,0.000000,0.000000,-1.086746,-0.435928,0.000000,0.000000,0.001000,0.002000,FlatInitial
07:24:57.794 PM 02/15/2016,Teleop Enabled,0,FALSE,0,NO ERROR,0.000000,0.000000,-6000.000000,-6000.000000,Speed,Speed,-0.640000,0.990000,1.240000,1.000000,101.000000,1,0,-0.000000,0.000000,1,0.000000,0.000000,0.000000,-1.086746,-0.435928,0.000000,0.000000,-0.004000,0.003000,FlatInitial
07:24:57.894 PM 02/15/2016,Teleop Enabled,0,FALSE,0,NO ERROR,0.000000,0.000000,-6000.000000,-6000.000000,Speed,Speed,-0.640000,0.990000,1.220000,1.000000,102.000000,1,0,-0.000000,0.000000,1,0.000000,0.000000,0.000000,-1.086746,-0.435928,0.000000,0.001000,-0.006000,0.005000,FlatInitial
07:24:57.994 PM 02/15/2016,Teleop Enabled,0,FALSE,0,NO ERROR,0.000000,0.000000,-6000.000000,-6000.000000,Speed,Speed,-0.640000,0.990000,1.230000,1.000000,102.000000,1,0,-0.000000,0.000000,1,0.000000,0.000000,0.000000,-1.086746,-0.435928,0.000000,0.000000,0.001000,0.005000,FlatInitial
07:24:58.095 PM 02/15/2016,Teleop Enabled,0,FALSE,0,NO ERROR,0.000000,0.000000,-6000.000000,-6000.000000,Speed,Speed,-0.640000,0.990000,1.230000,1.000000,101.000000,1,0,-0.000000,0.000000,1,0.000000,0.000000,0.000000,-1.086746,-0.435928,0.000000,0.001000,0.000000,0.006000,FlatInitial
07:24:58.195 PM 02/15/2016,Teleop Enabled,0,FALSE,0,NO ERROR,0.000000,0.000000,-6000.000000,-6000.000000,Speed,Speed,-0.640000,0.990000,1.220000,1.000000,101.000000,1,0,-0.000000,0.000000,1,0.000000,0.000000,0.000000,-1.086746,-0.435928,0.000000,0.000000,0.000000,0.004000,FlatInitial
07:24:58.295 PM 02/15/2016,Teleop Enabled,0,FALSE,0,NO ERROR,0.000000,0.000000,-6000.000000,-6000.000000,Speed,Speed,-0.650000,0.990000,1.220000,1.000000,106.000000,1,0,-0.000000,0.000000,1,0.000000,0.000000,0.000000,-1.086746,-0.435928,0.000000,0.000000,0.003000,0.004000,FlatInitial
07:24:58.395 PM 02/15/2016,Teleop Enabled,0,FALSE,0,NO ERROR,0.000000,0.000000,-6000.000000,-6000.000000,Speed,Speed,-0.650000,0.990000,1.220000,1.000000,102.000000,1,0,-0.000000,0.000000,1,0.000000,0.000000,0.000000,-1.086746,-0.435928,0.000000,-0.001000,-0.001000,0.007000,FlatInitial
07:24:58.495 PM 02/15/2016,Teleop Enabled,0,FALSE,0,NO ERROR,0.000000,0.000000,-6000.000000,-6000.000000,Speed,Speed,-0.650000,0.980000,1.220000,1.000000,101.000000,1,0,-0.000000,0.000000,1,0.000000,0.000000,0.000000,-1.086746,-0.435928,0.000000,0.000000,0.002000,0.001000,FlatInitial
07:24:58.595 PM 02/15/2016,Teleop Enabled,0,FALSE,0,NO ERROR,0.000000,0.000000,-6000.000000,-6000.000000,Speed,Speed,-0.650000,0.980000,1.210000,1.000000,102.000000,1,0,-0.000000,0.000000,1,0.000000,0.000000,0.000000,-1.086746,-0.435928,0.000000,-0.001000,-0.002000,0.003000,FlatInitial
07:24:58.696 PM 02/15/2016,Teleop Enabled,0,FALSE,0,NO ERROR,0.000000,0.000000,-6000.000000,-6000.000000,Speed,Speed,-0.650000,0.980000,1.220000,1.000000,102.000000,1,0,-0.000000,0.000000,1,0.000000,0.000000,0.000000,-1.086746,-0.435928,0.000000,0.000000,0.001000,0.008000,FlatInitial
07:24:58.796 PM 02/15/2016,Teleop Enabled,0,FALSE,0,NO ERROR,0.000000,0.000000,-6000.000000,-6000.000000,Speed,Speed,-0.650000,0.980000,1.210000,1.000000,101.000000,1,0,-0.000000,0.000000,1,0.000000,0.000000,0.000000,-1.086746,-0.435928,0.000000,0.000000,0.000000,0.001000,FlatInitial
07:24:58.896 PM 02/15/2016,Teleop Enabled,0,FALSE,0,NO ERROR,0.000000,0.000000,-6000.000000,-6000.000000,Speed,Speed,-0.650000,0.980000,1.240000,1.000000,101.000000,1,0,-0.000000,0.000000,1,0.004288,-0.014084,0.000000,-1.086548,-0.436172,0.000000,-0.052000,-0.061000,0.060000,FlatInitial
07:24:58.996 PM 02/15/2016,Teleop Enabled,0,FALSE,0,NO ERROR,0.000000,0.000000,-6000.000000,-6000.000000,Speed,Speed,-0.640000,0.950000,1.310000,1.000000,101.000000,1,0,-0.000000,0.000000,1,0.005920,0.000000,0.000000,-1.086121,-0.436966,0.000000,-0.051000,-0.018000,0.048000,FlatInitial
07:24:59.097 PM 02/15/2016,Teleop Enabled,0,FALSE,0,NO ERROR,0.000000,0.000000,-6000.000000,-6000.000000,Speed,Speed,-0.650000,0.980000,1.280000,1.000000,101.000000,1,0,-0.000000,0.000000,1,0.007507,0.000000,0.000000,-1.085724,-0.436966,0.000000,-0.023000,0.000000,0.006000,FlatInitial
07:24:59.197 PM 02/15/2016,Teleop Enabled,0,FALSE,0,NO ERROR,0.000000,0.000000,-6000.000000,-6000.000000,Speed,Speed,-0.610000,0.980000,1.100000,1.000000,102.000000,1,0,-0.000000,0.000000,1,0.000000,-0.006516,0.000000,-1.085632,-0.437057,0.000000,0.018000,-0.014000,0.000000,FlatInitial
07:24:59.298 PM 02/15/2016,Teleop Enabled,0,FALSE,0,NO ERROR,0.000000,0.000000,-6000.000000,-6000.000000,Speed,Speed,-0.630000,1.010000,1.050000,1.000000,101.000000,1,0,-0.000000,0.000000,1,0.000000,0.000000,0.000000,-1.085632,-0.437149,0.000000,0.000000,-0.017000,0.009000,FlatInitial
07:24:59.398 PM 02/15/2016,Teleop Enabled,0,FALSE,0,NO ERROR,0.000000,0.000000,-6000.000000,-6000.000000,Speed,Speed,-0.620000,1.000000,1.080000,1.000000,105.000000,1,0,-0.000000,0.000000,1,0.000000,0.000000,0.000000,-1.085632,-0.437149,0.000000,0.002000,0.010000,0.003000,FlatInitial
07:24:59.498 PM 02/15/2016,Teleop Enabled,0,FALSE,0,NO ERROR,0.000000,0.000000,-6000.000000,-6000.000000,Speed,Speed,-0.590000,1.000000,1.070000,1.000000,103.000000,1,0,-0.000000,0.000000,1,0.000000,0.000000,0.000000,-1.085632,-0.437149,0.000000,-0.013000,-0.005000,0.017000,FlatInitial
07:24:59.598 PM 02/15/2016,Teleop Enabled,0,FALSE,0,NO ERROR,0.000000,0.000000,-6000.000000,-6000.000000,Speed,Speed,-0.590000,1.020000,1.020000,1.000000,100.000000,1,0,-0.000000,0.000000,1,0.000000,0.000000,0.000000,-1.085632,-0.437149,0.000000,0.018000,0.000000,0.017000,FlatInitial
07:24:59.698 PM 02/15/2016,Teleop Enabled,0,FALSE,0,NO ERROR,0.000000,0.000000,-6000.000000,-6000.000000,Speed,Speed,-0.600000,1.020000,0.920000,1.000000,101.000000,1,0,-0.000000,0.000000,1,-0.004684,0.005890,0.000000,-1.085678,-0.437057,0.000000,-0.037000,-0.014000,-0.006000,FlatInitial
07:24:59.798 PM 02/15/2016,Teleop Enabled,0,FALSE,0,NO ERROR,0.000000,0.000000,-6000.000000,-6000.000000,Speed,Speed,-0.660000,1.040000,0.520000,1.000000,102.000000,1,0,-0.000000,0.000000,1,-0.013824,0.000000,0.000000,-1.086349,-0.437012,0.000000,0.025000,0.014000,-0.084000,FlatInitial
07:24:59.898 PM 02/15/2016,Teleop Enabled,0,FALSE,0,NO ERROR,0.000000,0.000000,-6000.000000,-6000.000000,Speed,Speed,-0.730000,1.080000,0.440000,1.000000,102.000000,1,0,-0.000000,0.000000,1,-0.003998,-0.013214,0.000000,-1.086639,-0.437439,0.000000,-0.007000,-0.005000,0.128000,FlatInitial
07:24:59.998 PM 02/15/2016,Teleop Enabled,0,FALSE,0,NO ERROR,0.000000,0.000000,-6000.000000,-6000.000000,Speed,Speed,-0.710000,1.030000,0.750000,1.000000,103.000000,1,0,-0.000000,0.000000,1,-0.001144,-0.037079,0.000000,-1.086807,-0.439056,0.000000,0.012000,-0.042000,0.065000,FlatInitial
07:25:00.098 PM 02/15/2016,Teleop Enabled,0,FALSE,0,NO ERROR,0.000000,0.000000,-6000.000000,-6000.000000,Speed,Speed,-0.600000,1.020000,0.770000,1.000000,102.000000,1,0,-0.000000,0.000000,1,0.000000,0.000000,0.000000,-1.086960,-0.440826,0.000000,-0.002000,-0.009000,0.009000,FlatInitial
07:25:00.198 PM 02/15/2016,Teleop Enabled,0,FALSE,0,NO ERROR,0.000000,0.000000,-6000.000000,-6000.000000,Speed,Speed,-0.470000,1.040000,0.760000,1.000000,102.000000,1,0,-0.000000,0.000000,1,0.000000,0.020859,0.000000,-1.086960,-0.440292,0.000000,0.005000,0.015000,-0.016000,FlatInitial
07:25:00.298 PM 02/15/2016,Teleop Enabled,0,FALSE,0,NO ERROR,0.000000,0.000000,-6000.000000,-6000.000000,Speed,Speed,-0.520000,1.070000,0.830000,1.000000,101.000000,1,0,-0.000000,0.000000,1,0.000000,0.000000,0.000000,-1.086960,-0.439499,0.000000,0.017000,-0.017000,0.033000,FlatInitial
07:25:00.398 PM 02/15/2016,Teleop Enabled,0,FALSE,0,NO ERROR,0.000000,0.000000,-6000.000000,-6000.000000,Speed,Speed,-0.690000,1.060000,0.720000,1.000000,101.000000,1,0,-0.000000,0.000000,1,0.000000,0.003159,0.000000,-1.086960,-0.439789,0.000000,-0.017000,0.021000,0.015000,FlatInitial
07:25:00.498 PM 02/15/2016,Teleop Enabled,0,FALSE,0,NO ERROR,0.000000,0.000000,-6000.000000,-6000.000000,Speed,Speed,-0.660000,1.050000,0.630000,1.000000,101.000000,1,0,-0.000000,0.000000,1,0.000000,-0.006012,0.000000,-1.086960,-0.439713,0.000000,0.003000,-0.025000,-0.008000,FlatInitial
07:25:00.598 PM 02/15/2016,Teleop Enabled,0,FALSE,0,NO ERROR,0.000000,0.000000,-6000.000000,-6000.000000,Speed,Speed,-0.640000,1.030000,0.730000,1.000000,102.000000,1,0,-0.000000,0.000000,1,0.000000,0.000000,0.000000,-1.086960,-0.439911,0.000000,0.001000,-0.001000,-0.007000,FlatInitial
07:25:00.698 PM 02/15/2016,Teleop Enabled,0,FALSE,0,NO ERROR,0.000000,0.000000,-6000.000000,-6000.000000,Speed,Speed,-0.570000,1.040000,0.740000,1.000000,103.000000,1,0,-0.000000,0.000000,1,0.000000,0.000000,0.000000,-1.086960,-0.439911,0.000000,0.001000,0.014000,0.005000,FlatInitial
07:25:00.798 PM 02/15/2016,Teleop Enabled,0,FALSE,0,NO ERROR,0.000000,0.000000,-6000.000000,-6000.000000,Speed,Speed,-0.570000,1.060000,0.730000,1.000000,102.000000,1,0,-0.000000,0.000000,1,0.000000,0.000000,0.000000,-1.086960,-0.439911,0.000000,0.004000,-0.008000,0.009000,FlatInitial
07:25:00.899 PM 02/15/2016,Teleop Enabled,0,FALSE,0,NO ERROR,0.000000,0.000000,-6000.000000,-6000.000000,Speed,Speed,-0.670000,1.070000,0.100000,1.000000,100.000000,1,0,-0.000000,0.000000,1,-0.019470,0.028763,0.000000,-1.087143,-0.439621,0.000000,-0.082000,0.109000,-0.138000,FlatInitial
07:25:00.999 PM 02/15/2016,Teleop Enabled,0,FALSE,0,NO ERROR,0.000000,0.000000,-6000.000000,-6000.000000,Speed,Speed,-0.800000,1.010000,1.030000,1.000000,102.000000,1,0,-0.000000,0.000000,1,-0.036789,0.054214,0.000000,-1.088516,-0.436996,0.000000,0.025000,-0.053000,0.175000,FlatInitial
07:25:01.100 PM 02/15/2016,Teleop Enabled,0,FALSE,0,NO ERROR,0.000000,0.000000,-6000.000000,-6000.000000,Speed,Speed,-0.780000,1.000000,1.660000,1.000000,101.000000,1,0,-0.000000,0.000000,1,-0.019180,-0.028885,0.000000,-1.089890,-0.436142,0.000000,-0.022000,-0.094000,0.174000,FlatInitial
07:25:01.200 PM 02/15/2016,Teleop Enabled,0,FALSE,0,NO ERROR,0.000000,0.000000,-6000.000000,-6000.000000,Speed,Speed,-0.610000,0.860000,1.230000,1.000000,113.000000,1,0,-0.000000,0.000000,1,-0.073730,0.076553,0.000000,-1.092010,-0.436951,0.000000,-0.089000,0.135000,-0.755000,FlatInitial
07:25:01.301 PM 02/15/2016,Teleop Enabled,0,FALSE,0,NO ERROR,0.000000,0.000000,-6000.000000,-6000.000000,Speed,Speed,-0.590000,1.180000,0.650000,1.000000,101.000000,1,0,-0.000000,0.000000,1,-0.105698,0.122025,0.000000,-1.096039,-0.430969,0.000000,-0.024000,0.102000,-0.221000,FlatInitial
07:25:01.402 PM 02/15/2016,Teleop Enabled,0,FALSE,0,NO ERROR,0.292969,0.000000,-6000.000000,-6000.000000,Speed,Speed,-0.760000,1.190000,1.750000,1.000000,102.000000,1,0,-0.000000,0.000000,1,-0.028885,0.178955,0.000000,-1.098053,-0.422913,0.000000,0.027000,0.107000,-0.451000,FlatInitial
07:25:01.504 PM 02/15/2016,Teleop Enabled,0,FALSE,0,NO ERROR,-0.146484,0.000000,-6000.000000,-6000.000000,Speed,Speed,-0.670000,1.110000,1.710000,1.000000,100.000000,1,0,-0.000000,0.000000,1,-0.058105,-0.017303,0.000000,-1.101364,-0.421371,0.000000,0.068000,0.001000,0.046000,FlatInitial
07:25:01.605 PM 02/15/2016,Teleop Enabled,0,FALSE,0,NO ERROR,0.000000,0.000000,-6000.000000,-6000.000000,Speed,Speed,-0.690000,1.100000,1.370000,1.000000,101.000000,1,0,-0.000000,0.000000,1,-0.061478,0.000000,0.000000,-1.103989,-0.421127,0.000000,-0.038000,0.006000,0.211000,FlatInitial
07:25:01.706 PM 02/15/2016,Teleop Enabled,0,FALSE,0,NO ERROR,0.000000,0.000000,-6000.000000,-6000.000000,Speed,Speed,-0.620000,1.150000,1.200000,1.000000,101.000000,1,0,-0.000000,0.000000,1,-0.051743,0.000000,0.000000,-1.106979,-0.421127,0.000000,-0.014000,-0.010000,0.065000,FlatInitial
07:25:01.807 PM 02/15/2016,Teleop Enabled,0,FALSE,0,NO ERROR,0.000000,0.000000,-6000.000000,-6000.000000,Speed,Speed,-0.570000,1.100000,1.370000,1.000000,102.000000,1,0,-0.000000,0.000000,1,-0.063034,-0.033844,0.000000,-1.109680,-0.422104,0.000000,-0.062000,-0.047000,0.035000,FlatInitial
07:25:01.907 PM 02/15/2016,Teleop Enabled,0,FALSE,0,NO ERROR,0.000000,0.000000,-6000.000000,-6000.000000,Speed,Speed,-0.590000,1.130000,1.300000,1.000000,102.000000,1,0,-0.000000,0.000000,1,0.000000,0.000000,0.000000,-1.110382,-0.423035,0.000000,0.010000,0.011000,-0.040000,FlatInitial
07:25:02.007 PM 02/15/2016,Teleop Enabled,0,FALSE,0,NO ERROR,0.000000,0.000000,-6000.000000,-6000.000000,Speed,Speed,-0.530000,1.060000,1.330000,1.000000,101.000000,1,0,-0.000000,0.000000,1,-0.002014,0.000000,0.000000,-1.110504,-0.423035,0.000000,0.041000,-0.010000,0.021000,FlatInitial
07:25:02.107 PM 02/15/2016,Teleop Enabled,0,FALSE,0,NO ERROR,0.000000,0.000000,-6000.000000,-6000.000000,Speed,Speed,-0.540000,1.110000,1.380000,1.000000,102.000000,1,0,-0.000000,0.000000,1,0.008331,0.000000,0.000000,-1.110245,-0.423035,0.000000,-0.031000,0.007000,-0.016000,FlatInitial
07:25:02.207 PM 02/15/2016,Teleop Enabled,0,FALSE,0,NO ERROR,0.000000,0.000000,-6000.000000,-6000.000000,Speed,Speed,-0.540000,1.080000,1.320000,1.000000,102.000000,1,0,-0.000000,0.000000,1,0.000000,0.000000,0.000000,-1.110336,-0.423035,0.000000,0.014000,-0.003000,0.002000,FlatInitial
07:25:02.307 PM 02/15/2016,Teleop Enabled,0,FALSE,0,NO ERROR,0.000000,0.000000,-6000.000000,-6000.000000,Speed,Speed,-0.550000,1.060000,1.320000,1.000000,101.000000,1,0,-0.000000,0.000000,1,-0.010590,0.000000,0.000000,-1.110550,-0.423035,0.000000,-0.005000,-0.015000,-0.005000,FlatInitial
07:25:02.407 PM 02/15/2016,Teleop Enabled,0,FALSE,0,NO ERROR,0.000000,0.000000,-6000.000000,-6000.000000,Speed,Speed,-0.540000,1.090000,1.250000,1.000000,101.000000,1,0,-0.000000,0.000000,1,0.008377,0.000000,0.000000,-1.110367,-0.423035,0.000000,-0.009000,0.006000,0.000000,FlatInitial
07:25:02.508 PM 02/15/2016,Teleop Enabled,0,FALSE,0,NO ERROR,0.000000,0.000000,-6000.000000,-6000.000000,Speed,Speed,-0.550000,1.050000,1.320000,1.000000,101.000000,1,0,-0.000000,0.000000,1,0.000000,0.000000,0.000000,-1.110367,-0.423035,0.000000,0.009000,-0.002000,0.010000,FlatInitial
07:25:02.608 PM 02/15/2016,Teleop Enabled,0,FALSE,0,NO ERROR,0.000000,0.000000,-6000.000000,-6000.000000,Speed,Speed,-0.540000,1.050000,1.300000,1.000000,102.000000,1,0,-0.000000,0.000000,1,0.000000,0.000000,0.000000,-1.110367,-0.423035,0.000000,-0.005000,0.005000,0.001000,FlatInitial
07:25:02.708 PM 02/15/2016,Teleop Enabled,0,FALSE,0,NO ERROR,0.000000,0.000000,-6000.000000,-6000.000000,Speed,Speed,-0.540000,1.060000,1.270000,1.000000,103.000000,1,0,-0.000000,0.000000,1,0.000000,0.000000,0.000000,-1.110367,-0.423035,0.000000,-0.001000,0.000000,0.003000,FlatInitial
07:25:02.808 PM 02/15/2016,Teleop Enabled,0,FALSE,0,NO ERROR,0.000000,0.000000,-6000.000000,-6000.000000,Speed,Speed,-0.540000,1.040000,1.260000,1.000000,102.000000,1,0,-0.000000,0.000000,1,0.000000,0.000000,0.000000,-1.110367,-0.423035,0.000000,-0.001000,-0.005000,0.001000,FlatInitial
07:25:02.908 PM 02/15/2016,Teleop Enabled,0,FALSE,0,NO ERROR,0.000000,0.000000,-6000.000000,-6000.000000,Speed,Speed,-0.540000,1.040000,1.270000,1.000000,101.000000,1,0,-0.000000,0.000000,1,0.000000,0.000000,0.000000,-1.110367,-0.423035,0.000000,-0.001000,0.003000,0.008000,FlatInitial
07:25:03.008 PM 02/15/2016,Teleop Enabled,0,FALSE,0,NO ERROR,0.000000,0.000000,-6000.000000,-6000.000000,Speed,Speed,-0.550000,1.050000,1.260000,1.000000,100.000000,1,0,-0.000000,0.000000,1,0.000000,0.000000,0.000000,-1.110367,-0.423035,0.000000,-0.003000,0.005000,-0.005000,FlatInitial
07:25:03.109 PM 02/15/2016,Teleop Enabled,0,FALSE,0,NO ERROR,0.000000,0.000000,-6000.000000,-6000.000000,Speed,Speed,-0.540000,1.010000,1.280000,1.000000,101.000000,1,0,-0.000000,0.000000,1,0.000000,0.000000,0.000000,-1.110367,-0.423035,0.000000,0.007000,-0.011000,0.013000,FlatInitial
07:25:03.210 PM 02/15/2016,Teleop Enabled,0,FALSE,0,NO ERROR,0.000000,0.000000,-6000.000000,-6000.000000,Speed,Speed,-0.550000,1.020000,1.260000,1.000000,102.000000,1,0,-0.000000,0.000000,1,0.000000,0.000000,0.000000,-1.110367,-0.423035,0.000000,-0.007000,0.001000,0.007000,FlatInitial
07:25:03.310 PM 02/15/2016,Teleop Enabled,0,FALSE,0,NO ERROR,0.000000,0.000000,-6000.000000,-6000.000000,Speed,Speed,-0.540000,1.020000,1.260000,1.000000,101.000000,1,0,-0.000000,0.000000,1,0.000000,0.000000,0.000000,-1.110367,-0.423035,0.000000,-0.001000,0.001000,0.007000,FlatInitial
07:25:03.410 PM 02/15/2016,Teleop Enabled,0,FALSE,0,NO ERROR,0.000000,0.000000,-6000.000000,-6000.000000,Speed,Speed,-0.540000,1.010000,1.260000,1.000000,101.000000,1,0,-0.000000,0.000000,1,0.000000,0.000000,0.000000,-1.110367,-0.423035,0.000000,0.042000,0.010000,-0.005000,FlatInitial
07:25:03.511 PM 02/15/2016,Teleop Enabled,0,FALSE,0,NO ERROR,0.000000,0.000000,-6000.000000,-6000.000000,Speed,Speed,-0.580000,1.000000,1.260000,1.000000,101.000000,1,0,-0.000000,0.000000,1,-0.000992,0.000000,0.000000,-1.110275,-0.422958,0.000000,-0.010000,-0.008000,0.009000,FlatInitial
07:25:03.611 PM 02/15/2016,Teleop Enabled,0,FALSE,0,NO ERROR,0.000000,0.000000,-6000.000000,-6000.000000,Speed,Speed,-0.530000,1.010000,1.210000,1.000000,101.000000,1,0,-0.000000,0.000000,1,0.000000,0.000000,0.000000,-1.110275,-0.422958,0.000000,0.000000,0.000000,0.005000,FlatInitial
07:25:03.711 PM 02/15/2016,Teleop Enabled,0,FALSE,0,NO ERROR,0.000000,0.000000,-6000.000000,-6000.000000,Speed,Speed,-0.560000,1.000000,1.260000,1.000000,101.000000,1,0,-0.000000,0.000000,1,0.000000,0.000000,0.000000,-1.110275,-0.422958,0.000000,-0.002000,0.003000,0.007000,FlatInitial
07:25:03.812 PM 02/15/2016,Teleop Enabled,0,FALSE,0,NO ERROR,0.000000,0.000000,-6000.000000,-6000.000000,Speed,Speed,-0.560000,0.990000,1.270000,1.000000,101.000000,1,0,-0.000000,0.000000,1,0.000000,0.000000,0.000000,-1.110275,-0.422958,0.000000,0.001000,0.001000,0.004000,FlatInitial
07:25:03.912 PM 02/15/2016,Teleop Enabled,0,FALSE,0,NO ERROR,0.000000,0.000000,-6000.000000,-6000.000000,Speed,Speed,-0.530000,1.000000,1.200000,1.000000,101.000000,1,0,-0.000000,0.000000,1,0.000000,0.000000,0.000000,-1.110275,-0.422958,0.000000,0.009000,-0.001000,0.010000,FlatInitial
07:25:04.012 PM 02/15/2016,Teleop Enabled,0,FALSE,0,NO ERROR,0.000000,0.000000,-6000.000000,-6000.000000,Speed,Speed,-0.560000,1.000000,1.220000,1.000000,102.000000,1,0,-0.000000,0.000000,1,0.000000,0.000000,0.000000,-1.110275,-0.422958,0.000000,-0.003000,0.000000,0.012000,FlatInitial
07:25:04.113 PM 02/15/2016,Teleop Enabled,0,FALSE,0,NO ERROR,0.000000,0.000000,-6000.000000,-6000.000000,Speed,Speed,-0.530000,1.000000,1.210000,1.000000,101.000000,1,0,-0.000000,0.000000,1,0.000000,0.000000,0.000000,-1.110275,-0.422958,0.000000,0.001000,0.011000,0.002000,FlatInitial
07:25:04.213 PM 02/15/2016,Teleop Enabled,0,FALSE,0,NO ERROR,0.000000,0.000000,-6000.000000,-6000.000000,Speed,Speed,-0.520000,0.990000,1.230000,1.000000,103.000000,1,0,-0.000000,0.000000,1,0.000000,0.000000,0.000000,-1.110275,-0.422958,0.000000,0.002000,-0.014000,0.000000,FlatInitial
07:25:04.314 PM 02/15/2016,Teleop Enabled,0,FALSE,0,NO ERROR,0.000000,0.000000,-6000.000000,-6000.000000,Speed,Speed,-0.540000,0.990000,1.410000,1.000000,103.000000,1,0,-0.000000,0.000000,1,0.000000,-0.010437,0.000000,-1.110275,-0.423172,0.000000,-0.013000,0.000000,-0.003000,FlatInitial
07:25:04.414 PM 02/15/2016,Teleop Enabled,0,FALSE,0,NO ERROR,0.000000,0.000000,-6000.000000,-6000.000000,Speed,Speed,-0.550000,0.970000,1.470000,1.000000,102.000000,1,0,-0.000000,0.000000,1,0.000000,-0.013565,0.000000,-1.110275,-0.423645,0.000000,0.006000,0.022000,-0.012000,FlatInitial
07:25:04.514 PM 02/15/2016,Teleop Enabled,0,FALSE,0,NO ERROR,0.000000,0.000000,-6000.000000,-6000.000000,Speed,Speed,-0.590000,0.930000,1.820000,1.000000,101.000000,1,0,-0.000000,0.000000,1,-0.006042,-0.023041,0.000000,-1.110428,-0.424332,0.000000,-0.005000,-0.053000,0.041000,FlatInitial
07:25:04.614 PM 02/15/2016,Teleop Enabled,0,FALSE,0,NO ERROR,0.000000,0.000000,-6000.000000,-6000.000000,Speed,Speed,-0.680000,0.980000,1.690000,1.000000,101.000000,1,0,-0.000000,0.000000,1,0.000000,-0.008194,0.000000,-1.110428,-0.425903,0.000000,-0.003000,0.075000,0.012000,FlatInitial
07:25:04.715 PM 02/15/2016,Teleop Enabled,0,FALSE,0,NO ERROR,0.000000,0.000000,-6000.000000,-6000.000000,Speed,Speed,-0.740000,0.940000,1.830000,1.000000,102.000000,1,0,-0.000000,0.000000,1,0.000000,0.044373,0.000000,-1.110596,-0.424408,0.000000,0.008000,0.015000,0.013000,FlatInitial
07:25:04.815 PM 02/15/2016,Teleop Enabled,0,FALSE,0,NO ERROR,0.000000,0.000000,-6000.000000,-6000.000000,Speed,Speed,-0.650000,0.950000,1.640000,1.000000,103.000000,1,0,-0.000000,0.000000,1,0.000000,0.000000,0.000000,-1.110596,-0.423950,0.000000,-0.010000,-0.021000,-0.006000,FlatInitial
07:25:04.915 PM 02/15/2016,Teleop Enabled,0,FALSE,0,NO ERROR,0.000000,0.000000,-6000.000000,-6000.000000,Speed,Speed,-0.650000,0.970000,1.530000,1.000000,102.000000,1,0,-0.000000,0.000000,1,0.000000,-0.042969,0.000000,-1.110428,-0.425354,0.000000,-0.016000,-0.015000,0.009000,FlatInitial
07:25:05.016 PM 02/15/2016,Teleop Enabled,0,FALSE,0,NO ERROR,0.000000,0.000000,-6000.000000,-6000.000000,Speed,Speed,-0.610000,0.940000,1.490000,1.000000,101.000000,1,0,-0.000000,0.000000,1,0.000000,0.005951,0.000000,-1.110611,-0.425720,0.000000,0.000000,0.009000,0.010000,FlatInitial
07:25:05.116 PM 02/15/2016,Teleop Enabled,0,FALSE,0,NO ERROR,0.000000,0.000000,-6000.000000,-6000.000000,Speed,Speed,-0.440000,0.960000,1.190000,1.000000,102.000000,1,0,-0.000000,0.000000,1,0.000000,0.029083,0.000000,-1.110611,-0.424713,0.000000,-0.011000,0.007000,-0.016000,FlatInitial
07:25:05.216 PM 02/15/2016,Teleop Enabled,0,FALSE,0,NO ERROR,0.000000,0.000000,-6000.000000,-6000.000000,Speed,Speed,-0.520000,1.050000,1.300000,1.000000,102.000000,1,0,-0.000000,0.000000,1,0.019562,-0.020065,0.000000,-1.110077,-0.425217,0.000000,-0.022000,-0.002000,0.034000,FlatInitial
07:25:05.317 PM 02/15/2016,Teleop Enabled,0,FALSE,0,NO ERROR,0.000000,0.000000,-6000.000000,-6000.000000,Speed,Speed,-0.560000,0.930000,1.350000,1.000000,100.000000,1,0,-0.000000,0.000000,1,-0.003387,0.000000,0.000000,-1.109955,-0.425446,0.000000,0.028000,-0.013000,0.011000,FlatInitial
07:25:05.417 PM 02/15/2016,Teleop Enabled,0,FALSE,0,NO ERROR,0.000000,0.000000,-6000.000000,-6000.000000,Speed,Speed,-0.460000,0.980000,1.330000,1.000000,102.000000,1,0,-0.000000,0.000000,1,0.008926,0.000000,0.000000,-1.109665,-0.425446,0.000000,-0.023000,0.012000,0.026000,FlatInitial
07:25:05.517 PM 02/15/2016,Teleop Enabled,0,FALSE,0,NO ERROR,0.000000,0.000000,-6000.000000,-6000.000000,Speed,Speed,-0.450000,0.980000,1.270000,1.000000,101.000000,1,0,-0.000000,0.000000,1,0.006927,0.000000,0.000000,-1.109482,-0.425446,0.000000,0.015000,-0.007000,0.003000,FlatInitial
07:25:05.617 PM 02/15/2016,Teleop Enabled,0,FALSE,0,NO ERROR,0.000000,0.000000,-6000.000000,-6000.000000,Speed,Speed,-0.550000,0.970000,1.360000,1.000000,101.000000,1,0,-0.000000,0.000000,1,-0.007416,0.000000,0.000000,-1.109497,-0.425446,0.000000,-0.017000,0.001000,0.014000,FlatInitial
07:25:05.717 PM 02/15/2016,Teleop Enabled,0,FALSE,0,NO ERROR,0.000000,0.000000,-6000.000000,-6000.000000,Speed,Speed,-0.530000,0.980000,1.240000,1.000000,101.000000,1,0,-0.000000,0.000000,1,0.000000,0.000000,0.000000,-1.109604,-0.425446,0.000000,0.007000,-0.006000,0.001000,FlatInitial
