Time,RobotMode,AutoToRun,ErrorStatus, ErrorCode,ErrorSource,ActualRPM1,ActualRPM2,DesiredRPM1,DesiredRPM2,ControlMode1,ControlMode2,NavXYaw,NavXRoll,NavXPitch,ShooterState,LoopTime,IsLevel,IsAutoTargeting,LeftMotorOutput,RightMotorOutput,IsHaloDrive,NavXVelocityX,NavXVelocityY,NavXVelocityZ,NavXDisplacementX,NavXDisplacementY,NavXDisplacementZ,NavXAccelerationX,NavXAccelerationY,NavXAccelerationZ,AutoDefendState
03:13:44.263 PM 02/14/2016,Teleop Enabled,0,TRUE,91,Variant To Data in WPI_DigitalInputRefNum Registry Get.vi->Periodic Tasks.vi->Robot Main.vi,0.000000,-1.464844,0.000000,0.000000,Speed,Speed,0.000000,1.170000,1.860000,0.000000,102.000000,1,0,-0.000558,0.001550,0,0.000000,0.000000,0.000000,43.503220,-3.785614,0.000000,0.001000,-0.003000,0.002000,FlatInitial
03:13:44.363 PM 02/14/2016,Teleop Enabled,0,TRUE,-44007,<LOCATION>WPI_DigitalInputRefNum Registry Get.vi<CALLSTACK>WPI_DigitalInputRefNum Registry Get.vi< <Periodic Tasks.vi< <Robot Main.vi,0.000000,-0.732422,0.000000,0.000000,Speed,Speed,0.020000,1.180000,1.830000,0.000000,100.000000,1,0,-0.000558,0.001550,0,0.008682,0.003693,0.000000,43.503235,-3.785477,0.000000,0.019000,0.023000,-0.021000,FlatInitial
03:13:44.463 PM 02/14/2016,Teleop Enabled,0,FALSE,0,NO ERROR,0.000000,0.000000,0.000000,0.000000,Speed,Speed,0.030000,1.190000,1.980000,0.000000,103.000000,1,0,-0.000558,0.001550,0,0.007462,-0.008408,0.000000,43.503418,-3.785309,0.000000,0.001000,-0.046000,0.078000,FlatInitial
03:13:44.563 PM 02/14/2016,Teleop Enabled,0,FALSE,0,NO ERROR,0.000000,0.000000,0.000000,0.000000,Speed,Speed,0.040000,1.170000,1.750000,0.000000,101.000000,1,0,-0.000558,0.001550,0,0.000000,0.000000,0.000000,43.503418,-3.785980,0.000000,0.001000,-0.010000,0.011000,FlatInitial
03:13:44.663 PM 02/14/2016,Teleop Enabled,0,FALSE,0,NO ERROR,0.000000,0.000000,0.000000,0.000000,Speed,Speed,0.000000,1.170000,1.920000,0.000000,104.000000,1,0,-0.000558,0.001550,0,0.000000,0.003586,0.000000,43.503418,-3.785950,0.000000,-0.001000,0.022000,0.003000,FlatInitial
03:13:44.763 PM 02/14/2016,Teleop Enabled,0,FALSE,0,NO ERROR,0.000000,0.000000,0.000000,0.000000,Speed,Speed,0.140000,1.160000,1.990000,0.000000,102.000000,1,0,-0.000558,0.001550,0,0.000000,0.000000,0.000000,43.503418,-3.785233,0.000000,0.015000,-0.001000,0.001000,FlatInitial
03:13:44.864 PM 02/14/2016,Teleop Enabled,0,FALSE,0,NO ERROR,0.000000,0.000000,0.000000,0.000000,Speed,Speed,0.020000,1.160000,1.940000,0.000000,102.000000,1,0,-0.000558,0.001550,0,0.000000,0.000000,0.000000,43.503418,-3.785233,0.000000,0.012000,-0.005000,0.000000,FlatInitial
03:13:44.964 PM 02/14/2016,Teleop Enabled,0,FALSE,0,NO ERROR,0.000000,0.000000,0.000000,0.000000,Speed,Speed,-0.020000,1.160000,1.900000,0.000000,102.000000,1,0,-0.000558,0.001550,0,0.000000,0.000000,0.000000,43.503418,-3.785233,0.000000,-0.014000,-0.004000,-0.005000,FlatInitial
03:13:45.065 PM 02/14/2016,Teleop Enabled,0,FALSE,0,NO ERROR,0.000000,0.000000,0.000000,0.000000,Speed,Speed,0.070000,1.160000,1.880000,0.000000,103.000000,1,0,-0.000558,0.001550,0,0.000000,-0.010727,0.000000,43.503418,-3.785431,0.000000,0.001000,-0.016000,0.002000,FlatInitial
03:13:45.165 PM 02/14/2016,Teleop Enabled,0,FALSE,0,NO ERROR,0.000000,0.000000,0.000000,0.000000,Speed,Speed,0.030000,1.160000,1.840000,0.000000,100.000000,1,0,-0.000558,0.001550,0,0.000000,0.022385,0.000000,43.503418,-3.785065,0.000000,0.006000,0.012000,0.004000,FlatInitial
03:13:45.265 PM 02/14/2016,Teleop Enabled,0,FALSE,0,NO ERROR,0.000000,0.000000,0.000000,0.000000,Speed,Speed,0.030000,1.160000,1.950000,0.000000,101.000000,1,0,-0.000558,0.001550,0,0.000000,-0.009338,0.000000,43.503418,-3.784622,0.000000,-0.023000,-0.023000,0.033000,FlatInitial
03:13:45.365 PM 02/14/2016,Teleop Enabled,0,FALSE,0,NO ERROR,0.000000,0.000000,0.000000,0.000000,Speed,Speed,0.060000,1.160000,1.730000,0.000000,102.000000,1,0,-0.000558,0.001550,0,0.000000,0.000000,0.000000,43.503250,-3.785172,0.000000,0.016000,-0.004000,0.028000,FlatInitial
03:13:45.465 PM 02/14/2016,Teleop Enabled,0,FALSE,0,NO ERROR,0.000000,0.000000,0.000000,0.000000,Speed,Speed,0.020000,1.160000,1.910000,0.000000,101.000000,1,0,-0.000558,0.001550,0,0.000000,0.000000,0.000000,43.503250,-3.785172,0.000000,-0.018000,-0.016000,0.031000,FlatInitial
03:13:45.565 PM 02/14/2016,Teleop Enabled,0,FALSE,0,NO ERROR,0.000000,0.000000,0.000000,0.000000,Speed,Speed,0.050000,1.150000,1.770000,0.000000,100.000000,1,0,-0.000558,0.001550,0,0.000000,0.000000,0.000000,43.503250,-3.785172,0.000000,0.005000,0.005000,0.028000,FlatInitial
03:13:45.666 PM 02/14/2016,Teleop Enabled,0,FALSE,0,NO ERROR,0.000000,0.000000,0.000000,0.000000,Speed,Speed,0.070000,1.120000,1.890000,0.000000,102.000000,1,0,-0.000558,0.001550,0,0.000000,0.000000,0.000000,43.503250,-3.784912,0.000000,0.025000,0.000000,0.040000,FlatInitial
03:13:45.766 PM 02/14/2016,Teleop Enabled,0,FALSE,0,NO ERROR,0.000000,0.000000,0.000000,0.000000,Speed,Speed,0.010000,1.120000,1.860000,0.000000,107.000000,1,0,-0.000558,0.001550,0,-0.005096,0.000000,0.000000,43.503296,-3.784912,0.000000,0.006000,0.001000,0.026000,FlatInitial
03:13:45.867 PM 02/14/2016,Teleop Enabled,0,FALSE,0,NO ERROR,0.000000,0.000000,0.000000,0.000000,Speed,Speed,0.040000,1.130000,1.800000,0.000000,101.000000,1,0,-0.000558,0.001550,0,0.000000,0.000000,0.000000,43.503265,-3.784912,0.000000,-0.008000,-0.005000,0.026000,FlatInitial
03:13:45.966 PM 02/14/2016,Teleop Enabled,0,FALSE,0,NO ERROR,0.000000,0.000000,0.000000,0.000000,Speed,Speed,0.030000,1.130000,1.880000,0.000000,102.000000,1,0,-0.000558,0.001550,0,0.000000,0.000000,0.000000,43.503265,-3.784912,0.000000,0.001000,-0.008000,0.024000,FlatInitial
03:13:46.067 PM 02/14/2016,Teleop Enabled,0,FALSE,0,NO ERROR,0.000000,0.000000,0.000000,0.000000,Speed,Speed,0.020000,1.130000,1.790000,0.000000,101.000000,1,0,-0.000558,0.001550,0,0.000000,0.000000,0.000000,43.503265,-3.784912,0.000000,-0.001000,0.008000,0.011000,FlatInitial
03:13:46.168 PM 02/14/2016,Teleop Enabled,0,FALSE,0,NO ERROR,0.000000,0.000000,0.000000,0.000000,Speed,Speed,0.020000,1.140000,1.850000,0.000000,102.000000,1,0,-0.000558,0.001550,0,0.000000,0.000000,0.000000,43.503265,-3.784912,0.000000,-0.004000,-0.006000,0.016000,FlatInitial
03:13:46.268 PM 02/14/2016,Teleop Enabled,0,FALSE,0,NO ERROR,0.000000,0.000000,-6000.000000,-6000.000000,Speed,Speed,0.020000,1.140000,1.850000,1.000000,102.000000,1,0,-0.000558,0.001550,0,0.000000,0.000000,0.000000,43.503265,-3.784912,0.000000,0.000000,0.006000,0.011000,FlatInitial
03:13:46.370 PM 02/14/2016,Teleop Enabled,0,FALSE,0,NO ERROR,-217.968750,259.277344,-6000.000000,-6000.000000,Speed,Speed,0.020000,1.150000,1.840000,1.000000,103.000000,1,0,-0.000558,0.001550,0,0.000000,0.000000,0.000000,43.503265,-3.784912,0.000000,0.009000,-0.011000,0.004000,FlatInitial
03:13:46.469 PM 02/14/2016,Teleop Enabled,0,FALSE,0,NO ERROR,-1829.589844,2005.664062,-6000.000000,-6000.000000,Speed,Speed,0.020000,1.130000,1.830000,1.000000,101.000000,1,0,-0.000558,0.001550,0,-0.010086,0.002808,0.000000,43.503128,-3.784882,0.000000,-0.035000,0.040000,0.003000,FlatInitial
03:13:46.570 PM 02/14/2016,Teleop Enabled,0,FALSE,0,NO ERROR,-3503.466797,3393.457031,-6000.000000,-6000.000000,Speed,Speed,0.020000,1.120000,1.890000,1.000000,103.000000,1,0,-0.000558,0.001550,0,0.000000,0.007355,0.000000,43.502609,-3.784714,0.000000,0.009000,0.014000,0.004000,FlatInitial
03:13:46.671 PM 02/14/2016,Teleop Enabled,0,FALSE,0,NO ERROR,-4880.273438,4769.677734,-6000.000000,-6000.000000,Speed,Speed,0.020000,1.130000,1.840000,1.000000,103.000000,1,0,-0.000558,0.001550,0,0.016357,0.011978,0.000000,43.503021,-3.784439,0.000000,0.001000,-0.016000,0.074000,FlatInitial
03:13:46.772 PM 02/14/2016,Teleop Enabled,0,FALSE,0,NO ERROR,-5647.265625,5552.343750,-6000.000000,-6000.000000,Speed,Speed,0.020000,1.150000,1.900000,1.000000,101.000000,1,0,-0.000558,0.001550,0,0.040970,0.003052,0.000000,43.504684,-3.783493,0.000000,-0.011000,0.033000,0.048000,FlatInitial
03:13:46.873 PM 02/14/2016,Teleop Enabled,0,FALSE,0,NO ERROR,-6086.132812,5796.093750,-6000.000000,-6000.000000,Speed,Speed,0.020000,1.140000,1.870000,1.000000,102.000000,1,0,-0.000558,0.001550,0,0.023285,0.000107,0.000000,43.506546,-3.783356,0.000000,-0.075000,-0.033000,0.211000,FlatInitial
03:13:46.975 PM 02/14/2016,Teleop Enabled,0,FALSE,0,NO ERROR,-6212.109375,5856.445312,-6000.000000,-6000.000000,Speed,Speed,0.020000,1.160000,1.710000,1.000000,104.000000,1,0,-0.000558,0.001550,0,-0.053513,-0.009659,0.000000,43.505493,-3.783691,0.000000,-0.064000,-0.006000,0.154000,FlatInitial
03:13:47.077 PM 02/14/2016,Teleop Enabled,0,FALSE,0,NO ERROR,-6209.765625,5897.460938,-6000.000000,-6000.000000,Speed,Speed,0.020000,1.110000,1.670000,1.000000,101.000000,1,0,-0.000558,0.001550,0,-0.150146,-0.072388,0.000000,43.500107,-3.785538,0.000000,-0.116000,-0.078000,-0.127000,FlatInitial
03:13:47.177 PM 02/14/2016,Teleop Enabled,0,FALSE,0,NO ERROR,-6159.960938,5944.335938,-6000.000000,-6000.000000,Speed,Speed,0.010000,1.140000,1.620000,1.000000,101.000000,1,0,-0.000558,0.001550,0,0.012421,-0.152908,0.000000,43.497025,-3.791245,0.000000,0.027000,-0.147000,-0.188000,FlatInitial
03:13:47.277 PM 02/14/2016,Teleop Enabled,0,FALSE,0,NO ERROR,-6109.570312,5944.335938,-6000.000000,-6000.000000,Speed,Speed,0.010000,1.140000,1.590000,1.000000,101.000000,1,0,-0.000558,0.001550,0,0.092407,-0.169266,0.000000,43.499680,-3.800232,0.000000,0.117000,0.070000,-0.085000,FlatInitial
03:13:47.379 PM 02/14/2016,Teleop Enabled,0,FALSE,0,NO ERROR,-6075.000000,6005.859375,-6000.000000,-6000.000000,Speed,Speed,0.000000,1.220000,1.720000,1.000000,102.000000,1,0,-0.000558,0.001550,0,0.149948,-0.114197,0.000000,43.506195,-3.806564,0.000000,0.005000,0.025000,-0.062000,FlatInitial
03:13:47.480 PM 02/14/2016,Teleop Enabled,0,FALSE,0,NO ERROR,-6053.906250,6005.859375,-6000.000000,-6000.000000,Speed,Speed,0.000000,1.240000,1.580000,1.000000,101.000000,1,0,-0.000558,0.001550,0,-0.014709,-0.144562,0.000000,43.507416,-3.813812,0.000000,-0.042000,-0.034000,-0.021000,FlatInitial
03:13:47.579 PM 02/14/2016,Teleop Enabled,0,FALSE,0,NO ERROR,-6038.085938,6019.335938,-6000.000000,-6000.000000,Speed,Speed,0.010000,1.240000,1.420000,1.000000,102.000000,1,0,-0.000558,0.001550,0,-0.040054,-0.188889,0.000000,43.506027,-3.822479,0.000000,-0.038000,-0.028000,0.004000,FlatInitial
03:13:47.679 PM 02/14/2016,Teleop Enabled,0,FALSE,0,NO ERROR,-6038.085938,6024.023438,-6000.000000,-6000.000000,Speed,Speed,0.010000,1.250000,1.410000,1.000000,102.000000,1,0,-0.000558,0.001550,0,-0.121750,-0.199554,0.000000,43.501740,-3.832245,0.000000,-0.093000,-0.002000,0.025000,FlatInitial
03:13:47.780 PM 02/14/2016,Teleop Enabled,0,FALSE,0,NO ERROR,-6016.992188,6021.093750,-6000.000000,-6000.000000,Speed,Speed,0.010000,1.240000,1.500000,1.000000,101.000000,1,0,-0.000558,0.001550,0,-0.198441,0.000000,0.000000,43.494995,-3.832245,0.000000,-0.089000,0.026000,0.012000,FlatInitial
03:13:47.881 PM 02/14/2016,Teleop Enabled,0,FALSE,0,NO ERROR,-6016.992188,6015.820312,-6000.000000,-6000.000000,Speed,Speed,0.000000,1.250000,1.680000,1.000000,103.000000,1,0,-0.000558,0.001550,0,-0.299850,0.036530,0.000000,43.479401,-3.831009,0.000000,-0.103000,0.010000,0.023000,FlatInitial
03:13:47.981 PM 02/14/2016,Teleop Enabled,0,FALSE,0,NO ERROR,-6015.234375,6015.820312,-6000.000000,-6000.000000,Speed,Speed,0.010000,1.250000,1.890000,1.000000,102.000000,1,0,-0.000558,0.001550,0,-0.394531,0.079102,0.000000,43.461685,-3.828033,0.000000,-0.123000,0.071000,0.035000,FlatInitial
03:13:48.082 PM 02/14/2016,Teleop Enabled,0,FALSE,0,NO ERROR,-6014.062500,6016.406250,-6000.000000,-6000.000000,Speed,Speed,0.000000,1.250000,2.040000,1.000000,101.000000,1,0,-0.000558,0.001550,0,-0.496170,0.106308,0.000000,43.438766,-3.823074,0.000000,-0.068000,0.012000,0.008000,FlatInitial
03:13:48.182 PM 02/14/2016,Teleop Enabled,0,FALSE,0,NO ERROR,-6014.648438,6019.335938,-6000.000000,-6000.000000,Speed,Speed,0.000000,1.270000,2.200000,1.000000,102.000000,1,0,-0.000558,0.001550,0,-0.571182,0.132477,0.000000,43.411636,-3.817230,0.000000,-0.051000,0.064000,0.020000,FlatInitial
03:13:48.282 PM 02/14/2016,Teleop Enabled,0,FALSE,0,NO ERROR,-6017.578125,6018.750000,-6000.000000,-6000.000000,Speed,Speed,0.010000,1.280000,2.360000,1.000000,102.000000,1,0,-0.000558,0.001550,0,-0.626572,0.167908,0.000000,43.381516,-3.809372,0.000000,-0.053000,-0.008000,0.065000,FlatInitial
03:13:48.383 PM 02/14/2016,Teleop Enabled,0,FALSE,0,NO ERROR,-6018.750000,6018.164062,-6000.000000,-6000.000000,Speed,Speed,0.010000,1.290000,2.290000,1.000000,101.000000,1,0,-0.000558,0.001550,0,-0.685211,0.000000,0.000000,43.348328,-3.809372,0.000000,-0.063000,-0.016000,0.073000,FlatInitial
03:13:48.485 PM 02/14/2016,Teleop Enabled,0,FALSE,0,NO ERROR,-6016.406250,6015.234375,-6000.000000,-6000.000000,Speed,Speed,0.000000,1.280000,2.280000,1.000000,101.000000,1,0,-0.000558,0.001550,0,-0.738434,0.009140,0.000000,43.312378,-3.809052,0.000000,-0.081000,-0.038000,0.082000,FlatInitial
03:13:48.585 PM 02/14/2016,Teleop Enabled,0,FALSE,0,NO ERROR,-6014.648438,6015.820312,-6000.000000,-6000.000000,Speed,Speed,0.000000,1.270000,2.180000,1.000000,101.000000,1,0,-0.000558,0.001550,0,-0.796875,-0.006989,0.000000,43.273682,-3.809174,0.000000,-0.055000,0.007000,0.107000,FlatInitial
03:13:48.685 PM 02/14/2016,Teleop Enabled,0,FALSE,0,NO ERROR,-6010.546875,6013.476562,-6000.000000,-6000.000000,Speed,Speed,0.000000,1.270000,2.030000,1.000000,102.000000,1,0,-0.000558,0.001550,0,-0.856613,-0.027832,0.000000,43.232101,-3.810028,0.000000,-0.057000,-0.019000,0.124000,FlatInitial
03:13:48.785 PM 02/14/2016,Teleop Enabled,0,FALSE,0,NO ERROR,-6008.789062,6010.546875,-6000.000000,-6000.000000,Speed,Speed,0.000000,1.270000,1.890000,1.000000,101.000000,1,0,-0.000558,0.001550,0,-0.925461,0.000000,0.000000,43.187210,-3.811737,0.000000,-0.065000,-0.013000,0.141000,FlatInitial
03:13:48.885 PM 02/14/2016,Teleop Enabled,0,FALSE,0,NO ERROR,-6009.960938,6009.375000,-6000.000000,-6000.000000,Speed,Speed,0.000000,1.240000,1.690000,1.000000,102.000000,1,0,-0.000558,0.001550,0,-0.983795,-0.031662,0.000000,43.139221,-3.812607,0.000000,-0.061000,-0.040000,0.150000,FlatInitial
03:13:48.985 PM 02/14/2016,Teleop Enabled,0,FALSE,0,NO ERROR,-6009.375000,6010.546875,-6000.000000,-6000.000000,Speed,Speed,0.000000,1.230000,1.530000,1.000000,101.000000,1,0,-0.000558,0.001550,0,-1.050385,-0.066299,0.000000,43.088028,-3.815216,0.000000,-0.079000,-0.028000,0.152000,FlatInitial
03:13:49.085 PM 02/14/2016,Teleop Enabled,0,FALSE,0,NO ERROR,-6009.960938,6010.546875,-6000.000000,-6000.000000,Speed,Speed,0.000000,1.190000,1.410000,1.000000,100.000000,1,0,-0.000558,0.001550,0,-1.122238,0.000000,0.000000,43.033279,-3.816696,0.000000,-0.067000,0.005000,0.150000,FlatInitial
03:13:49.185 PM 02/14/2016,Teleop Enabled,0,FALSE,0,NO ERROR,-6009.960938,6011.132812,-6000.000000,-6000.000000,Speed,Speed,0.000000,1.170000,1.280000,1.000000,101.000000,1,0,-0.000558,0.001550,0,-1.214798,-0.036789,0.000000,42.962814,-3.817978,0.000000,-0.063000,0.000000,0.151000,FlatInitial
03:13:49.285 PM 02/14/2016,Teleop Enabled,0,FALSE,0,NO ERROR,-6010.546875,6013.476562,-6000.000000,-6000.000000,Speed,Speed,0.000000,1.150000,1.170000,1.000000,102.000000,1,0,-0.000558,0.001550,0,-1.271179,-0.050598,0.000000,42.912903,-3.819824,0.000000,-0.092000,-0.010000,0.186000,FlatInitial
03:13:49.385 PM 02/14/2016,Teleop Enabled,0,FALSE,0,NO ERROR,-6008.203125,6014.062500,-6000.000000,-6000.000000,Speed,Speed,0.000000,1.120000,1.160000,1.000000,102.000000,1,0,-0.000558,0.001550,0,-1.347183,-0.015762,0.000000,42.847046,-3.820602,0.000000,-0.065000,-0.033000,0.154000,FlatInitial
03:13:49.485 PM 02/14/2016,Teleop Enabled,0,FALSE,0,NO ERROR,-6010.546875,6010.546875,-6000.000000,-6000.000000,Speed,Speed,0.000000,1.100000,1.200000,1.000000,102.000000,1,0,-0.000558,0.001550,0,-1.422501,0.002731,0.000000,42.763535,-3.821182,0.000000,-0.073000,0.020000,0.188000,FlatInitial
03:13:49.585 PM 02/14/2016,Teleop Enabled,0,FALSE,0,NO ERROR,-6010.546875,6008.203125,-6000.000000,-6000.000000,Speed,Speed,0.000000,1.090000,1.310000,1.000000,100.000000,1,0,-0.000558,0.001550,0,-1.483658,0.018890,0.000000,42.690613,-3.820526,0.000000,-0.066000,-0.003000,0.154000,FlatInitial
03:13:49.685 PM 02/14/2016,Teleop Enabled,0,FALSE,0,NO ERROR,-6007.617188,6012.304688,-6000.000000,-6000.000000,Speed,Speed,0.000000,1.090000,1.460000,1.000000,103.000000,1,0,-0.000558,0.001550,0,-1.553680,0.000000,0.000000,42.614410,-3.819595,0.000000,-0.083000,0.005000,0.184000,FlatInitial
03:13:49.785 PM 02/14/2016,Teleop Enabled,0,FALSE,0,NO ERROR,-6007.617188,6011.718750,-6000.000000,-6000.000000,Speed,Speed,0.000000,1.090000,1.620000,1.000000,101.000000,1,0,-0.000558,0.001550,0,-1.613846,0.002914,0.000000,42.534912,-3.819550,0.000000,-0.063000,-0.018000,0.176000,FlatInitial
03:13:49.885 PM 02/14/2016,Teleop Enabled,0,FALSE,0,NO ERROR,-6006.445312,6010.546875,-6000.000000,-6000.000000,Speed,Speed,0.000000,1.070000,1.760000,1.000000,101.000000,1,0,-0.000558,0.001550,0,-1.671097,0.002136,0.000000,42.452499,-3.819519,0.000000,-0.047000,0.034000,0.122000,FlatInitial
03:13:49.986 PM 02/14/2016,Teleop Enabled,0,FALSE,0,NO ERROR,-6006.445312,6006.445312,-6000.000000,-6000.000000,Speed,Speed,0.000000,1.090000,1.920000,1.000000,101.000000,1,0,-0.000558,0.001550,0,-1.720184,-0.009918,0.000000,42.367432,-3.819611,0.000000,-0.069000,-0.002000,0.122000,FlatInitial
03:13:50.086 PM 02/14/2016,Teleop Enabled,0,FALSE,0,NO ERROR,-6005.859375,6005.859375,-6000.000000,-6000.000000,Speed,Speed,0.000000,1.080000,2.090000,1.000000,102.000000,1,0,-0.000558,0.001550,0,-1.762985,-0.001938,0.000000,42.280228,-3.819717,0.000000,-0.047000,-0.022000,0.127000,FlatInitial
03:13:50.187 PM 02/14/2016,Teleop Enabled,0,FALSE,0,NO ERROR,-6004.687500,6006.445312,-6000.000000,-6000.000000,Speed,Speed,0.000000,1.100000,2.160000,1.000000,102.000000,1,0,-0.000558,0.001550,0,-1.800110,-0.028107,0.000000,42.191055,-3.820496,0.000000,-0.035000,0.004000,0.126000,FlatInitial
03:13:50.286 PM 02/14/2016,Teleop Enabled,0,FALSE,0,NO ERROR,-6003.515625,6005.273438,-6000.000000,-6000.000000,Speed,Speed,0.000000,1.100000,2.330000,1.000000,102.000000,1,0,-0.000558,0.001550,0,-1.838425,-0.004013,0.000000,42.099884,-3.821136,0.000000,-0.050000,-0.029000,0.146000,FlatInitial
03:13:50.386 PM 02/14/2016,Teleop Enabled,0,FALSE,0,NO ERROR,-6003.515625,6003.515625,-6000.000000,-6000.000000,Speed,Speed,0.000000,1.120000,2.460000,1.000000,100.000000,1,0,-0.000558,0.001550,0,-1.884048,-0.009506,0.000000,42.006516,-3.821533,0.000000,-0.025000,-0.044000,0.129000,FlatInitial
03:13:50.486 PM 02/14/2016,Teleop Enabled,0,FALSE,0,NO ERROR,-6002.343750,6001.171875,-6000.000000,-6000.000000,Speed,Speed,0.000000,1.130000,2.510000,1.000000,107.000000,1,0,-0.000558,0.001550,0,-1.921097,-0.056290,0.000000,41.911240,-3.823380,0.000000,-0.040000,-0.034000,0.127000,FlatInitial
03:13:50.586 PM 02/14/2016,Teleop Enabled,0,FALSE,0,NO ERROR,-6001.757812,6001.171875,-6000.000000,-6000.000000,Speed,Speed,0.000000,1.140000,2.620000,1.000000,101.000000,1,0,-0.000558,0.001550,0,-1.956787,-0.087250,0.000000,41.814163,-3.827164,0.000000,-0.057000,-0.032000,0.139000,FlatInitial
03:13:50.686 PM 02/14/2016,Teleop Enabled,0,FALSE,0,NO ERROR,-6001.171875,5985.351562,-6000.000000,-6000.000000,Speed,Speed,0.000000,1.160000,2.720000,1.000000,101.000000,1,0,-0.000558,0.001550,0,-1.999237,-0.132538,0.000000,41.695160,-3.834000,0.000000,-0.019000,-0.052000,0.114000,FlatInitial
03:13:50.786 PM 02/14/2016,Teleop Enabled,0,FALSE,0,NO ERROR,-6002.343750,5980.664062,-6000.000000,-6000.000000,Speed,Speed,0.000000,1.180000,2.850000,1.000000,101.000000,1,0,-0.000558,0.001550,0,-2.020187,-0.008514,0.000000,41.594543,-3.836929,0.000000,-0.011000,-0.026000,0.109000,FlatInitial
03:13:50.886 PM 02/14/2016,Teleop Enabled,0,FALSE,0,NO ERROR,-6004.101562,5987.109375,-6000.000000,-6000.000000,Speed,Speed,0.000000,1.210000,2.970000,1.000000,101.000000,1,0,-0.000558,0.001550,0,-2.043594,-0.035645,0.000000,41.492874,-3.838318,0.000000,-0.017000,0.009000,0.121000,FlatInitial
03:13:50.986 PM 02/14/2016,Teleop Enabled,0,FALSE,0,NO ERROR,-6005.273438,6001.757812,-6000.000000,-6000.000000,Speed,Speed,0.000000,1.240000,3.090000,1.000000,101.000000,1,0,-0.000558,0.001550,0,0.000000,-0.021454,0.000000,41.492874,-3.838898,0.000000,-0.013000,-0.005000,0.104000,FlatInitial
03:13:51.086 PM 02/14/2016,Teleop Enabled,0,FALSE,0,NO ERROR,-6007.031250,6015.820312,-6000.000000,-6000.000000,Speed,Speed,0.000000,1.260000,3.210000,1.000000,100.000000,1,0,-0.000558,0.001550,0,0.000000,-0.026459,0.000000,41.492615,-3.839600,0.000000,0.007000,-0.085000,0.112000,FlatInitial
03:13:51.186 PM 02/14/2016,Teleop Enabled,0,FALSE,0,NO ERROR,-6005.859375,6021.093750,-6000.000000,-6000.000000,Speed,Speed,-0.010000,1.290000,3.190000,1.000000,101.000000,1,0,-0.000558,0.001550,0,0.000000,-0.094131,0.000000,41.492538,-3.843155,0.000000,0.010000,-0.031000,0.097000,FlatInitial
03:13:51.287 PM 02/14/2016,Teleop Enabled,0,FALSE,0,NO ERROR,-6004.687500,6020.507812,-6000.000000,-6000.000000,Speed,Speed,-0.010000,1.300000,3.160000,1.000000,103.000000,1,0,-0.000558,0.001550,0,-0.008072,-0.153793,0.000000,41.492355,-3.849548,0.000000,-0.029000,-0.058000,0.094000,FlatInitial
03:13:51.387 PM 02/14/2016,Teleop Enabled,0,FALSE,0,NO ERROR,-6005.859375,6015.234375,-6000.000000,-6000.000000,Speed,Speed,-0.010000,1.300000,3.070000,1.000000,101.000000,1,0,-0.000558,0.001550,0,0.000000,-0.225906,0.000000,41.492142,-3.859299,0.000000,-0.010000,-0.062000,0.107000,FlatInitial
03:13:51.488 PM 02/14/2016,Teleop Enabled,0,FALSE,0,NO ERROR,-6009.960938,6011.718750,-6000.000000,-6000.000000,Speed,Speed,-0.010000,1.320000,2.920000,1.000000,102.000000,1,0,-0.000558,0.001550,0,0.000000,-0.293304,0.000000,41.492142,-3.872559,0.000000,0.005000,-0.102000,0.098000,FlatInitial
03:13:51.588 PM 02/14/2016,Teleop Enabled,0,FALSE,0,NO ERROR,-6007.031250,6007.617188,-6000.000000,-6000.000000,Speed,Speed,-0.020000,1.320000,2.770000,1.000000,101.000000,1,0,-0.000558,0.001550,0,0.000000,-0.373230,0.000000,41.492142,-3.889618,0.000000,0.003000,-0.099000,0.088000,FlatInitial
03:13:51.688 PM 02/14/2016,Teleop Enabled,0,FALSE,0,NO ERROR,-5987.109375,6009.375000,-6000.000000,-6000.000000,Speed,Speed,-0.030000,1.360000,2.610000,1.000000,101.000000,1,0,-0.000558,0.001550,0,0.000000,-0.434967,0.000000,41.492142,-3.910400,0.000000,0.014000,-0.019000,0.095000,FlatInitial
03:13:51.788 PM 02/14/2016,Teleop Enabled,0,FALSE,0,NO ERROR,-5962.500000,6008.203125,-6000.000000,-6000.000000,Speed,Speed,-0.020000,1.400000,2.550000,1.000000,102.000000,1,0,-0.000558,0.001550,0,0.013290,-0.459991,0.000000,41.492401,-3.933044,0.000000,0.016000,-0.016000,0.107000,FlatInitial
03:13:51.888 PM 02/14/2016,Teleop Enabled,0,FALSE,0,NO ERROR,-5976.562500,6003.515625,-6000.000000,-6000.000000,Speed,Speed,-0.030000,1.410000,2.520000,1.000000,101.000000,1,0,-0.000558,0.001550,0,0.034332,-0.483414,0.000000,41.493820,-3.956894,0.000000,0.024000,0.000000,0.157000,FlatInitial
03:13:51.989 PM 02/14/2016,Teleop Enabled,0,FALSE,0,NO ERROR,-6000.000000,6002.929688,-6000.000000,-6000.000000,Speed,Speed,-0.030000,1.430000,2.460000,1.000000,103.000000,1,0,-0.000558,0.001550,0,0.000000,-0.008591,0.000000,41.494553,-3.957016,0.000000,0.014000,0.003000,0.118000,FlatInitial
03:13:52.088 PM 02/14/2016,Teleop Enabled,0,FALSE,0,NO ERROR,-6015.820312,6003.515625,-6000.000000,-6000.000000,Speed,Speed,-0.030000,1.480000,2.420000,1.000000,102.000000,1,0,-0.000558,0.001550,0,0.014359,-0.028748,0.000000,41.494888,-3.958069,0.000000,0.014000,-0.005000,0.079000,FlatInitial
03:13:52.188 PM 02/14/2016,Teleop Enabled,0,FALSE,0,NO ERROR,-6020.507812,6002.343750,-6000.000000,-6000.000000,Speed,Speed,-0.030000,1.510000,2.340000,1.000000,101.000000,1,0,-0.000558,0.001550,0,0.041016,-0.067474,0.000000,41.496643,-3.960846,0.000000,0.051000,-0.065000,0.070000,FlatInitial
03:13:52.289 PM 02/14/2016,Teleop Enabled,0,FALSE,0,NO ERROR,-6022.851562,6002.343750,-6000.000000,-6000.000000,Speed,Speed,-0.030000,1.550000,2.170000,1.000000,101.000000,1,0,-0.000558,0.001550,0,0.070358,-0.110718,0.000000,41.499664,-3.965591,0.000000,-0.016000,-0.053000,0.082000,FlatInitial
03:13:52.389 PM 02/14/2016,Teleop Enabled,0,FALSE,0,NO ERROR,-6017.578125,6004.101562,-6000.000000,-6000.000000,Speed,Speed,-0.030000,1.550000,2.040000,1.000000,101.000000,1,0,-0.000558,0.001550,0,0.090820,-0.144897,0.000000,41.503616,-3.972244,0.000000,0.044000,-0.033000,0.057000,FlatInitial
03:13:52.489 PM 02/14/2016,Teleop Enabled,0,FALSE,0,NO ERROR,-6016.992188,6004.687500,-6000.000000,-6000.000000,Speed,Speed,-0.040000,1.520000,1.840000,1.000000,102.000000,1,0,-0.000558,0.001550,0,0.131287,-0.186310,0.000000,41.509293,-3.980850,0.000000,0.044000,-0.033000,0.057000,FlatInitial
03:13:52.589 PM 02/14/2016,Teleop Enabled,0,FALSE,0,NO ERROR,-6016.406250,6005.859375,-6000.000000,-6000.000000,Speed,Speed,-0.030000,1.490000,1.670000,1.000000,101.000000,1,0,-0.000558,0.001550,0,0.167465,-0.214722,0.000000,41.517075,-3.991074,0.000000,0.067000,-0.030000,0.029000,FlatInitial
03:13:52.689 PM 02/14/2016,Teleop Enabled,0,FALSE,0,NO ERROR,-6011.132812,6007.031250,-6000.000000,-6000.000000,Speed,Speed,-0.040000,1.450000,1.530000,1.000000,101.000000,1,0,-0.000558,0.001550,0,0.216049,-0.239975,0.000000,41.526794,-4.002518,0.000000,0.014000,-0.034000,0.072000,FlatInitial
03:13:52.789 PM 02/14/2016,Teleop Enabled,0,FALSE,0,NO ERROR,-6004.101562,6009.375000,-6000.000000,-6000.000000,Speed,Speed,-0.040000,1.400000,1.430000,1.000000,106.000000,1,0,-0.000558,0.001550,0,0.259140,-0.005157,0.000000,41.538956,-4.005005,0.000000,0.055000,-0.010000,0.023000,FlatInitial
03:13:52.889 PM 02/14/2016,Teleop Enabled,0,FALSE,0,NO ERROR,-6001.757812,6008.203125,-6000.000000,-6000.000000,Speed,Speed,-0.040000,1.380000,1.360000,1.000000,102.000000,1,0,-0.000558,0.001550,0,0.324646,-0.018723,0.000000,41.553833,-4.005890,0.000000,0.055000,-0.010000,0.023000,FlatInitial
03:13:52.989 PM 02/14/2016,Teleop Enabled,0,FALSE,0,NO ERROR,-6001.171875,6005.859375,-6000.000000,-6000.000000,Speed,Speed,-0.040000,1.360000,1.310000,1.000000,103.000000,1,0,-0.000558,0.001550,0,0.387192,0.000000,0.000000,41.571976,-4.006317,0.000000,0.059000,-0.027000,-0.006000,FlatInitial
03:13:53.089 PM 02/14/2016,Teleop Enabled,0,FALSE,0,NO ERROR,-6001.171875,6003.515625,-6000.000000,-6000.000000,Speed,Speed,-0.040000,1.300000,1.290000,1.000000,101.000000,1,0,-0.000558,0.001550,0,0.387192,0.000000,0.000000,41.571976,-4.006317,0.000000,0.040000,0.007000,0.019000,FlatInitial
03:13:53.190 PM 02/14/2016,Teleop Enabled,0,FALSE,0,NO ERROR,-6003.515625,6001.757812,-6000.000000,-6000.000000,Speed,Speed,-0.040000,1.260000,1.290000,1.000000,101.000000,1,0,-0.000558,0.001550,0,0.509552,0.003479,0.000000,41.616989,-4.005829,0.000000,0.057000,0.022000,-0.010000,FlatInitial
03:13:53.290 PM 02/14/2016,Teleop Enabled,0,FALSE,0,NO ERROR,-6005.859375,6002.343750,-6000.000000,-6000.000000,Speed,Speed,-0.040000,1.230000,1.320000,1.000000,102.000000,1,0,-0.000558,0.001550,0,0.509552,0.003479,0.000000,41.616989,-4.005829,0.000000,0.086000,0.031000,-0.013000,FlatInitial
03:13:53.390 PM 02/14/2016,Teleop Enabled,0,FALSE,0,NO ERROR,-6004.687500,6005.273438,-6000.000000,-6000.000000,Speed,Speed,-0.040000,1.220000,1.390000,1.000000,101.000000,1,0,-0.000558,0.001550,0,0.568039,0.000000,0.000000,41.644348,-4.005035,0.000000,0.050000,0.012000,-0.007000,FlatInitial
03:13:53.491 PM 02/14/2016,Teleop Enabled,0,FALSE,0,NO ERROR,-6000.000000,5932.617188,-6000.000000,-6000.000000,Speed,Speed,-0.040000,1.220000,1.390000,1.000000,101.000000,1,0,-0.000558,0.001550,0,0.638885,0.017700,0.000000,41.674866,-4.004501,0.000000,0.079000,0.043000,-0.028000,FlatInitial
03:13:53.591 PM 02/14/2016,Teleop Enabled,0,FALSE,0,NO ERROR,-5858.789062,5872.265625,-6000.000000,-6000.000000,Speed,Speed,0.000000,1.150000,1.390000,1.000000,104.000000,1,0,-0.000558,0.001550,0,0.697067,0.031876,0.000000,41.708618,-4.002808,0.000000,0.078000,-0.067000,-0.005000,FlatInitial
03:13:53.692 PM 02/14/2016,Teleop Enabled,0,FALSE,0,NO ERROR,-2477.050781,3042.919922,-6000.000000,-6000.000000,Speed,Speed,-0.070000,1.140000,1.380000,1.000000,101.000000,1,0,-0.000558,0.001550,0,0.720963,-0.037659,0.000000,41.752182,-4.004074,0.000000,-0.051000,-0.040000,0.359000,FlatInitial
03:13:53.792 PM 02/14/2016,Teleop Enabled,0,FALSE,0,NO ERROR,-2902.441406,3229.101562,-6000.000000,-6000.000000,Speed,Speed,-0.010000,1.190000,1.180000,1.000000,101.000000,1,0,-0.000558,0.001550,0,0.707306,0.000000,0.000000,41.787384,-4.005920,0.000000,0.038000,-0.002000,-0.168000,FlatInitial
03:13:53.892 PM 02/14/2016,Teleop Enabled,0,FALSE,0,NO ERROR,-4437.451172,4765.283203,-6000.000000,-6000.000000,Speed,Speed,0.020000,1.090000,1.290000,1.000000,101.000000,1,0,-0.000558,0.001550,0,0.686996,-0.016037,0.000000,41.822128,-4.006454,0.000000,0.063000,0.087000,-0.207000,FlatInitial
03:13:53.993 PM 02/14/2016,Teleop Enabled,0,FALSE,0,NO ERROR,-5606.250000,5658.398438,-6000.000000,-6000.000000,Speed,Speed,0.060000,1.140000,1.360000,1.000000,101.000000,1,0,-0.000558,0.001550,0,0.000000,0.000000,0.000000,41.849640,-4.005341,0.000000,0.001000,-0.007000,0.061000,FlatInitial
03:13:54.095 PM 02/14/2016,Teleop Enabled,0,FALSE,0,NO ERROR,-6166.992188,5919.726562,0.000000,0.000000,Speed,Speed,-0.010000,1.140000,1.420000,2.000000,101.000000,1,0,-0.000558,0.001550,0,0.016190,-0.024948,0.000000,41.850220,-4.005783,0.000000,0.010000,-0.062000,-0.122000,FlatInitial
03:13:54.194 PM 02/14/2016,Teleop Enabled,0,FALSE,0,NO ERROR,-6240.234375,5971.289062,0.000000,0.000000,Speed,Speed,-0.020000,1.170000,1.380000,2.000000,102.000000,1,0,-0.000558,0.001550,0,0.051865,0.000000,0.000000,41.852249,-4.008728,0.000000,0.079000,0.089000,0.058000,FlatInitial
03:13:54.297 PM 02/14/2016,Teleop Enabled,0,FALSE,0,NO ERROR,-5871.093750,5636.132812,0.000000,0.000000,Speed,Speed,0.040000,1.200000,1.410000,2.000000,103.000000,1,0,-0.000558,0.001550,0,0.097397,0.004700,0.000000,41.856491,-4.008118,0.000000,0.034000,0.039000,0.023000,FlatInitial
03:13:54.394 PM 02/14/2016,Teleop Enabled,0,FALSE,0,NO ERROR,-5527.734375,5146.875000,0.000000,0.000000,Speed,Speed,0.000000,1.200000,1.470000,2.000000,102.000000,1,0,-0.000558,0.001550,0,0.111908,0.025665,0.000000,41.861847,-4.007477,0.000000,0.078000,0.015000,-0.068000,FlatInitial
03:13:54.494 PM 02/14/2016,Teleop Enabled,0,FALSE,0,NO ERROR,-5110.546875,4669.921875,0.000000,0.000000,Speed,Speed,0.030000,1.210000,1.470000,2.000000,101.000000,1,0,-0.000558,0.001550,0,0.152466,0.047806,0.000000,41.868729,-4.005692,0.000000,-0.071000,-0.043000,0.088000,FlatInitial
03:13:54.595 PM 02/14/2016,Teleop Enabled,0,FALSE,0,NO ERROR,-4703.173828,4209.814453,0.000000,0.000000,Speed,Speed,0.010000,1.190000,1.450000,2.000000,101.000000,1,0,-0.000558,0.001550,0,0.136475,0.029556,0.000000,41.875458,-4.003876,0.000000,0.018000,0.027000,0.039000,FlatInitial
03:13:54.697 PM 02/14/2016,Teleop Enabled,0,FALSE,0,NO ERROR,-4310.009766,3764.648437,0.000000,0.000000,Speed,Speed,0.000000,1.230000,1.490000,2.000000,101.000000,1,0,-0.000558,0.001550,0,0.146484,0.063416,0.000000,41.882980,-4.001541,0.000000,-0.014000,-0.026000,-0.021000,FlatInitial
03:13:54.797 PM 02/14/2016,Teleop Enabled,0,FALSE,0,NO ERROR,-3933.105469,3422.753906,0.000000,0.000000,Speed,Speed,0.010000,1.280000,1.570000,2.000000,103.000000,1,0,-0.000558,0.001550,0,0.016815,0.000000,0.000000,41.883331,-3.999329,0.000000,0.010000,0.057000,-0.159000,FlatInitial
03:13:54.899 PM 02/14/2016,Teleop Enabled,0,FALSE,0,NO ERROR,-3563.671875,3008.056641,0.000000,0.000000,Speed,Speed,0.010000,1.260000,1.530000,2.000000,101.000000,1,0,-0.000558,0.001550,0,-0.004944,0.008942,0.000000,41.883041,-3.999161,0.000000,0.033000,0.047000,-0.055000,FlatInitial
03:13:54.999 PM 02/14/2016,Teleop Enabled,0,FALSE,0,NO ERROR,-3275.976562,2612.988281,0.000000,0.000000,Speed,Speed,0.000000,1.250000,1.660000,2.000000,101.000000,1,0,-0.000558,0.001550,0,0.003708,0.039474,0.000000,41.883240,-3.998001,0.000000,0.041000,-0.011000,0.000000,FlatInitial
03:13:55.101 PM 02/14/2016,Teleop Enabled,0,FALSE,0,NO ERROR,-2930.859375,2238.867188,0.000000,0.000000,Speed,Speed,0.010000,1.260000,1.680000,2.000000,102.000000,1,0,-0.000558,0.001550,0,0.012344,0.004166,0.000000,41.884171,-3.997986,0.000000,-0.027000,0.031000,-0.085000,FlatInitial
03:13:55.201 PM 02/14/2016,Teleop Enabled,0,FALSE,0,NO ERROR,-2601.123047,1888.183594,0.000000,0.000000,Speed,Speed,0.000000,1.230000,1.700000,2.000000,102.000000,1,0,-0.000558,0.001550,0,-0.008072,0.014496,0.000000,41.883789,-3.997269,0.000000,0.035000,-0.053000,-0.014000,FlatInitial
03:13:55.300 PM 02/14/2016,Teleop Enabled,0,FALSE,0,NO ERROR,-2286.181641,1888.183594,0.000000,0.000000,Speed,Speed,0.000000,1.240000,1.680000,3.000000,100.000000,1,0,-0.000558,0.001550,0,-0.021912,-0.000427,0.000000,41.883072,-3.997101,0.000000,-0.011000,0.037000,0.008000,FlatInitial
03:13:55.403 PM 02/14/2016,Teleop Enabled,0,FALSE,0,NO ERROR,-1563.427734,1560.205078,4000.000000,4000.000000,Speed,Speed,0.000000,1.250000,1.710000,0.000000,103.000000,1,0,-0.000558,0.001550,0,0.000000,0.013733,0.000000,41.882690,-3.996643,0.000000,-0.049000,-0.061000,0.077000,FlatInitial
03:13:55.503 PM 02/14/2016,Teleop Enabled,0,FALSE,0,NO ERROR,275.976562,967.382812,0.000000,0.000000,Speed,Speed,0.000000,1.230000,1.700000,0.000000,102.000000,1,0,-0.000558,0.001550,0,0.000000,0.000000,0.000000,41.882370,-3.996506,0.000000,0.016000,0.027000,0.006000,FlatInitial
03:13:55.604 PM 02/14/2016,Teleop Enabled,0,FALSE,0,NO ERROR,982.617187,-624.316406,0.000000,0.000000,Speed,Speed,0.000000,1.230000,1.700000,0.000000,102.000000,1,0,-0.000558,0.001550,0,-0.008636,0.005325,0.000000,41.882248,-3.996323,0.000000,-0.003000,0.000000,-0.007000,FlatInitial
03:13:55.704 PM 02/14/2016,Teleop Enabled,0,FALSE,0,NO ERROR,982.617187,-897.509766,0.000000,0.000000,Speed,Speed,0.000000,1.230000,1.710000,0.000000,101.000000,1,0,-0.000558,0.001550,0,0.000000,0.000000,0.000000,41.882126,-3.996323,0.000000,-0.012000,-0.008000,0.023000,FlatInitial
03:13:55.803 PM 02/14/2016,Teleop Enabled,0,FALSE,0,NO ERROR,772.558594,-897.509766,0.000000,0.000000,Speed,Speed,0.010000,1.220000,1.680000,0.000000,101.000000,1,0,-0.000558,0.001550,0,0.000000,0.002380,0.000000,41.882126,-3.996292,0.000000,0.000000,0.021000,-0.050000,FlatInitial
03:13:55.903 PM 02/14/2016,Teleop Enabled,0,FALSE,0,NO ERROR,560.888672,-644.677734,0.000000,0.000000,Speed,Speed,0.000000,1.220000,1.710000,0.000000,101.000000,1,0,-0.000558,0.001550,0,0.000000,0.000000,0.000000,41.882126,-3.996216,0.000000,0.008000,-0.007000,0.049000,FlatInitial
03:13:56.003 PM 02/14/2016,Teleop Enabled,0,FALSE,0,NO ERROR,365.332031,-407.812500,0.000000,0.000000,Speed,Speed,0.000000,1.210000,1.710000,0.000000,101.000000,1,0,-0.000558,0.001550,0,0.000000,0.000000,0.000000,41.882126,-3.996216,0.000000,0.001000,-0.001000,-0.021000,FlatInitial
03:13:56.103 PM 02/14/2016,Teleop Enabled,0,FALSE,0,NO ERROR,228.662109,-236.425781,0.000000,0.000000,Speed,Speed,0.000000,1.210000,1.720000,0.000000,102.000000,1,0,-0.000558,0.001550,0,0.000000,0.000000,0.000000,41.882126,-3.996216,0.000000,-0.005000,-0.003000,-0.012000,FlatInitial
03:13:56.203 PM 02/14/2016,Teleop Enabled,0,FALSE,0,NO ERROR,156.445312,-124.658203,0.000000,0.000000,Speed,Speed,0.010000,1.200000,1.730000,0.000000,102.000000,1,0,-0.000558,0.001550,0,0.000000,0.000000,0.000000,41.882126,-3.996216,0.000000,-0.011000,0.000000,0.000000,FlatInitial
03:13:56.303 PM 02/14/2016,Teleop Enabled,0,FALSE,0,NO ERROR,69.726562,21.533203,0.000000,0.000000,Speed,Speed,0.010000,1.200000,1.740000,0.000000,101.000000,1,0,-0.000558,0.001550,0,0.000000,0.000000,0.000000,41.882126,-3.996216,0.000000,0.004000,0.005000,0.008000,FlatInitial
03:13:56.404 PM 02/14/2016,Teleop Enabled,0,FALSE,0,NO ERROR,-0.292969,20.654297,0.000000,0.000000,Speed,Speed,0.010000,1.200000,1.750000,0.000000,103.000000,1,0,-0.000558,0.001550,0,0.000000,0.000000,0.000000,41.882126,-3.996216,0.000000,-0.003000,0.001000,0.002000,FlatInitial
03:13:56.504 PM 02/14/2016,Teleop Enabled,0,FALSE,0,NO ERROR,0.000000,1.757812,0.000000,0.000000,Speed,Speed,0.010000,1.190000,1.760000,0.000000,101.000000,1,0,-0.000558,0.001550,0,0.000000,0.000000,0.000000,41.882126,-3.996216,0.000000,-0.001000,0.002000,-0.004000,FlatInitial
03:13:56.605 PM 02/14/2016,Teleop Enabled,0,FALSE,0,NO ERROR,0.000000,0.146484,0.000000,0.000000,Speed,Speed,0.010000,1.190000,1.760000,0.000000,101.000000,1,0,-0.000558,0.001550,0,0.000000,0.000000,0.000000,41.882126,-3.996216,0.000000,-0.001000,-0.002000,0.004000,FlatInitial
03:13:56.705 PM 02/14/2016,Teleop Enabled,0,FALSE,0,NO ERROR,0.000000,0.000000,0.000000,0.000000,Speed,Speed,0.010000,1.180000,1.770000,0.000000,103.000000,1,0,-0.000558,0.001550,0,0.000000,0.000000,0.000000,41.882126,-3.996216,0.000000,-0.003000,0.006000,-0.001000,FlatInitial
03:13:56.806 PM 02/14/2016,Teleop Enabled,0,FALSE,0,NO ERROR,0.000000,0.000000,0.000000,0.000000,Speed,Speed,0.010000,1.180000,1.770000,0.000000,104.000000,1,0,-0.000558,0.001550,0,0.000000,0.000000,0.000000,41.882126,-3.996216,0.000000,0.001000,-0.003000,0.007000,FlatInitial
03:13:56.905 PM 02/14/2016,Teleop Enabled,0,FALSE,0,NO ERROR,0.000000,0.000000,0.000000,0.000000,Speed,Speed,0.010000,1.190000,1.760000,0.000000,102.000000,1,0,-0.000558,0.001550,0,0.000000,0.000000,0.000000,41.882126,-3.996216,0.000000,0.000000,0.002000,0.000000,FlatInitial
03:13:57.006 PM 02/14/2016,Teleop Enabled,0,FALSE,0,NO ERROR,0.000000,0.000000,0.000000,0.000000,Speed,Speed,0.020000,1.190000,1.780000,0.000000,101.000000,1,0,-0.000558,0.001550,0,0.000000,0.000000,0.000000,41.882126,-3.996216,0.000000,0.000000,-0.003000,-0.001000,FlatInitial
03:13:57.106 PM 02/14/2016,Teleop Enabled,0,FALSE,0,NO ERROR,0.000000,0.000000,0.000000,0.000000,Speed,Speed,0.010000,1.190000,1.780000,0.000000,101.000000,1,0,-0.000558,0.001550,0,0.000000,0.000000,0.000000,41.882126,-3.996216,0.000000,-0.001000,0.002000,-0.001000,FlatInitial
03:13:57.207 PM 02/14/2016,Teleop Enabled,0,FALSE,0,NO ERROR,0.000000,0.000000,0.000000,0.000000,Speed,Speed,0.020000,1.190000,1.790000,0.000000,101.000000,1,0,-0.000558,0.001550,0,0.000000,0.000000,0.000000,41.882126,-3.996216,0.000000,0.002000,-0.003000,0.000000,FlatInitial
03:13:57.307 PM 02/14/2016,Teleop Enabled,0,FALSE,0,NO ERROR,0.000000,0.000000,0.000000,0.000000,Speed,Speed,0.010000,1.190000,1.800000,0.000000,101.000000,1,0,-0.000558,0.001550,0,0.000000,0.000000,0.000000,41.882126,-3.996216,0.000000,-0.002000,0.002000,0.000000,FlatInitial
03:13:57.408 PM 02/14/2016,Teleop Enabled,0,FALSE,0,NO ERROR,0.000000,0.000000,0.000000,0.000000,Speed,Speed,0.020000,1.180000,1.800000,0.000000,101.000000,1,0,-0.000558,0.001550,0,0.000000,0.000000,0.000000,41.882126,-3.996216,0.000000,0.001000,0.001000,0.000000,FlatInitial
03:13:57.510 PM 02/14/2016,Teleop Enabled,0,FALSE,0,NO ERROR,0.000000,0.000000,0.000000,0.000000,Speed,Speed,0.010000,1.180000,1.810000,0.000000,101.000000,1,0,-0.000558,0.001550,0,0.000000,0.000000,0.000000,41.882126,-3.996216,0.000000,0.000000,0.000000,0.000000,FlatInitial
03:13:57.610 PM 02/14/2016,Teleop Enabled,0,FALSE,0,NO ERROR,0.000000,0.000000,0.000000,0.000000,Speed,Speed,0.010000,1.180000,1.820000,0.000000,103.000000,1,0,-0.000558,0.001550,0,0.000000,0.000000,0.000000,41.882126,-3.996216,0.000000,0.002000,0.002000,0.001000,FlatInitial
03:13:57.710 PM 02/14/2016,Teleop Enabled,0,FALSE,0,NO ERROR,0.000000,0.000000,0.000000,0.000000,Speed,Speed,0.010000,1.180000,1.820000,0.000000,101.000000,1,0,-0.000558,0.001550,0,0.000000,0.000000,0.000000,41.882126,-3.996216,0.000000,-0.001000,0.001000,0.004000,FlatInitial
03:13:57.810 PM 02/14/2016,Teleop Enabled,0,FALSE,0,NO ERROR,0.000000,0.000000,0.000000,0.000000,Speed,Speed,0.020000,1.180000,1.820000,0.000000,103.000000,1,0,-0.000558,0.001550,0,0.000000,0.000000,0.000000,41.882126,-3.996216,0.000000,0.001000,0.003000,0.000000,FlatInitial
03:13:57.910 PM 02/14/2016,Teleop Enabled,0,FALSE,0,NO ERROR,0.000000,0.000000,0.000000,0.000000,Speed,Speed,0.020000,1.170000,1.820000,0.000000,100.000000,1,0,-0.000558,0.001550,0,0.000000,0.000000,0.000000,41.882126,-3.996216,0.000000,-0.001000,-0.001000,0.000000,FlatInitial
03:13:58.010 PM 02/14/2016,Teleop Enabled,0,FALSE,0,NO ERROR,0.000000,0.000000,0.000000,0.000000,Speed,Speed,0.020000,1.170000,1.820000,0.000000,101.000000,1,0,-0.000558,0.001550,0,0.000000,0.000000,0.000000,41.882126,-3.996216,0.000000,-0.005000,0.000000,0.002000,FlatInitial
03:13:58.110 PM 02/14/2016,Teleop Enabled,0,FALSE,0,NO ERROR,0.000000,0.000000,0.000000,0.000000,Speed,Speed,0.020000,1.170000,1.810000,0.000000,105.000000,1,0,-0.000558,0.001550,0,0.000000,0.000000,0.000000,41.882126,-3.996216,0.000000,-0.002000,-0.001000,0.006000,FlatInitial
03:13:58.210 PM 02/14/2016,Teleop Enabled,0,FALSE,0,NO ERROR,0.000000,0.000000,0.000000,0.000000,Speed,Speed,0.020000,1.160000,1.810000,0.000000,103.000000,1,0,-0.000558,0.001550,0,0.000000,0.000000,0.000000,41.882126,-3.996216,0.000000,0.000000,0.000000,0.003000,FlatInitial
03:13:58.310 PM 02/14/2016,Teleop Enabled,0,FALSE,0,NO ERROR,0.000000,0.000000,0.000000,0.000000,Speed,Speed,0.020000,1.160000,1.810000,0.000000,101.000000,1,0,-0.000558,0.001550,0,0.000000,0.000000,0.000000,41.882126,-3.996216,0.000000,0.001000,0.000000,0.002000,FlatInitial
03:13:58.410 PM 02/14/2016,Teleop Enabled,0,FALSE,0,NO ERROR,0.000000,0.000000,0.000000,0.000000,Speed,Speed,0.020000,1.160000,1.810000,0.000000,101.000000,1,0,-0.000558,0.001550,0,0.000000,0.000000,0.000000,41.882126,-3.996216,0.000000,-0.001000,0.000000,-0.001000,FlatInitial
03:13:58.512 PM 02/14/2016,Teleop Enabled,0,FALSE,0,NO ERROR,0.000000,0.000000,0.000000,0.000000,Speed,Speed,0.020000,1.160000,1.810000,0.000000,101.000000,1,0,-0.000558,0.001550,0,0.000000,0.000000,0.000000,41.882126,-3.996216,0.000000,-0.003000,-0.002000,0.000000,FlatInitial
03:13:58.612 PM 02/14/2016,Teleop Enabled,0,FALSE,0,NO ERROR,0.000000,0.000000,0.000000,0.000000,Speed,Speed,0.020000,1.150000,1.810000,0.000000,101.000000,1,0,-0.000558,0.001550,0,0.000000,0.000000,0.000000,41.882126,-3.996216,0.000000,0.000000,0.000000,-0.001000,FlatInitial
03:13:58.712 PM 02/14/2016,Teleop Enabled,0,FALSE,0,NO ERROR,0.000000,0.000000,-6000.000000,-6000.000000,Speed,Speed,0.020000,1.150000,1.810000,1.000000,101.000000,1,0,-0.000558,0.001550,0,0.000000,0.000000,0.000000,41.882126,-3.996216,0.000000,-0.002000,0.000000,-0.004000,FlatInitial
03:13:58.812 PM 02/14/2016,Teleop Enabled,0,FALSE,0,NO ERROR,-153.808594,106.787109,0.000000,0.000000,Speed,Speed,0.020000,1.160000,1.830000,2.000000,101.000000,1,0,-0.000558,0.001550,0,0.000000,0.000000,0.000000,41.881866,-3.996216,0.000000,-0.005000,-0.003000,0.027000,FlatInitial
03:13:58.912 PM 02/14/2016,Teleop Enabled,0,FALSE,0,NO ERROR,-1524.316406,1429.687500,0.000000,0.000000,Speed,Speed,0.020000,1.140000,1.800000,2.000000,101.000000,1,0,-0.000558,0.001550,0,0.000000,0.000000,0.000000,41.881866,-3.996216,0.000000,-0.004000,0.005000,-0.001000,FlatInitial
03:13:59.013 PM 02/14/2016,Teleop Enabled,0,FALSE,0,NO ERROR,-1703.027344,1563.427734,0.000000,0.000000,Speed,Speed,0.020000,1.160000,1.810000,2.000000,101.000000,1,0,-0.000558,0.001550,0,0.000946,0.009018,0.000000,41.881882,-3.996017,0.000000,-0.015000,0.000000,-0.027000,FlatInitial
03:13:59.112 PM 02/14/2016,Teleop Enabled,0,FALSE,0,NO ERROR,-1423.242188,1231.787109,0.000000,0.000000,Speed,Speed,0.010000,1.140000,1.820000,2.000000,104.000000,1,0,-0.000558,0.001550,0,-0.013885,0.000000,0.000000,41.881470,-3.996017,0.000000,-0.002000,-0.016000,0.022000,FlatInitial
03:13:59.213 PM 02/14/2016,Teleop Enabled,0,FALSE,0,NO ERROR,-1156.054688,937.500000,0.000000,0.000000,Speed,Speed,0.010000,1.150000,1.840000,2.000000,102.000000,1,0,-0.000558,0.001550,0,0.000000,0.000000,0.000000,41.881332,-3.995926,0.000000,0.012000,0.000000,0.010000,FlatInitial
03:13:59.313 PM 02/14/2016,Teleop Enabled,0,FALSE,0,NO ERROR,-917.578125,713.232422,0.000000,0.000000,Speed,Speed,0.010000,1.150000,1.840000,2.000000,101.000000,1,0,-0.000558,0.001550,0,0.000000,0.000000,0.000000,41.881332,-3.995926,0.000000,-0.001000,-0.002000,0.003000,FlatInitial
03:13:59.412 PM 02/14/2016,Teleop Enabled,0,FALSE,0,NO ERROR,-724.951172,481.201172,0.000000,0.000000,Speed,Speed,0.020000,1.150000,1.830000,2.000000,102.000000,1,0,-0.000558,0.001550,0,0.000000,0.000000,0.000000,41.881332,-3.995926,0.000000,-0.005000,-0.002000,0.000000,FlatInitial
03:13:59.514 PM 02/14/2016,Teleop Enabled,0,FALSE,0,NO ERROR,-522.802734,275.537109,0.000000,0.000000,Speed,Speed,0.020000,1.140000,1.820000,2.000000,101.000000,1,0,-0.000558,0.001550,0,0.000000,0.000000,0.000000,41.881332,-3.995926,0.000000,-0.002000,0.000000,-0.013000,FlatInitial
03:13:59.614 PM 02/14/2016,Teleop Enabled,0,FALSE,0,NO ERROR,-340.576172,137.548828,0.000000,0.000000,Speed,Speed,0.010000,1.150000,1.820000,2.000000,102.000000,1,0,-0.000558,0.001550,0,0.000000,0.000000,0.000000,41.881332,-3.995926,0.000000,-0.005000,-0.001000,-0.019000,FlatInitial
03:13:59.715 PM 02/14/2016,Teleop Enabled,0,FALSE,0,NO ERROR,-196.875000,-1.025391,0.000000,0.000000,Speed,Speed,0.010000,1.150000,1.830000,2.000000,100.000000,1,0,-0.000558,0.001550,0,0.000000,0.000000,0.000000,41.881332,-3.995926,0.000000,-0.004000,-0.002000,-0.018000,FlatInitial
03:13:59.815 PM 02/14/2016,Teleop Enabled,0,FALSE,0,NO ERROR,-18.896484,-4.687500,0.000000,0.000000,Speed,Speed,0.010000,1.150000,1.830000,2.000000,101.000000,1,0,-0.000558,0.001550,0,0.000000,0.000000,0.000000,41.881332,-3.995926,0.000000,0.006000,0.000000,-0.002000,FlatInitial
03:13:59.916 PM 02/14/2016,Teleop Enabled,0,FALSE,0,NO ERROR,31.640625,0.000000,0.000000,0.000000,Speed,Speed,0.000000,1.150000,1.830000,2.000000,101.000000,1,0,-0.000558,0.001550,0,0.000000,0.000000,0.000000,41.881332,-3.995926,0.000000,-0.001000,0.001000,-0.007000,FlatInitial
03:14:00.016 PM 02/14/2016,Teleop Enabled,0,FALSE,0,NO ERROR,38.964844,0.000000,4000.000000,4000.000000,Speed,Speed,0.000000,1.150000,1.830000,3.000000,102.000000,1,0,-0.000558,0.001550,0,0.000000,0.000000,0.000000,41.881332,-3.995926,0.000000,0.002000,0.000000,0.004000,FlatInitial
03:14:00.117 PM 02/14/2016,Teleop Enabled,0,FALSE,0,NO ERROR,228.076172,-130.224609,0.000000,0.000000,Speed,Speed,0.010000,1.170000,1.830000,0.000000,101.000000,1,0,-0.000558,0.001550,0,0.000000,0.000000,0.000000,41.881561,-3.995865,0.000000,0.016000,0.012000,-0.008000,FlatInitial
03:14:00.217 PM 02/14/2016,Teleop Enabled,0,FALSE,0,NO ERROR,1665.527344,-1458.398438,0.000000,0.000000,Speed,Speed,0.000000,1.160000,1.850000,0.000000,103.000000,1,0,-0.000558,0.001550,0,0.001480,0.000000,0.000000,41.881622,-3.995865,0.000000,-0.025000,0.007000,-0.003000,FlatInitial
03:14:00.318 PM 02/14/2016,Teleop Enabled,0,FALSE,0,NO ERROR,1802.343750,-1532.226562,0.000000,0.000000,Speed,Speed,0.010000,1.170000,1.860000,0.000000,101.000000,1,0,-0.000558,0.001550,0,0.012634,0.000000,0.000000,41.882080,-3.995865,0.000000,0.024000,0.005000,0.044000,FlatInitial
03:14:00.418 PM 02/14/2016,Teleop Enabled,0,FALSE,0,NO ERROR,1506.884766,-1187.255859,0.000000,0.000000,Speed,Speed,0.010000,1.180000,1.840000,0.000000,102.000000,1,0,-0.000558,0.001550,0,-0.007309,-0.005463,0.000000,41.882050,-3.996094,0.000000,0.000000,-0.005000,0.023000,FlatInitial
03:14:00.518 PM 02/14/2016,Teleop Enabled,0,FALSE,0,NO ERROR,1228.125000,-941.015625,0.000000,0.000000,Speed,Speed,0.010000,1.170000,1.840000,0.000000,103.000000,1,0,-0.000558,0.001550,0,0.000000,0.000000,0.000000,41.882050,-3.996155,0.000000,-0.009000,-0.008000,-0.041000,FlatInitial
03:14:00.618 PM 02/14/2016,Teleop Enabled,0,FALSE,0,NO ERROR,1029.199219,-653.027344,0.000000,0.000000,Speed,Speed,0.010000,1.160000,1.850000,0.000000,103.000000,1,0,-0.000558,0.001550,0,0.004623,0.000000,0.000000,41.882126,-3.996155,0.000000,-0.009000,-0.008000,-0.041000,FlatInitial
03:14:00.718 PM 02/14/2016,Teleop Enabled,0,FALSE,0,NO ERROR,781.933594,-435.205078,0.000000,0.000000,Speed,Speed,0.000000,1.170000,1.850000,0.000000,102.000000,1,0,-0.000558,0.001550,0,0.000000,0.000000,0.000000,41.882172,-3.996155,0.000000,0.001000,0.002000,0.017000,FlatInitial
03:14:00.819 PM 02/14/2016,Teleop Enabled,0,FALSE,0,NO ERROR,581.689453,-193.945312,0.000000,0.000000,Speed,Speed,0.010000,1.170000,1.850000,0.000000,102.000000,1,0,-0.000558,0.001550,0,0.000000,0.000000,0.000000,41.882172,-3.996155,0.000000,-0.006000,0.003000,-0.016000,FlatInitial
03:14:00.919 PM 02/14/2016,Teleop Enabled,0,FALSE,0,NO ERROR,400.781250,-16.113281,0.000000,0.000000,Speed,Speed,0.010000,1.180000,1.850000,0.000000,102.000000,1,0,-0.000558,0.001550,0,0.000000,0.000000,0.000000,41.882172,-3.996155,0.000000,0.006000,0.004000,-0.012000,FlatInitial
03:14:01.020 PM 02/14/2016,Teleop Enabled,0,FALSE,0,NO ERROR,242.431641,7.177734,0.000000,0.000000,Speed,Speed,0.010000,1.180000,1.850000,0.000000,101.000000,1,0,-0.000558,0.001550,0,0.000000,0.000000,0.000000,41.882172,-3.996155,0.000000,0.006000,0.004000,-0.012000,FlatInitial
03:14:01.120 PM 02/14/2016,Teleop Enabled,0,FALSE,0,NO ERROR,46.875000,0.585938,0.000000,0.000000,Speed,Speed,0.010000,1.180000,1.840000,0.000000,101.000000,1,0,-0.000558,0.001550,0,0.000000,0.000000,0.000000,41.882172,-3.996155,0.000000,0.001000,-0.001000,0.001000,FlatInitial
03:14:01.220 PM 02/14/2016,Teleop Enabled,0,FALSE,0,NO ERROR,-24.902344,0.146484,0.000000,0.000000,Speed,Speed,0.000000,1.180000,1.840000,0.000000,102.000000,1,0,-0.000558,0.001550,0,0.000000,0.000000,0.000000,41.882172,-3.996155,0.000000,0.000000,-0.002000,-0.004000,FlatInitial
03:14:01.321 PM 02/14/2016,Teleop Enabled,0,FALSE,0,NO ERROR,-21.386719,0.146484,0.000000,0.000000,Speed,Speed,0.000000,1.180000,1.840000,0.000000,101.000000,1,0,-0.000558,0.001550,0,0.000000,0.000000,0.000000,41.882172,-3.996155,0.000000,0.001000,-0.001000,0.006000,FlatInitial
03:14:01.421 PM 02/14/2016,Teleop Enabled,0,FALSE,0,NO ERROR,-18.896484,0.000000,0.000000,0.000000,Speed,Speed,0.000000,1.180000,1.840000,0.000000,101.000000,1,0,-0.000558,0.001550,0,0.000000,0.000000,0.000000,41.882172,-3.996155,0.000000,-0.001000,-0.001000,0.003000,FlatInitial
03:14:01.522 PM 02/14/2016,Teleop Enabled,0,FALSE,0,NO ERROR,-37.353516,0.000000,0.000000,0.000000,Speed,Speed,0.000000,1.170000,1.840000,0.000000,101.000000,1,0,-0.000558,0.001550,0,0.000000,0.000000,0.000000,41.882172,-3.996155,0.000000,0.000000,0.001000,-0.002000,FlatInitial
03:14:01.622 PM 02/14/2016,Teleop Enabled,0,FALSE,0,NO ERROR,-44.970703,0.000000,0.000000,0.000000,Speed,Speed,0.000000,1.170000,1.840000,0.000000,102.000000,1,0,-0.000558,0.001550,0,0.000000,0.000000,0.000000,41.882172,-3.996155,0.000000,0.000000,0.001000,-0.002000,FlatInitial
03:14:01.722 PM 02/14/2016,Teleop Enabled,0,FALSE,0,NO ERROR,-32.958984,0.000000,0.000000,0.000000,Speed,Speed,0.000000,1.170000,1.840000,0.000000,102.000000,1,0,-0.000558,0.001550,0,0.000000,0.000000,0.000000,41.882172,-3.996155,0.000000,-0.001000,-0.001000,0.000000,FlatInitial
03:14:01.823 PM 02/14/2016,Teleop Enabled,0,FALSE,0,NO ERROR,-14.208984,0.000000,0.000000,0.000000,Speed,Speed,0.000000,1.160000,1.830000,0.000000,103.000000,1,0,-0.000558,0.001550,0,0.000000,0.000000,0.000000,41.882172,-3.996155,0.000000,0.001000,-0.001000,0.004000,FlatInitial
03:14:01.923 PM 02/14/2016,Teleop Enabled,0,FALSE,0,NO ERROR,-0.732422,0.000000,0.000000,0.000000,Speed,Speed,0.000000,1.160000,1.830000,0.000000,102.000000,1,0,-0.000558,0.001550,0,0.000000,0.000000,0.000000,41.882172,-3.996155,0.000000,-0.001000,-0.003000,-0.001000,FlatInitial
03:14:02.023 PM 02/14/2016,Teleop Enabled,0,FALSE,0,NO ERROR,0.000000,0.000000,0.000000,0.000000,Speed,Speed,0.000000,1.170000,1.840000,0.000000,101.000000,1,0,-0.000558,0.001550,0,0.000000,0.000000,0.000000,41.882172,-3.996155,0.000000,0.000000,0.000000,0.000000,FlatInitial
03:14:02.124 PM 02/14/2016,Teleop Enabled,0,FALSE,0,NO ERROR,0.000000,0.000000,0.000000,0.000000,Speed,Speed,0.000000,1.160000,1.840000,0.000000,101.000000,1,0,-0.000558,0.001550,0,0.000000,0.000000,0.000000,41.882172,-3.996155,0.000000,-0.002000,-0.001000,-0.001000,FlatInitial
03:14:02.224 PM 02/14/2016,Teleop Enabled,0,FALSE,0,NO ERROR,0.000000,0.000000,0.000000,0.000000,Speed,Speed,0.000000,1.160000,1.840000,0.000000,101.000000,1,0,-0.000558,0.001550,0,0.000000,0.000000,0.000000,41.882172,-3.996155,0.000000,-0.001000,-0.002000,0.000000,FlatInitial
03:14:02.325 PM 02/14/2016,Teleop Enabled,0,FALSE,0,NO ERROR,0.000000,0.000000,0.000000,0.000000,Speed,Speed,0.000000,1.160000,1.840000,0.000000,101.000000,1,0,-0.000558,0.001550,0,0.000000,0.000000,0.000000,41.882172,-3.996155,0.000000,0.001000,0.000000,0.000000,FlatInitial
03:14:02.424 PM 02/14/2016,Teleop Enabled,0,FALSE,0,NO ERROR,0.000000,0.000000,0.000000,0.000000,Speed,Speed,0.000000,1.160000,1.840000,0.000000,102.000000,1,0,-0.000558,0.001550,0,0.000000,0.000000,0.000000,41.882172,-3.996155,0.000000,0.000000,0.000000,0.000000,FlatInitial
03:14:02.526 PM 02/14/2016,Teleop Enabled,0,FALSE,0,NO ERROR,0.000000,0.000000,0.000000,0.000000,Speed,Speed,0.000000,1.160000,1.840000,0.000000,101.000000,1,0,-0.000558,0.001550,0,0.000000,0.000000,0.000000,41.882172,-3.996155,0.000000,0.000000,-0.001000,0.003000,FlatInitial
03:14:02.629 PM 02/14/2016,Teleop Enabled,0,FALSE,0,NO ERROR,0.000000,0.000000,0.000000,0.000000,Speed,Speed,0.010000,1.160000,1.840000,0.000000,103.000000,1,0,-0.000558,0.001550,0,0.000000,0.000000,0.000000,41.882172,-3.996155,0.000000,0.000000,0.001000,0.000000,FlatInitial
03:14:02.728 PM 02/14/2016,Teleop Enabled,0,FALSE,0,NO ERROR,0.000000,0.000000,0.000000,0.000000,Speed,Speed,0.010000,1.160000,1.840000,0.000000,101.000000,1,0,-0.000558,0.001550,0,0.000000,0.000000,0.000000,41.882172,-3.996155,0.000000,0.000000,0.000000,0.002000,FlatInitial
03:14:02.828 PM 02/14/2016,Teleop Enabled,0,FALSE,0,NO ERROR,0.000000,0.000000,0.000000,0.000000,Speed,Speed,0.010000,1.160000,1.840000,0.000000,103.000000,1,0,-0.000558,0.001550,0,0.000000,0.000000,0.000000,41.882172,-3.996155,0.000000,0.000000,0.001000,0.001000,FlatInitial
03:14:02.929 PM 02/14/2016,Teleop Enabled,0,FALSE,0,NO ERROR,0.000000,0.000000,0.000000,0.000000,Speed,Speed,0.010000,1.160000,1.830000,0.000000,101.000000,1,0,-0.000558,0.001550,0,0.000000,0.000000,0.000000,41.882172,-3.996155,0.000000,0.000000,-0.002000,0.000000,FlatInitial
03:14:03.030 PM 02/14/2016,Teleop Enabled,0,FALSE,0,NO ERROR,0.000000,0.000000,0.000000,0.000000,Speed,Speed,0.010000,1.160000,1.840000,0.000000,104.000000,1,0,-0.000558,0.001550,0,0.000000,0.000000,0.000000,41.882172,-3.996155,0.000000,0.000000,0.000000,0.001000,FlatInitial
03:14:03.130 PM 02/14/2016,Teleop Enabled,0,FALSE,0,NO ERROR,0.000000,0.000000,0.000000,0.000000,Speed,Speed,0.010000,1.160000,1.830000,0.000000,104.000000,1,0,-0.000558,0.001550,0,0.000000,0.000000,0.000000,41.882172,-3.996155,0.000000,0.001000,0.002000,-0.002000,FlatInitial
03:14:03.229 PM 02/14/2016,Teleop Enabled,0,FALSE,0,NO ERROR,0.000000,0.000000,0.000000,0.000000,Speed,Speed,0.010000,1.160000,1.830000,0.000000,102.000000,1,0,-0.000558,0.001550,0,0.000000,0.000000,0.000000,41.882172,-3.996155,0.000000,-0.001000,-0.002000,-0.001000,FlatInitial
03:14:03.330 PM 02/14/2016,Teleop Enabled,0,FALSE,0,NO ERROR,0.000000,0.000000,0.000000,0.000000,Speed,Speed,0.010000,1.160000,1.840000,1.000000,101.000000,1,0,-0.000558,0.001550,0,0.000000,0.000000,0.000000,41.882172,-3.996155,0.000000,0.000000,0.000000,0.000000,FlatInitial
03:14:03.433 PM 02/14/2016,Teleop Enabled,0,FALSE,0,NO ERROR,0.000000,0.000000,-6000.000000,-6000.000000,Speed,Speed,0.000000,1.160000,1.840000,2.000000,102.000000,1,0,-0.000558,0.001550,0,0.000000,0.000000,0.000000,41.882172,-3.996155,0.000000,0.000000,0.000000,-0.001000,FlatInitial
03:14:03.534 PM 02/14/2016,Teleop Enabled,0,FALSE,0,NO ERROR,-265.722656,130.078125,0.000000,0.000000,Speed,Speed,0.000000,1.170000,1.860000,2.000000,101.000000,1,0,-0.000558,0.001550,0,0.000504,0.004456,0.000000,41.882111,-3.996140,0.000000,0.012000,-0.014000,-0.007000,FlatInitial
03:14:03.634 PM 02/14/2016,Teleop Enabled,0,FALSE,0,NO ERROR,-1345.312500,1490.625000,0.000000,0.000000,Speed,Speed,0.000000,1.180000,1.870000,2.000000,101.000000,1,0,-0.000558,0.001550,0,0.000000,0.010681,0.000000,41.882019,-3.995758,0.000000,0.000000,0.025000,-0.008000,FlatInitial
03:14:03.735 PM 02/14/2016,Teleop Enabled,0,FALSE,0,NO ERROR,-1483.007812,1558.740234,0.000000,0.000000,Speed,Speed,0.000000,1.170000,1.860000,2.000000,103.000000,1,0,-0.000558,0.001550,0,0.006775,0.000000,0.000000,41.882034,-3.995544,0.000000,0.007000,0.005000,-0.006000,FlatInitial
03:14:03.834 PM 02/14/2016,Teleop Enabled,0,FALSE,0,NO ERROR,-1193.701172,1219.482422,0.000000,0.000000,Speed,Speed,0.000000,1.180000,1.860000,2.000000,103.000000,1,0,-0.000558,0.001550,0,0.000000,0.000000,0.000000,41.882538,-3.995438,0.000000,-0.015000,-0.014000,0.004000,FlatInitial
03:14:03.935 PM 02/14/2016,Teleop Enabled,0,FALSE,0,NO ERROR,-945.996094,971.923828,0.000000,0.000000,Speed,Speed,0.000000,1.170000,1.850000,2.000000,103.000000,1,0,-0.000558,0.001550,0,0.000000,0.000000,0.000000,41.882385,-3.995438,0.000000,0.001000,0.001000,0.010000,FlatInitial
03:14:04.036 PM 02/14/2016,Teleop Enabled,0,FALSE,0,NO ERROR,-744.433594,690.966797,0.000000,0.000000,Speed,Speed,0.000000,1.170000,1.850000,2.000000,101.000000,1,0,-0.000558,0.001550,0,0.000000,0.000000,0.000000,41.882385,-3.995438,0.000000,0.004000,0.003000,0.000000,FlatInitial
03:14:04.137 PM 02/14/2016,Teleop Enabled,0,FALSE,0,NO ERROR,-532.177734,451.611328,0.000000,0.000000,Speed,Speed,0.000000,1.170000,1.860000,2.000000,102.000000,1,0,-0.000558,0.001550,0,0.000000,0.000000,0.000000,41.882385,-3.995438,0.000000,0.001000,0.001000,0.004000,FlatInitial
03:14:04.238 PM 02/14/2016,Teleop Enabled,0,FALSE,0,NO ERROR,-335.302734,239.501953,0.000000,0.000000,Speed,Speed,0.000000,1.170000,1.850000,2.000000,101.000000,1,0,-0.000558,0.001550,0,0.000000,0.000000,0.000000,41.882385,-3.995438,0.000000,-0.011000,0.001000,-0.009000,FlatInitial
03:14:04.339 PM 02/14/2016,Teleop Enabled,0,FALSE,0,NO ERROR,-231.591797,33.691406,0.000000,0.000000,Speed,Speed,0.000000,1.160000,1.860000,2.000000,101.000000,1,0,-0.000558,0.001550,0,0.000000,0.000000,0.000000,41.882385,-3.995438,0.000000,0.002000,-0.001000,0.000000,FlatInitial
03:14:04.440 PM 02/14/2016,Teleop Enabled,0,FALSE,0,NO ERROR,-71.923828,-20.947266,0.000000,0.000000,Speed,Speed,0.000000,1.170000,1.850000,2.000000,103.000000,1,0,-0.000558,0.001550,0,0.000000,0.000000,0.000000,41.882385,-3.995438,0.000000,-0.004000,0.001000,-0.004000,FlatInitial
03:14:04.540 PM 02/14/2016,Teleop Enabled,0,FALSE,0,NO ERROR,19.921875,-22.998047,0.000000,0.000000,Speed,Speed,0.000000,1.160000,1.860000,2.000000,102.000000,1,0,-0.000558,0.001550,0,0.000000,0.000000,0.000000,41.882385,-3.995438,0.000000,-0.003000,-0.002000,-0.004000,FlatInitial
03:14:04.640 PM 02/14/2016,Teleop Enabled,0,FALSE,0,NO ERROR,10.839844,-17.871094,0.000000,0.000000,Speed,Speed,0.000000,1.160000,1.850000,2.000000,103.000000,1,0,-0.000558,0.001550,0,0.000000,0.000000,0.000000,41.882385,-3.995438,0.000000,0.001000,-0.001000,-0.003000,FlatInitial
03:14:04.740 PM 02/14/2016,Teleop Enabled,0,FALSE,0,NO ERROR,1.025391,-1.318359,4000.000000,4000.000000,Speed,Speed,0.000000,1.160000,1.850000,3.000000,101.000000,1,0,-0.000558,0.001550,0,0.000000,0.000000,0.000000,41.882385,-3.995438,0.000000,-0.003000,0.000000,0.003000,FlatInitial
03:14:04.840 PM 02/14/2016,Teleop Enabled,0,FALSE,0,NO ERROR,136.083984,-150.878906,4000.000000,4000.000000,Speed,Speed,0.000000,1.110000,1.850000,3.000000,101.000000,1,0,-0.000558,0.001550,0,-0.002106,0.006195,0.000000,41.882355,-3.995331,0.000000,0.010000,0.000000,0.004000,FlatInitial
03:14:04.940 PM 02/14/2016,Teleop Enabled,0,FALSE,0,NO ERROR,1672.851562,-1727.050781,4000.000000,4000.000000,Speed,Speed,0.000000,1.130000,1.840000,3.000000,102.000000,1,0,-0.000558,0.001550,0,0.000000,0.000000,0.000000,41.882355,-3.995255,0.000000,0.016000,-0.011000,0.000000,FlatInitial
