Time,RobotMode,AutoToRun,ErrorStatus, ErrorCode,ErrorSource,ActualRPM1,ActualRPM2,DesiredRPM1,DesiredRPM2,ControlMode1,ControlMode2,NavXYaw,NavXRoll,NavXPitch,ShooterState,LoopTime,IsLevel,IsAutoTargeting,LeftMotorOutput,RightMotorOutput,IsHaloDrive,NavXVelocityX,NavXVelocityY,NavXVelocityZ,NavXDisplacementX,NavXDisplacementY,NavXDisplacementZ,NavXAccelerationX,NavXAccelerationY,NavXAccelerationZ,AutoDefendState
08:13:40.150 PM 02/15/2016,Teleop Enabled,0,TRUE,91,Variant To Data in WPI_DigitalInputRefNum Registry Get.vi->Periodic Tasks.vi->Robot Main.vi,0.000000,0.000000,-6000.000000,-6000.000000,Speed,Speed,0.050000,0.830000,1.800000,1.000000,105.000000,1,0,-0.000000,0.000000,1,0.000000,0.000000,0.000000,-1.301971,0.109482,0.000000,0.001000,0.001000,0.001000,FlatInitial
08:13:40.250 PM 02/15/2016,Teleop Enabled,0,TRUE,-44007,<LOCATION>WPI_DigitalInputRefNum Registry Get.vi<CALLSTACK>WPI_DigitalInputRefNum Registry Get.vi< <Periodic Tasks.vi< <Robot Main.vi,-418.212891,288.574219,-6000.000000,-6000.000000,Speed,Speed,0.040000,0.850000,1.800000,1.000000,101.000000,1,0,-0.000000,0.000000,1,0.004898,0.007187,0.000000,-1.301956,0.109543,0.000000,0.004000,0.056000,-0.005000,FlatInitial
08:13:40.352 PM 02/15/2016,Teleop Enabled,0,FALSE,0,NO ERROR,-1900.195312,2165.332031,-6000.000000,-6000.000000,Speed,Speed,0.030000,0.840000,1.930000,1.000000,102.000000,1,0,-0.000000,0.000000,1,0.017029,0.026566,0.000000,-1.301437,0.110825,0.000000,0.025000,-0.022000,0.150000,FlatInitial
08:13:40.452 PM 02/15/2016,Teleop Enabled,0,FALSE,0,NO ERROR,-3686.279297,3978.222656,-6000.000000,-6000.000000,Speed,Speed,0.050000,0.870000,1.850000,1.000000,101.000000,1,0,-0.000000,0.000000,1,-0.002716,-0.020096,0.000000,-1.300568,0.110977,0.000000,-0.034000,-0.020000,0.201000,FlatInitial
08:13:40.552 PM 02/15/2016,Teleop Enabled,0,FALSE,0,NO ERROR,-5084.765625,5030.273438,-6000.000000,-6000.000000,Speed,Speed,0.000000,0.820000,1.900000,1.000000,102.000000,1,0,-0.000000,0.000000,1,-0.012543,0.023788,0.000000,-1.300888,0.110916,0.000000,0.025000,0.032000,0.051000,FlatInitial
08:13:40.652 PM 02/15/2016,Teleop Enabled,0,FALSE,0,NO ERROR,-5892.187500,5726.953125,-6000.000000,-6000.000000,Speed,Speed,0.040000,0.800000,1.780000,1.000000,102.000000,1,0,-0.000000,0.000000,1,-0.048813,-0.023941,0.000000,-1.302780,0.111298,0.000000,-0.004000,-0.166000,0.184000,FlatInitial
08:13:40.753 PM 02/15/2016,Teleop Enabled,0,FALSE,0,NO ERROR,-6127.734375,5804.296875,-6000.000000,-6000.000000,Speed,Speed,0.080000,0.790000,1.550000,1.000000,102.000000,1,0,-0.000000,0.000000,1,-0.069000,-0.107285,0.000000,-1.305878,0.106979,0.000000,-0.068000,0.085000,-0.080000,FlatInitial
08:13:40.853 PM 02/15/2016,Teleop Enabled,0,FALSE,0,NO ERROR,-6141.210938,5822.460938,-6000.000000,-6000.000000,Speed,Speed,-0.010000,0.780000,1.970000,1.000000,102.000000,1,0,-0.000000,0.000000,1,-0.083221,-0.038925,0.000000,-1.310760,0.103195,0.000000,-0.068000,0.085000,-0.080000,FlatInitial
08:13:40.953 PM 02/15/2016,Teleop Enabled,0,FALSE,0,NO ERROR,-6117.773438,5872.851562,-6000.000000,-6000.000000,Speed,Speed,0.010000,0.730000,1.890000,1.000000,100.000000,1,0,-0.000000,0.000000,1,-0.060532,-0.042953,0.000000,-1.312897,0.102036,0.000000,0.056000,0.000000,-0.045000,FlatInitial
08:13:41.053 PM 02/15/2016,Teleop Enabled,0,FALSE,0,NO ERROR,-6085.546875,5929.687500,-6000.000000,-6000.000000,Speed,Speed,-0.010000,0.670000,1.790000,1.000000,102.000000,1,0,-0.000000,0.000000,1,-0.019119,-0.089630,0.000000,-1.314880,0.098236,0.000000,0.049000,-0.061000,-0.115000,FlatInitial
08:13:41.153 PM 02/15/2016,Teleop Enabled,0,FALSE,0,NO ERROR,-6070.898438,5970.703125,-6000.000000,-6000.000000,Speed,Speed,0.000000,0.680000,1.970000,1.000000,101.000000,1,0,-0.000000,0.000000,1,0.030945,-0.149002,0.000000,-1.314529,0.092087,0.000000,0.067000,-0.073000,-0.069000,FlatInitial
08:13:41.253 PM 02/15/2016,Teleop Enabled,0,FALSE,0,NO ERROR,-6062.109375,5984.179688,-6000.000000,-6000.000000,Speed,Speed,0.000000,0.750000,1.890000,1.000000,101.000000,1,0,-0.000000,0.000000,1,0.106445,-0.223251,0.000000,-1.310745,0.082336,0.000000,0.080000,-0.054000,-0.042000,FlatInitial
08:13:41.353 PM 02/15/2016,Teleop Enabled,0,FALSE,0,NO ERROR,-6055.078125,5993.554688,-6000.000000,-6000.000000,Speed,Speed,0.000000,0.750000,1.800000,1.000000,105.000000,1,0,-0.000000,0.000000,1,0.176926,-0.261292,0.000000,-1.303284,0.070007,0.000000,0.080000,-0.054000,-0.042000,FlatInitial
08:13:41.453 PM 02/15/2016,Teleop Enabled,0,FALSE,0,NO ERROR,-6048.046875,6008.789062,-6000.000000,-6000.000000,Speed,Speed,0.000000,0.750000,1.860000,1.000000,101.000000,1,0,-0.000000,0.000000,1,0.251007,-0.262390,0.000000,-1.292358,0.056885,0.000000,0.066000,0.021000,0.023000,FlatInitial
08:13:41.553 PM 02/15/2016,Teleop Enabled,0,FALSE,0,NO ERROR,-6040.429688,6024.023438,-6000.000000,-6000.000000,Speed,Speed,0.000000,0.810000,1.950000,1.000000,101.000000,1,0,-0.000000,0.000000,1,0.341690,0.003448,0.000000,-1.277008,0.048874,0.000000,0.079000,0.052000,0.037000,FlatInitial
08:13:41.654 PM 02/15/2016,Teleop Enabled,0,FALSE,0,NO ERROR,-6033.984375,6026.367188,-6000.000000,-6000.000000,Speed,Speed,0.000000,0.840000,2.080000,1.000000,101.000000,1,0,-0.000000,0.000000,1,0.404846,-0.013245,0.000000,-1.257935,0.048676,0.000000,0.079000,0.052000,0.037000,FlatInitial
08:13:41.754 PM 02/15/2016,Teleop Enabled,0,FALSE,0,NO ERROR,-6026.367188,6021.093750,-6000.000000,-6000.000000,Speed,Speed,0.000000,0.810000,2.150000,1.000000,101.000000,1,0,-0.000000,0.000000,1,0.486725,0.009888,0.000000,-1.230850,0.048660,0.000000,0.055000,0.012000,0.059000,FlatInitial
08:13:41.855 PM 02/15/2016,Teleop Enabled,0,FALSE,0,NO ERROR,-6023.437500,6023.437500,-6000.000000,-6000.000000,Speed,Speed,0.000000,0.770000,2.240000,1.000000,101.000000,1,0,-0.000000,0.000000,1,0.000000,0.027237,0.000000,-1.210953,0.049591,0.000000,0.010000,0.048000,0.085000,FlatInitial
08:13:41.956 PM 02/15/2016,Teleop Enabled,0,FALSE,0,NO ERROR,-6024.023438,6022.265625,-6000.000000,-6000.000000,Speed,Speed,0.000000,0.700000,2.260000,1.000000,102.000000,1,0,-0.000000,0.000000,1,0.004379,0.048248,0.000000,-1.210907,0.051193,0.000000,-0.020000,0.031000,0.101000,FlatInitial
08:13:42.056 PM 02/15/2016,Teleop Enabled,0,FALSE,0,NO ERROR,-6025.781250,6014.062500,-6000.000000,-6000.000000,Speed,Speed,0.000000,0.640000,2.180000,1.000000,101.000000,1,0,-0.000000,0.000000,1,0.004379,0.048248,0.000000,-1.210907,0.051193,0.000000,-0.020000,0.031000,0.101000,FlatInitial
08:13:42.156 PM 02/15/2016,Teleop Enabled,0,FALSE,0,NO ERROR,-6022.851562,6010.546875,-6000.000000,-6000.000000,Speed,Speed,0.000000,0.640000,2.090000,1.000000,101.000000,1,0,-0.000000,0.000000,1,0.032288,-0.001984,0.000000,-1.208862,0.055115,0.000000,0.029000,0.000000,0.087000,FlatInitial
08:13:42.256 PM 02/15/2016,Teleop Enabled,0,FALSE,0,NO ERROR,-6018.164062,6009.960938,-6000.000000,-6000.000000,Speed,Speed,0.000000,0.650000,1.910000,1.000000,101.000000,1,0,-0.000000,0.000000,1,-0.026627,0.016846,0.000000,-1.209381,0.055557,0.000000,-0.016000,-0.025000,0.070000,FlatInitial
08:13:42.357 PM 02/15/2016,Teleop Enabled,0,FALSE,0,NO ERROR,-6016.406250,6008.789062,-6000.000000,-6000.000000,Speed,Speed,-0.050000,0.670000,1.890000,1.000000,101.000000,1,0,-0.000000,0.000000,1,-0.071426,0.000000,0.000000,-1.212067,0.055984,0.000000,-0.052000,0.027000,0.013000,FlatInitial
08:13:42.457 PM 02/15/2016,Teleop Enabled,0,FALSE,0,NO ERROR,-6018.750000,6011.718750,-6000.000000,-6000.000000,Speed,Speed,0.010000,0.700000,1.740000,1.000000,109.000000,1,0,-0.000000,0.000000,1,-0.123306,-0.008209,0.000000,-1.217270,0.055679,0.000000,-0.054000,-0.001000,0.006000,FlatInitial
08:13:42.558 PM 02/15/2016,Teleop Enabled,0,FALSE,0,NO ERROR,-6021.679688,6014.062500,-6000.000000,-6000.000000,Speed,Speed,-0.010000,0.660000,1.840000,1.000000,102.000000,1,0,-0.000000,0.000000,1,-0.182877,0.020447,0.000000,-1.225403,0.056244,0.000000,-0.067000,0.025000,-0.015000,FlatInitial
08:13:42.659 PM 02/15/2016,Teleop Enabled,0,FALSE,0,NO ERROR,-6015.234375,6014.062500,-6000.000000,-6000.000000,Speed,Speed,-0.020000,0.720000,1.800000,1.000000,103.000000,1,0,-0.000000,0.000000,1,-0.223495,0.041382,0.000000,-1.235626,0.057968,0.000000,-0.020000,-0.007000,-0.013000,FlatInitial
08:13:42.759 PM 02/15/2016,Teleop Enabled,0,FALSE,0,NO ERROR,-6015.234375,6016.992188,-6000.000000,-6000.000000,Speed,Speed,-0.020000,0.800000,1.870000,1.000000,102.000000,1,0,-0.000000,0.000000,1,-0.259262,0.000000,0.000000,-1.247665,0.058792,0.000000,0.000000,0.019000,0.006000,FlatInitial
08:13:42.859 PM 02/15/2016,Teleop Enabled,0,FALSE,0,NO ERROR,-6012.890625,6016.406250,-6000.000000,-6000.000000,Speed,Speed,-0.010000,0.850000,1.970000,1.000000,101.000000,1,0,-0.000000,0.000000,1,-0.316376,0.014938,0.000000,-1.262527,0.059021,0.000000,-0.089000,0.002000,0.007000,FlatInitial
08:13:42.960 PM 02/15/2016,Teleop Enabled,0,FALSE,0,NO ERROR,-6011.718750,6018.164062,-6000.000000,-6000.000000,Speed,Speed,-0.010000,0.890000,2.050000,1.000000,101.000000,1,0,-0.000000,0.000000,1,-0.350784,0.058121,0.000000,-1.279404,0.061218,0.000000,-0.037000,0.073000,-0.011000,FlatInitial
08:13:43.060 PM 02/15/2016,Teleop Enabled,0,FALSE,0,NO ERROR,-6010.546875,6021.093750,-6000.000000,-6000.000000,Speed,Speed,-0.020000,0.900000,2.190000,1.000000,101.000000,1,0,-0.000000,0.000000,1,-0.350784,0.058121,0.000000,-1.279404,0.061218,0.000000,-0.013000,0.020000,0.023000,FlatInitial
08:13:43.160 PM 02/15/2016,Teleop Enabled,0,FALSE,0,NO ERROR,-6007.031250,6016.406250,-6000.000000,-6000.000000,Speed,Speed,-0.020000,0.910000,2.270000,1.000000,102.000000,1,0,-0.000000,0.000000,1,-0.475983,0.134598,0.000000,-1.320648,0.070953,0.000000,-0.061000,0.044000,0.037000,FlatInitial
08:13:43.260 PM 02/15/2016,Teleop Enabled,0,FALSE,0,NO ERROR,-5999.414062,6011.718750,-6000.000000,-6000.000000,Speed,Speed,-0.020000,0.940000,2.350000,1.000000,102.000000,1,0,-0.000000,0.000000,1,-0.530563,0.178467,0.000000,-1.346115,0.078995,0.000000,-0.069000,0.054000,0.007000,FlatInitial
08:13:43.360 PM 02/15/2016,Teleop Enabled,0,FALSE,0,NO ERROR,-5994.726562,6012.304688,-6000.000000,-6000.000000,Speed,Speed,-0.020000,0.920000,2.440000,1.000000,103.000000,1,0,-0.000000,0.000000,1,-0.530563,0.178467,0.000000,-1.346115,0.078995,0.000000,-0.064000,0.057000,0.014000,FlatInitial
08:13:43.460 PM 02/15/2016,Teleop Enabled,0,FALSE,0,NO ERROR,-5994.726562,6004.687500,-6000.000000,-6000.000000,Speed,Speed,-0.020000,0.880000,2.500000,1.000000,103.000000,1,0,-0.000000,0.000000,1,-0.691910,0.036667,0.000000,-1.407364,0.084167,0.000000,-0.070000,0.011000,-0.002000,FlatInitial
08:13:43.560 PM 02/15/2016,Teleop Enabled,0,FALSE,0,NO ERROR,-5997.656250,6004.101562,-6000.000000,-6000.000000,Speed,Speed,-0.020000,0.880000,2.500000,1.000000,101.000000,1,0,-0.000000,0.000000,1,-0.776138,0.076981,0.000000,-1.444702,0.087173,0.000000,-0.095000,0.046000,-0.024000,FlatInitial
08:13:43.660 PM 02/15/2016,Teleop Enabled,0,FALSE,0,NO ERROR,-6000.000000,6005.273438,-6000.000000,-6000.000000,Speed,Speed,-0.010000,0.790000,2.660000,1.000000,101.000000,1,0,-0.000000,0.000000,1,-0.776138,0.076981,0.000000,-1.444702,0.087173,0.000000,-0.077000,0.065000,-0.013000,FlatInitial
08:13:43.760 PM 02/15/2016,Teleop Enabled,0,FALSE,0,NO ERROR,-6001.757812,6004.687500,-6000.000000,-6000.000000,Speed,Speed,-0.010000,0.730000,2.730000,1.000000,100.000000,1,0,-0.000000,0.000000,1,-0.888733,0.118439,0.000000,-1.495148,0.093201,0.000000,-0.088000,0.031000,-0.033000,FlatInitial
08:13:43.860 PM 02/15/2016,Teleop Enabled,0,FALSE,0,NO ERROR,-6009.375000,6003.515625,-6000.000000,-6000.000000,Speed,Speed,-0.010000,0.730000,2.730000,1.000000,101.000000,1,0,-0.000000,0.000000,1,-1.066559,0.163544,0.000000,-1.584244,0.106079,0.000000,-0.112000,0.015000,0.000000,FlatInitial
08:13:43.961 PM 02/15/2016,Teleop Enabled,0,FALSE,0,NO ERROR,-6011.718750,5999.414062,-6000.000000,-6000.000000,Speed,Speed,-0.010000,0.690000,2.760000,1.000000,101.000000,1,0,-0.000000,0.000000,1,-1.066559,0.163544,0.000000,-1.584244,0.106079,0.000000,-0.096000,0.036000,-0.014000,FlatInitial
08:13:44.061 PM 02/15/2016,Teleop Enabled,0,FALSE,0,NO ERROR,-6007.617188,5998.242188,-6000.000000,-6000.000000,Speed,Speed,-0.010000,0.670000,2.800000,1.000000,102.000000,1,0,-0.000000,0.000000,1,-1.255783,0.002243,0.000000,-1.701126,0.120667,0.000000,-0.079000,-0.032000,-0.005000,FlatInitial
08:13:44.161 PM 02/15/2016,Teleop Enabled,0,FALSE,0,NO ERROR,-6005.859375,6003.515625,-6000.000000,-6000.000000,Speed,Speed,0.000000,0.610000,2.790000,1.000000,101.000000,1,0,-0.000000,0.000000,1,-1.255783,0.002243,0.000000,-1.701126,0.120667,0.000000,-0.114000,-0.016000,-0.028000,FlatInitial
08:13:44.261 PM 02/15/2016,Teleop Enabled,0,FALSE,0,NO ERROR,-6007.617188,6009.375000,-6000.000000,-6000.000000,Speed,Speed,0.000000,0.560000,2.750000,1.000000,102.000000,1,0,-0.000000,0.000000,1,-1.378540,0.000000,0.000000,-1.780853,0.120865,0.000000,-0.114000,-0.004000,-0.010000,FlatInitial
08:13:44.361 PM 02/15/2016,Teleop Enabled,0,FALSE,0,NO ERROR,-6008.203125,6013.476562,-6000.000000,-6000.000000,Speed,Speed,0.000000,0.530000,2.680000,1.000000,102.000000,1,0,-0.000000,0.000000,1,-1.454620,0.003326,0.000000,-1.852112,0.120926,0.000000,-0.092000,-0.028000,-0.031000,FlatInitial
08:13:44.461 PM 02/15/2016,Teleop Enabled,0,FALSE,0,NO ERROR,-6009.375000,6009.960938,-6000.000000,-6000.000000,Speed,Speed,-0.010000,0.540000,2.590000,1.000000,101.000000,1,0,-0.000000,0.000000,1,-1.518524,-0.012390,0.000000,-1.911880,0.120712,0.000000,-0.092000,-0.036000,-0.051000,FlatInitial
08:13:44.561 PM 02/15/2016,Teleop Enabled,0,FALSE,0,NO ERROR,-6011.132812,6005.859375,-6000.000000,-6000.000000,Speed,Speed,-0.010000,0.540000,2.590000,1.000000,102.000000,1,0,-0.000000,0.000000,1,-1.593857,-0.033997,0.000000,-1.990173,0.119537,0.000000,-0.060000,-0.046000,-0.044000,FlatInitial
08:13:44.661 PM 02/15/2016,Teleop Enabled,0,FALSE,0,NO ERROR,-6008.203125,6004.101562,-6000.000000,-6000.000000,Speed,Speed,-0.010000,0.560000,2.460000,1.000000,103.000000,1,0,-0.000000,0.000000,1,-1.684052,-0.076141,0.000000,-2.088791,0.115997,0.000000,-0.090000,-0.050000,-0.040000,FlatInitial
08:13:44.761 PM 02/15/2016,Teleop Enabled,0,FALSE,0,NO ERROR,-6002.343750,6007.617188,-6000.000000,-6000.000000,Speed,Speed,0.000000,0.550000,2.350000,1.000000,104.000000,1,0,-0.000000,0.000000,1,-1.749466,-0.107407,0.000000,-2.157852,0.112122,0.000000,-0.075000,-0.028000,-0.074000,FlatInitial
08:13:44.863 PM 02/15/2016,Teleop Enabled,0,FALSE,0,NO ERROR,-6002.929688,6008.203125,-6000.000000,-6000.000000,Speed,Speed,-0.010000,0.590000,2.200000,1.000000,101.000000,1,0,-0.000000,0.000000,1,-1.827698,0.000000,0.000000,-2.265564,0.106064,0.000000,-0.074000,-0.016000,-0.045000,FlatInitial
08:13:44.963 PM 02/15/2016,Teleop Enabled,0,FALSE,0,NO ERROR,-6004.687500,6008.203125,-6000.000000,-6000.000000,Speed,Speed,-0.010000,0.650000,2.030000,1.000000,100.000000,1,0,-0.000000,0.000000,1,-1.880524,-0.018219,0.000000,-2.358688,0.105560,0.000000,-0.032000,-0.016000,-0.047000,FlatInitial
08:13:45.065 PM 02/15/2016,Teleop Enabled,0,FALSE,0,NO ERROR,-6009.375000,6009.375000,-6000.000000,-6000.000000,Speed,Speed,-0.020000,0.690000,1.890000,1.000000,102.000000,1,0,-0.000000,0.000000,1,-1.926331,-0.031418,0.000000,-2.453995,0.104187,0.000000,-0.063000,-0.026000,-0.040000,FlatInitial
08:13:45.165 PM 02/15/2016,Teleop Enabled,0,FALSE,0,NO ERROR,-6008.203125,6007.031250,-6000.000000,-6000.000000,Speed,Speed,-0.020000,0.730000,1.770000,1.000000,100.000000,1,0,-0.000000,0.000000,1,-1.966232,0.000000,0.000000,-2.551590,0.102676,0.000000,-0.045000,0.000000,-0.041000,FlatInitial
08:13:45.266 PM 02/15/2016,Teleop Enabled,0,FALSE,0,NO ERROR,-6010.546875,6002.929688,-6000.000000,-6000.000000,Speed,Speed,-0.020000,0.770000,1.630000,1.000000,101.000000,1,0,-0.000000,0.000000,1,-2.003098,-0.009277,0.000000,-2.651016,0.102432,0.000000,-0.033000,-0.025000,0.013000,FlatInitial
08:13:45.366 PM 02/15/2016,Teleop Enabled,0,FALSE,0,NO ERROR,-6006.445312,6003.515625,-6000.000000,-6000.000000,Speed,Speed,-0.020000,0.800000,1.520000,1.000000,100.000000,1,0,-0.000000,0.000000,1,-2.041733,0.000000,0.000000,-2.752304,0.102066,0.000000,-0.051000,-0.010000,-0.041000,FlatInitial
08:13:45.467 PM 02/15/2016,Teleop Enabled,0,FALSE,0,NO ERROR,-6001.171875,6004.101562,-6000.000000,-6000.000000,Speed,Speed,-0.020000,0.820000,1.430000,1.000000,102.000000,1,0,-0.000000,0.000000,1,-2.085144,0.001862,0.000000,-2.855652,0.102081,0.000000,-0.029000,0.019000,-0.046000,FlatInitial
08:13:45.567 PM 02/15/2016,Teleop Enabled,0,FALSE,0,NO ERROR,-5995.898438,6000.000000,-6000.000000,-6000.000000,Speed,Speed,-0.020000,0.890000,1.340000,1.000000,101.000000,1,0,-0.000000,0.000000,1,-2.129196,0.007553,0.000000,-2.982269,0.102356,0.000000,-0.032000,0.011000,-0.052000,FlatInitial
08:13:45.667 PM 02/15/2016,Teleop Enabled,0,FALSE,0,NO ERROR,-5992.968750,5997.656250,-6000.000000,-6000.000000,Speed,Speed,-0.030000,0.940000,1.250000,1.000000,101.000000,1,0,-0.000000,0.000000,1,-2.152802,0.000000,0.000000,-3.068024,0.102798,0.000000,-0.033000,0.013000,-0.043000,FlatInitial
08:13:45.767 PM 02/15/2016,Teleop Enabled,0,FALSE,0,NO ERROR,-5993.554688,5996.484375,-6000.000000,-6000.000000,Speed,Speed,-0.030000,0.970000,1.160000,1.000000,102.000000,1,0,-0.000000,0.000000,1,-2.197464,0.004303,0.000000,-3.198639,0.102844,0.000000,-0.026000,0.025000,-0.004000,FlatInitial
08:13:45.868 PM 02/15/2016,Teleop Enabled,0,FALSE,0,NO ERROR,-5996.484375,6000.000000,-6000.000000,-6000.000000,Speed,Speed,-0.030000,1.010000,1.110000,1.000000,104.000000,1,0,-0.000000,0.000000,1,-2.236160,0.023300,0.000000,-3.309586,0.103638,0.000000,-0.050000,-0.003000,-0.016000,FlatInitial
08:13:45.969 PM 02/15/2016,Teleop Enabled,0,FALSE,0,NO ERROR,-6000.000000,6001.171875,-6000.000000,-6000.000000,Speed,Speed,-0.030000,1.040000,1.050000,1.000000,104.000000,1,0,-0.000000,0.000000,1,-2.274033,0.033646,0.000000,-3.422607,0.105057,0.000000,-0.043000,0.000000,0.008000,FlatInitial
08:13:46.070 PM 02/15/2016,Teleop Enabled,0,FALSE,0,NO ERROR,-6003.515625,6001.757812,-6000.000000,-6000.000000,Speed,Speed,-0.030000,1.070000,1.010000,1.000000,101.000000,1,0,-0.000000,0.000000,1,-2.312439,0.000000,0.000000,-3.537445,0.106735,0.000000,-0.067000,-0.014000,-0.019000,FlatInitial
08:13:46.170 PM 02/15/2016,Teleop Enabled,0,FALSE,0,NO ERROR,-6005.273438,6005.859375,-6000.000000,-6000.000000,Speed,Speed,-0.030000,1.070000,0.970000,1.000000,101.000000,1,0,-0.000000,0.000000,1,-2.353195,0.005066,0.000000,-3.654373,0.106827,0.000000,-0.011000,0.037000,-0.039000,FlatInitial
08:13:46.270 PM 02/15/2016,Teleop Enabled,0,FALSE,0,NO ERROR,-6011.132812,6005.859375,-6000.000000,-6000.000000,Speed,Speed,-0.030000,1.110000,0.960000,1.000000,100.000000,1,0,-0.000000,0.000000,1,-2.375183,0.026306,0.000000,-3.725388,0.107391,0.000000,-0.046000,0.035000,-0.021000,FlatInitial
08:13:46.371 PM 02/15/2016,Teleop Enabled,0,FALSE,0,NO ERROR,-6012.304688,6007.031250,-6000.000000,-6000.000000,Speed,Speed,-0.030000,1.140000,0.990000,1.000000,102.000000,1,0,-0.000000,0.000000,1,-2.420090,0.075577,0.000000,-3.893570,0.111313,0.000000,-0.028000,0.039000,-0.022000,FlatInitial
08:13:46.470 PM 02/15/2016,Teleop Enabled,0,FALSE,0,NO ERROR,-6011.718750,6008.203125,-6000.000000,-6000.000000,Speed,Speed,-0.030000,1.150000,1.020000,1.000000,100.000000,1,0,-0.000000,0.000000,1,-2.455688,0.118546,0.000000,-4.015610,0.116348,0.000000,-0.027000,0.063000,-0.025000,FlatInitial
08:13:46.570 PM 02/15/2016,Teleop Enabled,0,FALSE,0,NO ERROR,-6007.031250,6004.101562,-6000.000000,-6000.000000,Speed,Speed,-0.040000,1.190000,1.130000,1.000000,101.000000,1,0,-0.000000,0.000000,1,-2.499359,0.187088,0.000000,-4.139694,0.124344,0.000000,-0.036000,0.059000,0.001000,FlatInitial
08:13:46.670 PM 02/15/2016,Teleop Enabled,0,FALSE,0,NO ERROR,-6006.445312,6001.171875,-6000.000000,-6000.000000,Speed,Speed,-0.030000,1.200000,1.230000,1.000000,102.000000,1,0,-0.000000,0.000000,1,-2.542450,0.248077,0.000000,-4.265961,0.135590,0.000000,-0.065000,0.079000,-0.025000,FlatInitial
08:13:46.771 PM 02/15/2016,Teleop Enabled,0,FALSE,0,NO ERROR,-6007.617188,5997.070312,-6000.000000,-6000.000000,Speed,Speed,-0.030000,1.200000,1.380000,1.000000,101.000000,1,0,-0.000000,0.000000,1,-2.594040,0.329910,0.000000,-4.394577,0.150467,0.000000,-0.025000,0.086000,-0.041000,FlatInitial
08:13:46.871 PM 02/15/2016,Teleop Enabled,0,FALSE,0,NO ERROR,-6005.859375,5997.070312,-6000.000000,-6000.000000,Speed,Speed,-0.040000,1.230000,1.510000,1.000000,102.000000,1,0,-0.000000,0.000000,1,-2.639740,0.407196,0.000000,-4.525650,0.169250,0.000000,-0.063000,0.070000,-0.056000,FlatInitial
08:13:46.971 PM 02/15/2016,Teleop Enabled,0,FALSE,0,NO ERROR,-6001.757812,5995.898438,-6000.000000,-6000.000000,Speed,Speed,-0.040000,1.230000,1.610000,1.000000,100.000000,1,0,-0.000000,0.000000,1,-2.691299,0.468643,0.000000,-4.659195,0.191437,0.000000,-0.019000,0.074000,-0.040000,FlatInitial
08:13:47.071 PM 02/15/2016,Teleop Enabled,0,FALSE,0,NO ERROR,-5997.070312,5995.312500,-6000.000000,-6000.000000,Speed,Speed,-0.030000,1.250000,1.730000,1.000000,103.000000,1,0,-0.000000,0.000000,1,-2.707260,0.518860,0.000000,-4.794250,0.216461,0.000000,-0.061000,0.056000,-0.029000,FlatInitial
08:13:47.171 PM 02/15/2016,Teleop Enabled,0,FALSE,0,NO ERROR,-5991.210938,6000.000000,-6000.000000,-6000.000000,Speed,Speed,-0.040000,1.270000,1.810000,1.000000,105.000000,1,0,-0.000000,0.000000,1,-2.752365,0.602982,0.000000,-4.958267,0.250519,0.000000,-0.049000,0.064000,-0.034000,FlatInitial
08:13:47.271 PM 02/15/2016,Teleop Enabled,0,FALSE,0,NO ERROR,-5992.382812,6002.343750,-6000.000000,-6000.000000,Speed,Speed,-0.040000,1.320000,1.920000,1.000000,105.000000,1,0,-0.000000,0.000000,1,-2.795517,0.669647,0.000000,-5.097107,0.282654,0.000000,-0.039000,0.055000,-0.015000,FlatInitial
08:13:47.372 PM 02/15/2016,Teleop Enabled,0,FALSE,0,NO ERROR,-5995.312500,6007.617188,-6000.000000,-6000.000000,Speed,Speed,-0.050000,1.310000,2.030000,1.000000,102.000000,1,0,-0.000000,0.000000,1,-2.836304,0.710770,0.000000,-5.210007,0.310623,0.000000,-0.046000,0.065000,-0.039000,FlatInitial
08:13:47.472 PM 02/15/2016,Teleop Enabled,0,FALSE,0,NO ERROR,-5996.484375,6015.820312,-6000.000000,-6000.000000,Speed,Speed,-0.050000,1.300000,2.100000,1.000000,101.000000,1,0,-0.000000,0.000000,1,-2.890396,0.764496,0.000000,-5.381943,0.355255,0.000000,-0.031000,0.027000,-0.048000,FlatInitial
08:13:47.572 PM 02/15/2016,Teleop Enabled,0,FALSE,0,NO ERROR,-5997.656250,6014.062500,-6000.000000,-6000.000000,Speed,Speed,-0.050000,1.290000,2.160000,1.000000,102.000000,1,0,-0.000000,0.000000,1,-2.940567,0.802139,0.000000,-5.527985,0.394821,0.000000,-0.048000,0.018000,-0.025000,FlatInitial
08:13:47.672 PM 02/15/2016,Teleop Enabled,0,FALSE,0,NO ERROR,-6002.343750,6009.375000,-6000.000000,-6000.000000,Speed,Speed,-0.040000,1.220000,2.270000,1.000000,100.000000,1,0,-0.000000,0.000000,1,-2.998505,0.002090,0.000000,-5.676682,0.419144,0.000000,-0.058000,0.027000,-0.031000,FlatInitial
08:13:47.773 PM 02/15/2016,Teleop Enabled,0,FALSE,0,NO ERROR,-6007.617188,6004.101562,-6000.000000,-6000.000000,Speed,Speed,-0.030000,1.160000,2.400000,1.000000,102.000000,1,0,-0.000000,0.000000,1,-3.055573,0.002808,0.000000,-5.828369,0.419464,0.000000,-0.039000,-0.001000,-0.043000,FlatInitial
08:13:47.872 PM 02/15/2016,Teleop Enabled,0,FALSE,0,NO ERROR,-6009.960938,6007.031250,-6000.000000,-6000.000000,Speed,Speed,-0.030000,1.110000,2.520000,1.000000,101.000000,1,0,-0.000000,0.000000,1,-3.114105,0.021759,0.000000,-5.982895,0.420120,0.000000,-0.072000,0.030000,-0.078000,FlatInitial
08:13:47.972 PM 02/15/2016,Teleop Enabled,0,FALSE,0,NO ERROR,-6009.960938,6008.789062,-6000.000000,-6000.000000,Speed,Speed,-0.040000,1.090000,2.630000,1.000000,101.000000,1,0,-0.000000,0.000000,1,-3.166107,0.000000,0.000000,-6.140228,0.421097,0.000000,-0.039000,-0.007000,-0.089000,FlatInitial
08:13:48.072 PM 02/15/2016,Teleop Enabled,0,FALSE,0,NO ERROR,-6005.273438,6010.546875,-6000.000000,-6000.000000,Speed,Speed,-0.040000,1.020000,2.740000,1.000000,103.000000,1,0,-0.000000,0.000000,1,-3.210159,-0.003311,0.000000,-6.299942,0.421173,0.000000,-0.042000,-0.031000,-0.064000,FlatInitial
08:13:48.172 PM 02/15/2016,Teleop Enabled,0,FALSE,0,NO ERROR,-6001.757812,6012.890625,-6000.000000,-6000.000000,Speed,Speed,-0.040000,0.970000,2.800000,1.000000,102.000000,1,0,-0.000000,0.000000,1,-3.247284,0.000000,0.000000,-6.461533,0.420441,0.000000,-0.032000,-0.016000,-0.073000,FlatInitial
08:13:48.272 PM 02/15/2016,Teleop Enabled,0,FALSE,0,NO ERROR,-5997.070312,6002.343750,-6000.000000,-6000.000000,Speed,Speed,-0.030000,0.920000,2.850000,1.000000,105.000000,1,0,-0.000000,0.000000,1,-3.288422,-0.012878,0.000000,-6.625275,0.420349,0.000000,-0.009000,-0.058000,-0.020000,FlatInitial
08:13:48.372 PM 02/15/2016,Teleop Enabled,0,FALSE,0,NO ERROR,-5992.968750,5995.898438,-6000.000000,-6000.000000,Speed,Speed,-0.030000,0.870000,2.850000,1.000000,101.000000,1,0,-0.000000,0.000000,1,-3.314972,-0.069321,0.000000,-6.790497,0.418015,0.000000,-0.046000,-0.060000,-0.038000,FlatInitial
08:13:48.472 PM 02/15/2016,Teleop Enabled,0,FALSE,0,NO ERROR,-5995.898438,5995.898438,-6000.000000,-6000.000000,Speed,Speed,-0.030000,0.800000,2.890000,1.000000,100.000000,1,0,-0.000000,0.000000,1,-3.361099,-0.119858,0.000000,-6.991013,0.411926,0.000000,-0.042000,-0.036000,-0.044000,FlatInitial
08:13:48.572 PM 02/15/2016,Teleop Enabled,0,FALSE,0,NO ERROR,-6002.929688,5995.312500,-6000.000000,-6000.000000,Speed,Speed,-0.020000,0.770000,2.900000,1.000000,103.000000,1,0,-0.000000,0.000000,1,-3.396362,-0.161377,0.000000,-7.160049,0.404648,0.000000,-0.022000,-0.043000,-0.061000,FlatInitial
08:13:48.672 PM 02/15/2016,Teleop Enabled,0,FALSE,0,NO ERROR,-6007.617188,5995.898438,-6000.000000,-6000.000000,Speed,Speed,-0.020000,0.740000,2.940000,1.000000,101.000000,1,0,-0.000000,0.000000,1,-3.414444,-0.175934,0.000000,-7.296387,0.397812,0.000000,-0.042000,-0.010000,-0.055000,FlatInitial
08:13:48.773 PM 02/15/2016,Teleop Enabled,0,FALSE,0,NO ERROR,-6011.132812,5996.484375,-6000.000000,-6000.000000,Speed,Speed,-0.020000,0.710000,2.980000,1.000000,101.000000,1,0,-0.000000,0.000000,1,-3.436646,-0.204178,0.000000,-7.467819,0.388290,0.000000,-0.041000,-0.039000,-0.075000,FlatInitial
08:13:48.873 PM 02/15/2016,Teleop Enabled,0,FALSE,0,NO ERROR,-6007.617188,6000.000000,-6000.000000,-6000.000000,Speed,Speed,-0.020000,0.690000,2.980000,1.000000,102.000000,1,0,-0.000000,0.000000,1,-3.463699,0.000000,0.000000,-7.640427,0.379578,0.000000,-0.040000,0.013000,-0.052000,FlatInitial
08:13:48.973 PM 02/15/2016,Teleop Enabled,0,FALSE,0,NO ERROR,-6001.757812,6002.929688,-6000.000000,-6000.000000,Speed,Speed,-0.020000,0.660000,3.020000,1.000000,103.000000,1,0,-0.000000,0.000000,1,0.000000,-0.009827,0.000000,-7.814545,0.379440,0.000000,-0.014000,-0.040000,-0.042000,FlatInitial
08:13:49.074 PM 02/15/2016,Teleop Enabled,0,FALSE,0,NO ERROR,-6002.929688,6002.929688,-6000.000000,-6000.000000,Speed,Speed,-0.010000,0.630000,3.030000,1.000000,101.000000,1,0,-0.000000,0.000000,1,-0.016327,-0.046753,0.000000,-7.814972,0.378113,0.000000,-0.014000,-0.041000,-0.035000,FlatInitial
08:13:49.174 PM 02/15/2016,Teleop Enabled,0,FALSE,0,NO ERROR,-6003.515625,6007.031250,-6000.000000,-6000.000000,Speed,Speed,-0.010000,0.610000,3.010000,1.000000,100.000000,1,0,-0.000000,0.000000,1,-0.043671,-0.092377,0.000000,-7.816895,0.373688,0.000000,-0.025000,-0.018000,-0.066000,FlatInitial
08:13:49.275 PM 02/15/2016,Teleop Enabled,0,FALSE,0,NO ERROR,-6005.273438,6014.062500,-6000.000000,-6000.000000,Speed,Speed,-0.010000,0.600000,2.960000,1.000000,101.000000,1,0,-0.000000,0.000000,1,-0.059753,-0.136841,0.000000,-7.819580,0.367859,0.000000,0.001000,-0.042000,-0.050000,FlatInitial
08:13:49.375 PM 02/15/2016,Teleop Enabled,0,FALSE,0,NO ERROR,-6005.859375,6009.375000,-6000.000000,-6000.000000,Speed,Speed,0.000000,0.590000,2.880000,1.000000,101.000000,1,0,-0.000000,0.000000,1,0.000000,-0.179276,0.000000,-7.819580,0.359741,0.000000,-0.007000,-0.018000,-0.044000,FlatInitial
08:13:49.475 PM 02/15/2016,Teleop Enabled,0,FALSE,0,NO ERROR,-6005.859375,6002.343750,-6000.000000,-6000.000000,Speed,Speed,0.000000,0.600000,2.790000,1.000000,107.000000,1,0,-0.000000,0.000000,1,0.000000,-0.234543,0.000000,-7.819580,0.349091,0.000000,0.015000,-0.042000,-0.058000,FlatInitial
08:13:49.575 PM 02/15/2016,Teleop Enabled,0,FALSE,0,NO ERROR,-5998.828125,6002.343750,-6000.000000,-6000.000000,Speed,Speed,-0.010000,0.580000,2.650000,1.000000,100.000000,1,0,-0.000000,0.000000,1,-0.005630,-0.274094,0.000000,-7.819717,0.338669,0.000000,-0.006000,-0.026000,-0.045000,FlatInitial
08:13:49.675 PM 02/15/2016,Teleop Enabled,0,FALSE,0,NO ERROR,-5995.312500,6002.343750,-6000.000000,-6000.000000,Speed,Speed,-0.010000,0.580000,2.570000,1.000000,101.000000,1,0,-0.000000,0.000000,1,0.000000,-0.315018,0.000000,-7.819901,0.323837,0.000000,-0.003000,-0.039000,-0.020000,FlatInitial
08:13:49.777 PM 02/15/2016,Teleop Enabled,0,FALSE,0,NO ERROR,-5991.796875,5998.828125,-6000.000000,-6000.000000,Speed,Speed,-0.010000,0.570000,2.500000,1.000000,101.000000,1,0,-0.000000,0.000000,1,0.001175,-0.377930,0.000000,-7.819901,0.302704,0.000000,0.031000,-0.039000,-0.034000,FlatInitial
08:13:49.878 PM 02/15/2016,Teleop Enabled,0,FALSE,0,NO ERROR,-5990.039062,5998.828125,-6000.000000,-6000.000000,Speed,Speed,-0.010000,0.590000,2.370000,1.000000,101.000000,1,0,-0.000000,0.000000,1,0.013260,-0.429413,0.000000,-7.819427,0.282257,0.000000,-0.006000,-0.047000,-0.018000,FlatInitial
08:13:49.978 PM 02/15/2016,Teleop Enabled,0,FALSE,0,NO ERROR,-5990.039062,6000.585938,-6000.000000,-6000.000000,Speed,Speed,0.000000,0.620000,2.290000,1.000000,102.000000,1,0,-0.000000,0.000000,1,0.027161,-0.469971,0.000000,-7.818344,0.259583,0.000000,0.014000,-0.030000,0.003000,FlatInitial
08:13:50.078 PM 02/15/2016,Teleop Enabled,0,FALSE,0,NO ERROR,-5994.140625,6001.171875,-6000.000000,-6000.000000,Speed,Speed,0.000000,0.630000,2.210000,1.000000,101.000000,1,0,-0.000000,0.000000,1,0.044937,-0.490448,0.000000,-7.816864,0.240219,0.000000,0.024000,-0.002000,-0.033000,FlatInitial
08:13:50.179 PM 02/15/2016,Teleop Enabled,0,FALSE,0,NO ERROR,-5999.414062,6001.171875,-6000.000000,-6000.000000,Speed,Speed,0.000000,0.650000,2.160000,1.000000,101.000000,1,0,-0.000000,0.000000,1,0.075470,-0.528549,0.000000,-7.813080,0.209534,0.000000,0.031000,-0.032000,-0.011000,FlatInitial
08:13:50.279 PM 02/15/2016,Teleop Enabled,0,FALSE,0,NO ERROR,-6002.929688,6002.929688,-6000.000000,-6000.000000,Speed,Speed,0.000000,0.650000,2.110000,1.000000,101.000000,1,0,-0.000000,0.000000,1,0.000000,0.000000,0.000000,-7.809723,0.187698,0.000000,0.012000,0.001000,-0.012000,FlatInitial
08:13:50.379 PM 02/15/2016,Teleop Enabled,0,FALSE,0,NO ERROR,-6002.929688,6005.859375,-6000.000000,-6000.000000,Speed,Speed,-0.010000,0.650000,2.090000,1.000000,101.000000,1,0,-0.000000,0.000000,1,0.006393,-0.018845,0.000000,-7.809631,0.187286,0.000000,0.000000,-0.023000,-0.015000,FlatInitial
08:13:50.479 PM 02/15/2016,Teleop Enabled,0,FALSE,0,NO ERROR,-6006.445312,6007.617188,-6000.000000,-6000.000000,Speed,Speed,-0.010000,0.680000,2.070000,1.000000,104.000000,1,0,-0.000000,0.000000,1,0.033157,-0.045700,0.000000,-7.808533,0.185516,0.000000,0.043000,-0.015000,0.013000,FlatInitial
08:13:50.579 PM 02/15/2016,Teleop Enabled,0,FALSE,0,NO ERROR,-6008.203125,6006.445312,-6000.000000,-6000.000000,Speed,Speed,-0.020000,0.710000,1.970000,1.000000,101.000000,1,0,-0.000000,0.000000,1,0.057159,-0.064880,0.000000,-7.806107,0.182556,0.000000,0.043000,0.003000,0.002000,FlatInitial
08:13:50.679 PM 02/15/2016,Teleop Enabled,0,FALSE,0,NO ERROR,-6011.132812,6005.273438,-6000.000000,-6000.000000,Speed,Speed,-0.020000,0.770000,1.920000,1.000000,104.000000,1,0,-0.000000,0.000000,1,0.086533,0.000000,0.000000,-7.802353,0.182419,0.000000,0.023000,-0.012000,-0.023000,FlatInitial
08:13:50.779 PM 02/15/2016,Teleop Enabled,0,FALSE,0,NO ERROR,-6010.546875,6004.687500,-6000.000000,-6000.000000,Speed,Speed,-0.020000,0.830000,1.820000,1.000000,102.000000,1,0,-0.000000,0.000000,1,0.118637,0.000000,0.000000,-7.797119,0.182236,0.000000,0.036000,0.006000,0.000000,FlatInitial
08:13:50.880 PM 02/15/2016,Teleop Enabled,0,FALSE,0,NO ERROR,-6008.203125,6004.687500,-6000.000000,-6000.000000,Speed,Speed,-0.020000,0.890000,1.740000,1.000000,101.000000,1,0,-0.000000,0.000000,1,0.151672,0.000000,0.000000,-7.790176,0.182083,0.000000,0.010000,0.002000,0.002000,FlatInitial
08:13:50.980 PM 02/15/2016,Teleop Enabled,0,FALSE,0,NO ERROR,-6007.031250,6004.687500,-6000.000000,-6000.000000,Speed,Speed,-0.020000,0.920000,1.680000,1.000000,102.000000,1,0,-0.000000,0.000000,1,0.169861,0.000000,0.000000,-7.782013,0.182083,0.000000,0.033000,-0.004000,0.004000,FlatInitial
08:13:51.081 PM 02/15/2016,Teleop Enabled,0,FALSE,0,NO ERROR,-6003.515625,6004.687500,-6000.000000,-6000.000000,Speed,Speed,-0.020000,0.950000,1.640000,1.000000,102.000000,1,0,-0.000000,0.000000,1,0.009781,0.000000,0.000000,-7.778290,0.182007,0.000000,0.049000,0.013000,0.029000,FlatInitial
08:13:51.181 PM 02/15/2016,Teleop Enabled,0,FALSE,0,NO ERROR,-5995.898438,6003.515625,-6000.000000,-6000.000000,Speed,Speed,-0.020000,1.000000,1.580000,1.000000,100.000000,1,0,-0.000000,0.000000,1,0.052856,0.000000,0.000000,-7.776581,0.182007,0.000000,0.023000,-0.013000,0.039000,FlatInitial
08:13:51.281 PM 02/15/2016,Teleop Enabled,0,FALSE,0,NO ERROR,-5991.796875,6001.757812,-6000.000000,-6000.000000,Speed,Speed,-0.020000,1.040000,1.550000,1.000000,102.000000,1,0,-0.000000,0.000000,1,0.000000,0.016312,0.000000,-7.773743,0.182343,0.000000,0.047000,0.024000,0.078000,FlatInitial
08:13:51.381 PM 02/15/2016,Teleop Enabled,0,FALSE,0,NO ERROR,-5991.796875,6003.515625,-6000.000000,-6000.000000,Speed,Speed,-0.030000,1.090000,1.580000,1.000000,101.000000,1,0,-0.000000,0.000000,1,0.038177,0.037384,0.000000,-7.772659,0.183838,0.000000,0.026000,-0.004000,0.046000,FlatInitial
08:13:51.481 PM 02/15/2016,Teleop Enabled,0,FALSE,0,NO ERROR,-5994.140625,6005.859375,-6000.000000,-6000.000000,Speed,Speed,-0.030000,1.150000,1.560000,1.000000,102.000000,1,0,-0.000000,0.000000,1,0.083862,0.027313,0.000000,-7.768784,0.184937,0.000000,0.035000,0.022000,0.028000,FlatInitial
08:13:51.581 PM 02/15/2016,Teleop Enabled,0,FALSE,0,NO ERROR,-5997.656250,6005.859375,-6000.000000,-6000.000000,Speed,Speed,-0.040000,1.190000,1.560000,1.000000,101.000000,1,0,-0.000000,0.000000,1,0.109314,0.046188,0.000000,-7.764862,0.186478,0.000000,0.040000,0.014000,-0.017000,FlatInitial
08:13:51.681 PM 02/15/2016,Teleop Enabled,0,FALSE,0,NO ERROR,-6001.757812,6004.101562,-6000.000000,-6000.000000,Speed,Speed,-0.040000,1.210000,1.560000,1.000000,101.000000,1,0,-0.000000,0.000000,1,0.150482,0.000000,0.000000,-7.756821,0.188889,0.000000,0.028000,0.010000,0.000000,FlatInitial
08:13:51.782 PM 02/15/2016,Teleop Enabled,0,FALSE,0,NO ERROR,-6005.859375,6004.101562,-6000.000000,-6000.000000,Speed,Speed,-0.040000,1.230000,1.560000,1.000000,102.000000,1,0,-0.000000,0.000000,1,0.000000,0.011169,0.000000,-7.752014,0.189133,0.000000,0.040000,0.045000,0.019000,FlatInitial
08:13:51.882 PM 02/15/2016,Teleop Enabled,0,FALSE,0,NO ERROR,-6008.789062,6002.929688,-6000.000000,-6000.000000,Speed,Speed,-0.040000,1.250000,1.540000,1.000000,101.000000,1,0,-0.000000,0.000000,1,0.041855,0.007629,0.000000,-7.750656,0.189865,0.000000,0.029000,0.008000,-0.014000,FlatInitial
08:13:51.982 PM 02/15/2016,Teleop Enabled,0,FALSE,0,NO ERROR,-6010.546875,6001.757812,-6000.000000,-6000.000000,Speed,Speed,-0.040000,1.240000,1.580000,1.000000,102.000000,1,0,-0.000000,0.000000,1,0.070755,0.032822,0.000000,-7.748215,0.190720,0.000000,0.051000,0.034000,0.027000,FlatInitial
08:13:52.083 PM 02/15/2016,Teleop Enabled,0,FALSE,0,NO ERROR,-6007.031250,6000.000000,-6000.000000,-6000.000000,Speed,Speed,-0.040000,1.240000,1.600000,1.000000,102.000000,1,0,-0.000000,0.000000,1,0.112839,0.057938,0.000000,-7.742401,0.193710,0.000000,0.020000,-0.002000,-0.005000,FlatInitial
08:13:52.183 PM 02/15/2016,Teleop Enabled,0,FALSE,0,NO ERROR,-6004.101562,6000.585938,-6000.000000,-6000.000000,Speed,Speed,-0.040000,1.220000,1.620000,1.000000,103.000000,1,0,-0.000000,0.000000,1,0.135330,0.021072,0.000000,-7.736053,0.194229,0.000000,0.013000,0.020000,0.000000,FlatInitial
08:13:52.283 PM 02/15/2016,Teleop Enabled,0,FALSE,0,NO ERROR,-6005.859375,6000.000000,-6000.000000,-6000.000000,Speed,Speed,-0.040000,1.180000,1.700000,1.000000,103.000000,1,0,-0.000000,0.000000,1,0.012360,0.050781,0.000000,-7.734406,0.196136,0.000000,0.025000,0.024000,-0.027000,FlatInitial
08:13:52.383 PM 02/15/2016,Teleop Enabled,0,FALSE,0,NO ERROR,-6003.515625,6000.585938,-6000.000000,-6000.000000,Speed,Speed,-0.040000,1.150000,1.720000,1.000000,101.000000,1,0,-0.000000,0.000000,1,0.041397,0.078735,0.000000,-7.733002,0.199585,0.000000,0.036000,0.025000,0.003000,FlatInitial
08:13:52.483 PM 02/15/2016,Teleop Enabled,0,FALSE,0,NO ERROR,-5997.656250,6002.929688,-6000.000000,-6000.000000,Speed,Speed,-0.040000,1.120000,1.760000,1.000000,101.000000,1,0,-0.000000,0.000000,1,0.005325,0.100494,0.000000,-7.731400,0.203995,0.000000,0.041000,0.062000,0.012000,FlatInitial
08:13:52.583 PM 02/15/2016,Teleop Enabled,0,FALSE,0,NO ERROR,-5990.625000,6005.273438,-6000.000000,-6000.000000,Speed,Speed,-0.040000,1.080000,1.810000,1.000000,102.000000,1,0,-0.000000,0.000000,1,0.042130,0.139450,0.000000,-7.729980,0.210220,0.000000,0.032000,0.028000,0.006000,FlatInitial
08:13:52.683 PM 02/15/2016,Teleop Enabled,0,FALSE,0,NO ERROR,-5988.281250,6004.101562,-6000.000000,-6000.000000,Speed,Speed,-0.040000,1.050000,1.870000,1.000000,102.000000,1,0,-0.000000,0.000000,1,0.080017,0.182144,0.000000,-7.726700,0.218460,0.000000,0.014000,0.047000,0.023000,FlatInitial
08:13:52.783 PM 02/15/2016,Teleop Enabled,0,FALSE,0,NO ERROR,-5993.554688,6003.515625,-6000.000000,-6000.000000,Speed,Speed,-0.040000,1.000000,1.910000,1.000000,101.000000,1,0,-0.000000,0.000000,1,0.110367,0.216827,0.000000,-7.721832,0.228683,0.000000,0.047000,0.033000,0.023000,FlatInitial
08:13:52.883 PM 02/15/2016,Teleop Enabled,0,FALSE,0,NO ERROR,-5998.828125,6003.515625,-6000.000000,-6000.000000,Speed,Speed,-0.040000,0.970000,1.880000,1.000000,101.000000,1,0,-0.000000,0.000000,1,0.144760,0.244354,0.000000,-7.714050,0.242554,0.000000,0.033000,0.030000,0.012000,FlatInitial
08:13:52.983 PM 02/15/2016,Teleop Enabled,0,FALSE,0,NO ERROR,-6003.515625,6001.171875,-6000.000000,-6000.000000,Speed,Speed,-0.030000,0.920000,1.920000,1.000000,102.000000,1,0,-0.000000,0.000000,1,0.183243,0.291656,0.000000,-7.705704,0.256287,0.000000,0.042000,0.043000,0.007000,FlatInitial
08:13:53.083 PM 02/15/2016,Teleop Enabled,0,FALSE,0,NO ERROR,-6004.687500,5998.828125,-6000.000000,-6000.000000,Speed,Speed,-0.030000,0.910000,1.910000,1.000000,105.000000,1,0,-0.000000,0.000000,1,0.215912,0.304749,0.000000,-7.697647,0.268311,0.000000,0.056000,0.003000,0.004000,FlatInitial
08:13:53.183 PM 02/15/2016,Teleop Enabled,0,FALSE,0,NO ERROR,-6001.171875,5996.484375,-6000.000000,-6000.000000,Speed,Speed,-0.030000,0.900000,1.890000,1.000000,102.000000,1,0,-0.000000,0.000000,1,0.262604,0.019073,0.000000,-7.685379,0.268646,0.000000,0.056000,0.031000,0.044000,FlatInitial
08:13:53.283 PM 02/15/2016,Teleop Enabled,0,FALSE,0,NO ERROR,-5999.414062,5993.554688,-6000.000000,-6000.000000,Speed,Speed,-0.030000,0.910000,1.900000,1.000000,100.000000,1,0,-0.000000,0.000000,1,0.326767,0.061981,0.000000,-7.670334,0.270905,0.000000,0.063000,0.051000,0.046000,FlatInitial
08:13:53.383 PM 02/15/2016,Teleop Enabled,0,FALSE,0,NO ERROR,-6001.171875,5994.726562,-6000.000000,-6000.000000,Speed,Speed,-0.030000,0.870000,1.970000,1.000000,101.000000,1,0,-0.000000,0.000000,1,0.386536,0.109055,0.000000,-7.648544,0.276352,0.000000,0.031000,0.028000,0.023000,FlatInitial
08:13:53.485 PM 02/15/2016,Teleop Enabled,0,FALSE,0,NO ERROR,-6004.687500,5997.070312,-6000.000000,-6000.000000,Speed,Speed,-0.030000,0.860000,1.980000,1.000000,101.000000,1,0,-0.000000,0.000000,1,0.433853,0.137207,0.000000,-7.627838,0.282593,0.000000,0.061000,0.037000,0.034000,FlatInitial
08:13:53.587 PM 02/15/2016,Teleop Enabled,0,FALSE,0,NO ERROR,-6008.203125,5999.414062,-6000.000000,-6000.000000,Speed,Speed,-0.030000,0.820000,2.040000,1.000000,101.000000,1,0,-0.000000,0.000000,1,0.476181,0.170532,0.000000,-7.604797,0.290405,0.000000,0.030000,0.044000,0.046000,FlatInitial
08:13:53.688 PM 02/15/2016,Teleop Enabled,0,FALSE,0,NO ERROR,-6012.890625,6001.171875,-6000.000000,-6000.000000,Speed,Speed,-0.040000,0.790000,2.130000,1.000000,101.000000,1,0,-0.000000,0.000000,1,0.527115,0.222549,0.000000,-7.579636,0.300446,0.000000,0.061000,0.057000,0.023000,FlatInitial
08:13:53.789 PM 02/15/2016,Teleop Enabled,0,FALSE,0,NO ERROR,-6009.375000,6002.343750,-6000.000000,-6000.000000,Speed,Speed,-0.040000,0.760000,2.220000,1.000000,101.000000,1,0,-0.000000,0.000000,1,0.581650,0.244949,0.000000,-7.551758,0.312393,0.000000,0.061000,0.057000,0.023000,FlatInitial
08:13:53.889 PM 02/15/2016,Teleop Enabled,0,FALSE,0,NO ERROR,-6002.929688,6005.859375,-6000.000000,-6000.000000,Speed,Speed,-0.040000,0.730000,2.250000,1.000000,102.000000,1,0,-0.000000,0.000000,1,0.636627,0.271210,0.000000,-7.521011,0.325195,0.000000,0.058000,0.051000,0.017000,FlatInitial
08:13:53.989 PM 02/15/2016,Teleop Enabled,0,FALSE,0,NO ERROR,-6000.000000,6008.789062,-6000.000000,-6000.000000,Speed,Speed,-0.040000,0.670000,2.360000,1.000000,102.000000,1,0,-0.000000,0.000000,1,0.684509,0.297638,0.000000,-7.487625,0.339630,0.000000,0.047000,0.014000,0.029000,FlatInitial
08:13:54.090 PM 02/15/2016,Teleop Enabled,0,FALSE,0,NO ERROR,-5999.414062,6007.617188,-6000.000000,-6000.000000,Speed,Speed,-0.040000,0.630000,2.410000,1.000000,102.000000,1,0,-0.000000,0.000000,1,0.737778,0.000000,0.000000,-7.451736,0.342621,0.000000,0.028000,-0.013000,0.026000,FlatInitial
08:13:54.191 PM 02/15/2016,Teleop Enabled,0,FALSE,0,NO ERROR,-5995.312500,6008.789062,-6000.000000,-6000.000000,Speed,Speed,-0.030000,0.570000,2.460000,1.000000,102.000000,1,0,-0.000000,0.000000,1,0.782394,0.000000,0.000000,-7.413589,0.342682,0.000000,0.028000,-0.013000,0.026000,FlatInitial
08:13:54.291 PM 02/15/2016,Teleop Enabled,0,FALSE,0,NO ERROR,-5995.898438,6007.031250,-6000.000000,-6000.000000,Speed,Speed,-0.030000,0.460000,2.490000,1.000000,103.000000,1,0,-0.000000,0.000000,1,0.819336,-0.003983,0.000000,-7.373230,0.342651,0.000000,0.035000,0.028000,0.038000,FlatInitial
08:13:54.391 PM 02/15/2016,Teleop Enabled,0,FALSE,0,NO ERROR,-6000.000000,6006.445312,-6000.000000,-6000.000000,Speed,Speed,-0.020000,0.390000,2.510000,1.000000,102.000000,1,0,-0.000000,0.000000,1,0.855240,0.000000,0.000000,-7.331207,0.342575,0.000000,0.035000,0.028000,0.038000,FlatInitial
08:13:54.491 PM 02/15/2016,Teleop Enabled,0,FALSE,0,NO ERROR,-6004.687500,6004.687500,-6000.000000,-6000.000000,Speed,Speed,-0.020000,0.340000,2.530000,1.000000,106.000000,1,0,-0.000000,0.000000,1,0.890350,-0.024384,0.000000,-7.287582,0.341797,0.000000,0.068000,-0.014000,0.011000,FlatInitial
08:13:54.591 PM 02/15/2016,Teleop Enabled,0,FALSE,0,NO ERROR,-6003.515625,5998.828125,-6000.000000,-6000.000000,Speed,Speed,-0.020000,0.300000,2.550000,1.000000,101.000000,1,0,-0.000000,0.000000,1,0.946579,0.000000,0.000000,-7.232086,0.340393,0.000000,0.053000,0.010000,0.065000,FlatInitial
08:13:54.692 PM 02/15/2016,Teleop Enabled,0,FALSE,0,NO ERROR,-6001.171875,5992.968750,-6000.000000,-6000.000000,Speed,Speed,-0.010000,0.240000,2.620000,1.000000,103.000000,1,0,-0.000000,0.000000,1,0.981659,-0.002213,0.000000,-7.193344,0.340378,0.000000,0.057000,-0.015000,0.014000,FlatInitial
08:13:54.792 PM 02/15/2016,Teleop Enabled,0,FALSE,0,NO ERROR,-5998.242188,5991.796875,-6000.000000,-6000.000000,Speed,Speed,-0.020000,0.210000,2.610000,1.000000,101.000000,1,0,-0.000000,0.000000,1,0.981659,-0.002213,0.000000,-7.193344,0.340378,0.000000,0.057000,-0.015000,0.014000,FlatInitial
08:13:54.892 PM 02/15/2016,Teleop Enabled,0,FALSE,0,NO ERROR,-5994.726562,5992.968750,-6000.000000,-6000.000000,Speed,Speed,-0.020000,0.160000,2.650000,1.000000,101.000000,1,0,-0.000000,0.000000,1,1.044113,-0.036575,0.000000,-7.132172,0.339020,0.000000,0.056000,0.000000,0.032000,FlatInitial
08:13:54.992 PM 02/15/2016,Teleop Enabled,0,FALSE,0,NO ERROR,-5991.796875,5995.312500,-6000.000000,-6000.000000,Speed,Speed,-0.020000,0.130000,2.670000,1.000000,104.000000,1,0,-0.000000,0.000000,1,1.156693,0.000000,0.000000,-7.021393,0.338547,0.000000,0.060000,-0.020000,0.007000,FlatInitial
08:13:55.092 PM 02/15/2016,Teleop Enabled,0,FALSE,0,NO ERROR,-5992.968750,5998.828125,-6000.000000,-6000.000000,Speed,Speed,-0.010000,0.100000,2.680000,1.000000,102.000000,1,0,-0.000000,0.000000,1,1.213242,0.010223,0.000000,-6.961868,0.338974,0.000000,0.041000,0.007000,0.011000,FlatInitial
08:13:55.192 PM 02/15/2016,Teleop Enabled,0,FALSE,0,NO ERROR,-5995.312500,6001.171875,-6000.000000,-6000.000000,Speed,Speed,-0.010000,0.100000,2.680000,1.000000,103.000000,1,0,-0.000000,0.000000,1,1.213242,0.010223,0.000000,-6.961868,0.338974,0.000000,0.026000,-0.047000,0.026000,FlatInitial
08:13:55.294 PM 02/15/2016,Teleop Enabled,0,FALSE,0,NO ERROR,-5998.828125,6002.343750,-6000.000000,-6000.000000,Speed,Speed,-0.010000,0.080000,2.700000,1.000000,101.000000,1,0,-0.000000,0.000000,1,1.265656,-0.018539,0.000000,-6.899689,0.338608,0.000000,0.027000,-0.050000,0.058000,FlatInitial
08:13:55.395 PM 02/15/2016,Teleop Enabled,0,FALSE,0,NO ERROR,-6004.101562,6004.101562,-6000.000000,-6000.000000,Speed,Speed,-0.010000,0.020000,2.730000,1.000000,101.000000,1,0,-0.000000,0.000000,1,1.367584,-0.015884,0.000000,-6.767639,0.337326,0.000000,0.063000,-0.013000,0.021000,FlatInitial
08:13:55.495 PM 02/15/2016,Teleop Enabled,0,FALSE,0,NO ERROR,-6008.789062,6004.687500,-6000.000000,-6000.000000,Speed,Speed,-0.010000,0.020000,2.730000,1.000000,101.000000,1,0,-0.000000,0.000000,1,1.367584,-0.015884,0.000000,-6.767639,0.337326,0.000000,0.063000,-0.013000,0.021000,FlatInitial
08:13:55.597 PM 02/15/2016,Teleop Enabled,0,FALSE,0,NO ERROR,-6011.718750,6007.031250,-6000.000000,-6000.000000,Speed,Speed,-0.010000,0.000000,2.760000,1.000000,101.000000,1,0,-0.000000,0.000000,1,1.479706,-0.093811,0.000000,-6.625107,0.331802,0.000000,0.065000,-0.069000,-0.002000,FlatInitial
08:13:55.697 PM 02/15/2016,Teleop Enabled,0,FALSE,0,NO ERROR,-6007.617188,6008.789062,-6000.000000,-6000.000000,Speed,Speed,-0.010000,0.000000,2.720000,1.000000,101.000000,1,0,-0.000000,0.000000,1,1.479706,-0.093811,0.000000,-6.625107,0.331802,0.000000,0.065000,-0.069000,-0.002000,FlatInitial
08:13:55.799 PM 02/15/2016,Teleop Enabled,0,FALSE,0,NO ERROR,-6005.859375,6006.445312,-6000.000000,-6000.000000,Speed,Speed,-0.020000,0.000000,2.710000,1.000000,101.000000,1,0,-0.000000,0.000000,1,1.551834,-0.137558,0.000000,-6.548996,0.325729,0.000000,0.054000,-0.044000,-0.005000,FlatInitial
08:13:55.900 PM 02/15/2016,Teleop Enabled,0,FALSE,0,NO ERROR,-6003.515625,6003.515625,-6000.000000,-6000.000000,Speed,Speed,-0.020000,0.000000,2.710000,1.000000,102.000000,1,0,-0.000000,0.000000,1,1.608002,-0.189957,0.000000,-6.469711,0.317383,0.000000,0.032000,-0.074000,0.016000,FlatInitial
08:13:56.001 PM 02/15/2016,Teleop Enabled,0,FALSE,0,NO ERROR,-6001.757812,6001.757812,-6000.000000,-6000.000000,Speed,Speed,-0.020000,0.010000,2.670000,1.000000,101.000000,1,0,-0.000000,0.000000,1,1.731598,-0.310074,0.000000,-6.302048,0.291443,0.000000,0.061000,-0.062000,0.015000,FlatInitial
08:13:56.101 PM 02/15/2016,Teleop Enabled,0,FALSE,0,NO ERROR,-6001.171875,5998.828125,-6000.000000,-6000.000000,Speed,Speed,-0.020000,0.010000,2.670000,1.000000,103.000000,1,0,-0.000000,0.000000,1,1.796646,-0.386658,0.000000,-6.213501,0.273804,0.000000,0.074000,-0.073000,0.008000,FlatInitial
08:13:56.204 PM 02/15/2016,Teleop Enabled,0,FALSE,0,NO ERROR,-6000.585938,5995.312500,-6000.000000,-6000.000000,Speed,Speed,-0.020000,0.030000,2.600000,1.000000,101.000000,1,0,-0.000000,0.000000,1,1.796646,-0.386658,0.000000,-6.213501,0.273804,0.000000,0.048000,-0.111000,0.019000,FlatInitial
08:13:56.303 PM 02/15/2016,Teleop Enabled,0,FALSE,0,NO ERROR,-5997.656250,5992.968750,-6000.000000,-6000.000000,Speed,Speed,-0.020000,0.030000,2.620000,1.000000,102.000000,1,0,-0.000000,0.000000,1,1.871063,-0.473770,0.000000,-6.103134,0.247208,0.000000,0.068000,-0.062000,0.012000,FlatInitial
08:13:56.407 PM 02/15/2016,Teleop Enabled,0,FALSE,0,NO ERROR,-5995.898438,5994.726562,-6000.000000,-6000.000000,Speed,Speed,-0.020000,0.030000,2.620000,1.000000,104.000000,1,0,-0.000000,0.000000,1,1.945435,-0.559937,0.000000,-6.007355,0.220978,0.000000,0.088000,-0.064000,-0.004000,FlatInitial
08:13:56.507 PM 02/15/2016,Teleop Enabled,0,FALSE,0,NO ERROR,-5994.726562,5996.484375,-6000.000000,-6000.000000,Speed,Speed,-0.020000,0.040000,2.570000,1.000000,101.000000,1,0,-0.000000,0.000000,1,2.022293,-0.630875,0.000000,-5.907730,0.190781,0.000000,0.063000,-0.065000,0.002000,FlatInitial
08:13:56.607 PM 02/15/2016,Teleop Enabled,0,FALSE,0,NO ERROR,-5992.382812,6000.000000,-6000.000000,-6000.000000,Speed,Speed,-0.020000,0.050000,2.540000,1.000000,102.000000,1,0,-0.000000,0.000000,1,2.085556,-0.679749,0.000000,-5.804657,0.157837,0.000000,0.097000,-0.063000,-0.003000,FlatInitial
08:13:56.708 PM 02/15/2016,Teleop Enabled,0,FALSE,0,NO ERROR,-5992.382812,6004.101562,-6000.000000,-6000.000000,Speed,Speed,-0.020000,0.060000,2.560000,1.000000,102.000000,1,0,-0.000000,0.000000,1,2.159607,-0.734161,0.000000,-5.698090,0.122238,0.000000,0.050000,-0.052000,0.030000,FlatInitial
08:13:56.809 PM 02/15/2016,Teleop Enabled,0,FALSE,0,NO ERROR,-5994.726562,6004.687500,-6000.000000,-6000.000000,Speed,Speed,-0.030000,0.040000,2.570000,1.000000,101.000000,1,0,-0.000000,0.000000,1,2.224548,-0.777740,0.000000,-5.588135,0.084213,0.000000,0.061000,-0.084000,0.037000,FlatInitial
08:13:56.910 PM 02/15/2016,Teleop Enabled,0,FALSE,0,NO ERROR,-6000.000000,6008.789062,-6000.000000,-6000.000000,Speed,Speed,-0.020000,0.090000,2.530000,1.000000,101.000000,1,0,-0.000000,0.000000,1,2.289566,-0.854034,0.000000,-5.474915,0.043121,0.000000,0.060000,-0.078000,0.018000,FlatInitial
08:13:57.012 PM 02/15/2016,Teleop Enabled,0,FALSE,0,NO ERROR,-6007.031250,6007.031250,-6000.000000,-6000.000000,Speed,Speed,-0.030000,0.140000,2.540000,1.000000,101.000000,1,0,-0.000000,0.000000,1,2.359009,-0.924133,0.000000,-5.358307,-0.001846,0.000000,0.073000,-0.067000,0.009000,FlatInitial
08:13:57.112 PM 02/15/2016,Teleop Enabled,0,FALSE,0,NO ERROR,-6013.476562,6003.515625,-6000.000000,-6000.000000,Speed,Speed,-0.040000,0.200000,2.480000,1.000000,101.000000,1,0,-0.000000,0.000000,1,2.445496,-0.993469,0.000000,-5.237747,-0.050018,0.000000,0.093000,-0.069000,0.000000,FlatInitial
08:13:57.212 PM 02/15/2016,Teleop Enabled,0,FALSE,0,NO ERROR,-6012.890625,5999.414062,-6000.000000,-6000.000000,Speed,Speed,-0.040000,0.200000,2.480000,1.000000,101.000000,1,0,-0.000000,0.000000,1,2.531219,-1.088501,0.000000,-5.112869,-0.102417,0.000000,0.066000,-0.092000,0.014000,FlatInitial
08:13:57.313 PM 02/15/2016,Teleop Enabled,0,FALSE,0,NO ERROR,-6007.617188,5998.242188,-6000.000000,-6000.000000,Speed,Speed,-0.040000,0.240000,2.420000,1.000000,101.000000,1,0,-0.000000,0.000000,1,2.618149,-1.194748,0.000000,-4.958038,-0.171524,0.000000,0.070000,-0.105000,-0.013000,FlatInitial
08:13:57.413 PM 02/15/2016,Teleop Enabled,0,FALSE,0,NO ERROR,-6004.687500,5997.070312,-6000.000000,-6000.000000,Speed,Speed,-0.040000,0.320000,2.380000,1.000000,101.000000,1,0,-0.000000,0.000000,1,2.672623,-1.268829,0.000000,-4.851959,-0.221161,0.000000,0.109000,-0.076000,-0.009000,FlatInitial
08:13:57.513 PM 02/15/2016,Teleop Enabled,0,FALSE,0,NO ERROR,-6000.585938,5997.070312,-6000.000000,-6000.000000,Speed,Speed,-0.040000,0.350000,2.320000,1.000000,101.000000,1,0,-0.000000,0.000000,1,2.748154,-1.361252,0.000000,-4.715988,-0.287308,0.000000,0.059000,-0.143000,-0.005000,FlatInitial
08:13:57.615 PM 02/15/2016,Teleop Enabled,0,FALSE,0,NO ERROR,-6001.757812,5999.414062,-6000.000000,-6000.000000,Speed,Speed,-0.040000,0.410000,2.250000,1.000000,102.000000,1,0,-0.000000,0.000000,1,2.828644,-1.502060,0.000000,-4.548294,-0.373932,0.000000,0.101000,-0.120000,-0.024000,FlatInitial
08:13:57.716 PM 02/15/2016,Teleop Enabled,0,FALSE,0,NO ERROR,-6002.929688,6001.171875,-6000.000000,-6000.000000,Speed,Speed,-0.040000,0.470000,2.180000,1.000000,101.000000,1,0,-0.000000,0.000000,1,2.889297,-1.585693,0.000000,-4.433640,-0.436157,0.000000,0.082000,-0.121000,-0.005000,FlatInitial
08:13:57.818 PM 02/15/2016,Teleop Enabled,0,FALSE,0,NO ERROR,-6005.859375,5999.414062,-6000.000000,-6000.000000,Speed,Speed,-0.050000,0.550000,2.080000,1.000000,103.000000,1,0,-0.000000,0.000000,1,2.969269,-1.702408,0.000000,-4.286774,-0.518860,0.000000,0.078000,-0.117000,-0.024000,FlatInitial
08:13:57.918 PM 02/15/2016,Teleop Enabled,0,FALSE,0,NO ERROR,-6006.445312,6001.171875,-6000.000000,-6000.000000,Speed,Speed,-0.050000,0.620000,1.990000,1.000000,102.000000,1,0,-0.000000,0.000000,1,3.055710,-1.840546,0.000000,-4.105423,-0.625687,0.000000,0.067000,-0.127000,0.012000,FlatInitial
08:13:58.019 PM 02/15/2016,Teleop Enabled,0,FALSE,0,NO ERROR,-6007.617188,6002.929688,-6000.000000,-6000.000000,Speed,Speed,-0.050000,0.680000,1.920000,1.000000,102.000000,1,0,-0.000000,0.000000,1,3.136261,-1.945908,0.000000,-3.950302,-0.720917,0.000000,0.089000,-0.098000,0.001000,FlatInitial
08:13:58.119 PM 02/15/2016,Teleop Enabled,0,FALSE,0,NO ERROR,-6007.031250,6002.343750,-6000.000000,-6000.000000,Speed,Speed,-0.060000,0.730000,1.850000,1.000000,101.000000,1,0,-0.000000,0.000000,1,3.225861,-2.037964,0.000000,-3.790863,-0.820984,0.000000,0.137000,-0.076000,-0.018000,FlatInitial
08:13:58.220 PM 02/15/2016,Teleop Enabled,0,FALSE,0,NO ERROR,-6005.273438,6002.343750,-6000.000000,-6000.000000,Speed,Speed,-0.060000,0.800000,1.770000,1.000000,100.000000,1,0,-0.000000,0.000000,1,3.315903,-2.148788,0.000000,-3.626816,-0.926132,0.000000,0.090000,-0.112000,0.026000,FlatInitial
08:13:58.320 PM 02/15/2016,Teleop Enabled,0,FALSE,0,NO ERROR,-6002.343750,6002.343750,-6000.000000,-6000.000000,Speed,Speed,-0.060000,0.850000,1.670000,1.000000,101.000000,1,0,-0.000000,0.000000,1,3.408081,-2.254852,0.000000,-3.458176,-1.036804,0.000000,0.098000,-0.112000,0.010000,FlatInitial
08:13:58.420 PM 02/15/2016,Teleop Enabled,0,FALSE,0,NO ERROR,-6000.000000,5997.070312,-6000.000000,-6000.000000,Speed,Speed,-0.060000,0.910000,1.570000,1.000000,101.000000,1,0,-0.000000,0.000000,1,3.507202,-2.353348,0.000000,-3.284760,-1.152405,0.000000,0.096000,-0.100000,0.009000,FlatInitial
08:13:58.520 PM 02/15/2016,Teleop Enabled,0,FALSE,0,NO ERROR,-5996.484375,5997.070312,-6000.000000,-6000.000000,Speed,Speed,-0.060000,0.970000,1.470000,1.000000,101.000000,1,0,-0.000000,0.000000,1,3.601196,-2.451630,0.000000,-3.106537,-1.273071,0.000000,0.089000,-0.091000,0.027000,FlatInitial
08:13:58.621 PM 02/15/2016,Teleop Enabled,0,FALSE,0,NO ERROR,-5994.726562,5992.382812,-6000.000000,-6000.000000,Speed,Speed,-0.060000,1.020000,1.380000,1.000000,101.000000,1,0,-0.000000,0.000000,1,3.688919,-2.554031,0.000000,-2.923798,-1.398697,0.000000,0.110000,-0.121000,0.011000,FlatInitial
08:13:58.723 PM 02/15/2016,Teleop Enabled,0,FALSE,0,NO ERROR,-5991.210938,5994.726562,-6000.000000,-6000.000000,Speed,Speed,-0.070000,1.050000,1.290000,1.000000,101.000000,1,0,-0.000000,0.000000,1,3.786819,-2.658981,0.000000,-2.736450,-1.529739,0.000000,0.076000,-0.103000,0.048000,FlatInitial
08:13:58.823 PM 02/15/2016,Teleop Enabled,0,FALSE,0,NO ERROR,-5987.695312,5994.726562,-6000.000000,-6000.000000,Speed,Speed,-0.070000,1.050000,1.250000,1.000000,101.000000,1,0,-0.000000,0.000000,1,3.868805,-2.744247,0.000000,-2.544647,-1.665268,0.000000,0.119000,-0.076000,0.001000,FlatInitial
08:13:58.923 PM 02/15/2016,Teleop Enabled,0,FALSE,0,NO ERROR,-5987.695312,6000.000000,-6000.000000,-6000.000000,Speed,Speed,-0.070000,1.100000,1.210000,1.000000,102.000000,1,0,-0.000000,0.000000,1,3.956207,-2.858185,0.000000,-2.348572,-1.805832,0.000000,0.107000,-0.112000,-0.008000,FlatInitial
08:13:59.023 PM 02/15/2016,Teleop Enabled,0,FALSE,0,NO ERROR,-5992.382812,6000.000000,-6000.000000,-6000.000000,Speed,Speed,-0.070000,1.120000,1.160000,1.000000,101.000000,1,0,-0.000000,0.000000,1,4.058289,-2.990311,0.000000,-2.107635,-1.981934,0.000000,0.089000,-0.114000,0.029000,FlatInitial
08:13:59.123 PM 02/15/2016,Teleop Enabled,0,FALSE,0,NO ERROR,-5993.554688,6002.929688,-6000.000000,-6000.000000,Speed,Speed,-0.070000,1.140000,1.150000,1.000000,102.000000,1,0,-0.000000,0.000000,1,4.132080,-3.066467,0.000000,-1.943451,-2.103439,0.000000,0.106000,-0.096000,-0.004000,FlatInitial
08:13:59.223 PM 02/15/2016,Teleop Enabled,0,FALSE,0,NO ERROR,-5992.968750,6002.929688,-6000.000000,-6000.000000,Speed,Speed,-0.070000,1.180000,1.100000,1.000000,101.000000,1,0,-0.000000,0.000000,1,4.219467,-3.170517,0.000000,-1.734177,-2.259888,0.000000,0.073000,-0.104000,0.020000,FlatInitial
08:13:59.326 PM 02/15/2016,Teleop Enabled,0,FALSE,0,NO ERROR,-5994.140625,6005.859375,-6000.000000,-6000.000000,Speed,Speed,-0.070000,1.210000,1.060000,1.000000,103.000000,1,0,-0.000000,0.000000,1,4.313461,-3.292511,0.000000,-1.477661,-2.454315,0.000000,0.100000,-0.095000,-0.030000,FlatInitial
08:13:59.427 PM 02/15/2016,Teleop Enabled,0,FALSE,0,NO ERROR,-5982.421875,6007.617188,-6000.000000,-6000.000000,Speed,Speed,-0.080000,1.240000,1.090000,1.000000,101.000000,1,0,-0.000000,0.000000,1,4.393784,-3.369141,0.000000,-1.259689,-2.621292,0.000000,0.103000,-0.075000,-0.006000,FlatInitial
08:13:59.528 PM 02/15/2016,Teleop Enabled,0,FALSE,0,NO ERROR,-5990.039062,6005.273438,-6000.000000,-6000.000000,Speed,Speed,-0.080000,1.270000,1.110000,1.000000,101.000000,1,0,-0.000000,0.000000,1,4.484177,-3.435562,0.000000,-1.037323,-2.791641,0.000000,0.060000,-0.098000,-0.007000,FlatInitial
08:13:59.628 PM 02/15/2016,Teleop Enabled,0,FALSE,0,NO ERROR,-6008.789062,6000.585938,-6000.000000,-6000.000000,Speed,Speed,-0.080000,1.330000,1.100000,1.000000,100.000000,1,0,-0.000000,0.000000,1,4.568665,-3.533417,0.000000,-0.810623,-2.966324,0.000000,0.093000,-0.078000,-0.023000,FlatInitial
08:13:59.728 PM 02/15/2016,Teleop Enabled,0,FALSE,0,NO ERROR,-6017.578125,5998.242188,-6000.000000,-6000.000000,Speed,Speed,-0.080000,1.350000,1.070000,1.000000,100.000000,1,0,-0.000000,0.000000,1,4.642059,-3.628357,0.000000,-0.579941,-3.145828,0.000000,0.068000,-0.117000,-0.007000,FlatInitial
08:13:59.829 PM 02/15/2016,Teleop Enabled,0,FALSE,0,NO ERROR,-6015.234375,5998.242188,-6000.000000,-6000.000000,Speed,Speed,-0.080000,1.370000,1.020000,1.000000,101.000000,1,0,-0.000000,0.000000,1,4.724136,-3.724426,0.000000,-0.345428,-3.330093,0.000000,0.096000,-0.085000,0.015000,FlatInitial
08:13:59.929 PM 02/15/2016,Teleop Enabled,0,FALSE,0,NO ERROR,-6012.304688,5998.242188,-6000.000000,-6000.000000,Speed,Speed,-0.080000,1.440000,0.990000,1.000000,101.000000,1,0,-0.000000,0.000000,1,4.806442,-3.807861,0.000000,-0.106705,-3.518829,0.000000,0.076000,-0.063000,0.008000,FlatInitial
08:14:00.031 PM 02/15/2016,Teleop Enabled,0,FALSE,0,NO ERROR,-6008.789062,6000.585938,-6000.000000,-6000.000000,Speed,Speed,-0.080000,1.470000,0.970000,1.000000,100.000000,1,0,-0.000000,0.000000,1,4.885605,-3.881607,0.000000,0.136017,-3.711304,0.000000,0.095000,-0.093000,0.003000,FlatInitial
08:14:00.131 PM 02/15/2016,Teleop Enabled,0,FALSE,0,NO ERROR,-6005.859375,6003.515625,-6000.000000,-6000.000000,Speed,Speed,-0.080000,1.500000,0.940000,1.000000,101.000000,1,0,-0.000000,0.000000,1,4.963074,-3.950317,0.000000,0.382614,-3.907516,0.000000,0.089000,-0.039000,-0.001000,FlatInitial
08:14:00.232 PM 02/15/2016,Teleop Enabled,0,FALSE,0,NO ERROR,-5994.726562,6006.445312,-6000.000000,-6000.000000,Speed,Speed,-0.090000,1.520000,0.930000,1.000000,101.000000,1,0,-0.000000,0.000000,1,5.053055,-4.012405,0.000000,0.633423,-4.106796,0.000000,0.092000,-0.108000,0.008000,FlatInitial
08:14:00.334 PM 02/15/2016,Teleop Enabled,0,FALSE,0,NO ERROR,-5965.429688,6005.273438,-6000.000000,-6000.000000,Speed,Speed,-0.090000,1.570000,0.900000,1.000000,100.000000,1,0,-0.000000,0.000000,1,5.141510,-4.108932,0.000000,0.888855,-4.310379,0.000000,0.103000,-0.082000,-0.051000,FlatInitial
