Time,RobotMode,AutoToRun,ErrorStatus, ErrorCode,ErrorSource,ActualRPM1,ActualRPM2,DesiredRPM1,DesiredRPM2,ControlMode1,ControlMode2,NavXYaw,NavXRoll,NavXPitch,ShooterState,LoopTime,IsLevel,IsAutoTargeting,LeftMotorOutput,RightMotorOutput,IsHaloDrive,NavXVelocityX,NavXVelocityY,NavXVelocityZ,NavXDisplacementX,NavXDisplacementY,NavXDisplacementZ,NavXAccelerationX,NavXAccelerationY,NavXAccelerationZ,AutoDefendState,AngeMotorState,Photoeye
07:07:01.723 PM 02/16/2016,Autonomous Disabled,0,TRUE,91,Variant To Data in WPI_DigitalInputRefNum Registry Get.vi->Periodic Tasks.vi->Robot Main.vi,0.000000,0.000000,0.000000,0.000000,Speed,Speed,-0.090000,0.840000,-1.160000,0.000000,56751.000000,1,0,-0.000000,0.000000,1,-0.000732,0.013962,0.000000,-19.050644,41.077805,0.000000,-0.047000,0.003000,0.072000,FlatInitial,ResetBack,0
07:07:01.822 PM 02/16/2016,Teleop Disabled,0,TRUE,-44007,<LOCATION>WPI_DigitalInputRefNum Registry Get.vi<CALLSTACK>WPI_DigitalInputRefNum Registry Get.vi< <Periodic Tasks.vi< <Robot Main.vi,0.000000,-7.177734,0.000000,0.000000,Speed,Speed,-0.330000,0.760000,0.900000,0.000000,71530.000000,1,0,-0.000000,0.000000,1,0.000000,0.000000,0.000000,-19.127838,40.956024,0.000000,-0.009000,0.004000,0.006000,FlatInitial,ResetBack,0
07:07:01.922 PM 02/16/2016,Teleop Disabled,0,FALSE,0,NO ERROR,0.000000,-1.757812,0.000000,0.000000,Speed,Speed,0.000000,0.740000,0.920000,0.000000,115.000000,1,0,-0.000000,0.000000,1,0.000000,0.000000,0.000000,-19.127838,40.956024,0.000000,0.010000,0.002000,0.003000,FlatInitial,ResetBack,0
07:07:02.022 PM 02/16/2016,Teleop Disabled,0,FALSE,0,NO ERROR,0.000000,0.000000,0.000000,0.000000,Speed,Speed,0.020000,0.710000,0.970000,0.000000,104.000000,1,0,-0.000000,0.000000,1,0.000000,-0.002243,0.000000,-19.127838,40.956009,0.000000,-0.007000,-0.006000,0.015000,FlatInitial,ResetBack,0
07:07:02.122 PM 02/16/2016,Teleop Disabled,0,FALSE,0,NO ERROR,0.000000,0.000000,0.000000,0.000000,Speed,Speed,0.010000,0.790000,0.910000,0.000000,103.000000,1,0,-0.000000,0.000000,1,0.010117,0.009079,0.000000,-19.127625,40.956085,0.000000,-0.006000,-0.010000,0.004000,FlatInitial,ResetBack,0
07:07:02.222 PM 02/16/2016,Teleop Disabled,0,FALSE,0,NO ERROR,0.000000,0.000000,0.000000,0.000000,Speed,Speed,0.060000,0.710000,0.920000,0.000000,101.000000,1,0,-0.000000,0.000000,1,0.000000,0.000000,0.000000,-19.127625,40.956085,0.000000,-0.011000,-0.004000,0.011000,FlatInitial,ResetBack,0
07:07:02.322 PM 02/16/2016,Teleop Disabled,0,FALSE,0,NO ERROR,0.000000,0.000000,0.000000,0.000000,Speed,Speed,0.040000,0.790000,0.870000,0.000000,103.000000,1,0,-0.000000,0.000000,1,0.000000,0.000000,0.000000,-19.127441,40.956085,0.000000,-0.017000,-0.006000,-0.002000,FlatInitial,ResetBack,0
07:07:02.422 PM 02/16/2016,Teleop Disabled,0,FALSE,0,NO ERROR,0.000000,0.000000,0.000000,0.000000,Speed,Speed,0.050000,0.740000,0.880000,0.000000,107.000000,1,0,-0.000000,0.000000,1,0.000000,0.000000,0.000000,-19.127441,40.956085,0.000000,0.004000,-0.002000,0.000000,FlatInitial,ResetBack,0
07:07:02.522 PM 02/16/2016,Teleop Disabled,0,FALSE,0,NO ERROR,0.000000,0.000000,0.000000,0.000000,Speed,Speed,0.050000,0.760000,0.840000,0.000000,101.000000,1,0,-0.000000,0.000000,1,0.000000,0.000000,0.000000,-19.127441,40.956085,0.000000,0.005000,0.007000,-0.001000,FlatInitial,ResetBack,0
07:07:02.622 PM 02/16/2016,Teleop Disabled,0,FALSE,0,NO ERROR,0.000000,0.000000,0.000000,0.000000,Speed,Speed,0.060000,0.760000,0.910000,0.000000,102.000000,1,0,-0.000000,0.000000,1,0.000000,0.000000,0.000000,-19.127441,40.956085,0.000000,-0.010000,-0.003000,0.011000,FlatInitial,ResetBack,0
07:07:02.722 PM 02/16/2016,Teleop Disabled,0,FALSE,0,NO ERROR,0.000000,0.000000,0.000000,0.000000,Speed,Speed,0.060000,0.770000,0.840000,0.000000,102.000000,1,0,-0.000000,0.000000,1,0.000000,0.000000,0.000000,-19.127441,40.956085,0.000000,0.007000,0.005000,0.000000,FlatInitial,ResetBack,0
07:07:02.822 PM 02/16/2016,Teleop Disabled,0,FALSE,0,NO ERROR,0.000000,0.000000,0.000000,0.000000,Speed,Speed,0.050000,0.750000,0.890000,0.000000,101.000000,1,0,-0.000000,0.000000,1,0.000000,0.000000,0.000000,-19.127441,40.956085,0.000000,-0.002000,-0.004000,0.007000,FlatInitial,ResetBack,0
07:07:02.922 PM 02/16/2016,Teleop Disabled,0,FALSE,0,NO ERROR,0.000000,0.000000,0.000000,0.000000,Speed,Speed,0.050000,0.770000,0.850000,0.000000,101.000000,1,0,-0.000000,0.000000,1,0.000000,0.000000,0.000000,-19.127441,40.956085,0.000000,-0.002000,0.004000,-0.002000,FlatInitial,ResetBack,0
07:07:03.022 PM 02/16/2016,Teleop Disabled,0,FALSE,0,NO ERROR,0.000000,0.000000,0.000000,0.000000,Speed,Speed,0.050000,0.760000,0.880000,0.000000,102.000000,1,0,-0.000000,0.000000,1,0.000000,0.000000,0.000000,-19.127441,40.956085,0.000000,-0.003000,-0.003000,0.004000,FlatInitial,ResetBack,0
07:07:03.122 PM 02/16/2016,Teleop Disabled,0,FALSE,0,NO ERROR,0.000000,0.000000,0.000000,0.000000,Speed,Speed,0.050000,0.760000,0.850000,0.000000,101.000000,1,0,-0.000000,0.000000,1,0.000000,0.000000,0.000000,-19.127441,40.956085,0.000000,0.001000,0.003000,0.002000,FlatInitial,ResetBack,0
07:07:03.222 PM 02/16/2016,Teleop Disabled,0,FALSE,0,NO ERROR,0.000000,0.000000,0.000000,0.000000,Speed,Speed,0.040000,0.750000,0.870000,0.000000,101.000000,1,0,-0.000000,0.000000,1,0.000000,0.000000,0.000000,-19.127441,40.956085,0.000000,-0.004000,-0.003000,0.004000,FlatInitial,ResetBack,0
07:07:03.322 PM 02/16/2016,Teleop Disabled,0,FALSE,0,NO ERROR,0.000000,0.000000,0.000000,0.000000,Speed,Speed,0.050000,0.760000,0.850000,0.000000,101.000000,1,0,-0.000000,0.000000,1,0.000000,0.000000,0.000000,-19.127441,40.956085,0.000000,0.003000,0.002000,0.003000,FlatInitial,ResetBack,0
07:07:03.422 PM 02/16/2016,Teleop Disabled,0,FALSE,0,NO ERROR,0.000000,0.000000,0.000000,0.000000,Speed,Speed,0.050000,0.760000,0.860000,0.000000,101.000000,1,0,-0.000000,0.000000,1,0.000000,0.000000,0.000000,-19.127441,40.956085,0.000000,0.003000,-0.007000,0.006000,FlatInitial,ResetBack,0
07:07:03.522 PM 02/16/2016,Teleop Disabled,0,FALSE,0,NO ERROR,0.000000,0.000000,0.000000,0.000000,Speed,Speed,0.050000,0.760000,0.840000,0.000000,106.000000,1,0,-0.000000,0.000000,1,0.000000,0.000000,0.000000,-19.127441,40.956085,0.000000,0.001000,0.001000,0.001000,FlatInitial,ResetBack,0
07:07:03.623 PM 02/16/2016,Teleop Disabled,0,FALSE,0,NO ERROR,0.000000,0.000000,0.000000,0.000000,Speed,Speed,0.050000,0.770000,0.850000,0.000000,102.000000,1,0,-0.000000,0.000000,1,0.000000,0.000000,0.000000,-19.127441,40.956085,0.000000,0.002000,0.001000,0.003000,FlatInitial,ResetBack,0
07:07:03.723 PM 02/16/2016,Teleop Disabled,0,FALSE,0,NO ERROR,0.000000,0.000000,0.000000,0.000000,Speed,Speed,0.040000,0.760000,0.840000,0.000000,101.000000,1,0,-0.000000,0.000000,1,0.000000,0.000000,0.000000,-19.127441,40.956085,0.000000,0.002000,0.000000,0.001000,FlatInitial,ResetBack,0
07:07:03.823 PM 02/16/2016,Teleop Disabled,0,FALSE,0,NO ERROR,0.000000,0.000000,0.000000,0.000000,Speed,Speed,0.040000,0.760000,0.850000,0.000000,101.000000,1,0,-0.000000,0.000000,1,0.000000,0.000000,0.000000,-19.127441,40.956085,0.000000,-0.004000,-0.001000,0.002000,FlatInitial,ResetBack,0
07:07:03.924 PM 02/16/2016,Teleop Disabled,0,FALSE,0,NO ERROR,0.000000,0.000000,0.000000,0.000000,Speed,Speed,0.050000,0.760000,0.840000,0.000000,102.000000,1,0,-0.000000,0.000000,1,0.000000,0.000000,0.000000,-19.127441,40.956085,0.000000,-0.001000,0.000000,0.003000,FlatInitial,ResetBack,0
07:07:04.024 PM 02/16/2016,Teleop Disabled,0,FALSE,0,NO ERROR,0.000000,0.000000,0.000000,0.000000,Speed,Speed,0.050000,0.760000,0.850000,0.000000,101.000000,1,0,-0.000000,0.000000,1,0.000000,0.000000,0.000000,-19.127441,40.956085,0.000000,0.000000,-0.002000,0.002000,FlatInitial,ResetBack,0
07:07:04.124 PM 02/16/2016,Teleop Disabled,0,FALSE,0,NO ERROR,0.000000,0.000000,0.000000,0.000000,Speed,Speed,0.030000,0.760000,0.840000,0.000000,101.000000,1,0,-0.000000,0.000000,1,0.000000,0.000000,0.000000,-19.127441,40.956085,0.000000,0.000000,0.004000,0.003000,FlatInitial,ResetBack,0
07:07:04.224 PM 02/16/2016,Teleop Disabled,0,FALSE,0,NO ERROR,0.000000,0.000000,0.000000,0.000000,Speed,Speed,0.030000,0.760000,0.860000,0.000000,101.000000,1,0,-0.000000,0.000000,1,0.000000,0.000000,0.000000,-19.127441,40.956085,0.000000,0.000000,-0.001000,0.001000,FlatInitial,ResetBack,0
07:07:04.324 PM 02/16/2016,Teleop Disabled,0,FALSE,0,NO ERROR,0.000000,0.000000,0.000000,0.000000,Speed,Speed,0.040000,0.750000,0.850000,0.000000,102.000000,1,0,-0.000000,0.000000,1,0.000000,0.000000,0.000000,-19.127441,40.956085,0.000000,0.000000,0.000000,0.003000,FlatInitial,ResetBack,0
07:07:04.425 PM 02/16/2016,Teleop Disabled,0,FALSE,0,NO ERROR,0.000000,0.000000,0.000000,0.000000,Speed,Speed,0.040000,0.760000,0.860000,0.000000,100.000000,1,0,-0.000000,0.000000,1,0.000000,0.000000,0.000000,-19.127441,40.956085,0.000000,-0.001000,-0.002000,0.009000,FlatInitial,ResetBack,0
07:07:04.525 PM 02/16/2016,Teleop Disabled,0,FALSE,0,NO ERROR,0.000000,0.000000,0.000000,0.000000,Speed,Speed,0.030000,0.760000,0.830000,0.000000,101.000000,1,0,-0.000000,0.000000,1,0.000000,0.000000,0.000000,-19.127441,40.956085,0.000000,0.001000,-0.001000,0.000000,FlatInitial,ResetBack,0
07:07:04.625 PM 02/16/2016,Teleop Disabled,0,FALSE,0,NO ERROR,0.000000,0.000000,0.000000,0.000000,Speed,Speed,0.040000,0.760000,0.840000,0.000000,101.000000,1,0,-0.000000,0.000000,1,0.000000,0.000000,0.000000,-19.127441,40.956085,0.000000,0.000000,0.000000,0.004000,FlatInitial,ResetBack,0
07:07:04.725 PM 02/16/2016,Teleop Disabled,0,FALSE,0,NO ERROR,0.000000,0.000000,0.000000,0.000000,Speed,Speed,0.040000,0.770000,0.850000,0.000000,102.000000,1,0,-0.000000,0.000000,1,0.000000,0.000000,0.000000,-19.127441,40.956085,0.000000,0.000000,0.002000,0.003000,FlatInitial,ResetBack,0
07:07:04.825 PM 02/16/2016,Teleop Disabled,0,FALSE,0,NO ERROR,0.000000,0.000000,0.000000,0.000000,Speed,Speed,0.040000,0.770000,0.850000,0.000000,104.000000,1,0,-0.000000,0.000000,1,0.000000,0.000000,0.000000,-19.127441,40.956085,0.000000,-0.002000,-0.002000,0.003000,FlatInitial,ResetBack,0
07:07:04.925 PM 02/16/2016,Teleop Disabled,0,FALSE,0,NO ERROR,0.000000,0.000000,0.000000,0.000000,Speed,Speed,0.040000,0.760000,0.840000,1.000000,101.000000,1,0,-0.000000,0.000000,1,0.000000,0.000000,0.000000,-19.127441,40.956085,0.000000,0.001000,0.001000,0.005000,FlatInitial,ResetBack,0
07:07:05.025 PM 02/16/2016,Teleop Disabled,0,FALSE,0,NO ERROR,0.000000,0.000000,-6000.000000,-6000.000000,Speed,Speed,0.040000,0.770000,0.850000,1.000000,101.000000,1,0,-0.000000,0.000000,1,0.000000,0.000000,0.000000,-19.127441,40.956085,0.000000,0.000000,0.000000,0.001000,FlatInitial,ResetBack,0
07:07:05.126 PM 02/16/2016,Teleop Disabled,0,FALSE,0,NO ERROR,0.000000,0.000000,-6000.000000,-6000.000000,Speed,Speed,0.040000,0.760000,0.840000,1.000000,100.000000,1,0,-0.000000,0.000000,1,0.000000,0.000000,0.000000,-19.127441,40.956085,0.000000,0.000000,0.001000,0.001000,FlatInitial,ResetBack,0
07:07:05.226 PM 02/16/2016,Teleop Disabled,0,FALSE,0,NO ERROR,0.000000,0.000000,-6000.000000,-6000.000000,Speed,Speed,0.040000,0.760000,0.840000,1.000000,102.000000,1,0,-0.000000,0.000000,1,0.000000,0.000000,0.000000,-19.127441,40.956085,0.000000,0.000000,0.001000,0.003000,FlatInitial,ResetBack,0
07:07:05.327 PM 02/16/2016,Teleop Disabled,0,FALSE,0,NO ERROR,0.000000,0.000000,-6000.000000,-6000.000000,Speed,Speed,0.040000,0.750000,0.850000,1.000000,101.000000,1,0,-0.000000,0.000000,1,0.000000,0.000000,0.000000,-19.127441,40.956085,0.000000,0.000000,0.003000,0.004000,FlatInitial,ResetBack,0
07:07:05.427 PM 02/16/2016,Teleop Disabled,0,FALSE,0,NO ERROR,0.000000,0.000000,-6000.000000,-6000.000000,Speed,Speed,0.040000,0.760000,0.850000,1.000000,103.000000,1,0,-0.000000,0.000000,1,0.000000,0.000000,0.000000,-19.127441,40.956085,0.000000,0.001000,0.000000,0.005000,FlatInitial,ResetBack,0
07:07:05.528 PM 02/16/2016,Teleop Disabled,0,FALSE,0,NO ERROR,0.000000,0.000000,-6000.000000,-6000.000000,Speed,Speed,0.040000,0.760000,0.860000,1.000000,101.000000,1,0,-0.000000,0.000000,1,0.000000,0.000000,0.000000,-19.127441,40.956085,0.000000,0.001000,0.004000,0.005000,FlatInitial,ResetBack,0
07:07:05.627 PM 02/16/2016,Teleop Disabled,0,FALSE,0,NO ERROR,0.000000,0.000000,-6000.000000,-6000.000000,Speed,Speed,0.030000,0.760000,0.860000,1.000000,101.000000,1,0,-0.000000,0.000000,1,0.000000,0.000000,0.000000,-19.127441,40.956085,0.000000,0.000000,0.000000,0.004000,FlatInitial,ResetBack,0
07:07:05.727 PM 02/16/2016,Teleop Disabled,0,FALSE,0,NO ERROR,0.000000,0.000000,-6000.000000,-6000.000000,Speed,Speed,0.030000,0.760000,0.860000,1.000000,102.000000,1,0,-0.000000,0.000000,1,0.000000,0.000000,0.000000,-19.127441,40.956085,0.000000,-0.003000,0.001000,0.004000,FlatInitial,ResetBack,0
07:07:05.827 PM 02/16/2016,Teleop Enabled,0,FALSE,0,NO ERROR,0.000000,0.000000,-6000.000000,-6000.000000,Speed,Speed,0.030000,0.760000,0.860000,1.000000,102.000000,1,0,-0.000000,0.000000,1,0.000000,0.000000,0.000000,-19.127441,40.956085,0.000000,0.000000,0.000000,-0.001000,FlatInitial,ResetBack,0
07:07:05.927 PM 02/16/2016,Teleop Enabled,0,FALSE,0,NO ERROR,0.000000,0.000000,-6000.000000,-6000.000000,Speed,Speed,0.060000,0.770000,0.780000,1.000000,101.000000,1,0,-0.000000,0.000000,1,-0.006241,-0.004074,0.000000,-19.127640,40.955933,0.000000,0.006000,0.017000,-0.013000,FlatInitial,ResetBack,0
07:07:06.027 PM 02/16/2016,Teleop Enabled,0,FALSE,0,NO ERROR,0.000000,0.000000,-6000.000000,-6000.000000,Speed,Speed,0.080000,0.780000,0.860000,1.000000,103.000000,1,0,-0.000000,0.000000,1,0.000000,-0.012833,0.000000,-19.127640,40.955765,0.000000,-0.010000,-0.034000,0.011000,FlatInitial,ResetBack,0
07:07:06.127 PM 02/16/2016,Teleop Enabled,0,FALSE,0,NO ERROR,0.000000,0.000000,-6000.000000,-6000.000000,Speed,Speed,0.090000,0.770000,0.810000,1.000000,104.000000,1,0,-0.000000,0.000000,1,0.000000,0.003021,0.000000,-19.127640,40.955429,0.000000,0.002000,0.020000,0.014000,FlatInitial,ResetBack,0
07:07:06.227 PM 02/16/2016,Teleop Enabled,0,FALSE,0,NO ERROR,0.000000,0.000000,-6000.000000,-6000.000000,Speed,Speed,0.060000,0.790000,0.900000,1.000000,101.000000,1,0,-0.000000,0.000000,1,-0.004135,0.000000,0.000000,-19.127518,40.955597,0.000000,-0.030000,0.010000,0.008000,FlatInitial,ResetBack,0
07:07:06.327 PM 02/16/2016,Teleop Enabled,0,FALSE,0,NO ERROR,0.000000,0.000000,-6000.000000,-6000.000000,Speed,Speed,0.110000,0.770000,0.860000,1.000000,101.000000,1,0,-0.000000,0.000000,1,0.000748,0.000000,0.000000,-19.127792,40.955597,0.000000,-0.022000,-0.005000,0.000000,FlatInitial,ResetBack,0
07:07:06.427 PM 02/16/2016,Teleop Enabled,0,FALSE,0,NO ERROR,0.000000,0.000000,-6000.000000,-6000.000000,Speed,Speed,0.080000,0.760000,0.830000,1.000000,101.000000,1,0,-0.000000,0.000000,1,-0.003342,0.000000,0.000000,-19.127792,40.955597,0.000000,-0.005000,-0.001000,-0.011000,FlatInitial,ResetBack,0
07:07:06.527 PM 02/16/2016,Teleop Enabled,0,FALSE,0,NO ERROR,0.000000,0.000000,-6000.000000,-6000.000000,Speed,Speed,0.080000,0.760000,0.860000,1.000000,100.000000,1,0,-0.000000,0.000000,1,0.000000,0.000000,0.000000,-19.127838,40.955597,0.000000,-0.021000,0.013000,0.006000,FlatInitial,ResetBack,0
07:07:06.627 PM 02/16/2016,Teleop Enabled,0,FALSE,0,NO ERROR,0.000000,0.000000,-6000.000000,-6000.000000,Speed,Speed,0.080000,0.760000,0.870000,1.000000,101.000000,1,0,-0.000000,0.000000,1,0.000000,0.000000,0.000000,-19.128006,40.955750,0.000000,-0.009000,-0.002000,0.000000,FlatInitial,ResetBack,0
07:07:06.727 PM 02/16/2016,Teleop Enabled,0,FALSE,0,NO ERROR,0.000000,0.000000,-6000.000000,-6000.000000,Speed,Speed,0.090000,0.750000,0.870000,1.000000,102.000000,1,0,-0.000000,0.000000,1,0.000000,0.000000,0.000000,-19.128006,40.955750,0.000000,0.010000,0.007000,0.000000,FlatInitial,ResetBack,0
07:07:06.827 PM 02/16/2016,Teleop Enabled,0,FALSE,0,NO ERROR,0.000000,0.000000,-6000.000000,-6000.000000,Speed,Speed,0.080000,0.750000,0.900000,1.000000,101.000000,1,0,-0.000000,0.000000,1,0.000000,0.000000,0.000000,-19.128006,40.955750,0.000000,0.002000,-0.002000,0.007000,FlatInitial,ResetBack,0
07:07:06.927 PM 02/16/2016,Teleop Enabled,0,FALSE,0,NO ERROR,0.000000,0.000000,-6000.000000,-6000.000000,Speed,Speed,0.080000,0.750000,0.900000,1.000000,102.000000,1,0,-0.000000,0.000000,1,0.000000,0.000000,0.000000,-19.128006,40.955750,0.000000,-0.004000,0.000000,0.008000,FlatInitial,ResetBack,0
07:07:07.027 PM 02/16/2016,Teleop Enabled,0,FALSE,0,NO ERROR,0.000000,0.000000,-6000.000000,-6000.000000,Speed,Speed,0.080000,0.750000,0.900000,1.000000,101.000000,1,0,-0.000000,0.000000,1,0.000000,0.000000,0.000000,-19.128006,40.955750,0.000000,0.000000,-0.001000,-0.003000,FlatInitial,ResetBack,0
07:07:07.127 PM 02/16/2016,Teleop Enabled,0,FALSE,0,NO ERROR,0.000000,0.000000,-6000.000000,-6000.000000,Speed,Speed,0.080000,0.750000,0.900000,1.000000,101.000000,1,0,-0.000000,0.000000,1,0.000000,0.000000,0.000000,-19.128006,40.955750,0.000000,0.002000,0.001000,0.002000,FlatInitial,ResetBack,0
07:07:07.227 PM 02/16/2016,Teleop Enabled,0,FALSE,0,NO ERROR,0.000000,0.000000,-6000.000000,-6000.000000,Speed,Speed,0.080000,0.740000,0.920000,1.000000,101.000000,1,0,-0.000000,0.000000,1,0.000000,0.000000,0.000000,-19.128006,40.955750,0.000000,-0.008000,0.001000,0.006000,FlatInitial,ResetBack,0
07:07:07.327 PM 02/16/2016,Teleop Enabled,0,FALSE,0,NO ERROR,0.000000,0.000000,-6000.000000,-6000.000000,Speed,Speed,0.070000,0.730000,0.930000,1.000000,102.000000,1,0,-0.000000,0.000000,1,0.000000,0.000000,0.000000,-19.128006,40.955750,0.000000,-0.001000,0.001000,0.001000,FlatInitial,ResetBack,0
07:07:07.427 PM 02/16/2016,Teleop Enabled,0,FALSE,0,NO ERROR,0.000000,0.000000,-6000.000000,-6000.000000,Speed,Speed,0.080000,0.730000,0.940000,1.000000,103.000000,1,0,-0.000000,0.000000,1,0.000000,-0.002579,0.000000,-19.128006,40.955719,0.000000,0.002000,-0.022000,-0.007000,FlatInitial,ResetBack,0
07:07:07.528 PM 02/16/2016,Teleop Enabled,0,FALSE,0,NO ERROR,-13.916016,0.000000,-6000.000000,-6000.000000,Speed,Speed,0.070000,0.760000,0.870000,1.000000,102.000000,1,0,-0.000000,0.000000,1,0.000000,0.002899,0.000000,-19.128006,40.955627,0.000000,-0.015000,0.021000,0.049000,FlatInitial,ResetBack,0
07:07:07.628 PM 02/16/2016,Teleop Enabled,0,FALSE,0,NO ERROR,4.101562,-0.146484,-6000.000000,-6000.000000,Speed,Speed,0.130000,0.830000,0.710000,1.000000,102.000000,1,0,-0.000000,0.000000,1,0.000000,0.043991,0.000000,-19.128006,40.956924,0.000000,-0.005000,0.034000,-0.015000,FlatInitial,ResetBack,0
07:07:07.729 PM 02/16/2016,Teleop Enabled,0,FALSE,0,NO ERROR,-10.839844,0.000000,-6000.000000,-6000.000000,Speed,Speed,0.260000,0.910000,0.700000,1.000000,101.000000,1,0,-0.000000,0.000000,1,0.016983,0.036896,0.000000,-19.127609,40.959320,0.000000,0.023000,-0.045000,0.000000,FlatInitial,ResetBack,0
07:07:07.829 PM 02/16/2016,Teleop Enabled,0,FALSE,0,NO ERROR,-7.324219,0.000000,-6000.000000,-6000.000000,Speed,Speed,0.160000,0.880000,0.580000,1.000000,101.000000,1,0,-0.000000,0.000000,1,0.003586,-0.005066,0.000000,-19.126984,40.959656,0.000000,-0.031000,-0.006000,0.005000,FlatInitial,ResetBack,0
07:07:07.929 PM 02/16/2016,Teleop Enabled,0,FALSE,0,NO ERROR,4.687500,0.000000,-6000.000000,-6000.000000,Speed,Speed,0.260000,0.900000,0.510000,1.000000,100.000000,1,0,-0.000000,0.000000,1,0.006302,0.000000,0.000000,-19.126877,40.959656,0.000000,0.002000,-0.005000,0.013000,FlatInitial,ResetBack,0
07:07:08.029 PM 02/16/2016,Teleop Enabled,0,FALSE,0,NO ERROR,10.986328,0.000000,-6000.000000,-6000.000000,Speed,Speed,0.280000,0.900000,0.470000,1.000000,102.000000,1,0,-0.000000,0.000000,1,0.000000,0.000000,0.000000,-19.126816,40.959656,0.000000,0.017000,0.003000,0.012000,FlatInitial,ResetBack,0
07:07:08.129 PM 02/16/2016,Teleop Enabled,0,FALSE,0,NO ERROR,-7.324219,0.000000,-6000.000000,-6000.000000,Speed,Speed,0.260000,0.880000,0.530000,1.000000,101.000000,1,0,-0.000000,0.000000,1,0.000000,0.000000,0.000000,-19.126816,40.959656,0.000000,-0.007000,0.019000,-0.007000,FlatInitial,ResetBack,0
07:07:08.229 PM 02/16/2016,Teleop Enabled,0,FALSE,0,NO ERROR,-9.814453,0.000000,-6000.000000,-6000.000000,Speed,Speed,0.320000,0.890000,0.510000,1.000000,102.000000,1,0,-0.000000,0.000000,1,0.000000,0.000000,0.000000,-19.126816,40.959656,0.000000,0.000000,0.000000,0.011000,FlatInitial,ResetBack,0
07:07:08.329 PM 02/16/2016,Teleop Enabled,0,FALSE,0,NO ERROR,-2.197266,0.000000,-6000.000000,-6000.000000,Speed,Speed,0.290000,0.900000,0.540000,1.000000,101.000000,1,0,-0.000000,0.000000,1,0.000000,0.000000,0.000000,-19.126816,40.959656,0.000000,-0.005000,0.016000,0.012000,FlatInitial,ResetBack,1
07:07:08.429 PM 02/16/2016,Teleop Enabled,0,FALSE,0,NO ERROR,-1.611328,0.000000,-6000.000000,-6000.000000,Speed,Speed,0.370000,0.890000,0.560000,1.000000,101.000000,1,0,-0.000000,0.000000,1,0.004059,0.003006,0.000000,-19.126938,40.959686,0.000000,0.025000,0.020000,-0.002000,FlatInitial,ResetForward,1
07:07:08.529 PM 02/16/2016,Teleop Enabled,0,FALSE,0,NO ERROR,-2.050781,0.000000,-6000.000000,-6000.000000,Speed,Speed,0.320000,0.890000,0.610000,1.000000,102.000000,1,0,-0.000000,0.000000,1,0.000000,-0.013351,0.000000,-19.126724,40.959518,0.000000,-0.009000,-0.011000,0.032000,FlatInitial,ResetForward,1
07:07:08.630 PM 02/16/2016,Teleop Enabled,0,FALSE,0,NO ERROR,-13.623047,0.000000,-6000.000000,-6000.000000,Speed,Speed,0.330000,0.870000,0.550000,1.000000,102.000000,1,0,-0.000000,0.000000,1,-0.005661,0.004089,0.000000,-19.126892,40.959381,0.000000,0.017000,0.010000,0.016000,FlatInitial,ResetForward,0
07:07:08.730 PM 02/16/2016,Teleop Enabled,0,FALSE,0,NO ERROR,9.375000,0.000000,-6000.000000,-6000.000000,Speed,Speed,0.410000,0.870000,0.640000,1.000000,103.000000,1,0,-0.000000,0.000000,1,0.002884,0.004227,0.000000,-19.126862,40.959595,0.000000,0.029000,-0.038000,0.002000,FlatInitial,Reset,0
07:07:08.830 PM 02/16/2016,Teleop Enabled,0,FALSE,0,NO ERROR,2.636719,0.000000,-6000.000000,-6000.000000,Speed,Speed,0.320000,0.900000,0.490000,1.000000,102.000000,1,0,-0.000000,0.000000,1,-0.010147,-0.000671,0.000000,-19.126801,40.959534,0.000000,-0.011000,0.016000,-0.038000,FlatInitial,Hold,0
07:07:08.930 PM 02/16/2016,Teleop Enabled,0,FALSE,0,NO ERROR,9.521484,0.000000,-6000.000000,-6000.000000,Speed,Speed,0.390000,0.880000,0.550000,1.000000,103.000000,1,0,-0.000000,0.000000,1,0.000000,-0.010071,0.000000,-19.126923,40.959518,0.000000,0.009000,-0.032000,0.015000,FlatInitial,Hold,0
07:07:09.030 PM 02/16/2016,Teleop Enabled,0,FALSE,0,NO ERROR,-0.585938,0.000000,-6000.000000,-6000.000000,Speed,Speed,0.270000,0.850000,0.630000,1.000000,100.000000,1,0,-0.000000,0.000000,1,0.000000,0.011520,0.000000,-19.126923,40.959305,0.000000,-0.011000,0.037000,0.009000,FlatInitial,Hold,0
07:07:09.130 PM 02/16/2016,Teleop Enabled,0,FALSE,0,NO ERROR,-0.732422,0.000000,-6000.000000,-6000.000000,Speed,Speed,0.350000,0.860000,0.630000,1.000000,102.000000,1,0,-0.000000,0.000000,1,0.000000,0.000000,0.000000,-19.126923,40.960052,0.000000,0.013000,0.015000,-0.008000,FlatInitial,Hold,0
07:07:09.230 PM 02/16/2016,Teleop Enabled,0,FALSE,0,NO ERROR,-0.292969,0.000000,-6000.000000,-6000.000000,Speed,Speed,0.320000,0.830000,0.620000,1.000000,101.000000,1,0,-0.000000,0.000000,1,-0.011322,0.000000,0.000000,-19.127182,40.960052,0.000000,0.003000,-0.017000,-0.007000,FlatInitial,Hold,0
07:07:09.330 PM 02/16/2016,Teleop Enabled,0,FALSE,0,NO ERROR,-1.171875,0.000000,-6000.000000,-6000.000000,Speed,Speed,0.330000,0.890000,0.580000,1.000000,101.000000,1,0,-0.000000,0.000000,1,0.000000,0.000000,0.000000,-19.127258,40.959854,0.000000,-0.015000,-0.007000,0.000000,FlatInitial,Hold,0
07:07:09.430 PM 02/16/2016,Teleop Enabled,0,FALSE,0,NO ERROR,2.050781,0.000000,-6000.000000,-6000.000000,Speed,Speed,0.300000,0.810000,0.740000,1.000000,101.000000,1,0,-0.000000,0.000000,1,0.000000,0.000000,0.000000,-19.127258,40.959854,0.000000,-0.007000,0.006000,0.008000,FlatInitial,Hold,0
07:07:09.530 PM 02/16/2016,Teleop Enabled,0,FALSE,0,NO ERROR,7.031250,0.000000,-6000.000000,-6000.000000,Speed,Speed,0.360000,0.740000,0.920000,1.000000,101.000000,1,0,-0.000000,0.000000,1,0.000000,0.000000,0.000000,-19.127258,40.959854,0.000000,0.001000,-0.004000,0.008000,FlatInitial,Hold,0
07:07:09.630 PM 02/16/2016,Teleop Enabled,0,FALSE,0,NO ERROR,-4.980469,0.000000,-6000.000000,-6000.000000,Speed,Speed,0.380000,0.740000,0.930000,1.000000,101.000000,1,0,-0.000000,0.000000,1,0.000000,0.000000,0.000000,-19.127258,40.959854,0.000000,0.001000,-0.004000,0.008000,FlatInitial,Hold,0
07:07:09.730 PM 02/16/2016,Teleop Enabled,0,FALSE,0,NO ERROR,0.000000,0.000000,-6000.000000,-6000.000000,Speed,Speed,0.320000,0.760000,0.940000,1.000000,103.000000,1,0,-0.000000,0.000000,1,0.000000,0.000000,0.000000,-19.127258,40.959854,0.000000,0.001000,0.006000,0.012000,FlatInitial,Hold,0
07:07:09.831 PM 02/16/2016,Teleop Enabled,0,FALSE,0,NO ERROR,0.000000,0.000000,-6000.000000,-6000.000000,Speed,Speed,0.320000,0.730000,0.940000,1.000000,103.000000,1,0,-0.000000,0.000000,1,0.000000,0.000000,0.000000,-19.127258,40.959854,0.000000,-0.002000,0.001000,0.005000,FlatInitial,Hold,0
07:07:09.931 PM 02/16/2016,Teleop Enabled,0,FALSE,0,NO ERROR,0.000000,0.000000,-6000.000000,-6000.000000,Speed,Speed,0.350000,0.760000,0.940000,1.000000,101.000000,1,0,-0.000000,0.000000,1,0.000000,0.000000,0.000000,-19.127258,40.959854,0.000000,0.004000,0.001000,0.005000,FlatInitial,Hold,0
07:07:10.031 PM 02/16/2016,Teleop Enabled,0,FALSE,0,NO ERROR,0.000000,0.000000,-6000.000000,-6000.000000,Speed,Speed,0.330000,0.730000,0.950000,1.000000,102.000000,1,0,-0.000000,0.000000,1,0.000000,0.000000,0.000000,-19.127258,40.959854,0.000000,0.004000,0.001000,0.005000,FlatInitial,Hold,0
07:07:10.131 PM 02/16/2016,Teleop Enabled,0,FALSE,0,NO ERROR,0.000000,0.000000,-6000.000000,-6000.000000,Speed,Speed,0.330000,0.750000,0.930000,1.000000,103.000000,1,0,-0.000000,0.000000,1,0.000000,0.000000,0.000000,-19.127258,40.959854,0.000000,-0.004000,-0.001000,0.006000,FlatInitial,Hold,0
07:07:10.231 PM 02/16/2016,Teleop Enabled,0,FALSE,0,NO ERROR,0.000000,0.000000,-6000.000000,-6000.000000,Speed,Speed,0.330000,0.740000,0.940000,1.000000,100.000000,1,0,-0.000000,0.000000,1,0.000000,0.000000,0.000000,-19.127258,40.959854,0.000000,-0.006000,-0.003000,0.000000,FlatInitial,Hold,0
07:07:10.331 PM 02/16/2016,Teleop Enabled,0,FALSE,0,NO ERROR,0.000000,0.000000,-6000.000000,-6000.000000,Speed,Speed,0.340000,0.750000,0.950000,1.000000,100.000000,1,0,-0.000000,0.000000,1,0.000000,0.000000,0.000000,-19.127258,40.959854,0.000000,0.000000,0.003000,0.006000,FlatInitial,Hold,0
07:07:10.431 PM 02/16/2016,Teleop Enabled,0,FALSE,0,NO ERROR,0.000000,0.000000,-6000.000000,-6000.000000,Speed,Speed,0.340000,0.750000,0.950000,1.000000,102.000000,1,0,-0.000000,0.000000,1,0.000000,0.000000,0.000000,-19.127258,40.959854,0.000000,0.000000,0.004000,0.003000,FlatInitial,Hold,0
07:07:10.532 PM 02/16/2016,Teleop Enabled,0,FALSE,0,NO ERROR,0.000000,0.000000,-6000.000000,-6000.000000,Speed,Speed,0.330000,0.740000,0.960000,1.000000,101.000000,1,0,-0.000000,0.000000,1,0.000000,0.000000,0.000000,-19.127258,40.959854,0.000000,0.000000,-0.001000,0.002000,FlatInitial,Hold,0
07:07:10.632 PM 02/16/2016,Teleop Enabled,0,FALSE,0,NO ERROR,0.000000,0.000000,-6000.000000,-6000.000000,Speed,Speed,0.330000,0.740000,0.960000,1.000000,101.000000,1,0,-0.000000,0.000000,1,0.000000,0.000000,0.000000,-19.127258,40.959854,0.000000,0.000000,0.000000,0.000000,FlatInitial,Hold,0
07:07:10.732 PM 02/16/2016,Teleop Enabled,0,FALSE,0,NO ERROR,0.000000,0.000000,-6000.000000,-6000.000000,Speed,Speed,0.320000,0.730000,0.970000,1.000000,101.000000,1,0,-0.000000,0.000000,1,0.000000,0.000000,0.000000,-19.127258,40.959854,0.000000,-0.001000,-0.001000,0.008000,FlatInitial,Hold,0
07:07:10.833 PM 02/16/2016,Teleop Enabled,0,FALSE,0,NO ERROR,0.000000,0.000000,-6000.000000,-6000.000000,Speed,Speed,0.330000,0.750000,0.960000,1.000000,101.000000,1,0,-0.000000,0.000000,1,0.000000,0.000000,0.000000,-19.127258,40.959854,0.000000,0.000000,0.001000,0.004000,FlatInitial,Hold,0
07:07:10.933 PM 02/16/2016,Teleop Enabled,0,FALSE,0,NO ERROR,0.000000,0.000000,-6000.000000,-6000.000000,Speed,Speed,0.320000,0.740000,0.970000,1.000000,102.000000,1,0,-0.000000,0.000000,1,0.000000,0.000000,0.000000,-19.127258,40.959854,0.000000,0.001000,0.000000,0.002000,FlatInitial,Hold,0
07:07:11.034 PM 02/16/2016,Teleop Enabled,0,FALSE,0,NO ERROR,0.000000,0.000000,-6000.000000,-6000.000000,Speed,Speed,0.320000,0.740000,0.970000,1.000000,100.000000,1,0,-0.000000,0.000000,1,0.000000,0.000000,0.000000,-19.127258,40.959854,0.000000,-0.001000,-0.001000,0.009000,FlatInitial,Hold,0
07:07:11.135 PM 02/16/2016,Teleop Enabled,0,FALSE,0,NO ERROR,0.000000,0.000000,-6000.000000,-6000.000000,Speed,Speed,0.320000,0.740000,0.980000,1.000000,101.000000,1,0,-0.000000,0.000000,1,0.000000,0.000000,0.000000,-19.127258,40.959854,0.000000,0.000000,0.001000,0.006000,FlatInitial,Hold,0
07:07:11.235 PM 02/16/2016,Teleop Enabled,0,FALSE,0,NO ERROR,0.000000,0.000000,-6000.000000,-6000.000000,Speed,Speed,0.320000,0.740000,0.980000,1.000000,102.000000,1,0,-0.000000,0.000000,1,0.000000,0.000000,0.000000,-19.127258,40.959854,0.000000,0.000000,0.000000,0.006000,FlatInitial,Hold,0
07:07:11.335 PM 02/16/2016,Teleop Enabled,0,FALSE,0,NO ERROR,0.000000,0.000000,-6000.000000,-6000.000000,Speed,Speed,0.320000,0.740000,0.980000,1.000000,101.000000,1,0,-0.000000,0.000000,1,0.000000,0.000000,0.000000,-19.127258,40.959854,0.000000,0.000000,0.002000,0.004000,FlatInitial,Hold,0
07:07:11.436 PM 02/16/2016,Teleop Enabled,0,FALSE,0,NO ERROR,0.000000,0.000000,-6000.000000,-6000.000000,Speed,Speed,0.320000,0.740000,0.970000,1.000000,102.000000,1,0,-0.000000,0.000000,1,0.000000,0.000000,0.000000,-19.127258,40.959854,0.000000,0.001000,0.001000,0.007000,FlatInitial,Hold,0
07:07:11.536 PM 02/16/2016,Teleop Enabled,0,FALSE,0,NO ERROR,0.000000,0.000000,-6000.000000,-6000.000000,Speed,Speed,0.320000,0.740000,0.970000,1.000000,103.000000,1,0,-0.000000,0.000000,1,0.000000,0.000000,0.000000,-19.127258,40.959854,0.000000,0.002000,-0.001000,0.008000,FlatInitial,Hold,0
07:07:11.636 PM 02/16/2016,Teleop Enabled,0,FALSE,0,NO ERROR,0.000000,0.000000,-6000.000000,-6000.000000,Speed,Speed,0.320000,0.740000,0.970000,1.000000,100.000000,1,0,-0.000000,0.000000,1,0.000000,0.000000,0.000000,-19.127258,40.959854,0.000000,0.001000,0.000000,0.004000,FlatInitial,Hold,0
07:07:11.736 PM 02/16/2016,Teleop Enabled,0,FALSE,0,NO ERROR,0.000000,0.000000,-6000.000000,-6000.000000,Speed,Speed,0.320000,0.740000,0.980000,1.000000,100.000000,1,0,-0.000000,0.000000,1,0.000000,0.000000,0.000000,-19.127258,40.959854,0.000000,0.002000,0.001000,0.004000,FlatInitial,Hold,0
07:07:11.837 PM 02/16/2016,Teleop Enabled,0,FALSE,0,NO ERROR,0.000000,0.000000,-6000.000000,-6000.000000,Speed,Speed,0.320000,0.740000,0.970000,1.000000,103.000000,1,0,-0.000000,0.000000,1,0.000000,0.000000,0.000000,-19.127258,40.959854,0.000000,0.001000,0.000000,0.004000,FlatInitial,Hold,0
07:07:11.937 PM 02/16/2016,Teleop Enabled,0,FALSE,0,NO ERROR,0.000000,0.000000,-6000.000000,-6000.000000,Speed,Speed,0.320000,0.740000,0.970000,1.000000,101.000000,1,0,-0.000000,0.000000,1,0.000000,0.000000,0.000000,-19.127258,40.959854,0.000000,0.002000,0.000000,0.004000,FlatInitial,Hold,0
07:07:12.038 PM 02/16/2016,Teleop Enabled,0,FALSE,0,NO ERROR,0.000000,0.000000,-6000.000000,-6000.000000,Speed,Speed,0.320000,0.740000,0.970000,1.000000,101.000000,1,0,-0.000000,0.000000,1,0.000000,0.000000,0.000000,-19.127258,40.959854,0.000000,-0.002000,0.000000,0.005000,FlatInitial,Hold,0
07:07:12.139 PM 02/16/2016,Teleop Enabled,0,FALSE,0,NO ERROR,0.000000,0.000000,-6000.000000,-6000.000000,Speed,Speed,0.320000,0.740000,0.970000,1.000000,100.000000,1,0,-0.000000,0.000000,1,0.000000,0.000000,0.000000,-19.127258,40.959854,0.000000,0.000000,0.000000,0.002000,FlatInitial,Hold,0
07:07:12.239 PM 02/16/2016,Teleop Enabled,0,FALSE,0,NO ERROR,0.000000,0.000000,-6000.000000,-6000.000000,Speed,Speed,0.320000,0.740000,0.970000,1.000000,100.000000,1,0,-0.000000,0.000000,1,0.000000,0.000000,0.000000,-19.127258,40.959854,0.000000,0.000000,0.000000,0.002000,FlatInitial,Hold,0
07:07:12.339 PM 02/16/2016,Teleop Enabled,0,FALSE,0,NO ERROR,0.000000,0.000000,-6000.000000,-6000.000000,Speed,Speed,0.320000,0.740000,0.970000,1.000000,101.000000,1,0,-0.000000,0.000000,1,0.000000,0.000000,0.000000,-19.127258,40.959854,0.000000,0.000000,0.001000,0.003000,FlatInitial,Hold,0
07:07:12.439 PM 02/16/2016,Teleop Enabled,0,FALSE,0,NO ERROR,0.000000,0.000000,-6000.000000,-6000.000000,Speed,Speed,0.320000,0.740000,0.970000,1.000000,100.000000,1,0,-0.000000,0.000000,1,0.000000,0.000000,0.000000,-19.127258,40.959854,0.000000,0.000000,0.001000,0.004000,FlatInitial,Hold,0
07:07:12.539 PM 02/16/2016,Teleop Enabled,0,FALSE,0,NO ERROR,0.000000,0.000000,-6000.000000,-6000.000000,Speed,Speed,0.320000,0.740000,0.980000,1.000000,101.000000,1,0,-0.000000,0.000000,1,0.000000,0.000000,0.000000,-19.127258,40.959854,0.000000,-0.001000,0.000000,0.008000,FlatInitial,Hold,0
07:07:12.640 PM 02/16/2016,Teleop Enabled,0,FALSE,0,NO ERROR,0.000000,0.000000,-6000.000000,-6000.000000,Speed,Speed,0.320000,0.740000,0.970000,1.000000,101.000000,1,0,-0.000000,0.000000,1,0.000000,0.000000,0.000000,-19.127258,40.959854,0.000000,-0.002000,0.000000,0.002000,FlatInitial,Hold,0
07:07:12.740 PM 02/16/2016,Teleop Enabled,0,FALSE,0,NO ERROR,0.000000,0.000000,-6000.000000,-6000.000000,Speed,Speed,0.320000,0.730000,0.970000,1.000000,101.000000,1,0,-0.000000,0.000000,1,0.000000,0.000000,0.000000,-19.127258,40.959854,0.000000,0.000000,0.000000,0.001000,FlatInitial,Hold,0
07:07:12.840 PM 02/16/2016,Teleop Enabled,0,FALSE,0,NO ERROR,0.000000,0.000000,-6000.000000,-6000.000000,Speed,Speed,0.320000,0.740000,0.970000,1.000000,104.000000,1,0,-0.000000,0.000000,1,0.000000,0.000000,0.000000,-19.127258,40.959854,0.000000,0.000000,0.000000,0.003000,FlatInitial,Hold,0
07:07:12.940 PM 02/16/2016,Teleop Enabled,0,FALSE,0,NO ERROR,0.000000,0.000000,-6000.000000,-6000.000000,Speed,Speed,0.310000,0.730000,0.970000,1.000000,101.000000,1,0,-0.000000,0.000000,1,0.000000,0.000000,0.000000,-19.127258,40.959854,0.000000,0.000000,-0.001000,0.004000,FlatInitial,Hold,0
07:07:13.040 PM 02/16/2016,Teleop Enabled,0,FALSE,0,NO ERROR,0.000000,0.000000,-6000.000000,-6000.000000,Speed,Speed,0.310000,0.740000,0.970000,1.000000,101.000000,1,0,-0.000000,0.000000,1,0.000000,0.000000,0.000000,-19.127258,40.959854,0.000000,-0.002000,-0.003000,0.005000,FlatInitial,Hold,0
07:07:13.142 PM 02/16/2016,Teleop Enabled,0,FALSE,0,NO ERROR,0.000000,0.000000,-6000.000000,-6000.000000,Speed,Speed,0.310000,0.740000,0.970000,1.000000,102.000000,1,0,-0.000000,0.000000,1,0.000000,0.000000,0.000000,-19.127258,40.959854,0.000000,0.000000,0.000000,0.006000,FlatInitial,Hold,0
07:07:13.241 PM 02/16/2016,Teleop Enabled,0,FALSE,0,NO ERROR,0.000000,0.000000,-6000.000000,-6000.000000,Speed,Speed,0.310000,0.740000,0.980000,1.000000,105.000000,1,0,-0.000000,0.000000,1,0.000000,0.000000,0.000000,-19.127258,40.959854,0.000000,0.003000,0.000000,0.005000,FlatInitial,Hold,0
07:07:13.343 PM 02/16/2016,Teleop Enabled,0,FALSE,0,NO ERROR,0.000000,0.000000,-6000.000000,-6000.000000,Speed,Speed,0.320000,0.740000,0.970000,1.000000,102.000000,1,0,-0.000000,0.000000,1,0.000000,0.000000,0.000000,-19.127258,40.959854,0.000000,0.000000,0.000000,0.006000,FlatInitial,Hold,0
07:07:13.444 PM 02/16/2016,Teleop Enabled,0,FALSE,0,NO ERROR,0.000000,0.000000,-6000.000000,-6000.000000,Speed,Speed,0.310000,0.740000,0.970000,1.000000,101.000000,1,0,-0.000000,0.000000,1,0.000000,0.000000,0.000000,-19.127258,40.959854,0.000000,-0.003000,-0.003000,0.004000,FlatInitial,Hold,0
07:07:13.544 PM 02/16/2016,Teleop Enabled,0,FALSE,0,NO ERROR,0.000000,0.000000,-6000.000000,-6000.000000,Speed,Speed,0.310000,0.740000,0.970000,1.000000,101.000000,1,0,-0.000000,0.000000,1,0.000000,0.000000,0.000000,-19.127258,40.959854,0.000000,-0.002000,0.000000,0.004000,FlatInitial,Hold,0
07:07:13.645 PM 02/16/2016,Teleop Enabled,0,FALSE,0,NO ERROR,0.000000,0.000000,-6000.000000,-6000.000000,Speed,Speed,0.310000,0.750000,0.980000,1.000000,101.000000,1,0,-0.000000,0.000000,1,0.000000,0.000000,0.000000,-19.127258,40.959854,0.000000,0.000000,-0.002000,0.006000,FlatInitial,Hold,0
07:07:13.745 PM 02/16/2016,Teleop Enabled,0,FALSE,0,NO ERROR,0.000000,0.000000,-6000.000000,-6000.000000,Speed,Speed,0.310000,0.750000,0.980000,1.000000,101.000000,1,0,-0.000000,0.000000,1,0.000000,0.000000,0.000000,-19.127258,40.959854,0.000000,0.003000,-0.001000,0.003000,FlatInitial,Hold,0
07:07:13.845 PM 02/16/2016,Teleop Enabled,0,FALSE,0,NO ERROR,0.000000,0.000000,-6000.000000,-6000.000000,Speed,Speed,0.320000,0.750000,0.980000,1.000000,105.000000,1,0,-0.000000,0.000000,1,0.000000,0.000000,0.000000,-19.127258,40.959854,0.000000,0.003000,-0.002000,0.005000,FlatInitial,Hold,0
07:07:13.945 PM 02/16/2016,Teleop Enabled,0,FALSE,0,NO ERROR,0.000000,0.000000,-6000.000000,-6000.000000,Speed,Speed,0.320000,0.750000,0.980000,1.000000,101.000000,1,0,-0.000000,0.000000,1,0.000000,0.000000,0.000000,-19.127258,40.959854,0.000000,0.000000,0.000000,0.002000,FlatInitial,Hold,0
07:07:14.045 PM 02/16/2016,Teleop Enabled,0,FALSE,0,NO ERROR,0.000000,0.000000,-6000.000000,-6000.000000,Speed,Speed,0.310000,0.750000,0.980000,1.000000,101.000000,1,0,-0.000000,0.000000,1,0.000000,0.000000,0.000000,-19.127258,40.959854,0.000000,0.000000,-0.002000,0.002000,FlatInitial,Hold,0
07:07:14.145 PM 02/16/2016,Teleop Enabled,0,FALSE,0,NO ERROR,-1.757812,0.000000,-6000.000000,-6000.000000,Speed,Speed,0.320000,0.750000,0.980000,1.000000,102.000000,1,0,-0.000000,0.000000,1,0.000000,0.000000,0.000000,-19.127258,40.959854,0.000000,0.001000,0.000000,0.000000,FlatInitial,Hold,0
07:07:14.245 PM 02/16/2016,Teleop Enabled,0,FALSE,0,NO ERROR,-5.712891,0.000000,-6000.000000,-6000.000000,Speed,Speed,0.310000,0.750000,0.970000,1.000000,104.000000,1,0,-0.000000,0.000000,1,0.000000,0.000000,0.000000,-19.127258,40.959854,0.000000,0.000000,0.001000,0.004000,FlatInitial,Hold,0
07:07:14.345 PM 02/16/2016,Teleop Enabled,0,FALSE,0,NO ERROR,0.000000,0.000000,-6000.000000,-6000.000000,Speed,Speed,0.310000,0.760000,0.980000,1.000000,101.000000,1,0,-0.000000,0.000000,1,0.000000,0.000000,0.000000,-19.127258,40.959854,0.000000,0.000000,0.000000,0.002000,FlatInitial,Hold,0
07:07:14.445 PM 02/16/2016,Teleop Enabled,0,FALSE,0,NO ERROR,0.000000,0.000000,-6000.000000,-6000.000000,Speed,Speed,0.320000,0.740000,0.990000,1.000000,101.000000,1,0,-0.000000,0.000000,1,0.000000,0.000000,0.000000,-19.127258,40.959854,0.000000,0.002000,0.000000,0.005000,FlatInitial,Hold,0
07:07:14.545 PM 02/16/2016,Teleop Enabled,0,FALSE,0,NO ERROR,0.000000,0.000000,-6000.000000,-6000.000000,Speed,Speed,0.310000,0.750000,0.990000,1.000000,102.000000,1,0,-0.000000,0.000000,1,0.000000,0.000000,0.000000,-19.127258,40.959854,0.000000,-0.003000,0.000000,0.000000,FlatInitial,Hold,0
07:07:14.645 PM 02/16/2016,Teleop Enabled,0,FALSE,0,NO ERROR,0.000000,0.000000,-6000.000000,-6000.000000,Speed,Speed,0.310000,0.740000,0.980000,1.000000,101.000000,1,0,-0.000000,0.000000,1,0.000000,0.000000,0.000000,-19.127258,40.959854,0.000000,0.001000,0.000000,0.006000,FlatInitial,Hold,0
07:07:14.745 PM 02/16/2016,Teleop Enabled,0,FALSE,0,NO ERROR,0.000000,0.000000,-6000.000000,-6000.000000,Speed,Speed,0.310000,0.740000,0.990000,1.000000,101.000000,1,0,-0.000000,0.000000,1,0.000000,0.000000,0.000000,-19.127258,40.959854,0.000000,-0.001000,0.003000,0.000000,FlatInitial,Hold,0
07:07:14.845 PM 02/16/2016,Teleop Enabled,0,FALSE,0,NO ERROR,0.000000,0.000000,-6000.000000,-6000.000000,Speed,Speed,0.310000,0.750000,0.980000,1.000000,102.000000,1,0,-0.000000,0.000000,1,0.000000,0.000000,0.000000,-19.127258,40.959854,0.000000,-0.001000,-0.001000,0.006000,FlatInitial,Hold,0
07:07:14.945 PM 02/16/2016,Teleop Enabled,0,FALSE,0,NO ERROR,-0.439453,0.000000,-6000.000000,-6000.000000,Speed,Speed,0.310000,0.740000,0.970000,1.000000,101.000000,1,0,-0.000000,0.000000,1,0.000000,0.000000,0.000000,-19.127258,40.959854,0.000000,-0.001000,0.006000,0.017000,FlatInitial,Hold,0
07:07:15.045 PM 02/16/2016,Teleop Enabled,0,FALSE,0,NO ERROR,-7.031250,0.000000,-6000.000000,-6000.000000,Speed,Speed,0.350000,0.760000,0.900000,1.000000,102.000000,1,0,-0.000000,0.000000,1,0.000000,0.003891,0.000000,-19.127258,40.959900,0.000000,-0.003000,0.024000,-0.011000,FlatInitial,Hold,0
07:07:15.145 PM 02/16/2016,Teleop Enabled,0,FALSE,0,NO ERROR,-8.496094,0.000000,-6000.000000,-6000.000000,Speed,Speed,0.300000,0.840000,0.870000,1.000000,101.000000,1,0,-0.000000,0.000000,1,0.000000,-0.003571,0.000000,-19.127258,40.960495,0.000000,-0.015000,-0.028000,0.012000,FlatInitial,Hold,0
07:07:15.245 PM 02/16/2016,Teleop Enabled,0,FALSE,0,NO ERROR,0.000000,0.000000,-6000.000000,-6000.000000,Speed,Speed,0.390000,0.790000,0.740000,1.000000,101.000000,1,0,-0.000000,0.000000,1,0.003372,-0.032104,0.000000,-19.127228,40.959671,0.000000,0.019000,-0.020000,0.000000,FlatInitial,Hold,0
07:07:15.345 PM 02/16/2016,Teleop Enabled,0,FALSE,0,NO ERROR,18.017578,0.000000,-6000.000000,-6000.000000,Speed,Speed,0.260000,0.780000,0.820000,1.000000,101.000000,1,0,-0.000000,0.000000,1,0.000000,0.000000,0.000000,-19.127045,40.958893,0.000000,-0.004000,-0.011000,-0.003000,FlatInitial,Hold,0
07:07:15.445 PM 02/16/2016,Teleop Enabled,0,FALSE,0,NO ERROR,19.775391,0.000000,-6000.000000,-6000.000000,Speed,Speed,0.300000,0.700000,0.940000,1.000000,101.000000,1,0,-0.000000,0.000000,1,-0.005188,-0.005386,0.000000,-19.127121,40.958496,0.000000,-0.004000,0.005000,0.008000,FlatInitial,Hold,0
07:07:15.545 PM 02/16/2016,Teleop Enabled,0,FALSE,0,NO ERROR,-9.082031,0.000000,-6000.000000,-6000.000000,Speed,Speed,0.400000,0.720000,1.000000,1.000000,102.000000,1,0,-0.000000,0.000000,1,0.000000,0.027542,0.000000,-19.127182,40.959152,0.000000,0.015000,0.023000,-0.011000,FlatInitial,Hold,0
07:07:15.645 PM 02/16/2016,Teleop Enabled,0,FALSE,0,NO ERROR,-4.248047,0.000000,-6000.000000,-6000.000000,Speed,Speed,0.300000,0.750000,0.970000,1.000000,104.000000,1,0,-0.000000,0.000000,1,0.000000,0.000000,0.000000,-19.127182,40.959793,0.000000,-0.008000,0.014000,-0.005000,FlatInitial,Hold,0
07:07:15.745 PM 02/16/2016,Teleop Enabled,0,FALSE,0,NO ERROR,-7.763672,0.000000,-6000.000000,-6000.000000,Speed,Speed,0.290000,0.790000,0.960000,1.000000,102.000000,1,0,-0.000000,0.000000,1,0.000000,0.000000,0.000000,-19.127182,40.960052,0.000000,0.006000,-0.003000,-0.003000,FlatInitial,Hold,0
07:07:15.846 PM 02/16/2016,Teleop Enabled,0,FALSE,0,NO ERROR,6.884766,0.000000,-6000.000000,-6000.000000,Speed,Speed,0.290000,0.760000,0.880000,1.000000,101.000000,1,0,-0.000000,0.000000,1,0.000000,-0.038635,0.000000,-19.127182,40.959076,0.000000,-0.017000,-0.038000,0.008000,FlatInitial,Hold,0
07:07:15.946 PM 02/16/2016,Teleop Enabled,0,FALSE,0,NO ERROR,-1.757812,0.000000,-6000.000000,-6000.000000,Speed,Speed,0.250000,0.760000,0.870000,1.000000,100.000000,1,0,-0.000000,0.000000,1,0.000000,0.000000,0.000000,-19.127182,40.957047,0.000000,-0.008000,-0.003000,0.013000,FlatInitial,Hold,0
07:07:16.046 PM 02/16/2016,Teleop Enabled,0,FALSE,0,NO ERROR,-0.732422,0.000000,-6000.000000,-6000.000000,Speed,Speed,0.310000,0.710000,0.990000,1.000000,102.000000,1,0,-0.000000,0.000000,1,0.000000,0.017670,0.000000,-19.127182,40.957352,0.000000,0.010000,0.014000,0.006000,FlatInitial,Hold,0
07:07:16.147 PM 02/16/2016,Teleop Enabled,0,FALSE,0,NO ERROR,0.000000,0.000000,-6000.000000,-6000.000000,Speed,Speed,0.400000,0.750000,1.020000,1.000000,101.000000,1,0,-0.000000,0.000000,1,0.000000,0.000000,0.000000,-19.127182,40.958496,0.000000,0.003000,0.017000,0.023000,FlatInitial,Hold,0
07:07:16.247 PM 02/16/2016,Teleop Enabled,0,FALSE,0,NO ERROR,-6.591797,0.000000,-6000.000000,-6000.000000,Speed,Speed,0.240000,0.820000,0.990000,1.000000,100.000000,1,0,-0.000000,0.000000,1,0.000000,0.000000,0.000000,-19.127182,40.958496,0.000000,0.000000,-0.016000,0.002000,FlatInitial,Hold,0
07:07:16.347 PM 02/16/2016,Teleop Enabled,0,FALSE,0,NO ERROR,2.343750,0.000000,-6000.000000,-6000.000000,Speed,Speed,0.280000,0.710000,0.990000,1.000000,101.000000,1,0,-0.000000,0.000000,1,0.000000,-0.031189,0.000000,-19.127182,40.957809,0.000000,-0.006000,-0.027000,0.011000,FlatInitial,Hold,0
07:07:16.447 PM 02/16/2016,Teleop Enabled,0,FALSE,0,NO ERROR,-1.464844,0.000000,-6000.000000,-6000.000000,Speed,Speed,0.310000,0.820000,0.740000,1.000000,102.000000,1,0,-0.000000,0.000000,1,0.000000,-0.018295,0.000000,-19.127182,40.955795,0.000000,0.010000,0.043000,-0.023000,FlatInitial,Hold,0
07:07:16.548 PM 02/16/2016,Teleop Enabled,0,FALSE,0,NO ERROR,0.146484,0.000000,-6000.000000,-6000.000000,Speed,Speed,0.270000,0.760000,0.990000,1.000000,104.000000,1,0,-0.000000,0.000000,1,0.000000,-0.024460,0.000000,-19.127182,40.955078,0.000000,-0.013000,-0.048000,0.009000,FlatInitial,Hold,0
07:07:16.649 PM 02/16/2016,Teleop Enabled,0,FALSE,0,NO ERROR,3.076172,0.000000,-6000.000000,-6000.000000,Speed,Speed,0.300000,0.780000,0.790000,1.000000,101.000000,1,0,-0.000000,0.000000,1,0.000000,-0.041412,0.000000,-19.127182,40.953522,0.000000,0.013000,0.025000,-0.004000,FlatInitial,Hold,0
07:07:16.749 PM 02/16/2016,Teleop Enabled,0,FALSE,0,NO ERROR,2.343750,0.000000,-6000.000000,-6000.000000,Speed,Speed,0.280000,0.790000,0.910000,1.000000,102.000000,1,0,-0.000000,0.000000,1,0.000000,-0.017715,0.000000,-19.127182,40.952194,0.000000,0.000000,-0.006000,0.010000,FlatInitial,Hold,0
07:07:16.849 PM 02/16/2016,Teleop Enabled,0,FALSE,0,NO ERROR,-1.757812,0.000000,-6000.000000,-6000.000000,Speed,Speed,0.270000,0.740000,0.900000,1.000000,103.000000,1,0,-0.000000,0.000000,1,0.000000,-0.015488,0.000000,-19.127182,40.951797,0.000000,0.001000,-0.010000,0.004000,FlatInitial,Hold,0
07:07:16.949 PM 02/16/2016,Teleop Enabled,0,FALSE,0,NO ERROR,-15.966797,0.000000,-6000.000000,-6000.000000,Speed,Speed,0.270000,0.750000,0.920000,1.000000,106.000000,1,0,-0.000000,0.000000,1,0.000000,0.000000,0.000000,-19.127182,40.951630,0.000000,0.000000,0.007000,-0.006000,FlatInitial,Hold,0
07:07:17.049 PM 02/16/2016,Teleop Enabled,0,FALSE,0,NO ERROR,-2.636719,0.000000,-6000.000000,-6000.000000,Speed,Speed,0.280000,0.730000,0.980000,1.000000,101.000000,1,0,-0.000000,0.000000,1,0.000000,0.000000,0.000000,-19.127182,40.951630,0.000000,-0.008000,0.012000,0.010000,FlatInitial,Hold,0
07:07:17.149 PM 02/16/2016,Teleop Enabled,0,FALSE,0,NO ERROR,0.000000,0.000000,-6000.000000,-6000.000000,Speed,Speed,0.310000,0.740000,1.000000,1.000000,100.000000,1,0,-0.000000,0.000000,1,0.000000,0.000000,0.000000,-19.127182,40.951843,0.000000,0.006000,-0.005000,0.005000,FlatInitial,Hold,0
07:07:17.250 PM 02/16/2016,Teleop Enabled,0,FALSE,0,NO ERROR,0.000000,0.000000,-6000.000000,-6000.000000,Speed,Speed,0.250000,0.750000,1.000000,1.000000,101.000000,1,0,-0.000000,0.000000,1,0.000000,0.000000,0.000000,-19.127182,40.951843,0.000000,-0.006000,-0.002000,0.006000,FlatInitial,Hold,0
07:07:17.350 PM 02/16/2016,Teleop Enabled,0,FALSE,0,NO ERROR,0.000000,0.000000,-6000.000000,-6000.000000,Speed,Speed,0.280000,0.750000,0.960000,1.000000,101.000000,1,0,-0.000000,0.000000,1,0.000000,0.000000,0.000000,-19.127182,40.951843,0.000000,0.001000,0.007000,0.004000,FlatInitial,Hold,0
07:07:17.450 PM 02/16/2016,Teleop Enabled,0,FALSE,0,NO ERROR,0.000000,0.000000,-6000.000000,-6000.000000,Speed,Speed,0.280000,0.730000,1.010000,1.000000,101.000000,1,0,-0.000000,0.000000,1,0.000000,0.000000,0.000000,-19.127182,40.951843,0.000000,0.005000,-0.010000,0.002000,FlatInitial,Hold,0
07:07:17.550 PM 02/16/2016,Teleop Enabled,0,FALSE,0,NO ERROR,-10.400391,0.000000,-6000.000000,-6000.000000,Speed,Speed,0.310000,0.750000,0.980000,1.000000,102.000000,1,0,-0.000000,0.000000,1,0.000000,0.000000,0.000000,-19.127182,40.951843,0.000000,-0.001000,0.025000,0.007000,FlatInitial,Hold,0
07:07:17.650 PM 02/16/2016,Teleop Enabled,0,FALSE,0,NO ERROR,-8.056641,0.000000,-6000.000000,-6000.000000,Speed,Speed,0.310000,0.800000,0.920000,1.000000,103.000000,1,0,-0.000000,0.000000,1,0.000000,0.028809,0.000000,-19.127182,40.952866,0.000000,0.009000,0.010000,0.010000,FlatInitial,Hold,0
07:07:17.750 PM 02/16/2016,Teleop Enabled,0,FALSE,0,NO ERROR,0.000000,0.000000,-6000.000000,-6000.000000,Speed,Speed,0.320000,0.800000,0.880000,1.000000,102.000000,1,0,-0.000000,0.000000,1,0.000000,-0.023453,0.000000,-19.127182,40.952744,0.000000,0.008000,-0.041000,-0.003000,FlatInitial,Hold,0
07:07:17.850 PM 02/16/2016,Teleop Enabled,0,FALSE,0,NO ERROR,0.000000,0.000000,-6000.000000,-6000.000000,Speed,Speed,0.300000,0.830000,0.730000,1.000000,101.000000,1,0,-0.000000,0.000000,1,0.000000,-0.043182,0.000000,-19.127182,40.951187,0.000000,-0.006000,0.004000,-0.003000,FlatInitial,Hold,0
07:07:17.950 PM 02/16/2016,Teleop Enabled,0,FALSE,0,NO ERROR,4.248047,0.000000,-6000.000000,-6000.000000,Speed,Speed,0.290000,0.790000,0.830000,1.000000,103.000000,1,0,-0.000000,0.000000,1,0.000000,0.000000,0.000000,-19.127182,40.951187,0.000000,-0.003000,-0.005000,0.000000,FlatInitial,Hold,0
07:07:18.050 PM 02/16/2016,Teleop Enabled,0,FALSE,0,NO ERROR,6.591797,0.000000,-6000.000000,-6000.000000,Speed,Speed,0.290000,0.780000,0.830000,1.000000,101.000000,1,0,-0.000000,0.000000,1,0.000000,0.000000,0.000000,-19.127182,40.951187,0.000000,0.002000,0.015000,0.003000,FlatInitial,Hold,0
07:07:18.150 PM 02/16/2016,Teleop Enabled,0,FALSE,0,NO ERROR,-4.101562,0.000000,-6000.000000,-6000.000000,Speed,Speed,0.290000,0.800000,0.860000,1.000000,101.000000,1,0,-0.000000,0.000000,1,0.000000,0.000000,0.000000,-19.127182,40.951385,0.000000,0.001000,0.000000,0.008000,FlatInitial,Hold,0
07:07:18.250 PM 02/16/2016,Teleop Enabled,0,FALSE,0,NO ERROR,-16.259766,0.000000,-6000.000000,-6000.000000,Speed,Speed,0.280000,0.780000,0.870000,1.000000,101.000000,1,0,-0.000000,0.000000,1,0.000000,0.000000,0.000000,-19.127182,40.951385,0.000000,0.001000,0.000000,0.008000,FlatInitial,Hold,0
07:07:18.351 PM 02/16/2016,Teleop Enabled,0,FALSE,0,NO ERROR,-18.896484,0.000000,-6000.000000,-6000.000000,Speed,Speed,0.270000,0.770000,0.870000,1.000000,101.000000,1,0,-0.000000,0.000000,1,0.000000,0.000000,0.000000,-19.127182,40.951385,0.000000,-0.005000,-0.008000,0.004000,FlatInitial,Hold,0
07:07:18.451 PM 02/16/2016,Teleop Enabled,0,FALSE,0,NO ERROR,-34.570312,0.000000,-6000.000000,-6000.000000,Speed,Speed,0.270000,0.770000,0.860000,1.000000,101.000000,1,0,-0.000000,0.000000,1,0.000000,0.000000,0.000000,-19.127182,40.951385,0.000000,0.001000,0.009000,0.004000,FlatInitial,Hold,0
07:07:18.551 PM 02/16/2016,Teleop Enabled,0,FALSE,0,NO ERROR,-29.150391,0.000000,-6000.000000,-6000.000000,Speed,Speed,0.280000,0.770000,0.920000,1.000000,101.000000,1,0,-0.000000,0.000000,1,0.000000,0.000000,0.000000,-19.127182,40.951385,0.000000,0.001000,0.009000,0.004000,FlatInitial,Hold,0
07:07:18.651 PM 02/16/2016,Teleop Enabled,0,FALSE,0,NO ERROR,-3.662109,0.000000,-6000.000000,-6000.000000,Speed,Speed,0.270000,0.750000,0.960000,1.000000,101.000000,1,0,-0.000000,0.000000,1,0.000000,0.000000,0.000000,-19.127182,40.951385,0.000000,0.000000,0.007000,0.009000,FlatInitial,Hold,0
07:07:18.751 PM 02/16/2016,Teleop Enabled,0,FALSE,0,NO ERROR,0.000000,0.000000,-6000.000000,-6000.000000,Speed,Speed,0.270000,0.740000,0.970000,1.000000,101.000000,1,0,-0.000000,0.000000,1,0.000000,0.000000,0.000000,-19.127182,40.951385,0.000000,-0.001000,0.008000,0.006000,FlatInitial,Hold,0
07:07:18.851 PM 02/16/2016,Teleop Enabled,0,FALSE,0,NO ERROR,0.000000,0.000000,-6000.000000,-6000.000000,Speed,Speed,0.300000,0.740000,0.980000,1.000000,101.000000,1,0,-0.000000,0.000000,1,0.000000,0.000000,0.000000,-19.127182,40.951385,0.000000,-0.001000,0.008000,0.006000,FlatInitial,Hold,0
07:07:18.952 PM 02/16/2016,Teleop Enabled,0,FALSE,0,NO ERROR,0.000000,0.000000,-6000.000000,-6000.000000,Speed,Speed,0.280000,0.730000,0.990000,1.000000,101.000000,1,0,-0.000000,0.000000,1,0.000000,0.000000,0.000000,-19.127182,40.951385,0.000000,0.007000,0.001000,-0.002000,FlatInitial,Hold,0
07:07:19.052 PM 02/16/2016,Teleop Enabled,0,FALSE,0,NO ERROR,0.000000,0.000000,-6000.000000,-6000.000000,Speed,Speed,0.280000,0.760000,0.990000,1.000000,101.000000,1,0,-0.000000,0.000000,1,0.000000,0.000000,0.000000,-19.127182,40.951385,0.000000,-0.004000,0.000000,0.004000,FlatInitial,Hold,0
07:07:19.152 PM 02/16/2016,Teleop Enabled,0,FALSE,0,NO ERROR,0.000000,0.000000,-6000.000000,-6000.000000,Speed,Speed,0.280000,0.760000,0.990000,1.000000,101.000000,1,0,-0.000000,0.000000,1,0.000000,0.000000,0.000000,-19.127182,40.951385,0.000000,0.001000,0.000000,0.005000,FlatInitial,Hold,0
07:07:19.253 PM 02/16/2016,Teleop Enabled,0,FALSE,0,NO ERROR,0.000000,0.000000,-6000.000000,-6000.000000,Speed,Speed,0.280000,0.740000,0.990000,1.000000,102.000000,1,0,-0.000000,0.000000,1,0.000000,0.000000,0.000000,-19.127182,40.951385,0.000000,0.002000,0.002000,0.005000,FlatInitial,Hold,0
07:07:19.353 PM 02/16/2016,Teleop Enabled,0,FALSE,0,NO ERROR,0.000000,0.000000,-6000.000000,-6000.000000,Speed,Speed,0.280000,0.740000,0.990000,1.000000,101.000000,1,0,-0.000000,0.000000,1,0.000000,0.000000,0.000000,-19.127182,40.951385,0.000000,-0.002000,0.000000,0.008000,FlatInitial,Hold,0
07:07:19.454 PM 02/16/2016,Teleop Enabled,0,FALSE,0,NO ERROR,0.000000,0.000000,-6000.000000,-6000.000000,Speed,Speed,0.280000,0.740000,1.000000,1.000000,103.000000,1,0,-0.000000,0.000000,1,0.000000,0.000000,0.000000,-19.127182,40.951385,0.000000,0.003000,0.001000,0.003000,FlatInitial,Hold,0
07:07:19.554 PM 02/16/2016,Teleop Enabled,0,FALSE,0,NO ERROR,0.000000,0.000000,-6000.000000,-6000.000000,Speed,Speed,0.280000,0.740000,1.000000,1.000000,104.000000,1,0,-0.000000,0.000000,1,0.000000,0.000000,0.000000,-19.127182,40.951385,0.000000,0.000000,0.000000,0.005000,FlatInitial,Hold,0
07:07:19.654 PM 02/16/2016,Teleop Enabled,0,FALSE,0,NO ERROR,0.000000,0.000000,-6000.000000,-6000.000000,Speed,Speed,0.280000,0.750000,0.990000,1.000000,102.000000,1,0,-0.000000,0.000000,1,0.000000,0.000000,0.000000,-19.127182,40.951385,0.000000,0.001000,0.001000,0.002000,FlatInitial,Hold,0
07:07:19.754 PM 02/16/2016,Teleop Enabled,0,FALSE,0,NO ERROR,0.000000,0.000000,-6000.000000,-6000.000000,Speed,Speed,0.290000,0.740000,1.000000,1.000000,100.000000,1,0,-0.000000,0.000000,1,0.000000,0.000000,0.000000,-19.127182,40.951385,0.000000,-0.001000,0.001000,0.005000,FlatInitial,Hold,0
07:07:19.856 PM 02/16/2016,Teleop Enabled,0,FALSE,0,NO ERROR,0.000000,0.000000,-6000.000000,-6000.000000,Speed,Speed,0.290000,0.740000,1.000000,1.000000,101.000000,1,0,-0.000000,0.000000,1,0.000000,0.000000,0.000000,-19.127182,40.951385,0.000000,0.001000,0.002000,0.008000,FlatInitial,Hold,0
07:07:19.961 PM 02/16/2016,Teleop Enabled,0,FALSE,0,NO ERROR,0.000000,0.000000,-6000.000000,-6000.000000,Speed,Speed,0.290000,0.750000,0.990000,1.000000,101.000000,1,0,-0.000000,0.000000,1,0.000000,0.000000,0.000000,-19.127182,40.951385,0.000000,0.000000,0.000000,0.005000,FlatInitial,Hold,0
07:07:20.058 PM 02/16/2016,Teleop Enabled,0,FALSE,0,NO ERROR,0.000000,0.000000,-6000.000000,-6000.000000,Speed,Speed,0.290000,0.740000,1.000000,1.000000,101.000000,1,0,-0.000000,0.000000,1,0.000000,0.000000,0.000000,-19.127182,40.951385,0.000000,0.000000,0.000000,0.005000,FlatInitial,Hold,0
07:07:20.158 PM 02/16/2016,Teleop Enabled,0,FALSE,0,NO ERROR,0.000000,0.000000,-6000.000000,-6000.000000,Speed,Speed,0.290000,0.740000,1.000000,1.000000,101.000000,1,0,-0.000000,0.000000,1,0.000000,0.000000,0.000000,-19.127182,40.951385,0.000000,-0.001000,-0.001000,0.004000,FlatInitial,Hold,0
07:07:20.258 PM 02/16/2016,Teleop Enabled,0,FALSE,0,NO ERROR,0.000000,0.000000,-6000.000000,-6000.000000,Speed,Speed,0.290000,0.740000,1.000000,1.000000,101.000000,1,0,-0.000000,0.000000,1,0.000000,0.000000,0.000000,-19.127182,40.951385,0.000000,0.000000,0.000000,0.004000,FlatInitial,Hold,0
07:07:20.358 PM 02/16/2016,Teleop Enabled,0,FALSE,0,NO ERROR,0.000000,0.000000,-6000.000000,-6000.000000,Speed,Speed,0.290000,0.740000,1.000000,1.000000,103.000000,1,0,-0.000000,0.000000,1,0.000000,0.000000,0.000000,-19.127182,40.951385,0.000000,-0.002000,0.000000,0.004000,FlatInitial,Hold,0
07:07:20.458 PM 02/16/2016,Teleop Enabled,0,FALSE,0,NO ERROR,0.000000,0.000000,-6000.000000,-6000.000000,Speed,Speed,0.290000,0.740000,1.000000,1.000000,102.000000,1,0,-0.000000,0.000000,1,0.000000,0.000000,0.000000,-19.127182,40.951385,0.000000,-0.002000,0.001000,0.005000,FlatInitial,Hold,0
07:07:20.558 PM 02/16/2016,Teleop Enabled,0,FALSE,0,NO ERROR,0.000000,0.000000,-6000.000000,-6000.000000,Speed,Speed,0.290000,0.740000,1.000000,1.000000,101.000000,1,0,-0.000000,0.000000,1,0.000000,0.000000,0.000000,-19.127182,40.951385,0.000000,-0.002000,0.000000,0.004000,FlatInitial,Hold,0
07:07:20.658 PM 02/16/2016,Teleop Enabled,0,FALSE,0,NO ERROR,0.000000,0.000000,-6000.000000,-6000.000000,Speed,Speed,0.290000,0.740000,1.000000,1.000000,101.000000,1,0,-0.000000,0.000000,1,0.000000,0.000000,0.000000,-19.127182,40.951385,0.000000,0.000000,-0.001000,0.002000,FlatInitial,Hold,0
07:07:20.758 PM 02/16/2016,Teleop Enabled,0,FALSE,0,NO ERROR,0.000000,0.000000,-6000.000000,-6000.000000,Speed,Speed,0.290000,0.740000,1.000000,1.000000,102.000000,1,0,-0.000000,0.000000,1,0.000000,0.000000,0.000000,-19.127182,40.951385,0.000000,0.001000,0.001000,0.001000,FlatInitial,Hold,0
07:07:20.858 PM 02/16/2016,Teleop Enabled,0,FALSE,0,NO ERROR,0.000000,0.000000,-6000.000000,-6000.000000,Speed,Speed,0.290000,0.740000,1.000000,1.000000,102.000000,1,0,-0.000000,0.000000,1,0.000000,0.000000,0.000000,-19.127182,40.951385,0.000000,0.000000,-0.001000,0.007000,FlatInitial,Hold,0
07:07:20.958 PM 02/16/2016,Teleop Enabled,0,FALSE,0,NO ERROR,0.000000,0.000000,-6000.000000,-6000.000000,Speed,Speed,0.290000,0.750000,0.990000,1.000000,104.000000,1,0,-0.000000,0.000000,1,0.000000,0.000000,0.000000,-19.127182,40.951385,0.000000,0.000000,0.000000,0.005000,FlatInitial,Hold,0
07:07:21.058 PM 02/16/2016,Teleop Enabled,0,FALSE,0,NO ERROR,0.000000,0.000000,-6000.000000,-6000.000000,Speed,Speed,0.280000,0.740000,1.000000,1.000000,100.000000,1,0,-0.000000,0.000000,1,0.000000,0.000000,0.000000,-19.127182,40.951385,0.000000,0.002000,0.000000,0.004000,FlatInitial,Hold,0
07:07:21.160 PM 02/16/2016,Teleop Enabled,0,FALSE,0,NO ERROR,0.000000,0.000000,-6000.000000,-6000.000000,Speed,Speed,0.280000,0.750000,0.990000,1.000000,101.000000,1,0,-0.000000,0.000000,1,0.000000,0.000000,0.000000,-19.127182,40.951385,0.000000,-0.001000,0.000000,0.001000,FlatInitial,Hold,0
07:07:21.260 PM 02/16/2016,Teleop Enabled,0,FALSE,0,NO ERROR,0.000000,0.000000,-6000.000000,-6000.000000,Speed,Speed,0.280000,0.740000,1.000000,1.000000,101.000000,1,0,-0.000000,0.000000,1,0.000000,0.000000,0.000000,-19.127182,40.951385,0.000000,0.002000,0.000000,0.007000,FlatInitial,Hold,0
07:07:21.360 PM 02/16/2016,Teleop Enabled,0,FALSE,0,NO ERROR,0.000000,0.000000,-6000.000000,-6000.000000,Speed,Speed,0.280000,0.750000,1.000000,1.000000,102.000000,1,0,-0.000000,0.000000,1,0.000000,0.000000,0.000000,-19.127182,40.951385,0.000000,-0.001000,0.001000,0.002000,FlatInitial,Hold,0
07:07:21.460 PM 02/16/2016,Teleop Enabled,0,FALSE,0,NO ERROR,0.000000,0.000000,-6000.000000,-6000.000000,Speed,Speed,0.280000,0.740000,1.000000,1.000000,101.000000,1,0,-0.000000,0.000000,1,0.000000,0.000000,0.000000,-19.127182,40.951385,0.000000,0.000000,-0.001000,0.003000,FlatInitial,Hold,0
07:07:21.560 PM 02/16/2016,Teleop Enabled,0,FALSE,0,NO ERROR,0.000000,0.000000,-6000.000000,-6000.000000,Speed,Speed,0.280000,0.740000,1.000000,1.000000,101.000000,1,0,-0.000000,0.000000,1,0.000000,0.000000,0.000000,-19.127182,40.951385,0.000000,0.000000,-0.001000,0.008000,FlatInitial,Hold,0
07:07:21.660 PM 02/16/2016,Teleop Enabled,0,FALSE,0,NO ERROR,0.000000,0.000000,-6000.000000,-6000.000000,Speed,Speed,0.280000,0.740000,1.000000,1.000000,102.000000,1,0,-0.000000,0.000000,1,0.000000,0.000000,0.000000,-19.127182,40.951385,0.000000,0.000000,0.000000,0.001000,FlatInitial,Hold,0
07:07:21.760 PM 02/16/2016,Teleop Enabled,0,FALSE,0,NO ERROR,0.000000,0.000000,-6000.000000,-6000.000000,Speed,Speed,0.280000,0.740000,1.000000,1.000000,102.000000,1,0,-0.000000,0.000000,1,0.000000,0.000000,0.000000,-19.127182,40.951385,0.000000,0.000000,-0.001000,0.004000,FlatInitial,Hold,0
