Time,RobotMode,AutoToRun,ErrorStatus, ErrorCode,ErrorSource,ActualRPM1,ActualRPM2,DesiredRPM1,DesiredRPM2,ControlMode1,ControlMode2,NavXYaw,NavXRoll,NavXPitch,ShooterState,LoopTime,IsLevel,IsAutoTargeting,LeftMotorOutput,RightMotorOutput,IsHaloDrive,NavXVelocityX,NavXVelocityY,NavXVelocityZ,NavXDisplacementX,NavXDisplacementY,NavXDisplacementZ,NavXAccelerationX,NavXAccelerationY,NavXAccelerationZ,AutoDefendState,AngeMotorState,Photoeye
08:13:17.200 PM 02/16/2016,Autonomous Disabled,0,TRUE,91,Variant To Data in WPI_DigitalInputRefNum Registry Get.vi->Periodic Tasks.vi->Robot Main.vi,0.000000,0.000000,-6000.000000,-6000.000000,Speed,Speed,48.590000,-0.450000,1.680000,1.000000,103.000000,1,0,-0.000000,0.000000,1,0.000000,0.000000,0.000000,48.906708,-4.888275,0.000000,-0.001000,0.001000,0.007000,FlatInitial,Hold,0
08:13:17.302 PM 02/16/2016,Teleop Enabled,0,TRUE,-44007,<LOCATION>WPI_DigitalInputRefNum Registry Get.vi<CALLSTACK>WPI_DigitalInputRefNum Registry Get.vi< <Periodic Tasks.vi< <Robot Main.vi,0.000000,0.000000,0.000000,0.000000,Speed,Speed,48.050000,-0.450000,1.700000,0.000000,12846.000000,1,0,-0.000000,0.000000,1,0.004745,0.000000,0.000000,48.910294,-4.881516,0.000000,0.019000,0.000000,0.004000,FlatInitial,ResetBack,0
08:13:17.403 PM 02/16/2016,Teleop Enabled,0,FALSE,0,NO ERROR,0.000000,0.000000,0.000000,0.000000,Speed,Speed,0.070000,-0.420000,2.000000,0.000000,103.000000,1,0,-0.000000,0.000000,1,0.000000,-0.012756,0.000000,48.910492,-4.881775,0.000000,-0.020000,0.011000,-0.012000,FlatInitial,ResetBack,0
08:13:17.504 PM 02/16/2016,Teleop Enabled,0,FALSE,0,NO ERROR,0.000000,0.000000,0.000000,0.000000,Speed,Speed,0.040000,-0.440000,2.110000,0.000000,100.000000,1,0,-0.000000,0.000000,1,-0.005081,0.000000,0.000000,48.910416,-4.881775,0.000000,0.000000,0.019000,-0.022000,FlatInitial,ResetBack,1
08:13:17.604 PM 02/16/2016,Teleop Enabled,0,FALSE,0,NO ERROR,0.000000,0.000000,0.000000,0.000000,Speed,Speed,0.040000,-0.440000,2.110000,0.000000,103.000000,1,0,-0.000000,0.000000,1,0.000000,-0.010117,0.000000,48.910416,-4.881943,0.000000,-0.014000,-0.011000,0.027000,FlatInitial,ResetForward,1
08:13:17.704 PM 02/16/2016,Teleop Enabled,0,FALSE,0,NO ERROR,0.000000,0.000000,0.000000,0.000000,Speed,Speed,0.100000,-0.430000,1.890000,0.000000,101.000000,1,0,-0.000000,0.000000,1,0.000000,-0.001617,0.000000,48.910416,-4.882248,0.000000,-0.001000,-0.023000,-0.025000,FlatInitial,ResetForward,1
08:13:17.804 PM 02/16/2016,Teleop Enabled,0,FALSE,0,NO ERROR,0.000000,0.000000,0.000000,0.000000,Speed,Speed,0.040000,-0.450000,2.120000,0.000000,102.000000,1,0,-0.000000,0.000000,1,-0.003494,-0.018265,0.000000,48.910324,-4.882751,0.000000,0.013000,0.011000,-0.041000,FlatInitial,ResetForward,1
08:13:17.907 PM 02/16/2016,Teleop Enabled,0,FALSE,0,NO ERROR,0.000000,0.000000,0.000000,0.000000,Speed,Speed,-0.020000,-0.430000,1.970000,0.000000,101.000000,1,0,-0.000000,0.000000,1,0.000000,0.019241,0.000000,48.910172,-4.882416,0.000000,-0.004000,0.048000,-0.021000,FlatInitial,ResetForward,1
08:13:18.007 PM 02/16/2016,Teleop Enabled,0,FALSE,0,NO ERROR,0.000000,0.000000,0.000000,0.000000,Speed,Speed,-0.020000,-0.440000,2.050000,0.000000,101.000000,1,0,-0.000000,0.000000,1,0.000000,0.000000,0.000000,48.910172,-4.880783,0.000000,0.012000,-0.013000,-0.027000,FlatInitial,ResetForward,1
08:13:18.107 PM 02/16/2016,Teleop Enabled,0,FALSE,0,NO ERROR,0.000000,0.000000,0.000000,0.000000,Speed,Speed,0.060000,-0.450000,2.090000,0.000000,105.000000,1,0,-0.000000,0.000000,1,0.000000,-0.023193,0.000000,48.910172,-4.881470,0.000000,0.003000,-0.008000,0.009000,FlatInitial,ResetForward,1
08:13:18.207 PM 02/16/2016,Teleop Enabled,0,FALSE,0,NO ERROR,0.000000,0.000000,0.000000,0.000000,Speed,Speed,0.010000,-0.430000,1.910000,0.000000,101.000000,1,0,-0.000000,0.000000,1,0.000000,0.000000,0.000000,48.910172,-4.881470,0.000000,-0.006000,-0.004000,0.000000,FlatInitial,ResetForward,0
08:13:18.308 PM 02/16/2016,Teleop Enabled,0,FALSE,0,NO ERROR,0.000000,0.000000,0.000000,0.000000,Speed,Speed,0.000000,-0.430000,2.000000,0.000000,102.000000,1,0,-0.000000,0.000000,1,0.000000,0.000000,0.000000,48.910172,-4.881470,0.000000,-0.004000,-0.002000,0.004000,FlatInitial,Reset,0
08:13:18.408 PM 02/16/2016,Teleop Enabled,0,FALSE,0,NO ERROR,0.000000,0.000000,0.000000,0.000000,Speed,Speed,0.050000,-0.440000,1.930000,0.000000,101.000000,1,0,-0.000000,0.000000,1,0.000000,0.003143,0.000000,48.910172,-4.881439,0.000000,-0.001000,0.025000,0.012000,FlatInitial,Hold,0
08:13:18.508 PM 02/16/2016,Teleop Enabled,0,FALSE,0,NO ERROR,0.000000,0.000000,0.000000,0.000000,Speed,Speed,0.000000,-0.430000,1.940000,0.000000,101.000000,1,0,-0.000000,0.000000,1,0.000000,0.000000,0.000000,48.910172,-4.880981,0.000000,-0.006000,-0.006000,0.007000,FlatInitial,Hold,0
08:13:18.608 PM 02/16/2016,Teleop Enabled,0,FALSE,0,NO ERROR,0.000000,0.000000,0.000000,0.000000,Speed,Speed,0.010000,-0.440000,2.010000,0.000000,102.000000,1,0,-0.000000,0.000000,1,0.000000,-0.018616,0.000000,48.910172,-4.881531,0.000000,0.000000,-0.005000,0.028000,FlatInitial,Hold,0
08:13:18.709 PM 02/16/2016,Teleop Enabled,0,FALSE,0,NO ERROR,0.000000,0.000000,0.000000,0.000000,Speed,Speed,0.040000,-0.430000,1.880000,0.000000,102.000000,1,0,-0.000000,0.000000,1,0.000000,0.008713,0.000000,48.910172,-4.881348,0.000000,0.003000,0.007000,0.000000,FlatInitial,Hold,0
08:13:18.809 PM 02/16/2016,Teleop Enabled,0,FALSE,0,NO ERROR,0.000000,0.000000,0.000000,0.000000,Speed,Speed,0.000000,-0.440000,2.030000,0.000000,102.000000,1,0,-0.000000,0.000000,1,0.000000,0.000000,0.000000,48.910172,-4.881348,0.000000,-0.003000,-0.011000,0.016000,FlatInitial,Hold,0
08:13:18.909 PM 02/16/2016,Teleop Enabled,0,FALSE,0,NO ERROR,0.000000,0.000000,0.000000,0.000000,Speed,Speed,0.030000,-0.450000,1.930000,0.000000,102.000000,1,0,-0.000000,0.000000,1,0.000000,0.000000,0.000000,48.910172,-4.881348,0.000000,0.006000,0.011000,0.006000,FlatInitial,Hold,0
08:13:19.010 PM 02/16/2016,Teleop Enabled,0,FALSE,0,NO ERROR,0.000000,0.000000,0.000000,0.000000,Speed,Speed,0.010000,-0.440000,1.990000,0.000000,101.000000,1,0,-0.000000,0.000000,1,0.000000,0.000000,0.000000,48.910172,-4.881348,0.000000,0.001000,-0.010000,0.009000,FlatInitial,Hold,0
08:13:19.110 PM 02/16/2016,Teleop Enabled,0,FALSE,0,NO ERROR,0.000000,0.000000,0.000000,0.000000,Speed,Speed,0.000000,-0.440000,1.960000,0.000000,102.000000,1,0,-0.000000,0.000000,1,0.000000,0.000000,0.000000,48.910172,-4.881348,0.000000,0.003000,-0.034000,-0.003000,FlatInitial,Hold,0
08:13:19.212 PM 02/16/2016,Teleop Enabled,0,FALSE,0,NO ERROR,0.000000,0.000000,0.000000,0.000000,Speed,Speed,0.040000,-0.460000,2.030000,0.000000,102.000000,1,0,-0.000000,0.000000,1,-0.009476,-0.028549,0.000000,48.910034,-4.882248,0.000000,0.081000,-0.022000,0.004000,FlatInitial,Hold,0
08:13:19.313 PM 02/16/2016,Teleop Enabled,0,FALSE,0,NO ERROR,0.000000,0.000000,0.000000,0.000000,Speed,Speed,-0.150000,-0.460000,2.060000,0.000000,100.000000,1,0,-0.000000,0.000000,1,-0.006866,0.008240,0.000000,48.910019,-4.883087,0.000000,0.018000,0.052000,0.002000,FlatInitial,Hold,0
08:13:19.413 PM 02/16/2016,Teleop Enabled,0,FALSE,0,NO ERROR,0.000000,0.000000,0.000000,0.000000,Speed,Speed,-0.230000,-0.380000,1.770000,0.000000,105.000000,1,0,-0.000000,0.000000,1,-0.001755,0.058289,0.000000,48.909958,-4.881638,0.000000,-0.023000,0.082000,0.033000,FlatInitial,Hold,0
08:13:19.514 PM 02/16/2016,Teleop Enabled,0,FALSE,0,NO ERROR,0.000000,0.000000,0.000000,0.000000,Speed,Speed,-0.340000,-0.450000,1.640000,0.000000,101.000000,1,0,-0.000000,0.000000,1,-0.012619,0.067245,0.000000,48.909866,-4.877350,0.000000,0.001000,0.002000,0.186000,FlatInitial,Hold,0
08:13:19.614 PM 02/16/2016,Teleop Enabled,0,FALSE,0,NO ERROR,0.000000,0.000000,0.000000,0.000000,Speed,Speed,-0.310000,-0.410000,1.920000,0.000000,101.000000,1,0,-0.000000,0.000000,1,0.000351,0.040512,0.000000,48.909576,-4.874786,0.000000,0.029000,-0.038000,0.074000,FlatInitial,Hold,0
08:13:19.714 PM 02/16/2016,Teleop Enabled,0,FALSE,0,NO ERROR,0.000000,0.000000,0.000000,0.000000,Speed,Speed,-0.140000,-0.490000,1.280000,0.000000,102.000000,1,0,-0.000000,0.000000,1,0.000000,0.000000,0.000000,48.909470,-4.873978,0.000000,-0.019000,0.000000,0.043000,FlatInitial,Hold,0
08:13:19.814 PM 02/16/2016,Teleop Enabled,0,FALSE,0,NO ERROR,0.000000,0.000000,0.000000,0.000000,Speed,Speed,-0.090000,-0.470000,1.290000,0.000000,102.000000,1,0,-0.000000,0.000000,1,0.000000,-0.004364,0.000000,48.909790,-4.874054,0.000000,0.000000,0.012000,-0.019000,FlatInitial,Hold,0
08:13:19.915 PM 02/16/2016,Teleop Enabled,0,FALSE,0,NO ERROR,0.146484,0.439453,0.000000,0.000000,Speed,Speed,-0.140000,-0.450000,1.420000,0.000000,101.000000,1,0,-0.000000,0.000000,1,-0.003738,-0.002655,0.000000,48.909668,-4.874191,0.000000,0.018000,0.010000,0.020000,FlatInitial,Hold,0
08:13:20.015 PM 02/16/2016,Teleop Enabled,0,FALSE,0,NO ERROR,1.611328,0.732422,0.000000,0.000000,Speed,Speed,-0.210000,-0.420000,1.700000,0.000000,103.000000,1,0,-0.000000,0.000000,1,-0.045670,0.107834,0.000000,48.908798,-4.871933,0.000000,0.060000,0.137000,-0.360000,FlatInitial,Hold,0
08:13:20.115 PM 02/16/2016,Teleop Enabled,0,FALSE,0,NO ERROR,0.439453,0.000000,0.000000,0.000000,Speed,Speed,-0.160000,-0.410000,2.080000,0.000000,103.000000,1,0,-0.000000,0.000000,1,-0.027084,0.097687,0.000000,48.908020,-4.867050,0.000000,-0.043000,0.061000,-0.252000,FlatInitial,Hold,0
08:13:20.215 PM 02/16/2016,Teleop Enabled,0,FALSE,0,NO ERROR,0.000000,0.000000,0.000000,0.000000,Speed,Speed,-0.170000,-0.420000,1.750000,0.000000,103.000000,1,0,-0.000000,0.000000,1,-0.054153,0.118881,0.000000,48.905823,-4.861694,0.000000,-0.073000,0.000000,-0.138000,FlatInitial,Hold,0
08:13:20.316 PM 02/16/2016,Teleop Enabled,0,FALSE,0,NO ERROR,0.000000,0.000000,0.000000,0.000000,Speed,Speed,-0.160000,-0.430000,1.560000,0.000000,101.000000,1,0,-0.000000,0.000000,1,0.000000,-0.006561,0.000000,48.904083,-4.860611,0.000000,0.019000,-0.004000,0.091000,FlatInitial,Hold,0
08:13:20.416 PM 02/16/2016,Teleop Enabled,0,FALSE,0,NO ERROR,0.000000,0.000000,0.000000,0.000000,Speed,Speed,-0.190000,-0.450000,1.300000,0.000000,103.000000,1,0,-0.000000,0.000000,1,-0.007111,-0.017456,0.000000,48.904007,-4.860962,0.000000,-0.058000,-0.063000,0.125000,FlatInitial,Hold,0
08:13:20.517 PM 02/16/2016,Teleop Enabled,0,FALSE,0,NO ERROR,0.000000,0.000000,-6000.000000,-6000.000000,Speed,Speed,-0.170000,-0.410000,1.760000,1.000000,102.000000,1,0,-0.000000,0.000000,1,-0.017410,-0.028976,0.000000,48.903503,-4.862442,0.000000,-0.018000,-0.029000,0.152000,FlatInitial,Hold,0
08:13:20.618 PM 02/16/2016,Teleop Enabled,0,FALSE,0,NO ERROR,-200.830078,131.982422,-6000.000000,-6000.000000,Speed,Speed,-0.170000,-0.400000,1.770000,1.000000,102.000000,1,0,-0.000000,0.000000,1,-0.017960,-0.036194,0.000000,48.902359,-4.864807,0.000000,-0.035000,0.083000,0.085000,FlatInitial,Hold,0
08:13:20.719 PM 02/16/2016,Teleop Enabled,0,FALSE,0,NO ERROR,-1991.894531,1769.824219,-6000.000000,-6000.000000,Speed,Speed,-0.170000,-0.400000,1.690000,1.000000,101.000000,1,0,-0.000000,0.000000,1,-0.037338,-0.042511,0.000000,48.901245,-4.866119,0.000000,-0.044000,0.016000,-0.019000,FlatInitial,Hold,0
08:13:20.819 PM 02/16/2016,Teleop Enabled,0,FALSE,0,NO ERROR,-3920.214844,3681.152344,-6000.000000,-6000.000000,Speed,Speed,-0.160000,-0.450000,1.920000,1.000000,103.000000,1,0,-0.000000,0.000000,1,-0.075836,0.014023,0.000000,48.898071,-4.865814,0.000000,-0.008000,0.060000,0.147000,FlatInitial,Hold,0
08:13:20.921 PM 02/16/2016,Teleop Enabled,0,FALSE,0,NO ERROR,-5305.078125,5141.601562,-6000.000000,-6000.000000,Speed,Speed,-0.150000,-0.450000,1.850000,1.000000,102.000000,1,0,-0.000000,0.000000,1,0.000000,0.020691,0.000000,48.895203,-4.864777,0.000000,0.043000,0.086000,0.066000,FlatInitial,Hold,0
08:13:21.022 PM 02/16/2016,Teleop Enabled,0,FALSE,0,NO ERROR,-5918.554688,5855.273438,-6000.000000,-6000.000000,Speed,Speed,-0.190000,-0.430000,1.960000,1.000000,101.000000,1,0,-0.000000,0.000000,1,0.007431,0.056000,0.000000,48.895630,-4.862167,0.000000,-0.001000,-0.018000,0.071000,FlatInitial,Hold,0
08:13:21.122 PM 02/16/2016,Teleop Enabled,0,FALSE,0,NO ERROR,-6028.125000,5951.367188,-6000.000000,-6000.000000,Speed,Speed,-0.200000,-0.510000,2.280000,1.000000,101.000000,1,0,-0.000000,0.000000,1,-0.019455,0.045914,0.000000,48.895432,-4.860199,0.000000,-0.046000,0.047000,-0.016000,FlatInitial,Hold,0
08:13:21.222 PM 02/16/2016,Teleop Enabled,0,FALSE,0,NO ERROR,-6020.507812,5910.937500,-6000.000000,-6000.000000,Speed,Speed,-0.220000,-0.580000,2.180000,1.000000,101.000000,1,0,-0.000000,0.000000,1,-0.008362,0.072556,0.000000,48.894638,-4.856445,0.000000,0.022000,0.037000,0.056000,FlatInitial,Hold,0
08:13:21.322 PM 02/16/2016,Teleop Enabled,0,FALSE,0,NO ERROR,-5992.382812,5874.023438,-6000.000000,-6000.000000,Speed,Speed,-0.220000,-0.540000,2.160000,1.000000,102.000000,1,0,-0.000000,0.000000,1,-0.017929,0.073196,0.000000,48.894302,-4.852798,0.000000,-0.032000,0.031000,0.022000,FlatInitial,Hold,0
08:13:21.423 PM 02/16/2016,Teleop Enabled,0,FALSE,0,NO ERROR,-5980.078125,5895.703125,-6000.000000,-6000.000000,Speed,Speed,-0.220000,-0.550000,2.240000,1.000000,102.000000,1,0,-0.000000,0.000000,1,0.006317,0.159714,0.000000,48.893921,-4.846893,0.000000,0.034000,0.087000,-0.002000,FlatInitial,Hold,0
08:13:21.522 PM 02/16/2016,Teleop Enabled,0,FALSE,0,NO ERROR,-5981.250000,5962.500000,-6000.000000,-6000.000000,Speed,Speed,-0.220000,-0.580000,2.200000,1.000000,101.000000,1,0,-0.000000,0.000000,1,0.004135,0.190796,0.000000,48.894165,-4.837540,0.000000,-0.065000,-0.046000,0.007000,FlatInitial,Hold,0
08:13:21.622 PM 02/16/2016,Teleop Enabled,0,FALSE,0,NO ERROR,-5992.382812,6009.960938,-6000.000000,-6000.000000,Speed,Speed,-0.220000,-0.630000,2.290000,1.000000,101.000000,1,0,-0.000000,0.000000,1,0.003098,0.173264,0.000000,48.894119,-4.828308,0.000000,0.012000,-0.086000,0.092000,FlatInitial,Hold,0
08:13:21.722 PM 02/16/2016,Teleop Enabled,0,FALSE,0,NO ERROR,-6001.171875,6020.507812,-6000.000000,-6000.000000,Speed,Speed,-0.240000,-0.660000,2.290000,1.000000,101.000000,1,0,-0.000000,0.000000,1,0.019638,0.151794,0.000000,48.894669,-4.820724,0.000000,0.025000,0.013000,0.055000,FlatInitial,Hold,0
08:13:21.822 PM 02/16/2016,Teleop Enabled,0,FALSE,0,NO ERROR,-6004.687500,6025.781250,-6000.000000,-6000.000000,Speed,Speed,-0.230000,-0.710000,2.350000,1.000000,101.000000,1,0,-0.000000,0.000000,1,0.044113,0.194778,0.000000,48.896332,-4.812027,0.000000,0.015000,0.021000,0.031000,FlatInitial,Hold,0
08:13:21.927 PM 02/16/2016,Teleop Enabled,0,FALSE,0,NO ERROR,-6007.031250,6024.609375,-6000.000000,-6000.000000,Speed,Speed,-0.230000,-0.770000,2.580000,1.000000,103.000000,1,0,-0.000000,0.000000,1,0.094772,0.242676,0.000000,48.900162,-4.801208,0.000000,0.043000,0.027000,0.030000,FlatInitial,Hold,0
08:13:22.028 PM 02/16/2016,Teleop Enabled,0,FALSE,0,NO ERROR,-6007.031250,6011.132812,-6000.000000,-6000.000000,Speed,Speed,-0.230000,-0.800000,2.690000,1.000000,102.000000,1,0,-0.000000,0.000000,1,0.000000,0.338928,0.000000,48.904739,-4.786285,0.000000,-0.026000,0.050000,0.005000,FlatInitial,Hold,0
08:13:22.130 PM 02/16/2016,Teleop Enabled,0,FALSE,0,NO ERROR,-6012.304688,5999.414062,-6000.000000,-6000.000000,Speed,Speed,-0.220000,-0.800000,2.770000,1.000000,101.000000,1,0,-0.000000,0.000000,1,0.022446,0.443619,0.000000,48.905197,-4.766479,0.000000,-0.006000,0.073000,-0.026000,FlatInitial,Hold,0
08:13:22.233 PM 02/16/2016,Teleop Enabled,0,FALSE,0,NO ERROR,-6009.375000,5996.484375,-6000.000000,-6000.000000,Speed,Speed,-0.220000,-0.820000,2.910000,1.000000,104.000000,1,0,-0.000000,0.000000,1,0.013458,0.554901,0.000000,48.905731,-4.735947,0.000000,0.000000,0.052000,-0.021000,FlatInitial,Hold,0
08:13:22.333 PM 02/16/2016,Teleop Enabled,0,FALSE,0,NO ERROR,-6007.031250,5992.382812,-6000.000000,-6000.000000,Speed,Speed,-0.220000,-0.830000,2.920000,1.000000,101.000000,1,0,-0.000000,0.000000,1,0.016541,0.641571,0.000000,48.906052,-4.711853,0.000000,0.019000,0.091000,0.012000,FlatInitial,Hold,0
08:13:22.433 PM 02/16/2016,Teleop Enabled,0,FALSE,0,NO ERROR,-6005.859375,5990.039062,-6000.000000,-6000.000000,Speed,Speed,-0.230000,-0.830000,2.970000,1.000000,101.000000,1,0,-0.000000,0.000000,1,0.059219,0.755173,0.000000,48.908401,-4.669022,0.000000,0.021000,0.000000,-0.019000,FlatInitial,Hold,0
08:13:22.533 PM 02/16/2016,Teleop Enabled,0,FALSE,0,NO ERROR,-6005.859375,5994.140625,-6000.000000,-6000.000000,Speed,Speed,-0.240000,-0.810000,2.950000,1.000000,101.000000,1,0,-0.000000,0.000000,1,0.111588,0.825165,0.000000,48.912827,-4.629501,0.000000,0.069000,0.061000,0.003000,FlatInitial,Hold,0
08:13:22.633 PM 02/16/2016,Teleop Enabled,0,FALSE,0,NO ERROR,-6006.445312,6004.101562,-6000.000000,-6000.000000,Speed,Speed,-0.250000,-0.800000,3.060000,1.000000,101.000000,1,0,-0.000000,0.000000,1,0.172623,0.933670,0.000000,48.920258,-4.585190,0.000000,0.042000,0.071000,0.018000,FlatInitial,Hold,0
08:13:22.736 PM 02/16/2016,Teleop Enabled,0,FALSE,0,NO ERROR,-6009.960938,6013.476562,-6000.000000,-6000.000000,Speed,Speed,-0.250000,-0.780000,3.050000,1.000000,101.000000,1,0,-0.000000,0.000000,1,0.230728,1.018707,0.000000,48.930908,-4.535767,0.000000,0.075000,0.074000,0.020000,FlatInitial,Hold,0
08:13:22.837 PM 02/16/2016,Teleop Enabled,0,FALSE,0,NO ERROR,-6009.960938,6018.164062,-6000.000000,-6000.000000,Speed,Speed,-0.250000,-0.800000,3.020000,1.000000,101.000000,1,0,-0.000000,0.000000,1,0.287537,1.102325,0.000000,48.944214,-4.482849,0.000000,0.095000,0.058000,-0.021000,FlatInitial,Hold,0
08:13:22.943 PM 02/16/2016,Teleop Enabled,0,FALSE,0,NO ERROR,-6007.031250,6023.437500,-6000.000000,-6000.000000,Speed,Speed,-0.240000,-0.700000,3.030000,1.000000,103.000000,1,0,-0.000000,0.000000,1,0.325455,1.210403,0.000000,48.959854,-4.424789,0.000000,0.003000,0.078000,0.039000,FlatInitial,Hold,0
08:13:23.041 PM 02/16/2016,Teleop Enabled,0,FALSE,0,NO ERROR,-6009.960938,6016.992188,-6000.000000,-6000.000000,Speed,Speed,-0.200000,-0.700000,3.110000,1.000000,103.000000,1,0,-0.000000,0.000000,1,0.004654,1.278244,0.000000,48.959930,-4.362366,0.000000,0.046000,-0.016000,0.039000,FlatInitial,Hold,0
08:13:23.141 PM 02/16/2016,Teleop Enabled,0,FALSE,0,NO ERROR,-6005.859375,5995.312500,-6000.000000,-6000.000000,Speed,Speed,-0.060000,-0.620000,3.120000,1.000000,102.000000,1,0,-0.000000,0.000000,1,0.055344,1.311432,0.000000,48.961411,-4.297531,0.000000,0.045000,0.078000,0.241000,FlatInitial,Hold,0
08:13:23.241 PM 02/16/2016,Teleop Enabled,0,FALSE,0,NO ERROR,-6005.859375,5225.390625,-6000.000000,-6000.000000,Speed,Speed,-0.040000,-0.650000,2.980000,1.000000,103.000000,1,0,-0.000000,0.000000,1,0.080399,1.379745,0.000000,48.965591,-4.229980,0.000000,-0.030000,-0.018000,-0.099000,FlatInitial,Hold,0
08:13:23.341 PM 02/16/2016,Teleop Enabled,0,FALSE,0,NO ERROR,-5570.507812,5225.390625,-6000.000000,-6000.000000,Speed,Speed,-0.170000,-0.480000,2.670000,1.000000,101.000000,1,0,-0.000000,0.000000,1,0.039978,1.439407,0.000000,48.969757,-4.158844,0.000000,-0.178000,0.081000,-0.028000,FlatInitial,Hold,0
08:13:23.444 PM 02/16/2016,Teleop Enabled,0,FALSE,0,NO ERROR,-4360.693359,3140.917969,-6000.000000,-6000.000000,Speed,Speed,-0.180000,-0.540000,2.280000,1.000000,104.000000,1,0,-0.000000,0.000000,1,-0.080872,1.452698,0.000000,48.968323,-4.085922,0.000000,-0.130000,-0.170000,-0.197000,FlatInitial,Hold,0
08:13:23.544 PM 02/16/2016,Teleop Enabled,0,FALSE,0,NO ERROR,-5353.125000,4255.810547,-6000.000000,-6000.000000,Speed,Speed,-0.170000,-0.480000,2.580000,1.000000,101.000000,1,0,-0.000000,0.000000,1,-0.066772,1.411987,0.000000,48.964355,-4.014526,0.000000,0.043000,0.052000,-0.061000,FlatInitial,Hold,0
08:13:23.644 PM 02/16/2016,Teleop Enabled,0,FALSE,0,NO ERROR,-5936.718750,5463.281250,-6000.000000,-6000.000000,Speed,Speed,-0.180000,-0.500000,2.650000,2.000000,101.000000,1,0,-0.000000,0.000000,1,-0.057938,1.425308,0.000000,48.961639,-3.943405,0.000000,-0.028000,0.000000,0.023000,FlatInitial,Hold,0
08:13:23.744 PM 02/16/2016,Teleop Enabled,0,FALSE,0,NO ERROR,-5936.718750,5900.976562,0.000000,0.000000,Speed,Speed,-0.210000,-0.500000,2.410000,2.000000,101.000000,1,0,-0.000000,0.000000,1,-0.115845,1.442764,0.000000,48.957367,-3.871552,0.000000,-0.054000,0.056000,-0.151000,FlatInitial,Hold,0
08:13:23.845 PM 02/16/2016,Teleop Enabled,0,FALSE,0,NO ERROR,-5993.554688,5880.468750,0.000000,0.000000,Speed,Speed,-0.220000,-0.530000,2.540000,2.000000,100.000000,1,0,-0.000000,0.000000,1,-0.111526,1.446060,0.000000,48.950867,-3.799469,0.000000,-0.040000,-0.042000,0.120000,FlatInitial,Hold,0
08:13:23.946 PM 02/16/2016,Teleop Enabled,0,FALSE,0,NO ERROR,-5625.000000,5379.492188,0.000000,0.000000,Speed,Speed,-0.250000,-0.570000,2.520000,2.000000,102.000000,1,0,-0.000000,0.000000,1,-0.123184,1.444504,0.000000,48.945023,-3.727905,0.000000,-0.034000,0.031000,0.051000,FlatInitial,Hold,0
08:13:24.046 PM 02/16/2016,Teleop Enabled,0,FALSE,0,NO ERROR,-5173.242188,4675.781250,0.000000,0.000000,Speed,Speed,-0.240000,-0.600000,2.400000,2.000000,101.000000,1,0,-0.000000,0.000000,1,-0.135361,1.477463,0.000000,48.938461,-3.654999,0.000000,0.013000,-0.004000,-0.152000,FlatInitial,Hold,0
08:13:24.145 PM 02/16/2016,Teleop Enabled,0,FALSE,0,NO ERROR,-4732.763672,3995.654297,0.000000,0.000000,Speed,Speed,-0.240000,-0.560000,2.450000,2.000000,101.000000,1,0,-0.000000,0.000000,1,-0.134384,1.482559,0.000000,48.930435,-3.566345,0.000000,-0.023000,-0.039000,-0.100000,FlatInitial,Hold,0
08:13:24.245 PM 02/16/2016,Teleop Enabled,0,FALSE,0,NO ERROR,-4394.677734,3333.984375,0.000000,0.000000,Speed,Speed,-0.250000,-0.520000,2.470000,2.000000,101.000000,1,0,-0.000000,0.000000,1,-0.139221,1.440445,0.000000,48.923752,-3.493546,0.000000,-0.038000,-0.044000,0.002000,FlatInitial,Hold,0
08:13:24.345 PM 02/16/2016,Teleop Enabled,0,FALSE,0,NO ERROR,-3986.279297,2686.962891,0.000000,0.000000,Speed,Speed,-0.240000,-0.550000,2.250000,2.000000,101.000000,1,0,-0.000000,0.000000,1,-0.120438,1.430237,0.000000,48.917404,-3.421936,0.000000,0.062000,0.072000,-0.091000,FlatInitial,Hold,0
08:13:24.445 PM 02/16/2016,Teleop Enabled,0,FALSE,0,NO ERROR,-3589.160156,2187.011719,0.000000,0.000000,Speed,Speed,-0.250000,-0.500000,2.290000,2.000000,103.000000,1,0,-0.000000,0.000000,1,-0.111404,-0.011078,0.000000,48.911865,-3.407867,0.000000,0.041000,-0.037000,-0.032000,FlatInitial,Hold,0
08:13:24.545 PM 02/16/2016,Teleop Enabled,0,FALSE,0,NO ERROR,-3208.154297,1581.152344,0.000000,0.000000,Speed,Speed,-0.230000,-0.510000,2.300000,2.000000,105.000000,1,0,-0.000000,0.000000,1,0.006027,-0.016830,0.000000,48.910919,-3.408310,0.000000,0.019000,-0.049000,0.022000,FlatInitial,Hold,0
08:13:24.645 PM 02/16/2016,Teleop Enabled,0,FALSE,0,NO ERROR,-2841.210938,1024.072266,0.000000,0.000000,Speed,Speed,-0.230000,-0.500000,2.190000,2.000000,101.000000,1,0,-0.000000,0.000000,1,0.003082,-0.001785,0.000000,48.910995,-3.408875,0.000000,0.039000,-0.072000,0.077000,FlatInitial,Hold,0
08:13:24.745 PM 02/16/2016,Teleop Enabled,0,FALSE,0,NO ERROR,-2489.501953,522.509766,0.000000,0.000000,Speed,Speed,-0.220000,-0.510000,2.170000,2.000000,102.000000,1,0,-0.000000,0.000000,1,-0.006729,-0.032104,0.000000,48.911041,-3.410202,0.000000,0.009000,0.029000,0.053000,FlatInitial,Hold,0
08:13:24.845 PM 02/16/2016,Teleop Enabled,0,FALSE,0,NO ERROR,-2156.396484,127.441406,0.000000,0.000000,Speed,Speed,-0.210000,-0.510000,2.180000,2.000000,103.000000,1,0,-0.000000,0.000000,1,-0.014160,-0.055252,0.000000,48.910736,-3.412170,0.000000,-0.036000,-0.017000,0.038000,FlatInitial,Hold,0
08:13:24.945 PM 02/16/2016,Teleop Enabled,0,FALSE,0,NO ERROR,-1841.308594,-0.292969,4000.000000,4000.000000,Speed,Speed,-0.220000,-0.500000,2.050000,3.000000,103.000000,1,0,-0.000000,0.000000,1,-0.002411,-0.044083,0.000000,48.910538,-3.414413,0.000000,-0.030000,0.049000,-0.077000,FlatInitial,Hold,0
08:13:25.046 PM 02/16/2016,Teleop Enabled,0,FALSE,0,NO ERROR,-1414.746094,-188.085938,4000.000000,4000.000000,Speed,Speed,-0.210000,-0.500000,2.060000,3.000000,102.000000,1,0,-0.000000,0.000000,1,-0.008118,0.000000,0.000000,48.910187,-3.415909,0.000000,0.059000,0.022000,-0.039000,FlatInitial,Hold,0
08:13:25.146 PM 02/16/2016,Teleop Enabled,0,FALSE,0,NO ERROR,923.144531,-1448.144531,4000.000000,4000.000000,Speed,Speed,-0.220000,-0.510000,2.110000,3.000000,101.000000,1,0,-0.000000,0.000000,1,0.019745,0.016205,0.000000,48.910645,-3.415100,0.000000,0.007000,0.014000,0.067000,FlatInitial,Hold,0
08:13:25.246 PM 02/16/2016,Teleop Enabled,0,FALSE,0,NO ERROR,3130.957031,-3006.591797,9000.000000,9000.000000,Speed,Speed,-0.220000,-0.520000,2.060000,4.000000,102.000000,1,0,-0.000000,0.000000,1,-0.001785,-0.000946,0.000000,48.911499,-3.414474,0.000000,-0.078000,-0.130000,0.122000,FlatInitial,HighGoal,0
08:13:25.347 PM 02/16/2016,Teleop Enabled,0,FALSE,0,NO ERROR,4249.804688,-3799.511719,9000.000000,9000.000000,Speed,Speed,-0.170000,-0.560000,1.460000,4.000000,102.000000,1,0,-0.000000,0.000000,1,0.045959,-0.061951,0.000000,48.912842,-3.416306,0.000000,-0.023000,0.000000,-0.089000,FlatInitial,Hold,0
08:13:25.447 PM 02/16/2016,Teleop Enabled,0,FALSE,0,NO ERROR,5612.695312,-4927.734375,9000.000000,9000.000000,Speed,Speed,-0.230000,-0.460000,1.340000,4.000000,101.000000,1,0,-0.000000,0.000000,1,0.009872,-0.085663,0.000000,48.913849,-3.418793,0.000000,-0.093000,-0.041000,-0.152000,FlatInitial,HighGoal,0
08:13:25.548 PM 02/16/2016,Teleop Enabled,0,FALSE,0,NO ERROR,6965.625000,-6151.757812,9000.000000,9000.000000,Speed,Speed,-0.240000,-0.440000,1.680000,4.000000,102.000000,1,0,-0.000000,0.000000,1,-0.039658,-0.098007,0.000000,48.912750,-3.424713,0.000000,-0.011000,0.125000,0.117000,FlatInitial,Hold,0
08:13:25.648 PM 02/16/2016,Teleop Enabled,0,FALSE,0,NO ERROR,8088.867187,-7170.117187,9000.000000,9000.000000,Speed,Speed,-0.190000,-0.480000,1.180000,4.000000,103.000000,1,0,-0.000000,0.000000,1,-0.050385,-0.125305,0.000000,48.910858,-3.429977,0.000000,-0.085000,0.140000,-0.018000,FlatInitial,Hold,0
08:13:25.749 PM 02/16/2016,Teleop Enabled,0,FALSE,0,NO ERROR,8789.062500,-7887.304687,9000.000000,9000.000000,Speed,Speed,-0.220000,-0.460000,1.330000,4.000000,101.000000,1,0,-0.000000,0.000000,1,-0.069534,-0.143982,0.000000,48.907410,-3.437027,0.000000,0.115000,-0.096000,0.155000,FlatInitial,Hold,0
08:13:25.849 PM 02/16/2016,Teleop Enabled,0,FALSE,0,NO ERROR,9020.507812,-8551.171875,9000.000000,9000.000000,Speed,Speed,-0.200000,-0.510000,1.320000,4.000000,101.000000,1,0,-0.000000,0.000000,1,-0.064163,-0.074127,0.000000,48.903732,-3.441879,0.000000,0.098000,0.155000,0.059000,FlatInitial,Hold,0
08:13:25.950 PM 02/16/2016,Teleop Enabled,0,FALSE,0,NO ERROR,9139.453125,-8777.929688,9000.000000,9000.000000,Speed,Speed,-0.190000,-0.450000,1.300000,4.000000,103.000000,1,0,-0.000000,0.000000,1,-0.043747,-0.107941,0.000000,48.901779,-3.446381,0.000000,-0.165000,-0.154000,-0.022000,FlatInitial,Hold,0
08:13:26.050 PM 02/16/2016,Teleop Enabled,0,FALSE,0,NO ERROR,9168.750000,-8877.539062,9000.000000,9000.000000,Speed,Speed,-0.210000,-0.480000,1.420000,4.000000,102.000000,1,0,-0.000000,0.000000,1,-0.069595,-0.096771,0.000000,48.898621,-3.451630,0.000000,0.011000,0.119000,-0.024000,FlatInitial,Hold,0
08:13:26.150 PM 02/16/2016,Teleop Enabled,0,FALSE,0,NO ERROR,9150.585938,-8953.710938,9000.000000,9000.000000,Speed,Speed,-0.180000,-0.430000,1.350000,4.000000,103.000000,1,0,-0.000000,0.000000,1,-0.090805,-0.045776,0.000000,48.894119,-3.455414,0.000000,-0.060000,0.220000,0.089000,FlatInitial,Hold,0
08:13:26.250 PM 02/16/2016,Teleop Enabled,0,FALSE,0,NO ERROR,9121.875000,-8986.523438,9000.000000,9000.000000,Speed,Speed,-0.160000,-0.460000,1.400000,4.000000,101.000000,1,0,-0.000000,0.000000,1,-0.032761,0.006378,0.000000,48.891418,-3.455734,0.000000,-0.086000,0.101000,0.011000,FlatInitial,Hold,0
08:13:26.351 PM 02/16/2016,Teleop Enabled,0,FALSE,0,NO ERROR,9093.164062,-8999.414062,9000.000000,9000.000000,Speed,Speed,-0.170000,-0.450000,1.400000,4.000000,102.000000,1,0,-0.000000,0.000000,1,-0.008850,-0.014252,0.000000,48.890762,-3.455582,0.000000,0.089000,-0.108000,0.072000,FlatInitial,Hold,0
08:13:26.452 PM 02/16/2016,Teleop Enabled,0,FALSE,0,NO ERROR,9058.593750,-9002.343750,9000.000000,9000.000000,Speed,Speed,-0.180000,-0.430000,1.740000,4.000000,102.000000,1,0,-0.000000,0.000000,1,-0.054489,-0.065231,0.000000,48.889313,-3.458008,0.000000,-0.118000,-0.038000,0.074000,FlatInitial,Hold,0
08:13:26.553 PM 02/16/2016,Teleop Enabled,0,FALSE,0,NO ERROR,9036.914062,-9004.101562,9000.000000,9000.000000,Speed,Speed,-0.240000,-0.400000,1.390000,4.000000,103.000000,1,0,-0.000000,0.000000,1,-0.075806,-0.054459,0.000000,48.885834,-3.461151,0.000000,0.020000,-0.037000,-0.195000,FlatInitial,Hold,0
08:13:26.653 PM 02/16/2016,Teleop Enabled,0,FALSE,0,NO ERROR,9028.125000,-9012.890625,9000.000000,9000.000000,Speed,Speed,-0.350000,-0.380000,1.500000,4.000000,101.000000,1,0,-0.000000,0.000000,1,-0.128281,-0.109131,0.000000,48.881119,-3.465469,0.000000,-0.155000,0.031000,0.058000,FlatInitial,Hold,0
08:13:26.754 PM 02/16/2016,Teleop Enabled,0,FALSE,0,NO ERROR,9033.984375,-9029.882812,9000.000000,9000.000000,Speed,Speed,-0.370000,-0.330000,1.600000,4.000000,102.000000,1,0,-0.000000,0.000000,1,-0.143478,-0.155991,0.000000,48.875427,-3.470963,0.000000,0.051000,-0.053000,-0.092000,FlatInitial,Hold,0
08:13:26.854 PM 02/16/2016,Teleop Enabled,0,FALSE,0,NO ERROR,9034.570312,-9043.945312,9000.000000,9000.000000,Speed,Speed,-0.400000,-0.360000,1.360000,4.000000,101.000000,1,0,-0.000000,0.000000,1,-0.199371,-0.223083,0.000000,48.865158,-3.483215,0.000000,-0.185000,0.026000,-0.015000,FlatInitial,Hold,0
08:13:26.956 PM 02/16/2016,Teleop Enabled,0,FALSE,0,NO ERROR,9032.226562,-9046.289062,9000.000000,9000.000000,Speed,Speed,-0.400000,-0.300000,1.600000,4.000000,101.000000,1,0,-0.000000,0.000000,1,-0.012329,-0.253052,0.000000,48.858368,-3.494949,0.000000,-0.112000,-0.090000,-0.081000,FlatInitial,Hold,0
08:13:27.056 PM 02/16/2016,Teleop Enabled,0,FALSE,0,NO ERROR,9023.437500,-9047.460938,9000.000000,9000.000000,Speed,Speed,-0.390000,-0.310000,1.560000,4.000000,102.000000,1,0,-0.000000,0.000000,1,-0.046982,-0.246582,0.000000,48.856522,-3.507812,0.000000,-0.081000,0.194000,-0.012000,FlatInitial,Hold,0
08:13:27.156 PM 02/16/2016,Teleop Enabled,0,FALSE,0,NO ERROR,9015.820312,-9049.804688,9000.000000,9000.000000,Speed,Speed,-0.370000,-0.290000,1.510000,4.000000,103.000000,1,0,-0.000000,0.000000,1,-0.080856,-0.257614,0.000000,48.852737,-3.520004,0.000000,-0.044000,-0.152000,0.063000,FlatInitial,Hold,0
08:13:27.256 PM 02/16/2016,Teleop Enabled,0,FALSE,0,NO ERROR,9013.476562,-9047.460938,9000.000000,9000.000000,Speed,Speed,-0.410000,-0.330000,1.670000,4.000000,107.000000,1,0,-0.000000,0.000000,1,-0.104630,-0.261642,0.000000,48.847870,-3.533234,0.000000,-0.030000,0.063000,0.026000,FlatInitial,Hold,0
08:13:27.357 PM 02/16/2016,Teleop Enabled,0,FALSE,0,NO ERROR,9008.789062,-9046.875000,9000.000000,9000.000000,Speed,Speed,-0.440000,-0.280000,1.480000,4.000000,103.000000,1,0,0.181102,-0.181102,1,-0.075882,-0.248856,0.000000,48.842911,-3.545853,0.000000,0.146000,0.202000,-0.051000,FlatInitial,Hold,0
08:13:27.457 PM 02/16/2016,Teleop Enabled,0,FALSE,0,NO ERROR,9002.343750,-9034.570312,9000.000000,9000.000000,Speed,Speed,-1.330000,-0.190000,2.120000,4.000000,101.000000,1,0,0.181102,-0.181102,1,-0.047302,-0.202621,0.000000,48.840775,-3.556473,0.000000,-0.133000,-0.086000,-0.028000,FlatInitial,Hold,0
08:13:27.558 PM 02/16/2016,Teleop Enabled,0,FALSE,0,NO ERROR,8991.796875,-9008.789062,9000.000000,9000.000000,Speed,Speed,-2.730000,0.080000,1.930000,4.000000,101.000000,1,0,0.188976,-0.188976,1,0.037796,-0.283249,0.000000,48.839233,-3.567612,0.000000,0.146000,-0.041000,0.201000,FlatInitial,Hold,0
08:13:27.658 PM 02/16/2016,Teleop Enabled,0,FALSE,0,NO ERROR,8982.421875,-8990.039062,9000.000000,9000.000000,Speed,Speed,-4.870000,-0.150000,1.890000,4.000000,101.000000,1,0,-0.000000,0.000000,1,-0.014435,-0.264267,0.000000,48.841049,-3.582031,0.000000,-0.072000,0.181000,0.059000,FlatInitial,Hold,0
08:13:27.760 PM 02/16/2016,Teleop Enabled,0,FALSE,0,NO ERROR,8992.382812,-8986.523438,9000.000000,9000.000000,Speed,Speed,-4.350000,-0.480000,2.190000,4.000000,101.000000,1,0,-0.000000,0.000000,1,-0.119598,-0.237701,0.000000,48.836456,-3.593933,0.000000,0.065000,0.003000,0.010000,FlatInitial,Hold,0
08:13:27.860 PM 02/16/2016,Teleop Enabled,0,FALSE,0,NO ERROR,9018.164062,-8999.414062,9000.000000,9000.000000,Speed,Speed,-3.530000,-0.380000,1.920000,4.000000,104.000000,1,0,-0.000000,0.000000,1,-0.084137,-0.290955,0.000000,48.830399,-3.610107,0.000000,0.065000,0.003000,0.010000,FlatInitial,Hold,0
08:13:27.960 PM 02/16/2016,Teleop Enabled,0,FALSE,0,NO ERROR,9023.437500,-9018.164062,9000.000000,9000.000000,Speed,Speed,-3.270000,-0.470000,1.810000,4.000000,102.000000,1,0,-0.244094,0.244094,1,-0.098770,-0.281998,0.000000,48.826935,-3.624924,0.000000,0.032000,-0.025000,-0.066000,FlatInitial,Hold,0
08:13:28.060 PM 02/16/2016,Teleop Enabled,0,FALSE,0,NO ERROR,9009.960938,-9003.515625,9000.000000,9000.000000,Speed,Speed,-1.260000,-0.650000,1.630000,4.000000,102.000000,1,0,-0.000000,0.000000,1,-0.132629,-0.270264,0.000000,48.821732,-3.636032,0.000000,0.037000,0.038000,-0.086000,FlatInitial,Hold,0
08:13:28.161 PM 02/16/2016,Teleop Enabled,0,FALSE,0,NO ERROR,8994.726562,-8983.593750,9000.000000,9000.000000,Speed,Speed,1.070000,-0.470000,1.160000,4.000000,103.000000,1,0,-0.000000,0.000000,1,-0.049210,-0.257278,0.000000,48.817505,-3.651947,0.000000,0.037000,0.038000,-0.086000,FlatInitial,Hold,0
08:13:28.261 PM 02/16/2016,Teleop Enabled,0,FALSE,0,NO ERROR,9000.000000,-8995.312500,9000.000000,9000.000000,Speed,Speed,1.070000,-0.470000,1.160000,4.000000,101.000000,1,0,-0.000000,0.000000,1,0.053665,-0.279678,0.000000,48.817947,-3.665161,0.000000,0.119000,0.141000,-0.046000,FlatInitial,Hold,0
08:13:28.361 PM 02/16/2016,Teleop Enabled,0,FALSE,0,NO ERROR,9008.789062,-9019.335938,9000.000000,9000.000000,Speed,Speed,1.160000,-0.240000,1.240000,4.000000,102.000000,1,0,-0.000000,0.000000,1,0.052841,-0.202530,0.000000,48.820587,-3.677017,0.000000,0.219000,0.087000,0.076000,FlatInitial,Hold,0
08:13:28.461 PM 02/16/2016,Teleop Enabled,0,FALSE,0,NO ERROR,9019.921875,-9037.500000,9000.000000,9000.000000,Speed,Speed,0.940000,-0.270000,1.210000,4.000000,103.000000,1,0,-0.000000,0.000000,1,0.052841,-0.202530,0.000000,48.820587,-3.677017,0.000000,0.219000,0.087000,0.076000,FlatInitial,Hold,0
08:13:28.561 PM 02/16/2016,Teleop Enabled,0,FALSE,0,NO ERROR,9024.023438,-9033.398438,9000.000000,9000.000000,Speed,Speed,0.940000,-0.270000,1.210000,4.000000,104.000000,1,0,-0.000000,0.000000,1,0.081650,-0.148453,0.000000,48.824036,-3.685715,0.000000,0.018000,0.112000,-0.176000,FlatInitial,Hold,0
08:13:28.662 PM 02/16/2016,Teleop Enabled,0,FALSE,0,NO ERROR,9022.851562,-9024.023438,9000.000000,9000.000000,Speed,Speed,0.940000,-0.400000,1.290000,4.000000,101.000000,1,0,-0.000000,0.000000,1,0.126465,-0.077438,0.000000,48.829651,-3.692169,0.000000,0.010000,0.132000,-0.143000,FlatInitial,Hold,0
08:13:28.763 PM 02/16/2016,Teleop Enabled,0,FALSE,0,NO ERROR,9019.921875,-9012.890625,9000.000000,9000.000000,Speed,Speed,0.940000,-0.420000,1.240000,4.000000,102.000000,1,0,-0.000000,0.000000,1,0.150711,0.030930,0.000000,48.836929,-3.693130,0.000000,0.061000,0.017000,0.057000,FlatInitial,Hold,0
08:13:28.864 PM 02/16/2016,Teleop Enabled,0,FALSE,0,NO ERROR,9012.304688,-9011.132812,9000.000000,9000.000000,Speed,Speed,0.910000,-0.400000,1.280000,4.000000,101.000000,1,0,-0.000000,0.000000,1,0.163696,0.074921,0.000000,48.843353,-3.691010,0.000000,-0.023000,0.155000,-0.115000,FlatInitial,Hold,0
08:13:28.965 PM 02/16/2016,Teleop Enabled,0,FALSE,0,NO ERROR,9010.546875,-9014.648438,9000.000000,9000.000000,Speed,Speed,0.920000,-0.450000,1.230000,4.000000,101.000000,1,0,-0.000000,0.000000,1,0.223206,0.174072,0.000000,48.855148,-3.683121,0.000000,0.144000,-0.010000,0.215000,FlatInitial,Hold,0
08:13:29.066 PM 02/16/2016,Teleop Enabled,0,FALSE,0,NO ERROR,9009.960938,-9014.062500,9000.000000,9000.000000,Speed,Speed,0.940000,-0.420000,1.280000,4.000000,102.000000,1,0,-0.000000,0.000000,1,0.246017,0.241440,0.000000,48.866776,-3.672607,0.000000,0.063000,0.264000,-0.174000,FlatInitial,Hold,0
08:13:29.173 PM 02/16/2016,Teleop Enabled,0,FALSE,0,NO ERROR,9008.203125,-9015.234375,9000.000000,9000.000000,Speed,Speed,0.950000,-0.360000,1.290000,4.000000,103.000000,1,0,-0.000000,0.000000,1,0.297745,0.309158,0.000000,48.880890,-3.658173,0.000000,0.125000,-0.024000,0.139000,FlatInitial,Hold,0
08:13:29.274 PM 02/16/2016,Teleop Enabled,0,FALSE,0,NO ERROR,9007.031250,-9015.234375,9000.000000,9000.000000,Speed,Speed,0.930000,-0.420000,1.170000,4.000000,102.000000,1,0,-0.000000,0.000000,1,0.296844,0.350967,0.000000,48.895905,-3.641586,0.000000,-0.066000,0.142000,-0.159000,FlatInitial,Hold,0
08:13:29.375 PM 02/16/2016,Teleop Enabled,0,FALSE,0,NO ERROR,9007.617188,-9009.960938,9000.000000,9000.000000,Speed,Speed,0.930000,-0.470000,1.110000,4.000000,101.000000,1,0,-0.000000,0.000000,1,0.283585,0.389908,0.000000,48.910492,-3.622635,0.000000,0.251000,-0.070000,0.137000,FlatInitial,Hold,0
08:13:29.476 PM 02/16/2016,Teleop Enabled,0,FALSE,0,NO ERROR,9008.203125,-9008.203125,9000.000000,9000.000000,Speed,Speed,0.930000,-0.370000,1.150000,4.000000,102.000000,1,0,0.204724,-0.204724,1,0.335510,0.422333,0.000000,48.926620,-3.602417,0.000000,-0.100000,0.178000,0.010000,FlatInitial,Hold,0
08:13:29.576 PM 02/16/2016,Teleop Enabled,0,FALSE,0,NO ERROR,9001.757812,-9001.171875,9000.000000,9000.000000,Speed,Speed,0.920000,-0.400000,1.160000,4.000000,101.000000,1,0,0.204724,-0.204724,1,0.330048,0.476196,0.000000,48.943512,-3.579208,0.000000,0.035000,0.297000,-0.249000,FlatInitial,Hold,0
08:13:29.676 PM 02/16/2016,Teleop Enabled,0,FALSE,0,NO ERROR,8976.562500,-8980.078125,9000.000000,9000.000000,Speed,Speed,-0.610000,0.010000,1.230000,4.000000,103.000000,1,0,0.204724,-0.204724,1,0.412231,0.457977,0.000000,48.963196,-3.555191,0.000000,-0.168000,0.061000,-0.022000,FlatInitial,Hold,0
08:13:29.776 PM 02/16/2016,Teleop Enabled,0,FALSE,0,NO ERROR,8965.429688,-8968.359375,9000.000000,9000.000000,Speed,Speed,-3.590000,0.230000,1.530000,4.000000,102.000000,1,0,-0.000000,0.000000,1,0.431580,0.535858,0.000000,48.990036,-3.526062,0.000000,-0.085000,0.205000,-0.037000,FlatInitial,Hold,0
08:13:29.878 PM 02/16/2016,Teleop Enabled,0,FALSE,0,NO ERROR,8982.421875,-8987.695312,9000.000000,9000.000000,Speed,Speed,-6.340000,0.130000,2.200000,4.000000,103.000000,1,0,-0.000000,0.000000,1,0.374985,0.676437,0.000000,49.010651,-3.495239,0.000000,-0.093000,0.098000,-0.031000,FlatInitial,Hold,0
08:13:29.981 PM 02/16/2016,Teleop Enabled,0,FALSE,0,NO ERROR,9010.546875,-9022.265625,9000.000000,9000.000000,Speed,Speed,-7.040000,-0.150000,2.520000,4.000000,100.000000,1,0,-0.000000,0.000000,1,0.330154,0.758942,0.000000,49.024109,-3.465897,0.000000,0.144000,0.017000,-0.149000,FlatInitial,Hold,0
08:13:30.083 PM 02/16/2016,Teleop Enabled,0,FALSE,0,NO ERROR,9025.195312,-9053.320312,9000.000000,9000.000000,Speed,Speed,-6.070000,-0.530000,2.060000,4.000000,101.000000,1,0,-0.000000,0.000000,1,0.327301,0.811829,0.000000,49.042908,-3.418137,0.000000,0.169000,-0.102000,-0.045000,FlatInitial,Hold,0
08:13:30.183 PM 02/16/2016,Teleop Enabled,0,FALSE,0,NO ERROR,9025.195312,-9066.210938,9000.000000,9000.000000,Speed,Speed,-5.900000,-0.160000,2.020000,4.000000,101.000000,1,0,-0.000000,0.000000,1,0.416687,0.849701,0.000000,49.062943,-3.376648,0.000000,-0.199000,0.128000,0.074000,FlatInitial,Hold,0
08:13:30.284 PM 02/16/2016,Teleop Enabled,0,FALSE,0,NO ERROR,9023.437500,-9059.765625,9000.000000,9000.000000,Speed,Speed,-6.100000,-0.200000,2.070000,4.000000,101.000000,1,0,-0.000000,0.000000,1,0.383270,0.889435,0.000000,49.082550,-3.333023,0.000000,-0.017000,-0.064000,-0.033000,FlatInitial,Hold,0
08:13:30.388 PM 02/16/2016,Teleop Enabled,0,FALSE,0,NO ERROR,9016.992188,-9045.117188,9000.000000,9000.000000,Speed,Speed,-6.010000,-0.300000,2.130000,4.000000,102.000000,1,0,-0.000000,0.000000,1,0.331482,0.932556,0.000000,49.100067,-3.287201,0.000000,0.003000,-0.087000,0.099000,FlatInitial,Hold,0
08:13:30.488 PM 02/16/2016,Teleop Enabled,0,FALSE,0,NO ERROR,9011.718750,-9022.851562,9000.000000,9000.000000,Speed,Speed,-6.020000,-0.250000,2.130000,4.000000,101.000000,1,0,-0.000000,0.000000,1,0.301376,0.904694,0.000000,49.115524,-3.241364,0.000000,0.028000,-0.137000,-0.030000,FlatInitial,Hold,0
08:13:30.588 PM 02/16/2016,Teleop Enabled,0,FALSE,0,NO ERROR,9006.445312,-9007.031250,9000.000000,9000.000000,Speed,Speed,-6.020000,-0.290000,2.130000,4.000000,102.000000,1,0,-0.204724,0.204724,1,0.265747,0.854202,0.000000,49.129654,-3.197586,0.000000,-0.124000,-0.049000,-0.088000,FlatInitial,Hold,0
08:13:30.688 PM 02/16/2016,Teleop Enabled,0,FALSE,0,NO ERROR,8991.210938,-8973.046875,9000.000000,9000.000000,Speed,Speed,-5.550000,-0.600000,2.240000,4.000000,102.000000,1,0,-0.000000,0.000000,1,0.114380,0.823624,0.000000,49.138794,-3.155762,0.000000,-0.096000,-0.072000,0.147000,FlatInitial,Hold,0
08:13:30.789 PM 02/16/2016,Teleop Enabled,0,FALSE,0,NO ERROR,8980.664062,-8974.804688,9000.000000,9000.000000,Speed,Speed,-3.770000,-0.370000,1.950000,4.000000,104.000000,1,0,-0.000000,0.000000,1,0.148712,0.710831,0.000000,49.145050,-3.117706,0.000000,-0.097000,-0.069000,0.110000,FlatInitial,Hold,0
08:13:30.890 PM 02/16/2016,Teleop Enabled,0,FALSE,0,NO ERROR,8985.351562,-8990.039062,9000.000000,9000.000000,Speed,Speed,-3.390000,-0.350000,1.590000,4.000000,102.000000,1,0,-0.000000,0.000000,1,0.139160,0.623291,0.000000,49.152039,-3.085251,0.000000,0.059000,-0.113000,0.129000,FlatInitial,Hold,0
08:13:30.991 PM 02/16/2016,Teleop Enabled,0,FALSE,0,NO ERROR,8998.242188,-9004.687500,9000.000000,9000.000000,Speed,Speed,-3.820000,-0.230000,1.790000,4.000000,101.000000,1,0,-0.000000,0.000000,1,0.101776,0.629425,0.000000,49.157974,-3.054382,0.000000,-0.040000,-0.171000,-0.076000,FlatInitial,Hold,0
08:13:31.091 PM 02/16/2016,Teleop Enabled,0,FALSE,0,NO ERROR,9007.617188,-9015.234375,9000.000000,9000.000000,Speed,Speed,-3.840000,-0.350000,1.900000,4.000000,101.000000,1,0,-0.000000,0.000000,1,0.049332,0.625076,0.000000,49.161621,-3.016937,0.000000,-0.136000,0.090000,-0.026000,FlatInitial,Hold,0
08:13:31.192 PM 02/16/2016,Teleop Enabled,0,FALSE,0,NO ERROR,9012.890625,-9025.781250,9000.000000,9000.000000,Speed,Speed,-3.840000,-0.330000,1.830000,4.000000,103.000000,1,0,-0.000000,0.000000,1,0.005127,0.586365,0.000000,49.162292,-2.986847,0.000000,0.050000,-0.116000,-0.123000,FlatInitial,Hold,0
08:13:31.293 PM 02/16/2016,Teleop Enabled,0,FALSE,0,NO ERROR,9012.890625,-9025.781250,9000.000000,9000.000000,Speed,Speed,-3.870000,-0.310000,1.840000,4.000000,104.000000,1,0,-0.000000,0.000000,1,0.004959,0.534821,0.000000,49.162445,-2.959045,0.000000,-0.078000,0.041000,-0.034000,FlatInitial,Hold,0
08:13:31.395 PM 02/16/2016,Teleop Enabled,0,FALSE,0,NO ERROR,9012.890625,-9017.578125,9000.000000,9000.000000,Speed,Speed,-3.850000,-0.310000,1.890000,4.000000,103.000000,1,0,-0.000000,0.000000,1,0.000000,0.504791,0.000000,49.162216,-2.933258,0.000000,0.015000,-0.156000,-0.094000,FlatInitial,Hold,0
08:13:31.496 PM 02/16/2016,Teleop Enabled,0,FALSE,0,NO ERROR,9014.062500,-9015.234375,9000.000000,9000.000000,Speed,Speed,-3.860000,-0.250000,1.890000,4.000000,101.000000,1,0,-0.000000,0.000000,1,-0.004944,0.458710,0.000000,49.162125,-2.909485,0.000000,-0.176000,-0.097000,-0.066000,FlatInitial,Hold,0
08:13:31.596 PM 02/16/2016,Teleop Enabled,0,FALSE,0,NO ERROR,9010.546875,-9014.648438,9000.000000,9000.000000,Speed,Speed,-3.860000,-0.290000,1.770000,4.000000,101.000000,1,0,-0.000000,0.000000,1,-0.058563,0.399338,0.000000,49.159943,-2.888596,0.000000,-0.028000,-0.065000,-0.056000,FlatInitial,Hold,0
08:13:31.697 PM 02/16/2016,Teleop Enabled,0,FALSE,0,NO ERROR,9005.859375,-9009.375000,9000.000000,9000.000000,Speed,Speed,-3.850000,-0.360000,1.770000,4.000000,103.000000,1,0,-0.000000,0.000000,1,-0.082672,0.334564,0.000000,49.156372,-2.870590,0.000000,0.008000,-0.012000,-0.048000,FlatInitial,Hold,0
08:13:31.797 PM 02/16/2016,Teleop Enabled,0,FALSE,0,NO ERROR,9005.273438,-9007.031250,9000.000000,9000.000000,Speed,Speed,-3.850000,-0.330000,1.840000,4.000000,103.000000,1,0,-0.000000,0.000000,1,-0.144333,0.250565,0.000000,49.148895,-2.853287,0.000000,0.039000,-0.001000,-0.090000,FlatInitial,Hold,0
08:13:31.898 PM 02/16/2016,Teleop Enabled,0,FALSE,0,NO ERROR,9000.585938,-9007.617188,9000.000000,9000.000000,Speed,Speed,-3.850000,-0.370000,1.810000,4.000000,102.000000,1,0,-0.000000,0.000000,1,-0.146927,0.204895,0.000000,49.142853,-2.844437,0.000000,0.082000,0.018000,0.059000,FlatInitial,Hold,0
08:13:31.999 PM 02/16/2016,Teleop Enabled,0,FALSE,0,NO ERROR,8993.554688,-9011.132812,9000.000000,9000.000000,Speed,Speed,-3.850000,-0.370000,1.820000,4.000000,102.000000,1,0,-0.000000,0.000000,1,-0.095657,0.186798,0.000000,49.136856,-2.835144,0.000000,0.018000,-0.070000,0.033000,FlatInitial,Hold,0
08:13:32.099 PM 02/16/2016,Teleop Enabled,0,FALSE,0,NO ERROR,8988.867188,-9007.617188,9000.000000,9000.000000,Speed,Speed,-3.850000,-0.370000,1.740000,4.000000,101.000000,1,0,-0.000000,0.000000,1,-0.101578,0.145233,0.000000,49.131729,-2.827423,0.000000,0.065000,0.069000,0.064000,FlatInitial,Hold,0
08:13:32.200 PM 02/16/2016,Teleop Enabled,0,FALSE,0,NO ERROR,8991.210938,-9007.031250,9000.000000,9000.000000,Speed,Speed,-3.840000,-0.390000,1.770000,4.000000,100.000000,1,0,-0.000000,0.000000,1,-0.095840,0.132065,0.000000,49.125839,-2.819489,0.000000,0.074000,0.073000,0.001000,FlatInitial,Hold,0
08:13:32.301 PM 02/16/2016,Teleop Enabled,0,FALSE,0,NO ERROR,8993.554688,-9007.031250,9000.000000,9000.000000,Speed,Speed,-3.850000,-0.400000,1.710000,4.000000,101.000000,1,0,-0.000000,0.000000,1,0.000000,0.123154,0.000000,49.122345,-2.813370,0.000000,0.007000,-0.059000,-0.184000,FlatInitial,Hold,0
08:13:32.400 PM 02/16/2016,Teleop Enabled,0,FALSE,0,NO ERROR,8997.070312,-9009.375000,9000.000000,9000.000000,Speed,Speed,-3.840000,-0.410000,1.730000,6.000000,102.000000,1,0,-0.000000,0.000000,1,0.016388,0.118179,0.000000,49.122574,-2.808701,0.000000,0.087000,0.144000,-0.025000,FlatInitial,Hold,0
08:13:32.500 PM 02/16/2016,Teleop Enabled,0,FALSE,0,NO ERROR,8871.679688,-8876.367188,9000.000000,9000.000000,Speed,Speed,-3.850000,-0.430000,1.500000,6.000000,102.000000,1,0,-0.000000,0.000000,1,0.043701,0.045914,0.000000,49.124115,-2.803848,0.000000,0.045000,0.073000,-0.133000,FlatInitial,Hold,0
08:13:32.601 PM 02/16/2016,Teleop Enabled,0,FALSE,0,NO ERROR,7259.765625,-6723.632812,9000.000000,9000.000000,Speed,Speed,-3.850000,-0.460000,1.730000,6.000000,102.000000,1,0,-0.000000,0.000000,1,0.060089,0.104782,0.000000,49.127747,-2.798126,0.000000,-0.058000,0.017000,-0.044000,FlatInitial,Hold,0
08:13:32.701 PM 02/16/2016,Teleop Enabled,0,FALSE,0,NO ERROR,7572.656250,-7416.796875,9000.000000,9000.000000,Speed,Speed,-3.870000,-0.450000,1.590000,6.000000,102.000000,1,0,-0.000000,0.000000,1,0.070480,0.069580,0.000000,49.130981,-2.793289,0.000000,-0.044000,-0.115000,-0.071000,FlatInitial,Hold,0
08:13:32.801 PM 02/16/2016,Teleop Enabled,0,FALSE,0,NO ERROR,8581.054688,-8216.015625,9000.000000,9000.000000,Speed,Speed,-3.870000,-0.490000,1.510000,6.000000,101.000000,1,0,-0.000000,0.000000,1,0.091263,0.117020,0.000000,49.134720,-2.788437,0.000000,-0.042000,0.273000,0.224000,FlatInitial,Hold,0
08:13:32.901 PM 02/16/2016,Teleop Enabled,0,FALSE,0,NO ERROR,9089.648438,-8852.343750,9000.000000,9000.000000,Speed,Speed,-3.830000,-0.470000,1.610000,6.000000,103.000000,1,0,-0.000000,0.000000,1,0.140350,0.144592,0.000000,49.141006,-2.781204,0.000000,-0.029000,-0.030000,-0.066000,FlatInitial,Hold,0
08:13:33.001 PM 02/16/2016,Teleop Enabled,0,FALSE,0,NO ERROR,9266.015625,-9073.242188,9000.000000,9000.000000,Speed,Speed,-3.850000,-0.460000,1.600000,6.000000,103.000000,1,0,-0.000000,0.000000,1,0.129791,0.095993,0.000000,49.147827,-2.775711,0.000000,0.153000,-0.007000,-0.038000,FlatInitial,Hold,0
08:13:33.102 PM 02/16/2016,Teleop Enabled,0,FALSE,0,NO ERROR,9283.593750,-9127.734375,9000.000000,9000.000000,Speed,Speed,-3.890000,-0.440000,1.700000,6.000000,102.000000,1,0,-0.000000,0.000000,1,0.185013,0.194153,0.000000,49.156372,-2.767456,0.000000,-0.051000,-0.038000,0.088000,FlatInitial,Hold,0
08:13:33.203 PM 02/16/2016,Teleop Enabled,0,FALSE,0,NO ERROR,9226.171875,-9107.812500,9000.000000,9000.000000,Speed,Speed,-3.850000,-0.500000,1.560000,6.000000,102.000000,1,0,-0.000000,0.000000,1,0.133621,0.093521,0.000000,49.164673,-2.760147,0.000000,-0.064000,-0.024000,0.072000,FlatInitial,Hold,0
08:13:33.304 PM 02/16/2016,Teleop Enabled,0,FALSE,0,NO ERROR,9166.992188,-9064.453125,9000.000000,9000.000000,Speed,Speed,-3.860000,-0.490000,1.490000,6.000000,102.000000,1,0,-0.000000,0.000000,1,0.113770,0.091614,0.000000,49.170731,-2.755508,0.000000,0.045000,0.238000,0.147000,FlatInitial,Hold,0
08:13:33.405 PM 02/16/2016,Teleop Enabled,0,FALSE,0,NO ERROR,9099.609375,-9039.257812,9000.000000,9000.000000,Speed,Speed,-3.850000,-0.540000,1.410000,6.000000,101.000000,1,0,-0.000000,0.000000,1,0.097687,0.129547,0.000000,49.176285,-2.750000,0.000000,0.020000,-0.159000,0.118000,FlatInitial,Hold,0
08:13:33.505 PM 02/16/2016,Teleop Enabled,0,FALSE,0,NO ERROR,9052.734375,-9029.296875,9000.000000,9000.000000,Speed,Speed,-3.850000,-0.540000,1.450000,6.000000,101.000000,1,0,-0.000000,0.000000,1,0.096970,0.199249,0.000000,49.181198,-2.741318,0.000000,0.062000,0.249000,0.068000,FlatInitial,Hold,0
08:13:33.607 PM 02/16/2016,Teleop Enabled,0,FALSE,0,NO ERROR,9023.437500,-9023.437500,9000.000000,9000.000000,Speed,Speed,-3.850000,-0.580000,1.450000,6.000000,101.000000,1,0,-0.000000,0.000000,1,0.121902,0.261032,0.000000,49.187531,-2.726959,0.000000,0.081000,-0.175000,-0.003000,FlatInitial,Hold,0
08:13:33.707 PM 02/16/2016,Teleop Enabled,0,FALSE,0,NO ERROR,9011.718750,-9015.234375,9000.000000,9000.000000,Speed,Speed,-3.850000,-0.510000,1.500000,7.000000,101.000000,1,0,-0.000000,0.000000,1,0.129333,0.299164,0.000000,49.194443,-2.712753,0.000000,0.032000,0.165000,0.095000,FlatInitial,Hold,0
08:13:33.808 PM 02/16/2016,Teleop Enabled,0,FALSE,0,NO ERROR,9007.617188,-9010.546875,9000.000000,9000.000000,Speed,Speed,-3.850000,-0.480000,1.540000,7.000000,102.000000,1,0,-0.000000,0.000000,1,0.003830,0.287964,0.000000,49.198898,-2.697266,0.000000,0.029000,-0.255000,0.114000,FlatInitial,Hold,0
08:13:33.908 PM 02/16/2016,Teleop Enabled,0,FALSE,0,NO ERROR,9008.203125,-9007.031250,9000.000000,9000.000000,Speed,Speed,-3.850000,-0.540000,1.500000,7.000000,102.000000,1,0,-0.000000,0.000000,1,0.045197,0.323837,0.000000,49.200775,-2.681900,0.000000,0.058000,0.213000,0.046000,FlatInitial,Hold,0
08:13:34.010 PM 02/16/2016,Teleop Enabled,0,FALSE,0,NO ERROR,9007.031250,-9007.617188,9000.000000,9000.000000,Speed,Speed,-3.840000,-0.570000,1.490000,7.000000,104.000000,1,0,-0.000000,0.000000,1,0.075745,0.329926,0.000000,49.204041,-2.665146,0.000000,-0.008000,-0.219000,-0.034000,FlatInitial,Hold,0
08:13:34.110 PM 02/16/2016,Teleop Enabled,0,FALSE,0,NO ERROR,9007.031250,-9010.546875,9000.000000,9000.000000,Speed,Speed,-3.840000,-0.540000,1.460000,7.000000,100.000000,1,0,-0.000000,0.000000,1,0.094788,0.310669,0.000000,49.208969,-2.649033,0.000000,-0.021000,0.094000,0.002000,FlatInitial,Hold,0
08:13:34.210 PM 02/16/2016,Teleop Enabled,0,FALSE,0,NO ERROR,9008.789062,-9005.273438,9000.000000,9000.000000,Speed,Speed,-3.840000,-0.520000,1.480000,7.000000,102.000000,1,0,-0.000000,0.000000,1,0.151566,0.334518,0.000000,49.215195,-2.632751,0.000000,0.107000,0.110000,0.019000,FlatInitial,Hold,0
08:13:34.310 PM 02/16/2016,Teleop Enabled,0,FALSE,0,NO ERROR,9007.617188,-9001.171875,9000.000000,9000.000000,Speed,Speed,-3.850000,-0.480000,1.470000,7.000000,101.000000,1,0,-0.000000,0.000000,1,0.176773,0.308609,0.000000,49.224045,-2.616837,0.000000,-0.055000,-0.176000,0.061000,FlatInitial,Hold,0
08:13:34.410 PM 02/16/2016,Teleop Enabled,0,FALSE,0,NO ERROR,9004.687500,-9001.757812,9000.000000,9000.000000,Speed,Speed,-3.840000,-0.460000,1.560000,7.000000,102.000000,1,0,-0.000000,0.000000,1,0.183929,0.314240,0.000000,49.232986,-2.601471,0.000000,0.017000,0.122000,0.087000,FlatInitial,Hold,0
08:13:34.510 PM 02/16/2016,Teleop Enabled,0,FALSE,0,NO ERROR,8999.414062,-9002.929688,9000.000000,9000.000000,Speed,Speed,-3.850000,-0.460000,1.600000,7.000000,102.000000,1,0,-0.000000,0.000000,1,0.221848,0.285004,0.000000,49.245438,-2.583710,0.000000,-0.025000,-0.136000,0.049000,FlatInitial,Hold,0
08:13:34.610 PM 02/16/2016,Teleop Enabled,0,FALSE,0,NO ERROR,8995.312500,-9004.687500,9000.000000,9000.000000,Speed,Speed,-3.850000,-0.410000,1.670000,7.000000,102.000000,1,0,-0.000000,0.000000,1,0.266083,0.299774,0.000000,49.258102,-2.568954,0.000000,-0.058000,0.098000,0.045000,FlatInitial,Hold,0
08:13:34.710 PM 02/16/2016,Teleop Enabled,0,FALSE,0,NO ERROR,8992.382812,-9003.515625,9000.000000,9000.000000,Speed,Speed,-3.850000,-0.400000,1.700000,7.000000,101.000000,1,0,-0.000000,0.000000,1,0.291550,0.317886,0.000000,49.269073,-2.556473,0.000000,-0.010000,-0.214000,-0.002000,FlatInitial,Hold,0
08:13:34.810 PM 02/16/2016,Teleop Enabled,0,FALSE,0,NO ERROR,8995.312500,-9005.859375,9000.000000,9000.000000,Speed,Speed,-3.850000,-0.400000,1.720000,7.000000,102.000000,1,0,-0.000000,0.000000,1,0.056747,0.299286,0.000000,49.270950,-2.538101,0.000000,0.000000,0.100000,0.054000,FlatInitial,Hold,0
08:13:34.912 PM 02/16/2016,Teleop Enabled,0,FALSE,0,NO ERROR,9001.171875,-9006.445312,0.000000,0.000000,Speed,Speed,-3.850000,-0.380000,1.750000,0.000000,100.000000,1,0,-0.000000,0.000000,1,0.106827,0.311218,0.000000,49.275162,-2.523178,0.000000,0.028000,-0.161000,-0.139000,FlatInitial,Hold,0
08:13:35.012 PM 02/16/2016,Teleop Enabled,0,FALSE,0,NO ERROR,8949.609375,-8948.437500,0.000000,0.000000,Speed,Speed,-3.850000,-0.370000,1.790000,0.000000,104.000000,1,0,-0.000000,0.000000,1,0.142090,0.291840,0.000000,49.281830,-2.507996,0.000000,-0.038000,0.176000,-0.127000,FlatInitial,Hold,0
08:13:35.112 PM 02/16/2016,Teleop Enabled,0,FALSE,0,NO ERROR,8585.156250,-8504.296875,0.000000,0.000000,Speed,Speed,-3.850000,-0.380000,1.800000,0.000000,101.000000,1,0,-0.000000,0.000000,1,0.126175,0.269501,0.000000,49.288376,-2.494080,0.000000,-0.069000,0.188000,-0.136000,FlatInitial,Hold,0
08:13:35.214 PM 02/16/2016,Teleop Enabled,0,FALSE,0,NO ERROR,8225.976562,-7876.757812,0.000000,0.000000,Speed,Speed,-3.850000,-0.350000,1.920000,0.000000,102.000000,1,0,-0.000000,0.000000,1,0.108688,0.262726,0.000000,49.294327,-2.480499,0.000000,-0.204000,-0.094000,-0.193000,FlatInitial,Hold,0
08:13:35.314 PM 02/16/2016,Teleop Enabled,0,FALSE,0,NO ERROR,7784.179687,-7232.226562,0.000000,0.000000,Speed,Speed,-3.860000,-0.370000,2.030000,0.000000,103.000000,1,0,-0.000000,0.000000,1,0.077820,0.261734,0.000000,49.298615,-2.466110,0.000000,-0.043000,0.106000,-0.139000,FlatInitial,Hold,0
08:13:35.416 PM 02/16/2016,Teleop Enabled,0,FALSE,0,NO ERROR,7352.929687,-6568.945312,0.000000,0.000000,Speed,Speed,-3.850000,-0.420000,2.110000,0.000000,102.000000,1,0,-0.000000,0.000000,1,0.062881,0.285858,0.000000,49.302246,-2.452377,0.000000,0.185000,0.102000,-0.162000,FlatInitial,Hold,0
08:13:35.517 PM 02/16/2016,Teleop Enabled,0,FALSE,0,NO ERROR,6924.023438,-6042.187500,0.000000,0.000000,Speed,Speed,-3.860000,-0.330000,2.010000,0.000000,100.000000,1,0,-0.000000,0.000000,1,0.077057,0.244720,0.000000,49.306671,-2.438446,0.000000,-0.076000,-0.057000,-0.086000,FlatInitial,Hold,0
08:13:35.618 PM 02/16/2016,Teleop Enabled,0,FALSE,0,NO ERROR,6502.734375,-5395.898438,0.000000,0.000000,Speed,Speed,-3.860000,-0.280000,1.960000,0.000000,102.000000,1,0,-0.000000,0.000000,1,0.106979,0.239746,0.000000,49.310760,-2.426865,0.000000,-0.017000,0.015000,0.124000,FlatInitial,Hold,0
08:13:35.718 PM 02/16/2016,Teleop Enabled,0,FALSE,0,NO ERROR,6089.648438,-4762.646484,0.000000,0.000000,Speed,Speed,-3.860000,-0.290000,1.870000,0.000000,102.000000,1,0,-0.000000,0.000000,1,0.137512,0.309341,0.000000,49.316940,-2.413010,0.000000,0.042000,0.063000,0.085000,FlatInitial,Hold,0
08:13:35.818 PM 02/16/2016,Teleop Enabled,0,FALSE,0,NO ERROR,5766.796875,-4146.826172,0.000000,0.000000,Speed,Speed,-3.860000,-0.320000,1.930000,0.000000,100.000000,1,0,-0.000000,0.000000,1,0.180679,0.343811,0.000000,49.326843,-2.392853,0.000000,0.013000,-0.058000,0.039000,FlatInitial,Hold,0
08:13:35.918 PM 02/16/2016,Teleop Enabled,0,FALSE,0,NO ERROR,5373.046875,-3548.144531,0.000000,0.000000,Speed,Speed,-3.860000,-0.280000,1.980000,0.000000,103.000000,1,0,-0.000000,0.000000,1,-0.013672,0.350052,0.000000,49.328491,-2.375458,0.000000,0.054000,-0.019000,-0.103000,FlatInitial,Hold,0
08:13:36.020 PM 02/16/2016,Teleop Enabled,0,FALSE,0,NO ERROR,4989.257812,-2962.646484,0.000000,0.000000,Speed,Speed,-3.860000,-0.310000,1.890000,0.000000,101.000000,1,0,-0.000000,0.000000,1,-0.001480,0.329575,0.000000,49.328781,-2.358398,0.000000,0.037000,0.023000,-0.021000,FlatInitial,Hold,0
08:13:36.120 PM 02/16/2016,Teleop Enabled,0,FALSE,0,NO ERROR,4614.257812,-2512.500000,0.000000,0.000000,Speed,Speed,-3.860000,-0.300000,1.940000,0.000000,102.000000,1,0,-0.000000,0.000000,1,0.006607,0.351532,0.000000,49.329132,-2.341537,0.000000,0.035000,0.006000,0.147000,FlatInitial,Hold,0
08:13:36.221 PM 02/16/2016,Teleop Enabled,0,FALSE,0,NO ERROR,4250.830078,-1975.048828,0.000000,0.000000,Speed,Speed,-3.860000,-0.300000,1.980000,0.000000,100.000000,1,0,-0.000000,0.000000,1,-0.001450,0.000000,0.000000,49.329453,-2.341858,0.000000,0.012000,0.007000,0.006000,FlatInitial,Hold,0
08:13:36.321 PM 02/16/2016,Teleop Enabled,0,FALSE,0,NO ERROR,3898.828125,-1465.576172,0.000000,0.000000,Speed,Speed,-3.870000,-0.390000,1.920000,0.000000,104.000000,1,0,-0.000000,0.000000,1,-0.022491,-0.001266,0.000000,49.328995,-2.341858,0.000000,0.009000,0.084000,0.128000,FlatInitial,Hold,0
08:13:36.421 PM 02/16/2016,Teleop Enabled,0,FALSE,0,NO ERROR,3556.201172,-997.851562,0.000000,0.000000,Speed,Speed,-3.870000,-0.370000,1.880000,0.000000,103.000000,1,0,-0.000000,0.000000,1,-0.022247,-0.012268,0.000000,49.328247,-2.342010,0.000000,-0.012000,0.020000,0.021000,FlatInitial,Hold,0
08:13:36.522 PM 02/16/2016,Teleop Enabled,0,FALSE,0,NO ERROR,3286.816406,-559.716797,0.000000,0.000000,Speed,Speed,-3.870000,-0.370000,1.850000,0.000000,101.000000,1,0,-0.000000,0.000000,1,-0.022217,-0.018112,0.000000,49.327438,-2.342453,0.000000,0.004000,-0.016000,0.101000,FlatInitial,Hold,0
08:13:36.623 PM 02/16/2016,Teleop Enabled,0,FALSE,0,NO ERROR,2963.378906,-192.333984,0.000000,0.000000,Speed,Speed,-3.870000,-0.380000,1.850000,0.000000,101.000000,1,0,-0.000000,0.000000,1,-0.002060,0.002899,0.000000,49.327408,-2.342758,0.000000,0.017000,0.031000,0.024000,FlatInitial,Hold,0
08:13:36.723 PM 02/16/2016,Teleop Enabled,0,FALSE,0,NO ERROR,2652.978516,-26.367188,0.000000,0.000000,Speed,Speed,-3.870000,-0.390000,1.850000,0.000000,102.000000,1,0,-0.000000,0.000000,1,-0.002274,0.023087,0.000000,49.327469,-2.341888,0.000000,-0.025000,0.041000,0.063000,FlatInitial,Hold,0
08:13:36.823 PM 02/16/2016,Teleop Enabled,0,FALSE,0,NO ERROR,2350.781250,0.146484,0.000000,0.000000,Speed,Speed,-3.870000,-0.390000,1.860000,0.000000,101.000000,1,0,-0.000000,0.000000,1,0.008286,0.016144,0.000000,49.327591,-2.340851,0.000000,0.013000,0.008000,0.015000,FlatInitial,Hold,0
08:13:36.924 PM 02/16/2016,Teleop Enabled,0,FALSE,0,NO ERROR,2065.429688,0.000000,0.000000,0.000000,Speed,Speed,-3.870000,-0.420000,1.880000,0.000000,102.000000,1,0,-0.000000,0.000000,1,0.017334,0.021561,0.000000,49.328201,-2.339676,0.000000,0.002000,-0.016000,0.129000,FlatInitial,Hold,0
08:13:37.025 PM 02/16/2016,Teleop Enabled,0,FALSE,0,NO ERROR,1790.625000,0.000000,0.000000,0.000000,Speed,Speed,-3.860000,-0.370000,1.850000,0.000000,102.000000,1,0,-0.000000,0.000000,1,0.017761,-0.005035,0.000000,49.329285,-2.339294,0.000000,0.009000,-0.022000,0.079000,FlatInitial,Hold,0
08:13:37.125 PM 02/16/2016,Teleop Enabled,0,FALSE,0,NO ERROR,1532.958984,0.000000,0.000000,0.000000,Speed,Speed,-3.870000,-0.380000,1.860000,0.000000,101.000000,1,0,-0.000000,0.000000,1,0.000000,-0.010101,0.000000,49.330215,-2.339722,0.000000,-0.009000,-0.008000,0.023000,FlatInitial,Hold,0
