Time,RobotMode,AutoToRun,ErrorStatus, ErrorCode,ErrorSource,ActualRPM1,ActualRPM2,DesiredRPM1,DesiredRPM2,ControlMode1,ControlMode2,NavXYaw,NavXRoll,NavXPitch,ShooterState,LoopTime,IsLevel,IsAutoTargeting,LeftMotorOutput,RightMotorOutput,IsHaloDrive,NavXVelocityX,NavXVelocityY,NavXVelocityZ,NavXDisplacementX,NavXDisplacementY,NavXDisplacementZ,NavXAccelerationX,NavXAccelerationY,NavXAccelerationZ,AutoDefendState,AngeMotorState,Photoeye
08:58:42.397 PM 02/16/2016,Teleop Enabled,0,TRUE,91,Variant To Data in WPI_DigitalInputRefNum Registry Get.vi->Periodic Tasks.vi->Robot Main.vi,0.000000,0.000000,-6000.000000,-6000.000000,Speed,Speed,110.110000,1.070000,1.720000,1.000000,103.000000,1,0,-0.000000,0.000000,1,0.000000,0.000000,0.000000,0.021545,0.163177,0.000000,-0.001000,0.001000,0.007000,FlatInitial,ResetBack,0
08:58:42.497 PM 02/16/2016,Teleop Enabled,0,TRUE,-44007,<LOCATION>WPI_DigitalInputRefNum Registry Get.vi<CALLSTACK>WPI_DigitalInputRefNum Registry Get.vi< <Periodic Tasks.vi< <Robot Main.vi,-341.162109,343.359375,-6000.000000,-6000.000000,Speed,Speed,110.120000,1.070000,1.750000,1.000000,102.000000,1,0,-0.000000,0.000000,1,-0.003571,0.000000,0.000000,0.021500,0.163177,0.000000,-0.032000,-0.018000,-0.001000,FlatInitial,ResetBack,0
08:58:42.599 PM 02/16/2016,Teleop Enabled,0,TRUE,-44003,<LOCATION>WPI_CameraIssue HTTP Request with Authentication.vi<CALLSTACK>WPI_CameraIssue HTTP Request with Authentication.vi< <WPI_CameraIssue Get.vi< <WPI_CameraSet Image Appearance Property.vi< <WPI_CameraSet Image Size.vi< <Vision Processing.vi< <Robot Main.vi,-2162.548828,2061.767578,-6000.000000,-6000.000000,Speed,Speed,110.120000,1.090000,1.670000,1.000000,101.000000,1,0,-0.000000,0.000000,1,-0.013138,-0.012558,0.000000,0.020996,0.162994,0.000000,-0.037000,-0.010000,-0.012000,FlatInitial,ResetBack,0
08:58:42.699 PM 02/16/2016,Teleop Enabled,0,FALSE,0,NO ERROR,-3932.812500,3704.736328,-6000.000000,-6000.000000,Speed,Speed,110.100000,1.100000,1.800000,1.000000,101.000000,1,0,-0.000000,0.000000,1,-0.009308,0.000000,0.000000,0.020279,0.162186,0.000000,0.001000,-0.003000,0.106000,FlatInitial,ResetBack,0
08:58:42.799 PM 02/16/2016,Teleop Enabled,0,FALSE,0,NO ERROR,-5252.343750,5030.859375,-6000.000000,-6000.000000,Speed,Speed,110.110000,1.120000,1.760000,1.000000,101.000000,1,0,-0.000000,0.000000,1,-0.005386,0.000000,0.000000,0.019928,0.162384,0.000000,0.024000,0.000000,0.061000,FlatInitial,ResetBack,1
08:58:42.900 PM 02/16/2016,Teleop Enabled,0,FALSE,0,NO ERROR,-5806.640625,5785.546875,-6000.000000,-6000.000000,Speed,Speed,110.120000,1.110000,1.880000,1.000000,101.000000,1,0,-0.000000,0.000000,1,-0.018188,-0.021332,0.000000,0.019547,0.162140,0.000000,-0.008000,-0.051000,-0.086000,FlatInitial,ResetForward,1
08:58:43.001 PM 02/16/2016,Teleop Enabled,0,FALSE,0,NO ERROR,-6042.187500,5966.015625,-6000.000000,-6000.000000,Speed,Speed,110.090000,1.010000,1.720000,1.000000,101.000000,1,0,-0.000000,0.000000,1,-0.062729,-0.118332,0.000000,0.017715,0.158585,0.000000,-0.122000,-0.163000,-0.012000,FlatInitial,ResetForward,1
08:58:43.101 PM 02/16/2016,Teleop Enabled,0,FALSE,0,NO ERROR,-6091.992188,5991.796875,-6000.000000,-6000.000000,Speed,Speed,110.070000,0.930000,1.810000,1.000000,102.000000,1,0,-0.000000,0.000000,1,-0.133789,-0.262894,0.000000,0.012299,0.148407,0.000000,-0.071000,-0.193000,-0.028000,FlatInitial,ResetForward,1
08:58:43.203 PM 02/16/2016,Teleop Enabled,0,FALSE,0,NO ERROR,-6083.203125,5964.257812,-6000.000000,-6000.000000,Speed,Speed,110.070000,0.960000,1.830000,1.000000,101.000000,1,0,-0.000000,0.000000,1,-0.199982,-0.438431,0.000000,0.001892,0.125946,0.000000,-0.029000,-0.081000,-0.023000,FlatInitial,ResetForward,1
08:58:43.304 PM 02/16/2016,Teleop Enabled,0,FALSE,0,NO ERROR,-6056.250000,5950.195312,-6000.000000,-6000.000000,Speed,Speed,110.030000,0.990000,1.760000,1.000000,104.000000,1,0,-0.000000,0.000000,1,-0.219421,-0.507614,0.000000,-0.008575,0.101715,0.000000,-0.044000,-0.025000,-0.031000,FlatInitial,ResetForward,1
08:58:43.405 PM 02/16/2016,Teleop Enabled,0,FALSE,0,NO ERROR,-6038.085938,5960.742188,-6000.000000,-6000.000000,Speed,Speed,110.060000,0.980000,1.740000,1.000000,103.000000,1,0,-0.000000,0.000000,1,-0.294006,-0.519989,0.000000,-0.021606,0.075806,0.000000,-0.074000,0.012000,0.040000,FlatInitial,ResetForward,0
08:58:43.505 PM 02/16/2016,Teleop Enabled,0,FALSE,0,NO ERROR,-6030.468750,5979.492188,-6000.000000,-6000.000000,Speed,Speed,110.110000,0.970000,1.380000,1.000000,104.000000,1,0,-0.000000,0.000000,1,-0.324646,-0.003891,0.000000,-0.037567,0.075760,0.000000,-0.033000,0.006000,-0.014000,FlatInitial,Reset,0
08:58:43.606 PM 02/16/2016,Teleop Enabled,0,FALSE,0,NO ERROR,-6023.437500,5991.210938,-6000.000000,-6000.000000,Speed,Speed,110.080000,1.050000,1.540000,1.000000,105.000000,1,0,-0.000000,0.000000,1,0.005264,0.000000,0.000000,-0.047455,0.075623,0.000000,0.067000,0.052000,0.033000,FlatInitial,Hold,0
08:58:43.706 PM 02/16/2016,Teleop Enabled,0,FALSE,0,NO ERROR,-6012.890625,5991.210938,-6000.000000,-6000.000000,Speed,Speed,110.110000,1.100000,1.540000,1.000000,101.000000,1,0,-0.000000,0.000000,1,0.056747,-0.002914,0.000000,-0.045441,0.075775,0.000000,0.026000,0.003000,-0.028000,FlatInitial,Hold,0
08:58:43.808 PM 02/16/2016,Teleop Enabled,0,FALSE,0,NO ERROR,-6010.546875,5994.726562,-6000.000000,-6000.000000,Speed,Speed,110.080000,1.140000,1.820000,1.000000,102.000000,1,0,-0.000000,0.000000,1,0.016815,0.005554,0.000000,-0.043228,0.075638,0.000000,0.059000,-0.017000,-0.006000,FlatInitial,Hold,0
08:58:43.909 PM 02/16/2016,Teleop Enabled,0,FALSE,0,NO ERROR,-6009.960938,6002.929688,-6000.000000,-6000.000000,Speed,Speed,110.120000,1.220000,1.820000,1.000000,101.000000,1,0,-0.000000,0.000000,1,0.068604,0.001892,0.000000,-0.040924,0.076004,0.000000,0.071000,-0.008000,-0.001000,FlatInitial,Hold,0
08:58:44.009 PM 02/16/2016,Teleop Enabled,0,FALSE,0,NO ERROR,-6007.617188,6014.648438,-6000.000000,-6000.000000,Speed,Speed,110.120000,1.250000,2.040000,1.000000,105.000000,1,0,-0.000000,0.000000,1,0.113678,0.025131,0.000000,-0.036057,0.076736,0.000000,0.051000,0.010000,0.036000,FlatInitial,Hold,0
08:58:44.110 PM 02/16/2016,Teleop Enabled,0,FALSE,0,NO ERROR,-6009.960938,6022.265625,-6000.000000,-6000.000000,Speed,Speed,110.100000,1.330000,2.110000,1.000000,101.000000,1,0,-0.000000,0.000000,1,0.153641,0.038895,0.000000,-0.029144,0.078430,0.000000,0.042000,0.058000,0.033000,FlatInitial,Hold,0
08:58:44.211 PM 02/16/2016,Teleop Enabled,0,FALSE,0,NO ERROR,-6010.546875,6023.437500,-6000.000000,-6000.000000,Speed,Speed,110.120000,1.350000,2.020000,1.000000,102.000000,1,0,-0.000000,0.000000,1,0.194641,0.086090,0.000000,-0.020142,0.081741,0.000000,0.030000,0.083000,0.030000,FlatInitial,Hold,0
08:58:44.311 PM 02/16/2016,Teleop Enabled,0,FALSE,0,NO ERROR,-6007.031250,6014.648438,-6000.000000,-6000.000000,Speed,Speed,110.110000,1.350000,1.960000,1.000000,102.000000,1,0,-0.000000,0.000000,1,0.230621,0.130569,0.000000,-0.011551,0.086304,0.000000,0.085000,0.026000,0.034000,FlatInitial,Hold,0
08:58:44.412 PM 02/16/2016,Teleop Enabled,0,FALSE,0,NO ERROR,-6008.203125,6007.617188,-6000.000000,-6000.000000,Speed,Speed,110.100000,1.360000,1.790000,1.000000,101.000000,1,0,-0.000000,0.000000,1,0.283096,0.196121,0.000000,0.001740,0.094803,0.000000,0.075000,0.111000,0.052000,FlatInitial,Hold,0
08:58:44.514 PM 02/16/2016,Teleop Enabled,0,FALSE,0,NO ERROR,-6007.031250,6008.789062,-6000.000000,-6000.000000,Speed,Speed,110.100000,1.310000,1.670000,1.000000,101.000000,1,0,-0.000000,0.000000,1,0.362488,0.282608,0.000000,0.021347,0.109634,0.000000,0.029000,0.102000,0.048000,FlatInitial,Hold,0
08:58:44.616 PM 02/16/2016,Teleop Enabled,0,FALSE,0,NO ERROR,-6007.031250,6010.546875,-6000.000000,-6000.000000,Speed,Speed,110.090000,1.280000,1.550000,1.000000,104.000000,1,0,-0.000000,0.000000,1,0.431046,0.351395,0.000000,0.041336,0.125900,0.000000,0.078000,0.076000,0.045000,FlatInitial,Hold,0
08:58:44.716 PM 02/16/2016,Teleop Enabled,0,FALSE,0,NO ERROR,-6005.859375,6010.546875,-6000.000000,-6000.000000,Speed,Speed,110.100000,1.240000,1.390000,1.000000,102.000000,1,0,-0.000000,0.000000,1,0.512589,0.432968,0.000000,0.065506,0.146057,0.000000,0.055000,0.039000,0.057000,FlatInitial,Hold,0
08:58:44.817 PM 02/16/2016,Teleop Enabled,0,FALSE,0,NO ERROR,-6005.859375,6009.960938,-6000.000000,-6000.000000,Speed,Speed,110.090000,1.200000,1.280000,1.000000,102.000000,1,0,-0.000000,0.000000,1,0.598419,0.509827,0.000000,0.093658,0.169983,0.000000,0.106000,0.058000,0.064000,FlatInitial,Hold,0
08:58:44.917 PM 02/16/2016,Teleop Enabled,0,FALSE,0,NO ERROR,-6006.445312,6011.718750,-6000.000000,-6000.000000,Speed,Speed,110.080000,1.150000,1.150000,1.000000,107.000000,1,0,-0.000000,0.000000,1,0.672455,0.589874,0.000000,0.125656,0.197876,0.000000,0.118000,0.074000,0.068000,FlatInitial,Hold,0
08:58:45.017 PM 02/16/2016,Teleop Enabled,0,FALSE,0,NO ERROR,-6004.101562,6010.546875,-6000.000000,-6000.000000,Speed,Speed,110.080000,1.100000,1.050000,1.000000,100.000000,1,0,-0.000000,0.000000,1,0.757568,0.670135,0.000000,0.161865,0.229874,0.000000,0.079000,0.080000,0.120000,FlatInitial,Hold,0
08:58:45.117 PM 02/16/2016,Teleop Enabled,0,FALSE,0,NO ERROR,-6000.585938,6010.546875,-6000.000000,-6000.000000,Speed,Speed,110.080000,1.040000,0.980000,1.000000,101.000000,1,0,-0.000000,0.000000,1,0.847061,0.755066,0.000000,0.202194,0.266006,0.000000,0.111000,0.076000,0.080000,FlatInitial,Hold,0
08:58:45.218 PM 02/16/2016,Teleop Enabled,0,FALSE,0,NO ERROR,-6000.585938,6008.789062,-6000.000000,-6000.000000,Speed,Speed,110.080000,1.010000,0.960000,1.000000,102.000000,1,0,-0.000000,0.000000,1,0.946716,0.824219,0.000000,0.247589,0.306000,0.000000,0.088000,0.098000,0.089000,FlatInitial,Hold,0
08:58:45.319 PM 02/16/2016,Teleop Enabled,0,FALSE,0,NO ERROR,-5997.656250,6009.375000,-6000.000000,-6000.000000,Speed,Speed,110.080000,1.010000,0.970000,1.000000,101.000000,1,0,-0.000000,0.000000,1,1.062714,0.906845,0.000000,0.308273,0.358398,0.000000,0.091000,0.048000,0.057000,FlatInitial,Hold,0
08:58:45.420 PM 02/16/2016,Teleop Enabled,0,FALSE,0,NO ERROR,-5997.656250,6015.234375,-6000.000000,-6000.000000,Speed,Speed,110.080000,0.980000,0.980000,1.000000,105.000000,1,0,-0.000000,0.000000,1,1.177063,0.973602,0.000000,0.364655,0.405930,0.000000,0.116000,0.074000,0.064000,FlatInitial,Hold,0
08:58:45.520 PM 02/16/2016,Teleop Enabled,0,FALSE,0,NO ERROR,-5995.312500,6012.890625,-6000.000000,-6000.000000,Speed,Speed,110.080000,0.990000,1.040000,1.000000,102.000000,1,0,-0.000000,0.000000,1,1.297379,1.027786,0.000000,0.427155,0.456192,0.000000,0.115000,0.035000,0.098000,FlatInitial,Hold,0
08:58:45.621 PM 02/16/2016,Teleop Enabled,0,FALSE,0,NO ERROR,-5995.312500,6008.789062,-6000.000000,-6000.000000,Speed,Speed,110.080000,1.000000,1.090000,1.000000,101.000000,1,0,-0.000000,0.000000,1,1.407791,1.065979,0.000000,0.495392,0.508804,0.000000,0.098000,0.059000,0.101000,FlatInitial,Hold,0
08:58:45.720 PM 02/16/2016,Teleop Enabled,0,FALSE,0,NO ERROR,-5997.070312,6004.687500,-6000.000000,-6000.000000,Speed,Speed,110.080000,1.040000,1.160000,1.000000,101.000000,1,0,-0.000000,0.000000,1,1.468475,1.101196,0.000000,0.553329,0.552322,0.000000,0.065000,0.020000,0.090000,FlatInitial,Hold,0
08:58:45.820 PM 02/16/2016,Teleop Enabled,0,FALSE,0,NO ERROR,-5998.828125,6004.687500,-6000.000000,-6000.000000,Speed,Speed,110.080000,1.060000,1.250000,1.000000,101.000000,1,0,-0.000000,0.000000,1,1.547607,1.145630,0.000000,0.629059,0.608795,0.000000,0.076000,0.001000,0.058000,FlatInitial,Hold,0
08:58:45.921 PM 02/16/2016,Teleop Enabled,0,FALSE,0,NO ERROR,-6001.757812,6000.000000,-6000.000000,-6000.000000,Speed,Speed,110.080000,1.080000,1.290000,1.000000,103.000000,1,0,-0.000000,0.000000,1,1.648972,1.190048,0.000000,0.725769,0.679031,0.000000,0.083000,0.032000,0.070000,FlatInitial,Hold,0
08:58:46.022 PM 02/16/2016,Teleop Enabled,0,FALSE,0,NO ERROR,-6005.859375,5992.968750,-6000.000000,-6000.000000,Speed,Speed,110.080000,1.110000,1.340000,1.000000,102.000000,1,0,-0.000000,0.000000,1,1.728378,1.223328,0.000000,0.810623,0.739502,0.000000,0.059000,0.028000,0.051000,FlatInitial,Hold,0
08:58:46.123 PM 02/16/2016,Teleop Enabled,0,FALSE,0,NO ERROR,-6007.617188,5992.968750,-6000.000000,-6000.000000,Speed,Speed,110.080000,1.120000,1.370000,1.000000,103.000000,1,0,-0.000000,0.000000,1,1.838562,1.280869,0.000000,0.917999,0.814972,0.000000,0.096000,0.076000,0.076000,FlatInitial,Hold,0
08:58:46.223 PM 02/16/2016,Teleop Enabled,0,FALSE,0,NO ERROR,-6011.132812,5994.726562,-6000.000000,-6000.000000,Speed,Speed,110.080000,1.120000,1.400000,1.000000,102.000000,1,0,-0.000000,0.000000,1,1.931870,1.344040,0.000000,1.012634,0.880783,0.000000,0.113000,0.060000,0.114000,FlatInitial,Hold,0
08:58:46.324 PM 02/16/2016,Teleop Enabled,0,FALSE,0,NO ERROR,-6009.375000,5998.828125,-6000.000000,-6000.000000,Speed,Speed,110.080000,1.120000,1.460000,1.000000,101.000000,1,0,-0.000000,0.000000,1,2.034515,1.405273,0.000000,1.112518,0.949753,0.000000,0.085000,0.061000,0.104000,FlatInitial,Hold,0
08:58:46.426 PM 02/16/2016,Teleop Enabled,0,FALSE,0,NO ERROR,-6007.617188,6004.687500,-6000.000000,-6000.000000,Speed,Speed,110.080000,1.120000,1.460000,1.000000,101.000000,1,0,-0.000000,0.000000,1,2.087021,1.466141,0.000000,1.195328,1.007416,0.000000,0.069000,0.069000,0.107000,FlatInitial,Hold,0
08:58:46.527 PM 02/16/2016,Teleop Enabled,0,FALSE,0,NO ERROR,-6005.273438,6007.031250,-6000.000000,-6000.000000,Speed,Speed,110.080000,1.130000,1.510000,1.000000,104.000000,1,0,-0.000000,0.000000,1,2.184860,1.552719,0.000000,1.323959,1.098495,0.000000,0.068000,0.036000,0.078000,FlatInitial,Hold,0
08:58:46.627 PM 02/16/2016,Teleop Enabled,0,FALSE,0,NO ERROR,-6004.687500,6008.203125,-6000.000000,-6000.000000,Speed,Speed,110.080000,1.150000,1.570000,1.000000,100.000000,1,0,-0.000000,0.000000,1,2.253540,1.629501,0.000000,1.435150,1.178421,0.000000,0.083000,0.077000,0.107000,FlatInitial,Hold,0
08:58:46.729 PM 02/16/2016,Teleop Enabled,0,FALSE,0,NO ERROR,-6001.757812,6012.890625,-6000.000000,-6000.000000,Speed,Speed,110.080000,1.160000,1.580000,1.000000,101.000000,1,0,-0.000000,0.000000,1,2.299393,1.709473,0.000000,1.549347,1.262268,0.000000,0.057000,0.087000,0.137000,FlatInitial,Hold,0
08:58:46.829 PM 02/16/2016,Teleop Enabled,0,FALSE,0,NO ERROR,-6001.171875,6012.890625,-6000.000000,-6000.000000,Speed,Speed,110.080000,1.180000,1.600000,1.000000,101.000000,1,0,-0.000000,0.000000,1,2.340164,1.791397,0.000000,1.665680,1.350174,0.000000,0.019000,0.108000,0.100000,FlatInitial,Hold,0
08:58:46.929 PM 02/16/2016,Teleop Enabled,0,FALSE,0,NO ERROR,-6000.000000,6004.101562,-6000.000000,-6000.000000,Speed,Speed,110.080000,1.180000,1.580000,1.000000,102.000000,1,0,-0.000000,0.000000,1,2.368607,1.878235,0.000000,1.783447,1.442337,0.000000,0.049000,0.052000,0.086000,FlatInitial,Hold,0
08:58:47.029 PM 02/16/2016,Teleop Enabled,0,FALSE,0,NO ERROR,-6001.757812,6000.000000,-6000.000000,-6000.000000,Speed,Speed,110.080000,1.200000,1.600000,1.000000,102.000000,1,0,-0.000000,0.000000,1,2.399109,1.956924,0.000000,1.902893,1.538544,0.000000,0.031000,0.059000,0.094000,FlatInitial,Hold,0
08:58:47.129 PM 02/16/2016,Teleop Enabled,0,FALSE,0,NO ERROR,-6003.515625,6000.585938,-6000.000000,-6000.000000,Speed,Speed,110.070000,1.200000,1.600000,1.000000,102.000000,1,0,-0.000000,0.000000,1,2.425354,2.059113,0.000000,2.047684,1.659439,0.000000,0.041000,0.069000,0.121000,FlatInitial,Hold,0
08:58:47.229 PM 02/16/2016,Teleop Enabled,0,FALSE,0,NO ERROR,-6004.687500,6002.343750,-6000.000000,-6000.000000,Speed,Speed,110.070000,1.210000,1.610000,1.000000,102.000000,1,0,-0.000000,0.000000,1,0.000000,2.129028,0.000000,2.096390,1.743515,0.000000,0.013000,0.098000,0.125000,FlatInitial,Hold,0
08:58:47.329 PM 02/16/2016,Teleop Enabled,0,FALSE,0,NO ERROR,-6006.445312,6001.171875,-6000.000000,-6000.000000,Speed,Speed,110.080000,1.230000,1.640000,1.000000,104.000000,1,0,-0.000000,0.000000,1,0.020355,2.218231,0.000000,2.096786,1.852615,0.000000,0.027000,0.100000,0.111000,FlatInitial,Hold,0
08:58:47.429 PM 02/16/2016,Teleop Enabled,0,FALSE,0,NO ERROR,-6007.617188,5998.828125,-6000.000000,-6000.000000,Speed,Speed,110.080000,1.230000,1.680000,1.000000,102.000000,1,0,-0.000000,0.000000,1,0.050354,2.333344,0.000000,2.099030,1.989731,0.000000,0.036000,0.089000,0.088000,FlatInitial,Hold,0
08:58:47.529 PM 02/16/2016,Teleop Enabled,0,FALSE,0,NO ERROR,-6005.859375,5991.796875,-6000.000000,-6000.000000,Speed,Speed,110.080000,1.260000,1.770000,1.000000,102.000000,1,0,-0.000000,0.000000,1,0.072113,2.435623,0.000000,2.102219,2.109436,0.000000,0.032000,0.077000,0.110000,FlatInitial,Hold,0
08:58:47.629 PM 02/16/2016,Teleop Enabled,0,FALSE,0,NO ERROR,-6002.343750,5988.867188,-6000.000000,-6000.000000,Speed,Speed,110.080000,1.280000,1.840000,1.000000,101.000000,1,0,-0.000000,0.000000,1,0.106949,2.531754,0.000000,2.106888,2.234116,0.000000,0.030000,0.115000,0.111000,FlatInitial,Hold,0
08:58:47.729 PM 02/16/2016,Teleop Enabled,0,FALSE,0,NO ERROR,-5998.828125,5994.140625,-6000.000000,-6000.000000,Speed,Speed,110.080000,1.300000,1.910000,1.000000,101.000000,1,0,-0.000000,0.000000,1,0.137939,2.630020,0.000000,2.113174,2.363602,0.000000,0.022000,0.122000,0.105000,FlatInitial,Hold,0
08:58:47.829 PM 02/16/2016,Teleop Enabled,0,FALSE,0,NO ERROR,-5995.898438,5992.968750,-6000.000000,-6000.000000,Speed,Speed,110.080000,1.310000,2.000000,1.000000,101.000000,1,0,-0.000000,0.000000,1,0.191452,2.738281,0.000000,2.121506,2.498337,0.000000,0.070000,0.100000,0.118000,FlatInitial,Hold,0
08:58:47.929 PM 02/16/2016,Teleop Enabled,0,FALSE,0,NO ERROR,-5995.312500,5989.453125,-6000.000000,-6000.000000,Speed,Speed,110.080000,1.340000,2.090000,1.000000,100.000000,1,0,-0.000000,0.000000,1,0.255722,2.840302,0.000000,2.133026,2.638351,0.000000,0.070000,0.100000,0.118000,FlatInitial,Hold,0
08:58:48.029 PM 02/16/2016,Teleop Enabled,0,FALSE,0,NO ERROR,-5994.726562,5993.554688,-6000.000000,-6000.000000,Speed,Speed,110.090000,1.350000,2.180000,1.000000,101.000000,1,0,-0.000000,0.000000,1,0.324448,2.945267,0.000000,2.147736,2.783585,0.000000,0.072000,0.094000,0.123000,FlatInitial,Hold,0
08:58:48.129 PM 02/16/2016,Teleop Enabled,0,FALSE,0,NO ERROR,-5994.140625,6005.859375,-6000.000000,-6000.000000,Speed,Speed,110.090000,1.350000,2.230000,1.000000,101.000000,1,0,-0.000000,0.000000,1,0.386215,3.048431,0.000000,2.165848,2.933914,0.000000,0.072000,0.094000,0.123000,FlatInitial,Hold,0
08:58:48.229 PM 02/16/2016,Teleop Enabled,0,FALSE,0,NO ERROR,-5995.312500,6016.992188,-6000.000000,-6000.000000,Speed,Speed,110.090000,1.380000,2.260000,1.000000,100.000000,1,0,-0.000000,0.000000,1,0.416336,3.159439,0.000000,2.186234,3.089645,0.000000,0.008000,0.128000,0.118000,FlatInitial,Hold,0
08:58:48.329 PM 02/16/2016,Teleop Enabled,0,FALSE,0,NO ERROR,-5997.070312,6018.750000,-6000.000000,-6000.000000,Speed,Speed,110.090000,1.370000,2.220000,1.000000,102.000000,1,0,-0.000000,0.000000,1,0.000000,3.268448,0.000000,2.202911,3.250992,0.000000,-0.024000,0.117000,0.114000,FlatInitial,Hold,0
08:58:48.429 PM 02/16/2016,Teleop Enabled,0,FALSE,0,NO ERROR,-6002.929688,6015.820312,-6000.000000,-6000.000000,Speed,Speed,110.080000,1.370000,2.150000,1.000000,103.000000,1,0,-0.000000,0.000000,1,0.000000,3.268448,0.000000,2.202911,3.250992,0.000000,-0.024000,0.117000,0.114000,FlatInitial,Hold,0
08:58:48.529 PM 02/16/2016,Teleop Enabled,0,FALSE,0,NO ERROR,-6006.445312,6012.890625,-6000.000000,-6000.000000,Speed,Speed,110.080000,1.330000,2.090000,1.000000,105.000000,1,0,-0.000000,0.000000,1,0.000000,3.464722,0.000000,2.201355,3.588776,0.000000,-0.011000,0.078000,0.104000,FlatInitial,Hold,0
08:58:48.629 PM 02/16/2016,Teleop Enabled,0,FALSE,0,NO ERROR,-6010.546875,6008.789062,-6000.000000,-6000.000000,Speed,Speed,110.080000,1.310000,2.040000,1.000000,104.000000,1,0,-0.000000,0.000000,1,-0.003647,3.556473,0.000000,2.201080,3.764816,0.000000,-0.013000,0.129000,0.080000,FlatInitial,Hold,0
08:58:48.729 PM 02/16/2016,Teleop Enabled,0,FALSE,0,NO ERROR,-6010.546875,6002.343750,-6000.000000,-6000.000000,Speed,Speed,110.080000,1.290000,2.030000,1.000000,100.000000,1,0,-0.000000,0.000000,1,0.000000,3.654800,0.000000,2.200928,3.945694,0.000000,0.003000,0.107000,0.103000,FlatInitial,Hold,0
08:58:48.829 PM 02/16/2016,Teleop Enabled,0,FALSE,0,NO ERROR,-6007.617188,5997.070312,-6000.000000,-6000.000000,Speed,Speed,110.080000,1.260000,2.000000,1.000000,109.000000,1,0,-0.000000,0.000000,1,0.000000,3.654800,0.000000,2.200928,3.945694,0.000000,0.003000,0.107000,0.103000,FlatInitial,Hold,0
08:58:48.929 PM 02/16/2016,Teleop Enabled,0,FALSE,0,NO ERROR,-6007.031250,5995.898438,-6000.000000,-6000.000000,Speed,Speed,110.080000,1.260000,2.000000,1.000000,101.000000,1,0,-0.000000,0.000000,1,-0.049545,3.873001,0.000000,2.198593,4.360825,0.000000,-0.027000,0.110000,0.091000,FlatInitial,Hold,0
08:58:49.029 PM 02/16/2016,Teleop Enabled,0,FALSE,0,NO ERROR,-6004.101562,5996.484375,-6000.000000,-6000.000000,Speed,Speed,110.080000,1.260000,1.970000,1.000000,103.000000,1,0,-0.000000,0.000000,1,-0.049545,3.873001,0.000000,2.198593,4.360825,0.000000,-0.033000,0.116000,0.127000,FlatInitial,Hold,0
08:58:49.129 PM 02/16/2016,Teleop Enabled,0,FALSE,0,NO ERROR,-6000.585938,5997.070312,-6000.000000,-6000.000000,Speed,Speed,110.080000,1.260000,1.980000,1.000000,101.000000,1,0,-0.000000,0.000000,1,-0.086578,3.964279,0.000000,2.195068,4.557251,0.000000,-0.019000,0.099000,0.107000,FlatInitial,Hold,0
08:58:49.230 PM 02/16/2016,Teleop Enabled,0,FALSE,0,NO ERROR,-5998.828125,5997.070312,-6000.000000,-6000.000000,Speed,Speed,110.080000,1.270000,2.000000,1.000000,103.000000,1,0,-0.000000,0.000000,1,0.000000,4.074799,0.000000,2.190033,4.799042,0.000000,0.006000,0.067000,0.096000,FlatInitial,Hold,0
08:58:49.331 PM 02/16/2016,Teleop Enabled,0,FALSE,0,NO ERROR,-5997.070312,5998.242188,-6000.000000,-6000.000000,Speed,Speed,110.090000,1.270000,2.050000,1.000000,101.000000,1,0,-0.000000,0.000000,1,-0.009476,4.169342,0.000000,2.189972,5.005524,0.000000,-0.004000,0.084000,0.081000,FlatInitial,Hold,0
08:58:49.431 PM 02/16/2016,Teleop Enabled,0,FALSE,0,NO ERROR,-5994.726562,5995.898438,-6000.000000,-6000.000000,Speed,Speed,110.080000,1.270000,2.020000,1.000000,101.000000,1,0,-0.000000,0.000000,1,-0.029678,4.271179,0.000000,2.188934,5.216949,0.000000,-0.020000,0.086000,0.108000,FlatInitial,Hold,0
08:58:49.531 PM 02/16/2016,Teleop Enabled,0,FALSE,0,NO ERROR,-5994.140625,5993.554688,-6000.000000,-6000.000000,Speed,Speed,110.080000,1.270000,2.010000,1.000000,102.000000,1,0,-0.000000,0.000000,1,-0.003403,4.374420,0.000000,2.188110,5.433670,0.000000,-0.030000,0.122000,0.123000,FlatInitial,Hold,0
08:58:49.631 PM 02/16/2016,Teleop Enabled,0,FALSE,0,NO ERROR,-5994.140625,5993.554688,-6000.000000,-6000.000000,Speed,Speed,110.080000,1.280000,2.020000,1.000000,103.000000,1,0,-0.000000,0.000000,1,-0.029297,4.483688,0.000000,2.187164,5.655594,0.000000,-0.029000,0.136000,0.117000,FlatInitial,Hold,0
08:58:49.733 PM 02/16/2016,Teleop Enabled,0,FALSE,0,NO ERROR,-5995.898438,5995.898438,-6000.000000,-6000.000000,Speed,Speed,110.080000,1.270000,1.990000,1.000000,104.000000,1,0,-0.000000,0.000000,1,-0.003113,4.594284,0.000000,2.186356,5.883133,0.000000,-0.021000,0.133000,0.150000,FlatInitial,Hold,0
08:58:49.833 PM 02/16/2016,Teleop Enabled,0,FALSE,0,NO ERROR,-6000.000000,6003.515625,-6000.000000,-6000.000000,Speed,Speed,110.080000,1.270000,2.010000,1.000000,103.000000,1,0,-0.000000,0.000000,1,-0.021332,4.695831,0.000000,2.185699,6.115891,0.000000,-0.042000,0.106000,0.083000,FlatInitial,Hold,0
08:58:49.933 PM 02/16/2016,Teleop Enabled,0,FALSE,0,NO ERROR,-6003.515625,6008.789062,-6000.000000,-6000.000000,Speed,Speed,110.080000,1.270000,2.010000,1.000000,102.000000,1,0,-0.000000,0.000000,1,0.000000,4.799606,0.000000,2.184570,6.353790,0.000000,-0.008000,0.082000,0.084000,FlatInitial,Hold,0
08:58:50.034 PM 02/16/2016,Teleop Enabled,0,FALSE,0,NO ERROR,-6008.203125,6008.789062,-6000.000000,-6000.000000,Speed,Speed,110.080000,1.270000,2.020000,1.000000,102.000000,1,0,-0.000000,0.000000,1,-0.013321,4.902664,0.000000,2.184387,6.596771,0.000000,-0.035000,0.095000,0.077000,FlatInitial,Hold,0
08:58:50.134 PM 02/16/2016,Teleop Enabled,0,FALSE,0,NO ERROR,-6011.718750,6001.757812,-6000.000000,-6000.000000,Speed,Speed,110.080000,1.260000,2.010000,1.000000,101.000000,1,0,-0.000000,0.000000,1,-0.037247,5.010254,0.000000,2.183014,6.844986,0.000000,-0.029000,0.111000,0.102000,FlatInitial,Hold,0
08:58:50.236 PM 02/16/2016,Teleop Enabled,0,FALSE,0,NO ERROR,-6007.031250,5994.726562,-6000.000000,-6000.000000,Speed,Speed,110.080000,1.260000,2.000000,1.000000,101.000000,1,0,-0.000000,0.000000,1,-0.002823,5.113083,0.000000,2.182053,7.098679,0.000000,-0.034000,0.110000,0.100000,FlatInitial,Hold,0
08:58:50.337 PM 02/16/2016,Teleop Enabled,0,FALSE,0,NO ERROR,-6004.101562,5989.453125,-6000.000000,-6000.000000,Speed,Speed,110.080000,1.260000,2.010000,1.000000,101.000000,1,0,-0.000000,0.000000,1,-0.029968,5.201813,0.000000,2.181122,7.356979,0.000000,-0.029000,0.120000,0.105000,FlatInitial,Hold,0
08:58:50.438 PM 02/16/2016,Teleop Enabled,0,FALSE,0,NO ERROR,-5998.242188,5988.281250,-6000.000000,-6000.000000,Speed,Speed,110.080000,1.260000,2.000000,1.000000,101.000000,1,0,-0.000000,0.000000,1,-0.058945,5.297668,0.000000,2.178589,7.620056,0.000000,-0.015000,0.112000,0.119000,FlatInitial,Hold,0
08:58:50.538 PM 02/16/2016,Teleop Enabled,0,FALSE,0,NO ERROR,-5992.968750,5991.210938,-6000.000000,-6000.000000,Speed,Speed,110.080000,1.280000,2.040000,1.000000,101.000000,1,0,-0.000000,0.000000,1,-0.020676,5.387329,0.000000,2.178055,7.887558,0.000000,-0.036000,0.086000,0.089000,FlatInitial,Hold,0
08:58:50.639 PM 02/16/2016,Teleop Enabled,0,FALSE,0,NO ERROR,-5989.453125,5993.554688,-6000.000000,-6000.000000,Speed,Speed,110.080000,1.300000,2.110000,1.000000,101.000000,1,0,-0.000000,0.000000,1,0.000000,5.478867,0.000000,2.177078,8.159683,0.000000,0.011000,0.093000,0.124000,FlatInitial,Hold,0
08:58:50.740 PM 02/16/2016,Teleop Enabled,0,FALSE,0,NO ERROR,-5992.382812,5992.968750,-6000.000000,-6000.000000,Speed,Speed,110.080000,1.330000,2.180000,1.000000,100.000000,1,0,-0.000000,0.000000,1,0.000000,5.574356,0.000000,2.177231,8.436356,0.000000,0.017000,0.078000,0.096000,FlatInitial,Hold,0
08:58:50.840 PM 02/16/2016,Teleop Enabled,0,FALSE,0,NO ERROR,-5992.968750,5995.898438,-6000.000000,-6000.000000,Speed,Speed,110.080000,1.350000,2.210000,1.000000,101.000000,1,0,-0.000000,0.000000,1,0.002472,5.683044,0.000000,2.177246,8.718109,0.000000,0.021000,0.111000,0.145000,FlatInitial,Hold,0
08:58:50.941 PM 02/16/2016,Teleop Enabled,0,FALSE,0,NO ERROR,-5997.070312,6000.000000,-6000.000000,-6000.000000,Speed,Speed,110.080000,1.350000,2.250000,1.000000,102.000000,1,0,-0.000000,0.000000,1,0.011200,5.800583,0.000000,2.177490,9.005798,0.000000,0.030000,0.099000,0.116000,FlatInitial,Hold,0
08:58:51.041 PM 02/16/2016,Teleop Enabled,0,FALSE,0,NO ERROR,-6003.515625,6004.101562,-6000.000000,-6000.000000,Speed,Speed,110.090000,1.380000,2.300000,1.000000,102.000000,1,0,-0.000000,0.000000,1,0.000000,5.910873,0.000000,2.178116,9.299103,0.000000,0.015000,0.098000,0.124000,FlatInitial,Hold,0
08:58:51.141 PM 02/16/2016,Teleop Enabled,0,FALSE,0,NO ERROR,-6010.546875,6011.718750,-6000.000000,-6000.000000,Speed,Speed,110.090000,1.380000,2.310000,1.000000,101.000000,1,0,-0.000000,0.000000,1,0.000000,6.027405,0.000000,2.178116,9.598160,0.000000,0.008000,0.082000,0.134000,FlatInitial,Hold,0
08:58:51.244 PM 02/16/2016,Teleop Enabled,0,FALSE,0,NO ERROR,-6010.546875,6020.507812,-6000.000000,-6000.000000,Speed,Speed,110.090000,1.380000,2.320000,1.000000,102.000000,1,0,-0.000000,0.000000,1,-0.020935,6.134567,0.000000,2.177673,9.902679,0.000000,-0.008000,0.095000,0.133000,FlatInitial,Hold,0
08:58:51.343 PM 02/16/2016,Teleop Enabled,0,FALSE,0,NO ERROR,-6011.718750,6020.507812,-6000.000000,-6000.000000,Speed,Speed,110.080000,1.380000,2.300000,1.000000,101.000000,1,0,-0.000000,0.000000,1,-0.050095,6.238968,0.000000,2.175705,10.212540,0.000000,-0.001000,0.094000,0.103000,FlatInitial,Hold,0
08:58:51.443 PM 02/16/2016,Teleop Enabled,0,FALSE,0,NO ERROR,-6010.546875,6011.132812,-6000.000000,-6000.000000,Speed,Speed,110.080000,1.370000,2.260000,1.000000,101.000000,1,0,-0.000000,0.000000,1,-0.086044,6.329895,0.000000,2.172287,10.527115,0.000000,-0.030000,0.086000,0.126000,FlatInitial,Hold,0
08:58:51.545 PM 02/16/2016,Teleop Enabled,0,FALSE,0,NO ERROR,-6004.687500,6011.132812,-6000.000000,-6000.000000,Speed,Speed,110.080000,1.320000,2.180000,1.000000,114.000000,1,0,-0.000000,0.000000,1,-0.012741,6.436478,0.000000,2.169189,10.910629,0.000000,-0.018000,0.018000,0.104000,FlatInitial,Hold,0
08:58:51.646 PM 02/16/2016,Teleop Enabled,0,FALSE,0,NO ERROR,-6003.515625,6006.445312,-6000.000000,-6000.000000,Speed,Speed,110.080000,1.290000,2.110000,1.000000,100.000000,1,0,-0.000000,0.000000,1,-0.013336,6.501480,0.000000,2.168793,11.234299,0.000000,-0.035000,0.040000,0.146000,FlatInitial,Hold,0
08:58:51.747 PM 02/16/2016,Teleop Enabled,0,FALSE,0,NO ERROR,-6003.515625,6004.101562,-6000.000000,-6000.000000,Speed,Speed,110.070000,1.260000,2.020000,1.000000,103.000000,1,0,-0.000000,0.000000,1,-0.004730,6.571716,0.000000,2.167953,11.561371,0.000000,-0.007000,0.072000,0.094000,FlatInitial,Hold,0
08:58:51.847 PM 02/16/2016,Teleop Enabled,0,FALSE,0,NO ERROR,-5998.828125,6004.101562,-6000.000000,-6000.000000,Speed,Speed,110.070000,1.220000,1.940000,1.000000,101.000000,1,0,-0.000000,0.000000,1,-0.024902,6.639511,0.000000,2.166870,11.958313,0.000000,0.000000,0.066000,0.114000,FlatInitial,Hold,0
08:58:51.947 PM 02/16/2016,Teleop Enabled,0,FALSE,0,NO ERROR,-5995.312500,6005.273438,-6000.000000,-6000.000000,Speed,Speed,110.070000,1.170000,1.910000,1.000000,101.000000,1,0,-0.000000,0.000000,1,-0.035568,6.706223,0.000000,2.165253,12.292358,0.000000,-0.001000,0.083000,0.094000,FlatInitial,Hold,0
08:58:52.048 PM 02/16/2016,Teleop Enabled,0,FALSE,0,NO ERROR,-5990.039062,6008.789062,-6000.000000,-6000.000000,Speed,Speed,110.060000,1.170000,1.930000,1.000000,104.000000,1,0,-0.000000,0.000000,1,0.000000,6.761703,0.000000,2.165253,12.629425,0.000000,0.000000,0.048000,0.072000,FlatInitial,Hold,0
08:58:52.149 PM 02/16/2016,Teleop Enabled,0,FALSE,0,NO ERROR,-5990.039062,6011.718750,-6000.000000,-6000.000000,Speed,Speed,110.060000,1.140000,1.930000,1.000000,102.000000,1,0,-0.000000,0.000000,1,0.005722,6.832962,0.000000,2.165390,12.969620,0.000000,0.014000,0.075000,0.062000,FlatInitial,Hold,0
08:58:52.250 PM 02/16/2016,Teleop Enabled,0,FALSE,0,NO ERROR,-5994.726562,6003.515625,-6000.000000,-6000.000000,Speed,Speed,110.070000,1.100000,1.970000,1.000000,101.000000,1,0,-0.000000,0.000000,1,0.041183,6.909393,0.000000,2.166718,13.313583,0.000000,0.005000,0.054000,0.064000,FlatInitial,Hold,0
08:58:52.349 PM 02/16/2016,Teleop Enabled,0,FALSE,0,NO ERROR,-5994.726562,6000.000000,-6000.000000,-6000.000000,Speed,Speed,110.070000,1.090000,2.010000,1.000000,100.000000,1,0,-0.000000,0.000000,1,0.069839,6.991653,0.000000,2.169556,13.661560,0.000000,0.036000,0.054000,0.084000,FlatInitial,Hold,0
08:58:52.450 PM 02/16/2016,Teleop Enabled,0,FALSE,0,NO ERROR,-5998.828125,6001.757812,-6000.000000,-6000.000000,Speed,Speed,110.070000,1.080000,2.040000,1.000000,103.000000,1,0,-0.000000,0.000000,1,0.105865,7.069153,0.000000,2.174011,14.013504,0.000000,0.065000,0.064000,0.099000,FlatInitial,Hold,0
08:58:52.550 PM 02/16/2016,Teleop Enabled,0,FALSE,0,NO ERROR,-6001.757812,6005.273438,-6000.000000,-6000.000000,Speed,Speed,110.070000,1.050000,2.110000,1.000000,100.000000,1,0,-0.000000,0.000000,1,0.153320,7.144119,0.000000,2.180817,14.369171,0.000000,0.021000,0.088000,0.104000,FlatInitial,Hold,0
08:58:52.651 PM 02/16/2016,Teleop Enabled,0,FALSE,0,NO ERROR,-6007.617188,6009.960938,-6000.000000,-6000.000000,Speed,Speed,110.070000,1.020000,2.140000,1.000000,102.000000,1,0,-0.000000,0.000000,1,0.199005,7.226974,0.000000,2.189682,14.728897,0.000000,0.075000,0.088000,0.102000,FlatInitial,Hold,0
08:58:52.752 PM 02/16/2016,Teleop Enabled,0,FALSE,0,NO ERROR,-6011.718750,6013.476562,-6000.000000,-6000.000000,Speed,Speed,110.070000,1.010000,2.220000,1.000000,102.000000,1,0,-0.000000,0.000000,1,0.246902,7.292282,0.000000,2.201019,15.092285,0.000000,0.059000,0.047000,0.067000,FlatInitial,Hold,0
08:58:52.852 PM 02/16/2016,Teleop Enabled,0,FALSE,0,NO ERROR,-6008.789062,6015.234375,-6000.000000,-6000.000000,Speed,Speed,110.070000,1.030000,2.330000,1.000000,102.000000,1,0,-0.000000,0.000000,1,0.307510,7.342026,0.000000,2.215118,15.458405,0.000000,0.053000,0.049000,0.080000,FlatInitial,Hold,0
08:58:52.952 PM 02/16/2016,Teleop Enabled,0,FALSE,0,NO ERROR,-6007.031250,6008.789062,-6000.000000,-6000.000000,Speed,Speed,110.070000,1.060000,2.420000,1.000000,102.000000,1,0,-0.000000,0.000000,1,0.365677,7.386414,0.000000,2.232162,15.826935,0.000000,0.063000,0.019000,0.066000,FlatInitial,Hold,0
08:58:53.052 PM 02/16/2016,Teleop Enabled,0,FALSE,0,NO ERROR,-6005.273438,6003.515625,-6000.000000,-6000.000000,Speed,Speed,110.070000,1.090000,2.530000,1.000000,101.000000,1,0,-0.000000,0.000000,1,0.411545,7.422958,0.000000,2.251785,16.197433,0.000000,0.033000,0.018000,0.089000,FlatInitial,Hold,0
08:58:53.153 PM 02/16/2016,Teleop Enabled,0,FALSE,0,NO ERROR,-6004.687500,6005.859375,-6000.000000,-6000.000000,Speed,Speed,110.080000,1.130000,2.630000,1.000000,103.000000,1,0,-0.000000,0.000000,1,0.469055,7.450455,0.000000,2.274078,16.569519,0.000000,0.065000,0.035000,0.087000,FlatInitial,Hold,0
08:58:53.253 PM 02/16/2016,Teleop Enabled,0,FALSE,0,NO ERROR,-6002.343750,6011.132812,-6000.000000,-6000.000000,Speed,Speed,110.080000,1.170000,2.710000,1.000000,102.000000,1,0,-0.000000,0.000000,1,0.516693,7.468475,0.000000,2.299118,16.942612,0.000000,0.053000,0.025000,0.030000,FlatInitial,Hold,0
08:58:53.354 PM 02/16/2016,Teleop Enabled,0,FALSE,0,NO ERROR,-6001.171875,6013.476562,-6000.000000,-6000.000000,Speed,Speed,110.090000,1.220000,2.790000,1.000000,104.000000,1,0,-0.000000,0.000000,1,0.557343,7.494919,0.000000,2.331665,17.391678,0.000000,0.038000,0.015000,0.056000,FlatInitial,Hold,0
08:58:53.455 PM 02/16/2016,Teleop Enabled,0,FALSE,0,NO ERROR,-5996.484375,6012.304688,-6000.000000,-6000.000000,Speed,Speed,110.090000,1.270000,2.800000,1.000000,101.000000,1,0,-0.000000,0.000000,1,0.579666,7.511124,0.000000,2.354446,17.691879,0.000000,0.028000,0.012000,0.049000,FlatInitial,Hold,0
08:58:53.556 PM 02/16/2016,Teleop Enabled,0,FALSE,0,NO ERROR,-5993.554688,6005.859375,-6000.000000,-6000.000000,Speed,Speed,110.090000,1.320000,2.890000,1.000000,102.000000,1,0,-0.000000,0.000000,1,0.628830,7.531052,0.000000,2.384842,18.068024,0.000000,0.030000,0.028000,0.069000,FlatInitial,Hold,0
08:58:53.657 PM 02/16/2016,Teleop Enabled,0,FALSE,0,NO ERROR,-5990.625000,6000.585938,-6000.000000,-6000.000000,Speed,Speed,110.080000,1.360000,2.920000,1.000000,101.000000,1,0,-0.000000,0.000000,1,0.683380,7.562103,0.000000,2.424561,18.520920,0.000000,0.025000,0.052000,0.062000,FlatInitial,Hold,0
08:58:53.758 PM 02/16/2016,Teleop Enabled,0,FALSE,0,NO ERROR,-5990.039062,6002.929688,-6000.000000,-6000.000000,Speed,Speed,110.080000,1.400000,2.960000,1.000000,101.000000,1,0,-0.000000,0.000000,1,0.722656,7.589722,0.000000,2.459885,18.899918,0.000000,0.064000,0.031000,0.041000,FlatInitial,Hold,0
08:58:53.858 PM 02/16/2016,Teleop Enabled,0,FALSE,0,NO ERROR,-5995.312500,6008.203125,-6000.000000,-6000.000000,Speed,Speed,110.080000,1.440000,2.970000,1.000000,100.000000,1,0,-0.000000,0.000000,1,0.769135,7.628784,0.000000,2.497513,19.280502,0.000000,0.055000,0.050000,0.060000,FlatInitial,Hold,0
08:58:53.959 PM 02/16/2016,Teleop Enabled,0,FALSE,0,NO ERROR,-5999.414062,6010.546875,-6000.000000,-6000.000000,Speed,Speed,110.070000,1.490000,2.990000,1.000000,100.000000,1,0,-0.000000,0.000000,1,0.813705,7.671555,0.000000,2.537430,19.663132,0.000000,0.045000,0.054000,0.015000,FlatInitial,Hold,0
08:58:54.059 PM 02/16/2016,Teleop Enabled,0,FALSE,0,NO ERROR,-6002.343750,6006.445312,-6000.000000,-6000.000000,Speed,Speed,110.070000,1.530000,2.980000,1.000000,104.000000,1,0,-0.000000,0.000000,1,0.848557,7.708527,0.000000,2.579163,20.047913,0.000000,0.051000,0.016000,0.017000,FlatInitial,Hold,0
08:58:54.159 PM 02/16/2016,Teleop Enabled,0,FALSE,0,NO ERROR,-6004.687500,6000.000000,-6000.000000,-6000.000000,Speed,Speed,110.070000,1.580000,2.970000,1.000000,103.000000,1,0,-0.000000,0.000000,1,0.885239,7.741333,0.000000,2.622742,20.434280,0.000000,0.014000,0.027000,0.022000,FlatInitial,Hold,0
08:58:54.260 PM 02/16/2016,Teleop Enabled,0,FALSE,0,NO ERROR,-6007.031250,5996.484375,-6000.000000,-6000.000000,Speed,Speed,110.060000,1.600000,2.940000,1.000000,104.000000,1,0,-0.000000,0.000000,1,0.915649,7.770950,0.000000,2.667877,20.822235,0.000000,0.047000,0.045000,0.044000,FlatInitial,Hold,0
08:58:54.361 PM 02/16/2016,Teleop Enabled,0,FALSE,0,NO ERROR,-6007.617188,5992.968750,-6000.000000,-6000.000000,Speed,Speed,110.060000,1.630000,2.910000,1.000000,102.000000,1,0,-0.000000,0.000000,1,0.957352,0.012939,0.000000,2.724365,21.055954,0.000000,-0.007000,0.009000,0.049000,FlatInitial,Hold,0
08:58:54.461 PM 02/16/2016,Teleop Enabled,0,FALSE,0,NO ERROR,-6007.031250,5988.867188,-6000.000000,-6000.000000,Speed,Speed,110.060000,1.660000,2.860000,1.000000,102.000000,1,0,-0.000000,0.000000,1,0.981659,0.014191,0.000000,2.772812,21.056412,0.000000,0.032000,0.042000,0.081000,FlatInitial,Hold,0
08:58:54.561 PM 02/16/2016,Teleop Enabled,0,FALSE,0,NO ERROR,-6006.445312,5990.039062,-6000.000000,-6000.000000,Speed,Speed,110.060000,1.670000,2.830000,1.000000,101.000000,1,0,-0.000000,0.000000,1,1.012115,0.030426,0.000000,2.822784,21.057739,0.000000,0.035000,0.013000,0.055000,FlatInitial,Hold,0
08:58:54.662 PM 02/16/2016,Teleop Enabled,0,FALSE,0,NO ERROR,-6003.515625,5993.554688,-6000.000000,-6000.000000,Speed,Speed,110.060000,1.680000,2.790000,1.000000,101.000000,1,0,-0.000000,0.000000,1,1.029114,0.046509,0.000000,2.873932,21.059677,0.000000,0.008000,0.016000,0.071000,FlatInitial,HighGoal,0
08:58:54.762 PM 02/16/2016,Teleop Enabled,0,FALSE,0,NO ERROR,-6002.343750,5992.968750,-6000.000000,-6000.000000,Speed,Speed,110.040000,1.680000,2.820000,1.000000,105.000000,1,0,-0.000000,0.000000,1,1.016739,0.088760,0.000000,2.925430,21.063187,0.000000,-0.026000,0.051000,0.071000,FlatInitial,Hold,0
08:58:54.863 PM 02/16/2016,Teleop Enabled,0,FALSE,0,NO ERROR,-5995.312500,5992.968750,-6000.000000,-6000.000000,Speed,Speed,110.000000,1.620000,2.650000,1.000000,127.000000,1,0,-0.000000,0.000000,1,0.995041,0.122040,0.000000,2.965485,21.067673,0.000000,0.006000,0.008000,0.047000,FlatInitial,HighGoal,0
08:58:54.964 PM 02/16/2016,Teleop Enabled,0,FALSE,0,NO ERROR,-5996.484375,5993.554688,-6000.000000,-6000.000000,Speed,Speed,109.940000,1.590000,2.700000,1.000000,101.000000,1,0,-0.000000,0.000000,1,1.010956,0.143158,0.000000,3.025360,21.075867,0.000000,0.108000,-0.062000,0.049000,FlatInitial,Hold,0
08:58:55.065 PM 02/16/2016,Teleop Enabled,0,FALSE,0,NO ERROR,-5990.625000,5985.351562,-6000.000000,-6000.000000,Speed,Speed,109.960000,1.680000,2.020000,1.000000,103.000000,1,0,-0.000000,0.000000,1,1.073593,0.114899,0.000000,3.067505,21.080811,0.000000,0.057000,-0.098000,-0.203000,FlatInitial,Hold,0
08:58:55.165 PM 02/16/2016,Teleop Enabled,0,FALSE,0,NO ERROR,-5983.007812,5975.976562,-6000.000000,-6000.000000,Speed,Speed,109.900000,1.680000,2.170000,1.000000,109.000000,1,0,-0.000000,0.000000,1,1.137894,0.066727,0.000000,3.133835,21.085205,0.000000,0.075000,0.003000,-0.069000,FlatInitial,Hold,0
08:58:55.266 PM 02/16/2016,Teleop Enabled,0,FALSE,0,NO ERROR,-5973.046875,5983.007812,-6000.000000,-6000.000000,Speed,Speed,110.020000,1.660000,2.530000,1.000000,101.000000,1,0,-0.000000,0.000000,1,1.175186,0.003708,0.000000,3.180466,21.085968,0.000000,-0.030000,0.132000,0.083000,FlatInitial,Hold,0
08:58:55.367 PM 02/16/2016,Teleop Enabled,0,FALSE,0,NO ERROR,-5990.039062,6009.375000,-6000.000000,-6000.000000,Speed,Speed,110.110000,1.520000,2.960000,1.000000,102.000000,1,0,-0.000000,0.000000,1,1.196518,0.093002,0.000000,3.251282,21.088776,0.000000,0.105000,0.044000,0.078000,FlatInitial,Hold,0
08:58:55.468 PM 02/16/2016,Teleop Enabled,0,FALSE,0,NO ERROR,-6001.757812,6017.578125,-6000.000000,-6000.000000,Speed,Speed,110.260000,1.630000,1.980000,1.000000,101.000000,1,0,-0.000000,0.000000,1,1.264236,0.097885,0.000000,3.313324,21.094254,0.000000,0.073000,-0.058000,-0.026000,FlatInitial,Hold,0
08:58:55.569 PM 02/16/2016,Teleop Enabled,0,FALSE,0,NO ERROR,-6001.171875,6020.507812,-6000.000000,-6000.000000,Speed,Speed,110.180000,1.540000,2.750000,1.000000,106.000000,1,0,-0.000000,0.000000,1,1.329544,0.000000,0.000000,3.365448,21.095901,0.000000,0.047000,-0.022000,0.064000,FlatInitial,Hold,0
08:58:55.669 PM 02/16/2016,Teleop Enabled,0,FALSE,0,NO ERROR,-6004.687500,6021.679688,-6000.000000,-6000.000000,Speed,Speed,110.110000,1.520000,2.690000,1.000000,102.000000,1,0,-0.000000,0.000000,1,1.391464,-0.009537,0.000000,3.447342,21.095749,0.000000,0.070000,-0.068000,0.053000,FlatInitial,Hold,0
08:58:55.769 PM 02/16/2016,Teleop Enabled,0,FALSE,0,NO ERROR,-6009.375000,6020.507812,-6000.000000,-6000.000000,Speed,Speed,110.160000,1.620000,2.390000,1.000000,101.000000,1,0,-0.000000,0.000000,1,1.469360,-0.044235,0.000000,3.533646,21.093765,0.000000,0.067000,-0.026000,-0.032000,FlatInitial,Hold,0
08:58:55.870 PM 02/16/2016,Teleop Enabled,0,FALSE,0,NO ERROR,-6008.203125,6006.445312,-6000.000000,-6000.000000,Speed,Speed,110.070000,1.690000,2.670000,1.000000,103.000000,1,0,-0.000000,0.000000,1,1.517914,-0.087692,0.000000,3.608734,21.090210,0.000000,0.002000,0.006000,0.087000,FlatInitial,Hold,0
08:58:55.971 PM 02/16/2016,Teleop Enabled,0,FALSE,0,NO ERROR,-6007.617188,6001.171875,-6000.000000,-6000.000000,Speed,Speed,110.050000,1.640000,2.810000,1.000000,100.000000,1,0,-0.000000,0.000000,1,1.563583,-0.019272,0.000000,3.685928,21.089722,0.000000,0.034000,-0.045000,0.020000,FlatInitial,Hold,0
08:58:56.072 PM 02/16/2016,Teleop Enabled,0,FALSE,0,NO ERROR,-6008.789062,5996.484375,-6000.000000,-6000.000000,Speed,Speed,110.100000,1.740000,2.580000,1.000000,103.000000,1,0,-0.000000,0.000000,1,1.596649,-0.062485,0.000000,3.764893,21.087418,0.000000,0.082000,-0.044000,0.026000,FlatInitial,Hold,0
08:58:56.173 PM 02/16/2016,Teleop Enabled,0,FALSE,0,NO ERROR,-6003.515625,5992.382812,-6000.000000,-6000.000000,Speed,Speed,110.090000,1.790000,2.460000,1.000000,102.000000,1,0,-0.000000,0.000000,1,1.654282,-0.107513,0.000000,3.846558,21.083084,0.000000,0.024000,-0.061000,-0.026000,FlatInitial,Hold,0
08:58:56.273 PM 02/16/2016,Teleop Enabled,0,FALSE,0,NO ERROR,-5999.414062,5993.554688,-6000.000000,-6000.000000,Speed,Speed,110.070000,1.780000,2.570000,1.000000,103.000000,1,0,-0.000000,0.000000,1,1.692474,-0.147003,0.000000,3.930466,21.076355,0.000000,0.031000,-0.023000,0.020000,FlatInitial,Hold,0
08:58:56.374 PM 02/16/2016,Teleop Enabled,0,FALSE,0,NO ERROR,-5999.414062,5993.554688,-6000.000000,-6000.000000,Speed,Speed,110.120000,1.790000,2.420000,1.000000,107.000000,1,0,-0.000000,0.000000,1,1.725296,-0.192429,0.000000,4.016068,21.067780,0.000000,0.034000,-0.069000,-0.017000,FlatInitial,Hold,0
08:58:56.475 PM 02/16/2016,Teleop Enabled,0,FALSE,0,NO ERROR,-5995.898438,5996.484375,-6000.000000,-6000.000000,Speed,Speed,110.140000,1.790000,2.340000,1.000000,101.000000,1,0,-0.000000,0.000000,1,1.774521,-0.239548,0.000000,4.103745,21.056671,0.000000,0.033000,-0.036000,0.020000,FlatInitial,Hold,0
08:58:56.576 PM 02/16/2016,Teleop Enabled,0,FALSE,0,NO ERROR,-5995.898438,5998.828125,-6000.000000,-6000.000000,Speed,Speed,110.130000,1.820000,2.440000,1.000000,101.000000,1,0,-0.000000,0.000000,1,1.831619,-0.293472,0.000000,4.194138,21.043106,0.000000,0.033000,-0.036000,0.020000,FlatInitial,Hold,0
08:58:56.677 PM 02/16/2016,Teleop Enabled,0,FALSE,0,NO ERROR,-5992.968750,5998.242188,-6000.000000,-6000.000000,Speed,Speed,110.130000,1.800000,2.460000,1.000000,102.000000,1,0,-0.000000,0.000000,1,1.894241,-0.330505,0.000000,4.287567,21.027420,0.000000,0.061000,-0.057000,0.018000,FlatInitial,Hold,0
08:58:56.777 PM 02/16/2016,Teleop Enabled,0,FALSE,0,NO ERROR,-5992.968750,6001.757812,-6000.000000,-6000.000000,Speed,Speed,110.140000,1.850000,2.400000,1.000000,101.000000,1,0,-0.000000,0.000000,1,1.948624,-0.373383,0.000000,4.383759,21.009445,0.000000,0.090000,-0.031000,0.034000,FlatInitial,Hold,0
08:58:56.879 PM 02/16/2016,Teleop Enabled,0,FALSE,0,NO ERROR,-5994.140625,6008.203125,-6000.000000,-6000.000000,Speed,Speed,110.130000,1.870000,2.410000,1.000000,101.000000,1,0,-0.000000,0.000000,1,2.008179,-0.401566,0.000000,4.483093,20.989990,0.000000,0.040000,-0.017000,0.031000,FlatInitial,Hold,0
08:58:56.980 PM 02/16/2016,Teleop Enabled,0,FALSE,0,NO ERROR,-5996.484375,6012.304688,-6000.000000,-6000.000000,Speed,Speed,110.120000,1.880000,2.410000,1.000000,102.000000,1,0,-0.000000,0.000000,1,2.044922,0.000000,0.000000,4.584732,20.977676,0.000000,0.012000,0.003000,0.026000,FlatInitial,Hold,0
08:58:57.080 PM 02/16/2016,Teleop Enabled,0,FALSE,0,NO ERROR,-5997.656250,6009.375000,-6000.000000,-6000.000000,Speed,Speed,110.130000,1.920000,2.380000,1.000000,101.000000,1,0,-0.000000,0.000000,1,2.080338,-0.018173,0.000000,4.687988,20.977112,0.000000,0.043000,-0.015000,0.040000,FlatInitial,Hold,0
08:58:57.181 PM 02/16/2016,Teleop Enabled,0,FALSE,0,NO ERROR,-6001.757812,6005.859375,-6000.000000,-6000.000000,Speed,Speed,110.120000,1.930000,2.330000,1.000000,103.000000,1,0,-0.000000,0.000000,1,2.115646,-0.004929,0.000000,4.793137,20.977066,0.000000,0.013000,-0.008000,0.039000,FlatInitial,Hold,0
08:58:57.282 PM 02/16/2016,Teleop Enabled,0,FALSE,0,NO ERROR,-6003.515625,6006.445312,-6000.000000,-6000.000000,Speed,Speed,110.110000,1.950000,2.290000,1.000000,103.000000,1,0,-0.000000,0.000000,1,0.014221,-0.022141,0.000000,4.814606,20.976227,0.000000,0.045000,-0.006000,0.046000,FlatInitial,Hold,0
08:58:57.382 PM 02/16/2016,Teleop Enabled,0,FALSE,0,NO ERROR,-6005.273438,6005.859375,-6000.000000,-6000.000000,Speed,Speed,110.110000,1.960000,2.230000,1.000000,103.000000,1,0,-0.000000,0.000000,1,0.038589,-0.041214,0.000000,4.816116,20.974686,0.000000,-0.001000,-0.016000,0.048000,FlatInitial,Hold,0
08:58:57.483 PM 02/16/2016,Teleop Enabled,0,FALSE,0,NO ERROR,-6007.031250,6004.101562,-6000.000000,-6000.000000,Speed,Speed,110.110000,1.950000,2.140000,1.000000,103.000000,1,0,-0.000000,0.000000,1,0.011551,-0.009277,0.000000,4.816284,20.974091,0.000000,-0.001000,-0.005000,0.077000,FlatInitial,Hold,0
08:58:57.583 PM 02/16/2016,Teleop Enabled,0,FALSE,0,NO ERROR,-6008.203125,6001.171875,-6000.000000,-6000.000000,Speed,Speed,110.100000,1.930000,2.020000,1.000000,101.000000,1,0,-0.000000,0.000000,1,0.000000,-0.006073,0.000000,4.816422,20.973892,0.000000,0.000000,-0.019000,0.063000,FlatInitial,Hold,0
08:58:57.683 PM 02/16/2016,Teleop Enabled,0,FALSE,0,NO ERROR,-6006.445312,6000.000000,-6000.000000,-6000.000000,Speed,Speed,110.100000,1.890000,1.860000,1.000000,101.000000,1,0,-0.000000,0.000000,1,0.000000,0.000000,0.000000,4.816422,20.973801,0.000000,0.009000,-0.018000,0.049000,FlatInitial,Hold,0
08:58:57.783 PM 02/16/2016,Teleop Enabled,0,FALSE,0,NO ERROR,-6004.101562,6006.445312,-6000.000000,-6000.000000,Speed,Speed,110.100000,1.870000,1.760000,1.000000,101.000000,1,0,-0.000000,0.000000,1,-0.001099,0.000000,0.000000,4.816360,20.973801,0.000000,0.000000,0.005000,0.053000,FlatInitial,Hold,0
08:58:57.883 PM 02/16/2016,Teleop Enabled,0,FALSE,0,NO ERROR,-6002.929688,6009.960938,-6000.000000,-6000.000000,Speed,Speed,110.100000,1.870000,1.760000,1.000000,104.000000,1,0,-0.000000,0.000000,1,0.005188,-0.010254,0.000000,4.816528,20.973648,0.000000,0.000000,0.005000,0.053000,FlatInitial,Hold,0
08:58:57.984 PM 02/16/2016,Teleop Enabled,0,FALSE,0,NO ERROR,-6001.171875,6009.960938,-6000.000000,-6000.000000,Speed,Speed,110.090000,1.760000,1.470000,1.000000,101.000000,1,0,-0.000000,0.000000,1,0.000000,0.000000,0.000000,4.816544,20.973526,0.000000,0.007000,-0.001000,0.071000,FlatInitial,Hold,0
08:58:58.085 PM 02/16/2016,Teleop Enabled,0,FALSE,0,NO ERROR,-6000.000000,6007.617188,-6000.000000,-6000.000000,Speed,Speed,110.090000,1.760000,1.470000,1.000000,102.000000,1,0,-0.000000,0.000000,1,0.000000,0.000000,0.000000,4.816544,20.973343,0.000000,0.007000,-0.001000,0.071000,FlatInitial,Hold,0
08:58:58.185 PM 02/16/2016,Teleop Enabled,0,FALSE,0,NO ERROR,-6000.585938,6005.859375,-6000.000000,-6000.000000,Speed,Speed,110.080000,1.620000,1.250000,1.000000,101.000000,1,0,-0.000000,0.000000,1,0.000000,0.000000,0.000000,4.816544,20.973343,0.000000,0.008000,-0.002000,0.069000,FlatInitial,Hold,0
08:58:58.286 PM 02/16/2016,Teleop Enabled,0,FALSE,0,NO ERROR,-6000.585938,6002.929688,-6000.000000,-6000.000000,Speed,Speed,110.080000,1.620000,1.250000,1.000000,102.000000,1,0,-0.000000,0.000000,1,0.000000,0.000000,0.000000,4.816544,20.973221,0.000000,0.015000,-0.005000,0.059000,FlatInitial,Hold,0
08:58:58.386 PM 02/16/2016,Teleop Enabled,0,FALSE,0,NO ERROR,-6001.757812,6000.000000,-6000.000000,-6000.000000,Speed,Speed,110.080000,1.500000,1.050000,1.000000,104.000000,1,0,-0.000000,0.000000,1,0.000000,0.000000,0.000000,4.816544,20.973221,0.000000,-0.001000,0.002000,0.056000,FlatInitial,Hold,0
08:58:58.487 PM 02/16/2016,Teleop Enabled,0,FALSE,0,NO ERROR,-6002.929688,5994.726562,-6000.000000,-6000.000000,Speed,Speed,110.070000,1.430000,0.890000,1.000000,104.000000,1,0,-0.000000,0.000000,1,0.000000,0.000000,0.000000,4.816544,20.973221,0.000000,-0.035000,0.008000,0.069000,FlatInitial,Hold,0
08:58:58.588 PM 02/16/2016,Teleop Enabled,0,FALSE,0,NO ERROR,-6004.687500,5989.453125,-6000.000000,-6000.000000,Speed,Speed,110.070000,1.390000,0.790000,1.000000,102.000000,1,0,-0.000000,0.000000,1,0.000000,0.000000,0.000000,4.816330,20.973221,0.000000,0.016000,0.000000,0.030000,FlatInitial,Hold,0
08:58:58.689 PM 02/16/2016,Teleop Enabled,0,FALSE,0,NO ERROR,-6005.273438,5987.695312,-6000.000000,-6000.000000,Speed,Speed,110.070000,1.390000,0.790000,1.000000,101.000000,1,0,-0.000000,0.000000,1,0.002502,-0.013199,0.000000,4.816406,20.972672,0.000000,0.025000,-0.010000,0.035000,FlatInitial,Hold,0
08:58:58.789 PM 02/16/2016,Teleop Enabled,0,FALSE,0,NO ERROR,-6002.929688,5989.453125,-6000.000000,-6000.000000,Speed,Speed,110.060000,1.310000,0.560000,1.000000,103.000000,1,0,-0.000000,0.000000,1,0.000000,0.000000,0.000000,4.816757,20.971970,0.000000,-0.001000,-0.033000,0.053000,FlatInitial,Hold,0
08:58:58.889 PM 02/16/2016,Teleop Enabled,0,FALSE,0,NO ERROR,-6000.000000,5994.726562,-6000.000000,-6000.000000,Speed,Speed,110.060000,1.280000,0.470000,1.000000,101.000000,1,0,-0.000000,0.000000,1,0.003159,0.000000,0.000000,4.817001,20.971786,0.000000,0.029000,-0.014000,0.036000,FlatInitial,Hold,0
08:58:58.989 PM 02/16/2016,Teleop Enabled,0,FALSE,0,NO ERROR,-5995.898438,5994.726562,-6000.000000,-6000.000000,Speed,Speed,110.060000,1.270000,0.370000,1.000000,101.000000,1,0,-0.000000,0.000000,1,0.025284,-0.016129,0.000000,4.817719,20.971420,0.000000,0.022000,-0.023000,0.036000,FlatInitial,Hold,0
08:58:59.090 PM 02/16/2016,Teleop Enabled,0,FALSE,0,NO ERROR,-5990.625000,5994.726562,-6000.000000,-6000.000000,Speed,Speed,110.060000,1.260000,0.310000,1.000000,101.000000,1,0,-0.000000,0.000000,1,0.041534,-0.031265,0.000000,4.819092,20.970459,0.000000,0.026000,-0.024000,0.040000,FlatInitial,Hold,0
08:58:59.190 PM 02/16/2016,Teleop Enabled,0,FALSE,0,NO ERROR,-5990.039062,5997.070312,-6000.000000,-6000.000000,Speed,Speed,110.060000,1.280000,0.260000,1.000000,101.000000,1,0,-0.000000,0.000000,1,0.007462,-0.052460,0.000000,4.820160,20.968231,0.000000,0.043000,-0.022000,0.042000,FlatInitial,Hold,0
08:58:59.290 PM 02/16/2016,Teleop Enabled,0,FALSE,0,NO ERROR,-5992.382812,6003.515625,-6000.000000,-6000.000000,Speed,Speed,110.050000,1.310000,0.210000,1.000000,102.000000,1,0,-0.000000,0.000000,1,0.030258,-0.083099,0.000000,4.821289,20.964706,0.000000,0.033000,-0.016000,0.030000,FlatInitial,Hold,0
08:58:59.390 PM 02/16/2016,Teleop Enabled,0,FALSE,0,NO ERROR,-5992.382812,6009.375000,-6000.000000,-6000.000000,Speed,Speed,110.050000,1.280000,0.160000,1.000000,102.000000,1,0,-0.000000,0.000000,1,0.057053,-0.010101,0.000000,4.824112,20.963699,0.000000,0.020000,-0.037000,0.033000,FlatInitial,Hold,0
08:58:59.490 PM 02/16/2016,Teleop Enabled,0,FALSE,0,NO ERROR,-5995.898438,6014.062500,-6000.000000,-6000.000000,Speed,Speed,110.050000,1.270000,0.140000,1.000000,102.000000,1,0,-0.000000,0.000000,1,0.086548,-0.030273,0.000000,4.827896,20.962479,0.000000,0.029000,-0.010000,0.075000,FlatInitial,Hold,0
08:58:59.591 PM 02/16/2016,Teleop Enabled,0,FALSE,0,NO ERROR,-6003.515625,6015.234375,-6000.000000,-6000.000000,Speed,Speed,110.050000,1.220000,0.110000,1.000000,100.000000,1,0,-0.000000,0.000000,1,0.086548,-0.030273,0.000000,4.827896,20.962479,0.000000,0.029000,-0.010000,0.075000,FlatInitial,Hold,0
08:58:59.692 PM 02/16/2016,Teleop Enabled,0,FALSE,0,NO ERROR,-6008.203125,6014.648438,-6000.000000,-6000.000000,Speed,Speed,110.050000,1.160000,0.080000,1.000000,103.000000,1,0,-0.000000,0.000000,1,0.112854,0.000000,0.000000,4.832977,20.962479,0.000000,0.035000,-0.015000,0.049000,FlatInitial,Hold,0
08:58:59.792 PM 02/16/2016,Teleop Enabled,0,FALSE,0,NO ERROR,-6011.132812,6009.375000,-6000.000000,-6000.000000,Speed,Speed,110.050000,1.160000,0.080000,1.000000,103.000000,1,0,-0.000000,0.000000,1,0.005127,0.000000,0.000000,4.839127,20.962479,0.000000,0.016000,-0.014000,0.041000,FlatInitial,Hold,0
08:58:59.894 PM 02/16/2016,Teleop Enabled,0,FALSE,0,NO ERROR,-6010.546875,6003.515625,-6000.000000,-6000.000000,Speed,Speed,110.050000,1.040000,0.000000,1.000000,103.000000,1,0,-0.000000,0.000000,1,0.005127,0.000000,0.000000,4.839127,20.962479,0.000000,0.025000,-0.016000,0.084000,FlatInitial,Hold,0
08:58:59.995 PM 02/16/2016,Teleop Enabled,0,FALSE,0,NO ERROR,-6006.445312,5999.414062,-6000.000000,-6000.000000,Speed,Speed,110.050000,0.960000,-0.060000,1.000000,103.000000,1,0,-0.000000,0.000000,1,-0.000565,-0.003799,0.000000,4.839279,20.962418,0.000000,0.022000,-0.004000,0.053000,FlatInitial,Hold,0
08:59:00.097 PM 02/16/2016,Teleop Enabled,0,FALSE,0,NO ERROR,-6002.929688,5996.484375,-6000.000000,-6000.000000,Speed,Speed,110.050000,0.960000,-0.060000,1.000000,101.000000,1,0,-0.000000,0.000000,1,0.000000,-0.046982,0.000000,4.839279,20.959595,0.000000,-0.018000,-0.012000,0.048000,FlatInitial,Hold,0
08:59:00.198 PM 02/16/2016,Teleop Enabled,0,FALSE,0,NO ERROR,-6001.757812,5997.070312,-6000.000000,-6000.000000,Speed,Speed,110.050000,0.830000,-0.130000,1.000000,102.000000,1,0,-0.000000,0.000000,1,0.000000,-0.046982,0.000000,4.839279,20.959595,0.000000,0.004000,-0.029000,0.086000,FlatInitial,Hold,0
08:59:00.299 PM 02/16/2016,Teleop Enabled,0,FALSE,0,NO ERROR,-6000.585938,6004.101562,-6000.000000,-6000.000000,Speed,Speed,110.050000,0.830000,-0.130000,1.000000,101.000000,1,0,-0.000000,0.000000,1,0.000000,-0.063995,0.000000,4.839279,20.956696,0.000000,0.005000,-0.014000,0.040000,FlatInitial,Hold,0
08:59:00.399 PM 02/16/2016,Teleop Enabled,0,FALSE,0,NO ERROR,-5998.242188,6007.617188,-6000.000000,-6000.000000,Speed,Speed,110.050000,0.770000,-0.170000,1.000000,107.000000,1,0,-0.000000,0.000000,1,0.000000,-0.019974,0.000000,4.839279,20.956085,0.000000,-0.013000,-0.007000,0.056000,FlatInitial,Hold,0
08:59:00.499 PM 02/16/2016,Teleop Enabled,0,FALSE,0,NO ERROR,-5995.898438,6006.445312,-6000.000000,-6000.000000,Speed,Speed,110.050000,0.710000,-0.200000,1.000000,102.000000,1,0,-0.000000,0.000000,1,0.000000,-0.040192,0.000000,4.839279,20.954483,0.000000,0.006000,-0.015000,0.045000,FlatInitial,Hold,0
08:59:00.601 PM 02/16/2016,Teleop Enabled,0,FALSE,0,NO ERROR,-5997.656250,6001.171875,-6000.000000,-6000.000000,Speed,Speed,110.060000,0.680000,-0.190000,1.000000,103.000000,1,0,-0.000000,0.000000,1,0.007751,-0.009125,0.000000,4.839432,20.954208,0.000000,0.017000,0.015000,0.055000,FlatInitial,Hold,0
08:59:00.701 PM 02/16/2016,Teleop Enabled,0,FALSE,0,NO ERROR,-5998.828125,5993.554688,-6000.000000,-6000.000000,Speed,Speed,110.060000,0.620000,-0.190000,1.000000,101.000000,1,0,-0.000000,0.000000,1,0.019791,-0.004013,0.000000,4.840225,20.954086,0.000000,0.014000,-0.036000,0.079000,FlatInitial,Hold,0
08:59:00.801 PM 02/16/2016,Teleop Enabled,0,FALSE,0,NO ERROR,-6001.171875,5981.250000,-6000.000000,-6000.000000,Speed,Speed,110.060000,0.570000,-0.190000,1.000000,100.000000,1,0,-0.000000,0.000000,1,0.000000,-0.011261,0.000000,4.840439,20.953659,0.000000,0.000000,-0.010000,0.067000,FlatInitial,Hold,0
08:59:00.904 PM 02/16/2016,Teleop Enabled,0,FALSE,0,NO ERROR,-6001.171875,5975.976562,-6000.000000,-6000.000000,Speed,Speed,110.060000,0.540000,-0.210000,1.000000,102.000000,1,0,-0.000000,0.000000,1,0.000000,-0.040421,0.000000,4.840439,20.952301,0.000000,0.007000,-0.024000,0.054000,FlatInitial,Hold,0
08:59:01.005 PM 02/16/2016,Teleop Enabled,0,FALSE,0,NO ERROR,-6001.757812,5985.351562,-6000.000000,-6000.000000,Speed,Speed,110.060000,0.520000,-0.250000,1.000000,101.000000,1,0,-0.000000,0.000000,1,0.000000,-0.070160,0.000000,4.840439,20.949356,0.000000,0.005000,-0.021000,0.028000,FlatInitial,Hold,0
08:59:01.107 PM 02/16/2016,Teleop Enabled,0,FALSE,0,NO ERROR,-6001.171875,5992.968750,-6000.000000,-6000.000000,Speed,Speed,110.060000,0.510000,-0.280000,1.000000,101.000000,1,0,-0.000000,0.000000,1,0.007019,-0.099365,0.000000,4.840546,20.944992,0.000000,0.002000,-0.026000,0.045000,FlatInitial,Hold,0
08:59:01.209 PM 02/16/2016,Teleop Enabled,0,FALSE,0,NO ERROR,-6001.171875,5997.656250,-6000.000000,-6000.000000,Speed,Speed,110.050000,0.500000,-0.310000,1.000000,102.000000,1,0,-0.000000,0.000000,1,0.000000,-0.140579,0.000000,4.840958,20.937469,0.000000,0.020000,-0.039000,0.024000,FlatInitial,Hold,0
08:59:01.310 PM 02/16/2016,Teleop Enabled,0,FALSE,0,NO ERROR,-6000.000000,5993.554688,-6000.000000,-6000.000000,Speed,Speed,110.050000,0.490000,-0.360000,1.000000,102.000000,1,0,-0.000000,0.000000,1,0.000000,-0.164902,0.000000,4.841049,20.931213,0.000000,0.000000,-0.047000,0.036000,FlatInitial,Hold,0
08:59:01.410 PM 02/16/2016,Teleop Enabled,0,FALSE,0,NO ERROR,-5998.242188,5987.695312,-6000.000000,-6000.000000,Speed,Speed,110.050000,0.490000,-0.410000,1.000000,102.000000,1,0,-0.000000,0.000000,1,0.008698,-0.198898,0.000000,4.841171,20.921936,0.000000,0.011000,-0.052000,0.014000,FlatInitial,Hold,0
08:59:01.510 PM 02/16/2016,Teleop Enabled,0,FALSE,0,NO ERROR,-5998.242188,5988.281250,-6000.000000,-6000.000000,Speed,Speed,110.050000,0.490000,-0.470000,1.000000,108.000000,1,0,-0.000000,0.000000,1,0.044403,-0.243408,0.000000,4.842636,20.910568,0.000000,0.026000,-0.020000,0.005000,FlatInitial,Hold,0
08:59:01.610 PM 02/16/2016,Teleop Enabled,0,FALSE,0,NO ERROR,-5996.484375,5995.312500,-6000.000000,-6000.000000,Speed,Speed,110.050000,0.500000,-0.470000,1.000000,102.000000,1,0,-0.000000,0.000000,1,0.070618,-0.284058,0.000000,4.845581,20.897263,0.000000,0.014000,-0.017000,0.000000,FlatInitial,Hold,0
08:59:01.712 PM 02/16/2016,Teleop Enabled,0,FALSE,0,NO ERROR,-5995.312500,5994.140625,-6000.000000,-6000.000000,Speed,Speed,110.040000,0.520000,-0.490000,1.000000,101.000000,1,0,-0.000000,0.000000,1,0.096451,-0.321823,0.000000,4.849899,20.881973,0.000000,0.048000,-0.060000,-0.009000,FlatInitial,Hold,0
08:59:01.813 PM 02/16/2016,Teleop Enabled,0,FALSE,0,NO ERROR,-5994.726562,5995.312500,-6000.000000,-6000.000000,Speed,Speed,110.040000,0.540000,-0.520000,1.000000,101.000000,1,0,-0.000000,0.000000,1,0.126892,-0.359085,0.000000,4.855743,20.864639,0.000000,0.044000,-0.052000,0.013000,FlatInitial,Hold,0
08:59:01.913 PM 02/16/2016,Teleop Enabled,0,FALSE,0,NO ERROR,-5996.484375,5994.726562,-6000.000000,-6000.000000,Speed,Speed,110.040000,0.560000,-0.550000,1.000000,101.000000,1,0,-0.000000,0.000000,1,0.164352,-0.411041,0.000000,4.864746,20.841202,0.000000,0.033000,-0.039000,-0.027000,FlatInitial,Hold,0
08:59:02.013 PM 02/16/2016,Teleop Enabled,0,FALSE,0,NO ERROR,-5999.414062,5994.726562,-6000.000000,-6000.000000,Speed,Speed,110.040000,0.600000,-0.540000,1.000000,101.000000,1,0,-0.000000,0.000000,1,0.192215,-0.448181,0.000000,4.872025,20.823807,0.000000,0.039000,-0.036000,-0.005000,FlatInitial,Hold,0
