Time,RobotMode,AutoToRun,ErrorStatus, ErrorCode,ErrorSource,ActualRPM1,ActualRPM2,DesiredRPM1,DesiredRPM2,ControlMode1,ControlMode2,NavXYaw,NavXRoll,NavXPitch,ShooterState,LoopTime,IsLevel,IsAutoTargeting,LeftMotorOutput,RightMotorOutput,IsHaloDrive,NavXVelocityX,NavXVelocityY,NavXVelocityZ,NavXDisplacementX,NavXDisplacementY,NavXDisplacementZ,NavXAccelerationX,NavXAccelerationY,NavXAccelerationZ,AutoDefendState,AngeMotorState,Photoeye
07:08:42.663 PM 02/16/2016,Autonomous Disabled,0,TRUE,91,Variant To Data in WPI_DigitalInputRefNum Registry Get.vi->Periodic Tasks.vi->Robot Main.vi,0.000000,0.000000,-6000.000000,-6000.000000,Speed,Speed,-0.060000,0.770000,0.930000,1.000000,102.000000,1,0,-0.000000,0.000000,1,0.000000,0.000000,0.000000,-19.124084,40.962189,0.000000,0.001000,0.001000,0.001000,FlatInitial,Hold,0
07:08:42.762 PM 02/16/2016,Teleop Disabled,0,TRUE,-44007,<LOCATION>WPI_DigitalInputRefNum Registry Get.vi<CALLSTACK>WPI_DigitalInputRefNum Registry Get.vi< <Periodic Tasks.vi< <Robot Main.vi,0.000000,0.000000,0.000000,0.000000,Speed,Speed,-0.160000,0.750000,0.990000,0.000000,17349.000000,1,0,-0.000000,0.000000,1,0.000000,0.000000,0.000000,-19.124084,40.962189,0.000000,-0.001000,0.001000,0.004000,FlatInitial,ResetBack,0
07:08:42.862 PM 02/16/2016,Teleop Disabled,0,FALSE,0,NO ERROR,0.000000,0.000000,0.000000,0.000000,Speed,Speed,0.000000,0.750000,0.990000,0.000000,101.000000,1,0,-0.000000,0.000000,1,0.000000,0.000000,0.000000,-19.124084,40.962189,0.000000,0.000000,0.001000,0.001000,FlatInitial,ResetBack,0
07:08:42.962 PM 02/16/2016,Teleop Disabled,0,FALSE,0,NO ERROR,0.000000,0.000000,0.000000,0.000000,Speed,Speed,0.000000,0.750000,0.990000,0.000000,102.000000,1,0,-0.000000,0.000000,1,0.000000,0.000000,0.000000,-19.124084,40.962189,0.000000,0.000000,0.001000,0.000000,FlatInitial,ResetBack,0
07:08:43.062 PM 02/16/2016,Teleop Disabled,0,FALSE,0,NO ERROR,0.000000,0.000000,0.000000,0.000000,Speed,Speed,0.000000,0.740000,0.990000,0.000000,101.000000,1,0,-0.000000,0.000000,1,0.000000,0.000000,0.000000,-19.124084,40.962189,0.000000,0.000000,0.001000,0.005000,FlatInitial,ResetBack,0
07:08:43.162 PM 02/16/2016,Teleop Disabled,0,FALSE,0,NO ERROR,0.000000,0.000000,0.000000,0.000000,Speed,Speed,0.000000,0.740000,0.990000,0.000000,101.000000,1,0,-0.000000,0.000000,1,0.000000,0.000000,0.000000,-19.124084,40.962189,0.000000,-0.001000,-0.001000,0.008000,FlatInitial,ResetBack,0
07:08:43.262 PM 02/16/2016,Teleop Disabled,0,FALSE,0,NO ERROR,0.000000,0.000000,0.000000,0.000000,Speed,Speed,0.000000,0.740000,0.990000,0.000000,101.000000,1,0,-0.000000,0.000000,1,0.000000,0.000000,0.000000,-19.124084,40.962189,0.000000,0.001000,-0.003000,0.004000,FlatInitial,ResetBack,0
07:08:43.362 PM 02/16/2016,Teleop Disabled,0,FALSE,0,NO ERROR,0.000000,0.000000,0.000000,0.000000,Speed,Speed,0.000000,0.740000,0.990000,0.000000,101.000000,1,0,-0.000000,0.000000,1,0.000000,0.000000,0.000000,-19.124084,40.962189,0.000000,-0.001000,0.000000,0.004000,FlatInitial,ResetBack,0
07:08:43.462 PM 02/16/2016,Teleop Disabled,0,FALSE,0,NO ERROR,0.000000,0.000000,0.000000,0.000000,Speed,Speed,0.000000,0.740000,0.990000,0.000000,103.000000,1,0,-0.000000,0.000000,1,0.000000,0.000000,0.000000,-19.124084,40.962189,0.000000,0.002000,0.000000,0.006000,FlatInitial,ResetBack,0
07:08:43.562 PM 02/16/2016,Teleop Disabled,0,FALSE,0,NO ERROR,0.000000,0.000000,0.000000,0.000000,Speed,Speed,0.000000,0.740000,0.990000,0.000000,102.000000,1,0,-0.000000,0.000000,1,0.000000,0.000000,0.000000,-19.124084,40.962189,0.000000,0.000000,0.000000,0.000000,FlatInitial,ResetBack,0
07:08:43.662 PM 02/16/2016,Teleop Disabled,0,FALSE,0,NO ERROR,0.000000,0.000000,0.000000,0.000000,Speed,Speed,0.000000,0.740000,0.990000,0.000000,101.000000,1,0,-0.000000,0.000000,1,0.000000,0.000000,0.000000,-19.124084,40.962189,0.000000,0.000000,0.002000,0.007000,FlatInitial,ResetBack,0
07:08:43.762 PM 02/16/2016,Teleop Disabled,0,FALSE,0,NO ERROR,0.000000,0.000000,0.000000,0.000000,Speed,Speed,0.000000,0.740000,0.990000,0.000000,101.000000,1,0,-0.000000,0.000000,1,0.000000,0.000000,0.000000,-19.124084,40.962189,0.000000,-0.001000,0.001000,0.000000,FlatInitial,ResetBack,0
07:08:43.863 PM 02/16/2016,Teleop Disabled,0,FALSE,0,NO ERROR,0.000000,0.000000,0.000000,0.000000,Speed,Speed,0.000000,0.740000,0.990000,0.000000,101.000000,1,0,-0.000000,0.000000,1,0.000000,0.000000,0.000000,-19.124084,40.962189,0.000000,0.002000,-0.002000,0.006000,FlatInitial,ResetBack,0
07:08:43.963 PM 02/16/2016,Teleop Disabled,0,FALSE,0,NO ERROR,0.000000,0.000000,0.000000,0.000000,Speed,Speed,0.000000,0.750000,0.990000,0.000000,101.000000,1,0,-0.000000,0.000000,1,0.000000,0.000000,0.000000,-19.124084,40.962189,0.000000,0.001000,0.000000,0.002000,FlatInitial,ResetBack,0
07:08:44.063 PM 02/16/2016,Teleop Disabled,0,FALSE,0,NO ERROR,0.000000,0.000000,0.000000,0.000000,Speed,Speed,0.000000,0.750000,0.990000,0.000000,102.000000,1,0,-0.000000,0.000000,1,0.000000,0.000000,0.000000,-19.124084,40.962189,0.000000,-0.003000,0.000000,0.005000,FlatInitial,ResetBack,0
07:08:44.163 PM 02/16/2016,Teleop Disabled,0,FALSE,0,NO ERROR,0.000000,0.000000,0.000000,0.000000,Speed,Speed,-0.010000,0.750000,0.980000,0.000000,103.000000,1,0,-0.000000,0.000000,1,0.000000,0.000000,0.000000,-19.124084,40.962189,0.000000,0.000000,0.000000,0.003000,FlatInitial,ResetBack,0
07:08:44.263 PM 02/16/2016,Teleop Disabled,0,FALSE,0,NO ERROR,0.000000,0.000000,0.000000,0.000000,Speed,Speed,-0.010000,0.740000,0.980000,0.000000,101.000000,1,0,-0.000000,0.000000,1,0.000000,0.000000,0.000000,-19.124084,40.962189,0.000000,-0.001000,0.000000,0.003000,FlatInitial,ResetBack,0
07:08:44.363 PM 02/16/2016,Teleop Disabled,0,FALSE,0,NO ERROR,0.000000,0.000000,0.000000,0.000000,Speed,Speed,-0.010000,0.750000,0.980000,0.000000,101.000000,1,0,-0.000000,0.000000,1,0.000000,0.000000,0.000000,-19.124084,40.962189,0.000000,0.000000,0.000000,0.003000,FlatInitial,ResetBack,0
07:08:44.463 PM 02/16/2016,Teleop Disabled,0,FALSE,0,NO ERROR,0.000000,0.000000,0.000000,0.000000,Speed,Speed,-0.010000,0.750000,0.980000,0.000000,102.000000,1,0,-0.000000,0.000000,1,0.000000,0.000000,0.000000,-19.124084,40.962189,0.000000,0.000000,-0.001000,0.005000,FlatInitial,ResetBack,0
07:08:44.563 PM 02/16/2016,Teleop Disabled,0,FALSE,0,NO ERROR,0.000000,0.000000,0.000000,0.000000,Speed,Speed,0.000000,0.750000,0.990000,0.000000,106.000000,1,0,-0.000000,0.000000,1,0.000000,0.000000,0.000000,-19.124084,40.962189,0.000000,0.002000,0.000000,0.008000,FlatInitial,ResetBack,0
07:08:44.663 PM 02/16/2016,Teleop Disabled,0,FALSE,0,NO ERROR,0.000000,0.000000,0.000000,0.000000,Speed,Speed,0.000000,0.750000,0.990000,0.000000,102.000000,1,0,-0.000000,0.000000,1,0.000000,0.000000,0.000000,-19.124084,40.962189,0.000000,0.000000,0.000000,0.001000,FlatInitial,ResetBack,0
07:08:44.763 PM 02/16/2016,Teleop Disabled,0,FALSE,0,NO ERROR,0.000000,0.000000,0.000000,0.000000,Speed,Speed,0.000000,0.750000,0.990000,0.000000,102.000000,1,0,-0.000000,0.000000,1,0.000000,0.000000,0.000000,-19.124084,40.962189,0.000000,0.000000,0.002000,0.000000,FlatInitial,ResetBack,0
07:08:44.863 PM 02/16/2016,Teleop Disabled,0,FALSE,0,NO ERROR,0.000000,0.000000,0.000000,0.000000,Speed,Speed,0.000000,0.750000,0.990000,0.000000,102.000000,1,0,-0.000000,0.000000,1,0.000000,0.000000,0.000000,-19.124084,40.962189,0.000000,-0.001000,0.000000,0.004000,FlatInitial,ResetBack,0
07:08:44.963 PM 02/16/2016,Teleop Disabled,0,FALSE,0,NO ERROR,0.000000,0.000000,0.000000,0.000000,Speed,Speed,0.000000,0.750000,0.990000,0.000000,101.000000,1,0,-0.000000,0.000000,1,0.000000,0.000000,0.000000,-19.124084,40.962189,0.000000,0.000000,0.003000,0.004000,FlatInitial,ResetBack,0
07:08:45.063 PM 02/16/2016,Teleop Disabled,0,FALSE,0,NO ERROR,0.000000,0.000000,0.000000,0.000000,Speed,Speed,0.000000,0.750000,1.000000,0.000000,102.000000,1,0,-0.000000,0.000000,1,0.000000,0.000000,0.000000,-19.124084,40.962189,0.000000,0.000000,0.000000,0.004000,FlatInitial,ResetBack,0
07:08:45.163 PM 02/16/2016,Teleop Disabled,0,FALSE,0,NO ERROR,0.000000,0.000000,0.000000,0.000000,Speed,Speed,0.000000,0.760000,0.990000,0.000000,102.000000,1,0,-0.000000,0.000000,1,0.000000,0.000000,0.000000,-19.124084,40.962189,0.000000,-0.001000,-0.001000,0.004000,FlatInitial,ResetBack,0
07:08:45.263 PM 02/16/2016,Teleop Disabled,0,FALSE,0,NO ERROR,0.000000,0.000000,0.000000,0.000000,Speed,Speed,0.000000,0.760000,0.990000,0.000000,102.000000,1,0,-0.000000,0.000000,1,0.000000,0.000000,0.000000,-19.124084,40.962189,0.000000,-0.001000,-0.002000,0.002000,FlatInitial,ResetBack,0
07:08:45.363 PM 02/16/2016,Teleop Disabled,0,FALSE,0,NO ERROR,0.000000,0.000000,0.000000,0.000000,Speed,Speed,0.000000,0.760000,0.990000,0.000000,101.000000,1,0,-0.000000,0.000000,1,0.000000,0.000000,0.000000,-19.124084,40.962189,0.000000,0.000000,0.000000,0.008000,FlatInitial,ResetBack,0
07:08:45.463 PM 02/16/2016,Teleop Disabled,0,FALSE,0,NO ERROR,0.000000,0.000000,0.000000,0.000000,Speed,Speed,0.000000,0.760000,0.990000,0.000000,102.000000,1,0,-0.000000,0.000000,1,0.000000,0.000000,0.000000,-19.124084,40.962189,0.000000,0.000000,0.000000,0.001000,FlatInitial,ResetBack,0
07:08:45.563 PM 02/16/2016,Teleop Disabled,0,FALSE,0,NO ERROR,0.000000,0.000000,0.000000,0.000000,Speed,Speed,0.000000,0.760000,0.980000,0.000000,102.000000,1,0,-0.000000,0.000000,1,0.000000,0.000000,0.000000,-19.124084,40.962189,0.000000,0.002000,0.000000,0.006000,FlatInitial,ResetBack,0
07:08:45.664 PM 02/16/2016,Teleop Disabled,0,FALSE,0,NO ERROR,0.000000,0.000000,0.000000,0.000000,Speed,Speed,0.000000,0.770000,0.980000,0.000000,103.000000,1,0,-0.000000,0.000000,1,0.000000,0.000000,0.000000,-19.124084,40.962189,0.000000,0.000000,0.000000,0.005000,FlatInitial,ResetBack,0
07:08:45.764 PM 02/16/2016,Teleop Disabled,0,FALSE,0,NO ERROR,0.000000,0.000000,0.000000,0.000000,Speed,Speed,0.000000,0.770000,0.980000,0.000000,102.000000,1,0,-0.000000,0.000000,1,0.000000,0.000000,0.000000,-19.124084,40.962189,0.000000,0.000000,0.000000,0.007000,FlatInitial,ResetBack,0
07:08:45.864 PM 02/16/2016,Teleop Disabled,0,FALSE,0,NO ERROR,0.000000,0.000000,0.000000,0.000000,Speed,Speed,0.000000,0.770000,0.980000,0.000000,101.000000,1,0,-0.000000,0.000000,1,0.000000,0.000000,0.000000,-19.124084,40.962189,0.000000,0.000000,0.000000,0.001000,FlatInitial,ResetBack,0
07:08:45.964 PM 02/16/2016,Teleop Disabled,0,FALSE,0,NO ERROR,0.000000,0.000000,-6000.000000,-6000.000000,Speed,Speed,0.000000,0.770000,0.980000,1.000000,102.000000,1,0,-0.000000,0.000000,1,0.000000,0.000000,0.000000,-19.124084,40.962189,0.000000,0.000000,0.000000,0.005000,FlatInitial,ResetBack,0
07:08:46.065 PM 02/16/2016,Teleop Disabled,0,FALSE,0,NO ERROR,0.000000,0.000000,-6000.000000,-6000.000000,Speed,Speed,0.000000,0.770000,0.990000,1.000000,102.000000,1,0,-0.000000,0.000000,1,0.000000,0.000000,0.000000,-19.124084,40.962189,0.000000,-0.001000,0.003000,0.002000,FlatInitial,ResetBack,0
07:08:46.165 PM 02/16/2016,Teleop Disabled,0,FALSE,0,NO ERROR,0.000000,0.000000,-6000.000000,-6000.000000,Speed,Speed,0.000000,0.770000,0.980000,1.000000,102.000000,1,0,-0.000000,0.000000,1,0.000000,0.000000,0.000000,-19.124084,40.962189,0.000000,-0.001000,-0.002000,0.006000,FlatInitial,ResetBack,0
07:08:46.265 PM 02/16/2016,Teleop Disabled,0,FALSE,0,NO ERROR,0.000000,0.000000,-6000.000000,-6000.000000,Speed,Speed,0.000000,0.770000,0.970000,1.000000,101.000000,1,0,-0.000000,0.000000,1,0.000000,0.000000,0.000000,-19.124084,40.962189,0.000000,0.000000,0.001000,0.003000,FlatInitial,ResetBack,0
07:08:46.366 PM 02/16/2016,Teleop Disabled,0,FALSE,0,NO ERROR,0.000000,0.000000,-6000.000000,-6000.000000,Speed,Speed,0.000000,0.770000,0.970000,1.000000,101.000000,1,0,-0.000000,0.000000,1,0.000000,0.000000,0.000000,-19.124084,40.962189,0.000000,0.001000,0.000000,0.006000,FlatInitial,ResetBack,0
07:08:46.468 PM 02/16/2016,Teleop Disabled,0,FALSE,0,NO ERROR,0.000000,0.000000,-6000.000000,-6000.000000,Speed,Speed,0.000000,0.770000,0.970000,1.000000,101.000000,1,0,-0.000000,0.000000,1,0.000000,0.000000,0.000000,-19.124084,40.962189,0.000000,0.000000,-0.001000,0.003000,FlatInitial,ResetBack,0
07:08:46.569 PM 02/16/2016,Teleop Disabled,0,FALSE,0,NO ERROR,0.000000,0.000000,-6000.000000,-6000.000000,Speed,Speed,0.000000,0.760000,0.980000,1.000000,102.000000,1,0,-0.000000,0.000000,1,0.000000,0.000000,0.000000,-19.124084,40.962189,0.000000,-0.001000,0.000000,0.004000,FlatInitial,ResetBack,0
07:08:46.669 PM 02/16/2016,Teleop Disabled,0,FALSE,0,NO ERROR,0.000000,0.000000,-6000.000000,-6000.000000,Speed,Speed,0.000000,0.760000,0.980000,1.000000,101.000000,1,0,-0.000000,0.000000,1,0.000000,0.000000,0.000000,-19.124084,40.962189,0.000000,-0.001000,-0.002000,0.006000,FlatInitial,ResetBack,0
07:08:46.769 PM 02/16/2016,Teleop Disabled,0,FALSE,0,NO ERROR,0.000000,0.000000,-6000.000000,-6000.000000,Speed,Speed,0.000000,0.760000,0.980000,1.000000,102.000000,1,0,-0.000000,0.000000,1,0.000000,0.000000,0.000000,-19.124084,40.962189,0.000000,0.000000,0.000000,0.007000,FlatInitial,ResetBack,0
07:08:46.869 PM 02/16/2016,Teleop Disabled,0,FALSE,0,NO ERROR,0.000000,0.000000,-6000.000000,-6000.000000,Speed,Speed,0.000000,0.760000,0.980000,1.000000,102.000000,1,0,-0.000000,0.000000,1,0.000000,0.000000,0.000000,-19.124084,40.962189,0.000000,0.000000,-0.001000,0.005000,FlatInitial,ResetBack,0
07:08:46.969 PM 02/16/2016,Teleop Disabled,0,FALSE,0,NO ERROR,0.000000,0.000000,-6000.000000,-6000.000000,Speed,Speed,0.000000,0.770000,0.970000,1.000000,101.000000,1,0,-0.000000,0.000000,1,0.000000,0.000000,0.000000,-19.124084,40.962189,0.000000,-0.001000,0.000000,0.002000,FlatInitial,ResetBack,0
07:08:47.069 PM 02/16/2016,Teleop Disabled,0,FALSE,0,NO ERROR,0.000000,0.000000,-6000.000000,-6000.000000,Speed,Speed,0.000000,0.770000,0.970000,1.000000,101.000000,1,0,-0.000000,0.000000,1,0.000000,0.000000,0.000000,-19.124084,40.962189,0.000000,-0.001000,0.000000,0.006000,FlatInitial,ResetBack,0
07:08:47.170 PM 02/16/2016,Teleop Disabled,0,FALSE,0,NO ERROR,0.000000,0.000000,-6000.000000,-6000.000000,Speed,Speed,0.000000,0.770000,0.970000,1.000000,101.000000,1,0,-0.000000,0.000000,1,0.000000,0.000000,0.000000,-19.124084,40.962189,0.000000,0.000000,0.000000,0.005000,FlatInitial,ResetBack,0
07:08:47.270 PM 02/16/2016,Teleop Disabled,0,FALSE,0,NO ERROR,0.000000,0.000000,-6000.000000,-6000.000000,Speed,Speed,0.000000,0.770000,0.970000,1.000000,101.000000,1,0,-0.000000,0.000000,1,0.000000,0.000000,0.000000,-19.124084,40.962189,0.000000,0.000000,-0.001000,0.001000,FlatInitial,ResetBack,0
07:08:47.371 PM 02/16/2016,Teleop Disabled,0,FALSE,0,NO ERROR,0.000000,0.000000,-6000.000000,-6000.000000,Speed,Speed,0.000000,0.770000,0.970000,1.000000,102.000000,1,0,-0.000000,0.000000,1,0.000000,0.000000,0.000000,-19.124084,40.962189,0.000000,0.000000,-0.001000,0.001000,FlatInitial,ResetBack,0
07:08:47.473 PM 02/16/2016,Teleop Disabled,0,FALSE,0,NO ERROR,0.000000,0.000000,-6000.000000,-6000.000000,Speed,Speed,0.000000,0.770000,0.970000,1.000000,101.000000,1,0,-0.000000,0.000000,1,0.000000,0.000000,0.000000,-19.124084,40.962189,0.000000,-0.001000,0.000000,0.000000,FlatInitial,ResetBack,0
07:08:47.573 PM 02/16/2016,Teleop Disabled,0,FALSE,0,NO ERROR,0.000000,0.000000,-6000.000000,-6000.000000,Speed,Speed,0.000000,0.760000,0.970000,1.000000,101.000000,1,0,-0.000000,0.000000,1,0.000000,0.000000,0.000000,-19.124084,40.962189,0.000000,-0.001000,0.001000,0.000000,FlatInitial,ResetBack,0
07:08:47.674 PM 02/16/2016,Teleop Disabled,0,FALSE,0,NO ERROR,0.000000,0.000000,-6000.000000,-6000.000000,Speed,Speed,0.000000,0.760000,0.970000,1.000000,103.000000,1,0,-0.000000,0.000000,1,0.000000,0.000000,0.000000,-19.124084,40.962189,0.000000,0.000000,0.000000,0.004000,FlatInitial,ResetBack,0
07:08:47.775 PM 02/16/2016,Teleop Disabled,0,FALSE,0,NO ERROR,0.000000,0.000000,-6000.000000,-6000.000000,Speed,Speed,0.000000,0.760000,0.970000,1.000000,102.000000,1,0,-0.000000,0.000000,1,0.000000,0.000000,0.000000,-19.124084,40.962189,0.000000,0.000000,-0.002000,0.005000,FlatInitial,ResetBack,0
07:08:47.880 PM 02/16/2016,Teleop Disabled,0,FALSE,0,NO ERROR,0.000000,0.000000,-6000.000000,-6000.000000,Speed,Speed,0.000000,0.760000,0.970000,1.000000,103.000000,1,0,-0.000000,0.000000,1,0.000000,0.000000,0.000000,-19.124084,40.962189,0.000000,-0.001000,0.000000,0.004000,FlatInitial,ResetBack,0
07:08:47.978 PM 02/16/2016,Teleop Disabled,0,FALSE,0,NO ERROR,0.000000,0.000000,-6000.000000,-6000.000000,Speed,Speed,0.000000,0.760000,0.970000,1.000000,101.000000,1,0,-0.000000,0.000000,1,0.000000,0.000000,0.000000,-19.124084,40.962189,0.000000,-0.001000,0.002000,-0.001000,FlatInitial,ResetBack,0
07:08:48.079 PM 02/16/2016,Teleop Disabled,0,FALSE,0,NO ERROR,0.000000,0.000000,-6000.000000,-6000.000000,Speed,Speed,0.000000,0.760000,0.970000,1.000000,101.000000,1,0,-0.000000,0.000000,1,0.000000,0.000000,0.000000,-19.124084,40.962189,0.000000,0.000000,0.000000,0.003000,FlatInitial,ResetBack,0
07:08:48.179 PM 02/16/2016,Teleop Disabled,0,FALSE,0,NO ERROR,0.000000,0.000000,-6000.000000,-6000.000000,Speed,Speed,0.000000,0.760000,0.970000,1.000000,103.000000,1,0,-0.000000,0.000000,1,0.000000,0.000000,0.000000,-19.124084,40.962189,0.000000,0.000000,0.000000,0.003000,FlatInitial,ResetBack,0
07:08:48.279 PM 02/16/2016,Teleop Disabled,0,FALSE,0,NO ERROR,0.000000,0.000000,-6000.000000,-6000.000000,Speed,Speed,0.010000,0.760000,0.970000,1.000000,102.000000,1,0,-0.000000,0.000000,1,0.000000,0.000000,0.000000,-19.124084,40.962189,0.000000,-0.002000,0.001000,0.000000,FlatInitial,ResetBack,0
07:08:48.380 PM 02/16/2016,Teleop Disabled,0,FALSE,0,NO ERROR,0.000000,0.000000,-6000.000000,-6000.000000,Speed,Speed,0.010000,0.760000,0.960000,1.000000,101.000000,1,0,-0.000000,0.000000,1,0.000000,0.000000,0.000000,-19.124084,40.962189,0.000000,-0.001000,-0.002000,0.004000,FlatInitial,ResetBack,0
07:08:48.480 PM 02/16/2016,Teleop Disabled,0,FALSE,0,NO ERROR,0.000000,0.000000,-6000.000000,-6000.000000,Speed,Speed,0.010000,0.750000,0.970000,1.000000,101.000000,1,0,-0.000000,0.000000,1,0.000000,0.000000,0.000000,-19.124084,40.962189,0.000000,0.000000,0.002000,0.000000,FlatInitial,ResetBack,0
07:08:48.580 PM 02/16/2016,Teleop Disabled,0,FALSE,0,NO ERROR,0.000000,0.000000,-6000.000000,-6000.000000,Speed,Speed,0.010000,0.750000,0.970000,1.000000,103.000000,1,0,-0.000000,0.000000,1,0.000000,0.000000,0.000000,-19.124084,40.962189,0.000000,0.000000,0.001000,0.002000,FlatInitial,ResetBack,0
07:08:48.681 PM 02/16/2016,Teleop Disabled,0,FALSE,0,NO ERROR,0.000000,0.000000,-6000.000000,-6000.000000,Speed,Speed,0.010000,0.760000,0.970000,1.000000,101.000000,1,0,-0.000000,0.000000,1,0.000000,0.000000,0.000000,-19.124084,40.962189,0.000000,0.000000,-0.001000,0.002000,FlatInitial,ResetBack,0
07:08:48.781 PM 02/16/2016,Teleop Disabled,0,FALSE,0,NO ERROR,0.000000,0.000000,-6000.000000,-6000.000000,Speed,Speed,0.000000,0.760000,0.960000,1.000000,103.000000,1,0,-0.000000,0.000000,1,0.000000,0.000000,0.000000,-19.124084,40.962189,0.000000,0.001000,0.000000,0.006000,FlatInitial,ResetBack,0
07:08:48.881 PM 02/16/2016,Teleop Disabled,0,FALSE,0,NO ERROR,0.000000,0.000000,-6000.000000,-6000.000000,Speed,Speed,0.010000,0.760000,0.960000,1.000000,101.000000,1,0,-0.000000,0.000000,1,0.000000,0.000000,0.000000,-19.124084,40.962189,0.000000,-0.004000,0.000000,-0.001000,FlatInitial,ResetBack,0
07:08:48.981 PM 02/16/2016,Teleop Disabled,0,FALSE,0,NO ERROR,0.000000,0.000000,-6000.000000,-6000.000000,Speed,Speed,0.010000,0.750000,0.970000,1.000000,103.000000,1,0,-0.000000,0.000000,1,0.000000,0.000000,0.000000,-19.124084,40.962189,0.000000,0.000000,0.001000,0.003000,FlatInitial,ResetBack,0
07:08:49.081 PM 02/16/2016,Teleop Disabled,0,FALSE,0,NO ERROR,0.000000,0.000000,-6000.000000,-6000.000000,Speed,Speed,0.010000,0.750000,0.970000,1.000000,102.000000,1,0,-0.000000,0.000000,1,0.000000,0.000000,0.000000,-19.124084,40.962189,0.000000,0.003000,0.000000,0.005000,FlatInitial,ResetBack,0
07:08:49.181 PM 02/16/2016,Teleop Disabled,0,FALSE,0,NO ERROR,0.000000,0.000000,-6000.000000,-6000.000000,Speed,Speed,0.010000,0.750000,0.970000,1.000000,102.000000,1,0,-0.000000,0.000000,1,0.000000,0.000000,0.000000,-19.124084,40.962189,0.000000,-0.001000,0.002000,0.000000,FlatInitial,ResetBack,0
07:08:49.282 PM 02/16/2016,Teleop Disabled,0,FALSE,0,NO ERROR,0.000000,0.000000,-6000.000000,-6000.000000,Speed,Speed,0.010000,0.750000,0.970000,1.000000,100.000000,1,0,-0.000000,0.000000,1,0.000000,0.000000,0.000000,-19.124084,40.962189,0.000000,0.000000,-0.002000,0.001000,FlatInitial,ResetBack,0
07:08:49.382 PM 02/16/2016,Teleop Disabled,0,FALSE,0,NO ERROR,0.000000,0.000000,-6000.000000,-6000.000000,Speed,Speed,0.010000,0.750000,0.970000,1.000000,101.000000,1,0,-0.000000,0.000000,1,0.000000,0.000000,0.000000,-19.124084,40.962189,0.000000,0.001000,-0.001000,0.004000,FlatInitial,ResetBack,0
07:08:49.482 PM 02/16/2016,Teleop Disabled,0,FALSE,0,NO ERROR,0.000000,0.000000,-6000.000000,-6000.000000,Speed,Speed,0.010000,0.750000,0.960000,1.000000,102.000000,1,0,-0.000000,0.000000,1,0.000000,0.000000,0.000000,-19.124084,40.962189,0.000000,0.000000,-0.001000,0.004000,FlatInitial,ResetBack,0
07:08:49.582 PM 02/16/2016,Teleop Disabled,0,FALSE,0,NO ERROR,0.000000,0.000000,-6000.000000,-6000.000000,Speed,Speed,0.010000,0.750000,0.960000,1.000000,103.000000,1,0,-0.000000,0.000000,1,0.000000,0.000000,0.000000,-19.124084,40.962189,0.000000,-0.002000,-0.002000,0.002000,FlatInitial,ResetBack,0
07:08:49.683 PM 02/16/2016,Teleop Disabled,0,FALSE,0,NO ERROR,0.000000,0.000000,-6000.000000,-6000.000000,Speed,Speed,0.010000,0.760000,0.960000,1.000000,102.000000,1,0,-0.000000,0.000000,1,0.000000,0.000000,0.000000,-19.124084,40.962189,0.000000,0.001000,0.001000,0.001000,FlatInitial,ResetBack,0
07:08:49.783 PM 02/16/2016,Teleop Disabled,0,FALSE,0,NO ERROR,0.000000,0.000000,-6000.000000,-6000.000000,Speed,Speed,0.010000,0.760000,0.960000,1.000000,101.000000,1,0,-0.000000,0.000000,1,0.000000,0.000000,0.000000,-19.124084,40.962189,0.000000,0.001000,0.000000,0.001000,FlatInitial,ResetBack,0
07:08:49.884 PM 02/16/2016,Teleop Disabled,0,FALSE,0,NO ERROR,0.000000,0.000000,-6000.000000,-6000.000000,Speed,Speed,0.010000,0.750000,0.970000,1.000000,102.000000,1,0,-0.000000,0.000000,1,0.000000,0.000000,0.000000,-19.124084,40.962189,0.000000,-0.001000,0.002000,0.004000,FlatInitial,ResetBack,0
07:08:49.984 PM 02/16/2016,Teleop Disabled,0,FALSE,0,NO ERROR,0.000000,0.000000,-6000.000000,-6000.000000,Speed,Speed,0.000000,0.750000,0.970000,1.000000,103.000000,1,0,-0.000000,0.000000,1,0.000000,0.000000,0.000000,-19.124084,40.962189,0.000000,-0.002000,0.000000,0.000000,FlatInitial,ResetBack,0
07:08:50.084 PM 02/16/2016,Teleop Disabled,0,FALSE,0,NO ERROR,0.000000,0.000000,-6000.000000,-6000.000000,Speed,Speed,0.010000,0.750000,0.970000,1.000000,101.000000,1,0,-0.000000,0.000000,1,0.000000,0.000000,0.000000,-19.124084,40.962189,0.000000,0.000000,0.004000,0.006000,FlatInitial,ResetBack,0
07:08:50.184 PM 02/16/2016,Teleop Disabled,0,FALSE,0,NO ERROR,0.000000,0.000000,-6000.000000,-6000.000000,Speed,Speed,0.010000,0.750000,0.970000,1.000000,101.000000,1,0,-0.000000,0.000000,1,0.000000,0.000000,0.000000,-19.124084,40.962189,0.000000,0.001000,0.001000,0.002000,FlatInitial,ResetBack,0
07:08:50.284 PM 02/16/2016,Teleop Disabled,0,FALSE,0,NO ERROR,0.000000,0.000000,-6000.000000,-6000.000000,Speed,Speed,0.010000,0.750000,0.970000,1.000000,105.000000,1,0,-0.000000,0.000000,1,0.000000,0.000000,0.000000,-19.124084,40.962189,0.000000,-0.001000,0.000000,0.005000,FlatInitial,ResetBack,0
07:08:50.384 PM 02/16/2016,Teleop Disabled,0,FALSE,0,NO ERROR,0.000000,0.000000,-6000.000000,-6000.000000,Speed,Speed,0.010000,0.750000,0.970000,1.000000,101.000000,1,0,-0.000000,0.000000,1,0.000000,0.000000,0.000000,-19.124084,40.962189,0.000000,0.000000,0.000000,-0.001000,FlatInitial,ResetBack,0
07:08:50.484 PM 02/16/2016,Teleop Disabled,0,FALSE,0,NO ERROR,0.000000,0.000000,-6000.000000,-6000.000000,Speed,Speed,0.010000,0.750000,0.960000,1.000000,101.000000,1,0,-0.000000,0.000000,1,0.000000,0.000000,0.000000,-19.124084,40.962189,0.000000,-0.003000,-0.002000,0.005000,FlatInitial,ResetBack,0
07:08:50.584 PM 02/16/2016,Teleop Disabled,0,FALSE,0,NO ERROR,0.000000,0.000000,-6000.000000,-6000.000000,Speed,Speed,0.020000,0.750000,0.960000,1.000000,102.000000,1,0,-0.000000,0.000000,1,0.000000,0.000000,0.000000,-19.124084,40.962189,0.000000,0.003000,0.002000,0.003000,FlatInitial,ResetBack,0
07:08:50.684 PM 02/16/2016,Teleop Disabled,0,FALSE,0,NO ERROR,0.000000,0.000000,-6000.000000,-6000.000000,Speed,Speed,0.020000,0.760000,0.960000,1.000000,102.000000,1,0,-0.000000,0.000000,1,0.000000,0.000000,0.000000,-19.124084,40.962189,0.000000,0.003000,-0.002000,0.002000,FlatInitial,ResetBack,0
07:08:50.784 PM 02/16/2016,Teleop Enabled,0,FALSE,0,NO ERROR,0.000000,0.000000,-6000.000000,-6000.000000,Speed,Speed,0.020000,0.760000,0.960000,1.000000,101.000000,1,0,-0.000000,0.000000,1,0.000000,0.000000,0.000000,-19.124084,40.962189,0.000000,0.015000,0.001000,-0.024000,FlatInitial,ResetBack,0
07:08:50.885 PM 02/16/2016,Teleop Enabled,0,FALSE,0,NO ERROR,0.000000,0.000000,-6000.000000,-6000.000000,Speed,Speed,0.020000,0.780000,0.970000,1.000000,101.000000,1,0,-0.000000,0.000000,1,0.003082,0.017960,0.000000,-19.124191,40.962799,0.000000,0.021000,-0.017000,-0.004000,FlatInitial,ResetBack,0
07:08:50.985 PM 02/16/2016,Teleop Enabled,0,FALSE,0,NO ERROR,0.000000,0.000000,-6000.000000,-6000.000000,Speed,Speed,0.000000,0.710000,1.000000,1.000000,102.000000,1,0,-0.000000,0.000000,1,-0.009262,-0.030685,0.000000,-19.124146,40.962021,0.000000,-0.023000,0.002000,-0.001000,FlatInitial,ResetBack,0
07:08:51.086 PM 02/16/2016,Teleop Enabled,0,FALSE,0,NO ERROR,0.000000,0.000000,-6000.000000,-6000.000000,Speed,Speed,0.030000,0.760000,0.930000,1.000000,101.000000,1,0,-0.000000,0.000000,1,0.005020,0.000000,0.000000,-19.124573,40.961700,0.000000,0.004000,0.014000,0.017000,FlatInitial,ResetBack,1
07:08:51.186 PM 02/16/2016,Teleop Enabled,0,FALSE,0,NO ERROR,0.000000,0.000000,-6000.000000,-6000.000000,Speed,Speed,0.030000,0.680000,1.060000,1.000000,101.000000,1,0,-0.000000,0.000000,1,-0.002365,0.000000,0.000000,-19.124390,40.961700,0.000000,-0.005000,-0.045000,-0.044000,FlatInitial,ResetForward,1
07:08:51.286 PM 02/16/2016,Teleop Enabled,0,FALSE,0,NO ERROR,0.000000,0.000000,-6000.000000,-6000.000000,Speed,Speed,0.000000,0.730000,1.050000,1.000000,101.000000,1,0,-0.000000,0.000000,1,0.010040,0.003510,0.000000,-19.124115,40.961426,0.000000,-0.019000,0.016000,-0.041000,FlatInitial,ResetForward,1
07:08:51.386 PM 02/16/2016,Teleop Enabled,0,FALSE,0,NO ERROR,0.000000,0.000000,-6000.000000,-6000.000000,Speed,Speed,0.000000,0.700000,1.070000,1.000000,101.000000,1,0,-0.000000,0.000000,1,0.005341,0.002808,0.000000,-19.123962,40.961655,0.000000,-0.007000,0.007000,0.027000,FlatInitial,ResetForward,1
07:08:51.486 PM 02/16/2016,Teleop Enabled,0,FALSE,0,NO ERROR,0.000000,0.000000,-6000.000000,-6000.000000,Speed,Speed,0.020000,0.700000,1.110000,1.000000,103.000000,1,0,-0.000000,0.000000,1,0.000000,0.000000,0.000000,-19.123901,40.961655,0.000000,0.003000,0.016000,-0.014000,FlatInitial,ResetForward,1
07:08:51.586 PM 02/16/2016,Teleop Enabled,0,FALSE,0,NO ERROR,0.000000,0.000000,-6000.000000,-6000.000000,Speed,Speed,0.010000,0.710000,1.100000,1.000000,103.000000,1,0,-0.000000,0.000000,1,0.000000,0.000000,0.000000,-19.123901,40.961884,0.000000,0.003000,-0.012000,0.019000,FlatInitial,ResetForward,1
07:08:51.686 PM 02/16/2016,Teleop Enabled,0,FALSE,0,NO ERROR,0.000000,0.000000,-6000.000000,-6000.000000,Speed,Speed,0.000000,0.700000,1.050000,1.000000,102.000000,1,0,-0.000000,0.000000,1,0.000000,0.000000,0.000000,-19.123901,40.961884,0.000000,0.003000,-0.012000,0.000000,FlatInitial,ResetForward,1
07:08:51.786 PM 02/16/2016,Teleop Enabled,0,FALSE,0,NO ERROR,0.000000,0.000000,-6000.000000,-6000.000000,Speed,Speed,0.000000,0.700000,1.030000,1.000000,101.000000,1,0,-0.000000,0.000000,1,0.000000,0.000000,0.000000,-19.123901,40.961884,0.000000,0.003000,-0.012000,0.000000,FlatInitial,ResetForward,1
07:08:51.887 PM 02/16/2016,Teleop Enabled,0,FALSE,0,NO ERROR,0.000000,0.000000,-6000.000000,-6000.000000,Speed,Speed,0.030000,0.720000,1.040000,1.000000,101.000000,1,0,-0.000000,0.000000,1,0.000000,0.022125,0.000000,-19.123901,40.962372,0.000000,-0.010000,0.036000,0.020000,FlatInitial,ResetForward,0
07:08:51.989 PM 02/16/2016,Teleop Enabled,0,FALSE,0,NO ERROR,0.000000,0.000000,-6000.000000,-6000.000000,Speed,Speed,-0.040000,0.770000,1.080000,1.000000,102.000000,1,0,-0.000000,0.000000,1,0.012451,0.008194,0.000000,-19.123642,40.963470,0.000000,-0.010000,0.036000,0.020000,FlatInitial,Reset,0
07:08:52.089 PM 02/16/2016,Teleop Enabled,0,FALSE,0,NO ERROR,0.000000,0.000000,-6000.000000,-6000.000000,Speed,Speed,0.010000,0.710000,0.870000,1.000000,101.000000,1,0,-0.000000,0.000000,1,-0.009415,0.000000,0.000000,-19.123886,40.963181,0.000000,-0.004000,-0.048000,0.021000,FlatInitial,Hold,0
07:08:52.190 PM 02/16/2016,Teleop Enabled,0,FALSE,0,NO ERROR,0.000000,0.000000,-6000.000000,-6000.000000,Speed,Speed,0.010000,0.710000,0.870000,1.000000,102.000000,1,0,-0.000000,0.000000,1,0.009308,-0.003983,0.000000,-19.123550,40.963150,0.000000,0.024000,0.013000,0.006000,FlatInitial,Hold,0
07:08:52.290 PM 02/16/2016,Teleop Enabled,0,FALSE,0,NO ERROR,0.000000,0.000000,-6000.000000,-6000.000000,Speed,Speed,0.020000,0.710000,0.890000,1.000000,101.000000,1,0,-0.000000,0.000000,1,0.009308,-0.003983,0.000000,-19.123550,40.963150,0.000000,-0.028000,-0.024000,0.030000,FlatInitial,Hold,0
07:08:52.390 PM 02/16/2016,Teleop Enabled,0,FALSE,0,NO ERROR,0.000000,0.000000,-6000.000000,-6000.000000,Speed,Speed,-0.020000,0.730000,1.080000,1.000000,102.000000,1,0,-0.000000,0.000000,1,-0.005173,0.000000,0.000000,-19.123856,40.962616,0.000000,0.025000,0.035000,-0.017000,FlatInitial,Hold,0
07:08:52.491 PM 02/16/2016,Teleop Enabled,0,FALSE,0,NO ERROR,0.000000,0.000000,-6000.000000,-6000.000000,Speed,Speed,0.000000,0.730000,1.020000,1.000000,102.000000,1,0,-0.000000,0.000000,1,0.000000,0.027817,0.000000,-19.123810,40.963516,0.000000,-0.015000,0.004000,0.008000,FlatInitial,Hold,0
07:08:52.592 PM 02/16/2016,Teleop Enabled,0,FALSE,0,NO ERROR,0.000000,0.000000,-6000.000000,-6000.000000,Speed,Speed,0.000000,0.730000,1.020000,1.000000,102.000000,1,0,-0.000000,0.000000,1,0.000000,0.000000,0.000000,-19.123993,40.963516,0.000000,0.004000,0.005000,-0.001000,FlatInitial,Hold,0
07:08:52.692 PM 02/16/2016,Teleop Enabled,0,FALSE,0,NO ERROR,0.000000,0.000000,-6000.000000,-6000.000000,Speed,Speed,-0.010000,0.720000,1.020000,1.000000,102.000000,1,0,-0.000000,0.000000,1,0.000000,0.000000,0.000000,-19.123993,40.963516,0.000000,0.002000,0.001000,0.000000,FlatInitial,Hold,0
07:08:52.792 PM 02/16/2016,Teleop Enabled,0,FALSE,0,NO ERROR,0.000000,0.000000,-6000.000000,-6000.000000,Speed,Speed,-0.010000,0.720000,1.020000,1.000000,103.000000,1,0,-0.000000,0.000000,1,0.000000,0.000000,0.000000,-19.123993,40.963516,0.000000,-0.006000,0.000000,0.007000,FlatInitial,Hold,0
07:08:52.893 PM 02/16/2016,Teleop Enabled,0,FALSE,0,NO ERROR,0.000000,0.000000,-6000.000000,-6000.000000,Speed,Speed,-0.010000,0.710000,1.050000,1.000000,100.000000,1,0,-0.000000,0.000000,1,0.000000,0.000000,0.000000,-19.123993,40.963516,0.000000,0.006000,0.005000,0.002000,FlatInitial,Hold,0
07:08:52.994 PM 02/16/2016,Teleop Enabled,0,FALSE,0,NO ERROR,0.000000,0.000000,-6000.000000,-6000.000000,Speed,Speed,-0.010000,0.710000,1.050000,1.000000,101.000000,1,0,-0.000000,0.000000,1,0.000000,0.000000,0.000000,-19.123993,40.963516,0.000000,0.000000,-0.001000,0.006000,FlatInitial,Hold,0
07:08:53.095 PM 02/16/2016,Teleop Enabled,0,FALSE,0,NO ERROR,0.000000,0.000000,-6000.000000,-6000.000000,Speed,Speed,-0.030000,0.730000,1.040000,1.000000,101.000000,1,0,-0.000000,0.000000,1,0.000000,0.000000,0.000000,-19.123993,40.963516,0.000000,-0.005000,0.004000,0.006000,FlatInitial,Hold,0
07:08:53.195 PM 02/16/2016,Teleop Enabled,0,FALSE,0,NO ERROR,0.000000,0.000000,-6000.000000,-6000.000000,Speed,Speed,-0.010000,0.720000,1.030000,1.000000,101.000000,1,0,-0.000000,0.000000,1,0.000000,0.000000,0.000000,-19.123993,40.963516,0.000000,0.001000,-0.008000,0.003000,FlatInitial,Hold,0
07:08:53.297 PM 02/16/2016,Teleop Enabled,0,FALSE,0,NO ERROR,0.000000,0.000000,-6000.000000,-6000.000000,Speed,Speed,-0.020000,0.730000,1.030000,1.000000,102.000000,1,0,-0.000000,0.000000,1,0.000000,0.000000,0.000000,-19.123993,40.963516,0.000000,-0.001000,0.005000,0.001000,FlatInitial,Hold,0
07:08:53.396 PM 02/16/2016,Teleop Enabled,0,FALSE,0,NO ERROR,0.000000,0.000000,-6000.000000,-6000.000000,Speed,Speed,-0.010000,0.720000,1.050000,1.000000,101.000000,1,0,-0.000000,0.000000,1,0.000000,0.000000,0.000000,-19.123993,40.963516,0.000000,-0.001000,0.000000,0.007000,FlatInitial,Hold,0
07:08:53.496 PM 02/16/2016,Teleop Enabled,0,FALSE,0,NO ERROR,0.000000,0.000000,-6000.000000,-6000.000000,Speed,Speed,-0.020000,0.730000,1.040000,1.000000,102.000000,1,0,-0.000000,0.000000,1,0.000000,0.000000,0.000000,-19.123993,40.963516,0.000000,0.002000,0.002000,0.001000,FlatInitial,Hold,0
07:08:53.596 PM 02/16/2016,Teleop Enabled,0,FALSE,0,NO ERROR,0.000000,0.000000,-6000.000000,-6000.000000,Speed,Speed,-0.020000,0.720000,1.050000,1.000000,101.000000,1,0,-0.000000,0.000000,1,0.000000,0.000000,0.000000,-19.123993,40.963516,0.000000,0.000000,-0.004000,0.003000,FlatInitial,Hold,0
07:08:53.697 PM 02/16/2016,Teleop Enabled,0,FALSE,0,NO ERROR,0.000000,0.000000,-6000.000000,-6000.000000,Speed,Speed,-0.020000,0.730000,1.050000,1.000000,102.000000,1,0,-0.000000,0.000000,1,0.000000,0.000000,0.000000,-19.123993,40.963516,0.000000,0.001000,0.000000,0.000000,FlatInitial,Hold,0
07:08:53.798 PM 02/16/2016,Teleop Enabled,0,FALSE,0,NO ERROR,0.000000,0.000000,-6000.000000,-6000.000000,Speed,Speed,-0.030000,0.720000,1.040000,1.000000,103.000000,1,0,-0.000000,0.000000,1,0.000000,0.000000,0.000000,-19.123993,40.963516,0.000000,0.002000,-0.002000,0.005000,FlatInitial,Hold,0
07:08:53.901 PM 02/16/2016,Teleop Enabled,0,FALSE,0,NO ERROR,0.000000,0.000000,-6000.000000,-6000.000000,Speed,Speed,-0.030000,0.720000,1.050000,1.000000,101.000000,1,0,-0.000000,0.000000,1,0.000000,0.000000,0.000000,-19.123993,40.963516,0.000000,0.000000,0.000000,0.002000,FlatInitial,Hold,0
07:08:54.000 PM 02/16/2016,Teleop Enabled,0,FALSE,0,NO ERROR,0.000000,0.000000,-6000.000000,-6000.000000,Speed,Speed,-0.030000,0.720000,1.040000,1.000000,102.000000,1,0,-0.000000,0.000000,1,0.000000,0.000000,0.000000,-19.123993,40.963516,0.000000,0.002000,-0.001000,0.006000,FlatInitial,Hold,0
07:08:54.101 PM 02/16/2016,Teleop Enabled,0,FALSE,0,NO ERROR,0.000000,0.000000,-6000.000000,-6000.000000,Speed,Speed,-0.030000,0.730000,1.040000,1.000000,102.000000,1,0,-0.000000,0.000000,1,0.000000,0.000000,0.000000,-19.123993,40.963516,0.000000,0.000000,0.000000,0.006000,FlatInitial,Hold,0
07:08:54.201 PM 02/16/2016,Teleop Enabled,0,FALSE,0,NO ERROR,0.000000,0.000000,-6000.000000,-6000.000000,Speed,Speed,-0.030000,0.720000,1.040000,1.000000,102.000000,1,0,-0.000000,0.000000,1,0.000000,0.000000,0.000000,-19.123993,40.963516,0.000000,-0.002000,0.002000,0.000000,FlatInitial,Hold,0
07:08:54.303 PM 02/16/2016,Teleop Enabled,0,FALSE,0,NO ERROR,0.000000,0.000000,-6000.000000,-6000.000000,Speed,Speed,-0.030000,0.720000,1.050000,1.000000,101.000000,1,0,-0.000000,0.000000,1,0.000000,0.000000,0.000000,-19.123993,40.963516,0.000000,-0.002000,-0.001000,0.001000,FlatInitial,Hold,0
07:08:54.405 PM 02/16/2016,Teleop Enabled,0,FALSE,0,NO ERROR,0.000000,0.000000,-6000.000000,-6000.000000,Speed,Speed,-0.030000,0.730000,1.040000,1.000000,101.000000,1,0,-0.000000,0.000000,1,0.000000,0.000000,0.000000,-19.123993,40.963516,0.000000,0.001000,-0.001000,0.005000,FlatInitial,Hold,0
07:08:54.506 PM 02/16/2016,Teleop Enabled,0,FALSE,0,NO ERROR,0.000000,0.000000,-6000.000000,-6000.000000,Speed,Speed,-0.040000,0.720000,1.050000,1.000000,102.000000,1,0,-0.000000,0.000000,1,0.000000,0.000000,0.000000,-19.123993,40.963516,0.000000,0.000000,0.000000,0.001000,FlatInitial,Hold,0
07:08:54.606 PM 02/16/2016,Teleop Enabled,0,FALSE,0,NO ERROR,0.000000,0.000000,-6000.000000,-6000.000000,Speed,Speed,-0.040000,0.720000,1.050000,1.000000,101.000000,1,0,-0.000000,0.000000,1,0.000000,0.000000,0.000000,-19.123993,40.963516,0.000000,0.000000,0.000000,0.008000,FlatInitial,Hold,0
07:08:54.706 PM 02/16/2016,Teleop Enabled,0,FALSE,0,NO ERROR,0.000000,0.000000,-6000.000000,-6000.000000,Speed,Speed,-0.040000,0.730000,1.040000,1.000000,102.000000,1,0,-0.000000,0.000000,1,0.000000,0.000000,0.000000,-19.123993,40.963516,0.000000,0.000000,-0.003000,0.000000,FlatInitial,Hold,0
07:08:54.807 PM 02/16/2016,Teleop Enabled,0,FALSE,0,NO ERROR,0.000000,0.000000,-6000.000000,-6000.000000,Speed,Speed,-0.040000,0.730000,1.040000,1.000000,101.000000,1,0,-0.000000,0.000000,1,0.000000,0.000000,0.000000,-19.123993,40.963516,0.000000,0.001000,0.000000,0.004000,FlatInitial,Hold,0
07:08:54.908 PM 02/16/2016,Teleop Enabled,0,FALSE,0,NO ERROR,0.000000,0.000000,-6000.000000,-6000.000000,Speed,Speed,-0.040000,0.730000,1.050000,1.000000,102.000000,1,0,-0.000000,0.000000,1,0.000000,0.000000,0.000000,-19.123993,40.963516,0.000000,0.000000,0.000000,0.006000,FlatInitial,Hold,0
07:08:55.009 PM 02/16/2016,Teleop Enabled,0,FALSE,0,NO ERROR,0.000000,0.000000,-6000.000000,-6000.000000,Speed,Speed,-0.040000,0.730000,1.040000,1.000000,103.000000,1,0,-0.000000,0.000000,1,0.000000,0.000000,0.000000,-19.123993,40.963516,0.000000,-0.001000,0.000000,0.003000,FlatInitial,Hold,0
07:08:55.109 PM 02/16/2016,Teleop Enabled,0,FALSE,0,NO ERROR,0.000000,0.000000,-6000.000000,-6000.000000,Speed,Speed,-0.040000,0.730000,1.050000,1.000000,104.000000,1,0,-0.000000,0.000000,1,0.000000,0.000000,0.000000,-19.123993,40.963516,0.000000,0.000000,-0.003000,0.005000,FlatInitial,Hold,0
07:08:55.209 PM 02/16/2016,Teleop Enabled,0,FALSE,0,NO ERROR,0.000000,0.000000,-6000.000000,-6000.000000,Speed,Speed,-0.040000,0.730000,1.050000,1.000000,102.000000,1,0,-0.000000,0.000000,1,0.000000,0.000000,0.000000,-19.123993,40.963516,0.000000,0.001000,0.000000,0.004000,FlatInitial,LowGoal,0
07:08:55.310 PM 02/16/2016,Teleop Enabled,0,FALSE,0,NO ERROR,0.000000,0.000000,-6000.000000,-6000.000000,Speed,Speed,-0.040000,0.730000,1.050000,1.000000,101.000000,1,0,-0.000000,0.000000,1,0.000000,0.000000,0.000000,-19.123993,40.963516,0.000000,0.004000,0.000000,0.001000,FlatInitial,Hold,0
07:08:55.410 PM 02/16/2016,Teleop Enabled,0,FALSE,0,NO ERROR,0.000000,0.000000,-6000.000000,-6000.000000,Speed,Speed,-0.050000,0.720000,1.070000,1.000000,101.000000,1,0,-0.000000,0.000000,1,0.000000,0.000000,0.000000,-19.123993,40.963516,0.000000,0.014000,-0.017000,0.004000,FlatInitial,LowGoal,0
07:08:55.512 PM 02/16/2016,Teleop Enabled,0,FALSE,0,NO ERROR,0.000000,0.000000,-6000.000000,-6000.000000,Speed,Speed,-0.020000,0.690000,1.090000,1.000000,102.000000,1,0,-0.000000,0.000000,1,0.000000,0.000000,0.000000,-19.123993,40.963516,0.000000,0.019000,0.004000,0.000000,FlatInitial,Hold,0
07:08:55.613 PM 02/16/2016,Teleop Enabled,0,FALSE,0,NO ERROR,0.000000,0.000000,-6000.000000,-6000.000000,Speed,Speed,0.000000,0.670000,1.240000,1.000000,101.000000,1,0,-0.000000,0.000000,1,0.000000,0.000000,0.000000,-19.123993,40.963837,0.000000,0.000000,0.002000,0.005000,FlatInitial,Hold,0
07:08:55.714 PM 02/16/2016,Teleop Enabled,0,FALSE,0,NO ERROR,0.000000,0.000000,-6000.000000,-6000.000000,Speed,Speed,-0.010000,0.810000,0.850000,1.000000,101.000000,1,0,-0.000000,0.000000,1,-0.007767,0.047943,0.000000,-19.124115,40.964996,0.000000,0.066000,0.020000,-0.148000,FlatInitial,Hold,0
07:08:55.814 PM 02/16/2016,Teleop Enabled,0,FALSE,0,NO ERROR,0.000000,0.000000,-6000.000000,-6000.000000,Speed,Speed,-0.070000,0.750000,1.210000,1.000000,102.000000,1,0,-0.000000,0.000000,1,0.021210,0.004654,0.000000,-19.123199,40.966782,0.000000,-0.101000,-0.061000,-0.034000,FlatInitial,Hold,0
07:08:55.916 PM 02/16/2016,Teleop Enabled,0,FALSE,0,NO ERROR,0.000000,0.000000,-6000.000000,-6000.000000,Speed,Speed,0.000000,0.890000,0.560000,1.000000,101.000000,1,0,-0.000000,0.000000,1,0.005661,0.000000,0.000000,-19.123718,40.966263,0.000000,0.070000,0.017000,-0.097000,FlatInitial,Hold,0
07:08:56.016 PM 02/16/2016,Teleop Enabled,0,FALSE,0,NO ERROR,0.000000,0.000000,-6000.000000,-6000.000000,Speed,Speed,-0.040000,0.740000,0.840000,1.000000,101.000000,1,0,-0.000000,0.000000,1,0.002319,0.000000,0.000000,-19.123260,40.966476,0.000000,-0.043000,0.000000,0.008000,FlatInitial,Hold,0
07:08:56.117 PM 02/16/2016,Teleop Enabled,0,FALSE,0,NO ERROR,0.000000,0.000000,-6000.000000,-6000.000000,Speed,Speed,-0.010000,0.850000,0.700000,1.000000,101.000000,1,0,-0.000000,0.000000,1,0.005310,0.011047,0.000000,-19.123581,40.966690,0.000000,0.003000,0.018000,0.000000,FlatInitial,Hold,0
07:08:56.218 PM 02/16/2016,Teleop Enabled,0,FALSE,0,NO ERROR,0.000000,0.000000,-6000.000000,-6000.000000,Speed,Speed,-0.020000,0.770000,0.830000,1.000000,103.000000,1,0,-0.000000,0.000000,1,0.000000,0.000000,0.000000,-19.123657,40.966690,0.000000,0.011000,0.014000,0.008000,FlatInitial,Hold,0
07:08:56.321 PM 02/16/2016,Teleop Enabled,0,FALSE,0,NO ERROR,0.000000,0.000000,-6000.000000,-6000.000000,Speed,Speed,0.000000,0.800000,0.830000,1.000000,102.000000,1,0,-0.000000,0.000000,1,0.000000,0.000000,0.000000,-19.123657,40.966690,0.000000,-0.001000,-0.007000,0.002000,FlatInitial,Hold,0
07:08:56.421 PM 02/16/2016,Teleop Enabled,0,FALSE,0,NO ERROR,0.000000,0.000000,-6000.000000,-6000.000000,Speed,Speed,-0.030000,0.810000,0.830000,1.000000,102.000000,1,0,-0.000000,0.000000,1,0.000000,0.000000,0.000000,-19.123657,40.966690,0.000000,-0.003000,0.001000,0.010000,FlatInitial,Hold,0
07:08:56.521 PM 02/16/2016,Teleop Enabled,0,FALSE,0,NO ERROR,0.000000,0.000000,-6000.000000,-6000.000000,Speed,Speed,-0.010000,0.800000,0.830000,1.000000,105.000000,1,0,-0.000000,0.000000,1,0.000000,0.000000,0.000000,-19.123657,40.966690,0.000000,0.014000,0.002000,0.001000,FlatInitial,Hold,0
07:08:56.621 PM 02/16/2016,Teleop Enabled,0,FALSE,0,NO ERROR,0.000000,0.000000,-6000.000000,-6000.000000,Speed,Speed,-0.030000,0.790000,0.830000,1.000000,102.000000,1,0,-0.000000,0.000000,1,0.000000,0.000000,0.000000,-19.123657,40.966690,0.000000,0.001000,0.000000,0.005000,FlatInitial,Hold,0
07:08:56.721 PM 02/16/2016,Teleop Enabled,0,FALSE,0,NO ERROR,0.000000,0.000000,-6000.000000,-6000.000000,Speed,Speed,-0.010000,0.810000,0.820000,1.000000,100.000000,1,0,-0.000000,0.000000,1,0.000000,0.000000,0.000000,-19.123657,40.966690,0.000000,-0.004000,0.002000,0.005000,FlatInitial,Hold,0
07:08:56.821 PM 02/16/2016,Teleop Enabled,0,FALSE,0,NO ERROR,0.000000,0.000000,-6000.000000,-6000.000000,Speed,Speed,-0.010000,0.800000,0.830000,1.000000,102.000000,1,0,-0.000000,0.000000,1,0.000000,0.000000,0.000000,-19.123657,40.966690,0.000000,0.005000,0.000000,0.006000,FlatInitial,Hold,0
07:08:56.922 PM 02/16/2016,Teleop Enabled,0,FALSE,0,NO ERROR,0.000000,0.000000,-6000.000000,-6000.000000,Speed,Speed,-0.030000,0.800000,0.830000,1.000000,101.000000,1,0,-0.000000,0.000000,1,0.000000,0.000000,0.000000,-19.123657,40.966690,0.000000,0.000000,0.003000,0.008000,FlatInitial,Hold,0
07:08:57.023 PM 02/16/2016,Teleop Enabled,0,FALSE,0,NO ERROR,0.000000,0.000000,-6000.000000,-6000.000000,Speed,Speed,-0.010000,0.800000,0.810000,1.000000,102.000000,1,0,-0.000000,0.000000,1,0.000000,0.000000,0.000000,-19.123657,40.966690,0.000000,0.006000,0.000000,0.003000,FlatInitial,Hold,0
07:08:57.123 PM 02/16/2016,Teleop Enabled,0,FALSE,0,NO ERROR,0.000000,0.000000,-6000.000000,-6000.000000,Speed,Speed,-0.030000,0.800000,0.830000,1.000000,102.000000,1,0,-0.000000,0.000000,1,0.000000,0.000000,0.000000,-19.123657,40.966690,0.000000,-0.004000,-0.001000,0.006000,FlatInitial,Hold,0
07:08:57.223 PM 02/16/2016,Teleop Enabled,0,FALSE,0,NO ERROR,0.000000,0.000000,-6000.000000,-6000.000000,Speed,Speed,-0.020000,0.800000,0.810000,1.000000,101.000000,1,0,-0.000000,0.000000,1,0.000000,0.000000,0.000000,-19.123657,40.966690,0.000000,0.001000,-0.005000,0.002000,FlatInitial,Hold,0
07:08:57.324 PM 02/16/2016,Teleop Enabled,0,FALSE,0,NO ERROR,0.000000,0.000000,-6000.000000,-6000.000000,Speed,Speed,-0.030000,0.790000,0.820000,1.000000,103.000000,1,0,-0.000000,0.000000,1,0.000000,0.000000,0.000000,-19.123657,40.966690,0.000000,-0.001000,0.005000,0.006000,FlatInitial,Hold,0
07:08:57.424 PM 02/16/2016,Teleop Enabled,0,FALSE,0,NO ERROR,0.000000,0.000000,-6000.000000,-6000.000000,Speed,Speed,-0.020000,0.800000,0.800000,1.000000,103.000000,1,0,-0.000000,0.000000,1,0.000000,0.000000,0.000000,-19.123657,40.966690,0.000000,0.009000,-0.002000,0.002000,FlatInitial,Hold,0
07:08:57.524 PM 02/16/2016,Teleop Enabled,0,FALSE,0,NO ERROR,0.000000,0.000000,-6000.000000,-6000.000000,Speed,Speed,-0.040000,0.790000,0.830000,1.000000,103.000000,1,0,-0.000000,0.000000,1,0.000000,0.000000,0.000000,-19.123657,40.966690,0.000000,-0.003000,0.003000,0.006000,FlatInitial,Hold,0
07:08:57.624 PM 02/16/2016,Teleop Enabled,0,FALSE,0,NO ERROR,0.000000,0.000000,-6000.000000,-6000.000000,Speed,Speed,-0.020000,0.810000,0.810000,1.000000,101.000000,1,0,-0.000000,0.000000,1,0.000000,0.000000,0.000000,-19.123657,40.966690,0.000000,0.000000,0.000000,0.002000,FlatInitial,Hold,0
07:08:57.724 PM 02/16/2016,Teleop Enabled,0,FALSE,0,NO ERROR,0.000000,0.000000,-6000.000000,-6000.000000,Speed,Speed,-0.040000,0.800000,0.830000,1.000000,101.000000,1,0,-0.000000,0.000000,1,0.000000,0.000000,0.000000,-19.123657,40.966690,0.000000,-0.001000,0.000000,0.000000,FlatInitial,Hold,0
07:08:57.825 PM 02/16/2016,Teleop Enabled,0,FALSE,0,NO ERROR,0.000000,0.000000,-6000.000000,-6000.000000,Speed,Speed,-0.030000,0.810000,0.820000,1.000000,101.000000,1,0,-0.000000,0.000000,1,0.000000,0.000000,0.000000,-19.123657,40.966690,0.000000,0.002000,0.002000,0.002000,FlatInitial,Hold,0
07:08:57.925 PM 02/16/2016,Teleop Enabled,0,FALSE,0,NO ERROR,0.000000,0.000000,-6000.000000,-6000.000000,Speed,Speed,-0.040000,0.810000,0.830000,1.000000,102.000000,1,0,-0.000000,0.000000,1,0.000000,0.000000,0.000000,-19.123657,40.966690,0.000000,-0.001000,0.002000,0.009000,FlatInitial,Hold,0
07:08:58.025 PM 02/16/2016,Teleop Enabled,0,FALSE,0,NO ERROR,0.000000,0.000000,-6000.000000,-6000.000000,Speed,Speed,-0.030000,0.800000,0.830000,1.000000,102.000000,1,0,-0.000000,0.000000,1,0.000000,0.000000,0.000000,-19.123657,40.966690,0.000000,0.000000,0.000000,0.001000,FlatInitial,Hold,0
07:08:58.125 PM 02/16/2016,Teleop Enabled,0,FALSE,0,NO ERROR,0.000000,0.000000,-6000.000000,-6000.000000,Speed,Speed,-0.040000,0.800000,0.830000,1.000000,101.000000,1,0,-0.000000,0.000000,1,0.000000,0.000000,0.000000,-19.123657,40.966690,0.000000,-0.003000,0.003000,0.001000,FlatInitial,Hold,0
07:08:58.225 PM 02/16/2016,Teleop Enabled,0,FALSE,0,NO ERROR,0.000000,0.000000,-6000.000000,-6000.000000,Speed,Speed,-0.040000,0.810000,0.820000,1.000000,100.000000,1,0,-0.000000,0.000000,1,0.000000,0.000000,0.000000,-19.123657,40.966690,0.000000,0.000000,0.000000,0.000000,FlatInitial,Hold,0
07:08:58.325 PM 02/16/2016,Teleop Enabled,0,FALSE,0,NO ERROR,0.000000,0.000000,-6000.000000,-6000.000000,Speed,Speed,-0.040000,0.800000,0.820000,1.000000,102.000000,1,0,-0.000000,0.000000,1,0.000000,0.000000,0.000000,-19.123657,40.966690,0.000000,0.002000,0.000000,0.001000,FlatInitial,Hold,0
07:08:58.425 PM 02/16/2016,Teleop Enabled,0,FALSE,0,NO ERROR,0.000000,0.000000,-6000.000000,-6000.000000,Speed,Speed,-0.040000,0.800000,0.820000,1.000000,101.000000,1,0,-0.000000,0.000000,1,0.000000,0.000000,0.000000,-19.123657,40.966690,0.000000,0.000000,0.000000,0.000000,FlatInitial,Hold,0
07:08:58.526 PM 02/16/2016,Teleop Enabled,0,FALSE,0,NO ERROR,0.000000,0.000000,-6000.000000,-6000.000000,Speed,Speed,-0.040000,0.800000,0.820000,1.000000,101.000000,1,0,-0.000000,0.000000,1,0.000000,0.000000,0.000000,-19.123657,40.966690,0.000000,-0.001000,0.001000,0.001000,FlatInitial,Hold,0
07:08:58.626 PM 02/16/2016,Teleop Enabled,0,FALSE,0,NO ERROR,0.000000,0.000000,-6000.000000,-6000.000000,Speed,Speed,-0.040000,0.800000,0.810000,1.000000,103.000000,1,0,-0.000000,0.000000,1,0.000000,0.000000,0.000000,-19.123657,40.966690,0.000000,0.000000,0.000000,0.003000,FlatInitial,Hold,0
07:08:58.727 PM 02/16/2016,Teleop Enabled,0,FALSE,0,NO ERROR,0.000000,0.000000,-6000.000000,-6000.000000,Speed,Speed,-0.040000,0.800000,0.810000,1.000000,105.000000,1,0,-0.000000,0.000000,1,0.000000,0.000000,0.000000,-19.123657,40.966690,0.000000,0.002000,0.001000,0.000000,FlatInitial,Hold,0
07:08:58.828 PM 02/16/2016,Teleop Enabled,0,FALSE,0,NO ERROR,0.000000,0.000000,-6000.000000,-6000.000000,Speed,Speed,-0.040000,0.800000,0.810000,1.000000,101.000000,1,0,-0.000000,0.000000,1,0.000000,0.000000,0.000000,-19.123657,40.966690,0.000000,0.002000,-0.003000,0.004000,FlatInitial,Hold,0
07:08:58.929 PM 02/16/2016,Teleop Enabled,0,FALSE,0,NO ERROR,0.000000,0.000000,-6000.000000,-6000.000000,Speed,Speed,-0.040000,0.800000,0.810000,1.000000,101.000000,1,0,-0.000000,0.000000,1,0.000000,0.000000,0.000000,-19.123657,40.966690,0.000000,0.000000,0.000000,0.002000,FlatInitial,Hold,0
07:08:59.029 PM 02/16/2016,Teleop Enabled,0,FALSE,0,NO ERROR,0.000000,0.000000,-6000.000000,-6000.000000,Speed,Speed,-0.040000,0.790000,0.820000,1.000000,101.000000,1,0,-0.000000,0.000000,1,0.000000,0.000000,0.000000,-19.123657,40.966690,0.000000,0.003000,0.000000,0.004000,FlatInitial,Hold,0
07:08:59.130 PM 02/16/2016,Teleop Enabled,0,FALSE,0,NO ERROR,0.000000,0.000000,-6000.000000,-6000.000000,Speed,Speed,-0.040000,0.790000,0.820000,1.000000,101.000000,1,0,-0.000000,0.000000,1,0.000000,0.000000,0.000000,-19.123657,40.966690,0.000000,-0.002000,-0.002000,0.002000,FlatInitial,Hold,0
07:08:59.230 PM 02/16/2016,Teleop Enabled,0,FALSE,0,NO ERROR,0.000000,0.000000,-6000.000000,-6000.000000,Speed,Speed,-0.040000,0.790000,0.820000,1.000000,101.000000,1,0,-0.000000,0.000000,1,0.000000,0.000000,0.000000,-19.123657,40.966690,0.000000,0.002000,0.000000,0.007000,FlatInitial,Hold,0
07:08:59.330 PM 02/16/2016,Teleop Enabled,0,FALSE,0,NO ERROR,0.000000,0.000000,-6000.000000,-6000.000000,Speed,Speed,-0.040000,0.790000,0.820000,1.000000,101.000000,1,0,-0.000000,0.000000,1,0.000000,0.000000,0.000000,-19.123657,40.966690,0.000000,0.001000,0.000000,0.007000,FlatInitial,Hold,0
07:08:59.430 PM 02/16/2016,Teleop Enabled,0,FALSE,0,NO ERROR,0.000000,0.000000,-6000.000000,-6000.000000,Speed,Speed,-0.040000,0.780000,0.820000,1.000000,101.000000,1,0,-0.000000,0.000000,1,0.000000,0.000000,0.000000,-19.123657,40.966690,0.000000,0.000000,0.000000,0.008000,FlatInitial,Hold,0
07:08:59.531 PM 02/16/2016,Teleop Enabled,0,FALSE,0,NO ERROR,0.000000,0.000000,-6000.000000,-6000.000000,Speed,Speed,-0.040000,0.780000,0.820000,1.000000,102.000000,1,0,-0.000000,0.000000,1,0.000000,0.000000,0.000000,-19.123657,40.966690,0.000000,0.001000,-0.002000,0.006000,FlatInitial,Hold,0
07:08:59.631 PM 02/16/2016,Teleop Enabled,0,FALSE,0,NO ERROR,0.000000,0.000000,-6000.000000,-6000.000000,Speed,Speed,-0.040000,0.780000,0.820000,1.000000,102.000000,1,0,-0.000000,0.000000,1,0.000000,0.000000,0.000000,-19.123657,40.966690,0.000000,0.000000,-0.001000,0.002000,FlatInitial,Hold,0
07:08:59.731 PM 02/16/2016,Teleop Enabled,0,FALSE,0,NO ERROR,0.000000,0.000000,-6000.000000,-6000.000000,Speed,Speed,-0.050000,0.780000,0.820000,1.000000,102.000000,1,0,-0.000000,0.000000,1,0.000000,0.000000,0.000000,-19.123657,40.966690,0.000000,0.001000,0.002000,0.001000,FlatInitial,Hold,0
07:08:59.831 PM 02/16/2016,Teleop Enabled,0,FALSE,0,NO ERROR,0.000000,0.000000,-6000.000000,-6000.000000,Speed,Speed,-0.050000,0.790000,0.820000,1.000000,101.000000,1,0,-0.000000,0.000000,1,0.000000,0.000000,0.000000,-19.123657,40.966690,0.000000,0.000000,0.000000,0.004000,FlatInitial,Hold,0
07:08:59.931 PM 02/16/2016,Teleop Enabled,0,FALSE,0,NO ERROR,0.000000,0.000000,-6000.000000,-6000.000000,Speed,Speed,-0.050000,0.790000,0.830000,1.000000,103.000000,1,0,-0.000000,0.000000,1,0.000000,0.000000,0.000000,-19.123657,40.966690,0.000000,0.000000,0.000000,0.003000,FlatInitial,Hold,0
07:09:00.031 PM 02/16/2016,Teleop Enabled,0,FALSE,0,NO ERROR,0.000000,0.000000,-6000.000000,-6000.000000,Speed,Speed,-0.050000,0.790000,0.820000,1.000000,103.000000,1,0,-0.000000,0.000000,1,0.000000,0.000000,0.000000,-19.123657,40.966690,0.000000,0.000000,0.001000,0.007000,FlatInitial,Hold,0
07:09:00.131 PM 02/16/2016,Teleop Enabled,0,FALSE,0,NO ERROR,0.000000,0.000000,-6000.000000,-6000.000000,Speed,Speed,-0.050000,0.790000,0.830000,1.000000,102.000000,1,0,-0.000000,0.000000,1,0.000000,0.000000,0.000000,-19.123657,40.966690,0.000000,0.000000,-0.002000,0.002000,FlatInitial,Hold,0
07:09:00.232 PM 02/16/2016,Teleop Enabled,0,FALSE,0,NO ERROR,0.000000,0.000000,-6000.000000,-6000.000000,Speed,Speed,-0.050000,0.790000,0.820000,1.000000,101.000000,1,0,-0.000000,0.000000,1,0.000000,0.000000,0.000000,-19.123657,40.966690,0.000000,-0.001000,0.000000,0.005000,FlatInitial,Hold,0
07:09:00.332 PM 02/16/2016,Teleop Enabled,0,FALSE,0,NO ERROR,0.000000,0.000000,-6000.000000,-6000.000000,Speed,Speed,-0.050000,0.800000,0.820000,1.000000,103.000000,1,0,-0.000000,0.000000,1,0.000000,0.000000,0.000000,-19.123657,40.966690,0.000000,-0.002000,-0.001000,0.007000,FlatInitial,Hold,0
07:09:00.432 PM 02/16/2016,Teleop Enabled,0,FALSE,0,NO ERROR,0.000000,0.000000,-6000.000000,-6000.000000,Speed,Speed,-0.050000,0.800000,0.820000,1.000000,101.000000,1,0,-0.000000,0.000000,1,0.000000,0.000000,0.000000,-19.123657,40.966690,0.000000,0.000000,-0.001000,0.003000,FlatInitial,Hold,0
07:09:00.532 PM 02/16/2016,Teleop Enabled,0,FALSE,0,NO ERROR,0.000000,0.000000,-6000.000000,-6000.000000,Speed,Speed,-0.050000,0.800000,0.810000,1.000000,102.000000,1,0,-0.000000,0.000000,1,0.000000,0.000000,0.000000,-19.123657,40.966690,0.000000,0.000000,-0.002000,0.001000,FlatInitial,Hold,0
07:09:00.633 PM 02/16/2016,Teleop Enabled,0,FALSE,0,NO ERROR,0.000000,0.000000,-6000.000000,-6000.000000,Speed,Speed,-0.050000,0.790000,0.820000,1.000000,103.000000,1,0,-0.000000,0.000000,1,0.000000,0.000000,0.000000,-19.123657,40.966690,0.000000,0.000000,0.000000,0.006000,FlatInitial,Hold,0
07:09:00.733 PM 02/16/2016,Teleop Enabled,0,FALSE,0,NO ERROR,0.000000,0.000000,-6000.000000,-6000.000000,Speed,Speed,-0.050000,0.790000,0.820000,1.000000,101.000000,1,0,-0.000000,0.000000,1,0.000000,0.000000,0.000000,-19.123657,40.966690,0.000000,-0.001000,0.000000,0.002000,FlatInitial,Hold,0
07:09:00.833 PM 02/16/2016,Teleop Enabled,0,FALSE,0,NO ERROR,0.000000,0.000000,-6000.000000,-6000.000000,Speed,Speed,-0.050000,0.780000,0.820000,1.000000,102.000000,1,0,-0.000000,0.000000,1,0.000000,0.000000,0.000000,-19.123657,40.966690,0.000000,0.000000,0.000000,0.003000,FlatInitial,Hold,0
07:09:00.934 PM 02/16/2016,Teleop Enabled,0,FALSE,0,NO ERROR,0.000000,0.000000,-6000.000000,-6000.000000,Speed,Speed,-0.050000,0.780000,0.820000,1.000000,102.000000,1,0,-0.000000,0.000000,1,0.000000,0.000000,0.000000,-19.123657,40.966690,0.000000,0.000000,0.000000,0.003000,FlatInitial,Hold,0
07:09:01.034 PM 02/16/2016,Teleop Enabled,0,FALSE,0,NO ERROR,0.000000,0.000000,-6000.000000,-6000.000000,Speed,Speed,-0.050000,0.780000,0.810000,1.000000,103.000000,1,0,-0.000000,0.000000,1,0.000000,0.000000,0.000000,-19.123657,40.966690,0.000000,0.001000,0.000000,0.004000,FlatInitial,Hold,0
07:09:01.134 PM 02/16/2016,Teleop Enabled,0,FALSE,0,NO ERROR,0.000000,0.000000,-6000.000000,-6000.000000,Speed,Speed,-0.050000,0.780000,0.810000,1.000000,101.000000,1,0,-0.000000,0.000000,1,0.000000,0.000000,0.000000,-19.123657,40.966690,0.000000,0.001000,0.000000,0.004000,FlatInitial,Hold,0
07:09:01.234 PM 02/16/2016,Teleop Enabled,0,FALSE,0,NO ERROR,0.000000,0.000000,-6000.000000,-6000.000000,Speed,Speed,-0.050000,0.780000,0.820000,1.000000,101.000000,1,0,-0.000000,0.000000,1,0.000000,0.000000,0.000000,-19.123657,40.966690,0.000000,0.002000,-0.002000,0.000000,FlatInitial,Hold,0
07:09:01.334 PM 02/16/2016,Teleop Enabled,0,FALSE,0,NO ERROR,0.000000,0.000000,-6000.000000,-6000.000000,Speed,Speed,-0.050000,0.790000,0.820000,1.000000,101.000000,1,0,-0.000000,0.000000,1,0.000000,0.000000,0.000000,-19.123657,40.966690,0.000000,0.000000,-0.001000,0.002000,FlatInitial,Hold,0
07:09:01.436 PM 02/16/2016,Teleop Enabled,0,FALSE,0,NO ERROR,0.000000,0.000000,-6000.000000,-6000.000000,Speed,Speed,-0.050000,0.780000,0.820000,1.000000,101.000000,1,0,-0.000000,0.000000,1,0.000000,0.000000,0.000000,-19.123657,40.966690,0.000000,0.001000,0.002000,0.005000,FlatInitial,Hold,0
07:09:01.539 PM 02/16/2016,Teleop Enabled,0,FALSE,0,NO ERROR,0.000000,0.000000,-6000.000000,-6000.000000,Speed,Speed,-0.050000,0.790000,0.820000,1.000000,102.000000,1,0,-0.000000,0.000000,1,0.000000,0.000000,0.000000,-19.123657,40.966690,0.000000,0.000000,0.000000,0.000000,FlatInitial,Hold,0
07:09:01.641 PM 02/16/2016,Teleop Enabled,0,FALSE,0,NO ERROR,0.000000,0.000000,-6000.000000,-6000.000000,Speed,Speed,-0.050000,0.790000,0.820000,1.000000,102.000000,1,0,-0.000000,0.000000,1,0.000000,0.000000,0.000000,-19.123657,40.966690,0.000000,0.001000,-0.002000,0.002000,FlatInitial,Hold,0
07:09:01.741 PM 02/16/2016,Teleop Enabled,0,FALSE,0,NO ERROR,0.000000,0.000000,-6000.000000,-6000.000000,Speed,Speed,-0.050000,0.790000,0.820000,1.000000,101.000000,1,0,-0.000000,0.000000,1,0.000000,0.000000,0.000000,-19.123657,40.966690,0.000000,0.001000,-0.002000,0.002000,FlatInitial,Hold,0
07:09:01.841 PM 02/16/2016,Teleop Enabled,0,FALSE,0,NO ERROR,0.000000,0.000000,-6000.000000,-6000.000000,Speed,Speed,-0.050000,0.790000,0.830000,1.000000,101.000000,1,0,-0.000000,0.000000,1,0.000000,0.000000,0.000000,-19.123657,40.966690,0.000000,0.001000,-0.003000,0.005000,FlatInitial,Hold,0
07:09:01.942 PM 02/16/2016,Teleop Enabled,0,FALSE,0,NO ERROR,0.000000,0.000000,-6000.000000,-6000.000000,Speed,Speed,-0.050000,0.790000,0.820000,1.000000,102.000000,1,0,-0.000000,0.000000,1,0.000000,0.000000,0.000000,-19.123657,40.966690,0.000000,0.001000,-0.001000,0.006000,FlatInitial,Hold,0
07:09:02.042 PM 02/16/2016,Teleop Enabled,0,FALSE,0,NO ERROR,0.000000,0.000000,-6000.000000,-6000.000000,Speed,Speed,-0.050000,0.780000,0.820000,1.000000,101.000000,1,0,-0.000000,0.000000,1,0.000000,0.000000,0.000000,-19.123657,40.966690,0.000000,-0.002000,0.000000,0.001000,FlatInitial,Hold,0
07:09:02.142 PM 02/16/2016,Teleop Enabled,0,FALSE,0,NO ERROR,0.000000,0.000000,-6000.000000,-6000.000000,Speed,Speed,-0.040000,0.790000,0.830000,1.000000,102.000000,1,0,-0.000000,0.000000,1,0.000000,0.000000,0.000000,-19.123657,40.966690,0.000000,0.000000,-0.005000,-0.003000,FlatInitial,Hold,0
07:09:02.242 PM 02/16/2016,Teleop Enabled,0,FALSE,0,NO ERROR,0.000000,0.000000,-6000.000000,-6000.000000,Speed,Speed,-0.040000,0.790000,0.830000,1.000000,104.000000,1,0,-0.000000,0.000000,1,0.000000,0.000000,0.000000,-19.123657,40.966690,0.000000,0.000000,-0.001000,0.003000,FlatInitial,Hold,0
07:09:02.343 PM 02/16/2016,Teleop Enabled,0,FALSE,0,NO ERROR,0.000000,0.000000,-6000.000000,-6000.000000,Speed,Speed,-0.050000,0.790000,0.830000,1.000000,101.000000,1,0,-0.000000,0.000000,1,0.000000,0.000000,0.000000,-19.123657,40.966690,0.000000,0.001000,0.002000,0.004000,FlatInitial,Hold,0
07:09:02.444 PM 02/16/2016,Teleop Enabled,0,FALSE,0,NO ERROR,0.000000,0.000000,-6000.000000,-6000.000000,Speed,Speed,-0.050000,0.790000,0.820000,1.000000,101.000000,1,0,-0.000000,0.000000,1,0.000000,0.000000,0.000000,-19.123657,40.966690,0.000000,0.000000,0.000000,0.005000,FlatInitial,Hold,0
07:09:02.545 PM 02/16/2016,Teleop Enabled,0,FALSE,0,NO ERROR,0.000000,0.000000,-6000.000000,-6000.000000,Speed,Speed,-0.050000,0.780000,0.820000,1.000000,101.000000,1,0,-0.000000,0.000000,1,0.000000,0.000000,0.000000,-19.123657,40.966690,0.000000,0.000000,0.000000,0.008000,FlatInitial,Hold,0
07:09:02.646 PM 02/16/2016,Teleop Enabled,0,FALSE,0,NO ERROR,0.000000,0.000000,-6000.000000,-6000.000000,Speed,Speed,-0.050000,0.780000,0.820000,1.000000,102.000000,1,0,-0.000000,0.000000,1,0.000000,0.000000,0.000000,-19.123657,40.966690,0.000000,0.000000,-0.001000,0.001000,FlatInitial,Hold,0
07:09:02.746 PM 02/16/2016,Teleop Enabled,0,FALSE,0,NO ERROR,0.000000,0.000000,-6000.000000,-6000.000000,Speed,Speed,-0.050000,0.780000,0.820000,1.000000,102.000000,1,0,-0.000000,0.000000,1,0.000000,0.000000,0.000000,-19.123657,40.966690,0.000000,0.000000,0.000000,0.004000,FlatInitial,Hold,0
