Time,RobotMode,AutoToRun,ErrorStatus, ErrorCode,ErrorSource,ActualRPM1,ActualRPM2,DesiredRPM1,DesiredRPM2,ControlMode1,ControlMode2,NavXYaw,NavXRoll,NavXPitch,ShooterState,LoopTime,IsLevel,IsAutoTargeting,LeftMotorOutput,RightMotorOutput,IsHaloDrive,NavXVelocityX,NavXVelocityY,NavXVelocityZ,NavXDisplacementX,NavXDisplacementY,NavXDisplacementZ,NavXAccelerationX,NavXAccelerationY,NavXAccelerationZ,AutoDefendState,AngeMotorState,Photoeye
07:11:19.354 PM 02/16/2016,Autonomous Disabled,0,TRUE,91,Variant To Data in WPI_DigitalInputRefNum Registry Get.vi->Periodic Tasks.vi->Robot Main.vi,0.000000,0.000000,-6000.000000,-6000.000000,Speed,Speed,0.010000,0.780000,0.900000,1.000000,101.000000,1,0,-0.000000,0.000000,1,0.000000,0.000000,0.000000,-19.126511,40.992905,0.000000,0.001000,0.000000,0.001000,FlatInitial,Hold,0
07:11:19.454 PM 02/16/2016,Teleop Disabled,0,TRUE,-44007,<LOCATION>WPI_DigitalInputRefNum Registry Get.vi<CALLSTACK>WPI_DigitalInputRefNum Registry Get.vi< <Periodic Tasks.vi< <Robot Main.vi,0.000000,0.000000,0.000000,0.000000,Speed,Speed,0.000000,0.770000,0.890000,0.000000,18381.000000,1,0,-0.000000,0.000000,1,0.000000,0.000000,0.000000,-19.126511,40.992905,0.000000,0.000000,0.001000,0.004000,FlatInitial,ResetBack,0
07:11:19.555 PM 02/16/2016,Teleop Disabled,0,FALSE,0,NO ERROR,0.000000,0.000000,0.000000,0.000000,Speed,Speed,0.000000,0.770000,0.890000,0.000000,102.000000,1,0,-0.000000,0.000000,1,0.000000,0.000000,0.000000,-19.126511,40.992905,0.000000,0.001000,0.001000,0.006000,FlatInitial,ResetBack,0
07:11:19.656 PM 02/16/2016,Teleop Disabled,0,FALSE,0,NO ERROR,0.000000,0.000000,0.000000,0.000000,Speed,Speed,0.000000,0.770000,0.890000,0.000000,101.000000,1,0,-0.000000,0.000000,1,0.000000,0.000000,0.000000,-19.126511,40.992905,0.000000,0.000000,0.001000,0.009000,FlatInitial,ResetBack,0
07:11:19.757 PM 02/16/2016,Teleop Disabled,0,FALSE,0,NO ERROR,0.000000,0.000000,0.000000,0.000000,Speed,Speed,0.000000,0.770000,0.890000,0.000000,101.000000,1,0,-0.000000,0.000000,1,0.000000,0.000000,0.000000,-19.126511,40.992905,0.000000,0.001000,-0.001000,0.006000,FlatInitial,ResetBack,0
07:11:19.858 PM 02/16/2016,Teleop Disabled,0,FALSE,0,NO ERROR,0.000000,0.000000,0.000000,0.000000,Speed,Speed,0.000000,0.770000,0.890000,0.000000,101.000000,1,0,-0.000000,0.000000,1,0.000000,0.000000,0.000000,-19.126511,40.992905,0.000000,0.000000,-0.001000,0.002000,FlatInitial,ResetBack,0
07:11:19.958 PM 02/16/2016,Teleop Disabled,0,FALSE,0,NO ERROR,0.000000,0.000000,0.000000,0.000000,Speed,Speed,0.000000,0.770000,0.890000,0.000000,101.000000,1,0,-0.000000,0.000000,1,0.000000,0.000000,0.000000,-19.126511,40.992905,0.000000,0.000000,-0.001000,0.005000,FlatInitial,ResetBack,0
07:11:20.058 PM 02/16/2016,Teleop Disabled,0,FALSE,0,NO ERROR,0.000000,0.000000,0.000000,0.000000,Speed,Speed,0.000000,0.770000,0.900000,0.000000,101.000000,1,0,-0.000000,0.000000,1,0.000000,0.000000,0.000000,-19.126511,40.992905,0.000000,0.003000,0.000000,0.005000,FlatInitial,ResetBack,0
07:11:20.158 PM 02/16/2016,Teleop Disabled,0,FALSE,0,NO ERROR,0.000000,0.000000,0.000000,0.000000,Speed,Speed,0.000000,0.770000,0.900000,0.000000,103.000000,1,0,-0.000000,0.000000,1,0.000000,0.000000,0.000000,-19.126511,40.992905,0.000000,0.004000,0.000000,0.003000,FlatInitial,ResetBack,0
07:11:20.258 PM 02/16/2016,Teleop Disabled,0,FALSE,0,NO ERROR,0.000000,0.000000,0.000000,0.000000,Speed,Speed,0.000000,0.770000,0.900000,0.000000,102.000000,1,0,-0.000000,0.000000,1,0.000000,0.000000,0.000000,-19.126511,40.992905,0.000000,0.000000,0.003000,0.001000,FlatInitial,ResetBack,0
07:11:20.359 PM 02/16/2016,Teleop Disabled,0,FALSE,0,NO ERROR,0.000000,0.000000,0.000000,0.000000,Speed,Speed,0.000000,0.770000,0.900000,0.000000,104.000000,1,0,-0.000000,0.000000,1,0.000000,0.000000,0.000000,-19.126511,40.992905,0.000000,0.000000,0.001000,0.003000,FlatInitial,ResetBack,0
07:11:20.460 PM 02/16/2016,Teleop Disabled,0,FALSE,0,NO ERROR,0.000000,0.000000,0.000000,0.000000,Speed,Speed,-0.010000,0.770000,0.900000,0.000000,101.000000,1,0,-0.000000,0.000000,1,0.000000,0.000000,0.000000,-19.126511,40.992905,0.000000,0.000000,0.000000,0.008000,FlatInitial,ResetBack,0
07:11:20.560 PM 02/16/2016,Teleop Disabled,0,FALSE,0,NO ERROR,0.000000,0.000000,0.000000,0.000000,Speed,Speed,-0.010000,0.770000,0.900000,0.000000,101.000000,1,0,-0.000000,0.000000,1,0.000000,0.000000,0.000000,-19.126511,40.992905,0.000000,0.000000,-0.002000,0.005000,FlatInitial,ResetBack,0
07:11:20.660 PM 02/16/2016,Teleop Disabled,0,FALSE,0,NO ERROR,0.000000,0.000000,0.000000,0.000000,Speed,Speed,-0.010000,0.770000,0.900000,0.000000,102.000000,1,0,-0.000000,0.000000,1,0.000000,0.000000,0.000000,-19.126511,40.992905,0.000000,-0.003000,0.000000,0.000000,FlatInitial,ResetBack,0
07:11:20.760 PM 02/16/2016,Teleop Disabled,0,FALSE,0,NO ERROR,0.000000,0.000000,0.000000,0.000000,Speed,Speed,-0.010000,0.770000,0.890000,0.000000,101.000000,1,0,-0.000000,0.000000,1,0.000000,0.000000,0.000000,-19.126511,40.992905,0.000000,0.000000,0.001000,-0.001000,FlatInitial,ResetBack,0
07:11:20.860 PM 02/16/2016,Teleop Disabled,0,FALSE,0,NO ERROR,0.000000,0.000000,0.000000,0.000000,Speed,Speed,-0.010000,0.760000,0.900000,0.000000,102.000000,1,0,-0.000000,0.000000,1,0.000000,0.000000,0.000000,-19.126511,40.992905,0.000000,0.001000,0.001000,0.002000,FlatInitial,ResetBack,0
07:11:20.960 PM 02/16/2016,Teleop Disabled,0,FALSE,0,NO ERROR,0.000000,0.000000,0.000000,0.000000,Speed,Speed,-0.010000,0.760000,0.900000,0.000000,102.000000,1,0,-0.000000,0.000000,1,0.000000,0.000000,0.000000,-19.126511,40.992905,0.000000,0.001000,0.000000,0.012000,FlatInitial,ResetBack,0
07:11:21.062 PM 02/16/2016,Teleop Disabled,0,FALSE,0,NO ERROR,0.000000,0.000000,0.000000,0.000000,Speed,Speed,-0.010000,0.770000,0.900000,0.000000,106.000000,1,0,-0.000000,0.000000,1,0.000000,0.000000,0.000000,-19.126511,40.992905,0.000000,0.001000,0.001000,0.005000,FlatInitial,ResetBack,0
07:11:21.162 PM 02/16/2016,Teleop Disabled,0,FALSE,0,NO ERROR,0.000000,0.000000,0.000000,0.000000,Speed,Speed,-0.010000,0.770000,0.900000,0.000000,103.000000,1,0,-0.000000,0.000000,1,0.000000,0.000000,0.000000,-19.126511,40.992905,0.000000,0.003000,0.001000,0.009000,FlatInitial,ResetBack,0
07:11:21.262 PM 02/16/2016,Teleop Disabled,0,FALSE,0,NO ERROR,0.000000,0.000000,0.000000,0.000000,Speed,Speed,-0.010000,0.770000,0.900000,0.000000,102.000000,1,0,-0.000000,0.000000,1,0.000000,0.000000,0.000000,-19.126511,40.992905,0.000000,0.000000,-0.001000,0.002000,FlatInitial,ResetBack,0
07:11:21.363 PM 02/16/2016,Teleop Disabled,0,FALSE,0,NO ERROR,0.000000,0.000000,0.000000,0.000000,Speed,Speed,-0.010000,0.770000,0.900000,0.000000,100.000000,1,0,-0.000000,0.000000,1,0.000000,0.000000,0.000000,-19.126511,40.992905,0.000000,0.003000,0.001000,0.000000,FlatInitial,ResetBack,0
07:11:21.463 PM 02/16/2016,Teleop Disabled,0,FALSE,0,NO ERROR,0.000000,0.000000,0.000000,0.000000,Speed,Speed,-0.010000,0.770000,0.900000,0.000000,100.000000,1,0,-0.000000,0.000000,1,0.000000,0.000000,0.000000,-19.126511,40.992905,0.000000,0.000000,0.000000,0.000000,FlatInitial,ResetBack,0
07:11:21.563 PM 02/16/2016,Teleop Disabled,0,FALSE,0,NO ERROR,0.000000,0.000000,0.000000,0.000000,Speed,Speed,-0.010000,0.760000,0.900000,0.000000,101.000000,1,0,-0.000000,0.000000,1,0.000000,0.000000,0.000000,-19.126511,40.992905,0.000000,0.002000,0.000000,0.002000,FlatInitial,ResetBack,0
07:11:21.663 PM 02/16/2016,Teleop Disabled,0,FALSE,0,NO ERROR,0.000000,0.000000,0.000000,0.000000,Speed,Speed,-0.010000,0.760000,0.900000,0.000000,101.000000,1,0,-0.000000,0.000000,1,0.000000,0.000000,0.000000,-19.126511,40.992905,0.000000,0.000000,0.000000,0.001000,FlatInitial,ResetBack,0
07:11:21.763 PM 02/16/2016,Teleop Enabled,0,FALSE,0,NO ERROR,0.000000,0.000000,0.000000,0.000000,Speed,Speed,-0.020000,0.770000,0.890000,0.000000,101.000000,1,0,-0.000000,0.000000,1,0.000000,0.000000,0.000000,-19.126511,40.992905,0.000000,0.001000,-0.003000,0.006000,FlatInitial,ResetBack,0
07:11:21.864 PM 02/16/2016,Teleop Enabled,0,FALSE,0,NO ERROR,0.000000,0.000000,0.000000,0.000000,Speed,Speed,-0.020000,0.770000,0.860000,0.000000,101.000000,1,0,-0.000000,0.000000,1,0.000000,0.000000,0.000000,-19.126511,40.992905,0.000000,-0.003000,0.012000,0.009000,FlatInitial,ResetBack,0
07:11:21.964 PM 02/16/2016,Teleop Enabled,0,FALSE,0,NO ERROR,0.000000,0.000000,0.000000,0.000000,Speed,Speed,-0.030000,0.750000,0.950000,0.000000,103.000000,1,0,-0.000000,0.000000,1,0.000000,-0.019165,0.000000,-19.126389,40.992569,0.000000,-0.027000,-0.018000,0.026000,FlatInitial,ResetBack,0
07:11:22.064 PM 02/16/2016,Teleop Enabled,0,FALSE,0,NO ERROR,0.000000,0.000000,0.000000,0.000000,Speed,Speed,0.000000,0.750000,0.810000,0.000000,101.000000,1,0,-0.000000,0.000000,1,-0.011429,0.000000,0.000000,-19.126923,40.992081,0.000000,0.035000,0.009000,-0.004000,FlatInitial,ResetBack,0
07:11:22.165 PM 02/16/2016,Teleop Enabled,0,FALSE,0,NO ERROR,0.000000,0.000000,0.000000,0.000000,Speed,Speed,-0.030000,0.720000,0.960000,0.000000,102.000000,1,0,-0.000000,0.000000,1,-0.015610,0.000000,0.000000,-19.127258,40.992081,0.000000,-0.022000,-0.003000,0.015000,FlatInitial,ResetBack,0
07:11:22.265 PM 02/16/2016,Teleop Enabled,0,FALSE,0,NO ERROR,0.000000,0.000000,0.000000,0.000000,Speed,Speed,-0.020000,0.750000,0.880000,0.000000,102.000000,1,0,-0.000000,0.000000,1,0.000000,0.004410,0.000000,-19.127625,40.992126,0.000000,0.001000,0.027000,-0.025000,FlatInitial,ResetBack,0
07:11:22.366 PM 02/16/2016,Teleop Enabled,0,FALSE,0,NO ERROR,0.000000,0.000000,0.000000,0.000000,Speed,Speed,-0.010000,0.720000,0.960000,0.000000,103.000000,1,0,-0.000000,0.000000,1,0.000000,0.011414,0.000000,-19.127808,40.992584,0.000000,0.019000,-0.016000,-0.001000,FlatInitial,ResetBack,0
07:11:22.466 PM 02/16/2016,Teleop Enabled,0,FALSE,0,NO ERROR,0.000000,0.000000,0.000000,0.000000,Speed,Speed,-0.030000,0.720000,0.950000,0.000000,102.000000,1,0,-0.000000,0.000000,1,-0.004135,0.000000,0.000000,-19.127914,40.992584,0.000000,0.003000,0.001000,0.010000,FlatInitial,ResetBack,0
07:11:22.567 PM 02/16/2016,Teleop Enabled,0,FALSE,0,NO ERROR,0.000000,0.000000,0.000000,0.000000,Speed,Speed,-0.020000,0.750000,0.940000,0.000000,101.000000,1,0,-0.000000,0.000000,1,0.000000,0.000000,0.000000,-19.127823,40.992584,0.000000,0.000000,0.010000,-0.004000,FlatInitial,ResetBack,0
07:11:22.667 PM 02/16/2016,Teleop Enabled,0,FALSE,0,NO ERROR,0.000000,0.000000,-6000.000000,-6000.000000,Speed,Speed,-0.030000,0.750000,0.980000,1.000000,101.000000,1,0,-0.000000,0.000000,1,0.000000,0.000000,0.000000,-19.127823,40.992584,0.000000,-0.002000,0.010000,-0.012000,FlatInitial,ResetBack,0
07:11:22.768 PM 02/16/2016,Teleop Enabled,0,FALSE,0,NO ERROR,0.000000,0.000000,-6000.000000,-6000.000000,Speed,Speed,-0.020000,0.740000,1.000000,1.000000,101.000000,1,0,-0.000000,0.000000,1,0.000000,0.000000,0.000000,-19.127823,40.992584,0.000000,0.000000,-0.003000,0.019000,FlatInitial,ResetBack,1
07:11:22.869 PM 02/16/2016,Teleop Enabled,0,FALSE,0,NO ERROR,0.000000,0.000000,-6000.000000,-6000.000000,Speed,Speed,-0.030000,0.730000,1.000000,1.000000,101.000000,1,0,-0.000000,0.000000,1,0.000000,0.000000,0.000000,-19.127823,40.992584,0.000000,0.003000,-0.004000,0.018000,FlatInitial,ResetForward,1
07:11:22.970 PM 02/16/2016,Teleop Enabled,0,FALSE,0,NO ERROR,0.000000,0.000000,-6000.000000,-6000.000000,Speed,Speed,-0.030000,0.730000,1.020000,1.000000,101.000000,1,0,-0.000000,0.000000,1,0.000000,0.000000,0.000000,-19.127823,40.992584,0.000000,0.000000,-0.007000,0.007000,FlatInitial,ResetForward,1
07:11:23.070 PM 02/16/2016,Teleop Enabled,0,FALSE,0,NO ERROR,0.000000,0.000000,-6000.000000,-6000.000000,Speed,Speed,-0.020000,0.720000,1.030000,1.000000,101.000000,1,0,-0.000000,0.000000,1,0.000000,0.000000,0.000000,-19.127823,40.992584,0.000000,-0.007000,0.001000,-0.005000,FlatInitial,ResetForward,1
07:11:23.170 PM 02/16/2016,Teleop Enabled,0,FALSE,0,NO ERROR,0.000000,0.000000,-6000.000000,-6000.000000,Speed,Speed,-0.010000,0.720000,1.090000,1.000000,102.000000,1,0,-0.000000,0.000000,1,0.000000,0.000000,0.000000,-19.127823,40.992584,0.000000,0.000000,0.015000,0.007000,FlatInitial,ResetForward,1
07:11:23.271 PM 02/16/2016,Teleop Enabled,0,FALSE,0,NO ERROR,0.000000,0.000000,-6000.000000,-6000.000000,Speed,Speed,-0.010000,0.720000,1.100000,1.000000,100.000000,1,0,-0.000000,0.000000,1,0.000000,0.000000,0.000000,-19.127823,40.992584,0.000000,0.000000,0.004000,0.005000,FlatInitial,ResetForward,1
07:11:23.372 PM 02/16/2016,Teleop Enabled,0,FALSE,0,NO ERROR,0.000000,0.000000,-6000.000000,-6000.000000,Speed,Speed,-0.030000,0.720000,1.090000,1.000000,103.000000,1,0,-0.000000,0.000000,1,0.000000,0.000000,0.000000,-19.127823,40.992584,0.000000,-0.004000,-0.006000,0.007000,FlatInitial,ResetForward,1
07:11:23.473 PM 02/16/2016,Teleop Enabled,0,FALSE,0,NO ERROR,0.000000,0.000000,-6000.000000,-6000.000000,Speed,Speed,-0.020000,0.730000,1.030000,1.000000,102.000000,1,0,-0.000000,0.000000,1,0.000000,0.000000,0.000000,-19.127823,40.992584,0.000000,-0.002000,-0.001000,0.004000,FlatInitial,ResetForward,0
07:11:23.574 PM 02/16/2016,Teleop Enabled,0,FALSE,0,NO ERROR,0.000000,0.000000,-6000.000000,-6000.000000,Speed,Speed,-0.010000,0.710000,1.070000,1.000000,102.000000,1,0,-0.000000,0.000000,1,0.000000,0.010483,0.000000,-19.127823,40.992737,0.000000,0.002000,0.045000,0.012000,FlatInitial,Reset,0
07:11:23.675 PM 02/16/2016,Teleop Enabled,0,FALSE,0,NO ERROR,0.000000,0.000000,-6000.000000,-6000.000000,Speed,Speed,-0.040000,0.800000,1.050000,1.000000,101.000000,1,0,-0.000000,0.000000,1,0.005463,0.034149,0.000000,-19.127762,40.994247,0.000000,0.026000,-0.039000,0.009000,FlatInitial,Hold,0
07:11:23.775 PM 02/16/2016,Teleop Enabled,0,FALSE,0,NO ERROR,0.000000,0.000000,-6000.000000,-6000.000000,Speed,Speed,-0.070000,0.680000,1.010000,1.000000,103.000000,1,0,-0.000000,0.000000,1,-0.007996,-0.000717,0.000000,-19.127502,40.994873,0.000000,0.013000,-0.018000,0.009000,FlatInitial,Hold,0
07:11:23.876 PM 02/16/2016,Teleop Enabled,0,FALSE,0,NO ERROR,0.000000,0.000000,-6000.000000,-6000.000000,Speed,Speed,-0.050000,0.790000,0.900000,1.000000,100.000000,1,0,-0.000000,0.000000,1,0.000000,0.000000,0.000000,-19.127502,40.994827,0.000000,-0.019000,0.003000,0.009000,FlatInitial,Hold,0
07:11:23.978 PM 02/16/2016,Teleop Enabled,0,FALSE,0,NO ERROR,0.000000,0.000000,-6000.000000,-6000.000000,Speed,Speed,-0.020000,0.730000,0.950000,1.000000,102.000000,1,0,-0.000000,0.000000,1,0.000000,0.000000,0.000000,-19.127731,40.994827,0.000000,0.017000,0.000000,0.003000,FlatInitial,Hold,0
07:11:24.078 PM 02/16/2016,Teleop Enabled,0,FALSE,0,NO ERROR,0.000000,0.000000,-6000.000000,-6000.000000,Speed,Speed,-0.040000,0.740000,1.040000,1.000000,101.000000,1,0,-0.000000,0.000000,1,0.000000,0.015213,0.000000,-19.127548,40.995102,0.000000,-0.007000,0.014000,0.011000,FlatInitial,Hold,0
07:11:24.178 PM 02/16/2016,Teleop Enabled,0,FALSE,0,NO ERROR,0.000000,0.000000,-6000.000000,-6000.000000,Speed,Speed,-0.040000,0.750000,1.050000,1.000000,102.000000,1,0,-0.000000,0.000000,1,0.000000,0.000000,0.000000,-19.127548,40.995514,0.000000,-0.001000,-0.006000,-0.001000,FlatInitial,Hold,0
07:11:24.278 PM 02/16/2016,Teleop Enabled,0,FALSE,0,NO ERROR,0.000000,0.000000,-6000.000000,-6000.000000,Speed,Speed,-0.050000,0.740000,1.010000,1.000000,102.000000,1,0,-0.000000,0.000000,1,0.000000,0.000000,0.000000,-19.127548,40.995514,0.000000,0.006000,-0.004000,0.000000,FlatInitial,Hold,0
07:11:24.378 PM 02/16/2016,Teleop Enabled,0,FALSE,0,NO ERROR,0.000000,0.000000,-6000.000000,-6000.000000,Speed,Speed,-0.060000,0.740000,1.010000,1.000000,100.000000,1,0,-0.000000,0.000000,1,0.000000,0.000000,0.000000,-19.127548,40.995514,0.000000,-0.013000,0.000000,0.006000,FlatInitial,Hold,0
07:11:24.479 PM 02/16/2016,Teleop Enabled,0,FALSE,0,NO ERROR,0.000000,0.000000,-6000.000000,-6000.000000,Speed,Speed,-0.050000,0.750000,1.000000,1.000000,101.000000,1,0,-0.000000,0.000000,1,0.000000,0.000000,0.000000,-19.127548,40.995514,0.000000,0.007000,0.006000,-0.001000,FlatInitial,Hold,0
07:11:24.579 PM 02/16/2016,Teleop Enabled,0,FALSE,0,NO ERROR,0.000000,0.000000,-6000.000000,-6000.000000,Speed,Speed,-0.050000,0.730000,1.040000,1.000000,101.000000,1,0,-0.000000,0.000000,1,0.000000,0.000000,0.000000,-19.127548,40.995514,0.000000,0.001000,0.000000,0.004000,FlatInitial,Hold,0
07:11:24.682 PM 02/16/2016,Teleop Enabled,0,FALSE,0,NO ERROR,0.000000,0.000000,-6000.000000,-6000.000000,Speed,Speed,-0.060000,0.740000,1.030000,1.000000,101.000000,1,0,-0.000000,0.000000,1,0.000000,0.000000,0.000000,-19.127548,40.995514,0.000000,-0.001000,0.001000,0.004000,FlatInitial,Hold,0
07:11:24.783 PM 02/16/2016,Teleop Enabled,0,FALSE,0,NO ERROR,0.000000,0.000000,-6000.000000,-6000.000000,Speed,Speed,-0.050000,0.740000,1.010000,1.000000,101.000000,1,0,-0.000000,0.000000,1,0.000000,0.000000,0.000000,-19.127548,40.995514,0.000000,0.002000,-0.004000,0.003000,FlatInitial,Hold,0
07:11:24.883 PM 02/16/2016,Teleop Enabled,0,FALSE,0,NO ERROR,0.000000,0.000000,-6000.000000,-6000.000000,Speed,Speed,-0.060000,0.730000,1.020000,1.000000,101.000000,1,0,-0.000000,0.000000,1,0.000000,0.000000,0.000000,-19.127548,40.995514,0.000000,0.001000,0.003000,0.000000,FlatInitial,Hold,0
07:11:24.985 PM 02/16/2016,Teleop Enabled,0,FALSE,0,NO ERROR,0.000000,0.000000,-6000.000000,-6000.000000,Speed,Speed,-0.060000,0.730000,1.030000,1.000000,101.000000,1,0,-0.000000,0.000000,1,0.000000,0.000000,0.000000,-19.127548,40.995514,0.000000,-0.002000,-0.001000,0.004000,FlatInitial,Hold,0
07:11:25.088 PM 02/16/2016,Teleop Enabled,0,FALSE,0,NO ERROR,0.000000,0.000000,-6000.000000,-6000.000000,Speed,Speed,-0.060000,0.730000,1.020000,1.000000,101.000000,1,0,-0.000000,0.000000,1,0.000000,0.000000,0.000000,-19.127548,40.995514,0.000000,0.005000,0.002000,0.003000,FlatInitial,Hold,0
07:11:25.187 PM 02/16/2016,Teleop Enabled,0,FALSE,0,NO ERROR,0.000000,0.000000,-6000.000000,-6000.000000,Speed,Speed,-0.060000,0.730000,1.020000,1.000000,102.000000,1,0,-0.000000,0.000000,1,0.000000,0.000000,0.000000,-19.127548,40.995514,0.000000,-0.005000,0.000000,0.005000,FlatInitial,Hold,0
07:11:25.287 PM 02/16/2016,Teleop Enabled,0,FALSE,0,NO ERROR,0.000000,0.000000,-6000.000000,-6000.000000,Speed,Speed,-0.060000,0.730000,1.020000,1.000000,102.000000,1,0,-0.000000,0.000000,1,0.000000,0.000000,0.000000,-19.127548,40.995514,0.000000,-0.001000,0.003000,0.001000,FlatInitial,Hold,0
07:11:25.391 PM 02/16/2016,Teleop Enabled,0,FALSE,0,NO ERROR,0.000000,0.000000,-6000.000000,-6000.000000,Speed,Speed,-0.070000,0.730000,1.020000,1.000000,103.000000,1,0,-0.000000,0.000000,1,0.000000,0.000000,0.000000,-19.127548,40.995514,0.000000,0.000000,0.003000,0.002000,FlatInitial,Hold,0
07:11:25.495 PM 02/16/2016,Teleop Enabled,0,FALSE,0,NO ERROR,0.000000,0.000000,-6000.000000,-6000.000000,Speed,Speed,-0.070000,0.730000,1.030000,1.000000,101.000000,1,0,-0.000000,0.000000,1,0.000000,0.000000,0.000000,-19.127548,40.995514,0.000000,0.003000,-0.003000,0.001000,FlatInitial,Hold,0
07:11:25.595 PM 02/16/2016,Teleop Enabled,0,FALSE,0,NO ERROR,0.000000,0.000000,-6000.000000,-6000.000000,Speed,Speed,-0.070000,0.730000,1.020000,1.000000,102.000000,1,0,-0.000000,0.000000,1,0.000000,0.000000,0.000000,-19.127548,40.995514,0.000000,0.000000,-0.001000,0.004000,FlatInitial,Hold,0
07:11:25.696 PM 02/16/2016,Teleop Enabled,0,FALSE,0,NO ERROR,0.000000,0.000000,-6000.000000,-6000.000000,Speed,Speed,-0.070000,0.730000,1.020000,1.000000,102.000000,1,0,-0.000000,0.000000,1,0.000000,0.000000,0.000000,-19.127548,40.995514,0.000000,0.002000,0.002000,0.003000,FlatInitial,Hold,0
07:11:25.796 PM 02/16/2016,Teleop Enabled,0,FALSE,0,NO ERROR,0.000000,0.000000,-6000.000000,-6000.000000,Speed,Speed,-0.070000,0.740000,1.020000,1.000000,101.000000,1,0,-0.000000,0.000000,1,0.000000,0.000000,0.000000,-19.127548,40.995514,0.000000,0.000000,-0.004000,0.004000,FlatInitial,Hold,0
07:11:25.897 PM 02/16/2016,Teleop Enabled,0,FALSE,0,NO ERROR,0.000000,0.000000,-6000.000000,-6000.000000,Speed,Speed,-0.070000,0.740000,1.020000,1.000000,100.000000,1,0,-0.000000,0.000000,1,0.000000,0.000000,0.000000,-19.127548,40.995514,0.000000,0.000000,-0.002000,-0.001000,FlatInitial,Hold,0
07:11:25.998 PM 02/16/2016,Teleop Enabled,0,FALSE,0,NO ERROR,0.000000,0.000000,-6000.000000,-6000.000000,Speed,Speed,-0.070000,0.730000,1.010000,1.000000,101.000000,1,0,-0.000000,0.000000,1,0.000000,0.000000,0.000000,-19.127548,40.995514,0.000000,0.000000,0.000000,0.000000,FlatInitial,Hold,0
07:11:26.099 PM 02/16/2016,Teleop Enabled,0,FALSE,0,NO ERROR,0.000000,0.000000,-6000.000000,-6000.000000,Speed,Speed,-0.080000,0.730000,1.020000,1.000000,101.000000,1,0,-0.000000,0.000000,1,0.000000,0.000000,0.000000,-19.127548,40.995514,0.000000,0.000000,0.001000,0.003000,FlatInitial,LowGoal,0
07:11:26.199 PM 02/16/2016,Teleop Enabled,0,FALSE,0,NO ERROR,0.000000,0.000000,-6000.000000,-6000.000000,Speed,Speed,-0.080000,0.730000,1.010000,1.000000,101.000000,1,0,-0.000000,0.000000,1,0.000000,0.000000,0.000000,-19.127548,40.995514,0.000000,0.000000,-0.018000,0.007000,FlatInitial,Hold,0
07:11:26.300 PM 02/16/2016,Teleop Enabled,0,FALSE,0,NO ERROR,0.000000,0.000000,-6000.000000,-6000.000000,Speed,Speed,-0.060000,0.690000,1.020000,1.000000,102.000000,1,0,-0.000000,0.000000,1,-0.005936,0.000000,0.000000,-19.127625,40.995285,0.000000,-0.014000,0.002000,-0.009000,FlatInitial,LowGoal,0
07:11:26.400 PM 02/16/2016,Teleop Enabled,0,FALSE,0,NO ERROR,0.000000,0.000000,-6000.000000,-6000.000000,Speed,Speed,-0.050000,0.700000,1.110000,1.000000,105.000000,1,0,-0.000000,0.000000,1,0.000000,0.000000,0.000000,-19.127701,40.995285,0.000000,-0.008000,0.015000,0.007000,FlatInitial,Hold,0
07:11:26.500 PM 02/16/2016,Teleop Enabled,0,FALSE,0,NO ERROR,0.000000,0.000000,-6000.000000,-6000.000000,Speed,Speed,-0.040000,0.730000,1.060000,1.000000,103.000000,1,0,-0.000000,0.000000,1,-0.001541,0.028519,0.000000,-19.127716,40.995773,0.000000,-0.023000,0.070000,0.032000,FlatInitial,Hold,0
07:11:26.600 PM 02/16/2016,Teleop Enabled,0,FALSE,0,NO ERROR,0.000000,0.000000,-6000.000000,-6000.000000,Speed,Speed,-0.060000,0.880000,1.080000,1.000000,101.000000,1,0,-0.000000,0.000000,1,0.016724,0.063614,0.000000,-19.127884,40.998734,0.000000,0.074000,-0.067000,0.056000,FlatInitial,Hold,0
07:11:26.700 PM 02/16/2016,Teleop Enabled,0,FALSE,0,NO ERROR,0.000000,0.000000,-6000.000000,-6000.000000,Speed,Speed,-0.030000,0.630000,0.870000,1.000000,101.000000,1,0,-0.000000,0.000000,1,-0.019669,-0.016205,0.000000,-19.127655,40.999115,0.000000,-0.013000,-0.020000,0.052000,FlatInitial,Hold,0
07:11:26.800 PM 02/16/2016,Teleop Enabled,0,FALSE,0,NO ERROR,0.000000,0.000000,-6000.000000,-6000.000000,Speed,Speed,-0.030000,0.920000,0.690000,1.000000,101.000000,1,0,-0.000000,0.000000,1,0.028885,0.006622,0.000000,-19.127258,40.999069,0.000000,-0.032000,-0.001000,0.052000,FlatInitial,Hold,0
07:11:26.900 PM 02/16/2016,Teleop Enabled,0,FALSE,0,NO ERROR,0.000000,0.000000,-6000.000000,-6000.000000,Speed,Speed,-0.060000,0.730000,0.850000,1.000000,102.000000,1,0,-0.000000,0.000000,1,-0.001144,0.000000,0.000000,-19.126816,40.999069,0.000000,0.036000,0.023000,-0.005000,FlatInitial,Hold,0
07:11:27.000 PM 02/16/2016,Teleop Enabled,0,FALSE,0,NO ERROR,0.000000,0.000000,-6000.000000,-6000.000000,Speed,Speed,-0.010000,0.860000,0.620000,1.000000,102.000000,1,0,-0.000000,0.000000,1,0.000000,0.028854,0.000000,-19.126556,40.999832,0.000000,0.014000,0.029000,-0.037000,FlatInitial,Hold,0
07:11:27.101 PM 02/16/2016,Teleop Enabled,0,FALSE,0,NO ERROR,0.000000,0.000000,-6000.000000,-6000.000000,Speed,Speed,-0.080000,0.800000,1.070000,1.000000,100.000000,1,0,-0.000000,0.000000,1,0.006897,-0.012238,0.000000,-19.126389,41.000397,0.000000,-0.039000,-0.041000,0.020000,FlatInitial,Hold,0
07:11:27.200 PM 02/16/2016,Teleop Enabled,0,FALSE,0,NO ERROR,0.000000,0.000000,-6000.000000,-6000.000000,Speed,Speed,-0.030000,0.750000,0.720000,1.000000,101.000000,1,0,-0.000000,0.000000,1,-0.018723,-0.039948,0.000000,-19.126999,40.998764,0.000000,0.030000,0.023000,-0.020000,FlatInitial,Hold,0
07:11:27.301 PM 02/16/2016,Teleop Enabled,0,FALSE,0,NO ERROR,0.000000,0.000000,-6000.000000,-6000.000000,Speed,Speed,-0.040000,0.860000,0.800000,1.000000,103.000000,1,0,-0.000000,0.000000,1,0.007080,-0.022217,0.000000,-19.127075,40.997360,0.000000,-0.016000,-0.015000,0.023000,FlatInitial,Hold,0
07:11:27.402 PM 02/16/2016,Teleop Enabled,0,FALSE,0,NO ERROR,0.000000,0.000000,-6000.000000,-6000.000000,Speed,Speed,-0.080000,0.750000,0.930000,1.000000,101.000000,1,0,-0.000000,0.000000,1,0.000000,0.000000,0.000000,-19.127258,40.997360,0.000000,0.000000,0.013000,0.000000,FlatInitial,Hold,0
07:11:27.502 PM 02/16/2016,Teleop Enabled,0,FALSE,0,NO ERROR,0.000000,0.000000,-6000.000000,-6000.000000,Speed,Speed,-0.040000,0.840000,0.800000,1.000000,101.000000,1,0,-0.000000,0.000000,1,0.003265,0.010834,0.000000,-19.127228,40.997589,0.000000,0.021000,0.006000,-0.001000,FlatInitial,Hold,0
07:11:27.602 PM 02/16/2016,Teleop Enabled,0,FALSE,0,NO ERROR,0.000000,0.000000,-6000.000000,-6000.000000,Speed,Speed,-0.080000,0.760000,0.950000,1.000000,102.000000,1,0,-0.000000,0.000000,1,0.000000,-0.004181,0.000000,-19.127045,40.997543,0.000000,-0.015000,-0.022000,0.025000,FlatInitial,Hold,0
07:11:27.704 PM 02/16/2016,Teleop Enabled,0,FALSE,0,NO ERROR,0.000000,0.000000,-6000.000000,-6000.000000,Speed,Speed,-0.040000,0.820000,0.730000,1.000000,102.000000,1,0,-0.000000,0.000000,1,0.004578,0.000000,0.000000,-19.126999,40.997360,0.000000,0.029000,0.009000,-0.020000,FlatInitial,Hold,0
07:11:27.804 PM 02/16/2016,Teleop Enabled,0,FALSE,0,NO ERROR,0.000000,0.000000,-6000.000000,-6000.000000,Speed,Speed,-0.080000,0.780000,0.880000,1.000000,103.000000,1,0,-0.000000,0.000000,1,0.000000,0.000000,0.000000,-19.126801,40.997360,0.000000,-0.015000,-0.001000,0.005000,FlatInitial,Hold,0
07:11:27.904 PM 02/16/2016,Teleop Enabled,0,FALSE,0,NO ERROR,0.000000,0.000000,-6000.000000,-6000.000000,Speed,Speed,-0.050000,0.790000,0.810000,1.000000,102.000000,1,0,-0.000000,0.000000,1,0.000000,0.000000,0.000000,-19.126801,40.997360,0.000000,0.000000,0.011000,-0.006000,FlatInitial,Hold,0
07:11:28.004 PM 02/16/2016,Teleop Enabled,0,FALSE,0,NO ERROR,0.000000,0.000000,-6000.000000,-6000.000000,Speed,Speed,-0.060000,0.810000,0.840000,1.000000,101.000000,1,0,-0.000000,0.000000,1,0.000000,0.000000,0.000000,-19.126801,40.997360,0.000000,0.001000,-0.002000,0.000000,FlatInitial,Hold,0
07:11:28.104 PM 02/16/2016,Teleop Enabled,0,FALSE,0,NO ERROR,0.000000,0.000000,-6000.000000,-6000.000000,Speed,Speed,-0.070000,0.780000,0.830000,1.000000,101.000000,1,0,-0.000000,0.000000,1,0.000000,0.000000,0.000000,-19.126801,40.997360,0.000000,-0.001000,-0.001000,0.004000,FlatInitial,Hold,0
07:11:28.205 PM 02/16/2016,Teleop Enabled,0,FALSE,0,NO ERROR,0.000000,0.000000,-6000.000000,-6000.000000,Speed,Speed,-0.060000,0.810000,0.810000,1.000000,103.000000,1,0,-0.000000,0.000000,1,0.000000,0.000000,0.000000,-19.126801,40.997360,0.000000,0.000000,0.000000,0.002000,FlatInitial,Hold,0
07:11:28.305 PM 02/16/2016,Teleop Enabled,0,FALSE,0,NO ERROR,0.000000,0.000000,-6000.000000,-6000.000000,Speed,Speed,-0.070000,0.780000,0.840000,1.000000,102.000000,1,0,-0.000000,0.000000,1,0.000000,0.000000,0.000000,-19.126801,40.997360,0.000000,-0.002000,0.000000,0.008000,FlatInitial,Hold,0
07:11:28.405 PM 02/16/2016,Teleop Enabled,0,FALSE,0,NO ERROR,0.000000,0.000000,-6000.000000,-6000.000000,Speed,Speed,-0.050000,0.790000,0.810000,1.000000,101.000000,1,0,-0.000000,0.000000,1,0.000000,0.000000,0.000000,-19.126801,40.997360,0.000000,0.003000,0.000000,0.003000,FlatInitial,Hold,0
07:11:28.505 PM 02/16/2016,Teleop Enabled,0,FALSE,0,NO ERROR,0.000000,0.000000,-6000.000000,-6000.000000,Speed,Speed,-0.070000,0.780000,0.850000,1.000000,108.000000,1,0,-0.000000,0.000000,1,0.000000,0.000000,0.000000,-19.126801,40.997360,0.000000,-0.006000,-0.005000,0.006000,FlatInitial,Hold,0
07:11:28.605 PM 02/16/2016,Teleop Enabled,0,FALSE,0,NO ERROR,0.000000,0.000000,-6000.000000,-6000.000000,Speed,Speed,-0.060000,0.790000,0.810000,1.000000,103.000000,1,0,-0.000000,0.000000,1,0.000000,0.000000,0.000000,-19.126801,40.997360,0.000000,0.004000,0.000000,-0.002000,FlatInitial,Hold,0
07:11:28.705 PM 02/16/2016,Teleop Enabled,0,FALSE,0,NO ERROR,0.000000,0.000000,-6000.000000,-6000.000000,Speed,Speed,-0.070000,0.780000,0.840000,1.000000,102.000000,1,0,-0.000000,0.000000,1,0.000000,0.000000,0.000000,-19.126801,40.997360,0.000000,-0.003000,-0.003000,0.008000,FlatInitial,Hold,0
07:11:28.806 PM 02/16/2016,Teleop Enabled,0,FALSE,0,NO ERROR,0.000000,0.000000,-6000.000000,-6000.000000,Speed,Speed,-0.060000,0.790000,0.820000,1.000000,101.000000,1,0,-0.000000,0.000000,1,0.000000,0.000000,0.000000,-19.126801,40.997360,0.000000,0.001000,0.002000,0.000000,FlatInitial,Hold,0
07:11:28.906 PM 02/16/2016,Teleop Enabled,0,FALSE,0,NO ERROR,0.000000,0.000000,-6000.000000,-6000.000000,Speed,Speed,-0.070000,0.790000,0.830000,1.000000,105.000000,1,0,-0.000000,0.000000,1,0.000000,0.000000,0.000000,-19.126801,40.997360,0.000000,-0.003000,0.000000,0.005000,FlatInitial,Hold,0
07:11:29.006 PM 02/16/2016,Teleop Enabled,0,FALSE,0,NO ERROR,0.000000,0.000000,-6000.000000,-6000.000000,Speed,Speed,-0.070000,0.790000,0.820000,1.000000,101.000000,1,0,-0.000000,0.000000,1,0.000000,0.000000,0.000000,-19.126801,40.997360,0.000000,0.001000,0.000000,-0.001000,FlatInitial,Hold,0
07:11:29.106 PM 02/16/2016,Teleop Enabled,0,FALSE,0,NO ERROR,0.000000,0.000000,-6000.000000,-6000.000000,Speed,Speed,-0.070000,0.790000,0.830000,1.000000,101.000000,1,0,-0.000000,0.000000,1,0.000000,0.000000,0.000000,-19.126801,40.997360,0.000000,-0.002000,-0.002000,0.003000,FlatInitial,Hold,0
07:11:29.207 PM 02/16/2016,Teleop Enabled,0,FALSE,0,NO ERROR,0.000000,0.000000,-6000.000000,-6000.000000,Speed,Speed,-0.070000,0.790000,0.820000,1.000000,101.000000,1,0,-0.000000,0.000000,1,0.000000,0.000000,0.000000,-19.126801,40.997360,0.000000,0.000000,-0.001000,0.004000,FlatInitial,Hold,0
07:11:29.307 PM 02/16/2016,Teleop Enabled,0,FALSE,0,NO ERROR,0.000000,0.000000,-6000.000000,-6000.000000,Speed,Speed,-0.070000,0.790000,0.830000,1.000000,101.000000,1,0,-0.000000,0.000000,1,0.000000,0.000000,0.000000,-19.126801,40.997360,0.000000,-0.001000,0.001000,0.005000,FlatInitial,Hold,0
07:11:29.407 PM 02/16/2016,Teleop Enabled,0,FALSE,0,NO ERROR,0.000000,0.000000,-6000.000000,-6000.000000,Speed,Speed,-0.070000,0.790000,0.820000,1.000000,101.000000,1,0,-0.000000,0.000000,1,0.000000,0.000000,0.000000,-19.126801,40.997360,0.000000,0.001000,0.000000,0.003000,FlatInitial,Hold,0
07:11:29.507 PM 02/16/2016,Teleop Enabled,0,FALSE,0,NO ERROR,0.000000,0.000000,-6000.000000,-6000.000000,Speed,Speed,-0.070000,0.790000,0.820000,1.000000,102.000000,1,0,-0.000000,0.000000,1,0.000000,0.000000,0.000000,-19.126801,40.997360,0.000000,-0.002000,0.000000,0.007000,FlatInitial,Hold,0
07:11:29.607 PM 02/16/2016,Teleop Enabled,0,FALSE,0,NO ERROR,0.000000,0.000000,-6000.000000,-6000.000000,Speed,Speed,-0.070000,0.790000,0.820000,1.000000,102.000000,1,0,-0.000000,0.000000,1,0.000000,0.000000,0.000000,-19.126801,40.997360,0.000000,0.000000,0.000000,0.003000,FlatInitial,Hold,0
07:11:29.707 PM 02/16/2016,Teleop Enabled,0,FALSE,0,NO ERROR,0.000000,0.000000,-6000.000000,-6000.000000,Speed,Speed,-0.070000,0.790000,0.820000,1.000000,101.000000,1,0,-0.000000,0.000000,1,0.000000,0.000000,0.000000,-19.126801,40.997360,0.000000,0.000000,-0.001000,0.003000,FlatInitial,Hold,0
07:11:29.807 PM 02/16/2016,Teleop Enabled,0,FALSE,0,NO ERROR,0.000000,0.000000,-6000.000000,-6000.000000,Speed,Speed,-0.070000,0.800000,0.820000,1.000000,108.000000,1,0,-0.000000,0.000000,1,0.000000,0.000000,0.000000,-19.126801,40.997360,0.000000,-0.001000,-0.002000,0.019000,FlatInitial,HighGoal,0
07:11:29.908 PM 02/16/2016,Teleop Enabled,0,FALSE,0,NO ERROR,0.000000,0.000000,-6000.000000,-6000.000000,Speed,Speed,-0.060000,0.820000,0.680000,1.000000,100.000000,1,0,-0.000000,0.000000,1,0.000000,0.009140,0.000000,-19.126801,40.997482,0.000000,0.000000,0.030000,-0.048000,FlatInitial,Hold,0
07:11:30.009 PM 02/16/2016,Teleop Enabled,0,FALSE,0,NO ERROR,0.000000,0.000000,-6000.000000,-6000.000000,Speed,Speed,-0.080000,0.780000,1.000000,1.000000,100.000000,1,0,-0.000000,0.000000,1,0.014633,-0.017075,0.000000,-19.126205,40.997330,0.000000,-0.048000,-0.038000,0.039000,FlatInitial,Hold,0
07:11:30.108 PM 02/16/2016,Teleop Enabled,0,FALSE,0,NO ERROR,0.000000,0.000000,-6000.000000,-6000.000000,Speed,Speed,-0.050000,0.810000,0.680000,1.000000,101.000000,1,0,-0.000000,0.000000,1,0.003159,-0.031555,0.000000,-19.126221,40.995773,0.000000,0.040000,0.019000,-0.022000,FlatInitial,Hold,0
07:11:30.208 PM 02/16/2016,Teleop Enabled,0,FALSE,0,NO ERROR,0.000000,0.000000,-6000.000000,-6000.000000,Speed,Speed,-0.070000,0.760000,0.880000,1.000000,101.000000,1,0,-0.000000,0.000000,1,0.008820,0.000000,0.000000,-19.125565,40.995255,0.000000,-0.017000,-0.006000,0.025000,FlatInitial,Hold,0
07:11:30.308 PM 02/16/2016,Teleop Enabled,0,FALSE,0,NO ERROR,0.000000,0.000000,-6000.000000,-6000.000000,Speed,Speed,-0.060000,0.790000,0.830000,1.000000,101.000000,1,0,-0.000000,0.000000,1,0.000000,0.000000,0.000000,-19.125519,40.995255,0.000000,0.005000,0.000000,0.013000,FlatInitial,Hold,0
07:11:30.408 PM 02/16/2016,Teleop Enabled,0,FALSE,0,NO ERROR,0.000000,0.000000,-6000.000000,-6000.000000,Speed,Speed,-0.070000,0.790000,0.890000,1.000000,100.000000,1,0,-0.000000,0.000000,1,0.000000,0.000000,0.000000,-19.125519,40.995255,0.000000,0.006000,-0.002000,0.014000,FlatInitial,Hold,0
07:11:30.509 PM 02/16/2016,Teleop Enabled,0,FALSE,0,NO ERROR,0.000000,0.000000,-6000.000000,-6000.000000,Speed,Speed,-0.070000,0.730000,0.960000,1.000000,102.000000,1,0,-0.000000,0.000000,1,0.000000,-0.018295,0.000000,-19.125519,40.994904,0.000000,0.007000,-0.036000,0.021000,FlatInitial,Hold,0
07:11:30.609 PM 02/16/2016,Teleop Enabled,0,FALSE,0,NO ERROR,0.000000,0.000000,-6000.000000,-6000.000000,Speed,Speed,-0.040000,0.720000,0.880000,1.000000,101.000000,1,0,-0.000000,0.000000,1,0.000000,0.023773,0.000000,-19.125519,40.994766,0.000000,0.011000,0.067000,0.001000,FlatInitial,Hold,0
07:11:30.709 PM 02/16/2016,Teleop Enabled,0,FALSE,0,NO ERROR,0.000000,0.000000,-6000.000000,-6000.000000,Speed,Speed,-0.070000,0.800000,1.000000,1.000000,102.000000,1,0,-0.000000,0.000000,1,0.010178,0.048401,0.000000,-19.125290,40.996521,0.000000,-0.008000,-0.021000,0.011000,FlatInitial,Hold,0
07:11:30.809 PM 02/16/2016,Teleop Enabled,0,FALSE,0,NO ERROR,0.000000,0.000000,-6000.000000,-6000.000000,Speed,Speed,-0.060000,0.720000,0.950000,1.000000,103.000000,1,0,-0.000000,0.000000,1,0.000000,0.000000,0.000000,-19.125488,40.998215,0.000000,0.004000,-0.007000,0.008000,FlatInitial,Hold,0
07:11:30.909 PM 02/16/2016,Teleop Enabled,0,FALSE,0,NO ERROR,0.000000,0.000000,-6000.000000,-6000.000000,Speed,Speed,-0.070000,0.810000,0.860000,1.000000,101.000000,1,0,-0.000000,0.000000,1,0.000000,0.000000,0.000000,-19.125275,40.998215,0.000000,-0.013000,-0.011000,0.013000,FlatInitial,Hold,0
07:11:31.010 PM 02/16/2016,Teleop Enabled,0,FALSE,0,NO ERROR,0.000000,0.000000,-6000.000000,-6000.000000,Speed,Speed,-0.070000,0.740000,0.890000,1.000000,102.000000,1,0,-0.000000,0.000000,1,0.000000,0.000000,0.000000,-19.125275,40.998215,0.000000,0.010000,-0.001000,-0.004000,FlatInitial,Hold,0
07:11:31.111 PM 02/16/2016,Teleop Enabled,0,FALSE,0,NO ERROR,0.000000,0.000000,-6000.000000,-6000.000000,Speed,Speed,-0.070000,0.780000,0.900000,1.000000,102.000000,1,0,-0.000000,0.000000,1,0.000000,0.013275,0.000000,-19.125275,40.998489,0.000000,-0.001000,0.013000,-0.002000,FlatInitial,Hold,0
07:11:31.212 PM 02/16/2016,Teleop Enabled,0,FALSE,0,NO ERROR,0.000000,0.000000,-6000.000000,-6000.000000,Speed,Speed,-0.070000,0.750000,0.950000,1.000000,100.000000,1,0,-0.000000,0.000000,1,0.000000,0.000000,0.000000,-19.125275,40.998489,0.000000,-0.001000,0.013000,-0.002000,FlatInitial,Hold,0
07:11:31.313 PM 02/16/2016,Teleop Enabled,0,FALSE,0,NO ERROR,0.000000,0.000000,-6000.000000,-6000.000000,Speed,Speed,-0.080000,0.780000,0.900000,1.000000,101.000000,1,0,-0.000000,0.000000,1,0.000000,0.000000,0.000000,-19.125275,40.998489,0.000000,0.004000,0.006000,0.000000,FlatInitial,Hold,0
07:11:31.413 PM 02/16/2016,Teleop Enabled,0,FALSE,0,NO ERROR,0.000000,0.000000,-6000.000000,-6000.000000,Speed,Speed,-0.080000,0.750000,0.940000,1.000000,103.000000,1,0,-0.000000,0.000000,1,0.000000,0.000000,0.000000,-19.125275,40.998489,0.000000,-0.003000,-0.009000,0.005000,FlatInitial,Hold,0
07:11:31.513 PM 02/16/2016,Teleop Enabled,0,FALSE,0,NO ERROR,0.000000,0.000000,-6000.000000,-6000.000000,Speed,Speed,-0.080000,0.780000,0.890000,1.000000,100.000000,1,0,-0.000000,0.000000,1,0.000000,0.000000,0.000000,-19.125275,40.998489,0.000000,0.001000,0.008000,0.000000,FlatInitial,Hold,0
07:11:31.613 PM 02/16/2016,Teleop Enabled,0,FALSE,0,NO ERROR,0.000000,0.000000,-6000.000000,-6000.000000,Speed,Speed,-0.080000,0.760000,0.930000,1.000000,100.000000,1,0,-0.000000,0.000000,1,0.000000,0.000000,0.000000,-19.125275,40.998489,0.000000,0.000000,-0.006000,0.006000,FlatInitial,Hold,0
07:11:31.713 PM 02/16/2016,Teleop Enabled,0,FALSE,0,NO ERROR,0.000000,0.000000,-6000.000000,-6000.000000,Speed,Speed,-0.080000,0.770000,0.910000,1.000000,101.000000,1,0,-0.000000,0.000000,1,0.000000,0.000000,0.000000,-19.125275,40.998489,0.000000,0.000000,0.004000,0.001000,FlatInitial,Hold,0
07:11:31.814 PM 02/16/2016,Teleop Enabled,0,FALSE,0,NO ERROR,0.000000,0.000000,-6000.000000,-6000.000000,Speed,Speed,-0.080000,0.760000,0.930000,1.000000,100.000000,1,0,-0.000000,0.000000,1,0.000000,0.000000,0.000000,-19.125275,40.998489,0.000000,0.000000,0.004000,0.001000,FlatInitial,Hold,0
07:11:31.915 PM 02/16/2016,Teleop Enabled,0,FALSE,0,NO ERROR,0.000000,0.000000,-6000.000000,-6000.000000,Speed,Speed,-0.080000,0.770000,0.900000,1.000000,101.000000,1,0,-0.000000,0.000000,1,0.000000,0.000000,0.000000,-19.125275,40.998489,0.000000,0.000000,-0.008000,0.006000,FlatInitial,Hold,0
07:11:32.016 PM 02/16/2016,Teleop Enabled,0,FALSE,0,NO ERROR,0.000000,0.000000,-6000.000000,-6000.000000,Speed,Speed,-0.080000,0.760000,0.930000,1.000000,102.000000,1,0,-0.000000,0.000000,1,0.000000,0.000000,0.000000,-19.125275,40.998489,0.000000,0.002000,0.004000,-0.001000,FlatInitial,Hold,0
07:11:32.117 PM 02/16/2016,Teleop Enabled,0,FALSE,0,NO ERROR,0.000000,0.000000,-6000.000000,-6000.000000,Speed,Speed,-0.080000,0.770000,0.910000,1.000000,101.000000,1,0,-0.000000,0.000000,1,0.000000,0.000000,0.000000,-19.125275,40.998489,0.000000,0.000000,-0.004000,0.006000,FlatInitial,Hold,0
07:11:32.217 PM 02/16/2016,Teleop Enabled,0,FALSE,0,NO ERROR,0.000000,0.000000,-6000.000000,-6000.000000,Speed,Speed,-0.080000,0.760000,0.930000,1.000000,102.000000,1,0,-0.000000,0.000000,1,0.000000,0.000000,0.000000,-19.125275,40.998489,0.000000,0.000000,0.004000,0.002000,FlatInitial,Hold,0
07:11:32.318 PM 02/16/2016,Teleop Enabled,0,FALSE,0,NO ERROR,0.000000,0.000000,-6000.000000,-6000.000000,Speed,Speed,-0.080000,0.770000,0.910000,1.000000,101.000000,1,0,-0.000000,0.000000,1,0.000000,0.000000,0.000000,-19.125275,40.998489,0.000000,0.001000,-0.002000,0.000000,FlatInitial,Hold,0
07:11:32.418 PM 02/16/2016,Teleop Enabled,0,FALSE,0,NO ERROR,0.000000,0.000000,-6000.000000,-6000.000000,Speed,Speed,-0.080000,0.770000,0.910000,1.000000,103.000000,1,0,-0.000000,0.000000,1,0.000000,0.000000,0.000000,-19.125275,40.998489,0.000000,0.002000,0.002000,0.001000,FlatInitial,Hold,0
07:11:32.518 PM 02/16/2016,Teleop Enabled,0,FALSE,0,NO ERROR,0.000000,0.000000,-6000.000000,-6000.000000,Speed,Speed,-0.080000,0.760000,0.920000,1.000000,103.000000,1,0,-0.000000,0.000000,1,0.000000,0.000000,0.000000,-19.125275,40.998489,0.000000,-0.002000,0.000000,0.002000,FlatInitial,Hold,0
07:11:32.618 PM 02/16/2016,Teleop Enabled,0,FALSE,0,NO ERROR,0.000000,0.000000,-6000.000000,-6000.000000,Speed,Speed,-0.080000,0.770000,0.910000,1.000000,102.000000,1,0,-0.000000,0.000000,1,0.000000,0.000000,0.000000,-19.125275,40.998489,0.000000,0.000000,0.000000,0.004000,FlatInitial,Hold,0
07:11:32.722 PM 02/16/2016,Teleop Enabled,0,FALSE,0,NO ERROR,0.000000,0.000000,-6000.000000,-6000.000000,Speed,Speed,-0.080000,0.770000,0.900000,1.000000,101.000000,1,0,-0.000000,0.000000,1,0.000000,0.000000,0.000000,-19.125275,40.998489,0.000000,0.000000,-0.004000,0.006000,FlatInitial,Hold,0
07:11:32.821 PM 02/16/2016,Teleop Enabled,0,FALSE,0,NO ERROR,0.000000,0.000000,-6000.000000,-6000.000000,Speed,Speed,-0.080000,0.770000,0.910000,1.000000,103.000000,1,0,-0.000000,0.000000,1,0.000000,0.000000,0.000000,-19.125275,40.998489,0.000000,0.002000,0.001000,0.002000,FlatInitial,Hold,0
07:11:32.921 PM 02/16/2016,Teleop Enabled,0,FALSE,0,NO ERROR,0.000000,0.000000,-6000.000000,-6000.000000,Speed,Speed,-0.080000,0.770000,0.910000,1.000000,101.000000,1,0,-0.000000,0.000000,1,0.000000,0.000000,0.000000,-19.125275,40.998489,0.000000,0.004000,-0.001000,0.007000,FlatInitial,Hold,0
07:11:33.021 PM 02/16/2016,Teleop Enabled,0,FALSE,0,NO ERROR,0.000000,0.000000,-6000.000000,-6000.000000,Speed,Speed,-0.080000,0.770000,0.910000,1.000000,100.000000,1,0,-0.000000,0.000000,1,0.000000,0.000000,0.000000,-19.125275,40.998489,0.000000,0.002000,0.000000,0.005000,FlatInitial,Hold,0
07:11:33.122 PM 02/16/2016,Teleop Enabled,0,FALSE,0,NO ERROR,0.000000,0.000000,-6000.000000,-6000.000000,Speed,Speed,-0.080000,0.770000,0.910000,1.000000,101.000000,1,0,-0.000000,0.000000,1,0.000000,0.000000,0.000000,-19.125275,40.998489,0.000000,0.000000,-0.001000,0.007000,FlatInitial,Hold,0
07:11:33.222 PM 02/16/2016,Teleop Enabled,0,FALSE,0,NO ERROR,0.000000,0.000000,-6000.000000,-6000.000000,Speed,Speed,-0.080000,0.770000,0.910000,1.000000,102.000000,1,0,-0.000000,0.000000,1,0.000000,0.000000,0.000000,-19.125275,40.998489,0.000000,0.000000,0.000000,0.007000,FlatInitial,Hold,0
07:11:33.323 PM 02/16/2016,Teleop Enabled,0,FALSE,0,NO ERROR,0.000000,0.000000,-6000.000000,-6000.000000,Speed,Speed,-0.080000,0.770000,0.920000,1.000000,101.000000,1,0,-0.000000,0.000000,1,0.000000,0.000000,0.000000,-19.125275,40.998489,0.000000,0.000000,0.001000,0.001000,FlatInitial,BumperShot,0
07:11:33.426 PM 02/16/2016,Teleop Enabled,0,FALSE,0,NO ERROR,0.000000,0.000000,-6000.000000,-6000.000000,Speed,Speed,-0.080000,0.770000,0.920000,1.000000,101.000000,1,0,-0.000000,0.000000,1,0.000000,0.000000,0.000000,-19.125275,40.998489,0.000000,0.000000,0.000000,0.001000,FlatInitial,Hold,0
07:11:33.526 PM 02/16/2016,Teleop Enabled,0,FALSE,0,NO ERROR,0.000000,0.000000,-6000.000000,-6000.000000,Speed,Speed,-0.120000,0.770000,1.070000,1.000000,101.000000,1,0,-0.000000,0.000000,1,-0.005341,0.023300,0.000000,-19.125351,40.998917,0.000000,-0.004000,0.037000,-0.033000,FlatInitial,BumperShot,0
07:11:33.628 PM 02/16/2016,Teleop Enabled,0,FALSE,0,NO ERROR,0.000000,0.000000,-6000.000000,-6000.000000,Speed,Speed,-0.120000,0.770000,1.070000,1.000000,102.000000,1,0,-0.000000,0.000000,1,0.011673,-0.009018,0.000000,-19.124969,40.999649,0.000000,-0.039000,-0.074000,0.018000,FlatInitial,Hold,0
07:11:33.726 PM 02/16/2016,Teleop Enabled,0,FALSE,0,NO ERROR,0.000000,0.000000,-6000.000000,-6000.000000,Speed,Speed,-0.070000,0.780000,0.770000,1.000000,102.000000,1,0,-0.000000,0.000000,1,-0.005676,0.000000,0.000000,-19.125290,40.998825,0.000000,0.020000,0.011000,-0.007000,FlatInitial,Hold,0
07:11:33.826 PM 02/16/2016,Teleop Enabled,0,FALSE,0,NO ERROR,0.000000,0.000000,-6000.000000,-6000.000000,Speed,Speed,-0.120000,0.710000,1.090000,1.000000,102.000000,1,0,-0.000000,0.000000,1,0.004776,0.000000,0.000000,-19.124985,40.998825,0.000000,-0.039000,-0.014000,0.041000,FlatInitial,Hold,0
07:11:33.926 PM 02/16/2016,Teleop Enabled,0,FALSE,0,NO ERROR,0.000000,0.000000,-6000.000000,-6000.000000,Speed,Speed,-0.040000,0.730000,1.010000,1.000000,105.000000,1,0,-0.000000,0.000000,1,-0.003235,0.012283,0.000000,-19.125458,40.998993,0.000000,0.050000,0.041000,-0.008000,FlatInitial,Hold,0
07:11:34.028 PM 02/16/2016,Teleop Enabled,0,FALSE,0,NO ERROR,0.000000,0.000000,-6000.000000,-6000.000000,Speed,Speed,-0.090000,0.660000,1.210000,1.000000,102.000000,1,0,-0.000000,0.000000,1,-0.009247,0.000000,0.000000,-19.125397,40.999802,0.000000,-0.034000,0.015000,-0.003000,FlatInitial,Hold,0
07:11:34.128 PM 02/16/2016,Teleop Enabled,0,FALSE,0,NO ERROR,0.000000,0.000000,-6000.000000,-6000.000000,Speed,Speed,-0.060000,0.800000,0.990000,1.000000,103.000000,1,0,-0.000000,0.000000,1,0.003342,0.029770,0.000000,-19.125641,41.000458,0.000000,0.036000,-0.024000,-0.012000,FlatInitial,Hold,0
07:11:34.228 PM 02/16/2016,Teleop Enabled,0,FALSE,0,NO ERROR,0.000000,0.000000,-6000.000000,-6000.000000,Speed,Speed,-0.150000,0.660000,1.150000,1.000000,103.000000,1,0,-0.000000,0.000000,1,-0.001007,-0.010727,0.000000,-19.124863,41.001480,0.000000,-0.063000,-0.064000,-0.006000,FlatInitial,Hold,0
07:11:34.329 PM 02/16/2016,Teleop Enabled,0,FALSE,0,NO ERROR,0.000000,0.000000,-6000.000000,-6000.000000,Speed,Speed,-0.080000,0.810000,0.790000,1.000000,105.000000,1,0,-0.000000,0.000000,1,0.006683,-0.025162,0.000000,-19.125031,41.000168,0.000000,0.018000,0.025000,-0.046000,FlatInitial,Hold,0
07:11:34.429 PM 02/16/2016,Teleop Enabled,0,FALSE,0,NO ERROR,0.000000,0.000000,-6000.000000,-6000.000000,Speed,Speed,-0.120000,0.690000,1.060000,1.000000,104.000000,1,0,-0.000000,0.000000,1,-0.007523,-0.002914,0.000000,-19.125046,40.999771,0.000000,-0.023000,-0.020000,0.013000,FlatInitial,Hold,0
07:11:34.529 PM 02/16/2016,Teleop Enabled,0,FALSE,0,NO ERROR,0.000000,0.000000,-6000.000000,-6000.000000,Speed,Speed,-0.080000,0.740000,0.950000,1.000000,102.000000,1,0,-0.000000,0.000000,1,0.000000,0.004608,0.000000,-19.125153,40.999649,0.000000,0.003000,0.030000,0.000000,FlatInitial,Hold,0
07:11:34.629 PM 02/16/2016,Teleop Enabled,0,FALSE,0,NO ERROR,0.000000,0.000000,-6000.000000,-6000.000000,Speed,Speed,-0.110000,0.740000,1.070000,1.000000,102.000000,1,0,-0.000000,0.000000,1,0.000000,0.000000,0.000000,-19.125153,41.000504,0.000000,0.003000,-0.007000,0.006000,FlatInitial,Hold,0
07:11:34.729 PM 02/16/2016,Teleop Enabled,0,FALSE,0,NO ERROR,0.000000,0.000000,-6000.000000,-6000.000000,Speed,Speed,-0.110000,0.720000,1.010000,1.000000,101.000000,1,0,-0.000000,0.000000,1,0.000000,0.000000,0.000000,-19.125153,41.000275,0.000000,-0.006000,-0.001000,0.006000,FlatInitial,Hold,0
07:11:34.829 PM 02/16/2016,Teleop Enabled,0,FALSE,0,NO ERROR,0.000000,0.000000,-6000.000000,-6000.000000,Speed,Speed,-0.110000,0.760000,1.000000,1.000000,102.000000,1,0,-0.000000,0.000000,1,0.000000,0.000000,0.000000,-19.125153,41.000275,0.000000,-0.005000,-0.013000,0.005000,FlatInitial,Hold,0
07:11:34.929 PM 02/16/2016,Teleop Enabled,0,FALSE,0,NO ERROR,0.000000,0.000000,-6000.000000,-6000.000000,Speed,Speed,-0.110000,0.720000,0.990000,1.000000,102.000000,1,0,-0.000000,0.000000,1,0.000000,0.000000,0.000000,-19.125153,41.000275,0.000000,0.001000,-0.006000,0.007000,FlatInitial,Hold,0
07:11:35.029 PM 02/16/2016,Teleop Enabled,0,FALSE,0,NO ERROR,0.000000,0.000000,-6000.000000,-6000.000000,Speed,Speed,-0.110000,0.750000,1.010000,1.000000,102.000000,1,0,-0.000000,0.000000,1,0.000000,0.000000,0.000000,-19.125153,41.000275,0.000000,0.000000,0.009000,0.004000,FlatInitial,Hold,0
07:11:35.131 PM 02/16/2016,Teleop Enabled,0,FALSE,0,NO ERROR,0.000000,0.000000,-6000.000000,-6000.000000,Speed,Speed,-0.100000,0.730000,1.020000,1.000000,101.000000,1,0,-0.000000,0.000000,1,0.000000,0.000000,0.000000,-19.125153,41.000275,0.000000,0.006000,-0.006000,0.004000,FlatInitial,Hold,0
07:11:35.231 PM 02/16/2016,Teleop Enabled,0,FALSE,0,NO ERROR,0.000000,0.000000,-6000.000000,-6000.000000,Speed,Speed,-0.120000,0.740000,1.010000,1.000000,101.000000,1,0,-0.000000,0.000000,1,0.000000,0.000000,0.000000,-19.125153,41.000275,0.000000,-0.002000,-0.004000,0.007000,FlatInitial,Hold,0
07:11:35.331 PM 02/16/2016,Teleop Enabled,0,FALSE,0,NO ERROR,0.000000,0.000000,-6000.000000,-6000.000000,Speed,Speed,-0.110000,0.730000,1.020000,1.000000,102.000000,1,0,-0.000000,0.000000,1,0.000000,0.000000,0.000000,-19.125153,41.000275,0.000000,-0.001000,-0.002000,0.004000,FlatInitial,Hold,0
07:11:35.431 PM 02/16/2016,Teleop Enabled,0,FALSE,0,NO ERROR,0.000000,0.000000,-6000.000000,-6000.000000,Speed,Speed,-0.110000,0.740000,1.000000,1.000000,101.000000,1,0,-0.000000,0.000000,1,0.000000,0.000000,0.000000,-19.125153,41.000275,0.000000,0.000000,0.002000,0.001000,FlatInitial,Hold,0
07:11:35.532 PM 02/16/2016,Teleop Enabled,0,FALSE,0,NO ERROR,0.000000,0.000000,-6000.000000,-6000.000000,Speed,Speed,-0.110000,0.720000,1.030000,1.000000,101.000000,1,0,-0.000000,0.000000,1,0.000000,0.000000,0.000000,-19.125153,41.000275,0.000000,0.000000,-0.001000,0.004000,FlatInitial,Hold,0
07:11:35.633 PM 02/16/2016,Teleop Enabled,0,FALSE,0,NO ERROR,0.000000,0.000000,-6000.000000,-6000.000000,Speed,Speed,-0.120000,0.740000,1.010000,1.000000,102.000000,1,0,-0.000000,0.000000,1,0.000000,0.000000,0.000000,-19.125153,41.000275,0.000000,0.000000,0.001000,0.003000,FlatInitial,Hold,0
07:11:35.733 PM 02/16/2016,Teleop Enabled,0,FALSE,0,NO ERROR,0.000000,0.000000,-6000.000000,-6000.000000,Speed,Speed,-0.110000,0.730000,1.020000,1.000000,105.000000,1,0,-0.000000,0.000000,1,0.000000,0.000000,0.000000,-19.125153,41.000275,0.000000,0.002000,-0.003000,0.001000,FlatInitial,Hold,0
07:11:35.834 PM 02/16/2016,Teleop Enabled,0,FALSE,0,NO ERROR,0.000000,0.000000,-6000.000000,-6000.000000,Speed,Speed,-0.110000,0.740000,1.020000,1.000000,102.000000,1,0,-0.000000,0.000000,1,0.000000,0.000000,0.000000,-19.125153,41.000275,0.000000,0.000000,0.001000,0.001000,FlatInitial,Hold,0
07:11:35.936 PM 02/16/2016,Teleop Enabled,0,FALSE,0,NO ERROR,0.000000,0.000000,-6000.000000,-6000.000000,Speed,Speed,-0.110000,0.740000,1.020000,1.000000,101.000000,1,0,-0.000000,0.000000,1,0.000000,0.000000,0.000000,-19.125153,41.000275,0.000000,0.000000,-0.001000,0.006000,FlatInitial,Hold,0
07:11:36.036 PM 02/16/2016,Teleop Enabled,0,FALSE,0,NO ERROR,0.000000,0.000000,-6000.000000,-6000.000000,Speed,Speed,-0.120000,0.740000,1.020000,1.000000,101.000000,1,0,-0.000000,0.000000,1,0.000000,0.000000,0.000000,-19.125153,41.000275,0.000000,0.001000,-0.002000,-0.002000,FlatInitial,Hold,0
07:11:36.136 PM 02/16/2016,Teleop Enabled,0,FALSE,0,NO ERROR,0.000000,0.000000,-6000.000000,-6000.000000,Speed,Speed,-0.120000,0.740000,1.020000,1.000000,101.000000,1,0,-0.000000,0.000000,1,0.000000,0.000000,0.000000,-19.125153,41.000275,0.000000,-0.002000,-0.002000,0.002000,FlatInitial,Hold,0
07:11:36.236 PM 02/16/2016,Teleop Enabled,0,FALSE,0,NO ERROR,0.000000,0.000000,-6000.000000,-6000.000000,Speed,Speed,-0.120000,0.740000,1.020000,1.000000,102.000000,1,0,-0.000000,0.000000,1,0.000000,0.000000,0.000000,-19.125153,41.000275,0.000000,0.001000,0.000000,0.003000,FlatInitial,Hold,0
07:11:36.336 PM 02/16/2016,Teleop Enabled,0,FALSE,0,NO ERROR,0.000000,0.000000,-6000.000000,-6000.000000,Speed,Speed,-0.120000,0.740000,1.020000,1.000000,101.000000,1,0,-0.000000,0.000000,1,0.000000,0.000000,0.000000,-19.125153,41.000275,0.000000,-0.002000,-0.002000,0.004000,FlatInitial,Hold,0
07:11:36.436 PM 02/16/2016,Teleop Enabled,0,FALSE,0,NO ERROR,0.000000,0.000000,-6000.000000,-6000.000000,Speed,Speed,-0.120000,0.740000,1.030000,1.000000,102.000000,1,0,-0.000000,0.000000,1,0.000000,0.000000,0.000000,-19.125153,41.000275,0.000000,0.001000,0.000000,0.004000,FlatInitial,Hold,0
07:11:36.536 PM 02/16/2016,Teleop Enabled,0,FALSE,0,NO ERROR,0.000000,0.000000,-6000.000000,-6000.000000,Speed,Speed,-0.120000,0.740000,1.020000,1.000000,107.000000,1,0,-0.000000,0.000000,1,0.000000,0.000000,0.000000,-19.125153,41.000275,0.000000,0.000000,0.000000,0.004000,FlatInitial,Hold,0
07:11:36.636 PM 02/16/2016,Teleop Enabled,0,FALSE,0,NO ERROR,0.000000,0.000000,-6000.000000,-6000.000000,Speed,Speed,-0.120000,0.740000,1.030000,1.000000,102.000000,1,0,-0.000000,0.000000,1,0.000000,0.000000,0.000000,-19.125153,41.000275,0.000000,0.002000,0.000000,0.003000,FlatInitial,Hold,0
07:11:36.736 PM 02/16/2016,Teleop Enabled,0,FALSE,0,NO ERROR,0.000000,0.000000,-6000.000000,-6000.000000,Speed,Speed,-0.120000,0.740000,1.030000,1.000000,104.000000,1,0,-0.000000,0.000000,1,0.000000,0.000000,0.000000,-19.125153,41.000275,0.000000,0.002000,0.000000,0.004000,FlatInitial,Hold,0
07:11:36.836 PM 02/16/2016,Teleop Enabled,0,FALSE,0,NO ERROR,0.000000,0.000000,-6000.000000,-6000.000000,Speed,Speed,-0.120000,0.740000,1.030000,1.000000,101.000000,1,0,-0.000000,0.000000,1,0.000000,0.000000,0.000000,-19.125153,41.000275,0.000000,0.001000,0.001000,0.004000,FlatInitial,Hold,0
07:11:36.936 PM 02/16/2016,Teleop Enabled,0,FALSE,0,NO ERROR,0.000000,0.000000,-6000.000000,-6000.000000,Speed,Speed,-0.120000,0.740000,1.020000,1.000000,103.000000,1,0,-0.000000,0.000000,1,0.000000,0.000000,0.000000,-19.125153,41.000275,0.000000,-0.002000,-0.001000,0.005000,FlatInitial,Hold,0
07:11:37.036 PM 02/16/2016,Teleop Enabled,0,FALSE,0,NO ERROR,0.000000,0.000000,-6000.000000,-6000.000000,Speed,Speed,-0.120000,0.740000,1.030000,1.000000,101.000000,1,0,-0.000000,0.000000,1,0.000000,0.000000,0.000000,-19.125153,41.000275,0.000000,0.000000,0.000000,0.000000,FlatInitial,Hold,0
07:11:37.136 PM 02/16/2016,Teleop Enabled,0,FALSE,0,NO ERROR,0.000000,0.000000,-6000.000000,-6000.000000,Speed,Speed,-0.120000,0.740000,1.020000,1.000000,102.000000,1,0,-0.000000,0.000000,1,0.000000,0.000000,0.000000,-19.125153,41.000275,0.000000,-0.001000,0.001000,0.006000,FlatInitial,Hold,0
07:11:37.236 PM 02/16/2016,Teleop Enabled,0,FALSE,0,NO ERROR,0.000000,0.000000,-6000.000000,-6000.000000,Speed,Speed,-0.120000,0.740000,1.030000,1.000000,101.000000,1,0,-0.000000,0.000000,1,0.000000,0.000000,0.000000,-19.125153,41.000275,0.000000,0.001000,-0.004000,0.002000,FlatInitial,Hold,0
07:11:37.336 PM 02/16/2016,Teleop Enabled,0,FALSE,0,NO ERROR,0.000000,0.000000,-6000.000000,-6000.000000,Speed,Speed,-0.120000,0.740000,1.030000,1.000000,102.000000,1,0,-0.000000,0.000000,1,0.000000,0.000000,0.000000,-19.125153,41.000275,0.000000,-0.001000,0.001000,0.006000,FlatInitial,Hold,0
07:11:37.436 PM 02/16/2016,Teleop Enabled,0,FALSE,0,NO ERROR,0.000000,0.000000,-6000.000000,-6000.000000,Speed,Speed,-0.130000,0.740000,1.030000,1.000000,102.000000,1,0,-0.000000,0.000000,1,0.000000,0.000000,0.000000,-19.125153,41.000275,0.000000,0.000000,-0.002000,0.007000,FlatInitial,Hold,0
07:11:37.536 PM 02/16/2016,Teleop Enabled,0,FALSE,0,NO ERROR,0.000000,0.000000,-6000.000000,-6000.000000,Speed,Speed,-0.130000,0.750000,1.030000,1.000000,104.000000,1,0,-0.000000,0.000000,1,0.000000,0.000000,0.000000,-19.125153,41.000275,0.000000,-0.001000,0.001000,0.003000,FlatInitial,Hold,0
07:11:37.637 PM 02/16/2016,Teleop Enabled,0,FALSE,0,NO ERROR,0.000000,0.000000,-6000.000000,-6000.000000,Speed,Speed,-0.130000,0.740000,1.030000,1.000000,101.000000,1,0,-0.000000,0.000000,1,0.000000,0.000000,0.000000,-19.125153,41.000275,0.000000,0.001000,-0.001000,0.005000,FlatInitial,Hold,0
07:11:37.737 PM 02/16/2016,Teleop Enabled,0,FALSE,0,NO ERROR,0.000000,0.000000,-6000.000000,-6000.000000,Speed,Speed,-0.130000,0.740000,1.030000,1.000000,103.000000,1,0,-0.000000,0.000000,1,0.000000,0.000000,0.000000,-19.125153,41.000275,0.000000,0.000000,-0.001000,0.004000,FlatInitial,Hold,0
07:11:37.837 PM 02/16/2016,Teleop Enabled,0,FALSE,0,NO ERROR,0.000000,0.000000,-6000.000000,-6000.000000,Speed,Speed,-0.130000,0.740000,1.030000,1.000000,102.000000,1,0,-0.000000,0.000000,1,0.000000,0.000000,0.000000,-19.125153,41.000275,0.000000,-0.001000,0.000000,0.005000,FlatInitial,Hold,0
07:11:37.937 PM 02/16/2016,Teleop Enabled,0,FALSE,0,NO ERROR,0.000000,0.000000,-6000.000000,-6000.000000,Speed,Speed,-0.130000,0.740000,1.030000,1.000000,102.000000,1,0,-0.000000,0.000000,1,0.000000,0.000000,0.000000,-19.125153,41.000275,0.000000,0.001000,0.015000,0.004000,FlatInitial,Hold,0
07:11:38.037 PM 02/16/2016,Teleop Enabled,0,FALSE,0,NO ERROR,0.000000,0.000000,-6000.000000,-6000.000000,Speed,Speed,-0.140000,0.760000,1.060000,1.000000,102.000000,1,0,-0.000000,0.000000,1,0.004150,-0.005356,0.000000,-19.125122,41.000412,0.000000,0.024000,-0.037000,0.005000,FlatInitial,Hold,0
07:11:38.137 PM 02/16/2016,Teleop Enabled,0,FALSE,0,NO ERROR,0.000000,0.000000,-6000.000000,-6000.000000,Speed,Speed,-0.120000,0.690000,0.990000,1.000000,102.000000,1,0,-0.000000,0.000000,1,-0.008408,0.000000,0.000000,-19.125122,40.999557,0.000000,-0.004000,0.005000,0.011000,FlatInitial,Hold,0
07:11:38.237 PM 02/16/2016,Teleop Enabled,0,FALSE,0,NO ERROR,0.000000,0.000000,-6000.000000,-6000.000000,Speed,Speed,-0.120000,0.770000,1.050000,1.000000,101.000000,1,0,-0.000000,0.000000,1,0.000000,0.023422,0.000000,-19.124908,41.000122,0.000000,0.000000,0.016000,0.003000,FlatInitial,Hold,0
07:11:38.337 PM 02/16/2016,Teleop Enabled,0,FALSE,0,NO ERROR,0.000000,0.000000,-6000.000000,-6000.000000,Speed,Speed,-0.130000,0.710000,1.070000,1.000000,101.000000,1,0,-0.000000,0.000000,1,0.000000,0.000000,0.000000,-19.124908,41.000381,0.000000,0.002000,-0.014000,0.006000,FlatInitial,Hold,0
07:11:38.438 PM 02/16/2016,Teleop Enabled,0,FALSE,0,NO ERROR,0.000000,0.000000,-6000.000000,-6000.000000,Speed,Speed,-0.140000,0.750000,1.030000,1.000000,102.000000,1,0,-0.000000,0.000000,1,0.000000,0.000000,0.000000,-19.124908,41.000381,0.000000,-0.002000,0.005000,0.003000,FlatInitial,Hold,0
07:11:38.538 PM 02/16/2016,Teleop Enabled,0,FALSE,0,NO ERROR,0.000000,0.000000,-6000.000000,-6000.000000,Speed,Speed,-0.140000,0.730000,1.030000,1.000000,102.000000,1,0,-0.000000,0.000000,1,0.000000,-0.007370,0.000000,-19.124908,41.000275,0.000000,-0.003000,-0.016000,0.005000,FlatInitial,Hold,0
07:11:38.638 PM 02/16/2016,Teleop Enabled,0,FALSE,0,NO ERROR,0.000000,0.000000,-6000.000000,-6000.000000,Speed,Speed,-0.130000,0.750000,1.000000,1.000000,104.000000,1,0,-0.000000,0.000000,1,0.000000,0.000000,0.000000,-19.124908,41.000168,0.000000,0.004000,0.016000,-0.006000,FlatInitial,Hold,0
07:11:38.739 PM 02/16/2016,Teleop Enabled,0,FALSE,0,NO ERROR,0.000000,0.000000,-6000.000000,-6000.000000,Speed,Speed,-0.140000,0.730000,1.070000,1.000000,101.000000,1,0,-0.000000,0.000000,1,0.000000,0.000000,0.000000,-19.124908,41.000168,0.000000,-0.008000,-0.007000,0.008000,FlatInitial,Hold,0
07:11:38.841 PM 02/16/2016,Teleop Enabled,0,FALSE,0,NO ERROR,0.000000,0.000000,-6000.000000,-6000.000000,Speed,Speed,-0.130000,0.750000,1.020000,1.000000,102.000000,1,0,-0.000000,0.000000,1,0.000000,0.000000,0.000000,-19.124908,41.000168,0.000000,0.004000,0.009000,0.000000,FlatInitial,Hold,0
07:11:38.942 PM 02/16/2016,Teleop Enabled,0,FALSE,0,NO ERROR,0.000000,0.000000,-6000.000000,-6000.000000,Speed,Speed,-0.130000,0.730000,1.050000,1.000000,101.000000,1,0,-0.000000,0.000000,1,0.000000,0.000000,0.000000,-19.124908,41.000168,0.000000,0.000000,-0.012000,0.004000,FlatInitial,Hold,0
07:11:39.042 PM 02/16/2016,Teleop Enabled,0,FALSE,0,NO ERROR,0.000000,0.000000,-6000.000000,-6000.000000,Speed,Speed,-0.140000,0.750000,1.020000,1.000000,102.000000,1,0,-0.000000,0.000000,1,0.000000,0.000000,0.000000,-19.124908,41.000168,0.000000,-0.001000,0.006000,0.002000,FlatInitial,Hold,0
07:11:39.143 PM 02/16/2016,Teleop Enabled,0,FALSE,0,NO ERROR,0.000000,0.000000,-6000.000000,-6000.000000,Speed,Speed,-0.130000,0.730000,1.050000,1.000000,103.000000,1,0,-0.000000,0.000000,1,0.000000,0.000000,0.000000,-19.124908,41.000168,0.000000,-0.001000,-0.007000,0.007000,FlatInitial,Hold,0
07:11:39.244 PM 02/16/2016,Teleop Enabled,0,FALSE,0,NO ERROR,0.000000,0.000000,-6000.000000,-6000.000000,Speed,Speed,-0.140000,0.750000,1.020000,1.000000,102.000000,1,0,-0.000000,0.000000,1,0.000000,0.000000,0.000000,-19.124908,41.000168,0.000000,0.001000,0.005000,0.004000,FlatInitial,LowGoal,0
07:11:39.345 PM 02/16/2016,Teleop Enabled,0,FALSE,0,NO ERROR,0.000000,0.000000,-6000.000000,-6000.000000,Speed,Speed,-0.140000,0.740000,1.040000,1.000000,101.000000,1,0,-0.000000,0.000000,1,0.000000,0.000000,0.000000,-19.124908,41.000168,0.000000,0.000000,-0.032000,0.002000,FlatInitial,Hold,0
07:11:39.445 PM 02/16/2016,Teleop Enabled,0,FALSE,0,NO ERROR,0.000000,0.000000,-6000.000000,-6000.000000,Speed,Speed,-0.150000,0.720000,1.020000,1.000000,101.000000,1,0,-0.000000,0.000000,1,0.000000,-0.005890,0.000000,-19.124908,40.999786,0.000000,-0.003000,0.002000,-0.009000,FlatInitial,Hold,0
