Time,RobotMode,AutoToRun,ErrorStatus, ErrorCode,ErrorSource,ActualRPM1,ActualRPM2,DesiredRPM1,DesiredRPM2,ControlMode1,ControlMode2,NavXYaw,NavXRoll,NavXPitch,ShooterState,LoopTime,IsLevel,IsAutoTargeting,LeftMotorOutput,RightMotorOutput,IsHaloDrive,NavXVelocityX,NavXVelocityY,NavXVelocityZ,NavXDisplacementX,NavXDisplacementY,NavXDisplacementZ,NavXAccelerationX,NavXAccelerationY,NavXAccelerationZ,AutoDefendState,AngeMotorState,Photoeye
08:42:11.878 PM 02/16/2016,Autonomous Disabled,0,TRUE,91,Variant To Data in WPI_DigitalInputRefNum Registry Get.vi->Periodic Tasks.vi->Robot Main.vi,-6003.515625,6022.851562,-6000.000000,-6000.000000,Speed,Speed,-0.010000,1.160000,1.060000,1.000000,101.000000,1,0,-0.000000,0.000000,1,-1.002975,0.036072,0.000000,-63.216064,-56.478043,0.000000,-0.098000,0.050000,0.086000,FlatInitial,Hold,0
08:42:11.979 PM 02/16/2016,Teleop Disabled,0,TRUE,-44007,<LOCATION>WPI_DigitalInputRefNum Registry Get.vi<CALLSTACK>WPI_DigitalInputRefNum Registry Get.vi< <Periodic Tasks.vi< <Robot Main.vi,0.000000,0.000000,0.000000,0.000000,Speed,Speed,-0.140000,1.120000,1.630000,0.000000,23185.000000,1,0,-0.000000,0.000000,1,0.000000,0.000000,0.000000,-64.469498,-56.423325,0.000000,0.000000,0.000000,0.006000,FlatInitial,ResetBack,0
08:42:12.079 PM 02/16/2016,Teleop Disabled,0,FALSE,0,NO ERROR,0.000000,0.000000,0.000000,0.000000,Speed,Speed,0.000000,1.120000,1.630000,0.000000,108.000000,1,0,-0.000000,0.000000,1,0.000000,0.000000,0.000000,-64.469498,-56.423325,0.000000,-0.002000,0.000000,0.007000,FlatInitial,ResetBack,0
08:42:12.180 PM 02/16/2016,Teleop Disabled,0,FALSE,0,NO ERROR,0.000000,0.000000,0.000000,0.000000,Speed,Speed,0.000000,1.120000,1.630000,0.000000,103.000000,1,0,-0.000000,0.000000,1,0.000000,0.000000,0.000000,-64.469498,-56.423325,0.000000,0.000000,0.000000,0.004000,FlatInitial,ResetBack,0
08:42:12.281 PM 02/16/2016,Teleop Disabled,0,FALSE,0,NO ERROR,0.000000,0.000000,0.000000,0.000000,Speed,Speed,0.000000,1.120000,1.630000,0.000000,103.000000,1,0,-0.000000,0.000000,1,0.000000,0.000000,0.000000,-64.469498,-56.423325,0.000000,-0.002000,-0.001000,0.004000,FlatInitial,ResetBack,0
08:42:12.382 PM 02/16/2016,Teleop Disabled,0,FALSE,0,NO ERROR,0.000000,0.000000,0.000000,0.000000,Speed,Speed,0.000000,1.120000,1.630000,0.000000,101.000000,1,0,-0.000000,0.000000,1,0.000000,0.000000,0.000000,-64.469498,-56.423325,0.000000,0.000000,0.001000,0.009000,FlatInitial,ResetBack,0
08:42:12.482 PM 02/16/2016,Teleop Disabled,0,FALSE,0,NO ERROR,0.000000,0.000000,0.000000,0.000000,Speed,Speed,0.000000,1.120000,1.630000,0.000000,102.000000,1,0,-0.000000,0.000000,1,0.000000,0.000000,0.000000,-64.469498,-56.423325,0.000000,-0.002000,0.002000,0.009000,FlatInitial,ResetBack,0
08:42:12.583 PM 02/16/2016,Teleop Disabled,0,FALSE,0,NO ERROR,0.000000,0.000000,0.000000,0.000000,Speed,Speed,0.000000,1.120000,1.630000,0.000000,102.000000,1,0,-0.000000,0.000000,1,0.000000,0.000000,0.000000,-64.469498,-56.423325,0.000000,-0.001000,-0.002000,0.007000,FlatInitial,ResetBack,0
08:42:12.683 PM 02/16/2016,Teleop Disabled,0,FALSE,0,NO ERROR,0.000000,0.000000,0.000000,0.000000,Speed,Speed,0.000000,1.120000,1.630000,0.000000,101.000000,1,0,-0.000000,0.000000,1,0.000000,0.000000,0.000000,-64.469498,-56.423325,0.000000,0.000000,0.001000,0.009000,FlatInitial,ResetBack,0
08:42:12.783 PM 02/16/2016,Teleop Disabled,0,FALSE,0,NO ERROR,0.000000,0.000000,0.000000,0.000000,Speed,Speed,0.000000,1.120000,1.630000,0.000000,102.000000,1,0,-0.000000,0.000000,1,0.000000,0.000000,0.000000,-64.469498,-56.423325,0.000000,0.000000,-0.001000,0.005000,FlatInitial,ResetBack,0
08:42:12.883 PM 02/16/2016,Teleop Disabled,0,FALSE,0,NO ERROR,0.000000,0.000000,0.000000,0.000000,Speed,Speed,0.000000,1.120000,1.630000,0.000000,101.000000,1,0,-0.000000,0.000000,1,0.000000,0.000000,0.000000,-64.469498,-56.423325,0.000000,0.000000,-0.002000,0.004000,FlatInitial,ResetBack,0
08:42:12.984 PM 02/16/2016,Teleop Disabled,0,FALSE,0,NO ERROR,0.000000,0.000000,0.000000,0.000000,Speed,Speed,0.000000,1.120000,1.620000,0.000000,102.000000,1,0,-0.000000,0.000000,1,0.000000,0.000000,0.000000,-64.469498,-56.423325,0.000000,0.000000,0.000000,0.010000,FlatInitial,ResetBack,0
08:42:13.084 PM 02/16/2016,Teleop Disabled,0,FALSE,0,NO ERROR,0.000000,0.000000,0.000000,0.000000,Speed,Speed,0.000000,1.120000,1.620000,0.000000,101.000000,1,0,-0.000000,0.000000,1,0.000000,0.000000,0.000000,-64.469498,-56.423325,0.000000,0.000000,0.001000,0.005000,FlatInitial,ResetBack,0
08:42:13.185 PM 02/16/2016,Teleop Disabled,0,FALSE,0,NO ERROR,0.000000,0.000000,0.000000,0.000000,Speed,Speed,0.000000,1.120000,1.620000,0.000000,101.000000,1,0,-0.000000,0.000000,1,0.000000,0.000000,0.000000,-64.469498,-56.423325,0.000000,0.000000,-0.001000,0.006000,FlatInitial,ResetBack,0
08:42:13.285 PM 02/16/2016,Teleop Disabled,0,FALSE,0,NO ERROR,0.000000,0.000000,0.000000,0.000000,Speed,Speed,0.000000,1.110000,1.630000,0.000000,105.000000,1,0,-0.000000,0.000000,1,0.000000,0.000000,0.000000,-64.469498,-56.423325,0.000000,0.003000,0.003000,0.006000,FlatInitial,ResetBack,0
08:42:13.385 PM 02/16/2016,Teleop Disabled,0,FALSE,0,NO ERROR,0.000000,0.000000,0.000000,0.000000,Speed,Speed,0.000000,1.110000,1.630000,0.000000,103.000000,1,0,-0.000000,0.000000,1,0.000000,0.000000,0.000000,-64.469498,-56.423325,0.000000,0.000000,-0.002000,0.004000,FlatInitial,ResetBack,0
08:42:13.486 PM 02/16/2016,Teleop Disabled,0,FALSE,0,NO ERROR,0.000000,0.000000,0.000000,0.000000,Speed,Speed,0.000000,1.120000,1.620000,0.000000,101.000000,1,0,-0.000000,0.000000,1,0.000000,0.000000,0.000000,-64.469498,-56.423325,0.000000,0.000000,-0.001000,0.012000,FlatInitial,ResetBack,0
08:42:13.586 PM 02/16/2016,Teleop Disabled,0,FALSE,0,NO ERROR,0.000000,0.000000,0.000000,0.000000,Speed,Speed,0.000000,1.120000,1.620000,0.000000,102.000000,1,0,-0.000000,0.000000,1,0.000000,0.000000,0.000000,-64.469498,-56.423325,0.000000,0.001000,-0.001000,0.007000,FlatInitial,ResetBack,0
08:42:13.686 PM 02/16/2016,Teleop Disabled,0,FALSE,0,NO ERROR,0.000000,0.000000,0.000000,0.000000,Speed,Speed,0.000000,1.120000,1.620000,0.000000,101.000000,1,0,-0.000000,0.000000,1,0.000000,0.000000,0.000000,-64.469498,-56.423325,0.000000,-0.002000,-0.002000,0.011000,FlatInitial,ResetBack,0
08:42:13.786 PM 02/16/2016,Teleop Disabled,0,FALSE,0,NO ERROR,0.000000,0.000000,0.000000,0.000000,Speed,Speed,-0.010000,1.120000,1.620000,0.000000,103.000000,1,0,-0.000000,0.000000,1,0.000000,0.000000,0.000000,-64.469498,-56.423325,0.000000,0.000000,-0.001000,0.008000,FlatInitial,ResetBack,0
08:42:13.888 PM 02/16/2016,Teleop Disabled,0,FALSE,0,NO ERROR,0.000000,0.000000,0.000000,0.000000,Speed,Speed,-0.010000,1.110000,1.610000,0.000000,108.000000,1,0,-0.000000,0.000000,1,0.000000,0.000000,0.000000,-64.469498,-56.423325,0.000000,0.000000,-0.001000,0.009000,FlatInitial,ResetBack,0
08:42:13.988 PM 02/16/2016,Teleop Disabled,0,FALSE,0,NO ERROR,0.000000,0.000000,0.000000,0.000000,Speed,Speed,-0.010000,1.110000,1.610000,0.000000,102.000000,1,0,-0.000000,0.000000,1,0.000000,0.000000,0.000000,-64.469498,-56.423325,0.000000,0.000000,-0.001000,0.011000,FlatInitial,ResetBack,0
08:42:14.089 PM 02/16/2016,Teleop Disabled,0,FALSE,0,NO ERROR,0.000000,0.000000,0.000000,0.000000,Speed,Speed,-0.010000,1.110000,1.610000,0.000000,103.000000,1,0,-0.000000,0.000000,1,0.000000,0.000000,0.000000,-64.469498,-56.423325,0.000000,-0.002000,0.001000,0.007000,FlatInitial,ResetBack,0
08:42:14.190 PM 02/16/2016,Teleop Disabled,0,FALSE,0,NO ERROR,0.000000,0.000000,0.000000,0.000000,Speed,Speed,-0.010000,1.120000,1.610000,0.000000,101.000000,1,0,-0.000000,0.000000,1,0.000000,0.000000,0.000000,-64.469498,-56.423325,0.000000,0.001000,-0.001000,0.000000,FlatInitial,ResetBack,0
08:42:14.291 PM 02/16/2016,Teleop Disabled,0,FALSE,0,NO ERROR,0.000000,0.000000,0.000000,0.000000,Speed,Speed,0.000000,1.120000,1.610000,0.000000,102.000000,1,0,-0.000000,0.000000,1,0.000000,0.000000,0.000000,-64.469498,-56.423325,0.000000,0.000000,-0.001000,0.007000,FlatInitial,ResetBack,0
08:42:14.391 PM 02/16/2016,Teleop Disabled,0,FALSE,0,NO ERROR,0.000000,0.000000,0.000000,0.000000,Speed,Speed,-0.010000,1.130000,1.620000,0.000000,102.000000,1,0,-0.000000,0.000000,1,0.000000,0.000000,0.000000,-64.469498,-56.423325,0.000000,0.000000,0.000000,0.004000,FlatInitial,ResetBack,0
08:42:14.491 PM 02/16/2016,Teleop Disabled,0,FALSE,0,NO ERROR,0.000000,0.000000,0.000000,0.000000,Speed,Speed,-0.010000,1.130000,1.620000,0.000000,101.000000,1,0,-0.000000,0.000000,1,0.000000,0.000000,0.000000,-64.469498,-56.423325,0.000000,0.000000,-0.001000,0.006000,FlatInitial,ResetBack,0
08:42:14.592 PM 02/16/2016,Teleop Disabled,0,FALSE,0,NO ERROR,0.000000,0.000000,0.000000,0.000000,Speed,Speed,-0.010000,1.120000,1.620000,0.000000,101.000000,1,0,-0.000000,0.000000,1,0.000000,0.000000,0.000000,-64.469498,-56.423325,0.000000,0.000000,0.000000,0.007000,FlatInitial,ResetBack,0
08:42:14.697 PM 02/16/2016,Teleop Disabled,0,FALSE,0,NO ERROR,0.000000,0.000000,0.000000,0.000000,Speed,Speed,-0.010000,1.120000,1.620000,0.000000,101.000000,1,0,-0.000000,0.000000,1,0.000000,0.000000,0.000000,-64.469498,-56.423325,0.000000,0.000000,0.000000,0.009000,FlatInitial,ResetBack,0
08:42:14.797 PM 02/16/2016,Teleop Disabled,0,FALSE,0,NO ERROR,0.000000,0.000000,0.000000,0.000000,Speed,Speed,-0.010000,1.120000,1.610000,0.000000,102.000000,1,0,-0.000000,0.000000,1,0.000000,0.000000,0.000000,-64.469498,-56.423325,0.000000,0.000000,0.000000,0.005000,FlatInitial,ResetBack,0
08:42:14.897 PM 02/16/2016,Teleop Disabled,0,FALSE,0,NO ERROR,0.000000,0.000000,0.000000,0.000000,Speed,Speed,-0.020000,1.120000,1.620000,0.000000,101.000000,1,0,-0.000000,0.000000,1,0.000000,0.000000,0.000000,-64.469498,-56.423325,0.000000,-0.001000,0.000000,0.008000,FlatInitial,ResetBack,0
08:42:14.997 PM 02/16/2016,Teleop Disabled,0,FALSE,0,NO ERROR,0.000000,0.000000,0.000000,0.000000,Speed,Speed,-0.020000,1.120000,1.620000,0.000000,102.000000,1,0,-0.000000,0.000000,1,0.000000,0.000000,0.000000,-64.469498,-56.423325,0.000000,0.000000,0.000000,0.004000,FlatInitial,ResetBack,0
08:42:15.098 PM 02/16/2016,Teleop Disabled,0,FALSE,0,NO ERROR,0.000000,0.000000,0.000000,0.000000,Speed,Speed,-0.020000,1.120000,1.620000,0.000000,102.000000,1,0,-0.000000,0.000000,1,0.000000,0.000000,0.000000,-64.469498,-56.423325,0.000000,-0.001000,0.000000,0.007000,FlatInitial,ResetBack,0
08:42:15.198 PM 02/16/2016,Teleop Disabled,0,FALSE,0,NO ERROR,0.000000,0.000000,-6000.000000,-6000.000000,Speed,Speed,-0.020000,1.120000,1.620000,1.000000,102.000000,1,0,-0.000000,0.000000,1,0.000000,0.000000,0.000000,-64.469498,-56.423325,0.000000,0.000000,-0.001000,0.008000,FlatInitial,ResetBack,0
08:42:15.300 PM 02/16/2016,Teleop Disabled,0,FALSE,0,NO ERROR,0.000000,0.000000,-6000.000000,-6000.000000,Speed,Speed,-0.020000,1.120000,1.620000,1.000000,102.000000,1,0,-0.000000,0.000000,1,0.000000,0.000000,0.000000,-64.469498,-56.423325,0.000000,-0.001000,0.000000,0.003000,FlatInitial,ResetBack,0
08:42:15.400 PM 02/16/2016,Teleop Disabled,0,FALSE,0,NO ERROR,0.000000,0.000000,-6000.000000,-6000.000000,Speed,Speed,-0.020000,1.120000,1.620000,1.000000,101.000000,1,0,-0.000000,0.000000,1,0.000000,0.000000,0.000000,-64.469498,-56.423325,0.000000,-0.001000,0.000000,0.009000,FlatInitial,ResetBack,0
08:42:15.500 PM 02/16/2016,Teleop Disabled,0,FALSE,0,NO ERROR,0.000000,0.000000,-6000.000000,-6000.000000,Speed,Speed,-0.030000,1.130000,1.620000,1.000000,104.000000,1,0,-0.000000,0.000000,1,0.000000,0.000000,0.000000,-64.469498,-56.423325,0.000000,0.000000,0.000000,0.004000,FlatInitial,ResetBack,0
08:42:15.600 PM 02/16/2016,Teleop Disabled,0,FALSE,0,NO ERROR,0.000000,0.000000,-6000.000000,-6000.000000,Speed,Speed,-0.030000,1.120000,1.620000,1.000000,100.000000,1,0,-0.000000,0.000000,1,0.000000,0.000000,0.000000,-64.469498,-56.423325,0.000000,0.000000,-0.001000,0.008000,FlatInitial,ResetBack,0
08:42:15.700 PM 02/16/2016,Teleop Disabled,0,FALSE,0,NO ERROR,0.000000,0.000000,-6000.000000,-6000.000000,Speed,Speed,-0.030000,1.120000,1.620000,1.000000,103.000000,1,0,-0.000000,0.000000,1,0.000000,0.000000,0.000000,-64.469498,-56.423325,0.000000,0.000000,0.000000,0.006000,FlatInitial,ResetBack,0
08:42:15.800 PM 02/16/2016,Teleop Disabled,0,FALSE,0,NO ERROR,0.000000,0.000000,-6000.000000,-6000.000000,Speed,Speed,-0.030000,1.120000,1.620000,1.000000,100.000000,1,0,-0.000000,0.000000,1,0.000000,0.000000,0.000000,-64.469498,-56.423325,0.000000,0.000000,-0.002000,0.009000,FlatInitial,ResetBack,0
08:42:15.901 PM 02/16/2016,Teleop Disabled,0,FALSE,0,NO ERROR,0.000000,0.000000,-6000.000000,-6000.000000,Speed,Speed,-0.030000,1.120000,1.620000,1.000000,102.000000,1,0,-0.000000,0.000000,1,0.000000,0.000000,0.000000,-64.469498,-56.423325,0.000000,-0.002000,-0.001000,0.004000,FlatInitial,ResetBack,0
08:42:16.001 PM 02/16/2016,Teleop Disabled,0,FALSE,0,NO ERROR,0.000000,0.000000,-6000.000000,-6000.000000,Speed,Speed,-0.030000,1.120000,1.620000,1.000000,101.000000,1,0,-0.000000,0.000000,1,0.000000,0.000000,0.000000,-64.469498,-56.423325,0.000000,0.000000,-0.001000,0.008000,FlatInitial,ResetBack,0
08:42:16.101 PM 02/16/2016,Teleop Disabled,0,FALSE,0,NO ERROR,0.000000,0.000000,-6000.000000,-6000.000000,Speed,Speed,-0.040000,1.110000,1.620000,1.000000,101.000000,1,0,-0.000000,0.000000,1,0.000000,0.000000,0.000000,-64.469498,-56.423325,0.000000,0.000000,0.001000,0.006000,FlatInitial,ResetBack,0
08:42:16.202 PM 02/16/2016,Teleop Disabled,0,FALSE,0,NO ERROR,0.000000,0.000000,-6000.000000,-6000.000000,Speed,Speed,-0.040000,1.110000,1.630000,1.000000,102.000000,1,0,-0.000000,0.000000,1,0.000000,0.000000,0.000000,-64.469498,-56.423325,0.000000,0.000000,-0.002000,0.004000,FlatInitial,ResetBack,0
08:42:16.303 PM 02/16/2016,Teleop Disabled,0,FALSE,0,NO ERROR,0.000000,0.000000,-6000.000000,-6000.000000,Speed,Speed,-0.040000,1.120000,1.620000,1.000000,102.000000,1,0,-0.000000,0.000000,1,0.000000,0.000000,0.000000,-64.469498,-56.423325,0.000000,-0.001000,0.000000,0.005000,FlatInitial,ResetBack,0
08:42:16.403 PM 02/16/2016,Teleop Disabled,0,FALSE,0,NO ERROR,0.000000,0.000000,-6000.000000,-6000.000000,Speed,Speed,-0.040000,1.110000,1.620000,1.000000,102.000000,1,0,-0.000000,0.000000,1,0.000000,0.000000,0.000000,-64.469498,-56.423325,0.000000,0.001000,-0.003000,0.011000,FlatInitial,ResetBack,0
08:42:16.503 PM 02/16/2016,Teleop Disabled,0,FALSE,0,NO ERROR,0.000000,0.000000,-6000.000000,-6000.000000,Speed,Speed,-0.040000,1.110000,1.620000,1.000000,102.000000,1,0,-0.000000,0.000000,1,0.000000,0.000000,0.000000,-64.469498,-56.423325,0.000000,0.000000,0.001000,0.005000,FlatInitial,ResetBack,0
08:42:16.603 PM 02/16/2016,Teleop Disabled,0,FALSE,0,NO ERROR,0.000000,0.000000,-6000.000000,-6000.000000,Speed,Speed,-0.040000,1.110000,1.610000,1.000000,102.000000,1,0,-0.000000,0.000000,1,0.000000,0.000000,0.000000,-64.469498,-56.423325,0.000000,0.003000,0.000000,0.010000,FlatInitial,ResetBack,0
08:42:16.703 PM 02/16/2016,Teleop Disabled,0,FALSE,0,NO ERROR,0.000000,0.000000,-6000.000000,-6000.000000,Speed,Speed,-0.040000,1.120000,1.620000,1.000000,100.000000,1,0,-0.000000,0.000000,1,0.000000,0.000000,0.000000,-64.469498,-56.423325,0.000000,0.000000,0.000000,0.009000,FlatInitial,ResetBack,0
08:42:16.804 PM 02/16/2016,Teleop Disabled,0,FALSE,0,NO ERROR,0.000000,0.000000,-6000.000000,-6000.000000,Speed,Speed,-0.040000,1.110000,1.620000,1.000000,100.000000,1,0,-0.000000,0.000000,1,0.000000,0.000000,0.000000,-64.469498,-56.423325,0.000000,0.003000,0.001000,0.006000,FlatInitial,ResetBack,0
08:42:16.904 PM 02/16/2016,Teleop Disabled,0,FALSE,0,NO ERROR,0.000000,0.000000,-6000.000000,-6000.000000,Speed,Speed,-0.040000,1.120000,1.620000,1.000000,103.000000,1,0,-0.000000,0.000000,1,0.000000,0.000000,0.000000,-64.469498,-56.423325,0.000000,0.002000,-0.001000,0.005000,FlatInitial,ResetBack,0
08:42:17.004 PM 02/16/2016,Teleop Disabled,0,FALSE,0,NO ERROR,0.000000,0.000000,-6000.000000,-6000.000000,Speed,Speed,-0.040000,1.120000,1.620000,1.000000,100.000000,1,0,-0.000000,0.000000,1,0.000000,0.000000,0.000000,-64.469498,-56.423325,0.000000,-0.002000,0.000000,0.005000,FlatInitial,ResetBack,0
08:42:17.104 PM 02/16/2016,Teleop Disabled,0,FALSE,0,NO ERROR,0.000000,0.000000,-6000.000000,-6000.000000,Speed,Speed,-0.040000,1.110000,1.610000,1.000000,102.000000,1,0,-0.000000,0.000000,1,0.000000,0.000000,0.000000,-64.469498,-56.423325,0.000000,0.000000,-0.001000,0.006000,FlatInitial,ResetBack,0
08:42:17.206 PM 02/16/2016,Teleop Disabled,0,FALSE,0,NO ERROR,0.000000,0.000000,-6000.000000,-6000.000000,Speed,Speed,-0.040000,1.110000,1.610000,1.000000,101.000000,1,0,-0.000000,0.000000,1,0.000000,0.000000,0.000000,-64.469498,-56.423325,0.000000,-0.002000,0.001000,0.007000,FlatInitial,ResetBack,0
08:42:17.306 PM 02/16/2016,Teleop Disabled,0,FALSE,0,NO ERROR,0.000000,0.000000,-6000.000000,-6000.000000,Speed,Speed,-0.040000,1.110000,1.620000,1.000000,101.000000,1,0,-0.000000,0.000000,1,0.000000,0.000000,0.000000,-64.469498,-56.423325,0.000000,0.000000,0.000000,0.007000,FlatInitial,ResetBack,0
08:42:17.407 PM 02/16/2016,Teleop Disabled,0,FALSE,0,NO ERROR,0.000000,0.000000,-6000.000000,-6000.000000,Speed,Speed,-0.040000,1.110000,1.620000,1.000000,101.000000,1,0,-0.000000,0.000000,1,0.000000,0.000000,0.000000,-64.469498,-56.423325,0.000000,0.000000,0.000000,0.007000,FlatInitial,ResetBack,0
08:42:17.507 PM 02/16/2016,Teleop Disabled,0,FALSE,0,NO ERROR,0.000000,0.000000,-6000.000000,-6000.000000,Speed,Speed,-0.040000,1.110000,1.610000,1.000000,103.000000,1,0,-0.000000,0.000000,1,0.000000,0.000000,0.000000,-64.469498,-56.423325,0.000000,0.000000,0.000000,0.005000,FlatInitial,ResetBack,0
08:42:17.609 PM 02/16/2016,Teleop Disabled,0,FALSE,0,NO ERROR,0.000000,0.000000,-6000.000000,-6000.000000,Speed,Speed,-0.040000,1.110000,1.610000,1.000000,102.000000,1,0,-0.000000,0.000000,1,0.000000,0.000000,0.000000,-64.469498,-56.423325,0.000000,0.000000,-0.003000,0.011000,FlatInitial,ResetBack,0
08:42:17.709 PM 02/16/2016,Teleop Disabled,0,FALSE,0,NO ERROR,0.000000,0.000000,-6000.000000,-6000.000000,Speed,Speed,-0.040000,1.110000,1.610000,1.000000,103.000000,1,0,-0.000000,0.000000,1,0.000000,0.000000,0.000000,-64.469498,-56.423325,0.000000,-0.003000,0.000000,0.007000,FlatInitial,ResetBack,0
08:42:17.809 PM 02/16/2016,Teleop Disabled,0,FALSE,0,NO ERROR,0.000000,0.000000,-6000.000000,-6000.000000,Speed,Speed,-0.040000,1.110000,1.610000,1.000000,101.000000,1,0,-0.000000,0.000000,1,0.000000,0.000000,0.000000,-64.469498,-56.423325,0.000000,0.000000,0.000000,0.009000,FlatInitial,ResetBack,0
08:42:17.909 PM 02/16/2016,Teleop Disabled,0,FALSE,0,NO ERROR,0.000000,0.000000,-6000.000000,-6000.000000,Speed,Speed,-0.040000,1.110000,1.610000,1.000000,102.000000,1,0,-0.000000,0.000000,1,0.000000,0.000000,0.000000,-64.469498,-56.423325,0.000000,0.001000,0.000000,0.004000,FlatInitial,ResetBack,0
08:42:18.010 PM 02/16/2016,Teleop Disabled,0,FALSE,0,NO ERROR,0.000000,0.000000,-6000.000000,-6000.000000,Speed,Speed,-0.040000,1.110000,1.610000,1.000000,101.000000,1,0,-0.000000,0.000000,1,0.000000,0.000000,0.000000,-64.469498,-56.423325,0.000000,0.000000,0.000000,0.008000,FlatInitial,ResetBack,0
08:42:18.111 PM 02/16/2016,Teleop Disabled,0,FALSE,0,NO ERROR,0.000000,0.000000,-6000.000000,-6000.000000,Speed,Speed,-0.040000,1.110000,1.610000,1.000000,102.000000,1,0,-0.000000,0.000000,1,0.000000,0.000000,0.000000,-64.469498,-56.423325,0.000000,0.001000,0.000000,0.004000,FlatInitial,ResetBack,0
08:42:18.211 PM 02/16/2016,Teleop Disabled,0,FALSE,0,NO ERROR,0.000000,0.000000,-6000.000000,-6000.000000,Speed,Speed,-0.040000,1.110000,1.610000,1.000000,101.000000,1,0,-0.000000,0.000000,1,0.000000,0.000000,0.000000,-64.469498,-56.423325,0.000000,0.000000,0.002000,0.006000,FlatInitial,ResetBack,0
08:42:18.312 PM 02/16/2016,Teleop Disabled,0,FALSE,0,NO ERROR,0.000000,0.000000,-6000.000000,-6000.000000,Speed,Speed,-0.040000,1.110000,1.610000,1.000000,103.000000,1,0,-0.000000,0.000000,1,0.000000,0.000000,0.000000,-64.469498,-56.423325,0.000000,-0.001000,-0.001000,0.006000,FlatInitial,ResetBack,0
08:42:18.412 PM 02/16/2016,Teleop Disabled,0,FALSE,0,NO ERROR,0.000000,0.000000,-6000.000000,-6000.000000,Speed,Speed,-0.040000,1.100000,1.610000,1.000000,102.000000,1,0,-0.000000,0.000000,1,0.000000,0.000000,0.000000,-64.469498,-56.423325,0.000000,0.001000,0.000000,0.005000,FlatInitial,ResetBack,0
08:42:18.512 PM 02/16/2016,Teleop Disabled,0,FALSE,0,NO ERROR,0.000000,0.000000,-6000.000000,-6000.000000,Speed,Speed,-0.040000,1.100000,1.600000,1.000000,101.000000,1,0,-0.000000,0.000000,1,0.000000,0.000000,0.000000,-64.469498,-56.423325,0.000000,0.001000,-0.002000,0.008000,FlatInitial,ResetBack,0
08:42:18.613 PM 02/16/2016,Teleop Disabled,0,FALSE,0,NO ERROR,0.000000,0.000000,-6000.000000,-6000.000000,Speed,Speed,-0.040000,1.100000,1.600000,1.000000,102.000000,1,0,-0.000000,0.000000,1,0.000000,0.000000,0.000000,-64.469498,-56.423325,0.000000,0.001000,-0.001000,0.003000,FlatInitial,ResetBack,0
08:42:18.714 PM 02/16/2016,Teleop Disabled,0,FALSE,0,NO ERROR,0.000000,0.000000,-6000.000000,-6000.000000,Speed,Speed,-0.040000,1.100000,1.600000,1.000000,101.000000,1,0,-0.000000,0.000000,1,0.000000,0.000000,0.000000,-64.469498,-56.423325,0.000000,0.000000,-0.001000,0.006000,FlatInitial,ResetBack,0
08:42:18.814 PM 02/16/2016,Teleop Disabled,0,FALSE,0,NO ERROR,0.000000,0.000000,-6000.000000,-6000.000000,Speed,Speed,-0.040000,1.100000,1.610000,1.000000,103.000000,1,0,-0.000000,0.000000,1,0.000000,0.000000,0.000000,-64.469498,-56.423325,0.000000,0.001000,0.000000,0.008000,FlatInitial,ResetBack,0
08:42:18.915 PM 02/16/2016,Teleop Disabled,0,FALSE,0,NO ERROR,0.000000,0.000000,-6000.000000,-6000.000000,Speed,Speed,-0.040000,1.100000,1.600000,1.000000,103.000000,1,0,-0.000000,0.000000,1,0.000000,0.000000,0.000000,-64.469498,-56.423325,0.000000,0.002000,-0.003000,0.007000,FlatInitial,ResetBack,0
08:42:19.015 PM 02/16/2016,Teleop Disabled,0,FALSE,0,NO ERROR,0.000000,0.000000,-6000.000000,-6000.000000,Speed,Speed,-0.040000,1.110000,1.600000,1.000000,102.000000,1,0,-0.000000,0.000000,1,0.000000,0.000000,0.000000,-64.469498,-56.423325,0.000000,-0.003000,0.000000,0.009000,FlatInitial,ResetBack,0
08:42:19.115 PM 02/16/2016,Teleop Disabled,0,FALSE,0,NO ERROR,0.000000,0.000000,-6000.000000,-6000.000000,Speed,Speed,-0.040000,1.100000,1.600000,1.000000,102.000000,1,0,-0.000000,0.000000,1,0.000000,0.000000,0.000000,-64.469498,-56.423325,0.000000,0.000000,0.001000,0.011000,FlatInitial,ResetBack,0
08:42:19.215 PM 02/16/2016,Teleop Disabled,0,FALSE,0,NO ERROR,0.000000,0.000000,-6000.000000,-6000.000000,Speed,Speed,-0.050000,1.100000,1.600000,1.000000,101.000000,1,0,-0.000000,0.000000,1,0.000000,0.000000,0.000000,-64.469498,-56.423325,0.000000,0.001000,0.002000,0.006000,FlatInitial,ResetBack,0
08:42:19.315 PM 02/16/2016,Teleop Disabled,0,FALSE,0,NO ERROR,0.000000,0.000000,-6000.000000,-6000.000000,Speed,Speed,-0.050000,1.100000,1.600000,1.000000,101.000000,1,0,-0.000000,0.000000,1,0.000000,0.000000,0.000000,-64.469498,-56.423325,0.000000,0.000000,0.000000,0.006000,FlatInitial,ResetBack,0
08:42:19.416 PM 02/16/2016,Teleop Disabled,0,FALSE,0,NO ERROR,0.000000,0.000000,-6000.000000,-6000.000000,Speed,Speed,-0.050000,1.110000,1.600000,1.000000,101.000000,1,0,-0.000000,0.000000,1,0.000000,0.000000,0.000000,-64.469498,-56.423325,0.000000,-0.001000,0.000000,0.010000,FlatInitial,ResetBack,0
08:42:19.517 PM 02/16/2016,Teleop Disabled,0,FALSE,0,NO ERROR,0.000000,0.000000,-6000.000000,-6000.000000,Speed,Speed,-0.050000,1.100000,1.610000,1.000000,102.000000,1,0,-0.000000,0.000000,1,0.000000,0.000000,0.000000,-64.469498,-56.423325,0.000000,-0.002000,0.002000,0.009000,FlatInitial,ResetBack,0
08:42:19.617 PM 02/16/2016,Teleop Disabled,0,FALSE,0,NO ERROR,0.000000,0.000000,-6000.000000,-6000.000000,Speed,Speed,-0.050000,1.100000,1.600000,1.000000,102.000000,1,0,-0.000000,0.000000,1,0.000000,0.000000,0.000000,-64.469498,-56.423325,0.000000,0.000000,0.000000,0.012000,FlatInitial,ResetBack,0
08:42:19.717 PM 02/16/2016,Teleop Disabled,0,FALSE,0,NO ERROR,0.000000,0.000000,-6000.000000,-6000.000000,Speed,Speed,-0.050000,1.100000,1.600000,1.000000,101.000000,1,0,-0.000000,0.000000,1,0.000000,0.000000,0.000000,-64.469498,-56.423325,0.000000,0.000000,-0.001000,0.008000,FlatInitial,ResetBack,0
08:42:19.817 PM 02/16/2016,Teleop Disabled,0,FALSE,0,NO ERROR,0.000000,0.000000,-6000.000000,-6000.000000,Speed,Speed,-0.050000,1.110000,1.600000,1.000000,103.000000,1,0,-0.000000,0.000000,1,0.000000,0.000000,0.000000,-64.469498,-56.423325,0.000000,0.000000,0.000000,0.006000,FlatInitial,ResetBack,0
08:42:19.917 PM 02/16/2016,Teleop Disabled,0,FALSE,0,NO ERROR,0.000000,0.000000,-6000.000000,-6000.000000,Speed,Speed,-0.050000,1.110000,1.600000,1.000000,101.000000,1,0,-0.000000,0.000000,1,0.000000,0.000000,0.000000,-64.469498,-56.423325,0.000000,0.000000,0.001000,0.003000,FlatInitial,ResetBack,0
08:42:20.017 PM 02/16/2016,Teleop Disabled,0,FALSE,0,NO ERROR,0.000000,0.000000,-6000.000000,-6000.000000,Speed,Speed,-0.060000,1.110000,1.600000,1.000000,104.000000,1,0,-0.000000,0.000000,1,0.000000,0.000000,0.000000,-64.469498,-56.423325,0.000000,0.001000,0.000000,0.004000,FlatInitial,ResetBack,0
08:42:20.117 PM 02/16/2016,Teleop Disabled,0,FALSE,0,NO ERROR,0.000000,0.000000,-6000.000000,-6000.000000,Speed,Speed,-0.060000,1.110000,1.600000,1.000000,101.000000,1,0,-0.000000,0.000000,1,0.000000,0.000000,0.000000,-64.469498,-56.423325,0.000000,0.000000,-0.001000,0.001000,FlatInitial,ResetBack,0
08:42:20.217 PM 02/16/2016,Teleop Disabled,0,FALSE,0,NO ERROR,0.000000,0.000000,-6000.000000,-6000.000000,Speed,Speed,-0.060000,1.110000,1.600000,1.000000,103.000000,1,0,-0.000000,0.000000,1,0.000000,0.000000,0.000000,-64.469498,-56.423325,0.000000,0.000000,0.001000,0.006000,FlatInitial,ResetBack,0
08:42:20.317 PM 02/16/2016,Teleop Disabled,0,FALSE,0,NO ERROR,0.000000,0.000000,-6000.000000,-6000.000000,Speed,Speed,-0.060000,1.110000,1.600000,1.000000,102.000000,1,0,-0.000000,0.000000,1,0.000000,0.000000,0.000000,-64.469498,-56.423325,0.000000,0.000000,0.003000,0.003000,FlatInitial,ResetBack,0
08:42:20.417 PM 02/16/2016,Teleop Disabled,0,FALSE,0,NO ERROR,0.000000,0.000000,-6000.000000,-6000.000000,Speed,Speed,-0.060000,1.110000,1.600000,1.000000,102.000000,1,0,-0.000000,0.000000,1,0.000000,0.000000,0.000000,-64.469498,-56.423325,0.000000,-0.001000,0.000000,0.009000,FlatInitial,ResetBack,0
08:42:20.517 PM 02/16/2016,Teleop Disabled,0,FALSE,0,NO ERROR,0.000000,0.000000,-6000.000000,-6000.000000,Speed,Speed,-0.070000,1.110000,1.600000,1.000000,102.000000,1,0,-0.000000,0.000000,1,0.000000,0.000000,0.000000,-64.469498,-56.423325,0.000000,0.000000,0.000000,0.008000,FlatInitial,ResetBack,0
08:42:20.617 PM 02/16/2016,Teleop Disabled,0,FALSE,0,NO ERROR,0.000000,0.000000,-6000.000000,-6000.000000,Speed,Speed,-0.070000,1.110000,1.600000,1.000000,103.000000,1,0,-0.000000,0.000000,1,0.000000,0.000000,0.000000,-64.469498,-56.423325,0.000000,-0.001000,-0.001000,0.005000,FlatInitial,ResetBack,0
08:42:20.717 PM 02/16/2016,Teleop Disabled,0,FALSE,0,NO ERROR,0.000000,0.000000,-6000.000000,-6000.000000,Speed,Speed,-0.070000,1.110000,1.600000,1.000000,100.000000,1,0,-0.000000,0.000000,1,0.000000,0.000000,0.000000,-64.469498,-56.423325,0.000000,0.000000,-0.001000,0.006000,FlatInitial,ResetBack,0
08:42:20.817 PM 02/16/2016,Teleop Disabled,0,FALSE,0,NO ERROR,0.000000,0.000000,-6000.000000,-6000.000000,Speed,Speed,-0.070000,1.110000,1.600000,1.000000,102.000000,1,0,-0.000000,0.000000,1,0.000000,0.000000,0.000000,-64.469498,-56.423325,0.000000,-0.001000,0.000000,0.009000,FlatInitial,ResetBack,0
08:42:20.917 PM 02/16/2016,Teleop Disabled,0,FALSE,0,NO ERROR,0.000000,0.000000,-6000.000000,-6000.000000,Speed,Speed,-0.070000,1.110000,1.600000,1.000000,102.000000,1,0,-0.000000,0.000000,1,0.000000,0.000000,0.000000,-64.469498,-56.423325,0.000000,0.001000,0.001000,0.010000,FlatInitial,ResetBack,0
08:42:21.017 PM 02/16/2016,Teleop Disabled,0,FALSE,0,NO ERROR,0.000000,0.000000,-6000.000000,-6000.000000,Speed,Speed,-0.070000,1.110000,1.600000,1.000000,103.000000,1,0,-0.000000,0.000000,1,0.000000,0.000000,0.000000,-64.469498,-56.423325,0.000000,0.000000,0.000000,0.006000,FlatInitial,ResetBack,0
08:42:21.117 PM 02/16/2016,Teleop Disabled,0,FALSE,0,NO ERROR,0.000000,0.000000,-6000.000000,-6000.000000,Speed,Speed,-0.070000,1.110000,1.600000,1.000000,101.000000,1,0,-0.000000,0.000000,1,0.000000,0.000000,0.000000,-64.469498,-56.423325,0.000000,0.001000,-0.001000,0.008000,FlatInitial,ResetBack,0
08:42:21.217 PM 02/16/2016,Teleop Disabled,0,FALSE,0,NO ERROR,0.000000,0.000000,-6000.000000,-6000.000000,Speed,Speed,-0.070000,1.120000,1.600000,1.000000,102.000000,1,0,-0.000000,0.000000,1,0.000000,0.000000,0.000000,-64.469498,-56.423325,0.000000,0.000000,0.000000,0.008000,FlatInitial,ResetBack,0
08:42:21.319 PM 02/16/2016,Teleop Disabled,0,FALSE,0,NO ERROR,0.000000,0.000000,-6000.000000,-6000.000000,Speed,Speed,-0.070000,1.120000,1.600000,1.000000,101.000000,1,0,-0.000000,0.000000,1,0.000000,0.000000,0.000000,-64.469498,-56.423325,0.000000,0.000000,0.000000,0.006000,FlatInitial,ResetBack,0
08:42:21.419 PM 02/16/2016,Teleop Disabled,0,FALSE,0,NO ERROR,0.000000,0.000000,-6000.000000,-6000.000000,Speed,Speed,-0.070000,1.120000,1.600000,1.000000,102.000000,1,0,-0.000000,0.000000,1,0.000000,0.000000,0.000000,-64.469498,-56.423325,0.000000,-0.001000,0.000000,0.007000,FlatInitial,ResetBack,0
08:42:21.519 PM 02/16/2016,Teleop Disabled,0,FALSE,0,NO ERROR,0.000000,0.000000,-6000.000000,-6000.000000,Speed,Speed,-0.070000,1.110000,1.600000,1.000000,101.000000,1,0,-0.000000,0.000000,1,0.000000,0.000000,0.000000,-64.469498,-56.423325,0.000000,0.000000,-0.001000,0.007000,FlatInitial,ResetBack,0
08:42:21.619 PM 02/16/2016,Teleop Disabled,0,FALSE,0,NO ERROR,0.000000,0.000000,-6000.000000,-6000.000000,Speed,Speed,-0.070000,1.110000,1.600000,1.000000,102.000000,1,0,-0.000000,0.000000,1,0.000000,0.000000,0.000000,-64.469498,-56.423325,0.000000,0.000000,0.001000,0.007000,FlatInitial,ResetBack,0
08:42:21.720 PM 02/16/2016,Teleop Disabled,0,FALSE,0,NO ERROR,0.000000,0.000000,-6000.000000,-6000.000000,Speed,Speed,-0.080000,1.110000,1.610000,1.000000,101.000000,1,0,-0.000000,0.000000,1,0.000000,0.000000,0.000000,-64.469498,-56.423325,0.000000,0.000000,0.001000,0.007000,FlatInitial,ResetBack,0
08:42:21.820 PM 02/16/2016,Teleop Disabled,0,FALSE,0,NO ERROR,0.000000,0.000000,-6000.000000,-6000.000000,Speed,Speed,-0.070000,1.110000,1.610000,1.000000,101.000000,1,0,-0.000000,0.000000,1,0.000000,0.000000,0.000000,-64.469498,-56.423325,0.000000,0.001000,-0.001000,0.003000,FlatInitial,ResetBack,0
08:42:21.920 PM 02/16/2016,Teleop Disabled,0,FALSE,0,NO ERROR,0.000000,0.000000,-6000.000000,-6000.000000,Speed,Speed,-0.070000,1.110000,1.610000,1.000000,102.000000,1,0,-0.000000,0.000000,1,0.000000,0.000000,0.000000,-64.469498,-56.423325,0.000000,0.001000,-0.001000,0.003000,FlatInitial,ResetBack,0
08:42:22.021 PM 02/16/2016,Teleop Disabled,0,FALSE,0,NO ERROR,0.000000,0.000000,-6000.000000,-6000.000000,Speed,Speed,-0.070000,1.120000,1.610000,1.000000,101.000000,1,0,-0.000000,0.000000,1,0.000000,0.000000,0.000000,-64.469498,-56.423325,0.000000,0.000000,0.001000,0.004000,FlatInitial,ResetBack,0
08:42:22.121 PM 02/16/2016,Teleop Disabled,0,FALSE,0,NO ERROR,0.000000,0.000000,-6000.000000,-6000.000000,Speed,Speed,-0.070000,1.120000,1.620000,1.000000,100.000000,1,0,-0.000000,0.000000,1,0.000000,0.000000,0.000000,-64.469498,-56.423325,0.000000,0.000000,0.000000,0.006000,FlatInitial,ResetBack,0
08:42:22.222 PM 02/16/2016,Teleop Disabled,0,FALSE,0,NO ERROR,0.000000,0.000000,-6000.000000,-6000.000000,Speed,Speed,-0.070000,1.120000,1.620000,1.000000,102.000000,1,0,-0.000000,0.000000,1,0.000000,0.000000,0.000000,-64.469498,-56.423325,0.000000,0.000000,0.000000,0.009000,FlatInitial,ResetBack,0
08:42:22.323 PM 02/16/2016,Teleop Disabled,0,FALSE,0,NO ERROR,0.000000,0.000000,-6000.000000,-6000.000000,Speed,Speed,-0.070000,1.120000,1.620000,1.000000,104.000000,1,0,-0.000000,0.000000,1,0.000000,0.000000,0.000000,-64.469498,-56.423325,0.000000,0.001000,0.000000,0.005000,FlatInitial,ResetBack,0
08:42:22.423 PM 02/16/2016,Teleop Disabled,0,FALSE,0,NO ERROR,0.000000,0.000000,-6000.000000,-6000.000000,Speed,Speed,-0.070000,1.120000,1.620000,1.000000,103.000000,1,0,-0.000000,0.000000,1,0.000000,0.000000,0.000000,-64.469498,-56.423325,0.000000,0.000000,0.000000,0.007000,FlatInitial,ResetBack,0
08:42:22.524 PM 02/16/2016,Teleop Disabled,0,FALSE,0,NO ERROR,0.000000,0.000000,-6000.000000,-6000.000000,Speed,Speed,-0.070000,1.120000,1.620000,1.000000,101.000000,1,0,-0.000000,0.000000,1,0.000000,0.000000,0.000000,-64.469498,-56.423325,0.000000,0.000000,-0.002000,0.007000,FlatInitial,ResetBack,0
08:42:22.625 PM 02/16/2016,Teleop Disabled,0,FALSE,0,NO ERROR,0.000000,0.000000,-6000.000000,-6000.000000,Speed,Speed,-0.070000,1.120000,1.620000,1.000000,102.000000,1,0,-0.000000,0.000000,1,0.000000,0.000000,0.000000,-64.469498,-56.423325,0.000000,0.001000,0.001000,0.008000,FlatInitial,ResetBack,0
08:42:22.726 PM 02/16/2016,Teleop Disabled,0,FALSE,0,NO ERROR,0.000000,0.000000,-6000.000000,-6000.000000,Speed,Speed,-0.070000,1.120000,1.620000,1.000000,102.000000,1,0,-0.000000,0.000000,1,0.000000,0.000000,0.000000,-64.469498,-56.423325,0.000000,-0.001000,-0.002000,0.002000,FlatInitial,ResetBack,0
08:42:22.825 PM 02/16/2016,Teleop Disabled,0,FALSE,0,NO ERROR,0.000000,0.000000,-6000.000000,-6000.000000,Speed,Speed,-0.070000,1.120000,1.620000,1.000000,102.000000,1,0,-0.000000,0.000000,1,0.000000,0.000000,0.000000,-64.469498,-56.423325,0.000000,0.000000,0.000000,0.007000,FlatInitial,ResetBack,0
08:42:22.925 PM 02/16/2016,Teleop Disabled,0,FALSE,0,NO ERROR,0.000000,0.000000,-6000.000000,-6000.000000,Speed,Speed,-0.070000,1.120000,1.610000,1.000000,102.000000,1,0,-0.000000,0.000000,1,0.000000,0.000000,0.000000,-64.469498,-56.423325,0.000000,0.000000,0.001000,0.004000,FlatInitial,ResetBack,0
08:42:23.026 PM 02/16/2016,Teleop Disabled,0,FALSE,0,NO ERROR,0.000000,0.000000,-6000.000000,-6000.000000,Speed,Speed,-0.070000,1.120000,1.610000,1.000000,101.000000,1,0,-0.000000,0.000000,1,0.000000,0.000000,0.000000,-64.469498,-56.423325,0.000000,0.000000,-0.002000,0.006000,FlatInitial,ResetBack,0
08:42:23.127 PM 02/16/2016,Teleop Disabled,0,FALSE,0,NO ERROR,0.000000,0.000000,-6000.000000,-6000.000000,Speed,Speed,-0.070000,1.120000,1.610000,1.000000,101.000000,1,0,-0.000000,0.000000,1,0.000000,0.000000,0.000000,-64.469498,-56.423325,0.000000,0.000000,0.000000,0.007000,FlatInitial,ResetBack,0
08:42:23.227 PM 02/16/2016,Teleop Disabled,0,FALSE,0,NO ERROR,0.000000,0.000000,-6000.000000,-6000.000000,Speed,Speed,-0.070000,1.120000,1.610000,1.000000,104.000000,1,0,-0.000000,0.000000,1,0.000000,0.000000,0.000000,-64.469498,-56.423325,0.000000,-0.001000,0.000000,0.008000,FlatInitial,ResetBack,0
08:42:23.329 PM 02/16/2016,Teleop Disabled,0,FALSE,0,NO ERROR,0.000000,0.000000,-6000.000000,-6000.000000,Speed,Speed,-0.070000,1.120000,1.600000,1.000000,104.000000,1,0,-0.000000,0.000000,1,0.000000,0.000000,0.000000,-64.469498,-56.423325,0.000000,0.002000,0.000000,0.003000,FlatInitial,ResetBack,0
08:42:23.430 PM 02/16/2016,Teleop Disabled,0,FALSE,0,NO ERROR,0.000000,0.000000,-6000.000000,-6000.000000,Speed,Speed,-0.070000,1.120000,1.610000,1.000000,101.000000,1,0,-0.000000,0.000000,1,0.000000,0.000000,0.000000,-64.469498,-56.423325,0.000000,-0.002000,-0.001000,0.004000,FlatInitial,ResetBack,0
08:42:23.530 PM 02/16/2016,Teleop Disabled,0,FALSE,0,NO ERROR,0.000000,0.000000,-6000.000000,-6000.000000,Speed,Speed,-0.070000,1.120000,1.610000,1.000000,101.000000,1,0,-0.000000,0.000000,1,0.000000,0.000000,0.000000,-64.469498,-56.423325,0.000000,-0.002000,-0.001000,0.004000,FlatInitial,ResetBack,0
08:42:23.630 PM 02/16/2016,Teleop Disabled,0,FALSE,0,NO ERROR,0.000000,0.000000,-6000.000000,-6000.000000,Speed,Speed,-0.070000,1.120000,1.620000,1.000000,102.000000,1,0,-0.000000,0.000000,1,0.000000,0.000000,0.000000,-64.469498,-56.423325,0.000000,0.000000,0.000000,0.006000,FlatInitial,ResetBack,0
08:42:23.731 PM 02/16/2016,Teleop Disabled,0,FALSE,0,NO ERROR,0.000000,0.000000,-6000.000000,-6000.000000,Speed,Speed,-0.080000,1.120000,1.620000,1.000000,101.000000,1,0,-0.000000,0.000000,1,0.000000,0.000000,0.000000,-64.469498,-56.423325,0.000000,0.000000,0.000000,0.007000,FlatInitial,ResetBack,0
08:42:23.831 PM 02/16/2016,Teleop Disabled,0,FALSE,0,NO ERROR,0.000000,0.000000,-6000.000000,-6000.000000,Speed,Speed,-0.080000,1.110000,1.610000,1.000000,101.000000,1,0,-0.000000,0.000000,1,0.000000,0.000000,0.000000,-64.469498,-56.423325,0.000000,0.000000,0.000000,0.008000,FlatInitial,ResetBack,0
08:42:23.935 PM 02/16/2016,Teleop Disabled,0,FALSE,0,NO ERROR,0.000000,0.000000,-6000.000000,-6000.000000,Speed,Speed,-0.080000,1.110000,1.620000,1.000000,101.000000,1,0,-0.000000,0.000000,1,0.000000,0.000000,0.000000,-64.469498,-56.423325,0.000000,0.000000,0.000000,0.009000,FlatInitial,ResetBack,0
08:42:24.035 PM 02/16/2016,Teleop Disabled,0,FALSE,0,NO ERROR,0.000000,0.000000,-6000.000000,-6000.000000,Speed,Speed,-0.080000,1.110000,1.610000,1.000000,102.000000,1,0,-0.000000,0.000000,1,0.000000,0.000000,0.000000,-64.469498,-56.423325,0.000000,-0.002000,-0.001000,0.008000,FlatInitial,ResetBack,0
08:42:24.135 PM 02/16/2016,Teleop Disabled,0,FALSE,0,NO ERROR,0.000000,0.000000,-6000.000000,-6000.000000,Speed,Speed,-0.080000,1.110000,1.610000,1.000000,101.000000,1,0,-0.000000,0.000000,1,0.000000,0.000000,0.000000,-64.469498,-56.423325,0.000000,0.000000,0.000000,0.011000,FlatInitial,ResetBack,0
08:42:24.236 PM 02/16/2016,Teleop Disabled,0,FALSE,0,NO ERROR,0.000000,0.000000,-6000.000000,-6000.000000,Speed,Speed,-0.080000,1.110000,1.610000,1.000000,101.000000,1,0,-0.000000,0.000000,1,0.000000,0.000000,0.000000,-64.469498,-56.423325,0.000000,0.000000,0.000000,0.010000,FlatInitial,ResetBack,0
08:42:24.336 PM 02/16/2016,Teleop Disabled,0,FALSE,0,NO ERROR,0.000000,0.000000,-6000.000000,-6000.000000,Speed,Speed,-0.080000,1.110000,1.610000,1.000000,103.000000,1,0,-0.000000,0.000000,1,0.000000,0.000000,0.000000,-64.469498,-56.423325,0.000000,0.000000,0.001000,0.008000,FlatInitial,ResetBack,0
08:42:24.438 PM 02/16/2016,Teleop Disabled,0,FALSE,0,NO ERROR,0.000000,0.000000,-6000.000000,-6000.000000,Speed,Speed,-0.080000,1.110000,1.610000,1.000000,100.000000,1,0,-0.000000,0.000000,1,0.000000,0.000000,0.000000,-64.469498,-56.423325,0.000000,0.002000,-0.001000,0.007000,FlatInitial,ResetBack,0
08:42:24.539 PM 02/16/2016,Teleop Disabled,0,FALSE,0,NO ERROR,0.000000,0.000000,-6000.000000,-6000.000000,Speed,Speed,-0.080000,1.100000,1.610000,1.000000,100.000000,1,0,-0.000000,0.000000,1,0.000000,0.000000,0.000000,-64.469498,-56.423325,0.000000,0.000000,-0.001000,0.005000,FlatInitial,ResetBack,0
08:42:24.639 PM 02/16/2016,Teleop Disabled,0,FALSE,0,NO ERROR,0.000000,0.000000,-6000.000000,-6000.000000,Speed,Speed,-0.080000,1.110000,1.600000,1.000000,104.000000,1,0,-0.000000,0.000000,1,0.000000,0.000000,0.000000,-64.469498,-56.423325,0.000000,0.003000,0.000000,0.005000,FlatInitial,ResetBack,0
08:42:24.739 PM 02/16/2016,Teleop Disabled,0,FALSE,0,NO ERROR,0.000000,0.000000,-6000.000000,-6000.000000,Speed,Speed,-0.080000,1.110000,1.600000,1.000000,102.000000,1,0,-0.000000,0.000000,1,0.000000,0.000000,0.000000,-64.469498,-56.423325,0.000000,0.000000,0.000000,0.007000,FlatInitial,ResetBack,0
08:42:24.839 PM 02/16/2016,Teleop Disabled,0,FALSE,0,NO ERROR,0.000000,0.000000,-6000.000000,-6000.000000,Speed,Speed,-0.080000,1.100000,1.610000,1.000000,101.000000,1,0,-0.000000,0.000000,1,0.000000,0.000000,0.000000,-64.469498,-56.423325,0.000000,-0.001000,0.000000,0.009000,FlatInitial,ResetBack,0
08:42:24.940 PM 02/16/2016,Teleop Disabled,0,FALSE,0,NO ERROR,0.000000,0.000000,-6000.000000,-6000.000000,Speed,Speed,-0.080000,1.100000,1.610000,1.000000,103.000000,1,0,-0.000000,0.000000,1,0.000000,0.000000,0.000000,-64.469498,-56.423325,0.000000,0.000000,0.000000,0.004000,FlatInitial,ResetBack,0
08:42:25.041 PM 02/16/2016,Teleop Disabled,0,FALSE,0,NO ERROR,0.000000,0.000000,-6000.000000,-6000.000000,Speed,Speed,-0.090000,1.100000,1.610000,1.000000,103.000000,1,0,-0.000000,0.000000,1,0.000000,0.000000,0.000000,-64.469498,-56.423325,0.000000,0.000000,0.001000,0.009000,FlatInitial,ResetBack,0
08:42:25.141 PM 02/16/2016,Teleop Disabled,0,FALSE,0,NO ERROR,0.000000,0.000000,-6000.000000,-6000.000000,Speed,Speed,-0.090000,1.110000,1.600000,1.000000,101.000000,1,0,-0.000000,0.000000,1,0.000000,0.000000,0.000000,-64.469498,-56.423325,0.000000,0.000000,0.000000,0.005000,FlatInitial,ResetBack,0
08:42:25.241 PM 02/16/2016,Teleop Disabled,0,FALSE,0,NO ERROR,0.000000,0.000000,-6000.000000,-6000.000000,Speed,Speed,-0.090000,1.110000,1.600000,1.000000,101.000000,1,0,-0.000000,0.000000,1,0.000000,0.000000,0.000000,-64.469498,-56.423325,0.000000,0.000000,0.000000,0.003000,FlatInitial,ResetBack,0
08:42:25.342 PM 02/16/2016,Teleop Disabled,0,FALSE,0,NO ERROR,0.000000,0.000000,-6000.000000,-6000.000000,Speed,Speed,-0.090000,1.110000,1.600000,1.000000,102.000000,1,0,-0.000000,0.000000,1,0.000000,0.000000,0.000000,-64.469498,-56.423325,0.000000,-0.001000,0.001000,0.008000,FlatInitial,ResetBack,0
08:42:25.442 PM 02/16/2016,Teleop Disabled,0,FALSE,0,NO ERROR,0.000000,0.000000,-6000.000000,-6000.000000,Speed,Speed,-0.090000,1.110000,1.600000,1.000000,102.000000,1,0,-0.000000,0.000000,1,0.000000,0.000000,0.000000,-64.469498,-56.423325,0.000000,0.000000,0.001000,0.009000,FlatInitial,ResetBack,0
08:42:25.543 PM 02/16/2016,Teleop Disabled,0,FALSE,0,NO ERROR,0.000000,0.000000,-6000.000000,-6000.000000,Speed,Speed,-0.090000,1.110000,1.600000,1.000000,101.000000,1,0,-0.000000,0.000000,1,0.000000,0.000000,0.000000,-64.469498,-56.423325,0.000000,-0.001000,-0.002000,0.005000,FlatInitial,ResetBack,0
08:42:25.642 PM 02/16/2016,Teleop Disabled,0,FALSE,0,NO ERROR,0.000000,0.000000,-6000.000000,-6000.000000,Speed,Speed,-0.090000,1.110000,1.600000,1.000000,101.000000,1,0,-0.000000,0.000000,1,0.000000,0.000000,0.000000,-64.469498,-56.423325,0.000000,-0.001000,0.001000,0.010000,FlatInitial,ResetBack,0
08:42:25.743 PM 02/16/2016,Teleop Disabled,0,FALSE,0,NO ERROR,0.000000,0.000000,-6000.000000,-6000.000000,Speed,Speed,-0.090000,1.110000,1.600000,1.000000,101.000000,1,0,-0.000000,0.000000,1,0.000000,0.000000,0.000000,-64.469498,-56.423325,0.000000,0.000000,0.001000,0.007000,FlatInitial,ResetBack,0
08:42:25.844 PM 02/16/2016,Teleop Disabled,0,FALSE,0,NO ERROR,0.000000,0.000000,-6000.000000,-6000.000000,Speed,Speed,-0.090000,1.110000,1.600000,1.000000,103.000000,1,0,-0.000000,0.000000,1,0.000000,0.000000,0.000000,-64.469498,-56.423325,0.000000,0.003000,0.002000,0.007000,FlatInitial,ResetBack,0
08:42:25.945 PM 02/16/2016,Teleop Disabled,0,FALSE,0,NO ERROR,0.000000,0.000000,-6000.000000,-6000.000000,Speed,Speed,-0.090000,1.100000,1.610000,1.000000,101.000000,1,0,-0.000000,0.000000,1,0.000000,0.000000,0.000000,-64.469498,-56.423325,0.000000,0.000000,0.001000,0.007000,FlatInitial,ResetBack,0
08:42:26.045 PM 02/16/2016,Teleop Disabled,0,FALSE,0,NO ERROR,0.000000,0.000000,-6000.000000,-6000.000000,Speed,Speed,-0.090000,1.100000,1.610000,1.000000,104.000000,1,0,-0.000000,0.000000,1,0.000000,0.000000,0.000000,-64.469498,-56.423325,0.000000,0.000000,-0.001000,0.008000,FlatInitial,ResetBack,0
08:42:26.145 PM 02/16/2016,Teleop Disabled,0,FALSE,0,NO ERROR,0.000000,0.000000,-6000.000000,-6000.000000,Speed,Speed,-0.090000,1.100000,1.610000,1.000000,101.000000,1,0,-0.000000,0.000000,1,0.000000,0.000000,0.000000,-64.469498,-56.423325,0.000000,0.002000,0.000000,0.003000,FlatInitial,ResetBack,0
08:42:26.245 PM 02/16/2016,Teleop Disabled,0,FALSE,0,NO ERROR,0.000000,0.000000,-6000.000000,-6000.000000,Speed,Speed,-0.100000,1.100000,1.610000,1.000000,102.000000,1,0,-0.000000,0.000000,1,0.000000,0.000000,0.000000,-64.469498,-56.423325,0.000000,0.000000,-0.001000,0.004000,FlatInitial,ResetBack,0
08:42:26.345 PM 02/16/2016,Teleop Disabled,0,FALSE,0,NO ERROR,0.000000,0.000000,-6000.000000,-6000.000000,Speed,Speed,-0.100000,1.100000,1.610000,1.000000,101.000000,1,0,-0.000000,0.000000,1,0.000000,0.000000,0.000000,-64.469498,-56.423325,0.000000,-0.003000,0.001000,0.007000,FlatInitial,ResetBack,0
08:42:26.445 PM 02/16/2016,Teleop Disabled,0,FALSE,0,NO ERROR,0.000000,0.000000,-6000.000000,-6000.000000,Speed,Speed,-0.100000,1.100000,1.610000,1.000000,102.000000,1,0,-0.000000,0.000000,1,0.000000,0.000000,0.000000,-64.469498,-56.423325,0.000000,0.000000,0.000000,0.005000,FlatInitial,ResetBack,0
08:42:26.545 PM 02/16/2016,Teleop Disabled,0,FALSE,0,NO ERROR,0.000000,0.000000,-6000.000000,-6000.000000,Speed,Speed,-0.100000,1.100000,1.610000,1.000000,102.000000,1,0,-0.000000,0.000000,1,0.000000,0.000000,0.000000,-64.469498,-56.423325,0.000000,0.000000,0.001000,0.008000,FlatInitial,ResetBack,0
08:42:26.645 PM 02/16/2016,Teleop Disabled,0,FALSE,0,NO ERROR,0.000000,0.000000,-6000.000000,-6000.000000,Speed,Speed,-0.100000,1.100000,1.620000,1.000000,102.000000,1,0,-0.000000,0.000000,1,0.000000,0.000000,0.000000,-64.469498,-56.423325,0.000000,-0.001000,0.000000,0.004000,FlatInitial,ResetBack,0
08:42:26.745 PM 02/16/2016,Teleop Disabled,0,FALSE,0,NO ERROR,0.000000,0.000000,-6000.000000,-6000.000000,Speed,Speed,-0.100000,1.110000,1.610000,1.000000,102.000000,1,0,-0.000000,0.000000,1,0.000000,0.000000,0.000000,-64.469498,-56.423325,0.000000,0.000000,-0.001000,0.008000,FlatInitial,ResetBack,0
08:42:26.845 PM 02/16/2016,Teleop Disabled,0,FALSE,0,NO ERROR,0.000000,0.000000,-6000.000000,-6000.000000,Speed,Speed,-0.100000,1.110000,1.610000,1.000000,103.000000,1,0,-0.000000,0.000000,1,0.000000,0.000000,0.000000,-64.469498,-56.423325,0.000000,0.000000,0.000000,0.001000,FlatInitial,ResetBack,0
08:42:26.945 PM 02/16/2016,Teleop Disabled,0,FALSE,0,NO ERROR,0.000000,0.000000,-6000.000000,-6000.000000,Speed,Speed,-0.100000,1.110000,1.610000,1.000000,102.000000,1,0,-0.000000,0.000000,1,0.000000,0.000000,0.000000,-64.469498,-56.423325,0.000000,0.000000,0.000000,0.007000,FlatInitial,ResetBack,0
08:42:27.045 PM 02/16/2016,Teleop Disabled,0,FALSE,0,NO ERROR,0.000000,0.000000,-6000.000000,-6000.000000,Speed,Speed,-0.100000,1.110000,1.610000,1.000000,102.000000,1,0,-0.000000,0.000000,1,0.000000,0.000000,0.000000,-64.469498,-56.423325,0.000000,0.001000,0.000000,0.006000,FlatInitial,ResetBack,0
08:42:27.145 PM 02/16/2016,Teleop Disabled,0,FALSE,0,NO ERROR,0.000000,0.000000,-6000.000000,-6000.000000,Speed,Speed,-0.100000,1.120000,1.610000,1.000000,104.000000,1,0,-0.000000,0.000000,1,0.000000,0.000000,0.000000,-64.469498,-56.423325,0.000000,-0.001000,0.001000,0.007000,FlatInitial,ResetBack,0
08:42:27.245 PM 02/16/2016,Teleop Disabled,0,FALSE,0,NO ERROR,0.000000,0.000000,-6000.000000,-6000.000000,Speed,Speed,-0.100000,1.110000,1.610000,1.000000,102.000000,1,0,-0.000000,0.000000,1,0.000000,0.000000,0.000000,-64.469498,-56.423325,0.000000,0.000000,0.000000,0.004000,FlatInitial,ResetBack,0
08:42:27.344 PM 02/16/2016,Teleop Disabled,0,FALSE,0,NO ERROR,0.000000,0.000000,-6000.000000,-6000.000000,Speed,Speed,-0.100000,1.120000,1.610000,1.000000,102.000000,1,0,-0.000000,0.000000,1,0.000000,0.000000,0.000000,-64.469498,-56.423325,0.000000,0.001000,0.000000,0.006000,FlatInitial,ResetBack,0
08:42:27.446 PM 02/16/2016,Teleop Disabled,0,FALSE,0,NO ERROR,0.000000,0.000000,-6000.000000,-6000.000000,Speed,Speed,-0.100000,1.110000,1.610000,1.000000,101.000000,1,0,-0.000000,0.000000,1,0.000000,0.000000,0.000000,-64.469498,-56.423325,0.000000,-0.001000,0.001000,0.007000,FlatInitial,ResetBack,0
08:42:27.546 PM 02/16/2016,Teleop Disabled,0,FALSE,0,NO ERROR,0.000000,0.000000,-6000.000000,-6000.000000,Speed,Speed,-0.100000,1.110000,1.610000,1.000000,102.000000,1,0,-0.000000,0.000000,1,0.000000,0.000000,0.000000,-64.469498,-56.423325,0.000000,0.001000,0.000000,0.005000,FlatInitial,ResetBack,0
08:42:27.647 PM 02/16/2016,Teleop Disabled,0,FALSE,0,NO ERROR,0.000000,0.000000,-6000.000000,-6000.000000,Speed,Speed,-0.100000,1.120000,1.620000,1.000000,102.000000,1,0,-0.000000,0.000000,1,0.000000,0.000000,0.000000,-64.469498,-56.423325,0.000000,0.002000,0.003000,0.004000,FlatInitial,ResetBack,0
08:42:27.747 PM 02/16/2016,Teleop Disabled,0,FALSE,0,NO ERROR,0.000000,0.000000,-6000.000000,-6000.000000,Speed,Speed,-0.100000,1.120000,1.620000,1.000000,102.000000,1,0,-0.000000,0.000000,1,0.000000,0.000000,0.000000,-64.469498,-56.423325,0.000000,0.000000,-0.002000,0.011000,FlatInitial,ResetBack,0
08:42:27.846 PM 02/16/2016,Teleop Disabled,0,FALSE,0,NO ERROR,0.000000,0.000000,-6000.000000,-6000.000000,Speed,Speed,-0.100000,1.120000,1.620000,1.000000,103.000000,1,0,-0.000000,0.000000,1,0.000000,0.000000,0.000000,-64.469498,-56.423325,0.000000,0.000000,0.001000,0.005000,FlatInitial,ResetBack,0
08:42:27.947 PM 02/16/2016,Teleop Disabled,0,FALSE,0,NO ERROR,0.000000,0.000000,-6000.000000,-6000.000000,Speed,Speed,-0.100000,1.120000,1.620000,1.000000,102.000000,1,0,-0.000000,0.000000,1,0.000000,0.000000,0.000000,-64.469498,-56.423325,0.000000,-0.001000,0.000000,0.004000,FlatInitial,ResetBack,0
08:42:28.048 PM 02/16/2016,Teleop Disabled,0,FALSE,0,NO ERROR,0.000000,0.000000,-6000.000000,-6000.000000,Speed,Speed,-0.100000,1.110000,1.620000,1.000000,101.000000,1,0,-0.000000,0.000000,1,0.000000,0.000000,0.000000,-64.469498,-56.423325,0.000000,0.001000,0.002000,0.005000,FlatInitial,ResetBack,0
08:42:28.148 PM 02/16/2016,Teleop Disabled,0,FALSE,0,NO ERROR,0.000000,0.000000,-6000.000000,-6000.000000,Speed,Speed,-0.100000,1.120000,1.620000,1.000000,101.000000,1,0,-0.000000,0.000000,1,0.000000,0.000000,0.000000,-64.469498,-56.423325,0.000000,0.000000,-0.001000,0.006000,FlatInitial,ResetBack,0
08:42:28.248 PM 02/16/2016,Teleop Disabled,0,FALSE,0,NO ERROR,0.000000,0.000000,-6000.000000,-6000.000000,Speed,Speed,-0.100000,1.110000,1.620000,1.000000,106.000000,1,0,-0.000000,0.000000,1,0.000000,0.000000,0.000000,-64.469498,-56.423325,0.000000,0.000000,-0.001000,0.006000,FlatInitial,ResetBack,0
08:42:28.350 PM 02/16/2016,Teleop Disabled,0,FALSE,0,NO ERROR,0.000000,0.000000,-6000.000000,-6000.000000,Speed,Speed,-0.100000,1.110000,1.620000,1.000000,101.000000,1,0,-0.000000,0.000000,1,0.000000,0.000000,0.000000,-64.469498,-56.423325,0.000000,0.000000,0.000000,0.008000,FlatInitial,ResetBack,0
08:42:28.451 PM 02/16/2016,Teleop Disabled,0,FALSE,0,NO ERROR,0.000000,0.000000,-6000.000000,-6000.000000,Speed,Speed,-0.100000,1.120000,1.620000,1.000000,102.000000,1,0,-0.000000,0.000000,1,0.000000,0.000000,0.000000,-64.469498,-56.423325,0.000000,-0.001000,0.000000,0.008000,FlatInitial,ResetBack,0
08:42:28.551 PM 02/16/2016,Teleop Disabled,0,FALSE,0,NO ERROR,0.000000,0.000000,-6000.000000,-6000.000000,Speed,Speed,-0.100000,1.120000,1.620000,1.000000,102.000000,1,0,-0.000000,0.000000,1,0.000000,0.000000,0.000000,-64.469498,-56.423325,0.000000,0.002000,-0.002000,0.006000,FlatInitial,ResetBack,0
08:42:28.652 PM 02/16/2016,Teleop Disabled,0,FALSE,0,NO ERROR,0.000000,0.000000,-6000.000000,-6000.000000,Speed,Speed,-0.100000,1.110000,1.610000,1.000000,103.000000,1,0,-0.000000,0.000000,1,0.000000,0.000000,0.000000,-64.469498,-56.423325,0.000000,0.000000,0.001000,0.004000,FlatInitial,ResetBack,0
08:42:28.753 PM 02/16/2016,Teleop Disabled,0,FALSE,0,NO ERROR,0.000000,0.000000,-6000.000000,-6000.000000,Speed,Speed,-0.100000,1.110000,1.610000,1.000000,102.000000,1,0,-0.000000,0.000000,1,0.000000,0.000000,0.000000,-64.469498,-56.423325,0.000000,0.001000,0.000000,0.004000,FlatInitial,ResetBack,0
08:42:28.853 PM 02/16/2016,Teleop Disabled,0,FALSE,0,NO ERROR,0.000000,0.000000,-6000.000000,-6000.000000,Speed,Speed,-0.100000,1.110000,1.610000,1.000000,101.000000,1,0,-0.000000,0.000000,1,0.000000,0.000000,0.000000,-64.469498,-56.423325,0.000000,0.000000,0.000000,0.008000,FlatInitial,ResetBack,0
08:42:28.955 PM 02/16/2016,Teleop Disabled,0,FALSE,0,NO ERROR,0.000000,0.000000,-6000.000000,-6000.000000,Speed,Speed,-0.100000,1.110000,1.600000,1.000000,101.000000,1,0,-0.000000,0.000000,1,0.000000,0.000000,0.000000,-64.469498,-56.423325,0.000000,0.001000,0.000000,0.009000,FlatInitial,ResetBack,0
08:42:29.055 PM 02/16/2016,Teleop Disabled,0,FALSE,0,NO ERROR,0.000000,0.000000,-6000.000000,-6000.000000,Speed,Speed,-0.100000,1.120000,1.610000,1.000000,102.000000,1,0,-0.000000,0.000000,1,0.000000,0.000000,0.000000,-64.469498,-56.423325,0.000000,-0.001000,-0.002000,0.009000,FlatInitial,ResetBack,0
08:42:29.155 PM 02/16/2016,Teleop Disabled,0,FALSE,0,NO ERROR,0.000000,0.000000,-6000.000000,-6000.000000,Speed,Speed,-0.100000,1.110000,1.600000,1.000000,102.000000,1,0,-0.000000,0.000000,1,0.000000,0.000000,0.000000,-64.469498,-56.423325,0.000000,0.000000,0.000000,0.009000,FlatInitial,ResetBack,0
08:42:29.257 PM 02/16/2016,Teleop Disabled,0,FALSE,0,NO ERROR,0.000000,0.000000,-6000.000000,-6000.000000,Speed,Speed,-0.100000,1.110000,1.610000,1.000000,102.000000,1,0,-0.000000,0.000000,1,0.000000,0.000000,0.000000,-64.469498,-56.423325,0.000000,0.000000,0.000000,0.010000,FlatInitial,ResetBack,0
08:42:29.357 PM 02/16/2016,Teleop Disabled,0,FALSE,0,NO ERROR,0.000000,0.000000,-6000.000000,-6000.000000,Speed,Speed,-0.100000,1.110000,1.610000,1.000000,101.000000,1,0,-0.000000,0.000000,1,0.000000,0.000000,0.000000,-64.469498,-56.423325,0.000000,0.000000,0.002000,0.002000,FlatInitial,ResetBack,0
08:42:29.458 PM 02/16/2016,Teleop Disabled,0,FALSE,0,NO ERROR,0.000000,0.000000,-6000.000000,-6000.000000,Speed,Speed,-0.100000,1.110000,1.610000,1.000000,102.000000,1,0,-0.000000,0.000000,1,0.000000,0.000000,0.000000,-64.469498,-56.423325,0.000000,0.000000,0.001000,0.007000,FlatInitial,ResetBack,0
08:42:29.559 PM 02/16/2016,Teleop Disabled,0,FALSE,0,NO ERROR,0.000000,0.000000,-6000.000000,-6000.000000,Speed,Speed,-0.100000,1.110000,1.600000,1.000000,101.000000,1,0,-0.000000,0.000000,1,0.000000,0.000000,0.000000,-64.469498,-56.423325,0.000000,0.003000,0.000000,0.008000,FlatInitial,ResetBack,0
08:42:29.659 PM 02/16/2016,Teleop Disabled,0,FALSE,0,NO ERROR,0.000000,0.000000,-6000.000000,-6000.000000,Speed,Speed,-0.100000,1.110000,1.600000,1.000000,103.000000,1,0,-0.000000,0.000000,1,0.000000,0.000000,0.000000,-64.469498,-56.423325,0.000000,0.000000,-0.002000,0.008000,FlatInitial,ResetBack,0
08:42:29.760 PM 02/16/2016,Teleop Disabled,0,FALSE,0,NO ERROR,0.000000,0.000000,-6000.000000,-6000.000000,Speed,Speed,-0.100000,1.120000,1.600000,1.000000,105.000000,1,0,-0.000000,0.000000,1,0.000000,0.000000,0.000000,-64.469498,-56.423325,0.000000,-0.002000,-0.001000,0.007000,FlatInitial,ResetBack,0
08:42:29.860 PM 02/16/2016,Teleop Disabled,0,FALSE,0,NO ERROR,0.000000,0.000000,-6000.000000,-6000.000000,Speed,Speed,-0.100000,1.120000,1.600000,1.000000,102.000000,1,0,-0.000000,0.000000,1,0.000000,0.000000,0.000000,-64.469498,-56.423325,0.000000,-0.002000,0.001000,0.006000,FlatInitial,ResetBack,0
08:42:29.960 PM 02/16/2016,Teleop Disabled,0,FALSE,0,NO ERROR,0.000000,0.000000,-6000.000000,-6000.000000,Speed,Speed,-0.100000,1.120000,1.600000,1.000000,101.000000,1,0,-0.000000,0.000000,1,0.000000,0.000000,0.000000,-64.469498,-56.423325,0.000000,-0.001000,-0.001000,0.007000,FlatInitial,ResetBack,0
08:42:30.060 PM 02/16/2016,Teleop Disabled,0,FALSE,0,NO ERROR,0.000000,0.000000,-6000.000000,-6000.000000,Speed,Speed,-0.110000,1.120000,1.600000,1.000000,102.000000,1,0,-0.000000,0.000000,1,0.000000,0.000000,0.000000,-64.469498,-56.423325,0.000000,0.001000,0.000000,0.008000,FlatInitial,ResetBack,0
08:42:30.159 PM 02/16/2016,Teleop Disabled,0,FALSE,0,NO ERROR,0.000000,0.000000,-6000.000000,-6000.000000,Speed,Speed,-0.110000,1.120000,1.600000,1.000000,101.000000,1,0,-0.000000,0.000000,1,0.000000,0.000000,0.000000,-64.469498,-56.423325,0.000000,-0.001000,0.001000,0.007000,FlatInitial,ResetBack,0
08:42:30.260 PM 02/16/2016,Teleop Disabled,0,FALSE,0,NO ERROR,0.000000,0.000000,-6000.000000,-6000.000000,Speed,Speed,-0.110000,1.120000,1.600000,1.000000,103.000000,1,0,-0.000000,0.000000,1,0.000000,0.000000,0.000000,-64.469498,-56.423325,0.000000,0.000000,0.000000,0.008000,FlatInitial,ResetBack,0
08:42:30.361 PM 02/16/2016,Teleop Disabled,0,FALSE,0,NO ERROR,0.000000,0.000000,-6000.000000,-6000.000000,Speed,Speed,-0.120000,1.120000,1.600000,1.000000,104.000000,1,0,-0.000000,0.000000,1,0.000000,0.000000,0.000000,-64.469498,-56.423325,0.000000,0.000000,0.000000,0.009000,FlatInitial,ResetBack,0
08:42:30.462 PM 02/16/2016,Teleop Disabled,0,FALSE,0,NO ERROR,0.000000,0.000000,-6000.000000,-6000.000000,Speed,Speed,-0.120000,1.120000,1.600000,1.000000,102.000000,1,0,-0.000000,0.000000,1,0.000000,0.000000,0.000000,-64.469498,-56.423325,0.000000,0.001000,0.000000,0.010000,FlatInitial,ResetBack,0
08:42:30.562 PM 02/16/2016,Teleop Disabled,0,FALSE,0,NO ERROR,0.000000,0.000000,-6000.000000,-6000.000000,Speed,Speed,-0.120000,1.110000,1.600000,1.000000,104.000000,1,0,-0.000000,0.000000,1,0.000000,0.000000,0.000000,-64.469498,-56.423325,0.000000,-0.001000,0.001000,0.008000,FlatInitial,ResetBack,0
08:42:30.662 PM 02/16/2016,Teleop Disabled,0,FALSE,0,NO ERROR,0.000000,0.000000,-6000.000000,-6000.000000,Speed,Speed,-0.120000,1.120000,1.600000,1.000000,104.000000,1,0,-0.000000,0.000000,1,0.000000,0.000000,0.000000,-64.469498,-56.423325,0.000000,-0.001000,0.000000,0.004000,FlatInitial,ResetBack,0
08:42:30.762 PM 02/16/2016,Teleop Disabled,0,FALSE,0,NO ERROR,0.000000,0.000000,-6000.000000,-6000.000000,Speed,Speed,-0.120000,1.120000,1.600000,1.000000,102.000000,1,0,-0.000000,0.000000,1,0.000000,0.000000,0.000000,-64.469498,-56.423325,0.000000,-0.001000,-0.001000,0.005000,FlatInitial,ResetBack,0
08:42:30.863 PM 02/16/2016,Teleop Disabled,0,FALSE,0,NO ERROR,0.000000,0.000000,-6000.000000,-6000.000000,Speed,Speed,-0.120000,1.120000,1.600000,1.000000,101.000000,1,0,-0.000000,0.000000,1,0.000000,0.000000,0.000000,-64.469498,-56.423325,0.000000,0.000000,0.000000,0.005000,FlatInitial,ResetBack,0
08:42:30.963 PM 02/16/2016,Teleop Disabled,0,FALSE,0,NO ERROR,0.000000,0.000000,-6000.000000,-6000.000000,Speed,Speed,-0.120000,1.120000,1.600000,1.000000,100.000000,1,0,-0.000000,0.000000,1,0.000000,0.000000,0.000000,-64.469498,-56.423325,0.000000,0.000000,0.000000,0.005000,FlatInitial,ResetBack,0
08:42:31.063 PM 02/16/2016,Teleop Disabled,0,FALSE,0,NO ERROR,0.000000,0.000000,-6000.000000,-6000.000000,Speed,Speed,-0.120000,1.120000,1.600000,1.000000,101.000000,1,0,-0.000000,0.000000,1,0.000000,0.000000,0.000000,-64.469498,-56.423325,0.000000,-0.001000,0.000000,0.004000,FlatInitial,ResetBack,0
08:42:31.165 PM 02/16/2016,Teleop Disabled,0,FALSE,0,NO ERROR,0.000000,0.000000,-6000.000000,-6000.000000,Speed,Speed,-0.120000,1.120000,1.600000,1.000000,102.000000,1,0,-0.000000,0.000000,1,0.000000,0.000000,0.000000,-64.469498,-56.423325,0.000000,0.001000,0.000000,0.004000,FlatInitial,ResetBack,0
08:42:31.265 PM 02/16/2016,Teleop Disabled,0,FALSE,0,NO ERROR,0.000000,0.000000,-6000.000000,-6000.000000,Speed,Speed,-0.120000,1.120000,1.600000,1.000000,101.000000,1,0,-0.000000,0.000000,1,0.000000,0.000000,0.000000,-64.469498,-56.423325,0.000000,0.000000,0.000000,0.005000,FlatInitial,ResetBack,0
08:42:31.366 PM 02/16/2016,Teleop Disabled,0,FALSE,0,NO ERROR,0.000000,0.000000,-6000.000000,-6000.000000,Speed,Speed,-0.120000,1.120000,1.600000,1.000000,101.000000,1,0,-0.000000,0.000000,1,0.000000,0.000000,0.000000,-64.469498,-56.423325,0.000000,0.001000,0.000000,0.013000,FlatInitial,ResetBack,0
08:42:31.466 PM 02/16/2016,Teleop Disabled,0,FALSE,0,NO ERROR,0.000000,0.000000,-6000.000000,-6000.000000,Speed,Speed,-0.130000,1.120000,1.600000,1.000000,101.000000,1,0,-0.000000,0.000000,1,0.000000,0.000000,0.000000,-64.469498,-56.423325,0.000000,0.000000,0.001000,0.007000,FlatInitial,ResetBack,0
08:42:31.566 PM 02/16/2016,Teleop Disabled,0,FALSE,0,NO ERROR,0.000000,0.000000,-6000.000000,-6000.000000,Speed,Speed,-0.130000,1.120000,1.600000,1.000000,101.000000,1,0,-0.000000,0.000000,1,0.000000,0.000000,0.000000,-64.469498,-56.423325,0.000000,-0.003000,0.002000,0.003000,FlatInitial,ResetBack,0
08:42:31.668 PM 02/16/2016,Teleop Disabled,0,FALSE,0,NO ERROR,0.000000,0.000000,-6000.000000,-6000.000000,Speed,Speed,-0.130000,1.130000,1.600000,1.000000,101.000000,1,0,-0.000000,0.000000,1,0.000000,0.000000,0.000000,-64.469498,-56.423325,0.000000,0.000000,-0.002000,0.008000,FlatInitial,ResetBack,0
