Time,RobotMode,AutoToRun,ErrorStatus, ErrorCode,ErrorSource,ActualRPM1,ActualRPM2,DesiredRPM1,DesiredRPM2,ControlMode1,ControlMode2,NavXYaw,NavXRoll,NavXPitch,ShooterState,LoopTime,IsLevel,IsAutoTargeting,LeftMotorOutput,RightMotorOutput,IsHaloDrive,NavXVelocityX,NavXVelocityY,NavXVelocityZ,NavXDisplacementX,NavXDisplacementY,NavXDisplacementZ,NavXAccelerationX,NavXAccelerationY,NavXAccelerationZ,AutoDefendState,AngeMotorState,Photoeye
07:17:13.851 PM 02/17/2016,Teleop Enabled,0,TRUE,91,Variant To Data in WPI_DigitalInputRefNum Registry Get.vi->Periodic Tasks.vi->Robot Main.vi,0.146484,-0.878906,4000.000000,4000.000000,Speed,Speed,-0.910000,0.910000,1.340000,3.000000,101.000000,1,0,-0.000000,0.000000,1,0.000000,0.000000,0.000000,55.095230,64.878220,0.000000,0.000000,0.000000,0.004000,FlatInitial,ResetBack,0
07:17:13.952 PM 02/17/2016,Teleop Enabled,0,TRUE,-44007,<LOCATION>WPI_DigitalInputRefNum Registry Get.vi<CALLSTACK>WPI_DigitalInputRefNum Registry Get.vi< <Periodic Tasks.vi< <Robot Main.vi,689.941406,-670.019531,4000.000000,4000.000000,Speed,Speed,-0.890000,0.890000,1.330000,3.000000,100.000000,1,0,-0.000000,0.000000,1,0.000000,-0.004974,0.000000,55.095230,64.878113,0.000000,0.016000,-0.012000,0.006000,FlatInitial,ResetBack,0
07:17:14.053 PM 02/17/2016,Teleop Enabled,0,FALSE,0,NO ERROR,2538.720703,-2320.751953,4000.000000,4000.000000,Speed,Speed,-0.870000,0.910000,1.310000,3.000000,105.000000,1,0,-0.000000,0.000000,1,0.011047,-0.019470,0.000000,55.095322,64.877304,0.000000,-0.014000,-0.027000,0.062000,FlatInitial,ResetBack,0
07:17:14.154 PM 02/17/2016,Teleop Enabled,0,FALSE,0,NO ERROR,3650.683594,-3402.392578,4000.000000,4000.000000,Speed,Speed,-0.910000,0.900000,1.140000,3.000000,101.000000,1,0,-0.000000,0.000000,1,0.000000,-0.048141,0.000000,55.095474,64.875931,0.000000,0.041000,-0.011000,0.018000,FlatInitial,ResetBack,0
07:17:14.254 PM 02/17/2016,Teleop Enabled,0,FALSE,0,NO ERROR,3926.074219,-3700.488281,4000.000000,4000.000000,Speed,Speed,-0.980000,0.860000,1.110000,3.000000,103.000000,1,0,-0.000000,0.000000,1,-0.003860,-0.059158,0.000000,55.095764,64.872864,0.000000,-0.075000,-0.035000,-0.007000,FlatInitial,ResetBack,0
07:17:14.354 PM 02/17/2016,Teleop Enabled,0,FALSE,0,NO ERROR,3907.177734,-3699.755859,4000.000000,4000.000000,Speed,Speed,-0.940000,0.820000,1.130000,3.000000,101.000000,1,0,-0.000000,0.000000,1,0.004959,-0.059891,0.000000,55.094910,64.869186,0.000000,0.000000,0.077000,0.066000,FlatInitial,ResetBack,0
07:17:14.455 PM 02/17/2016,Teleop Enabled,0,FALSE,0,NO ERROR,3881.689453,-3699.169922,4000.000000,4000.000000,Speed,Speed,-0.930000,0.860000,1.120000,3.000000,101.000000,1,0,-0.000000,0.000000,1,-0.000107,-0.054611,0.000000,55.095154,64.867157,0.000000,-0.038000,-0.015000,0.006000,FlatInitial,ResetBack,0
07:17:14.556 PM 02/17/2016,Teleop Enabled,0,FALSE,0,NO ERROR,3890.771484,-3781.347656,4000.000000,4000.000000,Speed,Speed,-0.950000,0.850000,1.220000,3.000000,103.000000,1,0,-0.000000,0.000000,1,0.005539,0.025452,0.000000,55.095245,64.867157,0.000000,-0.022000,-0.006000,0.049000,FlatInitial,ResetBack,0
07:17:14.656 PM 02/17/2016,Teleop Enabled,0,FALSE,0,NO ERROR,3928.710937,-3876.269531,4000.000000,4000.000000,Speed,Speed,-0.930000,0.860000,1.150000,3.000000,103.000000,1,0,-0.000000,0.000000,1,0.011322,0.019012,0.000000,55.095810,64.868195,0.000000,0.001000,-0.020000,0.035000,FlatInitial,ResetBack,0
07:17:14.757 PM 02/17/2016,Teleop Enabled,0,FALSE,0,NO ERROR,3964.892578,-3930.908203,4000.000000,4000.000000,Speed,Speed,-0.950000,0.840000,1.150000,3.000000,101.000000,1,0,-0.000000,0.000000,1,-0.000900,0.008850,0.000000,55.096207,64.868912,0.000000,-0.028000,0.020000,-0.012000,FlatInitial,ResetBack,0
07:17:14.858 PM 02/17/2016,Teleop Enabled,0,FALSE,0,NO ERROR,3987.304687,-3966.210937,4000.000000,4000.000000,Speed,Speed,-0.940000,0.790000,1.200000,3.000000,101.000000,1,0,-0.000000,0.000000,1,-0.030930,0.019547,0.000000,55.095184,64.869598,0.000000,-0.020000,-0.017000,0.001000,FlatInitial,ResetBack,0
07:17:14.958 PM 02/17/2016,Teleop Enabled,0,FALSE,0,NO ERROR,3993.310547,-3967.089844,4000.000000,4000.000000,Speed,Speed,-0.930000,0.770000,1.220000,3.000000,100.000000,1,0,-0.000000,0.000000,1,0.000000,0.025818,0.000000,55.094559,64.871277,0.000000,-0.047000,0.014000,-0.037000,FlatInitial,ResetBack,0
07:17:15.059 PM 02/17/2016,Teleop Enabled,0,FALSE,0,NO ERROR,3989.648437,-3961.083984,4000.000000,4000.000000,Speed,Speed,-0.940000,0.790000,1.180000,3.000000,101.000000,1,0,-0.000000,0.000000,1,-0.019516,0.019760,0.000000,55.094162,64.872040,0.000000,-0.072000,0.008000,0.066000,FlatInitial,ResetBack,0
07:17:15.159 PM 02/17/2016,Teleop Enabled,0,FALSE,0,NO ERROR,3988.183594,-3970.019531,4000.000000,4000.000000,Speed,Speed,-0.910000,0.840000,1.290000,3.000000,101.000000,1,0,-0.000000,0.000000,1,-0.001221,0.048676,0.000000,55.094009,64.873840,0.000000,-0.027000,-0.068000,-0.010000,FlatInitial,ResetBack,0
07:17:15.259 PM 02/17/2016,Teleop Enabled,0,FALSE,0,NO ERROR,3993.896484,-3988.769531,4000.000000,4000.000000,Speed,Speed,-0.920000,0.910000,1.300000,3.000000,101.000000,1,0,-0.000000,0.000000,1,0.001480,0.000000,0.000000,55.094269,64.875946,0.000000,0.016000,0.016000,-0.016000,FlatInitial,ResetBack,0
07:17:15.359 PM 02/17/2016,Teleop Enabled,0,FALSE,0,NO ERROR,3995.361328,-3992.871094,4000.000000,4000.000000,Speed,Speed,-0.960000,0.950000,1.310000,3.000000,101.000000,1,0,-0.000000,0.000000,1,-0.004974,-0.002792,0.000000,55.094223,64.875977,0.000000,0.010000,0.027000,-0.020000,FlatInitial,ResetBack,0
07:17:15.460 PM 02/17/2016,Teleop Enabled,0,FALSE,0,NO ERROR,3998.583984,-3989.941406,4000.000000,4000.000000,Speed,Speed,-0.960000,0.960000,1.300000,3.000000,101.000000,1,0,-0.000000,0.000000,1,-0.038223,-0.009720,0.000000,55.092804,64.875519,0.000000,-0.009000,0.037000,0.009000,FlatInitial,ResetBack,0
07:17:15.560 PM 02/17/2016,Teleop Enabled,0,FALSE,0,NO ERROR,4002.099609,-3988.183594,4000.000000,4000.000000,Speed,Speed,-0.950000,0.970000,1.270000,3.000000,101.000000,1,0,-0.000000,0.000000,1,-0.053162,-0.007385,0.000000,55.090851,64.875168,0.000000,-0.028000,-0.020000,0.022000,FlatInitial,ResetBack,0
07:17:15.663 PM 02/17/2016,Teleop Enabled,0,FALSE,0,NO ERROR,4007.373047,-3996.386719,4000.000000,4000.000000,Speed,Speed,-0.950000,0.940000,1.260000,3.000000,101.000000,1,0,-0.000000,0.000000,1,-0.072540,-0.016586,0.000000,55.088196,64.874619,0.000000,0.004000,-0.041000,-0.045000,FlatInitial,ResetBack,0
07:17:15.763 PM 02/17/2016,Teleop Enabled,0,FALSE,0,NO ERROR,4011.767578,-4005.029297,4000.000000,4000.000000,Speed,Speed,-0.960000,0.950000,1.270000,3.000000,101.000000,1,0,-0.000000,0.000000,1,-0.009644,-0.027344,0.000000,55.086472,64.873230,0.000000,0.005000,0.032000,-0.065000,FlatInitial,ResetBack,0
07:17:15.865 PM 02/17/2016,Teleop Enabled,0,FALSE,0,NO ERROR,4014.404297,-4010.449219,4000.000000,4000.000000,Speed,Speed,-0.970000,0.920000,1.300000,3.000000,101.000000,1,0,-0.000000,0.000000,1,-0.020035,-0.018631,0.000000,55.085907,64.872284,0.000000,-0.042000,-0.063000,-0.046000,FlatInitial,ResetBack,0
07:17:15.965 PM 02/17/2016,Teleop Enabled,0,FALSE,0,NO ERROR,4012.792969,-4009.423828,4000.000000,4000.000000,Speed,Speed,-0.950000,0.890000,1.290000,3.000000,102.000000,1,0,-0.000000,0.000000,1,0.000000,0.016724,0.000000,55.084183,64.872238,0.000000,-0.003000,-0.051000,-0.063000,FlatInitial,ResetBack,0
07:17:16.067 PM 02/17/2016,Teleop Enabled,0,FALSE,0,NO ERROR,4011.621094,-4008.837891,4000.000000,4000.000000,Speed,Speed,-1.020000,0.930000,1.330000,3.000000,101.000000,1,0,-0.000000,0.000000,1,-0.006088,0.022247,0.000000,55.084091,64.873306,0.000000,-0.022000,0.028000,-0.016000,FlatInitial,ResetBack,0
07:17:16.168 PM 02/17/2016,Teleop Enabled,0,FALSE,0,NO ERROR,4013.378906,-4010.742187,4000.000000,4000.000000,Speed,Speed,-1.020000,0.930000,1.320000,3.000000,101.000000,1,0,-0.000000,0.000000,1,-0.021912,0.029343,0.000000,55.083069,64.874725,0.000000,0.008000,0.041000,-0.001000,FlatInitial,ResetBack,0
07:17:16.268 PM 02/17/2016,Teleop Enabled,0,FALSE,0,NO ERROR,4013.378906,-4010.742187,4000.000000,4000.000000,Speed,Speed,-1.030000,1.000000,1.240000,3.000000,101.000000,1,0,-0.000000,0.000000,1,-0.005432,0.024796,0.000000,55.082397,64.876434,0.000000,0.019000,-0.080000,-0.003000,FlatInitial,ResetBack,0
07:17:16.368 PM 02/17/2016,Teleop Enabled,0,FALSE,0,NO ERROR,4014.111328,-4019.238281,4000.000000,4000.000000,Speed,Speed,-1.080000,1.080000,1.120000,3.000000,138.000000,1,0,-0.000000,0.000000,1,-0.002136,0.003250,0.000000,55.082352,64.877197,0.000000,-0.038000,-0.082000,0.208000,FlatInitial,ResetBack,0
07:17:16.468 PM 02/17/2016,Teleop Enabled,0,FALSE,0,NO ERROR,4012.500000,-4015.283203,4000.000000,4000.000000,Speed,Speed,-1.020000,1.080000,1.130000,3.000000,102.000000,1,0,-0.000000,0.000000,1,0.027939,0.010986,0.000000,55.082764,64.877411,0.000000,0.001000,-0.019000,0.028000,FlatInitial,ResetBack,0
07:17:16.572 PM 02/17/2016,Teleop Enabled,0,FALSE,0,NO ERROR,4003.271484,-4002.099609,4000.000000,4000.000000,Speed,Speed,-0.990000,1.040000,1.440000,3.000000,102.000000,1,0,-0.000000,0.000000,1,0.013229,-0.003082,0.000000,55.083893,64.877533,0.000000,-0.060000,0.002000,-0.049000,FlatInitial,ResetBack,0
07:17:16.672 PM 02/17/2016,Teleop Enabled,0,FALSE,0,NO ERROR,3996.679687,-3996.826172,4000.000000,4000.000000,Speed,Speed,-0.980000,1.140000,1.210000,3.000000,102.000000,1,0,-0.000000,0.000000,1,0.045624,0.010925,0.000000,55.085159,64.877396,0.000000,0.004000,-0.025000,-0.024000,FlatInitial,ResetBack,0
07:17:16.773 PM 02/17/2016,Teleop Enabled,0,FALSE,0,NO ERROR,3988.476562,-4000.048828,4000.000000,4000.000000,Speed,Speed,-1.050000,1.140000,1.320000,3.000000,103.000000,1,0,-0.000000,0.000000,1,0.042465,0.012802,0.000000,55.087906,64.878403,0.000000,0.028000,-0.077000,0.003000,FlatInitial,ResetBack,0
07:17:16.873 PM 02/17/2016,Teleop Enabled,0,FALSE,0,NO ERROR,3988.330078,-4006.494141,4000.000000,4000.000000,Speed,Speed,-1.000000,1.140000,1.210000,3.000000,100.000000,1,0,-0.000000,0.000000,1,0.051376,0.000427,0.000000,55.089905,64.878387,0.000000,0.011000,0.085000,0.168000,FlatInitial,ResetBack,0
07:17:16.973 PM 02/17/2016,Teleop Enabled,0,FALSE,0,NO ERROR,3993.896484,-4009.423828,4000.000000,4000.000000,Speed,Speed,-1.010000,1.190000,1.260000,3.000000,102.000000,1,0,-0.000000,0.000000,1,0.080505,0.018997,0.000000,55.093338,64.879166,0.000000,-0.074000,-0.049000,-0.012000,FlatInitial,ResetBack,0
07:17:17.074 PM 02/17/2016,Teleop Enabled,0,FALSE,0,NO ERROR,3996.386719,-4007.666016,4000.000000,4000.000000,Speed,Speed,-1.020000,1.180000,1.290000,3.000000,101.000000,1,0,-0.000000,0.000000,1,0.073212,0.008347,0.000000,55.096985,64.879578,0.000000,0.018000,0.080000,-0.033000,FlatInitial,ResetBack,0
07:17:17.174 PM 02/17/2016,Teleop Enabled,0,FALSE,0,NO ERROR,4000.195312,-4008.251953,4000.000000,4000.000000,Speed,Speed,-1.000000,1.170000,1.320000,3.000000,101.000000,1,0,-0.000000,0.000000,1,-0.006165,0.035034,0.000000,55.099365,64.880905,0.000000,-0.028000,0.111000,-0.019000,FlatInitial,ResetBack,0
07:17:17.275 PM 02/17/2016,Teleop Enabled,0,FALSE,0,NO ERROR,4006.347656,-4007.666016,4000.000000,4000.000000,Speed,Speed,-1.020000,1.170000,1.310000,3.000000,102.000000,1,0,-0.000000,0.000000,1,0.000000,0.059753,0.000000,55.099045,64.883469,0.000000,-0.026000,0.000000,0.043000,FlatInitial,ResetBack,0
07:17:17.376 PM 02/17/2016,Teleop Enabled,0,FALSE,0,NO ERROR,4013.818359,-4007.226562,4000.000000,4000.000000,Speed,Speed,-1.020000,1.110000,1.250000,3.000000,101.000000,1,0,-0.000000,0.000000,1,-0.015518,0.000290,0.000000,55.098297,64.884064,0.000000,0.000000,-0.010000,-0.050000,FlatInitial,ResetBack,0
07:17:17.476 PM 02/17/2016,Teleop Enabled,0,FALSE,0,NO ERROR,4013.964844,-4005.908203,4000.000000,4000.000000,Speed,Speed,-1.010000,1.060000,1.300000,3.000000,103.000000,1,0,-0.000000,0.000000,1,-0.011414,0.004715,0.000000,55.097626,64.884354,0.000000,0.012000,0.049000,-0.063000,FlatInitial,ResetBack,0
07:17:17.576 PM 02/17/2016,Teleop Enabled,0,FALSE,0,NO ERROR,4014.990234,-4003.417969,4000.000000,4000.000000,Speed,Speed,-1.020000,1.020000,1.320000,3.000000,101.000000,1,0,-0.000000,0.000000,1,0.000000,0.000427,0.000000,55.097290,64.884369,0.000000,-0.020000,-0.061000,-0.090000,FlatInitial,ResetBack,0
07:17:17.677 PM 02/17/2016,Teleop Enabled,0,FALSE,0,NO ERROR,4010.888672,-4001.220703,4000.000000,4000.000000,Speed,Speed,-1.010000,0.980000,1.240000,3.000000,102.000000,1,0,-0.000000,0.000000,1,0.012527,-0.019363,0.000000,55.097610,64.883484,0.000000,0.025000,0.024000,-0.012000,FlatInitial,ResetBack,0
07:17:17.778 PM 02/17/2016,Teleop Enabled,0,FALSE,0,NO ERROR,4002.832031,-3998.583984,4000.000000,4000.000000,Speed,Speed,-1.010000,0.920000,1.220000,3.000000,101.000000,1,0,-0.000000,0.000000,1,0.003891,-0.028900,0.000000,55.097870,64.882523,0.000000,0.009000,0.058000,0.078000,FlatInitial,ResetBack,0
07:17:17.878 PM 02/17/2016,Teleop Enabled,0,FALSE,0,NO ERROR,3995.800781,-4002.392578,4000.000000,4000.000000,Speed,Speed,-1.010000,0.850000,1.220000,3.000000,101.000000,1,0,-0.000000,0.000000,1,-0.018829,0.006241,0.000000,55.097504,64.882095,0.000000,0.009000,0.022000,-0.007000,FlatInitial,ResetBack,0
07:17:17.978 PM 02/17/2016,Teleop Enabled,0,FALSE,0,NO ERROR,3992.431641,-4004.882812,4000.000000,4000.000000,Speed,Speed,-1.000000,0.780000,1.220000,3.000000,102.000000,1,0,-0.000000,0.000000,1,0.016174,0.010803,0.000000,55.097931,64.882339,0.000000,0.005000,-0.005000,-0.067000,FlatInitial,ResetBack,0
07:17:18.079 PM 02/17/2016,Teleop Enabled,0,FALSE,0,NO ERROR,3990.820312,-4001.806641,4000.000000,4000.000000,Speed,Speed,-0.980000,0.730000,1.280000,3.000000,102.000000,1,0,-0.000000,0.000000,1,0.002594,0.024704,0.000000,55.098114,64.883377,0.000000,-0.023000,-0.002000,0.023000,FlatInitial,ResetBack,0
07:17:18.180 PM 02/17/2016,Teleop Enabled,0,FALSE,0,NO ERROR,3994.628906,-3995.507812,4000.000000,4000.000000,Speed,Speed,-0.970000,0.740000,1.360000,3.000000,101.000000,1,0,-0.000000,0.000000,1,0.006363,0.000000,0.000000,55.098358,64.885040,0.000000,0.041000,0.007000,0.036000,FlatInitial,ResetBack,1
07:17:18.280 PM 02/17/2016,Teleop Enabled,0,FALSE,0,NO ERROR,4000.634766,-3994.189453,4000.000000,4000.000000,Speed,Speed,-0.960000,0.720000,1.450000,3.000000,101.000000,1,0,-0.000000,0.000000,1,-0.009460,-0.013931,0.000000,55.098343,64.884689,0.000000,0.030000,-0.015000,-0.060000,FlatInitial,ResetForward,1
07:17:18.382 PM 02/17/2016,Teleop Enabled,0,FALSE,0,NO ERROR,4006.494141,-3997.558594,4000.000000,4000.000000,Speed,Speed,-0.940000,0.730000,1.650000,3.000000,100.000000,1,0,-0.000000,0.000000,1,0.030792,0.001022,0.000000,55.099167,64.884415,0.000000,0.036000,0.009000,-0.018000,FlatInitial,ResetForward,1
07:17:18.482 PM 02/17/2016,Teleop Enabled,0,FALSE,0,NO ERROR,4011.035156,-4001.513672,4000.000000,4000.000000,Speed,Speed,-0.880000,0.740000,2.030000,3.000000,101.000000,1,0,-0.000000,0.000000,1,0.036392,0.000000,0.000000,55.100677,64.884750,0.000000,0.051000,0.013000,0.078000,FlatInitial,ResetForward,1
07:17:18.583 PM 02/17/2016,Teleop Enabled,0,FALSE,0,NO ERROR,4016.015625,-4004.882812,4000.000000,4000.000000,Speed,Speed,-0.820000,0.670000,1.640000,3.000000,106.000000,1,0,-0.000000,0.000000,1,0.044144,0.021088,0.000000,55.103531,64.885452,0.000000,0.067000,0.018000,0.055000,FlatInitial,ResetForward,1
07:17:18.683 PM 02/17/2016,Teleop Enabled,0,FALSE,0,NO ERROR,4013.818359,-4006.640625,4000.000000,4000.000000,Speed,Speed,-0.920000,0.720000,1.410000,3.000000,109.000000,1,0,-0.000000,0.000000,1,0.000000,-0.031387,0.000000,55.104568,64.884964,0.000000,0.067000,0.018000,0.055000,FlatInitial,ResetForward,1
07:17:18.785 PM 02/17/2016,Teleop Enabled,0,FALSE,0,NO ERROR,4006.347656,-4005.468750,4000.000000,4000.000000,Speed,Speed,-1.020000,0.580000,1.400000,3.000000,102.000000,1,0,-0.000000,0.000000,1,-0.017578,-0.023544,0.000000,55.104126,64.883698,0.000000,0.009000,-0.027000,0.045000,FlatInitial,ResetForward,1
07:17:18.885 PM 02/17/2016,Teleop Enabled,0,FALSE,0,NO ERROR,3999.169922,-4004.882812,4000.000000,4000.000000,Speed,Speed,-0.940000,0.550000,1.380000,3.000000,101.000000,1,0,-0.000000,0.000000,1,-0.024597,-0.006287,0.000000,55.102844,64.882858,0.000000,-0.014000,0.032000,0.015000,FlatInitial,ResetForward,0
07:17:18.986 PM 02/17/2016,Teleop Enabled,0,FALSE,0,NO ERROR,3992.138672,-4009.423828,4000.000000,4000.000000,Speed,Speed,-0.880000,0.510000,1.350000,3.000000,100.000000,1,0,-0.000000,0.000000,1,-0.024597,-0.006287,0.000000,55.102844,64.882858,0.000000,-0.014000,0.032000,0.015000,FlatInitial,Reset,0
07:17:19.086 PM 02/17/2016,Teleop Enabled,0,FALSE,0,NO ERROR,3988.623047,-4007.666016,4000.000000,4000.000000,Speed,Speed,-0.900000,0.490000,1.370000,3.000000,101.000000,1,0,-0.000000,0.000000,1,0.016418,0.015259,0.000000,55.104355,64.883438,0.000000,0.014000,0.010000,0.008000,FlatInitial,Hold,0
07:17:19.186 PM 02/17/2016,Teleop Enabled,0,FALSE,0,NO ERROR,3991.992187,-4003.857422,4000.000000,4000.000000,Speed,Speed,-0.960000,0.490000,1.410000,3.000000,101.000000,1,0,-0.000000,0.000000,1,0.016418,0.015259,0.000000,55.104355,64.883438,0.000000,0.016000,-0.042000,-0.022000,FlatInitial,Hold,0
07:17:19.286 PM 02/17/2016,Teleop Enabled,0,FALSE,0,NO ERROR,4000.488281,-4003.125000,4000.000000,4000.000000,Speed,Speed,-0.930000,0.440000,1.320000,3.000000,102.000000,1,0,-0.000000,0.000000,1,0.002762,0.016235,0.000000,55.105453,64.883987,0.000000,0.041000,0.061000,0.027000,FlatInitial,Hold,0
07:17:19.387 PM 02/17/2016,Teleop Enabled,0,FALSE,0,NO ERROR,4004.296875,-4003.857422,4000.000000,4000.000000,Speed,Speed,-0.930000,0.440000,1.320000,3.000000,102.000000,1,0,-0.000000,0.000000,1,0.047165,0.014465,0.000000,55.107819,64.884567,0.000000,0.037000,0.002000,0.039000,FlatInitial,Hold,0
07:17:19.487 PM 02/17/2016,Teleop Enabled,0,FALSE,0,NO ERROR,4007.666016,-4006.347656,4000.000000,4000.000000,Speed,Speed,-0.910000,0.500000,1.450000,3.000000,101.000000,1,0,-0.000000,0.000000,1,0.010117,0.054413,0.000000,55.109100,64.886444,0.000000,0.047000,-0.018000,-0.023000,FlatInitial,Hold,0
07:17:19.587 PM 02/17/2016,Teleop Enabled,0,FALSE,0,NO ERROR,4013.964844,-4007.666016,4000.000000,4000.000000,Speed,Speed,-0.910000,0.500000,1.450000,3.000000,103.000000,1,0,-0.000000,0.000000,1,0.010117,0.054413,0.000000,55.109100,64.886444,0.000000,0.019000,0.042000,0.020000,FlatInitial,Hold,0
07:17:19.688 PM 02/17/2016,Teleop Enabled,0,FALSE,0,NO ERROR,4014.550781,-4007.226562,4000.000000,4000.000000,Speed,Speed,-0.920000,0.530000,1.500000,3.000000,103.000000,1,0,-0.000000,0.000000,1,0.018356,0.068741,0.000000,55.110199,64.889938,0.000000,0.007000,0.030000,-0.015000,FlatInitial,Hold,0
07:17:19.789 PM 02/17/2016,Teleop Enabled,0,FALSE,0,NO ERROR,4006.787109,-4003.564453,4000.000000,4000.000000,Speed,Speed,-0.940000,0.550000,1.530000,3.000000,128.000000,1,0,-0.000000,0.000000,1,0.051041,0.000000,0.000000,55.112076,64.894211,0.000000,0.000000,0.017000,0.029000,FlatInitial,Hold,0
07:17:19.890 PM 02/17/2016,Teleop Enabled,0,FALSE,0,NO ERROR,3998.144531,-3999.609375,4000.000000,4000.000000,Speed,Speed,-0.940000,0.570000,1.550000,3.000000,103.000000,1,0,-0.000000,0.000000,1,0.058487,0.001526,0.000000,55.115097,64.894287,0.000000,-0.038000,0.014000,0.014000,FlatInitial,Hold,0
07:17:19.990 PM 02/17/2016,Teleop Enabled,0,FALSE,0,NO ERROR,3994.189453,-4001.220703,4000.000000,4000.000000,Speed,Speed,-0.930000,0.620000,1.560000,3.000000,100.000000,1,0,-0.000000,0.000000,1,0.103271,-0.015564,0.000000,55.119919,64.893936,0.000000,0.047000,-0.055000,-0.073000,FlatInitial,Hold,0
07:17:20.092 PM 02/17/2016,Teleop Enabled,0,FALSE,0,NO ERROR,3993.603516,-4001.367187,4000.000000,4000.000000,Speed,Speed,-0.920000,0.680000,1.560000,3.000000,102.000000,1,0,-0.000000,0.000000,1,0.000000,-0.021835,0.000000,55.121902,64.893097,0.000000,0.056000,0.039000,0.029000,FlatInitial,Hold,0
07:17:20.193 PM 02/17/2016,Teleop Enabled,0,FALSE,0,NO ERROR,3995.654297,-4002.539062,4000.000000,4000.000000,Speed,Speed,-0.930000,0.750000,1.560000,3.000000,103.000000,1,0,-0.000000,0.000000,1,0.018600,-0.020172,0.000000,55.122543,64.892487,0.000000,0.021000,-0.002000,0.059000,FlatInitial,Hold,0
07:17:20.297 PM 02/17/2016,Teleop Enabled,0,FALSE,0,NO ERROR,3999.462891,-4004.443359,4000.000000,4000.000000,Speed,Speed,-0.940000,0.850000,1.660000,3.000000,102.000000,1,0,-0.000000,0.000000,1,0.046188,0.023178,0.000000,55.125992,64.892212,0.000000,0.039000,0.063000,-0.032000,FlatInitial,Hold,0
07:17:20.400 PM 02/17/2016,Teleop Enabled,0,FALSE,0,NO ERROR,4003.857422,-4006.054687,4000.000000,4000.000000,Speed,Speed,-0.940000,0.850000,1.660000,3.000000,101.000000,1,0,-0.000000,0.000000,1,0.046188,0.023178,0.000000,55.125992,64.892212,0.000000,-0.018000,0.000000,-0.054000,FlatInitial,Hold,0
07:17:20.499 PM 02/17/2016,Teleop Enabled,0,FALSE,0,NO ERROR,4008.984375,-4007.812500,4000.000000,4000.000000,Speed,Speed,-0.940000,0.930000,1.650000,3.000000,101.000000,1,0,-0.000000,0.000000,1,0.037415,0.014938,0.000000,55.128723,64.893982,0.000000,-0.031000,0.031000,0.036000,FlatInitial,Hold,0
07:17:20.600 PM 02/17/2016,Teleop Enabled,0,FALSE,0,NO ERROR,4011.181641,-4006.201172,4000.000000,4000.000000,Speed,Speed,-0.940000,0.930000,1.650000,3.000000,106.000000,1,0,-0.000000,0.000000,1,0.037415,0.014938,0.000000,55.128723,64.893982,0.000000,-0.067000,-0.015000,0.054000,FlatInitial,Hold,0
07:17:20.700 PM 02/17/2016,Teleop Enabled,0,FALSE,0,NO ERROR,4008.691406,-4003.125000,4000.000000,4000.000000,Speed,Speed,-0.950000,0.970000,1.610000,3.000000,101.000000,1,0,-0.000000,0.000000,1,0.049835,-0.001419,0.000000,55.132416,64.893524,0.000000,0.009000,0.041000,-0.091000,FlatInitial,Hold,0
07:17:20.801 PM 02/17/2016,Teleop Enabled,0,FALSE,0,NO ERROR,4006.054687,-3992.138672,4000.000000,4000.000000,Speed,Speed,-0.950000,1.020000,1.620000,3.000000,100.000000,1,0,-0.000000,0.000000,1,0.049835,-0.001419,0.000000,55.132416,64.893524,0.000000,0.009000,0.041000,-0.091000,FlatInitial,Hold,0
07:17:20.903 PM 02/17/2016,Teleop Enabled,0,FALSE,0,NO ERROR,4005.175781,-3984.667969,4000.000000,4000.000000,Speed,Speed,-0.950000,1.020000,1.620000,3.000000,101.000000,1,0,-0.000000,0.000000,1,0.060287,-0.002594,0.000000,55.136078,64.892792,0.000000,0.016000,0.083000,0.038000,FlatInitial,Hold,0
07:17:21.004 PM 02/17/2016,Teleop Enabled,0,FALSE,0,NO ERROR,4002.099609,-3988.916016,4000.000000,4000.000000,Speed,Speed,-0.950000,1.070000,1.680000,3.000000,102.000000,1,0,-0.000000,0.000000,1,0.075424,-0.000381,0.000000,55.139603,64.892654,0.000000,-0.024000,0.076000,0.146000,FlatInitial,Hold,0
07:17:21.103 PM 02/17/2016,Teleop Enabled,0,FALSE,0,NO ERROR,4000.488281,-3993.896484,4000.000000,4000.000000,Speed,Speed,-0.960000,1.160000,1.710000,3.000000,100.000000,1,0,-0.000000,0.000000,1,0.000992,-0.000702,0.000000,55.141785,64.893356,0.000000,0.006000,0.014000,0.118000,FlatInitial,Hold,0
07:17:21.203 PM 02/17/2016,Teleop Enabled,0,FALSE,0,NO ERROR,3999.755859,-3995.507812,4000.000000,4000.000000,Speed,Speed,-0.960000,1.160000,1.710000,3.000000,101.000000,1,0,-0.000000,0.000000,1,0.005280,-0.010635,0.000000,55.141876,64.892975,0.000000,0.037000,0.008000,-0.018000,FlatInitial,Hold,0
07:17:21.303 PM 02/17/2016,Teleop Enabled,0,FALSE,0,NO ERROR,3999.316406,-3995.507812,4000.000000,4000.000000,Speed,Speed,-0.960000,1.200000,1.650000,3.000000,101.000000,1,0,-0.000000,0.000000,1,0.026703,0.004135,0.000000,55.142776,64.893158,0.000000,-0.013000,-0.010000,-0.018000,FlatInitial,Hold,0
07:17:21.404 PM 02/17/2016,Teleop Enabled,0,FALSE,0,NO ERROR,3999.462891,-4000.634766,4000.000000,4000.000000,Speed,Speed,-0.960000,1.260000,1.530000,3.000000,101.000000,1,0,-0.000000,0.000000,1,0.000000,-0.013199,0.000000,55.143555,64.892410,0.000000,0.013000,0.036000,0.094000,FlatInitial,Hold,0
07:17:21.504 PM 02/17/2016,Teleop Enabled,0,FALSE,0,NO ERROR,4000.927734,-4010.302734,4000.000000,4000.000000,Speed,Speed,-0.960000,1.260000,1.530000,3.000000,102.000000,1,0,-0.000000,0.000000,1,0.000000,-0.013199,0.000000,55.143555,64.892410,0.000000,0.013000,0.036000,0.094000,FlatInitial,Hold,0
07:17:21.604 PM 02/17/2016,Teleop Enabled,0,FALSE,0,NO ERROR,4002.832031,-4013.671875,4000.000000,4000.000000,Speed,Speed,-0.960000,1.270000,1.500000,3.000000,102.000000,1,0,-0.000000,0.000000,1,0.013504,-0.032562,0.000000,55.143860,64.891037,0.000000,-0.022000,-0.001000,-0.014000,FlatInitial,Hold,0
07:17:21.704 PM 02/17/2016,Teleop Enabled,0,FALSE,0,NO ERROR,4002.392578,-4013.671875,4000.000000,4000.000000,Speed,Speed,-0.960000,1.350000,1.560000,3.000000,103.000000,1,0,-0.000000,0.000000,1,0.011902,-0.026810,0.000000,55.144623,64.888519,0.000000,0.004000,-0.079000,-0.017000,FlatInitial,Hold,0
07:17:21.809 PM 02/17/2016,Teleop Enabled,0,FALSE,0,NO ERROR,4001.953125,-4009.570312,4000.000000,4000.000000,Speed,Speed,-0.970000,1.370000,1.600000,3.000000,102.000000,1,0,-0.000000,0.000000,1,0.016113,-0.012711,0.000000,55.145050,64.888031,0.000000,-0.012000,0.019000,-0.094000,FlatInitial,Hold,0
07:17:21.909 PM 02/17/2016,Teleop Enabled,0,FALSE,0,NO ERROR,3998.730469,-4006.347656,4000.000000,4000.000000,Speed,Speed,-0.970000,1.400000,1.610000,3.000000,101.000000,1,0,-0.000000,0.000000,1,0.036514,-0.005768,0.000000,55.146576,64.887344,0.000000,-0.112000,0.025000,0.073000,FlatInitial,Hold,0
07:17:22.009 PM 02/17/2016,Teleop Enabled,0,FALSE,0,NO ERROR,3998.730469,-4010.302734,4000.000000,4000.000000,Speed,Speed,-0.970000,1.420000,1.660000,3.000000,101.000000,1,0,-0.000000,0.000000,1,0.027924,0.001404,0.000000,55.147522,64.887512,0.000000,-0.034000,0.010000,0.069000,FlatInitial,Hold,0
07:17:22.109 PM 02/17/2016,Teleop Enabled,0,FALSE,0,NO ERROR,3995.361328,-4014.550781,4000.000000,4000.000000,Speed,Speed,-0.970000,1.430000,1.620000,3.000000,103.000000,1,0,-0.000000,0.000000,1,0.046936,-0.038986,0.000000,55.149429,64.886063,0.000000,0.072000,0.098000,0.052000,FlatInitial,Hold,0
07:17:22.209 PM 02/17/2016,Teleop Enabled,0,FALSE,0,NO ERROR,3995.361328,-4013.818359,4000.000000,4000.000000,Speed,Speed,-0.980000,1.400000,1.610000,3.000000,101.000000,1,0,-0.000000,0.000000,1,0.079056,-0.031937,0.000000,55.153320,64.884018,0.000000,-0.072000,-0.024000,-0.054000,FlatInitial,Hold,0
07:17:22.310 PM 02/17/2016,Teleop Enabled,0,FALSE,0,NO ERROR,3997.412109,-4009.130859,4000.000000,4000.000000,Speed,Speed,-0.980000,1.350000,1.550000,3.000000,100.000000,1,0,-0.000000,0.000000,1,0.040161,-0.050995,0.000000,55.156082,64.881897,0.000000,-0.014000,-0.088000,-0.117000,FlatInitial,Hold,0
07:17:22.410 PM 02/17/2016,Teleop Enabled,0,FALSE,0,NO ERROR,4000.634766,-4005.615234,4000.000000,4000.000000,Speed,Speed,-0.970000,1.280000,1.390000,3.000000,106.000000,1,0,-0.000000,0.000000,1,-0.006195,-0.094543,0.000000,55.156006,64.878357,0.000000,0.005000,0.073000,-0.010000,FlatInitial,Hold,0
07:17:22.510 PM 02/17/2016,Teleop Enabled,0,FALSE,0,NO ERROR,4006.347656,-4005.908203,4000.000000,4000.000000,Speed,Speed,-0.960000,1.200000,1.300000,3.000000,106.000000,1,0,-0.000000,0.000000,1,-0.030060,-0.096191,0.000000,55.154846,64.873474,0.000000,-0.069000,-0.031000,-0.010000,FlatInitial,Hold,0
07:17:22.610 PM 02/17/2016,Teleop Enabled,0,FALSE,0,NO ERROR,4009.863281,-4009.423828,4000.000000,4000.000000,Speed,Speed,-0.970000,1.140000,1.280000,3.000000,101.000000,1,0,-0.000000,0.000000,1,-0.069885,-0.117172,0.000000,55.151978,64.867706,0.000000,-0.025000,0.033000,-0.011000,FlatInitial,Hold,0
07:17:22.711 PM 02/17/2016,Teleop Enabled,0,FALSE,0,NO ERROR,4009.570312,-4008.837891,4000.000000,4000.000000,Speed,Speed,-0.980000,1.110000,1.310000,3.000000,102.000000,1,0,-0.000000,0.000000,1,-0.061661,-0.123505,0.000000,55.148560,64.861755,0.000000,0.051000,0.006000,0.016000,FlatInitial,Hold,0
07:17:22.811 PM 02/17/2016,Teleop Enabled,0,FALSE,0,NO ERROR,4005.322266,-4001.806641,4000.000000,4000.000000,Speed,Speed,-0.970000,1.080000,1.320000,3.000000,103.000000,1,0,-0.000000,0.000000,1,-0.083847,-0.122726,0.000000,55.145706,64.856995,0.000000,0.048000,-0.030000,-0.011000,FlatInitial,Hold,0
07:17:22.911 PM 02/17/2016,Teleop Enabled,0,FALSE,0,NO ERROR,4002.246094,-3998.583984,4000.000000,4000.000000,Speed,Speed,-0.960000,1.070000,1.290000,3.000000,102.000000,1,0,-0.000000,0.000000,1,-0.109528,-0.133499,0.000000,55.140793,64.850449,0.000000,-0.042000,-0.075000,0.000000,FlatInitial,Hold,0
07:17:23.012 PM 02/17/2016,Teleop Enabled,0,FALSE,0,NO ERROR,4000.341797,-3997.119141,4000.000000,4000.000000,Speed,Speed,-0.960000,1.020000,1.220000,3.000000,103.000000,1,0,-0.000000,0.000000,1,-0.153870,-0.177521,0.000000,55.134262,64.842987,0.000000,-0.072000,-0.069000,0.090000,FlatInitial,Hold,0
07:17:23.113 PM 02/17/2016,Teleop Enabled,0,FALSE,0,NO ERROR,3993.896484,-4001.660156,4000.000000,4000.000000,Speed,Speed,-0.960000,0.980000,1.090000,3.000000,102.000000,1,0,-0.000000,0.000000,1,-0.186066,-0.204468,0.000000,55.125641,64.832962,0.000000,-0.014000,0.001000,0.041000,FlatInitial,Hold,0
07:17:23.213 PM 02/17/2016,Teleop Enabled,0,FALSE,0,NO ERROR,3993.457031,-4010.009766,4000.000000,4000.000000,Speed,Speed,-0.960000,0.960000,1.020000,3.000000,100.000000,1,0,-0.000000,0.000000,1,-0.015610,-0.015472,0.000000,55.121613,64.832718,0.000000,-0.040000,0.023000,0.045000,FlatInitial,Hold,0
07:17:23.313 PM 02/17/2016,Teleop Enabled,0,FALSE,0,NO ERROR,3994.189453,-4006.347656,4000.000000,4000.000000,Speed,Speed,-0.960000,0.940000,1.110000,3.000000,102.000000,1,0,-0.000000,0.000000,1,0.000000,0.002838,0.000000,55.121429,64.832352,0.000000,-0.018000,0.063000,0.029000,FlatInitial,Hold,0
07:17:23.413 PM 02/17/2016,Teleop Enabled,0,FALSE,0,NO ERROR,3992.871094,-4000.195312,4000.000000,4000.000000,Speed,Speed,-0.920000,0.950000,1.480000,3.000000,101.000000,1,0,-0.000000,0.000000,1,-0.006210,0.039841,0.000000,55.121353,64.833206,0.000000,0.066000,0.023000,0.000000,FlatInitial,Hold,0
07:17:23.515 PM 02/17/2016,Teleop Enabled,0,FALSE,0,NO ERROR,3993.750000,-3990.820312,4000.000000,4000.000000,Speed,Speed,-0.830000,1.000000,1.760000,3.000000,100.000000,1,0,-0.000000,0.000000,1,-0.012161,0.026291,0.000000,55.120972,64.835449,0.000000,-0.033000,0.003000,0.160000,FlatInitial,Hold,0
07:17:23.615 PM 02/17/2016,Teleop Enabled,0,FALSE,0,NO ERROR,3995.507812,-3986.718750,4000.000000,4000.000000,Speed,Speed,-0.790000,1.020000,0.850000,3.000000,100.000000,1,0,-0.000000,0.000000,1,-0.041809,0.050171,0.000000,55.119781,64.837158,0.000000,-0.096000,-0.026000,-0.149000,FlatInitial,Hold,0
07:17:23.715 PM 02/17/2016,Teleop Enabled,0,FALSE,0,NO ERROR,3998.437500,-3989.941406,4000.000000,4000.000000,Speed,Speed,-1.000000,1.060000,1.020000,3.000000,101.000000,1,0,-0.000000,0.000000,1,-0.036102,0.027710,0.000000,55.117737,64.839035,0.000000,-0.022000,-0.053000,0.007000,FlatInitial,Hold,0
07:17:23.815 PM 02/17/2016,Teleop Enabled,0,FALSE,0,NO ERROR,4001.513672,-3989.941406,4000.000000,4000.000000,Speed,Speed,-1.010000,1.020000,0.760000,3.000000,102.000000,1,0,-0.000000,0.000000,1,0.003265,0.009979,0.000000,55.115448,64.839706,0.000000,0.034000,0.071000,-0.082000,FlatInitial,Hold,0
07:17:23.915 PM 02/17/2016,Teleop Enabled,0,FALSE,0,NO ERROR,4003.271484,-3989.941406,4000.000000,4000.000000,Speed,Speed,-0.970000,1.020000,0.650000,3.000000,101.000000,1,0,-0.000000,0.000000,1,0.018372,0.050400,0.000000,55.116196,64.841797,0.000000,0.026000,0.033000,0.048000,FlatInitial,Hold,0
07:17:24.015 PM 02/17/2016,Teleop Enabled,0,FALSE,0,NO ERROR,4001.806641,-3988.623047,4000.000000,4000.000000,Speed,Speed,-1.010000,1.100000,0.900000,3.000000,103.000000,1,0,-0.000000,0.000000,1,0.025070,0.053299,0.000000,55.116684,64.842819,0.000000,0.032000,0.044000,-0.016000,FlatInitial,Hold,0
07:17:24.116 PM 02/17/2016,Teleop Enabled,0,FALSE,0,NO ERROR,4001.513672,-3994.775391,4000.000000,4000.000000,Speed,Speed,-0.980000,1.080000,0.870000,3.000000,112.000000,1,0,-0.000000,0.000000,1,0.013504,0.067337,0.000000,55.116898,64.846710,0.000000,-0.085000,-0.061000,0.065000,FlatInitial,Hold,0
07:17:24.216 PM 02/17/2016,Teleop Enabled,0,FALSE,0,NO ERROR,3997.705078,-3990.087891,4000.000000,4000.000000,Speed,Speed,-1.030000,1.110000,0.600000,3.000000,101.000000,1,0,-0.000000,0.000000,1,0.013077,0.091263,0.000000,55.117828,64.851944,0.000000,0.025000,-0.009000,-0.185000,FlatInitial,Hold,0
07:17:24.316 PM 02/17/2016,Teleop Enabled,0,FALSE,0,NO ERROR,3983.935547,-3971.191406,4000.000000,4000.000000,Speed,Speed,-1.040000,1.080000,1.080000,3.000000,101.000000,1,0,-0.000000,0.000000,1,0.000107,0.102005,0.000000,55.117950,64.853943,0.000000,-0.030000,-0.119000,0.006000,FlatInitial,Hold,0
07:17:24.416 PM 02/17/2016,Teleop Enabled,0,FALSE,0,NO ERROR,3988.623047,-3994.335937,4000.000000,4000.000000,Speed,Speed,-0.950000,0.950000,1.070000,3.000000,101.000000,1,0,-0.000000,0.000000,1,-0.018051,0.026276,0.000000,55.117264,64.857452,0.000000,0.033000,0.041000,-0.048000,FlatInitial,Hold,0
07:17:24.516 PM 02/17/2016,Teleop Enabled,0,FALSE,0,NO ERROR,4000.488281,-4009.716797,4000.000000,4000.000000,Speed,Speed,-1.040000,1.060000,0.280000,3.000000,100.000000,1,0,-0.000000,0.000000,1,-0.016235,0.028427,0.000000,55.116608,64.858521,0.000000,-0.042000,-0.017000,0.017000,FlatInitial,Hold,0
07:17:24.616 PM 02/17/2016,Teleop Enabled,0,FALSE,0,NO ERROR,4007.666016,-4014.843750,4000.000000,4000.000000,Speed,Speed,-1.120000,0.860000,1.000000,3.000000,102.000000,1,0,-0.000000,0.000000,1,-0.077515,0.032730,0.000000,55.113266,64.860382,0.000000,-0.057000,0.039000,0.084000,FlatInitial,Hold,0
07:17:24.717 PM 02/17/2016,Teleop Enabled,0,FALSE,0,NO ERROR,4014.257812,-4017.626953,4000.000000,4000.000000,Speed,Speed,-1.030000,0.860000,0.680000,3.000000,101.000000,1,0,-0.000000,0.000000,1,-0.086075,0.029617,0.000000,55.109970,64.861465,0.000000,0.005000,-0.044000,-0.033000,FlatInitial,Hold,0
07:17:24.817 PM 02/17/2016,Teleop Enabled,0,FALSE,0,NO ERROR,4014.697266,-4019.238281,4000.000000,4000.000000,Speed,Speed,-1.080000,0.880000,0.710000,3.000000,102.000000,1,0,-0.000000,0.000000,1,-0.005463,0.000000,0.000000,55.106247,64.863159,0.000000,-0.056000,0.015000,0.055000,FlatInitial,Hold,0
07:17:24.918 PM 02/17/2016,Teleop Enabled,0,FALSE,0,NO ERROR,4010.595703,-4012.500000,4000.000000,4000.000000,Speed,Speed,-1.120000,0.830000,0.880000,3.000000,101.000000,1,0,-0.000000,0.000000,1,-0.038452,-0.012436,0.000000,55.104767,64.863174,0.000000,-0.046000,0.026000,0.149000,FlatInitial,Hold,0
07:17:25.019 PM 02/17/2016,Teleop Enabled,0,FALSE,0,NO ERROR,4005.468750,-4012.646484,4000.000000,4000.000000,Speed,Speed,-1.070000,0.850000,0.710000,3.000000,101.000000,1,0,-0.000000,0.000000,1,-0.046112,-0.009644,0.000000,55.103195,64.862762,0.000000,-0.001000,-0.046000,-0.060000,FlatInitial,Hold,0
07:17:25.120 PM 02/17/2016,Teleop Enabled,0,FALSE,0,NO ERROR,4002.392578,-4009.277344,4000.000000,4000.000000,Speed,Speed,-1.080000,0.930000,0.850000,3.000000,104.000000,1,0,-0.000000,0.000000,1,-0.048706,-0.011841,0.000000,55.100510,64.861923,0.000000,0.013000,0.025000,0.026000,FlatInitial,Hold,0
07:17:25.221 PM 02/17/2016,Teleop Enabled,0,FALSE,0,NO ERROR,4000.195312,-4011.474609,4000.000000,4000.000000,Speed,Speed,-1.090000,0.950000,0.900000,3.000000,103.000000,1,0,-0.000000,0.000000,1,-0.003342,0.000076,0.000000,55.100479,64.861740,0.000000,0.011000,0.014000,-0.047000,FlatInitial,Hold,0
07:17:25.321 PM 02/17/2016,Teleop Enabled,0,FALSE,0,NO ERROR,4000.927734,-4009.423828,4000.000000,4000.000000,Speed,Speed,-1.070000,0.990000,0.900000,3.000000,101.000000,1,0,-0.000000,0.000000,1,-0.066040,0.030151,0.000000,55.097672,64.862595,0.000000,0.052000,-0.012000,-0.096000,FlatInitial,Hold,0
07:17:25.422 PM 02/17/2016,Teleop Enabled,0,FALSE,0,NO ERROR,3999.902344,-4003.417969,4000.000000,4000.000000,Speed,Speed,-1.100000,1.040000,0.920000,3.000000,102.000000,1,0,-0.000000,0.000000,1,-0.057037,0.038269,0.000000,55.095230,64.864182,0.000000,-0.019000,-0.050000,-0.043000,FlatInitial,Hold,0
07:17:25.522 PM 02/17/2016,Teleop Enabled,0,FALSE,0,NO ERROR,3998.291016,-4005.761719,4000.000000,4000.000000,Speed,Speed,-1.090000,1.080000,0.860000,3.000000,102.000000,1,0,-0.000000,0.000000,1,-0.062347,-0.002319,0.000000,55.091965,64.865707,0.000000,0.011000,-0.030000,0.044000,FlatInitial,Hold,0
07:17:25.623 PM 02/17/2016,Teleop Enabled,0,FALSE,0,NO ERROR,3997.705078,-4005.761719,4000.000000,4000.000000,Speed,Speed,-1.090000,1.130000,0.900000,3.000000,100.000000,1,0,-0.000000,0.000000,1,-0.002075,0.000000,0.000000,55.089508,64.865067,0.000000,0.035000,0.003000,0.076000,FlatInitial,Hold,0
07:17:25.724 PM 02/17/2016,Teleop Enabled,0,FALSE,0,NO ERROR,3999.462891,-4005.615234,4000.000000,4000.000000,Speed,Speed,-1.110000,1.140000,0.880000,3.000000,101.000000,1,0,-0.000000,0.000000,1,0.007156,0.000000,0.000000,55.089737,64.865067,0.000000,-0.008000,-0.096000,-0.013000,FlatInitial,Hold,0
07:17:25.824 PM 02/17/2016,Teleop Enabled,0,FALSE,0,NO ERROR,4001.806641,-4004.443359,4000.000000,4000.000000,Speed,Speed,-1.110000,1.170000,0.730000,3.000000,104.000000,1,0,-0.000000,0.000000,1,-0.037872,-0.033859,0.000000,55.088730,64.864090,0.000000,-0.038000,-0.038000,0.007000,FlatInitial,Hold,0
07:17:25.924 PM 02/17/2016,Teleop Enabled,0,FALSE,0,NO ERROR,4003.710937,-4001.660156,4000.000000,4000.000000,Speed,Speed,-1.100000,1.140000,0.570000,3.000000,101.000000,1,0,-0.000000,0.000000,1,0.000000,-0.063416,0.000000,55.086670,64.861069,0.000000,0.002000,0.023000,-0.082000,FlatInitial,Hold,0
07:17:26.024 PM 02/17/2016,Teleop Enabled,0,FALSE,0,NO ERROR,4004.150391,-3999.609375,4000.000000,4000.000000,Speed,Speed,-1.110000,1.110000,0.590000,3.000000,101.000000,1,0,-0.000000,0.000000,1,-0.012070,-0.060196,0.000000,55.086182,64.857819,0.000000,-0.017000,-0.126000,0.005000,FlatInitial,Hold,0
07:17:26.124 PM 02/17/2016,Teleop Enabled,0,FALSE,0,NO ERROR,3999.902344,-4001.074219,4000.000000,4000.000000,Speed,Speed,-1.110000,1.110000,0.550000,3.000000,102.000000,1,0,-0.000000,0.000000,1,-0.022827,-0.109116,0.000000,55.085007,64.852829,0.000000,-0.026000,-0.010000,0.098000,FlatInitial,Hold,0
07:17:26.224 PM 02/17/2016,Teleop Enabled,0,FALSE,0,NO ERROR,3995.947266,-4003.271484,4000.000000,4000.000000,Speed,Speed,-1.110000,1.100000,0.460000,3.000000,102.000000,1,0,-0.000000,0.000000,1,0.004318,0.002197,0.000000,55.084869,64.852798,0.000000,-0.046000,-0.056000,-0.095000,FlatInitial,Hold,0
07:17:26.325 PM 02/17/2016,Teleop Enabled,0,FALSE,0,NO ERROR,3995.361328,-4005.175781,4000.000000,4000.000000,Speed,Speed,-1.110000,1.100000,0.330000,3.000000,101.000000,1,0,-0.000000,0.000000,1,-0.042480,-0.026001,0.000000,55.083954,64.852097,0.000000,0.032000,-0.010000,-0.080000,FlatInitial,Hold,0
07:17:26.425 PM 02/17/2016,Teleop Enabled,0,FALSE,0,NO ERROR,3994.775391,-4003.710937,4000.000000,4000.000000,Speed,Speed,-1.110000,1.100000,0.240000,3.000000,101.000000,1,0,-0.000000,0.000000,1,0.003143,-0.022324,0.000000,55.084427,64.851028,0.000000,0.007000,-0.011000,-0.020000,FlatInitial,Hold,0
07:17:26.526 PM 02/17/2016,Teleop Enabled,0,FALSE,0,NO ERROR,3995.361328,-3997.998047,4000.000000,4000.000000,Speed,Speed,-1.120000,1.060000,0.140000,3.000000,102.000000,1,0,-0.000000,0.000000,1,-0.017609,-0.006271,0.000000,55.083740,64.850342,0.000000,0.129000,-0.063000,-0.051000,FlatInitial,Hold,0
07:17:26.626 PM 02/17/2016,Teleop Enabled,0,FALSE,0,NO ERROR,3996.093750,-3995.068359,4000.000000,4000.000000,Speed,Speed,-1.120000,1.070000,0.050000,3.000000,101.000000,1,0,-0.000000,0.000000,1,-0.001694,-0.031250,0.000000,55.083450,64.848602,0.000000,0.129000,-0.063000,-0.051000,FlatInitial,Hold,0
07:17:26.726 PM 02/17/2016,Teleop Enabled,0,FALSE,0,NO ERROR,3999.169922,-3993.457031,4000.000000,4000.000000,Speed,Speed,-1.120000,1.070000,0.050000,3.000000,101.000000,1,0,-0.000000,0.000000,1,-0.005249,-0.037430,0.000000,55.083191,64.846939,0.000000,-0.002000,-0.042000,-0.086000,FlatInitial,Hold,0
07:17:26.826 PM 02/17/2016,Teleop Enabled,0,FALSE,0,NO ERROR,4001.220703,-3993.457031,4000.000000,4000.000000,Speed,Speed,-1.120000,1.110000,0.010000,3.000000,103.000000,1,0,-0.000000,0.000000,1,-0.005249,-0.037430,0.000000,55.083191,64.846939,0.000000,0.017000,-0.019000,-0.072000,FlatInitial,Hold,0
07:17:26.926 PM 02/17/2016,Teleop Enabled,0,FALSE,0,NO ERROR,4002.392578,-3995.507812,4000.000000,4000.000000,Speed,Speed,-1.120000,1.080000,-0.040000,3.000000,100.000000,1,0,-0.000000,0.000000,1,-0.018661,-0.056808,0.000000,55.081497,64.842438,0.000000,0.073000,-0.066000,-0.032000,FlatInitial,Hold,0
07:17:27.027 PM 02/17/2016,Teleop Enabled,0,FALSE,0,NO ERROR,4005.029297,-3996.240234,4000.000000,4000.000000,Speed,Speed,-1.130000,1.070000,-0.080000,3.000000,100.000000,1,0,-0.000000,0.000000,1,-0.018661,-0.056808,0.000000,55.081497,64.842438,0.000000,0.073000,-0.066000,-0.032000,FlatInitial,Hold,0
07:17:27.127 PM 02/17/2016,Teleop Enabled,0,FALSE,0,NO ERROR,4003.710937,-3995.214844,4000.000000,4000.000000,Speed,Speed,-1.110000,1.090000,-0.070000,3.000000,102.000000,1,0,-0.000000,0.000000,1,0.002808,-0.060410,0.000000,55.080658,64.836090,0.000000,0.035000,0.015000,0.013000,FlatInitial,Hold,0
07:17:27.228 PM 02/17/2016,Teleop Enabled,0,FALSE,0,NO ERROR,4002.685547,-4000.048828,4000.000000,4000.000000,Speed,Speed,-1.110000,1.130000,-0.040000,3.000000,104.000000,1,0,-0.000000,0.000000,1,-0.022125,-0.068481,0.000000,55.080582,64.832977,0.000000,0.074000,0.020000,0.055000,FlatInitial,Hold,0
07:17:27.328 PM 02/17/2016,Teleop Enabled,0,FALSE,0,NO ERROR,4000.781250,-4007.226562,4000.000000,4000.000000,Speed,Speed,-1.110000,1.150000,0.010000,3.000000,106.000000,1,0,-0.000000,0.000000,1,0.000000,-0.053818,0.000000,55.079361,64.830154,0.000000,0.000000,0.082000,0.009000,FlatInitial,Hold,0
07:17:27.430 PM 02/17/2016,Teleop Enabled,0,FALSE,0,NO ERROR,4000.927734,-4009.277344,4000.000000,4000.000000,Speed,Speed,-1.110000,1.160000,0.030000,3.000000,108.000000,1,0,-0.000000,0.000000,1,-0.006180,-0.040329,0.000000,55.079453,64.827469,0.000000,0.005000,0.016000,0.018000,FlatInitial,Hold,0
07:17:27.530 PM 02/17/2016,Teleop Enabled,0,FALSE,0,NO ERROR,4001.660156,-4012.207031,4000.000000,4000.000000,Speed,Speed,-1.120000,1.100000,-0.040000,3.000000,101.000000,1,0,-0.000000,0.000000,1,-0.006851,-0.095856,0.000000,55.078995,64.823288,0.000000,0.005000,0.016000,0.018000,FlatInitial,Hold,0
07:17:27.631 PM 02/17/2016,Teleop Enabled,0,FALSE,0,NO ERROR,4001.806641,-4006.494141,4000.000000,4000.000000,Speed,Speed,-1.110000,1.150000,-0.080000,3.000000,101.000000,1,0,-0.000000,0.000000,1,-0.017303,-0.096497,0.000000,55.078827,64.819519,0.000000,0.079000,-0.061000,0.055000,FlatInitial,Hold,0
07:17:27.731 PM 02/17/2016,Teleop Enabled,0,FALSE,0,NO ERROR,4002.978516,-4007.958984,4000.000000,4000.000000,Speed,Speed,-1.120000,1.090000,-0.150000,3.000000,100.000000,1,0,-0.000000,0.000000,1,-0.036392,-0.124512,0.000000,55.077820,64.814835,0.000000,0.032000,0.070000,0.056000,FlatInitial,Hold,0
07:17:27.834 PM 02/17/2016,Teleop Enabled,0,FALSE,0,NO ERROR,4002.539062,-4010.009766,4000.000000,4000.000000,Speed,Speed,-1.110000,1.070000,-0.240000,3.000000,101.000000,1,0,-0.000000,0.000000,1,-0.073013,-0.133865,0.000000,55.074448,64.806961,0.000000,-0.026000,0.065000,-0.005000,FlatInitial,Hold,0
07:17:27.934 PM 02/17/2016,Teleop Enabled,0,FALSE,0,NO ERROR,4000.781250,-4008.984375,4000.000000,4000.000000,Speed,Speed,-1.120000,1.010000,-0.150000,3.000000,101.000000,1,0,-0.000000,0.000000,1,-0.014984,-0.117126,0.000000,55.071899,64.799667,0.000000,-0.026000,0.065000,-0.005000,FlatInitial,Hold,0
07:17:28.034 PM 02/17/2016,Teleop Enabled,0,FALSE,0,NO ERROR,3999.462891,-4008.984375,4000.000000,4000.000000,Speed,Speed,-1.120000,0.980000,-0.080000,3.000000,110.000000,1,0,-0.000000,0.000000,1,-0.048965,-0.138535,0.000000,55.070435,64.793472,0.000000,0.030000,0.023000,0.043000,FlatInitial,Hold,0
07:17:28.134 PM 02/17/2016,Teleop Enabled,0,FALSE,0,NO ERROR,3997.558594,-4003.857422,4000.000000,4000.000000,Speed,Speed,-1.130000,0.920000,-0.020000,3.000000,103.000000,1,0,-0.000000,0.000000,1,-0.004379,-0.087875,0.000000,55.069214,64.788208,0.000000,0.030000,0.023000,0.043000,FlatInitial,Hold,0
07:17:28.234 PM 02/17/2016,Teleop Enabled,0,FALSE,0,NO ERROR,3997.412109,-4001.513672,4000.000000,4000.000000,Speed,Speed,-1.130000,0.920000,-0.020000,3.000000,101.000000,1,0,-0.000000,0.000000,1,-0.003326,-0.003052,0.000000,55.069199,64.786819,0.000000,-0.044000,0.024000,0.120000,FlatInitial,Hold,0
07:17:28.334 PM 02/17/2016,Teleop Enabled,0,FALSE,0,NO ERROR,3997.412109,-3996.972656,4000.000000,4000.000000,Speed,Speed,-1.130000,0.880000,0.090000,3.000000,101.000000,1,0,-0.000000,0.000000,1,-0.003326,-0.003052,0.000000,55.069199,64.786819,0.000000,0.003000,-0.022000,-0.006000,FlatInitial,Hold,0
07:17:28.435 PM 02/17/2016,Teleop Enabled,0,FALSE,0,NO ERROR,3996.679687,-3996.972656,4000.000000,4000.000000,Speed,Speed,-1.130000,0.880000,0.090000,3.000000,100.000000,1,0,-0.000000,0.000000,1,-0.016022,-0.028885,0.000000,55.067337,64.785782,0.000000,-0.020000,0.053000,0.104000,FlatInitial,Hold,0
07:17:28.535 PM 02/17/2016,Teleop Enabled,0,FALSE,0,NO ERROR,3998.437500,-3992.871094,4000.000000,4000.000000,Speed,Speed,-1.120000,0.820000,0.050000,3.000000,100.000000,1,0,-0.000000,0.000000,1,-0.015945,-0.029648,0.000000,55.066849,64.784607,0.000000,-0.039000,0.033000,0.015000,FlatInitial,Hold,0
07:17:28.636 PM 02/17/2016,Teleop Enabled,0,FALSE,0,NO ERROR,4000.634766,-3991.406250,4000.000000,4000.000000,Speed,Speed,-1.120000,0.820000,0.050000,3.000000,101.000000,1,0,-0.000000,0.000000,1,-0.015945,-0.029648,0.000000,55.066849,64.784607,0.000000,-0.039000,0.033000,0.015000,FlatInitial,Hold,0
07:17:28.742 PM 02/17/2016,Teleop Enabled,0,FALSE,0,NO ERROR,4004.882812,-3993.310547,4000.000000,4000.000000,Speed,Speed,-1.130000,0.790000,0.060000,3.000000,101.000000,1,0,-0.000000,0.000000,1,-0.010010,-0.009888,0.000000,55.065506,64.783386,0.000000,-0.051000,0.070000,-0.038000,FlatInitial,Hold,0
07:17:28.842 PM 02/17/2016,Teleop Enabled,0,FALSE,0,NO ERROR,4007.519531,-3993.310547,4000.000000,4000.000000,Speed,Speed,-1.120000,0.780000,0.050000,3.000000,103.000000,1,0,-0.000000,0.000000,1,-0.010010,-0.009888,0.000000,55.065506,64.783386,0.000000,-0.051000,0.070000,-0.038000,FlatInitial,Hold,0
07:17:28.943 PM 02/17/2016,Teleop Enabled,0,FALSE,0,NO ERROR,4009.423828,-4000.634766,4000.000000,4000.000000,Speed,Speed,-1.120000,0.760000,0.110000,3.000000,103.000000,1,0,-0.000000,0.000000,1,-0.027634,0.030777,0.000000,55.063171,64.784164,0.000000,0.048000,0.043000,-0.144000,FlatInitial,Hold,0
07:17:29.043 PM 02/17/2016,Teleop Enabled,0,FALSE,0,NO ERROR,4009.423828,-4004.443359,4000.000000,4000.000000,Speed,Speed,-1.120000,0.710000,0.150000,3.000000,101.000000,1,0,-0.000000,0.000000,1,-0.035385,0.040634,0.000000,55.061890,64.786026,0.000000,-0.002000,0.059000,-0.003000,FlatInitial,Hold,0
07:17:29.143 PM 02/17/2016,Teleop Enabled,0,FALSE,0,NO ERROR,4007.226562,-4007.226562,4000.000000,4000.000000,Speed,Speed,-1.110000,0.700000,0.240000,3.000000,101.000000,1,0,-0.000000,0.000000,1,-0.054306,0.058197,0.000000,55.059448,64.788910,0.000000,-0.006000,-0.023000,-0.052000,FlatInitial,Hold,0
07:17:29.243 PM 02/17/2016,Teleop Enabled,0,FALSE,0,NO ERROR,4005.615234,-4010.156250,4000.000000,4000.000000,Speed,Speed,-1.120000,0.680000,0.380000,3.000000,101.000000,1,0,-0.000000,0.000000,1,-0.063599,0.081619,0.000000,55.056381,64.792084,0.000000,-0.010000,0.095000,-0.103000,FlatInitial,Hold,0
07:17:29.345 PM 02/17/2016,Teleop Enabled,0,FALSE,0,NO ERROR,4003.271484,-4007.226562,4000.000000,4000.000000,Speed,Speed,-1.120000,0.690000,0.460000,3.000000,113.000000,1,0,-0.000000,0.000000,1,-0.076614,0.133682,0.000000,55.052704,64.798050,0.000000,-0.092000,0.017000,-0.091000,FlatInitial,Hold,0
07:17:29.445 PM 02/17/2016,Teleop Enabled,0,FALSE,0,NO ERROR,4000.781250,-4006.494141,4000.000000,4000.000000,Speed,Speed,-1.120000,0.680000,0.550000,3.000000,101.000000,1,0,-0.000000,0.000000,1,-0.101822,0.146942,0.000000,55.047607,64.805069,0.000000,-0.048000,0.000000,0.051000,FlatInitial,Hold,0
07:17:29.545 PM 02/17/2016,Teleop Enabled,0,FALSE,0,NO ERROR,3999.169922,-4006.347656,4000.000000,4000.000000,Speed,Speed,-1.120000,0.660000,0.690000,3.000000,101.000000,1,0,-0.000000,0.000000,1,-0.002670,0.167755,0.000000,55.044403,64.813263,0.000000,-0.020000,0.011000,0.068000,FlatInitial,Hold,0
07:17:29.647 PM 02/17/2016,Teleop Enabled,0,FALSE,0,NO ERROR,3996.386719,-4000.195312,4000.000000,4000.000000,Speed,Speed,-1.120000,0.670000,0.820000,3.000000,108.000000,1,0,-0.000000,0.000000,1,-0.003586,0.000000,0.000000,55.044052,64.813629,0.000000,-0.015000,0.011000,0.111000,FlatInitial,Hold,0
07:17:29.748 PM 02/17/2016,Teleop Enabled,0,FALSE,0,NO ERROR,3994.775391,-3995.361328,4000.000000,4000.000000,Speed,Speed,-1.130000,0.630000,0.860000,3.000000,102.000000,1,0,-0.000000,0.000000,1,-0.004974,0.012466,0.000000,55.043518,64.813553,0.000000,0.014000,0.031000,0.017000,FlatInitial,Hold,0
07:17:29.849 PM 02/17/2016,Teleop Enabled,0,FALSE,0,NO ERROR,3994.042969,-3993.457031,4000.000000,4000.000000,Speed,Speed,-1.140000,0.620000,0.930000,3.000000,101.000000,1,0,-0.000000,0.000000,1,0.001968,0.048996,0.000000,55.043152,64.815216,0.000000,-0.111000,-0.059000,-0.038000,FlatInitial,Hold,0
07:17:29.949 PM 02/17/2016,Teleop Enabled,0,FALSE,0,NO ERROR,3996.093750,-3995.214844,4000.000000,4000.000000,Speed,Speed,-1.140000,0.590000,1.050000,3.000000,101.000000,1,0,-0.000000,0.000000,1,-0.036438,0.064041,0.000000,55.041702,64.817902,0.000000,-0.111000,-0.059000,-0.038000,FlatInitial,Hold,0
07:17:30.049 PM 02/17/2016,Teleop Enabled,0,FALSE,0,NO ERROR,3997.558594,-3997.265625,4000.000000,4000.000000,Speed,Speed,-1.140000,0.600000,1.150000,3.000000,101.000000,1,0,-0.000000,0.000000,1,-0.027206,0.097595,0.000000,55.039963,64.822235,0.000000,0.013000,0.052000,-0.034000,FlatInitial,Hold,0
07:17:30.149 PM 02/17/2016,Teleop Enabled,0,FALSE,0,NO ERROR,3998.144531,-3996.093750,4000.000000,4000.000000,Speed,Speed,-1.140000,0.560000,1.190000,3.000000,102.000000,1,0,-0.000000,0.000000,1,-0.045181,0.126694,0.000000,55.037308,64.828964,0.000000,-0.072000,-0.023000,0.089000,FlatInitial,Hold,0
07:17:30.249 PM 02/17/2016,Teleop Enabled,0,FALSE,0,NO ERROR,3996.972656,-3995.068359,4000.000000,4000.000000,Speed,Speed,-1.140000,0.540000,1.260000,3.000000,102.000000,1,0,-0.000000,0.000000,1,-0.038803,-0.002151,0.000000,55.035492,64.828888,0.000000,0.033000,-0.018000,0.162000,FlatInitial,Hold,0
07:17:30.350 PM 02/17/2016,Teleop Enabled,0,FALSE,0,NO ERROR,3997.265625,-4000.195312,4000.000000,4000.000000,Speed,Speed,-1.140000,0.550000,1.300000,3.000000,100.000000,1,0,-0.000000,0.000000,1,-0.021042,0.014328,0.000000,55.033768,64.830048,0.000000,0.033000,0.043000,-0.040000,FlatInitial,Hold,0
07:17:30.450 PM 02/17/2016,Teleop Enabled,0,FALSE,0,NO ERROR,3996.386719,-4006.054687,4000.000000,4000.000000,Speed,Speed,-1.140000,0.520000,1.240000,3.000000,104.000000,1,0,-0.000000,0.000000,1,-0.050674,0.028320,0.000000,55.031464,64.831024,0.000000,0.001000,-0.007000,0.014000,FlatInitial,Hold,0
07:17:30.550 PM 02/17/2016,Teleop Enabled,0,FALSE,0,NO ERROR,3998.876953,-4005.468750,4000.000000,4000.000000,Speed,Speed,-1.140000,0.530000,1.250000,3.000000,101.000000,1,0,-0.000000,0.000000,1,-0.035233,0.048218,0.000000,55.029312,64.832977,0.000000,0.001000,-0.007000,0.014000,FlatInitial,Hold,0
07:17:30.650 PM 02/17/2016,Teleop Enabled,0,FALSE,0,NO ERROR,4002.978516,-4000.781250,4000.000000,4000.000000,Speed,Speed,-1.140000,0.530000,1.350000,3.000000,101.000000,1,0,-0.000000,0.000000,1,-0.035233,0.048218,0.000000,55.029312,64.832977,0.000000,0.000000,0.019000,0.004000,FlatInitial,Hold,0
07:17:30.750 PM 02/17/2016,Teleop Enabled,0,FALSE,0,NO ERROR,4006.933594,-3993.896484,4000.000000,4000.000000,Speed,Speed,-1.140000,0.520000,1.360000,3.000000,101.000000,1,0,-0.000000,0.000000,1,-0.058838,0.055923,0.000000,55.025864,64.835770,0.000000,0.022000,-0.008000,0.071000,FlatInitial,Hold,0
07:17:30.851 PM 02/17/2016,Teleop Enabled,0,FALSE,0,NO ERROR,4008.398437,-3993.164062,4000.000000,4000.000000,Speed,Speed,-1.130000,0.510000,1.450000,3.000000,101.000000,1,0,-0.000000,0.000000,1,-0.056442,0.043900,0.000000,55.022720,64.837677,0.000000,-0.058000,0.018000,-0.025000,FlatInitial,Hold,0
07:17:30.951 PM 02/17/2016,Teleop Enabled,0,FALSE,0,NO ERROR,4009.716797,-3995.507812,4000.000000,4000.000000,Speed,Speed,-1.130000,0.490000,1.370000,3.000000,102.000000,1,0,-0.000000,0.000000,1,-0.118927,-0.001266,0.000000,55.015030,64.841049,0.000000,0.020000,0.008000,-0.041000,FlatInitial,Hold,0
07:17:31.051 PM 02/17/2016,Teleop Enabled,0,FALSE,0,NO ERROR,4008.691406,-3997.851562,4000.000000,4000.000000,Speed,Speed,-1.130000,0.490000,1.370000,3.000000,106.000000,1,0,-0.000000,0.000000,1,-0.118927,-0.001266,0.000000,55.015030,64.841049,0.000000,0.020000,0.008000,-0.041000,FlatInitial,Hold,0
07:17:31.151 PM 02/17/2016,Teleop Enabled,0,FALSE,0,NO ERROR,4006.787109,-3998.583984,4000.000000,4000.000000,Speed,Speed,-1.150000,0.490000,1.440000,3.000000,101.000000,1,0,-0.000000,0.000000,1,0.026230,-0.005585,0.000000,55.013626,64.841019,0.000000,-0.027000,-0.056000,0.024000,FlatInitial,Hold,0
07:17:31.252 PM 02/17/2016,Teleop Enabled,0,FALSE,0,NO ERROR,4004.736328,-4000.488281,4000.000000,4000.000000,Speed,Speed,-1.140000,0.450000,1.450000,3.000000,101.000000,1,0,-0.000000,0.000000,1,0.019608,0.010880,0.000000,55.014297,64.841217,0.000000,0.068000,0.030000,0.002000,FlatInitial,Hold,0
07:17:31.352 PM 02/17/2016,Teleop Enabled,0,FALSE,0,NO ERROR,3999.755859,-4001.074219,4000.000000,4000.000000,Speed,Speed,-1.160000,0.450000,1.430000,3.000000,101.000000,1,0,-0.000000,0.000000,1,0.009491,-0.009949,0.000000,55.014954,64.841171,0.000000,0.112000,0.090000,-0.051000,FlatInitial,Hold,0
07:17:31.452 PM 02/17/2016,Teleop Enabled,0,FALSE,0,NO ERROR,3997.558594,-4004.443359,4000.000000,4000.000000,Speed,Speed,-1.150000,0.440000,1.460000,3.000000,101.000000,1,0,-0.000000,0.000000,1,0.014694,0.023010,0.000000,55.015579,64.841873,0.000000,0.035000,0.071000,-0.017000,FlatInitial,Hold,0
07:17:31.552 PM 02/17/2016,Teleop Enabled,0,FALSE,0,NO ERROR,3995.068359,-4006.347656,4000.000000,4000.000000,Speed,Speed,-1.130000,0.460000,1.480000,3.000000,101.000000,1,0,-0.000000,0.000000,1,-0.010162,0.030090,0.000000,55.015671,64.842804,0.000000,0.106000,-0.029000,0.017000,FlatInitial,Hold,0
07:17:31.652 PM 02/17/2016,Teleop Enabled,0,FALSE,0,NO ERROR,3995.214844,-4002.978516,4000.000000,4000.000000,Speed,Speed,-1.150000,0.430000,1.450000,3.000000,101.000000,1,0,-0.000000,0.000000,1,0.024765,0.017776,0.000000,55.016296,64.844467,0.000000,0.048000,-0.005000,0.011000,FlatInitial,Hold,0
07:17:31.752 PM 02/17/2016,Teleop Enabled,0,FALSE,0,NO ERROR,3995.361328,-4000.781250,4000.000000,4000.000000,Speed,Speed,-1.130000,0.470000,1.470000,3.000000,101.000000,1,0,-0.000000,0.000000,1,0.014587,0.003204,0.000000,55.017654,64.845016,0.000000,-0.009000,0.014000,-0.019000,FlatInitial,Hold,0
07:17:31.854 PM 02/17/2016,Teleop Enabled,0,FALSE,0,NO ERROR,3998.730469,-3999.316406,4000.000000,4000.000000,Speed,Speed,-1.140000,0.480000,1.500000,3.000000,102.000000,1,0,-0.000000,0.000000,1,0.028564,0.018387,0.000000,55.019135,64.845901,0.000000,-0.027000,-0.028000,0.164000,FlatInitial,Hold,0
07:17:31.954 PM 02/17/2016,Teleop Enabled,0,FALSE,0,NO ERROR,4002.832031,-4001.074219,4000.000000,4000.000000,Speed,Speed,-1.140000,0.490000,1.560000,3.000000,101.000000,1,0,-0.000000,0.000000,1,0.015472,0.013031,0.000000,55.020447,64.846619,0.000000,0.075000,0.049000,0.096000,FlatInitial,Hold,0
07:17:32.054 PM 02/17/2016,Teleop Enabled,0,FALSE,0,NO ERROR,4005.468750,-4002.832031,4000.000000,4000.000000,Speed,Speed,-1.140000,0.510000,1.600000,3.000000,101.000000,1,0,-0.000000,0.000000,1,-0.000946,0.040359,0.000000,55.021408,64.847992,0.000000,0.102000,0.043000,-0.100000,FlatInitial,Hold,0
07:17:32.155 PM 02/17/2016,Teleop Enabled,0,FALSE,0,NO ERROR,4006.640625,-4001.074219,4000.000000,4000.000000,Speed,Speed,-1.130000,0.550000,1.670000,3.000000,102.000000,1,0,-0.000000,0.000000,1,0.027908,-0.000977,0.000000,55.021973,64.849060,0.000000,-0.047000,0.081000,-0.029000,FlatInitial,Hold,0
07:17:32.255 PM 02/17/2016,Teleop Enabled,0,FALSE,0,NO ERROR,4006.494141,-3996.826172,4000.000000,4000.000000,Speed,Speed,-1.140000,0.560000,1.600000,3.000000,101.000000,1,0,-0.000000,0.000000,1,0.013168,-0.024353,0.000000,55.023178,64.848602,0.000000,0.030000,0.009000,0.005000,FlatInitial,Hold,0
07:17:32.356 PM 02/17/2016,Teleop Enabled,0,FALSE,0,NO ERROR,4003.271484,-3995.507812,4000.000000,4000.000000,Speed,Speed,-1.130000,0.640000,1.630000,3.000000,103.000000,1,0,-0.000000,0.000000,1,0.031754,-0.032028,0.000000,55.024460,64.847183,0.000000,0.045000,-0.031000,0.086000,FlatInitial,Hold,0
07:17:32.456 PM 02/17/2016,Teleop Enabled,0,FALSE,0,NO ERROR,4001.074219,-3998.583984,4000.000000,4000.000000,Speed,Speed,-1.130000,0.630000,1.620000,3.000000,105.000000,1,0,-0.000000,0.000000,1,0.042633,0.010208,0.000000,55.027557,64.846725,0.000000,-0.012000,-0.032000,-0.019000,FlatInitial,Hold,0
07:17:32.556 PM 02/17/2016,Teleop Enabled,0,FALSE,0,NO ERROR,3998.876953,-4001.513672,4000.000000,4000.000000,Speed,Speed,-1.140000,0.680000,1.620000,3.000000,101.000000,1,0,-0.000000,0.000000,1,0.024750,0.003998,0.000000,55.028687,64.846970,0.000000,-0.042000,0.076000,0.129000,FlatInitial,Hold,0
07:17:32.656 PM 02/17/2016,Teleop Enabled,0,FALSE,0,NO ERROR,3999.023437,-4001.806641,4000.000000,4000.000000,Speed,Speed,-1.140000,0.720000,1.660000,3.000000,101.000000,1,0,-0.000000,0.000000,1,0.048584,-0.006638,0.000000,55.030426,64.847382,0.000000,0.097000,-0.047000,0.136000,FlatInitial,Hold,0
07:17:32.757 PM 02/17/2016,Teleop Enabled,0,FALSE,0,NO ERROR,3997.851562,-4004.150391,4000.000000,4000.000000,Speed,Speed,-1.140000,0.740000,1.680000,3.000000,102.000000,1,0,-0.000000,0.000000,1,0.057739,0.000000,0.000000,55.033569,64.846954,0.000000,0.094000,0.016000,-0.059000,FlatInitial,Hold,0
07:17:32.858 PM 02/17/2016,Teleop Enabled,0,FALSE,0,NO ERROR,3997.265625,-4003.710937,4000.000000,4000.000000,Speed,Speed,-1.150000,0.800000,1.670000,3.000000,101.000000,1,0,-0.000000,0.000000,1,0.088287,0.014847,0.000000,55.037476,64.847443,0.000000,-0.024000,-0.021000,-0.023000,FlatInitial,Hold,0
07:17:32.958 PM 02/17/2016,Teleop Enabled,0,FALSE,0,NO ERROR,3995.947266,-4004.003906,4000.000000,4000.000000,Speed,Speed,-1.150000,0.790000,1.700000,3.000000,104.000000,1,0,-0.000000,0.000000,1,0.082260,0.021667,0.000000,55.041718,64.848282,0.000000,0.028000,-0.018000,0.091000,FlatInitial,Hold,0
07:17:33.059 PM 02/17/2016,Teleop Enabled,0,FALSE,0,NO ERROR,3996.972656,-4003.125000,4000.000000,4000.000000,Speed,Speed,-1.140000,0.850000,1.740000,3.000000,101.000000,1,0,-0.000000,0.000000,1,0.089005,0.026306,0.000000,55.046310,64.849396,0.000000,0.027000,0.005000,0.032000,FlatInitial,Hold,0
07:17:33.160 PM 02/17/2016,Teleop Enabled,0,FALSE,0,NO ERROR,3998.437500,-4005.468750,4000.000000,4000.000000,Speed,Speed,-1.150000,0.850000,1.780000,3.000000,102.000000,1,0,-0.000000,0.000000,1,0.127640,-0.005447,0.000000,55.051514,64.849213,0.000000,0.078000,-0.035000,-0.061000,FlatInitial,Hold,0
07:17:33.263 PM 02/17/2016,Teleop Enabled,0,FALSE,0,NO ERROR,4000.781250,-4008.837891,4000.000000,4000.000000,Speed,Speed,-1.150000,0.900000,1.750000,3.000000,102.000000,1,0,-0.000000,0.000000,1,0.142883,-0.037003,0.000000,55.061935,64.847183,0.000000,-0.005000,-0.012000,0.003000,FlatInitial,Hold,0
07:17:33.362 PM 02/17/2016,Teleop Enabled,0,FALSE,0,NO ERROR,4001.367187,-4008.544922,4000.000000,4000.000000,Speed,Speed,-1.140000,0.950000,1.750000,3.000000,102.000000,1,0,-0.000000,0.000000,1,0.177795,-0.033981,0.000000,55.066956,64.846268,0.000000,-0.045000,-0.039000,0.027000,FlatInitial,Hold,0
07:17:33.463 PM 02/17/2016,Teleop Enabled,0,FALSE,0,NO ERROR,4002.539062,-4005.468750,4000.000000,4000.000000,Speed,Speed,-1.150000,0.990000,1.770000,3.000000,101.000000,1,0,-0.000000,0.000000,1,0.216141,-0.052902,0.000000,55.076874,64.843918,0.000000,-0.038000,0.017000,-0.008000,FlatInitial,Hold,0
07:17:33.563 PM 02/17/2016,Teleop Enabled,0,FALSE,0,NO ERROR,4002.978516,-4008.105469,4000.000000,4000.000000,Speed,Speed,-1.150000,1.020000,1.740000,3.000000,100.000000,1,0,-0.000000,0.000000,1,0.234009,-0.020737,0.000000,55.088379,64.842911,0.000000,-0.015000,-0.107000,-0.051000,FlatInitial,Hold,0
