Time,RobotMode,AutoToRun,ErrorStatus, ErrorCode,ErrorSource,ActualRPM1,ActualRPM2,DesiredRPM1,DesiredRPM2,ControlMode1,ControlMode2,NavXYaw,NavXRoll,NavXPitch,ShooterState,LoopTime,IsLevel,IsAutoTargeting,LeftMotorOutput,RightMotorOutput,IsHaloDrive,NavXVelocityX,NavXVelocityY,NavXVelocityZ,NavXDisplacementX,NavXDisplacementY,NavXDisplacementZ,NavXAccelerationX,NavXAccelerationY,NavXAccelerationZ,AutoDefendState,AngeMotorState,Photoeye
08:08:43.278 PM 02/16/2016,Teleop Enabled,0,TRUE,91,Variant To Data in WPI_DigitalInputRefNum Registry Get.vi->Periodic Tasks.vi->Robot Main.vi,0.585938,0.000000,0.000000,0.000000,Speed,Speed,0.390000,0.840000,2.110000,0.000000,274171.000000,1,0,-0.000000,0.000000,1,0.070618,-0.053574,0.000000,0.033279,-2.173264,0.000000,0.069000,0.096000,-0.060000,FlatInitial,ResetBack,0
08:08:43.378 PM 02/16/2016,Teleop Enabled,0,TRUE,-44007,<LOCATION>WPI_DigitalInputRefNum Registry Get.vi<CALLSTACK>WPI_DigitalInputRefNum Registry Get.vi< <Periodic Tasks.vi< <Robot Main.vi,0.292969,0.000000,0.000000,0.000000,Speed,Speed,-0.170000,0.790000,1.940000,0.000000,102.000000,1,0,-0.000000,0.000000,1,0.041199,-0.056244,0.000000,0.035721,-2.175659,0.000000,0.062000,-0.016000,-0.023000,FlatInitial,ResetBack,0
08:08:43.480 PM 02/16/2016,Teleop Enabled,0,FALSE,0,NO ERROR,0.000000,0.000000,0.000000,0.000000,Speed,Speed,-0.300000,0.810000,2.130000,0.000000,101.000000,1,0,-0.000000,0.000000,1,0.048065,-0.022736,0.000000,0.038681,-2.176163,0.000000,-0.001000,-0.003000,0.068000,FlatInitial,ResetBack,0
08:08:43.580 PM 02/16/2016,Teleop Enabled,0,FALSE,0,NO ERROR,0.000000,0.000000,0.000000,0.000000,Speed,Speed,-0.150000,0.830000,1.660000,0.000000,102.000000,1,0,-0.000000,0.000000,1,0.000000,0.000000,0.000000,0.039139,-2.176407,0.000000,0.007000,0.009000,-0.062000,FlatInitial,ResetBack,0
08:08:43.680 PM 02/16/2016,Teleop Enabled,0,FALSE,0,NO ERROR,0.000000,0.000000,0.000000,0.000000,Speed,Speed,-0.130000,0.860000,1.760000,0.000000,101.000000,1,0,-0.000000,0.000000,1,0.008713,0.000000,0.000000,0.039337,-2.176407,0.000000,-0.010000,-0.021000,0.001000,FlatInitial,ResetBack,0
08:08:43.780 PM 02/16/2016,Teleop Enabled,0,FALSE,0,NO ERROR,0.000000,0.000000,0.000000,0.000000,Speed,Speed,-0.160000,0.800000,1.940000,0.000000,101.000000,1,0,-0.000000,0.000000,1,-0.006332,-0.018509,0.000000,0.039200,-2.176926,0.000000,0.042000,0.003000,-0.006000,FlatInitial,ResetBack,0
08:08:43.881 PM 02/16/2016,Teleop Enabled,0,FALSE,0,NO ERROR,0.000000,0.000000,0.000000,0.000000,Speed,Speed,-0.090000,0.810000,1.880000,0.000000,103.000000,1,0,-0.000000,0.000000,1,-0.003586,0.000000,0.000000,0.039261,-2.177124,0.000000,-0.009000,0.021000,0.011000,FlatInitial,ResetBack,0
08:08:43.981 PM 02/16/2016,Teleop Enabled,0,FALSE,0,NO ERROR,0.000000,0.000000,0.000000,0.000000,Speed,Speed,-0.030000,0.830000,1.940000,0.000000,101.000000,1,0,-0.000000,0.000000,1,0.000000,0.000000,0.000000,0.039124,-2.176956,0.000000,0.006000,0.000000,0.022000,FlatInitial,ResetBack,0
08:08:44.081 PM 02/16/2016,Teleop Enabled,0,FALSE,0,NO ERROR,0.000000,0.000000,0.000000,0.000000,Speed,Speed,-0.060000,0.800000,1.960000,0.000000,101.000000,1,0,-0.000000,0.000000,1,0.000000,0.000000,0.000000,0.039124,-2.176956,0.000000,0.013000,-0.012000,0.013000,FlatInitial,ResetBack,0
08:08:44.181 PM 02/16/2016,Teleop Enabled,0,FALSE,0,NO ERROR,0.000000,0.000000,0.000000,0.000000,Speed,Speed,-0.070000,0.810000,1.940000,0.000000,102.000000,1,0,-0.000000,0.000000,1,0.000000,0.000000,0.000000,0.039124,-2.176956,0.000000,-0.004000,-0.012000,0.018000,FlatInitial,ResetBack,0
08:08:44.281 PM 02/16/2016,Teleop Enabled,0,FALSE,0,NO ERROR,0.000000,0.000000,0.000000,0.000000,Speed,Speed,-0.070000,0.820000,1.970000,0.000000,100.000000,1,0,-0.000000,0.000000,1,0.000000,0.000000,0.000000,0.039124,-2.176956,0.000000,-0.004000,-0.008000,0.003000,FlatInitial,ResetBack,0
08:08:44.381 PM 02/16/2016,Teleop Enabled,0,FALSE,0,NO ERROR,0.000000,0.000000,0.000000,0.000000,Speed,Speed,-0.060000,0.810000,1.990000,0.000000,101.000000,1,0,-0.000000,0.000000,1,0.000000,0.000000,0.000000,0.039124,-2.176956,0.000000,-0.001000,0.002000,0.012000,FlatInitial,ResetBack,1
08:08:44.481 PM 02/16/2016,Teleop Enabled,0,FALSE,0,NO ERROR,0.000000,0.000000,0.000000,0.000000,Speed,Speed,-0.050000,0.810000,2.030000,0.000000,103.000000,1,0,-0.000000,0.000000,1,0.000000,0.000000,0.000000,0.039124,-2.176956,0.000000,0.004000,0.009000,0.010000,FlatInitial,ResetForward,1
08:08:44.581 PM 02/16/2016,Teleop Enabled,0,FALSE,0,NO ERROR,0.000000,0.000000,0.000000,0.000000,Speed,Speed,-0.060000,0.810000,2.030000,0.000000,103.000000,1,0,-0.000000,0.000000,1,0.000000,-0.002747,0.000000,0.039124,-2.176971,0.000000,0.000000,-0.021000,0.001000,FlatInitial,ResetForward,1
08:08:44.681 PM 02/16/2016,Teleop Enabled,0,FALSE,0,NO ERROR,0.000000,0.000000,0.000000,0.000000,Speed,Speed,-0.050000,0.810000,2.110000,0.000000,101.000000,1,0,-0.000000,0.000000,1,0.000000,-0.023087,0.000000,0.039124,-2.177750,0.000000,-0.002000,-0.009000,0.010000,FlatInitial,ResetForward,1
08:08:44.781 PM 02/16/2016,Teleop Enabled,0,FALSE,0,NO ERROR,0.000000,0.000000,0.000000,0.000000,Speed,Speed,0.000000,0.810000,2.060000,0.000000,102.000000,1,0,-0.000000,0.000000,1,0.000000,0.019608,0.000000,0.039124,-2.177643,0.000000,0.000000,0.048000,0.011000,FlatInitial,ResetForward,1
08:08:44.881 PM 02/16/2016,Teleop Enabled,0,FALSE,0,NO ERROR,0.000000,0.000000,0.000000,0.000000,Speed,Speed,0.000000,0.820000,2.110000,0.000000,102.000000,1,0,-0.000000,0.000000,1,0.000000,0.000000,0.000000,0.039124,-2.176193,0.000000,0.000000,-0.005000,-0.006000,FlatInitial,ResetForward,1
08:08:44.981 PM 02/16/2016,Teleop Enabled,0,FALSE,0,NO ERROR,0.000000,0.000000,0.000000,0.000000,Speed,Speed,-0.070000,0.830000,2.090000,0.000000,102.000000,1,0,-0.000000,0.000000,1,0.000000,-0.022171,0.000000,0.039124,-2.176804,0.000000,0.000000,-0.009000,0.013000,FlatInitial,ResetForward,1
08:08:45.081 PM 02/16/2016,Teleop Enabled,0,FALSE,0,NO ERROR,0.000000,0.000000,0.000000,0.000000,Speed,Speed,-0.060000,0.820000,1.880000,0.000000,101.000000,1,0,-0.000000,0.000000,1,0.000000,0.000000,0.000000,0.039124,-2.177322,0.000000,-0.009000,-0.010000,-0.016000,FlatInitial,ResetForward,0
08:08:45.181 PM 02/16/2016,Teleop Enabled,0,FALSE,0,NO ERROR,0.000000,0.000000,0.000000,0.000000,Speed,Speed,-0.060000,0.820000,1.970000,0.000000,102.000000,1,0,-0.000000,0.000000,1,0.000000,0.000000,0.000000,0.039124,-2.177322,0.000000,0.002000,0.000000,0.005000,FlatInitial,Reset,0
08:08:45.281 PM 02/16/2016,Teleop Enabled,0,FALSE,0,NO ERROR,0.000000,0.000000,0.000000,0.000000,Speed,Speed,-0.010000,0.810000,1.940000,0.000000,101.000000,1,0,-0.000000,0.000000,1,0.000000,0.000000,0.000000,0.039124,-2.177322,0.000000,0.001000,0.034000,0.010000,FlatInitial,Hold,0
08:08:45.381 PM 02/16/2016,Teleop Enabled,0,FALSE,0,NO ERROR,0.000000,0.000000,0.000000,0.000000,Speed,Speed,0.000000,0.820000,1.890000,0.000000,101.000000,1,0,-0.000000,0.000000,1,0.000000,0.015213,0.000000,0.039124,-2.176804,0.000000,0.010000,-0.029000,-0.030000,FlatInitial,Hold,0
08:08:45.481 PM 02/16/2016,Teleop Enabled,0,FALSE,0,NO ERROR,0.000000,0.000000,0.000000,0.000000,Speed,Speed,-0.070000,0.820000,2.020000,0.000000,102.000000,1,0,-0.000000,0.000000,1,0.000000,-0.012650,0.000000,0.039124,-2.176788,0.000000,0.005000,-0.010000,0.000000,FlatInitial,Hold,0
08:08:45.581 PM 02/16/2016,Teleop Enabled,0,FALSE,0,NO ERROR,0.000000,0.000000,0.000000,0.000000,Speed,Speed,0.000000,0.810000,1.850000,0.000000,101.000000,1,0,-0.000000,0.000000,1,0.000000,0.016464,0.000000,0.039124,-2.176361,0.000000,0.007000,0.008000,0.001000,FlatInitial,Hold,0
08:08:45.682 PM 02/16/2016,Teleop Enabled,0,FALSE,0,NO ERROR,0.000000,0.000000,0.000000,0.000000,Speed,Speed,0.020000,0.820000,2.000000,0.000000,102.000000,1,0,-0.000000,0.000000,1,0.000000,0.000000,0.000000,0.039124,-2.176361,0.000000,0.000000,-0.013000,0.030000,FlatInitial,Hold,0
08:08:45.783 PM 02/16/2016,Teleop Enabled,0,FALSE,0,NO ERROR,0.000000,0.000000,0.000000,0.000000,Speed,Speed,-0.030000,0.830000,1.940000,0.000000,103.000000,1,0,-0.000000,0.000000,1,0.000000,0.000000,0.000000,0.039124,-2.176361,0.000000,-0.009000,0.000000,0.018000,FlatInitial,Hold,0
08:08:45.883 PM 02/16/2016,Teleop Enabled,0,FALSE,0,NO ERROR,0.000000,0.000000,0.000000,0.000000,Speed,Speed,0.000000,0.830000,1.940000,0.000000,102.000000,1,0,-0.000000,0.000000,1,0.000000,0.000000,0.000000,0.039124,-2.176361,0.000000,-0.002000,-0.009000,0.001000,FlatInitial,Hold,0
08:08:45.983 PM 02/16/2016,Teleop Enabled,0,FALSE,0,NO ERROR,0.000000,0.000000,0.000000,0.000000,Speed,Speed,-0.010000,0.830000,1.950000,0.000000,101.000000,1,0,-0.000000,0.000000,1,0.000000,0.000000,0.000000,0.039124,-2.176361,0.000000,0.000000,-0.002000,0.007000,FlatInitial,Hold,0
08:08:46.083 PM 02/16/2016,Teleop Enabled,0,FALSE,0,NO ERROR,0.000000,0.000000,0.000000,0.000000,Speed,Speed,0.000000,0.820000,1.910000,0.000000,102.000000,1,0,-0.000000,0.000000,1,0.000000,0.000000,0.000000,0.039124,-2.176361,0.000000,0.000000,0.002000,0.003000,FlatInitial,Hold,0
08:08:46.184 PM 02/16/2016,Teleop Enabled,0,FALSE,0,NO ERROR,0.000000,0.000000,0.000000,0.000000,Speed,Speed,0.000000,0.820000,1.940000,0.000000,102.000000,1,0,-0.000000,0.000000,1,0.000000,0.000000,0.000000,0.039124,-2.176361,0.000000,0.001000,-0.005000,0.003000,FlatInitial,Hold,0
08:08:46.286 PM 02/16/2016,Teleop Enabled,0,FALSE,0,NO ERROR,0.000000,0.000000,0.000000,0.000000,Speed,Speed,-0.010000,0.820000,1.920000,0.000000,101.000000,1,0,-0.000000,0.000000,1,0.000000,0.000000,0.000000,0.039124,-2.176361,0.000000,0.000000,0.006000,0.005000,FlatInitial,Hold,0
08:08:46.387 PM 02/16/2016,Teleop Enabled,0,FALSE,0,NO ERROR,0.000000,0.000000,0.000000,0.000000,Speed,Speed,0.000000,0.820000,1.930000,0.000000,101.000000,1,0,-0.000000,0.000000,1,0.000000,0.000000,0.000000,0.039124,-2.176361,0.000000,-0.003000,-0.007000,0.004000,FlatInitial,Hold,0
08:08:46.486 PM 02/16/2016,Teleop Enabled,0,FALSE,0,NO ERROR,0.000000,0.000000,0.000000,0.000000,Speed,Speed,-0.010000,0.830000,1.910000,1.000000,103.000000,1,0,-0.000000,0.000000,1,0.000000,0.000000,0.000000,0.039124,-2.176361,0.000000,0.000000,0.001000,0.001000,FlatInitial,Hold,0
08:08:46.586 PM 02/16/2016,Teleop Enabled,0,FALSE,0,NO ERROR,0.000000,193.066406,-6000.000000,-6000.000000,Speed,Speed,0.000000,0.820000,1.920000,2.000000,100.000000,1,0,-0.000000,0.000000,1,0.000000,0.000000,0.000000,0.039124,-2.176361,0.000000,0.012000,-0.008000,-0.005000,FlatInitial,Hold,0
08:08:46.687 PM 02/16/2016,Teleop Enabled,0,FALSE,0,NO ERROR,-1659.960938,1621.289062,0.000000,0.000000,Speed,Speed,-0.010000,0.820000,1.860000,2.000000,101.000000,1,0,-0.000000,0.000000,1,0.012466,-0.005203,0.000000,0.039383,-2.176758,0.000000,-0.004000,-0.047000,0.008000,FlatInitial,Hold,0
08:08:46.788 PM 02/16/2016,Teleop Enabled,0,FALSE,0,NO ERROR,-1988.671875,1403.759766,0.000000,0.000000,Speed,Speed,-0.010000,0.820000,1.880000,2.000000,101.000000,1,0,-0.188976,0.188976,1,0.000000,0.000000,0.000000,0.039551,-2.176941,0.000000,0.000000,-0.003000,0.052000,FlatInitial,Hold,0
08:08:46.888 PM 02/16/2016,Teleop Enabled,0,FALSE,0,NO ERROR,-1606.640625,944.238281,0.000000,0.000000,Speed,Speed,-0.010000,0.820000,1.890000,2.000000,100.000000,1,0,-0.204724,0.204724,1,0.000000,-0.002670,0.000000,0.039551,-2.176971,0.000000,-0.009000,-0.030000,-0.044000,FlatInitial,Hold,0
08:08:46.988 PM 02/16/2016,Teleop Enabled,0,FALSE,0,NO ERROR,-1243.212891,498.632812,0.000000,0.000000,Speed,Speed,1.980000,0.320000,2.080000,2.000000,102.000000,1,0,-0.244094,0.244094,1,-0.105255,0.091125,0.000000,0.036148,-2.175156,0.000000,-0.033000,0.016000,0.031000,FlatInitial,Hold,0
08:08:47.089 PM 02/16/2016,Teleop Enabled,0,FALSE,0,NO ERROR,-1243.212891,133.007812,0.000000,0.000000,Speed,Speed,6.750000,0.140000,2.280000,2.000000,104.000000,1,0,-0.244094,0.244094,1,-0.122055,0.146835,0.000000,0.030518,-2.169571,0.000000,-0.010000,-0.003000,0.076000,FlatInitial,Hold,0
08:08:47.190 PM 02/16/2016,Teleop Enabled,0,FALSE,0,NO ERROR,-612.304688,-11.132812,0.000000,0.000000,Speed,Speed,13.490000,-0.060000,1.990000,2.000000,101.000000,1,0,-0.244094,0.244094,1,-0.041763,0.015457,0.000000,0.029282,-2.167679,0.000000,0.045000,0.008000,0.040000,FlatInitial,Hold,0
08:08:47.292 PM 02/16/2016,Teleop Enabled,0,FALSE,0,NO ERROR,-406.054688,-0.146484,0.000000,0.000000,Speed,Speed,21.230000,-0.040000,1.870000,2.000000,101.000000,1,0,-0.244094,0.244094,1,0.014847,0.008514,0.000000,0.029007,-2.166977,0.000000,-0.003000,0.007000,0.051000,FlatInitial,Hold,0
08:08:47.393 PM 02/16/2016,Teleop Enabled,0,FALSE,0,NO ERROR,-182.226562,-0.146484,0.000000,0.000000,Speed,Speed,31.070000,-0.360000,1.950000,2.000000,103.000000,1,0,-0.307087,0.307087,1,-0.003296,0.003891,0.000000,0.029602,-2.166870,0.000000,-0.020000,-0.037000,0.084000,FlatInitial,Hold,0
08:08:47.494 PM 02/16/2016,Teleop Enabled,0,FALSE,0,NO ERROR,-182.226562,0.000000,0.000000,0.000000,Speed,Speed,39.970000,-0.580000,1.820000,2.000000,101.000000,1,0,-0.307087,0.307087,1,0.043152,0.050476,0.000000,0.030563,-2.165955,0.000000,-0.004000,0.100000,0.000000,FlatInitial,Hold,0
08:08:47.594 PM 02/16/2016,Teleop Enabled,0,FALSE,0,NO ERROR,-91.699219,0.000000,0.000000,0.000000,Speed,Speed,50.610000,-0.830000,1.850000,2.000000,102.000000,1,0,-0.346457,0.346457,1,0.084061,0.074326,0.000000,0.033951,-2.161865,0.000000,0.072000,0.014000,0.000000,FlatInitial,Hold,0
08:08:47.695 PM 02/16/2016,Teleop Enabled,0,FALSE,0,NO ERROR,-8.056641,0.000000,0.000000,0.000000,Speed,Speed,62.630000,-1.140000,1.850000,2.000000,101.000000,1,0,-0.346457,0.346457,1,0.119995,-0.004730,0.000000,0.038818,-2.159164,0.000000,0.095000,-0.040000,0.058000,FlatInitial,Hold,0
08:08:47.796 PM 02/16/2016,Teleop Enabled,0,FALSE,0,NO ERROR,1.025391,0.000000,0.000000,0.000000,Speed,Speed,74.920000,-1.080000,1.840000,3.000000,102.000000,1,0,-0.346457,0.346457,1,0.187897,-0.007614,0.000000,0.046417,-2.160645,0.000000,0.138000,0.169000,0.120000,FlatInitial,Hold,0
08:08:47.896 PM 02/16/2016,Teleop Enabled,0,FALSE,0,NO ERROR,0.000000,0.000000,4000.000000,4000.000000,Speed,Speed,88.500000,-1.240000,2.090000,3.000000,101.000000,1,0,-0.000000,0.000000,1,0.307861,0.000168,0.000000,0.059021,-2.159683,0.000000,0.150000,-0.147000,0.004000,FlatInitial,Hold,0
08:08:47.997 PM 02/16/2016,Teleop Enabled,0,FALSE,0,NO ERROR,128.759766,-211.376953,4000.000000,4000.000000,Speed,Speed,101.110000,-0.290000,1.910000,3.000000,101.000000,1,0,-0.000000,0.000000,1,0.235626,-0.261917,0.000000,0.074905,-2.166885,0.000000,-0.285000,-0.206000,-0.143000,FlatInitial,Hold,0
08:08:48.099 PM 02/16/2016,Teleop Enabled,0,FALSE,0,NO ERROR,1889.355469,-1570.019531,4000.000000,4000.000000,Speed,Speed,106.770000,0.100000,1.170000,3.000000,100.000000,1,0,-0.000000,0.000000,1,0.116425,-0.342300,0.000000,0.081650,-2.182724,0.000000,-0.021000,-0.083000,-0.033000,FlatInitial,Hold,0
08:08:48.199 PM 02/16/2016,Teleop Enabled,0,FALSE,0,NO ERROR,3612.451172,-3222.363281,4000.000000,4000.000000,Speed,Speed,108.310000,0.660000,1.030000,3.000000,101.000000,1,0,-0.000000,0.000000,1,0.071960,-0.453949,0.000000,0.085541,-2.203156,0.000000,0.062000,-0.097000,-0.067000,FlatInitial,Hold,0
08:08:48.300 PM 02/16/2016,Teleop Enabled,0,FALSE,0,NO ERROR,4100.244141,-3804.492187,4000.000000,4000.000000,Speed,Speed,108.370000,0.580000,1.660000,3.000000,102.000000,1,0,-0.000000,0.000000,1,0.167389,-0.490341,0.000000,0.092163,-2.226990,0.000000,-0.008000,-0.068000,0.091000,FlatInitial,Hold,0
08:08:48.400 PM 02/16/2016,Teleop Enabled,0,FALSE,0,NO ERROR,3991.845703,-3722.607422,4000.000000,4000.000000,Speed,Speed,108.130000,0.630000,1.740000,3.000000,102.000000,1,0,-0.000000,0.000000,1,0.226501,-0.522736,0.000000,0.102371,-2.252838,0.000000,0.000000,-0.050000,-0.041000,FlatInitial,Hold,0
08:08:48.500 PM 02/16/2016,Teleop Enabled,0,FALSE,0,NO ERROR,3852.246094,-3652.880859,4000.000000,4000.000000,Speed,Speed,108.050000,0.670000,1.670000,3.000000,101.000000,1,0,-0.000000,0.000000,1,0.238998,0.004074,0.000000,0.116470,-2.268631,0.000000,-0.066000,0.026000,-0.007000,FlatInitial,Hold,0
08:08:48.600 PM 02/16/2016,Teleop Enabled,0,FALSE,0,NO ERROR,3825.878906,-3711.328125,4000.000000,4000.000000,Speed,Speed,108.030000,0.690000,1.640000,3.000000,103.000000,1,0,-0.000000,0.000000,1,-0.006714,0.000000,0.000000,0.118744,-2.268448,0.000000,-0.005000,0.000000,-0.052000,FlatInitial,Hold,0
08:08:48.700 PM 02/16/2016,Teleop Enabled,0,FALSE,0,NO ERROR,3866.894531,-3834.960937,4000.000000,4000.000000,Speed,Speed,108.040000,0.690000,1.540000,3.000000,102.000000,1,0,-0.000000,0.000000,1,-0.037354,0.000000,0.000000,0.116898,-2.268646,0.000000,-0.032000,0.001000,0.107000,FlatInitial,Hold,0
08:08:48.800 PM 02/16/2016,Teleop Enabled,0,FALSE,0,NO ERROR,3928.710937,-3922.851562,4000.000000,4000.000000,Speed,Speed,108.020000,0.690000,1.650000,3.000000,101.000000,1,0,-0.000000,0.000000,1,-0.024902,-0.010071,0.000000,0.115417,-2.268997,0.000000,-0.008000,0.020000,0.071000,FlatInitial,Hold,0
08:08:48.901 PM 02/16/2016,Teleop Enabled,0,FALSE,0,NO ERROR,3973.681641,-3961.523437,4000.000000,4000.000000,Speed,Speed,108.020000,0.680000,1.650000,3.000000,103.000000,1,0,-0.000000,0.000000,1,-0.021927,-0.028702,0.000000,0.114212,-2.269867,0.000000,-0.016000,-0.088000,-0.095000,FlatInitial,Hold,0
08:08:49.001 PM 02/16/2016,Teleop Enabled,0,FALSE,0,NO ERROR,3993.017578,-3982.763672,4000.000000,4000.000000,Speed,Speed,108.020000,0.720000,1.650000,3.000000,102.000000,1,0,0.354331,0.354331,1,-0.034897,-0.034958,0.000000,0.112717,-2.271591,0.000000,0.025000,-0.028000,-0.040000,FlatInitial,Hold,0
08:08:49.101 PM 02/16/2016,Teleop Enabled,0,FALSE,0,NO ERROR,3993.017578,-3992.578125,4000.000000,4000.000000,Speed,Speed,108.710000,0.600000,-1.050000,3.000000,104.000000,1,0,0.354331,0.354331,1,-0.308884,0.071487,0.000000,0.104462,-2.270096,0.000000,-0.145000,0.009000,-0.020000,FlatInitial,Hold,0
08:08:49.201 PM 02/16/2016,Teleop Enabled,0,FALSE,0,NO ERROR,3965.185547,-3963.720703,4000.000000,4000.000000,Speed,Speed,109.200000,0.710000,-1.620000,3.000000,102.000000,1,0,0.354331,0.354331,1,-0.445816,0.112381,0.000000,0.084839,-2.265259,0.000000,-0.147000,0.023000,-0.136000,FlatInitial,Hold,0
08:08:49.301 PM 02/16/2016,Teleop Enabled,0,FALSE,0,NO ERROR,3946.728516,-3942.333984,4000.000000,4000.000000,Speed,Speed,110.410000,0.510000,-0.600000,3.000000,103.000000,1,0,0.204724,0.204724,1,-0.513153,0.153488,0.000000,0.060089,-2.258362,0.000000,-0.046000,0.008000,0.018000,FlatInitial,Hold,0
08:08:49.401 PM 02/16/2016,Teleop Enabled,0,FALSE,0,NO ERROR,3963.427734,-3968.701172,4000.000000,4000.000000,Speed,Speed,112.400000,0.440000,-0.450000,3.000000,101.000000,1,0,-0.000000,0.000000,1,-0.494324,0.194489,0.000000,0.034775,-2.248795,0.000000,0.065000,-0.006000,0.095000,FlatInitial,Hold,0
08:08:49.501 PM 02/16/2016,Teleop Enabled,0,FALSE,0,NO ERROR,4004.589844,-4009.130859,4000.000000,4000.000000,Speed,Speed,114.180000,0.600000,1.960000,3.000000,102.000000,1,0,-0.000000,0.000000,1,-0.166748,0.050873,0.000000,0.020996,-2.243134,0.000000,0.101000,-0.056000,0.013000,FlatInitial,Hold,0
08:08:49.601 PM 02/16/2016,Teleop Enabled,0,FALSE,0,NO ERROR,4033.154297,-4045.458984,4000.000000,4000.000000,Speed,Speed,115.140000,0.400000,1.850000,3.000000,101.000000,1,0,-0.000000,0.000000,1,-0.001434,0.020386,0.000000,0.017593,-2.242020,0.000000,0.070000,-0.039000,-0.102000,FlatInitial,Hold,1
08:08:49.701 PM 02/16/2016,Teleop Enabled,0,FALSE,0,NO ERROR,4039.892578,-4048.681641,4000.000000,4000.000000,Speed,Speed,115.210000,0.790000,2.400000,3.000000,101.000000,1,0,-0.000000,0.000000,1,0.031372,-0.075500,0.000000,0.019180,-2.243240,0.000000,0.142000,-0.010000,0.035000,FlatInitial,Hold,1
08:08:49.801 PM 02/16/2016,Teleop Enabled,0,FALSE,0,NO ERROR,4041.503906,-4039.013672,4000.000000,4000.000000,Speed,Speed,114.990000,0.610000,2.560000,3.000000,101.000000,1,0,0.188976,-0.188976,1,0.118195,-0.102997,0.000000,0.023560,-2.247681,0.000000,0.025000,-0.158000,-0.103000,FlatInitial,Hold,1
08:08:49.901 PM 02/16/2016,Teleop Enabled,0,FALSE,0,NO ERROR,4033.593750,-4031.835937,4000.000000,4000.000000,Speed,Speed,113.440000,1.110000,2.200000,3.000000,103.000000,1,0,0.188976,-0.188976,1,0.002365,-0.185196,0.000000,0.027496,-2.255676,0.000000,0.150000,-0.045000,-0.163000,FlatInitial,Hold,1
08:08:50.001 PM 02/16/2016,Teleop Enabled,0,FALSE,0,NO ERROR,4008.984375,-4014.111328,4000.000000,4000.000000,Speed,Speed,110.300000,1.230000,2.140000,3.000000,103.000000,1,0,0.188976,-0.188976,1,0.031876,-0.223511,0.000000,0.029251,-2.267761,0.000000,0.016000,-0.092000,-0.019000,FlatInitial,Hold,0
08:08:50.101 PM 02/16/2016,Teleop Enabled,0,FALSE,0,NO ERROR,3983.642578,-4000.488281,4000.000000,4000.000000,Speed,Speed,105.560000,1.470000,1.880000,3.000000,102.000000,1,0,0.173228,-0.173228,1,0.053848,-0.238113,0.000000,0.031067,-2.277542,0.000000,0.002000,0.136000,-0.108000,FlatInitial,Hold,0
08:08:50.201 PM 02/16/2016,Teleop Enabled,0,FALSE,0,NO ERROR,3976.318359,-3994.628906,4000.000000,4000.000000,Speed,Speed,102.120000,0.990000,2.880000,3.000000,103.000000,1,0,0.173228,-0.173228,1,0.099701,-0.110703,0.000000,0.034821,-2.285751,0.000000,-0.036000,-0.151000,-0.332000,FlatInitial,Hold,0
08:08:50.303 PM 02/16/2016,Teleop Enabled,0,FALSE,0,NO ERROR,3993.017578,-4007.226562,4000.000000,4000.000000,Speed,Speed,98.830000,1.750000,2.090000,3.000000,100.000000,1,0,-0.000000,0.000000,1,0.071289,-0.229050,0.000000,0.039505,-2.297806,0.000000,0.081000,0.175000,-0.004000,FlatInitial,Hold,0
08:08:50.403 PM 02/16/2016,Teleop Enabled,0,FALSE,0,NO ERROR,4012.792969,-4024.804687,4000.000000,4000.000000,Speed,Speed,96.690000,0.750000,2.190000,3.000000,102.000000,1,0,-0.307087,0.307087,1,0.185989,-0.026154,0.000000,0.046432,-2.302704,0.000000,0.297000,0.152000,0.182000,FlatInitial,Hold,0
08:08:50.503 PM 02/16/2016,Teleop Enabled,0,FALSE,0,NO ERROR,4021.582031,-4019.531250,4000.000000,4000.000000,Speed,Speed,100.760000,0.200000,3.060000,3.000000,101.000000,1,0,-0.322835,0.322835,1,0.330353,0.030869,0.000000,0.061829,-2.301605,0.000000,0.129000,-0.016000,-0.078000,FlatInitial,Hold,0
08:08:50.603 PM 02/16/2016,Teleop Enabled,0,FALSE,0,NO ERROR,4001.367187,-3970.751953,4000.000000,4000.000000,Speed,Speed,108.800000,-0.560000,3.200000,3.000000,104.000000,1,0,-0.354331,0.354331,1,0.403259,0.094818,0.000000,0.080841,-2.297897,0.000000,0.071000,-0.020000,0.013000,FlatInitial,Hold,0
08:08:50.704 PM 02/16/2016,Teleop Enabled,0,FALSE,0,NO ERROR,3981.152344,-3956.250000,4000.000000,4000.000000,Speed,Speed,119.360000,-1.010000,2.690000,3.000000,101.000000,1,0,-0.000000,0.000000,1,0.439240,0.064423,0.000000,0.102890,-2.293259,0.000000,-0.122000,-0.118000,0.080000,FlatInitial,Hold,0
08:08:50.805 PM 02/16/2016,Teleop Enabled,0,FALSE,0,NO ERROR,3982.324219,-3977.636719,4000.000000,4000.000000,Speed,Speed,126.900000,-0.100000,1.790000,3.000000,101.000000,1,0,-0.000000,0.000000,1,0.118179,-0.030258,0.000000,0.115585,-2.294632,0.000000,-0.104000,-0.022000,-0.060000,FlatInitial,Hold,0
08:08:50.905 PM 02/16/2016,Teleop Enabled,0,FALSE,0,NO ERROR,4003.710937,-4052.197266,4000.000000,4000.000000,Speed,Speed,129.080000,0.260000,1.990000,3.000000,102.000000,1,0,-0.000000,0.000000,1,0.035080,-0.070923,0.000000,0.119217,-2.297119,0.000000,-0.216000,-0.097000,0.038000,FlatInitial,Hold,0
08:08:51.005 PM 02/16/2016,Teleop Enabled,0,FALSE,0,NO ERROR,4023.632812,-4071.386719,4000.000000,4000.000000,Speed,Speed,128.430000,0.410000,2.130000,3.000000,101.000000,1,0,-0.000000,0.000000,1,0.074417,-0.160812,0.000000,0.120209,-2.302963,0.000000,0.130000,-0.092000,0.076000,FlatInitial,Hold,0
08:08:51.106 PM 02/16/2016,Teleop Enabled,0,FALSE,0,NO ERROR,4035.498047,-4051.757812,4000.000000,4000.000000,Speed,Speed,128.170000,0.480000,2.090000,3.000000,102.000000,1,0,-0.000000,0.000000,1,0.065857,-0.200287,0.000000,0.123779,-2.312134,0.000000,-0.006000,-0.032000,-0.009000,FlatInitial,Hold,0
08:08:51.206 PM 02/16/2016,Teleop Enabled,0,FALSE,0,NO ERROR,4034.033203,-4026.416016,4000.000000,4000.000000,Speed,Speed,128.120000,0.440000,1.890000,3.000000,101.000000,1,0,-0.000000,0.000000,1,-0.027542,-0.209351,0.000000,0.123154,-2.324600,0.000000,-0.006000,-0.032000,-0.009000,FlatInitial,Hold,0
08:08:51.306 PM 02/16/2016,Teleop Enabled,0,FALSE,0,NO ERROR,4023.486328,-4014.990234,4000.000000,4000.000000,Speed,Speed,128.000000,0.510000,1.820000,3.000000,106.000000,1,0,-0.000000,0.000000,1,-0.063492,-0.202988,0.000000,0.120499,-2.334961,0.000000,-0.055000,-0.056000,-0.109000,FlatInitial,Hold,0
08:08:51.407 PM 02/16/2016,Teleop Enabled,0,FALSE,0,NO ERROR,4017.041016,-4013.671875,4000.000000,4000.000000,Speed,Speed,128.170000,0.350000,1.160000,3.000000,102.000000,1,0,0.346457,0.346457,1,-0.195328,-0.080566,0.000000,0.115433,-2.343109,0.000000,0.003000,0.016000,0.040000,FlatInitial,Hold,0
08:08:51.507 PM 02/16/2016,Teleop Enabled,0,FALSE,0,NO ERROR,3997.705078,-3994.775391,4000.000000,4000.000000,Speed,Speed,128.860000,0.490000,-1.680000,3.000000,102.000000,1,0,0.220472,0.220472,1,-0.195328,-0.080566,0.000000,0.115433,-2.343109,0.000000,-0.510000,0.281000,0.264000,FlatInitial,Hold,0
08:08:51.608 PM 02/16/2016,Teleop Enabled,0,FALSE,0,NO ERROR,3957.128906,-3951.416016,4000.000000,4000.000000,Speed,Speed,129.130000,0.760000,0.000000,3.000000,103.000000,1,0,-0.000000,0.000000,1,-0.364838,-0.018784,0.000000,0.078781,-2.339951,0.000000,-0.158000,0.073000,-0.171000,FlatInitial,Hold,0
08:08:51.708 PM 02/16/2016,Teleop Enabled,0,FALSE,0,NO ERROR,3961.376953,-3972.802734,4000.000000,4000.000000,Speed,Speed,129.130000,0.760000,0.000000,3.000000,102.000000,1,0,-0.000000,0.000000,1,-0.206711,-0.178986,0.000000,0.067078,-2.345840,0.000000,0.358000,-0.319000,0.428000,FlatInitial,Hold,1
08:08:51.808 PM 02/16/2016,Teleop Enabled,0,FALSE,0,NO ERROR,4001.660156,-4020.703125,4000.000000,4000.000000,Speed,Speed,130.510000,0.460000,1.540000,3.000000,102.000000,1,0,-0.000000,0.000000,1,-0.140717,-0.220703,0.000000,0.059357,-2.355835,0.000000,0.026000,-0.131000,0.216000,FlatInitial,Hold,1
08:08:51.908 PM 02/16/2016,Teleop Enabled,0,FALSE,0,NO ERROR,4025.537109,-4036.083984,4000.000000,4000.000000,Speed,Speed,130.350000,0.840000,2.190000,3.000000,103.000000,1,0,-0.000000,0.000000,1,-0.140717,-0.220703,0.000000,0.059357,-2.355835,0.000000,-0.143000,-0.218000,-0.208000,FlatInitial,Hold,1
08:08:52.009 PM 02/16/2016,Teleop Enabled,0,FALSE,0,NO ERROR,4031.982422,-4032.568359,4000.000000,4000.000000,Speed,Speed,130.220000,0.750000,1.700000,3.000000,102.000000,1,0,-0.000000,0.000000,1,-0.135620,-0.292450,0.000000,0.051773,-2.369766,0.000000,0.111000,0.062000,0.119000,FlatInitial,Hold,0
08:08:52.110 PM 02/16/2016,Teleop Enabled,0,FALSE,0,NO ERROR,4020.410156,-4026.416016,4000.000000,4000.000000,Speed,Speed,130.000000,0.770000,1.440000,3.000000,104.000000,1,0,-0.000000,0.000000,1,-0.113831,-0.308136,0.000000,0.045883,-2.384735,0.000000,-0.001000,-0.052000,0.065000,FlatInitial,Hold,0
08:08:52.210 PM 02/16/2016,Teleop Enabled,0,FALSE,0,NO ERROR,4011.035156,-4013.085937,4000.000000,4000.000000,Speed,Speed,130.000000,0.770000,1.440000,3.000000,102.000000,1,0,-0.000000,0.000000,1,-0.017700,0.021515,0.000000,0.046234,-2.404510,0.000000,0.035000,0.014000,-0.122000,FlatInitial,Hold,0
08:08:52.311 PM 02/16/2016,Teleop Enabled,0,FALSE,0,NO ERROR,4012.646484,-4009.863281,4000.000000,4000.000000,Speed,Speed,129.950000,0.780000,1.720000,3.000000,103.000000,1,0,-0.000000,0.000000,1,-0.017700,0.021515,0.000000,0.046234,-2.404510,0.000000,-0.046000,0.035000,0.246000,FlatInitial,Hold,0
08:08:52.412 PM 02/16/2016,Teleop Enabled,0,FALSE,0,NO ERROR,4014.111328,-4011.474609,4000.000000,4000.000000,Speed,Speed,129.950000,0.780000,1.720000,3.000000,102.000000,1,0,-0.000000,0.000000,1,-0.014023,0.006836,0.000000,0.044922,-2.403687,0.000000,0.042000,-0.025000,0.078000,FlatInitial,Hold,0
08:08:52.512 PM 02/16/2016,Teleop Enabled,0,FALSE,0,NO ERROR,4013.232422,-4006.201172,4000.000000,4000.000000,Speed,Speed,129.980000,0.750000,2.010000,3.000000,103.000000,1,0,-0.000000,0.000000,1,0.028290,-0.014755,0.000000,0.045563,-2.403839,0.000000,0.015000,-0.018000,-0.012000,FlatInitial,Hold,0
08:08:52.612 PM 02/16/2016,Teleop Enabled,0,FALSE,0,NO ERROR,4007.226562,-3997.705078,4000.000000,4000.000000,Speed,Speed,129.990000,0.820000,2.140000,3.000000,102.000000,1,0,-0.000000,0.000000,1,0.000000,-0.028580,0.000000,0.046890,-2.404968,0.000000,0.021000,0.040000,0.008000,FlatInitial,Hold,0
08:08:52.712 PM 02/16/2016,Teleop Enabled,0,FALSE,0,NO ERROR,4001.367187,-3993.750000,4000.000000,4000.000000,Speed,Speed,130.000000,0.780000,2.120000,3.000000,102.000000,1,0,-0.000000,0.000000,1,0.020126,0.003387,0.000000,0.047592,-2.405441,0.000000,0.032000,-0.014000,0.054000,FlatInitial,Hold,0
08:08:52.813 PM 02/16/2016,Teleop Enabled,0,FALSE,0,NO ERROR,4001.220703,-3993.164062,4000.000000,4000.000000,Speed,Speed,129.990000,0.790000,2.190000,3.000000,102.000000,1,0,-0.000000,0.000000,1,0.010086,0.015121,0.000000,0.048203,-2.405075,0.000000,0.013000,0.006000,0.010000,FlatInitial,Hold,0
08:08:52.914 PM 02/16/2016,Teleop Enabled,0,FALSE,0,NO ERROR,4000.634766,-3996.972656,4000.000000,4000.000000,Speed,Speed,130.010000,0.800000,2.240000,3.000000,101.000000,1,0,-0.000000,0.000000,1,0.000000,0.028015,0.000000,0.048340,-2.403885,0.000000,-0.004000,0.012000,-0.029000,FlatInitial,Hold,0
08:08:53.015 PM 02/16/2016,Teleop Enabled,0,FALSE,0,NO ERROR,3998.583984,-4002.392578,4000.000000,4000.000000,Speed,Speed,130.010000,0.780000,2.240000,3.000000,101.000000,1,0,0.275591,0.275591,1,0.003540,0.000000,0.000000,0.048660,-2.402588,0.000000,0.021000,0.000000,0.100000,FlatInitial,Hold,0
08:08:53.115 PM 02/16/2016,Teleop Enabled,0,FALSE,0,NO ERROR,3987.304687,-3994.482422,4000.000000,4000.000000,Speed,Speed,130.000000,0.800000,2.310000,3.000000,101.000000,1,0,-0.000000,0.000000,1,-0.034286,0.056885,0.000000,0.048325,-2.401871,0.000000,-0.189000,0.252000,0.225000,FlatInitial,Hold,0
08:08:53.216 PM 02/16/2016,Teleop Enabled,0,FALSE,0,NO ERROR,3965.771484,-3976.757812,4000.000000,4000.000000,Speed,Speed,130.510000,0.720000,0.010000,3.000000,101.000000,1,0,-0.000000,0.000000,1,-0.169037,0.172882,0.000000,0.042969,-2.395996,0.000000,-0.008000,0.042000,-0.287000,FlatInitial,Hold,0
08:08:53.316 PM 02/16/2016,Teleop Enabled,0,FALSE,0,NO ERROR,3979.101562,-3994.628906,4000.000000,4000.000000,Speed,Speed,130.390000,0.850000,2.220000,3.000000,104.000000,1,0,-0.000000,0.000000,1,-0.095032,0.086334,0.000000,0.033798,-2.387939,0.000000,0.363000,-0.079000,0.381000,FlatInitial,Hold,1
08:08:53.416 PM 02/16/2016,Teleop Enabled,0,FALSE,0,NO ERROR,4003.710937,-4018.066406,4000.000000,4000.000000,Speed,Speed,130.970000,0.730000,2.930000,3.000000,103.000000,1,0,-0.000000,0.000000,1,0.000839,0.020462,0.000000,0.033096,-2.386093,0.000000,0.043000,-0.051000,0.190000,FlatInitial,Hold,1
08:08:53.517 PM 02/16/2016,Teleop Enabled,0,FALSE,0,NO ERROR,4016.015625,-4025.683594,4000.000000,4000.000000,Speed,Speed,131.200000,0.620000,2.780000,3.000000,101.000000,1,0,-0.000000,0.000000,1,0.059143,-0.006714,0.000000,0.035522,-2.385651,0.000000,-0.062000,-0.066000,-0.124000,FlatInitial,Hold,1
08:08:53.617 PM 02/16/2016,Teleop Enabled,0,FALSE,0,NO ERROR,4018.798828,-4019.091797,4000.000000,4000.000000,Speed,Speed,131.150000,0.700000,3.240000,3.000000,102.000000,1,0,-0.000000,0.000000,1,0.076370,0.000000,0.000000,0.038223,-2.386230,0.000000,0.080000,0.000000,0.111000,FlatInitial,Hold,0
08:08:53.717 PM 02/16/2016,Teleop Enabled,0,FALSE,0,NO ERROR,4014.111328,-4008.398437,4000.000000,4000.000000,Speed,Speed,131.200000,0.760000,2.850000,3.000000,101.000000,1,0,0.204724,-0.204724,1,0.063049,0.017441,0.000000,0.042114,-2.385773,0.000000,-0.065000,-0.009000,0.107000,FlatInitial,Hold,0
08:08:53.818 PM 02/16/2016,Teleop Enabled,0,FALSE,0,NO ERROR,3993.164062,-4008.398437,4000.000000,4000.000000,Speed,Speed,130.710000,0.890000,2.750000,3.000000,101.000000,1,0,0.204724,-0.204724,1,0.070312,-0.031677,0.000000,0.045227,-2.385971,0.000000,-0.341000,0.099000,0.112000,FlatInitial,Hold,0
08:08:53.919 PM 02/16/2016,Teleop Enabled,0,FALSE,0,NO ERROR,3976.904297,-3995.214844,4000.000000,4000.000000,Speed,Speed,127.630000,1.480000,2.010000,3.000000,101.000000,1,0,0.220472,-0.220472,1,-0.076935,-0.035568,0.000000,0.043274,-2.386948,0.000000,-0.118000,0.120000,0.039000,FlatInitial,Hold,0
08:08:54.019 PM 02/16/2016,Teleop Enabled,0,FALSE,0,NO ERROR,3976.904297,-3987.890625,4000.000000,4000.000000,Speed,Speed,122.920000,1.640000,2.350000,3.000000,105.000000,1,0,0.196850,-0.196850,1,-0.112595,-0.012161,0.000000,0.038055,-2.387283,0.000000,-0.012000,-0.036000,0.045000,FlatInitial,Hold,0
08:08:54.120 PM 02/16/2016,Teleop Enabled,0,FALSE,0,NO ERROR,3979.394531,-3987.597656,4000.000000,4000.000000,Speed,Speed,117.600000,2.010000,1.770000,3.000000,101.000000,1,0,0.188976,-0.188976,1,-0.122604,-0.056564,0.000000,0.031937,-2.389297,0.000000,0.049000,0.031000,-0.069000,FlatInitial,Hold,0
08:08:54.220 PM 02/16/2016,Teleop Enabled,0,FALSE,0,NO ERROR,3990.527344,-3991.552734,4000.000000,4000.000000,Speed,Speed,112.140000,1.700000,2.370000,3.000000,101.000000,1,0,0.188976,-0.188976,1,-0.017197,0.026291,0.000000,0.028503,-2.389801,0.000000,-0.007000,-0.005000,0.068000,FlatInitial,Hold,0
08:08:54.320 PM 02/16/2016,Teleop Enabled,0,FALSE,0,NO ERROR,3998.876953,-3994.628906,4000.000000,4000.000000,Speed,Speed,107.330000,2.130000,2.400000,3.000000,101.000000,1,0,0.204724,-0.204724,1,-0.006165,-0.032104,0.000000,0.028122,-2.389847,0.000000,0.092000,0.067000,0.050000,FlatInitial,Hold,0
08:08:54.420 PM 02/16/2016,Teleop Enabled,0,FALSE,0,NO ERROR,4003.417969,-3998.437500,4000.000000,4000.000000,Speed,Speed,102.860000,1.880000,2.390000,3.000000,101.000000,1,0,0.267717,-0.267717,1,0.049744,0.035126,0.000000,0.029724,-2.389267,0.000000,-0.071000,-0.051000,0.069000,FlatInitial,Hold,0
08:08:54.520 PM 02/16/2016,Teleop Enabled,0,FALSE,0,NO ERROR,4002.685547,-4001.953125,4000.000000,4000.000000,Speed,Speed,97.960000,2.170000,2.390000,3.000000,102.000000,1,0,0.346457,-0.346457,1,0.035446,0.012787,0.000000,0.031998,-2.388397,0.000000,-0.036000,0.032000,-0.039000,FlatInitial,Hold,0
08:08:54.620 PM 02/16/2016,Teleop Enabled,0,FALSE,0,NO ERROR,3996.386719,-3997.998047,4000.000000,4000.000000,Speed,Speed,91.630000,2.430000,2.350000,3.000000,100.000000,1,0,0.354331,-0.354331,1,-0.012161,-0.042694,0.000000,0.032440,-2.388855,0.000000,0.004000,-0.169000,-0.008000,FlatInitial,Hold,0
08:08:54.720 PM 02/16/2016,Teleop Enabled,0,FALSE,0,NO ERROR,3975.000000,-3974.853516,4000.000000,4000.000000,Speed,Speed,80.700000,3.160000,2.030000,3.000000,103.000000,1,0,0.354331,-0.354331,1,0.001068,-0.113464,0.000000,0.032059,-2.393280,0.000000,0.040000,-0.075000,-0.096000,FlatInitial,Hold,0
08:08:54.820 PM 02/16/2016,Teleop Enabled,0,FALSE,0,NO ERROR,3961.083984,-3965.917969,4000.000000,4000.000000,Speed,Speed,71.690000,3.560000,1.820000,3.000000,103.000000,1,0,0.354331,-0.354331,1,0.080444,-0.131973,0.000000,0.034454,-2.400299,0.000000,0.146000,-0.006000,-0.020000,FlatInitial,Hold,0
08:08:54.920 PM 02/16/2016,Teleop Enabled,0,FALSE,0,NO ERROR,3965.478516,-3982.910156,4000.000000,4000.000000,Speed,Speed,56.520000,3.880000,1.620000,3.000000,101.000000,1,0,0.354331,-0.354331,1,0.158981,-0.156952,0.000000,0.040863,-2.407883,0.000000,0.018000,0.043000,-0.005000,FlatInitial,Hold,0
08:08:55.020 PM 02/16/2016,Teleop Enabled,0,FALSE,0,NO ERROR,3979.833984,-3999.462891,4000.000000,4000.000000,Speed,Speed,43.000000,3.640000,1.160000,3.000000,101.000000,1,0,0.354331,-0.354331,1,0.229919,-0.050842,0.000000,0.050705,-2.413269,0.000000,0.014000,0.319000,0.049000,FlatInitial,Hold,0
08:08:55.120 PM 02/16/2016,Teleop Enabled,0,FALSE,0,NO ERROR,3998.583984,-4006.054687,4000.000000,4000.000000,Speed,Speed,30.780000,3.430000,-0.100000,3.000000,101.000000,1,0,0.354331,-0.354331,1,0.255966,0.081497,0.000000,0.063354,-2.411194,0.000000,0.109000,0.124000,-0.481000,FlatInitial,Hold,0
08:08:55.220 PM 02/16/2016,Teleop Enabled,0,FALSE,0,NO ERROR,4005.175781,-4007.812500,4000.000000,4000.000000,Speed,Speed,20.040000,2.710000,-0.100000,3.000000,102.000000,1,0,0.196850,-0.196850,1,0.187424,0.249512,0.000000,0.075470,-2.402359,0.000000,-0.177000,0.214000,-0.097000,FlatInitial,Hold,0
08:08:55.320 PM 02/16/2016,Teleop Enabled,0,FALSE,0,NO ERROR,4006.201172,-3990.673828,4000.000000,4000.000000,Speed,Speed,13.040000,1.510000,-0.130000,3.000000,102.000000,1,0,-0.000000,0.000000,1,-0.059494,0.470901,0.000000,0.078186,-2.382935,0.000000,-0.243000,0.112000,-0.046000,FlatInitial,Hold,0
08:08:55.420 PM 02/16/2016,Teleop Enabled,0,FALSE,0,NO ERROR,4019.091797,-3983.496094,4000.000000,4000.000000,Speed,Speed,12.820000,1.400000,0.250000,3.000000,101.000000,1,0,-0.000000,0.000000,1,-0.109192,0.556732,0.000000,0.071762,-2.355194,0.000000,0.208000,-0.207000,0.106000,FlatInitial,Hold,0
08:08:55.520 PM 02/16/2016,Teleop Enabled,0,FALSE,0,NO ERROR,4038.720703,-4026.562500,4000.000000,4000.000000,Speed,Speed,14.470000,1.750000,0.310000,3.000000,101.000000,1,0,-0.000000,0.000000,1,-0.029404,0.405975,0.000000,0.070114,-2.332581,0.000000,-0.137000,-0.027000,0.045000,FlatInitial,Hold,0
08:08:55.621 PM 02/16/2016,Teleop Enabled,0,FALSE,0,NO ERROR,4039.892578,-4053.076172,4000.000000,4000.000000,Speed,Speed,15.290000,1.550000,0.300000,3.000000,100.000000,1,0,-0.000000,0.000000,1,-0.064941,0.383972,0.000000,0.066788,-2.313126,0.000000,0.072000,-0.013000,0.015000,FlatInitial,Hold,0
08:08:55.722 PM 02/16/2016,Teleop Enabled,0,FALSE,0,NO ERROR,4034.619141,-4047.802734,4000.000000,4000.000000,Speed,Speed,15.460000,1.680000,0.450000,3.000000,102.000000,1,0,-0.000000,0.000000,1,-0.034790,0.432419,0.000000,0.064606,-2.292419,0.000000,-0.001000,-0.032000,0.021000,FlatInitial,Hold,0
08:08:55.823 PM 02/16/2016,Teleop Enabled,0,FALSE,0,NO ERROR,4023.632812,-4023.486328,4000.000000,4000.000000,Speed,Speed,15.420000,1.650000,0.520000,3.000000,101.000000,1,0,-0.000000,0.000000,1,-0.050110,0.425858,0.000000,0.062256,-2.271011,0.000000,-0.027000,0.029000,-0.089000,FlatInitial,Hold,0
08:08:55.923 PM 02/16/2016,Teleop Enabled,0,FALSE,0,NO ERROR,4017.773437,-4009.863281,4000.000000,4000.000000,Speed,Speed,15.430000,1.610000,0.560000,3.000000,103.000000,1,0,-0.000000,0.000000,1,-0.074860,0.441284,0.000000,0.058990,-2.249557,0.000000,-0.001000,0.001000,0.142000,FlatInitial,Hold,0
08:08:56.023 PM 02/16/2016,Teleop Enabled,0,FALSE,0,NO ERROR,4012.646484,-4010.009766,4000.000000,4000.000000,Speed,Speed,15.440000,1.590000,0.570000,3.000000,102.000000,1,0,-0.000000,0.000000,1,-0.084564,-0.012314,0.000000,0.055023,-2.245499,0.000000,-0.010000,0.007000,0.026000,FlatInitial,Hold,0
08:08:56.123 PM 02/16/2016,Teleop Enabled,0,FALSE,0,NO ERROR,4010.009766,-4013.378906,4000.000000,4000.000000,Speed,Speed,15.440000,1.550000,0.560000,3.000000,102.000000,1,0,-0.000000,0.000000,1,-0.123718,-0.015915,0.000000,0.048721,-2.246201,0.000000,-0.048000,0.022000,-0.064000,FlatInitial,Hold,0
08:08:56.223 PM 02/16/2016,Teleop Enabled,0,FALSE,0,NO ERROR,4007.666016,-4014.550781,4000.000000,4000.000000,Speed,Speed,15.440000,1.490000,0.510000,3.000000,102.000000,1,0,-0.307087,-0.307087,1,-0.161926,0.000000,0.000000,0.041443,-2.246796,0.000000,-0.051000,0.009000,0.106000,FlatInitial,Hold,0
08:08:56.323 PM 02/16/2016,Teleop Enabled,0,FALSE,0,NO ERROR,4006.933594,-4010.888672,4000.000000,4000.000000,Speed,Speed,15.330000,1.480000,0.660000,3.000000,101.000000,1,0,-0.377953,-0.377953,1,-0.147446,0.099579,0.000000,0.033051,-2.245392,0.000000,0.070000,0.488000,-0.053000,FlatInitial,Hold,0
08:08:56.423 PM 02/16/2016,Teleop Enabled,0,FALSE,0,NO ERROR,3981.738281,-3970.458984,4000.000000,4000.000000,Speed,Speed,14.630000,1.190000,3.300000,3.000000,102.000000,1,0,-0.393701,-0.393701,1,-0.087997,0.380585,0.000000,0.026962,-2.229843,0.000000,0.074000,0.212000,-0.241000,FlatInitial,Hold,1
08:08:56.523 PM 02/16/2016,Teleop Enabled,0,FALSE,0,NO ERROR,3947.021484,-3925.781250,4000.000000,4000.000000,Speed,Speed,13.240000,1.480000,3.480000,3.000000,101.000000,1,0,-0.393701,-0.393701,1,-0.035507,0.526154,0.000000,0.024368,-2.205948,0.000000,-0.005000,0.080000,-0.029000,FlatInitial,Hold,1
08:08:56.623 PM 02/16/2016,Teleop Enabled,0,FALSE,0,NO ERROR,3943.652344,-3930.615234,4000.000000,4000.000000,Speed,Speed,10.890000,1.480000,4.410000,3.000000,102.000000,1,0,-0.393701,-0.393701,1,-0.055695,0.621841,0.000000,0.022141,-2.176544,0.000000,0.008000,0.041000,0.092000,FlatInitial,Hold,1
08:08:56.723 PM 02/16/2016,Teleop Enabled,0,FALSE,0,NO ERROR,3971.044922,-3977.783203,4000.000000,4000.000000,Speed,Speed,8.410000,1.550000,4.800000,3.000000,102.000000,1,0,-0.000000,0.000000,1,-0.073151,0.652496,0.000000,0.018387,-2.144363,0.000000,0.091000,-0.004000,-0.054000,FlatInitial,Hold,1
08:08:56.823 PM 02/16/2016,Teleop Enabled,0,FALSE,0,NO ERROR,3990.380859,-4011.914062,4000.000000,4000.000000,Speed,Speed,6.000000,1.460000,3.020000,3.000000,100.000000,1,0,-0.000000,0.000000,1,-0.120071,0.447479,0.000000,0.014130,-2.114426,0.000000,-0.192000,-0.692000,0.112000,FlatInitial,Hold,0
08:08:56.923 PM 02/16/2016,Teleop Enabled,0,FALSE,0,NO ERROR,4015.869141,-4037.255859,4000.000000,4000.000000,Speed,Speed,3.060000,1.760000,-0.200000,3.000000,102.000000,1,0,-0.000000,0.000000,1,-0.059784,0.000000,0.000000,0.010147,-2.105453,0.000000,0.070000,0.004000,-0.425000,FlatInitial,Hold,0
08:08:57.024 PM 02/16/2016,Teleop Enabled,0,FALSE,0,NO ERROR,4021.435547,-4052.929687,4000.000000,4000.000000,Speed,Speed,0.660000,1.010000,0.550000,3.000000,101.000000,1,0,-0.000000,0.000000,1,-0.172165,-0.212708,0.000000,0.004807,-2.110855,0.000000,-0.118000,-0.203000,0.278000,FlatInitial,Hold,0
08:08:57.124 PM 02/16/2016,Teleop Enabled,0,FALSE,0,NO ERROR,4023.779297,-4041.796875,4000.000000,4000.000000,Speed,Speed,-1.210000,1.250000,0.910000,3.000000,101.000000,1,0,-0.000000,0.000000,1,-0.197449,-0.344772,0.000000,-0.006302,-2.125946,0.000000,0.152000,-0.104000,0.090000,FlatInitial,Hold,0
08:08:57.224 PM 02/16/2016,Teleop Enabled,0,FALSE,0,NO ERROR,4028.466797,-4024.951172,4000.000000,4000.000000,Speed,Speed,-1.860000,0.890000,0.030000,3.000000,101.000000,1,0,-0.000000,0.000000,1,-0.232315,-0.364120,0.000000,-0.015732,-2.144241,0.000000,-0.077000,0.058000,-0.052000,FlatInitial,Hold,0
08:08:57.324 PM 02/16/2016,Teleop Enabled,0,FALSE,0,NO ERROR,4025.683594,-4016.162109,4000.000000,4000.000000,Speed,Speed,-1.790000,0.830000,-0.270000,3.000000,102.000000,1,0,-0.000000,0.000000,1,-0.273178,-0.361771,0.000000,-0.032425,-2.165085,0.000000,0.089000,-0.032000,-0.039000,FlatInitial,Hold,0
08:08:57.424 PM 02/16/2016,Teleop Enabled,0,FALSE,0,NO ERROR,4014.111328,-4005.175781,4000.000000,4000.000000,Speed,Speed,-1.860000,0.830000,0.130000,3.000000,102.000000,1,0,-0.212598,0.212598,1,-0.304871,-0.384079,0.000000,-0.046143,-2.184082,0.000000,-0.142000,-0.050000,0.033000,FlatInitial,Hold,0
08:08:57.524 PM 02/16/2016,Teleop Enabled,0,FALSE,0,NO ERROR,4006.640625,-4000.048828,4000.000000,4000.000000,Speed,Speed,-0.050000,0.540000,1.270000,3.000000,102.000000,1,0,-0.220472,0.220472,1,-0.406311,-0.242661,0.000000,-0.065170,-2.200195,0.000000,-0.045000,-0.024000,0.187000,FlatInitial,Hold,0
08:08:57.624 PM 02/16/2016,Teleop Enabled,0,FALSE,0,NO ERROR,3999.169922,-3981.884766,4000.000000,4000.000000,Speed,Speed,5.020000,0.040000,1.030000,3.000000,103.000000,1,0,-0.220472,0.220472,1,-0.507935,-0.192062,0.000000,-0.088348,-2.211151,0.000000,-0.157000,0.058000,0.036000,FlatInitial,Hold,0
08:08:57.725 PM 02/16/2016,Teleop Enabled,0,FALSE,0,NO ERROR,3992.724609,-3972.656250,4000.000000,4000.000000,Speed,Speed,11.810000,0.130000,0.910000,3.000000,100.000000,1,0,-0.000000,0.000000,1,-0.499786,-0.159424,0.000000,-0.114243,-2.219833,0.000000,0.094000,0.055000,-0.040000,FlatInitial,Hold,0
08:08:57.825 PM 02/16/2016,Teleop Enabled,0,FALSE,0,NO ERROR,3993.457031,-3986.718750,4000.000000,4000.000000,Speed,Speed,17.790000,0.670000,0.830000,3.000000,102.000000,1,0,-0.000000,0.000000,1,-0.407379,-0.309525,0.000000,-0.136444,-2.230301,0.000000,0.043000,-0.286000,0.134000,FlatInitial,Hold,0
08:08:57.925 PM 02/16/2016,Teleop Enabled,0,FALSE,0,NO ERROR,3994.628906,-4013.085937,4000.000000,4000.000000,Speed,Speed,19.710000,1.120000,0.870000,3.000000,104.000000,1,0,-0.000000,0.000000,1,-0.350464,-0.384048,0.000000,-0.155090,-2.248550,0.000000,0.037000,-0.030000,0.095000,FlatInitial,Hold,0
08:08:58.026 PM 02/16/2016,Teleop Enabled,0,FALSE,0,NO ERROR,3999.755859,-4026.269531,4000.000000,4000.000000,Speed,Speed,19.560000,1.110000,0.880000,3.000000,101.000000,1,0,-0.362205,0.362205,1,-0.347137,-0.336014,0.000000,-0.172348,-2.267471,0.000000,0.067000,0.374000,-0.075000,FlatInitial,Hold,0
08:08:58.126 PM 02/16/2016,Teleop Enabled,0,FALSE,0,NO ERROR,4004.150391,-4001.367187,4000.000000,4000.000000,Speed,Speed,22.900000,0.370000,1.360000,3.000000,101.000000,1,0,-0.440945,0.440945,1,-0.468567,-0.103958,0.000000,-0.192917,-2.276352,0.000000,-0.102000,0.305000,0.011000,FlatInitial,Hold,0
08:08:58.226 PM 02/16/2016,Teleop Enabled,0,FALSE,0,NO ERROR,3981.884766,-3943.505859,4000.000000,4000.000000,Speed,Speed,32.990000,-0.450000,1.210000,3.000000,101.000000,1,0,-0.000000,0.000000,1,-0.551361,0.099701,0.000000,-0.219452,-2.274231,0.000000,0.069000,0.132000,-0.099000,FlatInitial,Hold,0
08:08:58.326 PM 02/16/2016,Teleop Enabled,0,FALSE,0,NO ERROR,3966.943359,-3922.558594,4000.000000,4000.000000,Speed,Speed,44.720000,0.110000,1.620000,3.000000,101.000000,1,0,-0.000000,0.000000,1,-0.386673,-0.060410,0.000000,-0.242203,-2.271515,0.000000,-0.029000,-0.495000,0.123000,FlatInitial,Hold,0
08:08:58.426 PM 02/16/2016,Teleop Enabled,0,FALSE,0,NO ERROR,3988.769531,-4008.544922,4000.000000,4000.000000,Speed,Speed,50.250000,0.870000,1.810000,3.000000,103.000000,1,0,-0.000000,0.000000,1,-0.386429,-0.316223,0.000000,-0.261902,-2.284348,0.000000,0.026000,-0.061000,0.115000,FlatInitial,Hold,0
08:08:58.526 PM 02/16/2016,Teleop Enabled,0,FALSE,0,NO ERROR,4012.646484,-4060.107422,4000.000000,4000.000000,Speed,Speed,51.820000,1.070000,1.320000,3.000000,102.000000,1,0,-0.000000,0.000000,1,0.000000,-0.368271,0.000000,-0.273895,-2.302399,0.000000,0.051000,-0.030000,0.030000,FlatInitial,Hold,0
08:08:58.626 PM 02/16/2016,Teleop Enabled,0,FALSE,0,NO ERROR,4029.052734,-4054.394531,4000.000000,4000.000000,Speed,Speed,51.840000,1.290000,1.880000,3.000000,101.000000,1,0,-0.000000,0.000000,1,0.113251,-0.318054,0.000000,-0.269623,-2.323013,0.000000,-0.009000,0.039000,0.025000,FlatInitial,Hold,0
08:08:58.726 PM 02/16/2016,Teleop Enabled,0,FALSE,0,NO ERROR,4032.128906,-4028.027344,4000.000000,4000.000000,Speed,Speed,51.780000,1.160000,1.930000,3.000000,101.000000,1,0,-0.000000,0.000000,1,0.097626,-0.275665,0.000000,-0.265442,-2.334564,0.000000,-0.001000,-0.070000,-0.011000,FlatInitial,Hold,0
08:08:58.826 PM 02/16/2016,Teleop Enabled,0,FALSE,0,NO ERROR,4024.951172,-4017.041016,4000.000000,4000.000000,Speed,Speed,51.640000,1.200000,1.930000,3.000000,101.000000,1,0,-0.000000,0.000000,1,0.000000,-0.255753,0.000000,-0.265442,-2.348114,0.000000,-0.052000,0.088000,0.110000,FlatInitial,Hold,0
08:08:58.926 PM 02/16/2016,Teleop Enabled,0,FALSE,0,NO ERROR,4013.964844,-4013.525391,4000.000000,4000.000000,Speed,Speed,51.650000,1.160000,1.890000,3.000000,102.000000,1,0,-0.000000,0.000000,1,-0.013641,0.006210,0.000000,-0.266006,-2.352585,0.000000,-0.063000,-0.035000,-0.059000,FlatInitial,Hold,0
08:08:59.026 PM 02/16/2016,Teleop Enabled,0,FALSE,0,NO ERROR,4006.054687,-4006.201172,4000.000000,4000.000000,Speed,Speed,51.590000,1.110000,1.890000,3.000000,100.000000,1,0,-0.000000,0.000000,1,-0.049210,0.009033,0.000000,-0.267944,-2.352234,0.000000,-0.016000,0.031000,-0.054000,FlatInitial,Hold,0
08:08:59.126 PM 02/16/2016,Teleop Enabled,0,FALSE,0,NO ERROR,4005.615234,-3997.265625,4000.000000,4000.000000,Speed,Speed,51.580000,1.120000,1.810000,3.000000,101.000000,1,0,-0.000000,0.000000,1,-0.013000,0.018906,0.000000,-0.268173,-2.351395,0.000000,-0.024000,0.052000,0.067000,FlatInitial,Hold,0
08:08:59.226 PM 02/16/2016,Teleop Enabled,0,FALSE,0,NO ERROR,4004.589844,-3988.623047,4000.000000,4000.000000,Speed,Speed,51.590000,1.080000,1.760000,3.000000,101.000000,1,0,-0.000000,0.000000,1,-0.042557,0.000000,0.000000,-0.269821,-2.350540,0.000000,-0.044000,-0.009000,-0.011000,FlatInitial,Hold,0
08:08:59.326 PM 02/16/2016,Teleop Enabled,0,FALSE,0,NO ERROR,4005.029297,-3989.208984,4000.000000,4000.000000,Speed,Speed,51.560000,1.060000,1.810000,3.000000,103.000000,1,0,-0.244094,0.244094,1,-0.023056,0.027527,0.000000,-0.270996,-2.349731,0.000000,-0.127000,0.115000,0.103000,FlatInitial,Hold,0
08:08:59.426 PM 02/16/2016,Teleop Enabled,0,FALSE,0,NO ERROR,3998.437500,-3980.712891,4000.000000,4000.000000,Speed,Speed,55.010000,0.430000,1.830000,3.000000,100.000000,1,0,-0.244094,0.244094,1,-0.020554,0.182419,0.000000,-0.271622,-2.342270,0.000000,-0.016000,0.088000,0.063000,FlatInitial,Hold,0
08:08:59.526 PM 02/16/2016,Teleop Enabled,0,FALSE,0,NO ERROR,3984.082031,-3960.791016,4000.000000,4000.000000,Speed,Speed,61.110000,0.200000,1.280000,3.000000,101.000000,1,0,-0.251969,0.251969,1,-0.012115,0.239105,0.000000,-0.271866,-2.331085,0.000000,0.026000,0.073000,0.029000,FlatInitial,Hold,0
08:08:59.626 PM 02/16/2016,Teleop Enabled,0,FALSE,0,NO ERROR,3978.515625,-3970.166016,4000.000000,4000.000000,Speed,Speed,68.630000,0.110000,1.230000,3.000000,101.000000,1,0,-0.000000,0.000000,1,-0.013321,0.221741,0.000000,-0.272369,-2.318787,0.000000,0.088000,-0.070000,-0.098000,FlatInitial,Hold,0
08:08:59.727 PM 02/16/2016,Teleop Enabled,0,FALSE,0,NO ERROR,3988.037109,-4003.857422,4000.000000,4000.000000,Speed,Speed,72.860000,0.880000,0.770000,3.000000,102.000000,1,0,-0.000000,0.000000,1,-0.131577,-0.009995,0.000000,-0.276520,-2.316071,0.000000,0.009000,-0.069000,-0.245000,FlatInitial,Hold,0
08:08:59.828 PM 02/16/2016,Teleop Enabled,0,FALSE,0,NO ERROR,3997.705078,-4028.906250,4000.000000,4000.000000,Speed,Speed,73.100000,1.230000,0.700000,3.000000,101.000000,1,0,-0.000000,0.000000,1,-0.009415,-0.086670,0.000000,-0.277176,-2.318893,0.000000,0.059000,-0.028000,-0.137000,FlatInitial,Hold,0
08:08:59.929 PM 02/16/2016,Teleop Enabled,0,FALSE,0,NO ERROR,4011.035156,-4028.759766,4000.000000,4000.000000,Speed,Speed,72.590000,1.180000,1.010000,3.000000,104.000000,1,0,-0.000000,0.000000,1,0.000000,-0.024734,0.000000,-0.275894,-2.320908,0.000000,0.010000,0.079000,-0.003000,FlatInitial,Hold,0
08:09:00.029 PM 02/16/2016,Teleop Enabled,0,FALSE,0,NO ERROR,4018.945312,-4018.359375,4000.000000,4000.000000,Speed,Speed,72.550000,1.040000,0.930000,3.000000,101.000000,1,0,-0.251969,0.251969,1,0.012360,0.024109,0.000000,-0.275665,-2.320938,0.000000,0.045000,0.300000,-0.001000,FlatInitial,Hold,0
08:09:00.130 PM 02/16/2016,Teleop Enabled,0,FALSE,0,NO ERROR,4010.742187,-3991.845703,4000.000000,4000.000000,Speed,Speed,75.240000,0.450000,1.000000,3.000000,101.000000,1,0,-0.000000,0.000000,1,0.038162,0.182526,0.000000,-0.273285,-2.314240,0.000000,0.012000,0.119000,0.038000,FlatInitial,Hold,0
08:09:00.230 PM 02/16/2016,Teleop Enabled,0,FALSE,0,NO ERROR,3994.042969,-3967.968750,4000.000000,4000.000000,Speed,Speed,79.590000,0.720000,0.990000,3.000000,103.000000,1,0,-0.000000,0.000000,1,0.002869,0.125687,0.000000,-0.271912,-2.305237,0.000000,-0.339000,-0.203000,0.136000,FlatInitial,Hold,0
08:09:00.331 PM 02/16/2016,Teleop Enabled,0,FALSE,0,NO ERROR,3989.648437,-3997.265625,4000.000000,4000.000000,Speed,Speed,80.310000,0.990000,0.280000,3.000000,102.000000,1,0,-0.000000,0.000000,1,-0.133255,0.049225,0.000000,-0.277313,-2.302383,0.000000,0.023000,0.008000,0.033000,FlatInitial,Hold,0
08:09:00.432 PM 02/16/2016,Teleop Enabled,0,FALSE,0,NO ERROR,3996.679687,-4021.142578,4000.000000,4000.000000,Speed,Speed,79.650000,1.060000,0.450000,3.000000,106.000000,1,0,-0.000000,0.000000,1,-0.085236,0.034592,0.000000,-0.284393,-2.301666,0.000000,0.088000,0.091000,0.036000,FlatInitial,Hold,0
08:09:00.533 PM 02/16/2016,Teleop Enabled,0,FALSE,0,NO ERROR,4007.373047,-4017.480469,4000.000000,4000.000000,Speed,Speed,79.740000,0.890000,0.500000,3.000000,100.000000,1,0,-0.000000,0.000000,1,-0.005066,0.000000,0.000000,-0.285233,-2.299240,0.000000,-0.001000,0.007000,-0.022000,FlatInitial,Hold,0
08:09:00.633 PM 02/16/2016,Teleop Enabled,0,FALSE,0,NO ERROR,4012.353516,-4012.060547,4000.000000,4000.000000,Speed,Speed,79.700000,0.920000,0.370000,3.000000,101.000000,1,0,-0.000000,0.000000,1,-0.012070,0.006592,0.000000,-0.285614,-2.299149,0.000000,-0.034000,0.009000,-0.018000,FlatInitial,Hold,0
08:09:00.734 PM 02/16/2016,Teleop Enabled,0,FALSE,0,NO ERROR,4015.283203,-4008.691406,4000.000000,4000.000000,Speed,Speed,79.720000,0.860000,0.410000,3.000000,101.000000,1,0,-0.000000,0.000000,1,0.000000,0.028763,0.000000,-0.286438,-2.297775,0.000000,0.017000,-0.005000,0.046000,FlatInitial,Hold,0
08:09:00.835 PM 02/16/2016,Teleop Enabled,0,FALSE,0,NO ERROR,4008.837891,-4011.328125,4000.000000,4000.000000,Speed,Speed,79.720000,0.780000,0.390000,3.000000,100.000000,1,0,0.283465,0.283465,1,-0.048538,0.057663,0.000000,-0.286621,-2.295914,0.000000,-0.251000,-0.078000,0.128000,FlatInitial,Hold,0
08:09:00.935 PM 02/16/2016,Teleop Enabled,0,FALSE,0,NO ERROR,3987.304687,-3987.451172,4000.000000,4000.000000,Speed,Speed,80.460000,0.680000,-1.540000,3.000000,101.000000,1,0,0.283465,0.283465,1,-0.240768,0.020218,0.000000,-0.296677,-2.295059,0.000000,-0.251000,-0.078000,0.128000,FlatInitial,Hold,0
08:09:01.040 PM 02/16/2016,Teleop Enabled,0,FALSE,0,NO ERROR,3960.937500,-3960.644531,4000.000000,4000.000000,Speed,Speed,81.160000,0.700000,-1.070000,3.000000,107.000000,1,0,0.283465,0.283465,1,-0.339920,0.015747,0.000000,-0.312027,-2.294693,0.000000,-0.028000,-0.049000,0.023000,FlatInitial,Hold,0
08:09:01.141 PM 02/16/2016,Teleop Enabled,0,FALSE,0,NO ERROR,3963.281250,-3965.478516,4000.000000,4000.000000,Speed,Speed,82.570000,0.540000,-1.400000,3.000000,103.000000,1,0,0.283465,0.283465,1,-0.397232,0.057678,0.000000,-0.331161,-2.293060,0.000000,-0.023000,0.005000,-0.132000,FlatInitial,Hold,0
08:09:01.241 PM 02/16/2016,Teleop Enabled,0,FALSE,0,NO ERROR,3981.738281,-3998.144531,4000.000000,4000.000000,Speed,Speed,84.510000,0.810000,-1.020000,3.000000,101.000000,1,0,-0.000000,0.000000,1,-0.373901,0.086716,0.000000,-0.350693,-2.289108,0.000000,0.107000,-0.035000,-0.033000,FlatInitial,Hold,0
08:09:01.341 PM 02/16/2016,Teleop Enabled,0,FALSE,0,NO ERROR,4006.347656,-3998.144531,4000.000000,4000.000000,Speed,Speed,86.480000,0.750000,2.200000,3.000000,103.000000,1,0,-0.000000,0.000000,1,-0.092697,0.034912,0.000000,-0.360077,-2.286209,0.000000,-0.014000,-0.283000,0.080000,FlatInitial,Hold,0
08:09:01.441 PM 02/16/2016,Teleop Enabled,0,FALSE,0,NO ERROR,4006.347656,-4040.039062,4000.000000,4000.000000,Speed,Speed,87.460000,0.650000,2.340000,3.000000,101.000000,1,0,-0.000000,0.000000,1,0.138702,0.068512,0.000000,-0.357132,-2.285172,0.000000,-0.014000,-0.283000,0.080000,FlatInitial,Hold,1
08:09:01.542 PM 02/16/2016,Teleop Enabled,0,FALSE,0,NO ERROR,4025.390625,-4040.039062,4000.000000,4000.000000,Speed,Speed,87.910000,1.000000,2.170000,3.000000,102.000000,1,0,-0.000000,0.000000,1,0.226776,0.064636,0.000000,-0.347549,-2.280075,0.000000,0.133000,0.095000,0.125000,FlatInitial,Hold,1
08:09:01.644 PM 02/16/2016,Teleop Enabled,0,FALSE,0,NO ERROR,4029.199219,-4033.886719,4000.000000,4000.000000,Speed,Speed,87.940000,0.750000,2.900000,3.000000,101.000000,1,0,-0.000000,0.000000,1,0.000000,0.083145,0.000000,-0.337585,-2.278046,0.000000,0.012000,0.112000,-0.017000,FlatInitial,Hold,1
08:09:01.745 PM 02/16/2016,Teleop Enabled,0,FALSE,0,NO ERROR,4012.792969,-4017.041016,4000.000000,4000.000000,Speed,Speed,87.850000,1.090000,2.380000,3.000000,102.000000,1,0,-0.000000,0.000000,1,0.026901,0.044846,0.000000,-0.337021,-2.274597,0.000000,0.040000,-0.061000,-0.087000,FlatInitial,Hold,0
08:09:01.845 PM 02/16/2016,Teleop Enabled,0,FALSE,0,NO ERROR,4012.792969,-4007.373047,4000.000000,4000.000000,Speed,Speed,87.630000,1.000000,2.310000,3.000000,101.000000,1,0,0.188976,-0.188976,1,0.095551,0.065445,0.000000,-0.332901,-2.271469,0.000000,0.040000,-0.061000,-0.087000,FlatInitial,Hold,0
08:09:01.946 PM 02/16/2016,Teleop Enabled,0,FALSE,0,NO ERROR,4006.201172,-4005.761719,4000.000000,4000.000000,Speed,Speed,85.850000,1.630000,1.750000,3.000000,105.000000,1,0,0.204724,-0.204724,1,-0.038559,-0.062744,0.000000,-0.332214,-2.271957,0.000000,0.038000,-0.026000,0.007000,FlatInitial,Hold,0
08:09:02.048 PM 02/16/2016,Teleop Enabled,0,FALSE,0,NO ERROR,3992.431641,-3997.119141,4000.000000,4000.000000,Speed,Speed,80.050000,1.750000,2.190000,3.000000,105.000000,1,0,0.204724,-0.204724,1,-0.041229,-0.069138,0.000000,-0.334305,-2.275253,0.000000,0.073000,0.030000,0.012000,FlatInitial,Hold,0
08:09:02.151 PM 02/16/2016,Teleop Enabled,0,FALSE,0,NO ERROR,3977.929687,-3988.037109,4000.000000,4000.000000,Speed,Speed,75.470000,2.030000,1.650000,3.000000,105.000000,1,0,0.204724,-0.204724,1,0.000381,0.005264,0.000000,-0.335281,-2.278778,0.000000,0.067000,-0.015000,0.126000,FlatInitial,Hold,0
08:09:02.251 PM 02/16/2016,Teleop Enabled,0,FALSE,0,NO ERROR,3975.439453,-3984.228516,4000.000000,4000.000000,Speed,Speed,68.090000,2.000000,1.500000,3.000000,101.000000,1,0,0.173228,-0.173228,1,0.046753,0.076233,0.000000,-0.334045,-2.275726,0.000000,0.101000,-0.064000,0.074000,FlatInitial,Hold,0
08:09:02.354 PM 02/16/2016,Teleop Enabled,0,FALSE,0,NO ERROR,3985.693359,-3988.037109,4000.000000,4000.000000,Speed,Speed,63.690000,1.960000,0.900000,3.000000,103.000000,1,0,-0.000000,0.000000,1,0.116196,0.083649,0.000000,-0.329651,-2.272308,0.000000,0.105000,0.265000,-0.042000,FlatInitial,Hold,0
08:09:02.454 PM 02/16/2016,Teleop Enabled,0,FALSE,0,NO ERROR,4005.761719,-3997.851562,4000.000000,4000.000000,Speed,Speed,59.620000,1.130000,1.470000,3.000000,101.000000,1,0,-0.307087,0.307087,1,0.110016,0.316589,0.000000,-0.324249,-2.260345,0.000000,0.105000,0.265000,-0.042000,FlatInitial,Hold,0
08:09:02.555 PM 02/16/2016,Teleop Enabled,0,FALSE,0,NO ERROR,4021.435547,-4010.595703,4000.000000,4000.000000,Speed,Speed,61.820000,0.280000,2.060000,3.000000,102.000000,1,0,-0.448819,0.448819,1,0.122833,0.530197,0.000000,-0.319717,-2.239502,0.000000,-0.021000,0.141000,-0.013000,FlatInitial,Hold,0
08:09:02.655 PM 02/16/2016,Teleop Enabled,0,FALSE,0,NO ERROR,4008.837891,-3990.234375,4000.000000,4000.000000,Speed,Speed,71.700000,-0.510000,2.240000,3.000000,102.000000,1,0,-0.448819,0.448819,1,0.122833,0.530197,0.000000,-0.319717,-2.239502,0.000000,0.137000,0.280000,-0.064000,FlatInitial,Hold,0
08:09:02.756 PM 02/16/2016,Teleop Enabled,0,FALSE,0,NO ERROR,3962.109375,-3917.724609,4000.000000,4000.000000,Speed,Speed,85.900000,-0.910000,1.640000,3.000000,100.000000,1,0,-0.000000,0.000000,1,0.261581,0.676697,0.000000,-0.300919,-2.172531,0.000000,0.002000,0.178000,0.020000,FlatInitial,Hold,0
08:09:02.858 PM 02/16/2016,Teleop Enabled,0,FALSE,0,NO ERROR,3946.142578,-3918.896484,4000.000000,4000.000000,Speed,Speed,97.250000,0.110000,1.880000,3.000000,101.000000,1,0,-0.000000,0.000000,1,0.117157,0.382095,0.000000,-0.289673,-2.147919,0.000000,0.184000,-0.291000,-0.265000,FlatInitial,Hold,0
08:09:02.958 PM 02/16/2016,Teleop Enabled,0,FALSE,0,NO ERROR,3975.292969,-3992.724609,4000.000000,4000.000000,Speed,Speed,102.300000,0.350000,2.260000,3.000000,103.000000,1,0,-0.000000,0.000000,1,-0.039413,0.251099,0.000000,-0.288818,-2.132675,0.000000,-0.335000,-0.212000,0.106000,FlatInitial,Hold,0
08:09:03.059 PM 02/16/2016,Teleop Enabled,0,FALSE,0,NO ERROR,4012.646484,-4072.851562,4000.000000,4000.000000,Speed,Speed,104.060000,0.400000,1.740000,3.000000,102.000000,1,0,-0.000000,0.000000,1,-0.049881,0.239761,0.000000,-0.292130,-2.120422,0.000000,-0.185000,-0.159000,0.269000,FlatInitial,Hold,0
08:09:03.163 PM 02/16/2016,Teleop Enabled,0,FALSE,0,NO ERROR,4034.619141,-4078.417969,4000.000000,4000.000000,Speed,Speed,104.310000,0.670000,2.200000,3.000000,101.000000,1,0,-0.000000,0.000000,1,0.012863,0.184341,0.000000,-0.292206,-2.110428,0.000000,0.179000,-0.064000,0.063000,FlatInitial,Hold,0
