Time,RobotMode,AutoToRun,ErrorStatus, ErrorCode,ErrorSource,ActualRPM1,ActualRPM2,DesiredRPM1,DesiredRPM2,ControlMode1,ControlMode2,NavXYaw,NavXRoll,NavXPitch,ShooterState,LoopTime,IsLevel,IsAutoTargeting,LeftMotorOutput,RightMotorOutput,IsHaloDrive,NavXVelocityX,NavXVelocityY,NavXVelocityZ,NavXDisplacementX,NavXDisplacementY,NavXDisplacementZ,NavXAccelerationX,NavXAccelerationY,NavXAccelerationZ,AutoDefendState,AngeMotorState,Photoeye
08:21:11.345 PM 02/17/2016,Teleop Enabled,0,TRUE,91,Variant To Data in WPI_DigitalInputRefNum Registry Get.vi->Periodic Tasks.vi->Robot Main.vi,0.000000,0.000000,4000.000000,4000.000000,Speed,Speed,-0.030000,0.990000,1.480000,3.000000,104.000000,1,0,-0.000000,0.000000,1,0.000000,0.000000,0.000000,6.254105,-21.922440,0.000000,0.001000,0.002000,0.003000,FlatInitial,ResetBack,0
08:21:11.445 PM 02/17/2016,Teleop Enabled,0,TRUE,-44007,<LOCATION>WPI_DigitalInputRefNum Registry Get.vi<CALLSTACK>WPI_DigitalInputRefNum Registry Get.vi< <Periodic Tasks.vi< <Robot Main.vi,8.789062,-3.222656,4000.000000,4000.000000,Speed,Speed,-0.030000,0.980000,1.470000,3.000000,104.000000,1,0,-0.000000,0.000000,1,-0.012192,0.008514,0.000000,6.253479,-21.922485,0.000000,0.001000,0.002000,0.003000,FlatInitial,ResetBack,0
08:21:11.547 PM 02/17/2016,Teleop Enabled,0,FALSE,0,NO ERROR,1383.837891,-1162.207031,4000.000000,4000.000000,Speed,Speed,-0.020000,0.990000,1.480000,3.000000,110.000000,1,0,-0.000000,0.000000,1,0.000000,0.003494,0.000000,6.253296,-21.922226,0.000000,-0.014000,0.003000,-0.047000,FlatInitial,ResetBack,0
08:21:11.648 PM 02/17/2016,Teleop Enabled,0,FALSE,0,NO ERROR,3122.021484,-2887.646484,4000.000000,4000.000000,Speed,Speed,-0.020000,1.020000,1.480000,3.000000,103.000000,1,0,-0.000000,0.000000,1,-0.017349,0.002502,0.000000,6.253036,-21.921860,0.000000,0.000000,0.027000,-0.095000,FlatInitial,ResetBack,0
08:21:11.748 PM 02/17/2016,Teleop Enabled,0,FALSE,0,NO ERROR,3952.441406,-3835.546875,4000.000000,4000.000000,Speed,Speed,-0.020000,0.980000,1.520000,3.000000,101.000000,1,0,-0.000000,0.000000,1,0.004303,0.009109,0.000000,6.252609,-21.921387,0.000000,0.005000,0.019000,0.060000,FlatInitial,ResetBack,0
08:21:11.849 PM 02/17/2016,Teleop Enabled,0,FALSE,0,NO ERROR,4079.589844,-3999.316406,4000.000000,4000.000000,Speed,Speed,-0.010000,0.950000,1.540000,3.000000,101.000000,1,0,-0.000000,0.000000,1,-0.005508,0.021729,0.000000,6.252655,-21.920624,0.000000,0.010000,-0.028000,-0.026000,FlatInitial,ResetBack,0
08:21:11.948 PM 02/17/2016,Teleop Enabled,0,FALSE,0,NO ERROR,4021.728516,-3904.833984,4000.000000,4000.000000,Speed,Speed,-0.030000,0.990000,1.550000,3.000000,110.000000,1,0,-0.000000,0.000000,1,-0.005508,0.021729,0.000000,6.252655,-21.920624,0.000000,0.010000,-0.028000,-0.026000,FlatInitial,ResetBack,0
08:21:12.049 PM 02/17/2016,Teleop Enabled,0,FALSE,0,NO ERROR,3976.904297,-3867.041016,4000.000000,4000.000000,Speed,Speed,-0.050000,0.980000,1.600000,3.000000,101.000000,1,0,-0.000000,0.000000,1,0.005798,0.019882,0.000000,6.253021,-21.919312,0.000000,0.003000,-0.019000,0.034000,FlatInitial,ResetBack,0
08:21:12.149 PM 02/17/2016,Teleop Enabled,0,FALSE,0,NO ERROR,3952.880859,-3914.648437,4000.000000,4000.000000,Speed,Speed,-0.050000,0.980000,1.630000,3.000000,102.000000,1,0,-0.000000,0.000000,1,0.002930,0.025818,0.000000,6.253540,-21.917679,0.000000,-0.050000,0.006000,-0.059000,FlatInitial,ResetBack,0
08:21:12.250 PM 02/17/2016,Teleop Enabled,0,FALSE,0,NO ERROR,3957.275391,-3953.027344,4000.000000,4000.000000,Speed,Speed,-0.050000,0.980000,1.640000,3.000000,100.000000,1,0,-0.000000,0.000000,1,-0.011230,-0.001511,0.000000,6.253494,-21.917816,0.000000,-0.050000,0.006000,-0.059000,FlatInitial,ResetBack,0
08:21:12.352 PM 02/17/2016,Teleop Enabled,0,FALSE,0,NO ERROR,3973.388672,-3970.898437,4000.000000,4000.000000,Speed,Speed,-0.050000,0.980000,1.690000,3.000000,102.000000,1,0,-0.000000,0.000000,1,0.000000,0.011429,0.000000,6.253342,-21.917465,0.000000,-0.033000,0.051000,0.052000,FlatInitial,ResetBack,0
08:21:12.453 PM 02/17/2016,Teleop Enabled,0,FALSE,0,NO ERROR,3989.062500,-3969.287109,4000.000000,4000.000000,Speed,Speed,-0.050000,0.960000,1.720000,3.000000,101.000000,1,0,-0.000000,0.000000,1,-0.011017,0.000000,0.000000,6.252991,-21.916565,0.000000,-0.012000,-0.005000,0.023000,FlatInitial,ResetBack,0
08:21:12.553 PM 02/17/2016,Teleop Enabled,0,FALSE,0,NO ERROR,3996.533203,-3980.126953,4000.000000,4000.000000,Speed,Speed,-0.050000,0.950000,1.760000,3.000000,101.000000,1,0,-0.000000,0.000000,1,-0.011017,0.000000,0.000000,6.252991,-21.916565,0.000000,-0.012000,-0.005000,0.023000,FlatInitial,ResetBack,0
08:21:12.654 PM 02/17/2016,Teleop Enabled,0,FALSE,0,NO ERROR,3996.679687,-3996.386719,4000.000000,4000.000000,Speed,Speed,-0.060000,0.960000,1.800000,3.000000,102.000000,1,0,-0.000000,0.000000,1,-0.013763,0.000000,0.000000,6.252426,-21.916565,0.000000,0.012000,0.036000,0.040000,FlatInitial,ResetBack,1
08:21:12.756 PM 02/17/2016,Teleop Enabled,0,FALSE,0,NO ERROR,4000.195312,-4000.341797,4000.000000,4000.000000,Speed,Speed,-0.060000,0.950000,1.800000,3.000000,101.000000,1,0,-0.000000,0.000000,1,-0.019821,0.000000,0.000000,6.251022,-21.916260,0.000000,-0.037000,0.012000,0.070000,FlatInitial,ResetForward,1
08:21:12.857 PM 02/17/2016,Teleop Enabled,0,FALSE,0,NO ERROR,4004.150391,-4001.074219,4000.000000,4000.000000,Speed,Speed,-0.060000,0.940000,1.860000,3.000000,101.000000,1,0,-0.000000,0.000000,1,-0.019592,0.004272,0.000000,6.249771,-21.916199,0.000000,-0.037000,0.012000,0.070000,FlatInitial,ResetForward,1
08:21:12.961 PM 02/17/2016,Teleop Enabled,0,FALSE,0,NO ERROR,4009.570312,-4000.927734,4000.000000,4000.000000,Speed,Speed,-0.020000,0.940000,1.890000,3.000000,109.000000,1,0,-0.000000,0.000000,1,-0.024353,0.015259,0.000000,6.249039,-21.915894,0.000000,0.013000,0.043000,0.036000,FlatInitial,ResetForward,1
08:21:13.061 PM 02/17/2016,Teleop Enabled,0,FALSE,0,NO ERROR,4012.646484,-3998.730469,4000.000000,4000.000000,Speed,Speed,-0.010000,0.950000,1.970000,3.000000,101.000000,1,0,-0.000000,0.000000,1,-0.024353,0.015259,0.000000,6.249039,-21.915894,0.000000,0.013000,0.043000,0.036000,FlatInitial,ResetForward,1
08:21:13.162 PM 02/17/2016,Teleop Enabled,0,FALSE,0,NO ERROR,4009.130859,-4002.978516,4000.000000,4000.000000,Speed,Speed,-0.070000,0.960000,1.950000,3.000000,101.000000,1,0,-0.000000,0.000000,1,-0.005081,0.091797,0.000000,6.247910,-21.909195,0.000000,0.013000,0.072000,-0.077000,FlatInitial,ResetForward,1
08:21:13.263 PM 02/17/2016,Teleop Enabled,0,FALSE,0,NO ERROR,4004.443359,-4013.525391,4000.000000,4000.000000,Speed,Speed,-0.080000,0.920000,2.110000,3.000000,100.000000,1,0,-0.000000,0.000000,1,-0.005081,0.091797,0.000000,6.247910,-21.909195,0.000000,0.011000,0.001000,0.043000,FlatInitial,ResetForward,1
08:21:13.366 PM 02/17/2016,Teleop Enabled,0,FALSE,0,NO ERROR,4002.978516,-4019.824219,4000.000000,4000.000000,Speed,Speed,-0.030000,0.930000,1.890000,3.000000,104.000000,1,0,-0.000000,0.000000,1,0.000305,-0.006226,0.000000,6.247726,-21.909790,0.000000,-0.001000,0.024000,-0.096000,FlatInitial,ResetForward,0
08:21:13.466 PM 02/17/2016,Teleop Enabled,0,FALSE,0,NO ERROR,4002.099609,-4010.009766,4000.000000,4000.000000,Speed,Speed,-0.040000,0.960000,2.040000,3.000000,102.000000,1,0,-0.000000,0.000000,1,0.000305,-0.006226,0.000000,6.247726,-21.909790,0.000000,-0.001000,0.024000,-0.096000,FlatInitial,Reset,0
08:21:13.567 PM 02/17/2016,Teleop Enabled,0,FALSE,0,NO ERROR,3999.902344,-3993.310547,4000.000000,4000.000000,Speed,Speed,-0.060000,0.980000,1.930000,3.000000,102.000000,1,0,-0.000000,0.000000,1,0.000000,-0.008469,0.000000,6.247742,-21.910110,0.000000,0.002000,0.045000,-0.033000,FlatInitial,Hold,0
08:21:13.669 PM 02/17/2016,Teleop Enabled,0,FALSE,0,NO ERROR,3995.947266,-3988.037109,4000.000000,4000.000000,Speed,Speed,-0.060000,0.980000,1.930000,3.000000,101.000000,1,0,-0.000000,0.000000,1,0.000000,0.004974,0.000000,6.247879,-21.909927,0.000000,-0.017000,-0.012000,-0.077000,FlatInitial,Hold,0
08:21:13.771 PM 02/17/2016,Teleop Enabled,0,FALSE,0,NO ERROR,3996.386719,-4001.367187,4000.000000,4000.000000,Speed,Speed,-0.070000,0.960000,2.030000,3.000000,104.000000,1,0,-0.000000,0.000000,1,-0.003464,0.006485,0.000000,6.247391,-21.909744,0.000000,-0.025000,0.032000,0.049000,FlatInitial,Hold,0
08:21:13.872 PM 02/17/2016,Teleop Enabled,0,FALSE,0,NO ERROR,3998.144531,-4006.640625,4000.000000,4000.000000,Speed,Speed,-0.090000,0.970000,2.100000,3.000000,104.000000,1,0,-0.000000,0.000000,1,0.000000,0.012024,0.000000,6.247330,-21.909210,0.000000,-0.001000,0.016000,0.045000,FlatInitial,Hold,0
08:21:13.972 PM 02/17/2016,Teleop Enabled,0,FALSE,0,NO ERROR,3999.755859,-4007.519531,4000.000000,4000.000000,Speed,Speed,-0.090000,0.970000,2.110000,3.000000,102.000000,1,0,-0.000000,0.000000,1,0.000000,0.012024,0.000000,6.247330,-21.909210,0.000000,-0.001000,0.016000,0.045000,FlatInitial,Hold,0
08:21:14.072 PM 02/17/2016,Teleop Enabled,0,FALSE,0,NO ERROR,4001.806641,-4005.615234,4000.000000,4000.000000,Speed,Speed,-0.080000,0.970000,2.120000,3.000000,101.000000,1,0,-0.000000,0.000000,1,-0.004028,0.002045,0.000000,6.247162,-21.909256,0.000000,0.001000,0.018000,0.029000,FlatInitial,Hold,0
08:21:14.172 PM 02/17/2016,Teleop Enabled,0,FALSE,0,NO ERROR,4004.003906,-4007.812500,4000.000000,4000.000000,Speed,Speed,-0.100000,0.990000,2.180000,3.000000,102.000000,1,0,-0.000000,0.000000,1,-0.002594,0.000000,0.000000,6.247009,-21.909225,0.000000,-0.024000,-0.012000,-0.081000,FlatInitial,Hold,0
08:21:14.273 PM 02/17/2016,Teleop Enabled,0,FALSE,0,NO ERROR,4005.029297,-4010.742187,4000.000000,4000.000000,Speed,Speed,-0.090000,1.000000,2.160000,3.000000,101.000000,1,0,-0.000000,0.000000,1,-0.002045,0.000000,0.000000,6.246735,-21.909225,0.000000,0.013000,-0.019000,0.042000,FlatInitial,Hold,0
08:21:14.374 PM 02/17/2016,Teleop Enabled,0,FALSE,0,NO ERROR,4006.054687,-4007.373047,4000.000000,4000.000000,Speed,Speed,-0.100000,1.010000,2.220000,3.000000,100.000000,1,0,-0.000000,0.000000,1,-0.005020,0.000000,0.000000,6.246613,-21.908737,0.000000,-0.015000,0.000000,0.048000,FlatInitial,Hold,0
08:21:14.474 PM 02/17/2016,Teleop Enabled,0,FALSE,0,NO ERROR,4006.494141,-3998.291016,4000.000000,4000.000000,Speed,Speed,-0.100000,1.010000,2.220000,3.000000,102.000000,1,0,-0.000000,0.000000,1,-0.005020,0.000000,0.000000,6.246613,-21.908737,0.000000,-0.015000,0.000000,0.048000,FlatInitial,Hold,0
08:21:14.574 PM 02/17/2016,Teleop Enabled,0,FALSE,0,NO ERROR,4006.787109,-3994.189453,4000.000000,4000.000000,Speed,Speed,-0.100000,1.000000,2.150000,3.000000,102.000000,1,0,-0.000000,0.000000,1,-0.025299,-0.014252,0.000000,6.245453,-21.909225,0.000000,-0.015000,-0.014000,0.007000,FlatInitial,Hold,0
08:21:14.674 PM 02/17/2016,Teleop Enabled,0,FALSE,0,NO ERROR,4005.322266,-3994.335937,4000.000000,4000.000000,Speed,Speed,-0.110000,1.020000,2.110000,3.000000,101.000000,1,0,-0.000000,0.000000,1,0.004730,-0.029587,0.000000,6.243530,-21.910400,0.000000,0.015000,-0.031000,0.078000,FlatInitial,Hold,0
08:21:14.774 PM 02/17/2016,Teleop Enabled,0,FALSE,0,NO ERROR,4003.564453,-4004.882812,4000.000000,4000.000000,Speed,Speed,-0.110000,1.020000,2.050000,3.000000,106.000000,1,0,-0.000000,0.000000,1,0.004730,-0.029587,0.000000,6.243530,-21.910400,0.000000,-0.028000,0.002000,-0.069000,FlatInitial,Hold,0
08:21:14.875 PM 02/17/2016,Teleop Enabled,0,FALSE,0,NO ERROR,4001.660156,-4012.207031,4000.000000,4000.000000,Speed,Speed,-0.110000,1.020000,2.050000,3.000000,103.000000,1,0,-0.000000,0.000000,1,0.003296,-0.012848,0.000000,6.243637,-21.910980,0.000000,-0.002000,-0.034000,0.042000,FlatInitial,Hold,0
08:21:14.975 PM 02/17/2016,Teleop Enabled,0,FALSE,0,NO ERROR,4000.341797,-4008.251953,4000.000000,4000.000000,Speed,Speed,-0.110000,1.010000,1.890000,3.000000,105.000000,1,0,-0.000000,0.000000,1,0.003677,-0.004242,0.000000,6.244141,-21.912491,0.000000,0.047000,-0.037000,0.003000,FlatInitial,Hold,0
08:21:15.076 PM 02/17/2016,Teleop Enabled,0,FALSE,0,NO ERROR,3999.902344,-3997.558594,4000.000000,4000.000000,Speed,Speed,-0.110000,1.020000,1.840000,3.000000,100.000000,1,0,-0.000000,0.000000,1,0.003677,-0.004242,0.000000,6.244141,-21.912491,0.000000,0.047000,-0.037000,0.003000,FlatInitial,Hold,0
08:21:15.177 PM 02/17/2016,Teleop Enabled,0,FALSE,0,NO ERROR,4000.927734,-3993.603516,4000.000000,4000.000000,Speed,Speed,-0.120000,1.020000,1.780000,3.000000,101.000000,1,0,-0.000000,0.000000,1,0.004654,-0.003906,0.000000,6.244492,-21.913177,0.000000,-0.013000,-0.031000,0.024000,FlatInitial,Hold,0
08:21:15.277 PM 02/17/2016,Teleop Enabled,0,FALSE,0,NO ERROR,3999.169922,-3999.609375,4000.000000,4000.000000,Speed,Speed,-0.120000,1.020000,1.780000,3.000000,101.000000,1,0,-0.000000,0.000000,1,-0.005569,-0.011856,0.000000,6.244400,-21.913559,0.000000,0.039000,-0.039000,0.016000,FlatInitial,Hold,0
08:21:15.378 PM 02/17/2016,Teleop Enabled,0,FALSE,0,NO ERROR,3996.240234,-4005.029297,9000.000000,9000.000000,Speed,Speed,-0.120000,1.010000,1.740000,4.000000,100.000000,1,0,-0.000000,0.000000,1,-0.005356,-0.036133,0.000000,6.243988,-21.915405,0.000000,0.057000,-0.024000,0.041000,FlatInitial,HighGoal,0
08:21:15.479 PM 02/17/2016,Teleop Enabled,0,FALSE,0,NO ERROR,4075.634766,-3978.076172,9000.000000,9000.000000,Speed,Speed,-0.120000,1.020000,1.690000,4.000000,102.000000,1,0,-0.000000,0.000000,1,0.008102,-0.045532,0.000000,6.244095,-21.917114,0.000000,-0.038000,0.016000,-0.057000,FlatInitial,Hold,0
08:21:15.581 PM 02/17/2016,Teleop Enabled,0,FALSE,0,NO ERROR,4851.562500,-4571.191406,9000.000000,9000.000000,Speed,Speed,-0.120000,0.990000,1.650000,4.000000,101.000000,1,0,-0.000000,0.000000,1,0.003571,-0.090179,0.000000,6.244232,-21.921539,0.000000,-0.022000,0.045000,0.022000,FlatInitial,Hold,0
08:21:15.682 PM 02/17/2016,Teleop Enabled,0,FALSE,0,NO ERROR,6159.375000,-5871.093750,9000.000000,9000.000000,Speed,Speed,-0.110000,1.020000,1.630000,4.000000,102.000000,1,0,-0.000000,0.000000,1,-0.007462,-0.105072,0.000000,6.244370,-21.925400,0.000000,-0.011000,0.043000,-0.107000,FlatInitial,Hold,0
08:21:15.782 PM 02/17/2016,Teleop Enabled,0,FALSE,0,NO ERROR,7267.382812,-6766.406250,9000.000000,9000.000000,Speed,Speed,-0.010000,0.990000,1.650000,4.000000,101.000000,1,0,-0.000000,0.000000,1,0.028961,-0.029510,0.000000,6.244431,-21.928925,0.000000,-0.008000,-0.070000,0.210000,FlatInitial,Hold,0
08:21:15.884 PM 02/17/2016,Teleop Enabled,0,FALSE,0,NO ERROR,8190.820312,-7729.687500,9000.000000,9000.000000,Speed,Speed,-0.070000,1.080000,1.760000,4.000000,102.000000,1,0,-0.000000,0.000000,1,0.039581,-0.045120,0.000000,6.247726,-21.931183,0.000000,-0.081000,-0.108000,0.004000,FlatInitial,Hold,0
08:21:15.986 PM 02/17/2016,Teleop Enabled,0,FALSE,0,NO ERROR,8674.804688,-8484.960938,9000.000000,9000.000000,Speed,Speed,-0.070000,1.080000,1.760000,4.000000,101.000000,1,0,-0.000000,0.000000,1,0.039581,-0.045120,0.000000,6.247726,-21.931183,0.000000,-0.081000,-0.108000,0.004000,FlatInitial,Hold,0
08:21:16.087 PM 02/17/2016,Teleop Enabled,0,FALSE,0,NO ERROR,9026.953125,-8830.078125,9000.000000,9000.000000,Speed,Speed,0.050000,1.160000,0.960000,4.000000,104.000000,1,0,-0.000000,0.000000,1,0.087509,-0.064957,0.000000,6.252243,-21.934433,0.000000,-0.055000,-0.159000,-0.187000,FlatInitial,Hold,0
08:21:16.188 PM 02/17/2016,Teleop Enabled,0,FALSE,0,NO ERROR,9144.726562,-9010.546875,9000.000000,9000.000000,Speed,Speed,-0.090000,1.050000,1.470000,4.000000,101.000000,1,0,-0.000000,0.000000,1,0.070389,-0.153030,0.000000,6.256409,-21.939911,0.000000,-0.162000,-0.230000,0.207000,FlatInitial,Hold,0
08:21:16.289 PM 02/17/2016,Teleop Enabled,0,FALSE,0,NO ERROR,9216.796875,-9089.062500,9000.000000,9000.000000,Speed,Speed,-0.040000,1.060000,1.070000,4.000000,101.000000,1,0,-0.000000,0.000000,1,0.014694,-0.177933,0.000000,6.258148,-21.948914,0.000000,-0.188000,0.211000,0.002000,FlatInitial,Hold,0
08:21:16.389 PM 02/17/2016,Teleop Enabled,0,FALSE,0,NO ERROR,9214.453125,-9135.937500,9000.000000,9000.000000,Speed,Speed,-0.010000,1.110000,1.300000,4.000000,101.000000,1,0,-0.000000,0.000000,1,0.007339,0.050201,0.000000,6.258301,-21.947800,0.000000,0.007000,0.097000,-0.091000,FlatInitial,Hold,0
08:21:16.490 PM 02/17/2016,Teleop Enabled,0,FALSE,0,NO ERROR,9178.125000,-9131.250000,9000.000000,9000.000000,Speed,Speed,0.010000,1.020000,1.730000,4.000000,101.000000,1,0,-0.000000,0.000000,1,-0.053497,0.023773,0.000000,6.256653,-21.944351,0.000000,-0.077000,-0.115000,0.027000,FlatInitial,Hold,0
08:21:16.592 PM 02/17/2016,Teleop Enabled,0,FALSE,0,NO ERROR,9128.320312,-9100.781250,9000.000000,9000.000000,Speed,Speed,-0.020000,1.080000,1.490000,4.000000,102.000000,1,0,-0.000000,0.000000,1,-0.072968,0.037277,0.000000,6.254593,-21.943466,0.000000,-0.023000,-0.073000,0.072000,FlatInitial,Hold,0
08:21:16.695 PM 02/17/2016,Teleop Enabled,0,FALSE,0,NO ERROR,9082.617188,-9070.312500,9000.000000,9000.000000,Speed,Speed,-0.080000,1.070000,1.240000,4.000000,102.000000,1,0,-0.000000,0.000000,1,-0.039566,0.064545,0.000000,6.251602,-21.940781,0.000000,0.200000,-0.043000,-0.034000,FlatInitial,Hold,0
08:21:16.795 PM 02/17/2016,Teleop Enabled,0,FALSE,0,NO ERROR,9056.835938,-9043.359375,9000.000000,9000.000000,Speed,Speed,-0.100000,1.020000,1.470000,4.000000,102.000000,1,0,0.173228,-0.173228,1,0.038925,0.052536,0.000000,6.252106,-21.936356,0.000000,0.116000,-0.018000,-0.033000,FlatInitial,Hold,0
08:21:16.896 PM 02/17/2016,Teleop Enabled,0,FALSE,0,NO ERROR,9030.468750,-9023.437500,9000.000000,9000.000000,Speed,Speed,-0.190000,1.170000,1.310000,4.000000,100.000000,1,1,-0.000000,0.000000,1,0.117462,-0.021774,0.000000,6.255280,-21.936539,0.000000,0.168000,-0.030000,-0.010000,FlatInitial,Hold,0
08:21:16.996 PM 02/17/2016,Teleop Enabled,0,FALSE,0,NO ERROR,9012.304688,-9011.132812,9000.000000,9000.000000,Speed,Speed,-1.160000,1.130000,1.220000,4.000000,107.000000,1,1,0.090000,0.090000,1,0.154694,-0.030609,0.000000,6.262741,-21.938477,0.000000,-0.042000,0.019000,-0.013000,FlatInitial,Hold,0
08:21:17.097 PM 02/17/2016,Teleop Enabled,0,FALSE,0,NO ERROR,9008.789062,-9002.343750,9000.000000,9000.000000,Speed,Speed,-1.400000,1.020000,1.370000,4.000000,104.000000,1,1,0.090000,0.090000,1,0.166412,-0.009247,0.000000,6.269196,-21.939133,0.000000,0.079000,0.064000,-0.001000,FlatInitial,Hold,0
08:21:17.198 PM 02/17/2016,Teleop Enabled,0,FALSE,0,NO ERROR,9005.859375,-8997.070312,9000.000000,9000.000000,Speed,Speed,-1.600000,1.060000,1.350000,4.000000,101.000000,1,1,0.090000,0.090000,1,0.222336,-0.052094,0.000000,6.285126,-21.941772,0.000000,0.069000,0.050000,-0.020000,FlatInitial,Hold,0
08:21:17.298 PM 02/17/2016,Teleop Enabled,0,FALSE,0,NO ERROR,9004.687500,-8993.554688,9000.000000,9000.000000,Speed,Speed,-1.800000,1.040000,1.440000,4.000000,101.000000,1,1,0.090000,0.090000,1,0.248444,-0.066803,0.000000,6.292252,-21.943604,0.000000,-0.020000,-0.089000,-0.094000,FlatInitial,Hold,0
08:21:17.401 PM 02/17/2016,Teleop Enabled,0,FALSE,0,NO ERROR,9002.343750,-8997.070312,9000.000000,9000.000000,Speed,Speed,-2.180000,1.040000,1.410000,4.000000,102.000000,1,1,0.090000,0.090000,1,0.248444,-0.066803,0.000000,6.292252,-21.943604,0.000000,-0.020000,-0.089000,-0.094000,FlatInitial,Hold,0
08:21:17.501 PM 02/17/2016,Teleop Enabled,0,FALSE,0,NO ERROR,9001.171875,-9001.171875,9000.000000,9000.000000,Speed,Speed,-2.180000,1.040000,1.410000,4.000000,101.000000,1,1,-0.090000,-0.090000,1,0.310028,-0.105789,0.000000,6.319824,-21.952606,0.000000,0.034000,0.063000,-0.038000,FlatInitial,Hold,0
08:21:17.602 PM 02/17/2016,Teleop Enabled,0,FALSE,0,NO ERROR,9002.343750,-9010.546875,9000.000000,9000.000000,Speed,Speed,-2.300000,0.990000,1.410000,4.000000,102.000000,1,1,-0.090000,-0.090000,1,0.310028,-0.105789,0.000000,6.319824,-21.952606,0.000000,0.034000,0.063000,-0.038000,FlatInitial,Hold,0
08:21:17.704 PM 02/17/2016,Teleop Enabled,0,FALSE,0,NO ERROR,9004.687500,-9016.992188,9000.000000,9000.000000,Speed,Speed,-2.300000,0.990000,1.410000,4.000000,101.000000,1,1,-0.090000,-0.090000,1,0.312393,-0.126770,0.000000,6.351196,-21.963913,0.000000,0.034000,0.063000,-0.038000,FlatInitial,Hold,0
08:21:17.804 PM 02/17/2016,Teleop Enabled,0,FALSE,0,NO ERROR,9004.687500,-9022.265625,9000.000000,9000.000000,Speed,Speed,-0.270000,0.890000,1.400000,4.000000,101.000000,1,1,-0.090000,-0.090000,1,0.319534,-0.179321,0.000000,6.367203,-21.972000,0.000000,0.052000,0.000000,0.023000,FlatInitial,Hold,0
08:21:17.905 PM 02/17/2016,Teleop Enabled,0,FALSE,0,NO ERROR,9007.031250,-9018.164062,9000.000000,9000.000000,Speed,Speed,-0.270000,0.890000,1.400000,4.000000,107.000000,1,1,-0.090000,-0.090000,1,0.319534,-0.179321,0.000000,6.367203,-21.972000,0.000000,0.052000,0.000000,0.023000,FlatInitial,Hold,0
08:21:18.007 PM 02/17/2016,Teleop Enabled,0,FALSE,0,NO ERROR,9006.445312,-9014.062500,9000.000000,9000.000000,Speed,Speed,0.590000,0.940000,1.300000,4.000000,102.000000,1,1,-0.090000,-0.090000,1,0.319534,-0.179321,0.000000,6.367203,-21.972000,0.000000,0.052000,0.000000,0.023000,FlatInitial,Hold,0
08:21:18.107 PM 02/17/2016,Teleop Enabled,0,FALSE,0,NO ERROR,9007.031250,-9014.062500,9000.000000,9000.000000,Speed,Speed,1.840000,0.940000,1.290000,4.000000,102.000000,1,1,-0.090000,-0.090000,1,0.309006,-0.266846,0.000000,6.416183,-22.006042,0.000000,-0.066000,-0.031000,-0.041000,FlatInitial,Hold,0
08:21:18.207 PM 02/17/2016,Teleop Enabled,0,FALSE,0,NO ERROR,9006.445312,-9011.718750,9000.000000,9000.000000,Speed,Speed,1.840000,0.940000,1.290000,4.000000,103.000000,1,1,-0.090000,-0.090000,1,0.300140,-0.287964,0.000000,6.425308,-22.014542,0.000000,-0.066000,-0.031000,-0.041000,FlatInitial,Hold,0
08:21:18.307 PM 02/17/2016,Teleop Enabled,0,FALSE,0,NO ERROR,9006.445312,-9007.031250,9000.000000,9000.000000,Speed,Speed,2.430000,0.990000,1.300000,4.000000,103.000000,1,1,-0.090000,-0.090000,1,0.300140,-0.287964,0.000000,6.425308,-22.014542,0.000000,-0.035000,-0.020000,0.028000,FlatInitial,Hold,0
08:21:18.408 PM 02/17/2016,Teleop Enabled,0,FALSE,0,NO ERROR,9004.101562,-9010.546875,9000.000000,9000.000000,Speed,Speed,2.430000,0.990000,1.300000,4.000000,102.000000,1,1,-0.090000,-0.090000,1,0.253616,-0.338638,0.000000,6.458481,-22.052582,0.000000,0.026000,-0.022000,0.020000,FlatInitial,Hold,0
08:21:18.510 PM 02/17/2016,Teleop Enabled,0,FALSE,0,NO ERROR,9000.585938,-9010.546875,9000.000000,9000.000000,Speed,Speed,2.720000,1.000000,1.290000,4.000000,102.000000,1,1,-0.090000,-0.090000,1,0.253616,-0.338638,0.000000,6.458481,-22.052582,0.000000,0.026000,-0.022000,0.020000,FlatInitial,Hold,0
08:21:18.612 PM 02/17/2016,Teleop Enabled,0,FALSE,0,NO ERROR,9000.585938,-9010.546875,9000.000000,9000.000000,Speed,Speed,2.720000,1.000000,1.290000,4.000000,102.000000,1,1,-0.090000,-0.090000,1,-0.022949,0.000000,0.000000,6.469955,-22.077805,0.000000,-0.043000,0.000000,0.029000,FlatInitial,Hold,0
08:21:18.713 PM 02/17/2016,Teleop Enabled,0,FALSE,0,NO ERROR,8999.414062,-9005.859375,9000.000000,9000.000000,Speed,Speed,2.950000,1.030000,1.300000,4.000000,101.000000,1,1,-0.090000,-0.090000,1,-0.033661,-0.006210,0.000000,6.468597,-22.077820,0.000000,-0.037000,-0.006000,-0.022000,FlatInitial,Hold,0
08:21:18.813 PM 02/17/2016,Teleop Enabled,0,FALSE,0,NO ERROR,9000.585938,-9005.859375,9000.000000,9000.000000,Speed,Speed,3.070000,1.010000,1.330000,4.000000,103.000000,1,1,-0.090000,-0.090000,1,-0.064270,-0.005890,0.000000,6.465424,-22.077911,0.000000,-0.010000,-0.001000,-0.036000,FlatInitial,Hold,0
08:21:18.914 PM 02/17/2016,Teleop Enabled,0,FALSE,0,NO ERROR,9001.171875,-9005.859375,9000.000000,9000.000000,Speed,Speed,3.090000,1.010000,1.290000,4.000000,101.000000,1,1,-0.090000,-0.090000,1,-0.092957,-0.017792,0.000000,6.460602,-22.078781,0.000000,-0.010000,-0.001000,-0.036000,FlatInitial,Hold,0
08:21:19.015 PM 02/17/2016,Teleop Enabled,0,FALSE,0,NO ERROR,9001.171875,-9007.617188,9000.000000,9000.000000,Speed,Speed,3.090000,1.010000,1.290000,4.000000,105.000000,1,1,-0.090000,-0.090000,1,-0.092957,-0.017792,0.000000,6.460602,-22.078781,0.000000,0.000000,0.010000,-0.006000,FlatInitial,Hold,0
08:21:19.115 PM 02/17/2016,Teleop Enabled,0,FALSE,0,NO ERROR,9002.343750,-9009.375000,9000.000000,9000.000000,Speed,Speed,3.160000,1.030000,1.300000,4.000000,100.000000,1,1,-0.090000,-0.090000,1,-0.092957,-0.017792,0.000000,6.460602,-22.078781,0.000000,0.000000,0.010000,-0.006000,FlatInitial,Hold,0
08:21:19.216 PM 02/17/2016,Teleop Enabled,0,FALSE,0,NO ERROR,9007.617188,-9007.031250,9000.000000,9000.000000,Speed,Speed,3.160000,1.030000,1.300000,4.000000,100.000000,1,0,-0.000000,0.000000,1,-0.077118,-0.031555,0.000000,6.455383,-22.082275,0.000000,-0.013000,0.108000,-0.003000,FlatInitial,Hold,0
08:21:19.318 PM 02/17/2016,Teleop Enabled,0,FALSE,0,NO ERROR,9008.203125,-9007.031250,9000.000000,9000.000000,Speed,Speed,3.170000,1.030000,1.300000,4.000000,100.000000,1,0,-0.000000,0.000000,1,-0.127792,-0.022171,0.000000,6.448044,-22.083969,0.000000,-0.062000,-0.058000,0.018000,FlatInitial,Hold,0
08:21:19.427 PM 02/17/2016,Teleop Enabled,0,FALSE,0,NO ERROR,9008.203125,-9007.031250,9000.000000,9000.000000,Speed,Speed,3.130000,1.030000,1.370000,4.000000,107.000000,1,0,-0.000000,0.000000,1,-0.127792,-0.022171,0.000000,6.448044,-22.083969,0.000000,-0.060000,0.142000,0.054000,FlatInitial,Hold,0
08:21:19.526 PM 02/17/2016,Teleop Enabled,0,FALSE,0,NO ERROR,9008.789062,-9014.062500,9000.000000,9000.000000,Speed,Speed,3.130000,1.030000,1.370000,4.000000,102.000000,1,0,-0.000000,0.000000,1,0.000000,0.000336,0.000000,6.438934,-22.084732,0.000000,-0.009000,-0.114000,0.091000,FlatInitial,Hold,0
08:21:19.626 PM 02/17/2016,Teleop Enabled,0,FALSE,0,NO ERROR,9008.789062,-9012.890625,9000.000000,9000.000000,Speed,Speed,3.120000,1.050000,1.380000,4.000000,109.000000,1,0,-0.000000,0.000000,1,-0.047058,0.035156,0.000000,6.437286,-22.083618,0.000000,-0.072000,0.187000,0.066000,FlatInitial,Hold,0
08:21:19.726 PM 02/17/2016,Teleop Enabled,0,FALSE,0,NO ERROR,9008.789062,-9015.234375,9000.000000,9000.000000,Speed,Speed,3.120000,1.040000,1.340000,4.000000,100.000000,1,0,-0.000000,0.000000,1,-0.066605,0.047974,0.000000,6.436066,-22.082718,0.000000,-0.023000,-0.161000,0.062000,FlatInitial,Hold,0
08:21:19.826 PM 02/17/2016,Teleop Enabled,0,FALSE,0,NO ERROR,9004.687500,-9014.062500,9000.000000,9000.000000,Speed,Speed,3.120000,1.040000,1.410000,4.000000,100.000000,1,0,-0.000000,0.000000,1,-0.108505,0.084183,0.000000,6.430771,-22.078583,0.000000,-0.013000,0.242000,0.019000,FlatInitial,Hold,0
08:21:19.926 PM 02/17/2016,Teleop Enabled,0,FALSE,0,NO ERROR,9005.273438,-9010.546875,9000.000000,9000.000000,Speed,Speed,3.120000,1.040000,1.410000,4.000000,101.000000,1,0,-0.244094,0.244094,1,-0.141312,0.130112,0.000000,6.424301,-22.072952,0.000000,-0.096000,-0.147000,0.130000,FlatInitial,Hold,0
08:21:20.029 PM 02/17/2016,Teleop Enabled,0,FALSE,0,NO ERROR,9004.687500,-9005.273438,9000.000000,9000.000000,Speed,Speed,3.410000,0.910000,1.450000,4.000000,104.000000,1,0,-0.488189,0.488189,1,-0.100983,0.244659,0.000000,6.417801,-22.054733,0.000000,-0.043000,-0.181000,0.111000,FlatInitial,Hold,0
08:21:20.131 PM 02/17/2016,Teleop Enabled,0,FALSE,0,NO ERROR,8998.828125,-8978.906250,9000.000000,9000.000000,Speed,Speed,3.410000,0.910000,1.450000,4.000000,101.000000,1,0,-0.433071,0.433071,1,-0.100983,0.244659,0.000000,6.417801,-22.054733,0.000000,-0.256000,0.044000,0.005000,FlatInitial,Hold,0
08:21:20.231 PM 02/17/2016,Teleop Enabled,0,FALSE,0,NO ERROR,8941.992188,-8913.281250,9000.000000,9000.000000,Speed,Speed,15.070000,-0.260000,1.880000,4.000000,101.000000,1,0,-0.000000,0.000000,1,-0.298386,0.456787,0.000000,6.401535,-22.028687,0.000000,-0.110000,0.110000,-0.026000,FlatInitial,Hold,0
08:21:20.331 PM 02/17/2016,Teleop Enabled,0,FALSE,0,NO ERROR,8871.093750,-8819.531250,9000.000000,9000.000000,Speed,Speed,15.070000,-0.260000,1.880000,4.000000,102.000000,1,0,-0.000000,0.000000,1,-0.261520,0.468613,0.000000,6.392929,-22.014343,0.000000,0.076000,-0.349000,-0.028000,FlatInitial,Hold,0
08:21:20.430 PM 02/17/2016,Teleop Enabled,0,FALSE,0,NO ERROR,8922.070312,-8919.726562,9000.000000,9000.000000,Speed,Speed,26.270000,0.180000,2.050000,4.000000,101.000000,1,0,-0.000000,0.000000,1,-0.101212,0.278534,0.000000,6.382065,-21.989014,0.000000,0.001000,-0.158000,0.040000,FlatInitial,Hold,0
08:21:20.532 PM 02/17/2016,Teleop Enabled,0,FALSE,0,NO ERROR,8995.312500,-9028.710938,9000.000000,9000.000000,Speed,Speed,29.800000,0.490000,1.310000,4.000000,102.000000,1,0,-0.000000,0.000000,1,-0.015015,0.158936,0.000000,6.378830,-21.976776,0.000000,0.110000,-0.146000,0.106000,FlatInitial,Hold,0
08:21:20.632 PM 02/17/2016,Teleop Enabled,0,FALSE,0,NO ERROR,9040.429688,-9079.687500,9000.000000,9000.000000,Speed,Speed,31.690000,0.800000,1.080000,4.000000,104.000000,1,0,-0.000000,0.000000,1,0.017731,0.088440,0.000000,6.379196,-21.972305,0.000000,-0.035000,-0.013000,-0.052000,FlatInitial,Hold,0
08:21:20.736 PM 02/17/2016,Teleop Enabled,0,FALSE,0,NO ERROR,9062.695312,-9093.750000,9000.000000,9000.000000,Speed,Speed,31.880000,0.830000,1.420000,4.000000,104.000000,1,0,-0.000000,0.000000,1,0.035126,0.064621,0.000000,6.380005,-21.970169,0.000000,0.067000,-0.073000,0.242000,FlatInitial,Hold,0
08:21:20.835 PM 02/17/2016,Teleop Enabled,0,FALSE,0,NO ERROR,9066.210938,-9087.304688,9000.000000,9000.000000,Speed,Speed,31.420000,0.960000,1.420000,4.000000,102.000000,1,0,-0.000000,0.000000,1,0.090256,0.039566,0.000000,6.384796,-21.967377,0.000000,-0.106000,-0.103000,-0.033000,FlatInitial,Hold,0
08:21:20.935 PM 02/17/2016,Teleop Enabled,0,FALSE,0,NO ERROR,9056.250000,-9072.656250,9000.000000,9000.000000,Speed,Speed,31.250000,0.920000,1.510000,4.000000,101.000000,1,0,-0.000000,0.000000,1,0.100800,0.087738,0.000000,6.389633,-21.964218,0.000000,0.106000,0.287000,0.017000,FlatInitial,Hold,0
08:21:21.035 PM 02/17/2016,Teleop Enabled,0,FALSE,0,NO ERROR,9042.773438,-9050.390625,9000.000000,9000.000000,Speed,Speed,31.150000,0.890000,1.300000,4.000000,102.000000,1,0,-0.000000,0.000000,1,0.093704,0.131592,0.000000,6.393433,-21.959412,0.000000,-0.117000,-0.181000,0.065000,FlatInitial,Hold,0
08:21:21.135 PM 02/17/2016,Teleop Enabled,0,FALSE,0,NO ERROR,9029.296875,-9031.640625,9000.000000,9000.000000,Speed,Speed,31.110000,0.930000,1.400000,4.000000,101.000000,1,0,-0.000000,0.000000,1,0.087585,0.157669,0.000000,6.397964,-21.952072,0.000000,0.104000,0.183000,-0.056000,FlatInitial,Hold,0
08:21:21.234 PM 02/17/2016,Teleop Enabled,0,FALSE,0,NO ERROR,9017.578125,-9019.335938,9000.000000,9000.000000,Speed,Speed,31.090000,0.930000,1.450000,4.000000,101.000000,1,0,-0.000000,0.000000,1,0.085571,0.184219,0.000000,6.401321,-21.945053,0.000000,0.107000,0.082000,-0.100000,FlatInitial,Hold,0
08:21:21.337 PM 02/17/2016,Teleop Enabled,0,FALSE,0,NO ERROR,9007.617188,-9011.132812,9000.000000,9000.000000,Speed,Speed,31.100000,0.880000,1.460000,4.000000,107.000000,1,1,-0.021849,-0.021849,1,0.092300,0.201385,0.000000,6.406891,-21.933594,0.000000,-0.124000,-0.037000,0.023000,FlatInitial,Hold,0
08:21:21.437 PM 02/17/2016,Teleop Enabled,0,FALSE,0,NO ERROR,9002.343750,-9007.031250,9000.000000,9000.000000,Speed,Speed,31.130000,0.930000,1.500000,4.000000,103.000000,1,1,-0.090000,-0.090000,1,0.103714,0.214630,0.000000,6.410843,-21.925171,0.000000,0.136000,0.106000,-0.049000,FlatInitial,Hold,0
08:21:21.538 PM 02/17/2016,Teleop Enabled,0,FALSE,0,NO ERROR,8998.242188,-9004.687500,9000.000000,9000.000000,Speed,Speed,31.440000,0.860000,1.570000,4.000000,102.000000,1,1,-0.090000,-0.090000,1,0.103714,0.214630,0.000000,6.410843,-21.925171,0.000000,0.136000,0.106000,-0.049000,FlatInitial,Hold,0
08:21:21.638 PM 02/17/2016,Teleop Enabled,0,FALSE,0,NO ERROR,8992.382812,-8998.828125,9000.000000,9000.000000,Speed,Speed,32.170000,0.860000,1.430000,4.000000,101.000000,1,1,0.090000,0.090000,1,0.108948,0.268524,0.000000,6.426590,-21.889755,0.000000,0.129000,0.127000,-0.028000,FlatInitial,Hold,0
08:21:21.738 PM 02/17/2016,Teleop Enabled,0,FALSE,0,NO ERROR,8985.351562,-8998.242188,9000.000000,9000.000000,Speed,Speed,32.170000,0.860000,1.430000,4.000000,102.000000,1,1,0.090000,0.090000,1,0.108948,0.268524,0.000000,6.426590,-21.889755,0.000000,0.129000,0.127000,-0.028000,FlatInitial,Hold,0
08:21:21.838 PM 02/17/2016,Teleop Enabled,0,FALSE,0,NO ERROR,8985.351562,-8995.898438,9000.000000,9000.000000,Speed,Speed,31.570000,1.070000,1.730000,4.000000,101.000000,1,1,0.090000,0.090000,1,0.108948,0.268524,0.000000,6.426590,-21.889755,0.000000,0.129000,0.127000,-0.028000,FlatInitial,Hold,0
08:21:21.939 PM 02/17/2016,Teleop Enabled,0,FALSE,0,NO ERROR,8990.625000,-8991.796875,9000.000000,9000.000000,Speed,Speed,31.570000,1.070000,1.730000,4.000000,100.000000,1,1,0.090000,0.090000,1,0.131653,0.306503,0.000000,6.440720,-21.858810,0.000000,-0.128000,-0.079000,0.044000,FlatInitial,Hold,0
08:21:22.039 PM 02/17/2016,Teleop Enabled,0,FALSE,0,NO ERROR,8995.898438,-8988.281250,9000.000000,9000.000000,Speed,Speed,30.740000,1.120000,1.610000,4.000000,101.000000,1,1,0.090000,0.090000,1,0.102875,0.357803,0.000000,6.449966,-21.831635,0.000000,0.135000,0.207000,0.011000,FlatInitial,Hold,0
08:21:22.141 PM 02/17/2016,Teleop Enabled,0,FALSE,0,NO ERROR,9000.585938,-8991.210938,9000.000000,9000.000000,Speed,Speed,29.270000,1.170000,1.650000,4.000000,100.000000,1,1,0.090000,0.090000,1,0.085663,0.378586,0.000000,6.454727,-21.812973,0.000000,0.114000,0.172000,-0.032000,FlatInitial,Hold,0
08:21:22.250 PM 02/17/2016,Teleop Enabled,0,FALSE,0,NO ERROR,9004.101562,-8995.312500,9000.000000,9000.000000,Speed,Speed,29.270000,1.170000,1.650000,4.000000,103.000000,1,1,0.090000,0.090000,1,0.085663,0.378586,0.000000,6.454727,-21.812973,0.000000,0.114000,0.172000,-0.032000,FlatInitial,Hold,0
08:21:22.351 PM 02/17/2016,Teleop Enabled,0,FALSE,0,NO ERROR,9008.203125,-9002.929688,9000.000000,9000.000000,Speed,Speed,27.920000,1.150000,1.680000,4.000000,102.000000,1,1,0.090000,0.090000,1,0.034271,0.455887,0.000000,6.461823,-21.762802,0.000000,0.122000,0.128000,-0.042000,FlatInitial,Hold,0
08:21:22.451 PM 02/17/2016,Teleop Enabled,0,FALSE,0,NO ERROR,9009.375000,-9005.859375,9000.000000,9000.000000,Speed,Speed,27.920000,1.150000,1.680000,4.000000,107.000000,1,1,0.090000,0.090000,1,0.034271,0.455887,0.000000,6.461823,-21.762802,0.000000,0.120000,0.073000,-0.049000,FlatInitial,Hold,0
08:21:22.551 PM 02/17/2016,Teleop Enabled,0,FALSE,0,NO ERROR,9007.617188,-9011.718750,9000.000000,9000.000000,Speed,Speed,26.730000,1.210000,1.610000,4.000000,103.000000,1,1,0.090000,0.090000,1,0.034271,0.455887,0.000000,6.461823,-21.762802,0.000000,0.120000,0.073000,-0.049000,FlatInitial,Hold,0
08:21:22.653 PM 02/17/2016,Teleop Enabled,0,FALSE,0,NO ERROR,9005.859375,-9011.718750,9000.000000,9000.000000,Speed,Speed,26.730000,1.210000,1.610000,4.000000,101.000000,1,1,0.090000,0.090000,1,0.023712,0.007355,0.000000,6.464920,-21.744202,0.000000,0.101000,0.025000,-0.069000,FlatInitial,Hold,0
08:21:22.753 PM 02/17/2016,Teleop Enabled,0,FALSE,0,NO ERROR,9005.859375,-9007.031250,9000.000000,9000.000000,Speed,Speed,25.720000,1.220000,1.690000,4.000000,102.000000,1,1,0.090000,0.090000,1,0.024200,-0.016769,0.000000,6.465881,-21.744492,0.000000,0.055000,0.006000,-0.089000,FlatInitial,Hold,0
08:21:22.853 PM 02/17/2016,Teleop Enabled,0,FALSE,0,NO ERROR,9003.515625,-9005.859375,9000.000000,9000.000000,Speed,Speed,24.950000,1.170000,1.610000,4.000000,101.000000,1,1,0.090000,0.090000,1,0.024200,-0.016769,0.000000,6.465881,-21.744492,0.000000,0.055000,0.006000,-0.089000,FlatInitial,Hold,0
08:21:22.955 PM 02/17/2016,Teleop Enabled,0,FALSE,0,NO ERROR,9000.000000,-9004.101562,9000.000000,9000.000000,Speed,Speed,24.160000,1.230000,1.580000,4.000000,101.000000,1,1,0.090000,0.090000,1,0.023788,-0.003342,0.000000,6.467758,-21.745850,0.000000,0.042000,-0.075000,-0.093000,FlatInitial,Hold,0
08:21:23.055 PM 02/17/2016,Teleop Enabled,0,FALSE,0,NO ERROR,8998.242188,-9002.929688,9000.000000,9000.000000,Speed,Speed,24.160000,1.230000,1.580000,4.000000,105.000000,1,1,0.090000,0.090000,1,0.003494,-0.019821,0.000000,6.468384,-21.746582,0.000000,0.078000,-0.029000,-0.099000,FlatInitial,Hold,0
08:21:23.157 PM 02/17/2016,Teleop Enabled,0,FALSE,0,NO ERROR,8994.140625,-8998.828125,9000.000000,9000.000000,Speed,Speed,23.280000,1.220000,1.630000,4.000000,103.000000,1,1,0.090000,0.090000,1,0.008301,-0.032257,0.000000,6.468414,-21.748611,0.000000,-0.088000,0.062000,0.144000,FlatInitial,Hold,0
08:21:23.258 PM 02/17/2016,Teleop Enabled,0,FALSE,0,NO ERROR,8992.968750,-8997.656250,9000.000000,9000.000000,Speed,Speed,23.280000,1.220000,1.630000,4.000000,102.000000,1,1,0.090000,0.090000,1,0.000748,-0.006760,0.000000,6.468628,-21.748962,0.000000,-0.088000,0.062000,0.144000,FlatInitial,Hold,0
08:21:23.359 PM 02/17/2016,Teleop Enabled,0,FALSE,0,NO ERROR,8994.726562,-8994.726562,9000.000000,9000.000000,Speed,Speed,21.990000,1.240000,1.590000,4.000000,102.000000,1,1,0.090000,0.090000,1,0.000748,-0.006760,0.000000,6.468628,-21.748962,0.000000,-0.125000,0.023000,0.093000,FlatInitial,Hold,0
08:21:23.462 PM 02/17/2016,Teleop Enabled,0,FALSE,0,NO ERROR,8998.828125,-8992.382812,9000.000000,9000.000000,Speed,Speed,21.090000,1.240000,1.610000,4.000000,101.000000,1,1,0.090000,0.090000,1,0.000748,-0.006760,0.000000,6.468628,-21.748962,0.000000,-0.125000,0.023000,0.093000,FlatInitial,Hold,0
08:21:23.565 PM 02/17/2016,Teleop Enabled,0,FALSE,0,NO ERROR,9001.757812,-8991.210938,9000.000000,9000.000000,Speed,Speed,20.400000,1.290000,1.600000,4.000000,105.000000,1,1,0.090000,0.090000,1,-0.047928,-0.019592,0.000000,6.463074,-21.751434,0.000000,-0.112000,0.064000,0.068000,FlatInitial,Hold,0
08:21:23.665 PM 02/17/2016,Teleop Enabled,0,FALSE,0,NO ERROR,9007.031250,-8992.968750,9000.000000,9000.000000,Speed,Speed,20.400000,1.290000,1.600000,4.000000,100.000000,1,1,0.090000,0.090000,1,-0.047928,-0.019592,0.000000,6.463074,-21.751434,0.000000,-0.112000,0.064000,0.068000,FlatInitial,Hold,0
08:21:23.766 PM 02/17/2016,Teleop Enabled,0,FALSE,0,NO ERROR,9009.375000,-8997.656250,9000.000000,9000.000000,Speed,Speed,19.150000,1.220000,1.580000,4.000000,103.000000,1,1,0.090000,0.090000,1,-0.059723,-0.040924,0.000000,6.457947,-21.754379,0.000000,0.103000,-0.025000,-0.037000,FlatInitial,Hold,0
08:21:23.866 PM 02/17/2016,Teleop Enabled,0,FALSE,0,NO ERROR,9009.960938,-9003.515625,9000.000000,9000.000000,Speed,Speed,19.150000,1.220000,1.580000,4.000000,103.000000,1,1,0.090000,0.090000,1,-0.059723,-0.040924,0.000000,6.457947,-21.754379,0.000000,0.103000,-0.025000,-0.037000,FlatInitial,Hold,0
08:21:23.966 PM 02/17/2016,Teleop Enabled,0,FALSE,0,NO ERROR,9006.445312,-9009.960938,9000.000000,9000.000000,Speed,Speed,17.860000,1.240000,1.490000,4.000000,101.000000,1,1,0.090000,0.090000,1,-0.031052,-0.072540,0.000000,6.452835,-21.761520,0.000000,0.103000,-0.025000,-0.037000,FlatInitial,Hold,0
08:21:24.068 PM 02/17/2016,Teleop Enabled,0,FALSE,0,NO ERROR,9004.101562,-9011.132812,9000.000000,9000.000000,Speed,Speed,16.480000,1.220000,1.530000,4.000000,102.000000,1,1,0.090000,0.090000,1,-0.031052,-0.072540,0.000000,6.452835,-21.761520,0.000000,-0.065000,0.137000,0.030000,FlatInitial,Hold,0
08:21:24.168 PM 02/17/2016,Teleop Enabled,0,FALSE,0,NO ERROR,9000.585938,-9009.960938,9000.000000,9000.000000,Speed,Speed,16.480000,1.220000,1.530000,4.000000,101.000000,1,1,0.090000,0.090000,1,-0.031052,-0.072540,0.000000,6.452835,-21.761520,0.000000,-0.065000,0.137000,0.030000,FlatInitial,Hold,0
08:21:24.269 PM 02/17/2016,Teleop Enabled,0,FALSE,0,NO ERROR,8998.242188,-9005.859375,9000.000000,9000.000000,Speed,Speed,16.480000,1.220000,1.530000,4.000000,102.000000,1,1,0.090000,0.090000,1,-0.046982,-0.113495,0.000000,6.448349,-21.771896,0.000000,-0.057000,0.118000,0.071000,FlatInitial,Hold,0
08:21:24.370 PM 02/17/2016,Teleop Enabled,0,FALSE,0,NO ERROR,8994.726562,-9008.203125,9000.000000,9000.000000,Speed,Speed,14.970000,1.220000,1.460000,4.000000,105.000000,1,1,0.090000,0.090000,1,-0.059540,-0.138107,0.000000,6.444153,-21.782028,0.000000,0.042000,-0.103000,-0.112000,FlatInitial,Hold,0
08:21:24.471 PM 02/17/2016,Teleop Enabled,0,FALSE,0,NO ERROR,8991.796875,-9007.617188,9000.000000,9000.000000,Speed,Speed,14.970000,1.220000,1.460000,4.000000,103.000000,1,1,0.090000,0.090000,1,-0.059540,-0.138107,0.000000,6.444153,-21.782028,0.000000,0.042000,-0.103000,-0.112000,FlatInitial,Hold,0
08:21:24.571 PM 02/17/2016,Teleop Enabled,0,FALSE,0,NO ERROR,8992.968750,-9008.789062,9000.000000,9000.000000,Speed,Speed,13.300000,1.220000,1.430000,4.000000,102.000000,1,1,0.090000,0.090000,1,-0.090042,-0.145279,0.000000,6.437958,-21.792969,0.000000,0.042000,-0.103000,-0.112000,FlatInitial,Hold,0
08:21:24.672 PM 02/17/2016,Teleop Enabled,0,FALSE,0,NO ERROR,8991.796875,-9001.757812,9000.000000,9000.000000,Speed,Speed,12.800000,1.240000,1.410000,4.000000,101.000000,1,1,0.090000,0.090000,1,-0.090042,-0.145279,0.000000,6.437958,-21.792969,0.000000,0.053000,-0.146000,-0.077000,FlatInitial,Hold,0
08:21:24.772 PM 02/17/2016,Teleop Enabled,0,FALSE,0,NO ERROR,8993.554688,-8995.312500,9000.000000,9000.000000,Speed,Speed,12.800000,1.240000,1.410000,4.000000,101.000000,1,1,0.090000,0.090000,1,-0.147324,-0.167892,0.000000,6.424133,-21.810150,0.000000,0.053000,-0.146000,-0.077000,FlatInitial,Hold,0
08:21:24.873 PM 02/17/2016,Teleop Enabled,0,FALSE,0,NO ERROR,8995.898438,-8988.281250,9000.000000,9000.000000,Speed,Speed,11.700000,1.210000,1.550000,4.000000,102.000000,1,1,0.090000,0.090000,1,-0.147324,-0.167892,0.000000,6.424133,-21.810150,0.000000,-0.080000,0.149000,0.046000,FlatInitial,Hold,0
08:21:24.974 PM 02/17/2016,Teleop Enabled,0,FALSE,0,NO ERROR,9001.171875,-8987.109375,9000.000000,9000.000000,Speed,Speed,11.700000,1.210000,1.550000,4.000000,101.000000,1,1,0.090000,0.090000,1,-0.185104,-0.195023,0.000000,6.409180,-21.826843,0.000000,-0.118000,0.115000,0.055000,FlatInitial,Hold,0
08:21:25.075 PM 02/17/2016,Teleop Enabled,0,FALSE,0,NO ERROR,9007.617188,-8992.968750,9000.000000,9000.000000,Speed,Speed,10.260000,1.250000,1.450000,4.000000,101.000000,1,1,0.090000,0.090000,1,-0.185104,-0.195023,0.000000,6.409180,-21.826843,0.000000,-0.118000,0.115000,0.055000,FlatInitial,Hold,0
08:21:25.176 PM 02/17/2016,Teleop Enabled,0,FALSE,0,NO ERROR,9012.304688,-8995.898438,9000.000000,9000.000000,Speed,Speed,9.900000,1.190000,1.480000,4.000000,103.000000,1,1,0.090000,0.090000,1,-0.231384,-0.222549,0.000000,6.385941,-21.850159,0.000000,0.094000,-0.178000,-0.038000,FlatInitial,Hold,0
08:21:25.277 PM 02/17/2016,Teleop Enabled,0,FALSE,0,NO ERROR,9011.132812,-8998.828125,9000.000000,9000.000000,Speed,Speed,9.900000,1.190000,1.480000,4.000000,102.000000,1,1,0.090000,0.090000,1,-0.231384,-0.222549,0.000000,6.385941,-21.850159,0.000000,0.094000,-0.178000,-0.038000,FlatInitial,Hold,0
08:21:25.377 PM 02/17/2016,Teleop Enabled,0,FALSE,0,NO ERROR,9005.273438,-9006.445312,9000.000000,9000.000000,Speed,Speed,8.810000,1.230000,1.450000,4.000000,104.000000,1,1,0.090000,0.090000,1,-0.231384,-0.222549,0.000000,6.385941,-21.850159,0.000000,0.094000,-0.178000,-0.038000,FlatInitial,Hold,0
08:21:25.477 PM 02/17/2016,Teleop Enabled,0,FALSE,0,NO ERROR,9002.929688,-9010.546875,9000.000000,9000.000000,Speed,Speed,7.920000,1.200000,1.470000,4.000000,104.000000,1,1,0.090000,0.090000,1,-0.258896,-0.290421,0.000000,6.351425,-21.887314,0.000000,0.057000,-0.186000,0.005000,FlatInitial,Hold,0
08:21:25.578 PM 02/17/2016,Teleop Enabled,0,FALSE,0,NO ERROR,9001.171875,-9012.304688,9000.000000,9000.000000,Speed,Speed,7.920000,1.200000,1.470000,4.000000,101.000000,1,1,0.090000,0.090000,1,-0.258896,-0.290421,0.000000,6.351425,-21.887314,0.000000,0.057000,-0.186000,0.005000,FlatInitial,Hold,0
08:21:25.679 PM 02/17/2016,Teleop Enabled,0,FALSE,0,NO ERROR,9002.929688,-9010.546875,9000.000000,9000.000000,Speed,Speed,7.920000,1.200000,1.470000,4.000000,102.000000,1,1,0.090000,0.090000,1,-0.274719,-0.321533,0.000000,6.324265,-21.918594,0.000000,0.057000,-0.186000,0.005000,FlatInitial,Hold,0
08:21:25.780 PM 02/17/2016,Teleop Enabled,0,FALSE,0,NO ERROR,9004.101562,-9005.859375,9000.000000,9000.000000,Speed,Speed,7.920000,1.200000,1.470000,4.000000,104.000000,1,1,-0.090000,-0.090000,1,-0.274719,-0.321533,0.000000,6.324265,-21.918594,0.000000,-0.119000,0.105000,-0.020000,FlatInitial,Hold,0
08:21:25.887 PM 02/17/2016,Teleop Enabled,0,FALSE,0,NO ERROR,9004.101562,-9007.031250,9000.000000,9000.000000,Speed,Speed,6.620000,1.110000,1.450000,4.000000,101.000000,1,1,-0.090000,-0.090000,1,-0.306061,-0.339706,0.000000,6.288330,-21.962891,0.000000,-0.089000,0.150000,-0.069000,FlatInitial,Hold,0
08:21:25.987 PM 02/17/2016,Teleop Enabled,0,FALSE,0,NO ERROR,9004.101562,-9007.031250,9000.000000,9000.000000,Speed,Speed,7.440000,1.000000,1.420000,4.000000,107.000000,1,1,-0.090000,-0.090000,1,-0.306061,-0.339706,0.000000,6.288330,-21.962891,0.000000,-0.089000,0.150000,-0.069000,FlatInitial,Hold,0
08:21:26.088 PM 02/17/2016,Teleop Enabled,0,FALSE,0,NO ERROR,9004.101562,-9007.031250,9000.000000,9000.000000,Speed,Speed,8.430000,0.980000,1.530000,4.000000,104.000000,1,1,-0.090000,-0.090000,1,-0.284698,-0.389221,0.000000,6.261169,-21.995865,0.000000,-0.078000,0.093000,-0.100000,FlatInitial,Hold,0
08:21:26.193 PM 02/17/2016,Teleop Enabled,0,FALSE,0,NO ERROR,9000.585938,-9005.859375,9000.000000,9000.000000,Speed,Speed,8.430000,0.980000,1.530000,4.000000,101.000000,1,1,-0.090000,-0.090000,1,-0.262161,-0.437103,0.000000,6.250351,-22.012695,0.000000,-0.078000,0.093000,-0.100000,FlatInitial,Hold,0
08:21:26.291 PM 02/17/2016,Teleop Enabled,0,FALSE,0,NO ERROR,9001.171875,-9005.273438,9000.000000,9000.000000,Speed,Speed,8.430000,0.980000,1.530000,4.000000,101.000000,1,1,-0.090000,-0.090000,1,-0.262161,-0.437103,0.000000,6.250351,-22.012695,0.000000,-0.052000,0.081000,-0.082000,FlatInitial,Hold,0
08:21:26.392 PM 02/17/2016,Teleop Enabled,0,FALSE,0,NO ERROR,8998.242188,-9001.171875,9000.000000,9000.000000,Speed,Speed,8.430000,0.980000,1.530000,4.000000,101.000000,1,1,0.090000,0.090000,1,-0.262161,-0.437103,0.000000,6.250351,-22.012695,0.000000,-0.052000,0.081000,-0.082000,FlatInitial,Hold,0
08:21:26.493 PM 02/17/2016,Teleop Enabled,0,FALSE,0,NO ERROR,8995.898438,-9001.757812,9000.000000,9000.000000,Speed,Speed,11.200000,0.940000,1.380000,4.000000,101.000000,1,1,0.090000,0.090000,1,-0.262161,-0.437103,0.000000,6.250351,-22.012695,0.000000,-0.052000,0.081000,-0.082000,FlatInitial,Hold,0
08:21:26.593 PM 02/17/2016,Teleop Enabled,0,FALSE,0,NO ERROR,8991.796875,-9002.929688,9000.000000,9000.000000,Speed,Speed,11.400000,1.080000,1.550000,4.000000,102.000000,1,1,0.090000,0.090000,1,-0.132462,-0.632645,0.000000,6.205475,-22.131805,0.000000,0.083000,-0.147000,-0.017000,FlatInitial,Hold,0
08:21:26.693 PM 02/17/2016,Teleop Enabled,0,FALSE,0,NO ERROR,8992.382812,-9003.515625,9000.000000,9000.000000,Speed,Speed,11.400000,1.080000,1.550000,4.000000,103.000000,1,1,0.090000,0.090000,1,-0.132462,-0.632645,0.000000,6.205475,-22.131805,0.000000,0.083000,-0.147000,-0.017000,FlatInitial,Hold,0
08:21:26.793 PM 02/17/2016,Teleop Enabled,0,FALSE,0,NO ERROR,8993.554688,-9003.515625,9000.000000,9000.000000,Speed,Speed,10.630000,1.170000,1.480000,4.000000,101.000000,1,1,0.090000,0.090000,1,-0.074066,-0.695648,0.000000,6.194351,-22.204941,0.000000,0.083000,-0.147000,-0.017000,FlatInitial,Hold,0
08:21:26.893 PM 02/17/2016,Teleop Enabled,0,FALSE,0,NO ERROR,8995.898438,-9003.515625,9000.000000,9000.000000,Speed,Speed,10.630000,1.170000,1.480000,4.000000,103.000000,1,1,0.090000,0.090000,1,-0.074066,-0.695648,0.000000,6.194351,-22.204941,0.000000,0.058000,-0.130000,0.021000,FlatInitial,Hold,0
08:21:26.993 PM 02/17/2016,Teleop Enabled,0,FALSE,0,NO ERROR,8995.898438,-9000.000000,9000.000000,9000.000000,Speed,Speed,10.630000,1.170000,1.480000,4.000000,106.000000,1,1,0.090000,0.090000,1,-0.074066,-0.695648,0.000000,6.194351,-22.204941,0.000000,0.058000,-0.130000,0.021000,FlatInitial,Hold,0
08:21:27.093 PM 02/17/2016,Teleop Enabled,0,FALSE,0,NO ERROR,8998.828125,-9001.171875,9000.000000,9000.000000,Speed,Speed,8.840000,1.170000,1.560000,4.000000,102.000000,1,1,0.090000,0.090000,1,-0.074066,-0.695648,0.000000,6.194351,-22.204941,0.000000,0.058000,-0.130000,0.021000,FlatInitial,Hold,0
08:21:27.193 PM 02/17/2016,Teleop Enabled,0,FALSE,0,NO ERROR,9001.171875,-9000.585938,9000.000000,9000.000000,Speed,Speed,8.840000,1.170000,1.560000,4.000000,102.000000,1,1,0.090000,0.090000,1,0.016708,-0.793701,0.000000,6.187683,-22.344650,0.000000,0.058000,-0.130000,0.021000,FlatInitial,Hold,0
08:21:27.293 PM 02/17/2016,Teleop Enabled,0,FALSE,0,NO ERROR,9002.343750,-9000.000000,9000.000000,9000.000000,Speed,Speed,7.320000,1.170000,1.570000,4.000000,102.000000,1,1,0.090000,0.090000,1,0.016708,-0.793701,0.000000,6.187683,-22.344650,0.000000,0.076000,-0.058000,0.081000,FlatInitial,Hold,0
08:21:27.393 PM 02/17/2016,Teleop Enabled,0,FALSE,0,NO ERROR,9004.687500,-8998.242188,9000.000000,9000.000000,Speed,Speed,7.320000,1.170000,1.570000,4.000000,103.000000,1,1,-0.090000,-0.090000,1,0.053024,-0.846619,0.000000,6.190598,-22.409988,0.000000,0.076000,-0.058000,0.081000,FlatInitial,Hold,0
08:21:27.492 PM 02/17/2016,Teleop Enabled,0,FALSE,0,NO ERROR,9002.343750,-8998.242188,9000.000000,9000.000000,Speed,Speed,6.190000,1.150000,1.440000,4.000000,101.000000,1,1,-0.090000,-0.090000,1,0.053024,-0.846619,0.000000,6.190598,-22.409988,0.000000,-0.012000,0.027000,-0.059000,FlatInitial,Hold,0
08:21:27.592 PM 02/17/2016,Teleop Enabled,0,FALSE,0,NO ERROR,9001.171875,-8994.726562,9000.000000,9000.000000,Speed,Speed,6.190000,1.150000,1.440000,4.000000,104.000000,1,1,-0.090000,-0.090000,1,0.079468,-0.930862,0.000000,6.200714,-22.526123,0.000000,-0.012000,0.027000,-0.059000,FlatInitial,Hold,0
08:21:27.694 PM 02/17/2016,Teleop Enabled,0,FALSE,0,NO ERROR,8999.414062,-8992.382812,9000.000000,9000.000000,Speed,Speed,6.190000,1.150000,1.440000,4.000000,103.000000,1,1,-0.090000,-0.090000,1,0.079468,-0.930862,0.000000,6.200714,-22.526123,0.000000,0.012000,0.141000,-0.138000,FlatInitial,Hold,0
08:21:27.794 PM 02/17/2016,Teleop Enabled,0,FALSE,0,NO ERROR,8998.242188,-8991.796875,9000.000000,9000.000000,Speed,Speed,8.460000,0.910000,1.400000,4.000000,103.000000,1,1,-0.090000,-0.090000,1,0.141983,-1.017258,0.000000,6.211075,-22.613556,0.000000,0.068000,-0.193000,0.061000,FlatInitial,Hold,0
08:21:27.894 PM 02/17/2016,Teleop Enabled,0,FALSE,0,NO ERROR,8995.898438,-8995.898438,9000.000000,9000.000000,Speed,Speed,8.460000,0.910000,1.400000,4.000000,102.000000,1,1,-0.090000,-0.090000,1,0.173676,-1.067688,0.000000,6.218903,-22.665939,0.000000,0.068000,-0.193000,0.061000,FlatInitial,Hold,0
08:21:27.995 PM 02/17/2016,Teleop Enabled,0,FALSE,0,NO ERROR,8997.070312,-8998.242188,9000.000000,9000.000000,Speed,Speed,9.830000,0.930000,1.320000,4.000000,102.000000,1,1,-0.090000,-0.090000,1,0.209885,-1.096146,0.000000,6.228653,-22.719925,0.000000,0.141000,-0.166000,0.154000,FlatInitial,Hold,0
08:21:28.095 PM 02/17/2016,Teleop Enabled,0,FALSE,0,NO ERROR,8994.140625,-9000.585938,9000.000000,9000.000000,Speed,Speed,9.830000,0.930000,1.320000,4.000000,100.000000,1,1,0.090000,0.090000,1,0.263397,-1.150696,0.000000,6.245560,-22.798859,0.000000,0.141000,-0.166000,0.154000,FlatInitial,Hold,0
08:21:28.195 PM 02/17/2016,Teleop Enabled,0,FALSE,0,NO ERROR,8995.312500,-9000.585938,9000.000000,9000.000000,Speed,Speed,11.580000,0.980000,1.410000,4.000000,101.000000,1,1,0.090000,0.090000,1,0.263397,-1.150696,0.000000,6.245560,-22.798859,0.000000,0.141000,-0.166000,0.154000,FlatInitial,Hold,0
08:21:28.295 PM 02/17/2016,Teleop Enabled,0,FALSE,0,NO ERROR,8995.898438,-9005.859375,9000.000000,9000.000000,Speed,Speed,11.580000,0.980000,1.410000,4.000000,100.000000,1,1,0.090000,0.090000,1,0.263397,-1.150696,0.000000,6.245560,-22.798859,0.000000,-0.025000,0.074000,-0.095000,FlatInitial,Hold,0
08:21:28.396 PM 02/17/2016,Teleop Enabled,0,FALSE,0,NO ERROR,8994.726562,-9010.546875,9000.000000,9000.000000,Speed,Speed,10.720000,1.190000,1.440000,4.000000,101.000000,1,1,0.090000,0.090000,1,0.382645,-1.242355,0.000000,6.287094,-22.955017,0.000000,-0.025000,0.074000,-0.095000,FlatInitial,Hold,0
08:21:28.496 PM 02/17/2016,Teleop Enabled,0,FALSE,0,NO ERROR,8997.656250,-9007.031250,9000.000000,9000.000000,Speed,Speed,10.720000,1.190000,1.440000,4.000000,105.000000,1,1,0.090000,0.090000,1,0.382645,-1.242355,0.000000,6.287094,-22.955017,0.000000,0.026000,0.109000,-0.108000,FlatInitial,Hold,0
08:21:28.596 PM 02/17/2016,Teleop Enabled,0,FALSE,0,NO ERROR,9000.585938,-9002.343750,9000.000000,9000.000000,Speed,Speed,8.720000,1.150000,1.590000,4.000000,100.000000,1,1,0.090000,0.090000,1,0.433395,-1.273376,0.000000,6.316040,-23.042862,0.000000,0.026000,0.109000,-0.108000,FlatInitial,Hold,0
08:21:28.696 PM 02/17/2016,Teleop Enabled,0,FALSE,0,NO ERROR,9007.031250,-9000.000000,9000.000000,9000.000000,Speed,Speed,8.050000,1.120000,1.600000,4.000000,101.000000,1,1,0.090000,0.090000,1,0.433395,-1.273376,0.000000,6.316040,-23.042862,0.000000,-0.011000,-0.005000,-0.061000,FlatInitial,Hold,0
08:21:28.796 PM 02/17/2016,Teleop Enabled,0,FALSE,0,NO ERROR,9011.132812,-8994.726562,9000.000000,9000.000000,Speed,Speed,8.050000,1.120000,1.600000,4.000000,102.000000,1,1,0.090000,0.090000,1,0.500778,-0.054260,0.000000,6.377380,-23.109070,0.000000,0.113000,-0.123000,0.037000,FlatInitial,Hold,0
08:21:28.896 PM 02/17/2016,Teleop Enabled,0,FALSE,0,NO ERROR,9009.375000,-8995.312500,9000.000000,9000.000000,Speed,Speed,7.370000,1.120000,1.500000,4.000000,108.000000,1,1,0.090000,0.090000,1,0.541138,-0.082230,0.000000,6.403732,-23.112747,0.000000,0.113000,-0.123000,0.037000,FlatInitial,Hold,0
08:21:28.997 PM 02/17/2016,Teleop Enabled,0,FALSE,0,NO ERROR,9003.515625,-8995.898438,9000.000000,9000.000000,Speed,Speed,6.420000,1.100000,1.560000,4.000000,100.000000,1,1,-0.090000,-0.090000,1,0.541138,-0.082230,0.000000,6.403732,-23.112747,0.000000,0.083000,-0.037000,0.085000,FlatInitial,Hold,0
08:21:29.098 PM 02/17/2016,Teleop Enabled,0,FALSE,0,NO ERROR,9002.929688,-8996.484375,9000.000000,9000.000000,Speed,Speed,6.420000,1.100000,1.560000,4.000000,102.000000,1,1,-0.090000,-0.090000,1,0.582550,-0.130417,0.000000,6.449127,-23.121536,0.000000,-0.072000,-0.016000,0.001000,FlatInitial,Hold,0
08:21:29.198 PM 02/17/2016,Teleop Enabled,0,FALSE,0,NO ERROR,9004.687500,-8998.828125,9000.000000,9000.000000,Speed,Speed,7.080000,0.940000,1.370000,4.000000,100.000000,1,1,-0.090000,-0.090000,1,0.601959,-0.166000,0.000000,6.496643,-23.134094,0.000000,-0.034000,0.074000,-0.119000,FlatInitial,Hold,0
08:21:29.300 PM 02/17/2016,Teleop Enabled,0,FALSE,0,NO ERROR,9006.445312,-8998.828125,9000.000000,9000.000000,Speed,Speed,7.080000,0.940000,1.370000,4.000000,101.000000,1,1,-0.090000,-0.090000,1,0.601959,-0.166000,0.000000,6.496643,-23.134094,0.000000,-0.034000,0.074000,-0.119000,FlatInitial,Hold,0
08:21:29.400 PM 02/17/2016,Teleop Enabled,0,FALSE,0,NO ERROR,9007.031250,-9001.757812,9000.000000,9000.000000,Speed,Speed,8.710000,0.930000,1.380000,4.000000,102.000000,1,1,-0.090000,-0.090000,1,0.601959,-0.166000,0.000000,6.496643,-23.134094,0.000000,-0.034000,0.074000,-0.119000,FlatInitial,Hold,0
08:21:29.502 PM 02/17/2016,Teleop Enabled,0,FALSE,0,NO ERROR,9007.617188,-9005.273438,9000.000000,9000.000000,Speed,Speed,8.710000,0.930000,1.380000,4.000000,104.000000,1,1,-0.090000,-0.090000,1,0.682831,-0.234741,0.000000,6.587219,-23.163437,0.000000,0.048000,-0.019000,0.013000,FlatInitial,Hold,0
08:21:29.603 PM 02/17/2016,Teleop Enabled,0,FALSE,0,NO ERROR,9005.273438,-9008.203125,9000.000000,9000.000000,Speed,Speed,10.290000,0.960000,1.430000,4.000000,103.000000,1,1,-0.090000,-0.090000,1,0.707367,-0.002747,0.000000,6.635956,-23.163208,0.000000,0.063000,-0.065000,0.031000,FlatInitial,Hold,0
08:21:29.708 PM 02/17/2016,Teleop Enabled,0,FALSE,0,NO ERROR,9002.929688,-9007.617188,9000.000000,9000.000000,Speed,Speed,10.760000,0.960000,1.380000,4.000000,108.000000,1,1,-0.090000,-0.090000,1,0.720627,-0.003204,0.000000,6.664581,-23.163361,0.000000,0.023000,-0.058000,0.064000,FlatInitial,Hold,0
08:21:29.809 PM 02/17/2016,Teleop Enabled,0,FALSE,0,NO ERROR,8999.414062,-9010.546875,9000.000000,9000.000000,Speed,Speed,10.760000,0.960000,1.380000,4.000000,100.000000,1,1,0.090000,0.090000,1,0.720627,-0.003204,0.000000,6.664581,-23.163361,0.000000,0.023000,-0.058000,0.064000,FlatInitial,Hold,0
08:21:29.909 PM 02/17/2016,Teleop Enabled,0,FALSE,0,NO ERROR,8997.070312,-9010.546875,9000.000000,9000.000000,Speed,Speed,11.260000,1.080000,1.580000,4.000000,101.000000,1,1,0.090000,0.090000,1,0.030869,0.006470,0.000000,6.708679,-23.163483,0.000000,0.024000,-0.047000,0.109000,FlatInitial,Hold,0
08:21:30.010 PM 02/17/2016,Teleop Enabled,0,FALSE,0,NO ERROR,8993.554688,-9008.789062,9000.000000,9000.000000,Speed,Speed,11.260000,1.080000,1.580000,4.000000,105.000000,1,1,0.090000,0.090000,1,0.063583,0.001526,0.000000,6.710678,-23.163315,0.000000,0.024000,-0.047000,0.109000,FlatInitial,Hold,0
08:21:30.111 PM 02/17/2016,Teleop Enabled,0,FALSE,0,NO ERROR,8991.210938,-9006.445312,9000.000000,9000.000000,Speed,Speed,9.730000,1.170000,1.350000,4.000000,110.000000,1,1,0.090000,0.090000,1,0.063583,0.001526,0.000000,6.710678,-23.163315,0.000000,0.032000,-0.025000,0.049000,FlatInitial,Hold,0
08:21:30.211 PM 02/17/2016,Teleop Enabled,0,FALSE,0,NO ERROR,8992.968750,-8998.242188,9000.000000,9000.000000,Speed,Speed,9.730000,1.170000,1.350000,4.000000,105.000000,1,1,0.090000,0.090000,1,0.163574,0.029282,0.000000,6.723160,-23.161469,0.000000,0.015000,0.127000,-0.023000,FlatInitial,Hold,0
08:21:30.310 PM 02/17/2016,Teleop Enabled,0,FALSE,0,NO ERROR,8995.898438,-8989.453125,9000.000000,9000.000000,Speed,Speed,8.310000,1.110000,1.630000,4.000000,101.000000,1,1,0.090000,0.090000,1,0.220749,0.061630,0.000000,6.734985,-23.158234,0.000000,0.032000,0.034000,-0.046000,FlatInitial,Hold,0
08:21:30.412 PM 02/17/2016,Teleop Enabled,0,FALSE,0,NO ERROR,9000.585938,-8980.664062,9000.000000,9000.000000,Speed,Speed,8.310000,1.110000,1.630000,4.000000,102.000000,1,1,0.090000,0.090000,1,0.247925,0.061264,0.000000,6.746750,-23.155182,0.000000,0.024000,-0.031000,0.101000,FlatInitial,Hold,0
08:21:30.512 PM 02/17/2016,Teleop Enabled,0,FALSE,0,NO ERROR,9002.929688,-8983.593750,9000.000000,9000.000000,Speed,Speed,7.880000,1.130000,1.430000,4.000000,103.000000,1,1,0.090000,0.090000,1,0.267761,0.050125,0.000000,6.754532,-23.153564,0.000000,0.047000,0.029000,-0.031000,FlatInitial,Hold,0
08:21:30.614 PM 02/17/2016,Teleop Enabled,0,FALSE,0,NO ERROR,9005.273438,-8990.039062,9000.000000,9000.000000,Speed,Speed,7.240000,1.150000,1.430000,4.000000,101.000000,1,1,0.090000,0.090000,1,0.293091,0.036118,0.000000,6.771713,-23.150894,0.000000,0.055000,-0.048000,0.088000,FlatInitial,Hold,0
08:21:30.714 PM 02/17/2016,Teleop Enabled,0,FALSE,0,NO ERROR,9008.789062,-8994.726562,9000.000000,9000.000000,Speed,Speed,6.560000,1.160000,1.400000,4.000000,103.000000,1,1,-0.090000,-0.090000,1,0.322647,0.032516,0.000000,6.790466,-23.148956,0.000000,-0.011000,0.063000,-0.029000,FlatInitial,Hold,0
08:21:30.814 PM 02/17/2016,Teleop Enabled,0,FALSE,0,NO ERROR,9012.304688,-8999.414062,9000.000000,9000.000000,Speed,Speed,6.560000,1.160000,1.400000,4.000000,105.000000,1,1,-0.090000,-0.090000,1,0.001007,-0.000931,0.000000,6.797272,-23.147797,0.000000,-0.011000,0.063000,-0.029000,FlatInitial,Hold,0
08:21:30.915 PM 02/17/2016,Teleop Enabled,0,FALSE,0,NO ERROR,9008.203125,-9000.000000,9000.000000,9000.000000,Speed,Speed,5.860000,0.970000,1.260000,4.000000,104.000000,1,1,-0.090000,-0.090000,1,-0.016113,0.013367,0.000000,6.796936,-23.147385,0.000000,0.010000,0.118000,-0.060000,FlatInitial,Hold,0
08:21:31.016 PM 02/17/2016,Teleop Enabled,0,FALSE,0,NO ERROR,9008.203125,-8999.414062,9000.000000,9000.000000,Speed,Speed,5.860000,0.970000,1.260000,4.000000,102.000000,1,1,-0.090000,-0.090000,1,-0.016113,0.013367,0.000000,6.796936,-23.147385,0.000000,0.010000,0.118000,-0.060000,FlatInitial,Hold,0
08:21:31.117 PM 02/17/2016,Teleop Enabled,0,FALSE,0,NO ERROR,9001.171875,-9000.000000,9000.000000,9000.000000,Speed,Speed,7.390000,0.880000,1.480000,4.000000,105.000000,1,1,-0.090000,-0.090000,1,0.000000,0.025345,0.000000,6.797714,-23.144333,0.000000,0.010000,0.118000,-0.060000,FlatInitial,Hold,0
08:21:31.217 PM 02/17/2016,Teleop Enabled,0,FALSE,0,NO ERROR,8997.656250,-9001.757812,9000.000000,9000.000000,Speed,Speed,7.390000,0.880000,1.480000,4.000000,100.000000,1,1,-0.090000,-0.090000,1,0.000000,0.025345,0.000000,6.797714,-23.144333,0.000000,0.010000,0.158000,0.031000,FlatInitial,Hold,0
