Time,RobotMode,AutoToRun,ErrorStatus, ErrorCode,ErrorSource,ActualRPM1,ActualRPM2,DesiredRPM1,DesiredRPM2,ControlMode1,ControlMode2,NavXYaw,NavXRoll,NavXPitch,ShooterState,LoopTime,IsLevel,IsAutoTargeting,LeftMotorOutput,RightMotorOutput,IsHaloDrive,NavXVelocityX,NavXVelocityY,NavXVelocityZ,NavXDisplacementX,NavXDisplacementY,NavXDisplacementZ,NavXAccelerationX,NavXAccelerationY,NavXAccelerationZ,AutoDefendState
09:30:19.227 PM 02/15/2016,Teleop Enabled,0,TRUE,91,Variant To Data in WPI_DigitalInputRefNum Registry Get.vi->Periodic Tasks.vi->Robot Main.vi,7.031250,-2.783203,4000.000000,4000.000000,Speed,Speed,-0.520000,0.840000,1.650000,3.000000,101.000000,1,0,-0.000000,0.000000,1,-0.003815,0.002472,0.000000,-0.001892,0.022064,0.000000,0.000000,-0.004000,0.003000,FlatInitial
09:30:19.328 PM 02/15/2016,Teleop Enabled,0,TRUE,-44007,<LOCATION>WPI_DigitalInputRefNum Registry Get.vi<CALLSTACK>WPI_DigitalInputRefNum Registry Get.vi< <Periodic Tasks.vi< <Robot Main.vi,566.894531,-674.414062,4000.000000,4000.000000,Speed,Speed,-0.620000,0.810000,1.830000,3.000000,101.000000,1,0,-0.000000,0.000000,1,-0.026642,0.022034,0.000000,-0.002533,0.022751,0.000000,-0.017000,-0.003000,0.095000,FlatInitial
09:30:19.430 PM 02/15/2016,Teleop Enabled,0,TRUE,-44003,<LOCATION>WPI_CameraIssue HTTP Request with Authentication.vi<CALLSTACK>WPI_CameraIssue HTTP Request with Authentication.vi< <WPI_CameraIssue Get.vi< <WPI_CameraSet Image Appearance Property.vi< <WPI_CameraSet Image Size.vi< <Vision Processing.vi< <Robot Main.vi,2278.710938,-1867.822266,4000.000000,4000.000000,Speed,Speed,-0.660000,0.830000,1.600000,3.000000,101.000000,1,0,-0.000000,0.000000,1,0.000000,-0.008621,0.000000,-0.003403,0.023148,0.000000,-0.017000,-0.003000,0.095000,FlatInitial
09:30:19.530 PM 02/15/2016,Teleop Enabled,0,TRUE,-1074360311,IMAQdx Open Camera.vi,3448.974609,-3041.015625,4000.000000,4000.000000,Speed,Speed,-0.630000,0.850000,1.420000,3.000000,102.000000,1,0,-0.000000,0.000000,1,0.018845,-0.040405,0.000000,-0.003128,0.021820,0.000000,0.050000,0.008000,0.038000,FlatInitial
09:30:19.631 PM 02/15/2016,Teleop Enabled,0,FALSE,0,NO ERROR,3890.332031,-3622.265625,4000.000000,4000.000000,Speed,Speed,-0.620000,0.880000,1.520000,3.000000,102.000000,1,0,-0.000000,0.000000,1,0.018845,-0.040405,0.000000,-0.003128,0.021820,0.000000,0.050000,0.008000,0.038000,FlatInitial
09:30:19.732 PM 02/15/2016,Teleop Enabled,0,FALSE,0,NO ERROR,3975.146484,-3753.369141,4000.000000,4000.000000,Speed,Speed,-0.580000,0.890000,1.490000,3.000000,102.000000,1,0,-0.000000,0.000000,1,0.053970,-0.039734,0.000000,-0.001022,0.019470,0.000000,-0.052000,-0.027000,0.059000,FlatInitial
09:30:19.832 PM 02/15/2016,Teleop Enabled,0,FALSE,0,NO ERROR,3976.611328,-3768.164062,4000.000000,4000.000000,Speed,Speed,-0.610000,0.850000,1.540000,3.000000,102.000000,1,0,-0.000000,0.000000,1,0.063065,-0.035828,0.000000,0.001678,0.017471,0.000000,0.029000,0.001000,0.003000,FlatInitial
09:30:19.932 PM 02/15/2016,Teleop Disabled,0,FALSE,0,NO ERROR,3941.162109,-3706.347656,4000.000000,4000.000000,Speed,Speed,-0.630000,0.830000,1.480000,3.000000,101.000000,1,0,-0.000000,0.000000,1,0.056442,-0.036545,0.000000,0.004898,0.015869,0.000000,-0.051000,-0.003000,0.045000,FlatInitial
09:30:20.032 PM 02/15/2016,Teleop Disabled,0,FALSE,0,NO ERROR,3595.019531,-3354.638672,4000.000000,4000.000000,Speed,Speed,-0.630000,0.880000,1.300000,3.000000,101.000000,1,0,-0.000000,0.000000,1,0.000000,-0.009888,0.000000,0.007034,0.014908,0.000000,-0.013000,0.038000,0.026000,FlatInitial
09:30:20.133 PM 02/15/2016,Teleop Disabled,0,FALSE,0,NO ERROR,3316.845703,-2825.244141,4000.000000,4000.000000,Speed,Speed,-0.720000,0.890000,1.440000,3.000000,100.000000,1,0,-0.000000,0.000000,1,-0.008209,0.000000,0.000000,0.006561,0.014587,0.000000,-0.029000,0.006000,0.042000,FlatInitial
09:30:20.232 PM 02/15/2016,Teleop Disabled,0,FALSE,0,NO ERROR,2981.982422,-2312.402344,4000.000000,4000.000000,Speed,Speed,-0.740000,0.860000,1.500000,3.000000,101.000000,1,0,-0.000000,0.000000,1,0.003326,0.000854,0.000000,0.006485,0.014725,0.000000,-0.020000,-0.016000,0.106000,FlatInitial
09:30:20.333 PM 02/15/2016,Teleop Disabled,0,FALSE,0,NO ERROR,2662.939453,-1816.259766,4000.000000,4000.000000,Speed,Speed,-0.660000,0.860000,1.450000,3.000000,102.000000,1,0,-0.000000,0.000000,1,-0.001923,-0.020447,0.000000,0.006454,0.014053,0.000000,0.028000,0.005000,0.003000,FlatInitial
09:30:20.432 PM 02/15/2016,Teleop Disabled,0,FALSE,0,NO ERROR,2414.648438,-1345.605469,4000.000000,4000.000000,Speed,Speed,-0.660000,0.860000,1.450000,3.000000,102.000000,1,0,-0.000000,0.000000,1,-0.003464,-0.020737,0.000000,0.006531,0.013046,0.000000,-0.026000,0.006000,0.023000,FlatInitial
09:30:20.532 PM 02/15/2016,Teleop Disabled,0,FALSE,0,NO ERROR,2120.947266,-990.527344,4000.000000,4000.000000,Speed,Speed,-0.610000,0.870000,1.500000,3.000000,101.000000,1,0,-0.000000,0.000000,1,0.007629,0.000000,0.000000,0.006500,0.013275,0.000000,-0.031000,0.010000,0.039000,FlatInitial
09:30:20.633 PM 02/15/2016,Teleop Disabled,0,FALSE,0,NO ERROR,1838.671875,-573.925781,4000.000000,4000.000000,Speed,Speed,-0.590000,0.850000,1.530000,3.000000,102.000000,1,0,-0.000000,0.000000,1,0.000000,0.000000,0.000000,0.006592,0.013275,0.000000,-0.009000,-0.027000,0.024000,FlatInitial
09:30:20.733 PM 02/15/2016,Teleop Disabled,0,FALSE,0,NO ERROR,1572.802734,-217.236328,4000.000000,4000.000000,Speed,Speed,-0.580000,0.890000,1.520000,3.000000,101.000000,1,0,-0.000000,0.000000,1,0.000000,-0.006088,0.000000,0.006592,0.013077,0.000000,0.003000,-0.009000,-0.001000,FlatInitial
09:30:20.834 PM 02/15/2016,Teleop Disabled,0,FALSE,0,NO ERROR,1320.703125,-9.814453,4000.000000,4000.000000,Speed,Speed,-0.620000,0.910000,1.480000,3.000000,102.000000,1,0,-0.000000,0.000000,1,0.000000,0.002625,0.000000,0.006592,0.013046,0.000000,-0.004000,0.006000,0.035000,FlatInitial
09:30:20.934 PM 02/15/2016,Teleop Disabled,0,FALSE,0,NO ERROR,1074.169922,0.000000,4000.000000,4000.000000,Speed,Speed,-0.630000,0.900000,1.490000,3.000000,101.000000,1,0,-0.000000,0.000000,1,0.000000,0.000000,0.000000,0.006592,0.013168,0.000000,-0.017000,-0.006000,0.027000,FlatInitial
09:30:21.035 PM 02/15/2016,Teleop Disabled,0,FALSE,0,NO ERROR,901.904297,0.000000,4000.000000,4000.000000,Speed,Speed,-0.620000,0.890000,1.500000,3.000000,101.000000,1,0,-0.000000,0.000000,1,0.000000,0.000000,0.000000,0.006592,0.013168,0.000000,-0.003000,0.005000,0.032000,FlatInitial
09:30:21.136 PM 02/15/2016,Teleop Disabled,0,FALSE,0,NO ERROR,694.482422,0.000000,4000.000000,4000.000000,Speed,Speed,-0.590000,0.890000,1.500000,3.000000,101.000000,1,0,-0.000000,0.000000,1,0.000000,0.000000,0.000000,0.006592,0.013168,0.000000,-0.006000,-0.011000,0.020000,FlatInitial
09:30:21.237 PM 02/15/2016,Teleop Disabled,0,FALSE,0,NO ERROR,492.333984,0.000000,4000.000000,4000.000000,Speed,Speed,-0.590000,0.890000,1.500000,3.000000,102.000000,1,0,-0.000000,0.000000,1,0.000000,0.000000,0.000000,0.006592,0.013168,0.000000,0.000000,0.002000,-0.023000,FlatInitial
09:30:21.338 PM 02/15/2016,Teleop Disabled,0,FALSE,0,NO ERROR,322.558594,0.000000,4000.000000,4000.000000,Speed,Speed,-0.610000,0.890000,1.510000,3.000000,101.000000,1,0,-0.000000,0.000000,1,0.000000,0.000000,0.000000,0.006592,0.013168,0.000000,-0.002000,-0.003000,-0.022000,FlatInitial
09:30:21.439 PM 02/15/2016,Teleop Disabled,0,FALSE,0,NO ERROR,203.759766,0.000000,4000.000000,4000.000000,Speed,Speed,-0.610000,0.890000,1.470000,3.000000,102.000000,1,0,-0.000000,0.000000,1,0.000000,0.000000,0.000000,0.006592,0.013168,0.000000,0.000000,-0.007000,-0.021000,FlatInitial
09:30:21.540 PM 02/15/2016,Teleop Disabled,0,FALSE,0,NO ERROR,40.869141,0.000000,4000.000000,4000.000000,Speed,Speed,-0.610000,0.880000,1.460000,3.000000,101.000000,1,0,-0.000000,0.000000,1,0.000000,0.000000,0.000000,0.006592,0.013168,0.000000,0.000000,0.000000,-0.014000,FlatInitial
09:30:21.643 PM 02/15/2016,Teleop Disabled,0,FALSE,0,NO ERROR,-30.761719,0.000000,4000.000000,4000.000000,Speed,Speed,-0.620000,0.890000,1.470000,3.000000,102.000000,1,0,-0.000000,0.000000,1,0.000000,0.000000,0.000000,0.006592,0.013168,0.000000,-0.002000,0.000000,0.004000,FlatInitial
09:30:21.743 PM 02/15/2016,Teleop Disabled,0,FALSE,0,NO ERROR,-40.576172,0.000000,4000.000000,4000.000000,Speed,Speed,-0.610000,0.880000,1.480000,3.000000,101.000000,1,0,-0.000000,0.000000,1,0.000000,0.000000,0.000000,0.006592,0.013168,0.000000,0.000000,-0.002000,-0.004000,FlatInitial
09:30:21.843 PM 02/15/2016,Teleop Disabled,0,FALSE,0,NO ERROR,-11.718750,0.000000,4000.000000,4000.000000,Speed,Speed,-0.610000,0.880000,1.490000,3.000000,102.000000,1,0,-0.000000,0.000000,1,0.000000,0.000000,0.000000,0.006592,0.013168,0.000000,0.000000,-0.002000,0.009000,FlatInitial
09:30:21.944 PM 02/15/2016,Teleop Disabled,0,FALSE,0,NO ERROR,0.000000,0.000000,4000.000000,4000.000000,Speed,Speed,-0.610000,0.870000,1.490000,3.000000,101.000000,1,0,-0.000000,0.000000,1,0.000000,0.000000,0.000000,0.006592,0.013168,0.000000,-0.001000,0.001000,0.010000,FlatInitial
09:30:22.046 PM 02/15/2016,Teleop Disabled,0,FALSE,0,NO ERROR,0.000000,0.000000,4000.000000,4000.000000,Speed,Speed,-0.610000,0.870000,1.480000,3.000000,101.000000,1,0,-0.000000,0.000000,1,0.000000,0.000000,0.000000,0.006592,0.013168,0.000000,-0.002000,-0.001000,0.000000,FlatInitial
09:30:22.147 PM 02/15/2016,Teleop Disabled,0,FALSE,0,NO ERROR,0.000000,0.000000,4000.000000,4000.000000,Speed,Speed,-0.610000,0.870000,1.470000,3.000000,102.000000,1,0,-0.000000,0.000000,1,0.000000,0.000000,0.000000,0.006592,0.013168,0.000000,0.000000,0.000000,0.006000,FlatInitial
09:30:22.247 PM 02/15/2016,Teleop Disabled,0,FALSE,0,NO ERROR,0.000000,0.000000,4000.000000,4000.000000,Speed,Speed,-0.630000,0.870000,1.460000,3.000000,101.000000,1,0,-0.000000,0.000000,1,0.000000,0.000000,0.000000,0.006592,0.013168,0.000000,0.000000,0.000000,-0.003000,FlatInitial
09:30:22.347 PM 02/15/2016,Teleop Disabled,0,FALSE,0,NO ERROR,0.000000,0.000000,4000.000000,4000.000000,Speed,Speed,-0.630000,0.870000,1.460000,3.000000,102.000000,1,0,-0.000000,0.000000,1,0.000000,0.000000,0.000000,0.006592,0.013168,0.000000,-0.001000,-0.001000,0.008000,FlatInitial
09:30:22.449 PM 02/15/2016,Teleop Disabled,0,FALSE,0,NO ERROR,0.000000,0.000000,4000.000000,4000.000000,Speed,Speed,-0.630000,0.860000,1.450000,3.000000,103.000000,1,0,-0.000000,0.000000,1,0.000000,0.000000,0.000000,0.006592,0.013168,0.000000,0.000000,-0.002000,0.003000,FlatInitial
09:30:22.549 PM 02/15/2016,Teleop Disabled,0,FALSE,0,NO ERROR,0.000000,0.000000,4000.000000,4000.000000,Speed,Speed,-0.640000,0.860000,1.490000,3.000000,103.000000,1,0,-0.000000,0.000000,1,0.000000,0.000000,0.000000,0.006592,0.013168,0.000000,-0.007000,0.000000,0.013000,FlatInitial
09:30:22.650 PM 02/15/2016,Teleop Disabled,0,FALSE,0,NO ERROR,0.000000,0.000000,4000.000000,4000.000000,Speed,Speed,-0.630000,0.860000,1.460000,3.000000,107.000000,1,0,-0.000000,0.000000,1,0.000000,0.000000,0.000000,0.006592,0.013168,0.000000,0.001000,0.000000,0.007000,FlatInitial
09:30:22.750 PM 02/15/2016,Teleop Disabled,0,FALSE,0,NO ERROR,0.000000,0.000000,4000.000000,4000.000000,Speed,Speed,-0.630000,0.870000,1.470000,3.000000,102.000000,1,0,-0.000000,0.000000,1,0.000000,0.000000,0.000000,0.006592,0.013168,0.000000,0.001000,0.000000,0.001000,FlatInitial
09:30:22.850 PM 02/15/2016,Teleop Disabled,0,FALSE,0,NO ERROR,0.000000,0.000000,4000.000000,4000.000000,Speed,Speed,-0.640000,0.860000,1.480000,3.000000,101.000000,1,0,-0.000000,0.000000,1,0.000000,0.000000,0.000000,0.006592,0.013168,0.000000,-0.001000,-0.002000,0.004000,FlatInitial
09:30:22.950 PM 02/15/2016,Teleop Disabled,0,FALSE,0,NO ERROR,0.000000,0.000000,4000.000000,4000.000000,Speed,Speed,-0.640000,0.870000,1.460000,3.000000,101.000000,1,0,-0.000000,0.000000,1,0.000000,0.000000,0.000000,0.006592,0.013168,0.000000,0.001000,0.000000,0.001000,FlatInitial
09:30:23.051 PM 02/15/2016,Teleop Disabled,0,FALSE,0,NO ERROR,0.000000,0.000000,4000.000000,4000.000000,Speed,Speed,-0.640000,0.860000,1.440000,3.000000,101.000000,1,0,-0.000000,0.000000,1,0.000000,0.000000,0.000000,0.006592,0.013168,0.000000,0.001000,0.000000,0.003000,FlatInitial
09:30:23.150 PM 02/15/2016,Teleop Disabled,0,FALSE,0,NO ERROR,0.000000,0.000000,4000.000000,4000.000000,Speed,Speed,-0.650000,0.880000,1.430000,3.000000,102.000000,1,0,-0.000000,0.000000,1,0.000000,0.000000,0.000000,0.006592,0.013168,0.000000,0.000000,0.001000,0.004000,FlatInitial
09:30:23.250 PM 02/15/2016,Teleop Disabled,0,FALSE,0,NO ERROR,0.000000,0.000000,4000.000000,4000.000000,Speed,Speed,-0.660000,0.870000,1.440000,3.000000,101.000000,1,0,-0.000000,0.000000,1,0.000000,0.000000,0.000000,0.006592,0.013168,0.000000,0.000000,0.000000,0.005000,FlatInitial
09:30:23.350 PM 02/15/2016,Teleop Disabled,0,FALSE,0,NO ERROR,0.000000,0.000000,4000.000000,4000.000000,Speed,Speed,-0.650000,0.860000,1.430000,3.000000,103.000000,1,0,-0.000000,0.000000,1,0.000000,0.000000,0.000000,0.006592,0.013168,0.000000,-0.002000,0.000000,0.003000,FlatInitial
09:30:23.450 PM 02/15/2016,Teleop Disabled,0,FALSE,0,NO ERROR,0.000000,0.000000,4000.000000,4000.000000,Speed,Speed,-0.650000,0.870000,1.440000,3.000000,102.000000,1,0,-0.000000,0.000000,1,0.000000,0.000000,0.000000,0.006592,0.013168,0.000000,0.001000,0.003000,0.016000,FlatInitial
09:30:23.551 PM 02/15/2016,Teleop Disabled,0,FALSE,0,NO ERROR,0.000000,0.000000,4000.000000,4000.000000,Speed,Speed,-0.660000,0.860000,1.450000,3.000000,103.000000,1,0,-0.000000,0.000000,1,0.000000,0.000000,0.000000,0.006592,0.013168,0.000000,0.004000,-0.001000,0.008000,FlatInitial
09:30:23.650 PM 02/15/2016,Teleop Disabled,0,FALSE,0,NO ERROR,0.000000,0.000000,4000.000000,4000.000000,Speed,Speed,-0.660000,0.860000,1.430000,3.000000,101.000000,1,0,-0.000000,0.000000,1,0.000000,0.000000,0.000000,0.006592,0.013168,0.000000,0.000000,0.001000,0.000000,FlatInitial
09:30:23.750 PM 02/15/2016,Teleop Disabled,0,FALSE,0,NO ERROR,0.000000,0.000000,4000.000000,4000.000000,Speed,Speed,-0.660000,0.870000,1.420000,3.000000,102.000000,1,0,-0.000000,0.000000,1,0.000000,0.000000,0.000000,0.006592,0.013168,0.000000,0.000000,0.000000,0.000000,FlatInitial
09:30:23.850 PM 02/15/2016,Teleop Disabled,0,FALSE,0,NO ERROR,0.000000,0.000000,4000.000000,4000.000000,Speed,Speed,-0.680000,0.860000,1.420000,3.000000,101.000000,1,0,-0.000000,0.000000,1,0.000000,0.000000,0.000000,0.006592,0.013168,0.000000,-0.001000,-0.003000,0.003000,FlatInitial
09:30:23.950 PM 02/15/2016,Teleop Disabled,0,FALSE,0,NO ERROR,0.000000,0.000000,4000.000000,4000.000000,Speed,Speed,-0.680000,0.860000,1.420000,3.000000,101.000000,1,0,-0.000000,0.000000,1,0.000000,0.000000,0.000000,0.006592,0.013168,0.000000,-0.001000,-0.002000,0.006000,FlatInitial
09:30:24.050 PM 02/15/2016,Teleop Disabled,0,FALSE,0,NO ERROR,0.000000,0.000000,4000.000000,4000.000000,Speed,Speed,-0.670000,0.860000,1.420000,3.000000,101.000000,1,0,-0.000000,0.000000,1,0.000000,0.000000,0.000000,0.006592,0.013168,0.000000,0.002000,0.000000,0.005000,FlatInitial
09:30:24.150 PM 02/15/2016,Teleop Disabled,0,FALSE,0,NO ERROR,0.000000,0.000000,4000.000000,4000.000000,Speed,Speed,-0.670000,0.860000,1.410000,3.000000,102.000000,1,0,-0.000000,0.000000,1,0.000000,0.000000,0.000000,0.006592,0.013168,0.000000,-0.001000,0.000000,0.002000,FlatInitial
09:30:24.250 PM 02/15/2016,Teleop Disabled,0,FALSE,0,NO ERROR,0.000000,0.000000,4000.000000,4000.000000,Speed,Speed,-0.680000,0.860000,1.420000,3.000000,101.000000,1,0,-0.000000,0.000000,1,0.000000,0.000000,0.000000,0.006592,0.013168,0.000000,-0.001000,0.000000,0.003000,FlatInitial
09:30:24.350 PM 02/15/2016,Teleop Disabled,0,FALSE,0,NO ERROR,0.000000,0.000000,4000.000000,4000.000000,Speed,Speed,-0.680000,0.850000,1.400000,3.000000,102.000000,1,0,-0.000000,0.000000,1,0.000000,0.000000,0.000000,0.006592,0.013168,0.000000,0.000000,-0.001000,0.005000,FlatInitial
09:30:24.450 PM 02/15/2016,Teleop Disabled,0,FALSE,0,NO ERROR,0.000000,0.000000,4000.000000,4000.000000,Speed,Speed,-0.700000,0.860000,1.410000,3.000000,102.000000,1,0,-0.000000,0.000000,1,0.000000,0.000000,0.000000,0.006592,0.013168,0.000000,0.002000,0.000000,0.010000,FlatInitial
09:30:24.550 PM 02/15/2016,Teleop Disabled,0,FALSE,0,NO ERROR,0.000000,0.000000,4000.000000,4000.000000,Speed,Speed,-0.690000,0.860000,1.410000,3.000000,102.000000,1,0,-0.000000,0.000000,1,0.000000,0.000000,0.000000,0.006592,0.013168,0.000000,-0.001000,0.002000,0.003000,FlatInitial
09:30:24.650 PM 02/15/2016,Teleop Disabled,0,FALSE,0,NO ERROR,0.000000,0.000000,4000.000000,4000.000000,Speed,Speed,-0.680000,0.850000,1.410000,3.000000,100.000000,1,0,-0.000000,0.000000,1,0.000000,0.000000,0.000000,0.006592,0.013168,0.000000,-0.001000,0.000000,0.003000,FlatInitial
09:30:24.750 PM 02/15/2016,Teleop Disabled,0,FALSE,0,NO ERROR,0.000000,0.000000,4000.000000,4000.000000,Speed,Speed,-0.680000,0.860000,1.420000,3.000000,102.000000,1,0,-0.000000,0.000000,1,0.000000,0.000000,0.000000,0.006592,0.013168,0.000000,0.000000,-0.001000,0.003000,FlatInitial
09:30:24.851 PM 02/15/2016,Teleop Disabled,0,FALSE,0,NO ERROR,0.000000,0.000000,4000.000000,4000.000000,Speed,Speed,-0.690000,0.860000,1.400000,3.000000,101.000000,1,0,-0.000000,0.000000,1,0.000000,0.000000,0.000000,0.006592,0.013168,0.000000,0.000000,0.000000,0.004000,FlatInitial
09:30:24.950 PM 02/15/2016,Teleop Disabled,0,FALSE,0,NO ERROR,0.000000,0.000000,4000.000000,4000.000000,Speed,Speed,-0.710000,0.870000,1.380000,3.000000,101.000000,1,0,-0.000000,0.000000,1,0.000000,0.000000,0.000000,0.006592,0.013168,0.000000,0.000000,0.000000,0.001000,FlatInitial
09:30:25.050 PM 02/15/2016,Teleop Disabled,0,FALSE,0,NO ERROR,0.000000,0.000000,4000.000000,4000.000000,Speed,Speed,-0.730000,0.860000,1.410000,3.000000,101.000000,1,0,-0.000000,0.000000,1,0.000000,0.000000,0.000000,0.006592,0.013168,0.000000,0.000000,0.001000,0.010000,FlatInitial
09:30:25.150 PM 02/15/2016,Teleop Disabled,0,FALSE,0,NO ERROR,0.000000,0.000000,4000.000000,4000.000000,Speed,Speed,-0.720000,0.860000,1.400000,3.000000,101.000000,1,0,-0.000000,0.000000,1,0.000000,0.000000,0.000000,0.006592,0.013168,0.000000,0.000000,0.002000,0.008000,FlatInitial
09:30:25.250 PM 02/15/2016,Teleop Disabled,0,FALSE,0,NO ERROR,0.000000,0.000000,4000.000000,4000.000000,Speed,Speed,-0.710000,0.860000,1.380000,3.000000,101.000000,1,0,-0.000000,0.000000,1,0.000000,0.000000,0.000000,0.006592,0.013168,0.000000,0.000000,0.000000,-0.002000,FlatInitial
09:30:25.354 PM 02/15/2016,Teleop Disabled,0,FALSE,0,NO ERROR,0.000000,0.000000,4000.000000,4000.000000,Speed,Speed,-0.720000,0.860000,1.390000,3.000000,101.000000,1,0,-0.000000,0.000000,1,0.000000,0.000000,0.000000,0.006592,0.013168,0.000000,0.002000,0.000000,0.001000,FlatInitial
09:30:25.454 PM 02/15/2016,Teleop Disabled,0,FALSE,0,NO ERROR,0.000000,0.000000,4000.000000,4000.000000,Speed,Speed,-0.730000,0.860000,1.380000,3.000000,101.000000,1,0,-0.000000,0.000000,1,0.000000,0.000000,0.000000,0.006592,0.013168,0.000000,-0.001000,-0.004000,0.003000,FlatInitial
09:30:25.554 PM 02/15/2016,Teleop Disabled,0,FALSE,0,NO ERROR,0.000000,0.000000,4000.000000,4000.000000,Speed,Speed,-0.730000,0.860000,1.380000,3.000000,101.000000,1,0,-0.000000,0.000000,1,0.000000,0.000000,0.000000,0.006592,0.013168,0.000000,-0.003000,-0.001000,0.007000,FlatInitial
09:30:25.654 PM 02/15/2016,Teleop Disabled,0,FALSE,0,NO ERROR,0.000000,0.000000,4000.000000,4000.000000,Speed,Speed,-0.730000,0.870000,1.400000,3.000000,102.000000,1,0,-0.000000,0.000000,1,0.000000,0.000000,0.000000,0.006592,0.013168,0.000000,0.012000,0.005000,0.018000,FlatInitial
09:30:25.754 PM 02/15/2016,Teleop Disabled,0,FALSE,0,NO ERROR,0.000000,0.000000,4000.000000,4000.000000,Speed,Speed,-0.720000,0.870000,1.620000,3.000000,102.000000,1,0,-0.000000,0.000000,1,0.000000,0.000000,0.000000,0.006592,0.013168,0.000000,-0.017000,-0.003000,-0.009000,FlatInitial
09:30:25.854 PM 02/15/2016,Teleop Disabled,0,FALSE,0,NO ERROR,0.000000,0.000000,4000.000000,4000.000000,Speed,Speed,-0.710000,0.870000,1.650000,3.000000,100.000000,1,0,-0.000000,0.000000,1,0.000000,0.000000,0.000000,0.006592,0.013168,0.000000,0.009000,0.004000,-0.014000,FlatInitial
09:30:25.954 PM 02/15/2016,Teleop Disabled,0,FALSE,0,NO ERROR,0.000000,0.000000,4000.000000,4000.000000,Speed,Speed,-0.710000,0.860000,1.710000,3.000000,103.000000,1,0,-0.000000,0.000000,1,0.000000,0.000000,0.000000,0.006592,0.013168,0.000000,0.000000,0.001000,0.012000,FlatInitial
09:30:26.054 PM 02/15/2016,Teleop Disabled,0,FALSE,0,NO ERROR,0.000000,0.000000,4000.000000,4000.000000,Speed,Speed,-0.710000,0.870000,1.680000,3.000000,104.000000,1,0,-0.000000,0.000000,1,0.000000,0.000000,0.000000,0.006592,0.013168,0.000000,-0.004000,-0.001000,-0.002000,FlatInitial
09:30:26.154 PM 02/15/2016,Teleop Disabled,0,FALSE,0,NO ERROR,0.000000,0.000000,4000.000000,4000.000000,Speed,Speed,-0.710000,0.860000,1.690000,3.000000,101.000000,1,0,-0.000000,0.000000,1,0.000000,0.000000,0.000000,0.006592,0.013168,0.000000,0.002000,-0.001000,0.005000,FlatInitial
09:30:26.254 PM 02/15/2016,Teleop Disabled,0,FALSE,0,NO ERROR,0.000000,0.000000,4000.000000,4000.000000,Speed,Speed,-0.710000,0.860000,1.680000,3.000000,102.000000,1,0,-0.000000,0.000000,1,0.000000,0.000000,0.000000,0.006592,0.013168,0.000000,-0.006000,0.000000,0.003000,FlatInitial
09:30:26.354 PM 02/15/2016,Teleop Disabled,0,FALSE,0,NO ERROR,0.000000,0.000000,4000.000000,4000.000000,Speed,Speed,-0.710000,0.860000,1.690000,3.000000,103.000000,1,0,-0.000000,0.000000,1,0.000000,0.000000,0.000000,0.006592,0.013168,0.000000,0.002000,-0.001000,0.009000,FlatInitial
09:30:26.454 PM 02/15/2016,Teleop Disabled,0,FALSE,0,NO ERROR,0.000000,0.000000,4000.000000,4000.000000,Speed,Speed,-0.720000,0.860000,1.680000,3.000000,101.000000,1,0,-0.000000,0.000000,1,0.000000,0.000000,0.000000,0.006592,0.013168,0.000000,0.000000,-0.001000,0.002000,FlatInitial
09:30:26.554 PM 02/15/2016,Teleop Disabled,0,FALSE,0,NO ERROR,0.000000,0.000000,4000.000000,4000.000000,Speed,Speed,-0.720000,0.860000,1.690000,3.000000,102.000000,1,0,-0.000000,0.000000,1,0.000000,0.000000,0.000000,0.006592,0.013168,0.000000,-0.003000,-0.003000,0.005000,FlatInitial
09:30:26.654 PM 02/15/2016,Teleop Disabled,0,FALSE,0,NO ERROR,0.000000,0.000000,4000.000000,4000.000000,Speed,Speed,-0.720000,0.860000,1.680000,3.000000,102.000000,1,0,-0.000000,0.000000,1,0.000000,0.000000,0.000000,0.006592,0.013168,0.000000,0.001000,0.003000,0.002000,FlatInitial
09:30:26.754 PM 02/15/2016,Teleop Disabled,0,FALSE,0,NO ERROR,0.000000,0.000000,4000.000000,4000.000000,Speed,Speed,-0.730000,0.860000,1.690000,3.000000,102.000000,1,0,-0.000000,0.000000,1,0.000000,0.000000,0.000000,0.006592,0.013168,0.000000,0.000000,0.000000,0.006000,FlatInitial
09:30:26.854 PM 02/15/2016,Teleop Disabled,0,FALSE,0,NO ERROR,0.000000,0.000000,4000.000000,4000.000000,Speed,Speed,-0.730000,0.860000,1.680000,3.000000,102.000000,1,0,-0.000000,0.000000,1,0.000000,0.000000,0.000000,0.006592,0.013168,0.000000,-0.001000,0.000000,0.004000,FlatInitial
09:30:26.954 PM 02/15/2016,Teleop Disabled,0,FALSE,0,NO ERROR,0.000000,0.000000,4000.000000,4000.000000,Speed,Speed,-0.730000,0.860000,1.690000,3.000000,103.000000,1,0,-0.000000,0.000000,1,0.000000,0.000000,0.000000,0.006592,0.013168,0.000000,0.001000,0.001000,0.008000,FlatInitial
09:30:27.054 PM 02/15/2016,Teleop Disabled,0,FALSE,0,NO ERROR,0.000000,0.000000,4000.000000,4000.000000,Speed,Speed,-0.730000,0.860000,1.680000,3.000000,101.000000,1,0,-0.000000,0.000000,1,0.000000,0.000000,0.000000,0.006592,0.013168,0.000000,-0.001000,0.000000,0.005000,FlatInitial
09:30:27.154 PM 02/15/2016,Teleop Disabled,0,FALSE,0,NO ERROR,0.000000,0.000000,4000.000000,4000.000000,Speed,Speed,-0.730000,0.860000,1.680000,3.000000,103.000000,1,0,-0.000000,0.000000,1,0.000000,0.000000,0.000000,0.006592,0.013168,0.000000,0.000000,-0.001000,0.003000,FlatInitial
09:30:27.254 PM 02/15/2016,Teleop Disabled,0,FALSE,0,NO ERROR,0.000000,0.000000,4000.000000,4000.000000,Speed,Speed,-0.730000,0.860000,1.670000,3.000000,101.000000,1,0,-0.000000,0.000000,1,0.000000,0.000000,0.000000,0.006592,0.013168,0.000000,-0.001000,0.001000,0.002000,FlatInitial
09:30:27.354 PM 02/15/2016,Teleop Disabled,0,FALSE,0,NO ERROR,0.000000,0.000000,4000.000000,4000.000000,Speed,Speed,-0.730000,0.860000,1.670000,3.000000,102.000000,1,0,-0.000000,0.000000,1,0.000000,0.000000,0.000000,0.006592,0.013168,0.000000,0.001000,-0.002000,0.007000,FlatInitial
09:30:27.454 PM 02/15/2016,Teleop Disabled,0,FALSE,0,NO ERROR,0.000000,0.000000,4000.000000,4000.000000,Speed,Speed,-0.730000,0.850000,1.660000,3.000000,101.000000,1,0,-0.000000,0.000000,1,0.000000,0.000000,0.000000,0.006592,0.013168,0.000000,-0.003000,-0.001000,0.003000,FlatInitial
09:30:27.554 PM 02/15/2016,Teleop Disabled,0,FALSE,0,NO ERROR,0.000000,0.000000,4000.000000,4000.000000,Speed,Speed,-0.730000,0.850000,1.660000,3.000000,103.000000,1,0,-0.000000,0.000000,1,0.000000,0.000000,0.000000,0.006592,0.013168,0.000000,0.001000,0.000000,0.002000,FlatInitial
09:30:27.655 PM 02/15/2016,Teleop Disabled,0,FALSE,0,NO ERROR,0.000000,0.000000,4000.000000,4000.000000,Speed,Speed,-0.730000,0.850000,1.640000,3.000000,101.000000,1,0,-0.000000,0.000000,1,0.000000,0.000000,0.000000,0.006592,0.013168,0.000000,-0.001000,-0.003000,0.006000,FlatInitial
09:30:27.755 PM 02/15/2016,Teleop Disabled,0,FALSE,0,NO ERROR,0.000000,0.000000,4000.000000,4000.000000,Speed,Speed,-0.730000,0.850000,1.640000,3.000000,101.000000,1,0,-0.000000,0.000000,1,0.000000,0.000000,0.000000,0.006592,0.013168,0.000000,0.001000,-0.001000,0.008000,FlatInitial
09:30:27.855 PM 02/15/2016,Teleop Disabled,0,FALSE,0,NO ERROR,0.000000,0.000000,4000.000000,4000.000000,Speed,Speed,-0.730000,0.850000,1.640000,3.000000,103.000000,1,0,-0.000000,0.000000,1,0.000000,0.000000,0.000000,0.006592,0.013168,0.000000,0.000000,0.002000,0.001000,FlatInitial
09:30:27.955 PM 02/15/2016,Teleop Disabled,0,FALSE,0,NO ERROR,0.000000,0.000000,4000.000000,4000.000000,Speed,Speed,-0.730000,0.850000,1.640000,3.000000,102.000000,1,0,-0.000000,0.000000,1,0.000000,0.000000,0.000000,0.006592,0.013168,0.000000,0.000000,-0.002000,0.003000,FlatInitial
09:30:28.055 PM 02/15/2016,Teleop Disabled,0,FALSE,0,NO ERROR,0.000000,0.000000,4000.000000,4000.000000,Speed,Speed,-0.730000,0.850000,1.630000,3.000000,102.000000,1,0,-0.000000,0.000000,1,0.000000,0.000000,0.000000,0.006592,0.013168,0.000000,-0.001000,0.004000,0.003000,FlatInitial
09:30:28.155 PM 02/15/2016,Teleop Disabled,0,FALSE,0,NO ERROR,0.000000,0.000000,4000.000000,4000.000000,Speed,Speed,-0.730000,0.850000,1.630000,3.000000,103.000000,1,0,-0.000000,0.000000,1,0.000000,0.000000,0.000000,0.006592,0.013168,0.000000,0.001000,0.000000,0.007000,FlatInitial
09:30:28.255 PM 02/15/2016,Teleop Disabled,0,FALSE,0,NO ERROR,0.000000,0.000000,4000.000000,4000.000000,Speed,Speed,-0.730000,0.850000,1.620000,3.000000,101.000000,1,0,-0.000000,0.000000,1,0.000000,0.000000,0.000000,0.006592,0.013168,0.000000,0.000000,0.004000,0.005000,FlatInitial
09:30:28.355 PM 02/15/2016,Teleop Disabled,0,FALSE,0,NO ERROR,0.000000,0.000000,4000.000000,4000.000000,Speed,Speed,-0.720000,0.850000,1.620000,3.000000,101.000000,1,0,-0.000000,0.000000,1,0.000000,0.000000,0.000000,0.006592,0.013168,0.000000,0.000000,0.001000,0.005000,FlatInitial
09:30:28.456 PM 02/15/2016,Teleop Disabled,0,FALSE,0,NO ERROR,0.000000,0.000000,4000.000000,4000.000000,Speed,Speed,-0.720000,0.850000,1.620000,3.000000,102.000000,1,0,-0.000000,0.000000,1,0.000000,0.000000,0.000000,0.006592,0.013168,0.000000,0.000000,0.000000,0.003000,FlatInitial
09:30:28.557 PM 02/15/2016,Teleop Disabled,0,FALSE,0,NO ERROR,0.000000,0.000000,4000.000000,4000.000000,Speed,Speed,-0.720000,0.850000,1.610000,3.000000,100.000000,1,0,-0.000000,0.000000,1,0.000000,0.000000,0.000000,0.006592,0.013168,0.000000,-0.001000,0.003000,0.003000,FlatInitial
09:30:28.657 PM 02/15/2016,Teleop Disabled,0,FALSE,0,NO ERROR,0.000000,0.000000,4000.000000,4000.000000,Speed,Speed,-0.720000,0.850000,1.610000,3.000000,101.000000,1,0,-0.000000,0.000000,1,0.000000,0.000000,0.000000,0.006592,0.013168,0.000000,0.003000,0.000000,0.009000,FlatInitial
09:30:28.758 PM 02/15/2016,Teleop Disabled,0,FALSE,0,NO ERROR,0.000000,0.000000,4000.000000,4000.000000,Speed,Speed,-0.720000,0.840000,1.590000,3.000000,101.000000,1,0,-0.000000,0.000000,1,0.000000,0.000000,0.000000,0.006592,0.013168,0.000000,0.000000,-0.005000,0.006000,FlatInitial
09:30:28.858 PM 02/15/2016,Teleop Disabled,0,FALSE,0,NO ERROR,0.000000,0.000000,4000.000000,4000.000000,Speed,Speed,-0.770000,0.850000,1.810000,3.000000,101.000000,1,0,-0.000000,0.000000,1,0.000000,0.000000,0.000000,0.006592,0.013168,0.000000,-0.009000,0.018000,-0.022000,FlatInitial
09:30:28.959 PM 02/15/2016,Teleop Disabled,0,FALSE,0,NO ERROR,0.000000,0.000000,4000.000000,4000.000000,Speed,Speed,-0.840000,0.830000,2.290000,3.000000,101.000000,1,0,-0.000000,0.000000,1,0.000000,-0.010483,0.000000,0.006592,0.012924,0.000000,0.003000,-0.007000,0.001000,FlatInitial
09:30:29.060 PM 02/15/2016,Teleop Disabled,0,FALSE,0,NO ERROR,0.000000,0.000000,4000.000000,4000.000000,Speed,Speed,-0.810000,0.840000,1.970000,3.000000,101.000000,1,0,-0.000000,0.000000,1,0.000000,0.009369,0.000000,0.006592,0.013062,0.000000,0.002000,0.008000,-0.029000,FlatInitial
09:30:29.161 PM 02/15/2016,Teleop Disabled,0,FALSE,0,NO ERROR,0.000000,0.000000,4000.000000,4000.000000,Speed,Speed,-0.860000,0.820000,2.570000,3.000000,102.000000,1,0,-0.000000,0.000000,1,0.000000,-0.017975,0.000000,0.006592,0.012863,0.000000,-0.001000,-0.016000,-0.009000,FlatInitial
09:30:29.263 PM 02/15/2016,Teleop Disabled,0,FALSE,0,NO ERROR,-0.146484,0.000000,4000.000000,4000.000000,Speed,Speed,-0.920000,0.800000,2.600000,3.000000,101.000000,1,0,-0.000000,0.000000,1,0.000000,0.000000,0.000000,0.006592,0.012390,0.000000,-0.002000,0.006000,0.004000,FlatInitial
09:30:29.364 PM 02/15/2016,Teleop Disabled,0,FALSE,0,NO ERROR,-0.439453,0.000000,4000.000000,4000.000000,Speed,Speed,-0.830000,0.780000,2.920000,3.000000,104.000000,1,0,-0.000000,0.000000,1,0.000000,0.003448,0.000000,0.006592,0.012421,0.000000,-0.003000,0.037000,0.008000,FlatInitial
09:30:29.465 PM 02/15/2016,Teleop Disabled,0,FALSE,0,NO ERROR,-0.146484,0.000000,4000.000000,4000.000000,Speed,Speed,-0.760000,0.800000,3.030000,3.000000,104.000000,1,0,-0.000000,0.000000,1,0.000427,0.007843,0.000000,0.006668,0.013245,0.000000,-0.035000,-0.012000,0.007000,FlatInitial
09:30:29.566 PM 02/15/2016,Teleop Disabled,0,FALSE,0,NO ERROR,-1.025391,0.000000,4000.000000,4000.000000,Speed,Speed,-0.860000,0.800000,3.120000,3.000000,103.000000,1,0,-0.000000,0.000000,1,0.000320,0.000000,0.000000,0.006378,0.013397,0.000000,0.002000,0.019000,-0.005000,FlatInitial
09:30:29.666 PM 02/15/2016,Teleop Disabled,0,FALSE,0,NO ERROR,-0.439453,0.000000,4000.000000,4000.000000,Speed,Speed,-0.930000,0.770000,3.060000,3.000000,102.000000,1,0,-0.000000,0.000000,1,-0.002655,-0.005249,0.000000,0.006134,0.013657,0.000000,0.027000,-0.042000,0.011000,FlatInitial
09:30:29.766 PM 02/15/2016,Teleop Disabled,0,FALSE,0,NO ERROR,0.000000,0.000000,4000.000000,4000.000000,Speed,Speed,-0.920000,0.750000,3.200000,3.000000,101.000000,1,0,-0.000000,0.000000,1,-0.009750,0.007385,0.000000,0.005783,0.013458,0.000000,0.020000,0.008000,0.018000,FlatInitial
09:30:29.866 PM 02/15/2016,Teleop Disabled,0,FALSE,0,NO ERROR,0.000000,0.000000,4000.000000,4000.000000,Speed,Speed,-0.770000,0.750000,3.230000,3.000000,102.000000,1,0,-0.000000,0.000000,1,-0.007767,0.000000,0.000000,0.005600,0.013535,0.000000,-0.013000,0.012000,0.005000,FlatInitial
09:30:29.966 PM 02/15/2016,Teleop Disabled,0,FALSE,0,NO ERROR,0.000000,0.000000,4000.000000,4000.000000,Speed,Speed,-0.820000,0.780000,3.160000,3.000000,101.000000,1,0,-0.000000,0.000000,1,0.000000,0.000000,0.000000,0.005508,0.013535,0.000000,-0.010000,0.010000,0.001000,FlatInitial
09:30:30.066 PM 02/15/2016,Teleop Disabled,0,FALSE,0,NO ERROR,0.000000,0.000000,4000.000000,4000.000000,Speed,Speed,-0.890000,0.800000,2.960000,3.000000,102.000000,1,0,-0.000000,0.000000,1,0.000000,0.000000,0.000000,0.005508,0.013535,0.000000,-0.010000,0.010000,0.001000,FlatInitial
09:30:30.166 PM 02/15/2016,Teleop Disabled,0,FALSE,0,NO ERROR,0.000000,0.000000,4000.000000,4000.000000,Speed,Speed,-0.840000,0.810000,2.820000,3.000000,101.000000,1,0,-0.000000,0.000000,1,-0.010513,0.004776,0.000000,0.004990,0.013611,0.000000,-0.007000,-0.031000,0.019000,FlatInitial
09:30:30.267 PM 02/15/2016,Teleop Disabled,0,FALSE,0,NO ERROR,0.000000,0.000000,4000.000000,4000.000000,Speed,Speed,-0.850000,0.810000,2.900000,3.000000,103.000000,1,0,-0.000000,0.000000,1,0.000000,0.003159,0.000000,0.004532,0.013535,0.000000,-0.007000,-0.031000,0.019000,FlatInitial
09:30:30.366 PM 02/15/2016,Teleop Disabled,0,FALSE,0,NO ERROR,0.000000,0.000000,4000.000000,4000.000000,Speed,Speed,-0.770000,0.810000,2.910000,3.000000,101.000000,1,0,-0.000000,0.000000,1,0.000000,0.000000,0.000000,0.004745,0.013596,0.000000,-0.005000,0.010000,0.003000,FlatInitial
09:30:30.467 PM 02/15/2016,Teleop Disabled,0,FALSE,0,NO ERROR,0.000000,0.000000,4000.000000,4000.000000,Speed,Speed,-0.840000,0.830000,3.040000,3.000000,101.000000,1,0,-0.000000,0.000000,1,0.000000,0.000000,0.000000,0.004868,0.013596,0.000000,-0.003000,0.010000,0.014000,FlatInitial
09:30:30.567 PM 02/15/2016,Teleop Disabled,0,FALSE,0,NO ERROR,0.000000,0.000000,4000.000000,4000.000000,Speed,Speed,-0.790000,0.840000,3.050000,3.000000,105.000000,1,0,-0.000000,0.000000,1,0.000000,0.000000,0.000000,0.004868,0.013596,0.000000,-0.001000,0.018000,0.008000,FlatInitial
09:30:30.667 PM 02/15/2016,Teleop Disabled,0,FALSE,0,NO ERROR,0.000000,0.000000,4000.000000,4000.000000,Speed,Speed,-0.820000,0.830000,2.900000,3.000000,101.000000,1,0,-0.000000,0.000000,1,-0.005325,0.000000,0.000000,0.004776,0.013412,0.000000,-0.001000,0.018000,0.008000,FlatInitial
09:30:30.767 PM 02/15/2016,Teleop Disabled,0,FALSE,0,NO ERROR,0.000000,0.000000,4000.000000,4000.000000,Speed,Speed,-0.910000,0.850000,2.860000,3.000000,102.000000,1,0,-0.000000,0.000000,1,-0.005920,0.004471,0.000000,0.004669,0.013458,0.000000,0.017000,-0.008000,0.022000,FlatInitial
09:30:30.867 PM 02/15/2016,Teleop Disabled,0,FALSE,0,NO ERROR,0.000000,0.000000,4000.000000,4000.000000,Speed,Speed,-0.800000,0.870000,2.830000,3.000000,102.000000,1,0,-0.000000,0.000000,1,0.005600,-0.000595,0.000000,0.004761,0.013641,0.000000,-0.010000,0.014000,0.006000,FlatInitial
09:30:30.967 PM 02/15/2016,Teleop Disabled,0,FALSE,0,NO ERROR,0.000000,0.000000,4000.000000,4000.000000,Speed,Speed,-0.780000,0.870000,2.810000,3.000000,100.000000,1,0,-0.000000,0.000000,1,0.004456,-0.006714,0.000000,0.004883,0.013428,0.000000,0.007000,-0.001000,0.028000,FlatInitial
09:30:31.068 PM 02/15/2016,Teleop Disabled,0,FALSE,0,NO ERROR,0.000000,0.000000,4000.000000,4000.000000,Speed,Speed,-0.830000,0.850000,2.760000,3.000000,101.000000,1,0,-0.000000,0.000000,1,0.000000,0.000000,0.000000,0.004883,0.013031,0.000000,0.007000,-0.001000,0.028000,FlatInitial
09:30:31.169 PM 02/15/2016,Teleop Disabled,0,FALSE,0,NO ERROR,0.000000,0.000000,4000.000000,4000.000000,Speed,Speed,-0.810000,0.860000,2.710000,3.000000,101.000000,1,0,-0.000000,0.000000,1,0.000000,0.002716,0.000000,0.004883,0.013062,0.000000,0.007000,0.006000,0.016000,FlatInitial
09:30:31.268 PM 02/15/2016,Teleop Disabled,0,FALSE,0,NO ERROR,0.000000,0.000000,4000.000000,4000.000000,Speed,Speed,-0.480000,0.860000,2.410000,3.000000,101.000000,1,0,-0.000000,0.000000,1,-0.007889,-0.001740,0.000000,0.004715,0.013214,0.000000,-0.006000,0.024000,0.004000,FlatInitial
09:30:31.368 PM 02/15/2016,Teleop Disabled,0,FALSE,0,NO ERROR,0.000000,0.000000,4000.000000,4000.000000,Speed,Speed,-0.290000,0.870000,2.510000,3.000000,101.000000,1,0,-0.000000,0.000000,1,0.007294,0.000000,0.000000,0.005081,0.012985,0.000000,0.060000,-0.008000,0.037000,FlatInitial
09:30:31.469 PM 02/15/2016,Teleop Disabled,0,FALSE,0,NO ERROR,0.000000,0.000000,4000.000000,4000.000000,Speed,Speed,-0.640000,0.900000,2.330000,3.000000,101.000000,1,0,-0.000000,0.000000,1,0.007294,0.000000,0.000000,0.005081,0.012985,0.000000,0.046000,-0.001000,0.026000,FlatInitial
09:30:31.569 PM 02/15/2016,Teleop Disabled,0,FALSE,0,NO ERROR,0.000000,0.000000,4000.000000,4000.000000,Speed,Speed,-0.900000,0.920000,2.280000,3.000000,103.000000,1,0,-0.000000,0.000000,1,0.000000,0.076981,0.000000,0.005234,0.016174,0.000000,-0.004000,0.060000,0.017000,FlatInitial
09:30:31.669 PM 02/15/2016,Teleop Disabled,0,FALSE,0,NO ERROR,0.000000,0.000000,4000.000000,4000.000000,Speed,Speed,-0.820000,0.930000,2.050000,3.000000,100.000000,1,0,-0.000000,0.000000,1,0.000000,0.076981,0.000000,0.005234,0.016174,0.000000,-0.007000,0.016000,0.005000,FlatInitial
09:30:31.769 PM 02/15/2016,Teleop Disabled,0,FALSE,0,NO ERROR,0.000000,0.000000,4000.000000,4000.000000,Speed,Speed,-0.820000,0.930000,2.050000,3.000000,101.000000,1,0,-0.000000,0.000000,1,0.000000,0.000000,0.000000,0.005234,0.019028,0.000000,0.005000,-0.001000,0.027000,FlatInitial
09:30:31.869 PM 02/15/2016,Teleop Disabled,0,FALSE,0,NO ERROR,0.000000,0.000000,4000.000000,4000.000000,Speed,Speed,-0.880000,0.940000,1.550000,3.000000,101.000000,1,0,-0.000000,0.000000,1,0.000000,0.000000,0.000000,0.005234,0.019028,0.000000,-0.009000,-0.006000,0.011000,FlatInitial
09:30:31.970 PM 02/15/2016,Teleop Disabled,0,FALSE,0,NO ERROR,0.000000,0.000000,4000.000000,4000.000000,Speed,Speed,-0.880000,0.940000,1.550000,3.000000,102.000000,1,0,-0.000000,0.000000,1,0.000000,0.000000,0.000000,0.005234,0.019028,0.000000,-0.010000,0.003000,0.003000,FlatInitial
09:30:32.070 PM 02/15/2016,Teleop Disabled,0,FALSE,0,NO ERROR,0.000000,0.000000,4000.000000,4000.000000,Speed,Speed,-0.880000,0.970000,1.490000,3.000000,102.000000,1,0,-0.000000,0.000000,1,0.000000,0.000000,0.000000,0.005234,0.019028,0.000000,0.013000,0.002000,0.002000,FlatInitial
09:30:32.170 PM 02/15/2016,Teleop Disabled,0,FALSE,0,NO ERROR,0.000000,0.000000,4000.000000,4000.000000,Speed,Speed,-0.930000,0.930000,1.530000,3.000000,101.000000,1,0,-0.000000,0.000000,1,0.000000,0.000000,0.000000,0.005234,0.019028,0.000000,-0.008000,0.011000,0.015000,FlatInitial
09:30:32.271 PM 02/15/2016,Teleop Disabled,0,FALSE,0,NO ERROR,0.000000,0.000000,4000.000000,4000.000000,Speed,Speed,-0.940000,0.970000,1.350000,3.000000,101.000000,1,0,-0.000000,0.000000,1,0.000000,0.000000,0.000000,0.005234,0.019028,0.000000,-0.004000,0.006000,0.001000,FlatInitial
09:30:32.370 PM 02/15/2016,Teleop Disabled,0,FALSE,0,NO ERROR,0.000000,0.000000,4000.000000,4000.000000,Speed,Speed,-0.910000,0.960000,1.370000,3.000000,102.000000,1,0,-0.000000,0.000000,1,0.000000,0.000000,0.000000,0.005234,0.019028,0.000000,0.000000,0.000000,0.001000,FlatInitial
09:30:32.470 PM 02/15/2016,Teleop Disabled,0,FALSE,0,NO ERROR,0.000000,0.000000,4000.000000,4000.000000,Speed,Speed,-0.900000,0.980000,1.330000,3.000000,103.000000,1,0,-0.000000,0.000000,1,0.000000,-0.004242,0.000000,0.005234,0.018997,0.000000,0.011000,-0.028000,-0.037000,FlatInitial
09:30:32.570 PM 02/15/2016,Teleop Disabled,0,FALSE,0,NO ERROR,0.000000,0.000000,4000.000000,4000.000000,Speed,Speed,-0.900000,0.930000,1.730000,3.000000,101.000000,1,0,-0.000000,0.000000,1,-0.009415,-0.012299,0.000000,0.005112,0.018250,0.000000,-0.045000,0.063000,0.005000,FlatInitial
09:30:32.670 PM 02/15/2016,Teleop Disabled,0,FALSE,0,NO ERROR,0.000000,0.000000,4000.000000,4000.000000,Speed,Speed,-0.900000,0.930000,1.640000,3.000000,102.000000,1,0,-0.000000,0.000000,1,0.000000,0.000000,0.000000,0.004883,0.018677,0.000000,-0.012000,0.003000,-0.046000,FlatInitial
09:30:32.771 PM 02/15/2016,Teleop Disabled,0,FALSE,0,NO ERROR,0.000000,0.000000,4000.000000,4000.000000,Speed,Speed,-0.970000,0.940000,1.620000,3.000000,100.000000,1,0,-0.000000,0.000000,1,0.000000,0.000000,0.000000,0.004883,0.018677,0.000000,-0.001000,-0.019000,0.017000,FlatInitial
09:30:32.871 PM 02/15/2016,Teleop Disabled,0,FALSE,0,NO ERROR,0.000000,0.000000,4000.000000,4000.000000,Speed,Speed,-1.020000,0.890000,1.790000,3.000000,101.000000,1,0,-0.000000,0.000000,1,0.000000,-0.029327,0.000000,0.004883,0.017975,0.000000,0.023000,-0.037000,0.008000,FlatInitial
09:30:32.971 PM 02/15/2016,Teleop Disabled,0,FALSE,0,NO ERROR,0.000000,0.000000,4000.000000,4000.000000,Speed,Speed,-1.150000,0.860000,2.140000,3.000000,101.000000,1,0,-0.000000,0.000000,1,-0.004898,-0.033829,0.000000,0.005020,0.015900,0.000000,0.021000,0.044000,0.039000,FlatInitial
09:30:33.072 PM 02/15/2016,Teleop Disabled,0,FALSE,0,NO ERROR,0.000000,0.000000,4000.000000,4000.000000,Speed,Speed,-0.960000,0.830000,2.480000,3.000000,101.000000,1,0,-0.000000,0.000000,1,-0.001328,0.015991,0.000000,0.005325,0.015747,0.000000,-0.049000,0.033000,0.029000,FlatInitial
09:30:33.172 PM 02/15/2016,Teleop Disabled,0,FALSE,0,NO ERROR,0.000000,0.000000,4000.000000,4000.000000,Speed,Speed,-1.060000,0.880000,2.430000,3.000000,102.000000,1,0,-0.000000,0.000000,1,0.013855,0.000000,0.000000,0.005615,0.016174,0.000000,-0.027000,0.002000,0.006000,FlatInitial
09:30:33.272 PM 02/15/2016,Teleop Disabled,0,FALSE,0,NO ERROR,0.000000,0.000000,4000.000000,4000.000000,Speed,Speed,-1.000000,0.800000,2.300000,3.000000,101.000000,1,0,-0.000000,0.000000,1,0.007843,-0.010315,0.000000,0.005737,0.015930,0.000000,0.028000,0.004000,0.008000,FlatInitial
09:30:33.373 PM 02/15/2016,Teleop Disabled,0,FALSE,0,NO ERROR,0.000000,0.000000,4000.000000,4000.000000,Speed,Speed,-1.020000,0.800000,2.390000,3.000000,102.000000,1,0,-0.000000,0.000000,1,0.001862,0.000000,0.000000,0.005966,0.015854,0.000000,0.019000,-0.015000,-0.001000,FlatInitial
09:30:33.473 PM 02/15/2016,Teleop Disabled,0,FALSE,0,NO ERROR,0.000000,0.000000,4000.000000,4000.000000,Speed,Speed,-1.030000,0.810000,2.410000,3.000000,102.000000,1,0,-0.000000,0.000000,1,0.000000,0.000000,0.000000,0.005966,0.015854,0.000000,0.005000,0.003000,0.003000,FlatInitial
09:30:33.573 PM 02/15/2016,Teleop Disabled,0,FALSE,0,NO ERROR,0.000000,0.000000,4000.000000,4000.000000,Speed,Speed,-0.990000,0.820000,2.230000,3.000000,101.000000,1,0,-0.000000,0.000000,1,0.000000,0.000000,0.000000,0.005966,0.015854,0.000000,-0.005000,-0.003000,0.000000,FlatInitial
09:30:33.673 PM 02/15/2016,Teleop Disabled,0,FALSE,0,NO ERROR,0.000000,0.000000,4000.000000,4000.000000,Speed,Speed,-1.040000,0.840000,2.100000,3.000000,101.000000,1,0,-0.000000,0.000000,1,0.000000,0.000000,0.000000,0.005966,0.015656,0.000000,-0.006000,-0.005000,0.001000,FlatInitial
09:30:33.773 PM 02/15/2016,Teleop Disabled,0,FALSE,0,NO ERROR,-0.146484,0.000000,4000.000000,4000.000000,Speed,Speed,-1.020000,0.840000,2.130000,3.000000,102.000000,1,0,-0.000000,0.000000,1,0.000000,0.000000,0.000000,0.005966,0.015656,0.000000,0.008000,0.013000,0.005000,FlatInitial
09:30:33.873 PM 02/15/2016,Teleop Disabled,0,FALSE,0,NO ERROR,0.000000,0.000000,4000.000000,4000.000000,Speed,Speed,-0.970000,0.830000,2.130000,3.000000,101.000000,1,0,-0.000000,0.000000,1,0.000000,0.000000,0.000000,0.005966,0.015656,0.000000,-0.009000,-0.016000,0.008000,FlatInitial
09:30:33.974 PM 02/15/2016,Teleop Disabled,0,FALSE,0,NO ERROR,0.000000,0.000000,4000.000000,4000.000000,Speed,Speed,-0.980000,0.840000,2.010000,3.000000,102.000000,1,0,-0.000000,0.000000,1,0.000000,0.013901,0.000000,0.005966,0.015930,0.000000,0.003000,0.021000,0.028000,FlatInitial
09:30:34.073 PM 02/15/2016,Teleop Disabled,0,FALSE,0,NO ERROR,0.000000,0.000000,4000.000000,4000.000000,Speed,Speed,-1.000000,0.830000,1.870000,3.000000,101.000000,1,0,-0.000000,0.000000,1,0.000000,-0.000595,0.000000,0.005966,0.016388,0.000000,0.000000,-0.028000,-0.003000,FlatInitial
09:30:34.174 PM 02/15/2016,Teleop Disabled,0,FALSE,0,NO ERROR,2.636719,0.000000,4000.000000,4000.000000,Speed,Speed,-1.000000,0.830000,1.930000,3.000000,101.000000,1,0,-0.000000,0.000000,1,0.000000,0.001541,0.000000,0.005966,0.015991,0.000000,0.000000,0.058000,-0.005000,FlatInitial
09:30:34.273 PM 02/15/2016,Teleop Disabled,0,FALSE,0,NO ERROR,-4.541016,0.000000,4000.000000,4000.000000,Speed,Speed,-0.940000,0.810000,2.020000,3.000000,101.000000,1,0,-0.000000,0.000000,1,0.000000,0.000778,0.000000,0.005966,0.016403,0.000000,-0.015000,-0.022000,0.015000,FlatInitial
09:30:34.373 PM 02/15/2016,Teleop Disabled,0,FALSE,0,NO ERROR,-2.783203,0.000000,4000.000000,4000.000000,Speed,Speed,-0.980000,0.840000,2.010000,3.000000,101.000000,1,0,-0.000000,0.000000,1,0.000000,0.000000,0.000000,0.005966,0.016708,0.000000,-0.011000,-0.015000,-0.005000,FlatInitial
09:30:34.473 PM 02/15/2016,Teleop Disabled,0,FALSE,0,NO ERROR,-0.146484,0.000000,4000.000000,4000.000000,Speed,Speed,-0.950000,0.810000,1.970000,3.000000,101.000000,1,0,-0.000000,0.000000,1,0.000000,-0.009552,0.000000,0.005966,0.016388,0.000000,0.005000,0.030000,0.005000,FlatInitial
09:30:34.573 PM 02/15/2016,Teleop Disabled,0,FALSE,0,NO ERROR,-0.439453,0.000000,4000.000000,4000.000000,Speed,Speed,-0.940000,0.810000,2.010000,3.000000,101.000000,1,0,-0.000000,0.000000,1,0.000000,0.000000,0.000000,0.005966,0.016479,0.000000,0.006000,-0.012000,-0.004000,FlatInitial
09:30:34.673 PM 02/15/2016,Teleop Disabled,0,FALSE,0,NO ERROR,-0.732422,0.000000,4000.000000,4000.000000,Speed,Speed,-0.950000,0.810000,1.930000,3.000000,101.000000,1,0,-0.000000,0.000000,1,0.000000,0.000000,0.000000,0.005966,0.016479,0.000000,0.001000,0.008000,0.010000,FlatInitial
09:30:34.773 PM 02/15/2016,Teleop Disabled,0,FALSE,0,NO ERROR,0.000000,0.000000,4000.000000,4000.000000,Speed,Speed,-0.940000,0.820000,1.950000,3.000000,102.000000,1,0,-0.000000,0.000000,1,0.000000,0.000000,0.000000,0.005966,0.016479,0.000000,-0.002000,-0.006000,0.003000,FlatInitial
09:30:34.873 PM 02/15/2016,Teleop Disabled,0,FALSE,0,NO ERROR,-0.439453,0.000000,4000.000000,4000.000000,Speed,Speed,-0.950000,0.830000,1.960000,3.000000,102.000000,1,0,-0.000000,0.000000,1,0.000000,0.000000,0.000000,0.005966,0.016479,0.000000,-0.002000,0.001000,0.010000,FlatInitial
09:30:34.973 PM 02/15/2016,Teleop Disabled,0,FALSE,0,NO ERROR,-0.878906,0.000000,4000.000000,4000.000000,Speed,Speed,-0.930000,0.820000,1.930000,3.000000,102.000000,1,0,-0.000000,0.000000,1,0.000000,0.000000,0.000000,0.005966,0.016479,0.000000,0.002000,0.000000,0.004000,FlatInitial
09:30:35.074 PM 02/15/2016,Teleop Disabled,0,FALSE,0,NO ERROR,0.000000,0.000000,4000.000000,4000.000000,Speed,Speed,-0.930000,0.820000,1.940000,3.000000,102.000000,1,0,-0.000000,0.000000,1,0.000000,0.000000,0.000000,0.005966,0.016479,0.000000,0.001000,0.001000,0.004000,FlatInitial
09:30:35.174 PM 02/15/2016,Teleop Disabled,0,FALSE,0,NO ERROR,0.000000,0.000000,4000.000000,4000.000000,Speed,Speed,-0.940000,0.830000,1.950000,3.000000,100.000000,1,0,-0.000000,0.000000,1,0.000000,0.000000,0.000000,0.005966,0.016479,0.000000,0.002000,0.008000,0.003000,FlatInitial
09:30:35.275 PM 02/15/2016,Teleop Disabled,0,FALSE,0,NO ERROR,-0.292969,0.000000,4000.000000,4000.000000,Speed,Speed,-0.930000,0.820000,1.960000,3.000000,103.000000,1,0,-0.000000,0.000000,1,0.000000,0.000000,0.000000,0.005966,0.016479,0.000000,-0.003000,-0.001000,0.002000,FlatInitial
09:30:35.375 PM 02/15/2016,Teleop Disabled,0,FALSE,0,NO ERROR,0.000000,0.000000,4000.000000,4000.000000,Speed,Speed,-0.930000,0.830000,1.980000,3.000000,101.000000,1,0,-0.000000,0.000000,1,0.000000,0.000000,0.000000,0.005966,0.016479,0.000000,0.000000,0.003000,0.002000,FlatInitial
09:30:35.475 PM 02/15/2016,Teleop Disabled,0,FALSE,0,NO ERROR,0.000000,0.000000,4000.000000,4000.000000,Speed,Speed,-0.930000,0.820000,1.980000,3.000000,101.000000,1,0,-0.000000,0.000000,1,0.000000,0.000000,0.000000,0.005966,0.016479,0.000000,0.001000,0.000000,0.004000,FlatInitial
09:30:35.576 PM 02/15/2016,Teleop Disabled,0,FALSE,0,NO ERROR,-0.732422,0.000000,4000.000000,4000.000000,Speed,Speed,-0.930000,0.810000,2.000000,3.000000,104.000000,1,0,-0.000000,0.000000,1,0.000000,0.000000,0.000000,0.005966,0.016479,0.000000,0.000000,0.003000,0.006000,FlatInitial
09:30:35.676 PM 02/15/2016,Teleop Disabled,0,FALSE,0,NO ERROR,0.000000,0.000000,4000.000000,4000.000000,Speed,Speed,-0.930000,0.820000,1.960000,3.000000,102.000000,1,0,-0.000000,0.000000,1,0.000000,0.000000,0.000000,0.005966,0.016479,0.000000,0.002000,0.002000,0.007000,FlatInitial
09:30:35.776 PM 02/15/2016,Teleop Disabled,0,FALSE,0,NO ERROR,0.000000,0.000000,4000.000000,4000.000000,Speed,Speed,-0.930000,0.820000,1.980000,3.000000,101.000000,1,0,-0.000000,0.000000,1,0.000000,0.000000,0.000000,0.005966,0.016479,0.000000,-0.004000,0.008000,0.006000,FlatInitial
09:30:35.876 PM 02/15/2016,Teleop Disabled,0,FALSE,0,NO ERROR,-0.292969,0.000000,4000.000000,4000.000000,Speed,Speed,-0.930000,0.820000,1.980000,3.000000,102.000000,1,0,-0.000000,0.000000,1,0.000000,0.000000,0.000000,0.005966,0.016479,0.000000,0.000000,0.004000,0.005000,FlatInitial
09:30:35.976 PM 02/15/2016,Teleop Disabled,0,FALSE,0,NO ERROR,-0.732422,0.000000,4000.000000,4000.000000,Speed,Speed,-0.920000,0.810000,1.970000,3.000000,101.000000,1,0,-0.000000,0.000000,1,0.000000,0.000000,0.000000,0.005966,0.016479,0.000000,0.000000,-0.003000,-0.001000,FlatInitial
09:30:36.076 PM 02/15/2016,Teleop Disabled,0,FALSE,0,NO ERROR,0.000000,0.000000,4000.000000,4000.000000,Speed,Speed,-0.920000,0.810000,1.970000,3.000000,101.000000,1,0,-0.000000,0.000000,1,0.000000,0.000000,0.000000,0.005966,0.016479,0.000000,0.000000,0.000000,0.006000,FlatInitial
09:30:36.179 PM 02/15/2016,Teleop Disabled,0,FALSE,0,NO ERROR,0.000000,0.000000,4000.000000,4000.000000,Speed,Speed,-0.930000,0.820000,1.970000,3.000000,102.000000,1,0,-0.000000,0.000000,1,0.000000,0.000000,0.000000,0.005966,0.016479,0.000000,0.000000,0.003000,0.008000,FlatInitial
09:30:36.280 PM 02/15/2016,Teleop Disabled,0,FALSE,0,NO ERROR,0.000000,0.000000,4000.000000,4000.000000,Speed,Speed,-0.920000,0.820000,1.980000,3.000000,102.000000,1,0,-0.000000,0.000000,1,0.000000,0.000000,0.000000,0.005966,0.016479,0.000000,0.000000,-0.003000,0.006000,FlatInitial
09:30:36.381 PM 02/15/2016,Teleop Disabled,0,FALSE,0,NO ERROR,0.000000,0.000000,4000.000000,4000.000000,Speed,Speed,-0.920000,0.820000,2.000000,3.000000,102.000000,1,0,-0.000000,0.000000,1,0.000000,0.000000,0.000000,0.005966,0.016479,0.000000,-0.001000,0.000000,0.008000,FlatInitial
09:30:36.481 PM 02/15/2016,Teleop Disabled,0,FALSE,0,NO ERROR,0.000000,0.000000,4000.000000,4000.000000,Speed,Speed,-0.930000,0.810000,2.000000,3.000000,101.000000,1,0,-0.000000,0.000000,1,0.000000,0.000000,0.000000,0.005966,0.016479,0.000000,0.000000,0.000000,0.001000,FlatInitial
09:30:36.581 PM 02/15/2016,Teleop Disabled,0,FALSE,0,NO ERROR,0.000000,0.000000,4000.000000,4000.000000,Speed,Speed,-0.920000,0.810000,2.000000,3.000000,101.000000,1,0,-0.000000,0.000000,1,0.000000,0.000000,0.000000,0.005966,0.016479,0.000000,0.000000,0.000000,0.005000,FlatInitial
09:30:36.681 PM 02/15/2016,Teleop Disabled,0,FALSE,0,NO ERROR,0.000000,0.000000,4000.000000,4000.000000,Speed,Speed,-0.930000,0.810000,2.010000,3.000000,109.000000,1,0,-0.000000,0.000000,1,0.000000,0.000000,0.000000,0.005966,0.016479,0.000000,0.000000,-0.001000,0.007000,FlatInitial
09:30:36.781 PM 02/15/2016,Teleop Disabled,0,FALSE,0,NO ERROR,0.000000,0.000000,4000.000000,4000.000000,Speed,Speed,-0.920000,0.810000,2.000000,3.000000,101.000000,1,0,-0.000000,0.000000,1,0.000000,0.000000,0.000000,0.005966,0.016479,0.000000,-0.003000,0.001000,0.006000,FlatInitial
09:30:36.882 PM 02/15/2016,Teleop Disabled,0,FALSE,0,NO ERROR,0.000000,0.000000,4000.000000,4000.000000,Speed,Speed,-0.920000,0.810000,1.990000,3.000000,101.000000,1,0,-0.000000,0.000000,1,0.000000,0.000000,0.000000,0.005966,0.016479,0.000000,0.001000,0.004000,0.005000,FlatInitial
09:30:36.981 PM 02/15/2016,Teleop Disabled,0,FALSE,0,NO ERROR,0.000000,0.000000,4000.000000,4000.000000,Speed,Speed,-0.930000,0.810000,1.920000,3.000000,101.000000,1,0,-0.000000,0.000000,1,0.000000,0.000000,0.000000,0.005966,0.016479,0.000000,0.004000,-0.001000,0.005000,FlatInitial
09:30:37.081 PM 02/15/2016,Teleop Disabled,0,FALSE,0,NO ERROR,0.000000,0.000000,4000.000000,4000.000000,Speed,Speed,-0.920000,0.810000,2.020000,3.000000,103.000000,1,0,-0.000000,0.000000,1,0.000000,0.000000,0.000000,0.005966,0.016479,0.000000,0.001000,0.004000,0.008000,FlatInitial
09:30:37.182 PM 02/15/2016,Teleop Disabled,0,FALSE,0,NO ERROR,0.000000,0.000000,4000.000000,4000.000000,Speed,Speed,-0.920000,0.820000,2.050000,3.000000,102.000000,1,0,-0.000000,0.000000,1,0.000000,0.000000,0.000000,0.005966,0.016479,0.000000,0.003000,0.003000,0.011000,FlatInitial
09:30:37.283 PM 02/15/2016,Teleop Disabled,0,FALSE,0,NO ERROR,0.000000,0.000000,4000.000000,4000.000000,Speed,Speed,-0.930000,0.820000,2.010000,3.000000,102.000000,1,0,-0.000000,0.000000,1,0.000000,0.000000,0.000000,0.005966,0.016479,0.000000,-0.002000,0.000000,-0.004000,FlatInitial
09:30:37.384 PM 02/15/2016,Teleop Disabled,0,FALSE,0,NO ERROR,0.732422,0.000000,4000.000000,4000.000000,Speed,Speed,-0.930000,0.820000,2.020000,3.000000,101.000000,1,0,-0.000000,0.000000,1,0.000000,0.000000,0.000000,0.005966,0.016479,0.000000,-0.004000,0.013000,0.012000,FlatInitial
09:30:37.484 PM 02/15/2016,Teleop Disabled,0,FALSE,0,NO ERROR,0.878906,0.000000,4000.000000,4000.000000,Speed,Speed,-0.940000,0.820000,1.960000,3.000000,101.000000,1,0,-0.000000,0.000000,1,0.000000,0.000000,0.000000,0.005966,0.016479,0.000000,-0.002000,-0.003000,0.002000,FlatInitial
09:30:37.586 PM 02/15/2016,Teleop Disabled,0,FALSE,0,NO ERROR,0.000000,0.000000,4000.000000,4000.000000,Speed,Speed,-0.930000,0.830000,2.040000,3.000000,101.000000,1,0,-0.000000,0.000000,1,0.000000,0.000000,0.000000,0.005966,0.016479,0.000000,-0.004000,0.011000,0.010000,FlatInitial
09:30:37.686 PM 02/15/2016,Teleop Disabled,0,FALSE,0,NO ERROR,0.000000,0.000000,4000.000000,4000.000000,Speed,Speed,-0.930000,0.830000,2.020000,3.000000,102.000000,1,0,-0.000000,0.000000,1,0.000000,0.000000,0.000000,0.005966,0.016479,0.000000,-0.001000,0.007000,0.002000,FlatInitial
09:30:37.787 PM 02/15/2016,Teleop Disabled,0,FALSE,0,NO ERROR,0.000000,0.000000,4000.000000,4000.000000,Speed,Speed,-0.930000,0.820000,1.910000,3.000000,102.000000,1,0,-0.000000,0.000000,1,0.000000,0.000000,0.000000,0.005966,0.016479,0.000000,-0.001000,-0.012000,0.000000,FlatInitial
09:30:37.887 PM 02/15/2016,Teleop Disabled,0,FALSE,0,NO ERROR,0.000000,0.000000,4000.000000,4000.000000,Speed,Speed,-0.930000,0.820000,1.920000,3.000000,102.000000,1,0,-0.000000,0.000000,1,0.000000,0.000000,0.000000,0.005966,0.016479,0.000000,0.000000,0.008000,0.000000,FlatInitial
09:30:37.987 PM 02/15/2016,Teleop Disabled,0,FALSE,0,NO ERROR,0.000000,0.000000,4000.000000,4000.000000,Speed,Speed,-0.950000,0.830000,1.830000,3.000000,102.000000,1,0,-0.000000,0.000000,1,0.000000,0.000000,0.000000,0.005966,0.016479,0.000000,0.003000,0.002000,0.005000,FlatInitial
09:30:38.088 PM 02/15/2016,Teleop Disabled,0,FALSE,0,NO ERROR,0.000000,0.000000,4000.000000,4000.000000,Speed,Speed,-0.970000,0.830000,1.780000,3.000000,101.000000,1,0,-0.000000,0.000000,1,0.000000,0.000000,0.000000,0.005966,0.016479,0.000000,-0.002000,0.001000,0.007000,FlatInitial
09:30:38.188 PM 02/15/2016,Teleop Disabled,0,FALSE,0,NO ERROR,0.000000,0.000000,4000.000000,4000.000000,Speed,Speed,-0.970000,0.840000,1.760000,3.000000,103.000000,1,0,-0.000000,0.000000,1,0.000000,0.000000,0.000000,0.005966,0.016479,0.000000,-0.007000,0.009000,-0.004000,FlatInitial
09:30:38.289 PM 02/15/2016,Teleop Disabled,0,FALSE,0,NO ERROR,0.000000,0.000000,4000.000000,4000.000000,Speed,Speed,-0.950000,0.840000,1.740000,3.000000,104.000000,1,0,-0.000000,0.000000,1,0.000000,0.000000,0.000000,0.005966,0.016479,0.000000,0.000000,0.000000,0.007000,FlatInitial
09:30:38.391 PM 02/15/2016,Teleop Disabled,0,FALSE,0,NO ERROR,0.000000,0.000000,4000.000000,4000.000000,Speed,Speed,-0.950000,0.830000,1.590000,3.000000,101.000000,1,0,-0.000000,0.000000,1,0.000000,0.000000,0.000000,0.005966,0.016479,0.000000,0.005000,0.002000,-0.001000,FlatInitial
09:30:38.491 PM 02/15/2016,Teleop Disabled,0,FALSE,0,NO ERROR,0.000000,0.000000,4000.000000,4000.000000,Speed,Speed,-0.990000,0.840000,1.710000,3.000000,101.000000,1,0,-0.000000,0.000000,1,0.000000,0.000000,0.000000,0.005966,0.016479,0.000000,-0.012000,-0.006000,0.016000,FlatInitial
09:30:38.591 PM 02/15/2016,Teleop Disabled,0,FALSE,0,NO ERROR,0.000000,0.000000,4000.000000,4000.000000,Speed,Speed,-1.000000,0.830000,1.900000,3.000000,104.000000,1,0,-0.000000,0.000000,1,0.000000,0.003448,0.000000,0.005966,0.016296,0.000000,-0.005000,0.023000,0.000000,FlatInitial
09:30:38.690 PM 02/15/2016,Teleop Disabled,0,FALSE,0,NO ERROR,0.146484,0.000000,4000.000000,4000.000000,Speed,Speed,-0.930000,0.820000,2.180000,3.000000,102.000000,1,0,-0.000000,0.000000,1,0.000000,0.000000,0.000000,0.005966,0.016510,0.000000,-0.003000,0.018000,0.002000,FlatInitial
09:30:38.791 PM 02/15/2016,Teleop Disabled,0,FALSE,0,NO ERROR,0.000000,0.000000,4000.000000,4000.000000,Speed,Speed,-0.980000,0.830000,2.080000,3.000000,102.000000,1,0,-0.000000,0.000000,1,0.000000,-0.002609,0.000000,0.005966,0.016800,0.000000,0.012000,-0.020000,0.000000,FlatInitial
09:30:38.892 PM 02/15/2016,Teleop Disabled,0,FALSE,0,NO ERROR,0.732422,0.000000,4000.000000,4000.000000,Speed,Speed,-1.080000,0.820000,2.190000,3.000000,102.000000,1,0,-0.000000,0.000000,1,0.000000,0.000000,0.000000,0.005966,0.016205,0.000000,0.008000,-0.012000,-0.001000,FlatInitial
09:30:38.991 PM 02/15/2016,Teleop Disabled,0,FALSE,0,NO ERROR,0.439453,0.000000,4000.000000,4000.000000,Speed,Speed,-0.960000,0.820000,2.500000,3.000000,103.000000,1,0,-0.000000,0.000000,1,0.000000,0.003937,0.000000,0.005966,0.016022,0.000000,0.014000,0.056000,0.018000,FlatInitial
09:30:39.091 PM 02/15/2016,Teleop Disabled,0,FALSE,0,NO ERROR,0.000000,0.000000,4000.000000,4000.000000,Speed,Speed,-1.030000,0.790000,2.480000,3.000000,103.000000,1,0,-0.000000,0.000000,1,-0.006836,0.011856,0.000000,0.005707,0.017166,0.000000,0.025000,-0.012000,0.023000,FlatInitial
09:30:39.191 PM 02/15/2016,Teleop Disabled,0,FALSE,0,NO ERROR,2.783203,0.000000,4000.000000,4000.000000,Speed,Speed,-1.130000,0.820000,2.600000,3.000000,103.000000,1,0,-0.000000,0.000000,1,0.000000,0.000000,0.000000,0.005692,0.017166,0.000000,-0.002000,-0.028000,0.012000,FlatInitial
09:30:39.292 PM 02/15/2016,Teleop Disabled,0,FALSE,0,NO ERROR,1.757812,0.000000,4000.000000,4000.000000,Speed,Speed,-0.970000,0.820000,2.610000,3.000000,101.000000,1,0,-0.000000,0.000000,1,0.000000,0.003983,0.000000,0.005692,0.016983,0.000000,-0.008000,0.003000,0.015000,FlatInitial
09:30:39.392 PM 02/15/2016,Teleop Disabled,0,FALSE,0,NO ERROR,0.000000,0.000000,4000.000000,4000.000000,Speed,Speed,-1.020000,0.820000,2.750000,3.000000,101.000000,1,0,-0.000000,0.000000,1,0.000000,0.000000,0.000000,0.005692,0.017105,0.000000,0.011000,0.004000,0.011000,FlatInitial
09:30:39.492 PM 02/15/2016,Teleop Disabled,0,FALSE,0,NO ERROR,-0.146484,0.000000,4000.000000,4000.000000,Speed,Speed,-1.060000,0.790000,2.750000,3.000000,102.000000,1,0,-0.000000,0.000000,1,0.000000,-0.006271,0.000000,0.005692,0.016830,0.000000,0.003000,0.042000,-0.002000,FlatInitial
09:30:39.593 PM 02/15/2016,Teleop Disabled,0,FALSE,0,NO ERROR,0.000000,0.000000,4000.000000,4000.000000,Speed,Speed,-1.110000,0.820000,2.830000,3.000000,101.000000,1,0,-0.000000,0.000000,1,0.000000,-0.006378,0.000000,0.005692,0.016815,0.000000,-0.018000,0.004000,-0.004000,FlatInitial
09:30:39.692 PM 02/15/2016,Teleop Disabled,0,FALSE,0,NO ERROR,-0.146484,0.000000,4000.000000,4000.000000,Speed,Speed,-1.160000,0.810000,2.910000,3.000000,103.000000,1,0,-0.000000,0.000000,1,0.008377,-0.006897,0.000000,0.005859,0.016769,0.000000,-0.006000,-0.008000,-0.007000,FlatInitial
09:30:39.793 PM 02/15/2016,Teleop Disabled,0,FALSE,0,NO ERROR,0.000000,0.000000,4000.000000,4000.000000,Speed,Speed,-1.260000,0.810000,2.950000,3.000000,103.000000,1,0,-0.000000,0.000000,1,0.003738,-0.001846,0.000000,0.005981,0.016693,0.000000,-0.005000,0.012000,-0.019000,FlatInitial
09:30:39.892 PM 02/15/2016,Teleop Disabled,0,FALSE,0,NO ERROR,-0.146484,0.000000,4000.000000,4000.000000,Speed,Speed,-1.290000,0.810000,3.060000,3.000000,103.000000,1,0,-0.000000,0.000000,1,0.007446,-0.006989,0.000000,0.006180,0.016663,0.000000,0.000000,-0.012000,-0.002000,FlatInitial
09:30:39.993 PM 02/15/2016,Teleop Disabled,0,FALSE,0,NO ERROR,0.000000,0.000000,4000.000000,4000.000000,Speed,Speed,-1.370000,0.790000,3.110000,3.000000,103.000000,1,0,-0.000000,0.000000,1,0.005371,-0.004547,0.000000,0.006332,0.016586,0.000000,-0.001000,0.006000,-0.018000,FlatInitial
