Time,RobotMode,AutoToRun,ErrorStatus, ErrorCode,ErrorSource,ActualRPM1,ActualRPM2,DesiredRPM1,DesiredRPM2,ControlMode1,ControlMode2,NavXYaw,NavXRoll,NavXPitch,ShooterState,LoopTime,IsLevel,IsAutoTargeting,LeftMotorOutput,RightMotorOutput,IsHaloDrive,NavXVelocityX,NavXVelocityY,NavXVelocityZ,NavXDisplacementX,NavXDisplacementY,NavXDisplacementZ,NavXAccelerationX,NavXAccelerationY,NavXAccelerationZ,AutoDefendState,AngeMotorState,Photoeye
07:16:50.601 PM 02/16/2016,Autonomous Disabled,0,TRUE,91,Variant To Data in WPI_DigitalInputRefNum Registry Get.vi->Periodic Tasks.vi->Robot Main.vi,0.000000,0.000000,-6000.000000,-6000.000000,Speed,Speed,0.060000,0.800000,0.670000,1.000000,102.000000,1,0,-0.000000,0.000000,1,0.000000,0.000000,0.000000,-19.102417,40.991348,0.000000,0.002000,0.000000,0.006000,FlatInitial,Hold,0
07:16:50.700 PM 02/16/2016,Teleop Enabled,0,TRUE,-44007,<LOCATION>WPI_DigitalInputRefNum Registry Get.vi<CALLSTACK>WPI_DigitalInputRefNum Registry Get.vi< <Periodic Tasks.vi< <Robot Main.vi,0.000000,0.000000,0.000000,0.000000,Speed,Speed,-0.040000,0.770000,0.710000,0.000000,17715.000000,1,0,-0.000000,0.000000,1,0.000000,-0.010925,0.000000,-19.102264,40.991577,0.000000,0.012000,-0.027000,0.013000,FlatInitial,ResetBack,1
07:16:50.800 PM 02/16/2016,Teleop Enabled,0,FALSE,0,NO ERROR,0.000000,0.000000,0.000000,0.000000,Speed,Speed,0.000000,0.760000,0.680000,0.000000,102.000000,1,0,-0.000000,0.000000,1,0.000000,0.004181,0.000000,-19.102264,40.991272,0.000000,0.008000,0.028000,0.007000,FlatInitial,ResetForward,1
07:16:50.900 PM 02/16/2016,Teleop Enabled,0,FALSE,0,NO ERROR,0.000000,0.000000,0.000000,0.000000,Speed,Speed,-0.010000,0.760000,0.740000,0.000000,100.000000,1,0,-0.000000,0.000000,1,-0.004898,0.000000,0.000000,-19.102310,40.991714,0.000000,-0.021000,0.000000,0.019000,FlatInitial,ResetForward,1
07:16:51.000 PM 02/16/2016,Teleop Enabled,0,FALSE,0,NO ERROR,0.000000,0.000000,0.000000,0.000000,Speed,Speed,-0.020000,0.780000,0.770000,0.000000,101.000000,1,0,-0.000000,0.000000,1,0.000000,0.000000,0.000000,-19.102371,40.991928,0.000000,-0.002000,0.000000,0.019000,FlatInitial,ResetForward,0
07:16:51.102 PM 02/16/2016,Teleop Enabled,0,FALSE,0,NO ERROR,0.000000,0.000000,0.000000,0.000000,Speed,Speed,0.000000,0.750000,0.740000,0.000000,101.000000,1,0,-0.000000,0.000000,1,0.000000,-0.005630,0.000000,-19.102371,40.991837,0.000000,0.014000,-0.007000,0.008000,FlatInitial,Reset,0
07:16:51.202 PM 02/16/2016,Teleop Enabled,0,FALSE,0,NO ERROR,0.000000,0.000000,0.000000,0.000000,Speed,Speed,0.000000,0.790000,0.750000,0.000000,101.000000,1,0,-0.000000,0.000000,1,-0.005035,0.028610,0.000000,-19.102493,40.992447,0.000000,0.004000,0.034000,-0.002000,FlatInitial,Hold,0
07:16:51.305 PM 02/16/2016,Teleop Enabled,0,FALSE,0,NO ERROR,0.000000,0.000000,0.000000,0.000000,Speed,Speed,-0.010000,0.770000,0.730000,0.000000,100.000000,1,0,-0.000000,0.000000,1,0.000000,-0.014313,0.000000,-19.102493,40.992905,0.000000,-0.018000,-0.069000,0.016000,FlatInitial,Hold,0
07:16:51.406 PM 02/16/2016,Teleop Enabled,0,FALSE,0,NO ERROR,0.000000,0.000000,0.000000,0.000000,Speed,Speed,0.000000,0.770000,0.620000,0.000000,102.000000,1,0,-0.000000,0.000000,1,0.000000,0.003250,0.000000,-19.102646,40.992157,0.000000,0.013000,0.027000,-0.021000,FlatInitial,Hold,0
07:16:51.508 PM 02/16/2016,Teleop Enabled,0,FALSE,0,NO ERROR,0.000000,0.000000,0.000000,0.000000,Speed,Speed,0.000000,0.790000,0.750000,0.000000,101.000000,1,0,-0.000000,0.000000,1,0.000000,0.000000,0.000000,-19.102646,40.992676,0.000000,0.009000,-0.014000,-0.008000,FlatInitial,Hold,0
07:16:51.608 PM 02/16/2016,Teleop Enabled,0,FALSE,0,NO ERROR,0.000000,0.000000,0.000000,0.000000,Speed,Speed,-0.010000,0.770000,0.710000,0.000000,101.000000,1,0,-0.000000,0.000000,1,0.000000,0.003860,0.000000,-19.102646,40.992813,0.000000,0.018000,-0.019000,-0.007000,FlatInitial,Hold,0
07:16:51.708 PM 02/16/2016,Teleop Enabled,0,FALSE,0,NO ERROR,0.000000,0.000000,0.000000,0.000000,Speed,Speed,0.000000,0.790000,0.760000,0.000000,103.000000,1,0,-0.000000,0.000000,1,0.000000,0.008621,0.000000,-19.102798,40.992950,0.000000,-0.001000,-0.003000,0.038000,FlatInitial,Hold,0
07:16:51.808 PM 02/16/2016,Teleop Enabled,0,FALSE,0,NO ERROR,0.000000,0.000000,0.000000,0.000000,Speed,Speed,-0.010000,0.780000,0.740000,0.000000,101.000000,1,0,-0.000000,0.000000,1,0.009872,-0.014648,0.000000,-19.102585,40.992874,0.000000,0.011000,-0.076000,0.032000,FlatInitial,Hold,0
07:16:51.908 PM 02/16/2016,Teleop Enabled,0,FALSE,0,NO ERROR,0.000000,0.000000,0.000000,0.000000,Speed,Speed,0.000000,0.800000,0.720000,0.000000,102.000000,1,0,-0.000000,0.000000,1,0.000000,-0.011765,0.000000,-19.102585,40.991776,0.000000,0.018000,0.018000,-0.021000,FlatInitial,Hold,0
07:16:52.009 PM 02/16/2016,Teleop Enabled,0,FALSE,0,NO ERROR,-0.146484,0.000000,0.000000,0.000000,Speed,Speed,-0.010000,0.790000,0.760000,0.000000,102.000000,1,0,-0.000000,0.000000,1,-0.006973,0.000000,0.000000,-19.102692,40.991684,0.000000,-0.003000,0.064000,-0.020000,FlatInitial,Hold,0
07:16:52.109 PM 02/16/2016,Teleop Enabled,0,FALSE,0,NO ERROR,0.000000,0.000000,0.000000,0.000000,Speed,Speed,-0.010000,0.790000,0.840000,0.000000,102.000000,1,0,-0.000000,0.000000,1,0.000000,0.007599,0.000000,-19.102768,40.992294,0.000000,-0.011000,0.018000,0.011000,FlatInitial,Hold,0
07:16:52.210 PM 02/16/2016,Teleop Enabled,0,FALSE,0,NO ERROR,0.000000,0.000000,0.000000,0.000000,Speed,Speed,-0.010000,0.790000,0.870000,0.000000,101.000000,1,0,-0.000000,0.000000,1,0.003250,0.014374,0.000000,-19.102737,40.992584,0.000000,0.009000,0.000000,-0.023000,FlatInitial,Hold,0
07:16:52.310 PM 02/16/2016,Teleop Enabled,0,FALSE,0,NO ERROR,0.000000,0.000000,0.000000,0.000000,Speed,Speed,-0.030000,0.790000,0.900000,0.000000,101.000000,1,0,-0.000000,0.000000,1,0.000000,0.004654,0.000000,-19.102585,40.992966,0.000000,0.000000,0.046000,-0.002000,FlatInitial,Hold,0
07:16:52.411 PM 02/16/2016,Teleop Enabled,0,FALSE,0,NO ERROR,0.000000,0.000000,0.000000,0.000000,Speed,Speed,-0.050000,0.810000,0.820000,0.000000,102.000000,1,0,-0.000000,0.000000,1,0.000000,-0.011063,0.000000,-19.102478,40.993057,0.000000,-0.033000,-0.024000,0.017000,FlatInitial,Hold,0
07:16:52.512 PM 02/16/2016,Teleop Enabled,0,FALSE,0,NO ERROR,0.000000,0.000000,0.000000,0.000000,Speed,Speed,-0.060000,0.790000,0.790000,0.000000,103.000000,1,0,-0.000000,0.000000,1,0.000000,-0.001205,0.000000,-19.102722,40.992538,0.000000,0.002000,-0.015000,-0.026000,FlatInitial,Hold,0
07:16:52.612 PM 02/16/2016,Teleop Enabled,0,FALSE,0,NO ERROR,0.000000,0.000000,0.000000,0.000000,Speed,Speed,-0.070000,0.810000,0.780000,0.000000,101.000000,1,0,-0.000000,0.000000,1,0.000000,-0.011292,0.000000,-19.102722,40.991898,0.000000,-0.006000,0.027000,0.022000,FlatInitial,Hold,0
07:16:52.712 PM 02/16/2016,Teleop Enabled,0,FALSE,0,NO ERROR,0.000000,0.000000,0.000000,0.000000,Speed,Speed,-0.040000,0.810000,0.960000,0.000000,102.000000,1,0,-0.000000,0.000000,1,0.018768,-0.009354,0.000000,-19.102173,40.991714,0.000000,0.010000,-0.022000,-0.011000,FlatInitial,Hold,0
07:16:52.812 PM 02/16/2016,Teleop Enabled,0,FALSE,0,NO ERROR,0.000000,0.000000,0.000000,0.000000,Speed,Speed,-0.080000,0.780000,1.080000,0.000000,101.000000,1,0,-0.000000,0.000000,1,-0.004044,-0.011505,0.000000,-19.102234,40.991409,0.000000,0.000000,-0.038000,-0.037000,FlatInitial,Hold,0
07:16:52.913 PM 02/16/2016,Teleop Enabled,0,FALSE,0,NO ERROR,0.000000,0.000000,0.000000,0.000000,Speed,Speed,-0.060000,0.790000,1.050000,0.000000,101.000000,1,0,-0.000000,0.000000,1,0.000000,0.018951,0.000000,-19.102264,40.991516,0.000000,-0.009000,0.027000,0.007000,FlatInitial,Hold,0
07:16:53.014 PM 02/16/2016,Teleop Enabled,0,FALSE,0,NO ERROR,0.000000,0.000000,0.000000,0.000000,Speed,Speed,-0.070000,0.800000,1.030000,0.000000,101.000000,1,0,-0.000000,0.000000,1,0.000000,-0.015518,0.000000,-19.102264,40.991348,0.000000,0.000000,-0.008000,0.032000,FlatInitial,Hold,0
07:16:53.115 PM 02/16/2016,Teleop Enabled,0,FALSE,0,NO ERROR,0.000000,0.000000,0.000000,0.000000,Speed,Speed,-0.070000,0.800000,1.030000,0.000000,102.000000,1,0,-0.000000,0.000000,1,0.005432,-0.007843,0.000000,-19.102142,40.990997,0.000000,0.009000,-0.069000,0.020000,FlatInitial,Hold,0
07:16:53.215 PM 02/16/2016,Teleop Enabled,0,FALSE,0,NO ERROR,0.000000,0.000000,0.000000,0.000000,Speed,Speed,-0.090000,0.820000,1.040000,0.000000,104.000000,1,0,-0.000000,0.000000,1,0.003769,0.000671,0.000000,-19.102097,40.990570,0.000000,0.026000,-0.020000,-0.011000,FlatInitial,Hold,0
07:16:53.316 PM 02/16/2016,Teleop Enabled,0,FALSE,0,NO ERROR,0.000000,0.000000,0.000000,0.000000,Speed,Speed,-0.080000,0.790000,1.010000,0.000000,103.000000,1,0,-0.000000,0.000000,1,-0.004578,-0.023865,0.000000,-19.102066,40.989853,0.000000,-0.002000,0.079000,-0.012000,FlatInitial,Hold,0
07:16:53.416 PM 02/16/2016,Teleop Enabled,0,FALSE,0,NO ERROR,0.000000,0.146484,0.000000,0.000000,Speed,Speed,-0.080000,0.790000,1.040000,0.000000,103.000000,1,0,-0.000000,0.000000,1,0.000000,-0.016006,0.000000,-19.102112,40.989349,0.000000,-0.009000,0.011000,0.013000,FlatInitial,Hold,0
07:16:53.517 PM 02/16/2016,Teleop Enabled,0,FALSE,0,NO ERROR,0.000000,4.833984,0.000000,0.000000,Speed,Speed,-0.120000,0.830000,0.960000,0.000000,102.000000,1,0,-0.000000,0.000000,1,0.000000,0.020844,0.000000,-19.102112,40.989456,0.000000,-0.019000,0.051000,-0.001000,FlatInitial,Hold,0
07:16:53.618 PM 02/16/2016,Teleop Enabled,0,FALSE,0,NO ERROR,0.000000,-1.611328,0.000000,0.000000,Speed,Speed,-0.080000,0.820000,0.980000,0.000000,102.000000,1,0,-0.000000,0.000000,1,0.007065,-0.013763,0.000000,-19.102005,40.989975,0.000000,-0.021000,-0.057000,0.013000,FlatInitial,Hold,0
07:16:53.718 PM 02/16/2016,Teleop Enabled,0,FALSE,0,NO ERROR,0.000000,-1.611328,0.000000,0.000000,Speed,Speed,-0.090000,0.820000,0.910000,0.000000,102.000000,1,0,-0.000000,0.000000,1,0.000000,-0.046310,0.000000,-19.101883,40.988022,0.000000,0.016000,-0.005000,0.008000,FlatInitial,Hold,0
07:16:53.820 PM 02/16/2016,Teleop Enabled,0,FALSE,0,NO ERROR,0.000000,-0.146484,0.000000,0.000000,Speed,Speed,-0.100000,0.820000,0.920000,0.000000,101.000000,1,0,-0.000000,0.000000,1,-0.005844,0.009583,0.000000,-19.101959,40.988251,0.000000,0.008000,0.007000,0.005000,FlatInitial,Hold,0
07:16:53.920 PM 02/16/2016,Teleop Enabled,0,FALSE,0,NO ERROR,0.000000,0.000000,0.000000,0.000000,Speed,Speed,-0.100000,0.820000,0.940000,1.000000,102.000000,1,0,-0.000000,0.000000,1,0.000000,0.000000,0.000000,-19.102036,40.988937,0.000000,0.011000,-0.037000,-0.020000,FlatInitial,Hold,0
07:16:54.020 PM 02/16/2016,Teleop Enabled,0,FALSE,0,NO ERROR,0.000000,0.000000,-6000.000000,-6000.000000,Speed,Speed,-0.100000,0.820000,0.940000,1.000000,103.000000,1,0,-0.000000,0.000000,1,0.000000,-0.019150,0.000000,-19.102036,40.988266,0.000000,0.006000,-0.034000,0.006000,FlatInitial,Hold,0
07:16:54.120 PM 02/16/2016,Teleop Enabled,0,FALSE,0,NO ERROR,0.000000,0.000000,-6000.000000,-6000.000000,Speed,Speed,-0.100000,0.820000,0.920000,1.000000,103.000000,1,0,-0.000000,0.000000,1,0.000000,0.000000,0.000000,-19.102036,40.987396,0.000000,-0.003000,0.009000,0.018000,FlatInitial,Hold,0
07:16:54.220 PM 02/16/2016,Teleop Enabled,0,FALSE,0,NO ERROR,0.000000,0.000000,-6000.000000,-6000.000000,Speed,Speed,-0.100000,0.830000,0.960000,1.000000,101.000000,1,0,-0.000000,0.000000,1,0.000000,0.022568,0.000000,-19.102036,40.988205,0.000000,-0.010000,0.008000,0.001000,FlatInitial,Hold,0
07:16:54.320 PM 02/16/2016,Teleop Enabled,0,FALSE,0,NO ERROR,0.000000,0.000000,-6000.000000,-6000.000000,Speed,Speed,-0.110000,0.840000,0.950000,1.000000,103.000000,1,0,-0.000000,0.000000,1,0.000000,-0.017075,0.000000,-19.102036,40.987778,0.000000,-0.003000,0.007000,0.017000,FlatInitial,Hold,0
07:16:54.420 PM 02/16/2016,Teleop Enabled,0,FALSE,0,NO ERROR,0.000000,0.000000,-6000.000000,-6000.000000,Speed,Speed,-0.110000,0.850000,0.930000,1.000000,102.000000,1,0,-0.000000,0.000000,1,0.000000,0.008850,0.000000,-19.102036,40.987823,0.000000,-0.009000,0.002000,-0.001000,FlatInitial,Hold,0
07:16:54.520 PM 02/16/2016,Teleop Enabled,0,FALSE,0,NO ERROR,0.000000,0.000000,-6000.000000,-6000.000000,Speed,Speed,-0.100000,0.790000,0.990000,1.000000,102.000000,1,0,-0.000000,0.000000,1,0.000000,-0.003937,0.000000,-19.102036,40.987793,0.000000,-0.016000,0.002000,0.002000,FlatInitial,Hold,0
07:16:54.620 PM 02/16/2016,Teleop Enabled,0,FALSE,0,NO ERROR,0.000000,0.000000,-6000.000000,-6000.000000,Speed,Speed,-0.110000,0.820000,0.980000,1.000000,103.000000,1,0,-0.000000,0.000000,1,0.000000,0.005051,0.000000,-19.102036,40.987366,0.000000,0.003000,0.051000,-0.005000,FlatInitial,Hold,0
07:16:54.720 PM 02/16/2016,Teleop Enabled,0,FALSE,0,NO ERROR,0.000000,0.000000,-6000.000000,-6000.000000,Speed,Speed,-0.110000,0.820000,1.000000,1.000000,103.000000,1,0,-0.000000,0.000000,1,0.000000,0.000000,0.000000,-19.102036,40.987579,0.000000,-0.006000,0.001000,0.006000,FlatInitial,Hold,0
07:16:54.820 PM 02/16/2016,Teleop Enabled,0,FALSE,0,NO ERROR,0.000000,0.000000,-6000.000000,-6000.000000,Speed,Speed,-0.110000,0.820000,0.990000,1.000000,102.000000,1,0,-0.000000,0.000000,1,0.000000,-0.017349,0.000000,-19.102036,40.987000,0.000000,-0.001000,-0.004000,0.003000,FlatInitial,Hold,0
07:16:54.921 PM 02/16/2016,Teleop Enabled,0,FALSE,0,NO ERROR,0.000000,0.000000,-6000.000000,-6000.000000,Speed,Speed,-0.110000,0.810000,1.000000,1.000000,103.000000,1,0,-0.000000,0.000000,1,0.000000,0.000000,0.000000,-19.102036,40.986450,0.000000,-0.003000,0.005000,-0.015000,FlatInitial,Hold,0
07:16:55.021 PM 02/16/2016,Teleop Enabled,0,FALSE,0,NO ERROR,0.000000,0.000000,-6000.000000,-6000.000000,Speed,Speed,-0.120000,0.820000,1.000000,1.000000,101.000000,1,0,-0.000000,0.000000,1,0.000000,-0.011017,0.000000,-19.102036,40.986191,0.000000,-0.001000,-0.038000,0.005000,FlatInitial,Hold,0
07:16:55.121 PM 02/16/2016,Teleop Enabled,0,FALSE,0,NO ERROR,0.000000,0.000000,-6000.000000,-6000.000000,Speed,Speed,-0.110000,0.820000,0.990000,1.000000,101.000000,1,0,-0.000000,0.000000,1,0.001770,0.010895,0.000000,-19.102020,40.986084,0.000000,-0.008000,0.005000,0.015000,FlatInitial,Hold,0
07:16:55.221 PM 02/16/2016,Teleop Enabled,0,FALSE,0,NO ERROR,0.000000,0.000000,-6000.000000,-6000.000000,Speed,Speed,-0.120000,0.820000,0.990000,1.000000,101.000000,1,0,-0.000000,0.000000,1,-0.002792,-0.009048,0.000000,-19.102005,40.986084,0.000000,0.015000,-0.046000,-0.018000,FlatInitial,Hold,0
07:16:55.323 PM 02/16/2016,Teleop Enabled,0,FALSE,0,NO ERROR,0.000000,0.000000,-6000.000000,-6000.000000,Speed,Speed,-0.120000,0.820000,0.960000,1.000000,103.000000,1,0,-0.000000,0.000000,1,0.000000,0.002197,0.000000,-19.102020,40.985764,0.000000,-0.006000,0.048000,-0.005000,FlatInitial,Hold,0
07:16:55.422 PM 02/16/2016,Teleop Enabled,0,FALSE,0,NO ERROR,0.000000,0.000000,-6000.000000,-6000.000000,Speed,Speed,-0.120000,0.820000,0.960000,1.000000,101.000000,1,0,-0.000000,0.000000,1,0.000000,0.000000,0.000000,-19.102020,40.985992,0.000000,-0.020000,-0.014000,0.014000,FlatInitial,Hold,0
07:16:55.522 PM 02/16/2016,Teleop Enabled,0,FALSE,0,NO ERROR,0.000000,0.000000,-6000.000000,-6000.000000,Speed,Speed,-0.120000,0.820000,0.970000,1.000000,101.000000,1,0,-0.000000,0.000000,1,0.000000,-0.011322,0.000000,-19.102081,40.985550,0.000000,0.002000,-0.006000,0.033000,FlatInitial,Hold,0
07:16:55.624 PM 02/16/2016,Teleop Enabled,0,FALSE,0,NO ERROR,0.000000,0.000000,-6000.000000,-6000.000000,Speed,Speed,-0.130000,0.810000,0.990000,1.000000,100.000000,1,0,-0.000000,0.000000,1,0.004578,0.000000,0.000000,-19.101974,40.985825,0.000000,0.013000,-0.015000,-0.009000,FlatInitial,Hold,0
07:16:55.724 PM 02/16/2016,Teleop Enabled,0,FALSE,0,NO ERROR,0.000000,0.000000,-6000.000000,-6000.000000,Speed,Speed,-0.120000,0.820000,1.000000,1.000000,102.000000,1,0,-0.000000,0.000000,1,0.000000,-0.010239,0.000000,-19.102051,40.985565,0.000000,0.001000,-0.036000,0.005000,FlatInitial,Hold,0
07:16:55.824 PM 02/16/2016,Teleop Enabled,0,FALSE,0,NO ERROR,0.000000,0.000000,-6000.000000,-6000.000000,Speed,Speed,-0.120000,0.810000,1.000000,1.000000,101.000000,1,0,-0.000000,0.000000,1,0.000946,0.003906,0.000000,-19.102036,40.985397,0.000000,0.021000,-0.027000,-0.020000,FlatInitial,Hold,0
07:16:55.924 PM 02/16/2016,Teleop Enabled,0,FALSE,0,NO ERROR,0.000000,0.000000,-6000.000000,-6000.000000,Speed,Speed,-0.130000,0.810000,0.980000,1.000000,102.000000,1,0,-0.000000,0.000000,1,0.000000,0.000000,0.000000,-19.101959,40.985352,0.000000,-0.002000,-0.008000,0.006000,FlatInitial,Hold,0
07:16:56.025 PM 02/16/2016,Teleop Enabled,0,FALSE,0,NO ERROR,0.000000,0.000000,-6000.000000,-6000.000000,Speed,Speed,-0.130000,0.820000,1.020000,1.000000,103.000000,1,0,-0.000000,0.000000,1,0.000000,0.011124,0.000000,-19.101959,40.985855,0.000000,0.015000,-0.041000,-0.023000,FlatInitial,Hold,0
07:16:56.126 PM 02/16/2016,Teleop Enabled,0,FALSE,0,NO ERROR,0.000000,0.000000,-6000.000000,-6000.000000,Speed,Speed,-0.130000,0.810000,0.990000,1.000000,102.000000,1,0,-0.000000,0.000000,1,0.000000,0.000000,0.000000,-19.101959,40.985809,0.000000,0.004000,0.011000,0.000000,FlatInitial,Hold,0
07:16:56.227 PM 02/16/2016,Teleop Enabled,0,FALSE,0,NO ERROR,0.000000,0.000000,-6000.000000,-6000.000000,Speed,Speed,-0.130000,0.810000,1.000000,1.000000,101.000000,1,0,-0.000000,0.000000,1,0.000000,0.003601,0.000000,-19.101852,40.986206,0.000000,0.004000,-0.013000,-0.025000,FlatInitial,Hold,0
07:16:56.327 PM 02/16/2016,Teleop Enabled,0,FALSE,0,NO ERROR,0.000000,0.000000,-6000.000000,-6000.000000,Speed,Speed,-0.130000,0.810000,1.000000,1.000000,102.000000,1,0,-0.000000,0.000000,1,0.000000,0.008072,0.000000,-19.101959,40.986313,0.000000,0.006000,0.006000,0.010000,FlatInitial,Hold,0
07:16:56.427 PM 02/16/2016,Teleop Enabled,0,FALSE,0,NO ERROR,0.000000,0.000000,-6000.000000,-6000.000000,Speed,Speed,-0.140000,0.800000,1.000000,1.000000,101.000000,1,0,-0.000000,0.000000,1,0.000000,-0.009064,0.000000,-19.101959,40.986374,0.000000,-0.006000,0.013000,0.015000,FlatInitial,Hold,0
07:16:56.527 PM 02/16/2016,Teleop Enabled,0,FALSE,0,NO ERROR,0.000000,0.000000,-6000.000000,-6000.000000,Speed,Speed,-0.140000,0.800000,1.010000,1.000000,101.000000,1,0,-0.000000,0.000000,1,0.003143,0.000000,0.000000,-19.101868,40.986572,0.000000,0.011000,-0.010000,-0.011000,FlatInitial,Hold,0
07:16:56.628 PM 02/16/2016,Teleop Enabled,0,FALSE,0,NO ERROR,0.000000,0.000000,-6000.000000,-6000.000000,Speed,Speed,-0.140000,0.800000,1.010000,1.000000,101.000000,1,0,-0.000000,0.000000,1,0.000000,-0.009079,0.000000,-19.101868,40.986420,0.000000,-0.014000,0.008000,0.006000,FlatInitial,Hold,0
07:16:56.729 PM 02/16/2016,Teleop Enabled,0,FALSE,0,NO ERROR,0.000000,0.000000,-6000.000000,-6000.000000,Speed,Speed,-0.140000,0.800000,1.010000,1.000000,101.000000,1,0,-0.000000,0.000000,1,0.000000,0.005875,0.000000,-19.101868,40.986099,0.000000,0.000000,0.040000,-0.011000,FlatInitial,Hold,0
07:16:56.829 PM 02/16/2016,Teleop Enabled,0,FALSE,0,NO ERROR,0.000000,0.000000,-6000.000000,-6000.000000,Speed,Speed,-0.140000,0.800000,1.030000,1.000000,102.000000,1,0,-0.000000,0.000000,1,0.000000,0.002136,0.000000,-19.101746,40.986221,0.000000,-0.006000,0.036000,0.020000,FlatInitial,Hold,0
07:16:56.930 PM 02/16/2016,Teleop Enabled,0,FALSE,0,NO ERROR,0.000000,0.000000,-6000.000000,-6000.000000,Speed,Speed,-0.140000,0.800000,1.010000,1.000000,101.000000,1,0,-0.000000,0.000000,1,-0.005417,-0.003113,0.000000,-19.101837,40.986511,0.000000,0.004000,-0.041000,-0.010000,FlatInitial,Hold,0
07:16:57.031 PM 02/16/2016,Teleop Enabled,0,FALSE,0,NO ERROR,0.000000,0.000000,-6000.000000,-6000.000000,Speed,Speed,-0.140000,0.810000,1.020000,1.000000,101.000000,1,0,-0.000000,0.000000,1,0.000000,0.006912,0.000000,-19.101883,40.986618,0.000000,0.018000,-0.004000,-0.014000,FlatInitial,Hold,0
07:16:57.131 PM 02/16/2016,Teleop Enabled,0,FALSE,0,NO ERROR,0.000000,0.000000,-6000.000000,-6000.000000,Speed,Speed,-0.140000,0.810000,1.040000,1.000000,102.000000,1,0,-0.000000,0.000000,1,0.000000,-0.004837,0.000000,-19.101883,40.986557,0.000000,0.004000,0.003000,-0.037000,FlatInitial,LowGoal,0
07:16:57.232 PM 02/16/2016,Teleop Enabled,0,FALSE,0,NO ERROR,0.000000,0.146484,-6000.000000,-6000.000000,Speed,Speed,-0.140000,0.770000,1.120000,1.000000,100.000000,1,0,-0.000000,0.000000,1,0.000000,0.000000,0.000000,-19.101883,40.986420,0.000000,0.000000,-0.007000,0.023000,FlatInitial,Hold,0
07:16:57.332 PM 02/16/2016,Teleop Enabled,0,FALSE,0,NO ERROR,0.000000,12.011719,-6000.000000,-6000.000000,Speed,Speed,-0.100000,0.760000,1.120000,1.000000,102.000000,1,0,-0.000000,0.000000,1,0.000000,0.000000,0.000000,-19.101883,40.986420,0.000000,0.013000,0.009000,-0.007000,FlatInitial,Hold,0
07:16:57.432 PM 02/16/2016,Teleop Enabled,0,FALSE,0,NO ERROR,0.000000,2.929688,-6000.000000,-6000.000000,Speed,Speed,-0.080000,0.730000,1.230000,1.000000,101.000000,1,0,-0.000000,0.000000,1,-0.002045,0.027588,0.000000,-19.101913,40.986908,0.000000,-0.020000,0.060000,0.023000,FlatInitial,Hold,0
07:16:57.533 PM 02/16/2016,Teleop Enabled,0,FALSE,0,NO ERROR,0.000000,-23.730469,-6000.000000,-6000.000000,Speed,Speed,-0.140000,0.930000,1.010000,1.000000,101.000000,1,0,-0.000000,0.000000,1,0.016510,0.051544,0.000000,-19.101944,40.989594,0.000000,0.024000,-0.046000,0.011000,FlatInitial,Hold,0
07:16:57.633 PM 02/16/2016,Teleop Enabled,0,FALSE,0,NO ERROR,0.000000,-0.146484,-6000.000000,-6000.000000,Speed,Speed,-0.140000,0.730000,1.030000,1.000000,102.000000,1,0,-0.000000,0.000000,1,-0.005585,-0.007797,0.000000,-19.101578,40.990463,0.000000,-0.009000,-0.032000,0.037000,FlatInitial,Hold,0
07:16:57.733 PM 02/16/2016,Teleop Enabled,0,FALSE,0,NO ERROR,0.000000,0.000000,-6000.000000,-6000.000000,Speed,Speed,-0.140000,0.890000,0.930000,1.000000,103.000000,1,0,-0.000000,0.000000,1,0.011276,0.000000,0.000000,-19.101440,40.990219,0.000000,0.011000,0.008000,0.042000,FlatInitial,Hold,0
07:16:57.835 PM 02/16/2016,Teleop Enabled,0,FALSE,0,NO ERROR,0.000000,0.000000,-6000.000000,-6000.000000,Speed,Speed,-0.160000,0.810000,0.940000,1.000000,101.000000,1,0,-0.000000,0.000000,1,-0.003433,0.000000,0.000000,-19.101288,40.990219,0.000000,0.032000,0.015000,0.013000,FlatInitial,Hold,0
07:16:57.936 PM 02/16/2016,Teleop Enabled,0,FALSE,0,NO ERROR,0.000000,0.000000,-6000.000000,-6000.000000,Speed,Speed,-0.150000,0.830000,0.880000,1.000000,101.000000,1,0,-0.000000,0.000000,1,0.000854,0.000000,0.000000,-19.101044,40.990219,0.000000,-0.022000,0.011000,0.021000,FlatInitial,Hold,0
07:16:58.037 PM 02/16/2016,Teleop Enabled,0,FALSE,0,NO ERROR,0.000000,0.000000,-6000.000000,-6000.000000,Speed,Speed,-0.150000,0.930000,0.780000,1.000000,102.000000,1,0,-0.000000,0.000000,1,0.013641,0.009933,0.000000,-19.100876,40.990936,0.000000,0.020000,-0.066000,0.123000,FlatInitial,Hold,0
07:16:58.136 PM 02/16/2016,Teleop Enabled,0,FALSE,0,NO ERROR,0.000000,0.000000,-6000.000000,-6000.000000,Speed,Speed,-0.080000,0.670000,1.210000,1.000000,103.000000,1,0,-0.000000,0.000000,1,0.001480,-0.048462,0.000000,-19.100143,40.989578,0.000000,-0.032000,-0.040000,0.026000,FlatInitial,Hold,0
07:16:58.237 PM 02/16/2016,Teleop Enabled,0,FALSE,0,NO ERROR,0.000000,0.000000,-6000.000000,-6000.000000,Speed,Speed,-0.060000,0.970000,0.710000,1.000000,100.000000,1,0,-0.000000,0.000000,1,0.023087,0.025375,0.000000,-19.099899,40.989517,0.000000,0.075000,0.057000,-0.102000,FlatInitial,Hold,0
07:16:58.338 PM 02/16/2016,Teleop Enabled,0,FALSE,0,NO ERROR,0.000000,0.000000,-6000.000000,-6000.000000,Speed,Speed,-0.130000,0.770000,1.180000,1.000000,101.000000,1,0,-0.000000,0.000000,1,0.006851,0.000000,0.000000,-19.098801,40.990219,0.000000,0.026000,-0.026000,-0.001000,FlatInitial,Hold,0
07:16:58.439 PM 02/16/2016,Teleop Enabled,0,FALSE,0,NO ERROR,0.000000,0.000000,-6000.000000,-6000.000000,Speed,Speed,-0.150000,0.860000,0.960000,1.000000,100.000000,1,0,-0.000000,0.000000,1,0.016693,0.000000,0.000000,-19.097839,40.989532,0.000000,-0.003000,0.009000,-0.002000,FlatInitial,Hold,0
07:16:58.540 PM 02/16/2016,Teleop Enabled,0,FALSE,0,NO ERROR,0.000000,0.000000,-6000.000000,-6000.000000,Speed,Speed,-0.130000,0.890000,0.880000,1.000000,101.000000,1,0,-0.000000,0.000000,1,0.003540,-0.001999,0.000000,-19.097641,40.989517,0.000000,-0.002000,-0.041000,0.029000,FlatInitial,Hold,0
07:16:58.640 PM 02/16/2016,Teleop Enabled,0,FALSE,0,NO ERROR,0.000000,0.000000,-6000.000000,-6000.000000,Speed,Speed,-0.130000,0.840000,0.920000,1.000000,102.000000,1,0,-0.000000,0.000000,1,0.000000,0.000000,0.000000,-19.097534,40.988800,0.000000,0.000000,0.007000,0.018000,FlatInitial,Hold,0
07:16:58.740 PM 02/16/2016,Teleop Enabled,0,FALSE,0,NO ERROR,0.000000,0.000000,-6000.000000,-6000.000000,Speed,Speed,-0.140000,0.880000,0.870000,1.000000,100.000000,1,0,-0.000000,0.000000,1,0.000000,0.029358,0.000000,-19.097641,40.989639,0.000000,0.015000,0.025000,-0.030000,FlatInitial,Hold,0
07:16:58.840 PM 02/16/2016,Teleop Enabled,0,FALSE,0,NO ERROR,0.000000,0.000000,-6000.000000,-6000.000000,Speed,Speed,-0.140000,0.840000,0.990000,1.000000,102.000000,1,0,-0.000000,0.000000,1,0.000000,0.000000,0.000000,-19.097641,40.990280,0.000000,-0.003000,-0.011000,-0.001000,FlatInitial,Hold,0
07:16:58.940 PM 02/16/2016,Teleop Enabled,0,FALSE,0,NO ERROR,0.000000,0.000000,-6000.000000,-6000.000000,Speed,Speed,-0.140000,0.870000,0.860000,1.000000,101.000000,1,0,-0.000000,0.000000,1,0.000000,-0.015961,0.000000,-19.097641,40.989716,0.000000,0.014000,-0.011000,-0.010000,FlatInitial,Hold,0
07:16:59.041 PM 02/16/2016,Teleop Enabled,0,FALSE,0,NO ERROR,0.000000,0.000000,-6000.000000,-6000.000000,Speed,Speed,-0.140000,0.860000,0.910000,1.000000,104.000000,1,0,-0.000000,0.000000,1,0.000000,0.000000,0.000000,-19.097641,40.989716,0.000000,0.009000,-0.002000,0.019000,FlatInitial,Hold,0
07:16:59.142 PM 02/16/2016,Teleop Enabled,0,FALSE,0,NO ERROR,0.000000,0.000000,-6000.000000,-6000.000000,Speed,Speed,-0.150000,0.860000,0.890000,1.000000,104.000000,1,0,-0.000000,0.000000,1,0.000000,0.006653,0.000000,-19.097641,40.989807,0.000000,0.009000,-0.002000,0.019000,FlatInitial,Hold,0
07:16:59.243 PM 02/16/2016,Teleop Enabled,0,FALSE,0,NO ERROR,0.000000,0.000000,-6000.000000,-6000.000000,Speed,Speed,-0.140000,0.880000,0.850000,1.000000,100.000000,1,0,-0.000000,0.000000,1,0.000000,-0.010178,0.000000,-19.097641,40.989746,0.000000,0.001000,-0.014000,-0.019000,FlatInitial,Hold,0
07:16:59.344 PM 02/16/2016,Teleop Enabled,0,FALSE,0,NO ERROR,0.000000,0.000000,-6000.000000,-6000.000000,Speed,Speed,-0.130000,0.870000,0.820000,1.000000,103.000000,1,0,-0.000000,0.000000,1,0.000000,0.000000,0.000000,-19.097641,40.989273,0.000000,-0.005000,0.018000,0.003000,FlatInitial,Hold,0
07:16:59.445 PM 02/16/2016,Teleop Enabled,0,FALSE,0,NO ERROR,-0.146484,0.000000,-6000.000000,-6000.000000,Speed,Speed,-0.140000,0.880000,0.800000,1.000000,101.000000,1,0,-0.000000,0.000000,1,0.000000,-0.005341,0.000000,-19.097595,40.989197,0.000000,0.009000,-0.015000,0.003000,FlatInitial,Hold,0
07:16:59.545 PM 02/16/2016,Teleop Enabled,0,FALSE,0,NO ERROR,0.000000,0.000000,-6000.000000,-6000.000000,Speed,Speed,-0.130000,0.880000,0.800000,1.000000,101.000000,1,0,-0.000000,0.000000,1,0.003128,0.000000,0.000000,-19.097549,40.988800,0.000000,0.009000,-0.015000,0.003000,FlatInitial,Hold,0
07:16:59.645 PM 02/16/2016,Teleop Enabled,0,FALSE,0,NO ERROR,0.000000,0.000000,-6000.000000,-6000.000000,Speed,Speed,-0.130000,0.880000,0.810000,1.000000,104.000000,1,0,-0.000000,0.000000,1,0.000000,0.000000,0.000000,-19.097549,40.988800,0.000000,0.002000,-0.025000,-0.032000,FlatInitial,Hold,0
07:16:59.745 PM 02/16/2016,Teleop Enabled,0,FALSE,0,NO ERROR,0.000000,0.000000,-6000.000000,-6000.000000,Speed,Speed,-0.130000,0.870000,0.820000,1.000000,101.000000,1,0,-0.000000,0.000000,1,0.000000,0.000000,0.000000,-19.097549,40.988602,0.000000,0.002000,0.017000,-0.018000,FlatInitial,Hold,0
07:16:59.846 PM 02/16/2016,Teleop Enabled,0,FALSE,0,NO ERROR,0.000000,0.000000,-6000.000000,-6000.000000,Speed,Speed,-0.120000,0.860000,0.840000,1.000000,103.000000,1,0,-0.000000,0.000000,1,-0.003876,0.000000,0.000000,-19.097626,40.988602,0.000000,0.000000,0.001000,0.024000,FlatInitial,Hold,0
07:16:59.947 PM 02/16/2016,Teleop Enabled,0,FALSE,0,NO ERROR,0.000000,0.000000,-6000.000000,-6000.000000,Speed,Speed,-0.130000,0.890000,0.840000,1.000000,101.000000,1,0,-0.000000,0.000000,1,0.000000,-0.003845,0.000000,-19.097626,40.988480,0.000000,0.002000,-0.004000,0.022000,FlatInitial,Hold,0
07:17:00.047 PM 02/16/2016,Teleop Enabled,0,FALSE,0,NO ERROR,0.000000,0.000000,-6000.000000,-6000.000000,Speed,Speed,-0.130000,0.900000,0.840000,1.000000,101.000000,1,0,-0.000000,0.000000,1,0.000000,0.000000,0.000000,-19.097626,40.988480,0.000000,0.002000,0.004000,-0.043000,FlatInitial,Hold,0
07:17:00.147 PM 02/16/2016,Teleop Enabled,0,FALSE,0,NO ERROR,0.000000,0.000000,-6000.000000,-6000.000000,Speed,Speed,-0.140000,0.900000,0.840000,1.000000,101.000000,1,0,-0.000000,0.000000,1,0.000000,0.000000,0.000000,-19.097626,40.988358,0.000000,0.011000,0.006000,-0.017000,FlatInitial,Hold,0
07:17:00.248 PM 02/16/2016,Teleop Enabled,0,FALSE,0,NO ERROR,0.000000,0.000000,-6000.000000,-6000.000000,Speed,Speed,-0.130000,0.900000,0.840000,1.000000,103.000000,1,0,-0.000000,0.000000,1,0.000000,0.000000,0.000000,-19.097626,40.988358,0.000000,0.011000,0.006000,-0.017000,FlatInitial,Hold,0
07:17:00.348 PM 02/16/2016,Teleop Enabled,0,FALSE,0,NO ERROR,0.000000,0.000000,-6000.000000,-6000.000000,Speed,Speed,-0.130000,0.890000,0.850000,1.000000,102.000000,1,0,-0.000000,0.000000,1,0.000000,-0.007660,0.000000,-19.097626,40.988190,0.000000,-0.013000,-0.004000,0.026000,FlatInitial,Hold,0
07:17:00.448 PM 02/16/2016,Teleop Enabled,0,FALSE,0,NO ERROR,0.000000,0.000000,-6000.000000,-6000.000000,Speed,Speed,-0.130000,0.890000,0.850000,1.000000,101.000000,1,0,-0.000000,0.000000,1,0.000000,-0.007660,0.000000,-19.097626,40.988190,0.000000,-0.005000,-0.005000,0.039000,FlatInitial,Hold,0
07:17:00.548 PM 02/16/2016,Teleop Enabled,0,FALSE,0,NO ERROR,0.000000,0.000000,-6000.000000,-6000.000000,Speed,Speed,-0.140000,0.880000,0.850000,1.000000,102.000000,1,0,-0.000000,0.000000,1,0.000000,0.000000,0.000000,-19.097626,40.988190,0.000000,-0.013000,0.016000,0.012000,FlatInitial,Hold,0
07:17:00.648 PM 02/16/2016,Teleop Enabled,0,FALSE,0,NO ERROR,0.000000,0.000000,-6000.000000,-6000.000000,Speed,Speed,-0.140000,0.890000,0.830000,1.000000,101.000000,1,0,-0.000000,0.000000,1,0.000000,0.000000,0.000000,-19.097626,40.988190,0.000000,0.003000,0.002000,-0.056000,FlatInitial,Hold,0
07:17:00.748 PM 02/16/2016,Teleop Enabled,0,FALSE,0,NO ERROR,0.000000,0.000000,-6000.000000,-6000.000000,Speed,Speed,-0.140000,0.890000,0.830000,1.000000,102.000000,1,0,-0.000000,0.000000,1,0.000000,-0.012924,0.000000,-19.097626,40.987793,0.000000,0.007000,0.003000,-0.023000,FlatInitial,Hold,0
07:17:00.848 PM 02/16/2016,Teleop Enabled,0,FALSE,0,NO ERROR,0.000000,0.000000,-6000.000000,-6000.000000,Speed,Speed,-0.140000,0.890000,0.820000,1.000000,102.000000,1,0,-0.000000,0.000000,1,0.000000,0.000000,0.000000,-19.097626,40.987656,0.000000,-0.009000,-0.005000,0.010000,FlatInitial,Hold,0
07:17:00.948 PM 02/16/2016,Teleop Enabled,0,FALSE,0,NO ERROR,0.000000,0.000000,-6000.000000,-6000.000000,Speed,Speed,-0.140000,0.890000,0.830000,1.000000,101.000000,1,0,-0.000000,0.000000,1,0.000000,0.000000,0.000000,-19.097626,40.987656,0.000000,0.010000,-0.006000,-0.051000,FlatInitial,Hold,0
07:17:01.049 PM 02/16/2016,Teleop Enabled,0,FALSE,0,NO ERROR,0.000000,0.000000,-6000.000000,-6000.000000,Speed,Speed,-0.140000,0.900000,0.840000,1.000000,102.000000,1,0,-0.000000,0.000000,1,0.000000,0.000000,0.000000,-19.097626,40.987579,0.000000,0.014000,0.017000,-0.009000,FlatInitial,Hold,0
07:17:01.150 PM 02/16/2016,Teleop Enabled,0,FALSE,0,NO ERROR,0.000000,0.000000,-6000.000000,-6000.000000,Speed,Speed,-0.140000,0.910000,0.850000,1.000000,102.000000,1,0,-0.000000,0.000000,1,0.000000,-0.003677,0.000000,-19.097626,40.987549,0.000000,0.001000,-0.032000,0.016000,FlatInitial,Hold,0
07:17:01.250 PM 02/16/2016,Teleop Enabled,0,FALSE,0,NO ERROR,0.000000,0.000000,-6000.000000,-6000.000000,Speed,Speed,-0.140000,0.910000,0.860000,1.000000,101.000000,1,0,-0.000000,0.000000,1,0.000000,0.000000,0.000000,-19.097626,40.987473,0.000000,-0.013000,0.003000,0.047000,FlatInitial,Hold,0
07:17:01.351 PM 02/16/2016,Teleop Enabled,0,FALSE,0,NO ERROR,0.000000,0.000000,-6000.000000,-6000.000000,Speed,Speed,-0.140000,0.910000,0.850000,1.000000,101.000000,1,0,-0.000000,0.000000,1,0.000000,0.000000,0.000000,-19.097626,40.987473,0.000000,0.000000,-0.017000,-0.004000,FlatInitial,Hold,0
07:17:01.455 PM 02/16/2016,Teleop Enabled,0,FALSE,0,NO ERROR,0.000000,0.000000,-6000.000000,-6000.000000,Speed,Speed,-0.140000,0.910000,0.840000,1.000000,103.000000,1,0,-0.000000,0.000000,1,0.000000,0.000000,0.000000,-19.097626,40.987473,0.000000,-0.006000,0.000000,-0.020000,FlatInitial,Hold,0
07:17:01.556 PM 02/16/2016,Teleop Enabled,0,FALSE,0,NO ERROR,0.000000,0.000000,-6000.000000,-6000.000000,Speed,Speed,-0.140000,0.890000,0.840000,1.000000,101.000000,1,0,-0.000000,0.000000,1,0.000000,0.000000,0.000000,-19.097626,40.987473,0.000000,0.018000,0.008000,-0.008000,FlatInitial,Hold,0
07:17:01.656 PM 02/16/2016,Teleop Enabled,0,FALSE,0,NO ERROR,0.000000,0.000000,-6000.000000,-6000.000000,Speed,Speed,-0.140000,0.910000,0.850000,1.000000,102.000000,1,0,-0.000000,0.000000,1,0.000000,-0.003601,0.000000,-19.097626,40.987427,0.000000,0.002000,-0.032000,0.015000,FlatInitial,Hold,0
07:17:01.756 PM 02/16/2016,Teleop Enabled,0,FALSE,0,NO ERROR,0.000000,0.000000,-6000.000000,-6000.000000,Speed,Speed,-0.140000,0.920000,0.840000,1.000000,101.000000,1,0,-0.000000,0.000000,1,0.000000,0.000000,0.000000,-19.097626,40.987320,0.000000,-0.014000,0.005000,0.041000,FlatInitial,Hold,0
07:17:01.856 PM 02/16/2016,Teleop Enabled,0,FALSE,0,NO ERROR,0.000000,0.000000,-6000.000000,-6000.000000,Speed,Speed,-0.150000,0.910000,0.850000,1.000000,101.000000,1,0,-0.000000,0.000000,1,0.000000,0.000000,0.000000,-19.097626,40.987320,0.000000,0.009000,-0.009000,-0.004000,FlatInitial,Hold,0
07:17:01.956 PM 02/16/2016,Teleop Enabled,0,FALSE,0,NO ERROR,0.000000,0.000000,-6000.000000,-6000.000000,Speed,Speed,-0.150000,0.880000,0.840000,1.000000,101.000000,1,0,-0.000000,0.000000,1,0.000000,0.000000,0.000000,-19.097626,40.987320,0.000000,-0.005000,0.004000,-0.018000,FlatInitial,Hold,0
07:17:02.056 PM 02/16/2016,Teleop Enabled,0,FALSE,0,NO ERROR,0.000000,0.000000,-6000.000000,-6000.000000,Speed,Speed,-0.150000,0.880000,0.830000,1.000000,102.000000,1,0,-0.000000,0.000000,1,0.000000,0.000000,0.000000,-19.097626,40.987320,0.000000,-0.015000,0.003000,0.028000,FlatInitial,Hold,0
07:17:02.156 PM 02/16/2016,Teleop Enabled,0,FALSE,0,NO ERROR,0.000000,0.000000,-6000.000000,-6000.000000,Speed,Speed,-0.140000,0.900000,0.840000,1.000000,103.000000,1,0,-0.000000,0.000000,1,0.000000,-0.004211,0.000000,-19.097626,40.987244,0.000000,-0.004000,0.013000,-0.028000,FlatInitial,Hold,0
07:17:02.256 PM 02/16/2016,Teleop Enabled,0,FALSE,0,NO ERROR,0.000000,0.000000,-6000.000000,-6000.000000,Speed,Speed,-0.150000,0.900000,0.840000,1.000000,101.000000,1,0,-0.000000,0.000000,1,0.000000,0.000000,0.000000,-19.097626,40.987198,0.000000,-0.005000,0.004000,-0.015000,FlatInitial,Hold,0
07:17:02.356 PM 02/16/2016,Teleop Enabled,0,FALSE,0,NO ERROR,0.000000,0.000000,-6000.000000,-6000.000000,Speed,Speed,-0.150000,0.890000,0.850000,1.000000,102.000000,1,0,-0.000000,0.000000,1,0.000000,0.000000,0.000000,-19.097626,40.987198,0.000000,0.020000,0.007000,-0.010000,FlatInitial,Hold,0
07:17:02.457 PM 02/16/2016,Teleop Enabled,0,FALSE,0,NO ERROR,0.000000,0.000000,-6000.000000,-6000.000000,Speed,Speed,-0.150000,0.900000,0.840000,1.000000,101.000000,1,0,-0.000000,0.000000,1,0.000000,0.000000,0.000000,-19.097580,40.987198,0.000000,-0.018000,0.002000,0.043000,FlatInitial,Hold,0
07:17:02.558 PM 02/16/2016,Teleop Enabled,0,FALSE,0,NO ERROR,0.000000,0.000000,-6000.000000,-6000.000000,Speed,Speed,-0.150000,0.870000,0.840000,1.000000,102.000000,1,0,-0.000000,0.000000,1,0.000000,0.000000,0.000000,-19.097580,40.987198,0.000000,-0.001000,-0.004000,0.033000,FlatInitial,HighGoal,0
07:17:02.660 PM 02/16/2016,Teleop Enabled,0,FALSE,0,NO ERROR,0.000000,0.000000,-6000.000000,-6000.000000,Speed,Speed,-0.160000,0.890000,0.850000,1.000000,103.000000,1,0,-0.000000,0.000000,1,0.000000,0.000000,0.000000,-19.097580,40.987137,0.000000,0.000000,0.000000,0.015000,FlatInitial,Hold,0
07:17:02.761 PM 02/16/2016,Teleop Enabled,0,FALSE,0,NO ERROR,0.000000,0.000000,-6000.000000,-6000.000000,Speed,Speed,-0.170000,0.920000,0.770000,1.000000,103.000000,1,0,-0.000000,0.000000,1,0.000000,0.008301,0.000000,-19.097580,40.987350,0.000000,0.016000,-0.010000,-0.024000,FlatInitial,HighGoal,0
07:17:02.861 PM 02/16/2016,Teleop Enabled,0,FALSE,0,NO ERROR,0.000000,1.464844,-6000.000000,-6000.000000,Speed,Speed,-0.160000,0.850000,0.820000,1.000000,102.000000,1,0,-0.000000,0.000000,1,0.000000,-0.013260,0.000000,-19.097580,40.986755,0.000000,0.000000,0.022000,0.015000,FlatInitial,HighGoal,0
07:17:02.961 PM 02/16/2016,Teleop Enabled,0,FALSE,0,NO ERROR,0.000000,0.146484,-6000.000000,-6000.000000,Speed,Speed,-0.160000,0.900000,0.920000,1.000000,103.000000,1,0,-0.000000,0.000000,1,0.000000,0.011627,0.000000,-19.097580,40.986832,0.000000,0.009000,0.020000,-0.010000,FlatInitial,Hold,0
07:17:03.062 PM 02/16/2016,Teleop Enabled,0,FALSE,0,NO ERROR,0.000000,0.000000,-6000.000000,-6000.000000,Speed,Speed,-0.170000,0.860000,0.840000,1.000000,101.000000,1,0,-0.000000,0.000000,1,-0.010040,-0.012268,0.000000,-19.097794,40.986679,0.000000,0.019000,0.018000,-0.014000,FlatInitial,Hold,0
07:17:03.163 PM 02/16/2016,Teleop Enabled,0,FALSE,0,NO ERROR,0.000000,0.000000,-6000.000000,-6000.000000,Speed,Speed,-0.170000,0.860000,0.920000,1.000000,100.000000,1,0,-0.000000,0.000000,1,0.003922,0.000000,0.000000,-19.097565,40.986542,0.000000,-0.007000,-0.002000,0.011000,FlatInitial,Hold,0
07:17:03.263 PM 02/16/2016,Teleop Enabled,0,FALSE,0,NO ERROR,0.000000,0.000000,-6000.000000,-6000.000000,Speed,Speed,-0.160000,0.870000,0.950000,1.000000,100.000000,1,0,-0.000000,0.000000,1,0.000000,0.000000,0.000000,-19.097549,40.986542,0.000000,0.003000,0.001000,-0.004000,FlatInitial,Hold,0
07:17:03.363 PM 02/16/2016,Teleop Enabled,0,FALSE,0,NO ERROR,0.000000,0.000000,-6000.000000,-6000.000000,Speed,Speed,-0.160000,0.860000,0.930000,1.000000,101.000000,1,0,-0.000000,0.000000,1,0.000000,0.000000,0.000000,-19.097549,40.986542,0.000000,0.005000,-0.024000,-0.013000,FlatInitial,Hold,0
07:17:03.464 PM 02/16/2016,Teleop Enabled,0,FALSE,0,NO ERROR,0.000000,0.000000,-6000.000000,-6000.000000,Speed,Speed,-0.180000,0.810000,1.100000,1.000000,101.000000,1,0,-0.000000,0.000000,1,0.000000,-0.036331,0.000000,-19.097549,40.985580,0.000000,-0.016000,0.005000,0.090000,FlatInitial,Hold,0
07:17:03.564 PM 02/16/2016,Teleop Enabled,0,FALSE,0,NO ERROR,0.000000,0.000000,-6000.000000,-6000.000000,Speed,Speed,-0.100000,0.820000,0.890000,1.000000,100.000000,1,0,-0.000000,0.000000,1,-0.010254,0.004501,0.000000,-19.097702,40.984589,0.000000,-0.005000,0.049000,-0.012000,FlatInitial,Hold,0
07:17:03.665 PM 02/16/2016,Teleop Enabled,0,FALSE,0,NO ERROR,0.000000,0.000000,-6000.000000,-6000.000000,Speed,Speed,-0.200000,0.890000,1.180000,1.000000,101.000000,1,0,-0.000000,0.000000,1,0.012436,-0.003723,0.000000,-19.097290,40.985428,0.000000,-0.044000,-0.045000,0.023000,FlatInitial,Hold,0
07:17:03.765 PM 02/16/2016,Teleop Enabled,0,FALSE,0,NO ERROR,0.000000,0.000000,-6000.000000,-6000.000000,Speed,Speed,-0.170000,0.850000,0.920000,1.000000,102.000000,1,0,-0.000000,0.000000,1,0.000717,0.004501,0.000000,-19.097504,40.984024,0.000000,0.029000,0.060000,-0.030000,FlatInitial,Hold,0
07:17:03.867 PM 02/16/2016,Teleop Enabled,0,FALSE,0,NO ERROR,0.000000,0.000000,-6000.000000,-6000.000000,Speed,Speed,-0.200000,0.860000,0.930000,1.000000,101.000000,1,0,-0.000000,0.000000,1,-0.003403,0.005585,0.000000,-19.097504,40.984467,0.000000,-0.018000,-0.027000,-0.005000,FlatInitial,Hold,0
07:17:03.967 PM 02/16/2016,Teleop Enabled,0,FALSE,0,NO ERROR,0.000000,0.000000,-6000.000000,-6000.000000,Speed,Speed,-0.200000,0.850000,0.940000,1.000000,102.000000,1,0,-0.000000,0.000000,1,0.002869,0.008286,0.000000,-19.097565,40.984467,0.000000,0.001000,0.034000,-0.010000,FlatInitial,Hold,0
07:17:04.067 PM 02/16/2016,Teleop Enabled,0,FALSE,0,NO ERROR,0.000000,0.000000,-6000.000000,-6000.000000,Speed,Speed,-0.220000,0.870000,0.910000,1.000000,102.000000,1,0,-0.000000,0.000000,1,0.003845,0.009415,0.000000,-19.097458,40.985184,0.000000,0.002000,-0.010000,-0.008000,FlatInitial,Hold,0
07:17:04.167 PM 02/16/2016,Teleop Enabled,0,FALSE,0,NO ERROR,0.000000,0.000000,-6000.000000,-6000.000000,Speed,Speed,-0.200000,0.840000,0.930000,1.000000,103.000000,1,0,-0.000000,0.000000,1,0.000000,0.000000,0.000000,-19.097443,40.985184,0.000000,0.012000,-0.005000,0.020000,FlatInitial,Hold,0
07:17:04.267 PM 02/16/2016,Teleop Enabled,0,FALSE,0,NO ERROR,0.000000,0.000000,-6000.000000,-6000.000000,Speed,Speed,-0.210000,0.830000,0.930000,1.000000,102.000000,1,0,-0.000000,0.000000,1,0.000000,0.000000,0.000000,-19.097504,40.985184,0.000000,-0.009000,-0.013000,0.028000,FlatInitial,Hold,0
07:17:04.368 PM 02/16/2016,Teleop Enabled,0,FALSE,0,NO ERROR,0.000000,0.000000,-6000.000000,-6000.000000,Speed,Speed,-0.210000,0.850000,0.940000,1.000000,100.000000,1,0,-0.000000,0.000000,1,0.000000,0.003952,0.000000,-19.097504,40.985291,0.000000,-0.004000,0.016000,-0.010000,FlatInitial,Hold,0
07:17:04.468 PM 02/16/2016,Teleop Enabled,0,FALSE,0,NO ERROR,0.000000,0.000000,-6000.000000,-6000.000000,Speed,Speed,-0.210000,0.830000,0.920000,1.000000,101.000000,1,0,-0.000000,0.000000,1,0.000000,0.003189,0.000000,-19.097504,40.985229,0.000000,-0.003000,0.032000,-0.005000,FlatInitial,Hold,0
07:17:04.569 PM 02/16/2016,Teleop Enabled,0,FALSE,0,NO ERROR,0.000000,0.000000,-6000.000000,-6000.000000,Speed,Speed,-0.210000,0.850000,0.940000,1.000000,103.000000,1,0,-0.000000,0.000000,1,0.000000,0.000000,0.000000,-19.097504,40.985580,0.000000,0.011000,-0.018000,-0.006000,FlatInitial,Hold,0
07:17:04.669 PM 02/16/2016,Teleop Enabled,0,FALSE,0,NO ERROR,0.000000,0.000000,-6000.000000,-6000.000000,Speed,Speed,-0.210000,0.840000,0.930000,1.000000,103.000000,1,0,-0.000000,0.000000,1,0.000000,0.003906,0.000000,-19.097504,40.985626,0.000000,-0.005000,0.021000,0.020000,FlatInitial,Hold,0
07:17:04.769 PM 02/16/2016,Teleop Enabled,0,FALSE,0,NO ERROR,0.000000,0.000000,-6000.000000,-6000.000000,Speed,Speed,-0.210000,0.840000,0.930000,1.000000,101.000000,1,0,-0.000000,0.000000,1,0.000000,0.000000,0.000000,-19.097504,40.985886,0.000000,0.008000,-0.008000,0.008000,FlatInitial,Hold,0
07:17:04.870 PM 02/16/2016,Teleop Enabled,0,FALSE,0,NO ERROR,0.000000,0.000000,-6000.000000,-6000.000000,Speed,Speed,-0.210000,0.830000,0.930000,1.000000,103.000000,1,0,-0.000000,0.000000,1,0.000000,0.000000,0.000000,-19.097504,40.985886,0.000000,0.001000,-0.001000,-0.011000,FlatInitial,Hold,0
07:17:04.970 PM 02/16/2016,Teleop Enabled,0,FALSE,0,NO ERROR,0.000000,0.000000,-6000.000000,-6000.000000,Speed,Speed,-0.220000,0.840000,0.940000,1.000000,103.000000,1,0,-0.000000,0.000000,1,0.000000,0.000931,0.000000,-19.097504,40.985931,0.000000,0.003000,-0.034000,0.002000,FlatInitial,Hold,0
07:17:05.071 PM 02/16/2016,Teleop Enabled,0,FALSE,0,NO ERROR,0.000000,0.000000,-6000.000000,-6000.000000,Speed,Speed,-0.220000,0.840000,0.920000,1.000000,102.000000,1,0,-0.000000,0.000000,1,0.000000,0.002243,0.000000,-19.097504,40.985947,0.000000,0.010000,-0.018000,-0.009000,FlatInitial,Hold,0
07:17:05.171 PM 02/16/2016,Teleop Enabled,0,FALSE,0,NO ERROR,0.000000,0.000000,-6000.000000,-6000.000000,Speed,Speed,-0.220000,0.850000,0.940000,1.000000,102.000000,1,0,-0.000000,0.000000,1,0.000000,0.000000,0.000000,-19.097504,40.986130,0.000000,-0.001000,-0.003000,0.015000,FlatInitial,Hold,0
07:17:05.271 PM 02/16/2016,Teleop Enabled,0,FALSE,0,NO ERROR,0.000000,0.000000,-6000.000000,-6000.000000,Speed,Speed,-0.210000,0.840000,0.940000,1.000000,102.000000,1,0,-0.000000,0.000000,1,0.000000,0.006149,0.000000,-19.097504,40.986237,0.000000,-0.003000,0.013000,0.028000,FlatInitial,Hold,0
07:17:05.371 PM 02/16/2016,Teleop Enabled,0,FALSE,0,NO ERROR,0.000000,0.000000,-6000.000000,-6000.000000,Speed,Speed,-0.210000,0.830000,0.930000,1.000000,101.000000,1,0,-0.000000,0.000000,1,0.000000,0.000000,0.000000,-19.097504,40.986237,0.000000,-0.010000,0.004000,0.001000,FlatInitial,BumperShot,0
07:17:05.471 PM 02/16/2016,Teleop Enabled,0,FALSE,0,NO ERROR,0.000000,0.000000,-6000.000000,-6000.000000,Speed,Speed,-0.210000,0.860000,0.880000,1.000000,102.000000,1,0,-0.000000,0.000000,1,0.000000,0.016571,0.000000,-19.097504,40.986557,0.000000,-0.010000,0.021000,0.024000,FlatInitial,Hold,0
07:17:05.571 PM 02/16/2016,Teleop Enabled,0,FALSE,0,NO ERROR,0.000000,0.000000,-6000.000000,-6000.000000,Speed,Speed,-0.200000,0.840000,0.940000,1.000000,101.000000,1,0,-0.000000,0.000000,1,0.000000,0.004257,0.000000,-19.097504,40.987289,0.000000,-0.002000,-0.023000,0.008000,FlatInitial,Hold,0
07:17:05.671 PM 02/16/2016,Teleop Enabled,0,FALSE,0,NO ERROR,0.000000,0.000000,-6000.000000,-6000.000000,Speed,Speed,-0.210000,0.850000,0.940000,1.000000,101.000000,1,0,-0.000000,0.000000,1,0.000000,0.004105,0.000000,-19.097504,40.987244,0.000000,0.010000,0.024000,-0.003000,FlatInitial,Hold,0
07:17:05.771 PM 02/16/2016,Teleop Enabled,0,FALSE,0,NO ERROR,0.000000,0.000000,-6000.000000,-6000.000000,Speed,Speed,-0.190000,0.820000,0.940000,1.000000,101.000000,1,0,-0.000000,0.000000,1,0.000000,-0.001968,0.000000,-19.097504,40.987503,0.000000,0.015000,-0.001000,-0.004000,FlatInitial,Hold,0
07:17:05.871 PM 02/16/2016,Teleop Enabled,0,FALSE,0,NO ERROR,0.000000,0.000000,-6000.000000,-6000.000000,Speed,Speed,-0.200000,0.790000,1.120000,1.000000,102.000000,1,0,-0.000000,0.000000,1,-0.005234,-0.021301,0.000000,-19.097549,40.986877,0.000000,-0.044000,0.021000,0.039000,FlatInitial,Hold,0
07:17:05.971 PM 02/16/2016,Teleop Enabled,0,FALSE,0,NO ERROR,0.000000,0.000000,-6000.000000,-6000.000000,Speed,Speed,-0.140000,0.760000,1.100000,1.000000,101.000000,1,0,-0.000000,0.000000,1,-0.016418,0.002762,0.000000,-19.098389,40.986633,0.000000,0.020000,0.040000,0.014000,FlatInitial,Hold,1
07:17:06.071 PM 02/16/2016,Teleop Enabled,0,FALSE,0,NO ERROR,0.000000,0.000000,-6000.000000,-6000.000000,Speed,Speed,-0.180000,0.750000,1.250000,1.000000,101.000000,1,0,-0.000000,0.000000,1,-0.023010,0.000000,0.000000,-19.099136,40.987610,0.000000,-0.018000,0.010000,0.013000,FlatInitial,Hold,0
07:17:06.172 PM 02/16/2016,Teleop Enabled,0,FALSE,0,NO ERROR,0.000000,0.000000,-6000.000000,-6000.000000,Speed,Speed,-0.170000,0.800000,1.240000,1.000000,102.000000,1,0,-0.000000,0.000000,1,0.000000,0.004654,0.000000,-19.099136,40.988083,0.000000,-0.009000,0.006000,-0.010000,FlatInitial,Hold,0
07:17:06.272 PM 02/16/2016,Teleop Enabled,0,FALSE,0,NO ERROR,0.000000,0.000000,-6000.000000,-6000.000000,Speed,Speed,-0.210000,0.830000,1.150000,1.000000,101.000000,1,0,-0.000000,0.000000,1,-0.009735,0.071030,0.000000,-19.099350,40.990128,0.000000,-0.010000,0.080000,-0.009000,FlatInitial,Hold,0
07:17:06.372 PM 02/16/2016,Teleop Enabled,0,FALSE,0,NO ERROR,0.000000,0.000000,-6000.000000,-6000.000000,Speed,Speed,-0.210000,0.830000,1.200000,1.000000,101.000000,1,0,-0.000000,0.000000,1,0.000000,0.014252,0.000000,-19.098938,40.992493,0.000000,0.001000,-0.107000,0.031000,FlatInitial,Hold,0
07:17:06.472 PM 02/16/2016,Teleop Enabled,0,FALSE,0,NO ERROR,0.000000,0.000000,-6000.000000,-6000.000000,Speed,Speed,-0.190000,0.700000,1.090000,1.000000,103.000000,1,0,-0.000000,0.000000,1,0.003311,-0.015518,0.000000,-19.099350,40.991959,0.000000,0.024000,-0.009000,0.049000,FlatInitial,Hold,0
07:17:06.572 PM 02/16/2016,Teleop Enabled,0,FALSE,0,NO ERROR,0.000000,0.000000,-6000.000000,-6000.000000,Speed,Speed,-0.250000,0.820000,1.110000,1.000000,102.000000,1,0,-0.000000,0.000000,1,-0.002045,0.038315,0.000000,-19.099167,40.992554,0.000000,-0.008000,0.058000,0.005000,FlatInitial,Hold,0
07:17:06.673 PM 02/16/2016,Teleop Enabled,0,FALSE,0,NO ERROR,0.000000,0.000000,-6000.000000,-6000.000000,Speed,Speed,-0.220000,0.760000,1.260000,1.000000,102.000000,1,0,-0.000000,0.000000,1,0.000000,0.019531,0.000000,-19.098969,40.994385,0.000000,-0.003000,-0.037000,0.007000,FlatInitial,Hold,0
07:17:06.773 PM 02/16/2016,Teleop Enabled,0,FALSE,0,NO ERROR,0.000000,0.000000,-6000.000000,-6000.000000,Speed,Speed,-0.230000,0.820000,1.100000,1.000000,102.000000,1,0,-0.000000,0.000000,1,0.010345,0.022537,0.000000,-19.098770,40.995270,0.000000,0.008000,0.004000,0.000000,FlatInitial,Hold,0
07:17:06.873 PM 02/16/2016,Teleop Enabled,0,FALSE,0,NO ERROR,0.000000,0.000000,-6000.000000,-6000.000000,Speed,Speed,-0.230000,0.800000,1.120000,1.000000,101.000000,1,0,-0.000000,0.000000,1,-0.004013,-0.011047,0.000000,-19.098862,40.995087,0.000000,0.000000,-0.023000,0.008000,FlatInitial,Hold,0
07:17:06.973 PM 02/16/2016,Teleop Enabled,0,FALSE,0,NO ERROR,0.000000,0.000000,-6000.000000,-6000.000000,Speed,Speed,-0.240000,0.780000,1.100000,1.000000,101.000000,1,0,-0.000000,0.000000,1,0.000000,-0.030624,0.000000,-19.098862,40.994019,0.000000,-0.008000,0.014000,0.008000,FlatInitial,Hold,0
07:17:07.073 PM 02/16/2016,Teleop Enabled,0,FALSE,0,NO ERROR,0.000000,0.000000,-6000.000000,-6000.000000,Speed,Speed,-0.230000,0.800000,1.140000,1.000000,100.000000,1,0,-0.000000,0.000000,1,0.007263,-0.007004,0.000000,-19.098755,40.993256,0.000000,0.013000,-0.049000,-0.006000,FlatInitial,Hold,0
07:17:07.174 PM 02/16/2016,Teleop Enabled,0,FALSE,0,NO ERROR,0.000000,0.000000,-6000.000000,-6000.000000,Speed,Speed,-0.240000,0.770000,1.170000,1.000000,102.000000,1,0,-0.000000,0.000000,1,0.000000,-0.002335,0.000000,-19.098663,40.992737,0.000000,0.010000,0.054000,0.001000,FlatInitial,Hold,0
07:17:07.274 PM 02/16/2016,Teleop Enabled,0,FALSE,0,NO ERROR,0.000000,0.000000,-6000.000000,-6000.000000,Speed,Speed,-0.240000,0.830000,1.020000,1.000000,103.000000,1,0,-0.000000,0.000000,1,-0.002701,-0.018478,0.000000,-19.098694,40.992325,0.000000,0.009000,-0.044000,-0.004000,FlatInitial,Hold,0
07:17:07.376 PM 02/16/2016,Teleop Enabled,0,FALSE,0,NO ERROR,0.000000,0.000000,-6000.000000,-6000.000000,Speed,Speed,-0.230000,0.800000,1.080000,1.000000,101.000000,1,0,-0.000000,0.000000,1,0.000000,0.000000,0.000000,-19.098724,40.991699,0.000000,0.007000,0.023000,0.012000,FlatInitial,Hold,0
07:17:07.476 PM 02/16/2016,Teleop Enabled,0,FALSE,0,NO ERROR,0.000000,0.000000,-6000.000000,-6000.000000,Speed,Speed,-0.240000,0.820000,1.080000,1.000000,101.000000,1,0,-0.000000,0.000000,1,0.000000,-0.002518,0.000000,-19.098724,40.991959,0.000000,0.017000,-0.023000,-0.027000,FlatInitial,Hold,0
07:17:07.577 PM 02/16/2016,Teleop Enabled,0,FALSE,0,NO ERROR,0.000000,0.000000,-6000.000000,-6000.000000,Speed,Speed,-0.240000,0.820000,1.040000,1.000000,103.000000,1,0,-0.000000,0.000000,1,0.000000,-0.019943,0.000000,-19.098724,40.991135,0.000000,-0.006000,0.006000,0.018000,FlatInitial,Hold,0
07:17:07.677 PM 02/16/2016,Teleop Enabled,0,FALSE,0,NO ERROR,0.000000,0.000000,-6000.000000,-6000.000000,Speed,Speed,-0.250000,0.810000,1.060000,1.000000,102.000000,1,0,-0.000000,0.000000,1,0.000000,0.008881,0.000000,-19.098724,40.991180,0.000000,-0.002000,0.000000,0.013000,FlatInitial,Hold,0
07:17:07.778 PM 02/16/2016,Teleop Enabled,0,FALSE,0,NO ERROR,0.000000,0.000000,-6000.000000,-6000.000000,Speed,Speed,-0.240000,0.810000,1.050000,1.000000,102.000000,1,0,-0.000000,0.000000,1,0.000000,-0.008987,0.000000,-19.098633,40.991028,0.000000,-0.013000,0.020000,0.004000,FlatInitial,Hold,0
07:17:07.879 PM 02/16/2016,Teleop Enabled,0,FALSE,0,NO ERROR,0.000000,0.000000,-6000.000000,-6000.000000,Speed,Speed,-0.250000,0.810000,1.070000,1.000000,104.000000,1,0,-0.000000,0.000000,1,0.000000,0.011246,0.000000,-19.098633,40.990875,0.000000,-0.013000,0.020000,0.004000,FlatInitial,Hold,0
07:17:07.978 PM 02/16/2016,Teleop Enabled,0,FALSE,0,NO ERROR,0.000000,0.000000,-6000.000000,-6000.000000,Speed,Speed,-0.250000,0.820000,1.080000,1.000000,102.000000,1,0,-0.000000,0.000000,1,0.000000,0.000000,0.000000,-19.098633,40.991379,0.000000,-0.001000,0.001000,0.001000,FlatInitial,Hold,0
07:17:08.078 PM 02/16/2016,Teleop Enabled,0,FALSE,0,NO ERROR,0.000000,0.000000,-6000.000000,-6000.000000,Speed,Speed,-0.250000,0.820000,1.070000,1.000000,102.000000,1,0,-0.000000,0.000000,1,0.000000,-0.010849,0.000000,-19.098633,40.990997,0.000000,0.007000,-0.014000,0.022000,FlatInitial,Hold,0
07:17:08.182 PM 02/16/2016,Teleop Enabled,0,FALSE,0,NO ERROR,0.000000,0.000000,-6000.000000,-6000.000000,Speed,Speed,-0.250000,0.820000,1.060000,1.000000,104.000000,1,0,-0.000000,0.000000,1,0.000000,0.012390,0.000000,-19.098633,40.991333,0.000000,0.007000,0.005000,0.000000,FlatInitial,Hold,0
07:17:08.282 PM 02/16/2016,Teleop Enabled,0,FALSE,0,NO ERROR,0.000000,0.000000,-6000.000000,-6000.000000,Speed,Speed,-0.250000,0.820000,1.070000,1.000000,101.000000,1,0,-0.000000,0.000000,1,0.000000,-0.011627,0.000000,-19.098633,40.991257,0.000000,0.007000,0.005000,0.000000,FlatInitial,LowGoal,0
07:17:08.382 PM 02/16/2016,Teleop Enabled,0,FALSE,0,NO ERROR,0.000000,0.000000,-6000.000000,-6000.000000,Speed,Speed,-0.250000,0.790000,1.110000,1.000000,101.000000,1,0,-0.000000,0.000000,1,0.004852,-0.030930,0.000000,-19.098572,40.989990,0.000000,0.003000,0.011000,0.007000,FlatInitial,Hold,0
07:17:08.483 PM 02/16/2016,Teleop Enabled,0,FALSE,0,NO ERROR,0.000000,3.515625,-6000.000000,-6000.000000,Speed,Speed,-0.220000,0.760000,1.110000,1.000000,104.000000,1,0,-0.000000,0.000000,1,-0.005524,0.000000,0.000000,-19.098618,40.989655,0.000000,0.022000,0.005000,0.011000,FlatInitial,LowGoal,0
07:17:08.583 PM 02/16/2016,Teleop Enabled,0,FALSE,0,NO ERROR,0.000000,0.292969,-6000.000000,-6000.000000,Speed,Speed,-0.190000,0.840000,0.980000,1.000000,102.000000,1,0,-0.000000,0.000000,1,-0.015244,0.049164,0.000000,-19.098877,40.990738,0.000000,0.022000,0.005000,0.011000,FlatInitial,Hold,0
07:17:08.683 PM 02/16/2016,Teleop Enabled,0,FALSE,0,NO ERROR,0.000000,0.000000,-6000.000000,-6000.000000,Speed,Speed,-0.250000,0.910000,1.180000,1.000000,102.000000,1,0,-0.000000,0.000000,1,0.012192,0.054764,0.000000,-19.098969,40.993332,0.000000,-0.035000,0.072000,0.004000,FlatInitial,Hold,0
07:17:08.784 PM 02/16/2016,Teleop Enabled,0,FALSE,0,NO ERROR,0.000000,0.000000,-6000.000000,-6000.000000,Speed,Speed,-0.250000,0.820000,0.900000,1.000000,104.000000,1,0,-0.000000,0.000000,1,0.012192,0.054764,0.000000,-19.098969,40.993332,0.000000,-0.034000,-0.044000,0.014000,FlatInitial,Hold,0
07:17:08.884 PM 02/16/2016,Teleop Enabled,0,FALSE,0,NO ERROR,0.000000,0.000000,-6000.000000,-6000.000000,Speed,Speed,-0.250000,0.900000,0.900000,1.000000,100.000000,1,0,-0.000000,0.000000,1,0.004807,-0.004059,0.000000,-19.098984,40.995010,0.000000,-0.035000,-0.025000,-0.018000,FlatInitial,Hold,0
07:17:08.985 PM 02/16/2016,Teleop Enabled,0,FALSE,0,NO ERROR,0.000000,0.000000,-6000.000000,-6000.000000,Speed,Speed,-0.210000,0.870000,0.900000,1.000000,102.000000,1,0,-0.000000,0.000000,1,0.002823,0.000000,0.000000,-19.099335,40.994797,0.000000,-0.035000,-0.025000,-0.018000,FlatInitial,Hold,0
07:17:09.085 PM 02/16/2016,Teleop Enabled,0,FALSE,0,NO ERROR,0.000000,0.000000,-6000.000000,-6000.000000,Speed,Speed,-0.210000,0.860000,0.810000,1.000000,101.000000,1,0,-0.000000,0.000000,1,0.000000,0.000000,0.000000,-19.099365,40.994980,0.000000,0.000000,-0.003000,0.108000,FlatInitial,Hold,0
07:17:09.185 PM 02/16/2016,Teleop Enabled,0,FALSE,0,NO ERROR,0.000000,-6.298828,-6000.000000,-6000.000000,Speed,Speed,-0.310000,1.000000,0.660000,1.000000,101.000000,1,0,-0.000000,0.000000,1,0.018906,-0.021408,0.000000,-19.098999,40.994614,0.000000,-0.022000,-0.041000,0.079000,FlatInitial,Hold,0
07:17:09.293 PM 02/16/2016,Teleop Enabled,0,FALSE,0,NO ERROR,0.000000,-2.490234,-6000.000000,-6000.000000,Speed,Speed,-0.290000,0.810000,0.840000,1.000000,103.000000,1,0,-0.000000,0.000000,1,-0.007095,-0.041367,0.000000,-19.098648,40.992111,0.000000,-0.001000,0.050000,-0.015000,FlatInitial,Hold,0
07:17:09.391 PM 02/16/2016,Teleop Enabled,0,FALSE,0,NO ERROR,0.000000,0.000000,-6000.000000,-6000.000000,Speed,Speed,-0.180000,0.960000,0.880000,1.000000,101.000000,1,0,-0.000000,0.000000,1,0.030640,0.000000,0.000000,-19.098053,40.991302,0.000000,-0.032000,-0.023000,0.017000,FlatInitial,Hold,0
07:17:09.493 PM 02/16/2016,Teleop Enabled,0,FALSE,0,NO ERROR,0.000000,0.000000,-6000.000000,-6000.000000,Speed,Speed,-0.280000,0.920000,0.980000,1.000000,103.000000,1,0,-0.000000,0.000000,1,0.019562,0.000000,0.000000,-19.096893,40.991440,0.000000,-0.032000,-0.023000,0.017000,FlatInitial,Hold,0
07:17:09.593 PM 02/16/2016,Teleop Enabled,0,FALSE,0,NO ERROR,0.000000,0.000000,-6000.000000,-6000.000000,Speed,Speed,-0.290000,0.890000,0.890000,1.000000,100.000000,1,0,-0.000000,0.000000,1,0.000000,-0.009842,0.000000,-19.096695,40.991287,0.000000,-0.017000,-0.013000,0.005000,FlatInitial,Hold,0
07:17:09.695 PM 02/16/2016,Teleop Enabled,0,FALSE,0,NO ERROR,0.000000,0.000000,-6000.000000,-6000.000000,Speed,Speed,-0.290000,0.890000,0.880000,1.000000,101.000000,1,0,-0.000000,0.000000,1,0.000000,-0.002731,0.000000,-19.096695,40.991165,0.000000,-0.016000,-0.023000,-0.013000,FlatInitial,Hold,0
07:17:09.795 PM 02/16/2016,Teleop Enabled,0,FALSE,0,NO ERROR,0.000000,0.000000,-6000.000000,-6000.000000,Speed,Speed,-0.280000,0.890000,0.890000,1.000000,102.000000,1,0,-0.000000,0.000000,1,0.000000,0.000000,0.000000,-19.096695,40.991028,0.000000,0.009000,0.016000,0.002000,FlatInitial,Hold,0
07:17:09.896 PM 02/16/2016,Teleop Enabled,0,FALSE,0,NO ERROR,0.000000,0.000000,-6000.000000,-6000.000000,Speed,Speed,-0.280000,0.880000,0.910000,1.000000,101.000000,1,0,-0.000000,0.000000,1,-0.004700,0.000000,0.000000,-19.096832,40.991211,0.000000,0.014000,-0.017000,0.021000,FlatInitial,Hold,0
07:17:09.996 PM 02/16/2016,Teleop Enabled,0,FALSE,0,NO ERROR,0.000000,0.000000,-6000.000000,-6000.000000,Speed,Speed,-0.310000,0.870000,0.890000,1.000000,101.000000,1,0,-0.000000,0.000000,1,0.000000,0.000000,0.000000,-19.096832,40.991211,0.000000,0.014000,-0.017000,0.021000,FlatInitial,Hold,0
07:17:10.097 PM 02/16/2016,Teleop Enabled,0,FALSE,0,NO ERROR,0.000000,0.000000,-6000.000000,-6000.000000,Speed,Speed,-0.290000,0.860000,0.890000,1.000000,103.000000,1,0,-0.000000,0.000000,1,0.000000,0.000000,0.000000,-19.096832,40.991211,0.000000,0.003000,0.004000,-0.019000,FlatInitial,Hold,0
07:17:10.198 PM 02/16/2016,Teleop Enabled,0,FALSE,0,NO ERROR,0.000000,0.000000,-6000.000000,-6000.000000,Speed,Speed,-0.290000,0.840000,0.890000,1.000000,101.000000,1,0,-0.000000,0.000000,1,0.000000,0.001160,0.000000,-19.096832,40.991226,0.000000,0.019000,0.020000,0.000000,FlatInitial,Hold,0
07:17:10.298 PM 02/16/2016,Teleop Enabled,0,FALSE,0,NO ERROR,0.000000,0.000000,-6000.000000,-6000.000000,Speed,Speed,-0.300000,0.840000,0.870000,1.000000,101.000000,1,0,-0.000000,0.000000,1,0.000000,0.000000,0.000000,-19.096832,40.991272,0.000000,0.009000,-0.014000,0.005000,FlatInitial,Hold,0
07:17:10.404 PM 02/16/2016,Teleop Enabled,0,FALSE,0,NO ERROR,0.000000,0.000000,-6000.000000,-6000.000000,Speed,Speed,-0.290000,0.830000,0.870000,1.000000,101.000000,1,0,-0.000000,0.000000,1,0.000000,0.000000,0.000000,-19.096832,40.991272,0.000000,0.013000,0.003000,0.002000,FlatInitial,Hold,0
07:17:10.507 PM 02/16/2016,Teleop Enabled,0,FALSE,0,NO ERROR,0.000000,0.000000,-6000.000000,-6000.000000,Speed,Speed,-0.290000,0.810000,0.880000,1.000000,101.000000,1,0,-0.000000,0.000000,1,0.000000,0.000000,0.000000,-19.096832,40.991272,0.000000,-0.009000,0.005000,-0.010000,FlatInitial,Hold,0
07:17:10.608 PM 02/16/2016,Teleop Enabled,0,FALSE,0,NO ERROR,0.000000,0.000000,-6000.000000,-6000.000000,Speed,Speed,-0.300000,0.790000,0.880000,1.000000,101.000000,1,0,-0.000000,0.000000,1,0.000000,0.000000,0.000000,-19.096832,40.991272,0.000000,0.000000,-0.011000,-0.019000,FlatInitial,Hold,0
07:17:10.708 PM 02/16/2016,Teleop Enabled,0,FALSE,0,NO ERROR,0.000000,0.000000,-6000.000000,-6000.000000,Speed,Speed,-0.300000,0.780000,0.880000,1.000000,101.000000,1,0,-0.000000,0.000000,1,0.000000,0.000000,0.000000,-19.096832,40.991272,0.000000,-0.009000,0.008000,-0.020000,FlatInitial,Hold,0
07:17:10.808 PM 02/16/2016,Teleop Enabled,0,FALSE,0,NO ERROR,0.000000,0.000000,-6000.000000,-6000.000000,Speed,Speed,-0.300000,0.780000,0.860000,1.000000,102.000000,1,0,-0.000000,0.000000,1,0.000000,0.000000,0.000000,-19.096832,40.991272,0.000000,-0.006000,0.013000,-0.029000,FlatInitial,Hold,0
