Time,RobotMode,AutoToRun,ErrorStatus, ErrorCode,ErrorSource,ActualRPM1,ActualRPM2,DesiredRPM1,DesiredRPM2,ControlMode1,ControlMode2,NavXYaw,NavXRoll,NavXPitch,ShooterState,LoopTime,IsLevel,IsAutoTargeting,LeftMotorOutput,RightMotorOutput,IsHaloDrive,NavXVelocityX,NavXVelocityY,NavXVelocityZ,NavXDisplacementX,NavXDisplacementY,NavXDisplacementZ,NavXAccelerationX,NavXAccelerationY,NavXAccelerationZ,AutoDefendState,AngeMotorState,Photoeye
08:09:40.339 PM 02/17/2016,Teleop Enabled,0,TRUE,91,Variant To Data in WPI_DigitalInputRefNum Registry Get.vi->Periodic Tasks.vi->Robot Main.vi,-144.287109,45.263672,-6000.000000,-6000.000000,Speed,Speed,-0.040000,0.800000,1.830000,1.000000,102.000000,1,0,-0.000000,0.000000,1,0.000000,0.000000,0.000000,29.187393,-9.242157,0.000000,-0.002000,0.009000,0.000000,FlatInitial,ResetBack,0
08:09:40.442 PM 02/17/2016,Teleop Enabled,0,TRUE,-44007,<LOCATION>WPI_DigitalInputRefNum Registry Get.vi<CALLSTACK>WPI_DigitalInputRefNum Registry Get.vi< <Periodic Tasks.vi< <Robot Main.vi,-1724.560547,1327.734375,-6000.000000,-6000.000000,Speed,Speed,-0.110000,0.820000,1.560000,1.000000,101.000000,1,0,-0.000000,0.000000,1,0.000000,-0.004501,0.000000,29.187393,-9.242218,0.000000,-0.010000,-0.009000,-0.014000,FlatInitial,ResetBack,0
08:09:40.544 PM 02/17/2016,Teleop Enabled,0,FALSE,0,NO ERROR,-3509.326172,3197.607422,-6000.000000,-6000.000000,Speed,Speed,-0.260000,0.800000,1.540000,1.000000,104.000000,1,0,-0.000000,0.000000,1,0.006668,0.016663,0.000000,29.186874,-9.241409,0.000000,0.060000,-0.023000,0.019000,FlatInitial,ResetBack,0
08:09:40.642 PM 02/17/2016,Teleop Enabled,0,FALSE,0,NO ERROR,-4923.046875,4743.896484,-6000.000000,-6000.000000,Speed,Speed,-0.260000,0.810000,1.380000,1.000000,101.000000,1,0,-0.000000,0.000000,1,0.001480,0.000000,0.000000,29.187073,-9.241226,0.000000,0.003000,-0.009000,-0.115000,FlatInitial,ResetBack,0
08:09:40.743 PM 02/17/2016,Teleop Enabled,0,FALSE,0,NO ERROR,-5633.789062,5586.914062,-6000.000000,-6000.000000,Speed,Speed,-0.250000,0.860000,1.290000,1.000000,103.000000,1,0,-0.000000,0.000000,1,-0.005127,-0.007278,0.000000,29.187149,-9.240875,0.000000,0.037000,-0.087000,0.038000,FlatInitial,ResetBack,0
08:09:40.847 PM 02/17/2016,Teleop Enabled,0,FALSE,0,NO ERROR,-6003.515625,6024.023438,-6000.000000,-6000.000000,Speed,Speed,-0.240000,0.870000,1.270000,1.000000,102.000000,1,0,-0.000000,0.000000,1,-0.010483,0.000000,0.000000,29.187195,-9.242645,0.000000,-0.044000,0.007000,-0.202000,FlatInitial,ResetBack,0
08:09:40.950 PM 02/17/2016,Teleop Enabled,0,FALSE,0,NO ERROR,-6083.789062,6048.632812,-6000.000000,-6000.000000,Speed,Speed,-0.240000,0.920000,1.280000,1.000000,103.000000,1,0,-0.000000,0.000000,1,-0.078354,0.030777,0.000000,29.184158,-9.241501,0.000000,-0.033000,0.031000,-0.158000,FlatInitial,ResetBack,0
08:09:41.050 PM 02/17/2016,Teleop Enabled,0,FALSE,0,NO ERROR,-6070.898438,6012.890625,-6000.000000,-6000.000000,Speed,Speed,-0.230000,0.960000,1.170000,1.000000,102.000000,1,0,-0.000000,0.000000,1,-0.160919,0.061340,0.000000,29.178024,-9.239319,0.000000,-0.092000,0.096000,-0.088000,FlatInitial,ResetBack,0
08:09:41.153 PM 02/17/2016,Teleop Enabled,0,FALSE,0,NO ERROR,-6039.257812,5991.210938,-6000.000000,-6000.000000,Speed,Speed,-0.250000,0.910000,1.320000,1.000000,100.000000,1,0,-0.000000,0.000000,1,-0.240158,0.097336,0.000000,29.169601,-9.235733,0.000000,-0.079000,0.038000,-0.065000,FlatInitial,ResetBack,0
08:09:41.253 PM 02/17/2016,Teleop Enabled,0,FALSE,0,NO ERROR,-6022.265625,5991.210938,-6000.000000,-6000.000000,Speed,Speed,-0.250000,0.900000,1.370000,1.000000,104.000000,1,0,-0.000000,0.000000,1,-0.345322,0.149002,0.000000,29.151535,-9.228241,0.000000,-0.106000,-0.009000,0.000000,FlatInitial,ResetBack,0
08:09:41.353 PM 02/17/2016,Teleop Enabled,0,FALSE,0,NO ERROR,-6017.578125,5984.765625,-6000.000000,-6000.000000,Speed,Speed,-0.250000,0.910000,1.390000,1.000000,101.000000,1,0,-0.000000,0.000000,1,-0.396423,0.003250,0.000000,29.136276,-9.226685,0.000000,-0.041000,0.049000,-0.015000,FlatInitial,ResetBack,0
08:09:41.454 PM 02/17/2016,Teleop Enabled,0,FALSE,0,NO ERROR,-6012.304688,5988.867188,-6000.000000,-6000.000000,Speed,Speed,-0.250000,0.910000,1.420000,1.000000,101.000000,1,0,-0.000000,0.000000,1,-0.438553,0.000000,0.000000,29.115082,-9.226028,0.000000,-0.043000,-0.009000,0.082000,FlatInitial,ResetBack,0
08:09:41.556 PM 02/17/2016,Teleop Enabled,0,FALSE,0,NO ERROR,-6011.718750,5990.625000,-6000.000000,-6000.000000,Speed,Speed,-0.240000,0.960000,1.240000,1.000000,102.000000,1,0,-0.000000,0.000000,1,0.000000,-0.010666,0.000000,29.097107,-9.226242,0.000000,-0.003000,-0.037000,0.084000,FlatInitial,ResetBack,0
08:09:41.657 PM 02/17/2016,Teleop Enabled,0,FALSE,0,NO ERROR,-6011.132812,5997.070312,-6000.000000,-6000.000000,Speed,Speed,-0.250000,1.000000,1.100000,1.000000,101.000000,1,0,-0.000000,0.000000,1,0.000000,-0.033768,0.000000,29.097107,-9.227417,0.000000,0.001000,-0.044000,0.086000,FlatInitial,ResetBack,0
08:09:41.762 PM 02/17/2016,Teleop Enabled,0,FALSE,0,NO ERROR,-6007.031250,6001.757812,-6000.000000,-6000.000000,Speed,Speed,-0.250000,1.040000,0.990000,1.000000,101.000000,1,0,-0.000000,0.000000,1,0.000000,-0.054932,0.000000,29.097107,-9.229568,0.000000,0.019000,-0.062000,0.098000,FlatInitial,ResetBack,0
08:09:41.866 PM 02/17/2016,Teleop Enabled,0,FALSE,0,NO ERROR,-6002.929688,6007.031250,-6000.000000,-6000.000000,Speed,Speed,-0.240000,1.090000,0.750000,1.000000,101.000000,1,0,-0.000000,0.000000,1,0.000000,-0.110550,0.000000,29.097107,-9.234070,0.000000,-0.018000,-0.036000,0.094000,FlatInitial,ResetBack,0
08:09:41.965 PM 02/17/2016,Teleop Enabled,0,FALSE,0,NO ERROR,-6004.101562,6013.476562,-6000.000000,-6000.000000,Speed,Speed,-0.240000,1.140000,0.560000,1.000000,102.000000,1,0,-0.000000,0.000000,1,-0.001541,-0.185516,0.000000,29.097092,-9.244476,0.000000,-0.006000,-0.048000,0.022000,FlatInitial,ResetBack,0
08:09:42.066 PM 02/17/2016,Teleop Enabled,0,FALSE,0,NO ERROR,-6005.859375,6011.132812,-6000.000000,-6000.000000,Speed,Speed,-0.240000,1.150000,0.400000,1.000000,103.000000,1,0,-0.000000,0.000000,1,-0.014389,-0.217987,0.000000,29.096725,-9.252823,0.000000,-0.015000,-0.035000,0.034000,FlatInitial,ResetBack,0
08:09:42.169 PM 02/17/2016,Teleop Enabled,0,FALSE,0,NO ERROR,-6007.031250,6009.960938,-6000.000000,-6000.000000,Speed,Speed,-0.240000,1.150000,0.180000,1.000000,102.000000,1,0,-0.000000,0.000000,1,-0.004074,-0.243347,0.000000,29.096527,-9.262192,0.000000,0.013000,-0.048000,0.039000,FlatInitial,ResetBack,0
08:09:42.268 PM 02/17/2016,Teleop Enabled,0,FALSE,0,NO ERROR,-6006.445312,6008.203125,-6000.000000,-6000.000000,Speed,Speed,-0.240000,1.160000,0.010000,1.000000,101.000000,1,0,-0.000000,0.000000,1,-0.004074,-0.243347,0.000000,29.096527,-9.262192,0.000000,0.013000,-0.048000,0.039000,FlatInitial,ResetBack,0
08:09:42.368 PM 02/17/2016,Teleop Enabled,0,FALSE,0,NO ERROR,-6010.546875,6011.132812,-6000.000000,-6000.000000,Speed,Speed,-0.240000,1.140000,-0.070000,1.000000,101.000000,1,0,-0.000000,0.000000,1,0.000000,0.000000,0.000000,29.096466,-9.290192,0.000000,0.012000,0.005000,0.098000,FlatInitial,ResetBack,0
08:09:42.469 PM 02/17/2016,Teleop Enabled,0,FALSE,0,NO ERROR,-6007.031250,6008.789062,-6000.000000,-6000.000000,Speed,Speed,-0.230000,1.110000,-0.140000,1.000000,101.000000,1,0,-0.000000,0.000000,1,0.000000,0.004837,0.000000,29.096466,-9.290359,0.000000,-0.010000,0.041000,0.056000,FlatInitial,ResetBack,0
08:09:42.569 PM 02/17/2016,Teleop Enabled,0,FALSE,0,NO ERROR,-6007.031250,6005.859375,-6000.000000,-6000.000000,Speed,Speed,-0.230000,1.070000,-0.110000,1.000000,102.000000,1,0,-0.000000,0.000000,1,-0.004791,0.017899,0.000000,29.096390,-9.289932,0.000000,-0.017000,0.015000,0.046000,FlatInitial,ResetBack,0
08:09:42.670 PM 02/17/2016,Teleop Enabled,0,FALSE,0,NO ERROR,-6002.343750,6005.859375,-6000.000000,-6000.000000,Speed,Speed,-0.230000,1.020000,-0.090000,1.000000,101.000000,1,0,-0.000000,0.000000,1,0.006912,0.041061,0.000000,29.096420,-9.288391,0.000000,0.019000,0.041000,0.032000,FlatInitial,ResetBack,0
08:09:42.771 PM 02/17/2016,Teleop Enabled,0,FALSE,0,NO ERROR,-6001.757812,6007.031250,-6000.000000,-6000.000000,Speed,Speed,-0.240000,0.960000,0.030000,1.000000,101.000000,1,0,-0.000000,0.000000,1,-0.002869,0.090668,0.000000,29.096436,-9.284744,0.000000,0.008000,0.036000,0.086000,FlatInitial,ResetBack,0
08:09:42.872 PM 02/17/2016,Teleop Enabled,0,FALSE,0,NO ERROR,-6001.171875,6007.031250,-6000.000000,-6000.000000,Speed,Speed,-0.240000,0.910000,0.150000,1.000000,101.000000,1,0,-0.000000,0.000000,1,0.000000,0.126862,0.000000,29.096436,-9.279221,0.000000,0.005000,0.020000,0.095000,FlatInitial,ResetBack,0
08:09:42.971 PM 02/17/2016,Teleop Enabled,0,FALSE,0,NO ERROR,-6001.757812,6004.101562,-6000.000000,-6000.000000,Speed,Speed,-0.240000,0.810000,0.310000,1.000000,101.000000,1,0,-0.000000,0.000000,1,0.000000,0.162094,0.000000,29.096436,-9.271927,0.000000,0.012000,0.041000,0.095000,FlatInitial,ResetBack,0
08:09:43.072 PM 02/17/2016,Teleop Enabled,0,FALSE,0,NO ERROR,-6006.445312,6001.757812,-6000.000000,-6000.000000,Speed,Speed,-0.230000,0.760000,0.460000,1.000000,101.000000,1,0,-0.000000,0.000000,1,0.000000,0.213974,0.000000,29.096405,-9.262161,0.000000,0.012000,0.025000,0.022000,FlatInitial,ResetBack,0
08:09:43.172 PM 02/17/2016,Teleop Enabled,0,FALSE,0,NO ERROR,-6006.445312,6001.757812,-6000.000000,-6000.000000,Speed,Speed,-0.240000,0.690000,0.610000,1.000000,102.000000,1,0,-0.000000,0.000000,1,0.000000,0.270508,0.000000,29.096405,-9.247757,0.000000,-0.036000,0.045000,0.034000,FlatInitial,ResetBack,0
08:09:43.273 PM 02/17/2016,Teleop Enabled,0,FALSE,0,NO ERROR,-6005.273438,5998.828125,-6000.000000,-6000.000000,Speed,Speed,-0.240000,0.640000,0.780000,1.000000,105.000000,1,0,-0.000000,0.000000,1,0.000000,0.323593,0.000000,29.096161,-9.232513,0.000000,-0.009000,0.037000,0.037000,FlatInitial,ResetBack,0
08:09:43.372 PM 02/17/2016,Teleop Enabled,0,FALSE,0,NO ERROR,-6004.101562,5998.828125,-6000.000000,-6000.000000,Speed,Speed,-0.230000,0.580000,1.030000,1.000000,102.000000,1,0,-0.000000,0.000000,1,0.000000,0.396713,0.000000,29.095978,-9.214264,0.000000,-0.001000,0.072000,-0.008000,FlatInitial,ResetBack,0
08:09:43.473 PM 02/17/2016,Teleop Enabled,0,FALSE,0,NO ERROR,-6005.273438,5996.484375,-6000.000000,-6000.000000,Speed,Speed,-0.220000,0.560000,1.210000,1.000000,101.000000,1,0,-0.000000,0.000000,1,-0.011398,0.463669,0.000000,29.095718,-9.192429,0.000000,-0.027000,0.060000,-0.001000,FlatInitial,ResetBack,0
08:09:43.575 PM 02/17/2016,Teleop Enabled,0,FALSE,0,NO ERROR,-6005.859375,5996.484375,-6000.000000,-6000.000000,Speed,Speed,-0.220000,0.510000,1.500000,1.000000,101.000000,1,0,-0.000000,0.000000,1,-0.031357,0.537384,0.000000,29.094574,-9.166946,0.000000,-0.027000,0.060000,-0.001000,FlatInitial,ResetBack,0
08:09:43.675 PM 02/17/2016,Teleop Enabled,0,FALSE,0,NO ERROR,-6002.343750,5995.312500,-6000.000000,-6000.000000,Speed,Speed,-0.220000,0.490000,1.690000,1.000000,101.000000,1,0,-0.000000,0.000000,1,0.000000,0.604874,0.000000,29.094574,-9.137985,0.000000,-0.012000,0.062000,0.073000,FlatInitial,ResetBack,0
08:09:43.776 PM 02/17/2016,Teleop Enabled,0,FALSE,0,NO ERROR,-6001.757812,5995.898438,-6000.000000,-6000.000000,Speed,Speed,-0.220000,0.480000,1.970000,1.000000,100.000000,1,0,-0.000000,0.000000,1,0.000000,0.604874,0.000000,29.094574,-9.137985,0.000000,-0.012000,0.062000,0.073000,FlatInitial,ResetBack,0
08:09:43.876 PM 02/17/2016,Teleop Enabled,0,FALSE,0,NO ERROR,-6000.585938,6000.000000,-6000.000000,-6000.000000,Speed,Speed,-0.220000,0.460000,2.190000,1.000000,100.000000,1,0,-0.000000,0.000000,1,-0.008530,0.690536,0.000000,29.094437,-9.092026,0.000000,-0.007000,0.089000,0.000000,FlatInitial,ResetBack,0
08:09:43.976 PM 02/17/2016,Teleop Enabled,0,FALSE,0,NO ERROR,-5997.070312,6003.515625,-6000.000000,-6000.000000,Speed,Speed,-0.220000,0.470000,2.400000,1.000000,100.000000,1,0,-0.000000,0.000000,1,-0.070969,0.824295,0.000000,29.091293,-9.030579,0.000000,-0.041000,0.095000,0.017000,FlatInitial,ResetBack,0
08:09:44.077 PM 02/17/2016,Teleop Enabled,0,FALSE,0,NO ERROR,-5996.484375,6006.445312,-6000.000000,-6000.000000,Speed,Speed,-0.230000,0.470000,2.670000,1.000000,100.000000,1,0,-0.000000,0.000000,1,-0.128815,0.912186,0.000000,29.086029,-8.986771,0.000000,-0.053000,0.082000,-0.023000,FlatInitial,ResetBack,0
08:09:44.184 PM 02/17/2016,Teleop Enabled,0,FALSE,0,NO ERROR,-5996.484375,6004.101562,-6000.000000,-6000.000000,Speed,Speed,-0.210000,0.470000,2.840000,1.000000,102.000000,1,0,-0.000000,0.000000,1,-0.187881,0.981125,0.000000,29.077850,-8.938995,0.000000,-0.053000,0.082000,-0.023000,FlatInitial,ResetBack,0
08:09:44.283 PM 02/17/2016,Teleop Enabled,0,FALSE,0,NO ERROR,-5998.242188,6002.343750,-6000.000000,-6000.000000,Speed,Speed,-0.220000,0.490000,3.120000,1.000000,101.000000,1,0,-0.000000,0.000000,1,-0.244232,1.064346,0.000000,29.066711,-8.887329,0.000000,-0.032000,0.085000,0.010000,FlatInitial,ResetBack,0
08:09:44.385 PM 02/17/2016,Teleop Enabled,0,FALSE,0,NO ERROR,-6002.343750,5995.312500,-6000.000000,-6000.000000,Speed,Speed,-0.210000,0.500000,3.320000,1.000000,102.000000,1,0,-0.000000,0.000000,1,-0.292374,1.141403,0.000000,29.053055,-8.831802,0.000000,-0.068000,0.115000,0.002000,FlatInitial,ResetBack,1
08:09:44.487 PM 02/17/2016,Teleop Enabled,0,FALSE,0,NO ERROR,-6002.343750,5980.078125,-6000.000000,-6000.000000,Speed,Speed,-0.220000,0.490000,3.680000,1.000000,100.000000,1,0,-0.000000,0.000000,1,-0.292374,1.141403,0.000000,29.053055,-8.831802,0.000000,-0.068000,0.115000,0.002000,FlatInitial,ResetForward,1
08:09:44.587 PM 02/17/2016,Teleop Enabled,0,FALSE,0,NO ERROR,-6004.101562,5981.250000,-6000.000000,-6000.000000,Speed,Speed,-0.220000,0.450000,3.950000,1.000000,101.000000,1,0,-0.000000,0.000000,1,-0.412720,1.361984,0.000000,29.013321,-8.692627,0.000000,-0.043000,0.104000,-0.019000,FlatInitial,ResetForward,1
08:09:44.689 PM 02/17/2016,Teleop Enabled,0,FALSE,0,NO ERROR,-6007.031250,5981.250000,-6000.000000,-6000.000000,Speed,Speed,-0.220000,0.390000,4.280000,1.000000,104.000000,1,0,-0.000000,0.000000,1,-0.472092,1.450775,0.000000,28.986542,-8.608017,0.000000,-0.050000,0.071000,0.000000,FlatInitial,ResetForward,1
08:09:44.789 PM 02/17/2016,Teleop Enabled,0,FALSE,0,NO ERROR,-6007.031250,5987.695312,-6000.000000,-6000.000000,Speed,Speed,-0.180000,0.350000,4.580000,1.000000,102.000000,1,0,-0.000000,0.000000,1,-0.496170,1.509125,0.000000,28.971863,-8.563278,0.000000,-0.059000,0.073000,-0.080000,FlatInitial,ResetForward,1
08:09:44.888 PM 02/17/2016,Teleop Enabled,0,FALSE,0,NO ERROR,-6012.304688,5994.140625,-6000.000000,-6000.000000,Speed,Speed,-0.190000,0.320000,4.660000,1.000000,102.000000,1,0,-0.000000,0.000000,1,-0.545670,1.602448,0.000000,28.940079,-8.469254,0.000000,-0.059000,0.073000,-0.080000,FlatInitial,ResetForward,1
08:09:44.989 PM 02/17/2016,Teleop Enabled,0,FALSE,0,NO ERROR,-6009.960938,5995.898438,-6000.000000,-6000.000000,Speed,Speed,-0.250000,0.340000,4.940000,1.000000,102.000000,1,0,-0.000000,0.000000,1,-0.545670,1.602448,0.000000,28.940079,-8.469254,0.000000,-0.006000,0.052000,-0.088000,FlatInitial,ResetForward,1
08:09:45.090 PM 02/17/2016,Teleop Enabled,0,FALSE,0,NO ERROR,-6007.031250,6001.757812,-6000.000000,-6000.000000,Speed,Speed,-0.220000,0.360000,4.830000,1.000000,101.000000,1,0,-0.000000,0.000000,1,-0.002625,1.662750,0.000000,28.934372,-8.322205,0.000000,-0.022000,0.029000,-0.039000,FlatInitial,ResetForward,1
08:09:45.191 PM 02/17/2016,Teleop Enabled,0,FALSE,0,NO ERROR,-6006.445312,6005.273438,-6000.000000,-6000.000000,Speed,Speed,-0.240000,0.360000,5.070000,1.000000,101.000000,1,0,-0.000000,0.000000,1,-0.002625,1.662750,0.000000,28.934372,-8.322205,0.000000,-0.022000,0.029000,-0.039000,FlatInitial,ResetForward,0
08:09:45.291 PM 02/17/2016,Teleop Enabled,0,FALSE,0,NO ERROR,-6005.859375,6008.789062,-6000.000000,-6000.000000,Speed,Speed,-0.240000,0.360000,5.070000,1.000000,101.000000,1,0,-0.000000,0.000000,1,-0.026779,0.021332,0.000000,28.933090,-8.271576,0.000000,-0.001000,0.059000,-0.023000,FlatInitial,Reset,0
08:09:45.396 PM 02/17/2016,Teleop Enabled,0,FALSE,0,NO ERROR,-6004.687500,6011.718750,-6000.000000,-6000.000000,Speed,Speed,-0.200000,0.360000,5.220000,1.000000,100.000000,1,0,-0.000000,0.000000,1,-0.017746,0.081467,0.000000,28.932770,-8.267960,0.000000,0.003000,0.052000,-0.067000,FlatInitial,Hold,0
08:09:45.496 PM 02/17/2016,Teleop Enabled,0,FALSE,0,NO ERROR,-6000.585938,6006.445312,-6000.000000,-6000.000000,Speed,Speed,-0.250000,0.410000,5.450000,1.000000,102.000000,1,0,-0.000000,0.000000,1,-0.005798,0.118179,0.000000,28.932663,-8.263779,0.000000,-0.018000,-0.008000,-0.011000,FlatInitial,Hold,0
08:09:45.597 PM 02/17/2016,Teleop Enabled,0,FALSE,0,NO ERROR,-5997.070312,6007.617188,-6000.000000,-6000.000000,Speed,Speed,-0.220000,0.440000,5.600000,1.000000,101.000000,1,0,-0.000000,0.000000,1,-0.016922,0.046036,0.000000,28.931931,-8.259583,0.000000,0.000000,0.019000,0.000000,FlatInitial,Hold,0
08:09:45.697 PM 02/17/2016,Teleop Enabled,0,FALSE,0,NO ERROR,-5995.898438,6007.617188,-6000.000000,-6000.000000,Speed,Speed,-0.250000,0.520000,5.680000,1.000000,100.000000,1,0,-0.000000,0.000000,1,-0.016922,0.046036,0.000000,28.931931,-8.259583,0.000000,0.000000,0.019000,0.000000,FlatInitial,Hold,0
08:09:45.797 PM 02/17/2016,Teleop Enabled,0,FALSE,0,NO ERROR,-5997.070312,6006.445312,-6000.000000,-6000.000000,Speed,Speed,-0.250000,0.520000,5.680000,1.000000,101.000000,1,0,-0.000000,0.000000,1,0.000000,0.009369,0.000000,28.931976,-8.258850,0.000000,0.014000,0.032000,0.001000,FlatInitial,Hold,0
08:09:45.898 PM 02/17/2016,Teleop Enabled,0,FALSE,0,NO ERROR,-5997.656250,6001.171875,-6000.000000,-6000.000000,Speed,Speed,-0.240000,0.640000,5.890000,1.000000,101.000000,1,0,-0.000000,0.000000,1,0.000000,0.008713,0.000000,28.931976,-8.258606,0.000000,0.006000,0.003000,-0.002000,FlatInitial,Hold,0
08:09:45.998 PM 02/17/2016,Teleop Enabled,0,FALSE,0,NO ERROR,-6000.000000,5997.656250,-6000.000000,-6000.000000,Speed,Speed,-0.260000,0.710000,5.820000,1.000000,101.000000,1,0,-0.000000,0.000000,1,0.000000,0.008713,0.000000,28.931976,-8.258606,0.000000,0.006000,0.003000,-0.002000,FlatInitial,Hold,0
08:09:46.102 PM 02/17/2016,Teleop Enabled,0,FALSE,0,NO ERROR,-6006.445312,5997.656250,-6000.000000,-6000.000000,Speed,Speed,-0.270000,0.750000,5.890000,1.000000,106.000000,1,0,-0.000000,0.000000,1,-0.020889,0.000000,0.000000,28.931061,-8.258667,0.000000,0.000000,-0.010000,-0.021000,FlatInitial,Hold,0
08:09:46.202 PM 02/17/2016,Teleop Enabled,0,FALSE,0,NO ERROR,-6007.617188,5998.242188,-6000.000000,-6000.000000,Speed,Speed,-0.260000,0.800000,5.750000,1.000000,104.000000,1,0,-0.000000,0.000000,1,0.000000,-0.020691,0.000000,28.930832,-8.259232,0.000000,0.000000,-0.010000,-0.021000,FlatInitial,Hold,0
08:09:46.303 PM 02/17/2016,Teleop Enabled,0,FALSE,0,NO ERROR,-6005.273438,6004.101562,-6000.000000,-6000.000000,Speed,Speed,-0.270000,0.860000,5.610000,1.000000,101.000000,1,0,-0.000000,0.000000,1,0.000000,-0.020691,0.000000,28.930832,-8.259232,0.000000,-0.004000,-0.024000,-0.024000,FlatInitial,Hold,0
08:09:46.404 PM 02/17/2016,Teleop Enabled,0,FALSE,0,NO ERROR,-6007.031250,6007.617188,-6000.000000,-6000.000000,Speed,Speed,-0.280000,0.930000,5.330000,1.000000,101.000000,1,0,-0.000000,0.000000,1,0.000000,-0.131927,0.000000,28.930573,-8.266357,0.000000,0.005000,-0.061000,0.004000,FlatInitial,Hold,0
08:09:46.506 PM 02/17/2016,Teleop Enabled,0,FALSE,0,NO ERROR,-6006.445312,6014.062500,-6000.000000,-6000.000000,Speed,Speed,-0.290000,1.010000,5.000000,1.000000,101.000000,1,0,-0.000000,0.000000,1,0.000000,-0.131927,0.000000,28.930573,-8.266357,0.000000,0.008000,-0.086000,-0.004000,FlatInitial,Hold,0
08:09:46.607 PM 02/17/2016,Teleop Enabled,0,FALSE,0,NO ERROR,-6002.929688,6008.203125,-6000.000000,-6000.000000,Speed,Speed,-0.300000,1.090000,4.650000,1.000000,101.000000,1,0,-0.000000,0.000000,1,0.000000,-0.318985,0.000000,28.930573,-8.289337,0.000000,0.000000,-0.120000,-0.001000,FlatInitial,Hold,0
08:09:46.707 PM 02/17/2016,Teleop Enabled,0,FALSE,0,NO ERROR,-6000.000000,6008.789062,-6000.000000,-6000.000000,Speed,Speed,-0.300000,1.150000,4.220000,1.000000,102.000000,1,0,-0.000000,0.000000,1,-0.009735,-0.425919,0.000000,28.930435,-8.308426,0.000000,-0.023000,-0.125000,-0.013000,FlatInitial,Hold,0
08:09:46.808 PM 02/17/2016,Teleop Enabled,0,FALSE,0,NO ERROR,-5995.898438,6011.718750,-6000.000000,-6000.000000,Speed,Speed,-0.300000,1.210000,3.770000,1.000000,100.000000,1,0,-0.000000,0.000000,1,0.000000,-0.551666,0.000000,28.929794,-8.333450,0.000000,-0.023000,-0.125000,-0.013000,FlatInitial,Hold,0
08:09:46.908 PM 02/17/2016,Teleop Enabled,0,FALSE,0,NO ERROR,-5991.796875,6007.031250,-6000.000000,-6000.000000,Speed,Speed,-0.300000,1.250000,3.330000,1.000000,101.000000,1,0,-0.000000,0.000000,1,-0.008957,-0.682083,0.000000,28.929611,-8.364944,0.000000,-0.015000,-0.136000,0.000000,FlatInitial,Hold,0
08:09:47.009 PM 02/17/2016,Teleop Enabled,0,FALSE,0,NO ERROR,-5992.382812,6000.000000,-6000.000000,-6000.000000,Speed,Speed,-0.310000,1.330000,2.970000,1.000000,104.000000,1,0,-0.000000,0.000000,1,0.000000,-0.801498,0.000000,28.929153,-8.402542,0.000000,-0.035000,-0.096000,0.029000,FlatInitial,Hold,0
08:09:47.110 PM 02/17/2016,Teleop Enabled,0,FALSE,0,NO ERROR,-5993.554688,5997.070312,-6000.000000,-6000.000000,Speed,Speed,-0.310000,1.400000,2.590000,1.000000,104.000000,1,0,-0.000000,0.000000,1,0.000000,-0.928879,0.000000,28.929153,-8.446472,0.000000,0.013000,-0.132000,0.034000,FlatInitial,Hold,0
08:09:47.211 PM 02/17/2016,Teleop Enabled,0,FALSE,0,NO ERROR,-5994.726562,5994.726562,-6000.000000,-6000.000000,Speed,Speed,-0.310000,1.400000,2.590000,1.000000,103.000000,1,0,-0.000000,0.000000,1,0.000000,-0.928879,0.000000,28.929153,-8.446472,0.000000,-0.004000,-0.109000,0.048000,FlatInitial,Hold,0
08:09:47.311 PM 02/17/2016,Teleop Enabled,0,FALSE,0,NO ERROR,-5998.242188,5994.726562,-6000.000000,-6000.000000,Speed,Speed,-0.320000,1.460000,2.260000,1.000000,109.000000,1,0,-0.000000,0.000000,1,0.000000,-1.095428,0.000000,28.929153,-8.538666,0.000000,-0.012000,-0.075000,0.024000,FlatInitial,Hold,0
08:09:47.411 PM 02/17/2016,Teleop Enabled,0,FALSE,0,NO ERROR,-6004.101562,5994.140625,-6000.000000,-6000.000000,Speed,Speed,-0.330000,1.510000,1.990000,1.000000,101.000000,1,0,-0.000000,0.000000,1,0.000000,-1.172882,0.000000,28.929153,-8.584473,0.000000,-0.024000,-0.092000,0.004000,FlatInitial,Hold,0
08:09:47.511 PM 02/17/2016,Teleop Enabled,0,FALSE,0,NO ERROR,-6004.687500,5995.312500,-6000.000000,-6000.000000,Speed,Speed,-0.320000,1.520000,1.770000,1.000000,103.000000,1,0,-0.000000,0.000000,1,-0.021866,-1.240601,0.000000,28.928650,-8.633133,0.000000,-0.009000,-0.058000,-0.014000,FlatInitial,Hold,0
08:09:47.611 PM 02/17/2016,Teleop Enabled,0,FALSE,0,NO ERROR,-6008.203125,5998.828125,-6000.000000,-6000.000000,Speed,Speed,-0.330000,1.580000,1.550000,1.000000,105.000000,1,0,-0.000000,0.000000,1,-0.003845,-1.317734,0.000000,28.928360,-8.697388,0.000000,-0.028000,-0.079000,-0.005000,FlatInitial,Hold,0
08:09:47.711 PM 02/17/2016,Teleop Enabled,0,FALSE,0,NO ERROR,-6011.132812,6003.515625,-6000.000000,-6000.000000,Speed,Speed,-0.330000,1.590000,1.320000,1.000000,106.000000,1,0,-0.000000,0.000000,1,-0.025787,-1.405670,0.000000,28.927521,-8.765717,0.000000,-0.018000,-0.114000,0.008000,FlatInitial,Hold,0
08:09:47.811 PM 02/17/2016,Teleop Enabled,0,FALSE,0,NO ERROR,-6005.859375,6011.132812,-6000.000000,-6000.000000,Speed,Speed,-0.330000,1.620000,0.950000,1.000000,100.000000,1,0,-0.000000,0.000000,1,0.000000,-1.513947,0.000000,28.927216,-8.839294,0.000000,-0.019000,-0.119000,0.041000,FlatInitial,Hold,0
08:09:47.911 PM 02/17/2016,Teleop Enabled,0,FALSE,0,NO ERROR,-6004.101562,6014.062500,-6000.000000,-6000.000000,Speed,Speed,-0.330000,1.640000,0.600000,1.000000,103.000000,1,0,-0.000000,0.000000,1,0.000000,-1.606491,0.000000,28.927216,-8.902130,0.000000,-0.029000,-0.110000,0.046000,FlatInitial,Hold,0
08:09:48.011 PM 02/17/2016,Teleop Enabled,0,FALSE,0,NO ERROR,-6006.445312,6012.304688,-6000.000000,-6000.000000,Speed,Speed,-0.330000,1.620000,0.260000,1.000000,101.000000,1,0,-0.000000,0.000000,1,-0.035568,-1.745026,0.000000,28.926041,-9.003494,0.000000,-0.026000,-0.124000,0.029000,FlatInitial,Hold,0
08:09:48.112 PM 02/17/2016,Teleop Enabled,0,FALSE,0,NO ERROR,-6005.273438,6007.617188,-6000.000000,-6000.000000,Speed,Speed,-0.330000,1.590000,-0.180000,1.000000,106.000000,1,0,-0.000000,0.000000,1,-0.069473,-1.881744,0.000000,28.923294,-9.094788,0.000000,-0.029000,-0.151000,0.030000,FlatInitial,Hold,0
08:09:48.212 PM 02/17/2016,Teleop Enabled,0,FALSE,0,NO ERROR,-6006.445312,6007.617188,-6000.000000,-6000.000000,Speed,Speed,-0.330000,1.530000,-0.440000,1.000000,102.000000,1,0,-0.000000,0.000000,1,-0.122528,-2.018082,0.000000,28.917480,-9.212631,0.000000,-0.048000,-0.140000,0.020000,FlatInitial,Hold,0
08:09:48.312 PM 02/17/2016,Teleop Enabled,0,FALSE,0,NO ERROR,-6005.859375,6009.375000,-6000.000000,-6000.000000,Speed,Speed,-0.340000,1.470000,-0.690000,1.000000,101.000000,1,0,-0.000000,0.000000,1,-0.161804,-2.121017,0.000000,28.911606,-9.296051,0.000000,-0.057000,-0.073000,0.024000,FlatInitial,Hold,0
08:09:48.412 PM 02/17/2016,Teleop Enabled,0,FALSE,0,NO ERROR,-6002.929688,6009.960938,-6000.000000,-6000.000000,Speed,Speed,-0.340000,1.360000,-0.860000,1.000000,106.000000,1,0,-0.000000,0.000000,1,-0.207291,-2.241776,0.000000,28.900116,-9.427200,0.000000,-0.029000,-0.102000,0.055000,FlatInitial,Hold,0
08:09:48.512 PM 02/17/2016,Teleop Enabled,0,FALSE,0,NO ERROR,-5998.242188,6007.617188,-6000.000000,-6000.000000,Speed,Speed,-0.340000,1.260000,-0.990000,1.000000,103.000000,1,0,-0.000000,0.000000,1,-0.236206,-2.325699,0.000000,28.888870,-9.542038,0.000000,-0.039000,-0.078000,0.097000,FlatInitial,Hold,0
08:09:48.612 PM 02/17/2016,Teleop Enabled,0,FALSE,0,NO ERROR,-5998.828125,6007.031250,-6000.000000,-6000.000000,Speed,Speed,-0.340000,1.120000,-0.970000,1.000000,101.000000,1,0,-0.000000,0.000000,1,-0.279007,-2.398880,0.000000,28.875687,-9.660446,0.000000,-0.034000,-0.066000,0.085000,FlatInitial,Hold,0
08:09:48.712 PM 02/17/2016,Teleop Enabled,0,FALSE,0,NO ERROR,-5995.312500,6005.859375,-6000.000000,-6000.000000,Speed,Speed,-0.340000,1.040000,-0.950000,1.000000,102.000000,1,0,-0.000000,0.000000,1,-0.308746,-2.467606,0.000000,28.860840,-9.782501,0.000000,-0.044000,-0.058000,0.093000,FlatInitial,Hold,0
08:09:48.814 PM 02/17/2016,Teleop Enabled,0,FALSE,0,NO ERROR,-5992.382812,6003.515625,-6000.000000,-6000.000000,Speed,Speed,-0.350000,0.960000,-0.940000,1.000000,101.000000,1,0,-0.000000,0.000000,1,-0.342545,-2.514374,0.000000,28.847702,-9.882477,0.000000,-0.054000,-0.029000,0.076000,FlatInitial,Hold,0
08:09:48.914 PM 02/17/2016,Teleop Enabled,0,FALSE,0,NO ERROR,-5993.554688,5996.484375,-6000.000000,-6000.000000,Speed,Speed,-0.350000,0.840000,-0.750000,1.000000,102.000000,1,0,-0.000000,0.000000,1,-0.391251,-2.560715,0.000000,28.825470,-10.034790,0.000000,-0.042000,-0.054000,0.074000,FlatInitial,Hold,0
08:09:49.015 PM 02/17/2016,Teleop Enabled,0,FALSE,0,NO ERROR,-5992.968750,5986.523438,-6000.000000,-6000.000000,Speed,Speed,-0.350000,0.770000,-0.700000,1.000000,101.000000,1,0,-0.000000,0.000000,1,-0.428848,-2.614380,0.000000,28.804749,-10.164627,0.000000,-0.023000,-0.060000,0.089000,FlatInitial,Hold,0
08:09:49.114 PM 02/17/2016,Teleop Enabled,0,FALSE,0,NO ERROR,-5994.140625,5984.765625,-6000.000000,-6000.000000,Speed,Speed,-0.350000,0.720000,-0.720000,1.000000,101.000000,1,0,-0.000000,0.000000,1,-0.457382,-2.693039,0.000000,28.782440,-10.297562,0.000000,-0.023000,-0.080000,0.092000,FlatInitial,Hold,0
08:09:49.215 PM 02/17/2016,Teleop Enabled,0,FALSE,0,NO ERROR,-6000.000000,5989.453125,-6000.000000,-6000.000000,Speed,Speed,-0.350000,0.650000,-0.810000,1.000000,101.000000,1,0,-0.000000,0.000000,1,-0.486038,-2.777603,0.000000,28.758667,-10.434875,0.000000,-0.024000,-0.094000,0.063000,FlatInitial,Hold,0
08:09:49.316 PM 02/17/2016,Teleop Enabled,0,FALSE,0,NO ERROR,-6002.343750,5996.484375,-6000.000000,-6000.000000,Speed,Speed,-0.350000,0.600000,-0.940000,1.000000,102.000000,1,0,-0.000000,0.000000,1,-0.520782,-2.905319,0.000000,28.728302,-10.605347,0.000000,-0.047000,-0.130000,0.096000,FlatInitial,Hold,0
08:09:49.416 PM 02/17/2016,Teleop Enabled,0,FALSE,0,NO ERROR,-5997.070312,5995.312500,-6000.000000,-6000.000000,Speed,Speed,-0.340000,0.560000,-1.090000,1.000000,104.000000,1,0,-0.000000,0.000000,1,0.001831,-3.004364,0.000000,28.712173,-10.753754,0.000000,0.028000,-0.092000,-0.044000,FlatInitial,Hold,0
08:09:49.516 PM 02/17/2016,Teleop Enabled,0,FALSE,0,NO ERROR,-5994.726562,5994.726562,-6000.000000,-6000.000000,Speed,Speed,-0.330000,0.550000,-1.260000,1.000000,104.000000,1,0,-0.000000,0.000000,1,-0.032867,-3.083298,0.000000,28.711655,-10.875961,0.000000,0.032000,-0.040000,-0.051000,FlatInitial,Hold,0
08:09:49.616 PM 02/17/2016,Teleop Enabled,0,FALSE,0,NO ERROR,-5989.453125,5988.867188,-6000.000000,-6000.000000,Speed,Speed,-0.360000,0.660000,-1.450000,1.000000,101.000000,1,0,-0.000000,0.000000,1,-0.058182,-0.009949,0.000000,28.708908,-10.968979,0.000000,-0.008000,-0.048000,-0.002000,FlatInitial,Hold,0
08:09:49.716 PM 02/17/2016,Teleop Enabled,0,FALSE,0,NO ERROR,-5983.593750,5979.492188,-6000.000000,-6000.000000,Speed,Speed,-0.480000,0.820000,-1.650000,1.000000,101.000000,1,0,-0.000000,0.000000,1,-0.043579,-0.080963,0.000000,28.706497,-10.971359,0.000000,-0.029000,-0.117000,0.179000,FlatInitial,Hold,0
08:09:49.816 PM 02/17/2016,Teleop Enabled,0,FALSE,0,NO ERROR,-5986.523438,5980.078125,-6000.000000,-6000.000000,Speed,Speed,-0.480000,0.880000,-1.920000,1.000000,101.000000,1,0,-0.000000,0.000000,1,-0.059204,-0.199265,0.000000,28.703476,-10.978882,0.000000,0.003000,-0.089000,0.012000,FlatInitial,Hold,0
08:09:49.921 PM 02/17/2016,Teleop Enabled,0,FALSE,0,NO ERROR,-5997.656250,5981.835938,-6000.000000,-6000.000000,Speed,Speed,-0.500000,1.010000,-2.290000,1.000000,101.000000,1,0,-0.000000,0.000000,1,-0.068054,-0.251846,0.000000,28.700546,-10.990753,0.000000,0.025000,-0.029000,-0.048000,FlatInitial,Hold,0
08:09:50.022 PM 02/17/2016,Teleop Enabled,0,FALSE,0,NO ERROR,-6002.929688,5985.351562,-6000.000000,-6000.000000,Speed,Speed,-0.560000,1.120000,-2.240000,1.000000,101.000000,1,0,-0.000000,0.000000,1,0.000000,-0.288879,0.000000,28.699219,-11.001663,0.000000,0.013000,-0.056000,0.008000,FlatInitial,Hold,0
08:09:50.123 PM 02/17/2016,Teleop Enabled,0,FALSE,0,NO ERROR,-6011.132812,5993.554688,-6000.000000,-6000.000000,Speed,Speed,-0.510000,1.260000,-2.260000,1.000000,102.000000,1,0,-0.000000,0.000000,1,-0.004272,0.000000,0.000000,28.699173,-11.014297,0.000000,-0.029000,0.000000,0.009000,FlatInitial,Hold,0
08:09:50.223 PM 02/17/2016,Teleop Enabled,0,FALSE,0,NO ERROR,-6013.476562,5994.726562,-6000.000000,-6000.000000,Speed,Speed,-0.440000,1.440000,-2.270000,1.000000,101.000000,1,0,-0.000000,0.000000,1,0.007355,-0.041351,0.000000,28.699188,-11.015518,0.000000,0.021000,0.001000,0.042000,FlatInitial,Hold,0
08:09:50.324 PM 02/17/2016,Teleop Enabled,0,FALSE,0,NO ERROR,-6000.585938,5986.523438,-6000.000000,-6000.000000,Speed,Speed,-0.510000,1.630000,-2.490000,1.000000,106.000000,1,0,-0.000000,0.000000,1,0.003281,0.000000,0.000000,28.699249,-11.016632,0.000000,-0.039000,-0.047000,0.161000,FlatInitial,Hold,0
08:09:50.426 PM 02/17/2016,Teleop Enabled,0,FALSE,0,NO ERROR,-6000.585938,6008.789062,-6000.000000,-6000.000000,Speed,Speed,-0.640000,1.590000,-1.440000,1.000000,102.000000,1,0,-0.000000,0.000000,1,-0.003403,-0.058792,0.000000,28.699707,-11.017746,0.000000,-0.033000,-0.063000,-0.285000,FlatInitial,Hold,0
08:09:50.526 PM 02/17/2016,Teleop Enabled,0,FALSE,0,NO ERROR,-6001.171875,6030.468750,-6000.000000,-6000.000000,Speed,Speed,-0.780000,1.770000,-2.530000,1.000000,103.000000,1,0,-0.000000,0.000000,1,0.001862,-0.073685,0.000000,28.699539,-11.020691,0.000000,-0.050000,0.013000,-0.195000,FlatInitial,Hold,0
08:09:50.628 PM 02/17/2016,Teleop Enabled,0,FALSE,0,NO ERROR,-6008.789062,6031.054688,-6000.000000,-6000.000000,Speed,Speed,-0.810000,1.710000,-2.000000,1.000000,100.000000,1,0,-0.000000,0.000000,1,-0.051666,-0.123093,0.000000,28.698151,-11.026550,0.000000,-0.092000,-0.122000,0.009000,FlatInitial,Hold,0
08:09:50.730 PM 02/17/2016,Teleop Enabled,0,FALSE,0,NO ERROR,-6002.343750,6015.820312,-6000.000000,-6000.000000,Speed,Speed,-0.720000,1.710000,-2.280000,1.000000,103.000000,1,0,-0.000000,0.000000,1,-0.069992,-0.281387,0.000000,28.694122,-11.041901,0.000000,-0.092000,-0.122000,0.009000,FlatInitial,Hold,0
08:09:50.834 PM 02/17/2016,Teleop Enabled,0,FALSE,0,NO ERROR,-6000.585938,6006.445312,-6000.000000,-6000.000000,Speed,Speed,-0.780000,1.690000,-1.920000,1.000000,102.000000,1,0,-0.000000,0.000000,1,-0.099594,-0.339447,0.000000,28.690552,-11.054733,0.000000,-0.059000,-0.131000,0.019000,FlatInitial,Hold,0
08:09:50.934 PM 02/17/2016,Teleop Enabled,0,FALSE,0,NO ERROR,-5998.242188,6007.031250,-6000.000000,-6000.000000,Speed,Speed,-0.800000,1.580000,-1.840000,1.000000,101.000000,1,0,-0.000000,0.000000,1,-0.148254,-0.435791,0.000000,28.685318,-11.070648,0.000000,-0.023000,-0.110000,0.033000,FlatInitial,Hold,0
08:09:51.034 PM 02/17/2016,Teleop Enabled,0,FALSE,0,NO ERROR,-5993.554688,6010.546875,-6000.000000,-6000.000000,Speed,Speed,-0.740000,1.560000,-1.920000,1.000000,101.000000,1,0,-0.000000,0.000000,1,-0.199844,-0.486145,0.000000,28.674606,-11.098648,0.000000,0.001000,-0.066000,-0.023000,FlatInitial,Hold,0
08:09:51.136 PM 02/17/2016,Teleop Enabled,0,FALSE,0,NO ERROR,-5992.382812,6008.203125,-6000.000000,-6000.000000,Speed,Speed,-0.770000,1.530000,-1.590000,1.000000,101.000000,1,0,-0.000000,0.000000,1,-0.228043,-0.562424,0.000000,28.663925,-11.125214,0.000000,0.004000,0.000000,-0.070000,FlatInitial,Hold,0
08:09:51.238 PM 02/17/2016,Teleop Enabled,0,FALSE,0,NO ERROR,-5995.898438,6008.203125,-6000.000000,-6000.000000,Speed,Speed,-0.820000,1.480000,-1.560000,1.000000,101.000000,1,0,-0.000000,0.000000,1,-0.250198,0.000000,0.000000,28.651886,-11.148438,0.000000,-0.026000,0.018000,0.017000,FlatInitial,Hold,0
08:09:51.339 PM 02/17/2016,Teleop Enabled,0,FALSE,0,NO ERROR,-5998.242188,6006.445312,-6000.000000,-6000.000000,Speed,Speed,-0.790000,1.410000,-1.390000,1.000000,103.000000,1,0,-0.000000,0.000000,1,0.000000,-0.008331,0.000000,28.641266,-11.148331,0.000000,-0.008000,-0.021000,0.017000,FlatInitial,Hold,0
08:09:51.439 PM 02/17/2016,Teleop Enabled,0,FALSE,0,NO ERROR,-5998.242188,6005.273438,-6000.000000,-6000.000000,Speed,Speed,-0.770000,1.400000,-1.190000,1.000000,102.000000,1,0,-0.000000,0.000000,1,-0.012985,-0.034164,0.000000,28.641129,-11.149521,0.000000,-0.010000,0.036000,-0.016000,FlatInitial,Hold,0
08:09:51.539 PM 02/17/2016,Teleop Enabled,0,FALSE,0,NO ERROR,-6007.617188,6005.273438,-6000.000000,-6000.000000,Speed,Speed,-0.800000,1.340000,-1.010000,1.000000,102.000000,1,0,-0.000000,0.000000,1,-0.011475,0.000000,0.000000,28.640961,-11.150055,0.000000,0.000000,0.003000,0.026000,FlatInitial,Hold,0
08:09:51.640 PM 02/17/2016,Teleop Enabled,0,FALSE,0,NO ERROR,-6010.546875,6005.859375,-6000.000000,-6000.000000,Speed,Speed,-0.780000,1.250000,-0.730000,1.000000,104.000000,1,0,-0.000000,0.000000,1,-0.040085,0.007294,0.000000,28.639435,-11.149765,0.000000,-0.014000,0.068000,0.010000,FlatInitial,Hold,0
08:09:51.740 PM 02/17/2016,Teleop Enabled,0,FALSE,0,NO ERROR,-6010.546875,6002.343750,-6000.000000,-6000.000000,Speed,Speed,-0.790000,1.210000,-0.560000,1.000000,101.000000,1,0,-0.000000,0.000000,1,-0.014038,0.024780,0.000000,28.639084,-11.148636,0.000000,-0.042000,0.015000,-0.039000,FlatInitial,Hold,0
08:09:51.840 PM 02/17/2016,Teleop Enabled,0,FALSE,0,NO ERROR,-6004.101562,6000.585938,-6000.000000,-6000.000000,Speed,Speed,-0.800000,1.120000,-0.320000,1.000000,106.000000,1,0,-0.000000,0.000000,1,-0.038696,0.000534,0.000000,28.637558,-11.148102,0.000000,-0.024000,0.040000,0.008000,FlatInitial,Hold,0
08:09:51.941 PM 02/17/2016,Teleop Enabled,0,FALSE,0,NO ERROR,-5999.414062,6000.585938,-6000.000000,-6000.000000,Speed,Speed,-0.790000,1.060000,-0.240000,1.000000,102.000000,1,0,-0.000000,0.000000,1,-0.053024,0.020874,0.000000,28.634674,-11.147751,0.000000,-0.023000,-0.044000,-0.008000,FlatInitial,Hold,0
08:09:52.041 PM 02/17/2016,Teleop Enabled,0,FALSE,0,NO ERROR,-5997.656250,6000.000000,-6000.000000,-6000.000000,Speed,Speed,-0.790000,0.970000,-0.120000,1.000000,101.000000,1,0,-0.000000,0.000000,1,-0.071503,-0.003021,0.000000,28.632065,-11.147339,0.000000,-0.019000,0.039000,-0.023000,FlatInitial,Hold,0
08:09:52.142 PM 02/17/2016,Teleop Enabled,0,FALSE,0,NO ERROR,-5995.898438,6001.171875,-6000.000000,-6000.000000,Speed,Speed,-0.790000,0.930000,0.130000,1.000000,102.000000,1,0,-0.000000,0.000000,1,-0.078232,0.000000,0.000000,28.628174,-11.147110,0.000000,-0.002000,-0.007000,0.071000,FlatInitial,Hold,0
08:09:52.243 PM 02/17/2016,Teleop Enabled,0,FALSE,0,NO ERROR,-5993.554688,6002.929688,-6000.000000,-6000.000000,Speed,Speed,-0.790000,0.890000,0.290000,1.000000,102.000000,1,0,-0.000000,0.000000,1,-0.067398,-0.001068,0.000000,28.623596,-11.146896,0.000000,-0.018000,0.015000,0.016000,FlatInitial,Hold,0
08:09:52.343 PM 02/17/2016,Teleop Enabled,0,FALSE,0,NO ERROR,-5997.070312,6004.101562,-6000.000000,-6000.000000,Speed,Speed,-0.790000,0.810000,0.410000,1.000000,104.000000,1,0,-0.000000,0.000000,1,0.000000,-0.004517,0.000000,28.623398,-11.147095,0.000000,0.007000,-0.032000,0.000000,FlatInitial,Hold,0
08:09:52.444 PM 02/17/2016,Teleop Enabled,0,FALSE,0,NO ERROR,-6001.171875,6001.757812,-6000.000000,-6000.000000,Speed,Speed,-0.800000,0.780000,0.480000,1.000000,103.000000,1,0,-0.000000,0.000000,1,0.018753,-0.005020,0.000000,28.623657,-11.147354,0.000000,0.040000,-0.032000,-0.040000,FlatInitial,Hold,0
08:09:52.545 PM 02/17/2016,Teleop Enabled,0,FALSE,0,NO ERROR,-6001.171875,6001.757812,-6000.000000,-6000.000000,Speed,Speed,-0.800000,0.730000,0.620000,1.000000,100.000000,1,0,-0.000000,0.000000,1,0.047760,0.000000,0.000000,28.625580,-11.147354,0.000000,0.042000,0.016000,-0.045000,FlatInitial,Hold,0
08:09:52.647 PM 02/17/2016,Teleop Enabled,0,FALSE,0,NO ERROR,-6001.171875,6004.101562,-6000.000000,-6000.000000,Speed,Speed,-0.780000,0.730000,0.790000,1.000000,104.000000,1,0,-0.000000,0.000000,1,0.047760,0.000000,0.000000,28.625580,-11.147354,0.000000,0.042000,0.016000,-0.045000,FlatInitial,Hold,0
08:09:52.748 PM 02/17/2016,Teleop Enabled,0,FALSE,0,NO ERROR,-6004.687500,6005.859375,-6000.000000,-6000.000000,Speed,Speed,-0.780000,0.720000,0.810000,1.000000,101.000000,1,0,-0.000000,0.000000,1,0.100693,0.024643,0.000000,28.633102,-11.145233,0.000000,0.027000,-0.008000,0.001000,FlatInitial,Hold,0
08:09:52.848 PM 02/17/2016,Teleop Enabled,0,FALSE,0,NO ERROR,-6005.859375,6005.273438,-6000.000000,-6000.000000,Speed,Speed,-0.770000,0.680000,0.880000,1.000000,106.000000,1,0,-0.000000,0.000000,1,0.127518,0.032349,0.000000,28.639099,-11.143723,0.000000,0.051000,-0.021000,0.075000,FlatInitial,Hold,0
08:09:52.948 PM 02/17/2016,Teleop Enabled,0,FALSE,0,NO ERROR,-6003.515625,6002.929688,-6000.000000,-6000.000000,Speed,Speed,-0.770000,0.650000,0.940000,1.000000,102.000000,1,0,-0.000000,0.000000,1,0.127518,0.032349,0.000000,28.639099,-11.143723,0.000000,0.046000,0.020000,0.014000,FlatInitial,Hold,0
08:09:53.048 PM 02/17/2016,Teleop Enabled,0,FALSE,0,NO ERROR,-6003.515625,6000.585938,-6000.000000,-6000.000000,Speed,Speed,-0.770000,0.650000,1.020000,1.000000,102.000000,1,0,-0.000000,0.000000,1,0.000000,0.000000,0.000000,28.653564,-11.137787,0.000000,0.049000,0.047000,0.011000,FlatInitial,Hold,0
08:09:53.148 PM 02/17/2016,Teleop Enabled,0,FALSE,0,NO ERROR,-6004.101562,5995.312500,-6000.000000,-6000.000000,Speed,Speed,-0.770000,0.620000,1.150000,1.000000,108.000000,1,0,-0.000000,0.000000,1,0.000000,0.000000,0.000000,28.653564,-11.137787,0.000000,-0.001000,0.041000,0.007000,FlatInitial,Hold,0
08:09:53.248 PM 02/17/2016,Teleop Enabled,0,FALSE,0,NO ERROR,-6001.171875,5990.625000,-6000.000000,-6000.000000,Speed,Speed,-0.770000,0.620000,1.150000,1.000000,102.000000,1,0,-0.000000,0.000000,1,0.041016,0.029953,0.000000,28.654953,-11.136322,0.000000,0.035000,0.011000,-0.011000,FlatInitial,Hold,0
08:09:53.348 PM 02/17/2016,Teleop Enabled,0,FALSE,0,NO ERROR,-5998.828125,5989.453125,-6000.000000,-6000.000000,Speed,Speed,-0.780000,0.520000,1.260000,1.000000,100.000000,1,0,-0.000000,0.000000,1,-0.000870,0.005585,0.000000,28.656860,-11.134964,0.000000,0.003000,0.043000,-0.021000,FlatInitial,Hold,0
08:09:53.448 PM 02/17/2016,Teleop Enabled,0,FALSE,0,NO ERROR,-5998.828125,5991.210938,-6000.000000,-6000.000000,Speed,Speed,-0.770000,0.500000,1.340000,1.000000,101.000000,1,0,-0.000000,0.000000,1,0.000000,0.045944,0.000000,28.657181,-11.133224,0.000000,-0.009000,0.022000,0.016000,FlatInitial,Hold,0
08:09:53.548 PM 02/17/2016,Teleop Enabled,0,FALSE,0,NO ERROR,-5996.484375,5995.312500,-6000.000000,-6000.000000,Speed,Speed,-0.760000,0.430000,1.530000,1.000000,101.000000,1,0,-0.000000,0.000000,1,0.025040,0.111786,0.000000,28.658524,-11.127975,0.000000,0.002000,0.020000,-0.133000,FlatInitial,Hold,0
08:09:53.648 PM 02/17/2016,Teleop Enabled,0,FALSE,0,NO ERROR,-5997.070312,5996.484375,-6000.000000,-6000.000000,Speed,Speed,-0.760000,0.430000,1.530000,1.000000,102.000000,1,0,-0.000000,0.000000,1,0.000000,0.112305,0.000000,28.658524,-11.124664,0.000000,-0.014000,0.023000,0.002000,FlatInitial,Hold,0
08:09:53.748 PM 02/17/2016,Teleop Enabled,0,FALSE,0,NO ERROR,-6002.343750,5997.070312,-6000.000000,-6000.000000,Speed,Speed,-0.770000,0.340000,1.650000,1.000000,100.000000,1,0,-0.000000,0.000000,1,-0.010025,0.162903,0.000000,28.658234,-11.116394,0.000000,-0.053000,0.000000,-0.058000,FlatInitial,Hold,0
08:09:53.848 PM 02/17/2016,Teleop Enabled,0,FALSE,0,NO ERROR,-6002.343750,5998.242188,-6000.000000,-6000.000000,Speed,Speed,-0.760000,0.280000,1.680000,1.000000,101.000000,1,0,-0.000000,0.000000,1,-0.014481,0.014725,0.000000,28.657776,-11.114517,0.000000,-0.003000,-0.009000,-0.048000,FlatInitial,Hold,0
08:09:53.948 PM 02/17/2016,Teleop Enabled,0,FALSE,0,NO ERROR,-6001.171875,6003.515625,-6000.000000,-6000.000000,Speed,Speed,-0.760000,0.190000,1.760000,1.000000,101.000000,1,0,-0.000000,0.000000,1,-0.015198,0.041031,0.000000,28.656906,-11.113174,0.000000,-0.049000,0.010000,-0.086000,FlatInitial,Hold,0
08:09:54.048 PM 02/17/2016,Teleop Enabled,0,FALSE,0,NO ERROR,-6000.000000,6008.789062,-6000.000000,-6000.000000,Speed,Speed,-0.760000,0.130000,1.760000,1.000000,101.000000,1,0,-0.000000,0.000000,1,-0.014908,0.067886,0.000000,28.656311,-11.110611,0.000000,0.019000,0.055000,0.029000,FlatInitial,Hold,0
08:09:54.149 PM 02/17/2016,Teleop Enabled,0,FALSE,0,NO ERROR,-5999.414062,6012.890625,-6000.000000,-6000.000000,Speed,Speed,-0.770000,0.060000,1.820000,1.000000,101.000000,1,0,-0.000000,0.000000,1,0.008133,0.113922,0.000000,28.655869,-11.103668,0.000000,-0.052000,0.011000,-0.014000,FlatInitial,Hold,0
08:09:54.250 PM 02/17/2016,Teleop Enabled,0,FALSE,0,NO ERROR,-5996.484375,6011.132812,-6000.000000,-6000.000000,Speed,Speed,-0.750000,0.040000,1.760000,1.000000,106.000000,1,0,-0.000000,0.000000,1,0.045151,0.147827,0.000000,28.656921,-11.096985,0.000000,-0.056000,-0.016000,0.004000,FlatInitial,Hold,0
08:09:54.351 PM 02/17/2016,Teleop Enabled,0,FALSE,0,NO ERROR,-5997.070312,6008.789062,-6000.000000,-6000.000000,Speed,Speed,-0.750000,0.020000,1.710000,1.000000,103.000000,1,0,-0.000000,0.000000,1,0.057007,0.160263,0.000000,28.658371,-11.092407,0.000000,0.107000,0.004000,-0.018000,FlatInitial,Hold,0
08:09:54.451 PM 02/17/2016,Teleop Enabled,0,FALSE,0,NO ERROR,-6001.757812,6006.445312,-6000.000000,-6000.000000,Speed,Speed,-0.750000,0.040000,1.670000,1.000000,101.000000,1,0,-0.000000,0.000000,1,0.131729,0.025574,0.000000,28.664352,-11.090149,0.000000,0.086000,-0.052000,-0.023000,FlatInitial,Hold,0
08:09:54.551 PM 02/17/2016,Teleop Enabled,0,FALSE,0,NO ERROR,-6003.515625,6006.445312,-6000.000000,-6000.000000,Speed,Speed,-0.750000,0.080000,1.540000,1.000000,102.000000,1,0,-0.000000,0.000000,1,0.174332,0.025497,0.000000,28.670746,-11.089417,0.000000,0.099000,0.021000,-0.035000,FlatInitial,Hold,0
08:09:54.651 PM 02/17/2016,Teleop Enabled,0,FALSE,0,NO ERROR,-6004.101562,6007.617188,-6000.000000,-6000.000000,Speed,Speed,-0.750000,0.100000,1.470000,1.000000,103.000000,1,0,-0.000000,0.000000,1,0.264847,0.000000,0.000000,28.684143,-11.087860,0.000000,0.072000,0.004000,-0.013000,FlatInitial,Hold,0
08:09:54.751 PM 02/17/2016,Teleop Enabled,0,FALSE,0,NO ERROR,-6007.031250,6007.617188,-6000.000000,-6000.000000,Speed,Speed,-0.760000,0.140000,1.340000,1.000000,103.000000,1,0,-0.000000,0.000000,1,0.322815,0.000000,0.000000,28.699005,-11.087753,0.000000,0.081000,-0.002000,-0.015000,FlatInitial,Hold,0
08:09:54.851 PM 02/17/2016,Teleop Enabled,0,FALSE,0,NO ERROR,-6008.789062,6006.445312,-6000.000000,-6000.000000,Speed,Speed,-0.750000,0.170000,1.240000,1.000000,102.000000,1,0,-0.000000,0.000000,1,0.387390,0.003448,0.000000,28.716949,-11.087646,0.000000,0.113000,-0.013000,0.008000,FlatInitial,Hold,0
08:09:54.951 PM 02/17/2016,Teleop Enabled,0,FALSE,0,NO ERROR,-6007.031250,6007.617188,-6000.000000,-6000.000000,Speed,Speed,-0.760000,0.220000,1.100000,1.000000,103.000000,1,0,-0.000000,0.000000,1,0.056122,0.005447,0.000000,28.726196,-11.087250,0.000000,0.099000,-0.032000,-0.011000,FlatInitial,Hold,0
08:09:55.051 PM 02/17/2016,Teleop Enabled,0,FALSE,0,NO ERROR,-6005.859375,6005.859375,-6000.000000,-6000.000000,Speed,Speed,-0.760000,0.280000,1.010000,1.000000,102.000000,1,0,-0.000000,0.000000,1,0.112808,-0.005493,0.000000,28.730148,-11.087357,0.000000,0.091000,-0.023000,-0.037000,FlatInitial,Hold,0
08:09:55.150 PM 02/17/2016,Teleop Enabled,0,FALSE,0,NO ERROR,-6006.445312,6001.171875,-6000.000000,-6000.000000,Speed,Speed,-0.750000,0.380000,0.900000,1.000000,103.000000,1,0,-0.000000,0.000000,1,0.162277,-0.014648,0.000000,28.736740,-11.087830,0.000000,0.010000,0.003000,0.023000,FlatInitial,Hold,0
08:09:55.250 PM 02/17/2016,Teleop Enabled,0,FALSE,0,NO ERROR,-5998.242188,5992.968750,-6000.000000,-6000.000000,Speed,Speed,-0.760000,0.360000,0.880000,1.000000,101.000000,1,0,-0.000000,0.000000,1,0.219833,-0.014297,0.000000,28.745926,-11.088669,0.000000,0.087000,0.010000,-0.028000,FlatInitial,Hold,0
08:09:55.351 PM 02/17/2016,Teleop Enabled,0,FALSE,0,NO ERROR,-5992.382812,5986.523438,-6000.000000,-6000.000000,Speed,Speed,-0.750000,0.490000,0.860000,1.000000,101.000000,1,1,0.000000,-0.000000,1,0.290939,0.017929,0.000000,28.758453,-11.088135,0.000000,-0.053000,0.040000,0.005000,FlatInitial,Hold,0
08:09:55.451 PM 02/17/2016,Teleop Enabled,0,FALSE,0,NO ERROR,-5990.625000,5987.109375,-6000.000000,-6000.000000,Speed,Speed,-0.750000,0.530000,0.900000,1.000000,102.000000,1,1,0.000000,-0.000000,1,0.342911,0.000000,0.000000,28.773956,-11.086578,0.000000,0.016000,0.054000,0.021000,FlatInitial,Hold,0
08:09:55.551 PM 02/17/2016,Teleop Enabled,0,FALSE,0,NO ERROR,-5989.453125,5996.484375,-6000.000000,-6000.000000,Speed,Speed,-0.750000,0.590000,0.940000,1.000000,100.000000,1,1,0.000000,-0.000000,1,0.403824,0.043991,0.000000,28.792404,-11.085220,0.000000,-0.015000,0.085000,0.012000,FlatInitial,Hold,0
08:09:55.652 PM 02/17/2016,Teleop Enabled,0,FALSE,0,NO ERROR,-5992.382812,6005.273438,-6000.000000,-6000.000000,Speed,Speed,-0.750000,0.630000,0.980000,1.000000,102.000000,1,1,0.000000,-0.000000,1,0.463821,0.123215,0.000000,28.818329,-11.079346,0.000000,-0.015000,0.085000,0.012000,FlatInitial,Hold,0
08:09:55.752 PM 02/17/2016,Teleop Enabled,0,FALSE,0,NO ERROR,-5994.140625,6011.718750,-6000.000000,-6000.000000,Speed,Speed,-0.750000,0.680000,1.000000,1.000000,101.000000,1,1,0.312900,0.312900,1,0.520081,0.156860,0.000000,28.837921,-11.073441,0.000000,-0.006000,0.103000,0.027000,FlatInitial,Hold,0
08:09:55.853 PM 02/17/2016,Teleop Enabled,0,FALSE,0,NO ERROR,-5992.382812,5992.382812,-6000.000000,-6000.000000,Speed,Speed,-0.970000,0.870000,1.050000,1.000000,101.000000,1,1,0.312900,0.312900,1,0.713364,0.185593,0.000000,28.867615,-11.063828,0.000000,0.385000,-0.252000,-0.052000,FlatInitial,Hold,0
08:09:55.953 PM 02/17/2016,Teleop Enabled,0,FALSE,0,NO ERROR,-5966.601562,5933.203125,-6000.000000,-6000.000000,Speed,Speed,-0.970000,0.870000,1.050000,1.000000,102.000000,1,1,0.312900,0.312900,1,0.713364,0.185593,0.000000,28.867615,-11.063828,0.000000,0.385000,-0.252000,-0.052000,FlatInitial,Hold,0
08:09:56.056 PM 02/17/2016,Teleop Enabled,0,FALSE,0,NO ERROR,-5956.640625,5921.484375,-6000.000000,-6000.000000,Speed,Speed,-11.870000,1.820000,0.390000,1.000000,102.000000,1,1,0.253135,0.253135,1,0.983154,-0.044083,0.000000,28.984039,-11.056488,0.000000,0.032000,-0.055000,0.024000,FlatInitial,Hold,0
08:09:56.156 PM 02/17/2016,Teleop Enabled,0,FALSE,0,NO ERROR,-5967.187500,5921.484375,-6000.000000,-6000.000000,Speed,Speed,-19.490000,1.860000,0.450000,1.000000,105.000000,1,1,0.135977,0.135977,1,0.000000,0.000000,0.000000,29.003387,-11.057663,0.000000,0.000000,0.019000,0.087000,FlatInitial,Hold,0
08:09:56.257 PM 02/17/2016,Teleop Enabled,0,FALSE,0,NO ERROR,-5985.937500,5995.312500,-6000.000000,-6000.000000,Speed,Speed,-19.490000,1.860000,0.450000,1.000000,102.000000,1,1,0.036338,0.036338,1,-0.010071,-0.052429,0.000000,29.003281,-11.058929,0.000000,0.000000,0.019000,0.087000,FlatInitial,Hold,0
08:09:56.357 PM 02/17/2016,Teleop Enabled,0,FALSE,0,NO ERROR,-6005.859375,6036.914062,-6000.000000,-6000.000000,Speed,Speed,-31.180000,1.900000,0.400000,1.000000,102.000000,1,1,-0.000156,-0.000156,1,-0.010071,-0.052429,0.000000,29.003281,-11.058929,0.000000,-0.078000,-0.075000,0.147000,FlatInitial,Hold,0
08:09:56.458 PM 02/17/2016,Teleop Enabled,0,FALSE,0,NO ERROR,-6022.265625,6052.148438,-6000.000000,-6000.000000,Speed,Speed,-36.530000,1.650000,0.630000,1.000000,105.000000,1,1,-0.040000,-0.040000,1,-0.198502,-0.186310,0.000000,28.992981,-11.072144,0.000000,-0.178000,0.074000,-0.127000,FlatInitial,Hold,0
08:09:56.558 PM 02/17/2016,Teleop Enabled,0,FALSE,0,NO ERROR,-6023.437500,6050.390625,-6000.000000,-6000.000000,Speed,Speed,-38.010000,1.460000,0.740000,1.000000,100.000000,1,1,-0.118164,-0.118164,1,-0.198502,-0.186310,0.000000,28.992981,-11.072144,0.000000,-0.178000,0.074000,-0.127000,FlatInitial,Hold,0
08:09:56.658 PM 02/17/2016,Teleop Enabled,0,FALSE,0,NO ERROR,-6015.820312,6034.570312,-6000.000000,-6000.000000,Speed,Speed,-38.010000,1.460000,0.740000,1.000000,102.000000,1,1,-0.118164,-0.118164,1,-0.033707,-0.170227,0.000000,28.987366,-11.085251,0.000000,0.023000,0.039000,0.063000,FlatInitial,Hold,0
08:09:56.758 PM 02/17/2016,Teleop Enabled,0,FALSE,0,NO ERROR,-6012.304688,6012.304688,-6000.000000,-6000.000000,Speed,Speed,-39.020000,0.840000,0.790000,1.000000,100.000000,1,1,-0.196914,-0.196914,1,-0.033707,-0.170227,0.000000,28.987366,-11.085251,0.000000,0.023000,0.039000,0.063000,FlatInitial,Hold,0
08:09:56.861 PM 02/17/2016,Teleop Enabled,0,FALSE,0,NO ERROR,-6004.687500,5997.656250,-6000.000000,-6000.000000,Speed,Speed,-39.020000,0.840000,0.790000,1.000000,104.000000,1,1,-0.180625,-0.180625,1,0.059586,-0.098984,0.000000,28.991043,-11.100723,0.000000,0.108000,0.015000,-0.025000,FlatInitial,Hold,0
08:09:56.969 PM 02/17/2016,Teleop Enabled,0,FALSE,0,NO ERROR,-6001.171875,5992.382812,-6000.000000,-6000.000000,Speed,Speed,-31.910000,0.790000,1.140000,1.000000,101.000000,1,1,-0.150156,-0.150156,1,0.189209,0.017105,0.000000,29.002274,-11.104187,0.000000,0.071000,0.010000,0.071000,FlatInitial,Hold,0
08:09:57.071 PM 02/17/2016,Teleop Enabled,0,FALSE,0,NO ERROR,-6003.515625,5991.796875,-6000.000000,-6000.000000,Speed,Speed,-31.910000,0.790000,1.140000,1.000000,103.000000,1,1,-0.105625,-0.105625,1,0.189209,0.017105,0.000000,29.002274,-11.104187,0.000000,0.071000,0.010000,0.071000,FlatInitial,Hold,0
08:09:57.171 PM 02/17/2016,Teleop Enabled,0,FALSE,0,NO ERROR,-6009.375000,5997.070312,-6000.000000,-6000.000000,Speed,Speed,-27.490000,0.790000,1.050000,1.000000,102.000000,1,1,-0.060947,-0.060947,1,0.336761,0.109268,0.000000,29.023834,-11.099060,0.000000,0.071000,0.010000,0.071000,FlatInitial,Hold,0
08:09:57.272 PM 02/17/2016,Teleop Enabled,0,FALSE,0,NO ERROR,-6017.578125,6001.757812,-6000.000000,-6000.000000,Speed,Speed,-27.490000,0.790000,1.050000,1.000000,103.000000,1,1,-0.030625,-0.030625,1,0.336761,0.109268,0.000000,29.023834,-11.099060,0.000000,0.121000,0.027000,-0.030000,FlatInitial,Hold,0
08:09:57.372 PM 02/17/2016,Teleop Enabled,0,FALSE,0,NO ERROR,-6017.578125,6001.757812,-6000.000000,-6000.000000,Speed,Speed,-24.910000,1.060000,0.780000,1.000000,100.000000,1,1,-0.011963,-0.011963,1,0.586166,0.240524,0.000000,29.076141,-11.078827,0.000000,0.121000,0.027000,-0.030000,FlatInitial,Hold,0
08:09:57.472 PM 02/17/2016,Teleop Enabled,0,FALSE,0,NO ERROR,-6019.335938,6013.476562,-6000.000000,-6000.000000,Speed,Speed,-24.840000,1.210000,0.690000,1.000000,100.000000,1,1,-0.004727,-0.004727,1,0.640411,0.316177,0.000000,29.107346,-11.064697,0.000000,0.033000,0.052000,0.041000,FlatInitial,Hold,0
08:09:57.572 PM 02/17/2016,Teleop Enabled,0,FALSE,0,NO ERROR,-6014.062500,6008.789062,-6000.000000,-6000.000000,Speed,Speed,-24.920000,1.160000,0.580000,1.000000,102.000000,1,1,-0.002822,-0.002822,1,0.640411,0.316177,0.000000,29.107346,-11.064697,0.000000,0.033000,0.052000,0.041000,FlatInitial,Hold,0
08:09:57.672 PM 02/17/2016,Teleop Enabled,0,FALSE,0,NO ERROR,-6008.789062,6003.515625,-6000.000000,-6000.000000,Speed,Speed,-24.920000,1.160000,0.580000,1.000000,101.000000,1,1,-0.003525,-0.003525,1,0.740265,0.000000,0.000000,29.155823,-11.045547,0.000000,0.033000,0.052000,0.041000,FlatInitial,Hold,0
08:09:57.772 PM 02/17/2016,Teleop Enabled,0,FALSE,0,NO ERROR,-6002.929688,6002.343750,-6000.000000,-6000.000000,Speed,Speed,-25.020000,1.380000,0.380000,1.000000,101.000000,1,1,-0.003525,-0.003525,1,0.837448,-0.039383,0.000000,29.219223,-11.046936,0.000000,0.047000,-0.006000,0.037000,FlatInitial,Hold,0
08:09:57.874 PM 02/17/2016,Teleop Enabled,0,FALSE,0,NO ERROR,-6002.343750,6000.000000,-6000.000000,-6000.000000,Speed,Speed,-25.020000,1.380000,0.380000,1.000000,105.000000,1,1,-0.004307,-0.004307,1,0.837448,-0.039383,0.000000,29.219223,-11.046936,0.000000,0.039000,-0.074000,0.041000,FlatInitial,Hold,0
08:09:57.974 PM 02/17/2016,Teleop Enabled,0,FALSE,0,NO ERROR,-5997.070312,6000.000000,-6000.000000,-6000.000000,Speed,Speed,-25.060000,1.440000,0.240000,1.000000,107.000000,1,1,-0.003906,-0.003906,1,0.955338,-0.060165,0.000000,29.300308,-11.049286,0.000000,0.037000,-0.045000,-0.012000,FlatInitial,Hold,0
08:09:58.076 PM 02/17/2016,Teleop Enabled,0,FALSE,0,NO ERROR,-5991.210938,6000.000000,-6000.000000,-6000.000000,Speed,Speed,-25.030000,1.510000,0.120000,1.000000,103.000000,1,1,-0.003906,-0.003906,1,1.024323,-0.100006,0.000000,29.349976,-11.053589,0.000000,0.037000,-0.045000,-0.012000,FlatInitial,Hold,0
08:09:58.176 PM 02/17/2016,Teleop Enabled,0,FALSE,0,NO ERROR,-5991.210938,6000.000000,-6000.000000,-6000.000000,Speed,Speed,-25.030000,1.510000,0.120000,1.000000,100.000000,1,1,-0.003525,-0.003525,1,1.024323,-0.100006,0.000000,29.349976,-11.053589,0.000000,0.037000,-0.045000,-0.012000,FlatInitial,Hold,0
08:09:58.278 PM 02/17/2016,Teleop Enabled,0,FALSE,0,NO ERROR,-5993.554688,6001.757812,-6000.000000,-6000.000000,Speed,Speed,-25.040000,1.660000,-0.130000,1.000000,102.000000,1,1,-0.004307,-0.004307,1,0.046280,-0.039169,0.000000,29.404160,-11.057312,0.000000,0.002000,-0.066000,0.049000,FlatInitial,Hold,0
08:09:58.378 PM 02/17/2016,Teleop Enabled,0,FALSE,0,NO ERROR,-5995.898438,6003.515625,-6000.000000,-6000.000000,Speed,Speed,-25.040000,1.700000,-0.120000,1.000000,104.000000,1,1,-0.004307,-0.004307,1,0.085922,-0.058334,0.000000,29.408340,-11.060516,0.000000,0.030000,-0.101000,0.039000,FlatInitial,Hold,0
08:09:58.479 PM 02/17/2016,Teleop Enabled,0,FALSE,0,NO ERROR,-5997.656250,6004.687500,-6000.000000,-6000.000000,Speed,Speed,-25.040000,1.760000,-0.110000,1.000000,101.000000,1,1,-0.003906,-0.003906,1,0.085922,-0.058334,0.000000,29.408340,-11.060516,0.000000,0.030000,-0.101000,0.039000,FlatInitial,Hold,0
08:09:58.579 PM 02/17/2016,Teleop Enabled,0,FALSE,0,NO ERROR,-5997.656250,6003.515625,-6000.000000,-6000.000000,Speed,Speed,-25.050000,1.780000,-0.080000,1.000000,100.000000,1,1,-0.004307,-0.004307,1,0.177658,-0.004623,0.000000,29.420761,-11.065430,0.000000,0.018000,-0.035000,0.001000,FlatInitial,Hold,0
08:09:58.681 PM 02/17/2016,Teleop Enabled,0,FALSE,0,NO ERROR,-6003.515625,6001.757812,-6000.000000,-6000.000000,Speed,Speed,-25.040000,1.790000,-0.100000,1.000000,101.000000,1,1,-0.003906,-0.003906,1,0.222992,-0.041214,0.000000,29.431244,-11.067017,0.000000,0.000000,-0.023000,0.061000,FlatInitial,Hold,0
08:09:58.782 PM 02/17/2016,Teleop Enabled,0,FALSE,0,NO ERROR,-6002.929688,6001.171875,-6000.000000,-6000.000000,Speed,Speed,-25.060000,1.750000,-0.120000,1.000000,103.000000,1,1,-0.004307,-0.004307,1,0.274689,-0.084610,0.000000,29.443954,-11.070465,0.000000,0.000000,-0.023000,0.061000,FlatInitial,Hold,0
08:09:58.883 PM 02/17/2016,Teleop Enabled,0,FALSE,0,NO ERROR,-6000.585938,6001.757812,-6000.000000,-6000.000000,Speed,Speed,-25.040000,1.730000,-0.130000,1.000000,101.000000,1,1,-0.003906,-0.003906,1,0.316238,-0.134506,0.000000,29.461700,-11.077057,0.000000,0.032000,-0.026000,0.006000,FlatInitial,Hold,0
08:09:58.984 PM 02/17/2016,Teleop Enabled,0,FALSE,0,NO ERROR,-6001.171875,5997.656250,-6000.000000,-6000.000000,Speed,Speed,-25.040000,1.730000,-0.130000,1.000000,101.000000,1,1,-0.003906,-0.003906,1,0.316238,-0.134506,0.000000,29.461700,-11.077057,0.000000,0.032000,-0.026000,0.006000,FlatInitial,Hold,0
08:09:59.084 PM 02/17/2016,Teleop Enabled,0,FALSE,0,NO ERROR,-6004.687500,5993.554688,-6000.000000,-6000.000000,Speed,Speed,-25.040000,1.710000,-0.220000,1.000000,103.000000,1,1,-0.003906,-0.003906,1,0.046204,-0.265945,0.000000,29.483261,-11.101013,0.000000,0.079000,-0.062000,0.008000,FlatInitial,Hold,0
08:09:59.186 PM 02/17/2016,Teleop Enabled,0,FALSE,0,NO ERROR,-6005.859375,5993.554688,-6000.000000,-6000.000000,Speed,Speed,-25.070000,1.670000,-0.310000,1.000000,106.000000,1,1,-0.004307,-0.004307,1,0.046204,-0.265945,0.000000,29.483261,-11.101013,0.000000,-0.018000,-0.052000,0.024000,FlatInitial,Hold,0
08:09:59.287 PM 02/17/2016,Teleop Enabled,0,FALSE,0,NO ERROR,-6007.617188,5994.726562,-6000.000000,-6000.000000,Speed,Speed,-25.060000,1.750000,-0.370000,1.000000,103.000000,1,1,-0.003906,-0.003906,1,0.035599,-0.368057,0.000000,29.485367,-11.123642,0.000000,-0.015000,-0.091000,-0.011000,FlatInitial,Hold,0
08:09:59.388 PM 02/17/2016,Teleop Enabled,0,FALSE,0,NO ERROR,-6008.789062,5997.656250,-6000.000000,-6000.000000,Speed,Speed,-25.070000,1.740000,-0.500000,1.000000,105.000000,1,1,-0.003906,-0.003906,1,0.084259,-0.470978,0.000000,29.489182,-11.149399,0.000000,-0.015000,-0.091000,-0.011000,FlatInitial,Hold,0
08:09:59.489 PM 02/17/2016,Teleop Enabled,0,FALSE,0,NO ERROR,-6004.687500,6001.171875,-6000.000000,-6000.000000,Speed,Speed,-25.050000,1.930000,-0.660000,1.000000,103.000000,1,1,-0.003906,-0.003906,1,0.121521,-0.543900,0.000000,29.494904,-11.175278,0.000000,-0.015000,-0.099000,0.057000,FlatInitial,Hold,0
08:09:59.589 PM 02/17/2016,Teleop Enabled,0,FALSE,0,NO ERROR,-5997.070312,6004.687500,-6000.000000,-6000.000000,Speed,Speed,-25.050000,1.940000,-0.640000,1.000000,103.000000,1,1,-0.004307,-0.004307,1,0.121521,-0.543900,0.000000,29.494904,-11.175278,0.000000,-0.015000,-0.099000,0.057000,FlatInitial,Hold,0
08:09:59.691 PM 02/17/2016,Teleop Enabled,0,FALSE,0,NO ERROR,-5997.070312,6007.617188,-6000.000000,-6000.000000,Speed,Speed,-25.050000,1.950000,-0.620000,1.000000,103.000000,1,1,-0.003906,-0.003906,1,0.158203,-0.639435,0.000000,29.505905,-11.223099,0.000000,-0.023000,-0.067000,-0.015000,FlatInitial,Hold,0
08:09:59.791 PM 02/17/2016,Teleop Enabled,0,FALSE,0,NO ERROR,-5998.242188,6009.375000,-6000.000000,-6000.000000,Speed,Speed,-25.050000,1.950000,-0.620000,1.000000,103.000000,1,1,-0.004307,-0.004307,1,0.000000,-0.733704,0.000000,29.515503,-11.271530,0.000000,-0.023000,-0.067000,-0.015000,FlatInitial,Hold,0
08:09:59.892 PM 02/17/2016,Teleop Enabled,0,FALSE,0,NO ERROR,-5995.312500,6008.203125,-6000.000000,-6000.000000,Speed,Speed,-25.050000,1.890000,-0.640000,1.000000,101.000000,1,1,-0.003906,-0.003906,1,0.000000,-0.733704,0.000000,29.515503,-11.271530,0.000000,0.029000,-0.114000,-0.013000,FlatInitial,Hold,0
