Time,RobotMode,AutoToRun,ErrorStatus, ErrorCode,ErrorSource,ActualRPM1,ActualRPM2,DesiredRPM1,DesiredRPM2,ControlMode1,ControlMode2,NavXYaw,NavXRoll,NavXPitch,ShooterState,LoopTime,IsLevel,IsAutoTargeting,LeftMotorOutput,RightMotorOutput,IsHaloDrive,NavXVelocityX,NavXVelocityY,NavXVelocityZ,NavXDisplacementX,NavXDisplacementY,NavXDisplacementZ,NavXAccelerationX,NavXAccelerationY,NavXAccelerationZ,AutoDefendState,AngeMotorState,Photoeye
07:18:34.871 PM 02/16/2016,Teleop Disabled,0,TRUE,91,Variant To Data in WPI_DigitalInputRefNum Registry Get.vi->Periodic Tasks.vi->Robot Main.vi,0.000000,0.000000,-6000.000000,-6000.000000,Speed,Speed,-0.290000,0.800000,0.560000,1.000000,101.000000,1,0,-0.000000,0.000000,1,0.000000,0.000000,0.000000,-19.096832,40.991714,0.000000,0.003000,-0.010000,0.005000,FlatInitial,Hold,0
07:18:34.973 PM 02/16/2016,Teleop Disabled,0,TRUE,-44007,<LOCATION>WPI_DigitalInputRefNum Registry Get.vi<CALLSTACK>WPI_DigitalInputRefNum Registry Get.vi< <Periodic Tasks.vi< <Robot Main.vi,0.000000,0.000000,0.000000,0.000000,Speed,Speed,-0.500000,0.850000,0.600000,0.000000,82873.000000,1,0,-0.000000,0.000000,1,0.000000,0.000000,0.000000,-19.097946,40.991974,0.000000,-0.005000,0.002000,0.005000,FlatInitial,ResetBack,0
07:18:35.073 PM 02/16/2016,Teleop Disabled,0,FALSE,0,NO ERROR,0.000000,0.000000,0.000000,0.000000,Speed,Speed,0.000000,0.850000,0.610000,0.000000,101.000000,1,0,-0.000000,0.000000,1,0.000000,0.000000,0.000000,-19.097946,40.991974,0.000000,-0.001000,0.001000,0.000000,FlatInitial,ResetBack,0
07:18:35.174 PM 02/16/2016,Teleop Disabled,0,FALSE,0,NO ERROR,0.000000,0.000000,0.000000,0.000000,Speed,Speed,0.000000,0.840000,0.610000,0.000000,102.000000,1,0,-0.000000,0.000000,1,0.000000,0.000000,0.000000,-19.097946,40.991974,0.000000,0.000000,-0.002000,0.000000,FlatInitial,ResetBack,0
07:18:35.275 PM 02/16/2016,Teleop Disabled,0,FALSE,0,NO ERROR,0.000000,0.000000,0.000000,0.000000,Speed,Speed,0.010000,0.840000,0.610000,0.000000,101.000000,1,0,-0.000000,0.000000,1,0.000000,0.000000,0.000000,-19.097946,40.991974,0.000000,0.002000,-0.003000,0.003000,FlatInitial,ResetBack,0
07:18:35.376 PM 02/16/2016,Teleop Disabled,0,FALSE,0,NO ERROR,0.000000,0.000000,0.000000,0.000000,Speed,Speed,0.010000,0.850000,0.610000,0.000000,102.000000,1,0,-0.000000,0.000000,1,0.000000,0.000000,0.000000,-19.097946,40.991974,0.000000,-0.002000,-0.001000,0.001000,FlatInitial,ResetBack,0
07:18:35.478 PM 02/16/2016,Teleop Disabled,0,FALSE,0,NO ERROR,0.000000,0.000000,0.000000,0.000000,Speed,Speed,0.010000,0.850000,0.600000,0.000000,101.000000,1,0,-0.000000,0.000000,1,0.000000,0.000000,0.000000,-19.097946,40.991974,0.000000,-0.001000,-0.003000,0.003000,FlatInitial,ResetBack,0
07:18:35.579 PM 02/16/2016,Teleop Disabled,0,FALSE,0,NO ERROR,0.000000,0.000000,0.000000,0.000000,Speed,Speed,0.010000,0.850000,0.600000,0.000000,104.000000,1,0,-0.000000,0.000000,1,0.000000,0.000000,0.000000,-19.097946,40.991974,0.000000,0.000000,-0.003000,0.003000,FlatInitial,ResetBack,0
07:18:35.680 PM 02/16/2016,Teleop Disabled,0,FALSE,0,NO ERROR,0.000000,0.000000,0.000000,0.000000,Speed,Speed,0.010000,0.850000,0.600000,0.000000,103.000000,1,0,-0.000000,0.000000,1,0.000000,0.000000,0.000000,-19.097946,40.991974,0.000000,0.000000,0.000000,0.004000,FlatInitial,ResetBack,0
07:18:35.780 PM 02/16/2016,Teleop Disabled,0,FALSE,0,NO ERROR,0.000000,0.000000,0.000000,0.000000,Speed,Speed,0.010000,0.840000,0.590000,0.000000,101.000000,1,0,-0.000000,0.000000,1,0.000000,0.000000,0.000000,-19.097946,40.991974,0.000000,0.000000,0.001000,0.006000,FlatInitial,ResetBack,0
07:18:35.884 PM 02/16/2016,Teleop Disabled,0,FALSE,0,NO ERROR,0.000000,0.000000,0.000000,0.000000,Speed,Speed,0.000000,0.840000,0.580000,0.000000,102.000000,1,0,-0.000000,0.000000,1,0.000000,0.000000,0.000000,-19.097946,40.991974,0.000000,0.001000,0.000000,0.001000,FlatInitial,ResetBack,0
07:18:35.982 PM 02/16/2016,Teleop Disabled,0,FALSE,0,NO ERROR,0.000000,0.000000,0.000000,0.000000,Speed,Speed,0.000000,0.840000,0.580000,0.000000,103.000000,1,0,-0.000000,0.000000,1,0.000000,0.000000,0.000000,-19.097946,40.991974,0.000000,0.002000,-0.002000,0.003000,FlatInitial,ResetBack,0
07:18:36.082 PM 02/16/2016,Teleop Disabled,0,FALSE,0,NO ERROR,0.000000,0.000000,0.000000,0.000000,Speed,Speed,0.000000,0.840000,0.580000,0.000000,102.000000,1,0,-0.000000,0.000000,1,0.000000,0.000000,0.000000,-19.097946,40.991974,0.000000,-0.002000,-0.002000,0.005000,FlatInitial,ResetBack,0
07:18:36.182 PM 02/16/2016,Teleop Enabled,0,FALSE,0,NO ERROR,0.000000,0.000000,0.000000,0.000000,Speed,Speed,0.000000,0.840000,0.600000,0.000000,102.000000,1,0,-0.000000,0.000000,1,0.000000,0.000000,0.000000,-19.097946,40.991974,0.000000,0.001000,-0.001000,0.002000,FlatInitial,ResetBack,0
07:18:36.284 PM 02/16/2016,Teleop Enabled,0,FALSE,0,NO ERROR,0.000000,0.000000,0.000000,0.000000,Speed,Speed,0.000000,0.840000,0.600000,0.000000,101.000000,1,0,-0.000000,0.000000,1,0.000000,0.000000,0.000000,-19.097946,40.991974,0.000000,0.060000,-0.086000,0.016000,FlatInitial,ResetBack,0
07:18:36.385 PM 02/16/2016,Teleop Enabled,0,FALSE,0,NO ERROR,0.000000,0.000000,0.000000,0.000000,Speed,Speed,0.000000,0.830000,0.650000,0.000000,102.000000,1,0,-0.000000,0.000000,1,0.000000,-0.005447,0.000000,-19.097458,40.991318,0.000000,0.009000,-0.008000,-0.023000,FlatInitial,ResetBack,0
07:18:36.485 PM 02/16/2016,Teleop Enabled,0,FALSE,0,NO ERROR,0.000000,0.000000,0.000000,0.000000,Speed,Speed,-0.020000,0.830000,0.850000,0.000000,102.000000,1,0,-0.000000,0.000000,1,0.000443,0.003296,0.000000,-19.097290,40.990952,0.000000,-0.024000,0.022000,0.019000,FlatInitial,ResetBack,0
07:18:36.585 PM 02/16/2016,Teleop Enabled,0,FALSE,0,NO ERROR,0.000000,0.000000,0.000000,0.000000,Speed,Speed,0.020000,0.860000,0.880000,0.000000,100.000000,1,0,-0.000000,0.000000,1,0.003998,0.000000,0.000000,-19.097443,40.991150,0.000000,0.014000,0.000000,0.026000,FlatInitial,ResetBack,0
07:18:36.686 PM 02/16/2016,Teleop Enabled,0,FALSE,0,NO ERROR,0.000000,0.000000,0.000000,0.000000,Speed,Speed,0.000000,0.820000,0.860000,0.000000,102.000000,1,0,-0.000000,0.000000,1,-0.010437,-0.008789,0.000000,-19.097626,40.991013,0.000000,0.029000,-0.019000,0.078000,FlatInitial,ResetBack,0
07:18:36.786 PM 02/16/2016,Teleop Enabled,0,FALSE,0,NO ERROR,0.000000,0.000000,0.000000,0.000000,Speed,Speed,0.010000,0.830000,0.880000,0.000000,104.000000,1,0,-0.000000,0.000000,1,0.000000,0.000000,0.000000,-19.097672,40.990936,0.000000,-0.003000,-0.011000,0.020000,FlatInitial,ResetBack,0
07:18:36.887 PM 02/16/2016,Teleop Enabled,0,FALSE,0,NO ERROR,0.000000,0.000000,0.000000,0.000000,Speed,Speed,0.010000,0.830000,0.900000,0.000000,102.000000,1,0,-0.000000,0.000000,1,0.000000,0.000000,0.000000,-19.097672,40.990936,0.000000,0.005000,-0.004000,0.006000,FlatInitial,ResetBack,0
07:18:36.988 PM 02/16/2016,Teleop Enabled,0,FALSE,0,NO ERROR,0.000000,0.000000,0.000000,0.000000,Speed,Speed,0.000000,0.830000,0.880000,0.000000,100.000000,1,0,-0.000000,0.000000,1,0.000000,0.000000,0.000000,-19.097672,40.990936,0.000000,0.000000,0.008000,0.007000,FlatInitial,ResetBack,0
07:18:37.088 PM 02/16/2016,Teleop Enabled,0,FALSE,0,NO ERROR,0.000000,0.000000,0.000000,0.000000,Speed,Speed,0.010000,0.820000,0.880000,0.000000,101.000000,1,0,-0.000000,0.000000,1,0.000000,0.000000,0.000000,-19.097672,40.990936,0.000000,-0.001000,0.011000,0.008000,FlatInitial,ResetBack,0
07:18:37.188 PM 02/16/2016,Teleop Enabled,0,FALSE,0,NO ERROR,0.000000,0.000000,0.000000,0.000000,Speed,Speed,0.010000,0.830000,0.900000,0.000000,101.000000,1,0,-0.000000,0.000000,1,0.000000,0.000000,0.000000,-19.097672,40.990936,0.000000,-0.002000,-0.006000,-0.004000,FlatInitial,ResetBack,0
07:18:37.288 PM 02/16/2016,Teleop Enabled,0,FALSE,0,NO ERROR,0.000000,0.000000,0.000000,0.000000,Speed,Speed,0.010000,0.840000,0.880000,0.000000,102.000000,1,0,-0.000000,0.000000,1,0.000000,0.000000,0.000000,-19.097672,40.990936,0.000000,-0.004000,0.015000,0.013000,FlatInitial,ResetBack,0
07:18:37.388 PM 02/16/2016,Teleop Enabled,0,FALSE,0,NO ERROR,0.000000,0.000000,0.000000,0.000000,Speed,Speed,0.010000,0.830000,0.900000,0.000000,104.000000,1,0,-0.000000,0.000000,1,0.000000,0.000000,0.000000,-19.097672,40.990936,0.000000,0.000000,0.000000,0.005000,FlatInitial,ResetBack,0
07:18:37.488 PM 02/16/2016,Teleop Enabled,0,FALSE,0,NO ERROR,0.000000,0.000000,0.000000,0.000000,Speed,Speed,0.000000,0.840000,0.870000,0.000000,104.000000,1,0,-0.000000,0.000000,1,0.000000,0.000000,0.000000,-19.097672,40.990936,0.000000,0.000000,0.000000,0.000000,FlatInitial,ResetBack,0
07:18:37.588 PM 02/16/2016,Teleop Enabled,0,FALSE,0,NO ERROR,0.000000,0.292969,0.000000,0.000000,Speed,Speed,0.010000,0.840000,0.870000,0.000000,102.000000,1,0,-0.000000,0.000000,1,0.000000,0.000000,0.000000,-19.097672,40.990936,0.000000,-0.006000,0.011000,0.001000,FlatInitial,ResetBack,0
07:18:37.688 PM 02/16/2016,Teleop Enabled,0,FALSE,0,NO ERROR,0.000000,0.146484,0.000000,0.000000,Speed,Speed,0.010000,0.840000,0.870000,0.000000,101.000000,1,0,-0.000000,0.000000,1,0.000000,0.000000,0.000000,-19.097672,40.990936,0.000000,-0.008000,0.005000,-0.001000,FlatInitial,ResetBack,0
07:18:37.789 PM 02/16/2016,Teleop Enabled,0,FALSE,0,NO ERROR,0.000000,1.611328,0.000000,0.000000,Speed,Speed,0.010000,0.830000,0.830000,0.000000,102.000000,1,0,-0.000000,0.000000,1,0.000000,0.000000,0.000000,-19.097672,40.990936,0.000000,0.000000,-0.003000,0.014000,FlatInitial,ResetBack,0
07:18:37.891 PM 02/16/2016,Teleop Enabled,0,FALSE,0,NO ERROR,0.000000,2.783203,0.000000,0.000000,Speed,Speed,0.010000,0.820000,0.860000,0.000000,102.000000,1,0,-0.000000,0.000000,1,0.000000,0.000000,0.000000,-19.097672,40.990936,0.000000,0.000000,-0.015000,-0.004000,FlatInitial,ResetBack,0
07:18:37.991 PM 02/16/2016,Teleop Enabled,0,FALSE,0,NO ERROR,0.000000,0.439453,0.000000,0.000000,Speed,Speed,0.010000,0.820000,0.850000,0.000000,101.000000,1,0,-0.000000,0.000000,1,0.000000,0.000000,0.000000,-19.097672,40.990936,0.000000,0.007000,-0.006000,0.005000,FlatInitial,ResetBack,0
07:18:38.091 PM 02/16/2016,Teleop Enabled,0,FALSE,0,NO ERROR,0.000000,0.439453,0.000000,0.000000,Speed,Speed,0.000000,0.830000,0.850000,0.000000,102.000000,1,0,-0.000000,0.000000,1,0.000000,0.000000,0.000000,-19.097672,40.990936,0.000000,-0.001000,-0.009000,0.013000,FlatInitial,ResetBack,0
07:18:38.191 PM 02/16/2016,Teleop Enabled,0,FALSE,0,NO ERROR,0.000000,0.292969,-6000.000000,-6000.000000,Speed,Speed,0.000000,0.830000,0.850000,1.000000,102.000000,1,0,-0.000000,0.000000,1,0.000000,0.000000,0.000000,-19.097672,40.990936,0.000000,-0.005000,-0.006000,0.001000,FlatInitial,ResetBack,0
07:18:38.291 PM 02/16/2016,Teleop Enabled,0,FALSE,0,NO ERROR,0.000000,0.000000,-6000.000000,-6000.000000,Speed,Speed,0.000000,0.820000,0.860000,1.000000,102.000000,1,0,-0.000000,0.000000,1,0.000000,0.000000,0.000000,-19.097672,40.990936,0.000000,0.005000,-0.002000,0.001000,FlatInitial,ResetBack,0
07:18:38.392 PM 02/16/2016,Teleop Enabled,0,FALSE,0,NO ERROR,0.000000,0.000000,-6000.000000,-6000.000000,Speed,Speed,0.000000,0.820000,0.860000,1.000000,102.000000,1,0,-0.000000,0.000000,1,0.000000,0.000000,0.000000,-19.097672,40.990936,0.000000,0.000000,0.001000,0.000000,FlatInitial,ResetBack,0
07:18:38.493 PM 02/16/2016,Teleop Enabled,0,FALSE,0,NO ERROR,0.000000,0.000000,-6000.000000,-6000.000000,Speed,Speed,0.000000,0.830000,0.850000,1.000000,102.000000,1,0,-0.000000,0.000000,1,0.000000,0.000000,0.000000,-19.097672,40.990936,0.000000,0.001000,-0.002000,0.003000,FlatInitial,ResetBack,0
07:18:38.593 PM 02/16/2016,Teleop Enabled,0,FALSE,0,NO ERROR,0.000000,0.000000,-6000.000000,-6000.000000,Speed,Speed,0.000000,0.830000,0.850000,1.000000,103.000000,1,0,-0.000000,0.000000,1,0.000000,0.000000,0.000000,-19.097672,40.990936,0.000000,0.005000,-0.008000,0.000000,FlatInitial,ResetBack,0
07:18:38.693 PM 02/16/2016,Teleop Enabled,0,FALSE,0,NO ERROR,0.000000,0.732422,-6000.000000,-6000.000000,Speed,Speed,0.000000,0.820000,0.880000,1.000000,101.000000,1,0,-0.000000,0.000000,1,0.000000,0.000000,0.000000,-19.097672,40.990936,0.000000,0.002000,-0.001000,-0.001000,FlatInitial,ResetBack,0
07:18:38.794 PM 02/16/2016,Teleop Enabled,0,FALSE,0,NO ERROR,0.000000,0.878906,-6000.000000,-6000.000000,Speed,Speed,0.000000,0.830000,0.880000,1.000000,104.000000,1,0,-0.000000,0.000000,1,0.000000,0.000000,0.000000,-19.097672,40.990936,0.000000,0.001000,-0.006000,0.004000,FlatInitial,ResetBack,0
07:18:38.894 PM 02/16/2016,Teleop Enabled,0,FALSE,0,NO ERROR,0.000000,0.732422,-6000.000000,-6000.000000,Speed,Speed,0.000000,0.830000,0.890000,1.000000,103.000000,1,0,-0.000000,0.000000,1,0.000000,0.000000,0.000000,-19.097672,40.990936,0.000000,-0.001000,-0.003000,0.001000,FlatInitial,ResetBack,0
07:18:38.995 PM 02/16/2016,Teleop Enabled,0,FALSE,0,NO ERROR,0.000000,2.050781,-6000.000000,-6000.000000,Speed,Speed,0.000000,0.840000,0.890000,1.000000,100.000000,1,0,-0.000000,0.000000,1,0.000000,0.000000,0.000000,-19.097672,40.990936,0.000000,-0.001000,0.000000,0.001000,FlatInitial,ResetBack,0
07:18:39.096 PM 02/16/2016,Teleop Enabled,0,FALSE,0,NO ERROR,0.000000,0.439453,-6000.000000,-6000.000000,Speed,Speed,0.000000,0.830000,0.900000,1.000000,101.000000,1,0,-0.000000,0.000000,1,0.000000,0.000000,0.000000,-19.097672,40.990936,0.000000,-0.001000,-0.001000,0.000000,FlatInitial,ResetBack,0
07:18:39.197 PM 02/16/2016,Teleop Enabled,0,FALSE,0,NO ERROR,0.000000,2.050781,-6000.000000,-6000.000000,Speed,Speed,0.000000,0.840000,0.890000,1.000000,101.000000,1,0,-0.000000,0.000000,1,0.000000,0.000000,0.000000,-19.097672,40.990936,0.000000,0.005000,0.004000,0.004000,FlatInitial,ResetBack,0
07:18:39.297 PM 02/16/2016,Teleop Enabled,0,FALSE,0,NO ERROR,0.000000,0.000000,-6000.000000,-6000.000000,Speed,Speed,0.000000,0.850000,0.890000,1.000000,101.000000,1,0,-0.000000,0.000000,1,0.000000,0.000000,0.000000,-19.097672,40.990936,0.000000,0.000000,-0.003000,-0.001000,FlatInitial,ResetBack,0
07:18:39.398 PM 02/16/2016,Teleop Enabled,0,FALSE,0,NO ERROR,0.000000,1.171875,-6000.000000,-6000.000000,Speed,Speed,0.000000,0.850000,0.920000,1.000000,104.000000,1,0,-0.000000,0.000000,1,0.000000,0.000000,0.000000,-19.097672,40.990936,0.000000,0.002000,-0.001000,0.004000,FlatInitial,ResetBack,0
07:18:39.499 PM 02/16/2016,Teleop Enabled,0,FALSE,0,NO ERROR,0.000000,0.146484,-6000.000000,-6000.000000,Speed,Speed,-0.010000,0.850000,0.890000,1.000000,100.000000,1,0,-0.000000,0.000000,1,0.000000,0.000000,0.000000,-19.097672,40.990936,0.000000,0.006000,-0.004000,0.019000,FlatInitial,ResetBack,0
07:18:39.600 PM 02/16/2016,Teleop Enabled,0,FALSE,0,NO ERROR,0.000000,0.000000,-6000.000000,-6000.000000,Speed,Speed,-0.010000,0.840000,0.900000,1.000000,101.000000,1,0,-0.000000,0.000000,1,0.000000,0.000000,0.000000,-19.097672,40.990936,0.000000,0.004000,0.006000,-0.001000,FlatInitial,ResetBack,0
07:18:39.701 PM 02/16/2016,Teleop Enabled,0,FALSE,0,NO ERROR,0.000000,0.878906,-6000.000000,-6000.000000,Speed,Speed,-0.010000,0.840000,0.910000,1.000000,102.000000,1,0,-0.000000,0.000000,1,0.000000,0.000000,0.000000,-19.097672,40.990936,0.000000,0.000000,0.002000,0.003000,FlatInitial,ResetBack,1
07:18:39.802 PM 02/16/2016,Teleop Enabled,0,FALSE,0,NO ERROR,0.000000,0.878906,-6000.000000,-6000.000000,Speed,Speed,-0.010000,0.840000,0.910000,1.000000,103.000000,1,0,-0.000000,0.000000,1,0.000000,0.000000,0.000000,-19.097672,40.990936,0.000000,0.000000,-0.006000,-0.002000,FlatInitial,ResetForward,1
07:18:39.902 PM 02/16/2016,Teleop Enabled,0,FALSE,0,NO ERROR,0.000000,2.197266,-6000.000000,-6000.000000,Speed,Speed,-0.050000,0.840000,0.910000,1.000000,103.000000,1,0,-0.000000,0.000000,1,0.000000,0.000000,0.000000,-19.097672,40.990936,0.000000,-0.004000,-0.008000,0.000000,FlatInitial,ResetForward,1
07:18:40.002 PM 02/16/2016,Teleop Enabled,0,FALSE,0,NO ERROR,0.000000,0.000000,-6000.000000,-6000.000000,Speed,Speed,-0.050000,0.810000,1.010000,1.000000,102.000000,1,0,-0.000000,0.000000,1,0.000000,0.000000,0.000000,-19.097672,40.990692,0.000000,0.006000,0.004000,0.015000,FlatInitial,ResetForward,1
07:18:40.102 PM 02/16/2016,Teleop Enabled,0,FALSE,0,NO ERROR,0.000000,1.904297,-6000.000000,-6000.000000,Speed,Speed,-0.050000,0.790000,1.050000,1.000000,101.000000,1,0,-0.000000,0.000000,1,0.000000,0.008789,0.000000,-19.097672,40.990829,0.000000,0.003000,0.028000,0.001000,FlatInitial,ResetForward,1
07:18:40.203 PM 02/16/2016,Teleop Enabled,0,FALSE,0,NO ERROR,0.000000,0.439453,-6000.000000,-6000.000000,Speed,Speed,-0.070000,0.830000,1.000000,1.000000,101.000000,1,0,-0.000000,0.000000,1,0.000000,0.020630,0.000000,-19.097672,40.991959,0.000000,-0.014000,-0.018000,-0.014000,FlatInitial,ResetForward,0
07:18:40.308 PM 02/16/2016,Teleop Enabled,0,FALSE,0,NO ERROR,0.000000,0.000000,-6000.000000,-6000.000000,Speed,Speed,-0.060000,0.860000,0.880000,1.000000,101.000000,1,0,-0.000000,0.000000,1,0.000000,-0.004913,0.000000,-19.097672,40.992218,0.000000,-0.002000,-0.001000,-0.001000,FlatInitial,Reset,0
07:18:40.412 PM 02/16/2016,Teleop Enabled,0,FALSE,0,NO ERROR,0.000000,0.000000,-6000.000000,-6000.000000,Speed,Speed,-0.060000,0.820000,0.940000,1.000000,102.000000,1,0,-0.000000,0.000000,1,0.000000,0.000000,0.000000,-19.097672,40.992218,0.000000,-0.005000,0.040000,0.030000,FlatInitial,Hold,0
07:18:40.512 PM 02/16/2016,Teleop Enabled,0,FALSE,0,NO ERROR,0.000000,0.000000,-6000.000000,-6000.000000,Speed,Speed,-0.070000,0.860000,0.880000,1.000000,101.000000,1,0,-0.000000,0.000000,1,-0.004257,0.000000,0.000000,-19.097702,40.992523,0.000000,-0.010000,-0.007000,0.031000,FlatInitial,Hold,0
07:18:40.613 PM 02/16/2016,Teleop Enabled,0,FALSE,0,NO ERROR,0.000000,0.000000,-6000.000000,-6000.000000,Speed,Speed,-0.060000,0.850000,0.880000,1.000000,103.000000,1,0,-0.000000,0.000000,1,0.005264,-0.027542,0.000000,-19.097794,40.991821,0.000000,-0.011000,-0.017000,0.008000,FlatInitial,Hold,0
07:18:40.713 PM 02/16/2016,Teleop Enabled,0,FALSE,0,NO ERROR,0.000000,0.000000,-6000.000000,-6000.000000,Speed,Speed,-0.060000,0.830000,0.940000,1.000000,101.000000,1,0,-0.000000,0.000000,1,0.000000,-0.001984,0.000000,-19.097763,40.991379,0.000000,0.000000,0.038000,0.012000,FlatInitial,Hold,0
07:18:40.814 PM 02/16/2016,Teleop Enabled,0,FALSE,0,NO ERROR,0.000000,0.000000,-6000.000000,-6000.000000,Speed,Speed,-0.060000,0.850000,0.920000,1.000000,103.000000,1,0,-0.000000,0.000000,1,0.003067,-0.010300,0.000000,-19.097702,40.991302,0.000000,-0.013000,-0.048000,-0.014000,FlatInitial,Hold,0
07:18:40.915 PM 02/16/2016,Teleop Enabled,0,FALSE,0,NO ERROR,0.000000,0.000000,-6000.000000,-6000.000000,Speed,Speed,-0.060000,0.840000,0.910000,1.000000,102.000000,1,0,-0.000000,0.000000,1,0.000122,-0.018387,0.000000,-19.097717,40.990601,0.000000,-0.024000,-0.012000,0.003000,FlatInitial,Hold,0
07:18:41.021 PM 02/16/2016,Teleop Enabled,0,FALSE,0,NO ERROR,0.000000,0.292969,-6000.000000,-6000.000000,Speed,Speed,-0.060000,0.840000,0.930000,1.000000,102.000000,1,0,-0.000000,0.000000,1,0.000000,-0.016098,0.000000,-19.097748,40.990219,0.000000,-0.008000,-0.002000,0.029000,FlatInitial,Hold,0
07:18:41.117 PM 02/16/2016,Teleop Enabled,0,FALSE,0,NO ERROR,0.000000,0.439453,-6000.000000,-6000.000000,Speed,Speed,-0.060000,0.850000,0.940000,1.000000,102.000000,1,0,-0.000000,0.000000,1,0.008652,0.000000,0.000000,-19.097549,40.989548,0.000000,-0.011000,-0.018000,-0.031000,FlatInitial,Hold,0
07:18:41.218 PM 02/16/2016,Teleop Enabled,0,FALSE,0,NO ERROR,0.000000,0.439453,-6000.000000,-6000.000000,Speed,Speed,-0.060000,0.860000,0.950000,1.000000,101.000000,1,0,-0.000000,0.000000,1,-0.002243,0.009140,0.000000,-19.097580,40.989777,0.000000,-0.021000,-0.014000,0.005000,FlatInitial,Hold,0
07:18:41.318 PM 02/16/2016,Teleop Enabled,0,FALSE,0,NO ERROR,0.000000,0.000000,-6000.000000,-6000.000000,Speed,Speed,-0.060000,0.850000,0.950000,1.000000,101.000000,1,0,-0.000000,0.000000,1,0.000000,-0.015900,0.000000,-19.097733,40.989426,0.000000,0.006000,-0.029000,0.003000,FlatInitial,Hold,0
07:18:41.419 PM 02/16/2016,Teleop Enabled,0,FALSE,0,NO ERROR,0.000000,0.000000,-6000.000000,-6000.000000,Speed,Speed,-0.060000,0.840000,0.930000,1.000000,102.000000,1,0,-0.000000,0.000000,1,0.000000,0.000000,0.000000,-19.097610,40.988892,0.000000,-0.017000,0.007000,0.030000,FlatInitial,Hold,0
07:18:41.520 PM 02/16/2016,Teleop Enabled,0,FALSE,0,NO ERROR,0.000000,0.000000,-6000.000000,-6000.000000,Speed,Speed,-0.060000,0.850000,0.960000,1.000000,100.000000,1,0,-0.000000,0.000000,1,0.000000,0.000000,0.000000,-19.097610,40.988892,0.000000,-0.006000,-0.017000,-0.014000,FlatInitial,Hold,0
07:18:41.620 PM 02/16/2016,Teleop Enabled,0,FALSE,0,NO ERROR,0.000000,0.000000,-6000.000000,-6000.000000,Speed,Speed,-0.060000,0.840000,0.960000,1.000000,101.000000,1,0,-0.000000,0.000000,1,0.000000,0.003525,0.000000,-19.097610,40.988724,0.000000,-0.005000,0.042000,0.016000,FlatInitial,Hold,0
07:18:41.721 PM 02/16/2016,Teleop Enabled,0,FALSE,0,NO ERROR,0.000000,0.000000,-6000.000000,-6000.000000,Speed,Speed,-0.060000,0.840000,0.980000,1.000000,101.000000,1,0,-0.000000,0.000000,1,0.000000,0.015549,0.000000,-19.097610,40.989380,0.000000,0.016000,0.012000,0.003000,FlatInitial,Hold,0
07:18:41.822 PM 02/16/2016,Teleop Enabled,0,FALSE,0,NO ERROR,0.000000,0.000000,-6000.000000,-6000.000000,Speed,Speed,-0.050000,0.830000,0.980000,1.000000,101.000000,1,0,-0.000000,0.000000,1,0.000000,0.024948,0.000000,-19.097610,40.990494,0.000000,0.011000,0.003000,-0.019000,FlatInitial,Hold,0
07:18:41.924 PM 02/16/2016,Teleop Enabled,0,FALSE,0,NO ERROR,0.000000,0.000000,-6000.000000,-6000.000000,Speed,Speed,-0.050000,0.830000,1.000000,1.000000,103.000000,1,0,-0.000000,0.000000,1,0.000000,0.000000,0.000000,-19.097610,40.991043,0.000000,-0.005000,0.046000,0.015000,FlatInitial,Hold,0
07:18:42.026 PM 02/16/2016,Teleop Enabled,0,FALSE,0,NO ERROR,0.000000,0.000000,-6000.000000,-6000.000000,Speed,Speed,-0.050000,0.830000,1.010000,1.000000,101.000000,1,0,-0.000000,0.000000,1,0.000000,-0.001678,0.000000,-19.097610,40.991257,0.000000,-0.002000,0.014000,0.038000,FlatInitial,Hold,0
07:18:42.127 PM 02/16/2016,Teleop Enabled,0,FALSE,0,NO ERROR,0.000000,0.000000,-6000.000000,-6000.000000,Speed,Speed,-0.030000,0.800000,1.080000,1.000000,102.000000,1,0,-0.000000,0.000000,1,0.000000,-0.020905,0.000000,-19.097610,40.990707,0.000000,-0.004000,-0.007000,-0.002000,FlatInitial,Hold,0
07:18:42.228 PM 02/16/2016,Teleop Enabled,0,FALSE,0,NO ERROR,0.000000,0.000000,-6000.000000,-6000.000000,Speed,Speed,-0.020000,0.800000,1.090000,1.000000,102.000000,1,0,-0.000000,0.000000,1,0.004898,0.000000,0.000000,-19.097534,40.990479,0.000000,-0.001000,-0.001000,-0.011000,FlatInitial,Hold,0
07:18:42.328 PM 02/16/2016,Teleop Enabled,0,FALSE,0,NO ERROR,0.000000,0.000000,-6000.000000,-6000.000000,Speed,Speed,-0.030000,0.800000,1.160000,1.000000,101.000000,1,0,-0.000000,0.000000,1,0.000000,-0.005081,0.000000,-19.097488,40.990616,0.000000,-0.009000,-0.042000,0.001000,FlatInitial,Hold,0
07:18:42.430 PM 02/16/2016,Teleop Enabled,0,FALSE,0,NO ERROR,0.000000,0.000000,-6000.000000,-6000.000000,Speed,Speed,-0.030000,0.810000,1.110000,1.000000,104.000000,1,0,-0.000000,0.000000,1,0.000000,0.000275,0.000000,-19.097488,40.990479,0.000000,0.002000,-0.006000,-0.019000,FlatInitial,Hold,0
07:18:42.531 PM 02/16/2016,Teleop Enabled,0,FALSE,0,NO ERROR,0.000000,0.000000,-6000.000000,-6000.000000,Speed,Speed,-0.040000,0.800000,1.110000,1.000000,101.000000,1,0,-0.000000,0.000000,1,0.000000,-0.008392,0.000000,-19.097488,40.990356,0.000000,-0.006000,-0.029000,0.015000,FlatInitial,Hold,0
07:18:42.632 PM 02/16/2016,Teleop Enabled,0,FALSE,0,NO ERROR,0.000000,0.000000,-6000.000000,-6000.000000,Speed,Speed,-0.030000,0.800000,1.080000,1.000000,102.000000,1,0,-0.000000,0.000000,1,0.002472,0.000000,0.000000,-19.097458,40.990234,0.000000,0.022000,-0.008000,0.000000,FlatInitial,Hold,0
07:18:42.733 PM 02/16/2016,Teleop Enabled,0,FALSE,0,NO ERROR,0.000000,0.000000,-6000.000000,-6000.000000,Speed,Speed,-0.030000,0.790000,1.110000,1.000000,101.000000,1,0,-0.000000,0.000000,1,0.000000,0.000000,0.000000,-19.097382,40.990234,0.000000,0.009000,0.006000,-0.004000,FlatInitial,Hold,0
07:18:42.834 PM 02/16/2016,Teleop Enabled,0,FALSE,0,NO ERROR,0.000000,0.000000,-6000.000000,-6000.000000,Speed,Speed,-0.030000,0.800000,1.100000,1.000000,102.000000,1,0,-0.000000,0.000000,1,0.000000,-0.015732,0.000000,-19.097382,40.989670,0.000000,-0.002000,0.023000,-0.001000,FlatInitial,Hold,0
07:18:42.935 PM 02/16/2016,Teleop Enabled,0,FALSE,0,NO ERROR,0.000000,0.000000,-6000.000000,-6000.000000,Speed,Speed,-0.030000,0.800000,1.100000,1.000000,100.000000,1,0,-0.000000,0.000000,1,0.000000,-0.003357,0.000000,-19.097382,40.989380,0.000000,0.001000,-0.022000,-0.009000,FlatInitial,LowGoal,0
07:18:43.036 PM 02/16/2016,Teleop Enabled,0,FALSE,0,NO ERROR,0.000000,0.000000,-6000.000000,-6000.000000,Speed,Speed,-0.030000,0.800000,1.090000,1.000000,101.000000,1,0,-0.000000,0.000000,1,0.000000,0.000000,0.000000,-19.097382,40.988678,0.000000,-0.009000,0.001000,0.002000,FlatInitial,Hold,0
07:18:43.136 PM 02/16/2016,Teleop Enabled,0,FALSE,0,NO ERROR,0.000000,0.000000,-6000.000000,-6000.000000,Speed,Speed,-0.030000,0.780000,1.110000,1.000000,101.000000,1,0,-0.000000,0.000000,1,0.006882,0.005081,0.000000,-19.097260,40.988724,0.000000,-0.032000,-0.037000,0.003000,FlatInitial,Hold,0
07:18:43.236 PM 02/16/2016,Teleop Enabled,0,FALSE,0,NO ERROR,0.000000,0.000000,-6000.000000,-6000.000000,Speed,Speed,-0.010000,0.770000,1.090000,1.000000,102.000000,1,0,-0.000000,0.000000,1,0.002975,-0.008392,0.000000,-19.097214,40.988525,0.000000,0.022000,0.054000,-0.073000,FlatInitial,Hold,0
07:18:43.337 PM 02/16/2016,Teleop Enabled,0,FALSE,0,NO ERROR,0.000000,0.000000,-6000.000000,-6000.000000,Speed,Speed,0.000000,0.790000,1.080000,1.000000,102.000000,1,0,-0.000000,0.000000,1,0.000000,0.031647,0.000000,-19.096924,40.989059,0.000000,-0.019000,0.087000,0.018000,FlatInitial,Hold,0
07:18:43.438 PM 02/16/2016,Teleop Enabled,0,FALSE,0,NO ERROR,0.000000,0.000000,-6000.000000,-6000.000000,Speed,Speed,-0.010000,0.890000,1.220000,1.000000,102.000000,1,0,-0.000000,0.000000,1,0.000000,0.020691,0.000000,-19.096359,40.992020,0.000000,0.000000,-0.096000,0.081000,FlatInitial,Hold,0
07:18:43.538 PM 02/16/2016,Teleop Enabled,0,FALSE,0,NO ERROR,0.000000,0.000000,-6000.000000,-6000.000000,Speed,Speed,-0.020000,0.700000,1.000000,1.000000,104.000000,1,0,-0.000000,0.000000,1,-0.032150,-0.026337,0.000000,-19.097214,40.991470,0.000000,0.011000,0.013000,0.065000,FlatInitial,Hold,0
07:18:43.639 PM 02/16/2016,Teleop Enabled,0,FALSE,0,NO ERROR,0.000000,0.000000,-6000.000000,-6000.000000,Speed,Speed,-0.010000,0.880000,0.940000,1.000000,104.000000,1,0,-0.000000,0.000000,1,0.004654,0.035294,0.000000,-19.097336,40.991699,0.000000,-0.038000,0.030000,0.102000,FlatInitial,Hold,0
07:18:43.739 PM 02/16/2016,Teleop Enabled,0,FALSE,0,NO ERROR,0.000000,0.000000,-6000.000000,-6000.000000,Speed,Speed,-0.020000,0.750000,1.050000,1.000000,101.000000,1,0,-0.000000,0.000000,1,-0.023026,-0.014145,0.000000,-19.098450,40.992645,0.000000,0.000000,-0.065000,0.004000,FlatInitial,Hold,0
07:18:43.839 PM 02/16/2016,Teleop Enabled,0,FALSE,0,NO ERROR,0.000000,0.000000,-6000.000000,-6000.000000,Speed,Speed,-0.020000,0.840000,0.900000,1.000000,102.000000,1,0,-0.000000,0.000000,1,-0.029800,0.000000,0.000000,-19.099518,40.991928,0.000000,-0.001000,0.036000,0.001000,FlatInitial,Hold,0
07:18:43.939 PM 02/16/2016,Teleop Enabled,0,FALSE,0,NO ERROR,0.000000,0.000000,-6000.000000,-6000.000000,Speed,Speed,-0.030000,0.790000,1.030000,1.000000,101.000000,1,0,-0.000000,0.000000,1,0.000000,0.010910,0.000000,-19.099518,40.992462,0.000000,-0.012000,0.029000,0.025000,FlatInitial,Hold,0
07:18:44.039 PM 02/16/2016,Teleop Enabled,0,FALSE,0,NO ERROR,0.000000,0.000000,-6000.000000,-6000.000000,Speed,Speed,-0.020000,0.810000,0.870000,1.000000,102.000000,1,0,-0.000000,0.000000,1,-0.006439,0.031372,0.000000,-19.099609,40.993378,0.000000,0.014000,0.049000,-0.006000,FlatInitial,Hold,0
07:18:44.139 PM 02/16/2016,Teleop Enabled,0,FALSE,0,NO ERROR,0.000000,0.000000,-6000.000000,-6000.000000,Speed,Speed,-0.020000,0.800000,1.000000,1.000000,101.000000,1,0,-0.000000,0.000000,1,0.000000,0.068588,0.000000,-19.099503,40.996689,0.000000,-0.001000,-0.013000,-0.013000,FlatInitial,Hold,0
07:18:44.240 PM 02/16/2016,Teleop Enabled,0,FALSE,0,NO ERROR,0.000000,0.000000,-6000.000000,-6000.000000,Speed,Speed,-0.020000,0.810000,0.920000,1.000000,102.000000,1,0,-0.000000,0.000000,1,0.017807,0.000000,0.000000,-19.098999,40.998459,0.000000,0.024000,-0.001000,-0.054000,FlatInitial,Hold,0
07:18:44.340 PM 02/16/2016,Teleop Enabled,0,FALSE,0,NO ERROR,0.000000,0.000000,-6000.000000,-6000.000000,Speed,Speed,-0.020000,0.820000,0.950000,1.000000,101.000000,1,0,-0.000000,0.000000,1,0.010651,0.044891,0.000000,-19.098022,40.999680,0.000000,-0.001000,0.027000,0.062000,FlatInitial,Hold,0
07:18:44.440 PM 02/16/2016,Teleop Enabled,0,FALSE,0,NO ERROR,0.000000,0.000000,-6000.000000,-6000.000000,Speed,Speed,-0.020000,0.800000,0.940000,1.000000,102.000000,1,0,-0.000000,0.000000,1,-0.003891,0.010147,0.000000,-19.098053,41.000732,0.000000,-0.032000,0.031000,0.024000,FlatInitial,Hold,0
07:18:44.540 PM 02/16/2016,Teleop Enabled,0,FALSE,0,NO ERROR,0.000000,0.000000,-6000.000000,-6000.000000,Speed,Speed,-0.020000,0.820000,0.940000,1.000000,101.000000,1,0,-0.000000,0.000000,1,0.000000,0.040543,0.000000,-19.098694,41.002258,0.000000,0.000000,0.012000,-0.005000,FlatInitial,Hold,0
07:18:44.641 PM 02/16/2016,Teleop Enabled,0,FALSE,0,NO ERROR,0.000000,0.000000,-6000.000000,-6000.000000,Speed,Speed,-0.020000,0.800000,0.940000,1.000000,101.000000,1,0,-0.000000,0.000000,1,0.001694,0.000000,0.000000,-19.098679,41.002090,0.000000,0.022000,0.009000,-0.009000,FlatInitial,Hold,0
07:18:44.741 PM 02/16/2016,Teleop Enabled,0,FALSE,0,NO ERROR,0.000000,0.000000,-6000.000000,-6000.000000,Speed,Speed,-0.020000,0.820000,0.940000,1.000000,102.000000,1,0,-0.000000,0.000000,1,0.002304,-0.008057,0.000000,-19.098648,41.002182,0.000000,0.000000,0.011000,-0.031000,FlatInitial,Hold,0
07:18:44.841 PM 02/16/2016,Teleop Enabled,0,FALSE,0,NO ERROR,0.000000,0.000000,-6000.000000,-6000.000000,Speed,Speed,-0.020000,0.810000,0.960000,1.000000,105.000000,1,0,-0.000000,0.000000,1,0.011093,0.000000,0.000000,-19.098160,41.001511,0.000000,-0.018000,0.008000,0.037000,FlatInitial,Hold,0
07:18:44.941 PM 02/16/2016,Teleop Enabled,0,FALSE,0,NO ERROR,0.000000,0.000000,-6000.000000,-6000.000000,Speed,Speed,-0.010000,0.820000,0.920000,1.000000,100.000000,1,0,-0.000000,0.000000,1,0.019836,0.008698,0.000000,-19.097366,41.001556,0.000000,-0.006000,0.026000,0.028000,FlatInitial,Hold,0
07:18:45.041 PM 02/16/2016,Teleop Enabled,0,FALSE,0,NO ERROR,0.000000,0.000000,-6000.000000,-6000.000000,Speed,Speed,-0.010000,0.820000,0.940000,1.000000,101.000000,1,0,-0.000000,0.000000,1,0.000000,-0.002213,0.000000,-19.097183,41.001923,0.000000,-0.014000,-0.001000,0.042000,FlatInitial,Hold,0
07:18:45.141 PM 02/16/2016,Teleop Enabled,0,FALSE,0,NO ERROR,0.000000,0.000000,-6000.000000,-6000.000000,Speed,Speed,-0.010000,0.820000,0.930000,1.000000,101.000000,1,0,-0.000000,0.000000,1,0.003387,0.004303,0.000000,-19.097137,41.001953,0.000000,0.010000,0.046000,0.021000,FlatInitial,Hold,0
07:18:45.241 PM 02/16/2016,Teleop Enabled,0,FALSE,0,NO ERROR,0.000000,0.000000,-6000.000000,-6000.000000,Speed,Speed,-0.010000,0.830000,0.940000,1.000000,103.000000,1,0,-0.000000,0.000000,1,0.003906,0.000000,0.000000,-19.097046,41.002289,0.000000,0.008000,0.038000,0.019000,FlatInitial,Hold,0
07:18:45.341 PM 02/16/2016,Teleop Enabled,0,FALSE,0,NO ERROR,0.000000,0.000000,-6000.000000,-6000.000000,Speed,Speed,-0.010000,0.830000,0.940000,1.000000,102.000000,1,0,-0.000000,0.000000,1,0.000992,-0.002869,0.000000,-19.097000,41.002533,0.000000,0.028000,-0.031000,-0.016000,FlatInitial,Hold,0
07:18:45.441 PM 02/16/2016,Teleop Enabled,0,FALSE,0,NO ERROR,0.000000,0.000000,-6000.000000,-6000.000000,Speed,Speed,0.000000,0.830000,0.940000,1.000000,102.000000,1,0,-0.000000,0.000000,1,0.000000,-0.003922,0.000000,-19.096893,41.002289,0.000000,0.034000,-0.003000,-0.002000,FlatInitial,Hold,0
07:18:45.541 PM 02/16/2016,Teleop Enabled,0,FALSE,0,NO ERROR,0.000000,0.000000,-6000.000000,-6000.000000,Speed,Speed,0.000000,0.830000,0.920000,1.000000,100.000000,1,0,-0.000000,0.000000,1,0.002411,-0.001480,0.000000,-19.096664,41.002228,0.000000,-0.021000,0.000000,0.016000,FlatInitial,Hold,0
07:18:45.641 PM 02/16/2016,Teleop Enabled,0,FALSE,0,NO ERROR,0.000000,0.000000,-6000.000000,-6000.000000,Speed,Speed,0.000000,0.840000,0.940000,1.000000,102.000000,1,0,-0.000000,0.000000,1,-0.007339,0.000000,0.000000,-19.096710,41.002228,0.000000,0.000000,0.018000,0.024000,FlatInitial,Hold,0
07:18:45.741 PM 02/16/2016,Teleop Enabled,0,FALSE,0,NO ERROR,0.000000,0.000000,-6000.000000,-6000.000000,Speed,Speed,-0.010000,0.830000,0.940000,1.000000,101.000000,1,0,-0.000000,0.000000,1,0.004517,0.000000,0.000000,-19.096710,41.002228,0.000000,-0.004000,0.000000,-0.004000,FlatInitial,Hold,0
07:18:45.842 PM 02/16/2016,Teleop Enabled,0,FALSE,0,NO ERROR,0.000000,0.000000,-6000.000000,-6000.000000,Speed,Speed,-0.010000,0.840000,0.930000,1.000000,102.000000,1,0,-0.000000,0.000000,1,0.005768,0.000000,0.000000,-19.096527,41.002228,0.000000,-0.015000,-0.009000,-0.002000,FlatInitial,Hold,0
07:18:45.941 PM 02/16/2016,Teleop Enabled,0,FALSE,0,NO ERROR,0.000000,0.000000,-6000.000000,-6000.000000,Speed,Speed,0.000000,0.830000,0.950000,1.000000,101.000000,1,0,-0.000000,0.000000,1,0.011642,-0.012741,0.000000,-19.096069,41.001892,0.000000,0.001000,-0.020000,-0.010000,FlatInitial,Hold,0
07:18:46.041 PM 02/16/2016,Teleop Enabled,0,FALSE,0,NO ERROR,0.000000,0.000000,-6000.000000,-6000.000000,Speed,Speed,0.000000,0.840000,0.940000,1.000000,101.000000,1,0,-0.000000,0.000000,1,0.014175,0.000000,0.000000,-19.095444,41.001556,0.000000,0.022000,-0.009000,0.007000,FlatInitial,Hold,0
07:18:46.141 PM 02/16/2016,Teleop Enabled,0,FALSE,0,NO ERROR,0.000000,0.000000,-6000.000000,-6000.000000,Speed,Speed,0.000000,0.830000,0.950000,1.000000,103.000000,1,0,-0.000000,0.000000,1,0.017593,0.002289,0.000000,-19.094543,41.001587,0.000000,-0.032000,0.022000,0.007000,FlatInitial,Hold,0
07:18:46.241 PM 02/16/2016,Teleop Enabled,0,FALSE,0,NO ERROR,0.000000,0.000000,-6000.000000,-6000.000000,Speed,Speed,0.000000,0.830000,0.940000,1.000000,101.000000,1,0,-0.000000,0.000000,1,0.001038,0.005127,0.000000,-19.094269,41.001785,0.000000,0.028000,-0.003000,0.016000,FlatInitial,Hold,0
07:18:46.341 PM 02/16/2016,Teleop Enabled,0,FALSE,0,NO ERROR,0.000000,0.000000,-6000.000000,-6000.000000,Speed,Speed,0.000000,0.830000,0.950000,1.000000,101.000000,1,0,-0.000000,0.000000,1,0.001221,-0.004028,0.000000,-19.094208,41.001785,0.000000,0.013000,-0.008000,0.008000,FlatInitial,Hold,0
07:18:46.441 PM 02/16/2016,Teleop Enabled,0,FALSE,0,NO ERROR,0.000000,0.000000,-6000.000000,-6000.000000,Speed,Speed,0.000000,0.820000,0.950000,1.000000,101.000000,1,0,-0.000000,0.000000,1,0.004456,0.000000,0.000000,-19.094116,41.001633,0.000000,-0.006000,0.021000,0.037000,FlatInitial,Hold,0
07:18:46.542 PM 02/16/2016,Teleop Enabled,0,FALSE,0,NO ERROR,0.000000,0.000000,-6000.000000,-6000.000000,Speed,Speed,0.000000,0.820000,0.950000,1.000000,102.000000,1,0,-0.000000,0.000000,1,0.002487,0.000000,0.000000,-19.094040,41.001755,0.000000,-0.009000,0.018000,0.033000,FlatInitial,Hold,0
07:18:46.642 PM 02/16/2016,Teleop Enabled,0,FALSE,0,NO ERROR,0.000000,0.000000,-6000.000000,-6000.000000,Speed,Speed,0.000000,0.820000,0.950000,1.000000,101.000000,1,0,-0.000000,0.000000,1,0.004745,0.000000,0.000000,-19.093964,41.001755,0.000000,-0.012000,0.000000,-0.007000,FlatInitial,Hold,0
07:18:46.742 PM 02/16/2016,Teleop Enabled,0,FALSE,0,NO ERROR,0.000000,0.000000,-6000.000000,-6000.000000,Speed,Speed,0.000000,0.830000,0.960000,1.000000,105.000000,1,0,-0.000000,0.000000,1,-0.003510,0.000000,0.000000,-19.093979,41.001755,0.000000,0.007000,0.000000,-0.024000,FlatInitial,Hold,0
07:18:46.842 PM 02/16/2016,Teleop Enabled,0,FALSE,0,NO ERROR,0.000000,0.000000,-6000.000000,-6000.000000,Speed,Speed,0.000000,0.820000,0.950000,1.000000,103.000000,1,0,-0.000000,0.000000,1,-0.002396,0.000000,0.000000,-19.094009,41.001755,0.000000,0.024000,-0.004000,0.006000,FlatInitial,Hold,0
07:18:46.942 PM 02/16/2016,Teleop Enabled,0,FALSE,0,NO ERROR,0.000000,0.000000,-6000.000000,-6000.000000,Speed,Speed,0.000000,0.820000,0.950000,1.000000,102.000000,1,0,-0.000000,0.000000,1,0.003418,0.002396,0.000000,-19.093979,41.001770,0.000000,-0.019000,0.028000,0.023000,FlatInitial,Hold,0
07:18:47.042 PM 02/16/2016,Teleop Enabled,0,FALSE,0,NO ERROR,0.000000,0.000000,-6000.000000,-6000.000000,Speed,Speed,0.000000,0.830000,0.940000,1.000000,101.000000,1,0,-0.000000,0.000000,1,0.000000,0.000000,0.000000,-19.093964,41.001968,0.000000,-0.019000,0.028000,0.023000,FlatInitial,Hold,0
07:18:47.142 PM 02/16/2016,Teleop Enabled,0,FALSE,0,NO ERROR,0.000000,0.000000,-6000.000000,-6000.000000,Speed,Speed,0.000000,0.830000,0.940000,1.000000,102.000000,1,0,-0.000000,0.000000,1,0.000000,0.000000,0.000000,-19.093964,41.001968,0.000000,0.015000,-0.004000,-0.015000,FlatInitial,Hold,0
07:18:47.242 PM 02/16/2016,Teleop Enabled,0,FALSE,0,NO ERROR,0.000000,0.000000,-6000.000000,-6000.000000,Speed,Speed,0.010000,0.830000,0.920000,1.000000,101.000000,1,0,-0.000000,0.000000,1,0.000000,0.012894,0.000000,-19.094025,41.002380,0.000000,0.015000,-0.004000,-0.015000,FlatInitial,Hold,0
07:18:47.343 PM 02/16/2016,Teleop Enabled,0,FALSE,0,NO ERROR,0.000000,0.000000,-6000.000000,-6000.000000,Speed,Speed,0.000000,0.820000,0.930000,1.000000,101.000000,1,0,-0.000000,0.000000,1,0.000000,0.000000,0.000000,-19.094025,41.002304,0.000000,-0.009000,0.010000,0.024000,FlatInitial,Hold,0
07:18:47.444 PM 02/16/2016,Teleop Enabled,0,FALSE,0,NO ERROR,0.000000,0.000000,-6000.000000,-6000.000000,Speed,Speed,0.000000,0.830000,0.930000,1.000000,101.000000,1,0,-0.000000,0.000000,1,0.000000,-0.028549,0.000000,-19.094025,41.001572,0.000000,0.000000,-0.054000,-0.032000,FlatInitial,Hold,0
07:18:47.544 PM 02/16/2016,Teleop Enabled,0,FALSE,0,NO ERROR,0.000000,0.000000,-6000.000000,-6000.000000,Speed,Speed,0.000000,0.830000,0.930000,1.000000,101.000000,1,0,-0.000000,0.000000,1,0.005081,0.000000,0.000000,-19.093918,40.999893,0.000000,-0.028000,0.019000,0.035000,FlatInitial,Hold,0
07:18:47.646 PM 02/16/2016,Teleop Enabled,0,FALSE,0,NO ERROR,0.000000,0.000000,-6000.000000,-6000.000000,Speed,Speed,0.010000,0.830000,0.940000,1.000000,101.000000,1,0,-0.000000,0.000000,1,0.008850,-0.024780,0.000000,-19.093735,40.999268,0.000000,0.022000,-0.002000,-0.031000,FlatInitial,Hold,0
07:18:47.746 PM 02/16/2016,Teleop Enabled,0,FALSE,0,NO ERROR,0.000000,0.000000,-6000.000000,-6000.000000,Speed,Speed,0.000000,0.840000,0.940000,1.000000,102.000000,1,0,-0.000000,0.000000,1,0.006653,-0.004517,0.000000,-19.093185,40.998505,0.000000,0.022000,-0.002000,-0.031000,FlatInitial,Hold,0
07:18:47.847 PM 02/16/2016,Teleop Enabled,0,FALSE,0,NO ERROR,0.000000,0.000000,-6000.000000,-6000.000000,Speed,Speed,0.000000,0.820000,0.950000,1.000000,101.000000,1,0,-0.000000,0.000000,1,0.003525,-0.024979,0.000000,-19.093109,40.997726,0.000000,0.028000,-0.026000,-0.024000,FlatInitial,Hold,0
07:18:47.947 PM 02/16/2016,Teleop Enabled,0,FALSE,0,NO ERROR,0.000000,0.000000,-6000.000000,-6000.000000,Speed,Speed,0.000000,0.820000,0.950000,1.000000,101.000000,1,0,-0.000000,0.000000,1,0.000000,0.000000,0.000000,-19.093048,40.997131,0.000000,0.028000,-0.026000,-0.024000,FlatInitial,Hold,0
07:18:48.049 PM 02/16/2016,Teleop Enabled,0,FALSE,0,NO ERROR,0.000000,0.000000,-6000.000000,-6000.000000,Speed,Speed,0.000000,0.830000,0.960000,1.000000,102.000000,1,0,-0.000000,0.000000,1,-0.004105,0.002014,0.000000,-19.092972,40.997162,0.000000,0.007000,-0.017000,0.010000,FlatInitial,Hold,0
07:18:48.149 PM 02/16/2016,Teleop Enabled,0,FALSE,0,NO ERROR,0.000000,0.000000,-6000.000000,-6000.000000,Speed,Speed,0.000000,0.830000,0.980000,1.000000,101.000000,1,0,-0.000000,0.000000,1,-0.002243,0.010910,0.000000,-19.093246,40.997421,0.000000,-0.042000,0.026000,-0.132000,FlatInitial,Hold,0
07:18:48.251 PM 02/16/2016,Teleop Enabled,0,FALSE,0,NO ERROR,0.000000,0.000000,-6000.000000,-6000.000000,Speed,Speed,0.010000,0.830000,0.950000,1.000000,104.000000,1,0,-0.000000,0.000000,1,0.000000,0.027710,0.000000,-19.093643,40.998734,0.000000,-0.021000,0.042000,-0.001000,FlatInitial,Hold,0
07:18:48.352 PM 02/16/2016,Teleop Enabled,0,FALSE,0,NO ERROR,0.000000,0.000000,-6000.000000,-6000.000000,Speed,Speed,0.000000,0.840000,0.960000,1.000000,102.000000,1,0,-0.000000,0.000000,1,-0.004105,0.016144,0.000000,-19.093719,40.999771,0.000000,0.015000,-0.028000,-0.001000,FlatInitial,Hold,0
07:18:48.452 PM 02/16/2016,Teleop Enabled,0,FALSE,0,NO ERROR,0.000000,0.000000,-6000.000000,-6000.000000,Speed,Speed,0.000000,0.830000,0.950000,1.000000,102.000000,1,0,-0.000000,0.000000,1,-0.004105,0.016144,0.000000,-19.093719,40.999771,0.000000,0.015000,-0.028000,-0.001000,FlatInitial,Hold,0
07:18:48.552 PM 02/16/2016,Teleop Enabled,0,FALSE,0,NO ERROR,0.000000,0.000000,-6000.000000,-6000.000000,Speed,Speed,0.000000,0.830000,0.950000,1.000000,102.000000,1,0,-0.000000,0.000000,1,0.005600,0.000000,0.000000,-19.093582,40.999893,0.000000,-0.001000,0.004000,-0.024000,FlatInitial,Hold,0
07:18:48.653 PM 02/16/2016,Teleop Enabled,0,FALSE,0,NO ERROR,0.000000,0.000000,-6000.000000,-6000.000000,Speed,Speed,0.000000,0.830000,0.960000,1.000000,101.000000,1,0,-0.000000,0.000000,1,-0.003220,0.011520,0.000000,-19.093613,41.000183,0.000000,-0.021000,-0.026000,-0.013000,FlatInitial,Hold,0
07:18:48.753 PM 02/16/2016,Teleop Enabled,0,FALSE,0,NO ERROR,0.000000,0.000000,-6000.000000,-6000.000000,Speed,Speed,-0.010000,0.840000,0.930000,1.000000,100.000000,1,0,-0.000000,0.000000,1,0.000000,-0.013718,0.000000,-19.093704,40.999939,0.000000,-0.017000,0.021000,0.009000,FlatInitial,Hold,0
07:18:48.854 PM 02/16/2016,Teleop Enabled,0,FALSE,0,NO ERROR,0.000000,0.000000,-6000.000000,-6000.000000,Speed,Speed,0.000000,0.840000,0.920000,1.000000,102.000000,1,0,-0.000000,0.000000,1,0.000000,-0.014771,0.000000,-19.093704,40.999283,0.000000,0.012000,0.003000,0.013000,FlatInitial,Hold,0
07:18:48.954 PM 02/16/2016,Teleop Enabled,0,FALSE,0,NO ERROR,0.000000,0.000000,-6000.000000,-6000.000000,Speed,Speed,0.000000,0.860000,0.950000,1.000000,102.000000,1,0,-0.000000,0.000000,1,0.000000,0.000000,0.000000,-19.093704,40.999283,0.000000,0.008000,-0.031000,-0.025000,FlatInitial,Hold,0
07:18:49.054 PM 02/16/2016,Teleop Enabled,0,FALSE,0,NO ERROR,0.000000,0.000000,-6000.000000,-6000.000000,Speed,Speed,0.000000,0.860000,0.950000,1.000000,100.000000,1,0,-0.000000,0.000000,1,0.004944,0.002350,0.000000,-19.093536,40.999084,0.000000,-0.028000,-0.002000,0.004000,FlatInitial,Hold,0
07:18:49.155 PM 02/16/2016,Teleop Enabled,0,FALSE,0,NO ERROR,0.000000,0.000000,-6000.000000,-6000.000000,Speed,Speed,-0.010000,0.870000,0.970000,1.000000,101.000000,1,0,-0.000000,0.000000,1,0.004059,0.000000,0.000000,-19.093384,40.999069,0.000000,0.009000,-0.013000,-0.033000,FlatInitial,Hold,0
07:18:49.255 PM 02/16/2016,Teleop Enabled,0,FALSE,0,NO ERROR,0.000000,0.000000,-6000.000000,-6000.000000,Speed,Speed,0.000000,0.860000,0.970000,1.000000,103.000000,1,0,-0.000000,0.000000,1,0.000000,-0.007690,0.000000,-19.093384,40.998962,0.000000,0.026000,-0.007000,-0.016000,FlatInitial,Hold,0
07:18:49.356 PM 02/16/2016,Teleop Enabled,0,FALSE,0,NO ERROR,0.000000,0.000000,-6000.000000,-6000.000000,Speed,Speed,0.000000,0.840000,0.960000,1.000000,102.000000,1,0,-0.000000,0.000000,1,0.004288,-0.012451,0.000000,-19.093262,40.998444,0.000000,0.027000,-0.006000,0.000000,FlatInitial,Hold,0
07:18:49.457 PM 02/16/2016,Teleop Enabled,0,FALSE,0,NO ERROR,0.000000,0.000000,-6000.000000,-6000.000000,Speed,Speed,0.000000,0.840000,0.890000,1.000000,102.000000,1,0,-0.000000,0.000000,1,-0.008835,0.007034,0.000000,-19.093460,40.998505,0.000000,0.003000,0.064000,-0.076000,FlatInitial,Hold,0
07:18:49.558 PM 02/16/2016,Teleop Enabled,0,FALSE,0,NO ERROR,0.000000,0.000000,-6000.000000,-6000.000000,Speed,Speed,0.000000,0.880000,0.820000,1.000000,101.000000,1,0,-0.000000,0.000000,1,0.000000,0.019104,0.000000,-19.093460,40.999649,0.000000,0.012000,0.013000,-0.010000,FlatInitial,HighGoal,0
07:18:49.659 PM 02/16/2016,Teleop Enabled,0,FALSE,0,NO ERROR,0.000000,0.000000,-6000.000000,-6000.000000,Speed,Speed,0.000000,0.850000,0.820000,1.000000,101.000000,1,0,-0.000000,0.000000,1,-0.010147,-0.019608,0.000000,-19.093857,40.999573,0.000000,0.025000,-0.027000,-0.018000,FlatInitial,Hold,0
07:18:49.759 PM 02/16/2016,Teleop Enabled,0,FALSE,0,NO ERROR,0.000000,2.929688,-6000.000000,-6000.000000,Speed,Speed,0.000000,0.890000,0.720000,1.000000,104.000000,1,0,-0.000000,0.000000,1,0.000000,0.000000,0.000000,-19.093887,40.998703,0.000000,0.008000,0.015000,-0.021000,FlatInitial,HighGoal,0
07:18:49.860 PM 02/16/2016,Teleop Enabled,0,FALSE,0,NO ERROR,0.000000,0.439453,-6000.000000,-6000.000000,Speed,Speed,-0.070000,0.870000,0.810000,1.000000,100.000000,1,0,-0.000000,0.000000,1,-0.003906,-0.003937,0.000000,-19.093918,40.998672,0.000000,-0.011000,-0.021000,0.030000,FlatInitial,Hold,0
07:18:49.965 PM 02/16/2016,Teleop Enabled,0,FALSE,0,NO ERROR,0.000000,0.146484,-6000.000000,-6000.000000,Speed,Speed,-0.020000,0.870000,0.730000,1.000000,101.000000,1,0,-0.000000,0.000000,1,-0.010361,-0.001602,0.000000,-19.094528,40.998398,0.000000,0.046000,0.006000,-0.006000,FlatInitial,Hold,0
07:18:50.064 PM 02/16/2016,Teleop Enabled,0,FALSE,0,NO ERROR,0.000000,0.000000,-6000.000000,-6000.000000,Speed,Speed,-0.050000,0.870000,0.760000,1.000000,101.000000,1,0,-0.000000,0.000000,1,0.000000,-0.017502,0.000000,-19.094589,40.997925,0.000000,-0.019000,0.010000,0.012000,FlatInitial,Hold,0
07:18:50.165 PM 02/16/2016,Teleop Enabled,0,FALSE,0,NO ERROR,0.000000,6.591797,-6000.000000,-6000.000000,Speed,Speed,0.000000,0.890000,0.770000,1.000000,101.000000,1,0,-0.000000,0.000000,1,0.012405,-0.021240,0.000000,-19.094406,40.997330,0.000000,0.015000,-0.023000,0.000000,FlatInitial,Hold,0
07:18:50.266 PM 02/16/2016,Teleop Enabled,0,FALSE,0,NO ERROR,0.000000,0.146484,-6000.000000,-6000.000000,Speed,Speed,-0.020000,0.890000,0.850000,1.000000,101.000000,1,0,-0.000000,0.000000,1,0.000000,0.000000,0.000000,-19.094238,40.996582,0.000000,-0.019000,0.033000,0.026000,FlatInitial,Hold,0
07:18:50.370 PM 02/16/2016,Teleop Enabled,0,FALSE,0,NO ERROR,0.000000,-6.005859,-6000.000000,-6000.000000,Speed,Speed,0.010000,0.870000,0.820000,1.000000,102.000000,1,0,-0.000000,0.000000,1,0.000320,0.007416,0.000000,-19.094360,40.996964,0.000000,-0.011000,0.029000,0.005000,FlatInitial,Hold,0
07:18:50.470 PM 02/16/2016,Teleop Enabled,0,FALSE,0,NO ERROR,0.000000,-0.146484,-6000.000000,-6000.000000,Speed,Speed,-0.010000,0.850000,0.890000,1.000000,102.000000,1,0,-0.000000,0.000000,1,0.000000,0.036804,0.000000,-19.094360,40.998535,0.000000,0.000000,-0.016000,0.003000,FlatInitial,Hold,0
07:18:50.571 PM 02/16/2016,Teleop Enabled,0,FALSE,0,NO ERROR,0.000000,0.000000,-6000.000000,-6000.000000,Speed,Speed,-0.010000,0.860000,0.840000,1.000000,100.000000,1,0,-0.000000,0.000000,1,0.000000,0.000000,0.000000,-19.094360,40.999786,0.000000,-0.017000,0.002000,0.020000,FlatInitial,Hold,0
07:18:50.672 PM 02/16/2016,Teleop Enabled,0,FALSE,0,NO ERROR,0.000000,0.000000,-6000.000000,-6000.000000,Speed,Speed,0.000000,0.850000,0.860000,1.000000,102.000000,1,0,-0.000000,0.000000,1,0.006241,0.005585,0.000000,-19.094208,41.000061,0.000000,0.000000,0.001000,0.016000,FlatInitial,Hold,0
07:18:50.773 PM 02/16/2016,Teleop Enabled,0,FALSE,0,NO ERROR,0.000000,0.000000,-6000.000000,-6000.000000,Speed,Speed,0.000000,0.860000,0.850000,1.000000,102.000000,1,0,-0.000000,0.000000,1,-0.004242,0.048477,0.000000,-19.094360,41.001465,0.000000,0.009000,0.063000,0.022000,FlatInitial,Hold,0
07:18:50.873 PM 02/16/2016,Teleop Enabled,0,FALSE,0,NO ERROR,0.000000,0.000000,-6000.000000,-6000.000000,Speed,Speed,0.000000,0.860000,0.860000,1.000000,102.000000,1,0,-0.000000,0.000000,1,-0.002762,0.055786,0.000000,-19.094467,41.004120,0.000000,0.013000,0.010000,-0.010000,FlatInitial,Hold,0
07:18:50.975 PM 02/16/2016,Teleop Enabled,0,FALSE,0,NO ERROR,0.000000,0.000000,-6000.000000,-6000.000000,Speed,Speed,0.000000,0.860000,0.850000,1.000000,102.000000,1,0,-0.000000,0.000000,1,0.000000,0.000000,0.000000,-19.094467,41.005646,0.000000,0.013000,-0.015000,-0.008000,FlatInitial,Hold,0
07:18:51.075 PM 02/16/2016,Teleop Enabled,0,FALSE,0,NO ERROR,0.000000,0.585938,-6000.000000,-6000.000000,Speed,Speed,0.000000,0.860000,0.870000,1.000000,102.000000,1,0,-0.000000,0.000000,1,0.000000,-0.004745,0.000000,-19.094467,41.005234,0.000000,0.004000,-0.036000,0.000000,FlatInitial,Hold,0
07:18:51.176 PM 02/16/2016,Teleop Enabled,0,FALSE,0,NO ERROR,0.000000,0.146484,-6000.000000,-6000.000000,Speed,Speed,0.000000,0.860000,0.880000,1.000000,101.000000,1,0,-0.000000,0.000000,1,-0.009674,0.019684,0.000000,-19.094864,41.005325,0.000000,0.015000,0.047000,0.015000,FlatInitial,Hold,0
07:18:51.284 PM 02/16/2016,Teleop Enabled,0,FALSE,0,NO ERROR,0.000000,0.000000,-6000.000000,-6000.000000,Speed,Speed,0.000000,0.860000,0.880000,1.000000,101.000000,1,0,-0.000000,0.000000,1,0.005676,-0.017883,0.000000,-19.094681,41.005203,0.000000,-0.034000,-0.027000,0.001000,FlatInitial,Hold,0
07:18:51.381 PM 02/16/2016,Teleop Enabled,0,FALSE,0,NO ERROR,0.000000,0.000000,-6000.000000,-6000.000000,Speed,Speed,0.000000,0.850000,0.880000,1.000000,101.000000,1,0,-0.000000,0.000000,1,0.011292,-0.075317,0.000000,-19.094543,41.002716,0.000000,0.033000,-0.034000,-0.051000,FlatInitial,Hold,0
07:18:51.481 PM 02/16/2016,Teleop Enabled,0,FALSE,0,NO ERROR,0.000000,0.146484,-6000.000000,-6000.000000,Speed,Speed,0.000000,0.850000,0.910000,1.000000,100.000000,1,0,-0.000000,0.000000,1,0.035309,-0.084732,0.000000,-19.093124,40.998291,0.000000,0.013000,0.023000,-0.036000,FlatInitial,Hold,0
07:18:51.581 PM 02/16/2016,Teleop Enabled,0,FALSE,0,NO ERROR,0.000000,0.000000,-6000.000000,-6000.000000,Speed,Speed,0.000000,0.840000,0.890000,1.000000,101.000000,1,0,-0.000000,0.000000,1,0.000000,-0.079575,0.000000,-19.093384,40.994675,0.000000,0.014000,-0.062000,-0.009000,FlatInitial,Hold,0
07:18:51.681 PM 02/16/2016,Teleop Enabled,0,FALSE,0,NO ERROR,0.000000,0.000000,-6000.000000,-6000.000000,Speed,Speed,0.000000,0.850000,0.890000,1.000000,100.000000,1,0,-0.000000,0.000000,1,0.012512,-0.101074,0.000000,-19.092957,40.989594,0.000000,-0.052000,-0.006000,0.051000,FlatInitial,Hold,0
07:18:51.781 PM 02/16/2016,Teleop Enabled,0,FALSE,0,NO ERROR,0.000000,0.000000,-6000.000000,-6000.000000,Speed,Speed,0.000000,0.840000,0.890000,1.000000,102.000000,1,0,-0.000000,0.000000,1,0.021439,-0.129532,0.000000,-19.092224,40.983521,0.000000,-0.004000,-0.029000,-0.003000,FlatInitial,Hold,0
07:18:51.881 PM 02/16/2016,Teleop Enabled,0,FALSE,0,NO ERROR,0.000000,0.000000,-6000.000000,-6000.000000,Speed,Speed,0.000000,0.850000,0.920000,1.000000,102.000000,1,0,-0.000000,0.000000,1,0.018402,-0.131744,0.000000,-19.091171,40.976929,0.000000,0.039000,0.005000,-0.022000,FlatInitial,Hold,0
07:18:51.981 PM 02/16/2016,Teleop Enabled,0,FALSE,0,NO ERROR,0.000000,0.000000,-6000.000000,-6000.000000,Speed,Speed,0.000000,0.830000,0.920000,1.000000,101.000000,1,0,-0.000000,0.000000,1,0.021301,-0.125137,0.000000,-19.090088,40.970459,0.000000,-0.024000,-0.009000,-0.001000,FlatInitial,Hold,0
07:18:52.081 PM 02/16/2016,Teleop Enabled,0,FALSE,0,NO ERROR,0.000000,0.000000,-6000.000000,-6000.000000,Speed,Speed,0.000000,0.840000,0.950000,1.000000,101.000000,1,0,-0.000000,0.000000,1,0.000000,-0.000549,0.000000,-19.089157,40.967957,0.000000,-0.008000,-0.025000,0.024000,FlatInitial,Hold,0
07:18:52.181 PM 02/16/2016,Teleop Enabled,0,FALSE,0,NO ERROR,0.000000,0.000000,-6000.000000,-6000.000000,Speed,Speed,0.000000,0.850000,0.940000,1.000000,102.000000,1,0,-0.000000,0.000000,1,0.000305,0.012360,0.000000,-19.089081,40.968124,0.000000,-0.032000,-0.010000,0.015000,FlatInitial,Hold,0
07:18:52.282 PM 02/16/2016,Teleop Enabled,0,FALSE,0,NO ERROR,0.000000,0.000000,-6000.000000,-6000.000000,Speed,Speed,0.010000,0.830000,0.990000,1.000000,102.000000,1,0,-0.000000,0.000000,1,-0.002686,0.000000,0.000000,-19.089264,40.968781,0.000000,0.019000,-0.013000,-0.007000,FlatInitial,Hold,0
07:18:52.382 PM 02/16/2016,Teleop Enabled,0,FALSE,0,NO ERROR,0.000000,0.000000,-6000.000000,-6000.000000,Speed,Speed,0.010000,0.830000,0.930000,1.000000,101.000000,1,0,-0.000000,0.000000,1,0.000000,0.006638,0.000000,-19.089233,40.968948,0.000000,-0.007000,0.013000,-0.042000,FlatInitial,Hold,0
07:18:52.483 PM 02/16/2016,Teleop Enabled,0,FALSE,0,NO ERROR,0.000000,0.000000,-6000.000000,-6000.000000,Speed,Speed,0.000000,0.840000,1.000000,1.000000,102.000000,1,0,-0.000000,0.000000,1,0.000000,0.007980,0.000000,-19.089233,40.969162,0.000000,-0.025000,-0.046000,0.030000,FlatInitial,Hold,0
07:18:52.586 PM 02/16/2016,Teleop Enabled,0,FALSE,0,NO ERROR,0.000000,0.000000,-6000.000000,-6000.000000,Speed,Speed,0.000000,0.850000,0.980000,1.000000,101.000000,1,0,-0.000000,0.000000,1,-0.005035,0.002472,0.000000,-19.089325,40.969467,0.000000,0.001000,0.011000,0.018000,FlatInitial,Hold,0
07:18:52.687 PM 02/16/2016,Teleop Enabled,0,FALSE,0,NO ERROR,0.000000,0.000000,-6000.000000,-6000.000000,Speed,Speed,0.000000,0.830000,0.960000,1.000000,103.000000,1,0,-0.000000,0.000000,1,0.000000,0.012344,0.000000,-19.089478,40.969711,0.000000,-0.003000,-0.007000,0.049000,FlatInitial,Hold,0
07:18:52.787 PM 02/16/2016,Teleop Enabled,0,FALSE,0,NO ERROR,0.000000,0.000000,-6000.000000,-6000.000000,Speed,Speed,0.000000,0.830000,0.950000,1.000000,101.000000,1,0,-0.000000,0.000000,1,0.000000,0.011154,0.000000,-19.089478,40.970322,0.000000,0.012000,0.026000,0.005000,FlatInitial,Hold,0
07:18:52.888 PM 02/16/2016,Teleop Enabled,0,FALSE,0,NO ERROR,0.000000,0.000000,-6000.000000,-6000.000000,Speed,Speed,0.000000,0.840000,0.940000,1.000000,101.000000,1,0,-0.000000,0.000000,1,-0.001343,0.014694,0.000000,-19.089493,40.970764,0.000000,-0.020000,0.013000,0.049000,FlatInitial,Hold,0
07:18:52.989 PM 02/16/2016,Teleop Enabled,0,FALSE,0,NO ERROR,0.000000,0.000000,-6000.000000,-6000.000000,Speed,Speed,0.000000,0.840000,0.970000,1.000000,101.000000,1,0,-0.000000,0.000000,1,0.000000,0.022705,0.000000,-19.089584,40.971909,0.000000,0.015000,0.021000,0.011000,FlatInitial,Hold,0
07:18:53.090 PM 02/16/2016,Teleop Enabled,0,FALSE,0,NO ERROR,0.000000,0.000000,-6000.000000,-6000.000000,Speed,Speed,0.000000,0.850000,0.960000,1.000000,101.000000,1,0,-0.000000,0.000000,1,0.002747,0.000000,0.000000,-19.089478,40.972595,0.000000,-0.003000,-0.013000,-0.002000,FlatInitial,Hold,0
07:18:53.191 PM 02/16/2016,Teleop Enabled,0,FALSE,0,NO ERROR,0.000000,0.000000,-6000.000000,-6000.000000,Speed,Speed,0.000000,0.860000,0.980000,1.000000,101.000000,1,0,-0.000000,0.000000,1,0.011353,0.015045,0.000000,-19.089127,40.972992,0.000000,-0.030000,-0.012000,-0.004000,FlatInitial,Hold,0
07:18:53.291 PM 02/16/2016,Teleop Enabled,0,FALSE,0,NO ERROR,0.000000,0.000000,-6000.000000,-6000.000000,Speed,Speed,0.000000,0.870000,0.980000,1.000000,100.000000,1,0,-0.000000,0.000000,1,0.009003,0.014740,0.000000,-19.088684,40.973740,0.000000,0.000000,-0.006000,0.025000,FlatInitial,Hold,0
07:18:53.392 PM 02/16/2016,Teleop Enabled,0,FALSE,0,NO ERROR,0.000000,0.000000,-6000.000000,-6000.000000,Speed,Speed,0.010000,0.860000,0.960000,1.000000,102.000000,1,0,-0.000000,0.000000,1,-0.000092,-0.003265,0.000000,-19.088638,40.973785,0.000000,0.022000,0.019000,-0.006000,FlatInitial,Hold,0
07:18:53.492 PM 02/16/2016,Teleop Enabled,0,FALSE,0,NO ERROR,0.000000,0.000000,-6000.000000,-6000.000000,Speed,Speed,0.010000,0.860000,0.970000,1.000000,102.000000,1,0,-0.000000,0.000000,1,0.000000,-0.008530,0.000000,-19.088623,40.973419,0.000000,-0.010000,-0.003000,0.040000,FlatInitial,Hold,0
07:18:53.592 PM 02/16/2016,Teleop Enabled,0,FALSE,0,NO ERROR,0.000000,0.000000,-6000.000000,-6000.000000,Speed,Speed,0.010000,0.850000,0.960000,1.000000,101.000000,1,0,-0.000000,0.000000,1,0.000000,-0.008820,0.000000,-19.088623,40.973190,0.000000,-0.009000,-0.014000,0.040000,FlatInitial,Hold,0
07:18:53.692 PM 02/16/2016,Teleop Enabled,0,FALSE,0,NO ERROR,0.000000,0.000000,-6000.000000,-6000.000000,Speed,Speed,0.000000,0.860000,0.970000,1.000000,103.000000,1,0,-0.000000,0.000000,1,0.000000,-0.003693,0.000000,-19.088623,40.972916,0.000000,0.002000,0.002000,0.016000,FlatInitial,Hold,0
07:18:53.792 PM 02/16/2016,Teleop Enabled,0,FALSE,0,NO ERROR,0.000000,0.000000,-6000.000000,-6000.000000,Speed,Speed,0.010000,0.850000,0.990000,1.000000,103.000000,1,0,-0.000000,0.000000,1,0.000443,-0.010605,0.000000,-19.088531,40.972565,0.000000,0.012000,0.015000,-0.012000,FlatInitial,Hold,0
07:18:53.892 PM 02/16/2016,Teleop Enabled,0,FALSE,0,NO ERROR,0.000000,0.000000,-6000.000000,-6000.000000,Speed,Speed,0.010000,0.850000,1.000000,1.000000,101.000000,1,0,-0.000000,0.000000,1,-0.005875,-0.000931,0.000000,-19.088745,40.972153,0.000000,0.011000,0.026000,0.004000,FlatInitial,Hold,0
07:18:53.994 PM 02/16/2016,Teleop Enabled,0,FALSE,0,NO ERROR,0.000000,0.000000,-6000.000000,-6000.000000,Speed,Speed,0.010000,0.840000,1.000000,1.000000,101.000000,1,0,-0.000000,0.000000,1,0.000000,0.003418,0.000000,-19.088776,40.972198,0.000000,-0.018000,-0.006000,-0.008000,FlatInitial,Hold,0
07:18:54.094 PM 02/16/2016,Teleop Enabled,0,FALSE,0,NO ERROR,0.000000,0.000000,-6000.000000,-6000.000000,Speed,Speed,0.010000,0.850000,1.000000,1.000000,102.000000,1,0,-0.000000,0.000000,1,0.004868,-0.007034,0.000000,-19.088623,40.972092,0.000000,0.036000,-0.006000,-0.033000,FlatInitial,Hold,0
07:18:54.195 PM 02/16/2016,Teleop Enabled,0,FALSE,0,NO ERROR,0.000000,0.000000,-6000.000000,-6000.000000,Speed,Speed,0.010000,0.840000,0.990000,1.000000,105.000000,1,0,-0.000000,0.000000,1,0.000000,0.004364,0.000000,-19.088486,40.972031,0.000000,-0.002000,0.025000,-0.001000,FlatInitial,Hold,0
07:18:54.295 PM 02/16/2016,Teleop Enabled,0,FALSE,0,NO ERROR,0.000000,0.000000,-6000.000000,-6000.000000,Speed,Speed,0.010000,0.850000,1.010000,1.000000,100.000000,1,0,-0.000000,0.000000,1,0.000000,0.000000,0.000000,-19.088486,40.972870,0.000000,0.001000,0.016000,0.010000,FlatInitial,Hold,0
07:18:54.395 PM 02/16/2016,Teleop Enabled,0,FALSE,0,NO ERROR,0.000000,0.000000,-6000.000000,-6000.000000,Speed,Speed,0.010000,0.840000,1.000000,1.000000,101.000000,1,0,-0.000000,0.000000,1,-0.001572,0.000000,0.000000,-19.088501,40.972870,0.000000,-0.023000,0.008000,0.013000,FlatInitial,Hold,0
07:18:54.495 PM 02/16/2016,Teleop Enabled,0,FALSE,0,NO ERROR,0.000000,0.000000,-6000.000000,-6000.000000,Speed,Speed,0.010000,0.840000,1.010000,1.000000,101.000000,1,0,-0.000000,0.000000,1,0.000000,-0.003143,0.000000,-19.088608,40.972839,0.000000,0.006000,-0.008000,-0.004000,FlatInitial,Hold,0
07:18:54.596 PM 02/16/2016,Teleop Enabled,0,FALSE,0,NO ERROR,0.000000,0.000000,-6000.000000,-6000.000000,Speed,Speed,0.020000,0.840000,1.000000,1.000000,102.000000,1,0,-0.000000,0.000000,1,-0.002472,-0.005783,0.000000,-19.088654,40.972626,0.000000,0.008000,0.004000,0.003000,FlatInitial,Hold,0
07:18:54.697 PM 02/16/2016,Teleop Enabled,0,FALSE,0,NO ERROR,0.000000,0.000000,-6000.000000,-6000.000000,Speed,Speed,0.020000,0.830000,1.000000,1.000000,102.000000,1,0,-0.000000,0.000000,1,0.000000,-0.007294,0.000000,-19.088791,40.972443,0.000000,0.017000,0.005000,-0.036000,FlatInitial,Hold,0
07:18:54.797 PM 02/16/2016,Teleop Enabled,0,FALSE,0,NO ERROR,0.000000,0.000000,-6000.000000,-6000.000000,Speed,Speed,0.010000,0.830000,0.980000,1.000000,101.000000,1,0,-0.000000,0.000000,1,0.000000,-0.000763,0.000000,-19.088791,40.972366,0.000000,-0.009000,0.011000,0.031000,FlatInitial,Hold,0
07:18:54.897 PM 02/16/2016,Teleop Enabled,0,FALSE,0,NO ERROR,0.000000,0.000000,-6000.000000,-6000.000000,Speed,Speed,0.020000,0.840000,1.000000,1.000000,102.000000,1,0,-0.000000,0.000000,1,-0.000732,0.000000,0.000000,-19.088791,40.972473,0.000000,0.016000,-0.010000,-0.002000,FlatInitial,Hold,0
07:18:54.998 PM 02/16/2016,Teleop Enabled,0,FALSE,0,NO ERROR,0.000000,0.000000,-6000.000000,-6000.000000,Speed,Speed,0.010000,0.830000,0.960000,1.000000,101.000000,1,0,-0.000000,0.000000,1,0.000000,-0.009094,0.000000,-19.088806,40.972198,0.000000,-0.003000,-0.038000,-0.021000,FlatInitial,Hold,0
