Time,RobotMode,AutoToRun,ErrorStatus, ErrorCode,ErrorSource,ActualRPM1,ActualRPM2,DesiredRPM1,DesiredRPM2,ControlMode1,ControlMode2,NavXYaw,NavXRoll,NavXPitch,ShooterState,LoopTime,IsLevel,IsAutoTargeting,LeftMotorOutput,RightMotorOutput,IsHaloDrive,NavXVelocityX,NavXVelocityY,NavXVelocityZ,NavXDisplacementX,NavXDisplacementY,NavXDisplacementZ,NavXAccelerationX,NavXAccelerationY,NavXAccelerationZ,AutoDefendState,AngeMotorState,Photoeye
07:51:23.719 PM 02/17/2016,Teleop Enabled,0,TRUE,91,Variant To Data in WPI_DigitalInputRefNum Registry Get.vi->Periodic Tasks.vi->Robot Main.vi,-0.146484,-68.115234,4000.000000,4000.000000,Speed,Speed,-0.160000,0.190000,1.880000,3.000000,103.000000,1,0,-0.000000,0.000000,1,0.000000,0.000000,0.000000,0.130157,0.015640,0.000000,0.000000,0.001000,0.001000,FlatInitial,ResetBack,0
07:51:23.819 PM 02/17/2016,Teleop Enabled,0,TRUE,-44007,<LOCATION>WPI_DigitalInputRefNum Registry Get.vi<CALLSTACK>WPI_DigitalInputRefNum Registry Get.vi< <Periodic Tasks.vi< <Robot Main.vi,391.992188,-1199.267578,4000.000000,4000.000000,Speed,Speed,-0.150000,0.190000,1.700000,3.000000,107.000000,1,0,-0.000000,0.000000,1,-0.001556,0.009720,0.000000,0.130203,0.015930,0.000000,-0.003000,0.016000,0.007000,FlatInitial,ResetBack,0
07:51:23.919 PM 02/17/2016,Teleop Enabled,0,FALSE,0,NO ERROR,2133.251953,-2219.384766,4000.000000,4000.000000,Speed,Speed,-0.150000,0.190000,1.700000,3.000000,100.000000,1,0,-0.000000,0.000000,1,-0.001556,0.009720,0.000000,0.130203,0.015930,0.000000,-0.003000,0.016000,0.007000,FlatInitial,ResetBack,0
07:51:24.018 PM 02/17/2016,Teleop Enabled,0,FALSE,0,NO ERROR,3452.490234,-3022.265625,4000.000000,4000.000000,Speed,Speed,-0.160000,0.200000,1.190000,3.000000,101.000000,1,0,-0.000000,0.000000,1,-0.002579,-0.007736,0.000000,0.130310,0.015045,0.000000,-0.033000,0.035000,-0.007000,FlatInitial,ResetBack,0
07:51:24.119 PM 02/17/2016,Teleop Enabled,0,FALSE,0,NO ERROR,3845.800781,-3408.251953,4000.000000,4000.000000,Speed,Speed,-0.160000,0.200000,1.190000,3.000000,102.000000,1,0,-0.000000,0.000000,1,-0.002579,-0.007736,0.000000,0.130310,0.015045,0.000000,-0.033000,0.035000,-0.007000,FlatInitial,ResetBack,0
07:51:24.218 PM 02/17/2016,Teleop Enabled,0,FALSE,0,NO ERROR,3837.304687,-3495.117188,4000.000000,4000.000000,Speed,Speed,-0.240000,0.170000,1.050000,3.000000,102.000000,1,0,-0.000000,0.000000,1,0.019485,0.023087,0.000000,0.130554,0.015656,0.000000,-0.027000,0.046000,0.067000,FlatInitial,ResetBack,0
07:51:24.319 PM 02/17/2016,Teleop Enabled,0,FALSE,0,NO ERROR,3814.013672,-3483.984375,4000.000000,4000.000000,Speed,Speed,-0.180000,0.170000,1.050000,3.000000,103.000000,1,0,-0.000000,0.000000,1,0.000000,-0.005310,0.000000,0.131119,0.016006,0.000000,-0.011000,0.022000,-0.017000,FlatInitial,ResetBack,0
07:51:24.420 PM 02/17/2016,Teleop Enabled,0,FALSE,0,NO ERROR,3847.851562,-3462.451172,4000.000000,4000.000000,Speed,Speed,-0.110000,0.140000,1.130000,3.000000,100.000000,1,0,-0.000000,0.000000,1,0.005753,0.006653,0.000000,0.131241,0.016159,0.000000,0.050000,0.045000,-0.016000,FlatInitial,ResetBack,0
07:51:24.520 PM 02/17/2016,Teleop Enabled,0,FALSE,0,NO ERROR,3892.089844,-3451.904297,4000.000000,4000.000000,Speed,Speed,-0.130000,0.140000,1.190000,3.000000,101.000000,1,0,-0.000000,0.000000,1,0.000000,0.007156,0.000000,0.131485,0.016769,0.000000,-0.024000,-0.043000,0.092000,FlatInitial,ResetBack,0
07:51:24.621 PM 02/17/2016,Teleop Enabled,0,FALSE,0,NO ERROR,3938.818359,-3452.783203,4000.000000,4000.000000,Speed,Speed,-0.130000,0.140000,1.190000,3.000000,102.000000,1,0,-0.000000,0.000000,1,0.000641,0.028351,0.000000,0.131470,0.017334,0.000000,-0.037000,-0.063000,-0.024000,FlatInitial,ResetBack,0
07:51:24.725 PM 02/17/2016,Teleop Enabled,0,FALSE,0,NO ERROR,3970.019531,-3457.470703,4000.000000,4000.000000,Speed,Speed,-0.110000,0.160000,1.080000,3.000000,102.000000,1,0,-0.000000,0.000000,1,0.003433,0.013412,0.000000,0.130997,0.018494,0.000000,0.033000,-0.057000,-0.054000,FlatInitial,ResetBack,0
07:51:24.827 PM 02/17/2016,Teleop Enabled,0,FALSE,0,NO ERROR,3989.501953,-3462.597656,4000.000000,4000.000000,Speed,Speed,-0.110000,0.130000,1.020000,3.000000,101.000000,1,0,-0.000000,0.000000,1,-0.006546,-0.005035,0.000000,0.130722,0.018463,0.000000,0.004000,-0.044000,-0.034000,FlatInitial,ResetBack,0
07:51:24.927 PM 02/17/2016,Teleop Enabled,0,FALSE,0,NO ERROR,3998.583984,-3467.138672,4000.000000,4000.000000,Speed,Speed,-0.110000,0.130000,1.020000,3.000000,102.000000,1,0,-0.000000,0.000000,1,-0.017059,-0.012863,0.000000,0.130432,0.017822,0.000000,0.020000,0.010000,0.065000,FlatInitial,ResetBack,0
07:51:25.028 PM 02/17/2016,Teleop Enabled,0,FALSE,0,NO ERROR,4005.468750,-3467.285156,4000.000000,4000.000000,Speed,Speed,-0.110000,0.100000,1.110000,3.000000,102.000000,1,0,-0.000000,0.000000,1,-0.023270,-0.006302,0.000000,0.129501,0.017410,0.000000,0.033000,-0.021000,-0.169000,FlatInitial,ResetBack,0
07:51:25.128 PM 02/17/2016,Teleop Enabled,0,FALSE,0,NO ERROR,4011.914062,-3460.546875,4000.000000,4000.000000,Speed,Speed,-0.110000,0.100000,1.050000,3.000000,102.000000,1,0,-0.000000,0.000000,1,0.000153,0.000000,0.000000,0.129150,0.017258,0.000000,-0.048000,-0.024000,-0.018000,FlatInitial,ResetBack,0
07:51:25.229 PM 02/17/2016,Teleop Enabled,0,FALSE,0,NO ERROR,4011.767578,-3457.910156,4000.000000,4000.000000,Speed,Speed,-0.110000,0.110000,0.920000,3.000000,102.000000,1,0,-0.000000,0.000000,1,-0.008987,-0.019318,0.000000,0.128860,0.016891,0.000000,-0.008000,0.032000,0.124000,FlatInitial,ResetBack,0
07:51:25.329 PM 02/17/2016,Teleop Enabled,0,FALSE,0,NO ERROR,4011.181641,-3457.177734,4000.000000,4000.000000,Speed,Speed,-0.100000,0.100000,0.920000,3.000000,100.000000,1,0,-0.000000,0.000000,1,-0.006653,-0.045380,0.000000,0.128876,0.013107,0.000000,0.030000,-0.019000,-0.008000,FlatInitial,ResetBack,0
07:51:25.429 PM 02/17/2016,Teleop Enabled,0,FALSE,0,NO ERROR,4009.277344,-3456.884766,4000.000000,4000.000000,Speed,Speed,-0.100000,0.100000,0.920000,3.000000,106.000000,1,0,-0.000000,0.000000,1,-0.006653,-0.045380,0.000000,0.128876,0.013107,0.000000,-0.005000,0.056000,-0.073000,FlatInitial,ResetBack,0
07:51:25.530 PM 02/17/2016,Teleop Enabled,0,FALSE,0,NO ERROR,4003.125000,-3463.183594,4000.000000,4000.000000,Speed,Speed,-0.100000,0.080000,0.990000,3.000000,107.000000,1,0,-0.000000,0.000000,1,-0.014069,-0.019119,0.000000,0.128311,0.011459,0.000000,-0.018000,-0.029000,-0.045000,FlatInitial,ResetBack,0
07:51:25.631 PM 02/17/2016,Teleop Enabled,0,FALSE,0,NO ERROR,4003.564453,-3469.775391,4000.000000,4000.000000,Speed,Speed,-0.100000,0.090000,1.110000,3.000000,106.000000,1,0,-0.000000,0.000000,1,-0.004532,0.012299,0.000000,0.127640,0.011520,0.000000,-0.058000,-0.080000,0.017000,FlatInitial,ResetBack,0
07:51:25.731 PM 02/17/2016,Teleop Enabled,0,FALSE,0,NO ERROR,4009.130859,-3469.189453,4000.000000,4000.000000,Speed,Speed,-0.100000,0.120000,1.020000,3.000000,102.000000,1,0,-0.000000,0.000000,1,-0.017899,-0.005615,0.000000,0.126755,0.011627,0.000000,0.024000,0.029000,0.004000,FlatInitial,ResetBack,0
07:51:25.832 PM 02/17/2016,Teleop Enabled,0,FALSE,0,NO ERROR,4016.015625,-3469.189453,4000.000000,4000.000000,Speed,Speed,-0.100000,0.110000,1.080000,3.000000,102.000000,1,0,-0.000000,0.000000,1,-0.024261,-0.001465,0.000000,0.125656,0.011353,0.000000,-0.008000,0.043000,0.046000,FlatInitial,ResetBack,0
07:51:25.932 PM 02/17/2016,Teleop Enabled,0,FALSE,0,NO ERROR,4010.009766,-3469.482422,4000.000000,4000.000000,Speed,Speed,-0.100000,0.110000,1.080000,3.000000,102.000000,1,0,-0.000000,0.000000,1,-0.005005,0.015381,0.000000,0.125214,0.011703,0.000000,0.005000,0.012000,-0.074000,FlatInitial,ResetBack,0
07:51:26.032 PM 02/17/2016,Teleop Enabled,0,FALSE,0,NO ERROR,4005.908203,-3474.755859,4000.000000,4000.000000,Speed,Speed,-0.090000,0.160000,1.150000,3.000000,102.000000,1,0,-0.000000,0.000000,1,-0.003235,-0.008957,0.000000,0.125122,0.012680,0.000000,0.007000,-0.030000,-0.130000,FlatInitial,ResetBack,0
07:51:26.133 PM 02/17/2016,Teleop Enabled,0,FALSE,0,NO ERROR,4006.933594,-3476.953125,4000.000000,4000.000000,Speed,Speed,-0.100000,0.170000,1.080000,3.000000,101.000000,1,0,-0.000000,0.000000,1,0.019867,-0.025208,0.000000,0.125565,0.011932,0.000000,-0.043000,-0.002000,-0.061000,FlatInitial,ResetBack,0
07:51:26.233 PM 02/17/2016,Teleop Enabled,0,FALSE,0,NO ERROR,4010.009766,-3476.953125,4000.000000,4000.000000,Speed,Speed,-0.090000,0.170000,1.030000,3.000000,101.000000,1,0,-0.000000,0.000000,1,0.002213,0.000000,0.000000,0.125946,0.011963,0.000000,0.020000,0.017000,0.005000,FlatInitial,ResetBack,0
07:51:26.334 PM 02/17/2016,Teleop Enabled,0,FALSE,0,NO ERROR,4011.474609,-3481.054688,4000.000000,4000.000000,Speed,Speed,-0.090000,0.180000,1.140000,3.000000,101.000000,1,0,-0.000000,0.000000,1,0.005402,0.020355,0.000000,0.126114,0.012375,0.000000,-0.017000,-0.034000,-0.035000,FlatInitial,ResetBack,0
07:51:26.434 PM 02/17/2016,Teleop Enabled,0,FALSE,0,NO ERROR,4007.812500,-3481.054688,4000.000000,4000.000000,Speed,Speed,-0.080000,0.210000,1.050000,3.000000,107.000000,1,0,-0.000000,0.000000,1,0.000397,-0.015015,0.000000,0.126450,0.012497,0.000000,0.022000,-0.037000,-0.011000,FlatInitial,ResetBack,0
07:51:26.539 PM 02/17/2016,Teleop Enabled,0,FALSE,0,NO ERROR,4004.443359,-3480.761719,4000.000000,4000.000000,Speed,Speed,-0.080000,0.200000,1.050000,3.000000,107.000000,1,0,-0.000000,0.000000,1,-0.004395,-0.027588,0.000000,0.126556,0.011337,0.000000,-0.072000,0.044000,0.040000,FlatInitial,ResetBack,0
07:51:26.639 PM 02/17/2016,Teleop Enabled,0,FALSE,0,NO ERROR,4004.443359,-3492.333984,4000.000000,4000.000000,Speed,Speed,-0.080000,0.150000,1.110000,3.000000,102.000000,1,0,-0.000000,0.000000,1,0.000000,-0.004929,0.000000,0.126053,0.010773,0.000000,0.000000,0.042000,0.139000,FlatInitial,ResetBack,0
07:51:26.739 PM 02/17/2016,Teleop Enabled,0,FALSE,0,NO ERROR,4005.175781,-3492.333984,4000.000000,4000.000000,Speed,Speed,-0.070000,0.160000,1.080000,3.000000,101.000000,1,0,-0.000000,0.000000,1,-0.004532,0.000809,0.000000,0.125519,0.010864,0.000000,0.022000,-0.004000,0.095000,FlatInitial,ResetBack,0
07:51:26.842 PM 02/17/2016,Teleop Enabled,0,FALSE,0,NO ERROR,4005.761719,-3498.339844,4000.000000,4000.000000,Speed,Speed,-0.070000,0.140000,1.120000,3.000000,102.000000,1,0,-0.000000,0.000000,1,-0.013351,0.008560,0.000000,0.125290,0.010895,0.000000,0.011000,0.002000,0.037000,FlatInitial,ResetBack,0
07:51:26.943 PM 02/17/2016,Teleop Enabled,0,FALSE,0,NO ERROR,4006.640625,-3502.441406,4000.000000,4000.000000,Speed,Speed,-0.070000,0.140000,1.170000,3.000000,101.000000,1,0,-0.000000,0.000000,1,-0.034134,0.000000,0.000000,0.123825,0.011719,0.000000,0.019000,-0.010000,0.059000,FlatInitial,ResetBack,0
07:51:27.044 PM 02/17/2016,Teleop Enabled,0,FALSE,0,NO ERROR,4009.277344,-3498.339844,4000.000000,4000.000000,Speed,Speed,-0.070000,0.110000,1.140000,3.000000,102.000000,1,0,-0.000000,0.000000,1,-0.050262,0.004288,0.000000,0.121796,0.011505,0.000000,0.024000,0.019000,0.022000,FlatInitial,ResetBack,0
07:51:27.145 PM 02/17/2016,Teleop Enabled,0,FALSE,0,NO ERROR,4009.277344,-3493.652344,4000.000000,4000.000000,Speed,Speed,-0.070000,0.100000,1.220000,3.000000,102.000000,1,0,-0.000000,0.000000,1,-0.053589,0.016068,0.000000,0.119812,0.012192,0.000000,-0.049000,0.009000,-0.113000,FlatInitial,ResetBack,0
07:51:27.246 PM 02/17/2016,Teleop Enabled,0,FALSE,0,NO ERROR,4011.767578,-3499.658203,4000.000000,4000.000000,Speed,Speed,-0.060000,0.100000,1.210000,3.000000,114.000000,1,0,-0.000000,0.000000,1,-0.012177,0.013809,0.000000,0.117889,0.013016,0.000000,-0.006000,0.039000,0.048000,FlatInitial,ResetBack,0
07:51:27.347 PM 02/17/2016,Teleop Enabled,0,FALSE,0,NO ERROR,4009.716797,-3502.441406,4000.000000,4000.000000,Speed,Speed,-0.050000,0.080000,1.300000,3.000000,103.000000,1,0,-0.000000,0.000000,1,-0.015244,0.030640,0.000000,0.117432,0.013809,0.000000,-0.035000,-0.003000,0.022000,FlatInitial,ResetBack,0
07:51:27.447 PM 02/17/2016,Teleop Enabled,0,FALSE,0,NO ERROR,4010.742187,-3506.689453,4000.000000,4000.000000,Speed,Speed,-0.040000,0.090000,1.340000,3.000000,107.000000,1,0,-0.000000,0.000000,1,0.002991,0.000000,0.000000,0.117264,0.014114,0.000000,-0.014000,0.013000,0.013000,FlatInitial,ResetBack,0
07:51:27.549 PM 02/17/2016,Teleop Enabled,0,FALSE,0,NO ERROR,4012.646484,-3505.371094,4000.000000,4000.000000,Speed,Speed,-0.040000,0.080000,1.360000,3.000000,101.000000,1,0,-0.000000,0.000000,1,-0.000885,0.006317,0.000000,0.117294,0.014053,0.000000,-0.004000,0.034000,0.018000,FlatInitial,ResetBack,0
07:51:27.649 PM 02/17/2016,Teleop Enabled,0,FALSE,0,NO ERROR,4009.423828,-3497.314453,4000.000000,4000.000000,Speed,Speed,-0.030000,0.090000,1.390000,3.000000,102.000000,1,0,-0.000000,0.000000,1,-0.007156,-0.006607,0.000000,0.117203,0.014114,0.000000,-0.027000,-0.072000,-0.033000,FlatInitial,ResetBack,0
07:51:27.749 PM 02/17/2016,Teleop Enabled,0,FALSE,0,NO ERROR,4002.246094,-3495.703125,4000.000000,4000.000000,Speed,Speed,-0.020000,0.070000,1.440000,3.000000,101.000000,1,0,-0.000000,0.000000,1,-0.008377,0.001419,0.000000,0.116623,0.013687,0.000000,0.033000,0.052000,0.069000,FlatInitial,ResetBack,0
07:51:27.851 PM 02/17/2016,Teleop Enabled,0,FALSE,0,NO ERROR,3997.558594,-3500.390625,4000.000000,4000.000000,Speed,Speed,-0.010000,0.100000,1.450000,3.000000,102.000000,1,0,-0.000000,0.000000,1,0.004471,-0.005173,0.000000,0.116760,0.013870,0.000000,-0.022000,-0.056000,-0.074000,FlatInitial,ResetBack,0
07:51:27.951 PM 02/17/2016,Teleop Enabled,0,FALSE,0,NO ERROR,3997.265625,-3510.498047,4000.000000,4000.000000,Speed,Speed,-0.010000,0.110000,1.400000,3.000000,101.000000,1,0,-0.000000,0.000000,1,0.013199,-0.012985,0.000000,0.117126,0.013412,0.000000,0.003000,0.014000,-0.106000,FlatInitial,ResetBack,1
07:51:28.052 PM 02/17/2016,Teleop Enabled,0,FALSE,0,NO ERROR,3995.214844,-3513.134766,4000.000000,4000.000000,Speed,Speed,0.000000,0.120000,1.450000,3.000000,101.000000,1,0,-0.000000,0.000000,1,0.008759,0.010452,0.000000,0.117172,0.013458,0.000000,-0.010000,-0.032000,-0.016000,FlatInitial,ResetForward,1
07:51:28.152 PM 02/17/2016,Teleop Enabled,0,FALSE,0,NO ERROR,3994.482422,-3511.230469,4000.000000,4000.000000,Speed,Speed,0.000000,0.130000,1.420000,3.000000,102.000000,1,0,-0.000000,0.000000,1,0.000000,0.000000,0.000000,0.117401,0.013046,0.000000,0.004000,0.018000,0.067000,FlatInitial,ResetForward,1
07:51:28.252 PM 02/17/2016,Teleop Enabled,0,FALSE,0,NO ERROR,4001.660156,-3509.619141,4000.000000,4000.000000,Speed,Speed,0.040000,0.140000,1.570000,3.000000,100.000000,1,0,-0.000000,0.000000,1,0.000000,-0.005280,0.000000,0.117401,0.012985,0.000000,0.059000,0.013000,0.135000,FlatInitial,ResetForward,1
07:51:28.352 PM 02/17/2016,Teleop Enabled,0,FALSE,0,NO ERROR,4009.716797,-3510.498047,4000.000000,4000.000000,Speed,Speed,0.050000,0.150000,1.490000,3.000000,101.000000,1,0,-0.000000,0.000000,1,0.013626,0.004959,0.000000,0.117966,0.013199,0.000000,0.002000,0.024000,-0.130000,FlatInitial,ResetForward,1
07:51:28.452 PM 02/17/2016,Teleop Enabled,0,FALSE,0,NO ERROR,4016.308594,-3517.529297,4000.000000,4000.000000,Speed,Speed,0.010000,0.110000,1.630000,3.000000,101.000000,1,0,-0.000000,0.000000,1,0.006378,-0.003296,0.000000,0.118301,0.013916,0.000000,0.005000,-0.027000,0.041000,FlatInitial,ResetForward,1
07:51:28.552 PM 02/17/2016,Teleop Enabled,0,FALSE,0,NO ERROR,4017.041016,-3519.580078,4000.000000,4000.000000,Speed,Speed,0.080000,0.140000,1.370000,3.000000,102.000000,1,0,-0.000000,0.000000,1,0.012573,-0.017426,0.000000,0.118866,0.013397,0.000000,-0.001000,0.063000,-0.078000,FlatInitial,ResetForward,1
07:51:28.652 PM 02/17/2016,Teleop Enabled,0,FALSE,0,NO ERROR,4010.888672,-3523.828125,4000.000000,4000.000000,Speed,Speed,0.060000,0.140000,1.420000,3.000000,100.000000,1,0,-0.000000,0.000000,1,0.030823,-0.013672,0.000000,0.119705,0.013016,0.000000,-0.002000,-0.029000,0.023000,FlatInitial,ResetForward,0
07:51:28.753 PM 02/17/2016,Teleop Enabled,0,FALSE,0,NO ERROR,4001.367187,-3525.439453,4000.000000,4000.000000,Speed,Speed,0.080000,0.150000,1.370000,3.000000,101.000000,1,0,-0.000000,0.000000,1,0.031967,-0.013016,0.000000,0.121292,0.012009,0.000000,0.010000,-0.009000,0.048000,FlatInitial,Reset,0
07:51:28.857 PM 02/17/2016,Teleop Enabled,0,FALSE,0,NO ERROR,3992.431641,-3517.529297,4000.000000,4000.000000,Speed,Speed,0.080000,0.160000,1.360000,3.000000,101.000000,1,0,-0.000000,0.000000,1,0.026154,-0.019394,0.000000,0.122787,0.011353,0.000000,-0.046000,-0.022000,0.012000,FlatInitial,Hold,0
07:51:28.959 PM 02/17/2016,Teleop Enabled,0,FALSE,0,NO ERROR,3982.470703,-3509.326172,4000.000000,4000.000000,Speed,Speed,0.050000,0.130000,1.380000,3.000000,103.000000,1,0,-0.000000,0.000000,1,0.005127,-0.022888,0.000000,0.123947,0.009949,0.000000,-0.046000,-0.022000,0.012000,FlatInitial,Hold,0
07:51:29.060 PM 02/17/2016,Teleop Enabled,0,FALSE,0,NO ERROR,3984.082031,-3514.892578,4000.000000,4000.000000,Speed,Speed,0.100000,0.160000,1.300000,3.000000,102.000000,1,0,-0.000000,0.000000,1,0.002396,-0.029556,0.000000,0.123962,0.009659,0.000000,0.033000,0.029000,-0.080000,FlatInitial,Hold,0
07:51:29.160 PM 02/17/2016,Teleop Enabled,0,FALSE,0,NO ERROR,3993.896484,-3522.070312,4000.000000,4000.000000,Speed,Speed,0.060000,0.180000,1.330000,3.000000,100.000000,1,0,-0.000000,0.000000,1,-0.004883,-0.029419,0.000000,0.123993,0.008194,0.000000,0.037000,-0.028000,0.067000,FlatInitial,Hold,0
07:51:29.260 PM 02/17/2016,Teleop Enabled,0,FALSE,0,NO ERROR,4005.908203,-3532.031250,4000.000000,4000.000000,Speed,Speed,0.090000,0.170000,1.270000,3.000000,104.000000,1,0,-0.000000,0.000000,1,0.003998,-0.026215,0.000000,0.124359,0.006516,0.000000,0.062000,-0.004000,0.109000,FlatInitial,Hold,0
07:51:29.361 PM 02/17/2016,Teleop Enabled,0,FALSE,0,NO ERROR,4014.843750,-3530.273438,4000.000000,4000.000000,Speed,Speed,0.070000,0.190000,1.310000,3.000000,105.000000,1,0,-0.000000,0.000000,1,0.000000,-0.021851,0.000000,0.124710,0.005615,0.000000,0.000000,0.040000,-0.076000,FlatInitial,Hold,0
07:51:29.462 PM 02/17/2016,Teleop Enabled,0,FALSE,0,NO ERROR,4017.773437,-3522.656250,4000.000000,4000.000000,Speed,Speed,0.070000,0.190000,1.260000,3.000000,101.000000,1,0,-0.000000,0.000000,1,0.000778,-0.023071,0.000000,0.124786,0.004944,0.000000,-0.020000,0.014000,-0.022000,FlatInitial,Hold,0
07:51:29.564 PM 02/17/2016,Teleop Enabled,0,FALSE,0,NO ERROR,4016.015625,-3523.095703,4000.000000,4000.000000,Speed,Speed,0.080000,0.210000,1.290000,3.000000,102.000000,1,0,-0.000000,0.000000,1,0.015182,-0.014679,0.000000,0.124863,0.004288,0.000000,-0.048000,-0.049000,-0.006000,FlatInitial,Hold,0
07:51:29.664 PM 02/17/2016,Teleop Enabled,0,FALSE,0,NO ERROR,4011.328125,-3528.222656,4000.000000,4000.000000,Speed,Speed,0.080000,0.230000,1.350000,3.000000,101.000000,1,0,-0.000000,0.000000,1,0.020111,0.008591,0.000000,0.125839,0.003754,0.000000,-0.019000,-0.038000,0.054000,FlatInitial,Hold,0
07:51:29.763 PM 02/17/2016,Teleop Enabled,0,FALSE,0,NO ERROR,4003.857422,-3532.763672,4000.000000,4000.000000,Speed,Speed,0.080000,0.230000,1.350000,3.000000,101.000000,1,0,-0.000000,0.000000,1,0.007492,0.016479,0.000000,0.126144,0.004623,0.000000,-0.019000,-0.038000,0.054000,FlatInitial,Hold,0
07:51:29.864 PM 02/17/2016,Teleop Enabled,0,FALSE,0,NO ERROR,4000.927734,-3535.400391,4000.000000,4000.000000,Speed,Speed,0.070000,0.200000,1.440000,3.000000,104.000000,1,0,-0.000000,0.000000,1,0.009521,0.017181,0.000000,0.126312,0.005341,0.000000,0.027000,-0.013000,0.069000,FlatInitial,Hold,0
07:51:29.963 PM 02/17/2016,Teleop Enabled,0,FALSE,0,NO ERROR,3996.826172,-3528.515625,4000.000000,4000.000000,Speed,Speed,0.080000,0.210000,1.450000,3.000000,100.000000,1,0,-0.000000,0.000000,1,0.009521,0.017181,0.000000,0.126312,0.005341,0.000000,0.027000,-0.013000,0.069000,FlatInitial,Hold,0
07:51:30.064 PM 02/17/2016,Teleop Enabled,0,FALSE,0,NO ERROR,3992.138672,-3521.337891,4000.000000,4000.000000,Speed,Speed,0.080000,0.230000,1.390000,3.000000,104.000000,1,0,-0.000000,0.000000,1,0.034225,-0.026520,0.000000,0.129181,0.005219,0.000000,0.008000,0.035000,0.135000,FlatInitial,Hold,0
07:51:30.163 PM 02/17/2016,Teleop Enabled,0,FALSE,0,NO ERROR,3992.431641,-3525.585938,4000.000000,4000.000000,Speed,Speed,0.080000,0.210000,1.460000,3.000000,103.000000,1,0,-0.000000,0.000000,1,0.031891,0.001648,0.000000,0.131012,0.004456,0.000000,0.008000,0.035000,0.135000,FlatInitial,Hold,0
07:51:30.264 PM 02/17/2016,Teleop Enabled,0,FALSE,0,NO ERROR,3992.138672,-3529.394531,4000.000000,4000.000000,Speed,Speed,0.080000,0.240000,1.410000,3.000000,101.000000,1,0,-0.000000,0.000000,1,0.000000,-0.012573,0.000000,0.131836,0.004211,0.000000,0.009000,-0.042000,0.144000,FlatInitial,Hold,0
07:51:30.365 PM 02/17/2016,Teleop Enabled,0,FALSE,0,NO ERROR,3995.507812,-3537.890625,4000.000000,4000.000000,Speed,Speed,0.080000,0.240000,1.430000,3.000000,101.000000,1,0,-0.000000,0.000000,1,-0.004303,-0.015991,0.000000,0.131607,0.003479,0.000000,-0.014000,-0.050000,0.029000,FlatInitial,Hold,0
07:51:30.466 PM 02/17/2016,Teleop Enabled,0,FALSE,0,NO ERROR,4003.125000,-3541.113281,4000.000000,4000.000000,Speed,Speed,0.080000,0.220000,1.400000,3.000000,108.000000,1,0,-0.000000,0.000000,1,-0.014282,0.003296,0.000000,0.130966,0.002701,0.000000,-0.014000,-0.050000,0.029000,FlatInitial,Hold,0
07:51:30.565 PM 02/17/2016,Teleop Enabled,0,FALSE,0,NO ERROR,4007.519531,-3536.718750,4000.000000,4000.000000,Speed,Speed,0.080000,0.230000,1.350000,3.000000,102.000000,1,0,-0.000000,0.000000,1,0.011749,-0.003403,0.000000,0.131256,0.002838,0.000000,-0.003000,0.014000,-0.077000,FlatInitial,Hold,0
07:51:30.666 PM 02/17/2016,Teleop Enabled,0,FALSE,0,NO ERROR,4011.914062,-3533.496094,4000.000000,4000.000000,Speed,Speed,0.070000,0.220000,1.400000,3.000000,101.000000,1,0,-0.000000,0.000000,1,0.005554,0.009613,0.000000,0.131302,0.002975,0.000000,0.037000,-0.060000,0.126000,FlatInitial,Hold,0
07:51:30.766 PM 02/17/2016,Teleop Enabled,0,FALSE,0,NO ERROR,4009.570312,-3531.884766,4000.000000,4000.000000,Speed,Speed,0.080000,0.220000,1.410000,3.000000,107.000000,1,0,-0.000000,0.000000,1,0.008163,-0.001068,0.000000,0.131958,0.002670,0.000000,0.037000,-0.060000,0.126000,FlatInitial,Hold,0
07:51:30.866 PM 02/17/2016,Teleop Enabled,0,FALSE,0,NO ERROR,4007.666016,-3535.400391,4000.000000,4000.000000,Speed,Speed,0.070000,0.240000,1.410000,3.000000,101.000000,1,0,-0.000000,0.000000,1,0.011032,-0.007294,0.000000,0.132172,0.002579,0.000000,0.016000,-0.064000,0.027000,FlatInitial,Hold,0
07:51:30.967 PM 02/17/2016,Teleop Enabled,0,FALSE,0,NO ERROR,4003.710937,-3542.724609,4000.000000,4000.000000,Speed,Speed,0.070000,0.210000,1.500000,3.000000,101.000000,1,0,-0.000000,0.000000,1,0.016159,0.019028,0.000000,0.133041,0.002563,0.000000,0.016000,-0.064000,0.027000,FlatInitial,Hold,0
07:51:31.067 PM 02/17/2016,Teleop Enabled,0,FALSE,0,NO ERROR,3999.755859,-3541.552734,4000.000000,4000.000000,Speed,Speed,0.070000,0.200000,1.480000,3.000000,102.000000,1,0,-0.000000,0.000000,1,0.023682,0.028702,0.000000,0.134399,0.003860,0.000000,-0.005000,0.047000,0.037000,FlatInitial,Hold,0
07:51:31.167 PM 02/17/2016,Teleop Enabled,0,FALSE,0,NO ERROR,3997.119141,-3537.890625,4000.000000,4000.000000,Speed,Speed,0.080000,0.190000,1.530000,3.000000,101.000000,1,0,-0.000000,0.000000,1,0.005142,0.019684,0.000000,0.134491,0.004730,0.000000,0.000000,0.009000,0.010000,FlatInitial,Hold,0
07:51:31.267 PM 02/17/2016,Teleop Enabled,0,FALSE,0,NO ERROR,3994.628906,-3532.763672,4000.000000,4000.000000,Speed,Speed,0.080000,0.170000,1.580000,3.000000,101.000000,1,0,-0.000000,0.000000,1,0.005142,0.019684,0.000000,0.134491,0.004730,0.000000,0.000000,0.009000,0.010000,FlatInitial,Hold,0
07:51:31.368 PM 02/17/2016,Teleop Enabled,0,FALSE,0,NO ERROR,3996.972656,-3534.228516,4000.000000,4000.000000,Speed,Speed,0.080000,0.180000,1.500000,3.000000,101.000000,1,0,-0.000000,0.000000,1,0.021454,-0.002991,0.000000,0.135788,0.005295,0.000000,0.031000,0.045000,0.129000,FlatInitial,Hold,0
07:51:31.469 PM 02/17/2016,Teleop Enabled,0,FALSE,0,NO ERROR,4002.246094,-3539.941406,4000.000000,4000.000000,Speed,Speed,0.080000,0.220000,1.540000,3.000000,101.000000,1,0,-0.000000,0.000000,1,0.042633,-0.001434,0.000000,0.137253,0.005539,0.000000,-0.022000,-0.031000,0.028000,FlatInitial,Hold,0
07:51:31.570 PM 02/17/2016,Teleop Enabled,0,FALSE,0,NO ERROR,4003.857422,-3544.775391,4000.000000,4000.000000,Speed,Speed,0.080000,0.190000,1.570000,3.000000,101.000000,1,0,-0.000000,0.000000,1,0.042633,-0.001434,0.000000,0.137253,0.005539,0.000000,-0.022000,-0.031000,0.028000,FlatInitial,Hold,0
07:51:31.671 PM 02/17/2016,Teleop Enabled,0,FALSE,0,NO ERROR,4009.423828,-3546.386719,4000.000000,4000.000000,Speed,Speed,0.070000,0.180000,1.560000,3.000000,100.000000,1,0,-0.000000,0.000000,1,0.009155,-0.007919,0.000000,0.138702,0.005234,0.000000,-0.054000,-0.005000,-0.051000,FlatInitial,Hold,0
07:51:31.771 PM 02/17/2016,Teleop Enabled,0,FALSE,0,NO ERROR,4009.863281,-3543.017578,4000.000000,4000.000000,Speed,Speed,0.070000,0.180000,1.560000,3.000000,101.000000,1,0,-0.236220,0.236220,1,0.015961,0.004868,0.000000,0.139130,0.005524,0.000000,-0.054000,-0.005000,-0.051000,FlatInitial,Hold,0
07:51:31.873 PM 02/17/2016,Teleop Enabled,0,FALSE,0,NO ERROR,4003.271484,-3536.865234,4000.000000,4000.000000,Speed,Speed,0.080000,0.180000,1.660000,3.000000,102.000000,1,0,-0.000000,0.000000,1,0.025360,0.000000,0.000000,0.139877,0.005676,0.000000,-0.032000,0.051000,-0.065000,FlatInitial,Hold,0
07:51:31.973 PM 02/17/2016,Teleop Enabled,0,FALSE,0,NO ERROR,3991.406250,-3535.400391,4000.000000,4000.000000,Speed,Speed,1.220000,0.120000,1.690000,3.000000,102.000000,1,0,-0.000000,0.000000,1,0.025360,0.000000,0.000000,0.139877,0.005676,0.000000,-0.482000,0.207000,-0.026000,FlatInitial,Hold,0
07:51:32.073 PM 02/17/2016,Teleop Enabled,0,FALSE,0,NO ERROR,3985.693359,-3539.501953,4000.000000,4000.000000,Speed,Speed,0.870000,0.150000,1.640000,3.000000,102.000000,1,0,-0.000000,0.000000,1,0.032730,-0.030548,0.000000,0.139801,0.002502,0.000000,0.032000,-0.067000,-0.229000,FlatInitial,Hold,0
07:51:32.173 PM 02/17/2016,Teleop Enabled,0,FALSE,0,NO ERROR,3991.845703,-3549.316406,4000.000000,4000.000000,Speed,Speed,0.870000,0.150000,1.640000,3.000000,101.000000,1,0,-0.000000,0.000000,1,0.000000,0.006165,0.000000,0.140656,0.002167,0.000000,0.075000,0.014000,0.060000,FlatInitial,Hold,0
07:51:32.273 PM 02/17/2016,Teleop Enabled,0,FALSE,0,NO ERROR,3999.755859,-3551.806641,4000.000000,4000.000000,Speed,Speed,0.570000,0.060000,1.770000,3.000000,101.000000,1,0,-0.000000,0.000000,1,0.000000,0.006165,0.000000,0.140656,0.002167,0.000000,-0.066000,-0.031000,0.090000,FlatInitial,Hold,0
07:51:32.374 PM 02/17/2016,Teleop Enabled,0,FALSE,0,NO ERROR,4005.322266,-3545.068359,4000.000000,4000.000000,Speed,Speed,0.640000,0.110000,1.670000,3.000000,100.000000,1,0,-0.000000,0.000000,1,0.006912,-0.024460,0.000000,0.141022,0.001831,0.000000,0.049000,-0.116000,0.021000,FlatInitial,Hold,0
07:51:32.474 PM 02/17/2016,Teleop Enabled,0,FALSE,0,NO ERROR,4012.060547,-3542.431641,4000.000000,4000.000000,Speed,Speed,0.640000,0.110000,1.670000,3.000000,102.000000,1,0,-0.000000,0.000000,1,0.006912,-0.024460,0.000000,0.141022,0.001831,0.000000,0.053000,0.074000,0.101000,FlatInitial,Hold,0
07:51:32.574 PM 02/17/2016,Teleop Enabled,0,FALSE,0,NO ERROR,4011.474609,-3543.896484,4000.000000,4000.000000,Speed,Speed,0.610000,0.080000,1.770000,3.000000,102.000000,1,0,-0.000000,0.000000,1,0.022385,-0.008011,0.000000,0.142166,0.001114,0.000000,-0.023000,0.010000,-0.104000,FlatInitial,Hold,0
07:51:32.676 PM 02/17/2016,Teleop Enabled,0,FALSE,0,NO ERROR,4009.277344,-3551.806641,4000.000000,4000.000000,Speed,Speed,0.600000,0.100000,1.730000,3.000000,102.000000,1,0,-0.000000,0.000000,1,0.018005,0.001297,0.000000,0.144516,0.001205,0.000000,0.064000,-0.028000,0.139000,FlatInitial,Hold,0
07:51:32.776 PM 02/17/2016,Teleop Enabled,0,FALSE,0,NO ERROR,4006.933594,-3557.958984,4000.000000,4000.000000,Speed,Speed,0.590000,0.110000,1.750000,3.000000,103.000000,1,0,-0.000000,0.000000,1,0.018005,0.001297,0.000000,0.144516,0.001205,0.000000,0.019000,0.084000,0.103000,FlatInitial,Hold,0
07:51:32.876 PM 02/17/2016,Teleop Enabled,0,FALSE,0,NO ERROR,4005.029297,-3553.271484,4000.000000,4000.000000,Speed,Speed,0.600000,0.090000,1.720000,3.000000,102.000000,1,0,-0.000000,0.000000,1,-0.000198,0.000000,0.000000,0.145187,0.001755,0.000000,0.022000,0.041000,0.038000,FlatInitial,Hold,0
07:51:32.979 PM 02/17/2016,Teleop Enabled,0,FALSE,0,NO ERROR,4002.246094,-3547.412109,4000.000000,4000.000000,Speed,Speed,0.600000,0.090000,1.720000,3.000000,103.000000,1,0,-0.000000,0.000000,1,-0.006592,-0.009613,0.000000,0.145065,0.001755,0.000000,-0.019000,-0.006000,-0.035000,FlatInitial,Hold,0
07:51:33.079 PM 02/17/2016,Teleop Enabled,0,FALSE,0,NO ERROR,3999.169922,-3543.750000,4000.000000,4000.000000,Speed,Speed,0.600000,0.090000,1.720000,3.000000,101.000000,1,0,-0.000000,0.000000,1,-0.002365,-0.005127,0.000000,0.145035,0.001740,0.000000,0.053000,-0.055000,0.079000,FlatInitial,Hold,0
07:51:33.178 PM 02/17/2016,Teleop Enabled,0,FALSE,0,NO ERROR,3995.800781,-3543.750000,4000.000000,4000.000000,Speed,Speed,0.590000,0.080000,1.670000,3.000000,103.000000,1,0,-0.000000,0.000000,1,0.013962,-0.007935,0.000000,0.145401,0.001358,0.000000,0.013000,0.049000,-0.100000,FlatInitial,Hold,0
07:51:33.279 PM 02/17/2016,Teleop Enabled,0,FALSE,0,NO ERROR,3996.972656,-3556.054687,4000.000000,4000.000000,Speed,Speed,0.590000,0.080000,1.670000,3.000000,100.000000,1,0,-0.000000,0.000000,1,0.013962,-0.007935,0.000000,0.145401,0.001358,0.000000,0.012000,-0.009000,0.031000,FlatInitial,Hold,0
07:51:33.380 PM 02/17/2016,Teleop Enabled,0,FALSE,0,NO ERROR,3995.947266,-3554.736328,4000.000000,4000.000000,Speed,Speed,0.590000,0.070000,1.680000,3.000000,100.000000,1,0,-0.000000,0.000000,1,0.000000,0.011230,0.000000,0.145050,0.000839,0.000000,0.007000,0.063000,0.048000,FlatInitial,Hold,0
07:51:33.482 PM 02/17/2016,Teleop Enabled,0,FALSE,0,NO ERROR,3999.169922,-3553.125000,4000.000000,4000.000000,Speed,Speed,0.590000,0.070000,1.680000,3.000000,101.000000,1,0,-0.000000,0.000000,1,0.000000,0.011230,0.000000,0.145050,0.000839,0.000000,0.029000,-0.040000,0.022000,FlatInitial,Hold,0
07:51:33.584 PM 02/17/2016,Teleop Enabled,0,FALSE,0,NO ERROR,4003.564453,-3547.265625,4000.000000,4000.000000,Speed,Speed,0.590000,0.080000,1.690000,3.000000,101.000000,1,0,-0.000000,0.000000,1,-0.004440,0.007767,0.000000,0.144806,0.001251,0.000000,-0.019000,0.061000,-0.049000,FlatInitial,Hold,0
07:51:33.683 PM 02/17/2016,Teleop Enabled,0,FALSE,0,NO ERROR,4008.544922,-3549.169922,4000.000000,4000.000000,Speed,Speed,0.590000,0.090000,1.670000,3.000000,102.000000,1,0,-0.000000,0.000000,1,0.001343,0.008545,0.000000,0.144531,0.001862,0.000000,-0.055000,-0.013000,-0.042000,FlatInitial,Hold,0
07:51:33.784 PM 02/17/2016,Teleop Enabled,0,FALSE,0,NO ERROR,4012.646484,-3549.169922,4000.000000,4000.000000,Speed,Speed,0.590000,0.060000,1.680000,3.000000,105.000000,1,0,-0.000000,0.000000,1,-0.009567,0.014404,0.000000,0.144073,0.002197,0.000000,-0.083000,-0.056000,0.007000,FlatInitial,Hold,0
07:51:33.885 PM 02/17/2016,Teleop Enabled,0,FALSE,0,NO ERROR,4011.621094,-3556.494141,4000.000000,4000.000000,Speed,Speed,0.590000,0.060000,1.680000,3.000000,101.000000,1,0,-0.000000,0.000000,1,-0.021439,0.008728,0.000000,0.143265,0.002213,0.000000,0.005000,0.016000,-0.011000,FlatInitial,Hold,0
07:51:33.988 PM 02/17/2016,Teleop Enabled,0,FALSE,0,NO ERROR,4005.322266,-3558.984375,4000.000000,4000.000000,Speed,Speed,0.600000,0.080000,1.610000,3.000000,101.000000,1,0,-0.000000,0.000000,1,0.000000,-0.023636,0.000000,0.142609,0.001129,0.000000,-0.021000,-0.042000,0.095000,FlatInitial,Hold,0
07:51:34.091 PM 02/17/2016,Teleop Enabled,0,FALSE,0,NO ERROR,3999.755859,-3596.484375,4000.000000,4000.000000,Speed,Speed,0.600000,0.080000,1.610000,3.000000,102.000000,1,0,-0.000000,0.000000,1,0.000000,-0.023636,0.000000,0.142609,0.001129,0.000000,-0.013000,-0.048000,-0.062000,FlatInitial,Hold,0
07:51:34.192 PM 02/17/2016,Teleop Enabled,0,FALSE,0,NO ERROR,3990.966797,-3596.484375,4000.000000,4000.000000,Speed,Speed,0.590000,0.090000,1.560000,3.000000,101.000000,1,0,-0.000000,0.000000,1,-0.003357,-0.049011,0.000000,0.142563,-0.001114,0.000000,0.018000,-0.032000,0.050000,FlatInitial,Hold,0
07:51:34.292 PM 02/17/2016,Teleop Enabled,0,FALSE,0,NO ERROR,3990.966797,-3690.087891,4000.000000,4000.000000,Speed,Speed,0.590000,0.110000,1.500000,3.000000,101.000000,1,0,-0.000000,0.000000,1,0.000000,-0.059097,0.000000,0.142548,-0.004486,0.000000,0.005000,-0.034000,-0.028000,FlatInitial,Hold,0
07:51:34.392 PM 02/17/2016,Teleop Enabled,0,FALSE,0,NO ERROR,3984.667969,-3800.390625,4000.000000,4000.000000,Speed,Speed,0.590000,0.110000,1.540000,3.000000,104.000000,1,0,-0.000000,0.000000,1,0.003464,-0.069260,0.000000,0.142563,-0.007141,0.000000,-0.018000,0.026000,-0.009000,FlatInitial,Hold,0
07:51:34.493 PM 02/17/2016,Teleop Enabled,0,FALSE,0,NO ERROR,3988.623047,-3888.867187,4000.000000,4000.000000,Speed,Speed,0.590000,0.110000,1.540000,3.000000,102.000000,1,0,0.173228,-0.173228,1,-0.004059,-0.053436,0.000000,0.142426,-0.010117,0.000000,-0.016000,0.007000,0.008000,FlatInitial,Hold,0
07:51:34.596 PM 02/17/2016,Teleop Enabled,0,FALSE,0,NO ERROR,3999.902344,-3928.857422,4000.000000,4000.000000,Speed,Speed,0.590000,0.170000,1.390000,3.000000,100.000000,1,0,-0.000000,0.000000,1,0.019196,-0.103867,0.000000,0.142792,-0.015305,0.000000,0.005000,-0.054000,0.043000,FlatInitial,Hold,0
07:51:34.695 PM 02/17/2016,Teleop Enabled,0,FALSE,0,NO ERROR,3999.902344,-3942.041016,4000.000000,4000.000000,Speed,Speed,-0.320000,0.260000,1.420000,3.000000,100.000000,1,0,0.692913,-0.692913,1,-0.016083,-0.078308,0.000000,0.143188,-0.020172,0.000000,-0.052000,-0.013000,0.000000,FlatInitial,Hold,0
07:51:34.798 PM 02/17/2016,Teleop Enabled,0,FALSE,0,NO ERROR,3930.468750,-3935.888672,4000.000000,4000.000000,Speed,Speed,-0.720000,0.450000,1.180000,3.000000,101.000000,1,0,0.700787,-0.700787,1,0.091614,-0.093384,0.000000,0.144363,-0.023407,0.000000,0.026000,-0.050000,0.150000,FlatInitial,Hold,0
07:51:34.897 PM 02/17/2016,Teleop Enabled,0,FALSE,0,NO ERROR,3930.468750,-3820.312500,4000.000000,4000.000000,Speed,Speed,-6.620000,1.100000,1.650000,3.000000,106.000000,1,0,0.322835,-0.322835,1,0.212921,-0.081055,0.000000,0.151764,-0.027832,0.000000,0.321000,-0.009000,0.260000,FlatInitial,Hold,0
07:51:34.999 PM 02/17/2016,Teleop Enabled,0,FALSE,0,NO ERROR,3819.726562,-3697.119141,4000.000000,4000.000000,Speed,Speed,-17.880000,1.980000,0.910000,3.000000,101.000000,1,0,0.244094,-0.244094,1,0.405426,0.023529,0.000000,0.169693,-0.027145,0.000000,-0.092000,0.165000,0.081000,FlatInitial,Hold,0
07:51:35.103 PM 02/17/2016,Teleop Enabled,0,FALSE,0,NO ERROR,3981.298828,-4015.283203,4000.000000,4000.000000,Speed,Speed,-30.980000,2.190000,0.260000,3.000000,101.000000,1,0,0.291339,-0.291339,1,0.341293,0.171417,0.000000,0.192551,-0.020645,0.000000,-0.147000,0.053000,-0.163000,FlatInitial,Hold,0
07:51:35.204 PM 02/17/2016,Teleop Enabled,0,FALSE,0,NO ERROR,4083.837891,-4151.367188,4000.000000,4000.000000,Speed,Speed,-47.600000,1.190000,1.540000,3.000000,100.000000,1,0,-0.000000,0.000000,1,0.080338,0.140671,0.000000,0.205551,-0.010666,0.000000,-0.147000,0.053000,-0.163000,FlatInitial,Hold,0
07:51:35.305 PM 02/17/2016,Teleop Enabled,0,FALSE,0,NO ERROR,4136.718750,-4166.455078,4000.000000,4000.000000,Speed,Speed,-51.360000,1.140000,1.610000,3.000000,100.000000,1,0,-0.000000,0.000000,1,0.017914,0.145279,0.000000,0.206741,-0.006470,0.000000,-0.130000,0.014000,0.022000,FlatInitial,Hold,0
07:51:35.406 PM 02/17/2016,Teleop Enabled,0,FALSE,0,NO ERROR,4125.292969,-4166.455078,4000.000000,4000.000000,Speed,Speed,-54.050000,0.530000,1.790000,3.000000,101.000000,1,0,-0.000000,0.000000,1,-0.154251,0.063217,0.000000,0.202194,-0.001205,0.000000,-0.187000,-0.120000,-0.185000,FlatInitial,Hold,0
07:51:35.506 PM 02/17/2016,Teleop Enabled,0,FALSE,0,NO ERROR,4083.398437,-4120.458984,4000.000000,4000.000000,Speed,Speed,-54.130000,0.310000,2.000000,3.000000,101.000000,1,0,-0.000000,0.000000,1,-0.094101,0.046890,0.000000,0.193832,0.000443,0.000000,0.095000,-0.004000,0.032000,FlatInitial,Hold,0
07:51:35.607 PM 02/17/2016,Teleop Enabled,0,FALSE,0,NO ERROR,4050.292969,-4058.203125,4000.000000,4000.000000,Speed,Speed,-53.940000,0.250000,1.790000,3.000000,104.000000,1,0,-0.000000,0.000000,1,-0.120941,-0.000427,0.000000,0.188431,0.001450,0.000000,0.095000,-0.004000,0.032000,FlatInitial,Hold,0
07:51:35.708 PM 02/17/2016,Teleop Enabled,0,FALSE,0,NO ERROR,4021.289062,-4026.708984,4000.000000,4000.000000,Speed,Speed,-54.030000,0.350000,1.940000,3.000000,100.000000,1,0,-0.000000,0.000000,1,-0.110138,0.006058,0.000000,0.183899,0.001633,0.000000,-0.015000,-0.048000,-0.051000,FlatInitial,Hold,0
07:51:35.810 PM 02/17/2016,Teleop Enabled,0,FALSE,0,NO ERROR,4012.646484,-4017.333984,4000.000000,4000.000000,Speed,Speed,-53.870000,0.410000,1.910000,3.000000,104.000000,1,0,-0.000000,0.000000,1,-0.095993,0.000000,0.000000,0.175766,0.001389,0.000000,-0.015000,-0.048000,-0.051000,FlatInitial,Hold,0
07:51:35.909 PM 02/17/2016,Teleop Enabled,0,FALSE,0,NO ERROR,4012.207031,-4029.492187,4000.000000,4000.000000,Speed,Speed,-53.910000,0.450000,1.800000,3.000000,101.000000,1,0,-0.000000,0.000000,1,-0.078156,-0.011307,0.000000,0.173264,0.001297,0.000000,0.059000,-0.068000,-0.035000,FlatInitial,Hold,0
07:51:36.011 PM 02/17/2016,Teleop Enabled,0,FALSE,0,NO ERROR,4012.207031,-4029.638672,4000.000000,4000.000000,Speed,Speed,-53.920000,0.460000,1.750000,3.000000,102.000000,1,0,-0.000000,0.000000,1,0.000000,-0.040222,0.000000,0.170517,-0.000061,0.000000,-0.034000,0.017000,0.077000,FlatInitial,Hold,0
07:51:36.111 PM 02/17/2016,Teleop Enabled,0,FALSE,0,NO ERROR,4011.474609,-4010.156250,4000.000000,4000.000000,Speed,Speed,-53.920000,0.410000,1.620000,3.000000,102.000000,1,0,-0.000000,0.000000,1,0.013367,0.000000,0.000000,0.170731,-0.003220,0.000000,0.037000,-0.051000,-0.007000,FlatInitial,Hold,0
07:51:36.211 PM 02/17/2016,Teleop Enabled,0,FALSE,0,NO ERROR,4006.933594,-4004.589844,4000.000000,4000.000000,Speed,Speed,-53.930000,0.370000,1.490000,3.000000,101.000000,1,1,0.000000,-0.000000,1,0.000000,-0.026077,0.000000,0.171158,-0.003830,0.000000,-0.011000,-0.045000,0.048000,FlatInitial,Hold,0
07:51:36.313 PM 02/17/2016,Teleop Enabled,0,FALSE,0,NO ERROR,4003.710937,-4009.130859,4000.000000,4000.000000,Speed,Speed,-53.920000,0.290000,1.530000,3.000000,101.000000,1,1,0.000000,-0.000000,1,-0.017258,-0.060608,0.000000,0.170837,-0.006546,0.000000,-0.074000,-0.010000,0.019000,FlatInitial,Hold,0
07:51:36.412 PM 02/17/2016,Teleop Enabled,0,FALSE,0,NO ERROR,4002.832031,-4013.525391,4000.000000,4000.000000,Speed,Speed,-53.920000,0.240000,1.620000,3.000000,102.000000,1,1,0.000000,-0.000000,1,-0.052765,-0.090652,0.000000,0.168839,-0.010498,0.000000,-0.052000,-0.054000,0.036000,FlatInitial,Hold,0
07:51:36.512 PM 02/17/2016,Teleop Enabled,0,FALSE,0,NO ERROR,4000.781250,-4003.857422,4000.000000,4000.000000,Speed,Speed,-53.910000,0.160000,1.710000,3.000000,102.000000,1,1,0.000000,-0.000000,1,0.000000,-0.103165,0.000000,0.166046,-0.015472,0.000000,-0.017000,0.021000,0.058000,FlatInitial,Hold,0
07:51:36.612 PM 02/17/2016,Teleop Enabled,0,FALSE,0,NO ERROR,4000.781250,-3993.896484,4000.000000,4000.000000,Speed,Speed,-53.910000,0.160000,1.710000,3.000000,100.000000,1,1,0.000000,-0.000000,1,0.000000,-0.103165,0.000000,0.166046,-0.015472,0.000000,-0.017000,0.021000,0.058000,FlatInitial,Hold,0
07:51:36.714 PM 02/17/2016,Teleop Enabled,0,FALSE,0,NO ERROR,4002.392578,-3991.699219,4000.000000,4000.000000,Speed,Speed,-53.910000,0.070000,1.800000,3.000000,101.000000,1,1,0.000000,-0.000000,1,-0.001678,-0.131775,0.000000,0.163803,-0.029404,0.000000,-0.024000,-0.024000,0.066000,FlatInitial,Hold,0
07:51:36.815 PM 02/17/2016,Teleop Enabled,0,FALSE,0,NO ERROR,4004.443359,-3994.921875,4000.000000,4000.000000,Speed,Speed,-53.910000,0.050000,1.800000,3.000000,101.000000,1,1,0.000000,-0.000000,1,-0.004303,-0.135849,0.000000,0.163773,-0.030762,0.000000,-0.042000,0.002000,0.056000,FlatInitial,Hold,0
07:51:36.915 PM 02/17/2016,Teleop Enabled,0,FALSE,0,NO ERROR,4008.105469,-4010.009766,4000.000000,4000.000000,Speed,Speed,-53.900000,-0.080000,1.900000,3.000000,114.000000,1,1,0.000000,-0.000000,1,-0.061386,-0.169159,0.000000,0.161255,-0.043060,0.000000,-0.059000,0.001000,0.065000,FlatInitial,Hold,0
07:51:37.017 PM 02/17/2016,Teleop Enabled,0,FALSE,0,NO ERROR,4009.130859,-4011.035156,4000.000000,4000.000000,Speed,Speed,-53.900000,-0.100000,1.950000,3.000000,102.000000,1,1,0.000000,-0.000000,1,-0.078842,-0.173157,0.000000,0.159760,-0.046494,0.000000,-0.077000,0.002000,0.012000,FlatInitial,Hold,0
07:51:37.117 PM 02/17/2016,Teleop Enabled,0,FALSE,0,NO ERROR,4007.519531,-4002.539062,4000.000000,4000.000000,Speed,Speed,-53.900000,-0.190000,2.210000,3.000000,103.000000,1,1,0.000000,-0.000000,1,-0.078842,-0.173157,0.000000,0.159760,-0.046494,0.000000,-0.077000,0.002000,0.012000,FlatInitial,Hold,0
07:51:37.218 PM 02/17/2016,Teleop Enabled,0,FALSE,0,NO ERROR,4001.220703,-3998.437500,4000.000000,4000.000000,Speed,Speed,-53.900000,-0.270000,2.360000,3.000000,100.000000,1,1,0.000000,-0.000000,1,-0.199890,0.008759,0.000000,0.139175,-0.054474,0.000000,-0.063000,0.018000,0.039000,FlatInitial,Hold,0
07:51:37.318 PM 02/17/2016,Teleop Enabled,0,FALSE,0,NO ERROR,3992.431641,-3993.750000,4000.000000,4000.000000,Speed,Speed,-53.890000,-0.340000,2.430000,3.000000,101.000000,1,1,0.000000,-0.000000,1,-0.011353,0.000000,0.000000,0.136856,-0.054123,0.000000,-0.019000,-0.013000,0.090000,FlatInitial,Hold,0
07:51:37.424 PM 02/17/2016,Teleop Enabled,0,FALSE,0,NO ERROR,3988.183594,-3991.113281,4000.000000,4000.000000,Speed,Speed,-53.900000,-0.380000,2.500000,3.000000,100.000000,1,1,0.000000,-0.000000,1,-0.011353,0.000000,0.000000,0.136856,-0.054123,0.000000,-0.019000,-0.013000,0.090000,FlatInitial,Hold,0
07:51:37.524 PM 02/17/2016,Teleop Enabled,0,FALSE,0,NO ERROR,3987.597656,-4000.781250,4000.000000,4000.000000,Speed,Speed,-53.890000,-0.450000,2.570000,3.000000,101.000000,1,1,0.000000,-0.000000,1,-0.059280,0.000000,0.000000,0.133957,-0.054535,0.000000,-0.002000,0.003000,-0.075000,FlatInitial,Hold,0
07:51:37.625 PM 02/17/2016,Teleop Enabled,0,FALSE,0,NO ERROR,3991.699219,-4005.029297,4000.000000,4000.000000,Speed,Speed,-53.890000,-0.450000,2.570000,3.000000,109.000000,1,1,0.000000,-0.000000,1,-0.059280,0.000000,0.000000,0.133957,-0.054535,0.000000,-0.002000,0.003000,-0.075000,FlatInitial,Hold,0
07:51:37.725 PM 02/17/2016,Teleop Enabled,0,FALSE,0,NO ERROR,3997.265625,-4007.666016,4000.000000,4000.000000,Speed,Speed,-53.890000,-0.440000,2.570000,3.000000,101.000000,1,1,0.000000,-0.000000,1,-0.009918,-0.004425,0.000000,0.131424,-0.055084,0.000000,-0.002000,0.003000,-0.075000,FlatInitial,Hold,0
07:51:37.827 PM 02/17/2016,Teleop Enabled,0,FALSE,0,NO ERROR,4001.660156,-4013.378906,4000.000000,4000.000000,Speed,Speed,-53.890000,-0.450000,2.620000,3.000000,101.000000,1,1,0.000000,-0.000000,1,-0.019852,0.000000,0.000000,0.130890,-0.055222,0.000000,0.002000,-0.010000,0.024000,FlatInitial,Hold,0
07:51:37.927 PM 02/17/2016,Teleop Enabled,0,FALSE,0,NO ERROR,4007.958984,-4016.601562,4000.000000,4000.000000,Speed,Speed,-53.900000,-0.410000,2.680000,3.000000,102.000000,1,1,0.000000,-0.000000,1,-0.034943,0.000000,0.000000,0.129395,-0.055222,0.000000,0.013000,-0.002000,-0.056000,FlatInitial,Hold,0
07:51:38.027 PM 02/17/2016,Teleop Enabled,0,FALSE,0,NO ERROR,4011.621094,-4009.570312,4000.000000,4000.000000,Speed,Speed,-53.890000,-0.350000,2.780000,3.000000,103.000000,1,1,0.000000,-0.000000,1,-0.012741,0.023270,0.000000,0.127884,-0.054474,0.000000,0.013000,-0.002000,-0.056000,FlatInitial,Hold,0
07:51:38.127 PM 02/17/2016,Teleop Enabled,0,FALSE,0,NO ERROR,4009.130859,-3999.462891,4000.000000,4000.000000,Speed,Speed,-53.890000,-0.340000,2.860000,3.000000,101.000000,1,1,0.000000,-0.000000,1,-0.012741,0.023270,0.000000,0.127884,-0.054474,0.000000,0.028000,0.024000,-0.038000,FlatInitial,Hold,0
07:51:38.228 PM 02/17/2016,Teleop Enabled,0,FALSE,0,NO ERROR,4003.417969,-3993.164062,4000.000000,4000.000000,Speed,Speed,-53.890000,-0.300000,2.920000,3.000000,101.000000,1,1,0.000000,-0.000000,1,-0.003448,0.042801,0.000000,0.125671,-0.051025,0.000000,-0.005000,-0.044000,0.097000,FlatInitial,Hold,0
07:51:38.328 PM 02/17/2016,Teleop Enabled,0,FALSE,0,NO ERROR,3999.023437,-3995.654297,4000.000000,4000.000000,Speed,Speed,-53.890000,-0.300000,2.920000,3.000000,105.000000,1,1,0.000000,-0.000000,1,-0.003448,0.042801,0.000000,0.125671,-0.051025,0.000000,0.002000,0.014000,-0.088000,FlatInitial,Hold,0
07:51:38.429 PM 02/17/2016,Teleop Enabled,0,FALSE,0,NO ERROR,3995.507812,-4005.761719,4000.000000,4000.000000,Speed,Speed,-53.890000,-0.270000,2.980000,3.000000,102.000000,1,1,0.000000,-0.000000,1,0.004135,0.055756,0.000000,0.125244,-0.046616,0.000000,0.014000,0.027000,0.053000,FlatInitial,Hold,0
07:51:38.531 PM 02/17/2016,Teleop Enabled,0,FALSE,0,NO ERROR,3991.845703,-4017.626953,4000.000000,4000.000000,Speed,Speed,-53.890000,-0.270000,2.980000,3.000000,112.000000,1,1,0.000000,-0.000000,1,0.000000,0.059555,0.000000,0.125244,-0.045425,0.000000,0.026000,0.012000,0.040000,FlatInitial,Hold,0
07:51:38.630 PM 02/17/2016,Teleop Enabled,0,FALSE,0,NO ERROR,3990.820312,-4008.105469,4000.000000,4000.000000,Speed,Speed,-53.890000,-0.130000,2.990000,3.000000,100.000000,1,1,0.000000,-0.000000,1,0.014618,0.007294,0.000000,0.125809,-0.045349,0.000000,-0.024000,0.063000,-0.060000,FlatInitial,Hold,0
07:51:38.731 PM 02/17/2016,Teleop Enabled,0,FALSE,0,NO ERROR,3994.042969,-4000.781250,4000.000000,4000.000000,Speed,Speed,-53.890000,-0.130000,2.990000,3.000000,100.000000,1,1,0.000000,-0.000000,1,0.000000,0.023224,0.000000,0.126099,-0.044586,0.000000,-0.006000,0.031000,0.024000,FlatInitial,Hold,0
07:51:38.833 PM 02/17/2016,Teleop Enabled,0,FALSE,0,NO ERROR,4000.341797,-4000.195312,4000.000000,4000.000000,Speed,Speed,-53.900000,-0.070000,2.860000,3.000000,100.000000,1,1,0.000000,-0.000000,1,0.000000,0.023224,0.000000,0.126099,-0.044586,0.000000,-0.006000,0.031000,0.024000,FlatInitial,Hold,0
07:51:38.934 PM 02/17/2016,Teleop Enabled,0,FALSE,0,NO ERROR,4006.933594,-4005.908203,4000.000000,4000.000000,Speed,Speed,-53.900000,-0.040000,2.840000,3.000000,102.000000,1,1,0.000000,-0.000000,1,0.000000,0.032745,0.000000,0.126312,-0.041412,0.000000,0.004000,0.059000,-0.107000,FlatInitial,Hold,0
07:51:39.034 PM 02/17/2016,Teleop Enabled,0,FALSE,0,NO ERROR,4011.767578,-4013.085937,4000.000000,4000.000000,Speed,Speed,-53.900000,0.060000,2.740000,3.000000,101.000000,1,1,0.000000,-0.000000,1,0.021439,-0.002396,0.000000,0.127151,-0.039398,0.000000,0.043000,-0.023000,0.007000,FlatInitial,Hold,0
07:51:39.135 PM 02/17/2016,Teleop Enabled,0,FALSE,0,NO ERROR,4012.939453,-4002.832031,4000.000000,4000.000000,Speed,Speed,-53.910000,0.070000,2.670000,3.000000,102.000000,1,1,0.000000,-0.000000,1,0.037445,0.012817,0.000000,0.129013,-0.039093,0.000000,0.043000,-0.023000,0.007000,FlatInitial,Hold,0
07:51:39.235 PM 02/17/2016,Teleop Enabled,0,FALSE,0,NO ERROR,4006.640625,-3995.654297,4000.000000,4000.000000,Speed,Speed,-53.910000,0.070000,2.670000,3.000000,102.000000,1,1,0.000000,-0.000000,1,0.037445,0.012817,0.000000,0.129013,-0.039093,0.000000,0.043000,0.054000,-0.086000,FlatInitial,Hold,0
07:51:39.336 PM 02/17/2016,Teleop Enabled,0,FALSE,0,NO ERROR,4000.781250,-3999.023437,4000.000000,4000.000000,Speed,Speed,-53.910000,0.170000,2.420000,3.000000,104.000000,1,1,0.000000,-0.000000,1,0.088608,0.026215,0.000000,0.133728,-0.037552,0.000000,0.008000,-0.024000,0.107000,FlatInitial,Hold,0
07:51:39.435 PM 02/17/2016,Teleop Enabled,0,FALSE,0,NO ERROR,3996.093750,-4004.003906,4000.000000,4000.000000,Speed,Speed,-53.920000,0.220000,2.360000,3.000000,102.000000,1,1,0.000000,-0.000000,1,0.127136,0.032776,0.000000,0.142517,-0.035248,0.000000,0.025000,-0.031000,0.128000,FlatInitial,Hold,0
07:51:39.536 PM 02/17/2016,Teleop Enabled,0,FALSE,0,NO ERROR,3993.310547,-4009.570312,4000.000000,4000.000000,Speed,Speed,-53.920000,0.220000,2.360000,3.000000,110.000000,1,1,0.000000,-0.000000,1,0.131256,0.000000,0.000000,0.149094,-0.034088,0.000000,0.023000,0.000000,0.070000,FlatInitial,Hold,0
07:51:39.636 PM 02/17/2016,Teleop Enabled,0,FALSE,0,NO ERROR,3990.087891,-4004.296875,4000.000000,4000.000000,Speed,Speed,-53.920000,0.210000,2.300000,3.000000,101.000000,1,1,0.000000,-0.000000,1,0.131256,0.000000,0.000000,0.149094,-0.034088,0.000000,0.022000,-0.013000,0.010000,FlatInitial,Hold,0
07:51:39.738 PM 02/17/2016,Teleop Enabled,0,FALSE,0,NO ERROR,3993.017578,-3995.507812,4000.000000,4000.000000,Speed,Speed,-53.920000,0.190000,2.060000,3.000000,101.000000,1,1,0.000000,-0.000000,1,0.157181,-0.013504,0.000000,0.159164,-0.034302,0.000000,0.061000,0.006000,-0.096000,FlatInitial,Hold,0
07:51:39.840 PM 02/17/2016,Teleop Enabled,0,FALSE,0,NO ERROR,3999.169922,-3993.603516,4000.000000,4000.000000,Speed,Speed,-53.920000,0.190000,2.060000,3.000000,100.000000,1,1,0.000000,-0.000000,1,0.171875,-0.028152,0.000000,0.167633,-0.035416,0.000000,-0.028000,-0.031000,0.083000,FlatInitial,Hold,0
07:51:39.941 PM 02/17/2016,Teleop Enabled,0,FALSE,0,NO ERROR,4006.201172,-3999.023437,4000.000000,4000.000000,Speed,Speed,-53.930000,0.140000,2.000000,3.000000,103.000000,1,1,0.000000,-0.000000,1,0.005493,-0.044739,0.000000,0.176346,-0.038071,0.000000,-0.028000,-0.031000,0.083000,FlatInitial,Hold,0
07:51:40.042 PM 02/17/2016,Teleop Enabled,0,FALSE,0,NO ERROR,4012.646484,-4006.640625,4000.000000,4000.000000,Speed,Speed,-53.930000,0.140000,2.000000,3.000000,103.000000,1,1,0.000000,-0.000000,1,0.005493,-0.044739,0.000000,0.176346,-0.038071,0.000000,0.010000,0.011000,0.083000,FlatInitial,Hold,0
07:51:40.143 PM 02/17/2016,Teleop Enabled,0,FALSE,0,NO ERROR,4012.207031,-4010.156250,4000.000000,4000.000000,Speed,Speed,-53.930000,0.120000,1.970000,3.000000,108.000000,1,1,0.000000,-0.000000,1,0.000000,0.012375,0.000000,0.176514,-0.038574,0.000000,0.030000,-0.008000,0.080000,FlatInitial,Hold,0
07:51:40.244 PM 02/17/2016,Teleop Enabled,0,FALSE,0,NO ERROR,4006.054687,-4010.156250,4000.000000,4000.000000,Speed,Speed,-53.930000,0.090000,1.810000,3.000000,104.000000,1,0,-0.000000,0.000000,1,0.017883,0.020615,0.000000,0.176926,-0.037537,0.000000,-0.004000,-0.001000,-0.018000,FlatInitial,Hold,0
07:51:40.345 PM 02/17/2016,Teleop Enabled,0,FALSE,0,NO ERROR,4000.927734,-3999.609375,4000.000000,4000.000000,Speed,Speed,-53.930000,0.060000,1.810000,3.000000,101.000000,1,0,-0.000000,0.000000,1,0.033875,-0.005417,0.000000,0.178696,-0.036880,0.000000,0.012000,0.002000,-0.003000,FlatInitial,Hold,0
07:51:40.447 PM 02/17/2016,Teleop Enabled,0,FALSE,0,NO ERROR,3997.119141,-4004.443359,4000.000000,4000.000000,Speed,Speed,-53.930000,0.060000,1.810000,3.000000,100.000000,1,0,-0.000000,0.000000,1,0.000000,0.000000,0.000000,0.178696,-0.036880,0.000000,0.011000,-0.001000,0.108000,FlatInitial,Hold,0
07:51:40.547 PM 02/17/2016,Teleop Enabled,0,FALSE,0,NO ERROR,3996.679687,-4017.480469,4000.000000,4000.000000,Speed,Speed,-53.940000,-0.040000,1.880000,3.000000,101.000000,1,0,-0.000000,0.000000,1,-0.007462,0.019791,0.000000,0.178574,-0.036407,0.000000,0.000000,0.016000,0.111000,FlatInitial,Hold,0
07:51:40.647 PM 02/17/2016,Teleop Enabled,0,FALSE,0,NO ERROR,3997.412109,-4013.818359,4000.000000,4000.000000,Speed,Speed,-53.940000,-0.040000,1.880000,3.000000,103.000000,1,0,-0.000000,0.000000,1,-0.016235,0.028625,0.000000,0.178162,-0.035721,0.000000,0.021000,0.004000,0.067000,FlatInitial,Hold,0
07:51:40.748 PM 02/17/2016,Teleop Enabled,0,FALSE,0,NO ERROR,3997.998047,-3999.169922,4000.000000,4000.000000,Speed,Speed,-53.580000,-0.370000,1.990000,3.000000,105.000000,1,0,-0.244094,0.244094,1,0.000000,0.016815,0.000000,0.176910,-0.035004,0.000000,0.004000,0.034000,-0.054000,FlatInitial,Hold,0
07:51:40.849 PM 02/17/2016,Teleop Enabled,0,FALSE,0,NO ERROR,3990.527344,-3973.974609,4000.000000,4000.000000,Speed,Speed,-53.580000,-0.370000,1.990000,3.000000,101.000000,1,0,-0.299213,0.299213,1,-0.076767,0.000229,0.000000,0.175903,-0.034653,0.000000,0.054000,-0.090000,0.139000,FlatInitial,Hold,0
07:51:40.951 PM 02/17/2016,Teleop Enabled,0,FALSE,0,NO ERROR,3974.560547,-3947.753906,4000.000000,4000.000000,Speed,Speed,-51.120000,-0.530000,2.220000,3.000000,102.000000,1,0,-0.314961,0.314961,1,-0.093521,-0.032639,0.000000,0.170258,-0.035797,0.000000,-0.061000,-0.063000,0.027000,FlatInitial,Hold,0
07:51:41.051 PM 02/17/2016,Teleop Enabled,0,FALSE,0,NO ERROR,3960.937500,-3943.945312,4000.000000,4000.000000,Speed,Speed,-44.380000,-0.860000,1.900000,3.000000,101.000000,1,0,-0.393701,0.393701,1,-0.016937,0.019699,0.000000,0.165970,-0.038498,0.000000,-0.010000,-0.009000,0.092000,FlatInitial,Hold,0
07:51:41.150 PM 02/17/2016,Teleop Enabled,0,FALSE,0,NO ERROR,3953.613281,-3939.257812,4000.000000,4000.000000,Speed,Speed,-44.380000,-0.860000,1.900000,3.000000,102.000000,1,0,-0.488189,0.488189,1,-0.016937,0.019699,0.000000,0.165970,-0.038498,0.000000,-0.075000,0.031000,0.032000,FlatInitial,Hold,0
07:51:41.251 PM 02/17/2016,Teleop Enabled,0,FALSE,0,NO ERROR,3938.085937,-3910.253906,4000.000000,4000.000000,Speed,Speed,-28.210000,-1.860000,1.880000,3.000000,101.000000,1,0,-0.590551,0.590551,1,-0.261093,0.062897,0.000000,0.150314,-0.037170,0.000000,-0.182000,-0.083000,-0.007000,FlatInitial,Hold,0
07:51:41.360 PM 02/17/2016,Teleop Enabled,0,FALSE,0,NO ERROR,3904.541016,-3864.843750,4000.000000,4000.000000,Speed,Speed,-10.770000,-2.430000,2.050000,3.000000,102.000000,1,0,-0.598425,0.598425,1,-0.261093,0.062897,0.000000,0.150314,-0.037170,0.000000,0.047000,0.114000,0.064000,FlatInitial,Hold,0
07:51:41.462 PM 02/17/2016,Teleop Enabled,0,FALSE,0,NO ERROR,3898.535156,-3861.474609,4000.000000,4000.000000,Speed,Speed,8.150000,-2.820000,2.210000,3.000000,102.000000,1,0,-0.598425,0.598425,1,-0.337891,0.460999,0.000000,0.118851,-0.013351,0.000000,-0.099000,0.176000,0.054000,FlatInitial,Hold,0
07:51:41.562 PM 02/17/2016,Teleop Enabled,0,FALSE,0,NO ERROR,3927.539062,-3894.873047,4000.000000,4000.000000,Speed,Speed,30.510000,-2.730000,2.240000,3.000000,101.000000,1,0,-0.000000,0.000000,1,-0.337891,0.460999,0.000000,0.118851,-0.013351,0.000000,0.194000,0.324000,-0.125000,FlatInitial,Hold,0
07:51:41.662 PM 02/17/2016,Teleop Enabled,0,FALSE,0,NO ERROR,3927.539062,-4008.544922,4000.000000,4000.000000,Speed,Speed,30.510000,-2.730000,2.240000,3.000000,101.000000,1,0,-0.000000,0.000000,1,-0.028458,0.686905,0.000000,0.108109,0.025070,0.000000,0.266000,-0.654000,-0.254000,FlatInitial,Hold,0
07:51:41.763 PM 02/17/2016,Teleop Enabled,0,FALSE,0,NO ERROR,4087.792969,-4105.810547,4000.000000,4000.000000,Speed,Speed,59.550000,-0.230000,0.500000,3.000000,105.000000,1,0,-0.000000,0.000000,1,0.144684,0.137177,0.000000,0.118256,0.053711,0.000000,0.000000,-0.162000,-0.251000,FlatInitial,Hold,0
07:51:41.863 PM 02/17/2016,Teleop Enabled,0,FALSE,0,NO ERROR,4109.619141,-4152.685547,4000.000000,4000.000000,Speed,Speed,59.550000,-0.230000,0.500000,3.000000,100.000000,1,0,-0.000000,0.000000,1,0.143372,0.070145,0.000000,0.121078,0.055481,0.000000,-0.032000,-0.296000,0.115000,FlatInitial,Hold,0
07:51:41.963 PM 02/17/2016,Teleop Enabled,0,FALSE,0,NO ERROR,4094.677734,-4152.685547,4000.000000,4000.000000,Speed,Speed,63.900000,1.060000,0.000000,3.000000,101.000000,1,0,0.228346,-0.228346,1,0.150711,-0.186996,0.000000,0.133957,0.045975,0.000000,0.026000,-0.121000,0.030000,FlatInitial,Hold,0
07:51:42.064 PM 02/17/2016,Teleop Enabled,0,FALSE,0,NO ERROR,4062.597656,-4087.500000,4000.000000,4000.000000,Speed,Speed,63.900000,1.060000,0.000000,3.000000,101.000000,1,0,0.637795,-0.637795,1,0.150711,-0.186996,0.000000,0.133957,0.045975,0.000000,-0.118000,-0.195000,0.281000,FlatInitial,Hold,0
07:51:42.164 PM 02/17/2016,Teleop Enabled,0,FALSE,0,NO ERROR,3962.695312,-4087.500000,4000.000000,4000.000000,Speed,Speed,54.750000,1.880000,0.300000,3.000000,102.000000,1,0,-0.000000,0.000000,1,0.205231,-0.205551,0.000000,0.146072,0.034103,0.000000,0.058000,-0.054000,0.081000,FlatInitial,Hold,0
07:51:42.265 PM 02/17/2016,Teleop Enabled,0,FALSE,0,NO ERROR,3873.779297,-3935.742187,4000.000000,4000.000000,Speed,Speed,54.750000,1.880000,0.300000,3.000000,101.000000,1,0,-0.000000,0.000000,1,0.277649,-0.267242,0.000000,0.156189,0.024628,0.000000,0.068000,-0.031000,0.048000,FlatInitial,Hold,0
07:51:42.365 PM 02/17/2016,Teleop Enabled,0,FALSE,0,NO ERROR,3943.652344,-3965.771484,4000.000000,4000.000000,Speed,Speed,46.060000,1.540000,0.070000,3.000000,102.000000,1,0,-0.000000,0.000000,1,0.312775,-0.084717,0.000000,0.174591,0.013214,0.000000,-0.068000,0.244000,0.073000,FlatInitial,Hold,0
07:51:42.465 PM 02/17/2016,Teleop Enabled,0,FALSE,0,NO ERROR,4042.382812,-4067.871094,4000.000000,4000.000000,Speed,Speed,44.230000,0.470000,1.010000,3.000000,100.000000,1,0,-0.000000,0.000000,1,0.251968,0.101654,0.000000,0.194427,0.018478,0.000000,0.070000,-0.233000,0.021000,FlatInitial,Hold,0
07:51:42.565 PM 02/17/2016,Teleop Enabled,0,FALSE,0,NO ERROR,4079.296875,-4067.871094,4000.000000,4000.000000,Speed,Speed,44.200000,0.710000,0.950000,3.000000,103.000000,1,0,-0.000000,0.000000,1,0.250290,0.035126,0.000000,0.204865,0.020508,0.000000,-0.105000,-0.010000,0.001000,FlatInitial,Hold,0
07:51:42.666 PM 02/17/2016,Teleop Enabled,0,FALSE,0,NO ERROR,4072.119141,-4115.625000,4000.000000,4000.000000,Speed,Speed,44.250000,0.540000,0.580000,3.000000,105.000000,1,0,-0.000000,0.000000,1,0.213379,0.015167,0.000000,0.215591,0.020920,0.000000,0.013000,-0.063000,-0.076000,FlatInitial,Hold,0
07:51:42.767 PM 02/17/2016,Teleop Enabled,0,FALSE,0,NO ERROR,4050.000000,-4092.773437,4000.000000,4000.000000,Speed,Speed,44.260000,0.670000,0.580000,3.000000,102.000000,1,0,0.196850,-0.196850,1,0.011200,0.025879,0.000000,0.217926,0.021286,0.000000,-0.079000,0.021000,0.079000,FlatInitial,Hold,0
07:51:42.867 PM 02/17/2016,Teleop Enabled,0,FALSE,0,NO ERROR,4050.000000,-4043.115234,4000.000000,4000.000000,Speed,Speed,44.060000,0.760000,0.840000,3.000000,102.000000,1,0,0.228346,-0.228346,1,0.041077,0.038345,0.000000,0.219269,0.023621,0.000000,-0.013000,0.012000,0.128000,FlatInitial,Hold,0
07:51:42.967 PM 02/17/2016,Teleop Enabled,0,FALSE,0,NO ERROR,4017.480469,-4006.640625,4000.000000,4000.000000,Speed,Speed,42.560000,0.810000,1.010000,3.000000,102.000000,1,0,0.228346,-0.228346,1,0.047363,0.031448,0.000000,0.220673,0.024612,0.000000,0.116000,-0.044000,-0.021000,FlatInitial,Hold,0
07:51:43.068 PM 02/17/2016,Teleop Enabled,0,FALSE,0,NO ERROR,3989.501953,-3987.158203,4000.000000,4000.000000,Speed,Speed,40.010000,0.960000,0.860000,3.000000,100.000000,1,0,0.322835,-0.322835,1,0.000000,0.056793,0.000000,0.225388,0.027252,0.000000,0.014000,0.029000,0.053000,FlatInitial,Hold,0
07:51:43.169 PM 02/17/2016,Teleop Enabled,0,FALSE,0,NO ERROR,3966.064453,-3970.898437,4000.000000,4000.000000,Speed,Speed,37.270000,0.940000,1.120000,3.000000,102.000000,1,0,0.322835,-0.322835,1,0.005417,0.075180,0.000000,0.225266,0.029785,0.000000,-0.026000,0.021000,0.175000,FlatInitial,Hold,0
07:51:43.271 PM 02/17/2016,Teleop Enabled,0,FALSE,0,NO ERROR,3966.064453,-3959.179687,4000.000000,4000.000000,Speed,Speed,34.330000,1.030000,1.320000,3.000000,103.000000,1,0,-0.000000,0.000000,1,0.037689,0.104477,0.000000,0.226120,0.034698,0.000000,0.015000,-0.017000,0.011000,FlatInitial,Hold,0
07:51:43.371 PM 02/17/2016,Teleop Enabled,0,FALSE,0,NO ERROR,3961.083984,-3966.796875,4000.000000,4000.000000,Speed,Speed,31.270000,1.330000,1.140000,3.000000,101.000000,1,0,-0.000000,0.000000,1,0.038483,0.160400,0.000000,0.228027,0.039703,0.000000,-0.100000,0.122000,-0.049000,FlatInitial,Hold,0
07:51:43.471 PM 02/17/2016,Teleop Enabled,0,FALSE,0,NO ERROR,3992.724609,-4004.443359,4000.000000,4000.000000,Speed,Speed,29.640000,0.560000,1.200000,3.000000,101.000000,1,0,-0.000000,0.000000,1,-0.070984,0.249664,0.000000,0.225693,0.053436,0.000000,-0.048000,0.000000,0.124000,FlatInitial,Hold,0
07:51:43.571 PM 02/17/2016,Teleop Enabled,0,FALSE,0,NO ERROR,4023.632812,-4040.332031,4000.000000,4000.000000,Speed,Speed,30.020000,0.600000,1.290000,3.000000,101.000000,1,0,-0.000000,0.000000,1,-0.018600,0.204941,0.000000,0.223953,0.064697,0.000000,-0.020000,0.010000,0.023000,FlatInitial,Hold,0
