Time,RobotMode,AutoToRun,ErrorStatus, ErrorCode,ErrorSource,ActualRPM1,ActualRPM2,DesiredRPM1,DesiredRPM2,ControlMode1,ControlMode2,NavXYaw,NavXRoll,NavXPitch,ShooterState,LoopTime,IsLevel,IsAutoTargeting,LeftMotorOutput,RightMotorOutput,IsHaloDrive,NavXVelocityX,NavXVelocityY,NavXVelocityZ,NavXDisplacementX,NavXDisplacementY,NavXDisplacementZ,NavXAccelerationX,NavXAccelerationY,NavXAccelerationZ,AutoDefendState,AngeMotorState,Photoeye
08:05:34.969 PM 02/17/2016,Autonomous Disabled,0,TRUE,91,Variant To Data in WPI_DigitalInputRefNum Registry Get.vi->Periodic Tasks.vi->Robot Main.vi,-6003.515625,5996.484375,-6000.000000,-6000.000000,Speed,Speed,-7.080000,0.170000,2.740000,1.000000,101.000000,1,0,-0.000000,0.000000,1,-0.064835,0.013000,0.000000,24.459778,-8.029663,0.000000,-0.006000,0.064000,-0.207000,FlatInitial,Hold,0
08:05:35.069 PM 02/17/2016,Teleop Disabled,0,TRUE,-44007,<LOCATION>WPI_DigitalInputRefNum Registry Get.vi<CALLSTACK>WPI_DigitalInputRefNum Registry Get.vi< <Periodic Tasks.vi< <Robot Main.vi,0.000000,0.000000,0.000000,0.000000,Speed,Speed,0.000000,0.870000,1.880000,0.000000,156077.000000,1,0,-0.000000,0.000000,1,0.000000,0.000000,0.000000,24.526962,-7.785126,0.000000,0.000000,0.000000,0.001000,FlatInitial,ResetBack,0
08:05:35.169 PM 02/17/2016,Teleop Disabled,0,FALSE,0,NO ERROR,0.000000,0.000000,0.000000,0.000000,Speed,Speed,0.000000,0.870000,1.880000,0.000000,107.000000,1,0,-0.000000,0.000000,1,0.000000,0.000000,0.000000,24.526962,-7.785126,0.000000,0.000000,0.000000,-0.001000,FlatInitial,ResetBack,0
08:05:35.269 PM 02/17/2016,Teleop Disabled,0,FALSE,0,NO ERROR,0.000000,0.000000,0.000000,0.000000,Speed,Speed,0.000000,0.870000,1.880000,0.000000,102.000000,1,0,-0.000000,0.000000,1,0.000000,0.000000,0.000000,24.526962,-7.785126,0.000000,0.001000,0.001000,0.004000,FlatInitial,ResetBack,0
08:05:35.370 PM 02/17/2016,Teleop Disabled,0,FALSE,0,NO ERROR,0.000000,0.000000,0.000000,0.000000,Speed,Speed,0.000000,0.870000,1.880000,0.000000,102.000000,1,0,-0.000000,0.000000,1,0.000000,0.000000,0.000000,24.526962,-7.785126,0.000000,0.000000,-0.001000,0.004000,FlatInitial,ResetBack,0
08:05:35.470 PM 02/17/2016,Teleop Disabled,0,FALSE,0,NO ERROR,0.000000,0.000000,0.000000,0.000000,Speed,Speed,0.000000,0.870000,1.880000,0.000000,102.000000,1,0,-0.000000,0.000000,1,0.000000,0.000000,0.000000,24.526962,-7.785126,0.000000,0.000000,0.000000,0.006000,FlatInitial,ResetBack,0
08:05:35.571 PM 02/17/2016,Teleop Disabled,0,FALSE,0,NO ERROR,0.000000,0.000000,0.000000,0.000000,Speed,Speed,0.000000,0.870000,1.880000,0.000000,102.000000,1,0,-0.000000,0.000000,1,0.000000,0.000000,0.000000,24.526962,-7.785126,0.000000,0.000000,-0.002000,0.002000,FlatInitial,ResetBack,0
08:05:35.673 PM 02/17/2016,Teleop Disabled,0,FALSE,0,NO ERROR,0.000000,0.000000,0.000000,0.000000,Speed,Speed,0.000000,0.870000,1.880000,0.000000,102.000000,1,0,-0.000000,0.000000,1,0.000000,0.000000,0.000000,24.526962,-7.785126,0.000000,0.000000,0.000000,0.001000,FlatInitial,ResetBack,0
08:05:35.773 PM 02/17/2016,Teleop Disabled,0,FALSE,0,NO ERROR,0.000000,0.000000,0.000000,0.000000,Speed,Speed,0.000000,0.870000,1.880000,0.000000,102.000000,1,0,-0.000000,0.000000,1,0.000000,0.000000,0.000000,24.526962,-7.785126,0.000000,-0.001000,0.000000,0.003000,FlatInitial,ResetBack,0
08:05:35.873 PM 02/17/2016,Teleop Disabled,0,FALSE,0,NO ERROR,0.000000,0.000000,0.000000,0.000000,Speed,Speed,0.000000,0.870000,1.880000,0.000000,101.000000,1,0,-0.000000,0.000000,1,0.000000,0.000000,0.000000,24.526962,-7.785126,0.000000,0.001000,-0.001000,0.005000,FlatInitial,ResetBack,0
08:05:35.974 PM 02/17/2016,Teleop Disabled,0,FALSE,0,NO ERROR,0.000000,0.000000,0.000000,0.000000,Speed,Speed,0.000000,0.880000,1.870000,0.000000,102.000000,1,0,-0.000000,0.000000,1,0.000000,0.000000,0.000000,24.526962,-7.785126,0.000000,0.000000,0.000000,0.002000,FlatInitial,ResetBack,0
08:05:36.074 PM 02/17/2016,Teleop Disabled,0,FALSE,0,NO ERROR,0.000000,0.000000,0.000000,0.000000,Speed,Speed,0.000000,0.870000,1.880000,0.000000,102.000000,1,0,-0.000000,0.000000,1,0.000000,0.000000,0.000000,24.526962,-7.785126,0.000000,0.000000,0.000000,0.000000,FlatInitial,ResetBack,0
08:05:36.174 PM 02/17/2016,Teleop Disabled,0,FALSE,0,NO ERROR,0.000000,0.000000,0.000000,0.000000,Speed,Speed,-0.010000,0.870000,1.880000,0.000000,101.000000,1,0,-0.000000,0.000000,1,0.000000,0.000000,0.000000,24.526962,-7.785126,0.000000,0.000000,0.000000,0.000000,FlatInitial,ResetBack,0
08:05:36.274 PM 02/17/2016,Teleop Disabled,0,FALSE,0,NO ERROR,0.000000,0.000000,0.000000,0.000000,Speed,Speed,-0.010000,0.870000,1.880000,0.000000,103.000000,1,0,-0.000000,0.000000,1,0.000000,0.000000,0.000000,24.526962,-7.785126,0.000000,0.001000,0.000000,0.000000,FlatInitial,ResetBack,0
08:05:36.374 PM 02/17/2016,Teleop Disabled,0,FALSE,0,NO ERROR,0.000000,0.000000,0.000000,0.000000,Speed,Speed,0.000000,0.870000,1.880000,0.000000,102.000000,1,0,-0.000000,0.000000,1,0.000000,0.000000,0.000000,24.526962,-7.785126,0.000000,-0.001000,0.000000,0.003000,FlatInitial,ResetBack,0
08:05:36.475 PM 02/17/2016,Teleop Disabled,0,FALSE,0,NO ERROR,0.000000,0.000000,0.000000,0.000000,Speed,Speed,0.000000,0.870000,1.880000,0.000000,102.000000,1,0,-0.000000,0.000000,1,0.000000,0.000000,0.000000,24.526962,-7.785126,0.000000,0.001000,0.003000,0.002000,FlatInitial,ResetBack,0
08:05:36.575 PM 02/17/2016,Teleop Disabled,0,FALSE,0,NO ERROR,0.000000,0.000000,0.000000,0.000000,Speed,Speed,-0.010000,0.870000,1.880000,0.000000,102.000000,1,0,-0.000000,0.000000,1,0.000000,0.000000,0.000000,24.526962,-7.785126,0.000000,0.000000,0.000000,0.000000,FlatInitial,ResetBack,0
08:05:36.675 PM 02/17/2016,Teleop Disabled,0,FALSE,0,NO ERROR,0.000000,0.000000,0.000000,0.000000,Speed,Speed,-0.010000,0.870000,1.880000,0.000000,101.000000,1,0,-0.000000,0.000000,1,0.000000,0.000000,0.000000,24.526962,-7.785126,0.000000,0.000000,0.000000,0.001000,FlatInitial,ResetBack,0
08:05:36.775 PM 02/17/2016,Teleop Disabled,0,FALSE,0,NO ERROR,0.000000,0.000000,0.000000,0.000000,Speed,Speed,-0.010000,0.860000,1.890000,0.000000,102.000000,1,0,-0.000000,0.000000,1,0.000000,0.000000,0.000000,24.526962,-7.785126,0.000000,0.000000,0.002000,0.000000,FlatInitial,ResetBack,0
08:05:36.875 PM 02/17/2016,Teleop Disabled,0,FALSE,0,NO ERROR,0.000000,0.000000,0.000000,0.000000,Speed,Speed,-0.010000,0.870000,1.890000,0.000000,102.000000,1,0,-0.000000,0.000000,1,0.000000,0.000000,0.000000,24.526962,-7.785126,0.000000,0.000000,-0.001000,0.001000,FlatInitial,ResetBack,0
08:05:36.975 PM 02/17/2016,Teleop Disabled,0,FALSE,0,NO ERROR,0.000000,0.000000,0.000000,0.000000,Speed,Speed,-0.010000,0.870000,1.880000,0.000000,103.000000,1,0,-0.000000,0.000000,1,0.000000,0.000000,0.000000,24.526962,-7.785126,0.000000,-0.001000,-0.002000,0.001000,FlatInitial,ResetBack,0
08:05:37.076 PM 02/17/2016,Teleop Disabled,0,FALSE,0,NO ERROR,0.000000,0.000000,0.000000,0.000000,Speed,Speed,-0.010000,0.870000,1.880000,0.000000,102.000000,1,0,-0.000000,0.000000,1,0.000000,0.000000,0.000000,24.526962,-7.785126,0.000000,0.000000,0.000000,0.002000,FlatInitial,ResetBack,0
08:05:37.176 PM 02/17/2016,Teleop Disabled,0,FALSE,0,NO ERROR,0.000000,0.000000,0.000000,0.000000,Speed,Speed,-0.010000,0.870000,1.880000,0.000000,101.000000,1,0,-0.000000,0.000000,1,0.000000,0.000000,0.000000,24.526962,-7.785126,0.000000,-0.001000,0.000000,0.002000,FlatInitial,ResetBack,0
08:05:37.277 PM 02/17/2016,Teleop Disabled,0,FALSE,0,NO ERROR,0.000000,0.000000,0.000000,0.000000,Speed,Speed,-0.010000,0.870000,1.880000,0.000000,102.000000,1,0,-0.000000,0.000000,1,0.000000,0.000000,0.000000,24.526962,-7.785126,0.000000,0.000000,-0.002000,0.001000,FlatInitial,ResetBack,0
08:05:37.377 PM 02/17/2016,Teleop Disabled,0,FALSE,0,NO ERROR,0.000000,0.000000,0.000000,0.000000,Speed,Speed,-0.010000,0.870000,1.890000,0.000000,103.000000,1,0,-0.000000,0.000000,1,0.000000,0.000000,0.000000,24.526962,-7.785126,0.000000,-0.002000,0.002000,0.006000,FlatInitial,ResetBack,0
08:05:37.477 PM 02/17/2016,Teleop Disabled,0,FALSE,0,NO ERROR,0.000000,0.000000,0.000000,0.000000,Speed,Speed,-0.010000,0.870000,1.890000,0.000000,102.000000,1,0,-0.000000,0.000000,1,0.000000,0.000000,0.000000,24.526962,-7.785126,0.000000,-0.001000,0.000000,0.001000,FlatInitial,ResetBack,0
08:05:37.578 PM 02/17/2016,Teleop Disabled,0,FALSE,0,NO ERROR,0.000000,0.000000,0.000000,0.000000,Speed,Speed,-0.010000,0.860000,1.890000,0.000000,102.000000,1,0,-0.000000,0.000000,1,0.000000,0.000000,0.000000,24.526962,-7.785126,0.000000,-0.002000,0.000000,0.000000,FlatInitial,ResetBack,0
08:05:37.680 PM 02/17/2016,Teleop Disabled,0,FALSE,0,NO ERROR,0.000000,0.000000,0.000000,0.000000,Speed,Speed,-0.010000,0.860000,1.890000,0.000000,102.000000,1,0,-0.000000,0.000000,1,0.000000,0.000000,0.000000,24.526962,-7.785126,0.000000,0.002000,-0.001000,0.000000,FlatInitial,ResetBack,0
08:05:37.780 PM 02/17/2016,Teleop Disabled,0,FALSE,0,NO ERROR,0.000000,0.000000,0.000000,0.000000,Speed,Speed,-0.010000,0.860000,1.890000,0.000000,101.000000,1,0,-0.000000,0.000000,1,0.000000,0.000000,0.000000,24.526962,-7.785126,0.000000,0.001000,-0.001000,0.000000,FlatInitial,ResetBack,0
08:05:37.880 PM 02/17/2016,Teleop Disabled,0,FALSE,0,NO ERROR,0.000000,0.000000,0.000000,0.000000,Speed,Speed,-0.010000,0.860000,1.890000,0.000000,101.000000,1,0,-0.000000,0.000000,1,0.000000,0.000000,0.000000,24.526962,-7.785126,0.000000,0.000000,-0.003000,0.005000,FlatInitial,ResetBack,0
08:05:37.981 PM 02/17/2016,Teleop Disabled,0,FALSE,0,NO ERROR,0.000000,0.000000,0.000000,0.000000,Speed,Speed,-0.020000,0.860000,1.890000,0.000000,102.000000,1,0,-0.000000,0.000000,1,0.000000,0.000000,0.000000,24.526962,-7.785126,0.000000,0.001000,-0.003000,0.003000,FlatInitial,ResetBack,0
08:05:38.082 PM 02/17/2016,Teleop Disabled,0,FALSE,0,NO ERROR,0.000000,0.000000,0.000000,0.000000,Speed,Speed,-0.020000,0.860000,1.890000,0.000000,102.000000,1,0,-0.000000,0.000000,1,0.000000,0.000000,0.000000,24.526962,-7.785126,0.000000,0.000000,0.002000,0.003000,FlatInitial,ResetBack,0
08:05:38.183 PM 02/17/2016,Teleop Disabled,0,FALSE,0,NO ERROR,0.000000,0.000000,0.000000,0.000000,Speed,Speed,-0.020000,0.870000,1.880000,0.000000,102.000000,1,0,-0.000000,0.000000,1,0.000000,0.000000,0.000000,24.526962,-7.785126,0.000000,-0.001000,0.001000,0.000000,FlatInitial,ResetBack,0
08:05:38.283 PM 02/17/2016,Teleop Disabled,0,FALSE,0,NO ERROR,0.000000,0.000000,-6000.000000,-6000.000000,Speed,Speed,-0.020000,0.870000,1.880000,1.000000,101.000000,1,0,-0.000000,0.000000,1,0.000000,0.000000,0.000000,24.526962,-7.785126,0.000000,0.002000,0.001000,0.003000,FlatInitial,ResetBack,0
08:05:38.383 PM 02/17/2016,Teleop Disabled,0,FALSE,0,NO ERROR,0.000000,0.000000,-6000.000000,-6000.000000,Speed,Speed,-0.030000,0.860000,1.880000,1.000000,103.000000,1,0,-0.000000,0.000000,1,0.000000,0.000000,0.000000,24.526962,-7.785126,0.000000,0.000000,0.002000,0.003000,FlatInitial,ResetBack,0
08:05:38.483 PM 02/17/2016,Teleop Disabled,0,FALSE,0,NO ERROR,0.000000,0.000000,-6000.000000,-6000.000000,Speed,Speed,-0.030000,0.860000,1.880000,1.000000,103.000000,1,0,-0.000000,0.000000,1,0.000000,0.000000,0.000000,24.526962,-7.785126,0.000000,0.000000,-0.001000,0.003000,FlatInitial,ResetBack,0
08:05:38.583 PM 02/17/2016,Teleop Disabled,0,FALSE,0,NO ERROR,0.000000,0.000000,-6000.000000,-6000.000000,Speed,Speed,-0.030000,0.860000,1.880000,1.000000,101.000000,1,0,-0.000000,0.000000,1,0.000000,0.000000,0.000000,24.526962,-7.785126,0.000000,0.000000,0.000000,0.000000,FlatInitial,ResetBack,0
08:05:38.684 PM 02/17/2016,Teleop Disabled,0,FALSE,0,NO ERROR,0.000000,0.000000,-6000.000000,-6000.000000,Speed,Speed,-0.030000,0.860000,1.880000,1.000000,102.000000,1,0,-0.000000,0.000000,1,0.000000,0.000000,0.000000,24.526962,-7.785126,0.000000,0.001000,0.000000,0.000000,FlatInitial,ResetBack,0
08:05:38.785 PM 02/17/2016,Teleop Disabled,0,FALSE,0,NO ERROR,0.000000,0.000000,-6000.000000,-6000.000000,Speed,Speed,-0.030000,0.860000,1.880000,1.000000,101.000000,1,0,-0.000000,0.000000,1,0.000000,0.000000,0.000000,24.526962,-7.785126,0.000000,0.000000,-0.003000,0.000000,FlatInitial,ResetBack,0
08:05:38.886 PM 02/17/2016,Teleop Disabled,0,FALSE,0,NO ERROR,0.000000,0.000000,-6000.000000,-6000.000000,Speed,Speed,-0.030000,0.870000,1.880000,1.000000,101.000000,1,0,-0.000000,0.000000,1,0.000000,0.000000,0.000000,24.526962,-7.785126,0.000000,0.001000,0.000000,0.004000,FlatInitial,ResetBack,0
08:05:38.986 PM 02/17/2016,Teleop Disabled,0,FALSE,0,NO ERROR,0.000000,0.000000,-6000.000000,-6000.000000,Speed,Speed,-0.040000,0.870000,1.890000,1.000000,102.000000,1,0,-0.000000,0.000000,1,0.000000,0.000000,0.000000,24.526962,-7.785126,0.000000,0.001000,-0.002000,0.001000,FlatInitial,ResetBack,0
08:05:39.086 PM 02/17/2016,Teleop Disabled,0,FALSE,0,NO ERROR,0.000000,0.000000,-6000.000000,-6000.000000,Speed,Speed,-0.030000,0.860000,1.880000,1.000000,101.000000,1,0,-0.000000,0.000000,1,0.000000,0.000000,0.000000,24.526962,-7.785126,0.000000,0.000000,0.000000,0.000000,FlatInitial,ResetBack,0
08:05:39.187 PM 02/17/2016,Teleop Disabled,0,FALSE,0,NO ERROR,0.000000,0.000000,-6000.000000,-6000.000000,Speed,Speed,-0.030000,0.860000,1.880000,1.000000,103.000000,1,0,-0.000000,0.000000,1,0.000000,0.000000,0.000000,24.526962,-7.785126,0.000000,0.000000,0.002000,0.000000,FlatInitial,ResetBack,0
08:05:39.288 PM 02/17/2016,Teleop Disabled,0,FALSE,0,NO ERROR,0.000000,0.000000,-6000.000000,-6000.000000,Speed,Speed,-0.030000,0.870000,1.880000,1.000000,101.000000,1,0,-0.000000,0.000000,1,0.000000,0.000000,0.000000,24.526962,-7.785126,0.000000,-0.001000,0.000000,0.001000,FlatInitial,ResetBack,0
08:05:39.390 PM 02/17/2016,Teleop Disabled,0,FALSE,0,NO ERROR,0.000000,0.000000,-6000.000000,-6000.000000,Speed,Speed,-0.040000,0.870000,1.890000,1.000000,101.000000,1,0,-0.000000,0.000000,1,0.000000,0.000000,0.000000,24.526962,-7.785126,0.000000,0.000000,0.000000,0.003000,FlatInitial,ResetBack,0
08:05:39.491 PM 02/17/2016,Teleop Disabled,0,FALSE,0,NO ERROR,0.000000,0.000000,-6000.000000,-6000.000000,Speed,Speed,-0.030000,0.860000,1.880000,1.000000,102.000000,1,0,-0.000000,0.000000,1,0.000000,0.000000,0.000000,24.526962,-7.785126,0.000000,0.000000,0.001000,0.003000,FlatInitial,ResetBack,0
08:05:39.590 PM 02/17/2016,Teleop Disabled,0,FALSE,0,NO ERROR,0.000000,0.000000,-6000.000000,-6000.000000,Speed,Speed,-0.030000,0.860000,1.890000,1.000000,102.000000,1,0,-0.000000,0.000000,1,0.000000,0.000000,0.000000,24.526962,-7.785126,0.000000,-0.001000,0.000000,0.000000,FlatInitial,ResetBack,0
08:05:39.691 PM 02/17/2016,Teleop Disabled,0,FALSE,0,NO ERROR,0.000000,0.000000,-6000.000000,-6000.000000,Speed,Speed,-0.040000,0.870000,1.890000,1.000000,102.000000,1,0,-0.000000,0.000000,1,0.000000,0.000000,0.000000,24.526962,-7.785126,0.000000,0.000000,0.000000,0.004000,FlatInitial,ResetBack,0
08:05:39.792 PM 02/17/2016,Teleop Disabled,0,FALSE,0,NO ERROR,0.000000,0.000000,-6000.000000,-6000.000000,Speed,Speed,-0.040000,0.870000,1.890000,1.000000,101.000000,1,0,-0.000000,0.000000,1,0.000000,0.000000,0.000000,24.526962,-7.785126,0.000000,0.000000,0.000000,0.002000,FlatInitial,ResetBack,0
08:05:39.892 PM 02/17/2016,Teleop Disabled,0,FALSE,0,NO ERROR,0.000000,0.000000,-6000.000000,-6000.000000,Speed,Speed,-0.040000,0.870000,1.890000,1.000000,103.000000,1,0,-0.000000,0.000000,1,0.000000,0.000000,0.000000,24.526962,-7.785126,0.000000,0.002000,0.000000,0.000000,FlatInitial,ResetBack,0
08:05:39.992 PM 02/17/2016,Teleop Disabled,0,FALSE,0,NO ERROR,0.000000,0.000000,-6000.000000,-6000.000000,Speed,Speed,-0.040000,0.870000,1.890000,1.000000,102.000000,1,0,-0.000000,0.000000,1,0.000000,0.000000,0.000000,24.526962,-7.785126,0.000000,0.000000,-0.003000,-0.001000,FlatInitial,ResetBack,0
08:05:40.092 PM 02/17/2016,Teleop Disabled,0,FALSE,0,NO ERROR,0.000000,0.000000,-6000.000000,-6000.000000,Speed,Speed,-0.040000,0.870000,1.890000,1.000000,101.000000,1,0,-0.000000,0.000000,1,0.000000,0.000000,0.000000,24.526962,-7.785126,0.000000,0.000000,0.001000,0.000000,FlatInitial,ResetBack,0
08:05:40.193 PM 02/17/2016,Teleop Disabled,0,FALSE,0,NO ERROR,0.000000,0.000000,-6000.000000,-6000.000000,Speed,Speed,-0.040000,0.870000,1.890000,1.000000,102.000000,1,0,-0.000000,0.000000,1,0.000000,0.000000,0.000000,24.526962,-7.785126,0.000000,0.001000,0.001000,0.003000,FlatInitial,ResetBack,0
08:05:40.293 PM 02/17/2016,Teleop Disabled,0,FALSE,0,NO ERROR,0.000000,0.000000,-6000.000000,-6000.000000,Speed,Speed,-0.030000,0.860000,1.890000,1.000000,101.000000,1,0,-0.000000,0.000000,1,0.000000,0.000000,0.000000,24.526962,-7.785126,0.000000,0.000000,-0.001000,0.001000,FlatInitial,ResetBack,0
08:05:40.393 PM 02/17/2016,Teleop Disabled,0,FALSE,0,NO ERROR,0.000000,0.000000,-6000.000000,-6000.000000,Speed,Speed,-0.040000,0.870000,1.890000,1.000000,101.000000,1,0,-0.000000,0.000000,1,0.000000,0.000000,0.000000,24.526962,-7.785126,0.000000,0.000000,0.004000,-0.004000,FlatInitial,ResetBack,0
08:05:40.494 PM 02/17/2016,Teleop Disabled,0,FALSE,0,NO ERROR,0.000000,0.000000,-6000.000000,-6000.000000,Speed,Speed,-0.040000,0.870000,1.900000,1.000000,101.000000,1,0,-0.000000,0.000000,1,0.000000,0.000000,0.000000,24.526962,-7.785126,0.000000,0.002000,0.000000,-0.001000,FlatInitial,ResetBack,0
08:05:40.594 PM 02/17/2016,Teleop Disabled,0,FALSE,0,NO ERROR,0.000000,0.000000,-6000.000000,-6000.000000,Speed,Speed,-0.040000,0.870000,1.900000,1.000000,101.000000,1,0,-0.000000,0.000000,1,0.000000,0.000000,0.000000,24.526962,-7.785126,0.000000,0.000000,0.000000,0.006000,FlatInitial,ResetBack,0
08:05:40.694 PM 02/17/2016,Teleop Disabled,0,FALSE,0,NO ERROR,0.000000,0.000000,-6000.000000,-6000.000000,Speed,Speed,-0.040000,0.870000,1.900000,1.000000,101.000000,1,0,-0.000000,0.000000,1,0.000000,0.000000,0.000000,24.526962,-7.785126,0.000000,0.000000,0.001000,0.002000,FlatInitial,ResetBack,0
08:05:40.794 PM 02/17/2016,Teleop Disabled,0,FALSE,0,NO ERROR,0.000000,0.000000,-6000.000000,-6000.000000,Speed,Speed,-0.040000,0.870000,1.890000,1.000000,102.000000,1,0,-0.000000,0.000000,1,0.000000,0.000000,0.000000,24.526962,-7.785126,0.000000,0.000000,-0.001000,-0.002000,FlatInitial,ResetBack,0
08:05:40.894 PM 02/17/2016,Teleop Disabled,0,FALSE,0,NO ERROR,0.000000,0.000000,-6000.000000,-6000.000000,Speed,Speed,-0.040000,0.870000,1.890000,1.000000,102.000000,1,0,-0.000000,0.000000,1,0.000000,0.000000,0.000000,24.526962,-7.785126,0.000000,0.000000,0.000000,0.006000,FlatInitial,ResetBack,0
08:05:40.994 PM 02/17/2016,Teleop Disabled,0,FALSE,0,NO ERROR,0.000000,0.000000,-6000.000000,-6000.000000,Speed,Speed,-0.040000,0.860000,1.880000,1.000000,103.000000,1,0,-0.000000,0.000000,1,0.000000,0.000000,0.000000,24.526962,-7.785126,0.000000,0.001000,-0.001000,0.002000,FlatInitial,ResetBack,0
08:05:41.094 PM 02/17/2016,Teleop Disabled,0,FALSE,0,NO ERROR,0.000000,0.000000,-6000.000000,-6000.000000,Speed,Speed,-0.050000,0.870000,1.890000,1.000000,102.000000,1,0,-0.000000,0.000000,1,0.000000,0.000000,0.000000,24.526962,-7.785126,0.000000,-0.003000,-0.001000,0.010000,FlatInitial,ResetBack,0
08:05:41.194 PM 02/17/2016,Teleop Disabled,0,FALSE,0,NO ERROR,0.000000,0.000000,-6000.000000,-6000.000000,Speed,Speed,-0.050000,0.860000,1.880000,1.000000,102.000000,1,0,-0.000000,0.000000,1,0.000000,0.000000,0.000000,24.526962,-7.785126,0.000000,-0.002000,0.000000,0.000000,FlatInitial,ResetBack,0
08:05:41.295 PM 02/17/2016,Teleop Disabled,0,FALSE,0,NO ERROR,0.000000,0.000000,-6000.000000,-6000.000000,Speed,Speed,-0.050000,0.860000,1.880000,1.000000,101.000000,1,0,-0.000000,0.000000,1,0.000000,0.000000,0.000000,24.526962,-7.785126,0.000000,0.000000,0.000000,0.005000,FlatInitial,ResetBack,0
08:05:41.395 PM 02/17/2016,Teleop Disabled,0,FALSE,0,NO ERROR,0.000000,0.000000,-6000.000000,-6000.000000,Speed,Speed,-0.050000,0.860000,1.890000,1.000000,103.000000,1,0,-0.000000,0.000000,1,0.000000,0.000000,0.000000,24.526962,-7.785126,0.000000,0.000000,-0.001000,-0.002000,FlatInitial,ResetBack,0
08:05:41.495 PM 02/17/2016,Teleop Disabled,0,FALSE,0,NO ERROR,0.000000,0.000000,-6000.000000,-6000.000000,Speed,Speed,-0.050000,0.860000,1.890000,1.000000,101.000000,1,0,-0.000000,0.000000,1,0.000000,0.000000,0.000000,24.526962,-7.785126,0.000000,0.003000,0.001000,0.005000,FlatInitial,ResetBack,0
08:05:41.595 PM 02/17/2016,Teleop Disabled,0,FALSE,0,NO ERROR,0.000000,0.000000,-6000.000000,-6000.000000,Speed,Speed,-0.050000,0.860000,1.890000,1.000000,103.000000,1,0,-0.000000,0.000000,1,0.000000,0.000000,0.000000,24.526962,-7.785126,0.000000,-0.001000,0.000000,-0.002000,FlatInitial,ResetBack,0
08:05:41.695 PM 02/17/2016,Teleop Disabled,0,FALSE,0,NO ERROR,0.000000,0.000000,-6000.000000,-6000.000000,Speed,Speed,-0.050000,0.860000,1.880000,1.000000,104.000000,1,0,-0.000000,0.000000,1,0.000000,0.000000,0.000000,24.526962,-7.785126,0.000000,-0.002000,0.001000,0.000000,FlatInitial,ResetBack,0
08:05:41.795 PM 02/17/2016,Teleop Disabled,0,FALSE,0,NO ERROR,0.000000,0.000000,-6000.000000,-6000.000000,Speed,Speed,-0.050000,0.860000,1.880000,1.000000,102.000000,1,0,-0.000000,0.000000,1,0.000000,0.000000,0.000000,24.526962,-7.785126,0.000000,0.002000,0.000000,0.002000,FlatInitial,ResetBack,0
08:05:41.895 PM 02/17/2016,Teleop Disabled,0,FALSE,0,NO ERROR,0.000000,0.000000,-6000.000000,-6000.000000,Speed,Speed,-0.050000,0.860000,1.870000,1.000000,104.000000,1,0,-0.000000,0.000000,1,0.000000,0.000000,0.000000,24.526962,-7.785126,0.000000,0.000000,0.000000,0.000000,FlatInitial,ResetBack,0
08:05:41.995 PM 02/17/2016,Teleop Disabled,0,FALSE,0,NO ERROR,0.000000,0.000000,-6000.000000,-6000.000000,Speed,Speed,-0.050000,0.870000,1.870000,1.000000,101.000000,1,0,-0.000000,0.000000,1,0.000000,0.000000,0.000000,24.526962,-7.785126,0.000000,0.001000,-0.003000,0.001000,FlatInitial,ResetBack,0
08:05:42.095 PM 02/17/2016,Teleop Disabled,0,FALSE,0,NO ERROR,0.000000,0.000000,-6000.000000,-6000.000000,Speed,Speed,-0.050000,0.870000,1.860000,1.000000,101.000000,1,0,-0.000000,0.000000,1,0.000000,0.000000,0.000000,24.526962,-7.785126,0.000000,0.000000,0.001000,0.004000,FlatInitial,ResetBack,0
08:05:42.195 PM 02/17/2016,Teleop Disabled,0,FALSE,0,NO ERROR,0.000000,0.000000,-6000.000000,-6000.000000,Speed,Speed,-0.050000,0.870000,1.870000,1.000000,101.000000,1,0,-0.000000,0.000000,1,0.000000,0.000000,0.000000,24.526962,-7.785126,0.000000,0.001000,-0.001000,0.002000,FlatInitial,ResetBack,0
08:05:42.296 PM 02/17/2016,Teleop Disabled,0,FALSE,0,NO ERROR,0.000000,0.000000,-6000.000000,-6000.000000,Speed,Speed,-0.050000,0.870000,1.870000,1.000000,101.000000,1,0,-0.000000,0.000000,1,0.000000,0.000000,0.000000,24.526962,-7.785126,0.000000,0.000000,0.000000,0.003000,FlatInitial,ResetBack,0
08:05:42.397 PM 02/17/2016,Teleop Disabled,0,FALSE,0,NO ERROR,0.000000,0.000000,-6000.000000,-6000.000000,Speed,Speed,-0.050000,0.870000,1.870000,1.000000,102.000000,1,0,-0.000000,0.000000,1,0.000000,0.000000,0.000000,24.526962,-7.785126,0.000000,0.000000,0.000000,0.000000,FlatInitial,ResetBack,0
08:05:42.497 PM 02/17/2016,Teleop Disabled,0,FALSE,0,NO ERROR,0.000000,0.000000,-6000.000000,-6000.000000,Speed,Speed,-0.050000,0.870000,1.870000,1.000000,101.000000,1,0,-0.000000,0.000000,1,0.000000,0.000000,0.000000,24.526962,-7.785126,0.000000,0.000000,-0.002000,0.005000,FlatInitial,ResetBack,0
08:05:42.597 PM 02/17/2016,Teleop Disabled,0,FALSE,0,NO ERROR,0.000000,0.000000,-6000.000000,-6000.000000,Speed,Speed,-0.050000,0.870000,1.870000,1.000000,101.000000,1,0,-0.000000,0.000000,1,0.000000,0.000000,0.000000,24.526962,-7.785126,0.000000,0.000000,0.001000,0.002000,FlatInitial,ResetBack,0
08:05:42.697 PM 02/17/2016,Teleop Disabled,0,FALSE,0,NO ERROR,0.000000,0.000000,-6000.000000,-6000.000000,Speed,Speed,-0.050000,0.870000,1.870000,1.000000,102.000000,1,0,-0.000000,0.000000,1,0.000000,0.000000,0.000000,24.526962,-7.785126,0.000000,0.000000,0.001000,0.004000,FlatInitial,ResetBack,0
08:05:42.797 PM 02/17/2016,Teleop Disabled,0,FALSE,0,NO ERROR,0.000000,0.000000,-6000.000000,-6000.000000,Speed,Speed,-0.050000,0.870000,1.870000,1.000000,101.000000,1,0,-0.000000,0.000000,1,0.000000,0.000000,0.000000,24.526962,-7.785126,0.000000,0.001000,0.004000,0.006000,FlatInitial,ResetBack,0
08:05:42.896 PM 02/17/2016,Teleop Disabled,0,FALSE,0,NO ERROR,0.000000,0.000000,-6000.000000,-6000.000000,Speed,Speed,-0.050000,0.870000,1.870000,1.000000,101.000000,1,0,-0.000000,0.000000,1,0.000000,0.000000,0.000000,24.526962,-7.785126,0.000000,-0.001000,0.000000,0.003000,FlatInitial,ResetBack,0
08:05:42.997 PM 02/17/2016,Teleop Disabled,0,FALSE,0,NO ERROR,0.000000,0.000000,-6000.000000,-6000.000000,Speed,Speed,-0.050000,0.870000,1.870000,1.000000,102.000000,1,0,-0.000000,0.000000,1,0.000000,0.000000,0.000000,24.526962,-7.785126,0.000000,0.000000,-0.002000,0.000000,FlatInitial,ResetBack,0
08:05:43.097 PM 02/17/2016,Teleop Disabled,0,FALSE,0,NO ERROR,0.000000,0.000000,-6000.000000,-6000.000000,Speed,Speed,-0.050000,0.870000,1.880000,1.000000,102.000000,1,0,-0.000000,0.000000,1,0.000000,0.000000,0.000000,24.526962,-7.785126,0.000000,0.000000,0.000000,0.002000,FlatInitial,ResetBack,0
08:05:43.198 PM 02/17/2016,Teleop Disabled,0,FALSE,0,NO ERROR,0.000000,0.000000,-6000.000000,-6000.000000,Speed,Speed,-0.050000,0.870000,1.870000,1.000000,102.000000,1,0,-0.000000,0.000000,1,0.000000,0.000000,0.000000,24.526962,-7.785126,0.000000,0.000000,0.001000,0.000000,FlatInitial,ResetBack,0
08:05:43.300 PM 02/17/2016,Teleop Disabled,0,FALSE,0,NO ERROR,0.000000,0.000000,-6000.000000,-6000.000000,Speed,Speed,-0.050000,0.870000,1.870000,1.000000,102.000000,1,0,-0.000000,0.000000,1,0.000000,0.000000,0.000000,24.526962,-7.785126,0.000000,0.000000,0.000000,0.001000,FlatInitial,ResetBack,0
08:05:43.401 PM 02/17/2016,Teleop Disabled,0,FALSE,0,NO ERROR,0.000000,0.000000,-6000.000000,-6000.000000,Speed,Speed,-0.050000,0.870000,1.870000,1.000000,101.000000,1,0,-0.000000,0.000000,1,0.000000,0.000000,0.000000,24.526962,-7.785126,0.000000,0.000000,0.000000,0.003000,FlatInitial,ResetBack,0
08:05:43.502 PM 02/17/2016,Teleop Disabled,0,FALSE,0,NO ERROR,0.000000,0.000000,-6000.000000,-6000.000000,Speed,Speed,-0.050000,0.870000,1.870000,1.000000,102.000000,1,0,-0.000000,0.000000,1,0.000000,0.000000,0.000000,24.526962,-7.785126,0.000000,0.000000,0.000000,0.004000,FlatInitial,ResetBack,0
08:05:43.603 PM 02/17/2016,Teleop Disabled,0,FALSE,0,NO ERROR,0.000000,0.000000,-6000.000000,-6000.000000,Speed,Speed,-0.050000,0.870000,1.880000,1.000000,101.000000,1,0,-0.000000,0.000000,1,0.000000,0.000000,0.000000,24.526962,-7.785126,0.000000,0.000000,0.000000,0.004000,FlatInitial,ResetBack,0
08:05:43.703 PM 02/17/2016,Teleop Disabled,0,FALSE,0,NO ERROR,0.000000,0.000000,-6000.000000,-6000.000000,Speed,Speed,-0.050000,0.870000,1.880000,1.000000,103.000000,1,0,-0.000000,0.000000,1,0.000000,0.000000,0.000000,24.526962,-7.785126,0.000000,0.000000,0.000000,0.000000,FlatInitial,ResetBack,0
08:05:43.803 PM 02/17/2016,Teleop Disabled,0,FALSE,0,NO ERROR,0.000000,0.000000,-6000.000000,-6000.000000,Speed,Speed,-0.050000,0.870000,1.870000,1.000000,101.000000,1,0,-0.000000,0.000000,1,0.000000,0.000000,0.000000,24.526962,-7.785126,0.000000,-0.002000,0.000000,0.000000,FlatInitial,ResetBack,0
08:05:43.903 PM 02/17/2016,Teleop Disabled,0,FALSE,0,NO ERROR,0.000000,0.000000,-6000.000000,-6000.000000,Speed,Speed,-0.050000,0.870000,1.870000,1.000000,102.000000,1,0,-0.000000,0.000000,1,0.000000,0.000000,0.000000,24.526962,-7.785126,0.000000,0.000000,0.000000,0.000000,FlatInitial,ResetBack,0
08:05:44.003 PM 02/17/2016,Teleop Disabled,0,FALSE,0,NO ERROR,0.000000,0.000000,-6000.000000,-6000.000000,Speed,Speed,-0.040000,0.870000,1.880000,1.000000,103.000000,1,0,-0.000000,0.000000,1,0.000000,0.000000,0.000000,24.526962,-7.785126,0.000000,0.000000,-0.001000,0.000000,FlatInitial,ResetBack,0
08:05:44.103 PM 02/17/2016,Teleop Disabled,0,FALSE,0,NO ERROR,0.000000,0.000000,-6000.000000,-6000.000000,Speed,Speed,-0.050000,0.870000,1.880000,1.000000,101.000000,1,0,-0.000000,0.000000,1,0.000000,0.000000,0.000000,24.526962,-7.785126,0.000000,0.000000,-0.002000,0.003000,FlatInitial,ResetBack,0
08:05:44.202 PM 02/17/2016,Teleop Disabled,0,FALSE,0,NO ERROR,0.000000,0.000000,-6000.000000,-6000.000000,Speed,Speed,-0.050000,0.870000,1.880000,1.000000,103.000000,1,0,-0.000000,0.000000,1,0.000000,0.000000,0.000000,24.526962,-7.785126,0.000000,-0.003000,0.000000,0.003000,FlatInitial,ResetBack,0
08:05:44.303 PM 02/17/2016,Teleop Disabled,0,FALSE,0,NO ERROR,0.000000,0.000000,-6000.000000,-6000.000000,Speed,Speed,-0.050000,0.880000,1.870000,1.000000,103.000000,1,0,-0.000000,0.000000,1,0.000000,0.000000,0.000000,24.526962,-7.785126,0.000000,-0.002000,0.000000,0.002000,FlatInitial,ResetBack,0
08:05:44.402 PM 02/17/2016,Teleop Disabled,0,FALSE,0,NO ERROR,0.000000,0.000000,-6000.000000,-6000.000000,Speed,Speed,-0.050000,0.870000,1.880000,1.000000,102.000000,1,0,-0.000000,0.000000,1,0.000000,0.000000,0.000000,24.526962,-7.785126,0.000000,-0.001000,0.002000,0.005000,FlatInitial,ResetBack,0
08:05:44.503 PM 02/17/2016,Teleop Disabled,0,FALSE,0,NO ERROR,0.000000,0.000000,-6000.000000,-6000.000000,Speed,Speed,-0.050000,0.870000,1.880000,1.000000,100.000000,1,0,-0.000000,0.000000,1,0.000000,0.000000,0.000000,24.526962,-7.785126,0.000000,-0.001000,0.000000,-0.001000,FlatInitial,ResetBack,0
08:05:44.603 PM 02/17/2016,Teleop Disabled,0,FALSE,0,NO ERROR,0.000000,0.000000,-6000.000000,-6000.000000,Speed,Speed,-0.050000,0.870000,1.870000,1.000000,103.000000,1,0,-0.000000,0.000000,1,0.000000,0.000000,0.000000,24.526962,-7.785126,0.000000,-0.001000,0.000000,-0.001000,FlatInitial,ResetBack,0
08:05:44.703 PM 02/17/2016,Teleop Disabled,0,FALSE,0,NO ERROR,0.000000,0.000000,-6000.000000,-6000.000000,Speed,Speed,-0.050000,0.870000,1.870000,1.000000,101.000000,1,0,-0.000000,0.000000,1,0.000000,0.000000,0.000000,24.526962,-7.785126,0.000000,0.000000,0.000000,0.005000,FlatInitial,ResetBack,0
08:05:44.803 PM 02/17/2016,Teleop Disabled,0,FALSE,0,NO ERROR,0.000000,0.000000,-6000.000000,-6000.000000,Speed,Speed,-0.050000,0.870000,1.870000,1.000000,101.000000,1,0,-0.000000,0.000000,1,0.000000,0.000000,0.000000,24.526962,-7.785126,0.000000,-0.001000,0.001000,0.003000,FlatInitial,ResetBack,0
08:05:44.903 PM 02/17/2016,Teleop Disabled,0,FALSE,0,NO ERROR,0.000000,0.000000,-6000.000000,-6000.000000,Speed,Speed,-0.050000,0.870000,1.880000,1.000000,101.000000,1,0,-0.000000,0.000000,1,0.000000,0.000000,0.000000,24.526962,-7.785126,0.000000,-0.002000,-0.001000,-0.001000,FlatInitial,ResetBack,0
08:05:45.003 PM 02/17/2016,Teleop Disabled,0,FALSE,0,NO ERROR,0.000000,0.000000,-6000.000000,-6000.000000,Speed,Speed,-0.050000,0.860000,1.870000,1.000000,102.000000,1,0,-0.000000,0.000000,1,0.000000,0.000000,0.000000,24.526962,-7.785126,0.000000,-0.002000,-0.001000,-0.001000,FlatInitial,ResetBack,0
08:05:45.103 PM 02/17/2016,Teleop Disabled,0,FALSE,0,NO ERROR,0.000000,0.000000,-6000.000000,-6000.000000,Speed,Speed,-0.050000,0.870000,1.880000,1.000000,101.000000,1,0,-0.000000,0.000000,1,0.000000,0.000000,0.000000,24.526962,-7.785126,0.000000,0.000000,0.001000,0.001000,FlatInitial,ResetBack,0
08:05:45.203 PM 02/17/2016,Teleop Disabled,0,FALSE,0,NO ERROR,0.000000,0.000000,-6000.000000,-6000.000000,Speed,Speed,-0.050000,0.860000,1.880000,1.000000,102.000000,1,0,-0.000000,0.000000,1,0.000000,0.000000,0.000000,24.526962,-7.785126,0.000000,0.001000,0.000000,0.007000,FlatInitial,ResetBack,0
08:05:45.302 PM 02/17/2016,Teleop Disabled,0,FALSE,0,NO ERROR,0.000000,0.000000,-6000.000000,-6000.000000,Speed,Speed,-0.050000,0.860000,1.880000,1.000000,103.000000,1,0,-0.000000,0.000000,1,0.000000,0.000000,0.000000,24.526962,-7.785126,0.000000,0.000000,-0.001000,0.003000,FlatInitial,ResetBack,0
08:05:45.403 PM 02/17/2016,Teleop Disabled,0,FALSE,0,NO ERROR,0.000000,0.000000,-6000.000000,-6000.000000,Speed,Speed,-0.050000,0.860000,1.880000,1.000000,103.000000,1,0,-0.000000,0.000000,1,0.000000,0.000000,0.000000,24.526962,-7.785126,0.000000,0.001000,0.000000,0.006000,FlatInitial,ResetBack,0
08:05:45.503 PM 02/17/2016,Teleop Disabled,0,FALSE,0,NO ERROR,0.000000,0.000000,-6000.000000,-6000.000000,Speed,Speed,-0.050000,0.860000,1.880000,1.000000,102.000000,1,0,-0.000000,0.000000,1,0.000000,0.000000,0.000000,24.526962,-7.785126,0.000000,0.001000,-0.002000,0.001000,FlatInitial,ResetBack,0
08:05:45.603 PM 02/17/2016,Teleop Disabled,0,FALSE,0,NO ERROR,0.000000,0.000000,-6000.000000,-6000.000000,Speed,Speed,-0.060000,0.860000,1.880000,1.000000,102.000000,1,0,-0.000000,0.000000,1,0.000000,0.000000,0.000000,24.526962,-7.785126,0.000000,0.001000,0.000000,0.002000,FlatInitial,ResetBack,0
08:05:45.703 PM 02/17/2016,Teleop Disabled,0,FALSE,0,NO ERROR,0.000000,0.000000,-6000.000000,-6000.000000,Speed,Speed,-0.060000,0.870000,1.880000,1.000000,102.000000,1,0,-0.000000,0.000000,1,0.000000,0.000000,0.000000,24.526962,-7.785126,0.000000,0.000000,0.000000,0.002000,FlatInitial,ResetBack,0
08:05:45.804 PM 02/17/2016,Teleop Disabled,0,FALSE,0,NO ERROR,0.000000,0.000000,-6000.000000,-6000.000000,Speed,Speed,-0.060000,0.870000,1.880000,1.000000,102.000000,1,0,-0.000000,0.000000,1,0.000000,0.000000,0.000000,24.526962,-7.785126,0.000000,0.001000,0.000000,0.002000,FlatInitial,ResetBack,0
08:05:45.904 PM 02/17/2016,Teleop Disabled,0,FALSE,0,NO ERROR,0.000000,0.000000,-6000.000000,-6000.000000,Speed,Speed,-0.060000,0.860000,1.870000,1.000000,102.000000,1,0,-0.000000,0.000000,1,0.000000,0.000000,0.000000,24.526962,-7.785126,0.000000,0.000000,0.000000,0.001000,FlatInitial,ResetBack,0
08:05:46.005 PM 02/17/2016,Teleop Disabled,0,FALSE,0,NO ERROR,0.000000,0.000000,-6000.000000,-6000.000000,Speed,Speed,-0.060000,0.860000,1.870000,1.000000,101.000000,1,0,-0.000000,0.000000,1,0.000000,0.000000,0.000000,24.526962,-7.785126,0.000000,0.000000,0.001000,0.003000,FlatInitial,ResetBack,0
08:05:46.106 PM 02/17/2016,Teleop Disabled,0,FALSE,0,NO ERROR,0.000000,0.000000,-6000.000000,-6000.000000,Speed,Speed,-0.060000,0.860000,1.870000,1.000000,101.000000,1,0,-0.000000,0.000000,1,0.000000,0.000000,0.000000,24.526962,-7.785126,0.000000,0.000000,0.000000,0.000000,FlatInitial,ResetBack,0
08:05:46.207 PM 02/17/2016,Teleop Disabled,0,FALSE,0,NO ERROR,0.000000,0.000000,-6000.000000,-6000.000000,Speed,Speed,-0.060000,0.870000,1.870000,1.000000,102.000000,1,0,-0.000000,0.000000,1,0.000000,0.000000,0.000000,24.526962,-7.785126,0.000000,0.001000,-0.001000,0.003000,FlatInitial,ResetBack,0
08:05:46.307 PM 02/17/2016,Teleop Disabled,0,FALSE,0,NO ERROR,0.000000,0.000000,-6000.000000,-6000.000000,Speed,Speed,-0.060000,0.870000,1.870000,1.000000,101.000000,1,0,-0.000000,0.000000,1,0.000000,0.000000,0.000000,24.526962,-7.785126,0.000000,0.001000,0.002000,0.004000,FlatInitial,ResetBack,0
08:05:46.406 PM 02/17/2016,Teleop Disabled,0,FALSE,0,NO ERROR,0.000000,0.000000,-6000.000000,-6000.000000,Speed,Speed,-0.060000,0.870000,1.870000,1.000000,101.000000,1,0,-0.000000,0.000000,1,0.000000,0.000000,0.000000,24.526962,-7.785126,0.000000,0.000000,0.002000,0.002000,FlatInitial,ResetBack,0
08:05:46.506 PM 02/17/2016,Teleop Disabled,0,FALSE,0,NO ERROR,0.000000,0.000000,-6000.000000,-6000.000000,Speed,Speed,-0.060000,0.870000,1.870000,1.000000,104.000000,1,0,-0.000000,0.000000,1,0.000000,0.000000,0.000000,24.526962,-7.785126,0.000000,-0.001000,0.001000,0.003000,FlatInitial,ResetBack,0
08:05:46.606 PM 02/17/2016,Teleop Disabled,0,FALSE,0,NO ERROR,0.000000,0.000000,-6000.000000,-6000.000000,Speed,Speed,-0.060000,0.880000,1.870000,1.000000,101.000000,1,0,-0.000000,0.000000,1,0.000000,0.000000,0.000000,24.526962,-7.785126,0.000000,0.000000,0.000000,0.008000,FlatInitial,ResetBack,0
08:05:46.707 PM 02/17/2016,Teleop Disabled,0,FALSE,0,NO ERROR,0.000000,0.000000,-6000.000000,-6000.000000,Speed,Speed,-0.060000,0.880000,1.870000,1.000000,103.000000,1,0,-0.000000,0.000000,1,0.000000,0.000000,0.000000,24.526962,-7.785126,0.000000,0.000000,-0.001000,-0.001000,FlatInitial,ResetBack,0
08:05:46.808 PM 02/17/2016,Teleop Disabled,0,FALSE,0,NO ERROR,0.000000,0.000000,-6000.000000,-6000.000000,Speed,Speed,-0.050000,0.880000,1.870000,1.000000,101.000000,1,0,-0.000000,0.000000,1,0.000000,0.000000,0.000000,24.526962,-7.785126,0.000000,0.000000,-0.002000,0.001000,FlatInitial,ResetBack,0
08:05:46.909 PM 02/17/2016,Teleop Disabled,0,FALSE,0,NO ERROR,0.000000,0.000000,-6000.000000,-6000.000000,Speed,Speed,-0.050000,0.880000,1.870000,1.000000,101.000000,1,0,-0.000000,0.000000,1,0.000000,0.000000,0.000000,24.526962,-7.785126,0.000000,-0.001000,0.000000,0.006000,FlatInitial,ResetBack,0
08:05:47.009 PM 02/17/2016,Teleop Disabled,0,FALSE,0,NO ERROR,0.000000,0.000000,-6000.000000,-6000.000000,Speed,Speed,-0.060000,0.880000,1.870000,1.000000,101.000000,1,0,-0.000000,0.000000,1,0.000000,0.000000,0.000000,24.526962,-7.785126,0.000000,0.000000,0.001000,0.002000,FlatInitial,ResetBack,0
08:05:47.109 PM 02/17/2016,Teleop Disabled,0,FALSE,0,NO ERROR,0.000000,0.000000,-6000.000000,-6000.000000,Speed,Speed,-0.060000,0.870000,1.860000,1.000000,101.000000,1,0,-0.000000,0.000000,1,0.000000,0.000000,0.000000,24.526962,-7.785126,0.000000,0.001000,0.001000,0.003000,FlatInitial,ResetBack,0
08:05:47.210 PM 02/17/2016,Teleop Disabled,0,FALSE,0,NO ERROR,0.000000,0.000000,-6000.000000,-6000.000000,Speed,Speed,-0.050000,0.880000,1.870000,1.000000,101.000000,1,0,-0.000000,0.000000,1,0.000000,0.000000,0.000000,24.526962,-7.785126,0.000000,0.001000,0.000000,0.000000,FlatInitial,ResetBack,0
08:05:47.310 PM 02/17/2016,Teleop Disabled,0,FALSE,0,NO ERROR,0.000000,0.000000,-6000.000000,-6000.000000,Speed,Speed,-0.050000,0.880000,1.860000,1.000000,102.000000,1,0,-0.000000,0.000000,1,0.000000,0.000000,0.000000,24.526962,-7.785126,0.000000,0.001000,-0.001000,0.000000,FlatInitial,ResetBack,0
08:05:47.410 PM 02/17/2016,Teleop Disabled,0,FALSE,0,NO ERROR,0.000000,0.000000,-6000.000000,-6000.000000,Speed,Speed,-0.060000,0.880000,1.860000,1.000000,102.000000,1,0,-0.000000,0.000000,1,0.000000,0.000000,0.000000,24.526962,-7.785126,0.000000,0.001000,0.000000,0.000000,FlatInitial,ResetBack,0
08:05:47.510 PM 02/17/2016,Teleop Disabled,0,FALSE,0,NO ERROR,0.000000,0.000000,-6000.000000,-6000.000000,Speed,Speed,-0.060000,0.880000,1.860000,1.000000,101.000000,1,0,-0.000000,0.000000,1,0.000000,0.000000,0.000000,24.526962,-7.785126,0.000000,0.002000,0.000000,0.002000,FlatInitial,ResetBack,0
08:05:47.610 PM 02/17/2016,Teleop Disabled,0,FALSE,0,NO ERROR,0.000000,0.000000,-6000.000000,-6000.000000,Speed,Speed,-0.060000,0.880000,1.870000,1.000000,101.000000,1,0,-0.000000,0.000000,1,0.000000,0.000000,0.000000,24.526962,-7.785126,0.000000,-0.001000,-0.001000,0.009000,FlatInitial,ResetBack,0
08:05:47.710 PM 02/17/2016,Teleop Disabled,0,FALSE,0,NO ERROR,0.000000,0.000000,-6000.000000,-6000.000000,Speed,Speed,-0.060000,0.880000,1.870000,1.000000,103.000000,1,0,-0.000000,0.000000,1,0.000000,0.000000,0.000000,24.526962,-7.785126,0.000000,0.000000,0.001000,0.000000,FlatInitial,ResetBack,0
08:05:47.810 PM 02/17/2016,Teleop Disabled,0,FALSE,0,NO ERROR,0.000000,0.000000,-6000.000000,-6000.000000,Speed,Speed,-0.060000,0.880000,1.870000,1.000000,101.000000,1,0,-0.000000,0.000000,1,0.000000,0.000000,0.000000,24.526962,-7.785126,0.000000,0.000000,0.000000,0.001000,FlatInitial,ResetBack,0
08:05:47.910 PM 02/17/2016,Teleop Disabled,0,FALSE,0,NO ERROR,0.000000,0.000000,-6000.000000,-6000.000000,Speed,Speed,-0.060000,0.880000,1.870000,1.000000,101.000000,1,0,-0.000000,0.000000,1,0.000000,0.000000,0.000000,24.526962,-7.785126,0.000000,0.000000,0.002000,0.006000,FlatInitial,ResetBack,0
08:05:48.010 PM 02/17/2016,Teleop Disabled,0,FALSE,0,NO ERROR,0.000000,0.000000,-6000.000000,-6000.000000,Speed,Speed,-0.060000,0.880000,1.870000,1.000000,102.000000,1,0,-0.000000,0.000000,1,0.000000,0.000000,0.000000,24.526962,-7.785126,0.000000,0.001000,0.002000,0.003000,FlatInitial,ResetBack,0
08:05:48.110 PM 02/17/2016,Teleop Disabled,0,FALSE,0,NO ERROR,0.000000,0.000000,-6000.000000,-6000.000000,Speed,Speed,-0.070000,0.880000,1.870000,1.000000,101.000000,1,0,-0.000000,0.000000,1,0.000000,0.000000,0.000000,24.526962,-7.785126,0.000000,0.000000,0.000000,0.002000,FlatInitial,ResetBack,0
08:05:48.209 PM 02/17/2016,Teleop Disabled,0,FALSE,0,NO ERROR,0.000000,0.000000,-6000.000000,-6000.000000,Speed,Speed,-0.070000,0.880000,1.870000,1.000000,101.000000,1,0,-0.000000,0.000000,1,0.000000,0.000000,0.000000,24.526962,-7.785126,0.000000,0.000000,0.000000,0.003000,FlatInitial,ResetBack,0
08:05:48.310 PM 02/17/2016,Teleop Disabled,0,FALSE,0,NO ERROR,0.000000,0.000000,-6000.000000,-6000.000000,Speed,Speed,-0.070000,0.880000,1.870000,1.000000,102.000000,1,0,-0.000000,0.000000,1,0.000000,0.000000,0.000000,24.526962,-7.785126,0.000000,0.000000,0.001000,0.005000,FlatInitial,ResetBack,0
08:05:48.410 PM 02/17/2016,Teleop Disabled,0,FALSE,0,NO ERROR,0.000000,0.000000,-6000.000000,-6000.000000,Speed,Speed,-0.070000,0.880000,1.880000,1.000000,105.000000,1,0,-0.000000,0.000000,1,0.000000,0.000000,0.000000,24.526962,-7.785126,0.000000,0.000000,0.001000,0.003000,FlatInitial,ResetBack,0
08:05:48.510 PM 02/17/2016,Teleop Disabled,0,FALSE,0,NO ERROR,0.000000,0.000000,-6000.000000,-6000.000000,Speed,Speed,-0.060000,0.880000,1.880000,1.000000,100.000000,1,0,-0.000000,0.000000,1,0.000000,0.000000,0.000000,24.526962,-7.785126,0.000000,0.000000,0.000000,0.002000,FlatInitial,ResetBack,0
08:05:48.610 PM 02/17/2016,Teleop Disabled,0,FALSE,0,NO ERROR,0.000000,0.000000,-6000.000000,-6000.000000,Speed,Speed,-0.060000,0.880000,1.880000,1.000000,102.000000,1,0,-0.000000,0.000000,1,0.000000,0.000000,0.000000,24.526962,-7.785126,0.000000,0.001000,0.000000,0.002000,FlatInitial,ResetBack,0
08:05:48.710 PM 02/17/2016,Teleop Disabled,0,FALSE,0,NO ERROR,0.000000,0.000000,-6000.000000,-6000.000000,Speed,Speed,-0.060000,0.880000,1.880000,1.000000,107.000000,1,0,-0.000000,0.000000,1,0.000000,0.000000,0.000000,24.526962,-7.785126,0.000000,0.000000,0.001000,0.002000,FlatInitial,ResetBack,0
08:05:48.810 PM 02/17/2016,Teleop Disabled,0,FALSE,0,NO ERROR,0.000000,0.000000,-6000.000000,-6000.000000,Speed,Speed,-0.060000,0.880000,1.880000,1.000000,104.000000,1,0,-0.000000,0.000000,1,0.000000,0.000000,0.000000,24.526962,-7.785126,0.000000,0.004000,-0.001000,0.000000,FlatInitial,ResetBack,0
08:05:48.910 PM 02/17/2016,Teleop Disabled,0,FALSE,0,NO ERROR,0.000000,0.000000,-6000.000000,-6000.000000,Speed,Speed,-0.060000,0.890000,1.880000,1.000000,106.000000,1,0,-0.000000,0.000000,1,0.000000,0.000000,0.000000,24.526962,-7.785126,0.000000,-0.001000,-0.002000,0.004000,FlatInitial,ResetBack,0
08:05:49.012 PM 02/17/2016,Teleop Disabled,0,FALSE,0,NO ERROR,0.000000,0.000000,-6000.000000,-6000.000000,Speed,Speed,-0.070000,0.880000,1.880000,1.000000,101.000000,1,0,-0.000000,0.000000,1,0.000000,0.000000,0.000000,24.526962,-7.785126,0.000000,0.000000,0.003000,0.005000,FlatInitial,ResetBack,0
08:05:49.112 PM 02/17/2016,Teleop Disabled,0,FALSE,0,NO ERROR,0.000000,0.000000,-6000.000000,-6000.000000,Speed,Speed,-0.070000,0.880000,1.880000,1.000000,104.000000,1,0,-0.000000,0.000000,1,0.000000,0.000000,0.000000,24.526962,-7.785126,0.000000,0.000000,0.002000,0.004000,FlatInitial,ResetBack,0
08:05:49.212 PM 02/17/2016,Teleop Disabled,0,FALSE,0,NO ERROR,0.000000,0.000000,-6000.000000,-6000.000000,Speed,Speed,-0.060000,0.880000,1.880000,1.000000,100.000000,1,0,-0.000000,0.000000,1,0.000000,0.000000,0.000000,24.526962,-7.785126,0.000000,-0.001000,0.003000,-0.002000,FlatInitial,ResetBack,0
08:05:49.313 PM 02/17/2016,Teleop Disabled,0,FALSE,0,NO ERROR,0.000000,0.000000,-6000.000000,-6000.000000,Speed,Speed,-0.060000,0.880000,1.880000,1.000000,102.000000,1,0,-0.000000,0.000000,1,0.000000,0.000000,0.000000,24.526962,-7.785126,0.000000,0.001000,-0.001000,0.002000,FlatInitial,ResetBack,0
08:05:49.414 PM 02/17/2016,Teleop Disabled,0,FALSE,0,NO ERROR,0.000000,0.000000,-6000.000000,-6000.000000,Speed,Speed,-0.060000,0.880000,1.880000,1.000000,138.000000,1,0,-0.000000,0.000000,1,0.000000,0.000000,0.000000,24.526962,-7.785126,0.000000,0.000000,0.000000,0.000000,FlatInitial,ResetBack,0
08:05:49.515 PM 02/17/2016,Teleop Disabled,0,FALSE,0,NO ERROR,0.000000,0.000000,-6000.000000,-6000.000000,Speed,Speed,-0.060000,0.880000,1.880000,1.000000,118.000000,1,0,-0.000000,0.000000,1,0.000000,0.000000,0.000000,24.526962,-7.785126,0.000000,0.001000,0.000000,0.002000,FlatInitial,ResetBack,0
08:05:49.616 PM 02/17/2016,Teleop Disabled,0,FALSE,0,NO ERROR,0.000000,0.000000,-6000.000000,-6000.000000,Speed,Speed,-0.050000,0.880000,1.880000,1.000000,118.000000,1,0,-0.000000,0.000000,1,0.000000,0.000000,0.000000,24.526962,-7.785126,0.000000,0.000000,0.001000,0.000000,FlatInitial,ResetBack,0
08:05:49.716 PM 02/17/2016,Teleop Disabled,0,FALSE,0,NO ERROR,0.000000,0.000000,-6000.000000,-6000.000000,Speed,Speed,-0.050000,0.880000,1.880000,1.000000,102.000000,1,0,-0.000000,0.000000,1,0.000000,0.000000,0.000000,24.526962,-7.785126,0.000000,0.000000,0.003000,0.004000,FlatInitial,ResetBack,0
08:05:49.817 PM 02/17/2016,Teleop Disabled,0,FALSE,0,NO ERROR,0.000000,0.000000,-6000.000000,-6000.000000,Speed,Speed,-0.060000,0.880000,1.880000,1.000000,101.000000,1,0,-0.000000,0.000000,1,0.000000,0.000000,0.000000,24.526962,-7.785126,0.000000,0.000000,0.000000,0.003000,FlatInitial,ResetBack,0
08:05:49.917 PM 02/17/2016,Teleop Disabled,0,FALSE,0,NO ERROR,0.000000,0.000000,-6000.000000,-6000.000000,Speed,Speed,-0.050000,0.880000,1.870000,1.000000,104.000000,1,0,-0.000000,0.000000,1,0.000000,0.000000,0.000000,24.526962,-7.785126,0.000000,0.002000,0.000000,0.005000,FlatInitial,ResetBack,0
08:05:50.017 PM 02/17/2016,Teleop Disabled,0,FALSE,0,NO ERROR,0.000000,0.000000,-6000.000000,-6000.000000,Speed,Speed,-0.050000,0.880000,1.870000,1.000000,103.000000,1,0,-0.000000,0.000000,1,0.000000,0.000000,0.000000,24.526962,-7.785126,0.000000,0.000000,0.001000,0.000000,FlatInitial,ResetBack,0
08:05:50.117 PM 02/17/2016,Teleop Disabled,0,FALSE,0,NO ERROR,0.000000,0.000000,-6000.000000,-6000.000000,Speed,Speed,-0.050000,0.880000,1.870000,1.000000,102.000000,1,0,-0.000000,0.000000,1,0.000000,0.000000,0.000000,24.526962,-7.785126,0.000000,0.000000,0.000000,0.002000,FlatInitial,ResetBack,0
08:05:50.217 PM 02/17/2016,Teleop Disabled,0,FALSE,0,NO ERROR,0.000000,0.000000,-6000.000000,-6000.000000,Speed,Speed,-0.050000,0.880000,1.870000,1.000000,100.000000,1,0,-0.000000,0.000000,1,0.000000,0.000000,0.000000,24.526962,-7.785126,0.000000,0.001000,0.000000,0.000000,FlatInitial,ResetBack,0
08:05:50.319 PM 02/17/2016,Teleop Disabled,0,FALSE,0,NO ERROR,0.000000,0.000000,-6000.000000,-6000.000000,Speed,Speed,-0.050000,0.890000,1.870000,1.000000,111.000000,1,0,-0.000000,0.000000,1,0.000000,0.000000,0.000000,24.526962,-7.785126,0.000000,0.000000,0.001000,0.000000,FlatInitial,ResetBack,0
08:05:50.420 PM 02/17/2016,Teleop Disabled,0,FALSE,0,NO ERROR,0.000000,0.000000,-6000.000000,-6000.000000,Speed,Speed,-0.060000,0.880000,1.870000,1.000000,103.000000,1,0,-0.000000,0.000000,1,0.000000,0.000000,0.000000,24.526962,-7.785126,0.000000,0.000000,0.001000,-0.001000,FlatInitial,ResetBack,0
08:05:50.520 PM 02/17/2016,Teleop Disabled,0,FALSE,0,NO ERROR,0.000000,0.000000,-6000.000000,-6000.000000,Speed,Speed,-0.060000,0.880000,1.870000,1.000000,102.000000,1,0,-0.000000,0.000000,1,0.000000,0.000000,0.000000,24.526962,-7.785126,0.000000,0.000000,0.000000,0.009000,FlatInitial,ResetBack,0
08:05:50.621 PM 02/17/2016,Teleop Disabled,0,FALSE,0,NO ERROR,0.000000,0.000000,-6000.000000,-6000.000000,Speed,Speed,-0.060000,0.880000,1.870000,1.000000,115.000000,1,0,-0.000000,0.000000,1,0.000000,0.000000,0.000000,24.526962,-7.785126,0.000000,0.000000,0.001000,0.003000,FlatInitial,ResetBack,0
08:05:50.721 PM 02/17/2016,Teleop Disabled,0,FALSE,0,NO ERROR,0.000000,0.000000,-6000.000000,-6000.000000,Speed,Speed,-0.060000,0.880000,1.880000,1.000000,102.000000,1,0,-0.000000,0.000000,1,0.000000,0.000000,0.000000,24.526962,-7.785126,0.000000,-0.001000,-0.001000,0.005000,FlatInitial,ResetBack,0
08:05:50.822 PM 02/17/2016,Teleop Disabled,0,FALSE,0,NO ERROR,0.000000,0.000000,-6000.000000,-6000.000000,Speed,Speed,-0.060000,0.880000,1.870000,1.000000,104.000000,1,0,-0.000000,0.000000,1,0.000000,0.000000,0.000000,24.526962,-7.785126,0.000000,0.000000,0.000000,0.003000,FlatInitial,ResetBack,0
08:05:50.923 PM 02/17/2016,Teleop Disabled,0,FALSE,0,NO ERROR,0.000000,0.000000,-6000.000000,-6000.000000,Speed,Speed,-0.060000,0.870000,1.880000,1.000000,103.000000,1,0,-0.000000,0.000000,1,0.000000,0.000000,0.000000,24.526962,-7.785126,0.000000,-0.001000,0.000000,0.004000,FlatInitial,ResetBack,0
08:05:51.023 PM 02/17/2016,Teleop Disabled,0,FALSE,0,NO ERROR,0.000000,0.000000,-6000.000000,-6000.000000,Speed,Speed,-0.060000,0.880000,1.880000,1.000000,103.000000,1,0,-0.000000,0.000000,1,0.000000,0.000000,0.000000,24.526962,-7.785126,0.000000,-0.001000,-0.001000,0.001000,FlatInitial,ResetBack,0
08:05:51.123 PM 02/17/2016,Teleop Disabled,0,FALSE,0,NO ERROR,0.000000,0.000000,-6000.000000,-6000.000000,Speed,Speed,-0.060000,0.870000,1.890000,1.000000,101.000000,1,0,-0.000000,0.000000,1,0.000000,0.000000,0.000000,24.526962,-7.785126,0.000000,0.002000,0.000000,0.006000,FlatInitial,ResetBack,0
08:05:51.224 PM 02/17/2016,Teleop Disabled,0,FALSE,0,NO ERROR,0.000000,0.000000,-6000.000000,-6000.000000,Speed,Speed,-0.070000,0.880000,1.890000,1.000000,103.000000,1,0,-0.000000,0.000000,1,0.000000,0.000000,0.000000,24.526962,-7.785126,0.000000,0.000000,0.000000,0.002000,FlatInitial,ResetBack,0
08:05:51.323 PM 02/17/2016,Teleop Disabled,0,FALSE,0,NO ERROR,0.000000,0.000000,-6000.000000,-6000.000000,Speed,Speed,-0.070000,0.880000,1.880000,1.000000,102.000000,1,0,-0.000000,0.000000,1,0.000000,0.000000,0.000000,24.526962,-7.785126,0.000000,0.000000,0.000000,0.000000,FlatInitial,ResetBack,0
08:05:51.424 PM 02/17/2016,Teleop Disabled,0,FALSE,0,NO ERROR,0.000000,0.000000,-6000.000000,-6000.000000,Speed,Speed,-0.070000,0.880000,1.880000,1.000000,103.000000,1,0,-0.000000,0.000000,1,0.000000,0.000000,0.000000,24.526962,-7.785126,0.000000,0.001000,0.000000,0.000000,FlatInitial,ResetBack,0
08:05:51.524 PM 02/17/2016,Teleop Disabled,0,FALSE,0,NO ERROR,0.000000,0.000000,-6000.000000,-6000.000000,Speed,Speed,-0.070000,0.880000,1.880000,1.000000,102.000000,1,0,-0.000000,0.000000,1,0.000000,0.000000,0.000000,24.526962,-7.785126,0.000000,0.001000,0.000000,0.000000,FlatInitial,ResetBack,0
08:05:51.625 PM 02/17/2016,Teleop Disabled,0,FALSE,0,NO ERROR,0.000000,0.000000,-6000.000000,-6000.000000,Speed,Speed,-0.070000,0.880000,1.880000,1.000000,102.000000,1,0,-0.000000,0.000000,1,0.000000,0.000000,0.000000,24.526962,-7.785126,0.000000,-0.002000,0.000000,0.004000,FlatInitial,ResetBack,0
08:05:51.725 PM 02/17/2016,Teleop Disabled,0,FALSE,0,NO ERROR,0.000000,0.000000,-6000.000000,-6000.000000,Speed,Speed,-0.070000,0.880000,1.880000,1.000000,105.000000,1,0,-0.000000,0.000000,1,0.000000,0.000000,0.000000,24.526962,-7.785126,0.000000,0.001000,-0.001000,0.001000,FlatInitial,ResetBack,0
08:05:51.825 PM 02/17/2016,Teleop Disabled,0,FALSE,0,NO ERROR,0.000000,0.000000,-6000.000000,-6000.000000,Speed,Speed,-0.070000,0.880000,1.880000,1.000000,102.000000,1,0,-0.000000,0.000000,1,0.000000,0.000000,0.000000,24.526962,-7.785126,0.000000,-0.001000,-0.002000,0.000000,FlatInitial,ResetBack,0
08:05:51.926 PM 02/17/2016,Teleop Disabled,0,FALSE,0,NO ERROR,0.000000,0.000000,-6000.000000,-6000.000000,Speed,Speed,-0.070000,0.870000,1.890000,1.000000,101.000000,1,0,-0.000000,0.000000,1,0.000000,0.000000,0.000000,24.526962,-7.785126,0.000000,-0.001000,0.000000,0.000000,FlatInitial,ResetBack,0
08:05:52.026 PM 02/17/2016,Teleop Disabled,0,FALSE,0,NO ERROR,0.000000,0.000000,-6000.000000,-6000.000000,Speed,Speed,-0.070000,0.870000,1.890000,1.000000,107.000000,1,0,-0.000000,0.000000,1,0.000000,0.000000,0.000000,24.526962,-7.785126,0.000000,0.000000,0.000000,0.003000,FlatInitial,ResetBack,0
08:05:52.127 PM 02/17/2016,Teleop Disabled,0,FALSE,0,NO ERROR,0.000000,0.000000,-6000.000000,-6000.000000,Speed,Speed,-0.080000,0.870000,1.890000,1.000000,103.000000,1,0,-0.000000,0.000000,1,0.000000,0.000000,0.000000,24.526962,-7.785126,0.000000,0.002000,0.001000,0.000000,FlatInitial,ResetBack,0
08:05:52.232 PM 02/17/2016,Teleop Disabled,0,FALSE,0,NO ERROR,0.000000,0.000000,-6000.000000,-6000.000000,Speed,Speed,-0.080000,0.870000,1.890000,1.000000,103.000000,1,0,-0.000000,0.000000,1,0.000000,0.000000,0.000000,24.526962,-7.785126,0.000000,0.001000,0.001000,0.004000,FlatInitial,ResetBack,0
08:05:52.332 PM 02/17/2016,Teleop Disabled,0,FALSE,0,NO ERROR,0.000000,0.000000,-6000.000000,-6000.000000,Speed,Speed,-0.080000,0.870000,1.880000,1.000000,101.000000,1,0,-0.000000,0.000000,1,0.000000,0.000000,0.000000,24.526962,-7.785126,0.000000,0.001000,0.001000,0.004000,FlatInitial,ResetBack,0
08:05:52.433 PM 02/17/2016,Teleop Disabled,0,FALSE,0,NO ERROR,0.000000,0.000000,-6000.000000,-6000.000000,Speed,Speed,-0.080000,0.870000,1.890000,1.000000,109.000000,1,0,-0.000000,0.000000,1,0.000000,0.000000,0.000000,24.526962,-7.785126,0.000000,-0.001000,-0.001000,0.001000,FlatInitial,ResetBack,0
08:05:52.533 PM 02/17/2016,Teleop Disabled,0,FALSE,0,NO ERROR,0.000000,0.000000,-6000.000000,-6000.000000,Speed,Speed,-0.080000,0.870000,1.890000,1.000000,104.000000,1,0,-0.000000,0.000000,1,0.000000,0.000000,0.000000,24.526962,-7.785126,0.000000,0.001000,0.000000,0.003000,FlatInitial,ResetBack,0
08:05:52.633 PM 02/17/2016,Teleop Disabled,0,FALSE,0,NO ERROR,0.000000,0.000000,-6000.000000,-6000.000000,Speed,Speed,-0.080000,0.860000,1.880000,1.000000,101.000000,1,0,-0.000000,0.000000,1,0.000000,0.000000,0.000000,24.526962,-7.785126,0.000000,0.001000,0.000000,0.003000,FlatInitial,ResetBack,0
08:05:52.734 PM 02/17/2016,Teleop Disabled,0,FALSE,0,NO ERROR,0.000000,0.000000,-6000.000000,-6000.000000,Speed,Speed,-0.080000,0.870000,1.880000,1.000000,103.000000,1,0,-0.000000,0.000000,1,0.000000,0.000000,0.000000,24.526962,-7.785126,0.000000,0.001000,0.000000,0.000000,FlatInitial,ResetBack,0
08:05:52.835 PM 02/17/2016,Teleop Disabled,0,FALSE,0,NO ERROR,0.000000,0.000000,-6000.000000,-6000.000000,Speed,Speed,-0.080000,0.870000,1.880000,1.000000,104.000000,1,0,-0.000000,0.000000,1,0.000000,0.000000,0.000000,24.526962,-7.785126,0.000000,0.000000,0.000000,-0.002000,FlatInitial,ResetBack,0
08:05:52.935 PM 02/17/2016,Teleop Disabled,0,FALSE,0,NO ERROR,0.000000,0.000000,-6000.000000,-6000.000000,Speed,Speed,-0.080000,0.870000,1.890000,1.000000,101.000000,1,0,-0.000000,0.000000,1,0.000000,0.000000,0.000000,24.526962,-7.785126,0.000000,0.000000,-0.001000,0.002000,FlatInitial,ResetBack,0
08:05:53.035 PM 02/17/2016,Teleop Disabled,0,FALSE,0,NO ERROR,0.000000,0.000000,-6000.000000,-6000.000000,Speed,Speed,-0.080000,0.870000,1.890000,1.000000,105.000000,1,0,-0.000000,0.000000,1,0.000000,0.000000,0.000000,24.526962,-7.785126,0.000000,0.000000,-0.001000,0.002000,FlatInitial,ResetBack,0
08:05:53.140 PM 02/17/2016,Teleop Disabled,0,FALSE,0,NO ERROR,0.000000,0.000000,-6000.000000,-6000.000000,Speed,Speed,-0.080000,0.860000,1.880000,1.000000,101.000000,1,0,-0.000000,0.000000,1,0.000000,0.000000,0.000000,24.526962,-7.785126,0.000000,0.000000,0.000000,0.005000,FlatInitial,ResetBack,0
08:05:53.238 PM 02/17/2016,Teleop Disabled,0,FALSE,0,NO ERROR,0.000000,0.000000,-6000.000000,-6000.000000,Speed,Speed,-0.080000,0.860000,1.880000,1.000000,102.000000,1,0,-0.000000,0.000000,1,0.000000,0.000000,0.000000,24.526962,-7.785126,0.000000,0.001000,0.000000,0.003000,FlatInitial,ResetBack,0
08:05:53.338 PM 02/17/2016,Teleop Disabled,0,FALSE,0,NO ERROR,0.000000,0.000000,-6000.000000,-6000.000000,Speed,Speed,-0.090000,0.860000,1.880000,1.000000,100.000000,1,0,-0.000000,0.000000,1,0.000000,0.000000,0.000000,24.526962,-7.785126,0.000000,0.000000,-0.001000,0.000000,FlatInitial,ResetBack,0
08:05:53.438 PM 02/17/2016,Teleop Disabled,0,FALSE,0,NO ERROR,0.000000,0.000000,-6000.000000,-6000.000000,Speed,Speed,-0.080000,0.870000,1.890000,1.000000,100.000000,1,0,-0.000000,0.000000,1,0.000000,0.000000,0.000000,24.526962,-7.785126,0.000000,0.000000,0.001000,0.001000,FlatInitial,ResetBack,0
08:05:53.538 PM 02/17/2016,Teleop Disabled,0,FALSE,0,NO ERROR,0.000000,0.000000,-6000.000000,-6000.000000,Speed,Speed,-0.090000,0.870000,1.890000,1.000000,106.000000,1,0,-0.000000,0.000000,1,0.000000,0.000000,0.000000,24.526962,-7.785126,0.000000,0.000000,0.001000,0.001000,FlatInitial,ResetBack,0
08:05:53.638 PM 02/17/2016,Teleop Disabled,0,FALSE,0,NO ERROR,0.000000,0.000000,-6000.000000,-6000.000000,Speed,Speed,-0.090000,0.860000,1.880000,1.000000,108.000000,1,0,-0.000000,0.000000,1,0.000000,0.000000,0.000000,24.526962,-7.785126,0.000000,-0.001000,0.000000,0.003000,FlatInitial,ResetBack,0
08:05:53.738 PM 02/17/2016,Teleop Disabled,0,FALSE,0,NO ERROR,0.000000,0.000000,-6000.000000,-6000.000000,Speed,Speed,-0.090000,0.870000,1.890000,1.000000,102.000000,1,0,-0.000000,0.000000,1,0.000000,0.000000,0.000000,24.526962,-7.785126,0.000000,0.000000,0.001000,0.002000,FlatInitial,ResetBack,0
08:05:53.838 PM 02/17/2016,Teleop Disabled,0,FALSE,0,NO ERROR,0.000000,0.000000,-6000.000000,-6000.000000,Speed,Speed,-0.090000,0.870000,1.890000,1.000000,102.000000,1,0,-0.000000,0.000000,1,0.000000,0.000000,0.000000,24.526962,-7.785126,0.000000,0.000000,0.001000,0.002000,FlatInitial,ResetBack,0
08:05:53.937 PM 02/17/2016,Teleop Disabled,0,FALSE,0,NO ERROR,0.000000,0.000000,-6000.000000,-6000.000000,Speed,Speed,-0.090000,0.870000,1.890000,1.000000,102.000000,1,0,-0.000000,0.000000,1,0.000000,0.000000,0.000000,24.526962,-7.785126,0.000000,0.000000,0.000000,0.001000,FlatInitial,ResetBack,0
08:05:54.037 PM 02/17/2016,Teleop Disabled,0,FALSE,0,NO ERROR,0.000000,0.000000,-6000.000000,-6000.000000,Speed,Speed,-0.090000,0.870000,1.890000,1.000000,102.000000,1,0,-0.000000,0.000000,1,0.000000,0.000000,0.000000,24.526962,-7.785126,0.000000,0.000000,-0.001000,0.002000,FlatInitial,ResetBack,0
08:05:54.138 PM 02/17/2016,Teleop Disabled,0,FALSE,0,NO ERROR,0.000000,0.000000,-6000.000000,-6000.000000,Speed,Speed,-0.090000,0.870000,1.890000,1.000000,102.000000,1,0,-0.000000,0.000000,1,0.000000,0.000000,0.000000,24.526962,-7.785126,0.000000,-0.002000,-0.001000,0.003000,FlatInitial,ResetBack,0
08:05:54.238 PM 02/17/2016,Teleop Disabled,0,FALSE,0,NO ERROR,0.000000,0.000000,-6000.000000,-6000.000000,Speed,Speed,-0.090000,0.870000,1.890000,1.000000,107.000000,1,0,-0.000000,0.000000,1,0.000000,0.000000,0.000000,24.526962,-7.785126,0.000000,0.000000,0.000000,0.004000,FlatInitial,ResetBack,0
08:05:54.339 PM 02/17/2016,Teleop Disabled,0,FALSE,0,NO ERROR,0.000000,0.000000,-6000.000000,-6000.000000,Speed,Speed,-0.090000,0.870000,1.890000,1.000000,103.000000,1,0,-0.000000,0.000000,1,0.000000,0.000000,0.000000,24.526962,-7.785126,0.000000,0.000000,-0.005000,0.001000,FlatInitial,ResetBack,0
08:05:54.439 PM 02/17/2016,Teleop Disabled,0,FALSE,0,NO ERROR,0.000000,0.000000,-6000.000000,-6000.000000,Speed,Speed,-0.090000,0.870000,1.880000,1.000000,102.000000,1,0,-0.000000,0.000000,1,0.000000,0.000000,0.000000,24.526962,-7.785126,0.000000,0.000000,-0.003000,0.001000,FlatInitial,ResetBack,0
08:05:54.539 PM 02/17/2016,Teleop Disabled,0,FALSE,0,NO ERROR,0.000000,0.000000,-6000.000000,-6000.000000,Speed,Speed,-0.090000,0.870000,1.880000,1.000000,102.000000,1,0,-0.000000,0.000000,1,0.000000,0.000000,0.000000,24.526962,-7.785126,0.000000,0.000000,-0.001000,0.003000,FlatInitial,ResetBack,0
08:05:54.641 PM 02/17/2016,Teleop Disabled,0,FALSE,0,NO ERROR,0.000000,0.000000,-6000.000000,-6000.000000,Speed,Speed,-0.090000,0.870000,1.880000,1.000000,111.000000,1,0,-0.000000,0.000000,1,0.000000,0.000000,0.000000,24.526962,-7.785126,0.000000,0.002000,0.000000,0.000000,FlatInitial,ResetBack,0
08:05:54.742 PM 02/17/2016,Teleop Disabled,0,FALSE,0,NO ERROR,0.000000,0.000000,-6000.000000,-6000.000000,Speed,Speed,-0.090000,0.870000,1.880000,1.000000,102.000000,1,0,-0.000000,0.000000,1,0.000000,0.000000,0.000000,24.526962,-7.785126,0.000000,0.000000,0.000000,0.004000,FlatInitial,ResetBack,0
08:05:54.843 PM 02/17/2016,Teleop Disabled,0,FALSE,0,NO ERROR,0.000000,0.000000,-6000.000000,-6000.000000,Speed,Speed,-0.090000,0.870000,1.880000,1.000000,103.000000,1,0,-0.000000,0.000000,1,0.000000,0.000000,0.000000,24.526962,-7.785126,0.000000,0.000000,-0.002000,0.005000,FlatInitial,ResetBack,0
