Time,RobotMode,AutoToRun,ErrorStatus, ErrorCode,ErrorSource,ActualRPM1,ActualRPM2,DesiredRPM1,DesiredRPM2,ControlMode1,ControlMode2,NavXYaw,NavXRoll,NavXPitch,ShooterState,LoopTime,IsLevel,IsAutoTargeting,LeftMotorOutput,RightMotorOutput,IsHaloDrive,NavXVelocityX,NavXVelocityY,NavXVelocityZ,NavXDisplacementX,NavXDisplacementY,NavXDisplacementZ,NavXAccelerationX,NavXAccelerationY,NavXAccelerationZ,AutoDefendState,AngeMotorState,Photoeye
07:20:08.231 PM 02/16/2016,Autonomous Disabled,0,TRUE,91,Variant To Data in WPI_DigitalInputRefNum Registry Get.vi->Periodic Tasks.vi->Robot Main.vi,0.000000,0.000000,-6000.000000,-6000.000000,Speed,Speed,-0.110000,0.830000,0.600000,1.000000,101.000000,1,0,-0.000000,0.000000,1,0.000000,0.000000,0.000000,-19.101120,40.926712,0.000000,-0.025000,-0.012000,-0.057000,FlatInitial,Hold,0
07:20:08.331 PM 02/16/2016,Teleop Enabled,0,TRUE,-44007,<LOCATION>WPI_DigitalInputRefNum Registry Get.vi<CALLSTACK>WPI_DigitalInputRefNum Registry Get.vi< <Periodic Tasks.vi< <Robot Main.vi,0.000000,0.000000,0.000000,0.000000,Speed,Speed,-0.170000,0.820000,0.950000,0.000000,30634.000000,1,0,-0.000000,0.000000,1,-0.002335,0.001175,0.000000,-19.101105,40.927917,0.000000,-0.017000,0.024000,0.046000,FlatInitial,ResetBack,0
07:20:08.431 PM 02/16/2016,Teleop Enabled,0,FALSE,0,NO ERROR,0.000000,0.000000,0.000000,0.000000,Speed,Speed,0.000000,0.820000,0.920000,0.000000,104.000000,1,0,-0.000000,0.000000,1,-0.010574,0.003036,0.000000,-19.101364,40.928177,0.000000,-0.012000,-0.006000,0.008000,FlatInitial,ResetBack,0
07:20:08.531 PM 02/16/2016,Teleop Enabled,0,FALSE,0,NO ERROR,0.000000,0.000000,0.000000,0.000000,Speed,Speed,0.000000,0.830000,0.910000,0.000000,103.000000,1,0,-0.000000,0.000000,1,0.000000,0.000000,0.000000,-19.101364,40.928192,0.000000,-0.004000,-0.009000,0.011000,FlatInitial,ResetBack,0
07:20:08.631 PM 02/16/2016,Teleop Enabled,0,FALSE,0,NO ERROR,0.000000,0.000000,0.000000,0.000000,Speed,Speed,-0.010000,0.820000,0.930000,0.000000,103.000000,1,0,-0.000000,0.000000,1,0.000000,0.000000,0.000000,-19.101364,40.928040,0.000000,-0.009000,0.024000,-0.007000,FlatInitial,ResetBack,0
07:20:08.732 PM 02/16/2016,Teleop Enabled,0,FALSE,0,NO ERROR,0.000000,0.000000,0.000000,0.000000,Speed,Speed,0.000000,0.830000,0.950000,0.000000,101.000000,1,0,-0.000000,0.000000,1,0.009155,0.000000,0.000000,-19.101166,40.928238,0.000000,-0.005000,-0.002000,-0.001000,FlatInitial,ResetBack,0
07:20:08.833 PM 02/16/2016,Teleop Enabled,0,FALSE,0,NO ERROR,0.000000,0.000000,0.000000,0.000000,Speed,Speed,0.000000,0.790000,0.940000,0.000000,102.000000,1,0,-0.000000,0.000000,1,-0.006653,0.000000,0.000000,-19.101425,40.928238,0.000000,0.034000,0.012000,-0.021000,FlatInitial,ResetBack,0
07:20:08.934 PM 02/16/2016,Teleop Enabled,0,FALSE,0,NO ERROR,0.000000,0.000000,0.000000,0.000000,Speed,Speed,0.000000,0.820000,0.950000,0.000000,101.000000,1,0,-0.000000,0.000000,1,0.000000,0.000000,0.000000,-19.101654,40.928543,0.000000,0.007000,-0.004000,0.005000,FlatInitial,ResetBack,0
07:20:09.034 PM 02/16/2016,Teleop Enabled,0,FALSE,0,NO ERROR,0.000000,0.000000,0.000000,0.000000,Speed,Speed,-0.020000,0.830000,0.930000,0.000000,102.000000,1,0,-0.000000,0.000000,1,0.000000,0.000000,0.000000,-19.101532,40.928543,0.000000,0.003000,-0.009000,0.013000,FlatInitial,ResetBack,0
07:20:09.134 PM 02/16/2016,Teleop Enabled,0,FALSE,0,NO ERROR,0.000000,0.000000,0.000000,0.000000,Speed,Speed,-0.010000,0.830000,0.920000,0.000000,100.000000,1,0,-0.000000,0.000000,1,0.000000,0.000000,0.000000,-19.101532,40.928543,0.000000,0.006000,-0.001000,-0.001000,FlatInitial,ResetBack,0
07:20:09.236 PM 02/16/2016,Teleop Enabled,0,FALSE,0,NO ERROR,0.000000,0.000000,0.000000,0.000000,Speed,Speed,-0.010000,0.820000,0.940000,0.000000,102.000000,1,0,-0.000000,0.000000,1,0.000000,0.000000,0.000000,-19.101532,40.928543,0.000000,0.001000,0.000000,0.005000,FlatInitial,ResetBack,0
07:20:09.337 PM 02/16/2016,Teleop Enabled,0,FALSE,0,NO ERROR,0.000000,0.000000,0.000000,0.000000,Speed,Speed,-0.020000,0.830000,0.930000,0.000000,109.000000,1,0,-0.000000,0.000000,1,0.000000,0.000000,0.000000,-19.101532,40.928543,0.000000,0.002000,0.005000,0.005000,FlatInitial,ResetBack,0
07:20:09.438 PM 02/16/2016,Teleop Enabled,0,FALSE,0,NO ERROR,0.000000,0.000000,0.000000,0.000000,Speed,Speed,-0.010000,0.830000,0.940000,0.000000,103.000000,1,0,-0.000000,0.000000,1,0.000000,0.000000,0.000000,-19.101532,40.928543,0.000000,0.003000,0.000000,0.003000,FlatInitial,ResetBack,0
07:20:09.540 PM 02/16/2016,Teleop Enabled,0,FALSE,0,NO ERROR,0.000000,0.000000,0.000000,0.000000,Speed,Speed,-0.010000,0.830000,0.920000,0.000000,103.000000,1,0,-0.000000,0.000000,1,0.000000,0.000000,0.000000,-19.101532,40.928543,0.000000,0.001000,0.000000,0.011000,FlatInitial,ResetBack,0
07:20:09.639 PM 02/16/2016,Teleop Enabled,0,FALSE,0,NO ERROR,0.000000,0.000000,0.000000,0.000000,Speed,Speed,-0.010000,0.830000,0.920000,0.000000,103.000000,1,0,-0.000000,0.000000,1,0.000000,0.000000,0.000000,-19.101532,40.928543,0.000000,0.000000,0.000000,0.008000,FlatInitial,ResetBack,0
07:20:09.740 PM 02/16/2016,Teleop Enabled,0,FALSE,0,NO ERROR,0.000000,0.000000,0.000000,0.000000,Speed,Speed,-0.020000,0.830000,0.920000,0.000000,101.000000,1,0,-0.000000,0.000000,1,0.000000,0.000000,0.000000,-19.101532,40.928543,0.000000,0.000000,-0.008000,0.000000,FlatInitial,ResetBack,1
07:20:09.840 PM 02/16/2016,Teleop Enabled,0,FALSE,0,NO ERROR,0.000000,0.000000,0.000000,0.000000,Speed,Speed,-0.020000,0.830000,0.910000,0.000000,102.000000,1,0,-0.000000,0.000000,1,0.000000,0.000000,0.000000,-19.101532,40.928543,0.000000,0.004000,-0.007000,-0.002000,FlatInitial,ResetForward,1
07:20:09.941 PM 02/16/2016,Teleop Enabled,0,FALSE,0,NO ERROR,0.000000,0.000000,0.000000,0.000000,Speed,Speed,-0.030000,0.840000,0.910000,0.000000,102.000000,1,0,-0.000000,0.000000,1,0.000000,0.000000,0.000000,-19.101532,40.928543,0.000000,-0.005000,-0.019000,0.001000,FlatInitial,ResetForward,1
07:20:10.041 PM 02/16/2016,Teleop Enabled,0,FALSE,0,NO ERROR,0.000000,5.126953,0.000000,0.000000,Speed,Speed,0.000000,0.790000,0.980000,0.000000,101.000000,1,0,-0.000000,0.000000,1,0.000000,0.000000,0.000000,-19.101532,40.928543,0.000000,-0.006000,-0.001000,0.015000,FlatInitial,ResetForward,1
07:20:10.141 PM 02/16/2016,Teleop Enabled,0,FALSE,0,NO ERROR,0.000000,0.439453,0.000000,0.000000,Speed,Speed,-0.030000,0.840000,0.990000,0.000000,102.000000,1,0,-0.000000,0.000000,1,0.003403,0.022812,0.000000,-19.101486,40.929092,0.000000,0.020000,0.020000,0.005000,FlatInitial,ResetForward,0
07:20:10.242 PM 02/16/2016,Teleop Enabled,0,FALSE,0,NO ERROR,0.000000,0.000000,0.000000,0.000000,Speed,Speed,-0.020000,0.810000,0.980000,0.000000,104.000000,1,0,-0.000000,0.000000,1,0.000000,-0.006027,0.000000,-19.101395,40.929291,0.000000,0.016000,-0.037000,0.005000,FlatInitial,Reset,0
07:20:10.342 PM 02/16/2016,Teleop Enabled,0,FALSE,0,NO ERROR,0.000000,0.000000,0.000000,0.000000,Speed,Speed,-0.030000,0.850000,0.850000,0.000000,100.000000,1,0,-0.000000,0.000000,1,0.000000,0.005646,0.000000,-19.101395,40.928513,0.000000,0.012000,0.044000,0.010000,FlatInitial,Hold,0
07:20:10.442 PM 02/16/2016,Teleop Enabled,0,FALSE,0,NO ERROR,0.000000,-2.050781,0.000000,0.000000,Speed,Speed,-0.040000,0.870000,0.880000,0.000000,102.000000,1,0,-0.000000,0.000000,1,0.004913,-0.006027,0.000000,-19.101273,40.928741,0.000000,0.000000,-0.018000,0.014000,FlatInitial,Hold,0
07:20:10.543 PM 02/16/2016,Teleop Enabled,0,FALSE,0,NO ERROR,0.000000,0.000000,0.000000,0.000000,Speed,Speed,-0.020000,0.840000,0.950000,0.000000,101.000000,1,0,-0.000000,0.000000,1,0.000000,0.003616,0.000000,-19.101273,40.928406,0.000000,0.002000,0.027000,0.005000,FlatInitial,Hold,0
07:20:10.643 PM 02/16/2016,Teleop Enabled,0,FALSE,0,NO ERROR,0.000000,0.000000,0.000000,0.000000,Speed,Speed,-0.030000,0.830000,0.980000,0.000000,102.000000,1,0,-0.000000,0.000000,1,0.000000,0.000000,0.000000,-19.101273,40.928604,0.000000,0.008000,0.003000,0.012000,FlatInitial,Hold,0
07:20:10.743 PM 02/16/2016,Teleop Enabled,0,FALSE,0,NO ERROR,0.000000,0.000000,0.000000,0.000000,Speed,Speed,-0.020000,0.860000,0.890000,0.000000,100.000000,1,0,-0.000000,0.000000,1,0.000000,0.000000,0.000000,-19.101166,40.928375,0.000000,-0.016000,-0.019000,-0.020000,FlatInitial,Hold,0
07:20:10.845 PM 02/16/2016,Teleop Enabled,0,FALSE,0,NO ERROR,0.000000,0.000000,0.000000,0.000000,Speed,Speed,-0.010000,0.830000,0.950000,0.000000,101.000000,1,0,-0.000000,0.000000,1,0.000000,0.001724,0.000000,-19.101166,40.928391,0.000000,0.016000,0.022000,-0.015000,FlatInitial,Hold,0
07:20:10.945 PM 02/16/2016,Teleop Enabled,0,FALSE,0,NO ERROR,0.000000,0.000000,0.000000,0.000000,Speed,Speed,-0.010000,0.840000,0.930000,0.000000,101.000000,1,0,-0.000000,0.000000,1,0.000000,-0.006729,0.000000,-19.101288,40.928314,0.000000,0.009000,0.001000,-0.013000,FlatInitial,Hold,0
07:20:11.046 PM 02/16/2016,Teleop Enabled,0,FALSE,0,NO ERROR,0.000000,0.000000,0.000000,0.000000,Speed,Speed,-0.010000,0.840000,0.930000,0.000000,101.000000,1,0,-0.000000,0.000000,1,0.003204,0.000000,0.000000,-19.101181,40.927948,0.000000,-0.007000,-0.012000,0.004000,FlatInitial,Hold,0
07:20:11.147 PM 02/16/2016,Teleop Enabled,0,FALSE,0,NO ERROR,0.000000,0.000000,0.000000,0.000000,Speed,Speed,-0.010000,0.830000,0.940000,0.000000,101.000000,1,0,-0.000000,0.000000,1,0.006927,0.000000,0.000000,-19.100906,40.927948,0.000000,-0.006000,-0.012000,0.013000,FlatInitial,Hold,0
07:20:11.247 PM 02/16/2016,Teleop Enabled,0,FALSE,0,NO ERROR,0.000000,0.000000,0.000000,0.000000,Speed,Speed,-0.010000,0.820000,0.950000,0.000000,102.000000,1,0,-0.000000,0.000000,1,0.008774,0.000000,0.000000,-19.100494,40.927948,0.000000,0.027000,0.007000,-0.023000,FlatInitial,Hold,0
07:20:11.347 PM 02/16/2016,Teleop Enabled,0,FALSE,0,NO ERROR,0.000000,0.000000,0.000000,0.000000,Speed,Speed,0.000000,0.820000,0.950000,0.000000,102.000000,1,0,-0.000000,0.000000,1,0.010925,0.000000,0.000000,-19.099930,40.927948,0.000000,-0.026000,-0.004000,0.014000,FlatInitial,Hold,0
07:20:11.447 PM 02/16/2016,Teleop Enabled,0,FALSE,0,NO ERROR,0.000000,0.000000,0.000000,0.000000,Speed,Speed,-0.010000,0.820000,0.970000,0.000000,101.000000,1,0,-0.000000,0.000000,1,0.013138,0.000000,0.000000,-19.099152,40.927597,0.000000,-0.015000,-0.003000,0.002000,FlatInitial,Hold,0
07:20:11.548 PM 02/16/2016,Teleop Enabled,0,FALSE,0,NO ERROR,0.000000,0.000000,-6000.000000,-6000.000000,Speed,Speed,-0.010000,0.830000,1.000000,1.000000,104.000000,1,0,-0.000000,0.000000,1,0.000000,0.000000,0.000000,-19.099030,40.927719,0.000000,-0.013000,-0.001000,0.023000,FlatInitial,Hold,0
07:20:11.648 PM 02/16/2016,Teleop Enabled,0,FALSE,0,NO ERROR,0.000000,0.000000,-6000.000000,-6000.000000,Speed,Speed,0.000000,0.810000,1.030000,1.000000,102.000000,1,0,-0.000000,0.000000,1,0.007538,0.016953,0.000000,-19.098892,40.928116,0.000000,0.000000,0.022000,-0.044000,FlatInitial,Hold,0
07:20:11.748 PM 02/16/2016,Teleop Enabled,0,FALSE,0,NO ERROR,0.000000,0.000000,-6000.000000,-6000.000000,Speed,Speed,0.000000,0.820000,1.030000,1.000000,100.000000,1,0,-0.000000,0.000000,1,-0.007965,0.006790,0.000000,-19.098999,40.929169,0.000000,-0.019000,-0.046000,-0.011000,FlatInitial,Hold,0
07:20:11.849 PM 02/16/2016,Teleop Enabled,0,FALSE,0,NO ERROR,0.000000,0.000000,-6000.000000,-6000.000000,Speed,Speed,0.010000,0.830000,1.020000,1.000000,100.000000,1,0,-0.000000,0.000000,1,0.003677,-0.020416,0.000000,-19.099091,40.928696,0.000000,-0.016000,-0.022000,-0.007000,FlatInitial,Hold,0
07:20:11.949 PM 02/16/2016,Teleop Enabled,0,FALSE,0,NO ERROR,0.000000,0.000000,-6000.000000,-6000.000000,Speed,Speed,0.010000,0.800000,1.040000,1.000000,100.000000,1,0,-0.000000,0.000000,1,-0.004166,0.000000,0.000000,-19.099243,40.928192,0.000000,0.008000,0.011000,0.004000,FlatInitial,Hold,0
07:20:12.050 PM 02/16/2016,Teleop Enabled,0,FALSE,0,NO ERROR,0.000000,0.000000,-6000.000000,-6000.000000,Speed,Speed,0.010000,0.810000,1.110000,1.000000,101.000000,1,0,-0.000000,0.000000,1,-0.002136,-0.004166,0.000000,-19.099258,40.928101,0.000000,-0.003000,0.004000,0.027000,FlatInitial,Hold,0
07:20:12.150 PM 02/16/2016,Teleop Enabled,0,FALSE,0,NO ERROR,0.000000,0.000000,-6000.000000,-6000.000000,Speed,Speed,0.000000,0.820000,1.080000,1.000000,101.000000,1,0,-0.000000,0.000000,1,-0.017441,-0.002197,0.000000,-19.099533,40.928055,0.000000,-0.176000,0.020000,0.193000,FlatInitial,Hold,0
07:20:12.251 PM 02/16/2016,Teleop Enabled,0,FALSE,0,NO ERROR,0.000000,0.000000,-6000.000000,-6000.000000,Speed,Speed,-0.010000,0.760000,1.080000,1.000000,102.000000,1,0,-0.000000,0.000000,1,0.012253,-0.001892,0.000000,-19.100082,40.927704,0.000000,0.035000,-0.031000,0.029000,FlatInitial,Hold,0
07:20:12.351 PM 02/16/2016,Teleop Enabled,0,FALSE,0,NO ERROR,0.000000,0.000000,-6000.000000,-6000.000000,Speed,Speed,-0.010000,0.790000,1.060000,1.000000,101.000000,1,0,-0.000000,0.000000,1,0.000000,0.000000,0.000000,-19.099472,40.927429,0.000000,-0.008000,-0.012000,-0.017000,FlatInitial,Hold,0
07:20:12.451 PM 02/16/2016,Teleop Enabled,0,FALSE,0,NO ERROR,0.000000,0.000000,-6000.000000,-6000.000000,Speed,Speed,0.000000,0.800000,1.090000,1.000000,102.000000,1,0,-0.000000,0.000000,1,0.000000,0.000000,0.000000,-19.099472,40.927429,0.000000,0.010000,-0.001000,0.000000,FlatInitial,Hold,0
07:20:12.552 PM 02/16/2016,Teleop Enabled,0,FALSE,0,NO ERROR,0.000000,0.000000,-6000.000000,-6000.000000,Speed,Speed,0.000000,0.800000,1.110000,1.000000,100.000000,1,0,-0.000000,0.000000,1,-0.003525,0.009079,0.000000,-19.099564,40.927628,0.000000,-0.009000,-0.006000,0.002000,FlatInitial,Hold,0
07:20:12.652 PM 02/16/2016,Teleop Enabled,0,FALSE,0,NO ERROR,0.000000,0.000000,-6000.000000,-6000.000000,Speed,Speed,-0.030000,0.770000,1.030000,1.000000,103.000000,1,0,-0.000000,0.000000,1,0.000000,-0.019791,0.000000,-19.099564,40.927109,0.000000,0.009000,-0.002000,-0.026000,FlatInitial,Hold,0
07:20:12.752 PM 02/16/2016,Teleop Enabled,0,FALSE,0,NO ERROR,0.000000,0.000000,-6000.000000,-6000.000000,Speed,Speed,-0.050000,0.810000,1.030000,1.000000,101.000000,1,0,-0.000000,0.000000,1,0.006149,0.000000,0.000000,-19.099411,40.925964,0.000000,0.001000,-0.008000,0.016000,FlatInitial,Hold,0
07:20:12.853 PM 02/16/2016,Teleop Enabled,0,FALSE,0,NO ERROR,0.000000,0.000000,-6000.000000,-6000.000000,Speed,Speed,-0.050000,0.770000,1.130000,1.000000,104.000000,1,0,-0.000000,0.000000,1,0.000000,0.008011,0.000000,-19.099411,40.926163,0.000000,0.009000,-0.012000,0.004000,FlatInitial,Hold,0
07:20:12.953 PM 02/16/2016,Teleop Enabled,0,FALSE,0,NO ERROR,0.000000,0.000000,-6000.000000,-6000.000000,Speed,Speed,-0.050000,0.770000,1.180000,1.000000,103.000000,1,0,-0.000000,0.000000,1,-0.002884,0.007233,0.000000,-19.099442,40.926346,0.000000,-0.021000,0.007000,-0.010000,FlatInitial,Hold,0
07:20:13.053 PM 02/16/2016,Teleop Enabled,0,FALSE,0,NO ERROR,0.000000,0.000000,-6000.000000,-6000.000000,Speed,Speed,-0.060000,0.760000,1.170000,1.000000,101.000000,1,0,-0.000000,0.000000,1,0.000000,0.005310,0.000000,-19.099487,40.926819,0.000000,0.009000,0.019000,-0.006000,FlatInitial,Hold,0
07:20:13.153 PM 02/16/2016,Teleop Enabled,0,FALSE,0,NO ERROR,0.000000,0.000000,-6000.000000,-6000.000000,Speed,Speed,-0.060000,0.770000,1.110000,1.000000,102.000000,1,0,-0.000000,0.000000,1,0.000000,-0.021301,0.000000,-19.099487,40.926224,0.000000,0.004000,0.009000,0.008000,FlatInitial,Hold,0
07:20:13.254 PM 02/16/2016,Teleop Enabled,0,FALSE,0,NO ERROR,0.000000,0.000000,-6000.000000,-6000.000000,Speed,Speed,-0.030000,0.750000,1.060000,1.000000,101.000000,1,0,-0.000000,0.000000,1,0.000000,0.000000,0.000000,-19.099487,40.925430,0.000000,-0.007000,-0.004000,0.000000,FlatInitial,Hold,0
07:20:13.355 PM 02/16/2016,Teleop Enabled,0,FALSE,0,NO ERROR,0.000000,0.000000,-6000.000000,-6000.000000,Speed,Speed,-0.060000,0.810000,1.020000,1.000000,101.000000,1,0,-0.000000,0.000000,1,0.000000,0.010544,0.000000,-19.099274,40.925644,0.000000,-0.013000,0.004000,-0.017000,FlatInitial,Hold,0
07:20:13.455 PM 02/16/2016,Teleop Enabled,0,FALSE,0,NO ERROR,0.000000,0.000000,-6000.000000,-6000.000000,Speed,Speed,-0.010000,0.810000,1.090000,1.000000,101.000000,1,0,-0.000000,0.000000,1,0.000000,0.009109,0.000000,-19.099274,40.926147,0.000000,0.000000,-0.001000,-0.012000,FlatInitial,Hold,0
07:20:13.555 PM 02/16/2016,Teleop Enabled,0,FALSE,0,NO ERROR,0.000000,0.000000,-6000.000000,-6000.000000,Speed,Speed,-0.010000,0.760000,1.110000,1.000000,102.000000,1,0,-0.000000,0.000000,1,-0.011261,0.000000,0.000000,-19.099548,40.926254,0.000000,0.000000,-0.032000,0.000000,FlatInitial,Hold,0
07:20:13.655 PM 02/16/2016,Teleop Enabled,0,FALSE,0,NO ERROR,0.000000,0.000000,-6000.000000,-6000.000000,Speed,Speed,-0.010000,0.810000,1.060000,1.000000,102.000000,1,0,-0.000000,0.000000,1,0.004013,-0.023102,0.000000,-19.099533,40.925507,0.000000,-0.015000,-0.014000,-0.008000,FlatInitial,Hold,0
07:20:13.756 PM 02/16/2016,Teleop Enabled,0,FALSE,0,NO ERROR,0.000000,0.000000,-6000.000000,-6000.000000,Speed,Speed,0.000000,0.790000,1.080000,1.000000,103.000000,1,0,-0.000000,0.000000,1,0.000000,0.005676,0.000000,-19.099533,40.925583,0.000000,-0.009000,-0.006000,-0.003000,FlatInitial,Hold,0
07:20:13.856 PM 02/16/2016,Teleop Enabled,0,FALSE,0,NO ERROR,0.000000,0.000000,-6000.000000,-6000.000000,Speed,Speed,0.010000,0.790000,1.070000,1.000000,101.000000,1,0,-0.000000,0.000000,1,0.000000,0.000000,0.000000,-19.099533,40.925812,0.000000,-0.003000,0.004000,0.002000,FlatInitial,Hold,0
07:20:13.956 PM 02/16/2016,Teleop Enabled,0,FALSE,0,NO ERROR,0.000000,0.000000,-6000.000000,-6000.000000,Speed,Speed,0.000000,0.790000,1.060000,1.000000,102.000000,1,0,-0.000000,0.000000,1,0.000000,0.000000,0.000000,-19.099533,40.925812,0.000000,-0.001000,0.018000,-0.027000,FlatInitial,Hold,0
07:20:14.056 PM 02/16/2016,Teleop Enabled,0,FALSE,0,NO ERROR,0.000000,0.000000,-6000.000000,-6000.000000,Speed,Speed,0.000000,0.800000,1.010000,1.000000,102.000000,1,0,-0.000000,0.000000,1,0.000000,0.000000,0.000000,-19.099533,40.926041,0.000000,0.013000,-0.014000,-0.021000,FlatInitial,Hold,0
07:20:14.156 PM 02/16/2016,Teleop Enabled,0,FALSE,0,NO ERROR,0.000000,0.000000,-6000.000000,-6000.000000,Speed,Speed,0.000000,0.830000,0.950000,1.000000,101.000000,1,0,-0.000000,0.000000,1,0.000000,-0.008759,0.000000,-19.099533,40.925842,0.000000,0.010000,0.002000,-0.022000,FlatInitial,Hold,0
07:20:14.256 PM 02/16/2016,Teleop Enabled,0,FALSE,0,NO ERROR,0.000000,0.000000,-6000.000000,-6000.000000,Speed,Speed,0.000000,0.820000,0.980000,1.000000,102.000000,1,0,-0.000000,0.000000,1,0.001343,0.000000,0.000000,-19.099518,40.925964,0.000000,0.022000,-0.001000,-0.006000,FlatInitial,Hold,0
07:20:14.356 PM 02/16/2016,Teleop Enabled,0,FALSE,0,NO ERROR,0.000000,0.000000,-6000.000000,-6000.000000,Speed,Speed,0.000000,0.810000,1.000000,1.000000,102.000000,1,0,-0.000000,0.000000,1,0.002289,0.000000,0.000000,-19.099457,40.926086,0.000000,0.027000,0.001000,-0.011000,FlatInitial,Hold,0
07:20:14.456 PM 02/16/2016,Teleop Enabled,0,FALSE,0,NO ERROR,0.000000,0.000000,-6000.000000,-6000.000000,Speed,Speed,0.000000,0.810000,0.970000,1.000000,105.000000,1,0,-0.000000,0.000000,1,0.006165,0.000885,0.000000,-19.099304,40.926086,0.000000,-0.001000,0.011000,0.033000,FlatInitial,Hold,0
07:20:14.556 PM 02/16/2016,Teleop Enabled,0,FALSE,0,NO ERROR,0.000000,0.000000,-6000.000000,-6000.000000,Speed,Speed,0.000000,0.810000,0.980000,1.000000,102.000000,1,0,-0.000000,0.000000,1,0.000000,0.000000,0.000000,-19.099243,40.926178,0.000000,-0.007000,0.004000,0.020000,FlatInitial,Hold,0
07:20:14.656 PM 02/16/2016,Teleop Enabled,0,FALSE,0,NO ERROR,0.000000,0.000000,-6000.000000,-6000.000000,Speed,Speed,0.000000,0.810000,1.000000,1.000000,101.000000,1,0,-0.000000,0.000000,1,0.000000,-0.003067,0.000000,-19.099243,40.926147,0.000000,0.015000,-0.034000,-0.033000,FlatInitial,LowGoal,0
07:20:14.756 PM 02/16/2016,Teleop Enabled,0,FALSE,0,NO ERROR,0.000000,0.000000,-6000.000000,-6000.000000,Speed,Speed,0.010000,0.770000,1.080000,1.000000,101.000000,1,0,-0.000000,0.000000,1,-0.002930,-0.024612,0.000000,-19.099274,40.925247,0.000000,-0.022000,-0.030000,0.015000,FlatInitial,Hold,0
07:20:14.856 PM 02/16/2016,Teleop Enabled,0,FALSE,0,NO ERROR,0.000000,0.000000,-6000.000000,-6000.000000,Speed,Speed,0.030000,0.800000,1.060000,1.000000,102.000000,1,0,-0.000000,0.000000,1,0.000000,0.015106,0.000000,-19.099396,40.924973,0.000000,-0.012000,0.077000,0.044000,FlatInitial,Hold,0
07:20:14.956 PM 02/16/2016,Teleop Enabled,0,FALSE,0,NO ERROR,0.000000,0.000000,-6000.000000,-6000.000000,Speed,Speed,-0.010000,0.860000,1.010000,1.000000,101.000000,1,0,-0.000000,0.000000,1,0.002518,0.041992,0.000000,-19.099487,40.927231,0.000000,0.024000,-0.022000,-0.006000,FlatInitial,Hold,0
07:20:15.056 PM 02/16/2016,Teleop Enabled,0,FALSE,0,NO ERROR,0.000000,0.000000,-6000.000000,-6000.000000,Speed,Speed,0.000000,0.810000,0.930000,1.000000,101.000000,1,0,-0.000000,0.000000,1,-0.008179,0.023148,0.000000,-19.099625,40.928604,0.000000,-0.001000,-0.041000,0.009000,FlatInitial,Hold,0
07:20:15.156 PM 02/16/2016,Teleop Enabled,0,FALSE,0,NO ERROR,0.000000,0.000000,-6000.000000,-6000.000000,Speed,Speed,-0.010000,0.870000,0.970000,1.000000,102.000000,1,0,-0.000000,0.000000,1,0.000000,0.000000,0.000000,-19.099976,40.929932,0.000000,-0.017000,0.011000,-0.009000,FlatInitial,Hold,0
07:20:15.256 PM 02/16/2016,Teleop Enabled,0,FALSE,0,NO ERROR,0.000000,0.000000,-6000.000000,-6000.000000,Speed,Speed,-0.010000,0.850000,0.880000,1.000000,102.000000,1,0,-0.000000,0.000000,1,-0.005142,0.008835,0.000000,-19.100113,40.930115,0.000000,-0.003000,-0.032000,0.009000,FlatInitial,Hold,0
07:20:15.356 PM 02/16/2016,Teleop Enabled,0,FALSE,0,NO ERROR,0.000000,-2.636719,-6000.000000,-6000.000000,Speed,Speed,0.000000,0.860000,0.910000,1.000000,104.000000,1,0,-0.000000,0.000000,1,0.000000,-0.014908,0.000000,-19.099884,40.929794,0.000000,0.015000,-0.017000,-0.044000,FlatInitial,Hold,0
07:20:15.456 PM 02/16/2016,Teleop Enabled,0,FALSE,0,NO ERROR,0.000000,-1.171875,-6000.000000,-6000.000000,Speed,Speed,0.000000,0.850000,0.900000,1.000000,103.000000,1,0,-0.000000,0.000000,1,-0.011505,0.023605,0.000000,-19.099869,40.930084,0.000000,-0.022000,0.011000,0.056000,FlatInitial,Hold,0
07:20:15.556 PM 02/16/2016,Teleop Enabled,0,FALSE,0,NO ERROR,0.000000,0.000000,-6000.000000,-6000.000000,Speed,Speed,0.000000,0.880000,0.870000,1.000000,100.000000,1,0,-0.000000,0.000000,1,-0.004562,-0.016861,0.000000,-19.100342,40.929764,0.000000,0.044000,0.000000,-0.053000,FlatInitial,Hold,0
07:20:15.656 PM 02/16/2016,Teleop Enabled,0,FALSE,0,NO ERROR,0.000000,0.000000,-6000.000000,-6000.000000,Speed,Speed,0.000000,0.850000,0.880000,1.000000,102.000000,1,0,-0.000000,0.000000,1,-0.003998,0.000000,0.000000,-19.100616,40.929855,0.000000,-0.026000,0.000000,0.039000,FlatInitial,Hold,0
07:20:15.756 PM 02/16/2016,Teleop Enabled,0,FALSE,0,NO ERROR,0.000000,0.000000,-6000.000000,-6000.000000,Speed,Speed,-0.010000,0.870000,0.890000,1.000000,102.000000,1,0,-0.000000,0.000000,1,0.000000,-0.011154,0.000000,-19.100800,40.929535,0.000000,0.010000,0.011000,0.025000,FlatInitial,Hold,0
07:20:15.856 PM 02/16/2016,Teleop Enabled,0,FALSE,0,NO ERROR,0.000000,0.000000,-6000.000000,-6000.000000,Speed,Speed,0.000000,0.870000,0.860000,1.000000,101.000000,1,0,-0.000000,0.000000,1,0.000000,-0.007889,0.000000,-19.100800,40.929245,0.000000,-0.013000,0.010000,0.051000,FlatInitial,Hold,0
07:20:15.957 PM 02/16/2016,Teleop Enabled,0,FALSE,0,NO ERROR,0.000000,0.000000,-6000.000000,-6000.000000,Speed,Speed,-0.010000,0.860000,0.850000,1.000000,103.000000,1,0,-0.000000,0.000000,1,0.001068,-0.007751,0.000000,-19.100723,40.928558,0.000000,0.038000,0.000000,-0.003000,FlatInitial,Hold,0
07:20:16.057 PM 02/16/2016,Teleop Enabled,0,FALSE,0,NO ERROR,0.000000,0.000000,-6000.000000,-6000.000000,Speed,Speed,0.000000,0.850000,0.850000,1.000000,101.000000,1,0,-0.000000,0.000000,1,-0.000595,-0.004654,0.000000,-19.100586,40.928192,0.000000,-0.018000,0.015000,0.001000,FlatInitial,Hold,0
07:20:16.157 PM 02/16/2016,Teleop Enabled,0,FALSE,0,NO ERROR,0.000000,-0.292969,-6000.000000,-6000.000000,Speed,Speed,0.000000,0.860000,0.860000,1.000000,108.000000,1,0,-0.000000,0.000000,1,-0.001663,-0.005463,0.000000,-19.100739,40.928040,0.000000,0.024000,0.009000,0.019000,FlatInitial,Hold,0
07:20:16.257 PM 02/16/2016,Teleop Enabled,0,FALSE,0,NO ERROR,0.000000,-1.025391,-6000.000000,-6000.000000,Speed,Speed,0.000000,0.870000,0.840000,1.000000,101.000000,1,0,-0.000000,0.000000,1,-0.001251,0.000000,0.000000,-19.100937,40.928040,0.000000,-0.018000,0.005000,-0.006000,FlatInitial,Hold,0
07:20:16.357 PM 02/16/2016,Teleop Enabled,0,FALSE,0,NO ERROR,0.000000,0.000000,-6000.000000,-6000.000000,Speed,Speed,-0.010000,0.860000,0.830000,1.000000,101.000000,1,0,-0.000000,0.000000,1,-0.005554,-0.000763,0.000000,-19.101059,40.927994,0.000000,0.006000,-0.028000,-0.016000,FlatInitial,Hold,0
07:20:16.458 PM 02/16/2016,Teleop Enabled,0,FALSE,0,NO ERROR,0.000000,0.000000,-6000.000000,-6000.000000,Speed,Speed,-0.010000,0.850000,0.840000,1.000000,100.000000,1,0,-0.000000,0.000000,1,-0.001144,-0.013199,0.000000,-19.101196,40.927628,0.000000,0.023000,0.001000,0.002000,FlatInitial,Hold,0
07:20:16.558 PM 02/16/2016,Teleop Enabled,0,FALSE,0,NO ERROR,0.000000,-0.439453,-6000.000000,-6000.000000,Speed,Speed,-0.010000,0.850000,0.830000,1.000000,102.000000,1,0,-0.000000,0.000000,1,0.000000,0.002289,0.000000,-19.101318,40.927505,0.000000,0.009000,0.023000,0.021000,FlatInitial,Hold,0
07:20:16.658 PM 02/16/2016,Teleop Enabled,0,FALSE,0,NO ERROR,0.000000,0.000000,-6000.000000,-6000.000000,Speed,Speed,-0.010000,0.850000,0.830000,1.000000,101.000000,1,0,-0.000000,0.000000,1,-0.002686,0.000000,0.000000,-19.101456,40.927582,0.000000,0.022000,-0.005000,0.001000,FlatInitial,Hold,0
07:20:16.758 PM 02/16/2016,Teleop Enabled,0,FALSE,0,NO ERROR,0.000000,0.000000,-6000.000000,-6000.000000,Speed,Speed,0.000000,0.850000,0.830000,1.000000,102.000000,1,0,-0.000000,0.000000,1,-0.000732,0.000000,0.000000,-19.101517,40.927582,0.000000,-0.003000,-0.005000,-0.004000,FlatInitial,Hold,0
07:20:16.858 PM 02/16/2016,Teleop Enabled,0,FALSE,0,NO ERROR,0.000000,0.000000,-6000.000000,-6000.000000,Speed,Speed,0.000000,0.840000,0.840000,1.000000,101.000000,1,0,-0.000000,0.000000,1,0.003723,0.001907,0.000000,-19.101379,40.927628,0.000000,0.005000,-0.020000,-0.004000,FlatInitial,Hold,0
07:20:16.959 PM 02/16/2016,Teleop Enabled,0,FALSE,0,NO ERROR,0.000000,0.000000,-6000.000000,-6000.000000,Speed,Speed,0.000000,0.850000,0.840000,1.000000,101.000000,1,0,-0.000000,0.000000,1,0.001328,-0.001160,0.000000,-19.101288,40.927582,0.000000,0.005000,-0.020000,-0.004000,FlatInitial,Hold,0
07:20:17.060 PM 02/16/2016,Teleop Enabled,0,FALSE,0,NO ERROR,0.000000,0.000000,-6000.000000,-6000.000000,Speed,Speed,0.000000,0.840000,0.840000,1.000000,102.000000,1,0,-0.000000,0.000000,1,0.001328,-0.001160,0.000000,-19.101288,40.927582,0.000000,-0.021000,0.025000,0.007000,FlatInitial,Hold,0
07:20:17.159 PM 02/16/2016,Teleop Enabled,0,FALSE,0,NO ERROR,0.000000,-0.585938,-6000.000000,-6000.000000,Speed,Speed,-0.010000,0.840000,0.840000,1.000000,101.000000,1,0,-0.000000,0.000000,1,-0.006027,0.000000,0.000000,-19.101425,40.927567,0.000000,-0.023000,0.007000,-0.006000,FlatInitial,Hold,0
07:20:17.259 PM 02/16/2016,Teleop Enabled,0,FALSE,0,NO ERROR,0.000000,-4.394531,-6000.000000,-6000.000000,Speed,Speed,0.000000,0.840000,0.850000,1.000000,101.000000,1,0,-0.000000,0.000000,1,-0.006027,0.000000,0.000000,-19.101425,40.927567,0.000000,-0.024000,0.018000,0.010000,FlatInitial,Hold,0
07:20:17.359 PM 02/16/2016,Teleop Enabled,0,FALSE,0,NO ERROR,0.000000,-1.904297,-6000.000000,-6000.000000,Speed,Speed,0.000000,0.830000,0.890000,1.000000,101.000000,1,0,-0.000000,0.000000,1,-0.006226,0.000000,0.000000,-19.101791,40.927567,0.000000,0.023000,-0.002000,0.002000,FlatInitial,Hold,0
07:20:17.459 PM 02/16/2016,Teleop Enabled,0,FALSE,0,NO ERROR,0.000000,0.000000,-6000.000000,-6000.000000,Speed,Speed,0.010000,0.830000,0.880000,1.000000,105.000000,1,0,-0.000000,0.000000,1,0.001816,0.000000,0.000000,-19.102203,40.927567,0.000000,-0.015000,0.004000,-0.005000,FlatInitial,Hold,0
07:20:17.561 PM 02/16/2016,Teleop Enabled,0,FALSE,0,NO ERROR,0.000000,0.000000,-6000.000000,-6000.000000,Speed,Speed,0.010000,0.840000,0.890000,1.000000,101.000000,1,0,-0.000000,0.000000,1,0.001816,0.000000,0.000000,-19.102203,40.927567,0.000000,-0.005000,0.014000,0.000000,FlatInitial,Hold,0
07:20:17.661 PM 02/16/2016,Teleop Enabled,0,FALSE,0,NO ERROR,0.000000,0.000000,-6000.000000,-6000.000000,Speed,Speed,0.000000,0.840000,0.900000,1.000000,101.000000,1,0,-0.000000,0.000000,1,0.000000,0.016479,0.000000,-19.102325,40.927948,0.000000,-0.013000,0.032000,0.026000,FlatInitial,Hold,0
07:20:17.762 PM 02/16/2016,Teleop Enabled,0,FALSE,0,NO ERROR,0.000000,0.000000,-6000.000000,-6000.000000,Speed,Speed,0.000000,0.840000,0.850000,1.000000,101.000000,1,0,-0.000000,0.000000,1,0.007889,0.000000,0.000000,-19.102066,40.928146,0.000000,0.006000,-0.014000,-0.006000,FlatInitial,Hold,0
07:20:17.862 PM 02/16/2016,Teleop Enabled,0,FALSE,0,NO ERROR,0.000000,0.585938,-6000.000000,-6000.000000,Speed,Speed,0.000000,0.850000,0.850000,1.000000,101.000000,1,0,-0.000000,0.000000,1,0.000000,0.000000,0.000000,-19.101929,40.928146,0.000000,0.001000,0.004000,0.012000,FlatInitial,Hold,0
07:20:17.962 PM 02/16/2016,Teleop Enabled,0,FALSE,0,NO ERROR,0.000000,0.000000,-6000.000000,-6000.000000,Speed,Speed,0.000000,0.850000,0.840000,1.000000,101.000000,1,0,-0.000000,0.000000,1,0.004791,0.000000,0.000000,-19.101791,40.928146,0.000000,-0.008000,-0.002000,0.001000,FlatInitial,Hold,0
07:20:18.062 PM 02/16/2016,Teleop Enabled,0,FALSE,0,NO ERROR,0.000000,0.000000,-6000.000000,-6000.000000,Speed,Speed,0.000000,0.840000,0.840000,1.000000,101.000000,1,0,-0.000000,0.000000,1,0.000000,0.000000,0.000000,-19.101761,40.928146,0.000000,-0.010000,0.014000,-0.001000,FlatInitial,Hold,0
07:20:18.163 PM 02/16/2016,Teleop Enabled,0,FALSE,0,NO ERROR,0.000000,0.000000,-6000.000000,-6000.000000,Speed,Speed,0.000000,0.840000,0.840000,1.000000,102.000000,1,0,-0.000000,0.000000,1,0.001144,0.000000,0.000000,-19.101868,40.928146,0.000000,-0.035000,0.010000,-0.011000,FlatInitial,Hold,0
07:20:18.263 PM 02/16/2016,Teleop Enabled,0,FALSE,0,NO ERROR,0.000000,0.000000,-6000.000000,-6000.000000,Speed,Speed,0.000000,0.850000,0.840000,1.000000,100.000000,1,0,-0.000000,0.000000,1,0.002075,0.000000,0.000000,-19.101791,40.928146,0.000000,-0.017000,-0.003000,0.003000,FlatInitial,Hold,0
07:20:18.365 PM 02/16/2016,Teleop Enabled,0,FALSE,0,NO ERROR,0.000000,0.000000,-6000.000000,-6000.000000,Speed,Speed,0.000000,0.850000,0.830000,1.000000,101.000000,1,0,-0.000000,0.000000,1,0.002075,0.000000,0.000000,-19.101791,40.928146,0.000000,-0.020000,-0.015000,-0.005000,FlatInitial,Hold,0
07:20:18.466 PM 02/16/2016,Teleop Enabled,0,FALSE,0,NO ERROR,0.000000,0.000000,-6000.000000,-6000.000000,Speed,Speed,0.010000,0.860000,0.840000,1.000000,101.000000,1,0,-0.000000,0.000000,1,0.003769,0.003128,0.000000,-19.101593,40.928253,0.000000,-0.022000,-0.027000,-0.007000,FlatInitial,Hold,0
07:20:18.567 PM 02/16/2016,Teleop Enabled,0,FALSE,0,NO ERROR,0.000000,0.000000,-6000.000000,-6000.000000,Speed,Speed,0.000000,0.860000,0.840000,1.000000,102.000000,1,0,-0.000000,0.000000,1,0.001007,0.000000,0.000000,-19.101486,40.928299,0.000000,0.024000,-0.017000,-0.008000,FlatInitial,Hold,0
07:20:18.668 PM 02/16/2016,Teleop Enabled,0,FALSE,0,NO ERROR,0.000000,0.000000,-6000.000000,-6000.000000,Speed,Speed,0.000000,0.870000,0.830000,1.000000,101.000000,1,0,-0.000000,0.000000,1,0.000000,0.004501,0.000000,-19.101410,40.928360,0.000000,0.008000,-0.002000,0.015000,FlatInitial,Hold,0
07:20:18.768 PM 02/16/2016,Teleop Enabled,0,FALSE,0,NO ERROR,0.000000,0.000000,-6000.000000,-6000.000000,Speed,Speed,0.010000,0.870000,0.830000,1.000000,102.000000,1,0,-0.000000,0.000000,1,-0.001144,0.000000,0.000000,-19.101425,40.928421,0.000000,0.008000,0.011000,0.019000,FlatInitial,Hold,0
07:20:18.869 PM 02/16/2016,Teleop Enabled,0,FALSE,0,NO ERROR,0.000000,0.000000,-6000.000000,-6000.000000,Speed,Speed,0.000000,0.870000,0.830000,1.000000,103.000000,1,0,-0.000000,0.000000,1,0.000000,0.001846,0.000000,-19.101547,40.928482,0.000000,-0.009000,-0.011000,-0.013000,FlatInitial,Hold,0
07:20:18.969 PM 02/16/2016,Teleop Enabled,0,FALSE,0,NO ERROR,0.000000,0.000000,-6000.000000,-6000.000000,Speed,Speed,0.000000,0.870000,0.820000,1.000000,101.000000,1,0,-0.000000,0.000000,1,0.000000,0.000000,0.000000,-19.101547,40.928482,0.000000,0.017000,-0.005000,0.009000,FlatInitial,Hold,0
07:20:19.069 PM 02/16/2016,Teleop Enabled,0,FALSE,0,NO ERROR,0.000000,0.000000,-6000.000000,-6000.000000,Speed,Speed,0.000000,0.880000,0.810000,1.000000,103.000000,1,0,-0.000000,0.000000,1,0.000000,0.000000,0.000000,-19.101562,40.928482,0.000000,-0.014000,-0.014000,-0.020000,FlatInitial,Hold,0
07:20:19.169 PM 02/16/2016,Teleop Enabled,0,FALSE,0,NO ERROR,0.000000,0.000000,-6000.000000,-6000.000000,Speed,Speed,0.000000,0.870000,0.810000,1.000000,101.000000,1,0,-0.000000,0.000000,1,0.000000,0.000000,0.000000,-19.101562,40.928482,0.000000,-0.011000,-0.013000,-0.017000,FlatInitial,Hold,0
07:20:19.270 PM 02/16/2016,Teleop Enabled,0,FALSE,0,NO ERROR,0.000000,0.000000,-6000.000000,-6000.000000,Speed,Speed,0.000000,0.860000,0.810000,1.000000,101.000000,1,0,-0.000000,0.000000,1,0.000000,0.002151,0.000000,-19.101654,40.929062,0.000000,-0.007000,0.020000,0.040000,FlatInitial,Hold,0
07:20:19.371 PM 02/16/2016,Teleop Enabled,0,FALSE,0,NO ERROR,0.000000,0.000000,-6000.000000,-6000.000000,Speed,Speed,0.000000,0.870000,0.800000,1.000000,101.000000,1,0,-0.000000,0.000000,1,0.000519,0.000000,0.000000,-19.101685,40.929123,0.000000,0.022000,-0.010000,-0.001000,FlatInitial,Hold,0
07:20:19.473 PM 02/16/2016,Teleop Enabled,0,FALSE,0,NO ERROR,0.000000,0.000000,-6000.000000,-6000.000000,Speed,Speed,0.010000,0.870000,0.810000,1.000000,101.000000,1,0,-0.000000,0.000000,1,0.000000,-0.005478,0.000000,-19.101700,40.929047,0.000000,0.002000,0.005000,0.011000,FlatInitial,Hold,0
07:20:19.574 PM 02/16/2016,Teleop Enabled,0,FALSE,0,NO ERROR,0.000000,0.000000,-6000.000000,-6000.000000,Speed,Speed,0.000000,0.870000,0.830000,1.000000,102.000000,1,0,-0.000000,0.000000,1,-0.004181,0.014725,0.000000,-19.101776,40.929398,0.000000,0.014000,0.006000,0.020000,FlatInitial,Hold,0
07:20:19.674 PM 02/16/2016,Teleop Enabled,0,FALSE,0,NO ERROR,0.000000,0.000000,-6000.000000,-6000.000000,Speed,Speed,0.010000,0.850000,0.890000,1.000000,101.000000,1,0,-0.000000,0.000000,1,0.000000,0.002014,0.000000,-19.101776,40.929794,0.000000,-0.007000,-0.023000,-0.025000,FlatInitial,Hold,0
07:20:19.775 PM 02/16/2016,Teleop Enabled,0,FALSE,0,NO ERROR,0.000000,0.000000,-6000.000000,-6000.000000,Speed,Speed,0.010000,0.830000,0.890000,1.000000,102.000000,1,0,-0.000000,0.000000,1,-0.001144,0.000000,0.000000,-19.101791,40.929749,0.000000,-0.030000,0.009000,0.008000,FlatInitial,Hold,0
07:20:19.877 PM 02/16/2016,Teleop Enabled,0,FALSE,0,NO ERROR,0.000000,0.000000,-6000.000000,-6000.000000,Speed,Speed,0.000000,0.850000,0.910000,1.000000,102.000000,1,0,-0.000000,0.000000,1,0.003433,0.000000,0.000000,-19.101761,40.929749,0.000000,0.033000,-0.009000,-0.036000,FlatInitial,Hold,0
07:20:19.978 PM 02/16/2016,Teleop Enabled,0,FALSE,0,NO ERROR,0.000000,0.000000,-6000.000000,-6000.000000,Speed,Speed,0.000000,0.840000,0.880000,1.000000,100.000000,1,0,-0.000000,0.000000,1,0.000000,0.000000,0.000000,-19.101654,40.929916,0.000000,0.017000,0.019000,0.008000,FlatInitial,Hold,0
07:20:20.078 PM 02/16/2016,Teleop Enabled,0,FALSE,0,NO ERROR,0.000000,0.000000,-6000.000000,-6000.000000,Speed,Speed,0.000000,0.840000,0.900000,1.000000,101.000000,1,0,-0.000000,0.000000,1,0.000000,-0.004013,0.000000,-19.101730,40.929840,0.000000,-0.002000,0.019000,0.013000,FlatInitial,Hold,0
07:20:20.179 PM 02/16/2016,Teleop Enabled,0,FALSE,0,NO ERROR,0.000000,0.000000,-6000.000000,-6000.000000,Speed,Speed,0.010000,0.840000,0.900000,1.000000,103.000000,1,0,-0.000000,0.000000,1,0.001312,0.000000,0.000000,-19.101730,40.929840,0.000000,0.000000,-0.009000,0.017000,FlatInitial,Hold,0
07:20:20.280 PM 02/16/2016,Teleop Enabled,0,FALSE,0,NO ERROR,0.000000,0.000000,-6000.000000,-6000.000000,Speed,Speed,0.000000,0.840000,0.910000,1.000000,102.000000,1,0,-0.000000,0.000000,1,0.000000,0.000000,0.000000,-19.101624,40.929749,0.000000,-0.010000,0.021000,0.023000,FlatInitial,Hold,0
07:20:20.381 PM 02/16/2016,Teleop Enabled,0,FALSE,0,NO ERROR,0.000000,0.000000,-6000.000000,-6000.000000,Speed,Speed,0.010000,0.830000,0.890000,1.000000,102.000000,1,0,-0.000000,0.000000,1,0.000000,0.000000,0.000000,-19.101624,40.929794,0.000000,0.011000,0.004000,0.025000,FlatInitial,Hold,0
07:20:20.483 PM 02/16/2016,Teleop Enabled,0,FALSE,0,NO ERROR,0.000000,0.000000,-6000.000000,-6000.000000,Speed,Speed,0.000000,0.840000,0.900000,1.000000,101.000000,1,0,-0.000000,0.000000,1,-0.006393,0.003189,0.000000,-19.101730,40.929916,0.000000,0.004000,-0.031000,0.013000,FlatInitial,Hold,0
07:20:20.584 PM 02/16/2016,Teleop Enabled,0,FALSE,0,NO ERROR,0.000000,0.000000,-6000.000000,-6000.000000,Speed,Speed,0.020000,0.820000,0.890000,1.000000,103.000000,1,0,-0.000000,0.000000,1,0.000000,-0.003296,0.000000,-19.101807,40.929886,0.000000,0.000000,0.028000,0.021000,FlatInitial,Hold,0
07:20:20.685 PM 02/16/2016,Teleop Enabled,0,FALSE,0,NO ERROR,0.000000,0.000000,-6000.000000,-6000.000000,Speed,Speed,0.020000,0.830000,0.910000,1.000000,101.000000,1,0,-0.000000,0.000000,1,-0.001556,0.005905,0.000000,-19.101822,40.929993,0.000000,0.000000,0.010000,0.019000,FlatInitial,Hold,0
07:20:20.785 PM 02/16/2016,Teleop Enabled,0,FALSE,0,NO ERROR,0.000000,0.000000,-6000.000000,-6000.000000,Speed,Speed,0.030000,0.820000,0.890000,1.000000,101.000000,1,0,-0.000000,0.000000,1,0.000000,0.000000,0.000000,-19.101883,40.930054,0.000000,-0.018000,-0.019000,-0.020000,FlatInitial,Hold,0
07:20:20.885 PM 02/16/2016,Teleop Enabled,0,FALSE,0,NO ERROR,0.000000,0.000000,-6000.000000,-6000.000000,Speed,Speed,0.030000,0.830000,0.860000,1.000000,102.000000,1,0,-0.000000,0.000000,1,-0.000397,-0.001556,0.000000,-19.101929,40.930115,0.000000,0.024000,-0.027000,-0.043000,FlatInitial,Hold,0
07:20:20.986 PM 02/16/2016,Teleop Enabled,0,FALSE,0,NO ERROR,0.000000,0.000000,-6000.000000,-6000.000000,Speed,Speed,0.030000,0.800000,0.870000,1.000000,102.000000,1,0,-0.000000,0.000000,1,0.000000,0.003036,0.000000,-19.101944,40.930176,0.000000,0.004000,-0.002000,0.018000,FlatInitial,Hold,0
07:20:21.087 PM 02/16/2016,Teleop Enabled,0,FALSE,0,NO ERROR,0.000000,0.000000,-6000.000000,-6000.000000,Speed,Speed,0.040000,0.810000,0.850000,1.000000,101.000000,1,0,-0.000000,0.000000,1,0.000000,0.003281,0.000000,-19.101944,40.930283,0.000000,-0.012000,0.030000,0.030000,FlatInitial,Hold,0
07:20:21.187 PM 02/16/2016,Teleop Enabled,0,FALSE,0,NO ERROR,0.000000,0.000000,-6000.000000,-6000.000000,Speed,Speed,0.040000,0.800000,0.820000,1.000000,102.000000,1,0,-0.000000,0.000000,1,0.000000,0.000000,0.000000,-19.101944,40.930557,0.000000,-0.018000,-0.012000,-0.029000,FlatInitial,Hold,0
07:20:21.287 PM 02/16/2016,Teleop Enabled,0,FALSE,0,NO ERROR,0.000000,0.000000,-6000.000000,-6000.000000,Speed,Speed,0.040000,0.800000,0.810000,1.000000,103.000000,1,0,-0.000000,0.000000,1,0.000000,-0.003754,0.000000,-19.101913,40.930649,0.000000,0.016000,-0.032000,-0.041000,FlatInitial,HighGoal,0
07:20:21.389 PM 02/16/2016,Teleop Enabled,0,FALSE,0,NO ERROR,0.000000,0.000000,-6000.000000,-6000.000000,Speed,Speed,0.050000,0.800000,0.800000,1.000000,102.000000,1,0,-0.000000,0.000000,1,0.000000,0.004593,0.000000,-19.101913,40.930695,0.000000,0.010000,0.012000,0.026000,FlatInitial,Hold,0
07:20:21.489 PM 02/16/2016,Teleop Enabled,0,FALSE,0,NO ERROR,0.000000,0.000000,-6000.000000,-6000.000000,Speed,Speed,0.070000,0.810000,0.750000,1.000000,102.000000,1,0,-0.000000,0.000000,1,0.000000,0.009537,0.000000,-19.102005,40.930847,0.000000,0.009000,0.011000,-0.019000,FlatInitial,HighGoal,0
07:20:21.590 PM 02/16/2016,Teleop Enabled,0,FALSE,0,NO ERROR,0.000000,0.000000,-6000.000000,-6000.000000,Speed,Speed,0.070000,0.800000,0.890000,1.000000,101.000000,1,0,-0.000000,0.000000,1,0.002869,0.012115,0.000000,-19.101944,40.931656,0.000000,-0.033000,0.034000,0.025000,FlatInitial,Hold,0
07:20:21.689 PM 02/16/2016,Teleop Enabled,0,FALSE,0,NO ERROR,0.000000,0.000000,-6000.000000,-6000.000000,Speed,Speed,0.080000,0.800000,0.730000,1.000000,101.000000,1,0,-0.000000,0.000000,1,0.001312,0.053741,0.000000,-19.102203,40.933716,0.000000,0.031000,0.027000,-0.029000,FlatInitial,Hold,0
07:20:21.789 PM 02/16/2016,Teleop Enabled,0,FALSE,0,NO ERROR,0.000000,0.000000,-6000.000000,-6000.000000,Speed,Speed,0.080000,0.780000,0.900000,1.000000,101.000000,1,0,-0.000000,0.000000,1,0.002975,-0.003769,0.000000,-19.101898,40.934235,0.000000,-0.006000,-0.033000,0.026000,FlatInitial,Hold,0
07:20:21.889 PM 02/16/2016,Teleop Enabled,0,FALSE,0,NO ERROR,0.000000,0.000000,-6000.000000,-6000.000000,Speed,Speed,0.080000,0.790000,0.840000,1.000000,101.000000,1,0,-0.000000,0.000000,1,0.000000,0.008957,0.000000,-19.101990,40.934357,0.000000,0.000000,0.031000,0.000000,FlatInitial,Hold,0
07:20:21.990 PM 02/16/2016,Teleop Enabled,0,FALSE,0,NO ERROR,0.000000,0.000000,-6000.000000,-6000.000000,Speed,Speed,0.080000,0.810000,0.860000,1.000000,102.000000,1,0,-0.000000,0.000000,1,0.000000,-0.018890,0.000000,-19.101990,40.934372,0.000000,-0.003000,-0.053000,-0.044000,FlatInitial,Hold,0
07:20:22.090 PM 02/16/2016,Teleop Enabled,0,FALSE,0,NO ERROR,0.000000,0.000000,-6000.000000,-6000.000000,Speed,Speed,0.080000,0.790000,0.850000,1.000000,102.000000,1,0,-0.000000,0.000000,1,0.008148,-0.058441,0.000000,-19.101791,40.931870,0.000000,0.012000,0.026000,0.002000,FlatInitial,Hold,0
07:20:22.190 PM 02/16/2016,Teleop Enabled,0,FALSE,0,NO ERROR,0.000000,0.000000,-6000.000000,-6000.000000,Speed,Speed,0.080000,0.830000,0.870000,1.000000,103.000000,1,0,-0.000000,0.000000,1,0.000000,-0.023178,0.000000,-19.101593,40.929718,0.000000,0.013000,-0.031000,-0.011000,FlatInitial,Hold,0
07:20:22.291 PM 02/16/2016,Teleop Enabled,0,FALSE,0,NO ERROR,0.000000,0.000000,-6000.000000,-6000.000000,Speed,Speed,0.090000,0.800000,0.900000,1.000000,102.000000,1,0,-0.000000,0.000000,1,0.001251,-0.029266,0.000000,-19.101730,40.928009,0.000000,0.027000,0.031000,0.009000,FlatInitial,Hold,0
07:20:22.391 PM 02/16/2016,Teleop Enabled,0,FALSE,0,NO ERROR,0.000000,0.000000,-6000.000000,-6000.000000,Speed,Speed,0.070000,0.840000,0.890000,1.000000,102.000000,1,0,-0.000000,0.000000,1,0.000000,-0.029968,0.000000,-19.101685,40.926773,0.000000,0.001000,-0.063000,-0.002000,FlatInitial,Hold,0
07:20:22.491 PM 02/16/2016,Teleop Enabled,0,FALSE,0,NO ERROR,0.000000,0.000000,-6000.000000,-6000.000000,Speed,Speed,0.070000,0.820000,0.830000,1.000000,102.000000,1,0,-0.000000,0.000000,1,0.002289,-0.080582,0.000000,-19.101654,40.923782,0.000000,0.025000,-0.051000,-0.032000,FlatInitial,Hold,0
07:20:22.592 PM 02/16/2016,Teleop Enabled,0,FALSE,0,NO ERROR,0.000000,0.000000,-6000.000000,-6000.000000,Speed,Speed,0.080000,0.830000,0.830000,1.000000,104.000000,1,0,-0.000000,0.000000,1,-0.001724,-0.092545,0.000000,-19.101456,40.918854,0.000000,-0.027000,0.047000,0.046000,FlatInitial,Hold,0
07:20:22.692 PM 02/16/2016,Teleop Enabled,0,FALSE,0,NO ERROR,0.000000,0.000000,-6000.000000,-6000.000000,Speed,Speed,0.080000,0.820000,0.840000,1.000000,100.000000,1,0,-0.000000,0.000000,1,0.006607,-0.081985,0.000000,-19.101456,40.914871,0.000000,0.023000,0.052000,-0.016000,FlatInitial,Hold,0
07:20:22.792 PM 02/16/2016,Teleop Enabled,0,FALSE,0,NO ERROR,0.000000,0.000000,-6000.000000,-6000.000000,Speed,Speed,0.070000,0.820000,0.780000,1.000000,101.000000,1,0,-0.000000,0.000000,1,-0.004318,-0.065460,0.000000,-19.101227,40.911346,0.000000,-0.012000,-0.022000,0.043000,FlatInitial,Hold,0
07:20:22.892 PM 02/16/2016,Teleop Enabled,0,FALSE,0,NO ERROR,0.000000,0.000000,-6000.000000,-6000.000000,Speed,Speed,0.070000,0.810000,0.790000,1.000000,101.000000,1,0,-0.000000,0.000000,1,0.000000,-0.104279,0.000000,-19.101440,40.907135,0.000000,-0.013000,-0.056000,-0.011000,FlatInitial,Hold,0
07:20:22.992 PM 02/16/2016,Teleop Enabled,0,FALSE,0,NO ERROR,0.000000,0.000000,-6000.000000,-6000.000000,Speed,Speed,0.070000,0.810000,0.800000,1.000000,101.000000,1,0,-0.000000,0.000000,1,0.000000,-0.113174,0.000000,-19.101089,40.899841,0.000000,-0.004000,0.077000,0.032000,FlatInitial,Hold,0
07:20:23.092 PM 02/16/2016,Teleop Enabled,0,FALSE,0,NO ERROR,0.000000,0.000000,-6000.000000,-6000.000000,Speed,Speed,0.070000,0.820000,0.800000,1.000000,101.000000,1,0,-0.000000,0.000000,1,0.000000,-0.103455,0.000000,-19.101364,40.895844,0.000000,0.028000,-0.020000,-0.024000,FlatInitial,Hold,0
07:20:23.192 PM 02/16/2016,Teleop Enabled,0,FALSE,0,NO ERROR,0.000000,0.000000,-6000.000000,-6000.000000,Speed,Speed,0.070000,0.820000,0.790000,1.000000,102.000000,1,0,-0.000000,0.000000,1,-0.002563,0.000000,0.000000,-19.101028,40.890350,0.000000,-0.007000,0.018000,0.049000,FlatInitial,Hold,0
07:20:23.292 PM 02/16/2016,Teleop Enabled,0,FALSE,0,NO ERROR,0.000000,0.000000,-6000.000000,-6000.000000,Speed,Speed,0.070000,0.810000,0.800000,1.000000,102.000000,1,0,-0.000000,0.000000,1,-0.000778,-0.001846,0.000000,-19.100922,40.890060,0.000000,-0.012000,-0.035000,0.026000,FlatInitial,Hold,0
07:20:23.392 PM 02/16/2016,Teleop Enabled,0,FALSE,0,NO ERROR,0.000000,0.000000,-6000.000000,-6000.000000,Speed,Speed,0.070000,0.800000,0.800000,1.000000,102.000000,1,0,-0.000000,0.000000,1,0.000000,0.001053,0.000000,-19.100830,40.889816,0.000000,0.018000,0.025000,0.011000,FlatInitial,Hold,0
07:20:23.492 PM 02/16/2016,Teleop Enabled,0,FALSE,0,NO ERROR,0.000000,0.000000,-6000.000000,-6000.000000,Speed,Speed,0.080000,0.810000,0.820000,1.000000,102.000000,1,0,-0.000000,0.000000,1,0.000000,-0.001801,0.000000,-19.100830,40.889832,0.000000,0.014000,-0.020000,-0.055000,FlatInitial,Hold,0
07:20:23.592 PM 02/16/2016,Teleop Enabled,0,FALSE,0,NO ERROR,0.000000,0.000000,-6000.000000,-6000.000000,Speed,Speed,0.070000,0.790000,0.800000,1.000000,102.000000,1,0,-0.000000,0.000000,1,0.004059,-0.008759,0.000000,-19.100784,40.889359,0.000000,-0.011000,0.035000,0.040000,FlatInitial,Hold,0
07:20:23.692 PM 02/16/2016,Teleop Enabled,0,FALSE,0,NO ERROR,0.000000,0.000000,-6000.000000,-6000.000000,Speed,Speed,0.070000,0.800000,0.820000,1.000000,104.000000,1,0,-0.000000,0.000000,1,0.001511,0.000000,0.000000,-19.100723,40.889404,0.000000,-0.023000,0.008000,-0.008000,FlatInitial,Hold,0
07:20:23.792 PM 02/16/2016,Teleop Enabled,0,FALSE,0,NO ERROR,0.000000,0.000000,-6000.000000,-6000.000000,Speed,Speed,0.080000,0.780000,0.800000,1.000000,103.000000,1,0,-0.000000,0.000000,1,0.005875,-0.001709,0.000000,-19.100586,40.889221,0.000000,0.003000,0.027000,-0.029000,FlatInitial,Hold,0
07:20:23.892 PM 02/16/2016,Teleop Enabled,0,FALSE,0,NO ERROR,0.000000,0.000000,-6000.000000,-6000.000000,Speed,Speed,0.080000,0.780000,0.810000,1.000000,102.000000,1,0,-0.000000,0.000000,1,-0.001053,0.016357,0.000000,-19.100540,40.889481,0.000000,-0.019000,-0.037000,0.015000,FlatInitial,Hold,0
07:20:23.992 PM 02/16/2016,Teleop Enabled,0,FALSE,0,NO ERROR,0.000000,0.000000,-6000.000000,-6000.000000,Speed,Speed,0.080000,0.780000,0.820000,1.000000,101.000000,1,0,-0.000000,0.000000,1,0.000000,0.019226,0.000000,-19.100571,40.890396,0.000000,0.002000,0.014000,-0.032000,FlatInitial,Hold,0
07:20:24.092 PM 02/16/2016,Teleop Enabled,0,FALSE,0,NO ERROR,0.000000,0.000000,-6000.000000,-6000.000000,Speed,Speed,0.080000,0.780000,0.830000,1.000000,102.000000,1,0,-0.000000,0.000000,1,-0.003815,0.017410,0.000000,-19.100677,40.891403,0.000000,0.006000,0.012000,-0.017000,FlatInitial,Hold,0
07:20:24.192 PM 02/16/2016,Teleop Enabled,0,FALSE,0,NO ERROR,0.000000,0.000000,-6000.000000,-6000.000000,Speed,Speed,0.080000,0.790000,0.840000,1.000000,101.000000,1,0,-0.000000,0.000000,1,0.000000,0.014236,0.000000,-19.100693,40.892105,0.000000,0.005000,-0.041000,0.003000,FlatInitial,Hold,0
07:20:24.292 PM 02/16/2016,Teleop Enabled,0,FALSE,0,NO ERROR,0.000000,0.000000,-6000.000000,-6000.000000,Speed,Speed,0.080000,0.780000,0.820000,1.000000,102.000000,1,0,-0.000000,0.000000,1,-0.005600,0.012024,0.000000,-19.100784,40.892792,0.000000,0.015000,0.038000,-0.008000,FlatInitial,Hold,0
07:20:24.392 PM 02/16/2016,Teleop Enabled,0,FALSE,0,NO ERROR,0.000000,0.000000,-6000.000000,-6000.000000,Speed,Speed,0.080000,0.780000,0.820000,1.000000,102.000000,1,0,-0.000000,0.000000,1,-0.008743,0.012344,0.000000,-19.101013,40.893967,0.000000,-0.009000,-0.017000,0.022000,FlatInitial,Hold,0
07:20:24.492 PM 02/16/2016,Teleop Enabled,0,FALSE,0,NO ERROR,0.000000,0.000000,-6000.000000,-6000.000000,Speed,Speed,0.080000,0.790000,0.870000,1.000000,102.000000,1,0,-0.000000,0.000000,1,-0.005051,0.016006,0.000000,-19.101074,40.894547,0.000000,-0.014000,-0.045000,-0.004000,FlatInitial,Hold,0
07:20:24.593 PM 02/16/2016,Teleop Enabled,0,FALSE,0,NO ERROR,0.000000,0.000000,-6000.000000,-6000.000000,Speed,Speed,0.090000,0.780000,0.800000,1.000000,107.000000,1,0,-0.000000,0.000000,1,0.000000,-0.014954,0.000000,-19.101196,40.894470,0.000000,-0.009000,-0.029000,0.016000,FlatInitial,Hold,0
07:20:24.693 PM 02/16/2016,Teleop Enabled,0,FALSE,0,NO ERROR,0.000000,0.000000,-6000.000000,-6000.000000,Speed,Speed,0.090000,0.780000,0.790000,1.000000,103.000000,1,0,-0.000000,0.000000,1,-0.003891,-0.010788,0.000000,-19.101273,40.894073,0.000000,0.007000,0.000000,0.022000,FlatInitial,Hold,0
07:20:24.793 PM 02/16/2016,Teleop Enabled,0,FALSE,0,NO ERROR,0.000000,0.000000,-6000.000000,-6000.000000,Speed,Speed,0.090000,0.780000,0.790000,1.000000,101.000000,1,0,-0.000000,0.000000,1,-0.001648,-0.001358,0.000000,-19.101425,40.893997,0.000000,-0.034000,-0.024000,0.022000,FlatInitial,Hold,0
07:20:24.893 PM 02/16/2016,Teleop Enabled,0,FALSE,0,NO ERROR,0.000000,0.000000,-6000.000000,-6000.000000,Speed,Speed,0.080000,0.800000,0.810000,1.000000,101.000000,1,0,-0.000000,0.000000,1,0.000000,0.012390,0.000000,-19.101456,40.894318,0.000000,-0.011000,0.008000,0.026000,FlatInitial,Hold,0
07:20:24.993 PM 02/16/2016,Teleop Enabled,0,FALSE,0,NO ERROR,0.000000,0.000000,-6000.000000,-6000.000000,Speed,Speed,0.080000,0.790000,0.730000,1.000000,101.000000,1,0,-0.000000,0.000000,1,0.000000,-0.018936,0.000000,-19.101456,40.893814,0.000000,-0.001000,-0.015000,-0.027000,FlatInitial,Hold,0
07:20:25.093 PM 02/16/2016,Teleop Enabled,0,FALSE,0,NO ERROR,0.000000,0.000000,-6000.000000,-6000.000000,Speed,Speed,0.100000,0.790000,0.720000,1.000000,101.000000,1,0,-0.000000,0.000000,1,0.000000,-0.017731,0.000000,-19.101456,40.892868,0.000000,0.018000,0.022000,0.008000,FlatInitial,Hold,0
07:20:25.193 PM 02/16/2016,Teleop Enabled,0,FALSE,0,NO ERROR,0.000000,0.000000,-6000.000000,-6000.000000,Speed,Speed,0.090000,0.790000,0.740000,1.000000,101.000000,1,0,-0.000000,0.000000,1,0.000000,-0.010544,0.000000,-19.101456,40.892212,0.000000,-0.007000,-0.004000,-0.028000,FlatInitial,Hold,0
07:20:25.293 PM 02/16/2016,Teleop Enabled,0,FALSE,0,NO ERROR,0.000000,0.000000,-6000.000000,-6000.000000,Speed,Speed,0.100000,0.790000,0.750000,1.000000,101.000000,1,0,-0.000000,0.000000,1,0.000000,-0.003464,0.000000,-19.101456,40.891907,0.000000,0.003000,-0.009000,-0.036000,FlatInitial,Hold,0
07:20:25.393 PM 02/16/2016,Teleop Enabled,0,FALSE,0,NO ERROR,0.000000,0.000000,-6000.000000,-6000.000000,Speed,Speed,0.090000,0.780000,0.780000,1.000000,101.000000,1,0,-0.000000,0.000000,1,-0.011520,0.003189,0.000000,-19.101654,40.891891,0.000000,-0.008000,0.028000,0.001000,FlatInitial,Hold,0
07:20:25.493 PM 02/16/2016,Teleop Enabled,0,FALSE,0,NO ERROR,0.000000,0.000000,-6000.000000,-6000.000000,Speed,Speed,0.090000,0.780000,0.780000,1.000000,101.000000,1,0,-0.000000,0.000000,1,-0.017670,0.002960,0.000000,-19.102600,40.892075,0.000000,-0.045000,-0.012000,0.040000,FlatInitial,Hold,0
07:20:25.593 PM 02/16/2016,Teleop Enabled,0,FALSE,0,NO ERROR,0.000000,0.000000,-6000.000000,-6000.000000,Speed,Speed,0.090000,0.800000,0.790000,1.000000,102.000000,1,0,-0.000000,0.000000,1,-0.017670,0.002960,0.000000,-19.102600,40.892075,0.000000,-0.045000,-0.012000,0.040000,FlatInitial,Hold,0
07:20:25.693 PM 02/16/2016,Teleop Enabled,0,FALSE,0,NO ERROR,0.000000,0.000000,-6000.000000,-6000.000000,Speed,Speed,0.110000,0.780000,0.820000,1.000000,105.000000,1,0,-0.000000,0.000000,1,0.000000,-0.004364,0.000000,-19.103333,40.891983,0.000000,0.007000,-0.007000,-0.007000,FlatInitial,Hold,0
07:20:25.793 PM 02/16/2016,Teleop Enabled,0,FALSE,0,NO ERROR,0.000000,0.000000,-6000.000000,-6000.000000,Speed,Speed,0.100000,0.790000,0.820000,1.000000,100.000000,1,0,-0.000000,0.000000,1,-0.003479,0.000000,0.000000,-19.103989,40.892212,0.000000,0.026000,0.008000,0.005000,FlatInitial,Hold,0
07:20:25.893 PM 02/16/2016,Teleop Enabled,0,FALSE,0,NO ERROR,0.000000,0.000000,-6000.000000,-6000.000000,Speed,Speed,0.120000,0.790000,0.810000,1.000000,104.000000,1,0,-0.000000,0.000000,1,-0.003479,0.000000,0.000000,-19.103989,40.892212,0.000000,0.024000,0.010000,-0.025000,FlatInitial,Hold,0
07:20:25.995 PM 02/16/2016,Teleop Enabled,0,FALSE,0,NO ERROR,0.000000,0.000000,-6000.000000,-6000.000000,Speed,Speed,0.100000,0.790000,0.800000,1.000000,101.000000,1,0,-0.000000,0.000000,1,0.000000,-0.003616,0.000000,-19.104065,40.892166,0.000000,0.010000,-0.002000,-0.014000,FlatInitial,Hold,0
07:20:26.094 PM 02/16/2016,Teleop Enabled,0,FALSE,0,NO ERROR,0.000000,0.000000,-6000.000000,-6000.000000,Speed,Speed,0.100000,0.790000,0.800000,1.000000,102.000000,1,0,-0.000000,0.000000,1,0.000000,0.000000,0.000000,-19.104141,40.892105,0.000000,0.006000,0.016000,-0.014000,FlatInitial,Hold,0
07:20:26.194 PM 02/16/2016,Teleop Enabled,0,FALSE,0,NO ERROR,0.000000,0.000000,-6000.000000,-6000.000000,Speed,Speed,0.110000,0.790000,0.810000,1.000000,101.000000,1,0,-0.000000,0.000000,1,-0.003082,0.000000,0.000000,-19.104172,40.892105,0.000000,0.005000,0.000000,-0.017000,FlatInitial,Hold,0
07:20:26.294 PM 02/16/2016,Teleop Enabled,0,FALSE,0,NO ERROR,0.000000,0.000000,-6000.000000,-6000.000000,Speed,Speed,0.100000,0.790000,0.820000,1.000000,101.000000,1,0,-0.000000,0.000000,1,0.000000,0.005112,0.000000,-19.104187,40.892242,0.000000,-0.016000,-0.009000,-0.016000,FlatInitial,Hold,0
07:20:26.394 PM 02/16/2016,Teleop Enabled,0,FALSE,0,NO ERROR,0.000000,0.000000,-6000.000000,-6000.000000,Speed,Speed,0.100000,0.790000,0.820000,1.000000,101.000000,1,0,-0.000000,0.000000,1,0.000000,0.003494,0.000000,-19.104187,40.892303,0.000000,-0.006000,-0.013000,0.028000,FlatInitial,Hold,0
07:20:26.494 PM 02/16/2016,Teleop Enabled,0,FALSE,0,NO ERROR,0.000000,0.000000,-6000.000000,-6000.000000,Speed,Speed,0.100000,0.790000,0.800000,1.000000,103.000000,1,0,-0.000000,0.000000,1,0.000000,-0.000244,0.000000,-19.104187,40.892380,0.000000,0.012000,0.021000,0.013000,FlatInitial,Hold,0
07:20:26.596 PM 02/16/2016,Teleop Enabled,0,FALSE,0,NO ERROR,0.000000,0.000000,-6000.000000,-6000.000000,Speed,Speed,0.100000,0.780000,0.800000,1.000000,101.000000,1,0,-0.000000,0.000000,1,-0.001373,0.000000,0.000000,-19.104340,40.892548,0.000000,0.014000,0.003000,0.006000,FlatInitial,Hold,0
07:20:26.696 PM 02/16/2016,Teleop Enabled,0,FALSE,0,NO ERROR,0.000000,0.000000,-6000.000000,-6000.000000,Speed,Speed,0.100000,0.780000,0.790000,1.000000,102.000000,1,0,-0.000000,0.000000,1,-0.001373,0.000000,0.000000,-19.104340,40.892548,0.000000,0.018000,0.003000,-0.047000,FlatInitial,Hold,0
07:20:26.796 PM 02/16/2016,Teleop Enabled,0,FALSE,0,NO ERROR,0.000000,0.000000,-6000.000000,-6000.000000,Speed,Speed,0.100000,0.780000,0.780000,1.000000,105.000000,1,0,-0.000000,0.000000,1,0.005341,-0.005280,0.000000,-19.104263,40.892456,0.000000,0.013000,-0.016000,-0.006000,FlatInitial,Hold,0
07:20:26.897 PM 02/16/2016,Teleop Enabled,0,FALSE,0,NO ERROR,0.000000,0.000000,-6000.000000,-6000.000000,Speed,Speed,0.090000,0.780000,0.790000,1.000000,101.000000,1,0,-0.000000,0.000000,1,0.000275,0.000000,0.000000,-19.104218,40.892471,0.000000,-0.010000,0.002000,0.022000,FlatInitial,Hold,0
07:20:26.997 PM 02/16/2016,Teleop Enabled,0,FALSE,0,NO ERROR,0.000000,0.000000,-6000.000000,-6000.000000,Speed,Speed,0.090000,0.780000,0.790000,1.000000,102.000000,1,0,-0.000000,0.000000,1,0.000000,0.000900,0.000000,-19.104187,40.892441,0.000000,-0.019000,0.025000,0.006000,FlatInitial,Hold,0
07:20:27.099 PM 02/16/2016,Teleop Enabled,0,FALSE,0,NO ERROR,0.000000,0.000000,-6000.000000,-6000.000000,Speed,Speed,0.100000,0.790000,0.800000,1.000000,101.000000,1,0,-0.000000,0.000000,1,-0.002106,0.000000,0.000000,-19.104218,40.892548,0.000000,0.018000,0.000000,-0.030000,FlatInitial,Hold,0
07:20:27.199 PM 02/16/2016,Teleop Enabled,0,FALSE,0,NO ERROR,0.000000,0.000000,-6000.000000,-6000.000000,Speed,Speed,0.100000,0.780000,0.800000,1.000000,101.000000,1,0,-0.000000,0.000000,1,-0.003387,0.015488,0.000000,-19.104279,40.892929,0.000000,-0.022000,-0.001000,0.028000,FlatInitial,Hold,0
07:20:27.299 PM 02/16/2016,Teleop Enabled,0,FALSE,0,NO ERROR,0.000000,0.000000,-6000.000000,-6000.000000,Speed,Speed,0.110000,0.780000,0.800000,1.000000,102.000000,1,0,-0.000000,0.000000,1,0.000000,0.007538,0.000000,-19.104492,40.893219,0.000000,-0.012000,0.008000,0.035000,FlatInitial,Hold,0
07:20:27.399 PM 02/16/2016,Teleop Enabled,0,FALSE,0,NO ERROR,0.000000,0.000000,-6000.000000,-6000.000000,Speed,Speed,0.110000,0.770000,0.800000,1.000000,101.000000,1,0,-0.000000,0.000000,1,0.000000,-0.008545,0.000000,-19.104492,40.893173,0.000000,0.014000,0.008000,-0.015000,FlatInitial,Hold,0
07:20:27.499 PM 02/16/2016,Teleop Enabled,0,FALSE,0,NO ERROR,0.000000,0.000000,-6000.000000,-6000.000000,Speed,Speed,0.120000,0.770000,0.800000,1.000000,103.000000,1,0,-0.000000,0.000000,1,0.000000,0.000000,0.000000,-19.104492,40.893005,0.000000,-0.008000,0.013000,0.027000,FlatInitial,Hold,0
07:20:27.599 PM 02/16/2016,Teleop Enabled,0,FALSE,0,NO ERROR,0.000000,0.000000,-6000.000000,-6000.000000,Speed,Speed,0.120000,0.770000,0.810000,1.000000,101.000000,1,0,-0.000000,0.000000,1,0.000000,0.000000,0.000000,-19.104492,40.893005,0.000000,-0.010000,-0.007000,0.023000,FlatInitial,Hold,0
07:20:27.700 PM 02/16/2016,Teleop Enabled,0,FALSE,0,NO ERROR,0.000000,0.000000,-6000.000000,-6000.000000,Speed,Speed,0.110000,0.770000,0.810000,1.000000,100.000000,1,0,-0.000000,0.000000,1,0.000000,0.010941,0.000000,-19.104370,40.893158,0.000000,-0.003000,0.018000,0.023000,FlatInitial,Hold,0
07:20:27.801 PM 02/16/2016,Teleop Enabled,0,FALSE,0,NO ERROR,0.000000,0.000000,-6000.000000,-6000.000000,Speed,Speed,0.110000,0.780000,0.820000,1.000000,102.000000,1,0,-0.000000,0.000000,1,0.001556,0.007599,0.000000,-19.104431,40.893509,0.000000,0.008000,-0.002000,0.010000,FlatInitial,Hold,0
07:20:27.901 PM 02/16/2016,Teleop Enabled,0,FALSE,0,NO ERROR,0.000000,0.000000,-6000.000000,-6000.000000,Speed,Speed,0.120000,0.780000,0.820000,1.000000,101.000000,1,0,-0.000000,0.000000,1,0.000000,0.019089,0.000000,-19.104431,40.894135,0.000000,-0.001000,-0.026000,-0.016000,FlatInitial,Hold,0
07:20:28.002 PM 02/16/2016,Teleop Enabled,0,FALSE,0,NO ERROR,0.000000,0.000000,-6000.000000,-6000.000000,Speed,Speed,0.110000,0.770000,0.820000,1.000000,101.000000,1,0,-0.000000,0.000000,1,0.000000,0.017426,0.000000,-19.104431,40.895020,0.000000,-0.007000,-0.003000,-0.022000,FlatInitial,Hold,0
07:20:28.102 PM 02/16/2016,Teleop Enabled,0,FALSE,0,NO ERROR,0.000000,0.000000,-6000.000000,-6000.000000,Speed,Speed,0.120000,0.770000,0.820000,1.000000,102.000000,1,0,-0.000000,0.000000,1,0.000000,0.006531,0.000000,-19.104431,40.895126,0.000000,-0.017000,0.004000,0.005000,FlatInitial,Hold,0
07:20:28.203 PM 02/16/2016,Teleop Enabled,0,FALSE,0,NO ERROR,0.000000,0.000000,-6000.000000,-6000.000000,Speed,Speed,0.120000,0.770000,0.810000,1.000000,104.000000,1,0,-0.000000,0.000000,1,0.000000,-0.006058,0.000000,-19.104431,40.894989,0.000000,-0.002000,0.026000,-0.003000,FlatInitial,Hold,0
07:20:28.303 PM 02/16/2016,Teleop Enabled,0,FALSE,0,NO ERROR,0.000000,0.000000,-6000.000000,-6000.000000,Speed,Speed,0.110000,0.780000,0.810000,1.000000,101.000000,1,0,-0.000000,0.000000,1,0.000000,0.009048,0.000000,-19.104431,40.895432,0.000000,0.009000,-0.012000,0.002000,FlatInitial,Hold,0
07:20:28.403 PM 02/16/2016,Teleop Enabled,0,FALSE,0,NO ERROR,0.000000,0.000000,-6000.000000,-6000.000000,Speed,Speed,0.110000,0.780000,0.820000,1.000000,102.000000,1,0,-0.000000,0.000000,1,0.000000,0.000870,0.000000,-19.104431,40.895401,0.000000,0.001000,0.017000,0.006000,FlatInitial,Hold,0
