Time,RobotMode,AutoToRun,ErrorStatus, ErrorCode,ErrorSource,ActualRPM1,ActualRPM2,DesiredRPM1,DesiredRPM2,ControlMode1,ControlMode2,NavXYaw,NavXRoll,NavXPitch,ShooterState,LoopTime,IsLevel,IsAutoTargeting,LeftMotorOutput,RightMotorOutput,IsHaloDrive,NavXVelocityX,NavXVelocityY,NavXVelocityZ,NavXDisplacementX,NavXDisplacementY,NavXDisplacementZ,NavXAccelerationX,NavXAccelerationY,NavXAccelerationZ,AutoDefendState,AngeMotorState,Photoeye
07:13:50.984 PM 02/16/2016,Teleop Enabled,0,TRUE,91,Variant To Data in WPI_DigitalInputRefNum Registry Get.vi->Periodic Tasks.vi->Robot Main.vi,0.000000,0.000000,0.000000,0.000000,Speed,Speed,-0.010000,0.830000,0.830000,0.000000,100.000000,1,0,-0.000000,0.000000,1,0.000000,0.000000,0.000000,-19.115692,40.993713,0.000000,0.000000,0.000000,0.000000,FlatInitial,ResetBack,0
07:13:51.084 PM 02/16/2016,Teleop Enabled,0,TRUE,-44007,<LOCATION>WPI_DigitalInputRefNum Registry Get.vi<CALLSTACK>WPI_DigitalInputRefNum Registry Get.vi< <Periodic Tasks.vi< <Robot Main.vi,0.000000,0.000000,0.000000,0.000000,Speed,Speed,-0.010000,0.850000,0.810000,0.000000,101.000000,1,0,-0.000000,0.000000,1,-0.013184,0.000000,0.000000,-19.115936,40.993713,0.000000,-0.007000,-0.006000,0.006000,FlatInitial,ResetBack,0
07:13:51.185 PM 02/16/2016,Teleop Enabled,0,FALSE,0,NO ERROR,0.000000,0.000000,0.000000,0.000000,Speed,Speed,0.000000,0.820000,0.880000,0.000000,102.000000,1,0,-0.000000,0.000000,1,0.000000,-0.013870,0.000000,-19.115936,40.993439,0.000000,0.004000,-0.011000,0.014000,FlatInitial,ResetBack,0
07:13:51.285 PM 02/16/2016,Teleop Enabled,0,FALSE,0,NO ERROR,0.000000,0.000000,0.000000,0.000000,Speed,Speed,0.000000,0.830000,0.820000,0.000000,101.000000,1,0,-0.000000,0.000000,1,0.000000,0.000000,0.000000,-19.115936,40.993439,0.000000,0.020000,-0.002000,-0.003000,FlatInitial,ResetBack,0
07:13:51.385 PM 02/16/2016,Teleop Enabled,0,FALSE,0,NO ERROR,0.000000,0.000000,0.000000,0.000000,Speed,Speed,-0.020000,0.820000,0.880000,0.000000,102.000000,1,0,-0.000000,0.000000,1,-0.002487,0.000000,0.000000,-19.115784,40.993439,0.000000,-0.007000,-0.008000,0.000000,FlatInitial,ResetBack,0
07:13:51.485 PM 02/16/2016,Teleop Enabled,0,FALSE,0,NO ERROR,0.000000,0.000000,0.000000,0.000000,Speed,Speed,-0.010000,0.830000,0.840000,0.000000,101.000000,1,0,-0.000000,0.000000,1,0.000000,0.000000,0.000000,-19.115723,40.993439,0.000000,0.010000,0.012000,-0.046000,FlatInitial,ResetBack,0
07:13:51.586 PM 02/16/2016,Teleop Enabled,0,FALSE,0,NO ERROR,0.000000,0.000000,0.000000,0.000000,Speed,Speed,0.000000,0.830000,0.870000,0.000000,103.000000,1,0,-0.000000,0.000000,1,0.000000,-0.002197,0.000000,-19.115845,40.993423,0.000000,0.011000,-0.018000,0.011000,FlatInitial,ResetBack,0
07:13:51.686 PM 02/16/2016,Teleop Enabled,0,FALSE,0,NO ERROR,0.000000,0.000000,0.000000,0.000000,Speed,Speed,-0.010000,0.830000,0.860000,0.000000,101.000000,1,0,-0.000000,0.000000,1,0.000000,0.000000,0.000000,-19.115982,40.993286,0.000000,0.008000,0.005000,0.004000,FlatInitial,ResetBack,0
07:13:51.787 PM 02/16/2016,Teleop Enabled,0,FALSE,0,NO ERROR,0.000000,0.000000,0.000000,0.000000,Speed,Speed,-0.010000,0.830000,0.870000,0.000000,102.000000,1,0,-0.000000,0.000000,1,0.000000,0.000000,0.000000,-19.115982,40.993286,0.000000,0.001000,-0.001000,-0.005000,FlatInitial,ResetBack,0
07:13:51.887 PM 02/16/2016,Teleop Enabled,0,FALSE,0,NO ERROR,0.000000,0.000000,-6000.000000,-6000.000000,Speed,Speed,-0.020000,0.850000,0.870000,1.000000,102.000000,1,0,-0.000000,0.000000,1,0.000000,0.000000,0.000000,-19.115982,40.993286,0.000000,0.004000,-0.009000,0.011000,FlatInitial,ResetBack,0
07:13:51.989 PM 02/16/2016,Teleop Enabled,0,FALSE,0,NO ERROR,0.000000,0.000000,-6000.000000,-6000.000000,Speed,Speed,-0.010000,0.840000,0.850000,1.000000,102.000000,1,0,-0.000000,0.000000,1,0.000000,0.000000,0.000000,-19.115982,40.993286,0.000000,0.008000,-0.002000,0.022000,FlatInitial,ResetBack,0
07:13:52.090 PM 02/16/2016,Teleop Enabled,0,FALSE,0,NO ERROR,0.000000,0.000000,-6000.000000,-6000.000000,Speed,Speed,-0.010000,0.820000,0.870000,1.000000,103.000000,1,0,-0.000000,0.000000,1,0.000000,0.000000,0.000000,-19.115982,40.993286,0.000000,0.003000,-0.006000,0.013000,FlatInitial,ResetBack,0
07:13:52.191 PM 02/16/2016,Teleop Enabled,0,FALSE,0,NO ERROR,0.000000,0.000000,-6000.000000,-6000.000000,Speed,Speed,-0.010000,0.830000,0.890000,1.000000,102.000000,1,0,-0.000000,0.000000,1,0.000000,0.000000,0.000000,-19.115982,40.993286,0.000000,-0.007000,-0.002000,-0.001000,FlatInitial,ResetBack,0
07:13:52.292 PM 02/16/2016,Teleop Enabled,0,FALSE,0,NO ERROR,0.000000,0.000000,-6000.000000,-6000.000000,Speed,Speed,-0.010000,0.820000,0.880000,1.000000,103.000000,1,0,-0.000000,0.000000,1,0.000000,0.000000,0.000000,-19.115982,40.993286,0.000000,0.000000,0.008000,0.000000,FlatInitial,ResetBack,0
07:13:52.394 PM 02/16/2016,Teleop Enabled,0,FALSE,0,NO ERROR,0.000000,0.000000,-6000.000000,-6000.000000,Speed,Speed,-0.010000,0.810000,0.900000,1.000000,101.000000,1,0,-0.000000,0.000000,1,0.000000,0.000000,0.000000,-19.115982,40.993286,0.000000,0.005000,0.003000,0.008000,FlatInitial,ResetBack,0
07:13:52.494 PM 02/16/2016,Teleop Enabled,0,FALSE,0,NO ERROR,0.000000,0.000000,-6000.000000,-6000.000000,Speed,Speed,-0.030000,0.830000,0.870000,1.000000,102.000000,1,0,-0.000000,0.000000,1,0.000000,0.000000,0.000000,-19.115982,40.993286,0.000000,-0.003000,0.008000,0.003000,FlatInitial,ResetBack,0
07:13:52.594 PM 02/16/2016,Teleop Enabled,0,FALSE,0,NO ERROR,0.000000,0.439453,-6000.000000,-6000.000000,Speed,Speed,-0.050000,0.860000,0.860000,1.000000,101.000000,1,0,-0.000000,0.000000,1,0.000000,0.000000,0.000000,-19.115982,40.993286,0.000000,-0.005000,0.016000,0.002000,FlatInitial,ResetBack,0
07:13:52.695 PM 02/16/2016,Teleop Enabled,0,FALSE,0,NO ERROR,0.000000,0.000000,-6000.000000,-6000.000000,Speed,Speed,-0.040000,0.850000,0.910000,1.000000,101.000000,1,0,-0.000000,0.000000,1,0.000000,0.000000,0.000000,-19.115982,40.993286,0.000000,-0.005000,-0.012000,0.006000,FlatInitial,ResetBack,0
07:13:52.795 PM 02/16/2016,Teleop Enabled,0,FALSE,0,NO ERROR,0.000000,0.000000,-6000.000000,-6000.000000,Speed,Speed,-0.060000,0.860000,0.850000,1.000000,102.000000,1,0,-0.000000,0.000000,1,0.000000,0.000000,0.000000,-19.115982,40.993286,0.000000,0.007000,0.008000,0.000000,FlatInitial,ResetBack,0
07:13:52.895 PM 02/16/2016,Teleop Enabled,0,FALSE,0,NO ERROR,0.000000,0.000000,-6000.000000,-6000.000000,Speed,Speed,-0.050000,0.860000,0.890000,1.000000,101.000000,1,0,-0.000000,0.000000,1,0.000000,0.000000,0.000000,-19.115982,40.993423,0.000000,0.000000,-0.006000,0.008000,FlatInitial,ResetBack,0
07:13:52.995 PM 02/16/2016,Teleop Enabled,0,FALSE,0,NO ERROR,0.000000,0.000000,-6000.000000,-6000.000000,Speed,Speed,-0.050000,0.850000,0.870000,1.000000,103.000000,1,0,-0.000000,0.000000,1,0.000000,0.000000,0.000000,-19.115982,40.993423,0.000000,-0.001000,0.004000,0.000000,FlatInitial,ResetBack,0
07:13:53.095 PM 02/16/2016,Teleop Enabled,0,FALSE,0,NO ERROR,0.000000,0.000000,-6000.000000,-6000.000000,Speed,Speed,-0.060000,0.860000,0.910000,1.000000,102.000000,1,0,-0.000000,0.000000,1,0.000000,0.000000,0.000000,-19.115982,40.993423,0.000000,-0.010000,0.003000,0.003000,FlatInitial,ResetBack,0
07:13:53.195 PM 02/16/2016,Teleop Enabled,0,FALSE,0,NO ERROR,0.000000,0.000000,-6000.000000,-6000.000000,Speed,Speed,-0.030000,0.820000,0.990000,1.000000,103.000000,1,0,-0.000000,0.000000,1,0.005051,-0.000183,0.000000,-19.115921,40.993576,0.000000,0.018000,-0.023000,0.051000,FlatInitial,ResetBack,0
07:13:53.295 PM 02/16/2016,Teleop Enabled,0,FALSE,0,NO ERROR,0.000000,0.000000,-6000.000000,-6000.000000,Speed,Speed,-0.110000,0.870000,0.850000,1.000000,101.000000,1,0,-0.000000,0.000000,1,0.000000,0.000000,0.000000,-19.115829,40.993378,0.000000,-0.006000,0.009000,-0.004000,FlatInitial,ResetBack,0
07:13:53.395 PM 02/16/2016,Teleop Enabled,0,FALSE,0,NO ERROR,0.000000,0.000000,-6000.000000,-6000.000000,Speed,Speed,-0.180000,0.850000,0.920000,1.000000,101.000000,1,0,-0.000000,0.000000,1,0.000000,-0.002975,0.000000,-19.115829,40.993500,0.000000,0.005000,-0.008000,0.010000,FlatInitial,ResetBack,0
07:13:53.496 PM 02/16/2016,Teleop Enabled,0,FALSE,0,NO ERROR,0.000000,0.146484,-6000.000000,-6000.000000,Speed,Speed,-0.310000,0.870000,0.880000,1.000000,101.000000,1,0,-0.000000,0.000000,1,0.000000,-0.002701,0.000000,-19.115829,40.993256,0.000000,-0.005000,-0.006000,0.007000,FlatInitial,ResetBack,1
07:13:53.596 PM 02/16/2016,Teleop Enabled,0,FALSE,0,NO ERROR,0.000000,0.000000,-6000.000000,-6000.000000,Speed,Speed,-0.380000,0.870000,0.870000,1.000000,101.000000,1,0,-0.000000,0.000000,1,0.000000,0.013611,0.000000,-19.115997,40.993515,0.000000,0.003000,0.009000,-0.039000,FlatInitial,ResetForward,1
07:13:53.696 PM 02/16/2016,Teleop Enabled,0,FALSE,0,NO ERROR,0.000000,0.585938,-6000.000000,-6000.000000,Speed,Speed,-0.340000,0.870000,0.900000,1.000000,101.000000,1,0,-0.000000,0.000000,1,0.000000,-0.005554,0.000000,-19.115997,40.993591,0.000000,-0.007000,-0.047000,0.008000,FlatInitial,ResetForward,1
07:13:53.797 PM 02/16/2016,Teleop Enabled,0,FALSE,0,NO ERROR,0.000000,13.769531,-6000.000000,-6000.000000,Speed,Speed,-0.300000,0.840000,0.780000,1.000000,101.000000,1,0,-0.000000,0.000000,1,0.000000,-0.064819,0.000000,-19.115997,40.991226,0.000000,0.006000,-0.012000,0.014000,FlatInitial,ResetForward,1
07:13:53.897 PM 02/16/2016,Teleop Enabled,0,FALSE,0,NO ERROR,0.000000,13.769531,-6000.000000,-6000.000000,Speed,Speed,-0.310000,0.870000,0.830000,1.000000,101.000000,1,0,-0.000000,0.000000,1,0.000000,0.000000,0.000000,-19.116104,40.988983,0.000000,0.010000,0.012000,0.014000,FlatInitial,ResetForward,0
07:13:53.998 PM 02/16/2016,Teleop Enabled,0,FALSE,0,NO ERROR,0.000000,2.636719,-6000.000000,-6000.000000,Speed,Speed,-0.290000,0.830000,0.840000,1.000000,101.000000,1,0,-0.000000,0.000000,1,0.000000,0.000000,0.000000,-19.116104,40.988983,0.000000,0.000000,0.002000,-0.002000,FlatInitial,Reset,0
07:13:54.098 PM 02/16/2016,Teleop Enabled,0,FALSE,0,NO ERROR,0.000000,0.000000,-6000.000000,-6000.000000,Speed,Speed,-0.300000,0.870000,0.780000,1.000000,101.000000,1,0,-0.000000,0.000000,1,0.000000,-0.007401,0.000000,-19.116104,40.988876,0.000000,-0.012000,-0.016000,0.011000,FlatInitial,Hold,0
07:13:54.198 PM 02/16/2016,Teleop Enabled,0,FALSE,0,NO ERROR,0.000000,0.000000,-6000.000000,-6000.000000,Speed,Speed,-0.290000,0.880000,0.760000,1.000000,101.000000,1,0,-0.000000,0.000000,1,0.000000,0.003479,0.000000,-19.116104,40.988876,0.000000,0.009000,-0.023000,-0.003000,FlatInitial,Hold,0
07:13:54.298 PM 02/16/2016,Teleop Enabled,0,FALSE,0,NO ERROR,0.000000,0.000000,-6000.000000,-6000.000000,Speed,Speed,-0.290000,0.840000,0.790000,1.000000,101.000000,1,0,-0.000000,0.000000,1,0.000000,-0.006805,0.000000,-19.116104,40.988480,0.000000,-0.010000,0.027000,0.013000,FlatInitial,Hold,0
07:13:54.399 PM 02/16/2016,Teleop Enabled,0,FALSE,0,NO ERROR,0.000000,0.000000,-6000.000000,-6000.000000,Speed,Speed,-0.310000,0.900000,0.740000,1.000000,101.000000,1,0,-0.000000,0.000000,1,0.000000,0.001190,0.000000,-19.116104,40.988647,0.000000,0.000000,-0.022000,-0.009000,FlatInitial,Hold,0
07:13:54.499 PM 02/16/2016,Teleop Enabled,0,FALSE,0,NO ERROR,0.000000,0.000000,-6000.000000,-6000.000000,Speed,Speed,-0.300000,0.850000,0.780000,1.000000,101.000000,1,0,-0.000000,0.000000,1,0.000000,-0.005280,0.000000,-19.116104,40.988281,0.000000,0.003000,0.019000,0.001000,FlatInitial,Hold,0
07:13:54.601 PM 02/16/2016,Teleop Enabled,0,FALSE,0,NO ERROR,0.000000,0.000000,-6000.000000,-6000.000000,Speed,Speed,-0.310000,0.860000,0.810000,1.000000,103.000000,1,0,-0.000000,0.000000,1,0.000000,0.000000,0.000000,-19.116104,40.988281,0.000000,-0.005000,-0.004000,0.000000,FlatInitial,Hold,0
07:13:54.702 PM 02/16/2016,Teleop Enabled,0,FALSE,0,NO ERROR,0.000000,0.000000,-6000.000000,-6000.000000,Speed,Speed,-0.300000,0.860000,0.860000,1.000000,101.000000,1,0,-0.000000,0.000000,1,0.000000,0.000000,0.000000,-19.116104,40.988281,0.000000,-0.001000,-0.002000,0.006000,FlatInitial,Hold,0
07:13:54.803 PM 02/16/2016,Teleop Enabled,0,FALSE,0,NO ERROR,0.000000,0.000000,-6000.000000,-6000.000000,Speed,Speed,-0.280000,0.820000,0.940000,1.000000,102.000000,1,0,-0.000000,0.000000,1,0.000000,0.000000,0.000000,-19.116104,40.988281,0.000000,0.000000,-0.002000,0.008000,FlatInitial,Hold,0
07:13:54.903 PM 02/16/2016,Teleop Enabled,0,FALSE,0,NO ERROR,0.000000,0.000000,-6000.000000,-6000.000000,Speed,Speed,-0.250000,0.820000,0.940000,1.000000,101.000000,1,0,-0.000000,0.000000,1,0.000000,0.000000,0.000000,-19.116104,40.988281,0.000000,0.005000,-0.004000,0.002000,FlatInitial,Hold,0
07:13:55.003 PM 02/16/2016,Teleop Enabled,0,FALSE,0,NO ERROR,0.000000,0.000000,-6000.000000,-6000.000000,Speed,Speed,-0.260000,0.810000,0.990000,1.000000,102.000000,1,0,-0.000000,0.000000,1,0.000000,0.000000,0.000000,-19.116104,40.988281,0.000000,-0.006000,0.010000,0.007000,FlatInitial,Hold,0
07:13:55.103 PM 02/16/2016,Teleop Enabled,0,FALSE,0,NO ERROR,0.000000,0.000000,-6000.000000,-6000.000000,Speed,Speed,-0.240000,0.820000,1.020000,1.000000,101.000000,1,0,-0.000000,0.000000,1,0.000000,0.000000,0.000000,-19.116104,40.988281,0.000000,0.000000,0.004000,0.002000,FlatInitial,Hold,0
07:13:55.203 PM 02/16/2016,Teleop Enabled,0,FALSE,0,NO ERROR,0.000000,0.000000,-6000.000000,-6000.000000,Speed,Speed,-0.260000,0.800000,1.030000,1.000000,101.000000,1,0,-0.000000,0.000000,1,0.000000,0.000000,0.000000,-19.116104,40.988281,0.000000,0.001000,0.000000,0.000000,FlatInitial,Hold,0
07:13:55.303 PM 02/16/2016,Teleop Enabled,0,FALSE,0,NO ERROR,0.000000,0.000000,-6000.000000,-6000.000000,Speed,Speed,-0.260000,0.810000,1.020000,1.000000,101.000000,1,0,-0.000000,0.000000,1,0.000000,0.000000,0.000000,-19.116104,40.988281,0.000000,-0.003000,-0.001000,0.006000,FlatInitial,Hold,0
07:13:55.403 PM 02/16/2016,Teleop Enabled,0,FALSE,0,NO ERROR,0.000000,0.000000,-6000.000000,-6000.000000,Speed,Speed,-0.260000,0.810000,1.020000,1.000000,101.000000,1,0,-0.000000,0.000000,1,0.000000,0.000000,0.000000,-19.116104,40.988281,0.000000,0.000000,0.000000,0.002000,FlatInitial,Hold,0
07:13:55.503 PM 02/16/2016,Teleop Enabled,0,FALSE,0,NO ERROR,0.000000,0.000000,-6000.000000,-6000.000000,Speed,Speed,-0.250000,0.810000,1.020000,1.000000,102.000000,1,0,-0.000000,0.000000,1,0.000000,0.000000,0.000000,-19.116104,40.988281,0.000000,0.000000,0.000000,0.001000,FlatInitial,Hold,0
07:13:55.603 PM 02/16/2016,Teleop Enabled,0,FALSE,0,NO ERROR,0.000000,0.000000,-6000.000000,-6000.000000,Speed,Speed,-0.260000,0.800000,1.030000,1.000000,103.000000,1,0,-0.000000,0.000000,1,0.000000,0.000000,0.000000,-19.116104,40.988281,0.000000,-0.004000,-0.001000,0.003000,FlatInitial,Hold,0
07:13:55.704 PM 02/16/2016,Teleop Enabled,0,FALSE,0,NO ERROR,0.000000,0.000000,-6000.000000,-6000.000000,Speed,Speed,-0.260000,0.810000,1.030000,1.000000,101.000000,1,0,-0.000000,0.000000,1,0.000000,0.000000,0.000000,-19.116104,40.988281,0.000000,0.000000,0.000000,0.001000,FlatInitial,Hold,0
07:13:55.804 PM 02/16/2016,Teleop Enabled,0,FALSE,0,NO ERROR,0.000000,0.000000,-6000.000000,-6000.000000,Speed,Speed,-0.260000,0.800000,1.030000,1.000000,101.000000,1,0,-0.000000,0.000000,1,0.000000,0.000000,0.000000,-19.116104,40.988281,0.000000,0.000000,-0.002000,0.005000,FlatInitial,Hold,0
07:13:55.906 PM 02/16/2016,Teleop Enabled,0,FALSE,0,NO ERROR,0.000000,0.000000,-6000.000000,-6000.000000,Speed,Speed,-0.260000,0.810000,1.030000,1.000000,104.000000,1,0,-0.000000,0.000000,1,0.000000,0.000000,0.000000,-19.116104,40.988281,0.000000,0.000000,0.003000,0.004000,FlatInitial,Hold,0
07:13:56.006 PM 02/16/2016,Teleop Enabled,0,FALSE,0,NO ERROR,0.000000,0.000000,-6000.000000,-6000.000000,Speed,Speed,-0.260000,0.810000,1.030000,1.000000,103.000000,1,0,-0.000000,0.000000,1,0.000000,0.000000,0.000000,-19.116104,40.988281,0.000000,0.003000,0.000000,-0.004000,FlatInitial,Hold,0
07:13:56.106 PM 02/16/2016,Teleop Enabled,0,FALSE,0,NO ERROR,0.000000,0.000000,-6000.000000,-6000.000000,Speed,Speed,-0.260000,0.810000,1.040000,1.000000,101.000000,1,0,-0.000000,0.000000,1,0.000000,0.000000,0.000000,-19.116104,40.988281,0.000000,0.000000,-0.002000,0.000000,FlatInitial,Hold,0
07:13:56.206 PM 02/16/2016,Teleop Enabled,0,FALSE,0,NO ERROR,0.000000,0.000000,-6000.000000,-6000.000000,Speed,Speed,-0.260000,0.810000,1.040000,1.000000,101.000000,1,0,-0.000000,0.000000,1,0.000000,0.000000,0.000000,-19.116104,40.988281,0.000000,-0.002000,-0.002000,0.001000,FlatInitial,Hold,0
07:13:56.306 PM 02/16/2016,Teleop Enabled,0,FALSE,0,NO ERROR,0.000000,0.000000,-6000.000000,-6000.000000,Speed,Speed,-0.260000,0.810000,1.040000,1.000000,102.000000,1,0,-0.000000,0.000000,1,0.000000,0.000000,0.000000,-19.116104,40.988281,0.000000,0.000000,0.000000,0.001000,FlatInitial,Hold,0
07:13:56.407 PM 02/16/2016,Teleop Enabled,0,FALSE,0,NO ERROR,0.000000,0.000000,-6000.000000,-6000.000000,Speed,Speed,-0.260000,0.810000,1.040000,1.000000,101.000000,1,0,-0.000000,0.000000,1,0.000000,0.000000,0.000000,-19.116104,40.988281,0.000000,-0.001000,-0.001000,0.006000,FlatInitial,Hold,0
07:13:56.506 PM 02/16/2016,Teleop Enabled,0,FALSE,0,NO ERROR,0.000000,0.000000,-6000.000000,-6000.000000,Speed,Speed,-0.260000,0.810000,1.050000,1.000000,102.000000,1,0,-0.000000,0.000000,1,0.000000,0.000000,0.000000,-19.116104,40.988281,0.000000,-0.002000,0.000000,0.000000,FlatInitial,Hold,0
07:13:56.606 PM 02/16/2016,Teleop Enabled,0,FALSE,0,NO ERROR,0.000000,0.000000,-6000.000000,-6000.000000,Speed,Speed,-0.260000,0.810000,1.040000,1.000000,101.000000,1,0,-0.000000,0.000000,1,0.000000,0.000000,0.000000,-19.116104,40.988281,0.000000,-0.001000,0.004000,0.003000,FlatInitial,Hold,0
07:13:56.706 PM 02/16/2016,Teleop Enabled,0,FALSE,0,NO ERROR,0.000000,0.000000,-6000.000000,-6000.000000,Speed,Speed,-0.260000,0.800000,1.050000,1.000000,101.000000,1,0,-0.000000,0.000000,1,0.000000,0.000000,0.000000,-19.116104,40.988281,0.000000,-0.002000,0.000000,0.002000,FlatInitial,Hold,0
07:13:56.806 PM 02/16/2016,Teleop Enabled,0,FALSE,0,NO ERROR,0.000000,0.000000,-6000.000000,-6000.000000,Speed,Speed,-0.260000,0.800000,1.040000,1.000000,101.000000,1,0,-0.000000,0.000000,1,0.000000,0.000000,0.000000,-19.116104,40.988281,0.000000,0.000000,0.000000,0.005000,FlatInitial,Hold,0
07:13:56.907 PM 02/16/2016,Teleop Enabled,0,FALSE,0,NO ERROR,0.000000,0.000000,-6000.000000,-6000.000000,Speed,Speed,-0.260000,0.790000,1.050000,1.000000,101.000000,1,0,-0.000000,0.000000,1,0.000000,0.000000,0.000000,-19.116104,40.988281,0.000000,0.000000,0.000000,0.002000,FlatInitial,Hold,0
07:13:57.007 PM 02/16/2016,Teleop Enabled,0,FALSE,0,NO ERROR,0.000000,0.000000,-6000.000000,-6000.000000,Speed,Speed,-0.260000,0.790000,1.050000,1.000000,102.000000,1,0,-0.000000,0.000000,1,0.000000,0.000000,0.000000,-19.116104,40.988281,0.000000,0.002000,0.001000,0.006000,FlatInitial,Hold,0
07:13:57.107 PM 02/16/2016,Teleop Enabled,0,FALSE,0,NO ERROR,0.000000,0.000000,-6000.000000,-6000.000000,Speed,Speed,-0.260000,0.790000,1.050000,1.000000,102.000000,1,0,-0.000000,0.000000,1,0.000000,0.000000,0.000000,-19.116104,40.988281,0.000000,-0.001000,-0.001000,0.003000,FlatInitial,Hold,0
07:13:57.207 PM 02/16/2016,Teleop Enabled,0,FALSE,0,NO ERROR,0.000000,0.000000,-6000.000000,-6000.000000,Speed,Speed,-0.260000,0.800000,1.050000,1.000000,102.000000,1,0,-0.000000,0.000000,1,0.000000,0.000000,0.000000,-19.116104,40.988281,0.000000,0.001000,0.002000,0.005000,FlatInitial,Hold,0
07:13:57.307 PM 02/16/2016,Teleop Enabled,0,FALSE,0,NO ERROR,0.000000,0.000000,-6000.000000,-6000.000000,Speed,Speed,-0.260000,0.800000,1.050000,1.000000,101.000000,1,0,-0.000000,0.000000,1,0.000000,0.000000,0.000000,-19.116104,40.988281,0.000000,0.001000,-0.001000,0.002000,FlatInitial,Hold,0
07:13:57.407 PM 02/16/2016,Teleop Enabled,0,FALSE,0,NO ERROR,0.000000,0.000000,-6000.000000,-6000.000000,Speed,Speed,-0.260000,0.810000,1.050000,1.000000,101.000000,1,0,-0.000000,0.000000,1,0.000000,0.000000,0.000000,-19.116104,40.988281,0.000000,0.001000,-0.001000,0.000000,FlatInitial,Hold,0
07:13:57.507 PM 02/16/2016,Teleop Enabled,0,FALSE,0,NO ERROR,0.000000,0.000000,-6000.000000,-6000.000000,Speed,Speed,-0.260000,0.800000,1.050000,1.000000,100.000000,1,0,-0.000000,0.000000,1,0.000000,0.000000,0.000000,-19.116104,40.988281,0.000000,0.000000,0.000000,0.002000,FlatInitial,Hold,0
07:13:57.607 PM 02/16/2016,Teleop Enabled,0,FALSE,0,NO ERROR,0.000000,0.000000,-6000.000000,-6000.000000,Speed,Speed,-0.260000,0.810000,1.050000,1.000000,100.000000,1,0,-0.000000,0.000000,1,0.000000,0.000000,0.000000,-19.116104,40.988281,0.000000,0.000000,0.000000,0.003000,FlatInitial,Hold,0
07:13:57.708 PM 02/16/2016,Teleop Enabled,0,FALSE,0,NO ERROR,0.000000,0.000000,-6000.000000,-6000.000000,Speed,Speed,-0.260000,0.810000,1.050000,1.000000,103.000000,1,0,-0.000000,0.000000,1,0.000000,0.000000,0.000000,-19.116104,40.988281,0.000000,0.000000,0.000000,0.002000,FlatInitial,Hold,0
07:13:57.808 PM 02/16/2016,Teleop Enabled,0,FALSE,0,NO ERROR,0.000000,0.000000,-6000.000000,-6000.000000,Speed,Speed,-0.260000,0.810000,1.050000,1.000000,101.000000,1,0,-0.000000,0.000000,1,0.000000,0.000000,0.000000,-19.116104,40.988281,0.000000,0.000000,0.000000,0.003000,FlatInitial,Hold,0
07:13:57.909 PM 02/16/2016,Teleop Enabled,0,FALSE,0,NO ERROR,0.000000,0.000000,-6000.000000,-6000.000000,Speed,Speed,-0.260000,0.810000,1.050000,1.000000,102.000000,1,0,-0.000000,0.000000,1,0.000000,0.000000,0.000000,-19.116104,40.988281,0.000000,0.000000,0.003000,0.002000,FlatInitial,Hold,0
07:13:58.009 PM 02/16/2016,Teleop Enabled,0,FALSE,0,NO ERROR,0.000000,0.000000,-6000.000000,-6000.000000,Speed,Speed,-0.260000,0.810000,1.050000,1.000000,101.000000,1,0,-0.000000,0.000000,1,0.000000,0.000000,0.000000,-19.116104,40.988281,0.000000,0.000000,0.000000,0.004000,FlatInitial,Hold,0
07:13:58.109 PM 02/16/2016,Teleop Enabled,0,FALSE,0,NO ERROR,0.000000,0.000000,-6000.000000,-6000.000000,Speed,Speed,-0.270000,0.810000,1.050000,1.000000,101.000000,1,0,-0.000000,0.000000,1,0.000000,0.000000,0.000000,-19.116104,40.988281,0.000000,0.001000,0.000000,0.007000,FlatInitial,Hold,0
07:13:58.209 PM 02/16/2016,Teleop Enabled,0,FALSE,0,NO ERROR,0.000000,0.000000,-6000.000000,-6000.000000,Speed,Speed,-0.270000,0.820000,1.060000,1.000000,104.000000,1,0,-0.000000,0.000000,1,0.000000,0.000000,0.000000,-19.116104,40.988281,0.000000,-0.001000,-0.001000,0.001000,FlatInitial,Hold,0
07:13:58.309 PM 02/16/2016,Teleop Enabled,0,FALSE,0,NO ERROR,0.000000,0.000000,-6000.000000,-6000.000000,Speed,Speed,-0.270000,0.820000,1.060000,1.000000,102.000000,1,0,-0.000000,0.000000,1,0.000000,0.000000,0.000000,-19.116104,40.988281,0.000000,-0.001000,0.002000,0.005000,FlatInitial,Hold,0
07:13:58.410 PM 02/16/2016,Teleop Enabled,0,FALSE,0,NO ERROR,0.000000,0.000000,-6000.000000,-6000.000000,Speed,Speed,-0.270000,0.820000,1.050000,1.000000,108.000000,1,0,-0.000000,0.000000,1,0.000000,0.000000,0.000000,-19.116104,40.988281,0.000000,0.000000,-0.001000,-0.001000,FlatInitial,Hold,0
07:13:58.511 PM 02/16/2016,Teleop Enabled,0,FALSE,0,NO ERROR,0.000000,0.000000,-6000.000000,-6000.000000,Speed,Speed,-0.270000,0.810000,1.040000,1.000000,101.000000,1,0,-0.000000,0.000000,1,0.000000,0.000000,0.000000,-19.116104,40.988281,0.000000,0.000000,0.000000,-0.001000,FlatInitial,Hold,0
07:13:58.612 PM 02/16/2016,Teleop Enabled,0,FALSE,0,NO ERROR,0.000000,0.000000,-6000.000000,-6000.000000,Speed,Speed,-0.270000,0.810000,1.040000,1.000000,102.000000,1,0,-0.000000,0.000000,1,0.000000,0.000000,0.000000,-19.116104,40.988281,0.000000,-0.001000,-0.002000,0.005000,FlatInitial,Hold,0
07:13:58.712 PM 02/16/2016,Teleop Enabled,0,FALSE,0,NO ERROR,0.000000,0.000000,-6000.000000,-6000.000000,Speed,Speed,-0.270000,0.810000,1.040000,1.000000,101.000000,1,0,-0.000000,0.000000,1,0.000000,0.000000,0.000000,-19.116104,40.988281,0.000000,0.000000,0.000000,0.004000,FlatInitial,Hold,0
07:13:58.812 PM 02/16/2016,Teleop Enabled,0,FALSE,0,NO ERROR,0.000000,0.000000,-6000.000000,-6000.000000,Speed,Speed,-0.270000,0.810000,1.040000,1.000000,101.000000,1,0,-0.000000,0.000000,1,0.000000,0.000000,0.000000,-19.116104,40.988281,0.000000,0.002000,0.000000,0.000000,FlatInitial,Hold,0
07:13:58.913 PM 02/16/2016,Teleop Enabled,0,FALSE,0,NO ERROR,0.000000,0.000000,-6000.000000,-6000.000000,Speed,Speed,-0.270000,0.810000,1.040000,1.000000,102.000000,1,0,-0.000000,0.000000,1,0.000000,0.000000,0.000000,-19.116104,40.988281,0.000000,0.000000,0.000000,0.003000,FlatInitial,Hold,0
07:13:59.013 PM 02/16/2016,Teleop Enabled,0,FALSE,0,NO ERROR,0.000000,0.000000,-6000.000000,-6000.000000,Speed,Speed,-0.260000,0.810000,1.040000,1.000000,101.000000,1,0,-0.000000,0.000000,1,0.000000,0.000000,0.000000,-19.116104,40.988281,0.000000,0.000000,0.000000,0.002000,FlatInitial,Hold,0
07:13:59.113 PM 02/16/2016,Teleop Enabled,0,FALSE,0,NO ERROR,0.000000,0.000000,-6000.000000,-6000.000000,Speed,Speed,-0.260000,0.810000,1.040000,1.000000,101.000000,1,0,-0.000000,0.000000,1,0.000000,0.000000,0.000000,-19.116104,40.988281,0.000000,0.000000,0.000000,0.002000,FlatInitial,Hold,0
07:13:59.213 PM 02/16/2016,Teleop Enabled,0,FALSE,0,NO ERROR,0.000000,0.000000,-6000.000000,-6000.000000,Speed,Speed,-0.260000,0.810000,1.040000,1.000000,102.000000,1,0,-0.000000,0.000000,1,0.000000,0.000000,0.000000,-19.116104,40.988281,0.000000,0.001000,0.000000,0.000000,FlatInitial,Hold,0
07:13:59.313 PM 02/16/2016,Teleop Enabled,0,FALSE,0,NO ERROR,0.000000,0.000000,-6000.000000,-6000.000000,Speed,Speed,-0.260000,0.810000,1.040000,1.000000,101.000000,1,0,-0.000000,0.000000,1,0.000000,0.000000,0.000000,-19.116104,40.988281,0.000000,0.000000,0.000000,0.003000,FlatInitial,Hold,0
07:13:59.413 PM 02/16/2016,Teleop Enabled,0,FALSE,0,NO ERROR,0.000000,0.000000,-6000.000000,-6000.000000,Speed,Speed,-0.260000,0.810000,1.040000,1.000000,102.000000,1,0,-0.000000,0.000000,1,0.000000,0.000000,0.000000,-19.116104,40.988281,0.000000,0.000000,0.002000,0.006000,FlatInitial,Hold,0
07:13:59.513 PM 02/16/2016,Teleop Enabled,0,FALSE,0,NO ERROR,0.000000,0.000000,-6000.000000,-6000.000000,Speed,Speed,-0.260000,0.810000,1.050000,1.000000,102.000000,1,0,-0.000000,0.000000,1,0.000000,0.000000,0.000000,-19.116104,40.988281,0.000000,0.000000,0.000000,0.006000,FlatInitial,Hold,0
07:13:59.613 PM 02/16/2016,Teleop Enabled,0,FALSE,0,NO ERROR,0.000000,0.000000,-6000.000000,-6000.000000,Speed,Speed,-0.260000,0.810000,1.040000,1.000000,102.000000,1,0,-0.000000,0.000000,1,0.000000,0.000000,0.000000,-19.116104,40.988281,0.000000,0.000000,0.000000,0.006000,FlatInitial,Hold,0
07:13:59.713 PM 02/16/2016,Teleop Enabled,0,FALSE,0,NO ERROR,0.000000,0.000000,-6000.000000,-6000.000000,Speed,Speed,-0.260000,0.810000,1.040000,1.000000,101.000000,1,0,-0.000000,0.000000,1,0.000000,0.000000,0.000000,-19.116104,40.988281,0.000000,0.002000,0.002000,0.006000,FlatInitial,Hold,0
07:13:59.814 PM 02/16/2016,Teleop Enabled,0,FALSE,0,NO ERROR,0.000000,0.000000,-6000.000000,-6000.000000,Speed,Speed,-0.260000,0.810000,1.040000,1.000000,101.000000,1,0,-0.000000,0.000000,1,0.000000,0.000000,0.000000,-19.116104,40.988281,0.000000,0.000000,0.002000,0.005000,FlatInitial,Hold,0
07:13:59.914 PM 02/16/2016,Teleop Enabled,0,FALSE,0,NO ERROR,0.000000,0.000000,-6000.000000,-6000.000000,Speed,Speed,-0.260000,0.810000,1.040000,1.000000,100.000000,1,0,-0.000000,0.000000,1,0.000000,0.000000,0.000000,-19.116104,40.988281,0.000000,0.000000,0.001000,0.005000,FlatInitial,Hold,0
07:14:00.014 PM 02/16/2016,Teleop Enabled,0,FALSE,0,NO ERROR,0.000000,0.000000,-6000.000000,-6000.000000,Speed,Speed,-0.260000,0.820000,1.030000,1.000000,101.000000,1,0,-0.000000,0.000000,1,0.000000,0.000000,0.000000,-19.116104,40.988281,0.000000,0.002000,-0.001000,0.004000,FlatInitial,Hold,0
07:14:00.114 PM 02/16/2016,Teleop Enabled,0,FALSE,0,NO ERROR,0.000000,0.000000,-6000.000000,-6000.000000,Speed,Speed,-0.260000,0.820000,1.030000,1.000000,101.000000,1,0,-0.000000,0.000000,1,0.000000,0.000000,0.000000,-19.116104,40.988281,0.000000,0.000000,0.000000,0.000000,FlatInitial,Hold,0
07:14:00.214 PM 02/16/2016,Teleop Enabled,0,FALSE,0,NO ERROR,0.000000,0.000000,-6000.000000,-6000.000000,Speed,Speed,-0.260000,0.810000,1.040000,1.000000,100.000000,1,0,-0.000000,0.000000,1,0.000000,0.000000,0.000000,-19.116104,40.988281,0.000000,0.000000,0.000000,0.000000,FlatInitial,Hold,0
07:14:00.315 PM 02/16/2016,Teleop Enabled,0,FALSE,0,NO ERROR,0.000000,0.000000,-6000.000000,-6000.000000,Speed,Speed,-0.260000,0.810000,1.030000,1.000000,102.000000,1,0,-0.000000,0.000000,1,0.000000,0.000000,0.000000,-19.116104,40.988281,0.000000,0.001000,0.001000,0.003000,FlatInitial,Hold,0
07:14:00.416 PM 02/16/2016,Teleop Enabled,0,FALSE,0,NO ERROR,0.000000,0.000000,-6000.000000,-6000.000000,Speed,Speed,-0.260000,0.810000,1.030000,1.000000,102.000000,1,0,-0.000000,0.000000,1,0.000000,0.000000,0.000000,-19.116104,40.988281,0.000000,0.000000,0.002000,-0.001000,FlatInitial,Hold,0
07:14:00.516 PM 02/16/2016,Teleop Enabled,0,FALSE,0,NO ERROR,0.000000,0.000000,-6000.000000,-6000.000000,Speed,Speed,-0.250000,0.810000,1.030000,1.000000,102.000000,1,0,-0.000000,0.000000,1,0.000000,0.000000,0.000000,-19.116104,40.988281,0.000000,0.001000,-0.001000,0.001000,FlatInitial,Hold,0
07:14:00.617 PM 02/16/2016,Teleop Enabled,0,FALSE,0,NO ERROR,0.000000,0.000000,-6000.000000,-6000.000000,Speed,Speed,-0.250000,0.810000,1.030000,1.000000,102.000000,1,0,-0.000000,0.000000,1,0.000000,0.000000,0.000000,-19.116104,40.988281,0.000000,-0.002000,0.001000,0.005000,FlatInitial,Hold,0
07:14:00.717 PM 02/16/2016,Teleop Enabled,0,FALSE,0,NO ERROR,0.000000,0.000000,-6000.000000,-6000.000000,Speed,Speed,-0.250000,0.810000,1.030000,1.000000,101.000000,1,0,-0.000000,0.000000,1,0.000000,0.000000,0.000000,-19.116104,40.988281,0.000000,0.003000,0.000000,0.002000,FlatInitial,LowGoal,0
07:14:00.817 PM 02/16/2016,Teleop Enabled,0,FALSE,0,NO ERROR,0.000000,0.000000,-6000.000000,-6000.000000,Speed,Speed,-0.250000,0.800000,1.040000,1.000000,102.000000,1,0,-0.000000,0.000000,1,0.000000,0.000000,0.000000,-19.116104,40.988281,0.000000,0.000000,0.000000,0.003000,FlatInitial,Hold,0
07:14:00.917 PM 02/16/2016,Teleop Enabled,0,FALSE,0,NO ERROR,0.000000,0.000000,-6000.000000,-6000.000000,Speed,Speed,-0.250000,0.790000,1.060000,1.000000,102.000000,1,0,-0.000000,0.000000,1,0.000000,-0.004059,0.000000,-19.116104,40.988235,0.000000,-0.001000,-0.023000,0.016000,FlatInitial,Hold,0
07:14:01.018 PM 02/16/2016,Teleop Enabled,0,FALSE,0,NO ERROR,0.000000,0.000000,-6000.000000,-6000.000000,Speed,Speed,-0.240000,0.770000,1.020000,1.000000,102.000000,1,0,-0.000000,0.000000,1,0.000000,0.000000,0.000000,-19.116241,40.988022,0.000000,-0.001000,-0.004000,-0.003000,FlatInitial,Hold,0
07:14:01.119 PM 02/16/2016,Teleop Enabled,0,FALSE,0,NO ERROR,0.000000,0.000000,-6000.000000,-6000.000000,Speed,Speed,-0.250000,0.750000,1.110000,1.000000,102.000000,1,0,-0.000000,0.000000,1,0.000000,0.000000,0.000000,-19.116241,40.988022,0.000000,-0.006000,0.033000,0.024000,FlatInitial,Hold,0
07:14:01.220 PM 02/16/2016,Teleop Enabled,0,FALSE,0,NO ERROR,-0.146484,0.000000,-6000.000000,-6000.000000,Speed,Speed,-0.200000,0.840000,0.820000,1.000000,100.000000,1,0,-0.000000,0.000000,1,-0.011444,0.058228,0.000000,-19.116409,40.989563,0.000000,0.039000,0.064000,-0.187000,FlatInitial,Hold,0
07:14:01.321 PM 02/16/2016,Teleop Enabled,0,FALSE,0,NO ERROR,-0.146484,0.000000,-6000.000000,-6000.000000,Speed,Speed,-0.220000,0.830000,1.250000,1.000000,101.000000,1,0,-0.000000,0.000000,1,0.021378,0.039215,0.000000,-19.116028,40.992737,0.000000,-0.059000,-0.103000,-0.019000,FlatInitial,Hold,0
07:14:01.422 PM 02/16/2016,Teleop Enabled,0,FALSE,0,NO ERROR,0.000000,0.000000,-6000.000000,-6000.000000,Speed,Speed,-0.190000,0.810000,0.730000,1.000000,102.000000,1,0,-0.000000,0.000000,1,-0.011292,0.000000,0.000000,-19.116241,40.992950,0.000000,0.082000,0.033000,-0.168000,FlatInitial,Hold,0
07:14:01.523 PM 02/16/2016,Teleop Enabled,0,FALSE,0,NO ERROR,-0.146484,0.000000,-6000.000000,-6000.000000,Speed,Speed,-0.190000,0.830000,0.910000,1.000000,101.000000,1,0,-0.000000,0.000000,1,0.000793,0.003036,0.000000,-19.115891,40.993271,0.000000,-0.031000,-0.010000,0.005000,FlatInitial,Hold,0
07:14:01.626 PM 02/16/2016,Teleop Enabled,0,FALSE,0,NO ERROR,0.000000,0.000000,-6000.000000,-6000.000000,Speed,Speed,-0.190000,0.880000,0.620000,1.000000,101.000000,1,0,-0.000000,0.000000,1,-0.003876,0.008453,0.000000,-19.116302,40.993393,0.000000,-0.009000,0.024000,0.036000,FlatInitial,Hold,0
07:14:01.726 PM 02/16/2016,Teleop Enabled,0,FALSE,0,NO ERROR,0.000000,0.000000,-6000.000000,-6000.000000,Speed,Speed,-0.200000,0.880000,0.900000,1.000000,101.000000,1,0,-0.000000,0.000000,1,0.006729,-0.004501,0.000000,-19.116196,40.993866,0.000000,0.015000,-0.031000,0.041000,FlatInitial,Hold,0
07:14:01.826 PM 02/16/2016,Teleop Enabled,0,FALSE,0,NO ERROR,0.000000,0.000000,-6000.000000,-6000.000000,Speed,Speed,-0.240000,0.750000,0.970000,1.000000,102.000000,1,0,-0.000000,0.000000,1,-0.021118,0.000000,0.000000,-19.116531,40.992783,0.000000,-0.018000,0.004000,0.019000,FlatInitial,Hold,0
07:14:01.926 PM 02/16/2016,Teleop Enabled,0,FALSE,0,NO ERROR,0.000000,0.000000,-6000.000000,-6000.000000,Speed,Speed,-0.150000,0.920000,0.680000,1.000000,101.000000,1,0,-0.000000,0.000000,1,0.013290,0.016861,0.000000,-19.116333,40.993088,0.000000,0.007000,0.020000,-0.029000,FlatInitial,Hold,0
07:14:02.030 PM 02/16/2016,Teleop Enabled,0,FALSE,0,NO ERROR,0.000000,0.000000,-6000.000000,-6000.000000,Speed,Speed,-0.220000,0.790000,0.960000,1.000000,101.000000,1,0,-0.000000,0.000000,1,-0.007385,0.000000,0.000000,-19.116272,40.993561,0.000000,-0.015000,-0.003000,0.016000,FlatInitial,Hold,0
07:14:02.130 PM 02/16/2016,Teleop Enabled,0,FALSE,0,NO ERROR,0.000000,0.000000,-6000.000000,-6000.000000,Speed,Speed,-0.180000,0.850000,0.770000,1.000000,101.000000,1,0,-0.000000,0.000000,1,0.000000,0.000000,0.000000,-19.116364,40.993561,0.000000,0.012000,0.009000,-0.025000,FlatInitial,Hold,0
07:14:02.230 PM 02/16/2016,Teleop Enabled,0,FALSE,0,NO ERROR,0.000000,0.000000,-6000.000000,-6000.000000,Speed,Speed,-0.200000,0.840000,0.890000,1.000000,102.000000,1,0,-0.000000,0.000000,1,0.000000,0.000000,0.000000,-19.116150,40.993561,0.000000,-0.009000,-0.007000,0.004000,FlatInitial,Hold,0
07:14:02.330 PM 02/16/2016,Teleop Enabled,0,FALSE,0,NO ERROR,0.000000,0.000000,-6000.000000,-6000.000000,Speed,Speed,-0.190000,0.820000,0.780000,1.000000,105.000000,1,0,-0.000000,0.000000,1,0.000000,0.000000,0.000000,-19.116150,40.993561,0.000000,0.010000,0.008000,-0.014000,FlatInitial,Hold,0
07:14:02.430 PM 02/16/2016,Teleop Enabled,0,FALSE,0,NO ERROR,0.000000,0.000000,-6000.000000,-6000.000000,Speed,Speed,-0.180000,0.850000,0.820000,1.000000,103.000000,1,0,-0.000000,0.000000,1,0.000000,0.000000,0.000000,-19.116150,40.993561,0.000000,-0.009000,-0.009000,0.003000,FlatInitial,Hold,0
07:14:02.530 PM 02/16/2016,Teleop Enabled,0,FALSE,0,NO ERROR,0.000000,0.000000,-6000.000000,-6000.000000,Speed,Speed,-0.190000,0.830000,0.810000,1.000000,102.000000,1,0,-0.000000,0.000000,1,0.000000,0.000000,0.000000,-19.116150,40.993561,0.000000,0.001000,0.006000,-0.003000,FlatInitial,Hold,0
07:14:02.630 PM 02/16/2016,Teleop Enabled,0,FALSE,0,NO ERROR,0.000000,0.000000,-6000.000000,-6000.000000,Speed,Speed,-0.180000,0.850000,0.820000,1.000000,102.000000,1,0,-0.000000,0.000000,1,0.000000,0.000000,0.000000,-19.116150,40.993561,0.000000,0.000000,0.000000,0.001000,FlatInitial,Hold,0
07:14:02.731 PM 02/16/2016,Teleop Enabled,0,FALSE,0,NO ERROR,0.000000,0.000000,-6000.000000,-6000.000000,Speed,Speed,-0.200000,0.830000,0.830000,1.000000,101.000000,1,0,-0.000000,0.000000,1,0.000000,0.000000,0.000000,-19.116150,40.993561,0.000000,0.000000,0.000000,0.000000,FlatInitial,Hold,0
07:14:02.831 PM 02/16/2016,Teleop Enabled,0,FALSE,0,NO ERROR,0.000000,0.000000,-6000.000000,-6000.000000,Speed,Speed,-0.190000,0.850000,0.810000,1.000000,101.000000,1,0,-0.000000,0.000000,1,0.000000,0.000000,0.000000,-19.116150,40.993561,0.000000,0.002000,-0.004000,0.006000,FlatInitial,Hold,0
07:14:02.931 PM 02/16/2016,Teleop Enabled,0,FALSE,0,NO ERROR,0.000000,0.000000,-6000.000000,-6000.000000,Speed,Speed,-0.190000,0.840000,0.810000,1.000000,102.000000,1,0,-0.000000,0.000000,1,0.000000,0.000000,0.000000,-19.116150,40.993561,0.000000,0.000000,0.001000,0.006000,FlatInitial,Hold,0
07:14:03.031 PM 02/16/2016,Teleop Enabled,0,FALSE,0,NO ERROR,0.000000,0.000000,-6000.000000,-6000.000000,Speed,Speed,-0.190000,0.840000,0.820000,1.000000,101.000000,1,0,-0.000000,0.000000,1,0.000000,0.000000,0.000000,-19.116150,40.993561,0.000000,-0.001000,0.000000,0.000000,FlatInitial,Hold,0
07:14:03.131 PM 02/16/2016,Teleop Enabled,0,FALSE,0,NO ERROR,0.000000,0.000000,-6000.000000,-6000.000000,Speed,Speed,-0.190000,0.850000,0.810000,1.000000,101.000000,1,0,-0.000000,0.000000,1,0.000000,0.000000,0.000000,-19.116150,40.993561,0.000000,0.001000,0.002000,0.000000,FlatInitial,Hold,0
07:14:03.231 PM 02/16/2016,Teleop Enabled,0,FALSE,0,NO ERROR,0.000000,0.000000,-6000.000000,-6000.000000,Speed,Speed,-0.190000,0.840000,0.820000,1.000000,102.000000,1,0,-0.000000,0.000000,1,0.000000,0.000000,0.000000,-19.116150,40.993561,0.000000,-0.001000,0.000000,0.004000,FlatInitial,Hold,0
07:14:03.331 PM 02/16/2016,Teleop Enabled,0,FALSE,0,NO ERROR,0.000000,0.000000,-6000.000000,-6000.000000,Speed,Speed,-0.190000,0.840000,0.810000,1.000000,102.000000,1,0,-0.000000,0.000000,1,0.000000,0.000000,0.000000,-19.116150,40.993561,0.000000,-0.001000,0.003000,0.002000,FlatInitial,Hold,0
07:14:03.432 PM 02/16/2016,Teleop Enabled,0,FALSE,0,NO ERROR,0.000000,0.000000,-6000.000000,-6000.000000,Speed,Speed,-0.190000,0.840000,0.810000,1.000000,106.000000,1,0,-0.000000,0.000000,1,0.000000,0.000000,0.000000,-19.116150,40.993561,0.000000,0.000000,0.000000,0.003000,FlatInitial,Hold,0
07:14:03.532 PM 02/16/2016,Teleop Enabled,0,FALSE,0,NO ERROR,0.000000,0.000000,-6000.000000,-6000.000000,Speed,Speed,-0.190000,0.840000,0.810000,1.000000,102.000000,1,0,-0.000000,0.000000,1,0.000000,0.000000,0.000000,-19.116150,40.993561,0.000000,-0.002000,0.003000,0.000000,FlatInitial,Hold,0
07:14:03.632 PM 02/16/2016,Teleop Enabled,0,FALSE,0,NO ERROR,0.000000,0.000000,-6000.000000,-6000.000000,Speed,Speed,-0.190000,0.840000,0.800000,1.000000,102.000000,1,0,-0.000000,0.000000,1,0.000000,0.000000,0.000000,-19.116150,40.993561,0.000000,0.001000,0.000000,0.002000,FlatInitial,Hold,0
07:14:03.732 PM 02/16/2016,Teleop Enabled,0,FALSE,0,NO ERROR,0.000000,0.000000,-6000.000000,-6000.000000,Speed,Speed,-0.190000,0.840000,0.810000,1.000000,100.000000,1,0,-0.000000,0.000000,1,0.000000,0.000000,0.000000,-19.116150,40.993561,0.000000,0.000000,-0.003000,0.004000,FlatInitial,Hold,0
07:14:03.832 PM 02/16/2016,Teleop Enabled,0,FALSE,0,NO ERROR,0.000000,0.000000,-6000.000000,-6000.000000,Speed,Speed,-0.190000,0.840000,0.810000,1.000000,101.000000,1,0,-0.000000,0.000000,1,0.000000,0.000000,0.000000,-19.116150,40.993561,0.000000,0.000000,0.001000,0.003000,FlatInitial,Hold,0
07:14:03.932 PM 02/16/2016,Teleop Enabled,0,FALSE,0,NO ERROR,0.000000,0.000000,-6000.000000,-6000.000000,Speed,Speed,-0.190000,0.840000,0.810000,1.000000,102.000000,1,0,-0.000000,0.000000,1,0.000000,0.000000,0.000000,-19.116150,40.993561,0.000000,0.000000,0.001000,0.002000,FlatInitial,Hold,0
07:14:04.032 PM 02/16/2016,Teleop Enabled,0,FALSE,0,NO ERROR,0.000000,0.000000,-6000.000000,-6000.000000,Speed,Speed,-0.190000,0.840000,0.810000,1.000000,102.000000,1,0,-0.000000,0.000000,1,0.000000,0.000000,0.000000,-19.116150,40.993561,0.000000,0.002000,-0.001000,0.001000,FlatInitial,HighGoal,0
07:14:04.132 PM 02/16/2016,Teleop Enabled,0,FALSE,0,NO ERROR,0.000000,0.000000,-6000.000000,-6000.000000,Speed,Speed,-0.180000,0.860000,0.690000,1.000000,102.000000,1,0,-0.000000,0.000000,1,0.000000,0.004395,0.000000,-19.116150,40.993607,0.000000,0.002000,0.031000,-0.038000,FlatInitial,Hold,0
07:14:04.232 PM 02/16/2016,Teleop Enabled,0,FALSE,0,NO ERROR,0.000000,0.000000,-6000.000000,-6000.000000,Speed,Speed,-0.180000,0.830000,0.980000,1.000000,101.000000,1,0,-0.000000,0.000000,1,0.000000,-0.010864,0.000000,-19.115891,40.993683,0.000000,-0.029000,-0.034000,0.000000,FlatInitial,Hold,0
07:14:04.332 PM 02/16/2016,Teleop Enabled,0,FALSE,0,NO ERROR,0.000000,0.000000,-6000.000000,-6000.000000,Speed,Speed,-0.170000,0.860000,0.720000,1.000000,102.000000,1,0,-0.000000,0.000000,1,-0.010254,0.006546,0.000000,-19.116623,40.993088,0.000000,0.041000,0.017000,-0.034000,FlatInitial,Hold,0
07:14:04.432 PM 02/16/2016,Teleop Enabled,0,FALSE,0,NO ERROR,0.000000,0.000000,-6000.000000,-6000.000000,Speed,Speed,-0.180000,0.800000,0.870000,1.000000,102.000000,1,0,-0.000000,0.000000,1,-0.010025,0.000000,0.000000,-19.116852,40.993179,0.000000,-0.001000,-0.007000,0.016000,FlatInitial,Hold,0
07:14:04.532 PM 02/16/2016,Teleop Enabled,0,FALSE,0,NO ERROR,0.000000,0.000000,-6000.000000,-6000.000000,Speed,Speed,-0.180000,0.830000,0.830000,1.000000,103.000000,1,0,-0.000000,0.000000,1,0.000000,0.000000,0.000000,-19.116974,40.993179,0.000000,-0.007000,0.012000,0.014000,FlatInitial,Hold,0
07:14:04.632 PM 02/16/2016,Teleop Enabled,0,FALSE,0,NO ERROR,0.000000,0.000000,-6000.000000,-6000.000000,Speed,Speed,-0.190000,0.830000,0.890000,1.000000,100.000000,1,0,-0.000000,0.000000,1,0.000000,0.000000,0.000000,-19.116974,40.993362,0.000000,0.005000,-0.007000,0.003000,FlatInitial,Hold,0
07:14:04.733 PM 02/16/2016,Teleop Enabled,0,FALSE,0,NO ERROR,0.000000,0.000000,-6000.000000,-6000.000000,Speed,Speed,-0.190000,0.790000,0.910000,1.000000,102.000000,1,0,-0.000000,0.000000,1,0.000000,-0.007477,0.000000,-19.116974,40.993256,0.000000,0.007000,-0.027000,-0.008000,FlatInitial,Hold,0
07:14:04.833 PM 02/16/2016,Teleop Enabled,0,FALSE,0,NO ERROR,0.000000,0.000000,-6000.000000,-6000.000000,Speed,Speed,-0.200000,0.750000,0.920000,1.000000,101.000000,1,0,-0.000000,0.000000,1,-0.003937,-0.025894,0.000000,-19.117004,40.992126,0.000000,-0.023000,0.026000,0.008000,FlatInitial,Hold,0
07:14:04.933 PM 02/16/2016,Teleop Enabled,0,FALSE,0,NO ERROR,-0.146484,0.000000,-6000.000000,-6000.000000,Speed,Speed,-0.150000,0.880000,0.870000,1.000000,101.000000,1,0,-0.000000,0.000000,1,0.013809,0.022186,0.000000,-19.117035,40.992218,0.000000,0.044000,0.028000,-0.028000,FlatInitial,Hold,0
07:14:05.034 PM 02/16/2016,Teleop Enabled,0,FALSE,0,NO ERROR,0.000000,0.000000,-6000.000000,-6000.000000,Speed,Speed,-0.220000,0.740000,1.040000,1.000000,101.000000,1,0,-0.000000,0.000000,1,0.006607,-0.011246,0.000000,-19.116180,40.992325,0.000000,-0.005000,0.012000,0.000000,FlatInitial,Hold,0
07:14:05.134 PM 02/16/2016,Teleop Enabled,0,FALSE,0,NO ERROR,0.000000,0.000000,-6000.000000,-6000.000000,Speed,Speed,-0.180000,0.860000,0.830000,1.000000,100.000000,1,0,-0.000000,0.000000,1,0.005707,0.009995,0.000000,-19.116058,40.992340,0.000000,0.023000,0.007000,-0.003000,FlatInitial,Hold,0
07:14:05.234 PM 02/16/2016,Teleop Enabled,0,FALSE,0,NO ERROR,0.000000,0.000000,-6000.000000,-6000.000000,Speed,Speed,-0.220000,0.830000,0.870000,1.000000,101.000000,1,0,-0.000000,0.000000,1,-0.009857,-0.018311,0.000000,-19.116013,40.992142,0.000000,0.003000,-0.036000,0.008000,FlatInitial,Hold,0
07:14:05.334 PM 02/16/2016,Teleop Enabled,0,FALSE,0,NO ERROR,0.000000,0.000000,-6000.000000,-6000.000000,Speed,Speed,-0.200000,0.850000,0.740000,1.000000,102.000000,1,0,-0.000000,0.000000,1,0.000000,0.000000,0.000000,-19.116013,40.991608,0.000000,-0.006000,0.011000,0.008000,FlatInitial,Hold,0
07:14:05.434 PM 02/16/2016,Teleop Enabled,0,FALSE,0,NO ERROR,0.000000,0.000000,-6000.000000,-6000.000000,Speed,Speed,-0.220000,0.870000,0.790000,1.000000,102.000000,1,0,-0.000000,0.000000,1,0.000000,0.000000,0.000000,-19.116013,40.991821,0.000000,-0.005000,-0.011000,0.005000,FlatInitial,Hold,0
07:14:05.534 PM 02/16/2016,Teleop Enabled,0,FALSE,0,NO ERROR,0.000000,0.000000,-6000.000000,-6000.000000,Speed,Speed,-0.200000,0.860000,0.730000,1.000000,101.000000,1,0,-0.000000,0.000000,1,0.000000,0.000000,0.000000,-19.116013,40.991623,0.000000,0.005000,0.007000,0.002000,FlatInitial,Hold,0
07:14:05.635 PM 02/16/2016,Teleop Enabled,0,FALSE,0,NO ERROR,0.000000,0.000000,-6000.000000,-6000.000000,Speed,Speed,-0.210000,0.860000,0.760000,1.000000,101.000000,1,0,-0.000000,0.000000,1,0.000000,0.000000,0.000000,-19.116013,40.991623,0.000000,-0.001000,0.001000,0.003000,FlatInitial,Hold,0
07:14:05.735 PM 02/16/2016,Teleop Enabled,0,FALSE,0,NO ERROR,0.000000,0.000000,-6000.000000,-6000.000000,Speed,Speed,-0.200000,0.860000,0.750000,1.000000,102.000000,1,0,-0.000000,0.000000,1,0.000000,0.000000,0.000000,-19.116013,40.991623,0.000000,0.000000,0.000000,0.005000,FlatInitial,Hold,0
07:14:05.835 PM 02/16/2016,Teleop Enabled,0,FALSE,0,NO ERROR,0.000000,0.000000,-6000.000000,-6000.000000,Speed,Speed,-0.200000,0.850000,0.770000,1.000000,102.000000,1,0,-0.000000,0.000000,1,0.000000,0.000000,0.000000,-19.116013,40.991623,0.000000,0.002000,0.002000,0.003000,FlatInitial,Hold,0
07:14:05.936 PM 02/16/2016,Teleop Enabled,0,FALSE,0,NO ERROR,0.000000,0.000000,-6000.000000,-6000.000000,Speed,Speed,-0.190000,0.860000,0.760000,1.000000,103.000000,1,0,-0.000000,0.000000,1,0.000000,0.000000,0.000000,-19.116013,40.991623,0.000000,-0.001000,0.000000,0.002000,FlatInitial,Hold,0
07:14:06.036 PM 02/16/2016,Teleop Enabled,0,FALSE,0,NO ERROR,0.000000,0.000000,-6000.000000,-6000.000000,Speed,Speed,-0.200000,0.860000,0.770000,1.000000,101.000000,1,0,-0.000000,0.000000,1,0.000000,0.000000,0.000000,-19.116013,40.991623,0.000000,0.002000,0.002000,0.004000,FlatInitial,Hold,0
07:14:06.136 PM 02/16/2016,Teleop Enabled,0,FALSE,0,NO ERROR,0.000000,0.000000,-6000.000000,-6000.000000,Speed,Speed,-0.200000,0.860000,0.780000,1.000000,101.000000,1,0,-0.000000,0.000000,1,0.000000,0.000000,0.000000,-19.116013,40.991623,0.000000,0.003000,-0.006000,-0.001000,FlatInitial,Hold,0
07:14:06.236 PM 02/16/2016,Teleop Enabled,0,FALSE,0,NO ERROR,0.000000,0.000000,-6000.000000,-6000.000000,Speed,Speed,-0.200000,0.850000,0.780000,1.000000,100.000000,1,0,-0.000000,0.000000,1,0.000000,0.000000,0.000000,-19.116013,40.991623,0.000000,0.000000,0.000000,0.000000,FlatInitial,Hold,0
07:14:06.336 PM 02/16/2016,Teleop Enabled,0,FALSE,0,NO ERROR,0.000000,0.000000,-6000.000000,-6000.000000,Speed,Speed,-0.200000,0.850000,0.790000,1.000000,101.000000,1,0,-0.000000,0.000000,1,0.000000,0.000000,0.000000,-19.116013,40.991623,0.000000,0.003000,0.004000,-0.002000,FlatInitial,Hold,0
07:14:06.436 PM 02/16/2016,Teleop Enabled,0,FALSE,0,NO ERROR,0.000000,0.000000,-6000.000000,-6000.000000,Speed,Speed,-0.200000,0.850000,0.790000,1.000000,101.000000,1,0,-0.000000,0.000000,1,0.000000,0.000000,0.000000,-19.116013,40.991623,0.000000,0.000000,0.002000,-0.002000,FlatInitial,Hold,0
07:14:06.536 PM 02/16/2016,Teleop Enabled,0,FALSE,0,NO ERROR,0.000000,0.000000,-6000.000000,-6000.000000,Speed,Speed,-0.190000,0.850000,0.790000,1.000000,104.000000,1,0,-0.000000,0.000000,1,0.000000,0.000000,0.000000,-19.116013,40.991623,0.000000,-0.005000,0.000000,-0.001000,FlatInitial,Hold,0
07:14:06.636 PM 02/16/2016,Teleop Enabled,0,FALSE,0,NO ERROR,0.000000,0.000000,-6000.000000,-6000.000000,Speed,Speed,-0.170000,0.820000,0.810000,1.000000,102.000000,1,0,-0.000000,0.000000,1,0.000000,0.000000,0.000000,-19.116013,40.991623,0.000000,0.004000,-0.012000,-0.003000,FlatInitial,Hold,0
07:14:06.737 PM 02/16/2016,Teleop Enabled,0,FALSE,0,NO ERROR,0.000000,0.000000,-6000.000000,-6000.000000,Speed,Speed,-0.120000,0.640000,1.060000,1.000000,102.000000,1,0,-0.000000,0.000000,1,0.000000,-0.010925,0.000000,-19.116013,40.991470,0.000000,-0.025000,-0.023000,0.005000,FlatInitial,Hold,0
07:14:06.837 PM 02/16/2016,Teleop Enabled,0,FALSE,0,NO ERROR,0.000000,0.732422,-6000.000000,-6000.000000,Speed,Speed,0.040000,0.560000,0.980000,1.000000,103.000000,1,0,-0.000000,0.000000,1,-0.005356,-0.035324,0.000000,-19.116653,40.989807,0.000000,0.035000,-0.002000,-0.005000,FlatInitial,Hold,0
07:14:06.939 PM 02/16/2016,Teleop Enabled,0,FALSE,0,NO ERROR,0.000000,0.732422,-6000.000000,-6000.000000,Speed,Speed,-0.010000,0.560000,1.130000,1.000000,101.000000,1,0,-0.000000,0.000000,1,0.000000,0.036743,0.000000,-19.116638,40.990570,0.000000,-0.006000,0.065000,0.000000,FlatInitial,Hold,0
07:14:07.040 PM 02/16/2016,Teleop Enabled,0,FALSE,0,NO ERROR,0.000000,1.025391,-6000.000000,-6000.000000,Speed,Speed,0.020000,0.530000,1.280000,1.000000,101.000000,1,0,-0.000000,0.000000,1,0.000000,0.000000,0.000000,-19.116638,40.992081,0.000000,-0.013000,0.000000,0.011000,FlatInitial,Hold,0
07:14:07.140 PM 02/16/2016,Teleop Enabled,0,FALSE,0,NO ERROR,0.000000,0.585938,-6000.000000,-6000.000000,Speed,Speed,0.040000,0.520000,1.260000,1.000000,104.000000,1,0,-0.000000,0.000000,1,0.000000,0.000000,0.000000,-19.116638,40.992081,0.000000,-0.002000,-0.008000,0.009000,FlatInitial,Hold,0
07:14:07.240 PM 02/16/2016,Teleop Enabled,0,FALSE,0,NO ERROR,0.000000,0.000000,-6000.000000,-6000.000000,Speed,Speed,0.060000,0.490000,1.260000,1.000000,101.000000,1,0,-0.000000,0.000000,1,0.000000,0.000000,0.000000,-19.116638,40.992081,0.000000,0.003000,-0.011000,0.004000,FlatInitial,Hold,0
07:14:07.342 PM 02/16/2016,Teleop Enabled,0,FALSE,0,NO ERROR,0.000000,0.000000,-6000.000000,-6000.000000,Speed,Speed,0.080000,0.470000,1.350000,1.000000,101.000000,1,0,-0.000000,0.000000,1,0.000000,0.000000,0.000000,-19.116638,40.992386,0.000000,0.005000,-0.009000,0.004000,FlatInitial,Hold,0
07:14:07.442 PM 02/16/2016,Teleop Enabled,0,FALSE,0,NO ERROR,0.000000,0.000000,-6000.000000,-6000.000000,Speed,Speed,0.070000,0.460000,1.330000,1.000000,101.000000,1,0,-0.000000,0.000000,1,0.000000,0.000000,0.000000,-19.116638,40.992386,0.000000,0.008000,-0.001000,0.003000,FlatInitial,Hold,0
07:14:07.543 PM 02/16/2016,Teleop Enabled,0,FALSE,0,NO ERROR,0.000000,0.292969,-6000.000000,-6000.000000,Speed,Speed,0.090000,0.450000,1.360000,1.000000,102.000000,1,0,-0.000000,0.000000,1,0.000000,0.000000,0.000000,-19.116638,40.992386,0.000000,0.004000,0.001000,0.005000,FlatInitial,Hold,0
07:14:07.643 PM 02/16/2016,Teleop Enabled,0,FALSE,0,NO ERROR,0.000000,0.292969,-6000.000000,-6000.000000,Speed,Speed,0.090000,0.460000,1.360000,1.000000,102.000000,1,0,-0.000000,0.000000,1,0.000000,0.000000,0.000000,-19.116638,40.992386,0.000000,0.004000,0.001000,0.005000,FlatInitial,Hold,0
07:14:07.744 PM 02/16/2016,Teleop Enabled,0,FALSE,0,NO ERROR,0.000000,0.000000,-6000.000000,-6000.000000,Speed,Speed,0.100000,0.460000,1.370000,1.000000,101.000000,1,0,-0.000000,0.000000,1,0.000000,0.000000,0.000000,-19.116638,40.992386,0.000000,-0.002000,0.002000,0.004000,FlatInitial,Hold,0
07:14:07.845 PM 02/16/2016,Teleop Enabled,0,FALSE,0,NO ERROR,0.000000,0.000000,-6000.000000,-6000.000000,Speed,Speed,0.100000,0.460000,1.360000,1.000000,101.000000,1,0,-0.000000,0.000000,1,0.000000,0.000000,0.000000,-19.116638,40.992386,0.000000,-0.002000,0.002000,0.004000,FlatInitial,Hold,0
07:14:07.946 PM 02/16/2016,Teleop Enabled,0,FALSE,0,NO ERROR,0.000000,0.000000,-6000.000000,-6000.000000,Speed,Speed,0.100000,0.450000,1.360000,1.000000,101.000000,1,0,-0.000000,0.000000,1,0.000000,0.000000,0.000000,-19.116638,40.992386,0.000000,-0.001000,0.001000,0.006000,FlatInitial,Hold,0
07:14:08.047 PM 02/16/2016,Teleop Enabled,0,FALSE,0,NO ERROR,0.000000,0.000000,-6000.000000,-6000.000000,Speed,Speed,0.100000,0.460000,1.370000,1.000000,102.000000,1,0,-0.000000,0.000000,1,0.000000,0.000000,0.000000,-19.116638,40.992386,0.000000,0.000000,0.001000,0.003000,FlatInitial,Hold,0
07:14:08.147 PM 02/16/2016,Teleop Enabled,0,FALSE,0,NO ERROR,0.000000,0.000000,-6000.000000,-6000.000000,Speed,Speed,0.120000,0.460000,1.360000,1.000000,101.000000,1,0,-0.000000,0.000000,1,0.000000,0.000000,0.000000,-19.116638,40.992386,0.000000,0.000000,0.000000,0.003000,FlatInitial,Hold,0
07:14:08.247 PM 02/16/2016,Teleop Enabled,0,FALSE,0,NO ERROR,0.000000,0.000000,-6000.000000,-6000.000000,Speed,Speed,0.170000,0.450000,1.370000,1.000000,102.000000,1,0,-0.000000,0.000000,1,0.000000,0.000000,0.000000,-19.116638,40.992386,0.000000,-0.008000,0.002000,0.009000,FlatInitial,Hold,0
07:14:08.347 PM 02/16/2016,Teleop Enabled,0,FALSE,0,NO ERROR,0.000000,0.000000,-6000.000000,-6000.000000,Speed,Speed,0.160000,0.460000,1.380000,1.000000,104.000000,1,0,-0.000000,0.000000,1,0.000000,0.000000,0.000000,-19.116638,40.992386,0.000000,-0.008000,0.002000,0.009000,FlatInitial,Hold,0
07:14:08.447 PM 02/16/2016,Teleop Enabled,0,FALSE,0,NO ERROR,0.000000,0.000000,-6000.000000,-6000.000000,Speed,Speed,0.160000,0.460000,1.360000,1.000000,101.000000,1,0,-0.000000,0.000000,1,0.000000,0.000000,0.000000,-19.116638,40.992386,0.000000,0.000000,0.003000,0.002000,FlatInitial,Hold,0
07:14:08.548 PM 02/16/2016,Teleop Enabled,0,FALSE,0,NO ERROR,0.000000,0.000000,-6000.000000,-6000.000000,Speed,Speed,0.160000,0.460000,1.360000,1.000000,100.000000,1,0,-0.000000,0.000000,1,0.000000,0.000000,0.000000,-19.116638,40.992386,0.000000,0.001000,0.000000,0.005000,FlatInitial,Hold,0
07:14:08.648 PM 02/16/2016,Teleop Enabled,0,FALSE,0,NO ERROR,0.000000,0.000000,-6000.000000,-6000.000000,Speed,Speed,0.160000,0.460000,1.360000,1.000000,100.000000,1,0,-0.000000,0.000000,1,0.000000,0.000000,0.000000,-19.116638,40.992386,0.000000,-0.001000,0.000000,0.002000,FlatInitial,Hold,0
07:14:08.748 PM 02/16/2016,Teleop Enabled,0,FALSE,0,NO ERROR,0.000000,0.000000,-6000.000000,-6000.000000,Speed,Speed,0.160000,0.450000,1.360000,1.000000,101.000000,1,0,-0.000000,0.000000,1,0.000000,0.000000,0.000000,-19.116638,40.992386,0.000000,0.000000,-0.002000,0.005000,FlatInitial,Hold,0
07:14:08.848 PM 02/16/2016,Teleop Enabled,0,FALSE,0,NO ERROR,0.000000,0.000000,-6000.000000,-6000.000000,Speed,Speed,0.160000,0.450000,1.360000,1.000000,100.000000,1,0,-0.000000,0.000000,1,0.000000,0.000000,0.000000,-19.116638,40.992386,0.000000,0.001000,0.000000,0.005000,FlatInitial,Hold,0
07:14:08.948 PM 02/16/2016,Teleop Enabled,0,FALSE,0,NO ERROR,0.000000,0.000000,-6000.000000,-6000.000000,Speed,Speed,0.170000,0.440000,1.380000,1.000000,102.000000,1,0,-0.000000,0.000000,1,0.000000,0.000000,0.000000,-19.116638,40.992386,0.000000,0.001000,0.001000,0.005000,FlatInitial,Hold,0
07:14:09.049 PM 02/16/2016,Teleop Enabled,0,FALSE,0,NO ERROR,0.000000,0.000000,-6000.000000,-6000.000000,Speed,Speed,0.180000,0.440000,1.370000,1.000000,101.000000,1,0,-0.000000,0.000000,1,0.000000,0.000000,0.000000,-19.116638,40.992386,0.000000,0.000000,-0.001000,0.000000,FlatInitial,Hold,0
07:14:09.150 PM 02/16/2016,Teleop Enabled,0,FALSE,0,NO ERROR,0.000000,0.000000,-6000.000000,-6000.000000,Speed,Speed,0.180000,0.440000,1.370000,1.000000,101.000000,1,0,-0.000000,0.000000,1,0.000000,0.000000,0.000000,-19.116638,40.992386,0.000000,0.001000,-0.002000,0.005000,FlatInitial,Hold,0
07:14:09.250 PM 02/16/2016,Teleop Enabled,0,FALSE,0,NO ERROR,0.000000,0.000000,-6000.000000,-6000.000000,Speed,Speed,0.180000,0.430000,1.380000,1.000000,101.000000,1,0,-0.000000,0.000000,1,0.000000,0.000000,0.000000,-19.116638,40.992386,0.000000,0.000000,0.002000,0.002000,FlatInitial,Hold,0
07:14:09.350 PM 02/16/2016,Teleop Enabled,0,FALSE,0,NO ERROR,0.000000,0.000000,-6000.000000,-6000.000000,Speed,Speed,0.180000,0.430000,1.380000,1.000000,104.000000,1,0,-0.000000,0.000000,1,0.000000,0.000000,0.000000,-19.116638,40.992386,0.000000,-0.002000,0.000000,0.003000,FlatInitial,Hold,0
07:14:09.451 PM 02/16/2016,Teleop Enabled,0,FALSE,0,NO ERROR,0.000000,0.000000,-6000.000000,-6000.000000,Speed,Speed,0.190000,0.440000,1.390000,1.000000,102.000000,1,0,-0.000000,0.000000,1,0.000000,0.000000,0.000000,-19.116638,40.992386,0.000000,0.000000,0.000000,0.000000,FlatInitial,Hold,0
07:14:09.552 PM 02/16/2016,Teleop Enabled,0,FALSE,0,NO ERROR,0.000000,0.000000,-6000.000000,-6000.000000,Speed,Speed,0.190000,0.430000,1.380000,1.000000,101.000000,1,0,-0.000000,0.000000,1,0.000000,0.000000,0.000000,-19.116638,40.992386,0.000000,-0.001000,-0.001000,0.009000,FlatInitial,Hold,0
07:14:09.653 PM 02/16/2016,Teleop Enabled,0,FALSE,0,NO ERROR,0.000000,0.000000,-6000.000000,-6000.000000,Speed,Speed,0.190000,0.440000,1.380000,1.000000,102.000000,1,0,-0.000000,0.000000,1,0.000000,0.000000,0.000000,-19.116638,40.992386,0.000000,0.000000,0.000000,0.012000,FlatInitial,Hold,0
07:14:09.757 PM 02/16/2016,Teleop Enabled,0,FALSE,0,NO ERROR,0.000000,0.000000,-6000.000000,-6000.000000,Speed,Speed,0.190000,0.450000,1.370000,1.000000,102.000000,1,0,-0.000000,0.000000,1,0.000000,0.000000,0.000000,-19.116638,40.992386,0.000000,0.000000,0.002000,0.001000,FlatInitial,Hold,0
07:14:09.858 PM 02/16/2016,Teleop Enabled,0,FALSE,0,NO ERROR,0.000000,0.000000,-6000.000000,-6000.000000,Speed,Speed,0.190000,0.440000,1.380000,1.000000,102.000000,1,0,-0.000000,0.000000,1,0.000000,0.000000,0.000000,-19.116638,40.992386,0.000000,0.000000,0.000000,0.004000,FlatInitial,LowGoal,0
07:14:09.961 PM 02/16/2016,Teleop Enabled,0,FALSE,0,NO ERROR,0.000000,0.000000,-6000.000000,-6000.000000,Speed,Speed,0.190000,0.440000,1.370000,1.000000,101.000000,1,0,-0.000000,0.000000,1,0.000000,0.000000,0.000000,-19.116638,40.992386,0.000000,0.000000,0.000000,0.001000,FlatInitial,Hold,0
07:14:10.063 PM 02/16/2016,Teleop Enabled,0,FALSE,0,NO ERROR,0.000000,0.000000,-6000.000000,-6000.000000,Speed,Speed,0.180000,0.420000,1.440000,1.000000,101.000000,1,0,-0.000000,0.000000,1,0.005508,-0.027405,0.000000,-19.116562,40.991837,0.000000,0.002000,-0.041000,0.024000,FlatInitial,Hold,0
07:14:10.164 PM 02/16/2016,Teleop Enabled,0,FALSE,0,NO ERROR,0.000000,0.000000,-6000.000000,-6000.000000,Speed,Speed,0.260000,0.450000,1.310000,1.000000,100.000000,1,0,-0.000000,0.000000,1,0.003464,-0.000122,0.000000,-19.116592,40.990860,0.000000,0.029000,0.038000,0.064000,FlatInitial,Hold,0
07:14:10.265 PM 02/16/2016,Teleop Enabled,0,FALSE,0,NO ERROR,0.000000,0.000000,-6000.000000,-6000.000000,Speed,Speed,0.150000,0.490000,1.390000,1.000000,100.000000,1,0,-0.000000,0.000000,1,-0.002960,-0.005341,0.000000,-19.116425,40.991196,0.000000,-0.023000,-0.031000,0.017000,FlatInitial,Hold,0
07:14:10.365 PM 02/16/2016,Teleop Enabled,0,FALSE,0,NO ERROR,0.000000,0.000000,-6000.000000,-6000.000000,Speed,Speed,0.200000,0.480000,1.310000,1.000000,102.000000,1,0,-0.000000,0.000000,1,-0.000992,0.007004,0.000000,-19.116699,40.991013,0.000000,-0.003000,0.015000,-0.001000,FlatInitial,Hold,0
07:14:10.466 PM 02/16/2016,Teleop Enabled,0,FALSE,0,NO ERROR,0.000000,-0.146484,-6000.000000,-6000.000000,Speed,Speed,0.220000,0.470000,1.230000,1.000000,101.000000,1,0,-0.000000,0.000000,1,0.000000,0.000000,0.000000,-19.116837,40.991119,0.000000,-0.012000,0.009000,0.002000,FlatInitial,Hold,0
07:14:10.567 PM 02/16/2016,Teleop Enabled,0,FALSE,0,NO ERROR,0.000000,-0.146484,-6000.000000,-6000.000000,Speed,Speed,0.190000,0.520000,1.110000,1.000000,101.000000,1,0,-0.000000,0.000000,1,0.000000,0.000000,0.000000,-19.116837,40.991119,0.000000,-0.003000,-0.019000,0.001000,FlatInitial,Hold,0
07:14:10.668 PM 02/16/2016,Teleop Enabled,0,FALSE,0,NO ERROR,0.000000,0.000000,-6000.000000,-6000.000000,Speed,Speed,0.210000,0.470000,1.160000,1.000000,101.000000,1,0,-0.000000,0.000000,1,0.000000,0.000000,0.000000,-19.116837,40.991119,0.000000,0.001000,0.034000,0.001000,FlatInitial,Hold,0
07:14:10.769 PM 02/16/2016,Teleop Enabled,0,FALSE,0,NO ERROR,-0.146484,0.000000,-6000.000000,-6000.000000,Speed,Speed,0.170000,0.520000,1.190000,1.000000,102.000000,1,0,-0.000000,0.000000,1,0.000000,0.000000,0.000000,-19.116837,40.991409,0.000000,-0.001000,-0.005000,-0.006000,FlatInitial,Hold,0
07:14:10.869 PM 02/16/2016,Teleop Enabled,0,FALSE,0,NO ERROR,0.000000,0.000000,-6000.000000,-6000.000000,Speed,Speed,0.200000,0.490000,1.190000,1.000000,101.000000,1,0,-0.000000,0.000000,1,0.000000,-0.016617,0.000000,-19.116837,40.991013,0.000000,0.001000,-0.017000,0.003000,FlatInitial,Hold,0
07:14:10.969 PM 02/16/2016,Teleop Enabled,0,FALSE,0,NO ERROR,0.000000,0.000000,-6000.000000,-6000.000000,Speed,Speed,0.190000,0.480000,1.240000,1.000000,101.000000,1,0,-0.000000,0.000000,1,0.000000,0.000519,0.000000,-19.116837,40.990585,0.000000,-0.005000,0.017000,-0.001000,FlatInitial,Hold,0
07:14:11.070 PM 02/16/2016,Teleop Enabled,0,FALSE,0,NO ERROR,0.000000,0.000000,-6000.000000,-6000.000000,Speed,Speed,0.210000,0.480000,1.200000,1.000000,100.000000,1,0,-0.000000,0.000000,1,0.000000,0.000000,0.000000,-19.116837,40.990601,0.000000,0.003000,-0.011000,0.001000,FlatInitial,Hold,0
