Time,RobotMode,AutoToRun,ErrorStatus, ErrorCode,ErrorSource,ActualRPM1,ActualRPM2,DesiredRPM1,DesiredRPM2,ControlMode1,ControlMode2,NavXYaw,NavXRoll,NavXPitch,ShooterState,LoopTime,IsLevel,IsAutoTargeting,LeftMotorOutput,RightMotorOutput,IsHaloDrive,NavXVelocityX,NavXVelocityY,NavXVelocityZ,NavXDisplacementX,NavXDisplacementY,NavXDisplacementZ,NavXAccelerationX,NavXAccelerationY,NavXAccelerationZ,AutoDefendState,AngeMotorState,Photoeye
07:27:11.958 PM 02/17/2016,Autonomous Disabled,0,TRUE,91,Variant To Data in WPI_DigitalInputRefNum Registry Get.vi->Periodic Tasks.vi->Robot Main.vi,-6000.000000,5995.312500,-6000.000000,-6000.000000,Speed,Speed,1.920000,1.650000,-0.660000,1.000000,101.000000,1,0,-0.000000,0.000000,1,3.677887,-3.186646,0.000000,58.737564,63.459763,0.000000,0.058000,-0.124000,-0.192000,FlatInitial,Hold,0
07:27:12.059 PM 02/17/2016,Teleop Disabled,0,TRUE,-44007,<LOCATION>WPI_DigitalInputRefNum Registry Get.vi<CALLSTACK>WPI_DigitalInputRefNum Registry Get.vi< <Periodic Tasks.vi< <Robot Main.vi,0.000000,0.000000,0.000000,0.000000,Speed,Speed,2.190000,0.920000,1.610000,0.000000,14194.000000,1,0,-0.000000,0.000000,1,0.000000,0.000000,0.000000,59.807648,61.873993,0.000000,0.001000,0.001000,-0.001000,FlatInitial,ResetBack,0
07:27:12.159 PM 02/17/2016,Teleop Disabled,0,FALSE,0,NO ERROR,0.000000,0.000000,0.000000,0.000000,Speed,Speed,0.000000,0.920000,1.610000,0.000000,111.000000,1,0,-0.000000,0.000000,1,0.000000,0.000000,0.000000,59.807648,61.873993,0.000000,0.001000,0.000000,-0.001000,FlatInitial,ResetBack,0
07:27:12.259 PM 02/17/2016,Teleop Disabled,0,FALSE,0,NO ERROR,0.000000,0.000000,0.000000,0.000000,Speed,Speed,0.000000,0.930000,1.620000,0.000000,101.000000,1,0,-0.000000,0.000000,1,0.000000,0.000000,0.000000,59.807648,61.873993,0.000000,0.000000,0.000000,0.000000,FlatInitial,ResetBack,0
07:27:12.359 PM 02/17/2016,Teleop Disabled,0,FALSE,0,NO ERROR,0.000000,0.000000,0.000000,0.000000,Speed,Speed,0.000000,0.920000,1.610000,0.000000,102.000000,1,0,-0.000000,0.000000,1,0.000000,0.000000,0.000000,59.807648,61.873993,0.000000,-0.001000,0.000000,-0.002000,FlatInitial,ResetBack,0
07:27:12.459 PM 02/17/2016,Teleop Disabled,0,FALSE,0,NO ERROR,0.000000,0.000000,0.000000,0.000000,Speed,Speed,0.000000,0.920000,1.620000,0.000000,101.000000,1,0,-0.000000,0.000000,1,0.000000,0.000000,0.000000,59.807648,61.873993,0.000000,0.000000,-0.002000,0.002000,FlatInitial,ResetBack,0
07:27:12.559 PM 02/17/2016,Teleop Disabled,0,FALSE,0,NO ERROR,0.000000,0.000000,0.000000,0.000000,Speed,Speed,0.000000,0.920000,1.620000,0.000000,101.000000,1,0,-0.000000,0.000000,1,0.000000,0.000000,0.000000,59.807648,61.873993,0.000000,0.000000,0.003000,0.005000,FlatInitial,ResetBack,0
07:27:12.660 PM 02/17/2016,Teleop Disabled,0,FALSE,0,NO ERROR,0.000000,0.000000,0.000000,0.000000,Speed,Speed,0.000000,0.930000,1.620000,0.000000,101.000000,1,0,-0.000000,0.000000,1,0.000000,0.000000,0.000000,59.807648,61.873993,0.000000,0.000000,0.000000,0.000000,FlatInitial,ResetBack,0
07:27:12.760 PM 02/17/2016,Teleop Disabled,0,FALSE,0,NO ERROR,0.000000,0.000000,0.000000,0.000000,Speed,Speed,0.000000,0.930000,1.620000,0.000000,101.000000,1,0,-0.000000,0.000000,1,0.000000,0.000000,0.000000,59.807648,61.873993,0.000000,0.000000,0.000000,0.004000,FlatInitial,ResetBack,0
07:27:12.860 PM 02/17/2016,Teleop Disabled,0,FALSE,0,NO ERROR,0.000000,0.000000,0.000000,0.000000,Speed,Speed,0.000000,0.930000,1.620000,0.000000,101.000000,1,0,-0.000000,0.000000,1,0.000000,0.000000,0.000000,59.807648,61.873993,0.000000,0.000000,-0.001000,0.002000,FlatInitial,ResetBack,0
07:27:12.960 PM 02/17/2016,Teleop Disabled,0,FALSE,0,NO ERROR,0.000000,0.000000,0.000000,0.000000,Speed,Speed,0.000000,0.930000,1.620000,0.000000,103.000000,1,0,-0.000000,0.000000,1,0.000000,0.000000,0.000000,59.807648,61.873993,0.000000,-0.002000,-0.001000,0.001000,FlatInitial,ResetBack,0
07:27:13.060 PM 02/17/2016,Teleop Disabled,0,FALSE,0,NO ERROR,0.000000,0.000000,0.000000,0.000000,Speed,Speed,0.000000,0.930000,1.620000,0.000000,101.000000,1,0,-0.000000,0.000000,1,0.000000,0.000000,0.000000,59.807648,61.873993,0.000000,0.002000,0.001000,0.004000,FlatInitial,ResetBack,0
07:27:13.160 PM 02/17/2016,Teleop Disabled,0,FALSE,0,NO ERROR,0.000000,0.000000,0.000000,0.000000,Speed,Speed,0.000000,0.930000,1.620000,0.000000,102.000000,1,0,-0.000000,0.000000,1,0.000000,0.000000,0.000000,59.807648,61.873993,0.000000,0.002000,0.000000,0.003000,FlatInitial,ResetBack,0
07:27:13.260 PM 02/17/2016,Teleop Disabled,0,FALSE,0,NO ERROR,0.000000,0.000000,0.000000,0.000000,Speed,Speed,0.000000,0.930000,1.630000,0.000000,102.000000,1,0,-0.000000,0.000000,1,0.000000,0.000000,0.000000,59.807648,61.873993,0.000000,0.002000,0.000000,0.001000,FlatInitial,ResetBack,0
07:27:13.360 PM 02/17/2016,Teleop Disabled,0,FALSE,0,NO ERROR,0.000000,0.000000,0.000000,0.000000,Speed,Speed,0.000000,0.930000,1.630000,0.000000,104.000000,1,0,-0.000000,0.000000,1,0.000000,0.000000,0.000000,59.807648,61.873993,0.000000,0.000000,0.001000,0.001000,FlatInitial,ResetBack,0
07:27:13.460 PM 02/17/2016,Teleop Disabled,0,FALSE,0,NO ERROR,0.000000,0.000000,0.000000,0.000000,Speed,Speed,0.000000,0.930000,1.630000,0.000000,101.000000,1,0,-0.000000,0.000000,1,0.000000,0.000000,0.000000,59.807648,61.873993,0.000000,0.000000,-0.001000,0.003000,FlatInitial,ResetBack,0
07:27:13.560 PM 02/17/2016,Teleop Disabled,0,FALSE,0,NO ERROR,0.000000,0.000000,0.000000,0.000000,Speed,Speed,0.000000,0.930000,1.630000,0.000000,102.000000,1,0,-0.000000,0.000000,1,0.000000,0.000000,0.000000,59.807648,61.873993,0.000000,0.000000,0.000000,0.002000,FlatInitial,ResetBack,0
07:27:13.660 PM 02/17/2016,Teleop Disabled,0,FALSE,0,NO ERROR,0.000000,0.000000,0.000000,0.000000,Speed,Speed,0.000000,0.940000,1.630000,0.000000,101.000000,1,0,-0.000000,0.000000,1,0.000000,0.000000,0.000000,59.807648,61.873993,0.000000,0.000000,-0.001000,0.001000,FlatInitial,ResetBack,0
07:27:13.760 PM 02/17/2016,Teleop Disabled,0,FALSE,0,NO ERROR,0.000000,0.000000,0.000000,0.000000,Speed,Speed,0.000000,0.930000,1.630000,0.000000,101.000000,1,0,-0.000000,0.000000,1,0.000000,0.000000,0.000000,59.807648,61.873993,0.000000,0.002000,0.000000,0.005000,FlatInitial,ResetBack,0
07:27:13.860 PM 02/17/2016,Teleop Disabled,0,FALSE,0,NO ERROR,0.000000,0.000000,0.000000,0.000000,Speed,Speed,0.000000,0.940000,1.620000,0.000000,102.000000,1,0,-0.000000,0.000000,1,0.000000,0.000000,0.000000,59.807648,61.873993,0.000000,-0.002000,0.000000,0.006000,FlatInitial,ResetBack,0
07:27:13.961 PM 02/17/2016,Teleop Disabled,0,FALSE,0,NO ERROR,0.000000,0.000000,0.000000,0.000000,Speed,Speed,0.000000,0.930000,1.630000,0.000000,102.000000,1,0,-0.000000,0.000000,1,0.000000,0.000000,0.000000,59.807648,61.873993,0.000000,0.000000,0.001000,0.001000,FlatInitial,ResetBack,0
07:27:14.061 PM 02/17/2016,Teleop Disabled,0,FALSE,0,NO ERROR,0.000000,0.000000,0.000000,0.000000,Speed,Speed,0.000000,0.930000,1.630000,0.000000,101.000000,1,0,-0.000000,0.000000,1,0.000000,0.000000,0.000000,59.807648,61.873993,0.000000,0.000000,0.001000,0.001000,FlatInitial,ResetBack,0
07:27:14.161 PM 02/17/2016,Teleop Disabled,0,FALSE,0,NO ERROR,0.000000,0.000000,0.000000,0.000000,Speed,Speed,0.000000,0.930000,1.630000,0.000000,102.000000,1,0,-0.000000,0.000000,1,0.000000,0.000000,0.000000,59.807648,61.873993,0.000000,0.000000,0.001000,0.005000,FlatInitial,ResetBack,0
07:27:14.261 PM 02/17/2016,Teleop Disabled,0,FALSE,0,NO ERROR,0.000000,0.000000,0.000000,0.000000,Speed,Speed,0.000000,0.930000,1.630000,0.000000,102.000000,1,0,-0.000000,0.000000,1,0.000000,0.000000,0.000000,59.807648,61.873993,0.000000,-0.001000,0.000000,0.000000,FlatInitial,ResetBack,0
07:27:14.362 PM 02/17/2016,Teleop Disabled,0,FALSE,0,NO ERROR,0.000000,0.000000,0.000000,0.000000,Speed,Speed,0.000000,0.920000,1.630000,0.000000,102.000000,1,0,-0.000000,0.000000,1,0.000000,0.000000,0.000000,59.807648,61.873993,0.000000,0.000000,0.000000,0.006000,FlatInitial,ResetBack,0
07:27:14.463 PM 02/17/2016,Teleop Disabled,0,FALSE,0,NO ERROR,0.000000,0.000000,0.000000,0.000000,Speed,Speed,0.000000,0.920000,1.630000,0.000000,101.000000,1,0,-0.000000,0.000000,1,0.000000,0.000000,0.000000,59.807648,61.873993,0.000000,0.003000,-0.002000,0.003000,FlatInitial,ResetBack,0
07:27:14.564 PM 02/17/2016,Teleop Disabled,0,FALSE,0,NO ERROR,0.000000,0.000000,0.000000,0.000000,Speed,Speed,0.000000,0.920000,1.630000,0.000000,105.000000,1,0,-0.000000,0.000000,1,0.000000,0.000000,0.000000,59.807648,61.873993,0.000000,-0.001000,-0.002000,0.004000,FlatInitial,ResetBack,0
07:27:14.664 PM 02/17/2016,Teleop Disabled,0,FALSE,0,NO ERROR,0.000000,0.000000,0.000000,0.000000,Speed,Speed,0.000000,0.920000,1.630000,0.000000,102.000000,1,0,-0.000000,0.000000,1,0.000000,0.000000,0.000000,59.807648,61.873993,0.000000,0.000000,0.000000,0.001000,FlatInitial,ResetBack,0
07:27:14.765 PM 02/17/2016,Teleop Disabled,0,FALSE,0,NO ERROR,0.000000,0.000000,0.000000,0.000000,Speed,Speed,0.000000,0.920000,1.630000,0.000000,102.000000,1,0,-0.000000,0.000000,1,0.000000,0.000000,0.000000,59.807648,61.873993,0.000000,-0.004000,0.000000,0.002000,FlatInitial,ResetBack,0
07:27:14.865 PM 02/17/2016,Teleop Disabled,0,FALSE,0,NO ERROR,0.000000,0.000000,0.000000,0.000000,Speed,Speed,0.000000,0.920000,1.630000,0.000000,101.000000,1,0,-0.000000,0.000000,1,0.000000,0.000000,0.000000,59.807648,61.873993,0.000000,0.003000,0.000000,0.006000,FlatInitial,ResetBack,0
07:27:14.967 PM 02/17/2016,Teleop Disabled,0,FALSE,0,NO ERROR,0.000000,0.000000,0.000000,0.000000,Speed,Speed,0.000000,0.920000,1.630000,0.000000,101.000000,1,0,-0.000000,0.000000,1,0.000000,0.000000,0.000000,59.807648,61.873993,0.000000,0.000000,-0.001000,0.006000,FlatInitial,ResetBack,0
07:27:15.068 PM 02/17/2016,Teleop Disabled,0,FALSE,0,NO ERROR,0.000000,0.000000,0.000000,0.000000,Speed,Speed,0.000000,0.930000,1.620000,0.000000,102.000000,1,0,-0.000000,0.000000,1,0.000000,0.000000,0.000000,59.807648,61.873993,0.000000,-0.001000,0.000000,-0.002000,FlatInitial,ResetBack,0
07:27:15.168 PM 02/17/2016,Teleop Disabled,0,FALSE,0,NO ERROR,0.000000,0.000000,0.000000,0.000000,Speed,Speed,0.000000,0.920000,1.630000,0.000000,101.000000,1,0,-0.000000,0.000000,1,0.000000,0.000000,0.000000,59.807648,61.873993,0.000000,0.000000,0.001000,0.001000,FlatInitial,ResetBack,0
07:27:15.268 PM 02/17/2016,Teleop Disabled,0,FALSE,0,NO ERROR,0.000000,0.000000,0.000000,0.000000,Speed,Speed,0.000000,0.920000,1.630000,1.000000,107.000000,1,0,-0.000000,0.000000,1,0.000000,0.000000,0.000000,59.807648,61.873993,0.000000,-0.003000,0.001000,0.006000,FlatInitial,ResetBack,0
07:27:15.368 PM 02/17/2016,Teleop Disabled,0,FALSE,0,NO ERROR,0.000000,0.000000,-6000.000000,-6000.000000,Speed,Speed,0.000000,0.930000,1.630000,1.000000,105.000000,1,0,-0.000000,0.000000,1,0.000000,0.000000,0.000000,59.807648,61.873993,0.000000,0.000000,0.000000,0.003000,FlatInitial,ResetBack,0
07:27:15.468 PM 02/17/2016,Teleop Disabled,0,FALSE,0,NO ERROR,0.000000,0.000000,-6000.000000,-6000.000000,Speed,Speed,0.000000,0.930000,1.630000,1.000000,102.000000,1,0,-0.000000,0.000000,1,0.000000,0.000000,0.000000,59.807648,61.873993,0.000000,-0.001000,0.000000,0.003000,FlatInitial,ResetBack,0
07:27:15.568 PM 02/17/2016,Teleop Disabled,0,FALSE,0,NO ERROR,0.000000,0.000000,-6000.000000,-6000.000000,Speed,Speed,0.000000,0.930000,1.630000,1.000000,102.000000,1,0,-0.000000,0.000000,1,0.000000,0.000000,0.000000,59.807648,61.873993,0.000000,0.000000,-0.001000,0.000000,FlatInitial,ResetBack,0
07:27:15.669 PM 02/17/2016,Teleop Disabled,0,FALSE,0,NO ERROR,0.000000,0.000000,-6000.000000,-6000.000000,Speed,Speed,0.000000,0.930000,1.630000,1.000000,105.000000,1,0,-0.000000,0.000000,1,0.000000,0.000000,0.000000,59.807648,61.873993,0.000000,0.000000,-0.004000,0.004000,FlatInitial,ResetBack,0
07:27:15.769 PM 02/17/2016,Teleop Disabled,0,FALSE,0,NO ERROR,0.000000,0.000000,-6000.000000,-6000.000000,Speed,Speed,0.000000,0.930000,1.630000,1.000000,102.000000,1,0,-0.000000,0.000000,1,0.000000,0.000000,0.000000,59.807648,61.873993,0.000000,-0.001000,0.000000,0.007000,FlatInitial,ResetBack,0
07:27:15.869 PM 02/17/2016,Teleop Disabled,0,FALSE,0,NO ERROR,0.000000,0.000000,-6000.000000,-6000.000000,Speed,Speed,0.000000,0.940000,1.620000,1.000000,104.000000,1,0,-0.000000,0.000000,1,0.000000,0.000000,0.000000,59.807648,61.873993,0.000000,0.000000,0.000000,0.001000,FlatInitial,ResetBack,0
07:27:15.969 PM 02/17/2016,Teleop Disabled,0,FALSE,0,NO ERROR,0.000000,0.000000,-6000.000000,-6000.000000,Speed,Speed,0.000000,0.930000,1.620000,1.000000,105.000000,1,0,-0.000000,0.000000,1,0.000000,0.000000,0.000000,59.807648,61.873993,0.000000,0.001000,0.000000,-0.003000,FlatInitial,ResetBack,0
07:27:16.069 PM 02/17/2016,Teleop Disabled,0,FALSE,0,NO ERROR,0.000000,0.000000,-6000.000000,-6000.000000,Speed,Speed,0.000000,0.930000,1.620000,1.000000,102.000000,1,0,-0.000000,0.000000,1,0.000000,0.000000,0.000000,59.807648,61.873993,0.000000,0.000000,0.001000,0.002000,FlatInitial,ResetBack,0
07:27:16.170 PM 02/17/2016,Teleop Disabled,0,FALSE,0,NO ERROR,0.000000,0.000000,-6000.000000,-6000.000000,Speed,Speed,0.000000,0.930000,1.620000,1.000000,101.000000,1,0,-0.000000,0.000000,1,0.000000,0.000000,0.000000,59.807648,61.873993,0.000000,0.000000,0.000000,0.003000,FlatInitial,ResetBack,0
07:27:16.270 PM 02/17/2016,Teleop Disabled,0,FALSE,0,NO ERROR,0.000000,0.000000,-6000.000000,-6000.000000,Speed,Speed,0.000000,0.930000,1.620000,1.000000,101.000000,1,0,-0.000000,0.000000,1,0.000000,0.000000,0.000000,59.807648,61.873993,0.000000,0.000000,0.004000,0.004000,FlatInitial,ResetBack,0
07:27:16.370 PM 02/17/2016,Teleop Disabled,0,FALSE,0,NO ERROR,0.000000,0.000000,-6000.000000,-6000.000000,Speed,Speed,-0.010000,0.930000,1.620000,1.000000,106.000000,1,0,-0.000000,0.000000,1,0.000000,0.000000,0.000000,59.807648,61.873993,0.000000,0.000000,0.002000,0.001000,FlatInitial,ResetBack,0
07:27:16.470 PM 02/17/2016,Teleop Disabled,0,FALSE,0,NO ERROR,0.000000,0.000000,-6000.000000,-6000.000000,Speed,Speed,-0.010000,0.930000,1.620000,1.000000,102.000000,1,0,-0.000000,0.000000,1,0.000000,0.000000,0.000000,59.807648,61.873993,0.000000,-0.002000,0.000000,0.002000,FlatInitial,ResetBack,0
07:27:16.571 PM 02/17/2016,Teleop Disabled,0,FALSE,0,NO ERROR,0.000000,0.000000,-6000.000000,-6000.000000,Speed,Speed,-0.010000,0.940000,1.620000,1.000000,101.000000,1,0,-0.000000,0.000000,1,0.000000,0.000000,0.000000,59.807648,61.873993,0.000000,0.000000,0.000000,0.000000,FlatInitial,ResetBack,0
07:27:16.671 PM 02/17/2016,Teleop Disabled,0,FALSE,0,NO ERROR,0.000000,0.000000,-6000.000000,-6000.000000,Speed,Speed,-0.010000,0.940000,1.620000,1.000000,103.000000,1,0,-0.000000,0.000000,1,0.000000,0.000000,0.000000,59.807648,61.873993,0.000000,0.000000,0.000000,0.000000,FlatInitial,ResetBack,0
07:27:16.771 PM 02/17/2016,Teleop Disabled,0,FALSE,0,NO ERROR,0.000000,0.000000,-6000.000000,-6000.000000,Speed,Speed,-0.010000,0.940000,1.620000,1.000000,101.000000,1,0,-0.000000,0.000000,1,0.000000,0.000000,0.000000,59.807648,61.873993,0.000000,0.000000,0.000000,0.001000,FlatInitial,ResetBack,0
07:27:16.872 PM 02/17/2016,Teleop Disabled,0,FALSE,0,NO ERROR,0.000000,0.000000,-6000.000000,-6000.000000,Speed,Speed,-0.010000,0.940000,1.620000,1.000000,103.000000,1,0,-0.000000,0.000000,1,0.000000,0.000000,0.000000,59.807648,61.873993,0.000000,0.000000,-0.002000,0.005000,FlatInitial,ResetBack,0
07:27:16.973 PM 02/17/2016,Teleop Disabled,0,FALSE,0,NO ERROR,0.000000,0.000000,-6000.000000,-6000.000000,Speed,Speed,-0.020000,0.940000,1.620000,1.000000,102.000000,1,0,-0.000000,0.000000,1,0.000000,0.000000,0.000000,59.807648,61.873993,0.000000,-0.003000,0.000000,0.002000,FlatInitial,ResetBack,0
07:27:17.074 PM 02/17/2016,Teleop Disabled,0,FALSE,0,NO ERROR,0.000000,0.000000,-6000.000000,-6000.000000,Speed,Speed,-0.010000,0.930000,1.630000,1.000000,101.000000,1,0,-0.000000,0.000000,1,0.000000,0.000000,0.000000,59.807648,61.873993,0.000000,0.000000,0.001000,0.000000,FlatInitial,ResetBack,0
07:27:17.174 PM 02/17/2016,Teleop Disabled,0,FALSE,0,NO ERROR,0.000000,0.000000,-6000.000000,-6000.000000,Speed,Speed,-0.020000,0.930000,1.630000,1.000000,104.000000,1,0,-0.000000,0.000000,1,0.000000,0.000000,0.000000,59.807648,61.873993,0.000000,0.000000,-0.001000,-0.001000,FlatInitial,ResetBack,0
07:27:17.274 PM 02/17/2016,Teleop Disabled,0,FALSE,0,NO ERROR,0.000000,0.000000,-6000.000000,-6000.000000,Speed,Speed,-0.020000,0.930000,1.630000,1.000000,100.000000,1,0,-0.000000,0.000000,1,0.000000,0.000000,0.000000,59.807648,61.873993,0.000000,0.002000,-0.001000,0.004000,FlatInitial,ResetBack,0
07:27:17.374 PM 02/17/2016,Teleop Disabled,0,FALSE,0,NO ERROR,0.000000,0.000000,-6000.000000,-6000.000000,Speed,Speed,-0.020000,0.930000,1.630000,1.000000,102.000000,1,0,-0.000000,0.000000,1,0.000000,0.000000,0.000000,59.807648,61.873993,0.000000,0.003000,-0.001000,0.005000,FlatInitial,ResetBack,0
07:27:17.474 PM 02/17/2016,Teleop Disabled,0,FALSE,0,NO ERROR,0.000000,0.000000,-6000.000000,-6000.000000,Speed,Speed,-0.020000,0.930000,1.630000,1.000000,102.000000,1,0,-0.000000,0.000000,1,0.000000,0.000000,0.000000,59.807648,61.873993,0.000000,0.001000,0.000000,0.004000,FlatInitial,ResetBack,0
07:27:17.575 PM 02/17/2016,Teleop Disabled,0,FALSE,0,NO ERROR,0.000000,0.000000,-6000.000000,-6000.000000,Speed,Speed,-0.020000,0.930000,1.630000,1.000000,102.000000,1,0,-0.000000,0.000000,1,0.000000,0.000000,0.000000,59.807648,61.873993,0.000000,0.000000,0.000000,0.000000,FlatInitial,ResetBack,0
07:27:17.676 PM 02/17/2016,Teleop Disabled,0,FALSE,0,NO ERROR,0.000000,0.000000,-6000.000000,-6000.000000,Speed,Speed,-0.020000,0.930000,1.630000,1.000000,103.000000,1,0,-0.000000,0.000000,1,0.000000,0.000000,0.000000,59.807648,61.873993,0.000000,0.000000,-0.001000,0.001000,FlatInitial,ResetBack,0
07:27:17.776 PM 02/17/2016,Teleop Disabled,0,FALSE,0,NO ERROR,0.000000,0.000000,-6000.000000,-6000.000000,Speed,Speed,-0.020000,0.930000,1.630000,1.000000,106.000000,1,0,-0.000000,0.000000,1,0.000000,0.000000,0.000000,59.807648,61.873993,0.000000,0.000000,-0.001000,0.001000,FlatInitial,ResetBack,0
07:27:17.877 PM 02/17/2016,Teleop Disabled,0,FALSE,0,NO ERROR,0.000000,0.000000,-6000.000000,-6000.000000,Speed,Speed,-0.030000,0.930000,1.620000,1.000000,101.000000,1,0,-0.000000,0.000000,1,0.000000,0.000000,0.000000,59.807648,61.873993,0.000000,0.000000,0.002000,0.000000,FlatInitial,ResetBack,0
07:27:17.977 PM 02/17/2016,Teleop Disabled,0,FALSE,0,NO ERROR,0.000000,0.000000,-6000.000000,-6000.000000,Speed,Speed,-0.030000,0.920000,1.620000,1.000000,100.000000,1,0,-0.000000,0.000000,1,0.000000,0.000000,0.000000,59.807648,61.873993,0.000000,-0.003000,-0.001000,-0.001000,FlatInitial,ResetBack,0
07:27:18.077 PM 02/17/2016,Teleop Disabled,0,FALSE,0,NO ERROR,0.000000,0.000000,-6000.000000,-6000.000000,Speed,Speed,-0.030000,0.920000,1.620000,1.000000,102.000000,1,0,-0.000000,0.000000,1,0.000000,0.000000,0.000000,59.807648,61.873993,0.000000,0.001000,0.000000,0.000000,FlatInitial,ResetBack,0
07:27:18.177 PM 02/17/2016,Teleop Disabled,0,FALSE,0,NO ERROR,0.000000,0.000000,-6000.000000,-6000.000000,Speed,Speed,-0.030000,0.920000,1.620000,1.000000,102.000000,1,0,-0.000000,0.000000,1,0.000000,0.000000,0.000000,59.807648,61.873993,0.000000,0.000000,-0.001000,0.004000,FlatInitial,ResetBack,0
07:27:18.277 PM 02/17/2016,Teleop Disabled,0,FALSE,0,NO ERROR,0.000000,0.000000,-6000.000000,-6000.000000,Speed,Speed,-0.040000,0.920000,1.620000,1.000000,102.000000,1,0,-0.000000,0.000000,1,0.000000,0.000000,0.000000,59.807648,61.873993,0.000000,0.001000,0.002000,0.001000,FlatInitial,ResetBack,0
07:27:18.377 PM 02/17/2016,Teleop Disabled,0,FALSE,0,NO ERROR,0.000000,0.000000,-6000.000000,-6000.000000,Speed,Speed,-0.040000,0.930000,1.620000,1.000000,101.000000,1,0,-0.000000,0.000000,1,0.000000,0.000000,0.000000,59.807648,61.873993,0.000000,0.001000,0.002000,0.001000,FlatInitial,ResetBack,0
07:27:18.479 PM 02/17/2016,Teleop Disabled,0,FALSE,0,NO ERROR,0.000000,0.000000,-6000.000000,-6000.000000,Speed,Speed,-0.040000,0.930000,1.620000,1.000000,101.000000,1,0,-0.000000,0.000000,1,0.000000,0.000000,0.000000,59.807648,61.873993,0.000000,-0.001000,0.001000,-0.001000,FlatInitial,ResetBack,0
07:27:18.580 PM 02/17/2016,Teleop Disabled,0,FALSE,0,NO ERROR,0.000000,0.000000,-6000.000000,-6000.000000,Speed,Speed,-0.030000,0.930000,1.620000,1.000000,102.000000,1,0,-0.000000,0.000000,1,0.000000,0.000000,0.000000,59.807648,61.873993,0.000000,0.001000,0.000000,0.005000,FlatInitial,ResetBack,0
07:27:18.681 PM 02/17/2016,Teleop Disabled,0,FALSE,0,NO ERROR,0.000000,0.000000,-6000.000000,-6000.000000,Speed,Speed,-0.030000,0.930000,1.620000,1.000000,107.000000,1,0,-0.000000,0.000000,1,0.000000,0.000000,0.000000,59.807648,61.873993,0.000000,0.001000,0.000000,0.005000,FlatInitial,ResetBack,0
07:27:18.781 PM 02/17/2016,Teleop Disabled,0,FALSE,0,NO ERROR,0.000000,0.000000,-6000.000000,-6000.000000,Speed,Speed,-0.030000,0.930000,1.620000,1.000000,102.000000,1,0,-0.000000,0.000000,1,0.000000,0.000000,0.000000,59.807648,61.873993,0.000000,0.000000,0.000000,0.001000,FlatInitial,ResetBack,0
07:27:18.882 PM 02/17/2016,Teleop Disabled,0,FALSE,0,NO ERROR,0.000000,0.000000,-6000.000000,-6000.000000,Speed,Speed,-0.030000,0.930000,1.620000,1.000000,101.000000,1,0,-0.000000,0.000000,1,0.000000,0.000000,0.000000,59.807648,61.873993,0.000000,-0.003000,0.001000,0.003000,FlatInitial,ResetBack,0
07:27:18.982 PM 02/17/2016,Teleop Disabled,0,FALSE,0,NO ERROR,0.000000,0.000000,-6000.000000,-6000.000000,Speed,Speed,-0.030000,0.930000,1.620000,1.000000,102.000000,1,0,-0.000000,0.000000,1,0.000000,0.000000,0.000000,59.807648,61.873993,0.000000,0.000000,0.001000,0.007000,FlatInitial,ResetBack,0
07:27:19.084 PM 02/17/2016,Teleop Disabled,0,FALSE,0,NO ERROR,0.000000,0.000000,-6000.000000,-6000.000000,Speed,Speed,-0.040000,0.930000,1.610000,1.000000,102.000000,1,0,-0.000000,0.000000,1,0.000000,0.000000,0.000000,59.807648,61.873993,0.000000,0.000000,0.000000,0.002000,FlatInitial,ResetBack,0
07:27:19.184 PM 02/17/2016,Teleop Disabled,0,FALSE,0,NO ERROR,0.000000,0.000000,-6000.000000,-6000.000000,Speed,Speed,-0.040000,0.930000,1.620000,1.000000,102.000000,1,0,-0.000000,0.000000,1,0.000000,0.000000,0.000000,59.807648,61.873993,0.000000,0.000000,0.000000,-0.001000,FlatInitial,ResetBack,0
07:27:19.284 PM 02/17/2016,Teleop Disabled,0,FALSE,0,NO ERROR,0.000000,0.000000,-6000.000000,-6000.000000,Speed,Speed,-0.040000,0.930000,1.620000,1.000000,101.000000,1,0,-0.000000,0.000000,1,0.000000,0.000000,0.000000,59.807648,61.873993,0.000000,0.000000,-0.001000,0.006000,FlatInitial,ResetBack,0
07:27:19.384 PM 02/17/2016,Teleop Disabled,0,FALSE,0,NO ERROR,0.000000,0.000000,-6000.000000,-6000.000000,Speed,Speed,-0.040000,0.930000,1.620000,1.000000,106.000000,1,0,-0.000000,0.000000,1,0.000000,0.000000,0.000000,59.807648,61.873993,0.000000,-0.001000,-0.001000,0.004000,FlatInitial,ResetBack,0
07:27:19.484 PM 02/17/2016,Teleop Disabled,0,FALSE,0,NO ERROR,0.000000,0.000000,-6000.000000,-6000.000000,Speed,Speed,-0.040000,0.930000,1.620000,1.000000,103.000000,1,0,-0.000000,0.000000,1,0.000000,0.000000,0.000000,59.807648,61.873993,0.000000,0.003000,-0.001000,0.003000,FlatInitial,ResetBack,0
07:27:19.590 PM 02/17/2016,Teleop Disabled,0,FALSE,0,NO ERROR,0.000000,0.000000,-6000.000000,-6000.000000,Speed,Speed,-0.040000,0.930000,1.620000,1.000000,103.000000,1,0,-0.000000,0.000000,1,0.000000,0.000000,0.000000,59.807648,61.873993,0.000000,0.001000,-0.001000,0.006000,FlatInitial,ResetBack,0
07:27:19.690 PM 02/17/2016,Teleop Disabled,0,FALSE,0,NO ERROR,0.000000,0.000000,-6000.000000,-6000.000000,Speed,Speed,-0.040000,0.930000,1.620000,1.000000,106.000000,1,0,-0.000000,0.000000,1,0.000000,0.000000,0.000000,59.807648,61.873993,0.000000,0.000000,0.000000,0.000000,FlatInitial,ResetBack,0
07:27:19.790 PM 02/17/2016,Teleop Disabled,0,FALSE,0,NO ERROR,0.000000,0.000000,-6000.000000,-6000.000000,Speed,Speed,-0.040000,0.930000,1.620000,1.000000,104.000000,1,0,-0.000000,0.000000,1,0.000000,0.000000,0.000000,59.807648,61.873993,0.000000,0.001000,0.000000,0.001000,FlatInitial,ResetBack,0
07:27:19.892 PM 02/17/2016,Teleop Disabled,0,FALSE,0,NO ERROR,0.000000,0.000000,-6000.000000,-6000.000000,Speed,Speed,-0.040000,0.920000,1.630000,1.000000,102.000000,1,0,-0.000000,0.000000,1,0.000000,0.000000,0.000000,59.807648,61.873993,0.000000,0.001000,0.000000,0.001000,FlatInitial,ResetBack,0
07:27:19.992 PM 02/17/2016,Teleop Disabled,0,FALSE,0,NO ERROR,0.000000,0.000000,-6000.000000,-6000.000000,Speed,Speed,-0.040000,0.920000,1.630000,1.000000,104.000000,1,0,-0.000000,0.000000,1,0.000000,0.000000,0.000000,59.807648,61.873993,0.000000,0.000000,0.000000,0.002000,FlatInitial,ResetBack,0
07:27:20.092 PM 02/17/2016,Teleop Disabled,0,FALSE,0,NO ERROR,0.000000,0.000000,-6000.000000,-6000.000000,Speed,Speed,-0.040000,0.920000,1.630000,1.000000,103.000000,1,0,-0.000000,0.000000,1,0.000000,0.000000,0.000000,59.807648,61.873993,0.000000,0.000000,-0.001000,0.007000,FlatInitial,ResetBack,0
07:27:20.193 PM 02/17/2016,Teleop Disabled,0,FALSE,0,NO ERROR,0.000000,0.000000,-6000.000000,-6000.000000,Speed,Speed,-0.040000,0.920000,1.630000,1.000000,102.000000,1,0,-0.000000,0.000000,1,0.000000,0.000000,0.000000,59.807648,61.873993,0.000000,0.000000,-0.001000,0.002000,FlatInitial,ResetBack,0
07:27:20.293 PM 02/17/2016,Teleop Disabled,0,FALSE,0,NO ERROR,0.000000,0.000000,-6000.000000,-6000.000000,Speed,Speed,-0.040000,0.930000,1.630000,1.000000,105.000000,1,0,-0.000000,0.000000,1,0.000000,0.000000,0.000000,59.807648,61.873993,0.000000,0.000000,0.002000,0.001000,FlatInitial,ResetBack,0
07:27:20.394 PM 02/17/2016,Teleop Disabled,0,FALSE,0,NO ERROR,0.000000,0.000000,-6000.000000,-6000.000000,Speed,Speed,-0.040000,0.930000,1.630000,1.000000,104.000000,1,0,-0.000000,0.000000,1,0.000000,0.000000,0.000000,59.807648,61.873993,0.000000,0.002000,0.000000,0.000000,FlatInitial,ResetBack,0
07:27:20.494 PM 02/17/2016,Teleop Disabled,0,FALSE,0,NO ERROR,0.000000,0.000000,-6000.000000,-6000.000000,Speed,Speed,-0.040000,0.930000,1.630000,1.000000,104.000000,1,0,-0.000000,0.000000,1,0.000000,0.000000,0.000000,59.807648,61.873993,0.000000,0.002000,-0.002000,0.004000,FlatInitial,ResetBack,0
07:27:20.596 PM 02/17/2016,Teleop Disabled,0,FALSE,0,NO ERROR,0.000000,0.000000,-6000.000000,-6000.000000,Speed,Speed,-0.040000,0.930000,1.630000,1.000000,104.000000,1,0,-0.000000,0.000000,1,0.000000,0.000000,0.000000,59.807648,61.873993,0.000000,0.000000,-0.002000,0.002000,FlatInitial,ResetBack,0
07:27:20.696 PM 02/17/2016,Teleop Disabled,0,FALSE,0,NO ERROR,0.000000,0.000000,-6000.000000,-6000.000000,Speed,Speed,-0.040000,0.930000,1.630000,1.000000,107.000000,1,0,-0.000000,0.000000,1,0.000000,0.000000,0.000000,59.807648,61.873993,0.000000,-0.001000,0.001000,0.004000,FlatInitial,ResetBack,0
07:27:20.797 PM 02/17/2016,Teleop Disabled,0,FALSE,0,NO ERROR,0.000000,0.000000,-6000.000000,-6000.000000,Speed,Speed,-0.040000,0.930000,1.630000,1.000000,104.000000,1,0,-0.000000,0.000000,1,0.000000,0.000000,0.000000,59.807648,61.873993,0.000000,0.000000,0.000000,0.001000,FlatInitial,ResetBack,0
07:27:20.897 PM 02/17/2016,Teleop Disabled,0,FALSE,0,NO ERROR,0.000000,0.000000,-6000.000000,-6000.000000,Speed,Speed,-0.050000,0.930000,1.630000,1.000000,101.000000,1,0,-0.000000,0.000000,1,0.000000,0.000000,0.000000,59.807648,61.873993,0.000000,-0.001000,0.000000,0.003000,FlatInitial,ResetBack,0
07:27:20.997 PM 02/17/2016,Teleop Disabled,0,FALSE,0,NO ERROR,0.000000,0.000000,-6000.000000,-6000.000000,Speed,Speed,-0.050000,0.930000,1.630000,1.000000,101.000000,1,0,-0.000000,0.000000,1,0.000000,0.000000,0.000000,59.807648,61.873993,0.000000,-0.001000,-0.001000,0.002000,FlatInitial,ResetBack,0
07:27:21.097 PM 02/17/2016,Teleop Disabled,0,FALSE,0,NO ERROR,0.000000,0.000000,-6000.000000,-6000.000000,Speed,Speed,-0.050000,0.930000,1.620000,1.000000,101.000000,1,0,-0.000000,0.000000,1,0.000000,0.000000,0.000000,59.807648,61.873993,0.000000,-0.001000,0.000000,0.000000,FlatInitial,ResetBack,0
07:27:21.198 PM 02/17/2016,Teleop Disabled,0,FALSE,0,NO ERROR,0.000000,0.000000,-6000.000000,-6000.000000,Speed,Speed,-0.050000,0.930000,1.630000,1.000000,101.000000,1,0,-0.000000,0.000000,1,0.000000,0.000000,0.000000,59.807648,61.873993,0.000000,0.000000,0.000000,0.003000,FlatInitial,ResetBack,0
07:27:21.298 PM 02/17/2016,Teleop Disabled,0,FALSE,0,NO ERROR,0.000000,0.000000,-6000.000000,-6000.000000,Speed,Speed,-0.050000,0.930000,1.630000,1.000000,103.000000,1,0,-0.000000,0.000000,1,0.000000,0.000000,0.000000,59.807648,61.873993,0.000000,0.000000,0.000000,-0.003000,FlatInitial,ResetBack,0
07:27:21.400 PM 02/17/2016,Teleop Disabled,0,FALSE,0,NO ERROR,0.000000,0.000000,-6000.000000,-6000.000000,Speed,Speed,-0.050000,0.930000,1.630000,1.000000,102.000000,1,0,-0.000000,0.000000,1,0.000000,0.000000,0.000000,59.807648,61.873993,0.000000,-0.001000,0.000000,-0.003000,FlatInitial,ResetBack,0
07:27:21.500 PM 02/17/2016,Teleop Disabled,0,FALSE,0,NO ERROR,0.000000,0.000000,-6000.000000,-6000.000000,Speed,Speed,-0.050000,0.930000,1.630000,1.000000,102.000000,1,0,-0.000000,0.000000,1,0.000000,0.000000,0.000000,59.807648,61.873993,0.000000,0.000000,0.000000,0.001000,FlatInitial,ResetBack,0
07:27:21.600 PM 02/17/2016,Teleop Disabled,0,FALSE,0,NO ERROR,0.000000,0.000000,-6000.000000,-6000.000000,Speed,Speed,-0.050000,0.930000,1.620000,1.000000,104.000000,1,0,-0.000000,0.000000,1,0.000000,0.000000,0.000000,59.807648,61.873993,0.000000,-0.001000,0.000000,-0.002000,FlatInitial,ResetBack,0
07:27:21.700 PM 02/17/2016,Teleop Disabled,0,FALSE,0,NO ERROR,0.000000,0.000000,-6000.000000,-6000.000000,Speed,Speed,-0.050000,0.930000,1.620000,1.000000,101.000000,1,0,-0.000000,0.000000,1,0.000000,0.000000,0.000000,59.807648,61.873993,0.000000,0.001000,-0.002000,0.003000,FlatInitial,ResetBack,0
07:27:21.800 PM 02/17/2016,Teleop Disabled,0,FALSE,0,NO ERROR,0.000000,0.000000,-6000.000000,-6000.000000,Speed,Speed,-0.050000,0.930000,1.620000,1.000000,102.000000,1,0,-0.000000,0.000000,1,0.000000,0.000000,0.000000,59.807648,61.873993,0.000000,0.000000,0.000000,0.003000,FlatInitial,ResetBack,0
07:27:21.900 PM 02/17/2016,Teleop Disabled,0,FALSE,0,NO ERROR,0.000000,0.000000,-6000.000000,-6000.000000,Speed,Speed,-0.050000,0.920000,1.630000,1.000000,101.000000,1,0,-0.000000,0.000000,1,0.000000,0.000000,0.000000,59.807648,61.873993,0.000000,0.002000,0.000000,0.003000,FlatInitial,ResetBack,0
07:27:22.000 PM 02/17/2016,Teleop Disabled,0,FALSE,0,NO ERROR,0.000000,0.000000,-6000.000000,-6000.000000,Speed,Speed,-0.050000,0.920000,1.630000,1.000000,106.000000,1,0,-0.000000,0.000000,1,0.000000,0.000000,0.000000,59.807648,61.873993,0.000000,0.001000,-0.001000,0.002000,FlatInitial,ResetBack,0
07:27:22.100 PM 02/17/2016,Teleop Disabled,0,FALSE,0,NO ERROR,0.000000,0.000000,-6000.000000,-6000.000000,Speed,Speed,-0.050000,0.930000,1.620000,1.000000,104.000000,1,0,-0.000000,0.000000,1,0.000000,0.000000,0.000000,59.807648,61.873993,0.000000,0.000000,0.001000,0.000000,FlatInitial,ResetBack,0
07:27:22.200 PM 02/17/2016,Teleop Disabled,0,FALSE,0,NO ERROR,0.000000,0.000000,-6000.000000,-6000.000000,Speed,Speed,-0.050000,0.930000,1.630000,1.000000,101.000000,1,0,-0.000000,0.000000,1,0.000000,0.000000,0.000000,59.807648,61.873993,0.000000,0.000000,0.000000,0.000000,FlatInitial,ResetBack,0
07:27:22.300 PM 02/17/2016,Teleop Disabled,0,FALSE,0,NO ERROR,0.000000,0.000000,-6000.000000,-6000.000000,Speed,Speed,-0.060000,0.940000,1.620000,1.000000,101.000000,1,0,-0.000000,0.000000,1,0.000000,0.000000,0.000000,59.807648,61.873993,0.000000,-0.001000,0.004000,0.002000,FlatInitial,ResetBack,0
07:27:22.400 PM 02/17/2016,Teleop Disabled,0,FALSE,0,NO ERROR,0.000000,0.000000,-6000.000000,-6000.000000,Speed,Speed,-0.060000,0.930000,1.630000,1.000000,101.000000,1,0,-0.000000,0.000000,1,0.000000,0.000000,0.000000,59.807648,61.873993,0.000000,-0.002000,0.000000,0.002000,FlatInitial,ResetBack,0
07:27:22.501 PM 02/17/2016,Teleop Disabled,0,FALSE,0,NO ERROR,0.000000,0.000000,-6000.000000,-6000.000000,Speed,Speed,-0.060000,0.930000,1.630000,1.000000,102.000000,1,0,-0.000000,0.000000,1,0.000000,0.000000,0.000000,59.807648,61.873993,0.000000,0.000000,0.000000,0.000000,FlatInitial,ResetBack,0
07:27:22.602 PM 02/17/2016,Teleop Disabled,0,FALSE,0,NO ERROR,0.000000,0.000000,-6000.000000,-6000.000000,Speed,Speed,-0.060000,0.930000,1.630000,1.000000,102.000000,1,0,-0.000000,0.000000,1,0.000000,0.000000,0.000000,59.807648,61.873993,0.000000,0.000000,0.000000,0.000000,FlatInitial,ResetBack,0
07:27:22.703 PM 02/17/2016,Teleop Disabled,0,FALSE,0,NO ERROR,0.000000,0.000000,-6000.000000,-6000.000000,Speed,Speed,-0.060000,0.930000,1.630000,1.000000,101.000000,1,0,-0.000000,0.000000,1,0.000000,0.000000,0.000000,59.807648,61.873993,0.000000,0.000000,-0.001000,0.000000,FlatInitial,ResetBack,0
07:27:22.803 PM 02/17/2016,Teleop Disabled,0,FALSE,0,NO ERROR,0.000000,0.000000,-6000.000000,-6000.000000,Speed,Speed,-0.060000,0.930000,1.620000,1.000000,102.000000,1,0,-0.000000,0.000000,1,0.000000,0.000000,0.000000,59.807648,61.873993,0.000000,0.000000,0.001000,0.005000,FlatInitial,ResetBack,0
07:27:22.904 PM 02/17/2016,Teleop Disabled,0,FALSE,0,NO ERROR,0.000000,0.000000,-6000.000000,-6000.000000,Speed,Speed,-0.060000,0.930000,1.620000,1.000000,101.000000,1,0,-0.000000,0.000000,1,0.000000,0.000000,0.000000,59.807648,61.873993,0.000000,0.000000,0.000000,0.002000,FlatInitial,ResetBack,0
07:27:23.004 PM 02/17/2016,Teleop Disabled,0,FALSE,0,NO ERROR,0.000000,0.000000,-6000.000000,-6000.000000,Speed,Speed,-0.060000,0.930000,1.620000,1.000000,104.000000,1,0,-0.000000,0.000000,1,0.000000,0.000000,0.000000,59.807648,61.873993,0.000000,0.000000,0.000000,0.001000,FlatInitial,ResetBack,0
07:27:23.105 PM 02/17/2016,Teleop Disabled,0,FALSE,0,NO ERROR,0.000000,0.000000,-6000.000000,-6000.000000,Speed,Speed,-0.060000,0.930000,1.620000,1.000000,102.000000,1,0,-0.000000,0.000000,1,0.000000,0.000000,0.000000,59.807648,61.873993,0.000000,0.000000,0.002000,0.002000,FlatInitial,ResetBack,0
07:27:23.205 PM 02/17/2016,Teleop Disabled,0,FALSE,0,NO ERROR,0.000000,0.000000,-6000.000000,-6000.000000,Speed,Speed,-0.060000,0.930000,1.620000,1.000000,104.000000,1,0,-0.000000,0.000000,1,0.000000,0.000000,0.000000,59.807648,61.873993,0.000000,-0.001000,-0.001000,0.002000,FlatInitial,ResetBack,0
07:27:23.306 PM 02/17/2016,Teleop Disabled,0,FALSE,0,NO ERROR,0.000000,0.000000,-6000.000000,-6000.000000,Speed,Speed,-0.060000,0.930000,1.620000,1.000000,103.000000,1,0,-0.000000,0.000000,1,0.000000,0.000000,0.000000,59.807648,61.873993,0.000000,0.000000,0.000000,0.000000,FlatInitial,ResetBack,0
07:27:23.406 PM 02/17/2016,Teleop Disabled,0,FALSE,0,NO ERROR,0.000000,0.000000,-6000.000000,-6000.000000,Speed,Speed,-0.060000,0.930000,1.620000,1.000000,101.000000,1,0,-0.000000,0.000000,1,0.000000,0.000000,0.000000,59.807648,61.873993,0.000000,0.000000,-0.003000,0.004000,FlatInitial,ResetBack,0
07:27:23.506 PM 02/17/2016,Teleop Disabled,0,FALSE,0,NO ERROR,0.000000,0.000000,-6000.000000,-6000.000000,Speed,Speed,-0.060000,0.930000,1.610000,1.000000,102.000000,1,0,-0.000000,0.000000,1,0.000000,0.000000,0.000000,59.807648,61.873993,0.000000,0.000000,0.000000,0.000000,FlatInitial,ResetBack,0
07:27:23.606 PM 02/17/2016,Teleop Disabled,0,FALSE,0,NO ERROR,0.000000,0.000000,-6000.000000,-6000.000000,Speed,Speed,-0.060000,0.930000,1.620000,1.000000,101.000000,1,0,-0.000000,0.000000,1,0.000000,0.000000,0.000000,59.807648,61.873993,0.000000,0.000000,0.000000,0.004000,FlatInitial,ResetBack,0
07:27:23.707 PM 02/17/2016,Teleop Disabled,0,FALSE,0,NO ERROR,0.000000,0.000000,-6000.000000,-6000.000000,Speed,Speed,-0.060000,0.930000,1.620000,1.000000,111.000000,1,0,-0.000000,0.000000,1,0.000000,0.000000,0.000000,59.807648,61.873993,0.000000,0.002000,-0.003000,0.002000,FlatInitial,ResetBack,0
07:27:23.807 PM 02/17/2016,Teleop Disabled,0,FALSE,0,NO ERROR,0.000000,0.000000,-6000.000000,-6000.000000,Speed,Speed,-0.060000,0.930000,1.620000,1.000000,102.000000,1,0,-0.000000,0.000000,1,0.000000,0.000000,0.000000,59.807648,61.873993,0.000000,-0.003000,0.001000,0.006000,FlatInitial,ResetBack,0
07:27:23.907 PM 02/17/2016,Teleop Disabled,0,FALSE,0,NO ERROR,0.000000,0.000000,-6000.000000,-6000.000000,Speed,Speed,-0.060000,0.930000,1.620000,1.000000,104.000000,1,0,-0.000000,0.000000,1,0.000000,0.000000,0.000000,59.807648,61.873993,0.000000,-0.002000,0.000000,0.003000,FlatInitial,ResetBack,0
07:27:24.008 PM 02/17/2016,Teleop Disabled,0,FALSE,0,NO ERROR,0.000000,0.000000,-6000.000000,-6000.000000,Speed,Speed,-0.060000,0.930000,1.620000,1.000000,101.000000,1,0,-0.000000,0.000000,1,0.000000,0.000000,0.000000,59.807648,61.873993,0.000000,-0.001000,0.001000,0.000000,FlatInitial,ResetBack,0
07:27:24.108 PM 02/17/2016,Teleop Disabled,0,FALSE,0,NO ERROR,0.000000,0.000000,-6000.000000,-6000.000000,Speed,Speed,-0.060000,0.930000,1.620000,1.000000,101.000000,1,0,-0.000000,0.000000,1,0.000000,0.000000,0.000000,59.807648,61.873993,0.000000,0.000000,0.000000,-0.001000,FlatInitial,ResetBack,0
07:27:24.208 PM 02/17/2016,Teleop Disabled,0,FALSE,0,NO ERROR,0.000000,0.000000,-6000.000000,-6000.000000,Speed,Speed,-0.060000,0.930000,1.610000,1.000000,103.000000,1,0,-0.000000,0.000000,1,0.000000,0.000000,0.000000,59.807648,61.873993,0.000000,-0.001000,-0.001000,0.006000,FlatInitial,ResetBack,0
07:27:24.308 PM 02/17/2016,Teleop Disabled,0,FALSE,0,NO ERROR,0.000000,0.000000,-6000.000000,-6000.000000,Speed,Speed,-0.060000,0.930000,1.610000,1.000000,103.000000,1,0,-0.000000,0.000000,1,0.000000,0.000000,0.000000,59.807648,61.873993,0.000000,0.000000,0.001000,0.000000,FlatInitial,ResetBack,0
07:27:24.408 PM 02/17/2016,Teleop Disabled,0,FALSE,0,NO ERROR,0.000000,0.000000,-6000.000000,-6000.000000,Speed,Speed,-0.060000,0.930000,1.610000,1.000000,101.000000,1,0,-0.000000,0.000000,1,0.000000,0.000000,0.000000,59.807648,61.873993,0.000000,-0.001000,-0.002000,-0.001000,FlatInitial,ResetBack,0
07:27:24.508 PM 02/17/2016,Teleop Disabled,0,FALSE,0,NO ERROR,0.000000,0.000000,-6000.000000,-6000.000000,Speed,Speed,-0.060000,0.930000,1.610000,1.000000,103.000000,1,0,-0.000000,0.000000,1,0.000000,0.000000,0.000000,59.807648,61.873993,0.000000,0.001000,-0.002000,0.004000,FlatInitial,ResetBack,0
07:27:24.609 PM 02/17/2016,Teleop Disabled,0,FALSE,0,NO ERROR,0.000000,0.000000,-6000.000000,-6000.000000,Speed,Speed,-0.060000,0.920000,1.620000,1.000000,103.000000,1,0,-0.000000,0.000000,1,0.000000,0.000000,0.000000,59.807648,61.873993,0.000000,0.000000,-0.005000,0.004000,FlatInitial,ResetBack,0
07:27:24.710 PM 02/17/2016,Teleop Disabled,0,FALSE,0,NO ERROR,0.000000,0.000000,-6000.000000,-6000.000000,Speed,Speed,-0.060000,0.920000,1.620000,1.000000,102.000000,1,0,-0.000000,0.000000,1,0.000000,0.000000,0.000000,59.807648,61.873993,0.000000,-0.001000,0.001000,0.001000,FlatInitial,ResetBack,0
07:27:24.811 PM 02/17/2016,Teleop Disabled,0,FALSE,0,NO ERROR,0.000000,0.000000,-6000.000000,-6000.000000,Speed,Speed,-0.060000,0.920000,1.620000,1.000000,101.000000,1,0,-0.000000,0.000000,1,0.000000,0.000000,0.000000,59.807648,61.873993,0.000000,0.000000,0.000000,0.002000,FlatInitial,ResetBack,0
07:27:24.912 PM 02/17/2016,Teleop Disabled,0,FALSE,0,NO ERROR,0.000000,0.000000,-6000.000000,-6000.000000,Speed,Speed,-0.060000,0.930000,1.620000,1.000000,102.000000,1,0,-0.000000,0.000000,1,0.000000,0.000000,0.000000,59.807648,61.873993,0.000000,0.002000,0.000000,0.000000,FlatInitial,ResetBack,0
07:27:25.013 PM 02/17/2016,Teleop Disabled,0,FALSE,0,NO ERROR,0.000000,0.000000,-6000.000000,-6000.000000,Speed,Speed,-0.060000,0.920000,1.630000,1.000000,102.000000,1,0,-0.000000,0.000000,1,0.000000,0.000000,0.000000,59.807648,61.873993,0.000000,-0.002000,-0.002000,0.001000,FlatInitial,ResetBack,0
07:27:25.113 PM 02/17/2016,Teleop Disabled,0,FALSE,0,NO ERROR,0.000000,0.000000,-6000.000000,-6000.000000,Speed,Speed,-0.060000,0.930000,1.620000,1.000000,102.000000,1,0,-0.000000,0.000000,1,0.000000,0.000000,0.000000,59.807648,61.873993,0.000000,0.000000,-0.003000,0.010000,FlatInitial,ResetBack,0
07:27:25.214 PM 02/17/2016,Teleop Disabled,0,FALSE,0,NO ERROR,0.000000,0.000000,-6000.000000,-6000.000000,Speed,Speed,-0.070000,0.930000,1.620000,1.000000,102.000000,1,0,-0.000000,0.000000,1,0.000000,0.000000,0.000000,59.807648,61.873993,0.000000,0.001000,0.000000,0.005000,FlatInitial,ResetBack,0
07:27:25.315 PM 02/17/2016,Teleop Disabled,0,FALSE,0,NO ERROR,0.000000,0.000000,-6000.000000,-6000.000000,Speed,Speed,-0.070000,0.930000,1.620000,1.000000,101.000000,1,0,-0.000000,0.000000,1,0.000000,0.000000,0.000000,59.807648,61.873993,0.000000,-0.001000,-0.002000,0.002000,FlatInitial,ResetBack,0
07:27:25.415 PM 02/17/2016,Teleop Disabled,0,FALSE,0,NO ERROR,0.000000,0.000000,-6000.000000,-6000.000000,Speed,Speed,-0.070000,0.920000,1.620000,1.000000,101.000000,1,0,-0.000000,0.000000,1,0.000000,0.000000,0.000000,59.807648,61.873993,0.000000,0.000000,0.003000,0.004000,FlatInitial,ResetBack,0
07:27:25.516 PM 02/17/2016,Teleop Disabled,0,FALSE,0,NO ERROR,0.000000,0.000000,-6000.000000,-6000.000000,Speed,Speed,-0.070000,0.930000,1.620000,1.000000,102.000000,1,0,-0.000000,0.000000,1,0.000000,0.000000,0.000000,59.807648,61.873993,0.000000,0.000000,0.001000,0.000000,FlatInitial,ResetBack,0
07:27:25.616 PM 02/17/2016,Teleop Disabled,0,FALSE,0,NO ERROR,0.000000,0.000000,-6000.000000,-6000.000000,Speed,Speed,-0.070000,0.920000,1.620000,1.000000,103.000000,1,0,-0.000000,0.000000,1,0.000000,0.000000,0.000000,59.807648,61.873993,0.000000,-0.002000,-0.002000,0.004000,FlatInitial,ResetBack,0
07:27:25.720 PM 02/17/2016,Teleop Disabled,0,FALSE,0,NO ERROR,0.000000,0.000000,-6000.000000,-6000.000000,Speed,Speed,-0.070000,0.920000,1.620000,1.000000,103.000000,1,0,-0.000000,0.000000,1,0.000000,0.000000,0.000000,59.807648,61.873993,0.000000,0.001000,0.000000,0.002000,FlatInitial,ResetBack,0
07:27:25.822 PM 02/17/2016,Teleop Disabled,0,FALSE,0,NO ERROR,0.000000,0.000000,-6000.000000,-6000.000000,Speed,Speed,-0.070000,0.920000,1.620000,1.000000,105.000000,1,0,-0.000000,0.000000,1,0.000000,0.000000,0.000000,59.807648,61.873993,0.000000,-0.004000,-0.001000,0.001000,FlatInitial,ResetBack,0
07:27:25.922 PM 02/17/2016,Teleop Disabled,0,FALSE,0,NO ERROR,0.000000,0.000000,-6000.000000,-6000.000000,Speed,Speed,-0.070000,0.920000,1.620000,1.000000,104.000000,1,0,-0.000000,0.000000,1,0.000000,0.000000,0.000000,59.807648,61.873993,0.000000,0.002000,-0.001000,0.005000,FlatInitial,ResetBack,0
07:27:26.024 PM 02/17/2016,Teleop Disabled,0,FALSE,0,NO ERROR,0.000000,0.000000,-6000.000000,-6000.000000,Speed,Speed,-0.070000,0.920000,1.620000,1.000000,101.000000,1,0,-0.000000,0.000000,1,0.000000,0.000000,0.000000,59.807648,61.873993,0.000000,0.000000,0.000000,-0.001000,FlatInitial,ResetBack,0
07:27:26.124 PM 02/17/2016,Teleop Disabled,0,FALSE,0,NO ERROR,0.000000,0.000000,-6000.000000,-6000.000000,Speed,Speed,-0.070000,0.920000,1.620000,1.000000,108.000000,1,0,-0.000000,0.000000,1,0.000000,0.000000,0.000000,59.807648,61.873993,0.000000,-0.001000,0.000000,0.006000,FlatInitial,ResetBack,0
07:27:26.224 PM 02/17/2016,Teleop Disabled,0,FALSE,0,NO ERROR,0.000000,0.000000,-6000.000000,-6000.000000,Speed,Speed,-0.070000,0.920000,1.610000,1.000000,102.000000,1,0,-0.000000,0.000000,1,0.000000,0.000000,0.000000,59.807648,61.873993,0.000000,0.000000,0.000000,0.001000,FlatInitial,ResetBack,0
07:27:26.325 PM 02/17/2016,Teleop Disabled,0,FALSE,0,NO ERROR,0.000000,0.000000,-6000.000000,-6000.000000,Speed,Speed,-0.070000,0.920000,1.610000,1.000000,103.000000,1,0,-0.000000,0.000000,1,0.000000,0.000000,0.000000,59.807648,61.873993,0.000000,0.000000,0.002000,0.004000,FlatInitial,ResetBack,0
07:27:26.425 PM 02/17/2016,Teleop Disabled,0,FALSE,0,NO ERROR,0.000000,0.000000,-6000.000000,-6000.000000,Speed,Speed,-0.070000,0.910000,1.620000,1.000000,102.000000,1,0,-0.000000,0.000000,1,0.000000,0.000000,0.000000,59.807648,61.873993,0.000000,0.001000,0.000000,0.004000,FlatInitial,ResetBack,0
07:27:26.525 PM 02/17/2016,Teleop Disabled,0,FALSE,0,NO ERROR,0.000000,0.000000,-6000.000000,-6000.000000,Speed,Speed,-0.070000,0.920000,1.610000,1.000000,102.000000,1,0,-0.000000,0.000000,1,0.000000,0.000000,0.000000,59.807648,61.873993,0.000000,0.001000,0.002000,0.005000,FlatInitial,ResetBack,0
07:27:26.625 PM 02/17/2016,Teleop Disabled,0,FALSE,0,NO ERROR,0.000000,0.000000,-6000.000000,-6000.000000,Speed,Speed,-0.080000,0.920000,1.610000,1.000000,102.000000,1,0,-0.000000,0.000000,1,0.000000,0.000000,0.000000,59.807648,61.873993,0.000000,0.000000,0.000000,0.003000,FlatInitial,ResetBack,0
07:27:26.725 PM 02/17/2016,Teleop Disabled,0,FALSE,0,NO ERROR,0.000000,0.000000,-6000.000000,-6000.000000,Speed,Speed,-0.080000,0.920000,1.620000,1.000000,100.000000,1,0,-0.000000,0.000000,1,0.000000,0.000000,0.000000,59.807648,61.873993,0.000000,0.001000,0.001000,0.000000,FlatInitial,ResetBack,0
07:27:26.825 PM 02/17/2016,Teleop Disabled,0,FALSE,0,NO ERROR,0.000000,0.000000,-6000.000000,-6000.000000,Speed,Speed,-0.080000,0.920000,1.610000,1.000000,101.000000,1,0,-0.000000,0.000000,1,0.000000,0.000000,0.000000,59.807648,61.873993,0.000000,-0.001000,0.002000,0.001000,FlatInitial,ResetBack,0
07:27:26.926 PM 02/17/2016,Teleop Disabled,0,FALSE,0,NO ERROR,0.000000,0.000000,-6000.000000,-6000.000000,Speed,Speed,-0.080000,0.910000,1.620000,1.000000,101.000000,1,0,-0.000000,0.000000,1,0.000000,0.000000,0.000000,59.807648,61.873993,0.000000,0.000000,-0.001000,0.003000,FlatInitial,ResetBack,0
07:27:27.026 PM 02/17/2016,Teleop Disabled,0,FALSE,0,NO ERROR,0.000000,0.000000,-6000.000000,-6000.000000,Speed,Speed,-0.080000,0.920000,1.610000,1.000000,102.000000,1,0,-0.000000,0.000000,1,0.000000,0.000000,0.000000,59.807648,61.873993,0.000000,-0.001000,-0.001000,0.002000,FlatInitial,ResetBack,0
07:27:27.126 PM 02/17/2016,Teleop Disabled,0,FALSE,0,NO ERROR,0.000000,0.000000,-6000.000000,-6000.000000,Speed,Speed,-0.080000,0.910000,1.620000,1.000000,101.000000,1,0,-0.000000,0.000000,1,0.000000,0.000000,0.000000,59.807648,61.873993,0.000000,0.000000,-0.001000,0.006000,FlatInitial,ResetBack,0
07:27:27.229 PM 02/17/2016,Teleop Disabled,0,FALSE,0,NO ERROR,0.000000,0.000000,-6000.000000,-6000.000000,Speed,Speed,-0.090000,0.920000,1.610000,1.000000,102.000000,1,0,-0.000000,0.000000,1,0.000000,0.000000,0.000000,59.807648,61.873993,0.000000,0.000000,0.001000,0.006000,FlatInitial,ResetBack,0
07:27:27.329 PM 02/17/2016,Teleop Disabled,0,FALSE,0,NO ERROR,0.000000,0.000000,-6000.000000,-6000.000000,Speed,Speed,-0.090000,0.920000,1.620000,1.000000,101.000000,1,0,-0.000000,0.000000,1,0.000000,0.000000,0.000000,59.807648,61.873993,0.000000,0.001000,-0.003000,0.001000,FlatInitial,ResetBack,0
07:27:27.430 PM 02/17/2016,Teleop Disabled,0,FALSE,0,NO ERROR,0.000000,0.000000,-6000.000000,-6000.000000,Speed,Speed,-0.090000,0.920000,1.610000,1.000000,102.000000,1,0,-0.000000,0.000000,1,0.000000,0.000000,0.000000,59.807648,61.873993,0.000000,0.000000,0.000000,0.000000,FlatInitial,ResetBack,0
07:27:27.530 PM 02/17/2016,Teleop Disabled,0,FALSE,0,NO ERROR,0.000000,0.000000,-6000.000000,-6000.000000,Speed,Speed,-0.090000,0.920000,1.610000,1.000000,105.000000,1,0,-0.000000,0.000000,1,0.000000,0.000000,0.000000,59.807648,61.873993,0.000000,0.000000,0.000000,0.000000,FlatInitial,ResetBack,0
07:27:27.630 PM 02/17/2016,Teleop Disabled,0,FALSE,0,NO ERROR,0.000000,0.000000,-6000.000000,-6000.000000,Speed,Speed,-0.090000,0.920000,1.620000,1.000000,104.000000,1,0,-0.000000,0.000000,1,0.000000,0.000000,0.000000,59.807648,61.873993,0.000000,0.002000,0.000000,0.001000,FlatInitial,ResetBack,0
07:27:27.731 PM 02/17/2016,Teleop Disabled,0,FALSE,0,NO ERROR,0.000000,0.000000,-6000.000000,-6000.000000,Speed,Speed,-0.090000,0.920000,1.620000,1.000000,101.000000,1,0,-0.000000,0.000000,1,0.000000,0.000000,0.000000,59.807648,61.873993,0.000000,-0.001000,0.001000,0.004000,FlatInitial,ResetBack,0
07:27:27.831 PM 02/17/2016,Teleop Disabled,0,FALSE,0,NO ERROR,0.000000,0.000000,-6000.000000,-6000.000000,Speed,Speed,-0.090000,0.930000,1.610000,1.000000,114.000000,1,0,-0.000000,0.000000,1,0.000000,0.000000,0.000000,59.807648,61.873993,0.000000,-0.003000,0.000000,0.005000,FlatInitial,ResetBack,0
07:28:01.393 PM 02/17/2016,Teleop Enabled,0,FALSE,0,NO ERROR,0.000000,0.000000,-6000.000000,-6000.000000,Speed,Speed,-0.280000,0.900000,1.610000,1.000000,102.000000,1,0,-0.000000,0.000000,1,0.000000,0.000000,0.000000,59.807648,61.873993,0.000000,0.005000,-0.003000,0.001000,FlatInitial,ResetBack,0
07:28:01.495 PM 02/17/2016,Teleop Enabled,0,FALSE,0,NO ERROR,-274.804688,274.951172,-6000.000000,-6000.000000,Speed,Speed,-0.290000,0.900000,1.570000,1.000000,103.000000,1,0,-0.000000,0.000000,1,0.000000,0.000000,0.000000,59.807648,61.873993,0.000000,0.005000,-0.003000,0.001000,FlatInitial,ResetBack,0
07:28:01.596 PM 02/17/2016,Teleop Enabled,0,FALSE,0,NO ERROR,-1983.251953,1868.847656,-6000.000000,-6000.000000,Speed,Speed,-0.290000,0.910000,1.480000,1.000000,102.000000,1,0,-0.000000,0.000000,1,-0.021835,-0.002747,0.000000,59.806793,61.874023,0.000000,-0.011000,0.026000,-0.063000,FlatInitial,ResetBack,0
07:28:01.697 PM 02/17/2016,Teleop Enabled,0,FALSE,0,NO ERROR,-3656.250000,3439.892578,-6000.000000,-6000.000000,Speed,Speed,-0.330000,0.910000,1.620000,1.000000,102.000000,1,0,-0.000000,0.000000,1,0.000000,-0.020050,0.000000,59.807098,61.873215,0.000000,-0.047000,0.045000,-0.061000,FlatInitial,ResetBack,0
07:28:01.799 PM 02/17/2016,Teleop Enabled,0,FALSE,0,NO ERROR,-4930.078125,4740.966797,-6000.000000,-6000.000000,Speed,Speed,-0.330000,0.910000,1.620000,1.000000,102.000000,1,0,-0.000000,0.000000,1,0.000000,-0.020050,0.000000,59.807098,61.873215,0.000000,-0.047000,0.045000,-0.061000,FlatInitial,ResetBack,0
07:28:01.900 PM 02/17/2016,Teleop Enabled,0,FALSE,0,NO ERROR,-5541.210938,5551.171875,-6000.000000,-6000.000000,Speed,Speed,-0.270000,0.910000,1.640000,1.000000,102.000000,1,0,-0.000000,0.000000,1,0.000000,-0.022858,0.000000,59.806183,61.872925,0.000000,-0.020000,-0.006000,-0.025000,FlatInitial,ResetBack,0
07:28:02.000 PM 02/17/2016,Teleop Enabled,0,FALSE,0,NO ERROR,-5885.742188,5806.640625,-6000.000000,-6000.000000,Speed,Speed,-0.270000,0.910000,1.640000,1.000000,102.000000,1,0,-0.000000,0.000000,1,0.000000,-0.022858,0.000000,59.806183,61.872925,0.000000,-0.020000,-0.006000,-0.025000,FlatInitial,ResetBack,0
07:28:02.101 PM 02/17/2016,Teleop Enabled,0,FALSE,0,NO ERROR,-6008.789062,5889.257812,-6000.000000,-6000.000000,Speed,Speed,-0.340000,0.880000,1.840000,1.000000,103.000000,1,0,-0.000000,0.000000,1,-0.013565,-0.009720,0.000000,59.805984,61.871597,0.000000,-0.031000,-0.024000,-0.092000,FlatInitial,ResetBack,0
07:28:02.202 PM 02/17/2016,Teleop Enabled,0,FALSE,0,NO ERROR,-6024.609375,5906.835938,-6000.000000,-6000.000000,Speed,Speed,-0.310000,0.850000,1.790000,1.000000,104.000000,1,0,-0.000000,0.000000,1,-0.002167,-0.123779,0.000000,59.803085,61.865692,0.000000,-0.035000,-0.080000,-0.098000,FlatInitial,ResetBack,0
07:28:02.302 PM 02/17/2016,Teleop Enabled,0,FALSE,0,NO ERROR,-6024.023438,5930.273438,-6000.000000,-6000.000000,Speed,Speed,-0.320000,0.870000,1.710000,1.000000,100.000000,1,0,-0.000000,0.000000,1,0.064728,-0.213791,0.000000,59.804596,61.858521,0.000000,0.067000,-0.115000,-0.080000,FlatInitial,ResetBack,0
07:28:02.403 PM 02/17/2016,Teleop Enabled,0,FALSE,0,NO ERROR,-6017.578125,5947.265625,-6000.000000,-6000.000000,Speed,Speed,-0.340000,0.940000,1.580000,1.000000,104.000000,1,0,-0.000000,0.000000,1,0.161636,-0.326645,0.000000,59.810577,61.844589,0.000000,0.089000,-0.127000,-0.077000,FlatInitial,ResetBack,0
07:28:02.503 PM 02/17/2016,Teleop Enabled,0,FALSE,0,NO ERROR,-6008.203125,5965.429688,-6000.000000,-6000.000000,Speed,Speed,-0.330000,0.990000,1.440000,1.000000,103.000000,1,0,-0.000000,0.000000,1,0.273941,-0.448364,0.000000,59.821915,61.824524,0.000000,0.089000,-0.127000,-0.077000,FlatInitial,ResetBack,0
07:28:02.603 PM 02/17/2016,Teleop Enabled,0,FALSE,0,NO ERROR,-6004.101562,5980.664062,-6000.000000,-6000.000000,Speed,Speed,-0.340000,1.030000,1.380000,1.000000,105.000000,1,0,-0.000000,0.000000,1,0.375748,-0.525482,0.000000,59.835419,61.804611,0.000000,0.148000,-0.105000,-0.069000,FlatInitial,ResetBack,0
07:28:02.703 PM 02/17/2016,Teleop Enabled,0,FALSE,0,NO ERROR,-6002.343750,5988.867188,-6000.000000,-6000.000000,Speed,Speed,-0.350000,1.010000,1.280000,1.000000,100.000000,1,0,-0.000000,0.000000,1,0.375748,-0.525482,0.000000,59.835419,61.804611,0.000000,0.148000,-0.105000,-0.069000,FlatInitial,ResetBack,0
07:28:02.803 PM 02/17/2016,Teleop Enabled,0,FALSE,0,NO ERROR,-5998.242188,5996.484375,-6000.000000,-6000.000000,Speed,Speed,-0.350000,1.000000,1.250000,1.000000,103.000000,1,0,-0.000000,0.000000,1,0.541382,-0.673477,0.000000,59.868607,61.761566,0.000000,0.118000,-0.086000,-0.073000,FlatInitial,ResetBack,1
07:28:02.904 PM 02/17/2016,Teleop Enabled,0,FALSE,0,NO ERROR,-5997.070312,5992.968750,-6000.000000,-6000.000000,Speed,Speed,-0.360000,0.980000,1.180000,1.000000,100.000000,1,0,-0.000000,0.000000,1,0.738953,-0.840240,0.000000,59.920303,61.700439,0.000000,0.157000,-0.137000,-0.066000,FlatInitial,ResetForward,1
07:28:03.004 PM 02/17/2016,Teleop Enabled,0,FALSE,0,NO ERROR,-6001.171875,5991.210938,-6000.000000,-6000.000000,Speed,Speed,-0.360000,0.980000,1.180000,1.000000,101.000000,1,0,-0.000000,0.000000,1,0.738953,-0.840240,0.000000,59.920303,61.700439,0.000000,0.157000,-0.137000,-0.066000,FlatInitial,ResetForward,1
07:28:03.104 PM 02/17/2016,Teleop Enabled,0,FALSE,0,NO ERROR,-6008.789062,5998.242188,-6000.000000,-6000.000000,Speed,Speed,-0.360000,0.950000,1.070000,1.000000,101.000000,1,0,-0.000000,0.000000,1,0.955872,-1.052704,0.000000,59.989334,61.623734,0.000000,0.134000,-0.089000,-0.060000,FlatInitial,ResetForward,1
07:28:03.204 PM 02/17/2016,Teleop Enabled,0,FALSE,0,NO ERROR,-6019.921875,6012.890625,-6000.000000,-6000.000000,Speed,Speed,-0.350000,0.900000,0.890000,1.000000,101.000000,1,0,-0.000000,0.000000,1,1.124435,-1.202637,0.000000,60.063110,61.543533,0.000000,0.130000,-0.075000,-0.094000,FlatInitial,ResetForward,1
07:28:03.304 PM 02/17/2016,Teleop Enabled,0,FALSE,0,NO ERROR,-6024.609375,6022.265625,-6000.000000,-6000.000000,Speed,Speed,-0.340000,0.870000,0.890000,1.000000,101.000000,1,0,-0.000000,0.000000,1,1.173264,-1.229324,0.000000,60.097885,61.506851,0.000000,0.083000,-0.003000,-0.038000,FlatInitial,ResetForward,1
07:28:03.404 PM 02/17/2016,Teleop Enabled,0,FALSE,0,NO ERROR,-6020.507812,6018.164062,-6000.000000,-6000.000000,Speed,Speed,-0.330000,0.830000,0.740000,1.000000,100.000000,1,0,-0.000000,0.000000,1,1.251617,-0.004791,0.000000,60.146667,61.506668,0.000000,0.095000,-0.053000,-0.044000,FlatInitial,ResetForward,1
07:28:03.505 PM 02/17/2016,Teleop Enabled,0,FALSE,0,NO ERROR,-6014.648438,6015.234375,-6000.000000,-6000.000000,Speed,Speed,-0.380000,0.790000,0.850000,1.000000,113.000000,1,0,-0.000000,0.000000,1,1.331604,-0.042099,0.000000,60.224915,61.504883,0.000000,0.045000,-0.015000,-0.072000,FlatInitial,ResetForward,0
07:28:03.607 PM 02/17/2016,Teleop Enabled,0,FALSE,0,NO ERROR,-6013.476562,6014.648438,-6000.000000,-6000.000000,Speed,Speed,-0.380000,0.810000,0.830000,1.000000,103.000000,1,0,-0.000000,0.000000,1,1.421371,0.001526,0.000000,60.307907,61.503403,0.000000,0.056000,0.034000,0.030000,FlatInitial,Reset,0
07:28:03.707 PM 02/17/2016,Teleop Enabled,0,FALSE,0,NO ERROR,-6004.687500,6010.546875,-6000.000000,-6000.000000,Speed,Speed,-0.380000,0.790000,1.050000,1.000000,102.000000,1,0,-0.000000,0.000000,1,1.456512,0.042175,0.000000,60.365692,61.504440,0.000000,0.037000,0.069000,-0.010000,FlatInitial,Hold,0
07:28:03.808 PM 02/17/2016,Teleop Enabled,0,FALSE,0,NO ERROR,-5998.828125,6004.101562,-6000.000000,-6000.000000,Speed,Speed,-0.350000,0.790000,1.190000,1.000000,100.000000,1,0,-0.000000,0.000000,1,1.537735,0.144913,0.000000,60.470779,61.511292,0.000000,0.071000,0.060000,-0.021000,FlatInitial,Hold,0
07:28:03.908 PM 02/17/2016,Teleop Enabled,0,FALSE,0,NO ERROR,-5995.312500,6009.375000,-6000.000000,-6000.000000,Speed,Speed,-0.370000,0.790000,1.480000,1.000000,102.000000,1,0,-0.000000,0.000000,1,1.573883,0.163239,0.000000,60.517654,61.516037,0.000000,0.052000,0.027000,-0.004000,FlatInitial,Hold,0
07:28:04.009 PM 02/17/2016,Teleop Enabled,0,FALSE,0,NO ERROR,-5995.312500,6012.304688,-6000.000000,-6000.000000,Speed,Speed,-0.380000,0.800000,1.530000,1.000000,100.000000,1,0,-0.000000,0.000000,1,1.635544,0.218399,0.000000,60.598221,61.525604,0.000000,0.046000,0.072000,-0.016000,FlatInitial,Hold,0
07:28:04.111 PM 02/17/2016,Teleop Enabled,0,FALSE,0,NO ERROR,-5995.312500,6012.304688,-6000.000000,-6000.000000,Speed,Speed,-0.360000,0.790000,1.830000,1.000000,101.000000,1,0,-0.000000,0.000000,1,1.692520,0.306839,0.000000,60.698334,61.541992,0.000000,0.066000,0.038000,-0.073000,FlatInitial,Hold,0
07:28:04.209 PM 02/17/2016,Teleop Enabled,0,FALSE,0,NO ERROR,-6000.000000,6004.687500,-6000.000000,-6000.000000,Speed,Speed,-0.380000,0.790000,1.940000,1.000000,102.000000,1,0,-0.000000,0.000000,1,1.741745,0.346313,0.000000,60.784454,61.558411,0.000000,0.054000,0.113000,-0.014000,FlatInitial,Hold,0
07:28:04.310 PM 02/17/2016,Teleop Enabled,0,FALSE,0,NO ERROR,-6004.101562,6001.757812,-6000.000000,-6000.000000,Speed,Speed,-0.370000,0.790000,2.060000,1.000000,104.000000,1,0,-0.000000,0.000000,1,1.776703,0.426392,0.000000,60.854996,61.574219,0.000000,0.037000,0.084000,-0.045000,FlatInitial,Hold,0
07:28:04.409 PM 02/17/2016,Teleop Enabled,0,FALSE,0,NO ERROR,-6004.101562,6000.000000,-6000.000000,-6000.000000,Speed,Speed,-0.370000,0.780000,2.310000,1.000000,101.000000,1,0,-0.000000,0.000000,1,1.826187,0.513351,0.000000,60.963333,61.602951,0.000000,0.035000,0.089000,-0.030000,FlatInitial,Hold,0
07:28:04.509 PM 02/17/2016,Teleop Enabled,0,FALSE,0,NO ERROR,-6009.960938,5998.242188,-6000.000000,-6000.000000,Speed,Speed,-0.370000,0.780000,2.410000,1.000000,102.000000,1,0,-0.000000,0.000000,1,1.867752,0.601196,0.000000,61.055817,61.631271,0.000000,0.072000,0.118000,-0.020000,FlatInitial,Hold,0
07:28:04.609 PM 02/17/2016,Teleop Enabled,0,FALSE,0,NO ERROR,-6008.789062,6002.343750,-6000.000000,-6000.000000,Speed,Speed,-0.370000,0.770000,2.610000,1.000000,103.000000,1,0,-0.000000,0.000000,1,1.909912,0.663315,0.000000,61.131622,61.657013,0.000000,0.070000,0.059000,-0.005000,FlatInitial,Hold,0
07:28:04.709 PM 02/17/2016,Teleop Enabled,0,FALSE,0,NO ERROR,-6003.515625,6008.789062,-6000.000000,-6000.000000,Speed,Speed,-0.370000,0.770000,2.640000,1.000000,103.000000,1,0,-0.000000,0.000000,1,1.984955,0.740936,0.000000,61.248917,61.699417,0.000000,0.064000,0.075000,-0.008000,FlatInitial,Hold,0
07:28:04.809 PM 02/17/2016,Teleop Enabled,0,FALSE,0,NO ERROR,-6004.101562,6010.546875,-6000.000000,-6000.000000,Speed,Speed,-0.370000,0.760000,2.830000,1.000000,103.000000,1,0,-0.000000,0.000000,1,2.046371,0.824142,0.000000,61.349915,61.739059,0.000000,0.077000,0.037000,-0.021000,FlatInitial,Hold,0
07:28:04.911 PM 02/17/2016,Teleop Enabled,0,FALSE,0,NO ERROR,-6007.617188,6004.101562,-6000.000000,-6000.000000,Speed,Speed,-0.370000,0.760000,2.830000,1.000000,100.000000,1,0,-0.000000,0.000000,1,2.114639,0.878815,0.000000,61.454361,61.781937,0.000000,0.029000,0.059000,-0.031000,FlatInitial,Hold,0
07:28:05.012 PM 02/17/2016,Teleop Enabled,0,FALSE,0,NO ERROR,-6009.375000,6002.343750,-6000.000000,-6000.000000,Speed,Speed,-0.370000,0.760000,2.930000,1.000000,102.000000,1,0,-0.000000,0.000000,1,2.187241,0.974670,0.000000,61.583923,61.838226,0.000000,0.052000,0.063000,-0.018000,FlatInitial,Hold,0
07:28:05.112 PM 02/17/2016,Teleop Enabled,0,FALSE,0,NO ERROR,-6003.515625,6000.000000,-6000.000000,-6000.000000,Speed,Speed,-0.370000,0.750000,2.960000,1.000000,102.000000,1,0,-0.000000,0.000000,1,2.252747,1.065689,0.000000,61.717377,61.899689,0.000000,0.043000,0.070000,-0.016000,FlatInitial,Hold,0
07:28:05.212 PM 02/17/2016,Teleop Enabled,0,FALSE,0,NO ERROR,-5997.070312,5998.828125,-6000.000000,-6000.000000,Speed,Speed,-0.370000,0.740000,2.990000,1.000000,109.000000,1,0,-0.000000,0.000000,1,2.287323,1.132416,0.000000,61.808380,61.943863,0.000000,0.039000,0.098000,-0.026000,FlatInitial,Hold,0
