Time,RobotMode,AutoToRun,ErrorStatus, ErrorCode,ErrorSource,ActualRPM1,ActualRPM2,DesiredRPM1,DesiredRPM2,ControlMode1,ControlMode2,NavXYaw,NavXRoll,NavXPitch,ShooterState,LoopTime,IsLevel,IsAutoTargeting,LeftMotorOutput,RightMotorOutput,IsHaloDrive,NavXVelocityX,NavXVelocityY,NavXVelocityZ,NavXDisplacementX,NavXDisplacementY,NavXDisplacementZ,NavXAccelerationX,NavXAccelerationY,NavXAccelerationZ,AutoDefendState,AngeMotorState,Photoeye
07:10:06.959 PM 02/16/2016,Autonomous Disabled,0,TRUE,91,Variant To Data in WPI_DigitalInputRefNum Registry Get.vi->Periodic Tasks.vi->Robot Main.vi,0.000000,0.000000,-6000.000000,-6000.000000,Speed,Speed,-0.190000,0.800000,0.790000,0.000000,18799.000000,1,0,-0.000000,0.000000,1,0.000000,0.000000,0.000000,-19.130707,40.979492,0.000000,0.001000,-0.001000,0.003000,FlatInitial,ResetBack,0
07:10:07.059 PM 02/16/2016,Teleop Disabled,0,TRUE,-44007,<LOCATION>WPI_DigitalInputRefNum Registry Get.vi<CALLSTACK>WPI_DigitalInputRefNum Registry Get.vi< <Periodic Tasks.vi< <Robot Main.vi,0.000000,0.000000,0.000000,0.000000,Speed,Speed,-0.050000,0.740000,0.960000,0.000000,36279.000000,1,0,-0.000000,0.000000,1,0.000000,0.000000,0.000000,-19.129257,40.979782,0.000000,0.000000,0.000000,0.002000,FlatInitial,ResetBack,0
07:10:07.160 PM 02/16/2016,Teleop Disabled,0,FALSE,0,NO ERROR,0.000000,0.000000,0.000000,0.000000,Speed,Speed,0.000000,0.750000,0.960000,0.000000,105.000000,1,0,-0.000000,0.000000,1,0.000000,0.000000,0.000000,-19.129257,40.979782,0.000000,0.000000,0.003000,0.003000,FlatInitial,ResetBack,0
07:10:07.261 PM 02/16/2016,Teleop Disabled,0,FALSE,0,NO ERROR,0.000000,0.000000,0.000000,0.000000,Speed,Speed,0.000000,0.750000,0.960000,0.000000,101.000000,1,0,-0.000000,0.000000,1,0.000000,0.000000,0.000000,-19.129257,40.979782,0.000000,-0.001000,-0.001000,0.000000,FlatInitial,ResetBack,0
07:10:07.361 PM 02/16/2016,Teleop Disabled,0,FALSE,0,NO ERROR,0.000000,0.000000,0.000000,0.000000,Speed,Speed,0.000000,0.740000,0.960000,0.000000,101.000000,1,0,-0.000000,0.000000,1,0.000000,0.000000,0.000000,-19.129257,40.979782,0.000000,0.000000,-0.001000,0.000000,FlatInitial,ResetBack,0
07:10:07.461 PM 02/16/2016,Teleop Disabled,0,FALSE,0,NO ERROR,0.000000,0.000000,0.000000,0.000000,Speed,Speed,0.000000,0.740000,0.970000,0.000000,101.000000,1,0,-0.000000,0.000000,1,0.000000,0.000000,0.000000,-19.129257,40.979782,0.000000,0.001000,0.000000,0.004000,FlatInitial,ResetBack,0
07:10:07.562 PM 02/16/2016,Teleop Disabled,0,FALSE,0,NO ERROR,0.000000,0.000000,0.000000,0.000000,Speed,Speed,0.000000,0.740000,0.970000,0.000000,101.000000,1,0,-0.000000,0.000000,1,0.000000,0.000000,0.000000,-19.129257,40.979782,0.000000,0.002000,-0.003000,0.003000,FlatInitial,ResetBack,0
07:10:07.662 PM 02/16/2016,Teleop Disabled,0,FALSE,0,NO ERROR,0.000000,0.000000,0.000000,0.000000,Speed,Speed,0.000000,0.740000,0.970000,0.000000,102.000000,1,0,-0.000000,0.000000,1,0.000000,0.000000,0.000000,-19.129257,40.979782,0.000000,0.004000,0.000000,0.002000,FlatInitial,ResetBack,0
07:10:07.762 PM 02/16/2016,Teleop Disabled,0,FALSE,0,NO ERROR,0.000000,0.000000,0.000000,0.000000,Speed,Speed,0.000000,0.740000,0.970000,0.000000,104.000000,1,0,-0.000000,0.000000,1,0.000000,0.000000,0.000000,-19.129257,40.979782,0.000000,0.002000,-0.001000,0.005000,FlatInitial,ResetBack,0
07:10:07.862 PM 02/16/2016,Teleop Disabled,0,FALSE,0,NO ERROR,0.000000,0.000000,0.000000,0.000000,Speed,Speed,0.000000,0.740000,0.960000,0.000000,102.000000,1,0,-0.000000,0.000000,1,0.000000,0.000000,0.000000,-19.129257,40.979782,0.000000,0.000000,0.001000,0.004000,FlatInitial,ResetBack,0
07:10:07.962 PM 02/16/2016,Teleop Enabled,0,FALSE,0,NO ERROR,0.000000,0.000000,0.000000,0.000000,Speed,Speed,0.000000,0.740000,0.960000,0.000000,101.000000,1,0,-0.000000,0.000000,1,0.000000,0.000000,0.000000,-19.129257,40.979782,0.000000,-0.002000,-0.001000,0.000000,FlatInitial,ResetBack,0
07:10:08.062 PM 02/16/2016,Teleop Enabled,0,FALSE,0,NO ERROR,0.000000,0.000000,0.000000,0.000000,Speed,Speed,0.000000,0.760000,0.970000,0.000000,101.000000,1,0,-0.000000,0.000000,1,-0.012787,0.000000,0.000000,-19.129440,40.979782,0.000000,-0.031000,0.017000,0.009000,FlatInitial,ResetBack,0
07:10:08.162 PM 02/16/2016,Teleop Enabled,0,FALSE,0,NO ERROR,0.000000,0.000000,0.000000,0.000000,Speed,Speed,0.000000,0.780000,1.000000,0.000000,102.000000,1,0,-0.000000,0.000000,1,0.010376,-0.010513,0.000000,-19.129456,40.980042,0.000000,0.032000,-0.046000,0.024000,FlatInitial,ResetBack,0
07:10:08.262 PM 02/16/2016,Teleop Enabled,0,FALSE,0,NO ERROR,0.000000,0.000000,0.000000,0.000000,Speed,Speed,-0.040000,0.700000,0.990000,0.000000,102.000000,1,0,-0.000000,0.000000,1,-0.004959,0.000000,0.000000,-19.129227,40.979309,0.000000,0.007000,-0.011000,0.009000,FlatInitial,ResetBack,0
07:10:08.362 PM 02/16/2016,Teleop Enabled,0,FALSE,0,NO ERROR,0.000000,0.000000,0.000000,0.000000,Speed,Speed,-0.020000,0.800000,0.940000,0.000000,101.000000,1,0,-0.000000,0.000000,1,0.000000,0.006729,0.000000,-19.129089,40.979416,0.000000,-0.018000,0.013000,0.014000,FlatInitial,ResetBack,1
07:10:08.463 PM 02/16/2016,Teleop Enabled,0,FALSE,0,NO ERROR,0.000000,0.000000,0.000000,0.000000,Speed,Speed,-0.010000,0.710000,1.030000,0.000000,102.000000,1,0,-0.000000,0.000000,1,0.000000,0.003448,0.000000,-19.129089,40.979721,0.000000,0.040000,0.014000,-0.010000,FlatInitial,ResetForward,1
07:10:08.563 PM 02/16/2016,Teleop Enabled,0,FALSE,0,NO ERROR,0.000000,0.000000,0.000000,0.000000,Speed,Speed,-0.030000,0.730000,1.110000,0.000000,101.000000,1,0,-0.000000,0.000000,1,0.000000,-0.003448,0.000000,-19.128860,40.979736,0.000000,-0.015000,-0.027000,0.028000,FlatInitial,ResetForward,1
07:10:08.663 PM 02/16/2016,Teleop Enabled,0,FALSE,0,NO ERROR,0.000000,0.000000,0.000000,0.000000,Speed,Speed,-0.010000,0.720000,1.060000,0.000000,101.000000,1,0,-0.000000,0.000000,1,-0.005630,0.000000,0.000000,-19.128937,40.979553,0.000000,0.002000,-0.001000,-0.027000,FlatInitial,ResetForward,1
07:10:08.763 PM 02/16/2016,Teleop Enabled,0,FALSE,0,NO ERROR,0.000000,0.000000,0.000000,0.000000,Speed,Speed,-0.030000,0.710000,1.090000,0.000000,101.000000,1,0,-0.000000,0.000000,1,0.001266,0.000000,0.000000,-19.128769,40.979553,0.000000,-0.019000,0.015000,-0.002000,FlatInitial,ResetForward,1
07:10:08.863 PM 02/16/2016,Teleop Enabled,0,FALSE,0,NO ERROR,0.000000,0.000000,0.000000,0.000000,Speed,Speed,-0.010000,0.750000,1.090000,0.000000,102.000000,1,0,-0.000000,0.000000,1,0.000000,0.000000,0.000000,-19.128769,40.979553,0.000000,-0.003000,0.012000,-0.003000,FlatInitial,ResetForward,1
07:10:08.963 PM 02/16/2016,Teleop Enabled,0,FALSE,0,NO ERROR,0.000000,0.000000,0.000000,0.000000,Speed,Speed,-0.020000,0.730000,1.100000,0.000000,102.000000,1,0,-0.000000,0.000000,1,0.000000,0.000000,0.000000,-19.128769,40.979553,0.000000,0.000000,-0.010000,0.000000,FlatInitial,ResetForward,1
07:10:09.063 PM 02/16/2016,Teleop Enabled,0,FALSE,0,NO ERROR,0.000000,0.000000,0.000000,0.000000,Speed,Speed,-0.020000,0.730000,1.060000,0.000000,102.000000,1,0,-0.000000,0.000000,1,0.000000,0.000000,0.000000,-19.128769,40.979553,0.000000,-0.002000,-0.007000,0.003000,FlatInitial,ResetForward,0
07:10:09.164 PM 02/16/2016,Teleop Enabled,0,FALSE,0,NO ERROR,0.000000,0.000000,0.000000,0.000000,Speed,Speed,-0.010000,0.770000,1.000000,0.000000,102.000000,1,0,-0.000000,0.000000,1,0.000000,0.029099,0.000000,-19.128769,40.980179,0.000000,-0.010000,0.046000,-0.032000,FlatInitial,Reset,0
07:10:09.264 PM 02/16/2016,Teleop Enabled,0,FALSE,0,NO ERROR,0.000000,0.000000,0.000000,0.000000,Speed,Speed,-0.070000,0.770000,1.130000,0.000000,100.000000,1,0,-0.000000,0.000000,1,0.015839,-0.025360,0.000000,-19.128281,40.980072,0.000000,-0.064000,-0.030000,0.017000,FlatInitial,Hold,0
07:10:09.364 PM 02/16/2016,Teleop Enabled,0,FALSE,0,NO ERROR,0.000000,0.000000,0.000000,0.000000,Speed,Speed,-0.010000,0.780000,0.850000,0.000000,101.000000,1,0,-0.000000,0.000000,1,0.000000,0.000000,0.000000,-19.128433,40.979340,0.000000,0.049000,0.002000,-0.010000,FlatInitial,Hold,0
07:10:09.464 PM 02/16/2016,Teleop Enabled,0,FALSE,0,NO ERROR,0.000000,0.000000,0.000000,0.000000,Speed,Speed,-0.060000,0.720000,1.070000,0.000000,101.000000,1,0,-0.000000,0.000000,1,0.007538,0.000000,0.000000,-19.127792,40.979340,0.000000,-0.042000,-0.014000,0.020000,FlatInitial,Hold,0
07:10:09.564 PM 02/16/2016,Teleop Enabled,0,FALSE,0,NO ERROR,0.000000,0.000000,0.000000,0.000000,Speed,Speed,0.000000,0.780000,0.890000,0.000000,101.000000,1,0,-0.000000,0.000000,1,0.006500,0.003448,0.000000,-19.127808,40.979370,0.000000,0.030000,0.023000,-0.018000,FlatInitial,Hold,0
07:10:09.664 PM 02/16/2016,Teleop Enabled,0,FALSE,0,NO ERROR,0.000000,0.000000,0.000000,0.000000,Speed,Speed,-0.050000,0.720000,1.090000,0.000000,101.000000,1,0,-0.000000,0.000000,1,-0.008926,0.000000,0.000000,-19.127823,40.980072,0.000000,-0.019000,0.004000,0.004000,FlatInitial,Hold,0
07:10:09.764 PM 02/16/2016,Teleop Enabled,0,FALSE,0,NO ERROR,0.000000,0.000000,0.000000,0.000000,Speed,Speed,-0.010000,0.760000,1.010000,0.000000,101.000000,1,0,-0.000000,0.000000,1,0.000000,0.000000,0.000000,-19.127930,40.980072,0.000000,-0.003000,0.009000,0.010000,FlatInitial,Hold,0
07:10:09.864 PM 02/16/2016,Teleop Enabled,0,FALSE,0,NO ERROR,0.000000,0.000000,0.000000,0.000000,Speed,Speed,-0.040000,0.750000,1.020000,0.000000,103.000000,1,0,-0.000000,0.000000,1,0.000000,0.000000,0.000000,-19.127930,40.980072,0.000000,0.009000,-0.014000,0.003000,FlatInitial,Hold,0
07:10:09.965 PM 02/16/2016,Teleop Enabled,0,FALSE,0,NO ERROR,0.000000,0.000000,0.000000,0.000000,Speed,Speed,-0.030000,0.730000,1.000000,0.000000,104.000000,1,0,-0.000000,0.000000,1,0.000000,0.000000,0.000000,-19.127930,40.979858,0.000000,-0.004000,0.006000,0.009000,FlatInitial,Hold,0
07:10:10.065 PM 02/16/2016,Teleop Enabled,0,FALSE,0,NO ERROR,0.000000,0.000000,0.000000,0.000000,Speed,Speed,-0.040000,0.760000,1.000000,0.000000,103.000000,1,0,-0.000000,0.000000,1,0.000000,0.000000,0.000000,-19.127930,40.979858,0.000000,-0.005000,0.002000,0.007000,FlatInitial,Hold,0
07:10:10.165 PM 02/16/2016,Teleop Enabled,0,FALSE,0,NO ERROR,0.000000,0.000000,-6000.000000,-6000.000000,Speed,Speed,-0.020000,0.730000,1.010000,1.000000,105.000000,1,0,-0.000000,0.000000,1,0.000000,0.000000,0.000000,-19.127930,40.979858,0.000000,0.007000,0.001000,0.001000,FlatInitial,Hold,0
07:10:10.265 PM 02/16/2016,Teleop Enabled,0,FALSE,0,NO ERROR,0.000000,0.000000,-6000.000000,-6000.000000,Speed,Speed,-0.040000,0.750000,1.020000,1.000000,101.000000,1,0,-0.000000,0.000000,1,0.000000,0.000000,0.000000,-19.127930,40.979858,0.000000,-0.007000,-0.002000,0.008000,FlatInitial,Hold,0
07:10:10.366 PM 02/16/2016,Teleop Enabled,0,FALSE,0,NO ERROR,0.000000,0.000000,-6000.000000,-6000.000000,Speed,Speed,-0.030000,0.740000,1.010000,1.000000,102.000000,1,0,-0.000000,0.000000,1,0.000000,0.000000,0.000000,-19.127930,40.979858,0.000000,0.004000,-0.001000,0.005000,FlatInitial,Hold,0
07:10:10.466 PM 02/16/2016,Teleop Enabled,0,FALSE,0,NO ERROR,0.000000,0.000000,-6000.000000,-6000.000000,Speed,Speed,-0.040000,0.750000,1.020000,1.000000,101.000000,1,0,-0.000000,0.000000,1,0.000000,0.000000,0.000000,-19.127930,40.979858,0.000000,0.001000,0.000000,0.005000,FlatInitial,Hold,0
07:10:10.568 PM 02/16/2016,Teleop Enabled,0,FALSE,0,NO ERROR,0.000000,0.000000,-6000.000000,-6000.000000,Speed,Speed,-0.030000,0.740000,1.020000,1.000000,102.000000,1,0,-0.000000,0.000000,1,0.000000,0.000000,0.000000,-19.127930,40.979858,0.000000,-0.002000,0.002000,0.004000,FlatInitial,Hold,0
07:10:10.668 PM 02/16/2016,Teleop Enabled,0,FALSE,0,NO ERROR,0.000000,0.000000,-6000.000000,-6000.000000,Speed,Speed,-0.040000,0.750000,1.020000,1.000000,101.000000,1,0,-0.000000,0.000000,1,0.000000,0.000000,0.000000,-19.127930,40.979858,0.000000,0.001000,0.000000,0.004000,FlatInitial,LowGoal,0
07:10:10.769 PM 02/16/2016,Teleop Enabled,0,FALSE,0,NO ERROR,0.000000,0.000000,-6000.000000,-6000.000000,Speed,Speed,-0.040000,0.730000,1.020000,1.000000,102.000000,1,0,-0.000000,0.000000,1,0.000000,0.000000,0.000000,-19.127930,40.979858,0.000000,0.008000,-0.012000,-0.004000,FlatInitial,Hold,0
07:10:10.872 PM 02/16/2016,Teleop Enabled,0,FALSE,0,NO ERROR,0.000000,0.000000,-6000.000000,-6000.000000,Speed,Speed,-0.040000,0.700000,1.030000,1.000000,102.000000,1,0,-0.000000,0.000000,1,0.000000,0.000000,0.000000,-19.127930,40.979858,0.000000,-0.017000,-0.010000,-0.003000,FlatInitial,Hold,0
07:10:10.973 PM 02/16/2016,Teleop Enabled,0,FALSE,0,NO ERROR,0.000000,0.000000,-6000.000000,-6000.000000,Speed,Speed,-0.010000,0.710000,1.090000,1.000000,104.000000,1,0,-0.000000,0.000000,1,0.000000,0.000000,0.000000,-19.127777,40.979858,0.000000,0.000000,0.011000,0.010000,FlatInitial,Hold,0
07:10:11.073 PM 02/16/2016,Teleop Enabled,0,FALSE,0,NO ERROR,0.000000,0.000000,-6000.000000,-6000.000000,Speed,Speed,0.000000,0.730000,1.050000,1.000000,101.000000,1,0,-0.000000,0.000000,1,-0.002304,0.033829,0.000000,-19.127808,40.980469,0.000000,-0.028000,0.074000,0.036000,FlatInitial,Hold,0
07:10:11.174 PM 02/16/2016,Teleop Enabled,0,FALSE,0,NO ERROR,0.000000,0.000000,-6000.000000,-6000.000000,Speed,Speed,-0.030000,0.870000,1.090000,1.000000,104.000000,1,0,-0.000000,0.000000,1,0.024200,0.058777,0.000000,-19.127747,40.983566,0.000000,0.045000,-0.075000,0.086000,FlatInitial,Hold,0
07:10:11.278 PM 02/16/2016,Teleop Enabled,0,FALSE,0,NO ERROR,0.000000,0.000000,-6000.000000,-6000.000000,Speed,Speed,-0.050000,0.640000,0.800000,1.000000,100.000000,1,0,-0.000000,0.000000,1,-0.023895,-0.008865,0.000000,-19.127518,40.984085,0.000000,-0.013000,-0.013000,0.049000,FlatInitial,Hold,0
07:10:11.379 PM 02/16/2016,Teleop Enabled,0,FALSE,0,NO ERROR,0.000000,0.000000,-6000.000000,-6000.000000,Speed,Speed,-0.010000,0.880000,0.720000,1.000000,100.000000,1,0,-0.000000,0.000000,1,0.015228,0.003906,0.000000,-19.127533,40.984146,0.000000,-0.008000,-0.001000,0.024000,FlatInitial,Hold,0
07:10:11.479 PM 02/16/2016,Teleop Enabled,0,FALSE,0,NO ERROR,0.000000,0.000000,-6000.000000,-6000.000000,Speed,Speed,-0.020000,0.750000,0.690000,1.000000,100.000000,1,0,-0.000000,0.000000,1,-0.011414,0.000000,0.000000,-19.127686,40.984177,0.000000,0.037000,0.034000,-0.013000,FlatInitial,Hold,0
07:10:11.579 PM 02/16/2016,Teleop Enabled,0,FALSE,0,NO ERROR,0.000000,0.000000,-6000.000000,-6000.000000,Speed,Speed,-0.010000,0.820000,0.770000,1.000000,100.000000,1,0,-0.000000,0.000000,1,0.006165,0.024139,0.000000,-19.127548,40.985031,0.000000,-0.014000,-0.009000,0.026000,FlatInitial,Hold,0
07:10:11.679 PM 02/16/2016,Teleop Enabled,0,FALSE,0,NO ERROR,0.000000,0.000000,-6000.000000,-6000.000000,Speed,Speed,-0.040000,0.800000,0.790000,1.000000,101.000000,1,0,-0.000000,0.000000,1,0.000000,0.000000,0.000000,-19.127548,40.985031,0.000000,0.003000,0.001000,-0.008000,FlatInitial,Hold,0
07:10:11.783 PM 02/16/2016,Teleop Enabled,0,FALSE,0,NO ERROR,0.000000,0.000000,-6000.000000,-6000.000000,Speed,Speed,-0.020000,0.790000,0.770000,1.000000,100.000000,1,0,-0.000000,0.000000,1,0.000000,0.000000,0.000000,-19.127548,40.985031,0.000000,0.000000,0.001000,0.000000,FlatInitial,Hold,0
07:10:11.883 PM 02/16/2016,Teleop Enabled,0,FALSE,0,NO ERROR,0.000000,0.000000,-6000.000000,-6000.000000,Speed,Speed,-0.040000,0.790000,0.820000,1.000000,100.000000,1,0,-0.000000,0.000000,1,0.000000,0.000000,0.000000,-19.127548,40.985031,0.000000,-0.009000,0.002000,0.003000,FlatInitial,Hold,0
07:10:11.984 PM 02/16/2016,Teleop Enabled,0,FALSE,0,NO ERROR,0.000000,0.000000,-6000.000000,-6000.000000,Speed,Speed,-0.020000,0.800000,0.790000,1.000000,101.000000,1,0,-0.000000,0.000000,1,0.000000,0.000000,0.000000,-19.127548,40.985031,0.000000,0.007000,-0.002000,0.000000,FlatInitial,Hold,0
07:10:12.084 PM 02/16/2016,Teleop Enabled,0,FALSE,0,NO ERROR,0.000000,0.000000,-6000.000000,-6000.000000,Speed,Speed,-0.040000,0.790000,0.810000,1.000000,100.000000,1,0,-0.000000,0.000000,1,0.000000,0.000000,0.000000,-19.127548,40.985031,0.000000,-0.007000,-0.003000,0.004000,FlatInitial,Hold,0
07:10:12.185 PM 02/16/2016,Teleop Enabled,0,FALSE,0,NO ERROR,0.000000,0.000000,-6000.000000,-6000.000000,Speed,Speed,-0.030000,0.800000,0.790000,1.000000,102.000000,1,0,-0.000000,0.000000,1,0.000000,0.000000,0.000000,-19.127548,40.985031,0.000000,-0.002000,0.003000,0.003000,FlatInitial,Hold,0
07:10:12.285 PM 02/16/2016,Teleop Enabled,0,FALSE,0,NO ERROR,0.000000,0.000000,-6000.000000,-6000.000000,Speed,Speed,-0.030000,0.800000,0.810000,1.000000,101.000000,1,0,-0.000000,0.000000,1,0.000000,0.000000,0.000000,-19.127548,40.985031,0.000000,-0.001000,-0.003000,0.002000,FlatInitial,Hold,0
07:10:12.386 PM 02/16/2016,Teleop Enabled,0,FALSE,0,NO ERROR,0.000000,0.000000,-6000.000000,-6000.000000,Speed,Speed,-0.040000,0.800000,0.800000,1.000000,101.000000,1,0,-0.000000,0.000000,1,0.000000,0.000000,0.000000,-19.127548,40.985031,0.000000,0.003000,0.002000,0.000000,FlatInitial,Hold,0
07:10:12.486 PM 02/16/2016,Teleop Enabled,0,FALSE,0,NO ERROR,0.000000,0.000000,-6000.000000,-6000.000000,Speed,Speed,-0.040000,0.800000,0.800000,1.000000,102.000000,1,0,-0.000000,0.000000,1,0.000000,0.000000,0.000000,-19.127548,40.985031,0.000000,0.001000,0.000000,0.011000,FlatInitial,Hold,0
07:10:12.586 PM 02/16/2016,Teleop Enabled,0,FALSE,0,NO ERROR,0.000000,0.000000,-6000.000000,-6000.000000,Speed,Speed,-0.040000,0.790000,0.810000,1.000000,101.000000,1,0,-0.000000,0.000000,1,0.000000,0.000000,0.000000,-19.127548,40.985031,0.000000,0.000000,-0.003000,0.003000,FlatInitial,Hold,0
07:10:12.690 PM 02/16/2016,Teleop Enabled,0,FALSE,0,NO ERROR,0.000000,0.000000,-6000.000000,-6000.000000,Speed,Speed,-0.040000,0.810000,0.800000,1.000000,101.000000,1,0,-0.000000,0.000000,1,0.000000,0.000000,0.000000,-19.127548,40.985031,0.000000,0.004000,-0.002000,0.002000,FlatInitial,Hold,0
07:10:12.791 PM 02/16/2016,Teleop Enabled,0,FALSE,0,NO ERROR,0.000000,0.000000,-6000.000000,-6000.000000,Speed,Speed,-0.040000,0.790000,0.800000,1.000000,102.000000,1,0,-0.000000,0.000000,1,0.000000,0.000000,0.000000,-19.127548,40.985031,0.000000,-0.001000,0.003000,-0.003000,FlatInitial,Hold,0
07:10:12.891 PM 02/16/2016,Teleop Enabled,0,FALSE,0,NO ERROR,0.000000,0.000000,-6000.000000,-6000.000000,Speed,Speed,-0.030000,0.810000,0.800000,1.000000,101.000000,1,0,-0.000000,0.000000,1,0.000000,0.000000,0.000000,-19.127548,40.985031,0.000000,0.000000,-0.004000,0.004000,FlatInitial,Hold,0
07:10:12.991 PM 02/16/2016,Teleop Enabled,0,FALSE,0,NO ERROR,0.000000,0.000000,-6000.000000,-6000.000000,Speed,Speed,-0.040000,0.800000,0.800000,1.000000,101.000000,1,0,-0.000000,0.000000,1,0.000000,0.000000,0.000000,-19.127548,40.985031,0.000000,0.000000,0.003000,0.002000,FlatInitial,Hold,0
07:10:13.091 PM 02/16/2016,Teleop Enabled,0,FALSE,0,NO ERROR,0.000000,0.000000,-6000.000000,-6000.000000,Speed,Speed,-0.040000,0.810000,0.790000,1.000000,104.000000,1,0,-0.000000,0.000000,1,0.000000,0.000000,0.000000,-19.127548,40.985031,0.000000,0.004000,0.002000,0.000000,FlatInitial,Hold,0
07:10:13.192 PM 02/16/2016,Teleop Enabled,0,FALSE,0,NO ERROR,0.000000,0.000000,-6000.000000,-6000.000000,Speed,Speed,-0.040000,0.800000,0.790000,1.000000,101.000000,1,0,-0.000000,0.000000,1,0.000000,0.000000,0.000000,-19.127548,40.985031,0.000000,0.000000,-0.001000,0.005000,FlatInitial,Hold,0
07:10:13.292 PM 02/16/2016,Teleop Enabled,0,FALSE,0,NO ERROR,0.000000,0.000000,-6000.000000,-6000.000000,Speed,Speed,-0.040000,0.810000,0.790000,1.000000,100.000000,1,0,-0.000000,0.000000,1,0.000000,0.000000,0.000000,-19.127548,40.985031,0.000000,-0.002000,-0.001000,-0.001000,FlatInitial,Hold,0
07:10:13.392 PM 02/16/2016,Teleop Enabled,0,FALSE,0,NO ERROR,0.000000,0.000000,-6000.000000,-6000.000000,Speed,Speed,-0.040000,0.800000,0.790000,1.000000,100.000000,1,0,-0.000000,0.000000,1,0.000000,0.000000,0.000000,-19.127548,40.985031,0.000000,-0.001000,-0.001000,0.007000,FlatInitial,Hold,0
07:10:13.492 PM 02/16/2016,Teleop Enabled,0,FALSE,0,NO ERROR,0.000000,0.000000,-6000.000000,-6000.000000,Speed,Speed,-0.040000,0.810000,0.780000,1.000000,101.000000,1,0,-0.000000,0.000000,1,0.000000,0.000000,0.000000,-19.127548,40.985031,0.000000,0.000000,-0.001000,0.004000,FlatInitial,Hold,0
07:10:13.593 PM 02/16/2016,Teleop Enabled,0,FALSE,0,NO ERROR,0.000000,0.000000,-6000.000000,-6000.000000,Speed,Speed,-0.030000,0.800000,0.790000,1.000000,103.000000,1,0,-0.000000,0.000000,1,0.000000,0.000000,0.000000,-19.127548,40.985031,0.000000,0.000000,-0.001000,0.001000,FlatInitial,Hold,0
07:10:13.693 PM 02/16/2016,Teleop Enabled,0,FALSE,0,NO ERROR,0.000000,0.000000,-6000.000000,-6000.000000,Speed,Speed,-0.040000,0.810000,0.780000,1.000000,102.000000,1,0,-0.000000,0.000000,1,0.000000,0.000000,0.000000,-19.127548,40.985031,0.000000,0.001000,0.000000,0.001000,FlatInitial,Hold,0
07:10:13.793 PM 02/16/2016,Teleop Enabled,0,FALSE,0,NO ERROR,0.000000,0.000000,-6000.000000,-6000.000000,Speed,Speed,-0.030000,0.800000,0.790000,1.000000,105.000000,1,0,-0.000000,0.000000,1,0.000000,0.000000,0.000000,-19.127548,40.985031,0.000000,0.004000,-0.002000,0.005000,FlatInitial,Hold,0
07:10:13.893 PM 02/16/2016,Teleop Enabled,0,FALSE,0,NO ERROR,0.000000,0.000000,-6000.000000,-6000.000000,Speed,Speed,-0.040000,0.800000,0.790000,1.000000,101.000000,1,0,-0.000000,0.000000,1,0.000000,0.000000,0.000000,-19.127548,40.985031,0.000000,0.000000,0.000000,0.006000,FlatInitial,Hold,0
07:10:13.993 PM 02/16/2016,Teleop Enabled,0,FALSE,0,NO ERROR,0.000000,0.000000,-6000.000000,-6000.000000,Speed,Speed,-0.040000,0.800000,0.790000,1.000000,101.000000,1,0,-0.000000,0.000000,1,0.000000,0.000000,0.000000,-19.127548,40.985031,0.000000,0.002000,0.001000,0.000000,FlatInitial,Hold,0
07:10:14.093 PM 02/16/2016,Teleop Enabled,0,FALSE,0,NO ERROR,0.000000,0.000000,-6000.000000,-6000.000000,Speed,Speed,-0.040000,0.790000,0.790000,1.000000,104.000000,1,0,-0.000000,0.000000,1,0.000000,0.000000,0.000000,-19.127548,40.985031,0.000000,0.001000,0.000000,0.003000,FlatInitial,Hold,0
07:10:14.193 PM 02/16/2016,Teleop Enabled,0,FALSE,0,NO ERROR,0.000000,0.000000,-6000.000000,-6000.000000,Speed,Speed,-0.040000,0.790000,0.790000,1.000000,104.000000,1,0,-0.000000,0.000000,1,0.000000,0.000000,0.000000,-19.127548,40.985031,0.000000,0.001000,0.002000,0.006000,FlatInitial,Hold,0
07:10:14.293 PM 02/16/2016,Teleop Enabled,0,FALSE,0,NO ERROR,0.000000,0.000000,-6000.000000,-6000.000000,Speed,Speed,-0.040000,0.790000,0.780000,1.000000,100.000000,1,0,-0.000000,0.000000,1,0.000000,0.000000,0.000000,-19.127548,40.985031,0.000000,0.003000,0.002000,0.008000,FlatInitial,HighGoal,0
07:10:14.393 PM 02/16/2016,Teleop Enabled,0,FALSE,0,NO ERROR,0.000000,0.000000,-6000.000000,-6000.000000,Speed,Speed,-0.030000,0.820000,0.660000,1.000000,100.000000,1,0,-0.000000,0.000000,1,-0.003372,0.016449,0.000000,-19.127655,40.985443,0.000000,0.025000,0.010000,-0.058000,FlatInitial,Hold,0
07:10:14.493 PM 02/16/2016,Teleop Enabled,0,FALSE,0,NO ERROR,0.000000,0.000000,-6000.000000,-6000.000000,Speed,Speed,-0.060000,0.780000,0.970000,1.000000,100.000000,1,0,-0.000000,0.000000,1,-0.007614,-0.004349,0.000000,-19.127625,40.985855,0.000000,-0.027000,-0.027000,0.020000,FlatInitial,Hold,0
07:10:14.593 PM 02/16/2016,Teleop Enabled,0,FALSE,0,NO ERROR,0.000000,0.000000,-6000.000000,-6000.000000,Speed,Speed,-0.030000,0.800000,0.660000,1.000000,101.000000,1,0,-0.000000,0.000000,1,-0.008484,-0.004517,0.000000,-19.128418,40.985382,0.000000,0.043000,0.023000,-0.033000,FlatInitial,Hold,0
07:10:14.693 PM 02/16/2016,Teleop Enabled,0,FALSE,0,NO ERROR,0.000000,0.000000,-6000.000000,-6000.000000,Speed,Speed,-0.060000,0.750000,0.890000,1.000000,101.000000,1,0,-0.000000,0.000000,1,-0.011719,0.000000,0.000000,-19.128616,40.985367,0.000000,-0.020000,-0.008000,0.001000,FlatInitial,Hold,0
07:10:14.793 PM 02/16/2016,Teleop Enabled,0,FALSE,0,NO ERROR,0.000000,0.000000,-6000.000000,-6000.000000,Speed,Speed,-0.040000,0.800000,0.850000,1.000000,101.000000,1,0,-0.000000,0.000000,1,0.000000,0.003433,0.000000,-19.128738,40.985397,0.000000,-0.006000,0.022000,-0.008000,FlatInitial,Hold,0
07:10:14.893 PM 02/16/2016,Teleop Enabled,0,FALSE,0,NO ERROR,0.000000,0.000000,-6000.000000,-6000.000000,Speed,Speed,-0.060000,0.770000,0.900000,1.000000,102.000000,1,0,-0.000000,0.000000,1,0.000000,-0.008301,0.000000,-19.128738,40.985382,0.000000,-0.002000,-0.015000,0.015000,FlatInitial,Hold,0
07:10:14.993 PM 02/16/2016,Teleop Enabled,0,FALSE,0,NO ERROR,0.000000,0.000000,-6000.000000,-6000.000000,Speed,Speed,-0.030000,0.750000,0.890000,1.000000,100.000000,1,0,-0.000000,0.000000,1,0.000000,0.008148,0.000000,-19.128738,40.985443,0.000000,0.014000,0.013000,-0.010000,FlatInitial,Hold,0
07:10:15.094 PM 02/16/2016,Teleop Enabled,0,FALSE,0,NO ERROR,0.000000,0.000000,-6000.000000,-6000.000000,Speed,Speed,-0.060000,0.780000,0.920000,1.000000,101.000000,1,0,-0.000000,0.000000,1,0.000000,0.000000,0.000000,-19.128738,40.985443,0.000000,-0.016000,-0.002000,0.007000,FlatInitial,Hold,0
07:10:15.195 PM 02/16/2016,Teleop Enabled,0,FALSE,0,NO ERROR,0.000000,0.000000,-6000.000000,-6000.000000,Speed,Speed,-0.040000,0.770000,0.870000,1.000000,101.000000,1,0,-0.000000,0.000000,1,0.000000,0.000000,0.000000,-19.128738,40.985443,0.000000,0.008000,-0.004000,-0.001000,FlatInitial,Hold,0
07:10:15.295 PM 02/16/2016,Teleop Enabled,0,FALSE,0,NO ERROR,0.000000,0.000000,-6000.000000,-6000.000000,Speed,Speed,-0.060000,0.760000,0.880000,1.000000,102.000000,1,0,-0.000000,0.000000,1,0.000000,0.000000,0.000000,-19.128738,40.985443,0.000000,-0.002000,0.001000,0.002000,FlatInitial,Hold,0
07:10:15.395 PM 02/16/2016,Teleop Enabled,0,FALSE,0,NO ERROR,0.000000,0.000000,-6000.000000,-6000.000000,Speed,Speed,-0.040000,0.780000,0.870000,1.000000,101.000000,1,0,-0.000000,0.000000,1,0.000000,0.000000,0.000000,-19.128738,40.985443,0.000000,0.001000,0.002000,-0.001000,FlatInitial,Hold,0
07:10:15.496 PM 02/16/2016,Teleop Enabled,0,FALSE,0,NO ERROR,0.000000,0.000000,-6000.000000,-6000.000000,Speed,Speed,-0.050000,0.760000,0.900000,1.000000,102.000000,1,0,-0.000000,0.000000,1,0.000000,0.000000,0.000000,-19.128738,40.985443,0.000000,-0.004000,-0.003000,0.003000,FlatInitial,Hold,0
07:10:15.596 PM 02/16/2016,Teleop Enabled,0,FALSE,0,NO ERROR,0.000000,0.000000,-6000.000000,-6000.000000,Speed,Speed,-0.040000,0.780000,0.860000,1.000000,103.000000,1,0,-0.000000,0.000000,1,0.000000,0.000000,0.000000,-19.128738,40.985443,0.000000,0.002000,0.001000,0.002000,FlatInitial,Hold,0
07:10:15.696 PM 02/16/2016,Teleop Enabled,0,FALSE,0,NO ERROR,0.000000,0.000000,-6000.000000,-6000.000000,Speed,Speed,-0.050000,0.760000,0.890000,1.000000,101.000000,1,0,-0.000000,0.000000,1,0.000000,0.000000,0.000000,-19.128738,40.985443,0.000000,0.001000,-0.005000,0.004000,FlatInitial,Hold,0
07:10:15.796 PM 02/16/2016,Teleop Enabled,0,FALSE,0,NO ERROR,0.000000,0.000000,-6000.000000,-6000.000000,Speed,Speed,-0.050000,0.780000,0.860000,1.000000,103.000000,1,0,-0.000000,0.000000,1,0.000000,0.000000,0.000000,-19.128738,40.985443,0.000000,-0.003000,0.005000,0.007000,FlatInitial,Hold,0
07:10:15.896 PM 02/16/2016,Teleop Enabled,0,FALSE,0,NO ERROR,0.000000,0.000000,-6000.000000,-6000.000000,Speed,Speed,-0.050000,0.770000,0.880000,1.000000,101.000000,1,0,-0.000000,0.000000,1,0.000000,0.000000,0.000000,-19.128738,40.985443,0.000000,0.001000,-0.005000,0.007000,FlatInitial,Hold,0
07:10:15.997 PM 02/16/2016,Teleop Enabled,0,FALSE,0,NO ERROR,0.000000,0.000000,-6000.000000,-6000.000000,Speed,Speed,-0.050000,0.780000,0.860000,1.000000,101.000000,1,0,-0.000000,0.000000,1,0.000000,0.000000,0.000000,-19.128738,40.985443,0.000000,0.003000,0.004000,0.005000,FlatInitial,Hold,0
07:10:16.097 PM 02/16/2016,Teleop Enabled,0,FALSE,0,NO ERROR,0.000000,0.000000,-6000.000000,-6000.000000,Speed,Speed,-0.050000,0.770000,0.880000,1.000000,101.000000,1,0,-0.000000,0.000000,1,0.000000,0.000000,0.000000,-19.128738,40.985443,0.000000,-0.003000,-0.002000,0.007000,FlatInitial,Hold,0
07:10:16.197 PM 02/16/2016,Teleop Enabled,0,FALSE,0,NO ERROR,0.000000,0.000000,-6000.000000,-6000.000000,Speed,Speed,-0.050000,0.780000,0.870000,1.000000,101.000000,1,0,-0.000000,0.000000,1,0.000000,0.000000,0.000000,-19.128738,40.985443,0.000000,0.000000,0.005000,0.000000,FlatInitial,Hold,0
07:10:16.297 PM 02/16/2016,Teleop Enabled,0,FALSE,0,NO ERROR,0.000000,0.000000,-6000.000000,-6000.000000,Speed,Speed,-0.050000,0.770000,0.880000,1.000000,100.000000,1,0,-0.000000,0.000000,1,0.000000,0.000000,0.000000,-19.128738,40.985443,0.000000,0.000000,-0.001000,0.004000,FlatInitial,Hold,0
07:10:16.397 PM 02/16/2016,Teleop Enabled,0,FALSE,0,NO ERROR,0.000000,0.000000,-6000.000000,-6000.000000,Speed,Speed,-0.060000,0.770000,0.880000,1.000000,101.000000,1,0,-0.000000,0.000000,1,0.000000,0.000000,0.000000,-19.128738,40.985443,0.000000,0.000000,0.001000,0.002000,FlatInitial,Hold,0
07:10:16.497 PM 02/16/2016,Teleop Enabled,0,FALSE,0,NO ERROR,0.000000,0.000000,-6000.000000,-6000.000000,Speed,Speed,-0.060000,0.770000,0.870000,1.000000,103.000000,1,0,-0.000000,0.000000,1,0.000000,0.000000,0.000000,-19.128738,40.985443,0.000000,0.001000,0.002000,0.005000,FlatInitial,Hold,0
07:10:16.597 PM 02/16/2016,Teleop Enabled,0,FALSE,0,NO ERROR,0.000000,0.000000,-6000.000000,-6000.000000,Speed,Speed,-0.060000,0.770000,0.880000,1.000000,102.000000,1,0,-0.000000,0.000000,1,0.000000,0.000000,0.000000,-19.128738,40.985443,0.000000,0.000000,-0.001000,0.004000,FlatInitial,Hold,0
07:10:16.697 PM 02/16/2016,Teleop Enabled,0,FALSE,0,NO ERROR,0.000000,0.000000,-6000.000000,-6000.000000,Speed,Speed,-0.060000,0.780000,0.870000,1.000000,101.000000,1,0,-0.000000,0.000000,1,0.000000,0.000000,0.000000,-19.128738,40.985443,0.000000,0.000000,-0.001000,0.000000,FlatInitial,Hold,0
07:10:16.797 PM 02/16/2016,Teleop Enabled,0,FALSE,0,NO ERROR,0.000000,0.000000,-6000.000000,-6000.000000,Speed,Speed,-0.060000,0.770000,0.880000,1.000000,101.000000,1,0,-0.000000,0.000000,1,0.000000,0.000000,0.000000,-19.128738,40.985443,0.000000,0.000000,0.000000,0.000000,FlatInitial,Hold,0
07:10:16.897 PM 02/16/2016,Teleop Enabled,0,FALSE,0,NO ERROR,0.000000,0.000000,-6000.000000,-6000.000000,Speed,Speed,-0.060000,0.770000,0.880000,1.000000,101.000000,1,0,-0.000000,0.000000,1,0.000000,0.000000,0.000000,-19.128738,40.985443,0.000000,0.003000,0.002000,0.006000,FlatInitial,Hold,0
07:10:16.997 PM 02/16/2016,Teleop Enabled,0,FALSE,0,NO ERROR,0.000000,0.000000,-6000.000000,-6000.000000,Speed,Speed,-0.060000,0.770000,0.880000,1.000000,103.000000,1,0,-0.000000,0.000000,1,0.000000,0.000000,0.000000,-19.128738,40.985443,0.000000,-0.002000,0.000000,0.001000,FlatInitial,Hold,0
07:10:17.097 PM 02/16/2016,Teleop Enabled,0,FALSE,0,NO ERROR,0.000000,0.000000,-6000.000000,-6000.000000,Speed,Speed,-0.050000,0.780000,0.870000,1.000000,101.000000,1,0,-0.000000,0.000000,1,0.000000,0.000000,0.000000,-19.128738,40.985443,0.000000,0.000000,0.000000,0.004000,FlatInitial,Hold,0
07:10:17.197 PM 02/16/2016,Teleop Enabled,0,FALSE,0,NO ERROR,0.000000,0.000000,-6000.000000,-6000.000000,Speed,Speed,-0.060000,0.770000,0.880000,1.000000,101.000000,1,0,-0.000000,0.000000,1,0.000000,0.000000,0.000000,-19.128738,40.985443,0.000000,0.000000,0.000000,0.003000,FlatInitial,Hold,0
07:10:17.298 PM 02/16/2016,Teleop Enabled,0,FALSE,0,NO ERROR,0.000000,0.000000,-6000.000000,-6000.000000,Speed,Speed,-0.060000,0.780000,0.880000,1.000000,103.000000,1,0,-0.000000,0.000000,1,0.000000,0.000000,0.000000,-19.128738,40.985443,0.000000,-0.002000,-0.001000,-0.005000,FlatInitial,Hold,0
07:10:17.398 PM 02/16/2016,Teleop Enabled,0,FALSE,0,NO ERROR,0.000000,0.000000,-6000.000000,-6000.000000,Speed,Speed,-0.060000,0.770000,0.880000,1.000000,102.000000,1,0,-0.000000,0.000000,1,0.000000,0.000000,0.000000,-19.128738,40.985443,0.000000,0.001000,0.000000,0.004000,FlatInitial,Hold,0
07:10:17.498 PM 02/16/2016,Teleop Enabled,0,FALSE,0,NO ERROR,0.000000,0.000000,-6000.000000,-6000.000000,Speed,Speed,-0.060000,0.770000,0.880000,1.000000,101.000000,1,0,-0.000000,0.000000,1,0.000000,0.000000,0.000000,-19.128738,40.985443,0.000000,-0.001000,0.001000,0.002000,FlatInitial,Hold,0
07:10:17.598 PM 02/16/2016,Teleop Enabled,0,FALSE,0,NO ERROR,0.000000,0.000000,-6000.000000,-6000.000000,Speed,Speed,-0.060000,0.780000,0.890000,1.000000,101.000000,1,0,-0.000000,0.000000,1,0.000000,0.000000,0.000000,-19.128738,40.985443,0.000000,0.000000,-0.002000,0.002000,FlatInitial,Hold,0
07:10:17.699 PM 02/16/2016,Teleop Enabled,0,FALSE,0,NO ERROR,0.000000,0.000000,-6000.000000,-6000.000000,Speed,Speed,-0.070000,0.780000,0.890000,1.000000,102.000000,1,0,-0.000000,0.000000,1,0.000000,0.000000,0.000000,-19.128738,40.985443,0.000000,0.000000,0.001000,0.003000,FlatInitial,Hold,0
07:10:17.800 PM 02/16/2016,Teleop Enabled,0,FALSE,0,NO ERROR,0.000000,0.000000,-6000.000000,-6000.000000,Speed,Speed,-0.070000,0.770000,0.880000,1.000000,102.000000,1,0,-0.000000,0.000000,1,0.000000,0.000000,0.000000,-19.128738,40.985443,0.000000,0.000000,0.000000,0.008000,FlatInitial,Hold,0
07:10:17.900 PM 02/16/2016,Teleop Enabled,0,FALSE,0,NO ERROR,0.000000,0.000000,-6000.000000,-6000.000000,Speed,Speed,-0.070000,0.770000,0.890000,1.000000,102.000000,1,0,-0.000000,0.000000,1,0.000000,0.000000,0.000000,-19.128738,40.985443,0.000000,0.001000,-0.001000,0.003000,FlatInitial,Hold,0
07:10:18.000 PM 02/16/2016,Teleop Enabled,0,FALSE,0,NO ERROR,0.000000,0.000000,-6000.000000,-6000.000000,Speed,Speed,-0.070000,0.780000,0.890000,1.000000,101.000000,1,0,-0.000000,0.000000,1,0.000000,0.000000,0.000000,-19.128738,40.985443,0.000000,0.000000,0.000000,0.009000,FlatInitial,Hold,0
07:10:18.101 PM 02/16/2016,Teleop Enabled,0,FALSE,0,NO ERROR,0.000000,0.000000,-6000.000000,-6000.000000,Speed,Speed,-0.070000,0.780000,0.890000,1.000000,102.000000,1,0,-0.000000,0.000000,1,0.000000,0.000000,0.000000,-19.128738,40.985443,0.000000,0.000000,0.000000,0.009000,FlatInitial,Hold,0
07:10:18.202 PM 02/16/2016,Teleop Enabled,0,FALSE,0,NO ERROR,0.000000,0.000000,-6000.000000,-6000.000000,Speed,Speed,-0.070000,0.780000,0.890000,1.000000,101.000000,1,0,-0.000000,0.000000,1,0.000000,0.000000,0.000000,-19.128738,40.985443,0.000000,0.000000,0.002000,0.002000,FlatInitial,Hold,0
07:10:18.302 PM 02/16/2016,Teleop Enabled,0,FALSE,0,NO ERROR,0.000000,0.000000,-6000.000000,-6000.000000,Speed,Speed,-0.070000,0.780000,0.890000,1.000000,103.000000,1,0,-0.000000,0.000000,1,0.000000,0.000000,0.000000,-19.128738,40.985443,0.000000,0.002000,-0.001000,0.008000,FlatInitial,Hold,0
07:10:18.402 PM 02/16/2016,Teleop Enabled,0,FALSE,0,NO ERROR,0.000000,0.000000,-6000.000000,-6000.000000,Speed,Speed,-0.070000,0.780000,0.890000,1.000000,102.000000,1,0,-0.000000,0.000000,1,0.000000,0.000000,0.000000,-19.128738,40.985443,0.000000,0.000000,0.000000,0.007000,FlatInitial,Hold,0
07:10:18.502 PM 02/16/2016,Teleop Enabled,0,FALSE,0,NO ERROR,0.000000,0.000000,-6000.000000,-6000.000000,Speed,Speed,-0.070000,0.780000,0.890000,1.000000,101.000000,1,0,-0.000000,0.000000,1,0.000000,0.000000,0.000000,-19.128738,40.985443,0.000000,0.000000,0.000000,0.007000,FlatInitial,Hold,0
07:10:18.602 PM 02/16/2016,Teleop Enabled,0,FALSE,0,NO ERROR,0.000000,0.000000,-6000.000000,-6000.000000,Speed,Speed,-0.070000,0.770000,0.880000,1.000000,101.000000,1,0,-0.000000,0.000000,1,0.000000,0.000000,0.000000,-19.128738,40.985443,0.000000,-0.002000,0.001000,0.003000,FlatInitial,Hold,0
07:10:18.703 PM 02/16/2016,Teleop Enabled,0,FALSE,0,NO ERROR,0.000000,0.000000,-6000.000000,-6000.000000,Speed,Speed,-0.070000,0.770000,0.880000,1.000000,102.000000,1,0,-0.000000,0.000000,1,0.000000,0.000000,0.000000,-19.128738,40.985443,0.000000,-0.001000,0.001000,0.007000,FlatInitial,Hold,0
07:10:18.803 PM 02/16/2016,Teleop Enabled,0,FALSE,0,NO ERROR,0.000000,0.000000,-6000.000000,-6000.000000,Speed,Speed,-0.070000,0.770000,0.880000,1.000000,100.000000,1,0,-0.000000,0.000000,1,0.000000,0.000000,0.000000,-19.128738,40.985443,0.000000,0.000000,0.001000,0.002000,FlatInitial,Hold,0
07:10:18.904 PM 02/16/2016,Teleop Enabled,0,FALSE,0,NO ERROR,0.000000,0.000000,-6000.000000,-6000.000000,Speed,Speed,-0.070000,0.770000,0.880000,1.000000,100.000000,1,0,-0.000000,0.000000,1,0.000000,0.000000,0.000000,-19.128738,40.985443,0.000000,0.000000,0.000000,0.002000,FlatInitial,Hold,0
07:10:19.004 PM 02/16/2016,Teleop Enabled,0,FALSE,0,NO ERROR,0.000000,0.000000,-6000.000000,-6000.000000,Speed,Speed,-0.070000,0.770000,0.880000,1.000000,100.000000,1,0,-0.000000,0.000000,1,0.000000,0.000000,0.000000,-19.128738,40.985443,0.000000,0.000000,0.000000,0.007000,FlatInitial,Hold,0
07:10:19.105 PM 02/16/2016,Teleop Enabled,0,FALSE,0,NO ERROR,0.000000,0.000000,-6000.000000,-6000.000000,Speed,Speed,-0.070000,0.780000,0.890000,1.000000,101.000000,1,0,-0.000000,0.000000,1,0.000000,0.000000,0.000000,-19.128738,40.985443,0.000000,0.000000,0.000000,0.007000,FlatInitial,Hold,0
07:10:19.205 PM 02/16/2016,Teleop Enabled,0,FALSE,0,NO ERROR,0.000000,0.000000,-6000.000000,-6000.000000,Speed,Speed,-0.070000,0.780000,0.890000,1.000000,101.000000,1,0,-0.000000,0.000000,1,0.000000,0.000000,0.000000,-19.128738,40.985443,0.000000,0.001000,0.001000,0.004000,FlatInitial,Hold,0
07:10:19.305 PM 02/16/2016,Teleop Enabled,0,FALSE,0,NO ERROR,0.000000,0.000000,-6000.000000,-6000.000000,Speed,Speed,-0.070000,0.780000,0.890000,1.000000,101.000000,1,0,-0.000000,0.000000,1,0.000000,0.000000,0.000000,-19.128738,40.985443,0.000000,-0.002000,-0.001000,0.002000,FlatInitial,Hold,0
07:10:19.405 PM 02/16/2016,Teleop Enabled,0,FALSE,0,NO ERROR,0.000000,0.000000,-6000.000000,-6000.000000,Speed,Speed,-0.070000,0.780000,0.890000,1.000000,102.000000,1,0,-0.000000,0.000000,1,0.000000,0.000000,0.000000,-19.128738,40.985443,0.000000,0.000000,0.000000,0.006000,FlatInitial,Hold,0
07:10:19.505 PM 02/16/2016,Teleop Enabled,0,FALSE,0,NO ERROR,0.000000,0.000000,-6000.000000,-6000.000000,Speed,Speed,-0.070000,0.780000,0.890000,1.000000,102.000000,1,0,-0.000000,0.000000,1,0.000000,0.000000,0.000000,-19.128738,40.985443,0.000000,0.001000,0.000000,0.006000,FlatInitial,Hold,0
07:10:19.605 PM 02/16/2016,Teleop Enabled,0,FALSE,0,NO ERROR,0.000000,0.000000,-6000.000000,-6000.000000,Speed,Speed,-0.070000,0.780000,0.890000,1.000000,101.000000,1,0,-0.000000,0.000000,1,0.000000,0.000000,0.000000,-19.128738,40.985443,0.000000,-0.001000,-0.001000,0.007000,FlatInitial,Hold,0
07:10:19.706 PM 02/16/2016,Teleop Enabled,0,FALSE,0,NO ERROR,0.000000,0.000000,-6000.000000,-6000.000000,Speed,Speed,-0.070000,0.770000,0.890000,1.000000,101.000000,1,0,-0.000000,0.000000,1,0.000000,0.000000,0.000000,-19.128738,40.985443,0.000000,0.001000,-0.001000,0.003000,FlatInitial,Hold,0
07:10:19.806 PM 02/16/2016,Teleop Enabled,0,FALSE,0,NO ERROR,0.000000,0.000000,-6000.000000,-6000.000000,Speed,Speed,-0.070000,0.770000,0.890000,1.000000,102.000000,1,0,-0.000000,0.000000,1,0.000000,0.000000,0.000000,-19.128738,40.985443,0.000000,0.000000,0.000000,0.006000,FlatInitial,Hold,0
07:10:19.907 PM 02/16/2016,Teleop Enabled,0,FALSE,0,NO ERROR,0.000000,0.000000,-6000.000000,-6000.000000,Speed,Speed,-0.070000,0.780000,0.890000,1.000000,103.000000,1,0,-0.000000,0.000000,1,0.000000,0.000000,0.000000,-19.128738,40.985443,0.000000,0.003000,-0.001000,0.004000,FlatInitial,Hold,0
07:10:20.008 PM 02/16/2016,Teleop Enabled,0,FALSE,0,NO ERROR,0.000000,0.000000,-6000.000000,-6000.000000,Speed,Speed,-0.070000,0.770000,0.890000,1.000000,101.000000,1,0,-0.000000,0.000000,1,0.000000,0.000000,0.000000,-19.128738,40.985443,0.000000,0.000000,0.001000,0.007000,FlatInitial,Hold,0
07:10:20.108 PM 02/16/2016,Teleop Enabled,0,FALSE,0,NO ERROR,0.000000,0.000000,-6000.000000,-6000.000000,Speed,Speed,-0.070000,0.770000,0.890000,1.000000,104.000000,1,0,-0.000000,0.000000,1,0.000000,0.000000,0.000000,-19.128738,40.985443,0.000000,0.003000,0.001000,0.005000,FlatInitial,Hold,0
07:10:20.209 PM 02/16/2016,Teleop Enabled,0,FALSE,0,NO ERROR,0.000000,0.000000,-6000.000000,-6000.000000,Speed,Speed,-0.070000,0.780000,0.890000,1.000000,101.000000,1,0,-0.000000,0.000000,1,0.000000,0.000000,0.000000,-19.128738,40.985443,0.000000,0.001000,0.000000,0.006000,FlatInitial,Hold,0
07:10:20.309 PM 02/16/2016,Teleop Enabled,0,FALSE,0,NO ERROR,0.000000,0.000000,-6000.000000,-6000.000000,Speed,Speed,-0.070000,0.780000,0.890000,1.000000,101.000000,1,0,-0.000000,0.000000,1,0.000000,0.000000,0.000000,-19.128738,40.985443,0.000000,0.001000,-0.001000,0.001000,FlatInitial,BumperShot,0
07:10:20.410 PM 02/16/2016,Teleop Enabled,0,FALSE,0,NO ERROR,0.000000,0.000000,-6000.000000,-6000.000000,Speed,Speed,-0.070000,0.780000,0.890000,1.000000,101.000000,1,0,-0.000000,0.000000,1,0.000000,0.000000,0.000000,-19.128738,40.985443,0.000000,0.000000,-0.005000,0.000000,FlatInitial,Hold,0
07:10:20.510 PM 02/16/2016,Teleop Enabled,0,FALSE,0,NO ERROR,0.000000,0.000000,-6000.000000,-6000.000000,Speed,Speed,-0.060000,0.810000,0.800000,1.000000,101.000000,1,0,-0.000000,0.000000,1,0.000000,0.021072,0.000000,-19.128738,40.985809,0.000000,0.015000,0.026000,-0.055000,FlatInitial,Hold,0
07:10:20.610 PM 02/16/2016,Teleop Enabled,0,FALSE,0,NO ERROR,0.000000,0.000000,-6000.000000,-6000.000000,Speed,Speed,-0.090000,0.800000,1.060000,1.000000,102.000000,1,0,-0.000000,0.000000,1,0.012115,-0.012405,0.000000,-19.128021,40.986725,0.000000,-0.052000,-0.064000,0.019000,FlatInitial,Hold,0
07:10:20.711 PM 02/16/2016,Teleop Enabled,0,FALSE,0,NO ERROR,0.000000,0.000000,-6000.000000,-6000.000000,Speed,Speed,-0.070000,0.760000,0.770000,1.000000,101.000000,1,0,-0.000000,0.000000,1,0.003204,0.000000,0.000000,-19.128204,40.985886,0.000000,0.047000,0.000000,-0.037000,FlatInitial,Hold,0
07:10:20.811 PM 02/16/2016,Teleop Enabled,0,FALSE,0,NO ERROR,0.000000,0.000000,-6000.000000,-6000.000000,Speed,Speed,-0.080000,0.730000,0.980000,1.000000,101.000000,1,0,-0.000000,0.000000,1,-0.002563,0.004013,0.000000,-19.127777,40.985931,0.000000,-0.032000,0.023000,0.009000,FlatInitial,Hold,0
07:10:20.912 PM 02/16/2016,Teleop Enabled,0,FALSE,0,NO ERROR,0.000000,0.000000,-6000.000000,-6000.000000,Speed,Speed,-0.060000,0.780000,1.020000,1.000000,102.000000,1,0,-0.000000,0.000000,1,0.008148,0.029129,0.000000,-19.127777,40.986816,0.000000,0.003000,0.038000,-0.002000,FlatInitial,Hold,0
07:10:21.014 PM 02/16/2016,Teleop Enabled,0,FALSE,0,NO ERROR,0.000000,0.000000,-6000.000000,-6000.000000,Speed,Speed,-0.070000,0.730000,1.060000,1.000000,102.000000,1,0,-0.000000,0.000000,1,0.000000,0.000000,0.000000,-19.127960,40.987549,0.000000,0.011000,-0.010000,0.003000,FlatInitial,Hold,0
07:10:21.114 PM 02/16/2016,Teleop Enabled,0,FALSE,0,NO ERROR,0.000000,0.000000,-6000.000000,-6000.000000,Speed,Speed,-0.090000,0.760000,1.010000,1.000000,103.000000,1,0,-0.000000,0.000000,1,0.000000,0.000000,0.000000,-19.127960,40.987549,0.000000,-0.012000,-0.011000,0.005000,FlatInitial,Hold,0
07:10:21.214 PM 02/16/2016,Teleop Enabled,0,FALSE,0,NO ERROR,0.000000,0.000000,-6000.000000,-6000.000000,Speed,Speed,-0.080000,0.760000,0.950000,1.000000,103.000000,1,0,-0.000000,0.000000,1,0.000000,0.000000,0.000000,-19.127960,40.987549,0.000000,0.006000,-0.009000,0.005000,FlatInitial,Hold,0
07:10:21.318 PM 02/16/2016,Teleop Enabled,0,FALSE,0,NO ERROR,0.000000,0.000000,-6000.000000,-6000.000000,Speed,Speed,-0.080000,0.750000,0.960000,1.000000,102.000000,1,0,-0.000000,0.000000,1,0.000000,0.000000,0.000000,-19.127960,40.987549,0.000000,-0.003000,0.007000,0.009000,FlatInitial,Hold,0
07:10:21.419 PM 02/16/2016,Teleop Enabled,0,FALSE,0,NO ERROR,0.000000,0.000000,-6000.000000,-6000.000000,Speed,Speed,-0.070000,0.760000,1.000000,1.000000,101.000000,1,0,-0.000000,0.000000,1,0.000000,0.000000,0.000000,-19.127960,40.987549,0.000000,-0.006000,0.005000,0.010000,FlatInitial,Hold,0
07:10:21.520 PM 02/16/2016,Teleop Enabled,0,FALSE,0,NO ERROR,0.000000,0.000000,-6000.000000,-6000.000000,Speed,Speed,-0.070000,0.760000,1.000000,1.000000,100.000000,1,0,-0.000000,0.000000,1,0.000000,0.000000,0.000000,-19.127960,40.987549,0.000000,0.005000,-0.002000,0.002000,FlatInitial,Hold,0
07:10:21.623 PM 02/16/2016,Teleop Enabled,0,FALSE,0,NO ERROR,0.000000,0.000000,-6000.000000,-6000.000000,Speed,Speed,-0.080000,0.750000,1.000000,1.000000,102.000000,1,0,-0.000000,0.000000,1,0.000000,0.000000,0.000000,-19.127960,40.987549,0.000000,0.001000,-0.008000,0.008000,FlatInitial,Hold,0
07:10:21.724 PM 02/16/2016,Teleop Enabled,0,FALSE,0,NO ERROR,0.000000,0.000000,-6000.000000,-6000.000000,Speed,Speed,-0.080000,0.760000,0.980000,1.000000,101.000000,1,0,-0.000000,0.000000,1,0.000000,0.000000,0.000000,-19.127960,40.987549,0.000000,-0.002000,0.002000,0.005000,FlatInitial,Hold,0
07:10:21.825 PM 02/16/2016,Teleop Enabled,0,FALSE,0,NO ERROR,0.000000,0.000000,-6000.000000,-6000.000000,Speed,Speed,-0.070000,0.760000,0.990000,1.000000,102.000000,1,0,-0.000000,0.000000,1,0.000000,0.000000,0.000000,-19.127960,40.987549,0.000000,0.002000,0.000000,0.000000,FlatInitial,Hold,0
07:10:21.925 PM 02/16/2016,Teleop Enabled,0,FALSE,0,NO ERROR,0.000000,0.000000,-6000.000000,-6000.000000,Speed,Speed,-0.080000,0.750000,1.000000,1.000000,103.000000,1,0,-0.000000,0.000000,1,0.000000,0.000000,0.000000,-19.127960,40.987549,0.000000,0.001000,0.000000,0.004000,FlatInitial,Hold,0
07:10:22.027 PM 02/16/2016,Teleop Enabled,0,FALSE,0,NO ERROR,0.000000,0.000000,-6000.000000,-6000.000000,Speed,Speed,-0.070000,0.760000,1.000000,1.000000,102.000000,1,0,-0.000000,0.000000,1,0.000000,0.000000,0.000000,-19.127960,40.987549,0.000000,0.000000,-0.002000,0.007000,FlatInitial,Hold,0
07:10:22.128 PM 02/16/2016,Teleop Enabled,0,FALSE,0,NO ERROR,0.000000,0.000000,-6000.000000,-6000.000000,Speed,Speed,-0.070000,0.760000,0.990000,1.000000,101.000000,1,0,-0.000000,0.000000,1,0.000000,0.000000,0.000000,-19.127960,40.987549,0.000000,0.004000,0.000000,0.001000,FlatInitial,Hold,0
07:10:22.228 PM 02/16/2016,Teleop Enabled,0,FALSE,0,NO ERROR,0.000000,0.000000,-6000.000000,-6000.000000,Speed,Speed,-0.070000,0.750000,0.990000,1.000000,101.000000,1,0,-0.000000,0.000000,1,0.000000,0.000000,0.000000,-19.127960,40.987549,0.000000,0.002000,-0.001000,0.001000,FlatInitial,Hold,0
07:10:22.331 PM 02/16/2016,Teleop Enabled,0,FALSE,0,NO ERROR,0.000000,0.000000,-6000.000000,-6000.000000,Speed,Speed,-0.070000,0.760000,0.990000,1.000000,101.000000,1,0,-0.000000,0.000000,1,0.000000,0.000000,0.000000,-19.127960,40.987549,0.000000,-0.003000,0.000000,0.004000,FlatInitial,Hold,0
07:10:22.430 PM 02/16/2016,Teleop Enabled,0,FALSE,0,NO ERROR,0.000000,0.000000,-6000.000000,-6000.000000,Speed,Speed,-0.070000,0.770000,0.990000,1.000000,104.000000,1,0,-0.000000,0.000000,1,0.000000,0.000000,0.000000,-19.127960,40.987549,0.000000,0.001000,-0.003000,0.000000,FlatInitial,Hold,0
07:10:22.532 PM 02/16/2016,Teleop Enabled,0,FALSE,0,NO ERROR,0.000000,0.000000,-6000.000000,-6000.000000,Speed,Speed,-0.070000,0.770000,0.980000,1.000000,101.000000,1,0,-0.000000,0.000000,1,0.000000,0.000000,0.000000,-19.127960,40.987549,0.000000,0.001000,0.000000,0.000000,FlatInitial,Hold,0
07:10:22.633 PM 02/16/2016,Teleop Enabled,0,FALSE,0,NO ERROR,0.000000,0.000000,-6000.000000,-6000.000000,Speed,Speed,-0.070000,0.770000,0.980000,1.000000,102.000000,1,0,-0.000000,0.000000,1,0.000000,0.000000,0.000000,-19.127960,40.987549,0.000000,-0.001000,0.001000,0.002000,FlatInitial,Hold,0
07:10:22.732 PM 02/16/2016,Teleop Enabled,0,FALSE,0,NO ERROR,0.000000,0.000000,-6000.000000,-6000.000000,Speed,Speed,-0.070000,0.770000,0.980000,1.000000,101.000000,1,0,-0.000000,0.000000,1,0.000000,0.000000,0.000000,-19.127960,40.987549,0.000000,0.000000,0.000000,0.005000,FlatInitial,Hold,0
07:10:22.832 PM 02/16/2016,Teleop Enabled,0,FALSE,0,NO ERROR,0.000000,0.000000,-6000.000000,-6000.000000,Speed,Speed,-0.070000,0.770000,0.980000,1.000000,102.000000,1,0,-0.000000,0.000000,1,0.000000,0.000000,0.000000,-19.127960,40.987549,0.000000,0.002000,-0.001000,0.003000,FlatInitial,Hold,0
07:10:22.932 PM 02/16/2016,Teleop Enabled,0,FALSE,0,NO ERROR,0.000000,0.000000,-6000.000000,-6000.000000,Speed,Speed,-0.070000,0.770000,0.980000,1.000000,101.000000,1,0,-0.000000,0.000000,1,0.000000,0.000000,0.000000,-19.127960,40.987549,0.000000,0.001000,0.000000,0.001000,FlatInitial,Hold,0
07:10:23.033 PM 02/16/2016,Teleop Enabled,0,FALSE,0,NO ERROR,0.000000,0.000000,-6000.000000,-6000.000000,Speed,Speed,-0.070000,0.770000,0.980000,1.000000,101.000000,1,0,-0.000000,0.000000,1,0.000000,0.000000,0.000000,-19.127960,40.987549,0.000000,-0.002000,0.001000,0.001000,FlatInitial,Hold,0
07:10:23.133 PM 02/16/2016,Teleop Enabled,0,FALSE,0,NO ERROR,0.000000,0.000000,-6000.000000,-6000.000000,Speed,Speed,-0.070000,0.770000,0.980000,1.000000,101.000000,1,0,-0.000000,0.000000,1,0.000000,0.000000,0.000000,-19.127960,40.987549,0.000000,0.000000,0.000000,0.002000,FlatInitial,Hold,0
07:10:23.233 PM 02/16/2016,Teleop Enabled,0,FALSE,0,NO ERROR,0.000000,0.000000,-6000.000000,-6000.000000,Speed,Speed,-0.070000,0.770000,0.990000,1.000000,101.000000,1,0,-0.000000,0.000000,1,0.000000,0.000000,0.000000,-19.127960,40.987549,0.000000,0.000000,0.000000,0.005000,FlatInitial,Hold,0
07:10:23.334 PM 02/16/2016,Teleop Enabled,0,FALSE,0,NO ERROR,0.000000,0.000000,-6000.000000,-6000.000000,Speed,Speed,-0.070000,0.770000,0.990000,1.000000,101.000000,1,0,-0.000000,0.000000,1,0.000000,0.000000,0.000000,-19.127960,40.987549,0.000000,0.000000,0.002000,0.003000,FlatInitial,Hold,0
07:10:23.434 PM 02/16/2016,Teleop Enabled,0,FALSE,0,NO ERROR,0.000000,0.000000,-6000.000000,-6000.000000,Speed,Speed,-0.070000,0.770000,0.990000,1.000000,101.000000,1,0,-0.000000,0.000000,1,0.000000,0.000000,0.000000,-19.127960,40.987549,0.000000,-0.003000,0.001000,0.001000,FlatInitial,Hold,0
07:10:23.534 PM 02/16/2016,Teleop Enabled,0,FALSE,0,NO ERROR,0.000000,0.000000,-6000.000000,-6000.000000,Speed,Speed,-0.070000,0.770000,1.000000,1.000000,101.000000,1,0,-0.000000,0.000000,1,0.000000,0.000000,0.000000,-19.127960,40.987549,0.000000,0.000000,0.000000,0.002000,FlatInitial,Hold,0
07:10:23.634 PM 02/16/2016,Teleop Enabled,0,FALSE,0,NO ERROR,0.000000,0.000000,-6000.000000,-6000.000000,Speed,Speed,-0.070000,0.770000,1.000000,1.000000,101.000000,1,0,-0.000000,0.000000,1,0.000000,0.000000,0.000000,-19.127960,40.987549,0.000000,0.001000,0.000000,0.000000,FlatInitial,Hold,0
07:10:23.735 PM 02/16/2016,Teleop Enabled,0,FALSE,0,NO ERROR,0.000000,0.000000,-6000.000000,-6000.000000,Speed,Speed,-0.070000,0.770000,1.000000,1.000000,103.000000,1,0,-0.000000,0.000000,1,0.000000,0.000000,0.000000,-19.127960,40.987549,0.000000,0.000000,0.000000,0.005000,FlatInitial,Hold,0
07:10:23.836 PM 02/16/2016,Teleop Enabled,0,FALSE,0,NO ERROR,0.000000,0.000000,-6000.000000,-6000.000000,Speed,Speed,-0.070000,0.760000,0.990000,1.000000,104.000000,1,0,-0.000000,0.000000,1,0.000000,0.000000,0.000000,-19.127960,40.987549,0.000000,0.001000,0.000000,0.008000,FlatInitial,Hold,0
07:10:23.936 PM 02/16/2016,Teleop Enabled,0,FALSE,0,NO ERROR,0.000000,0.000000,-6000.000000,-6000.000000,Speed,Speed,-0.070000,0.770000,0.990000,1.000000,101.000000,1,0,-0.000000,0.000000,1,0.000000,0.000000,0.000000,-19.127960,40.987549,0.000000,0.000000,0.000000,0.000000,FlatInitial,Hold,0
07:10:24.036 PM 02/16/2016,Teleop Enabled,0,FALSE,0,NO ERROR,0.000000,0.000000,-6000.000000,-6000.000000,Speed,Speed,-0.070000,0.770000,0.990000,1.000000,101.000000,1,0,-0.000000,0.000000,1,0.000000,0.000000,0.000000,-19.127960,40.987549,0.000000,0.000000,-0.002000,0.005000,FlatInitial,Hold,0
07:10:24.136 PM 02/16/2016,Teleop Enabled,0,FALSE,0,NO ERROR,0.000000,0.000000,-6000.000000,-6000.000000,Speed,Speed,-0.070000,0.770000,0.990000,1.000000,100.000000,1,0,-0.000000,0.000000,1,0.000000,0.000000,0.000000,-19.127960,40.987549,0.000000,0.000000,-0.002000,0.006000,FlatInitial,Hold,0
07:10:24.236 PM 02/16/2016,Teleop Enabled,0,FALSE,0,NO ERROR,0.000000,0.000000,-6000.000000,-6000.000000,Speed,Speed,-0.070000,0.770000,0.980000,1.000000,102.000000,1,0,-0.000000,0.000000,1,0.000000,0.000000,0.000000,-19.127960,40.987549,0.000000,0.000000,0.001000,-0.001000,FlatInitial,Hold,0
07:10:24.337 PM 02/16/2016,Teleop Enabled,0,FALSE,0,NO ERROR,0.000000,0.000000,-6000.000000,-6000.000000,Speed,Speed,-0.080000,0.770000,0.980000,1.000000,102.000000,1,0,-0.000000,0.000000,1,0.000000,0.000000,0.000000,-19.127960,40.987549,0.000000,0.001000,0.000000,0.001000,FlatInitial,Hold,0
07:10:24.437 PM 02/16/2016,Teleop Enabled,0,FALSE,0,NO ERROR,0.000000,0.000000,-6000.000000,-6000.000000,Speed,Speed,-0.080000,0.770000,0.980000,1.000000,102.000000,1,0,-0.000000,0.000000,1,0.000000,0.000000,0.000000,-19.127960,40.987549,0.000000,0.003000,0.000000,0.005000,FlatInitial,Hold,0
07:10:24.537 PM 02/16/2016,Teleop Enabled,0,FALSE,0,NO ERROR,0.000000,0.000000,-6000.000000,-6000.000000,Speed,Speed,-0.080000,0.770000,0.980000,1.000000,101.000000,1,0,-0.000000,0.000000,1,0.000000,0.000000,0.000000,-19.127960,40.987549,0.000000,0.000000,0.000000,0.005000,FlatInitial,Hold,0
07:10:24.637 PM 02/16/2016,Teleop Enabled,0,FALSE,0,NO ERROR,0.000000,0.000000,-6000.000000,-6000.000000,Speed,Speed,-0.080000,0.770000,0.990000,1.000000,102.000000,1,0,-0.000000,0.000000,1,0.000000,0.000000,0.000000,-19.127960,40.987549,0.000000,0.001000,0.003000,0.009000,FlatInitial,Hold,0
07:10:24.737 PM 02/16/2016,Teleop Enabled,0,FALSE,0,NO ERROR,0.000000,0.000000,-6000.000000,-6000.000000,Speed,Speed,-0.080000,0.770000,0.980000,1.000000,102.000000,1,0,-0.000000,0.000000,1,0.000000,0.000000,0.000000,-19.127960,40.987549,0.000000,0.000000,-0.001000,0.004000,FlatInitial,Hold,0
07:10:24.838 PM 02/16/2016,Teleop Enabled,0,FALSE,0,NO ERROR,0.000000,0.000000,-6000.000000,-6000.000000,Speed,Speed,-0.080000,0.770000,0.980000,1.000000,105.000000,1,0,-0.000000,0.000000,1,0.000000,0.000000,0.000000,-19.127960,40.987549,0.000000,0.000000,0.000000,0.004000,FlatInitial,Hold,0
07:10:24.938 PM 02/16/2016,Teleop Enabled,0,FALSE,0,NO ERROR,0.000000,0.000000,-6000.000000,-6000.000000,Speed,Speed,-0.080000,0.770000,0.980000,1.000000,102.000000,1,0,-0.000000,0.000000,1,0.000000,0.000000,0.000000,-19.127960,40.987549,0.000000,0.002000,0.000000,0.002000,FlatInitial,Hold,0
07:10:25.038 PM 02/16/2016,Teleop Enabled,0,FALSE,0,NO ERROR,0.000000,0.000000,-6000.000000,-6000.000000,Speed,Speed,-0.080000,0.770000,0.980000,1.000000,101.000000,1,0,-0.000000,0.000000,1,0.000000,0.000000,0.000000,-19.127960,40.987549,0.000000,0.001000,0.000000,0.001000,FlatInitial,Hold,0
07:10:25.139 PM 02/16/2016,Teleop Enabled,0,FALSE,0,NO ERROR,0.000000,0.000000,-6000.000000,-6000.000000,Speed,Speed,-0.080000,0.770000,0.980000,1.000000,100.000000,1,0,-0.000000,0.000000,1,0.000000,0.000000,0.000000,-19.127960,40.987549,0.000000,-0.001000,-0.001000,0.007000,FlatInitial,Hold,0
07:10:25.239 PM 02/16/2016,Teleop Enabled,0,FALSE,0,NO ERROR,0.000000,0.000000,-6000.000000,-6000.000000,Speed,Speed,-0.080000,0.760000,0.980000,1.000000,100.000000,1,0,-0.000000,0.000000,1,0.000000,0.000000,0.000000,-19.127960,40.987549,0.000000,0.000000,0.000000,0.001000,FlatInitial,Hold,0
07:10:25.339 PM 02/16/2016,Teleop Enabled,0,FALSE,0,NO ERROR,0.000000,0.000000,-6000.000000,-6000.000000,Speed,Speed,-0.080000,0.770000,0.980000,1.000000,100.000000,1,0,-0.000000,0.000000,1,0.000000,0.000000,0.000000,-19.127960,40.987549,0.000000,-0.001000,0.003000,0.000000,FlatInitial,Hold,0
07:10:25.441 PM 02/16/2016,Teleop Enabled,0,FALSE,0,NO ERROR,0.000000,0.000000,-6000.000000,-6000.000000,Speed,Speed,-0.080000,0.770000,0.980000,1.000000,101.000000,1,0,-0.000000,0.000000,1,0.000000,0.000000,0.000000,-19.127960,40.987549,0.000000,-0.001000,0.000000,0.011000,FlatInitial,Hold,0
07:10:25.541 PM 02/16/2016,Teleop Enabled,0,FALSE,0,NO ERROR,0.000000,0.000000,-6000.000000,-6000.000000,Speed,Speed,-0.080000,0.760000,0.980000,1.000000,101.000000,1,0,-0.000000,0.000000,1,0.000000,0.000000,0.000000,-19.127960,40.987549,0.000000,0.001000,0.000000,-0.002000,FlatInitial,Hold,0
07:10:25.641 PM 02/16/2016,Teleop Enabled,0,FALSE,0,NO ERROR,0.000000,0.000000,-6000.000000,-6000.000000,Speed,Speed,-0.080000,0.760000,0.980000,1.000000,101.000000,1,0,-0.000000,0.000000,1,0.000000,0.000000,0.000000,-19.127960,40.987549,0.000000,-0.001000,0.002000,0.003000,FlatInitial,Hold,0
07:10:25.741 PM 02/16/2016,Teleop Enabled,0,FALSE,0,NO ERROR,0.000000,0.000000,-6000.000000,-6000.000000,Speed,Speed,-0.080000,0.770000,0.980000,1.000000,101.000000,1,0,-0.000000,0.000000,1,0.000000,0.000000,0.000000,-19.127960,40.987549,0.000000,-0.002000,0.001000,0.001000,FlatInitial,Hold,0
07:10:25.841 PM 02/16/2016,Teleop Enabled,0,FALSE,0,NO ERROR,0.000000,0.000000,-6000.000000,-6000.000000,Speed,Speed,-0.080000,0.760000,0.990000,1.000000,101.000000,1,0,-0.000000,0.000000,1,0.000000,0.000000,0.000000,-19.127960,40.987549,0.000000,0.002000,-0.001000,0.004000,FlatInitial,Hold,0
07:10:25.941 PM 02/16/2016,Teleop Enabled,0,FALSE,0,NO ERROR,0.000000,0.000000,-6000.000000,-6000.000000,Speed,Speed,-0.080000,0.760000,0.980000,1.000000,102.000000,1,0,-0.000000,0.000000,1,0.000000,0.000000,0.000000,-19.127960,40.987549,0.000000,0.000000,-0.001000,0.002000,FlatInitial,Hold,0
07:10:26.041 PM 02/16/2016,Teleop Enabled,0,FALSE,0,NO ERROR,0.000000,0.000000,-6000.000000,-6000.000000,Speed,Speed,-0.080000,0.760000,0.980000,1.000000,101.000000,1,0,-0.000000,0.000000,1,0.000000,0.000000,0.000000,-19.127960,40.987549,0.000000,0.000000,0.001000,0.002000,FlatInitial,Hold,0
07:10:26.141 PM 02/16/2016,Teleop Enabled,0,FALSE,0,NO ERROR,0.000000,0.000000,-6000.000000,-6000.000000,Speed,Speed,-0.080000,0.760000,0.980000,1.000000,102.000000,1,0,-0.000000,0.000000,1,0.000000,0.000000,0.000000,-19.127960,40.987549,0.000000,0.000000,0.000000,0.005000,FlatInitial,Hold,0
07:10:26.241 PM 02/16/2016,Teleop Enabled,0,FALSE,0,NO ERROR,0.000000,0.000000,-6000.000000,-6000.000000,Speed,Speed,-0.080000,0.760000,0.980000,1.000000,102.000000,1,0,-0.000000,0.000000,1,0.000000,0.000000,0.000000,-19.127960,40.987549,0.000000,-0.001000,-0.001000,0.004000,FlatInitial,Hold,0
07:10:26.342 PM 02/16/2016,Teleop Enabled,0,FALSE,0,NO ERROR,0.000000,0.000000,-6000.000000,-6000.000000,Speed,Speed,-0.080000,0.760000,0.980000,1.000000,100.000000,1,0,-0.000000,0.000000,1,0.000000,0.000000,0.000000,-19.127960,40.987549,0.000000,-0.001000,-0.001000,0.005000,FlatInitial,Hold,0
07:10:26.442 PM 02/16/2016,Teleop Enabled,0,FALSE,0,NO ERROR,0.000000,0.000000,-6000.000000,-6000.000000,Speed,Speed,-0.080000,0.760000,0.980000,1.000000,101.000000,1,0,-0.000000,0.000000,1,0.000000,0.000000,0.000000,-19.127960,40.987549,0.000000,0.000000,0.000000,0.004000,FlatInitial,Hold,0
07:10:26.543 PM 02/16/2016,Teleop Enabled,0,FALSE,0,NO ERROR,0.000000,0.000000,-6000.000000,-6000.000000,Speed,Speed,-0.070000,0.750000,0.990000,1.000000,103.000000,1,0,-0.000000,0.000000,1,0.000000,0.000000,0.000000,-19.127960,40.987549,0.000000,0.000000,0.000000,0.005000,FlatInitial,Hold,0
07:10:26.644 PM 02/16/2016,Teleop Enabled,0,FALSE,0,NO ERROR,0.000000,0.000000,-6000.000000,-6000.000000,Speed,Speed,-0.070000,0.750000,0.990000,1.000000,103.000000,1,0,-0.000000,0.000000,1,0.000000,0.000000,0.000000,-19.127960,40.987549,0.000000,0.000000,0.000000,0.005000,FlatInitial,Hold,0
07:10:26.745 PM 02/16/2016,Teleop Enabled,0,FALSE,0,NO ERROR,0.000000,0.000000,-6000.000000,-6000.000000,Speed,Speed,-0.070000,0.750000,0.990000,1.000000,101.000000,1,0,-0.000000,0.000000,1,0.000000,0.000000,0.000000,-19.127960,40.987549,0.000000,0.000000,0.000000,0.004000,FlatInitial,Hold,0
07:10:26.845 PM 02/16/2016,Teleop Enabled,0,FALSE,0,NO ERROR,0.000000,0.000000,-6000.000000,-6000.000000,Speed,Speed,-0.070000,0.750000,0.990000,1.000000,102.000000,1,0,-0.000000,0.000000,1,0.000000,0.000000,0.000000,-19.127960,40.987549,0.000000,-0.001000,-0.001000,0.009000,FlatInitial,Hold,0
07:10:26.945 PM 02/16/2016,Teleop Enabled,0,FALSE,0,NO ERROR,0.000000,0.000000,-6000.000000,-6000.000000,Speed,Speed,-0.070000,0.750000,0.990000,1.000000,101.000000,1,0,-0.000000,0.000000,1,0.000000,0.000000,0.000000,-19.127960,40.987549,0.000000,0.001000,0.000000,0.007000,FlatInitial,Hold,0
07:10:27.045 PM 02/16/2016,Teleop Enabled,0,FALSE,0,NO ERROR,0.000000,0.000000,-6000.000000,-6000.000000,Speed,Speed,-0.070000,0.750000,0.990000,1.000000,101.000000,1,0,-0.000000,0.000000,1,0.000000,0.000000,0.000000,-19.127960,40.987549,0.000000,0.000000,-0.001000,0.005000,FlatInitial,Hold,0
07:10:27.145 PM 02/16/2016,Teleop Enabled,0,FALSE,0,NO ERROR,0.000000,0.000000,-6000.000000,-6000.000000,Speed,Speed,-0.070000,0.760000,0.990000,1.000000,101.000000,1,0,-0.000000,0.000000,1,0.000000,0.000000,0.000000,-19.127960,40.987549,0.000000,0.002000,0.000000,0.006000,FlatInitial,Hold,0
