Time,RobotMode,AutoToRun,ErrorStatus, ErrorCode,ErrorSource,ActualRPM1,ActualRPM2,DesiredRPM1,DesiredRPM2,ControlMode1,ControlMode2,NavXYaw,NavXRoll,NavXPitch,ShooterState,LoopTime,IsLevel,IsAutoTargeting,LeftMotorOutput,RightMotorOutput,IsHaloDrive,NavXVelocityX,NavXVelocityY,NavXVelocityZ,NavXDisplacementX,NavXDisplacementY,NavXDisplacementZ,NavXAccelerationX,NavXAccelerationY,NavXAccelerationZ,AutoDefendState,AngeMotorState,Photoeye
08:30:14.558 PM 02/17/2016,Teleop Enabled,0,TRUE,91,Variant To Data in WPI_DigitalInputRefNum Registry Get.vi->Periodic Tasks.vi->Robot Main.vi,-3.515625,0.000000,0.000000,0.000000,Speed,Speed,2.100000,1.040000,1.520000,0.000000,48903.000000,1,0,-0.000000,0.000000,1,0.000000,0.021729,0.000000,-4.328781,-8.014221,0.000000,-0.007000,-0.016000,-0.052000,FlatInitial,ResetBack,0
08:30:14.660 PM 02/17/2016,Teleop Enabled,0,TRUE,-44007,<LOCATION>WPI_DigitalInputRefNum Registry Get.vi<CALLSTACK>WPI_DigitalInputRefNum Registry Get.vi< <Periodic Tasks.vi< <Robot Main.vi,0.000000,0.000000,0.000000,0.000000,Speed,Speed,0.010000,1.030000,1.850000,0.000000,104.000000,1,0,-0.000000,0.000000,1,0.000000,0.019196,0.000000,-4.328781,-8.013184,0.000000,-0.007000,-0.084000,0.132000,FlatInitial,ResetBack,0
08:30:14.760 PM 02/17/2016,Teleop Enabled,0,FALSE,0,NO ERROR,0.000000,0.000000,0.000000,0.000000,Speed,Speed,0.130000,1.050000,1.660000,0.000000,101.000000,1,0,-0.000000,0.000000,1,0.000000,0.003693,0.000000,-4.328629,-8.013687,0.000000,-0.006000,0.024000,0.077000,FlatInitial,ResetBack,0
08:30:14.862 PM 02/17/2016,Teleop Enabled,0,FALSE,0,NO ERROR,0.000000,0.000000,0.000000,0.000000,Speed,Speed,0.220000,1.080000,1.770000,0.000000,103.000000,1,0,-0.000000,0.000000,1,-0.003647,0.042709,0.000000,-4.329117,-8.012238,0.000000,0.016000,0.006000,0.113000,FlatInitial,ResetBack,0
08:30:14.961 PM 02/17/2016,Teleop Enabled,0,FALSE,0,NO ERROR,0.000000,0.000000,0.000000,0.000000,Speed,Speed,0.280000,1.070000,1.850000,0.000000,107.000000,1,0,-0.000000,0.000000,1,-0.015991,-0.007141,0.000000,-4.329391,-8.011429,0.000000,-0.002000,-0.014000,0.069000,FlatInitial,ResetBack,0
08:30:15.062 PM 02/17/2016,Teleop Enabled,0,FALSE,0,NO ERROR,0.000000,0.000000,0.000000,0.000000,Speed,Speed,0.280000,1.080000,1.720000,0.000000,101.000000,1,0,-0.000000,0.000000,1,0.000000,0.002869,0.000000,-4.329575,-8.011414,0.000000,-0.001000,-0.013000,0.059000,FlatInitial,ResetBack,0
08:30:15.163 PM 02/17/2016,Teleop Enabled,0,FALSE,0,NO ERROR,0.000000,0.000000,0.000000,0.000000,Speed,Speed,0.260000,1.050000,1.840000,0.000000,105.000000,1,0,-0.000000,0.000000,1,0.000000,-0.004120,0.000000,-4.329575,-8.011444,0.000000,-0.003000,-0.022000,0.089000,FlatInitial,ResetBack,0
08:30:15.264 PM 02/17/2016,Teleop Enabled,0,FALSE,0,NO ERROR,0.000000,0.000000,0.000000,0.000000,Speed,Speed,0.340000,1.060000,1.810000,0.000000,100.000000,1,0,-0.000000,0.000000,1,0.000000,0.000000,0.000000,-4.329575,-8.011612,0.000000,-0.008000,-0.012000,0.013000,FlatInitial,ResetBack,0
08:30:15.364 PM 02/17/2016,Teleop Enabled,0,FALSE,0,NO ERROR,0.000000,0.000000,0.000000,0.000000,Speed,Speed,0.300000,1.060000,1.840000,0.000000,101.000000,1,0,-0.000000,0.000000,1,0.000000,0.000000,0.000000,-4.329575,-8.011612,0.000000,0.000000,-0.011000,0.017000,FlatInitial,ResetBack,0
08:30:15.466 PM 02/17/2016,Teleop Enabled,0,FALSE,0,NO ERROR,0.000000,0.000000,0.000000,0.000000,Speed,Speed,0.320000,1.050000,1.860000,0.000000,101.000000,1,0,-0.000000,0.000000,1,0.000000,0.000000,0.000000,-4.329575,-8.011612,0.000000,0.015000,0.000000,0.001000,FlatInitial,ResetBack,1
08:30:15.566 PM 02/17/2016,Teleop Enabled,0,FALSE,0,NO ERROR,0.000000,0.000000,0.000000,0.000000,Speed,Speed,0.320000,1.050000,1.860000,0.000000,101.000000,1,0,-0.000000,0.000000,1,0.000000,0.000000,0.000000,-4.329575,-8.011612,0.000000,0.006000,0.002000,-0.003000,FlatInitial,ResetForward,1
08:30:15.667 PM 02/17/2016,Teleop Enabled,0,FALSE,0,NO ERROR,0.000000,0.000000,0.000000,0.000000,Speed,Speed,0.290000,1.050000,1.880000,0.000000,113.000000,1,0,-0.000000,0.000000,1,0.000000,0.000000,0.000000,-4.329575,-8.011612,0.000000,-0.003000,-0.011000,-0.023000,FlatInitial,ResetForward,1
08:30:15.768 PM 02/17/2016,Teleop Enabled,0,FALSE,0,NO ERROR,0.000000,0.000000,0.000000,0.000000,Speed,Speed,0.330000,1.050000,1.970000,0.000000,102.000000,1,0,-0.000000,0.000000,1,0.000000,0.000000,0.000000,-4.329575,-8.011612,0.000000,-0.003000,0.003000,-0.002000,FlatInitial,ResetForward,1
08:30:15.868 PM 02/17/2016,Teleop Enabled,0,FALSE,0,NO ERROR,0.000000,0.000000,0.000000,0.000000,Speed,Speed,0.400000,1.060000,1.950000,0.000000,102.000000,1,0,-0.000000,0.000000,1,0.000000,0.000000,0.000000,-4.329575,-8.011612,0.000000,0.002000,0.000000,0.001000,FlatInitial,ResetForward,1
08:30:15.969 PM 02/17/2016,Teleop Enabled,0,FALSE,0,NO ERROR,0.000000,0.000000,0.000000,0.000000,Speed,Speed,0.330000,1.060000,1.890000,0.000000,105.000000,1,0,-0.000000,0.000000,1,0.000000,0.000000,0.000000,-4.329575,-8.011353,0.000000,0.002000,0.000000,0.001000,FlatInitial,ResetForward,1
08:30:16.069 PM 02/17/2016,Teleop Enabled,0,FALSE,0,NO ERROR,0.000000,0.000000,0.000000,0.000000,Speed,Speed,0.340000,1.030000,1.980000,0.000000,101.000000,1,0,-0.000000,0.000000,1,0.000000,-0.020844,0.000000,-4.329575,-8.011978,0.000000,-0.019000,-0.032000,-0.005000,FlatInitial,ResetForward,1
08:30:16.169 PM 02/17/2016,Teleop Enabled,0,FALSE,0,NO ERROR,0.000000,0.000000,0.000000,0.000000,Speed,Speed,0.460000,1.040000,1.890000,0.000000,101.000000,1,0,-0.000000,0.000000,1,0.000000,0.000000,0.000000,-4.329575,-8.012207,0.000000,-0.014000,0.018000,0.000000,FlatInitial,ResetForward,1
08:30:16.270 PM 02/17/2016,Teleop Enabled,0,FALSE,0,NO ERROR,0.000000,0.000000,0.000000,0.000000,Speed,Speed,0.410000,1.070000,1.930000,0.000000,102.000000,1,0,-0.000000,0.000000,1,-0.004440,0.000000,0.000000,-4.329620,-8.012207,0.000000,-0.014000,-0.008000,-0.005000,FlatInitial,ResetForward,0
08:30:16.374 PM 02/17/2016,Teleop Enabled,0,FALSE,0,NO ERROR,0.000000,0.000000,0.000000,0.000000,Speed,Speed,0.440000,1.060000,1.880000,0.000000,107.000000,1,0,-0.000000,0.000000,1,-0.003265,0.000000,0.000000,-4.329895,-8.012207,0.000000,-0.005000,0.018000,0.011000,FlatInitial,Reset,0
08:30:16.476 PM 02/17/2016,Teleop Enabled,0,FALSE,0,NO ERROR,0.000000,0.000000,0.000000,0.000000,Speed,Speed,0.520000,1.040000,1.860000,0.000000,101.000000,1,0,-0.000000,0.000000,1,-0.014633,-0.013855,0.000000,-4.330338,-8.012527,0.000000,0.012000,-0.001000,-0.005000,FlatInitial,Hold,0
08:30:16.576 PM 02/17/2016,Teleop Enabled,0,FALSE,0,NO ERROR,0.000000,0.000000,0.000000,0.000000,Speed,Speed,0.420000,1.080000,1.690000,0.000000,101.000000,1,0,-0.000000,0.000000,1,0.000000,0.000000,0.000000,-4.330490,-8.012695,0.000000,0.012000,-0.001000,-0.005000,FlatInitial,Hold,0
08:30:16.677 PM 02/17/2016,Teleop Enabled,0,FALSE,0,NO ERROR,0.000000,0.000000,0.000000,0.000000,Speed,Speed,0.440000,1.050000,1.830000,0.000000,100.000000,1,0,-0.000000,0.000000,1,0.000000,0.000000,0.000000,-4.330490,-8.012695,0.000000,-0.003000,0.022000,-0.007000,FlatInitial,Hold,0
08:30:16.778 PM 02/17/2016,Teleop Enabled,0,FALSE,0,NO ERROR,0.000000,0.000000,0.000000,0.000000,Speed,Speed,0.500000,1.070000,1.900000,0.000000,102.000000,1,0,-0.000000,0.000000,1,0.000000,0.023148,0.000000,-4.330490,-8.011932,0.000000,0.002000,-0.010000,0.001000,FlatInitial,Hold,0
08:30:16.878 PM 02/17/2016,Teleop Enabled,0,FALSE,0,NO ERROR,0.000000,0.000000,0.000000,0.000000,Speed,Speed,0.430000,1.070000,1.860000,0.000000,101.000000,1,0,-0.000000,0.000000,1,0.000000,0.000000,0.000000,-4.330490,-8.011719,0.000000,0.000000,0.011000,0.000000,FlatInitial,Hold,0
08:30:16.979 PM 02/17/2016,Teleop Enabled,0,FALSE,0,NO ERROR,0.000000,0.000000,0.000000,0.000000,Speed,Speed,0.370000,1.060000,1.810000,0.000000,101.000000,1,0,-0.000000,0.000000,1,0.000000,0.000000,0.000000,-4.330490,-8.011719,0.000000,0.000000,0.011000,0.000000,FlatInitial,Hold,0
08:30:17.080 PM 02/17/2016,Teleop Enabled,0,FALSE,0,NO ERROR,0.000000,0.000000,0.000000,0.000000,Speed,Speed,0.380000,1.060000,1.830000,0.000000,101.000000,1,0,-0.000000,0.000000,1,0.000000,0.000000,0.000000,-4.330490,-8.011719,0.000000,-0.003000,0.004000,-0.001000,FlatInitial,Hold,0
08:30:17.181 PM 02/17/2016,Teleop Enabled,0,FALSE,0,NO ERROR,0.000000,0.000000,0.000000,0.000000,Speed,Speed,0.430000,1.060000,1.850000,0.000000,101.000000,1,0,-0.000000,0.000000,1,0.000000,0.000000,0.000000,-4.330490,-8.011719,0.000000,0.005000,0.001000,0.001000,FlatInitial,Hold,0
08:30:17.281 PM 02/17/2016,Teleop Enabled,0,FALSE,0,NO ERROR,0.000000,0.000000,0.000000,0.000000,Speed,Speed,0.420000,1.060000,1.870000,0.000000,101.000000,1,0,-0.000000,0.000000,1,0.000000,0.000000,0.000000,-4.330490,-8.011719,0.000000,0.000000,0.000000,0.000000,FlatInitial,Hold,0
08:30:17.382 PM 02/17/2016,Teleop Enabled,0,FALSE,0,NO ERROR,0.000000,0.000000,0.000000,0.000000,Speed,Speed,0.380000,1.060000,1.850000,0.000000,101.000000,1,0,-0.000000,0.000000,1,0.000000,0.000000,0.000000,-4.330490,-8.011719,0.000000,0.000000,-0.003000,0.003000,FlatInitial,Hold,0
08:30:17.483 PM 02/17/2016,Teleop Enabled,0,FALSE,0,NO ERROR,0.000000,0.000000,0.000000,0.000000,Speed,Speed,0.390000,1.050000,1.830000,0.000000,101.000000,1,0,-0.000000,0.000000,1,0.000000,0.000000,0.000000,-4.330490,-8.011719,0.000000,-0.001000,-0.002000,-0.001000,FlatInitial,Hold,0
08:30:17.584 PM 02/17/2016,Teleop Enabled,0,FALSE,0,NO ERROR,0.000000,0.000000,0.000000,0.000000,Speed,Speed,0.410000,1.050000,1.860000,0.000000,102.000000,1,0,-0.000000,0.000000,1,0.000000,0.000000,0.000000,-4.330490,-8.011719,0.000000,0.003000,0.006000,0.002000,FlatInitial,Hold,0
08:30:17.685 PM 02/17/2016,Teleop Enabled,0,FALSE,0,NO ERROR,0.000000,0.000000,0.000000,0.000000,Speed,Speed,0.410000,1.050000,1.860000,0.000000,102.000000,1,0,-0.000000,0.000000,1,0.000000,0.000000,0.000000,-4.330490,-8.011719,0.000000,0.001000,0.003000,0.005000,FlatInitial,Hold,0
08:30:17.786 PM 02/17/2016,Teleop Enabled,0,FALSE,0,NO ERROR,0.000000,0.000000,0.000000,0.000000,Speed,Speed,0.390000,1.050000,1.850000,1.000000,102.000000,1,0,-0.000000,0.000000,1,0.000000,0.000000,0.000000,-4.330490,-8.011719,0.000000,-0.002000,0.000000,0.006000,FlatInitial,Hold,0
08:30:17.886 PM 02/17/2016,Teleop Enabled,0,FALSE,0,NO ERROR,-95.361328,0.000000,-6000.000000,-6000.000000,Speed,Speed,0.390000,1.060000,1.840000,1.000000,102.000000,1,0,-0.000000,0.000000,1,0.000000,0.000000,0.000000,-4.330490,-8.011719,0.000000,0.003000,-0.003000,-0.002000,FlatInitial,Hold,0
08:30:17.986 PM 02/17/2016,Teleop Enabled,0,FALSE,0,NO ERROR,-95.361328,152.490234,-6000.000000,-6000.000000,Speed,Speed,0.410000,1.050000,1.850000,1.000000,102.000000,1,0,-0.000000,0.000000,1,0.000000,-0.002960,0.000000,-4.330490,-8.011749,0.000000,-0.020000,0.016000,-0.053000,FlatInitial,Hold,0
08:30:18.087 PM 02/17/2016,Teleop Enabled,0,FALSE,0,NO ERROR,-3134.619141,1562.402344,-6000.000000,-6000.000000,Speed,Speed,0.400000,1.050000,1.900000,1.000000,101.000000,1,0,-0.000000,0.000000,1,0.003601,0.010986,0.000000,-4.330658,-8.011581,0.000000,-0.030000,0.031000,-0.008000,FlatInitial,Hold,0
08:30:18.187 PM 02/17/2016,Teleop Enabled,0,FALSE,0,NO ERROR,-4493.994141,2836.523438,-6000.000000,-6000.000000,Speed,Speed,0.390000,1.090000,1.860000,1.000000,101.000000,1,0,-0.000000,0.000000,1,0.023300,0.012894,0.000000,-4.330154,-8.011093,0.000000,0.008000,-0.002000,-0.107000,FlatInitial,Hold,0
08:30:18.288 PM 02/17/2016,Teleop Enabled,0,FALSE,0,NO ERROR,-4493.994141,4224.023438,-6000.000000,-6000.000000,Speed,Speed,0.400000,1.070000,1.810000,1.000000,101.000000,1,0,-0.000000,0.000000,1,0.014420,-0.006668,0.000000,-4.328949,-8.011887,0.000000,0.089000,0.027000,-0.071000,FlatInitial,Hold,0
08:30:18.388 PM 02/17/2016,Teleop Enabled,0,FALSE,0,NO ERROR,-5547.070312,5269.335938,-6000.000000,-6000.000000,Speed,Speed,0.410000,1.070000,1.740000,1.000000,101.000000,1,0,-0.000000,0.000000,1,-0.028656,-0.020416,0.000000,-4.328918,-8.012192,0.000000,0.089000,0.027000,-0.071000,FlatInitial,Hold,0
08:30:18.489 PM 02/17/2016,Teleop Enabled,0,FALSE,0,NO ERROR,-5822.460938,5784.960938,-6000.000000,-6000.000000,Speed,Speed,0.400000,1.140000,2.120000,1.000000,102.000000,1,0,-0.000000,0.000000,1,-0.115051,-0.008804,0.000000,-4.332520,-8.012817,0.000000,-0.129000,-0.008000,0.027000,FlatInitial,Hold,0
08:30:18.592 PM 02/17/2016,Teleop Enabled,0,FALSE,0,NO ERROR,-6032.812500,5943.750000,-6000.000000,-6000.000000,Speed,Speed,0.400000,1.090000,2.170000,1.000000,105.000000,1,0,-0.000000,0.000000,1,-0.210052,-0.016357,0.000000,-4.341232,-8.013092,0.000000,-0.088000,-0.033000,-0.012000,FlatInitial,Hold,0
08:30:18.692 PM 02/17/2016,Teleop Enabled,0,FALSE,0,NO ERROR,-6097.265625,5978.320312,-6000.000000,-6000.000000,Speed,Speed,0.410000,0.990000,2.210000,1.000000,102.000000,1,0,-0.000000,0.000000,1,-0.255127,-0.013168,0.000000,-4.350769,-8.013794,0.000000,-0.065000,0.010000,-0.014000,FlatInitial,Hold,0
08:30:18.793 PM 02/17/2016,Teleop Enabled,0,FALSE,0,NO ERROR,-6099.609375,5986.523438,-6000.000000,-6000.000000,Speed,Speed,0.410000,0.920000,2.510000,1.000000,100.000000,1,0,-0.000000,0.000000,1,-0.297211,0.009445,0.000000,-4.364990,-8.013763,0.000000,-0.020000,-0.055000,0.093000,FlatInitial,Hold,0
08:30:18.895 PM 02/17/2016,Teleop Enabled,0,FALSE,0,NO ERROR,-6078.515625,5994.140625,-6000.000000,-6000.000000,Speed,Speed,0.410000,0.880000,2.560000,1.000000,103.000000,1,0,-0.000000,0.000000,1,-0.326019,-0.029068,0.000000,-4.380753,-8.014191,0.000000,-0.015000,-0.076000,0.143000,FlatInitial,Hold,0
08:30:18.995 PM 02/17/2016,Teleop Enabled,0,FALSE,0,NO ERROR,-6049.218750,6006.445312,-6000.000000,-6000.000000,Speed,Speed,0.420000,0.850000,2.470000,1.000000,102.000000,1,0,-0.000000,0.000000,1,0.000000,-0.120239,0.000000,-4.397537,-8.019104,0.000000,0.016000,-0.053000,0.200000,FlatInitial,Hold,0
08:30:19.095 PM 02/17/2016,Teleop Enabled,0,FALSE,0,NO ERROR,-6032.812500,6018.164062,-6000.000000,-6000.000000,Speed,Speed,0.420000,0.790000,2.470000,1.000000,102.000000,1,0,-0.000000,0.000000,1,0.019623,-0.183945,0.000000,-4.397186,-8.025391,0.000000,0.063000,-0.086000,0.168000,FlatInitial,Hold,0
08:30:19.194 PM 02/17/2016,Teleop Enabled,0,FALSE,0,NO ERROR,-6019.921875,6024.609375,-6000.000000,-6000.000000,Speed,Speed,0.420000,0.770000,2.590000,1.000000,102.000000,1,0,-0.000000,0.000000,1,0.135086,-0.293121,0.000000,-4.391449,-8.042526,0.000000,0.063000,-0.086000,0.168000,FlatInitial,Hold,0
08:30:19.295 PM 02/17/2016,Teleop Enabled,0,FALSE,0,NO ERROR,-6013.476562,6025.781250,-6000.000000,-6000.000000,Speed,Speed,0.420000,0.790000,2.570000,1.000000,101.000000,1,0,-0.000000,0.000000,1,0.218155,-0.357803,0.000000,-4.383987,-8.055908,0.000000,0.124000,-0.092000,0.200000,FlatInitial,Hold,0
08:30:19.395 PM 02/17/2016,Teleop Enabled,0,FALSE,0,NO ERROR,-6009.960938,6018.750000,-6000.000000,-6000.000000,Speed,Speed,0.410000,0.840000,2.580000,1.000000,101.000000,1,0,-0.000000,0.000000,1,0.357178,-0.450089,0.000000,-4.366028,-8.080643,0.000000,0.124000,-0.092000,0.200000,FlatInitial,Hold,0
08:30:19.494 PM 02/17/2016,Teleop Enabled,0,FALSE,0,NO ERROR,-6003.515625,6010.546875,-6000.000000,-6000.000000,Speed,Speed,0.410000,0.890000,2.520000,1.000000,101.000000,1,0,-0.000000,0.000000,1,0.449387,-0.520462,0.000000,-4.349503,-8.100372,0.000000,0.106000,-0.056000,0.188000,FlatInitial,Hold,0
08:30:19.595 PM 02/17/2016,Teleop Enabled,0,FALSE,0,NO ERROR,-6001.171875,6005.273438,-6000.000000,-6000.000000,Speed,Speed,0.410000,0.930000,2.480000,1.000000,101.000000,1,0,-0.000000,0.000000,1,0.449387,-0.520462,0.000000,-4.349503,-8.100372,0.000000,0.106000,-0.056000,0.188000,FlatInitial,Hold,0
08:30:19.695 PM 02/17/2016,Teleop Enabled,0,FALSE,0,NO ERROR,-5999.414062,6004.101562,-6000.000000,-6000.000000,Speed,Speed,0.410000,0.960000,2.440000,1.000000,103.000000,1,0,-0.000000,0.000000,1,0.705841,-0.682068,0.000000,-4.290817,-8.160675,0.000000,0.147000,-0.104000,0.213000,FlatInitial,Hold,0
08:30:19.795 PM 02/17/2016,Teleop Enabled,0,FALSE,0,NO ERROR,-5995.898438,6004.687500,-6000.000000,-6000.000000,Speed,Speed,0.410000,1.040000,2.280000,1.000000,102.000000,1,0,-0.000000,0.000000,1,0.705841,-0.682068,0.000000,-4.290817,-8.160675,0.000000,0.147000,-0.104000,0.213000,FlatInitial,Hold,0
08:30:19.895 PM 02/17/2016,Teleop Enabled,0,FALSE,0,NO ERROR,-5997.070312,6006.445312,-6000.000000,-6000.000000,Speed,Speed,0.410000,1.080000,2.170000,1.000000,103.000000,1,0,-0.000000,0.000000,1,0.998047,-0.864655,0.000000,-4.195541,-8.247025,0.000000,0.147000,-0.086000,0.237000,FlatInitial,Hold,0
08:30:19.995 PM 02/17/2016,Teleop Enabled,0,FALSE,0,NO ERROR,-5997.070312,6008.203125,-6000.000000,-6000.000000,Speed,Speed,0.400000,1.110000,1.970000,1.000000,101.000000,1,0,-0.000000,0.000000,1,0.998047,-0.864655,0.000000,-4.195541,-8.247025,0.000000,0.125000,-0.084000,0.215000,FlatInitial,Hold,0
08:30:20.095 PM 02/17/2016,Teleop Enabled,0,FALSE,0,NO ERROR,-6001.171875,6004.101562,-6000.000000,-6000.000000,Speed,Speed,0.400000,1.120000,1.840000,1.000000,104.000000,1,0,-0.000000,0.000000,1,1.216751,-1.027145,0.000000,-4.094818,-8.332916,0.000000,0.128000,-0.077000,0.187000,FlatInitial,Hold,0
08:30:20.197 PM 02/17/2016,Teleop Enabled,0,FALSE,0,NO ERROR,-6005.859375,6002.343750,-6000.000000,-6000.000000,Speed,Speed,0.400000,1.120000,1.840000,1.000000,101.000000,1,0,-0.000000,0.000000,1,1.216751,-1.027145,0.000000,-4.094818,-8.332916,0.000000,0.128000,-0.077000,0.187000,FlatInitial,Hold,0
08:30:20.297 PM 02/17/2016,Teleop Enabled,0,FALSE,0,NO ERROR,-6009.375000,5998.828125,-6000.000000,-6000.000000,Speed,Speed,0.400000,1.160000,1.670000,1.000000,105.000000,1,0,-0.000000,0.000000,1,1.497726,-1.156586,0.000000,-3.944839,-8.455246,0.000000,0.144000,-0.027000,0.207000,FlatInitial,Hold,0
08:30:20.397 PM 02/17/2016,Teleop Enabled,0,FALSE,0,NO ERROR,-6008.789062,5998.828125,-6000.000000,-6000.000000,Speed,Speed,0.400000,1.160000,1.670000,1.000000,102.000000,1,0,-0.000000,0.000000,1,1.497726,-1.156586,0.000000,-3.944839,-8.455246,0.000000,0.144000,-0.027000,0.207000,FlatInitial,Hold,0
08:30:20.498 PM 02/17/2016,Teleop Enabled,0,FALSE,0,NO ERROR,-6008.203125,6002.343750,-6000.000000,-6000.000000,Speed,Speed,0.400000,1.190000,1.620000,1.000000,101.000000,1,0,-0.000000,0.000000,1,1.755417,0.000000,0.000000,-3.780411,-8.537567,0.000000,0.130000,-0.005000,0.204000,FlatInitial,Hold,0
08:30:20.598 PM 02/17/2016,Teleop Enabled,0,FALSE,0,NO ERROR,-6008.203125,6007.617188,-6000.000000,-6000.000000,Speed,Speed,0.400000,1.220000,1.590000,1.000000,102.000000,1,0,-0.000000,0.000000,1,1.874771,0.005661,0.000000,-3.688950,-8.537415,0.000000,0.097000,0.023000,0.187000,FlatInitial,Hold,0
08:30:20.698 PM 02/17/2016,Teleop Enabled,0,FALSE,0,NO ERROR,-6007.617188,6012.890625,-6000.000000,-6000.000000,Speed,Speed,0.400000,1.230000,1.590000,1.000000,101.000000,1,0,-0.000000,0.000000,1,1.874771,0.005661,0.000000,-3.688950,-8.537415,0.000000,0.097000,0.023000,0.187000,FlatInitial,Hold,0
08:30:20.798 PM 02/17/2016,Teleop Enabled,0,FALSE,0,NO ERROR,-6007.617188,6009.960938,-6000.000000,-6000.000000,Speed,Speed,0.400000,1.220000,1.620000,1.000000,102.000000,1,0,-0.000000,0.000000,1,2.055603,0.053757,0.000000,-3.491013,-8.534943,0.000000,0.092000,0.046000,0.149000,FlatInitial,Hold,0
08:30:20.899 PM 02/17/2016,Teleop Enabled,0,FALSE,0,NO ERROR,-6003.515625,6005.273438,-6000.000000,-6000.000000,Speed,Speed,0.400000,1.210000,1.660000,1.000000,103.000000,1,0,-0.000000,0.000000,1,2.055603,0.053757,0.000000,-3.491013,-8.534943,0.000000,0.092000,0.046000,0.149000,FlatInitial,Hold,0
08:30:20.999 PM 02/17/2016,Teleop Enabled,0,FALSE,0,NO ERROR,-6002.343750,6005.273438,-6000.000000,-6000.000000,Speed,Speed,0.400000,1.200000,1.710000,1.000000,102.000000,1,0,-0.000000,0.000000,1,2.141312,0.084244,0.000000,-3.364716,-8.530624,0.000000,0.060000,0.020000,0.138000,FlatInitial,Hold,0
08:30:21.098 PM 02/17/2016,Teleop Enabled,0,FALSE,0,NO ERROR,-5998.828125,6007.031250,-6000.000000,-6000.000000,Speed,Speed,0.400000,1.150000,1.820000,1.000000,103.000000,1,0,-0.000000,0.000000,1,2.202408,0.122971,0.000000,-3.255859,-8.525391,0.000000,0.064000,0.060000,0.161000,FlatInitial,Hold,0
08:30:21.199 PM 02/17/2016,Teleop Enabled,0,FALSE,0,NO ERROR,-5997.656250,6009.960938,-6000.000000,-6000.000000,Speed,Speed,0.400000,1.140000,1.900000,1.000000,101.000000,1,0,-0.000000,0.000000,1,2.325073,0.186462,0.000000,-3.051697,-8.511108,0.000000,0.081000,0.033000,0.168000,FlatInitial,Hold,0
08:30:21.299 PM 02/17/2016,Teleop Enabled,0,FALSE,0,NO ERROR,-5995.312500,6007.031250,-6000.000000,-6000.000000,Speed,Speed,0.400000,1.140000,1.900000,1.000000,102.000000,1,0,-0.000000,0.000000,1,2.325073,0.186462,0.000000,-3.051697,-8.511108,0.000000,0.083000,0.046000,0.191000,FlatInitial,Hold,0
08:30:21.399 PM 02/17/2016,Teleop Enabled,0,FALSE,0,NO ERROR,-5994.726562,6003.515625,-6000.000000,-6000.000000,Speed,Speed,0.400000,1.070000,2.220000,1.000000,102.000000,1,0,-0.000000,0.000000,1,2.464005,0.305740,0.000000,-2.811325,-8.486221,0.000000,0.090000,0.071000,0.151000,FlatInitial,Hold,0
08:30:21.500 PM 02/17/2016,Teleop Enabled,0,FALSE,0,NO ERROR,-5994.726562,5992.968750,-6000.000000,-6000.000000,Speed,Speed,0.430000,1.060000,2.540000,1.000000,101.000000,1,0,-0.000000,0.000000,1,2.464005,0.305740,0.000000,-2.811325,-8.486221,0.000000,0.067000,0.052000,0.086000,FlatInitial,Hold,0
08:30:21.600 PM 02/17/2016,Teleop Enabled,0,FALSE,0,NO ERROR,-5990.625000,5983.593750,-6000.000000,-6000.000000,Speed,Speed,0.550000,1.020000,2.580000,1.000000,101.000000,1,0,-0.000000,0.000000,1,2.525009,0.330521,0.000000,-2.636246,-8.463516,0.000000,0.097000,0.011000,0.226000,FlatInitial,Hold,0
08:30:21.701 PM 02/17/2016,Teleop Enabled,0,FALSE,0,NO ERROR,-5992.382812,5983.007812,-6000.000000,-6000.000000,Speed,Speed,0.550000,1.020000,2.580000,1.000000,104.000000,1,0,-0.000000,0.000000,1,2.573090,0.000000,0.000000,-2.533783,-8.460190,0.000000,0.022000,-0.015000,0.131000,FlatInitial,Hold,0
08:30:21.802 PM 02/17/2016,Teleop Enabled,0,FALSE,0,NO ERROR,-5994.726562,5983.593750,-6000.000000,-6000.000000,Speed,Speed,0.460000,1.010000,2.560000,1.000000,107.000000,1,0,-0.000000,0.000000,1,2.672012,0.027695,0.000000,-2.375946,-8.459702,0.000000,0.083000,0.031000,0.119000,FlatInitial,Hold,0
08:30:21.903 PM 02/17/2016,Teleop Enabled,0,FALSE,0,NO ERROR,-5992.382812,5975.976562,-6000.000000,-6000.000000,Speed,Speed,0.470000,1.060000,2.340000,1.000000,102.000000,1,0,-0.000000,0.000000,1,2.780762,0.047943,0.000000,-2.239182,-8.457123,0.000000,0.041000,-0.064000,0.291000,FlatInitial,Hold,0
08:30:22.004 PM 02/17/2016,Teleop Enabled,0,FALSE,0,NO ERROR,-5992.382812,5980.664062,-6000.000000,-6000.000000,Speed,Speed,0.550000,1.030000,2.200000,1.000000,101.000000,1,0,-0.000000,0.000000,1,2.882645,0.000000,0.000000,-2.069305,-8.456268,0.000000,0.141000,0.030000,0.043000,FlatInitial,Hold,0
08:30:22.104 PM 02/17/2016,Teleop Enabled,0,FALSE,0,NO ERROR,-5995.312500,5986.523438,-6000.000000,-6000.000000,Speed,Speed,0.570000,1.080000,2.160000,1.000000,102.000000,1,0,-0.000000,0.000000,1,2.948517,-0.000458,0.000000,-1.981445,-8.456192,0.000000,0.134000,0.018000,0.017000,FlatInitial,Hold,0
08:30:22.206 PM 02/17/2016,Teleop Enabled,0,FALSE,0,NO ERROR,-5997.656250,5988.867188,-6000.000000,-6000.000000,Speed,Speed,0.570000,1.110000,1.990000,1.000000,100.000000,1,0,-0.000000,0.000000,1,3.090027,-0.011963,0.000000,-1.769516,-8.456696,0.000000,0.119000,0.010000,0.070000,FlatInitial,Hold,0
08:30:22.306 PM 02/17/2016,Teleop Enabled,0,FALSE,0,NO ERROR,-6002.929688,5994.726562,-6000.000000,-6000.000000,Speed,Speed,0.550000,1.110000,1.910000,1.000000,101.000000,1,0,-0.000000,0.000000,1,3.152359,0.012802,0.000000,-1.644257,-8.456543,0.000000,0.114000,0.014000,0.009000,FlatInitial,Hold,0
08:30:22.406 PM 02/17/2016,Teleop Enabled,0,FALSE,0,NO ERROR,-6006.445312,5994.726562,-6000.000000,-6000.000000,Speed,Speed,0.530000,1.160000,1.920000,1.000000,102.000000,1,0,-0.000000,0.000000,1,3.238083,0.087265,0.000000,-1.483765,-8.453857,0.000000,0.081000,0.048000,0.066000,FlatInitial,Hold,0
08:30:22.506 PM 02/17/2016,Teleop Enabled,0,FALSE,0,NO ERROR,-5995.312500,5974.218750,-6000.000000,-6000.000000,Speed,Speed,0.550000,1.180000,1.320000,1.000000,100.000000,1,0,-0.000000,0.000000,1,3.320404,0.152557,0.000000,-1.319458,-8.447845,0.000000,0.084000,0.115000,-0.215000,FlatInitial,Hold,0
08:30:22.606 PM 02/17/2016,Teleop Enabled,0,FALSE,0,NO ERROR,-5991.210938,5991.210938,-6000.000000,-6000.000000,Speed,Speed,0.460000,1.270000,2.180000,1.000000,103.000000,1,0,-0.000000,0.000000,1,3.417053,0.220108,0.000000,-1.082443,-8.433197,0.000000,0.092000,0.077000,-0.192000,FlatInitial,Hold,0
08:30:22.705 PM 02/17/2016,Teleop Enabled,0,FALSE,0,NO ERROR,-5997.070312,6005.273438,-6000.000000,-6000.000000,Speed,Speed,0.460000,1.270000,2.060000,1.000000,101.000000,1,0,-0.000000,0.000000,1,3.484528,0.271820,0.000000,-0.978607,-8.425552,0.000000,0.118000,0.025000,-0.190000,FlatInitial,Hold,0
08:30:22.806 PM 02/17/2016,Teleop Enabled,0,FALSE,0,NO ERROR,-6005.859375,6012.890625,-6000.000000,-6000.000000,Speed,Speed,0.370000,1.360000,1.570000,1.000000,101.000000,1,0,-0.000000,0.000000,1,3.562607,0.348587,0.000000,-0.801865,-8.409958,0.000000,0.056000,0.063000,0.032000,FlatInitial,Hold,0
08:30:22.907 PM 02/17/2016,Teleop Enabled,0,FALSE,0,NO ERROR,-6009.375000,6017.578125,-6000.000000,-6000.000000,Speed,Speed,0.360000,1.330000,1.620000,1.000000,102.000000,1,0,-0.000000,0.000000,1,3.623077,0.000000,0.000000,-0.622147,-8.394928,0.000000,0.120000,-0.006000,0.105000,FlatInitial,Hold,0
08:30:23.007 PM 02/17/2016,Teleop Enabled,0,FALSE,0,NO ERROR,-6006.445312,6008.789062,-6000.000000,-6000.000000,Speed,Speed,0.460000,1.370000,1.230000,1.000000,101.000000,1,0,-0.000000,0.000000,1,3.671021,-0.002518,0.000000,-0.476135,-8.395065,0.000000,0.123000,0.052000,-0.072000,FlatInitial,Hold,0
08:30:23.108 PM 02/17/2016,Teleop Enabled,0,FALSE,0,NO ERROR,-6003.515625,6002.343750,-6000.000000,-6000.000000,Speed,Speed,0.410000,1.440000,1.560000,1.000000,107.000000,1,0,-0.000000,0.000000,1,3.743942,0.005005,0.000000,-0.178650,-8.394745,0.000000,0.058000,0.020000,0.044000,FlatInitial,Hold,0
08:30:23.208 PM 02/17/2016,Teleop Enabled,0,FALSE,0,NO ERROR,-6002.929688,6008.789062,-6000.000000,-6000.000000,Speed,Speed,0.430000,1.400000,1.360000,1.000000,101.000000,1,0,-0.000000,0.000000,1,3.773590,-0.012238,0.000000,-0.027908,-8.394852,0.000000,0.022000,-0.024000,-0.034000,FlatInitial,Hold,0
08:30:23.318 PM 02/17/2016,Teleop Enabled,0,FALSE,0,NO ERROR,-6004.687500,6009.960938,-6000.000000,-6000.000000,Speed,Speed,0.410000,1.370000,1.380000,1.000000,101.000000,1,0,-0.000000,0.000000,1,3.819458,0.018005,0.000000,0.123932,-8.394684,0.000000,0.087000,0.039000,0.077000,FlatInitial,Hold,0
08:30:23.418 PM 02/17/2016,Teleop Enabled,0,FALSE,0,NO ERROR,-6004.687500,6009.375000,-6000.000000,-6000.000000,Speed,Speed,0.370000,1.350000,1.140000,1.000000,102.000000,1,0,-0.000000,0.000000,1,3.903778,-0.019196,0.000000,0.472427,-8.395477,0.000000,0.026000,-0.020000,0.087000,FlatInitial,Hold,0
08:30:23.518 PM 02/17/2016,Teleop Enabled,0,FALSE,0,NO ERROR,-6004.101562,6011.132812,-6000.000000,-6000.000000,Speed,Speed,0.370000,1.350000,1.140000,1.000000,102.000000,1,0,-0.307087,-0.307087,1,3.903778,-0.019196,0.000000,0.472427,-8.395477,0.000000,0.029000,-0.003000,0.050000,FlatInitial,Hold,0
08:30:23.620 PM 02/17/2016,Teleop Enabled,0,FALSE,0,NO ERROR,-5991.210938,6011.132812,-6000.000000,-6000.000000,Speed,Speed,0.430000,1.340000,1.660000,1.000000,100.000000,1,0,-0.314961,-0.314961,1,3.933044,0.067307,0.000000,0.746231,-8.394638,0.000000,-0.017000,0.070000,-0.257000,FlatInitial,Hold,0
08:30:23.720 PM 02/17/2016,Teleop Enabled,0,FALSE,0,NO ERROR,-5952.539062,5947.851562,-6000.000000,-6000.000000,Speed,Speed,0.030000,1.400000,2.540000,1.000000,106.000000,1,0,-0.314961,-0.314961,1,0.039520,0.143951,0.000000,0.747177,-8.389114,0.000000,-0.015000,0.077000,0.246000,FlatInitial,Hold,0
08:30:23.820 PM 02/17/2016,Teleop Enabled,0,FALSE,0,NO ERROR,-5934.960938,5932.031250,-6000.000000,-6000.000000,Speed,Speed,-0.680000,1.440000,2.700000,1.000000,102.000000,1,0,-0.314961,-0.314961,1,0.126907,0.295959,0.000000,0.752228,-8.375458,0.000000,0.010000,0.152000,-0.077000,FlatInitial,Hold,0
08:30:23.921 PM 02/17/2016,Teleop Enabled,0,FALSE,0,NO ERROR,-5943.164062,5945.507812,-6000.000000,-6000.000000,Speed,Speed,-1.430000,1.420000,3.020000,1.000000,100.000000,1,0,-0.314961,-0.314961,1,0.141815,0.390320,0.000000,0.756302,-8.364731,0.000000,-0.020000,0.178000,-0.080000,FlatInitial,Hold,0
08:30:24.022 PM 02/17/2016,Teleop Enabled,0,FALSE,0,NO ERROR,-5956.054688,5964.843750,-6000.000000,-6000.000000,Speed,Speed,-1.910000,1.320000,4.230000,1.000000,102.000000,1,0,-0.314961,-0.314961,1,0.128952,0.534546,0.000000,0.765381,-8.330933,0.000000,-0.019000,0.146000,0.027000,FlatInitial,Hold,0
08:30:24.123 PM 02/17/2016,Teleop Enabled,0,FALSE,0,NO ERROR,-5373.632812,4649.267578,-6000.000000,-6000.000000,Speed,Speed,-2.100000,1.270000,4.810000,1.000000,101.000000,1,0,-0.314961,-0.314961,1,0.124146,0.580917,0.000000,0.769226,-8.313980,0.000000,0.030000,-0.001000,0.132000,FlatInitial,Hold,0
08:30:24.223 PM 02/17/2016,Teleop Enabled,0,FALSE,0,NO ERROR,-2095.605469,1907.812500,-6000.000000,-6000.000000,Speed,Speed,-2.260000,1.170000,3.440000,1.000000,102.000000,1,0,-0.314961,-0.314961,1,0.135635,0.563217,0.000000,0.775482,-8.286682,0.000000,0.021000,0.087000,0.245000,FlatInitial,Hold,0
08:30:24.325 PM 02/17/2016,Teleop Enabled,0,FALSE,0,NO ERROR,-3219.580078,3075.439453,-6000.000000,-6000.000000,Speed,Speed,-2.480000,1.110000,3.090000,1.000000,100.000000,1,0,-0.314961,-0.314961,1,0.109344,0.494064,0.000000,0.786057,-8.239594,0.000000,-0.014000,-0.043000,0.001000,FlatInitial,Hold,0
08:30:24.426 PM 02/17/2016,Teleop Enabled,0,FALSE,0,NO ERROR,-4481.542969,4382.373047,-6000.000000,-6000.000000,Speed,Speed,-2.530000,0.970000,3.550000,1.000000,101.000000,1,0,-0.000000,0.000000,1,-0.007965,0.504929,0.000000,0.785934,-8.224274,0.000000,0.007000,-0.159000,0.253000,FlatInitial,Hold,0
08:30:24.526 PM 02/17/2016,Teleop Enabled,0,FALSE,0,NO ERROR,-5205.468750,5322.070312,0.000000,0.000000,Speed,Speed,-2.540000,0.920000,1.980000,2.000000,101.000000,1,0,-0.000000,0.000000,1,-0.010101,0.295349,0.000000,0.784744,-8.205505,0.000000,0.140000,-0.183000,-0.237000,FlatInitial,Hold,0
08:30:24.628 PM 02/17/2016,Teleop Enabled,0,FALSE,0,NO ERROR,-5658.398438,5697.656250,0.000000,0.000000,Speed,Speed,-2.480000,0.950000,1.370000,2.000000,101.000000,1,0,-0.000000,0.000000,1,-0.002411,0.231369,0.000000,0.784912,-8.198013,0.000000,-0.067000,-0.189000,0.210000,FlatInitial,Hold,0
08:30:24.731 PM 02/17/2016,Teleop Enabled,0,FALSE,0,NO ERROR,-5337.890625,5439.257812,0.000000,0.000000,Speed,Speed,-2.400000,0.920000,1.590000,2.000000,108.000000,1,0,-0.000000,0.000000,1,0.005997,0.084885,0.000000,0.785507,-8.190811,0.000000,0.000000,-0.244000,-0.002000,FlatInitial,Hold,0
08:30:24.834 PM 02/17/2016,Teleop Enabled,0,FALSE,0,NO ERROR,-4927.148438,4755.908203,0.000000,0.000000,Speed,Speed,-2.200000,0.910000,0.650000,2.000000,103.000000,1,0,0.496063,0.496063,1,0.022919,-0.072113,0.000000,0.786606,-8.191772,0.000000,0.086000,-0.460000,0.060000,FlatInitial,Hold,0
08:30:24.935 PM 02/17/2016,Teleop Enabled,0,FALSE,0,NO ERROR,-4522.558594,4755.908203,0.000000,0.000000,Speed,Speed,-2.160000,0.930000,-0.900000,2.000000,112.000000,1,0,0.488189,0.488189,1,0.010361,-0.408981,0.000000,0.787476,-8.202805,0.000000,-0.126000,-0.336000,-0.060000,FlatInitial,Hold,0
08:30:25.035 PM 02/17/2016,Teleop Enabled,0,FALSE,0,NO ERROR,-4123.681641,4079.150391,0.000000,0.000000,Speed,Speed,-1.750000,0.730000,-2.150000,2.000000,102.000000,1,0,0.488189,0.488189,1,-0.035660,-0.656891,0.000000,0.786667,-8.225708,0.000000,-0.025000,-0.223000,0.075000,FlatInitial,Hold,0
08:30:25.135 PM 02/17/2016,Teleop Enabled,0,FALSE,0,NO ERROR,-3813.867187,3093.457031,0.000000,0.000000,Speed,Speed,-1.020000,0.810000,-2.670000,2.000000,100.000000,1,0,0.488189,0.488189,1,-0.073990,-0.936554,0.000000,0.783218,-8.283646,0.000000,0.010000,-0.192000,0.051000,FlatInitial,Hold,0
08:30:25.236 PM 02/17/2016,Teleop Enabled,0,FALSE,0,NO ERROR,-3438.427734,3093.457031,0.000000,0.000000,Speed,Speed,-0.200000,0.720000,-3.840000,2.000000,103.000000,1,0,-0.000000,0.000000,1,-0.045746,-1.118469,0.000000,0.778961,-8.347244,0.000000,0.028000,0.016000,-0.113000,FlatInitial,Hold,0
08:30:25.336 PM 02/17/2016,Teleop Enabled,0,FALSE,0,NO ERROR,-3073.974609,2566.552734,0.000000,0.000000,Speed,Speed,0.140000,0.830000,-3.500000,2.000000,101.000000,1,0,-0.000000,0.000000,1,-0.034500,-1.056473,0.000000,0.777481,-8.391129,0.000000,0.030000,0.404000,0.214000,FlatInitial,Hold,0
08:30:25.437 PM 02/17/2016,Teleop Enabled,0,FALSE,0,NO ERROR,-2726.660156,2153.613281,0.000000,0.000000,Speed,Speed,0.150000,0.910000,-1.000000,2.000000,102.000000,1,0,-0.000000,0.000000,1,-0.060562,-0.791046,0.000000,0.775803,-8.426086,0.000000,-0.014000,0.185000,0.016000,FlatInitial,Hold,0
08:30:25.538 PM 02/17/2016,Teleop Enabled,0,FALSE,0,NO ERROR,-2389.160156,1658.935547,0.000000,0.000000,Speed,Speed,-0.120000,0.990000,-0.230000,2.000000,101.000000,1,0,-0.000000,0.000000,1,-0.007324,-0.557693,0.000000,0.774490,-8.465012,0.000000,0.060000,0.154000,0.042000,FlatInitial,Hold,0
08:30:25.638 PM 02/17/2016,Teleop Enabled,0,FALSE,0,NO ERROR,-2389.160156,1182.861328,0.000000,0.000000,Speed,Speed,-0.510000,1.120000,-0.370000,2.000000,103.000000,1,0,-0.000000,0.000000,1,0.014206,-0.356522,0.000000,0.775375,-8.486908,0.000000,-0.068000,0.223000,-0.146000,FlatInitial,Hold,0
08:30:25.738 PM 02/17/2016,Teleop Enabled,0,FALSE,0,NO ERROR,-2062.792969,729.199219,0.000000,0.000000,Speed,Speed,-0.810000,1.050000,1.100000,3.000000,102.000000,1,0,-0.000000,0.000000,1,-0.009277,-0.221008,0.000000,0.775360,-8.500214,0.000000,-0.037000,0.093000,0.208000,FlatInitial,Hold,0
08:30:25.839 PM 02/17/2016,Teleop Enabled,0,FALSE,0,NO ERROR,-1750.927734,325.634766,4000.000000,4000.000000,Speed,Speed,-1.080000,1.190000,1.280000,3.000000,102.000000,1,0,-0.000000,0.000000,1,-0.000504,-0.109085,0.000000,0.774857,-8.509216,0.000000,0.023000,0.076000,-0.050000,FlatInitial,Hold,0
08:30:25.940 PM 02/17/2016,Teleop Enabled,0,FALSE,0,NO ERROR,-1467.626953,-16.845703,4000.000000,4000.000000,Speed,Speed,-1.400000,1.090000,1.510000,3.000000,100.000000,1,0,-0.000000,0.000000,1,-0.012344,-0.032516,0.000000,0.774612,-8.512390,0.000000,0.023000,0.076000,-0.050000,FlatInitial,Hold,0
08:30:26.040 PM 02/17/2016,Teleop Enabled,0,FALSE,0,NO ERROR,169.628906,-884.033203,4000.000000,4000.000000,Speed,Speed,-1.370000,1.040000,1.850000,3.000000,101.000000,1,0,-0.000000,0.000000,1,-0.034729,0.031586,0.000000,0.773285,-8.511871,0.000000,-0.004000,0.064000,0.058000,FlatInitial,Hold,0
08:30:26.140 PM 02/17/2016,Teleop Enabled,0,FALSE,0,NO ERROR,2134.716797,-2335.107422,4000.000000,4000.000000,Speed,Speed,-1.210000,1.050000,1.910000,3.000000,102.000000,1,0,-0.000000,0.000000,1,-0.029999,0.065964,0.000000,0.771561,-8.508499,0.000000,-0.082000,0.070000,-0.017000,FlatInitial,Hold,0
08:30:26.240 PM 02/17/2016,Teleop Enabled,0,FALSE,0,NO ERROR,3421.875000,-3299.707031,4000.000000,4000.000000,Speed,Speed,-1.230000,1.070000,1.850000,3.000000,102.000000,1,0,-0.000000,0.000000,1,0.000488,0.085449,0.000000,0.771027,-8.505371,0.000000,0.015000,0.026000,-0.042000,FlatInitial,Hold,0
08:30:26.341 PM 02/17/2016,Teleop Enabled,0,FALSE,0,NO ERROR,3860.449219,-3739.160156,4000.000000,4000.000000,Speed,Speed,-1.300000,1.050000,2.000000,3.000000,102.000000,1,0,-0.000000,0.000000,1,-0.011597,0.000000,0.000000,0.770813,-8.502823,0.000000,0.004000,0.000000,-0.037000,FlatInitial,Hold,0
08:30:26.441 PM 02/17/2016,Teleop Enabled,0,FALSE,0,NO ERROR,3986.718750,-3825.878906,4000.000000,4000.000000,Speed,Speed,-1.290000,1.060000,1.750000,3.000000,102.000000,1,0,-0.000000,0.000000,1,0.019714,0.001892,0.000000,0.771088,-8.503052,0.000000,-0.028000,-0.122000,-0.057000,FlatInitial,Hold,0
08:30:26.541 PM 02/17/2016,Teleop Enabled,0,FALSE,0,NO ERROR,3977.636719,-3850.341797,4000.000000,4000.000000,Speed,Speed,-1.280000,0.990000,1.640000,3.000000,103.000000,1,0,-0.000000,0.000000,1,-0.003815,-0.028580,0.000000,0.771378,-8.504288,0.000000,-0.091000,-0.101000,-0.029000,FlatInitial,Hold,0
08:30:26.642 PM 02/17/2016,Teleop Enabled,0,FALSE,0,NO ERROR,3960.791016,-3883.740234,4000.000000,4000.000000,Speed,Speed,-1.300000,0.960000,1.650000,3.000000,115.000000,1,0,-0.000000,0.000000,1,-0.028137,-0.050247,0.000000,0.770401,-8.506073,0.000000,0.028000,0.051000,-0.049000,FlatInitial,Hold,0
08:30:26.742 PM 02/17/2016,Teleop Enabled,0,FALSE,0,NO ERROR,3961.230469,-3913.769531,4000.000000,4000.000000,Speed,Speed,-1.260000,1.040000,1.530000,3.000000,101.000000,1,0,-0.000000,0.000000,1,-0.034058,-0.006958,0.000000,0.768158,-8.509506,0.000000,0.005000,0.088000,0.084000,FlatInitial,Hold,0
08:30:26.843 PM 02/17/2016,Teleop Enabled,0,FALSE,0,NO ERROR,3974.267578,-3949.804687,4000.000000,4000.000000,Speed,Speed,-1.270000,0.990000,1.620000,3.000000,102.000000,1,0,-0.000000,0.000000,1,0.003052,-0.020187,0.000000,0.768188,-8.509857,0.000000,0.135000,0.048000,-0.021000,FlatInitial,Hold,0
08:30:26.944 PM 02/17/2016,Teleop Enabled,0,FALSE,0,NO ERROR,3986.425781,-3978.808594,4000.000000,4000.000000,Speed,Speed,-1.260000,0.990000,1.630000,3.000000,102.000000,1,0,-0.000000,0.000000,1,0.009842,-0.006958,0.000000,0.769196,-8.510666,0.000000,0.004000,0.029000,-0.054000,FlatInitial,Hold,0
08:30:27.044 PM 02/17/2016,Teleop Enabled,0,FALSE,0,NO ERROR,3998.730469,-4000.341797,4000.000000,4000.000000,Speed,Speed,-1.270000,0.970000,1.670000,3.000000,101.000000,1,0,-0.000000,0.000000,1,0.010330,-0.018936,0.000000,0.769806,-8.511765,0.000000,-0.015000,0.036000,0.169000,FlatInitial,Hold,0
08:30:27.146 PM 02/17/2016,Teleop Enabled,0,FALSE,0,NO ERROR,4009.130859,-4010.156250,4000.000000,4000.000000,Speed,Speed,-1.290000,0.930000,1.760000,3.000000,102.000000,1,0,-0.000000,0.000000,1,0.003815,0.009445,0.000000,0.769852,-8.511917,0.000000,-0.063000,0.072000,0.061000,FlatInitial,Hold,0
08:30:27.251 PM 02/17/2016,Teleop Enabled,0,FALSE,0,NO ERROR,4015.869141,-4002.685547,4000.000000,4000.000000,Speed,Speed,-1.290000,0.950000,1.790000,3.000000,103.000000,1,0,0.456693,0.456693,1,0.008621,0.015579,0.000000,0.769791,-8.511185,0.000000,-0.017000,0.084000,0.034000,FlatInitial,Hold,0
08:30:27.352 PM 02/17/2016,Teleop Enabled,0,FALSE,0,NO ERROR,4015.869141,-3996.679687,4000.000000,4000.000000,Speed,Speed,-1.270000,1.010000,1.810000,3.000000,102.000000,1,0,0.480315,0.480315,1,0.007660,-0.099243,0.000000,0.770111,-8.511536,0.000000,0.069000,-0.158000,0.059000,FlatInitial,Hold,0
08:30:27.452 PM 02/17/2016,Teleop Enabled,0,FALSE,0,NO ERROR,3968.261719,-3946.435547,4000.000000,4000.000000,Speed,Speed,-0.910000,0.770000,-0.370000,3.000000,101.000000,1,0,0.393701,0.393701,1,-0.008270,-0.355331,0.000000,0.770081,-8.523987,0.000000,0.069000,-0.158000,0.059000,FlatInitial,Hold,0
08:30:27.554 PM 02/17/2016,Teleop Enabled,0,FALSE,0,NO ERROR,3904.541016,-3870.556641,4000.000000,4000.000000,Speed,Speed,-0.320000,0.800000,-1.260000,3.000000,101.000000,1,0,-0.000000,0.000000,1,0.021057,-0.515564,0.000000,0.770447,-8.542587,0.000000,0.052000,0.047000,-0.120000,FlatInitial,Hold,0
08:30:27.655 PM 02/17/2016,Teleop Enabled,0,FALSE,0,NO ERROR,3902.929687,-3923.291016,4000.000000,4000.000000,Speed,Speed,-0.090000,0.780000,0.550000,3.000000,101.000000,1,0,-0.000000,0.000000,1,0.050308,-0.324036,0.000000,0.773224,-8.567856,0.000000,-0.040000,0.123000,-0.166000,FlatInitial,Hold,0
08:30:27.756 PM 02/17/2016,Teleop Enabled,0,FALSE,0,NO ERROR,3994.921875,-4016.162109,4000.000000,4000.000000,Speed,Speed,-0.190000,0.950000,0.890000,3.000000,102.000000,1,0,-0.000000,0.000000,1,0.077133,-0.160507,0.000000,0.776901,-8.581406,0.000000,-0.030000,0.151000,0.242000,FlatInitial,Hold,0
08:30:27.856 PM 02/17/2016,Teleop Enabled,0,FALSE,0,NO ERROR,4058.496094,-4076.367187,4000.000000,4000.000000,Speed,Speed,-0.380000,1.060000,0.620000,3.000000,101.000000,1,0,-0.000000,0.000000,1,0.048843,-0.056641,0.000000,0.779800,-8.585815,0.000000,-0.030000,0.151000,0.242000,FlatInitial,Hold,0
08:30:27.956 PM 02/17/2016,Teleop Enabled,0,FALSE,0,NO ERROR,4072.558594,-4069.921875,4000.000000,4000.000000,Speed,Speed,-0.570000,0.980000,1.620000,3.000000,101.000000,1,0,-0.000000,0.000000,1,0.028900,0.044174,0.000000,0.781647,-8.585922,0.000000,-0.030000,0.094000,0.034000,FlatInitial,Hold,0
08:30:28.056 PM 02/17/2016,Teleop Enabled,0,FALSE,0,NO ERROR,4057.910156,-4055.859375,4000.000000,4000.000000,Speed,Speed,-0.520000,0.930000,1.950000,3.000000,105.000000,1,0,-0.322835,-0.322835,1,0.041748,0.119293,0.000000,0.783005,-8.582214,0.000000,-0.107000,0.151000,0.040000,FlatInitial,Hold,0
08:30:28.162 PM 02/17/2016,Teleop Enabled,0,FALSE,0,NO ERROR,4036.523437,-4032.128906,4000.000000,4000.000000,Speed,Speed,-0.850000,1.000000,3.160000,3.000000,102.000000,1,0,-0.354331,-0.354331,1,0.039246,0.305908,0.000000,0.784760,-8.568726,0.000000,-0.107000,0.151000,0.040000,FlatInitial,Hold,0
08:30:28.262 PM 02/17/2016,Teleop Enabled,0,FALSE,0,NO ERROR,3995.800781,-3979.248047,4000.000000,4000.000000,Speed,Speed,-1.350000,0.880000,3.950000,3.000000,102.000000,1,0,-0.000000,0.000000,1,0.035049,0.411575,0.000000,0.786316,-8.553604,0.000000,0.011000,-0.064000,0.169000,FlatInitial,Hold,0
08:30:28.363 PM 02/17/2016,Teleop Enabled,0,FALSE,0,NO ERROR,3962.402344,-3968.261719,4000.000000,4000.000000,Speed,Speed,-2.120000,0.910000,2.890000,3.000000,101.000000,1,0,-0.000000,0.000000,1,-0.024658,0.336823,0.000000,0.785492,-8.534729,0.000000,0.033000,-0.087000,-0.143000,FlatInitial,Hold,0
08:30:28.464 PM 02/17/2016,Teleop Enabled,0,FALSE,0,NO ERROR,3984.521484,-4006.347656,4000.000000,4000.000000,Speed,Speed,-2.420000,0.810000,1.840000,3.000000,102.000000,1,0,-0.000000,0.000000,1,-0.030304,0.000000,0.000000,0.784271,-8.519516,0.000000,0.033000,-0.087000,-0.143000,FlatInitial,Hold,0
08:30:28.564 PM 02/17/2016,Teleop Enabled,0,FALSE,0,NO ERROR,4007.812500,-4033.886719,4000.000000,4000.000000,Speed,Speed,-2.250000,0.750000,2.710000,3.000000,102.000000,1,0,-0.000000,0.000000,1,0.011337,-0.083420,0.000000,0.783539,-8.521774,0.000000,0.042000,-0.133000,0.124000,FlatInitial,Hold,0
08:30:28.664 PM 02/17/2016,Teleop Enabled,0,FALSE,0,NO ERROR,4025.976562,-4042.236328,4000.000000,4000.000000,Speed,Speed,-1.980000,0.770000,1.390000,3.000000,101.000000,1,0,-0.000000,0.000000,1,0.011337,-0.083420,0.000000,0.783539,-8.521774,0.000000,0.042000,-0.133000,0.124000,FlatInitial,Hold,0
08:30:28.766 PM 02/17/2016,Teleop Enabled,0,FALSE,0,NO ERROR,4032.714844,-4025.976562,4000.000000,4000.000000,Speed,Speed,-1.960000,0.920000,1.070000,3.000000,101.000000,1,0,-0.000000,0.000000,1,0.094940,-0.238068,0.000000,0.787292,-8.538544,0.000000,0.014000,-0.153000,-0.051000,FlatInitial,Hold,0
08:30:28.866 PM 02/17/2016,Teleop Enabled,0,FALSE,0,NO ERROR,4023.046875,-4008.691406,4000.000000,4000.000000,Speed,Speed,-2.150000,1.000000,1.400000,3.000000,102.000000,1,0,-0.000000,0.000000,1,0.094940,-0.238068,0.000000,0.787292,-8.538544,0.000000,0.014000,-0.153000,-0.051000,FlatInitial,Hold,0
08:30:28.967 PM 02/17/2016,Teleop Enabled,0,FALSE,0,NO ERROR,4017.626953,-4010.449219,4000.000000,4000.000000,Speed,Speed,-2.220000,1.070000,0.820000,3.000000,100.000000,1,0,-0.000000,0.000000,1,0.043823,-0.371689,0.000000,0.788086,-8.561539,0.000000,0.083000,0.017000,0.044000,FlatInitial,Hold,0
08:30:29.067 PM 02/17/2016,Teleop Enabled,0,FALSE,0,NO ERROR,4015.869141,-4012.646484,4000.000000,4000.000000,Speed,Speed,-2.190000,1.030000,1.000000,3.000000,101.000000,1,0,-0.000000,0.000000,1,0.070587,-0.376740,0.000000,0.793091,-8.595886,0.000000,-0.025000,0.095000,-0.040000,FlatInitial,Hold,0
08:30:29.168 PM 02/17/2016,Teleop Enabled,0,FALSE,0,NO ERROR,4009.863281,-4008.544922,4000.000000,4000.000000,Speed,Speed,-2.130000,0.990000,1.270000,3.000000,100.000000,1,0,-0.000000,0.000000,1,0.074081,-0.393646,0.000000,0.796646,-8.615265,0.000000,-0.052000,0.004000,0.044000,FlatInitial,Hold,0
08:30:29.268 PM 02/17/2016,Teleop Enabled,0,FALSE,0,NO ERROR,4007.373047,-4008.691406,4000.000000,4000.000000,Speed,Speed,-2.190000,0.970000,1.110000,3.000000,103.000000,1,0,-0.000000,0.000000,1,0.100052,-0.389343,0.000000,0.802139,-8.638153,0.000000,0.052000,0.042000,0.030000,FlatInitial,Hold,0
08:30:29.369 PM 02/17/2016,Teleop Enabled,0,FALSE,0,NO ERROR,4005.761719,-4001.660156,4000.000000,4000.000000,Speed,Speed,-2.200000,0.990000,1.200000,3.000000,102.000000,1,0,-0.000000,0.000000,1,0.098724,-0.398438,0.000000,0.805130,-8.650070,0.000000,0.049000,0.056000,0.075000,FlatInitial,Hold,0
08:30:29.470 PM 02/17/2016,Teleop Enabled,0,FALSE,0,NO ERROR,4002.832031,-3999.316406,4000.000000,4000.000000,Speed,Speed,-2.190000,0.950000,1.100000,3.000000,104.000000,1,0,-0.000000,0.000000,1,0.098724,-0.398438,0.000000,0.805130,-8.650070,0.000000,0.049000,0.056000,0.075000,FlatInitial,Hold,0
08:30:29.570 PM 02/17/2016,Teleop Enabled,0,FALSE,0,NO ERROR,4000.195312,-4005.615234,4000.000000,4000.000000,Speed,Speed,-2.180000,0.940000,1.190000,3.000000,102.000000,1,0,-0.000000,0.000000,1,-0.004456,0.002579,0.000000,0.806122,-8.692154,0.000000,-0.022000,-0.039000,-0.076000,FlatInitial,Hold,0
08:30:29.671 PM 02/17/2016,Teleop Enabled,0,FALSE,0,NO ERROR,3999.169922,-4012.939453,4000.000000,4000.000000,Speed,Speed,-2.200000,0.840000,1.420000,3.000000,109.000000,1,0,-0.000000,0.000000,1,-0.018631,0.002106,0.000000,0.805313,-8.691895,0.000000,-0.010000,0.045000,-0.064000,FlatInitial,Hold,0
08:30:29.772 PM 02/17/2016,Teleop Enabled,0,FALSE,0,NO ERROR,4000.927734,-4011.035156,4000.000000,4000.000000,Speed,Speed,-2.200000,0.780000,1.470000,3.000000,101.000000,1,0,-0.000000,0.000000,1,0.000000,0.044373,0.000000,0.804611,-8.691116,0.000000,0.078000,0.043000,-0.027000,FlatInitial,Hold,0
08:30:29.873 PM 02/17/2016,Teleop Enabled,0,FALSE,0,NO ERROR,3999.755859,-3996.386719,4000.000000,4000.000000,Speed,Speed,-2.190000,0.700000,1.680000,3.000000,102.000000,1,0,-0.000000,0.000000,1,0.003647,0.088654,0.000000,0.804886,-8.687653,0.000000,-0.096000,-0.012000,0.124000,FlatInitial,Hold,0
08:30:29.975 PM 02/17/2016,Teleop Enabled,0,FALSE,0,NO ERROR,4000.781250,-3990.527344,4000.000000,4000.000000,Speed,Speed,-2.180000,0.650000,1.790000,3.000000,101.000000,1,0,-0.000000,0.000000,1,-0.008957,0.115555,0.000000,0.804413,-8.681168,0.000000,-0.096000,-0.012000,0.124000,FlatInitial,Hold,0
08:30:30.076 PM 02/17/2016,Teleop Enabled,0,FALSE,0,NO ERROR,4001.953125,-3993.750000,4000.000000,4000.000000,Speed,Speed,-2.180000,0.540000,1.900000,3.000000,103.000000,1,0,-0.000000,0.000000,1,-0.031769,0.153671,0.000000,0.802963,-8.674225,0.000000,0.071000,-0.010000,-0.034000,FlatInitial,Hold,0
08:30:30.177 PM 02/17/2016,Teleop Enabled,0,FALSE,0,NO ERROR,4003.857422,-4000.195312,4000.000000,4000.000000,Speed,Speed,-2.180000,0.480000,2.100000,3.000000,102.000000,1,0,-0.000000,0.000000,1,-0.014938,0.020950,0.000000,0.802094,-8.673782,0.000000,0.008000,0.125000,-0.042000,FlatInitial,Hold,0
08:30:30.278 PM 02/17/2016,Teleop Enabled,0,FALSE,0,NO ERROR,4004.296875,-3999.755859,4000.000000,4000.000000,Speed,Speed,-2.180000,0.440000,2.120000,3.000000,103.000000,1,0,-0.000000,0.000000,1,-0.014938,0.020950,0.000000,0.802094,-8.673782,0.000000,0.008000,0.125000,-0.042000,FlatInitial,Hold,0
08:30:30.378 PM 02/17/2016,Teleop Enabled,0,FALSE,0,NO ERROR,4002.832031,-3993.896484,4000.000000,4000.000000,Speed,Speed,-2.180000,0.340000,2.090000,3.000000,103.000000,1,0,-0.000000,0.000000,1,-0.053619,0.008179,0.000000,0.798309,-8.671295,0.000000,-0.021000,-0.004000,0.036000,FlatInitial,Hold,0
08:30:30.478 PM 02/17/2016,Teleop Enabled,0,FALSE,0,NO ERROR,3999.902344,-3991.259766,4000.000000,4000.000000,Speed,Speed,-2.170000,0.220000,2.070000,3.000000,101.000000,1,0,-0.000000,0.000000,1,-0.053619,0.008179,0.000000,0.798309,-8.671295,0.000000,-0.042000,-0.003000,0.023000,FlatInitial,Hold,0
08:30:30.579 PM 02/17/2016,Teleop Enabled,0,FALSE,0,NO ERROR,3996.972656,-3999.902344,4000.000000,4000.000000,Speed,Speed,-2.170000,0.180000,2.100000,3.000000,101.000000,1,0,-0.000000,0.000000,1,-0.038086,0.032425,0.000000,0.793472,-8.669266,0.000000,-0.091000,0.020000,0.034000,FlatInitial,Hold,0
08:30:30.679 PM 02/17/2016,Teleop Enabled,0,FALSE,0,NO ERROR,3996.240234,-4013.818359,4000.000000,4000.000000,Speed,Speed,-2.170000,0.130000,2.180000,3.000000,103.000000,1,0,-0.000000,0.000000,1,-0.038086,0.032425,0.000000,0.793472,-8.669266,0.000000,-0.091000,0.020000,0.034000,FlatInitial,Hold,0
08:30:30.779 PM 02/17/2016,Teleop Enabled,0,FALSE,0,NO ERROR,3996.386719,-4013.232422,4000.000000,4000.000000,Speed,Speed,-2.170000,0.080000,2.290000,3.000000,100.000000,1,0,-0.000000,0.000000,1,0.000000,0.109924,0.000000,0.787659,-8.661789,0.000000,0.014000,0.107000,-0.027000,FlatInitial,Hold,0
08:30:30.879 PM 02/17/2016,Teleop Enabled,0,FALSE,0,NO ERROR,3997.412109,-4002.246094,4000.000000,4000.000000,Speed,Speed,-2.170000,0.050000,2.420000,3.000000,101.000000,1,0,-0.000000,0.000000,1,0.000000,0.109924,0.000000,0.787659,-8.661789,0.000000,0.015000,-0.106000,0.063000,FlatInitial,Hold,0
08:30:30.979 PM 02/17/2016,Teleop Enabled,0,FALSE,0,NO ERROR,4001.074219,-4000.048828,4000.000000,4000.000000,Speed,Speed,-2.170000,0.050000,2.420000,3.000000,100.000000,1,0,-0.000000,0.000000,1,-0.007629,0.135666,0.000000,0.787796,-8.655670,0.000000,0.022000,0.032000,0.033000,FlatInitial,Hold,0
08:30:31.079 PM 02/17/2016,Teleop Enabled,0,FALSE,0,NO ERROR,4005.615234,-4006.201172,4000.000000,4000.000000,Speed,Speed,-2.170000,0.050000,2.780000,3.000000,101.000000,1,0,-0.000000,0.000000,1,-0.033325,0.178848,0.000000,0.786713,-8.646149,0.000000,0.006000,0.163000,-0.003000,FlatInitial,Hold,0
08:30:31.180 PM 02/17/2016,Teleop Enabled,0,FALSE,0,NO ERROR,4008.984375,-4011.621094,4000.000000,4000.000000,Speed,Speed,-2.170000,0.080000,2.760000,3.000000,101.000000,1,0,-0.000000,0.000000,1,-0.029816,0.225174,0.000000,0.785294,-8.635025,0.000000,0.026000,0.108000,-0.070000,FlatInitial,Hold,0
08:30:31.280 PM 02/17/2016,Teleop Enabled,0,FALSE,0,NO ERROR,4009.423828,-4010.009766,4000.000000,4000.000000,Speed,Speed,-2.170000,0.170000,2.690000,3.000000,104.000000,1,0,-0.000000,0.000000,1,-0.020874,0.008514,0.000000,0.782806,-8.629837,0.000000,0.008000,-0.173000,-0.066000,FlatInitial,Hold,0
08:30:31.386 PM 02/17/2016,Teleop Enabled,0,FALSE,0,NO ERROR,4007.226562,-4000.048828,4000.000000,4000.000000,Speed,Speed,-2.170000,0.170000,2.690000,3.000000,105.000000,1,0,-0.000000,0.000000,1,-0.020874,0.008514,0.000000,0.782806,-8.629837,0.000000,0.008000,-0.173000,-0.066000,FlatInitial,Hold,0
08:30:31.489 PM 02/17/2016,Teleop Enabled,0,FALSE,0,NO ERROR,4003.564453,-3994.335937,4000.000000,4000.000000,Speed,Speed,-2.170000,0.250000,2.640000,3.000000,102.000000,1,0,-0.000000,0.000000,1,-0.005157,0.067474,0.000000,0.779984,-8.626129,0.000000,0.027000,0.132000,-0.024000,FlatInitial,Hold,0
08:30:31.589 PM 02/17/2016,Teleop Enabled,0,FALSE,0,NO ERROR,3998.291016,-3996.386719,4000.000000,4000.000000,Speed,Speed,-2.180000,0.290000,2.590000,3.000000,102.000000,1,0,-0.000000,0.000000,1,-0.012344,0.089340,0.000000,0.779800,-8.621780,0.000000,0.053000,-0.050000,-0.039000,FlatInitial,Hold,0
08:30:31.691 PM 02/17/2016,Teleop Enabled,0,FALSE,0,NO ERROR,3993.750000,-4006.201172,4000.000000,4000.000000,Speed,Speed,-2.180000,0.340000,2.450000,3.000000,101.000000,1,0,-0.000000,0.000000,1,-0.012344,0.089340,0.000000,0.779800,-8.621780,0.000000,0.034000,0.039000,-0.031000,FlatInitial,Hold,0
08:30:31.796 PM 02/17/2016,Teleop Enabled,0,FALSE,0,NO ERROR,3991.992187,-4014.111328,4000.000000,4000.000000,Speed,Speed,-2.180000,0.420000,2.350000,3.000000,100.000000,1,0,-0.000000,0.000000,1,0.044189,0.088943,0.000000,0.780594,-8.612732,0.000000,0.115000,0.036000,-0.101000,FlatInitial,Hold,0
08:30:31.897 PM 02/17/2016,Teleop Enabled,0,FALSE,0,NO ERROR,3991.552734,-4006.494141,4000.000000,4000.000000,Speed,Speed,-2.180000,0.420000,2.350000,3.000000,101.000000,1,0,-0.000000,0.000000,1,0.044189,0.088943,0.000000,0.780594,-8.612732,0.000000,0.067000,-0.130000,0.042000,FlatInitial,Hold,0
08:30:31.997 PM 02/17/2016,Teleop Enabled,0,FALSE,0,NO ERROR,3992.431641,-3992.285156,4000.000000,4000.000000,Speed,Speed,-2.190000,0.540000,2.290000,3.000000,102.000000,1,0,-0.000000,0.000000,1,0.004517,0.114822,0.000000,0.785492,-8.603500,0.000000,-0.006000,0.042000,-0.100000,FlatInitial,Hold,0
08:30:32.097 PM 02/17/2016,Teleop Enabled,0,FALSE,0,NO ERROR,3994.335937,-3987.011719,4000.000000,4000.000000,Speed,Speed,-2.190000,0.540000,2.290000,3.000000,102.000000,1,0,-0.000000,0.000000,1,0.004517,0.114822,0.000000,0.785492,-8.603500,0.000000,0.004000,0.013000,-0.034000,FlatInitial,Hold,0
08:30:32.198 PM 02/17/2016,Teleop Enabled,0,FALSE,0,NO ERROR,3999.169922,-3996.826172,4000.000000,4000.000000,Speed,Speed,-2.200000,0.550000,2.480000,3.000000,101.000000,1,0,-0.000000,0.000000,1,0.029587,0.143356,0.000000,0.786896,-8.594360,0.000000,0.075000,-0.080000,-0.089000,FlatInitial,Hold,0
08:30:32.298 PM 02/17/2016,Teleop Enabled,0,FALSE,0,NO ERROR,4002.392578,-4002.978516,4000.000000,4000.000000,Speed,Speed,-2.200000,0.580000,2.500000,3.000000,101.000000,1,0,-0.000000,0.000000,1,0.029022,0.166336,0.000000,0.788101,-8.588272,0.000000,-0.038000,0.037000,-0.090000,FlatInitial,Hold,0
08:30:32.399 PM 02/17/2016,Teleop Enabled,0,FALSE,0,NO ERROR,4006.054687,-3998.876953,4000.000000,4000.000000,Speed,Speed,-1.760000,0.230000,2.720000,3.000000,102.000000,1,0,-0.582677,0.582677,1,0.020233,0.155579,0.000000,0.789688,-8.578888,0.000000,-0.032000,0.159000,-0.090000,FlatInitial,Hold,0
08:30:32.499 PM 02/17/2016,Teleop Enabled,0,FALSE,0,NO ERROR,3964.599609,-3903.515625,4000.000000,4000.000000,Speed,Speed,1.650000,-0.420000,2.860000,3.000000,105.000000,1,0,-0.000000,0.000000,1,-0.149246,0.274017,0.000000,0.784195,-8.561020,0.000000,-0.151000,0.172000,-0.042000,FlatInitial,Hold,0
08:30:32.600 PM 02/17/2016,Teleop Enabled,0,FALSE,0,NO ERROR,3922.119141,-3903.515625,4000.000000,4000.000000,Speed,Speed,6.230000,-0.120000,2.790000,3.000000,102.000000,1,0,-0.000000,0.000000,1,0.004974,0.182327,0.000000,0.781555,-8.549545,0.000000,0.210000,-0.022000,0.014000,FlatInitial,Hold,0
08:30:32.700 PM 02/17/2016,Teleop Enabled,0,FALSE,0,NO ERROR,3967.529297,-3990.527344,4000.000000,4000.000000,Speed,Speed,6.230000,-0.120000,2.790000,3.000000,103.000000,1,0,-0.000000,0.000000,1,0.004974,0.182327,0.000000,0.781555,-8.549545,0.000000,0.056000,-0.090000,0.019000,FlatInitial,Hold,0
08:30:32.804 PM 02/17/2016,Teleop Enabled,0,FALSE,0,NO ERROR,4013.525391,-4066.113281,4000.000000,4000.000000,Speed,Speed,9.430000,0.380000,1.790000,3.000000,102.000000,1,0,-0.000000,0.000000,1,0.124496,0.031799,0.000000,0.786484,-8.541367,0.000000,0.101000,-0.203000,-0.066000,FlatInitial,Hold,0
08:30:32.904 PM 02/17/2016,Teleop Enabled,0,FALSE,0,NO ERROR,4035.351562,-4071.679687,4000.000000,4000.000000,Speed,Speed,9.430000,0.380000,1.790000,3.000000,100.000000,1,0,-0.000000,0.000000,1,0.171402,-0.022919,0.000000,0.791260,-8.541794,0.000000,0.094000,-0.125000,-0.008000,FlatInitial,Hold,0
08:30:33.005 PM 02/17/2016,Teleop Enabled,0,FALSE,0,NO ERROR,4039.160156,-4037.988281,4000.000000,4000.000000,Speed,Speed,8.710000,0.540000,1.800000,3.000000,101.000000,1,0,-0.000000,0.000000,1,0.212448,-0.040375,0.000000,0.805664,-8.545837,0.000000,0.008000,0.028000,0.006000,FlatInitial,Hold,0
08:30:33.105 PM 02/17/2016,Teleop Enabled,0,FALSE,0,NO ERROR,4031.250000,-4006.640625,4000.000000,4000.000000,Speed,Speed,8.670000,0.460000,2.020000,3.000000,101.000000,1,0,-0.000000,0.000000,1,0.220474,0.027130,0.000000,0.814377,-8.546051,0.000000,0.162000,0.041000,-0.015000,FlatInitial,Hold,0
08:30:33.207 PM 02/17/2016,Teleop Enabled,0,FALSE,0,NO ERROR,4019.824219,-4004.150391,4000.000000,4000.000000,Speed,Speed,8.790000,0.490000,2.190000,3.000000,101.000000,1,0,-0.000000,0.000000,1,0.258209,0.018036,0.000000,0.826706,-8.544693,0.000000,0.077000,-0.008000,-0.089000,FlatInitial,Hold,0
08:30:33.308 PM 02/17/2016,Teleop Enabled,0,FALSE,0,NO ERROR,4010.742187,-4007.080078,4000.000000,4000.000000,Speed,Speed,8.690000,0.590000,2.050000,3.000000,105.000000,1,0,-0.000000,0.000000,1,0.282700,-0.030380,0.000000,0.843460,-8.545441,0.000000,-0.024000,-0.010000,-0.042000,FlatInitial,Hold,0
08:30:33.409 PM 02/17/2016,Teleop Enabled,0,FALSE,0,NO ERROR,4007.519531,-4009.863281,4000.000000,4000.000000,Speed,Speed,8.630000,0.620000,2.010000,3.000000,101.000000,1,0,-0.000000,0.000000,1,0.270721,-0.064713,0.000000,0.854645,-8.547424,0.000000,0.079000,-0.026000,0.051000,FlatInitial,Hold,0
08:30:33.511 PM 02/17/2016,Teleop Enabled,0,FALSE,0,NO ERROR,4004.589844,-4007.226562,4000.000000,4000.000000,Speed,Speed,8.720000,0.640000,1.930000,3.000000,105.000000,1,0,-0.000000,0.000000,1,0.276917,-0.137207,0.000000,0.871353,-8.553635,0.000000,0.095000,-0.013000,-0.059000,FlatInitial,Hold,0
08:30:33.612 PM 02/17/2016,Teleop Enabled,0,FALSE,0,NO ERROR,4002.099609,-4005.615234,4000.000000,4000.000000,Speed,Speed,8.670000,0.840000,1.630000,3.000000,105.000000,1,1,-0.160000,-0.160000,1,0.000000,-0.209091,0.000000,0.885620,-8.564346,0.000000,-0.013000,-0.075000,-0.028000,FlatInitial,Hold,0
08:30:33.713 PM 02/17/2016,Teleop Enabled,0,FALSE,0,NO ERROR,3999.169922,-4005.615234,4000.000000,4000.000000,Speed,Speed,8.670000,0.840000,1.630000,3.000000,103.000000,1,1,-0.160000,-0.160000,1,-0.017593,-0.239426,0.000000,0.885162,-8.573563,0.000000,-0.014000,0.018000,0.000000,FlatInitial,Hold,0
08:30:33.816 PM 02/17/2016,Teleop Enabled,0,FALSE,0,NO ERROR,3989.501953,-4006.054687,4000.000000,4000.000000,Speed,Speed,10.120000,0.790000,1.320000,3.000000,101.000000,1,1,-0.160000,-0.160000,1,-0.062576,-0.280594,0.000000,0.883438,-8.583954,0.000000,0.027000,-0.069000,-0.099000,FlatInitial,Hold,0
08:30:33.916 PM 02/17/2016,Teleop Enabled,0,FALSE,0,NO ERROR,3982.617187,-3976.757812,4000.000000,4000.000000,Speed,Speed,10.120000,0.790000,1.320000,3.000000,100.000000,1,1,-0.160000,-0.160000,1,-0.042343,-0.337158,0.000000,0.881149,-8.599533,0.000000,0.013000,-0.085000,0.023000,FlatInitial,Hold,0
08:30:34.020 PM 02/17/2016,Teleop Enabled,0,FALSE,0,NO ERROR,3980.712891,-3970.751953,4000.000000,4000.000000,Speed,Speed,12.310000,0.540000,1.280000,3.000000,101.000000,1,1,0.160000,0.160000,1,-0.007980,-0.002686,0.000000,0.879745,-8.624451,0.000000,0.013000,-0.085000,0.023000,FlatInitial,Hold,0
08:30:34.120 PM 02/17/2016,Teleop Enabled,0,FALSE,0,NO ERROR,3984.814453,-3979.101562,4000.000000,4000.000000,Speed,Speed,12.310000,0.540000,1.280000,3.000000,102.000000,1,1,0.160000,0.160000,1,-0.007980,-0.002686,0.000000,0.879745,-8.624451,0.000000,0.039000,0.013000,-0.093000,FlatInitial,Hold,0
08:30:34.222 PM 02/17/2016,Teleop Enabled,0,FALSE,0,NO ERROR,3985.986328,-3996.093750,4000.000000,4000.000000,Speed,Speed,13.600000,0.890000,1.310000,3.000000,101.000000,1,1,0.160000,0.160000,1,0.111435,0.010254,0.000000,0.884293,-8.624847,0.000000,0.039000,0.013000,-0.093000,FlatInitial,Hold,0
08:30:34.322 PM 02/17/2016,Teleop Enabled,0,FALSE,0,NO ERROR,3985.986328,-3996.093750,4000.000000,4000.000000,Speed,Speed,10.680000,0.990000,1.480000,3.000000,103.000000,1,1,0.160000,0.160000,1,0.111435,0.010254,0.000000,0.884293,-8.624847,0.000000,-0.028000,0.034000,-0.023000,FlatInitial,Hold,0
08:30:34.422 PM 02/17/2016,Teleop Enabled,0,FALSE,0,NO ERROR,3993.164062,-4005.908203,4000.000000,4000.000000,Speed,Speed,8.830000,0.910000,1.870000,3.000000,114.000000,1,1,0.160000,0.160000,1,0.000000,0.179581,0.000000,0.897156,-8.613876,0.000000,0.016000,0.065000,-0.062000,FlatInitial,Hold,0
08:30:34.523 PM 02/17/2016,Teleop Enabled,0,FALSE,0,NO ERROR,4000.927734,-4005.322266,4000.000000,4000.000000,Speed,Speed,8.830000,0.910000,1.870000,3.000000,102.000000,1,1,0.160000,0.160000,1,0.000000,0.179581,0.000000,0.897156,-8.613876,0.000000,0.016000,0.065000,-0.062000,FlatInitial,Hold,0
08:30:34.625 PM 02/17/2016,Teleop Enabled,0,FALSE,0,NO ERROR,4005.761719,-3998.291016,4000.000000,4000.000000,Speed,Speed,5.000000,0.930000,2.100000,3.000000,102.000000,1,1,0.160000,0.160000,1,-0.023834,0.279068,0.000000,0.896820,-8.591095,0.000000,-0.044000,0.025000,-0.076000,FlatInitial,Hold,0
