Time,RobotMode,AutoToRun,ErrorStatus, ErrorCode,ErrorSource,ActualRPM1,ActualRPM2,DesiredRPM1,DesiredRPM2,ControlMode1,ControlMode2,NavXYaw,NavXRoll,NavXPitch,ShooterState,LoopTime,IsLevel,IsAutoTargeting,LeftMotorOutput,RightMotorOutput,IsHaloDrive,NavXVelocityX,NavXVelocityY,NavXVelocityZ,NavXDisplacementX,NavXDisplacementY,NavXDisplacementZ,NavXAccelerationX,NavXAccelerationY,NavXAccelerationZ,AutoDefendState,AngeMotorState,Photoeye
06:49:17.060 PM 02/16/2016,Teleop Enabled,0,TRUE,91,Variant To Data in WPI_DigitalInputRefNum Registry Get.vi->Periodic Tasks.vi->Robot Main.vi,-7.910156,0.000000,-6000.000000,-6000.000000,Speed,Speed,-0.040000,0.740000,1.700000,1.000000,102.000000,1,0,-0.000000,0.000000,1,0.000000,0.000000,0.000000,-0.102478,0.020447,0.000000,0.007000,0.006000,0.020000,FlatInitial,ResetForward,1
06:49:17.161 PM 02/16/2016,Teleop Enabled,0,TRUE,-44007,<LOCATION>WPI_DigitalInputRefNum Registry Get.vi<CALLSTACK>WPI_DigitalInputRefNum Registry Get.vi< <Periodic Tasks.vi< <Robot Main.vi,-7.910156,304.980469,-6000.000000,-6000.000000,Speed,Speed,-0.040000,0.730000,1.650000,1.000000,101.000000,1,0,-0.000000,0.000000,1,-0.001602,-0.000870,0.000000,-0.102570,0.020218,0.000000,0.024000,0.036000,0.014000,FlatInitial,ResetForward,1
06:49:17.261 PM 02/16/2016,Teleop Enabled,0,FALSE,0,NO ERROR,-906.738281,2060.595703,-6000.000000,-6000.000000,Speed,Speed,-0.040000,0.740000,1.620000,1.000000,101.000000,1,0,-0.000000,0.000000,1,0.006882,0.002151,0.000000,-0.102402,0.020218,0.000000,0.058000,0.027000,0.002000,FlatInitial,ResetForward,1
06:49:17.361 PM 02/16/2016,Teleop Enabled,0,FALSE,0,NO ERROR,-2703.808594,3345.263672,-6000.000000,-6000.000000,Speed,Speed,-0.040000,0.760000,1.680000,1.000000,102.000000,1,0,-0.000000,0.000000,1,0.009491,0.015564,0.000000,-0.101761,0.020599,0.000000,0.045000,0.057000,0.062000,FlatInitial,ResetForward,1
06:49:17.465 PM 02/16/2016,Teleop Enabled,0,FALSE,0,NO ERROR,-4189.746094,4628.759766,-6000.000000,-6000.000000,Speed,Speed,-0.040000,0.810000,1.640000,1.000000,102.000000,1,0,-0.000000,0.000000,1,0.014252,0.057373,0.000000,-0.100998,0.022888,0.000000,-0.010000,0.011000,0.217000,FlatInitial,ResetForward,1
06:49:17.561 PM 02/16/2016,Teleop Enabled,0,FALSE,0,NO ERROR,-5276.953125,5398.828125,-6000.000000,-6000.000000,Speed,Speed,-0.040000,0.800000,1.740000,1.000000,102.000000,1,0,-0.000000,0.000000,1,0.000336,0.019455,0.000000,-0.101013,0.024063,0.000000,0.034000,-0.025000,-0.245000,FlatInitial,ResetForward,1
06:49:17.663 PM 02/16/2016,Teleop Enabled,0,FALSE,0,NO ERROR,-5763.867188,5701.171875,-6000.000000,-6000.000000,Speed,Speed,-0.040000,0.820000,1.640000,1.000000,102.000000,1,0,-0.000000,0.000000,1,0.056091,0.035538,0.000000,-0.099716,0.025787,0.000000,0.067000,0.057000,-0.124000,FlatInitial,ResetForward,1
06:49:17.763 PM 02/16/2016,Teleop Enabled,0,FALSE,0,NO ERROR,-5863.476562,5782.617188,-6000.000000,-6000.000000,Speed,Speed,-0.040000,0.780000,1.730000,1.000000,101.000000,1,0,-0.000000,0.000000,1,0.114182,0.093445,0.000000,-0.094925,0.029419,0.000000,0.040000,-0.060000,0.112000,FlatInitial,ResetForward,1
06:49:17.862 PM 02/16/2016,Teleop Enabled,0,FALSE,0,NO ERROR,-5898.632812,5832.421875,-6000.000000,-6000.000000,Speed,Speed,-0.040000,0.820000,1.570000,1.000000,104.000000,1,0,-0.000000,0.000000,1,0.180786,0.052567,0.000000,-0.087341,0.033005,0.000000,0.062000,0.068000,0.338000,FlatInitial,ResetForward,1
06:49:17.962 PM 02/16/2016,Teleop Disabled,0,FALSE,0,NO ERROR,-5917.382812,5874.609375,-6000.000000,-6000.000000,Speed,Speed,-0.040000,0.840000,1.640000,1.000000,101.000000,1,0,-0.000000,0.000000,1,0.220062,0.071243,0.000000,-0.076813,0.036118,0.000000,0.001000,-0.019000,0.352000,FlatInitial,ResetForward,1
06:49:18.063 PM 02/16/2016,Teleop Disabled,0,FALSE,0,NO ERROR,-5888.085938,5858.789062,-6000.000000,-6000.000000,Speed,Speed,-0.040000,0.840000,1.580000,1.000000,102.000000,1,0,-0.000000,0.000000,1,0.000000,0.010773,0.000000,-0.067551,0.038300,0.000000,-0.003000,-0.085000,0.135000,FlatInitial,ResetForward,1
06:49:18.162 PM 02/16/2016,Teleop Disabled,0,FALSE,0,NO ERROR,-5510.156250,5347.851562,-6000.000000,-6000.000000,Speed,Speed,-0.060000,0.840000,1.590000,1.000000,101.000000,1,0,-0.000000,0.000000,1,-0.011353,0.000565,0.000000,-0.067886,0.037811,0.000000,-0.006000,0.019000,-0.104000,FlatInitial,ResetForward,1
06:49:18.262 PM 02/16/2016,Teleop Disabled,0,FALSE,0,NO ERROR,-5016.796875,4661.865234,-6000.000000,-6000.000000,Speed,Speed,-0.040000,0.740000,1.520000,1.000000,101.000000,1,0,-0.000000,0.000000,1,-0.009583,0.004105,0.000000,-0.068192,0.038147,0.000000,0.006000,0.028000,0.000000,FlatInitial,ResetForward,1
06:49:18.363 PM 02/16/2016,Teleop Disabled,0,FALSE,0,NO ERROR,-4629.785156,3993.457031,-6000.000000,-6000.000000,Speed,Speed,-0.040000,0.740000,1.580000,1.000000,102.000000,1,0,-0.000000,0.000000,1,-0.002777,0.030548,0.000000,-0.068222,0.038803,0.000000,-0.040000,-0.069000,-0.005000,FlatInitial,ResetForward,1
06:49:18.462 PM 02/16/2016,Teleop Disabled,0,FALSE,0,NO ERROR,-4163.232422,3344.677734,-6000.000000,-6000.000000,Speed,Speed,-0.040000,0.700000,1.530000,1.000000,102.000000,1,0,-0.000000,0.000000,1,-0.033310,0.004227,0.000000,-0.069534,0.039825,0.000000,0.022000,0.031000,-0.007000,FlatInitial,ResetForward,1
06:49:18.563 PM 02/16/2016,Teleop Disabled,0,FALSE,0,NO ERROR,-3715.722656,2841.650391,-6000.000000,-6000.000000,Speed,Speed,-0.050000,0.720000,1.500000,1.000000,101.000000,1,0,-0.000000,0.000000,1,-0.035019,-0.000793,0.000000,-0.070892,0.040146,0.000000,-0.011000,0.026000,-0.010000,FlatInitial,ResetForward,1
06:49:18.662 PM 02/16/2016,Teleop Disabled,0,FALSE,0,NO ERROR,-3282.275391,2237.841797,-6000.000000,-6000.000000,Speed,Speed,-0.050000,0.710000,1.510000,1.000000,101.000000,1,0,-0.000000,0.000000,1,0.002472,0.011398,0.000000,-0.070877,0.040451,0.000000,0.053000,-0.013000,0.039000,FlatInitial,ResetForward,1
06:49:18.763 PM 02/16/2016,Teleop Disabled,0,FALSE,0,NO ERROR,-2872.412109,1673.144531,-6000.000000,-6000.000000,Speed,Speed,-0.040000,0.730000,1.500000,1.000000,101.000000,1,0,-0.000000,0.000000,1,0.021027,0.036041,0.000000,-0.070190,0.041580,0.000000,0.001000,0.038000,-0.009000,FlatInitial,ResetForward,1
06:49:18.864 PM 02/16/2016,Teleop Disabled,0,FALSE,0,NO ERROR,-2481.445312,1158.837891,-6000.000000,-6000.000000,Speed,Speed,-0.050000,0.720000,1.540000,1.000000,101.000000,1,0,-0.000000,0.000000,1,0.018188,0.040497,0.000000,-0.069168,0.043472,0.000000,-0.031000,-0.006000,-0.020000,FlatInitial,ResetForward,1
06:49:18.964 PM 02/16/2016,Teleop Disabled,0,FALSE,0,NO ERROR,-2184.814453,701.220703,-6000.000000,-6000.000000,Speed,Speed,-0.040000,0.720000,1.550000,1.000000,101.000000,1,0,-0.000000,0.000000,1,-0.001389,0.009094,0.000000,-0.068954,0.044067,0.000000,-0.027000,-0.038000,0.041000,FlatInitial,ResetForward,1
06:49:19.064 PM 02/16/2016,Teleop Disabled,0,FALSE,0,NO ERROR,-1831.201172,342.187500,-6000.000000,-6000.000000,Speed,Speed,-0.040000,0.710000,1.580000,1.000000,102.000000,1,0,-0.000000,0.000000,1,0.000000,0.000000,0.000000,-0.069183,0.044388,0.000000,0.016000,0.013000,-0.017000,FlatInitial,ResetForward,1
06:49:19.164 PM 02/16/2016,Teleop Disabled,0,FALSE,0,NO ERROR,-1497.216797,136.816406,-6000.000000,-6000.000000,Speed,Speed,-0.040000,0.720000,1.570000,1.000000,103.000000,1,0,-0.000000,0.000000,1,0.000000,0.000000,0.000000,-0.069183,0.044388,0.000000,-0.009000,0.001000,-0.022000,FlatInitial,ResetForward,1
06:49:19.265 PM 02/16/2016,Teleop Disabled,0,FALSE,0,NO ERROR,-1186.376953,0.732422,-6000.000000,-6000.000000,Speed,Speed,-0.050000,0.730000,1.570000,1.000000,101.000000,1,0,-0.000000,0.000000,1,0.000000,0.000000,0.000000,-0.069183,0.044388,0.000000,0.000000,0.002000,0.004000,FlatInitial,ResetForward,1
06:49:19.365 PM 02/16/2016,Teleop Disabled,0,FALSE,0,NO ERROR,-892.236328,0.000000,-6000.000000,-6000.000000,Speed,Speed,-0.040000,0.740000,1.590000,1.000000,102.000000,1,0,-0.000000,0.000000,1,0.000000,0.000000,0.000000,-0.069183,0.044388,0.000000,-0.008000,0.003000,0.007000,FlatInitial,ResetForward,1
06:49:19.465 PM 02/16/2016,Teleop Disabled,0,FALSE,0,NO ERROR,-632.080078,0.000000,-6000.000000,-6000.000000,Speed,Speed,-0.040000,0.730000,1.590000,1.000000,102.000000,1,0,-0.000000,0.000000,1,0.000000,0.000000,0.000000,-0.069183,0.044388,0.000000,0.000000,-0.001000,0.000000,FlatInitial,ResetForward,1
06:49:19.566 PM 02/16/2016,Teleop Disabled,0,FALSE,0,NO ERROR,-440.771484,0.000000,-6000.000000,-6000.000000,Speed,Speed,-0.040000,0.740000,1.590000,1.000000,101.000000,1,0,-0.000000,0.000000,1,0.000000,0.000000,0.000000,-0.069183,0.044388,0.000000,0.000000,0.006000,0.001000,FlatInitial,ResetForward,1
06:49:19.667 PM 02/16/2016,Teleop Disabled,0,FALSE,0,NO ERROR,-257.666016,0.000000,-6000.000000,-6000.000000,Speed,Speed,-0.040000,0.740000,1.590000,1.000000,102.000000,1,0,-0.000000,0.000000,1,0.000000,0.000000,0.000000,-0.069183,0.044388,0.000000,-0.007000,0.003000,0.014000,FlatInitial,ResetForward,1
06:49:19.768 PM 02/16/2016,Teleop Disabled,0,FALSE,0,NO ERROR,-103.417969,0.000000,-6000.000000,-6000.000000,Speed,Speed,-0.040000,0.740000,1.590000,1.000000,103.000000,1,0,-0.000000,0.000000,1,0.000000,0.000000,0.000000,-0.069183,0.044388,0.000000,0.000000,0.003000,-0.001000,FlatInitial,ResetForward,1
06:49:19.869 PM 02/16/2016,Teleop Disabled,0,FALSE,0,NO ERROR,-35.449219,0.000000,-6000.000000,-6000.000000,Speed,Speed,-0.050000,0.740000,1.600000,1.000000,102.000000,1,0,-0.000000,0.000000,1,0.000000,0.000000,0.000000,-0.069183,0.044388,0.000000,0.000000,-0.003000,0.004000,FlatInitial,ResetForward,1
06:49:19.970 PM 02/16/2016,Teleop Disabled,0,FALSE,0,NO ERROR,-0.878906,0.000000,-6000.000000,-6000.000000,Speed,Speed,-0.040000,0.740000,1.600000,1.000000,102.000000,1,0,-0.000000,0.000000,1,0.000000,0.000000,0.000000,-0.069183,0.044388,0.000000,0.000000,0.001000,0.009000,FlatInitial,ResetForward,1
06:49:20.070 PM 02/16/2016,Teleop Disabled,0,FALSE,0,NO ERROR,0.000000,0.000000,-6000.000000,-6000.000000,Speed,Speed,-0.050000,0.740000,1.610000,1.000000,102.000000,1,0,-0.000000,0.000000,1,0.000000,0.000000,0.000000,-0.069183,0.044388,0.000000,0.000000,0.000000,0.001000,FlatInitial,ResetForward,1
06:49:20.170 PM 02/16/2016,Teleop Disabled,0,FALSE,0,NO ERROR,0.000000,0.000000,-6000.000000,-6000.000000,Speed,Speed,-0.040000,0.740000,1.610000,1.000000,102.000000,1,0,-0.000000,0.000000,1,0.000000,0.000000,0.000000,-0.069183,0.044388,0.000000,0.000000,-0.001000,0.009000,FlatInitial,ResetForward,1
06:49:20.271 PM 02/16/2016,Teleop Disabled,0,FALSE,0,NO ERROR,0.000000,0.000000,-6000.000000,-6000.000000,Speed,Speed,-0.040000,0.740000,1.610000,1.000000,101.000000,1,0,-0.000000,0.000000,1,0.000000,0.000000,0.000000,-0.069183,0.044388,0.000000,-0.003000,0.002000,0.008000,FlatInitial,ResetForward,1
06:49:20.372 PM 02/16/2016,Teleop Disabled,0,FALSE,0,NO ERROR,0.000000,0.000000,-6000.000000,-6000.000000,Speed,Speed,-0.050000,0.740000,1.620000,1.000000,102.000000,1,0,-0.000000,0.000000,1,0.000000,0.000000,0.000000,-0.069183,0.044388,0.000000,-0.003000,0.002000,0.008000,FlatInitial,ResetForward,1
06:49:20.473 PM 02/16/2016,Teleop Disabled,0,FALSE,0,NO ERROR,0.000000,0.000000,-6000.000000,-6000.000000,Speed,Speed,-0.050000,0.750000,1.620000,1.000000,100.000000,1,0,-0.000000,0.000000,1,0.000000,0.000000,0.000000,-0.069183,0.044388,0.000000,-0.001000,-0.001000,0.005000,FlatInitial,ResetForward,1
06:49:20.574 PM 02/16/2016,Teleop Disabled,0,FALSE,0,NO ERROR,0.000000,0.000000,-6000.000000,-6000.000000,Speed,Speed,-0.050000,0.750000,1.620000,1.000000,103.000000,1,0,-0.000000,0.000000,1,0.000000,0.000000,0.000000,-0.069183,0.044388,0.000000,-0.001000,0.000000,0.010000,FlatInitial,ResetForward,1
06:49:20.675 PM 02/16/2016,Teleop Disabled,0,FALSE,0,NO ERROR,0.000000,0.000000,-6000.000000,-6000.000000,Speed,Speed,-0.050000,0.750000,1.620000,1.000000,102.000000,1,0,-0.000000,0.000000,1,0.000000,0.000000,0.000000,-0.069183,0.044388,0.000000,-0.001000,0.000000,0.010000,FlatInitial,ResetForward,1
06:49:20.775 PM 02/16/2016,Teleop Disabled,0,FALSE,0,NO ERROR,0.000000,0.000000,-6000.000000,-6000.000000,Speed,Speed,-0.050000,0.750000,1.620000,1.000000,103.000000,1,0,-0.000000,0.000000,1,0.000000,0.000000,0.000000,-0.069183,0.044388,0.000000,-0.001000,-0.002000,0.006000,FlatInitial,ResetForward,1
06:49:20.875 PM 02/16/2016,Teleop Disabled,0,FALSE,0,NO ERROR,0.000000,0.000000,-6000.000000,-6000.000000,Speed,Speed,-0.050000,0.750000,1.610000,1.000000,101.000000,1,0,-0.000000,0.000000,1,0.000000,0.000000,0.000000,-0.069183,0.044388,0.000000,-0.001000,0.002000,0.010000,FlatInitial,ResetForward,1
06:49:20.975 PM 02/16/2016,Teleop Disabled,0,FALSE,0,NO ERROR,0.000000,0.000000,-6000.000000,-6000.000000,Speed,Speed,-0.050000,0.750000,1.620000,1.000000,101.000000,1,0,-0.000000,0.000000,1,0.000000,0.000000,0.000000,-0.069183,0.044388,0.000000,0.000000,0.000000,0.004000,FlatInitial,ResetForward,1
06:49:21.075 PM 02/16/2016,Teleop Disabled,0,FALSE,0,NO ERROR,0.000000,0.000000,-6000.000000,-6000.000000,Speed,Speed,-0.060000,0.750000,1.620000,1.000000,101.000000,1,0,-0.000000,0.000000,1,0.000000,0.000000,0.000000,-0.069183,0.044388,0.000000,0.000000,0.000000,0.009000,FlatInitial,ResetForward,1
06:49:21.176 PM 02/16/2016,Teleop Disabled,0,FALSE,0,NO ERROR,0.000000,0.000000,-6000.000000,-6000.000000,Speed,Speed,-0.060000,0.750000,1.620000,1.000000,102.000000,1,0,-0.000000,0.000000,1,0.000000,0.000000,0.000000,-0.069183,0.044388,0.000000,0.000000,0.000000,0.007000,FlatInitial,ResetForward,1
06:49:21.276 PM 02/16/2016,Teleop Disabled,0,FALSE,0,NO ERROR,0.000000,0.000000,-6000.000000,-6000.000000,Speed,Speed,-0.060000,0.740000,1.620000,1.000000,101.000000,1,0,-0.000000,0.000000,1,0.000000,0.000000,0.000000,-0.069183,0.044388,0.000000,0.001000,0.001000,0.008000,FlatInitial,ResetForward,1
06:49:21.376 PM 02/16/2016,Teleop Disabled,0,FALSE,0,NO ERROR,0.000000,0.000000,-6000.000000,-6000.000000,Speed,Speed,-0.060000,0.740000,1.620000,1.000000,101.000000,1,0,-0.000000,0.000000,1,0.000000,0.000000,0.000000,-0.069183,0.044388,0.000000,0.001000,0.001000,0.008000,FlatInitial,ResetForward,1
06:49:21.477 PM 02/16/2016,Teleop Disabled,0,FALSE,0,NO ERROR,0.000000,0.000000,-6000.000000,-6000.000000,Speed,Speed,-0.060000,0.740000,1.620000,1.000000,102.000000,1,0,-0.000000,0.000000,1,0.000000,0.000000,0.000000,-0.069183,0.044388,0.000000,0.000000,0.000000,0.012000,FlatInitial,ResetForward,1
06:49:21.576 PM 02/16/2016,Teleop Disabled,0,FALSE,0,NO ERROR,0.000000,0.000000,-6000.000000,-6000.000000,Speed,Speed,-0.060000,0.740000,1.620000,1.000000,102.000000,1,0,-0.000000,0.000000,1,0.000000,0.000000,0.000000,-0.069183,0.044388,0.000000,-0.003000,-0.002000,0.004000,FlatInitial,ResetForward,1
06:49:21.677 PM 02/16/2016,Teleop Disabled,0,FALSE,0,NO ERROR,0.000000,0.000000,-6000.000000,-6000.000000,Speed,Speed,-0.060000,0.740000,1.630000,1.000000,101.000000,1,0,-0.000000,0.000000,1,0.000000,0.000000,0.000000,-0.069183,0.044388,0.000000,-0.001000,0.001000,0.009000,FlatInitial,ResetForward,1
06:49:21.776 PM 02/16/2016,Teleop Disabled,0,FALSE,0,NO ERROR,0.000000,0.000000,-6000.000000,-6000.000000,Speed,Speed,-0.060000,0.740000,1.630000,1.000000,101.000000,1,0,-0.000000,0.000000,1,0.000000,0.000000,0.000000,-0.069183,0.044388,0.000000,0.000000,0.000000,0.003000,FlatInitial,ResetForward,1
06:49:21.876 PM 02/16/2016,Teleop Disabled,0,FALSE,0,NO ERROR,0.000000,0.000000,-6000.000000,-6000.000000,Speed,Speed,-0.060000,0.740000,1.630000,1.000000,103.000000,1,0,-0.000000,0.000000,1,0.000000,0.000000,0.000000,-0.069183,0.044388,0.000000,0.000000,0.000000,0.009000,FlatInitial,ResetForward,1
06:49:21.976 PM 02/16/2016,Teleop Disabled,0,FALSE,0,NO ERROR,0.000000,0.000000,-6000.000000,-6000.000000,Speed,Speed,-0.060000,0.740000,1.630000,1.000000,102.000000,1,0,-0.000000,0.000000,1,0.000000,0.000000,0.000000,-0.069183,0.044388,0.000000,0.001000,0.001000,0.005000,FlatInitial,ResetForward,1
06:49:22.076 PM 02/16/2016,Teleop Disabled,0,FALSE,0,NO ERROR,0.000000,0.000000,-6000.000000,-6000.000000,Speed,Speed,-0.060000,0.740000,1.630000,1.000000,100.000000,1,0,-0.000000,0.000000,1,0.000000,0.000000,0.000000,-0.069183,0.044388,0.000000,0.001000,0.000000,0.006000,FlatInitial,ResetForward,1
06:49:22.176 PM 02/16/2016,Teleop Disabled,0,FALSE,0,NO ERROR,0.000000,0.000000,-6000.000000,-6000.000000,Speed,Speed,-0.060000,0.740000,1.630000,1.000000,101.000000,1,0,-0.000000,0.000000,1,0.000000,0.000000,0.000000,-0.069183,0.044388,0.000000,0.000000,0.000000,0.007000,FlatInitial,ResetForward,1
06:49:22.277 PM 02/16/2016,Teleop Disabled,0,FALSE,0,NO ERROR,0.000000,0.000000,-6000.000000,-6000.000000,Speed,Speed,-0.060000,0.730000,1.640000,1.000000,103.000000,1,0,-0.000000,0.000000,1,0.000000,0.000000,0.000000,-0.069183,0.044388,0.000000,0.000000,0.000000,0.009000,FlatInitial,ResetForward,1
06:49:22.377 PM 02/16/2016,Teleop Disabled,0,FALSE,0,NO ERROR,0.000000,0.000000,-6000.000000,-6000.000000,Speed,Speed,-0.060000,0.730000,1.640000,1.000000,103.000000,1,0,-0.000000,0.000000,1,0.000000,0.000000,0.000000,-0.069183,0.044388,0.000000,0.000000,-0.001000,0.009000,FlatInitial,ResetForward,1
06:49:22.478 PM 02/16/2016,Teleop Disabled,0,FALSE,0,NO ERROR,0.000000,0.000000,-6000.000000,-6000.000000,Speed,Speed,-0.060000,0.730000,1.640000,1.000000,102.000000,1,0,-0.000000,0.000000,1,0.000000,0.000000,0.000000,-0.069183,0.044388,0.000000,-0.001000,0.000000,0.014000,FlatInitial,ResetForward,1
06:49:22.577 PM 02/16/2016,Teleop Disabled,0,FALSE,0,NO ERROR,0.000000,0.000000,-6000.000000,-6000.000000,Speed,Speed,-0.060000,0.740000,1.640000,1.000000,101.000000,1,0,-0.000000,0.000000,1,0.000000,0.000000,0.000000,-0.069183,0.044388,0.000000,0.000000,0.000000,0.008000,FlatInitial,ResetForward,1
06:49:22.678 PM 02/16/2016,Teleop Disabled,0,FALSE,0,NO ERROR,0.000000,0.000000,-6000.000000,-6000.000000,Speed,Speed,-0.060000,0.740000,1.640000,1.000000,102.000000,1,0,-0.000000,0.000000,1,0.000000,0.000000,0.000000,-0.069183,0.044388,0.000000,0.000000,0.000000,0.007000,FlatInitial,ResetForward,1
06:49:22.778 PM 02/16/2016,Teleop Disabled,0,FALSE,0,NO ERROR,0.000000,0.000000,-6000.000000,-6000.000000,Speed,Speed,-0.050000,0.740000,1.640000,1.000000,105.000000,1,0,-0.000000,0.000000,1,0.000000,0.000000,0.000000,-0.069183,0.044388,0.000000,0.001000,0.000000,0.003000,FlatInitial,ResetForward,1
06:49:22.879 PM 02/16/2016,Teleop Disabled,0,FALSE,0,NO ERROR,0.000000,0.000000,-6000.000000,-6000.000000,Speed,Speed,-0.050000,0.740000,1.650000,1.000000,101.000000,1,0,-0.000000,0.000000,1,0.000000,0.000000,0.000000,-0.069183,0.044388,0.000000,0.001000,0.000000,0.007000,FlatInitial,ResetForward,1
06:49:22.978 PM 02/16/2016,Teleop Disabled,0,FALSE,0,NO ERROR,0.000000,0.000000,-6000.000000,-6000.000000,Speed,Speed,-0.050000,0.730000,1.650000,1.000000,101.000000,1,0,-0.000000,0.000000,1,0.000000,0.000000,0.000000,-0.069183,0.044388,0.000000,0.000000,0.000000,0.004000,FlatInitial,ResetForward,1
06:49:23.078 PM 02/16/2016,Teleop Disabled,0,FALSE,0,NO ERROR,0.000000,0.000000,-6000.000000,-6000.000000,Speed,Speed,-0.060000,0.730000,1.650000,1.000000,102.000000,1,0,-0.000000,0.000000,1,0.000000,0.000000,0.000000,-0.069183,0.044388,0.000000,0.000000,0.000000,0.011000,FlatInitial,ResetForward,1
06:49:23.178 PM 02/16/2016,Teleop Disabled,0,FALSE,0,NO ERROR,0.000000,0.000000,-6000.000000,-6000.000000,Speed,Speed,-0.050000,0.730000,1.650000,1.000000,102.000000,1,0,-0.000000,0.000000,1,0.000000,0.000000,0.000000,-0.069183,0.044388,0.000000,0.000000,0.001000,0.011000,FlatInitial,ResetForward,1
06:49:23.279 PM 02/16/2016,Teleop Disabled,0,FALSE,0,NO ERROR,0.000000,0.000000,-6000.000000,-6000.000000,Speed,Speed,-0.050000,0.730000,1.650000,1.000000,101.000000,1,0,-0.000000,0.000000,1,0.000000,0.000000,0.000000,-0.069183,0.044388,0.000000,0.000000,0.003000,0.010000,FlatInitial,ResetForward,1
06:49:23.379 PM 02/16/2016,Teleop Disabled,0,FALSE,0,NO ERROR,0.000000,0.000000,-6000.000000,-6000.000000,Speed,Speed,-0.050000,0.720000,1.660000,1.000000,101.000000,1,0,-0.000000,0.000000,1,0.000000,0.000000,0.000000,-0.069183,0.044388,0.000000,0.000000,0.001000,0.013000,FlatInitial,ResetForward,1
06:49:23.480 PM 02/16/2016,Teleop Disabled,0,FALSE,0,NO ERROR,0.000000,0.000000,-6000.000000,-6000.000000,Speed,Speed,-0.060000,0.720000,1.650000,1.000000,101.000000,1,0,-0.000000,0.000000,1,0.000000,0.000000,0.000000,-0.069183,0.044388,0.000000,0.003000,0.000000,0.011000,FlatInitial,ResetForward,1
06:49:23.581 PM 02/16/2016,Teleop Disabled,0,FALSE,0,NO ERROR,0.000000,0.000000,-6000.000000,-6000.000000,Speed,Speed,-0.060000,0.720000,1.650000,1.000000,102.000000,1,0,-0.000000,0.000000,1,0.000000,0.000000,0.000000,-0.069183,0.044388,0.000000,0.000000,0.000000,0.007000,FlatInitial,ResetForward,1
06:49:23.681 PM 02/16/2016,Teleop Disabled,0,FALSE,0,NO ERROR,0.000000,0.000000,-6000.000000,-6000.000000,Speed,Speed,-0.060000,0.730000,1.650000,1.000000,101.000000,1,0,-0.000000,0.000000,1,0.000000,0.000000,0.000000,-0.069183,0.044388,0.000000,0.002000,0.000000,0.007000,FlatInitial,ResetForward,1
06:49:23.782 PM 02/16/2016,Teleop Disabled,0,FALSE,0,NO ERROR,0.000000,0.000000,-6000.000000,-6000.000000,Speed,Speed,-0.060000,0.730000,1.650000,1.000000,101.000000,1,0,-0.000000,0.000000,1,0.000000,0.000000,0.000000,-0.069183,0.044388,0.000000,0.003000,0.003000,0.010000,FlatInitial,ResetForward,1
06:49:23.882 PM 02/16/2016,Teleop Disabled,0,FALSE,0,NO ERROR,0.000000,0.000000,-6000.000000,-6000.000000,Speed,Speed,-0.060000,0.730000,1.650000,1.000000,103.000000,1,0,-0.000000,0.000000,1,0.000000,0.000000,0.000000,-0.069183,0.044388,0.000000,0.002000,0.002000,0.009000,FlatInitial,ResetForward,1
06:49:23.983 PM 02/16/2016,Teleop Disabled,0,FALSE,0,NO ERROR,0.000000,0.000000,-6000.000000,-6000.000000,Speed,Speed,-0.060000,0.740000,1.650000,1.000000,102.000000,1,0,-0.000000,0.000000,1,0.000000,0.000000,0.000000,-0.069183,0.044388,0.000000,0.000000,0.002000,0.012000,FlatInitial,ResetForward,1
06:49:24.083 PM 02/16/2016,Teleop Disabled,0,FALSE,0,NO ERROR,0.000000,0.000000,-6000.000000,-6000.000000,Speed,Speed,-0.060000,0.740000,1.650000,1.000000,101.000000,1,0,-0.000000,0.000000,1,0.000000,0.000000,0.000000,-0.069183,0.044388,0.000000,-0.004000,-0.001000,0.009000,FlatInitial,ResetForward,1
06:49:24.184 PM 02/16/2016,Teleop Disabled,0,FALSE,0,NO ERROR,0.000000,0.000000,-6000.000000,-6000.000000,Speed,Speed,-0.060000,0.740000,1.640000,1.000000,102.000000,1,0,-0.000000,0.000000,1,0.000000,0.000000,0.000000,-0.069183,0.044388,0.000000,0.001000,-0.001000,0.013000,FlatInitial,ResetForward,1
06:49:24.284 PM 02/16/2016,Teleop Disabled,0,FALSE,0,NO ERROR,0.000000,0.000000,-6000.000000,-6000.000000,Speed,Speed,-0.060000,0.740000,1.640000,1.000000,103.000000,1,0,-0.000000,0.000000,1,0.000000,0.000000,0.000000,-0.069183,0.044388,0.000000,-0.001000,-0.003000,0.006000,FlatInitial,ResetForward,1
06:49:24.385 PM 02/16/2016,Teleop Disabled,0,FALSE,0,NO ERROR,0.000000,0.000000,-6000.000000,-6000.000000,Speed,Speed,-0.060000,0.730000,1.640000,1.000000,101.000000,1,0,-0.000000,0.000000,1,0.000000,0.000000,0.000000,-0.069183,0.044388,0.000000,-0.001000,0.000000,0.009000,FlatInitial,ResetForward,1
06:49:24.484 PM 02/16/2016,Teleop Disabled,0,FALSE,0,NO ERROR,0.000000,0.000000,-6000.000000,-6000.000000,Speed,Speed,-0.060000,0.730000,1.640000,1.000000,103.000000,1,0,-0.000000,0.000000,1,0.000000,0.000000,0.000000,-0.069183,0.044388,0.000000,0.000000,-0.001000,0.007000,FlatInitial,ResetForward,1
06:49:24.585 PM 02/16/2016,Teleop Disabled,0,FALSE,0,NO ERROR,0.000000,0.000000,-6000.000000,-6000.000000,Speed,Speed,-0.060000,0.730000,1.640000,1.000000,103.000000,1,0,-0.000000,0.000000,1,0.000000,0.000000,0.000000,-0.069183,0.044388,0.000000,0.001000,0.001000,0.010000,FlatInitial,ResetForward,1
06:49:24.684 PM 02/16/2016,Teleop Disabled,0,FALSE,0,NO ERROR,0.000000,0.000000,-6000.000000,-6000.000000,Speed,Speed,-0.060000,0.730000,1.650000,1.000000,103.000000,1,0,-0.000000,0.000000,1,0.000000,0.000000,0.000000,-0.069183,0.044388,0.000000,0.000000,0.000000,0.009000,FlatInitial,ResetForward,1
06:49:24.785 PM 02/16/2016,Teleop Disabled,0,FALSE,0,NO ERROR,0.000000,0.000000,-6000.000000,-6000.000000,Speed,Speed,-0.060000,0.730000,1.650000,1.000000,103.000000,1,0,-0.000000,0.000000,1,0.000000,0.000000,0.000000,-0.069183,0.044388,0.000000,0.002000,0.000000,0.006000,FlatInitial,ResetForward,1
06:49:24.884 PM 02/16/2016,Teleop Disabled,0,FALSE,0,NO ERROR,0.000000,0.000000,-6000.000000,-6000.000000,Speed,Speed,-0.060000,0.730000,1.650000,1.000000,102.000000,1,0,-0.000000,0.000000,1,0.000000,0.000000,0.000000,-0.069183,0.044388,0.000000,0.002000,0.000000,0.007000,FlatInitial,ResetForward,1
06:49:24.985 PM 02/16/2016,Teleop Disabled,0,FALSE,0,NO ERROR,0.000000,0.000000,-6000.000000,-6000.000000,Speed,Speed,-0.060000,0.730000,1.650000,1.000000,101.000000,1,0,-0.000000,0.000000,1,0.000000,0.000000,0.000000,-0.069183,0.044388,0.000000,0.000000,0.001000,0.012000,FlatInitial,ResetForward,1
06:49:25.086 PM 02/16/2016,Teleop Disabled,0,FALSE,0,NO ERROR,0.000000,0.000000,-6000.000000,-6000.000000,Speed,Speed,-0.060000,0.730000,1.650000,1.000000,102.000000,1,0,-0.000000,0.000000,1,0.000000,0.000000,0.000000,-0.069183,0.044388,0.000000,0.000000,0.000000,0.010000,FlatInitial,ResetForward,1
06:49:25.187 PM 02/16/2016,Teleop Disabled,0,FALSE,0,NO ERROR,0.000000,0.000000,-6000.000000,-6000.000000,Speed,Speed,-0.060000,0.730000,1.650000,1.000000,101.000000,1,0,-0.000000,0.000000,1,0.000000,0.000000,0.000000,-0.069183,0.044388,0.000000,0.002000,0.000000,0.003000,FlatInitial,ResetForward,1
06:49:25.287 PM 02/16/2016,Teleop Disabled,0,FALSE,0,NO ERROR,0.000000,0.000000,-6000.000000,-6000.000000,Speed,Speed,-0.060000,0.740000,1.650000,1.000000,102.000000,1,0,-0.000000,0.000000,1,0.000000,0.000000,0.000000,-0.069183,0.044388,0.000000,-0.003000,0.000000,0.004000,FlatInitial,ResetForward,1
06:49:25.388 PM 02/16/2016,Teleop Disabled,0,FALSE,0,NO ERROR,0.000000,0.000000,-6000.000000,-6000.000000,Speed,Speed,-0.060000,0.740000,1.640000,1.000000,102.000000,1,0,-0.000000,0.000000,1,0.000000,0.000000,0.000000,-0.069183,0.044388,0.000000,0.000000,0.001000,0.004000,FlatInitial,ResetForward,1
06:49:25.487 PM 02/16/2016,Teleop Disabled,0,FALSE,0,NO ERROR,0.000000,0.000000,-6000.000000,-6000.000000,Speed,Speed,-0.060000,0.740000,1.650000,1.000000,102.000000,1,0,-0.000000,0.000000,1,0.000000,0.000000,0.000000,-0.069183,0.044388,0.000000,-0.002000,0.000000,0.007000,FlatInitial,ResetForward,1
06:49:25.588 PM 02/16/2016,Teleop Disabled,0,FALSE,0,NO ERROR,0.000000,0.000000,-6000.000000,-6000.000000,Speed,Speed,-0.060000,0.740000,1.650000,1.000000,102.000000,1,0,-0.000000,0.000000,1,0.000000,0.000000,0.000000,-0.069183,0.044388,0.000000,0.001000,-0.001000,0.007000,FlatInitial,ResetForward,1
06:49:25.688 PM 02/16/2016,Teleop Disabled,0,FALSE,0,NO ERROR,0.000000,0.000000,-6000.000000,-6000.000000,Speed,Speed,-0.050000,0.740000,1.650000,1.000000,100.000000,1,0,-0.000000,0.000000,1,0.000000,0.000000,0.000000,-0.069183,0.044388,0.000000,0.000000,0.000000,0.010000,FlatInitial,ResetForward,1
06:49:25.788 PM 02/16/2016,Teleop Disabled,0,FALSE,0,NO ERROR,0.000000,0.000000,-6000.000000,-6000.000000,Speed,Speed,-0.050000,0.730000,1.650000,1.000000,101.000000,1,0,-0.000000,0.000000,1,0.000000,0.000000,0.000000,-0.069183,0.044388,0.000000,0.003000,0.001000,0.008000,FlatInitial,ResetForward,1
06:49:25.887 PM 02/16/2016,Teleop Disabled,0,FALSE,0,NO ERROR,0.000000,0.000000,-6000.000000,-6000.000000,Speed,Speed,-0.050000,0.730000,1.650000,1.000000,102.000000,1,0,-0.000000,0.000000,1,0.000000,0.000000,0.000000,-0.069183,0.044388,0.000000,-0.001000,0.001000,0.007000,FlatInitial,ResetForward,1
06:49:25.989 PM 02/16/2016,Teleop Disabled,0,FALSE,0,NO ERROR,0.000000,0.000000,-6000.000000,-6000.000000,Speed,Speed,-0.050000,0.740000,1.640000,1.000000,102.000000,1,0,-0.000000,0.000000,1,0.000000,0.000000,0.000000,-0.069183,0.044388,0.000000,0.002000,0.000000,0.009000,FlatInitial,ResetForward,1
06:49:26.090 PM 02/16/2016,Teleop Disabled,0,FALSE,0,NO ERROR,0.000000,0.000000,-6000.000000,-6000.000000,Speed,Speed,-0.050000,0.740000,1.650000,1.000000,102.000000,1,0,-0.000000,0.000000,1,0.000000,0.000000,0.000000,-0.069183,0.044388,0.000000,0.000000,0.000000,0.011000,FlatInitial,ResetForward,1
06:49:26.191 PM 02/16/2016,Teleop Disabled,0,FALSE,0,NO ERROR,0.000000,0.000000,-6000.000000,-6000.000000,Speed,Speed,-0.060000,0.740000,1.650000,1.000000,103.000000,1,0,-0.000000,0.000000,1,0.000000,0.000000,0.000000,-0.069183,0.044388,0.000000,0.001000,0.002000,0.008000,FlatInitial,ResetForward,1
06:49:26.292 PM 02/16/2016,Teleop Disabled,0,FALSE,0,NO ERROR,0.000000,0.000000,-6000.000000,-6000.000000,Speed,Speed,-0.060000,0.740000,1.650000,1.000000,101.000000,1,0,-0.000000,0.000000,1,0.000000,0.000000,0.000000,-0.069183,0.044388,0.000000,0.000000,-0.002000,0.006000,FlatInitial,ResetForward,1
06:49:26.393 PM 02/16/2016,Teleop Disabled,0,FALSE,0,NO ERROR,0.000000,0.000000,-6000.000000,-6000.000000,Speed,Speed,-0.060000,0.740000,1.650000,1.000000,102.000000,1,0,-0.000000,0.000000,1,0.000000,0.000000,0.000000,-0.069183,0.044388,0.000000,0.000000,0.000000,0.009000,FlatInitial,ResetForward,1
06:49:26.494 PM 02/16/2016,Teleop Disabled,0,FALSE,0,NO ERROR,0.000000,0.000000,-6000.000000,-6000.000000,Speed,Speed,-0.060000,0.740000,1.660000,1.000000,102.000000,1,0,-0.000000,0.000000,1,0.000000,0.000000,0.000000,-0.069183,0.044388,0.000000,0.000000,0.000000,0.009000,FlatInitial,ResetForward,1
06:49:26.596 PM 02/16/2016,Teleop Disabled,0,FALSE,0,NO ERROR,0.000000,0.000000,-6000.000000,-6000.000000,Speed,Speed,-0.060000,0.740000,1.660000,1.000000,103.000000,1,0,-0.000000,0.000000,1,0.000000,0.000000,0.000000,-0.069183,0.044388,0.000000,0.000000,-0.001000,0.005000,FlatInitial,ResetForward,1
06:49:26.697 PM 02/16/2016,Teleop Disabled,0,FALSE,0,NO ERROR,0.000000,0.000000,-6000.000000,-6000.000000,Speed,Speed,-0.060000,0.740000,1.660000,1.000000,102.000000,1,0,-0.000000,0.000000,1,0.000000,0.000000,0.000000,-0.069183,0.044388,0.000000,0.000000,0.000000,0.008000,FlatInitial,ResetForward,1
06:49:26.798 PM 02/16/2016,Teleop Disabled,0,FALSE,0,NO ERROR,0.000000,0.000000,-6000.000000,-6000.000000,Speed,Speed,-0.060000,0.740000,1.660000,1.000000,100.000000,1,0,-0.000000,0.000000,1,0.000000,0.000000,0.000000,-0.069183,0.044388,0.000000,-0.001000,0.000000,0.007000,FlatInitial,ResetForward,1
06:49:26.898 PM 02/16/2016,Teleop Disabled,0,FALSE,0,NO ERROR,0.000000,0.000000,-6000.000000,-6000.000000,Speed,Speed,-0.060000,0.740000,1.660000,1.000000,101.000000,1,0,-0.000000,0.000000,1,0.000000,0.000000,0.000000,-0.069183,0.044388,0.000000,0.000000,0.001000,0.007000,FlatInitial,ResetForward,1
06:49:26.999 PM 02/16/2016,Teleop Disabled,0,FALSE,0,NO ERROR,0.000000,0.000000,-6000.000000,-6000.000000,Speed,Speed,-0.070000,0.740000,1.660000,1.000000,101.000000,1,0,-0.000000,0.000000,1,0.000000,0.000000,0.000000,-0.069183,0.044388,0.000000,0.001000,-0.001000,0.007000,FlatInitial,ResetForward,1
06:49:27.099 PM 02/16/2016,Teleop Disabled,0,FALSE,0,NO ERROR,0.000000,0.000000,-6000.000000,-6000.000000,Speed,Speed,-0.070000,0.740000,1.660000,1.000000,102.000000,1,0,-0.000000,0.000000,1,0.000000,0.000000,0.000000,-0.069183,0.044388,0.000000,0.000000,0.001000,0.008000,FlatInitial,ResetForward,1
06:49:27.200 PM 02/16/2016,Teleop Disabled,0,FALSE,0,NO ERROR,0.000000,0.000000,-6000.000000,-6000.000000,Speed,Speed,-0.070000,0.740000,1.670000,1.000000,104.000000,1,0,-0.000000,0.000000,1,0.000000,0.000000,0.000000,-0.069183,0.044388,0.000000,0.002000,0.000000,0.005000,FlatInitial,ResetForward,1
06:49:27.300 PM 02/16/2016,Teleop Disabled,0,FALSE,0,NO ERROR,0.000000,0.000000,-6000.000000,-6000.000000,Speed,Speed,-0.070000,0.750000,1.670000,1.000000,101.000000,1,0,-0.000000,0.000000,1,0.000000,0.000000,0.000000,-0.069183,0.044388,0.000000,-0.001000,0.000000,0.004000,FlatInitial,ResetForward,1
06:49:27.400 PM 02/16/2016,Teleop Disabled,0,FALSE,0,NO ERROR,0.000000,0.000000,-6000.000000,-6000.000000,Speed,Speed,-0.070000,0.740000,1.670000,1.000000,102.000000,1,0,-0.000000,0.000000,1,0.000000,0.000000,0.000000,-0.069183,0.044388,0.000000,0.001000,0.000000,0.005000,FlatInitial,ResetForward,1
06:49:27.501 PM 02/16/2016,Teleop Disabled,0,FALSE,0,NO ERROR,0.000000,0.000000,-6000.000000,-6000.000000,Speed,Speed,-0.070000,0.740000,1.670000,1.000000,102.000000,1,0,-0.000000,0.000000,1,0.000000,0.000000,0.000000,-0.069183,0.044388,0.000000,0.001000,0.000000,0.009000,FlatInitial,ResetForward,1
06:49:27.601 PM 02/16/2016,Teleop Disabled,0,FALSE,0,NO ERROR,0.000000,0.000000,-6000.000000,-6000.000000,Speed,Speed,-0.070000,0.750000,1.660000,1.000000,102.000000,1,0,-0.000000,0.000000,1,0.000000,0.000000,0.000000,-0.069183,0.044388,0.000000,0.001000,0.000000,0.010000,FlatInitial,ResetForward,1
06:49:27.703 PM 02/16/2016,Teleop Disabled,0,FALSE,0,NO ERROR,0.000000,0.000000,-6000.000000,-6000.000000,Speed,Speed,-0.070000,0.750000,1.660000,1.000000,101.000000,1,0,-0.000000,0.000000,1,0.000000,0.000000,0.000000,-0.069183,0.044388,0.000000,-0.002000,0.000000,0.004000,FlatInitial,ResetForward,1
06:49:27.803 PM 02/16/2016,Teleop Disabled,0,FALSE,0,NO ERROR,0.000000,0.000000,-6000.000000,-6000.000000,Speed,Speed,-0.080000,0.740000,1.660000,1.000000,101.000000,1,0,-0.000000,0.000000,1,0.000000,0.000000,0.000000,-0.069183,0.044388,0.000000,0.000000,0.000000,0.009000,FlatInitial,ResetForward,1
06:49:27.904 PM 02/16/2016,Teleop Disabled,0,FALSE,0,NO ERROR,0.000000,0.000000,-6000.000000,-6000.000000,Speed,Speed,-0.080000,0.740000,1.660000,1.000000,102.000000,1,0,-0.000000,0.000000,1,0.000000,0.000000,0.000000,-0.069183,0.044388,0.000000,0.000000,0.000000,0.007000,FlatInitial,ResetForward,1
06:49:28.004 PM 02/16/2016,Teleop Disabled,0,FALSE,0,NO ERROR,0.000000,0.000000,-6000.000000,-6000.000000,Speed,Speed,-0.080000,0.740000,1.660000,1.000000,101.000000,1,0,-0.000000,0.000000,1,0.000000,0.000000,0.000000,-0.069183,0.044388,0.000000,-0.001000,0.001000,0.011000,FlatInitial,ResetForward,1
06:49:28.104 PM 02/16/2016,Teleop Disabled,0,FALSE,0,NO ERROR,0.000000,0.000000,-6000.000000,-6000.000000,Speed,Speed,-0.080000,0.740000,1.660000,1.000000,102.000000,1,0,-0.000000,0.000000,1,0.000000,0.000000,0.000000,-0.069183,0.044388,0.000000,0.000000,0.003000,0.004000,FlatInitial,ResetForward,1
06:49:28.204 PM 02/16/2016,Teleop Disabled,0,FALSE,0,NO ERROR,0.000000,0.000000,-6000.000000,-6000.000000,Speed,Speed,-0.080000,0.740000,1.660000,1.000000,102.000000,1,0,-0.000000,0.000000,1,0.000000,0.000000,0.000000,-0.069183,0.044388,0.000000,-0.002000,0.000000,0.007000,FlatInitial,ResetForward,1
06:49:28.305 PM 02/16/2016,Teleop Disabled,0,FALSE,0,NO ERROR,0.000000,0.000000,-6000.000000,-6000.000000,Speed,Speed,-0.080000,0.740000,1.660000,1.000000,106.000000,1,0,-0.000000,0.000000,1,0.000000,0.000000,0.000000,-0.069183,0.044388,0.000000,0.000000,-0.001000,0.007000,FlatInitial,ResetForward,1
06:49:28.407 PM 02/16/2016,Teleop Disabled,0,FALSE,0,NO ERROR,0.000000,0.000000,-6000.000000,-6000.000000,Speed,Speed,-0.080000,0.740000,1.660000,1.000000,100.000000,1,0,-0.000000,0.000000,1,0.000000,0.000000,0.000000,-0.069183,0.044388,0.000000,0.000000,0.003000,0.008000,FlatInitial,ResetForward,1
06:49:28.507 PM 02/16/2016,Teleop Disabled,0,FALSE,0,NO ERROR,0.000000,0.000000,-6000.000000,-6000.000000,Speed,Speed,-0.090000,0.740000,1.660000,1.000000,102.000000,1,0,-0.000000,0.000000,1,0.000000,0.000000,0.000000,-0.069183,0.044388,0.000000,0.003000,0.000000,0.008000,FlatInitial,ResetForward,1
06:49:28.607 PM 02/16/2016,Teleop Disabled,0,FALSE,0,NO ERROR,0.000000,0.000000,-6000.000000,-6000.000000,Speed,Speed,-0.090000,0.740000,1.660000,1.000000,101.000000,1,0,-0.000000,0.000000,1,0.000000,0.000000,0.000000,-0.069183,0.044388,0.000000,0.000000,-0.003000,0.006000,FlatInitial,ResetForward,1
06:49:28.707 PM 02/16/2016,Teleop Disabled,0,FALSE,0,NO ERROR,0.000000,0.000000,-6000.000000,-6000.000000,Speed,Speed,-0.090000,0.740000,1.660000,1.000000,101.000000,1,0,-0.000000,0.000000,1,0.000000,0.000000,0.000000,-0.069183,0.044388,0.000000,0.002000,0.000000,0.010000,FlatInitial,ResetForward,1
06:49:28.807 PM 02/16/2016,Teleop Disabled,0,FALSE,0,NO ERROR,0.000000,0.000000,-6000.000000,-6000.000000,Speed,Speed,-0.090000,0.740000,1.660000,1.000000,101.000000,1,0,-0.000000,0.000000,1,0.000000,0.000000,0.000000,-0.069183,0.044388,0.000000,0.000000,0.000000,0.005000,FlatInitial,ResetForward,1
06:49:28.907 PM 02/16/2016,Teleop Disabled,0,FALSE,0,NO ERROR,0.000000,0.000000,-6000.000000,-6000.000000,Speed,Speed,-0.090000,0.750000,1.660000,1.000000,101.000000,1,0,-0.000000,0.000000,1,0.000000,0.000000,0.000000,-0.069183,0.044388,0.000000,-0.001000,0.001000,0.003000,FlatInitial,ResetForward,1
06:49:29.007 PM 02/16/2016,Teleop Disabled,0,FALSE,0,NO ERROR,0.000000,0.000000,-6000.000000,-6000.000000,Speed,Speed,-0.090000,0.750000,1.660000,1.000000,101.000000,1,0,-0.000000,0.000000,1,0.000000,0.000000,0.000000,-0.069183,0.044388,0.000000,0.000000,0.001000,0.009000,FlatInitial,ResetForward,1
06:49:29.108 PM 02/16/2016,Teleop Disabled,0,FALSE,0,NO ERROR,0.000000,0.000000,-6000.000000,-6000.000000,Speed,Speed,-0.090000,0.740000,1.660000,1.000000,102.000000,1,0,-0.000000,0.000000,1,0.000000,0.000000,0.000000,-0.069183,0.044388,0.000000,-0.001000,0.000000,0.007000,FlatInitial,ResetForward,1
06:49:29.208 PM 02/16/2016,Teleop Disabled,0,FALSE,0,NO ERROR,0.000000,0.000000,-6000.000000,-6000.000000,Speed,Speed,-0.090000,0.740000,1.660000,1.000000,104.000000,1,0,-0.000000,0.000000,1,0.000000,0.000000,0.000000,-0.069183,0.044388,0.000000,0.001000,0.000000,0.005000,FlatInitial,ResetForward,1
06:49:29.309 PM 02/16/2016,Teleop Disabled,0,FALSE,0,NO ERROR,0.000000,0.000000,-6000.000000,-6000.000000,Speed,Speed,-0.090000,0.750000,1.660000,1.000000,101.000000,1,0,-0.000000,0.000000,1,0.000000,0.000000,0.000000,-0.069183,0.044388,0.000000,0.003000,-0.003000,0.008000,FlatInitial,ResetForward,1
06:49:29.409 PM 02/16/2016,Teleop Disabled,0,FALSE,0,NO ERROR,0.000000,0.000000,-6000.000000,-6000.000000,Speed,Speed,-0.090000,0.750000,1.660000,1.000000,101.000000,1,0,-0.000000,0.000000,1,0.000000,0.000000,0.000000,-0.069183,0.044388,0.000000,-0.001000,0.001000,0.011000,FlatInitial,ResetForward,1
06:49:29.509 PM 02/16/2016,Teleop Disabled,0,FALSE,0,NO ERROR,0.000000,0.000000,-6000.000000,-6000.000000,Speed,Speed,-0.090000,0.750000,1.660000,1.000000,103.000000,1,0,-0.000000,0.000000,1,0.000000,0.000000,0.000000,-0.069183,0.044388,0.000000,0.000000,-0.001000,0.003000,FlatInitial,ResetForward,1
06:49:29.609 PM 02/16/2016,Teleop Disabled,0,FALSE,0,NO ERROR,0.000000,0.000000,-6000.000000,-6000.000000,Speed,Speed,-0.090000,0.750000,1.660000,1.000000,102.000000,1,0,-0.000000,0.000000,1,0.000000,0.000000,0.000000,-0.069183,0.044388,0.000000,0.000000,0.001000,0.006000,FlatInitial,ResetForward,1
06:49:29.710 PM 02/16/2016,Teleop Disabled,0,FALSE,0,NO ERROR,0.000000,0.000000,-6000.000000,-6000.000000,Speed,Speed,-0.100000,0.740000,1.660000,1.000000,102.000000,1,0,-0.000000,0.000000,1,0.000000,0.000000,0.000000,-0.069183,0.044388,0.000000,-0.001000,0.004000,0.006000,FlatInitial,ResetForward,1
06:49:29.811 PM 02/16/2016,Teleop Disabled,0,FALSE,0,NO ERROR,0.000000,0.000000,-6000.000000,-6000.000000,Speed,Speed,-0.100000,0.750000,1.660000,1.000000,103.000000,1,0,-0.000000,0.000000,1,0.000000,0.000000,0.000000,-0.069183,0.044388,0.000000,0.000000,-0.003000,0.009000,FlatInitial,ResetForward,1
06:49:29.911 PM 02/16/2016,Teleop Disabled,0,FALSE,0,NO ERROR,0.000000,0.000000,-6000.000000,-6000.000000,Speed,Speed,-0.100000,0.750000,1.650000,1.000000,101.000000,1,0,-0.000000,0.000000,1,0.000000,0.000000,0.000000,-0.069183,0.044388,0.000000,0.000000,-0.001000,0.005000,FlatInitial,ResetForward,1
06:49:30.012 PM 02/16/2016,Teleop Disabled,0,FALSE,0,NO ERROR,0.000000,0.000000,-6000.000000,-6000.000000,Speed,Speed,-0.110000,0.750000,1.650000,1.000000,102.000000,1,0,-0.000000,0.000000,1,0.000000,0.000000,0.000000,-0.069183,0.044388,0.000000,0.000000,0.001000,0.004000,FlatInitial,ResetForward,1
06:49:30.113 PM 02/16/2016,Teleop Disabled,0,FALSE,0,NO ERROR,0.000000,0.000000,-6000.000000,-6000.000000,Speed,Speed,-0.110000,0.750000,1.650000,1.000000,102.000000,1,0,-0.000000,0.000000,1,0.000000,0.000000,0.000000,-0.069183,0.044388,0.000000,0.001000,0.000000,0.003000,FlatInitial,ResetForward,1
06:49:30.212 PM 02/16/2016,Teleop Disabled,0,FALSE,0,NO ERROR,0.000000,0.000000,-6000.000000,-6000.000000,Speed,Speed,-0.110000,0.750000,1.660000,1.000000,101.000000,1,0,-0.000000,0.000000,1,0.000000,0.000000,0.000000,-0.069183,0.044388,0.000000,0.000000,0.001000,0.005000,FlatInitial,ResetForward,1
06:49:30.312 PM 02/16/2016,Teleop Disabled,0,FALSE,0,NO ERROR,0.000000,0.000000,-6000.000000,-6000.000000,Speed,Speed,-0.110000,0.750000,1.660000,1.000000,102.000000,1,0,-0.000000,0.000000,1,0.000000,0.000000,0.000000,-0.069183,0.044388,0.000000,-0.001000,0.000000,0.007000,FlatInitial,ResetForward,1
06:49:30.412 PM 02/16/2016,Teleop Disabled,0,FALSE,0,NO ERROR,0.000000,0.000000,-6000.000000,-6000.000000,Speed,Speed,-0.110000,0.750000,1.660000,1.000000,104.000000,1,0,-0.000000,0.000000,1,0.000000,0.000000,0.000000,-0.069183,0.044388,0.000000,0.000000,0.000000,0.006000,FlatInitial,ResetForward,1
06:49:30.512 PM 02/16/2016,Teleop Disabled,0,FALSE,0,NO ERROR,0.000000,0.000000,-6000.000000,-6000.000000,Speed,Speed,-0.110000,0.750000,1.660000,1.000000,103.000000,1,0,-0.000000,0.000000,1,0.000000,0.000000,0.000000,-0.069183,0.044388,0.000000,-0.001000,0.001000,0.005000,FlatInitial,ResetForward,1
06:49:30.613 PM 02/16/2016,Teleop Disabled,0,FALSE,0,NO ERROR,0.000000,0.000000,-6000.000000,-6000.000000,Speed,Speed,-0.110000,0.740000,1.660000,1.000000,101.000000,1,0,-0.000000,0.000000,1,0.000000,0.000000,0.000000,-0.069183,0.044388,0.000000,-0.002000,0.001000,0.003000,FlatInitial,ResetForward,1
06:49:30.712 PM 02/16/2016,Teleop Disabled,0,FALSE,0,NO ERROR,0.000000,0.000000,-6000.000000,-6000.000000,Speed,Speed,-0.110000,0.740000,1.670000,1.000000,102.000000,1,0,-0.000000,0.000000,1,0.000000,0.000000,0.000000,-0.069183,0.044388,0.000000,0.002000,-0.001000,0.009000,FlatInitial,ResetForward,1
06:49:30.814 PM 02/16/2016,Teleop Disabled,0,FALSE,0,NO ERROR,0.000000,0.000000,-6000.000000,-6000.000000,Speed,Speed,-0.110000,0.740000,1.660000,1.000000,102.000000,1,0,-0.000000,0.000000,1,0.000000,0.000000,0.000000,-0.069183,0.044388,0.000000,0.001000,-0.002000,0.006000,FlatInitial,ResetForward,1
06:49:30.913 PM 02/16/2016,Teleop Disabled,0,FALSE,0,NO ERROR,0.000000,0.000000,-6000.000000,-6000.000000,Speed,Speed,-0.110000,0.740000,1.670000,1.000000,101.000000,1,0,-0.000000,0.000000,1,0.000000,0.000000,0.000000,-0.069183,0.044388,0.000000,-0.001000,0.001000,0.009000,FlatInitial,ResetForward,1
06:49:31.014 PM 02/16/2016,Teleop Disabled,0,FALSE,0,NO ERROR,0.000000,0.000000,-6000.000000,-6000.000000,Speed,Speed,-0.110000,0.740000,1.670000,1.000000,102.000000,1,0,-0.000000,0.000000,1,0.000000,0.000000,0.000000,-0.069183,0.044388,0.000000,0.000000,0.001000,0.009000,FlatInitial,ResetForward,1
06:49:31.113 PM 02/16/2016,Teleop Disabled,0,FALSE,0,NO ERROR,0.000000,0.000000,-6000.000000,-6000.000000,Speed,Speed,-0.110000,0.740000,1.670000,1.000000,101.000000,1,0,-0.000000,0.000000,1,0.000000,0.000000,0.000000,-0.069183,0.044388,0.000000,-0.001000,0.001000,0.003000,FlatInitial,ResetForward,1
06:49:31.214 PM 02/16/2016,Teleop Disabled,0,FALSE,0,NO ERROR,0.000000,0.000000,-6000.000000,-6000.000000,Speed,Speed,-0.110000,0.750000,1.670000,1.000000,102.000000,1,0,-0.000000,0.000000,1,0.000000,0.000000,0.000000,-0.069183,0.044388,0.000000,0.000000,0.000000,0.006000,FlatInitial,ResetForward,1
06:49:31.315 PM 02/16/2016,Teleop Disabled,0,FALSE,0,NO ERROR,0.000000,0.000000,-6000.000000,-6000.000000,Speed,Speed,-0.120000,0.750000,1.670000,1.000000,102.000000,1,0,-0.000000,0.000000,1,0.000000,0.000000,0.000000,-0.069183,0.044388,0.000000,0.000000,-0.003000,0.010000,FlatInitial,ResetForward,1
06:49:31.415 PM 02/16/2016,Teleop Disabled,0,FALSE,0,NO ERROR,0.000000,0.000000,-6000.000000,-6000.000000,Speed,Speed,-0.120000,0.750000,1.670000,1.000000,100.000000,1,0,-0.000000,0.000000,1,0.000000,0.000000,0.000000,-0.069183,0.044388,0.000000,0.000000,-0.002000,0.005000,FlatInitial,ResetForward,1
06:49:31.516 PM 02/16/2016,Teleop Disabled,0,FALSE,0,NO ERROR,0.000000,0.000000,-6000.000000,-6000.000000,Speed,Speed,-0.120000,0.750000,1.670000,1.000000,101.000000,1,0,-0.000000,0.000000,1,0.000000,0.000000,0.000000,-0.069183,0.044388,0.000000,0.001000,0.002000,0.009000,FlatInitial,ResetForward,1
06:49:31.616 PM 02/16/2016,Teleop Disabled,0,FALSE,0,NO ERROR,0.000000,0.000000,-6000.000000,-6000.000000,Speed,Speed,-0.120000,0.750000,1.670000,1.000000,104.000000,1,0,-0.000000,0.000000,1,0.000000,0.000000,0.000000,-0.069183,0.044388,0.000000,0.000000,0.000000,0.009000,FlatInitial,ResetForward,1
06:49:31.716 PM 02/16/2016,Teleop Disabled,0,FALSE,0,NO ERROR,0.000000,0.000000,-6000.000000,-6000.000000,Speed,Speed,-0.120000,0.750000,1.670000,1.000000,102.000000,1,0,-0.000000,0.000000,1,0.000000,0.000000,0.000000,-0.069183,0.044388,0.000000,0.000000,0.000000,0.004000,FlatInitial,ResetForward,1
06:49:31.817 PM 02/16/2016,Teleop Disabled,0,FALSE,0,NO ERROR,0.000000,0.000000,-6000.000000,-6000.000000,Speed,Speed,-0.120000,0.750000,1.670000,1.000000,101.000000,1,0,-0.000000,0.000000,1,0.000000,0.000000,0.000000,-0.069183,0.044388,0.000000,0.000000,-0.002000,0.003000,FlatInitial,ResetForward,1
06:49:31.918 PM 02/16/2016,Teleop Disabled,0,FALSE,0,NO ERROR,0.000000,0.000000,-6000.000000,-6000.000000,Speed,Speed,-0.130000,0.740000,1.670000,1.000000,102.000000,1,0,-0.000000,0.000000,1,0.000000,0.000000,0.000000,-0.069183,0.044388,0.000000,0.000000,0.000000,0.005000,FlatInitial,ResetForward,1
06:49:32.018 PM 02/16/2016,Teleop Disabled,0,FALSE,0,NO ERROR,0.000000,0.000000,-6000.000000,-6000.000000,Speed,Speed,-0.120000,0.740000,1.670000,1.000000,101.000000,1,0,-0.000000,0.000000,1,0.000000,0.000000,0.000000,-0.069183,0.044388,0.000000,0.000000,-0.002000,0.011000,FlatInitial,ResetForward,1
06:49:32.119 PM 02/16/2016,Teleop Disabled,0,FALSE,0,NO ERROR,0.000000,0.000000,-6000.000000,-6000.000000,Speed,Speed,-0.120000,0.740000,1.670000,1.000000,101.000000,1,0,-0.000000,0.000000,1,0.000000,0.000000,0.000000,-0.069183,0.044388,0.000000,0.001000,0.000000,0.011000,FlatInitial,ResetForward,1
06:49:32.219 PM 02/16/2016,Teleop Disabled,0,FALSE,0,NO ERROR,0.000000,0.000000,-6000.000000,-6000.000000,Speed,Speed,-0.120000,0.750000,1.670000,1.000000,101.000000,1,0,-0.000000,0.000000,1,0.000000,0.000000,0.000000,-0.069183,0.044388,0.000000,0.000000,0.000000,0.005000,FlatInitial,ResetForward,1
06:49:32.321 PM 02/16/2016,Teleop Disabled,0,FALSE,0,NO ERROR,0.000000,0.000000,-6000.000000,-6000.000000,Speed,Speed,-0.120000,0.740000,1.670000,1.000000,101.000000,1,0,-0.000000,0.000000,1,0.000000,0.000000,0.000000,-0.069183,0.044388,0.000000,0.000000,0.000000,0.007000,FlatInitial,ResetForward,1
06:49:32.421 PM 02/16/2016,Teleop Disabled,0,FALSE,0,NO ERROR,0.000000,0.000000,-6000.000000,-6000.000000,Speed,Speed,-0.120000,0.740000,1.670000,1.000000,104.000000,1,0,-0.000000,0.000000,1,0.000000,0.000000,0.000000,-0.069183,0.044388,0.000000,0.000000,0.000000,0.007000,FlatInitial,ResetForward,1
06:49:32.522 PM 02/16/2016,Teleop Disabled,0,FALSE,0,NO ERROR,0.000000,0.000000,-6000.000000,-6000.000000,Speed,Speed,-0.120000,0.740000,1.670000,1.000000,104.000000,1,0,-0.000000,0.000000,1,0.000000,0.000000,0.000000,-0.069183,0.044388,0.000000,-0.002000,-0.001000,0.007000,FlatInitial,ResetForward,1
06:49:32.622 PM 02/16/2016,Teleop Disabled,0,FALSE,0,NO ERROR,0.000000,0.000000,-6000.000000,-6000.000000,Speed,Speed,-0.130000,0.750000,1.680000,1.000000,100.000000,1,0,-0.000000,0.000000,1,0.000000,0.000000,0.000000,-0.069183,0.044388,0.000000,-0.001000,-0.001000,0.008000,FlatInitial,ResetForward,1
06:49:32.721 PM 02/16/2016,Teleop Disabled,0,FALSE,0,NO ERROR,0.000000,0.000000,-6000.000000,-6000.000000,Speed,Speed,-0.130000,0.750000,1.680000,1.000000,103.000000,1,0,-0.000000,0.000000,1,0.000000,0.000000,0.000000,-0.069183,0.044388,0.000000,0.000000,0.000000,0.006000,FlatInitial,ResetForward,1
06:49:32.822 PM 02/16/2016,Teleop Disabled,0,FALSE,0,NO ERROR,0.000000,0.000000,-6000.000000,-6000.000000,Speed,Speed,-0.130000,0.740000,1.670000,1.000000,102.000000,1,0,-0.000000,0.000000,1,0.000000,0.000000,0.000000,-0.069183,0.044388,0.000000,0.000000,0.000000,0.010000,FlatInitial,ResetForward,1
06:49:32.922 PM 02/16/2016,Teleop Disabled,0,FALSE,0,NO ERROR,0.000000,0.000000,-6000.000000,-6000.000000,Speed,Speed,-0.130000,0.750000,1.680000,1.000000,102.000000,1,0,-0.000000,0.000000,1,0.000000,0.000000,0.000000,-0.069183,0.044388,0.000000,-0.001000,0.001000,0.008000,FlatInitial,ResetForward,1
06:49:33.023 PM 02/16/2016,Teleop Disabled,0,FALSE,0,NO ERROR,0.000000,0.000000,-6000.000000,-6000.000000,Speed,Speed,-0.130000,0.750000,1.680000,1.000000,102.000000,1,0,-0.000000,0.000000,1,0.000000,0.000000,0.000000,-0.069183,0.044388,0.000000,0.000000,-0.001000,0.007000,FlatInitial,ResetForward,1
06:49:33.125 PM 02/16/2016,Teleop Disabled,0,FALSE,0,NO ERROR,0.000000,0.000000,-6000.000000,-6000.000000,Speed,Speed,-0.120000,0.750000,1.680000,1.000000,102.000000,1,0,-0.000000,0.000000,1,0.000000,0.000000,0.000000,-0.069183,0.044388,0.000000,-0.002000,0.000000,0.008000,FlatInitial,ResetForward,1
06:49:33.224 PM 02/16/2016,Teleop Disabled,0,FALSE,0,NO ERROR,0.000000,0.000000,-6000.000000,-6000.000000,Speed,Speed,-0.130000,0.740000,1.670000,1.000000,103.000000,1,0,-0.000000,0.000000,1,0.000000,0.000000,0.000000,-0.069183,0.044388,0.000000,0.000000,0.000000,0.006000,FlatInitial,ResetForward,1
06:49:33.324 PM 02/16/2016,Teleop Disabled,0,FALSE,0,NO ERROR,0.000000,0.000000,-6000.000000,-6000.000000,Speed,Speed,-0.130000,0.740000,1.670000,1.000000,101.000000,1,0,-0.000000,0.000000,1,0.000000,0.000000,0.000000,-0.069183,0.044388,0.000000,-0.001000,0.001000,0.010000,FlatInitial,ResetForward,1
06:49:33.424 PM 02/16/2016,Teleop Disabled,0,FALSE,0,NO ERROR,0.000000,0.000000,-6000.000000,-6000.000000,Speed,Speed,-0.130000,0.740000,1.670000,1.000000,102.000000,1,0,-0.000000,0.000000,1,0.000000,0.000000,0.000000,-0.069183,0.044388,0.000000,-0.001000,0.001000,0.004000,FlatInitial,ResetForward,1
06:49:33.524 PM 02/16/2016,Teleop Disabled,0,FALSE,0,NO ERROR,0.000000,0.000000,-6000.000000,-6000.000000,Speed,Speed,-0.130000,0.740000,1.670000,1.000000,101.000000,1,0,-0.000000,0.000000,1,0.000000,0.000000,0.000000,-0.069183,0.044388,0.000000,0.000000,0.000000,0.006000,FlatInitial,ResetForward,1
06:49:33.624 PM 02/16/2016,Teleop Disabled,0,FALSE,0,NO ERROR,0.000000,0.000000,-6000.000000,-6000.000000,Speed,Speed,-0.130000,0.750000,1.680000,1.000000,103.000000,1,0,-0.000000,0.000000,1,0.000000,0.000000,0.000000,-0.069183,0.044388,0.000000,0.000000,0.000000,0.002000,FlatInitial,ResetForward,1
06:49:33.725 PM 02/16/2016,Teleop Disabled,0,FALSE,0,NO ERROR,0.000000,0.000000,-6000.000000,-6000.000000,Speed,Speed,-0.130000,0.750000,1.680000,1.000000,102.000000,1,0,-0.000000,0.000000,1,0.000000,0.000000,0.000000,-0.069183,0.044388,0.000000,0.000000,0.000000,0.007000,FlatInitial,ResetForward,1
06:49:33.824 PM 02/16/2016,Teleop Disabled,0,FALSE,0,NO ERROR,0.000000,0.000000,-6000.000000,-6000.000000,Speed,Speed,-0.130000,0.750000,1.680000,1.000000,104.000000,1,0,-0.000000,0.000000,1,0.000000,0.000000,0.000000,-0.069183,0.044388,0.000000,0.002000,0.000000,0.003000,FlatInitial,ResetForward,1
06:49:33.925 PM 02/16/2016,Teleop Disabled,0,FALSE,0,NO ERROR,0.000000,0.000000,-6000.000000,-6000.000000,Speed,Speed,-0.130000,0.750000,1.680000,1.000000,102.000000,1,0,-0.000000,0.000000,1,0.000000,0.000000,0.000000,-0.069183,0.044388,0.000000,0.000000,0.002000,0.007000,FlatInitial,ResetForward,1
06:49:34.027 PM 02/16/2016,Teleop Disabled,0,FALSE,0,NO ERROR,0.000000,0.000000,-6000.000000,-6000.000000,Speed,Speed,-0.130000,0.740000,1.680000,1.000000,101.000000,1,0,-0.000000,0.000000,1,0.000000,0.000000,0.000000,-0.069183,0.044388,0.000000,0.000000,-0.002000,0.009000,FlatInitial,ResetForward,1
06:49:34.127 PM 02/16/2016,Teleop Disabled,0,FALSE,0,NO ERROR,0.000000,0.000000,-6000.000000,-6000.000000,Speed,Speed,-0.130000,0.750000,1.680000,1.000000,102.000000,1,0,-0.000000,0.000000,1,0.000000,0.000000,0.000000,-0.069183,0.044388,0.000000,0.002000,-0.001000,0.009000,FlatInitial,ResetForward,1
06:49:34.228 PM 02/16/2016,Teleop Disabled,0,FALSE,0,NO ERROR,0.000000,0.000000,-6000.000000,-6000.000000,Speed,Speed,-0.130000,0.750000,1.680000,1.000000,102.000000,1,0,-0.000000,0.000000,1,0.000000,0.000000,0.000000,-0.069183,0.044388,0.000000,-0.002000,0.000000,0.006000,FlatInitial,ResetForward,1
06:49:34.328 PM 02/16/2016,Teleop Disabled,0,FALSE,0,NO ERROR,0.000000,0.000000,-6000.000000,-6000.000000,Speed,Speed,-0.130000,0.750000,1.680000,1.000000,101.000000,1,0,-0.000000,0.000000,1,0.000000,0.000000,0.000000,-0.069183,0.044388,0.000000,0.000000,0.001000,0.006000,FlatInitial,ResetForward,1
06:49:34.428 PM 02/16/2016,Teleop Disabled,0,FALSE,0,NO ERROR,0.000000,0.000000,-6000.000000,-6000.000000,Speed,Speed,-0.130000,0.750000,1.670000,1.000000,102.000000,1,0,-0.000000,0.000000,1,0.000000,0.000000,0.000000,-0.069183,0.044388,0.000000,-0.001000,-0.001000,0.008000,FlatInitial,ResetForward,1
06:49:34.529 PM 02/16/2016,Teleop Disabled,0,FALSE,0,NO ERROR,0.000000,0.000000,-6000.000000,-6000.000000,Speed,Speed,-0.130000,0.750000,1.670000,1.000000,101.000000,1,0,-0.000000,0.000000,1,0.000000,0.000000,0.000000,-0.069183,0.044388,0.000000,0.001000,-0.001000,0.011000,FlatInitial,ResetForward,1
06:49:34.629 PM 02/16/2016,Teleop Disabled,0,FALSE,0,NO ERROR,0.000000,0.000000,-6000.000000,-6000.000000,Speed,Speed,-0.130000,0.740000,1.660000,1.000000,101.000000,1,0,-0.000000,0.000000,1,0.000000,0.000000,0.000000,-0.069183,0.044388,0.000000,0.000000,0.000000,0.010000,FlatInitial,ResetForward,1
06:49:34.730 PM 02/16/2016,Teleop Disabled,0,FALSE,0,NO ERROR,0.000000,0.000000,-6000.000000,-6000.000000,Speed,Speed,-0.130000,0.740000,1.670000,1.000000,101.000000,1,0,-0.000000,0.000000,1,0.000000,0.000000,0.000000,-0.069183,0.044388,0.000000,0.002000,-0.002000,0.008000,FlatInitial,ResetForward,1
06:49:34.831 PM 02/16/2016,Teleop Disabled,0,FALSE,0,NO ERROR,0.000000,0.000000,-6000.000000,-6000.000000,Speed,Speed,-0.130000,0.740000,1.660000,1.000000,101.000000,1,0,-0.000000,0.000000,1,0.000000,0.000000,0.000000,-0.069183,0.044388,0.000000,-0.002000,0.000000,0.004000,FlatInitial,ResetForward,1
06:49:34.932 PM 02/16/2016,Teleop Disabled,0,FALSE,0,NO ERROR,0.000000,0.000000,-6000.000000,-6000.000000,Speed,Speed,-0.130000,0.740000,1.660000,1.000000,101.000000,1,0,-0.000000,0.000000,1,0.000000,0.000000,0.000000,-0.069183,0.044388,0.000000,-0.002000,0.000000,0.004000,FlatInitial,ResetForward,1
06:49:35.032 PM 02/16/2016,Teleop Disabled,0,FALSE,0,NO ERROR,0.000000,0.000000,-6000.000000,-6000.000000,Speed,Speed,-0.130000,0.740000,1.660000,1.000000,101.000000,1,0,-0.000000,0.000000,1,0.000000,0.000000,0.000000,-0.069183,0.044388,0.000000,0.000000,0.001000,0.009000,FlatInitial,ResetForward,1
06:49:35.133 PM 02/16/2016,Teleop Disabled,0,FALSE,0,NO ERROR,0.000000,0.000000,-6000.000000,-6000.000000,Speed,Speed,-0.130000,0.740000,1.670000,1.000000,103.000000,1,0,-0.000000,0.000000,1,0.000000,0.000000,0.000000,-0.069183,0.044388,0.000000,-0.001000,-0.001000,0.005000,FlatInitial,ResetForward,1
06:49:35.232 PM 02/16/2016,Teleop Disabled,0,FALSE,0,NO ERROR,0.000000,0.000000,-6000.000000,-6000.000000,Speed,Speed,-0.130000,0.750000,1.670000,1.000000,104.000000,1,0,-0.000000,0.000000,1,0.000000,0.000000,0.000000,-0.069183,0.044388,0.000000,0.001000,0.000000,0.006000,FlatInitial,ResetForward,1
06:49:35.333 PM 02/16/2016,Teleop Disabled,0,FALSE,0,NO ERROR,0.000000,0.000000,-6000.000000,-6000.000000,Speed,Speed,-0.130000,0.750000,1.680000,1.000000,102.000000,1,0,-0.000000,0.000000,1,0.000000,0.000000,0.000000,-0.069183,0.044388,0.000000,0.000000,-0.002000,0.004000,FlatInitial,ResetForward,1
06:49:35.432 PM 02/16/2016,Teleop Disabled,0,FALSE,0,NO ERROR,0.000000,0.000000,-6000.000000,-6000.000000,Speed,Speed,-0.130000,0.750000,1.680000,1.000000,101.000000,1,0,-0.000000,0.000000,1,0.000000,0.000000,0.000000,-0.069183,0.044388,0.000000,0.000000,-0.002000,0.004000,FlatInitial,ResetForward,1
06:49:35.533 PM 02/16/2016,Teleop Disabled,0,FALSE,0,NO ERROR,0.000000,0.000000,-6000.000000,-6000.000000,Speed,Speed,-0.130000,0.750000,1.670000,1.000000,101.000000,1,0,-0.000000,0.000000,1,0.000000,0.000000,0.000000,-0.069183,0.044388,0.000000,-0.002000,0.000000,0.005000,FlatInitial,ResetForward,1
06:49:35.632 PM 02/16/2016,Teleop Disabled,0,FALSE,0,NO ERROR,0.000000,0.000000,-6000.000000,-6000.000000,Speed,Speed,-0.130000,0.750000,1.670000,1.000000,101.000000,1,0,-0.000000,0.000000,1,0.000000,0.000000,0.000000,-0.069183,0.044388,0.000000,0.001000,0.000000,0.003000,FlatInitial,ResetForward,1
06:49:35.733 PM 02/16/2016,Teleop Disabled,0,FALSE,0,NO ERROR,0.000000,0.000000,-6000.000000,-6000.000000,Speed,Speed,-0.130000,0.750000,1.670000,1.000000,101.000000,1,0,-0.000000,0.000000,1,0.000000,0.000000,0.000000,-0.069183,0.044388,0.000000,0.000000,-0.001000,0.011000,FlatInitial,ResetForward,1
06:49:35.832 PM 02/16/2016,Teleop Disabled,0,FALSE,0,NO ERROR,0.000000,0.000000,-6000.000000,-6000.000000,Speed,Speed,-0.130000,0.750000,1.670000,1.000000,101.000000,1,0,-0.000000,0.000000,1,0.000000,0.000000,0.000000,-0.069183,0.044388,0.000000,0.000000,0.001000,0.005000,FlatInitial,ResetForward,1
06:49:35.932 PM 02/16/2016,Teleop Disabled,0,FALSE,0,NO ERROR,0.000000,0.000000,-6000.000000,-6000.000000,Speed,Speed,-0.140000,0.740000,1.670000,1.000000,102.000000,1,0,-0.000000,0.000000,1,0.000000,0.000000,0.000000,-0.069183,0.044388,0.000000,-0.003000,0.003000,0.006000,FlatInitial,ResetForward,1
06:49:36.033 PM 02/16/2016,Teleop Disabled,0,FALSE,0,NO ERROR,0.000000,0.000000,-6000.000000,-6000.000000,Speed,Speed,-0.140000,0.750000,1.670000,1.000000,101.000000,1,0,-0.000000,0.000000,1,0.000000,0.000000,0.000000,-0.069183,0.044388,0.000000,0.000000,0.000000,0.001000,FlatInitial,ResetForward,1
06:49:36.133 PM 02/16/2016,Teleop Disabled,0,FALSE,0,NO ERROR,0.000000,0.000000,-6000.000000,-6000.000000,Speed,Speed,-0.140000,0.740000,1.660000,1.000000,101.000000,1,0,-0.000000,0.000000,1,0.000000,0.000000,0.000000,-0.069183,0.044388,0.000000,-0.001000,0.000000,0.009000,FlatInitial,ResetForward,1
06:49:36.233 PM 02/16/2016,Teleop Disabled,0,FALSE,0,NO ERROR,0.000000,0.000000,-6000.000000,-6000.000000,Speed,Speed,-0.140000,0.740000,1.660000,1.000000,102.000000,1,0,-0.000000,0.000000,1,0.000000,0.000000,0.000000,-0.069183,0.044388,0.000000,0.005000,0.001000,0.005000,FlatInitial,ResetForward,1
06:49:36.333 PM 02/16/2016,Teleop Disabled,0,FALSE,0,NO ERROR,0.000000,0.000000,-6000.000000,-6000.000000,Speed,Speed,-0.140000,0.750000,1.670000,1.000000,104.000000,1,0,-0.000000,0.000000,1,0.000000,0.000000,0.000000,-0.069183,0.044388,0.000000,0.000000,0.000000,0.006000,FlatInitial,ResetForward,1
06:49:36.435 PM 02/16/2016,Teleop Disabled,0,FALSE,0,NO ERROR,0.000000,0.000000,-6000.000000,-6000.000000,Speed,Speed,-0.140000,0.750000,1.680000,1.000000,103.000000,1,0,-0.000000,0.000000,1,0.000000,0.000000,0.000000,-0.069183,0.044388,0.000000,-0.002000,0.000000,0.009000,FlatInitial,ResetForward,1
06:49:36.535 PM 02/16/2016,Teleop Disabled,0,FALSE,0,NO ERROR,0.000000,0.000000,-6000.000000,-6000.000000,Speed,Speed,-0.150000,0.750000,1.670000,1.000000,101.000000,1,0,-0.000000,0.000000,1,0.000000,0.000000,0.000000,-0.069183,0.044388,0.000000,0.000000,-0.003000,0.007000,FlatInitial,ResetForward,1
06:49:36.635 PM 02/16/2016,Teleop Disabled,0,FALSE,0,NO ERROR,0.000000,0.000000,-6000.000000,-6000.000000,Speed,Speed,-0.140000,0.750000,1.670000,1.000000,102.000000,1,0,-0.000000,0.000000,1,0.000000,0.000000,0.000000,-0.069183,0.044388,0.000000,0.003000,0.001000,0.002000,FlatInitial,ResetForward,1
